Time:	2.133	Roll Set Point:	-0.262	Pitch Set Point:	-0.164	Yaw Set Point:	-0.062	X_WP:	0.000	Y_WP:	0.000	Y_WP:	0.500	X:	0.128	Y:	0.086	Z:	0.401	yaw:	3.571	yaw rate:	-0.995	Roll:	3.869	Pitch:	2.261	Yaw:	4.986	Thrust:	5.448
Time:	2.148	Roll Set Point:	-0.262	Pitch Set Point:	-0.164	Yaw Set Point:	-0.063	X_WP:	0.000	Y_WP:	0.000	Y_WP:	0.500	X:	0.128	Y:	0.086	Z:	0.401	yaw:	3.607	yaw rate:	3.631	Roll:	3.951	Pitch:	2.136	Yaw:	5.664	Thrust:	5.694
Time:	2.164	Roll Set Point:	-0.262	Pitch Set Point:	-0.164	Yaw Set Point:	-0.063	X_WP:	0.000	Y_WP:	0.000	Y_WP:	0.500	X:	0.128	Y:	0.086	Z:	0.401	yaw:	3.607	yaw rate:	3.631	Roll:	3.882	Pitch:	2.264	Yaw:	5.076	Thrust:	5.820
Time:	2.180	Roll Set Point:	-0.262	Pitch Set Point:	-0.164	Yaw Set Point:	-0.063	X_WP:	0.000	Y_WP:	0.000	Y_WP:	0.500	X:	0.128	Y:	0.086	Z:	0.401	yaw:	3.595	yaw rate:	-3.988	Roll:	3.871	Pitch:	2.306	Yaw:	4.869	Thrust:	5.997
Time:	2.195	Roll Set Point:	-0.262	Pitch Set Point:	-0.164	Yaw Set Point:	-0.062	X_WP:	0.000	Y_WP:	0.000	Y_WP:	0.500	X:	0.128	Y:	0.086	Z:	0.401	yaw:	3.553	yaw rate:	-4.197	Roll:	3.802	Pitch:	2.418	Yaw:	4.336	Thrust:	6.149
Time:	2.211	Roll Set Point:	-0.262	Pitch Set Point:	-0.164	Yaw Set Point:	-0.062	X_WP:	0.000	Y_WP:	0.000	Y_WP:	0.500	X:	0.128	Y:	0.086	Z:	0.401	yaw:	3.553	yaw rate:	-4.197	Roll:	3.895	Pitch:	2.278	Yaw:	5.058	Thrust:	6.377
Time:	2.227	Roll Set Point:	-0.262	Pitch Set Point:	-0.164	Yaw Set Point:	-0.064	X_WP:	0.000	Y_WP:	0.000	Y_WP:	0.500	X:	0.128	Y:	0.086	Z:	0.401	yaw:	3.641	yaw rate:	3.416	Roll:	4.076	Pitch:	1.974	Yaw:	6.684	Thrust:	6.713
Time:	2.242	Roll Set Point:	-0.262	Pitch Set Point:	-0.164	Yaw Set Point:	-0.063	X_WP:	0.000	Y_WP:	0.000	Y_WP:	0.500	X:	0.128	Y:	0.086	Z:	0.401	yaw:	3.601	yaw rate:	-4.004	Roll:	3.845	Pitch:	2.413	Yaw:	4.495	Thrust:	6.711
Time:	2.258	Roll Set Point:	-0.262	Pitch Set Point:	-0.164	Yaw Set Point:	-0.063	X_WP:	0.000	Y_WP:	0.000	Y_WP:	0.500	X:	0.128	Y:	0.086	Z:	0.401	yaw:	3.601	yaw rate:	-4.004	Roll:	3.913	Pitch:	2.283	Yaw:	5.185	Thrust:	6.936
Time:	2.273	Roll Set Point:	-0.262	Pitch Set Point:	-0.164	Yaw Set Point:	-0.062	X_WP:	0.000	Y_WP:	0.000	Y_WP:	0.500	X:	0.128	Y:	0.086	Z:	0.401	yaw:	3.549	yaw rate:	-9.034	Roll:	3.824	Pitch:	2.442	Yaw:	4.252	Thrust:	6.987
Time:	2.292	Roll Set Point:	-0.262	Pitch Set Point:	-0.164	Yaw Set Point:	-0.063	X_WP:	0.000	Y_WP:	0.000	Y_WP:	0.500	X:	0.128	Y:	0.086	Z:	0.401	yaw:	3.625	yaw rate:	7.608	Roll:	4.051	Pitch:	2.105	Yaw:	6.376	Thrust:	7.802
Time:	2.309	Roll Set Point:	-0.262	Pitch Set Point:	-0.164	Yaw Set Point:	-0.063	X_WP:	0.000	Y_WP:	0.000	Y_WP:	0.500	X:	0.128	Y:	0.086	Z:	0.401	yaw:	3.625	yaw rate:	7.608	Roll:	3.935	Pitch:	2.293	Yaw:	5.303	Thrust:	7.739
Time:	2.326	Roll Set Point:	-0.262	Pitch Set Point:	-0.164	Yaw Set Point:	-0.064	X_WP:	0.000	Y_WP:	0.000	Y_WP:	0.500	X:	0.128	Y:	0.086	Z:	0.401	yaw:	3.686	yaw rate:	10.602	Roll:	3.850	Pitch:	2.344	Yaw:	6.364	Thrust:	7.055
Time:	2.341	Roll Set Point:	-0.262	Pitch Set Point:	-0.164	Yaw Set Point:	-0.064	X_WP:	0.000	Y_WP:	0.000	Y_WP:	0.500	X:	0.128	Y:	0.086	Z:	0.401	yaw:	3.686	yaw rate:	10.602	Roll:	3.938	Pitch:	2.297	Yaw:	5.403	Thrust:	7.851
Time:	2.357	Roll Set Point:	-0.262	Pitch Set Point:	-0.164	Yaw Set Point:	-0.063	X_WP:	0.000	Y_WP:	0.000	Y_WP:	0.500	X:	0.128	Y:	0.086	Z:	0.401	yaw:	3.591	yaw rate:	-9.560	Roll:	3.972	Pitch:	2.356	Yaw:	3.703	Thrust:	8.841
Time:	2.375	Roll Set Point:	-0.262	Pitch Set Point:	-0.164	Yaw Set Point:	-0.063	X_WP:	0.000	Y_WP:	0.000	Y_WP:	0.500	X:	0.128	Y:	0.086	Z:	0.401	yaw:	3.620	yaw rate:	2.924	Roll:	4.022	Pitch:	2.174	Yaw:	5.821	Thrust:	8.619
Time:	2.391	Roll Set Point:	-0.262	Pitch Set Point:	-0.164	Yaw Set Point:	-0.062	X_WP:	0.000	Y_WP:	0.000	Y_WP:	0.500	X:	0.128	Y:	0.086	Z:	0.401	yaw:	3.580	yaw rate:	-3.976	Roll:	3.901	Pitch:	2.407	Yaw:	4.648	Thrust:	8.404
Time:	2.406	Roll Set Point:	-0.262	Pitch Set Point:	-0.164	Yaw Set Point:	-0.062	X_WP:	0.000	Y_WP:	0.000	Y_WP:	0.500	X:	0.128	Y:	0.086	Z:	0.401	yaw:	3.570	yaw rate:	-10.621	Roll:	3.884	Pitch:	2.469	Yaw:	5.138	Thrust:	8.516
Time:	2.422	Roll Set Point:	-0.262	Pitch Set Point:	-0.164	Yaw Set Point:	-0.063	X_WP:	0.000	Y_WP:	0.000	Y_WP:	0.500	X:	0.128	Y:	0.086	Z:	0.401	yaw:	3.637	yaw rate:	6.723	Roll:	4.118	Pitch:	1.989	Yaw:	6.558	Thrust:	8.905
Time:	2.437	Roll Set Point:	-0.262	Pitch Set Point:	-0.164	Yaw Set Point:	-0.063	X_WP:	0.000	Y_WP:	0.000	Y_WP:	0.500	X:	0.128	Y:	0.086	Z:	0.401	yaw:	3.588	yaw rate:	-4.839	Roll:	3.895	Pitch:	2.543	Yaw:	4.573	Thrust:	8.921
Time:	2.453	Roll Set Point:	-0.262	Pitch Set Point:	-0.164	Yaw Set Point:	-0.062	X_WP:	0.000	Y_WP:	0.000	Y_WP:	0.500	X:	0.128	Y:	0.086	Z:	0.401	yaw:	3.580	yaw rate:	-0.827	Roll:	3.917	Pitch:	2.373	Yaw:	5.253	Thrust:	9.076
Time:	2.469	Roll Set Point:	-0.262	Pitch Set Point:	-0.164	Yaw Set Point:	-0.064	X_WP:	0.000	Y_WP:	0.000	Y_WP:	0.500	X:	0.128	Y:	0.086	Z:	0.401	yaw:	3.678	yaw rate:	9.786	Roll:	3.985	Pitch:	2.166	Yaw:	7.187	Thrust:	8.624
Time:	2.484	Roll Set Point:	-0.262	Pitch Set Point:	-0.164	Yaw Set Point:	-0.064	X_WP:	0.000	Y_WP:	0.000	Y_WP:	0.500	X:	0.128	Y:	0.086	Z:	0.401	yaw:	3.678	yaw rate:	9.786	Roll:	3.985	Pitch:	2.324	Yaw:	5.568	Thrust:	9.521
Time:	2.500	Roll Set Point:	-0.262	Pitch Set Point:	-0.164	Yaw Set Point:	-0.063	X_WP:	0.000	Y_WP:	0.000	Y_WP:	0.500	X:	0.128	Y:	0.086	Z:	0.401	yaw:	3.632	yaw rate:	3.786	Roll:	4.130	Pitch:	2.238	Yaw:	4.749	Thrust:	10.530
Time:	2.516	Roll Set Point:	-0.262	Pitch Set Point:	-0.164	Yaw Set Point:	-0.062	X_WP:	0.000	Y_WP:	0.000	Y_WP:	0.500	X:	0.128	Y:	0.086	Z:	0.401	yaw:	3.564	yaw rate:	-6.742	Roll:	3.854	Pitch:	2.579	Yaw:	4.320	Thrust:	9.783
Time:	2.531	Roll Set Point:	-0.262	Pitch Set Point:	-0.164	Yaw Set Point:	-0.064	X_WP:	0.000	Y_WP:	0.000	Y_WP:	0.500	X:	0.128	Y:	0.086	Z:	0.401	yaw:	3.664	yaw rate:	9.992	Roll:	3.947	Pitch:	2.222	Yaw:	7.282	Thrust:	9.411
Time:	2.547	Roll Set Point:	-0.262	Pitch Set Point:	-0.164	Yaw Set Point:	-0.064	X_WP:	0.000	Y_WP:	0.000	Y_WP:	0.500	X:	0.128	Y:	0.086	Z:	0.401	yaw:	3.664	yaw rate:	9.992	Roll:	4.004	Pitch:	2.337	Yaw:	5.628	Thrust:	10.263
Time:	2.562	Roll Set Point:	-0.262	Pitch Set Point:	-0.164	Yaw Set Point:	-0.062	X_WP:	0.000	Y_WP:	0.000	Y_WP:	0.500	X:	0.128	Y:	0.086	Z:	0.401	yaw:	3.579	yaw rate:	-3.711	Roll:	4.107	Pitch:	2.367	Yaw:	4.094	Thrust:	11.105
Time:	2.578	Roll Set Point:	-0.262	Pitch Set Point:	-0.164	Yaw Set Point:	-0.062	X_WP:	0.000	Y_WP:	0.000	Y_WP:	0.500	X:	0.128	Y:	0.086	Z:	0.401	yaw:	3.579	yaw rate:	-3.711	Roll:	4.017	Pitch:	2.344	Yaw:	5.548	Thrust:	10.648
Time:	2.594	Roll Set Point:	-0.262	Pitch Set Point:	-0.164	Yaw Set Point:	-0.063	X_WP:	0.000	Y_WP:	0.000	Y_WP:	0.500	X:	0.128	Y:	0.086	Z:	0.401	yaw:	3.608	yaw rate:	3.692	Roll:	3.881	Pitch:	2.487	Yaw:	6.099	Thrust:	10.232
Time:	2.609	Roll Set Point:	-0.262	Pitch Set Point:	-0.164	Yaw Set Point:	-0.062	X_WP:	0.000	Y_WP:	0.000	Y_WP:	0.500	X:	0.128	Y:	0.086	Z:	0.401	yaw:	3.572	yaw rate:	-3.626	Roll:	4.131	Pitch:	2.289	Yaw:	4.970	Thrust:	11.667
Time:	2.625	Roll Set Point:	-0.262	Pitch Set Point:	-0.164	Yaw Set Point:	-0.063	X_WP:	0.000	Y_WP:	0.000	Y_WP:	0.500	X:	0.128	Y:	0.086	Z:	0.401	yaw:	3.601	yaw rate:	2.914	Roll:	4.084	Pitch:	2.259	Yaw:	6.126	Thrust:	11.250
Time:	2.641	Roll Set Point:	-0.262	Pitch Set Point:	-0.164	Yaw Set Point:	-0.063	X_WP:	0.000	Y_WP:	0.000	Y_WP:	0.500	X:	0.128	Y:	0.086	Z:	0.401	yaw:	3.623	yaw rate:	2.208	Roll:	4.078	Pitch:	2.298	Yaw:	6.058	Thrust:	11.412
Time:	2.656	Roll Set Point:	-0.262	Pitch Set Point:	-0.164	Yaw Set Point:	-0.063	X_WP:	0.000	Y_WP:	0.000	Y_WP:	0.500	X:	0.128	Y:	0.086	Z:	0.401	yaw:	3.626	yaw rate:	0.339	Roll:	3.842	Pitch:	2.546	Yaw:	5.770	Thrust:	10.807
Time:	2.672	Roll Set Point:	-0.262	Pitch Set Point:	-0.164	Yaw Set Point:	-0.063	X_WP:	0.000	Y_WP:	0.000	Y_WP:	0.500	X:	0.128	Y:	0.086	Z:	0.401	yaw:	3.626	yaw rate:	0.339	Roll:	4.045	Pitch:	2.365	Yaw:	5.733	Thrust:	11.749
Time:	2.687	Roll Set Point:	-0.262	Pitch Set Point:	-0.164	Yaw Set Point:	-0.063	X_WP:	0.000	Y_WP:	0.000	Y_WP:	0.500	X:	0.128	Y:	0.086	Z:	0.401	yaw:	3.592	yaw rate:	1.586	Roll:	4.206	Pitch:	2.217	Yaw:	5.138	Thrust:	12.808
Time:	2.703	Roll Set Point:	-0.262	Pitch Set Point:	-0.164	Yaw Set Point:	-0.062	X_WP:	0.000	Y_WP:	0.000	Y_WP:	0.500	X:	0.128	Y:	0.086	Z:	0.401	yaw:	3.567	yaw rate:	-2.560	Roll:	4.029	Pitch:	2.475	Yaw:	5.258	Thrust:	11.834
Time:	2.719	Roll Set Point:	-0.262	Pitch Set Point:	-0.164	Yaw Set Point:	-0.063	X_WP:	0.000	Y_WP:	0.000	Y_WP:	0.500	X:	0.128	Y:	0.086	Z:	0.401	yaw:	3.586	yaw rate:	1.966	Roll:	4.023	Pitch:	2.381	Yaw:	6.065	Thrust:	12.469
Time:	2.734	Roll Set Point:	-0.262	Pitch Set Point:	-0.164	Yaw Set Point:	-0.062	X_WP:	0.000	Y_WP:	0.000	Y_WP:	0.500	X:	0.128	Y:	0.086	Z:	0.401	yaw:	3.550	yaw rate:	-3.627	Roll:	4.077	Pitch:	2.414	Yaw:	5.097	Thrust:	12.382
Time:	2.750	Roll Set Point:	-0.262	Pitch Set Point:	-0.164	Yaw Set Point:	-0.062	X_WP:	0.000	Y_WP:	0.000	Y_WP:	0.500	X:	0.128	Y:	0.086	Z:	0.401	yaw:	3.550	yaw rate:	-3.627	Roll:	4.073	Pitch:	2.381	Yaw:	5.726	Thrust:	12.702
Time:	2.766	Roll Set Point:	-0.262	Pitch Set Point:	-0.164	Yaw Set Point:	-0.063	X_WP:	0.000	Y_WP:	0.000	Y_WP:	0.500	X:	0.128	Y:	0.086	Z:	0.401	yaw:	3.609	yaw rate:	5.870	Roll:	4.141	Pitch:	2.243	Yaw:	6.809	Thrust:	13.099
Time:	2.781	Roll Set Point:	-0.262	Pitch Set Point:	-0.164	Yaw Set Point:	-0.065	X_WP:	0.000	Y_WP:	0.000	Y_WP:	0.500	X:	0.128	Y:	0.086	Z:	0.401	yaw:	3.697	yaw rate:	8.804	Roll:	4.047	Pitch:	2.326	Yaw:	7.442	Thrust:	12.314
Time:	2.797	Roll Set Point:	-0.262	Pitch Set Point:	-0.164	Yaw Set Point:	-0.065	X_WP:	0.000	Y_WP:	0.000	Y_WP:	0.500	X:	0.128	Y:	0.086	Z:	0.401	yaw:	3.697	yaw rate:	8.804	Roll:	4.089	Pitch:	2.384	Yaw:	5.987	Thrust:	13.223
Time:	2.812	Roll Set Point:	-0.261	Pitch Set Point:	-0.164	Yaw Set Point:	-0.063	X_WP:	0.000	Y_WP:	0.000	Y_WP:	0.500	X:	0.128	Y:	0.086	Z:	0.401	yaw:	3.612	yaw rate:	-8.472	Roll:	3.953	Pitch:	2.577	Yaw:	4.471	Thrust:	13.321
Time:	2.828	Roll Set Point:	-0.262	Pitch Set Point:	-0.164	Yaw Set Point:	-0.063	X_WP:	0.000	Y_WP:	0.000	Y_WP:	0.500	X:	0.128	Y:	0.086	Z:	0.401	yaw:	3.620	yaw rate:	1.010	Roll:	4.298	Pitch:	2.198	Yaw:	6.049	Thrust:	14.426
Time:	2.844	Roll Set Point:	-0.262	Pitch Set Point:	-0.164	Yaw Set Point:	-0.063	X_WP:	0.000	Y_WP:	0.000	Y_WP:	0.500	X:	0.128	Y:	0.086	Z:	0.401	yaw:	3.620	yaw rate:	1.010	Roll:	4.107	Pitch:	2.393	Yaw:	5.940	Thrust:	13.804
Time:	2.859	Roll Set Point:	-0.261	Pitch Set Point:	-0.164	Yaw Set Point:	-0.063	X_WP:	0.000	Y_WP:	0.000	Y_WP:	0.500	X:	0.128	Y:	0.086	Z:	0.401	yaw:	3.613	yaw rate:	-4.329	Roll:	3.912	Pitch:	2.615	Yaw:	5.851	Thrust:	13.297
Time:	2.875	Roll Set Point:	-0.261	Pitch Set Point:	-0.164	Yaw Set Point:	-0.063	X_WP:	0.000	Y_WP:	0.000	Y_WP:	0.500	X:	0.128	Y:	0.086	Z:	0.401	yaw:	3.613	yaw rate:	-4.329	Roll:	4.110	Pitch:	2.404	Yaw:	5.964	Thrust:	14.103
Time:	2.891	Roll Set Point:	-0.262	Pitch Set Point:	-0.164	Yaw Set Point:	-0.063	X_WP:	0.000	Y_WP:	0.000	Y_WP:	0.500	X:	0.128	Y:	0.086	Z:	0.401	yaw:	3.582	yaw rate:	-1.209	Roll:	4.265	Pitch:	2.313	Yaw:	5.418	Thrust:	15.084
Time:	2.906	Roll Set Point:	-0.262	Pitch Set Point:	-0.164	Yaw Set Point:	-0.063	X_WP:	0.000	Y_WP:	0.000	Y_WP:	0.500	X:	0.128	Y:	0.086	Z:	0.401	yaw:	3.590	yaw rate:	0.865	Roll:	4.183	Pitch:	2.331	Yaw:	6.123	Thrust:	14.515
Time:	2.922	Roll Set Point:	-0.262	Pitch Set Point:	-0.164	Yaw Set Point:	-0.063	X_WP:	0.000	Y_WP:	0.000	Y_WP:	0.500	X:	0.128	Y:	0.086	Z:	0.401	yaw:	3.590	yaw rate:	0.865	Roll:	4.133	Pitch:	2.410	Yaw:	5.999	Thrust:	14.750
Time:	2.937	Roll Set Point:	-0.262	Pitch Set Point:	-0.164	Yaw Set Point:	-0.062	X_WP:	0.000	Y_WP:	0.000	Y_WP:	0.500	X:	0.128	Y:	0.086	Z:	0.401	yaw:	3.566	yaw rate:	-8.823	Roll:	4.058	Pitch:	2.531	Yaw:	5.569	Thrust:	14.720
Time:	2.953	Roll Set Point:	-0.262	Pitch Set Point:	-0.164	Yaw Set Point:	-0.063	X_WP:	0.000	Y_WP:	0.000	Y_WP:	0.500	X:	0.128	Y:	0.086	Z:	0.401	yaw:	3.598	yaw rate:	3.165	Roll:	4.222	Pitch:	2.327	Yaw:	6.577	Thrust:	15.342
Time:	2.969	Roll Set Point:	-0.262	Pitch Set Point:	-0.164	Yaw Set Point:	-0.062	X_WP:	0.000	Y_WP:	0.000	Y_WP:	0.500	X:	0.128	Y:	0.086	Z:	0.401	yaw:	3.579	yaw rate:	-1.825	Roll:	4.078	Pitch:	2.472	Yaw:	5.735	Thrust:	15.248
Time:	2.984	Roll Set Point:	-0.262	Pitch Set Point:	-0.164	Yaw Set Point:	-0.063	X_WP:	0.000	Y_WP:	0.000	Y_WP:	0.500	X:	0.128	Y:	0.086	Z:	0.401	yaw:	3.587	yaw rate:	0.731	Roll:	4.204	Pitch:	2.411	Yaw:	6.193	Thrust:	15.327
Time:	3.000	Roll Set Point:	-0.262	Pitch Set Point:	-0.164	Yaw Set Point:	-0.062	X_WP:	0.000	Y_WP:	0.000	Y_WP:	0.500	X:	0.128	Y:	0.086	Z:	0.401	yaw:	3.568	yaw rate:	-1.894	Roll:	4.055	Pitch:	2.547	Yaw:	5.746	Thrust:	15.798
Time:	3.016	Roll Set Point:	-0.262	Pitch Set Point:	-0.164	Yaw Set Point:	-0.063	X_WP:	0.000	Y_WP:	0.000	Y_WP:	0.500	X:	0.128	Y:	0.086	Z:	0.401	yaw:	3.592	yaw rate:	2.444	Roll:	4.284	Pitch:	2.273	Yaw:	6.527	Thrust:	15.624
Time:	3.031	Roll Set Point:	-0.262	Pitch Set Point:	-0.164	Yaw Set Point:	-0.063	X_WP:	0.000	Y_WP:	0.000	Y_WP:	0.500	X:	0.128	Y:	0.086	Z:	0.401	yaw:	3.589	yaw rate:	-0.281	Roll:	4.113	Pitch:	2.454	Yaw:	6.086	Thrust:	16.329
Time:	3.047	Roll Set Point:	-0.262	Pitch Set Point:	-0.164	Yaw Set Point:	-0.063	X_WP:	0.000	Y_WP:	0.000	Y_WP:	0.500	X:	0.128	Y:	0.086	Z:	0.401	yaw:	3.612	yaw rate:	2.241	Roll:	4.228	Pitch:	2.342	Yaw:	6.559	Thrust:	16.015
Time:	3.062	Roll Set Point:	-0.262	Pitch Set Point:	-0.164	Yaw Set Point:	-0.064	X_WP:	0.000	Y_WP:	0.000	Y_WP:	0.500	X:	0.128	Y:	0.086	Z:	0.401	yaw:	3.652	yaw rate:	3.996	Roll:	4.039	Pitch:	2.604	Yaw:	6.929	Thrust:	15.962
Time:	3.078	Roll Set Point:	-0.262	Pitch Set Point:	-0.164	Yaw Set Point:	-0.064	X_WP:	0.000	Y_WP:	0.000	Y_WP:	0.500	X:	0.128	Y:	0.086	Z:	0.401	yaw:	3.652	yaw rate:	3.996	Roll:	4.181	Pitch:	2.443	Yaw:	6.279	Thrust:	16.579
Time:	3.094	Roll Set Point:	-0.262	Pitch Set Point:	-0.164	Yaw Set Point:	-0.063	X_WP:	0.000	Y_WP:	0.000	Y_WP:	0.500	X:	0.128	Y:	0.086	Z:	0.401	yaw:	3.591	yaw rate:	-6.102	Roll:	4.312	Pitch:	2.360	Yaw:	5.192	Thrust:	17.160
Time:	3.109	Roll Set Point:	-0.262	Pitch Set Point:	-0.164	Yaw Set Point:	-0.062	X_WP:	0.000	Y_WP:	0.000	Y_WP:	0.500	X:	0.128	Y:	0.086	Z:	0.401	yaw:	3.569	yaw rate:	-2.134	Roll:	4.128	Pitch:	2.559	Yaw:	5.847	Thrust:	17.131
Time:	3.125	Roll Set Point:	-0.262	Pitch Set Point:	-0.164	Yaw Set Point:	-0.062	X_WP:	0.000	Y_WP:	0.000	Y_WP:	0.500	X:	0.128	Y:	0.086	Z:	0.401	yaw:	3.568	yaw rate:	-0.158	Roll:	4.196	Pitch:	2.395	Yaw:	6.194	Thrust:	17.028
Time:	3.141	Roll Set Point:	-0.262	Pitch Set Point:	-0.164	Yaw Set Point:	-0.062	X_WP:	0.000	Y_WP:	0.000	Y_WP:	0.500	X:	0.128	Y:	0.086	Z:	0.401	yaw:	3.568	yaw rate:	-0.158	Roll:	4.204	Pitch:	2.455	Yaw:	6.240	Thrust:	17.330
Time:	3.156	Roll Set Point:	-0.262	Pitch Set Point:	-0.164	Yaw Set Point:	-0.063	X_WP:	0.000	Y_WP:	0.000	Y_WP:	0.500	X:	0.128	Y:	0.086	Z:	0.401	yaw:	3.610	yaw rate:	2.273	Roll:	4.305	Pitch:	2.357	Yaw:	7.033	Thrust:	17.549
Time:	3.172	Roll Set Point:	-0.262	Pitch Set Point:	-0.164	Yaw Set Point:	-0.063	X_WP:	0.000	Y_WP:	0.000	Y_WP:	0.500	X:	0.128	Y:	0.086	Z:	0.401	yaw:	3.581	yaw rate:	-2.900	Roll:	4.155	Pitch:	2.552	Yaw:	5.813	Thrust:	17.799
Time:	3.188	Roll Set Point:	-0.262	Pitch Set Point:	-0.164	Yaw Set Point:	-0.063	X_WP:	0.000	Y_WP:	0.000	Y_WP:	0.500	X:	0.128	Y:	0.086	Z:	0.401	yaw:	3.581	yaw rate:	-2.900	Roll:	4.220	Pitch:	2.469	Yaw:	6.352	Thrust:	18.209
Time:	3.203	Roll Set Point:	-0.261	Pitch Set Point:	-0.164	Yaw Set Point:	-0.064	X_WP:	0.000	Y_WP:	0.000	Y_WP:	0.500	X:	0.128	Y:	0.086	Z:	0.401	yaw:	3.654	yaw rate:	6.543	Roll:	4.065	Pitch:	2.472	Yaw:	7.648	Thrust:	16.937
Time:	3.224	Roll Set Point:	-0.262	Pitch Set Point:	-0.164	Yaw Set Point:	-0.063	X_WP:	0.000	Y_WP:	0.000	Y_WP:	0.500	X:	0.128	Y:	0.086	Z:	0.401	yaw:	3.638	yaw rate:	-1.587	Roll:	4.536	Pitch:	2.412	Yaw:	6.614	Thrust:	22.331
Time:	3.238	Roll Set Point:	-0.262	Pitch Set Point:	-0.164	Yaw Set Point:	-0.063	X_WP:	0.000	Y_WP:	0.000	Y_WP:	0.500	X:	0.128	Y:	0.086	Z:	0.401	yaw:	3.589	yaw rate:	-3.568	Roll:	4.082	Pitch:	2.619	Yaw:	5.455	Thrust:	17.828
Time:	3.252	Roll Set Point:	-0.262	Pitch Set Point:	-0.164	Yaw Set Point:	-0.062	X_WP:	0.000	Y_WP:	0.000	Y_WP:	0.500	X:	0.128	Y:	0.086	Z:	0.401	yaw:	3.581	yaw rate:	-0.846	Roll:	4.199	Pitch:	2.423	Yaw:	6.096	Thrust:	17.003
Time:	3.266	Roll Set Point:	-0.262	Pitch Set Point:	-0.164	Yaw Set Point:	-0.063	X_WP:	0.000	Y_WP:	0.000	Y_WP:	0.500	X:	0.128	Y:	0.086	Z:	0.401	yaw:	3.608	yaw rate:	2.703	Roll:	4.246	Pitch:	2.436	Yaw:	6.813	Thrust:	17.638
Time:	3.281	Roll Set Point:	-0.262	Pitch Set Point:	-0.164	Yaw Set Point:	-0.063	X_WP:	0.000	Y_WP:	0.000	Y_WP:	0.500	X:	0.128	Y:	0.086	Z:	0.401	yaw:	3.582	yaw rate:	-2.611	Roll:	4.182	Pitch:	2.542	Yaw:	5.928	Thrust:	18.576
Time:	3.307	Roll Set Point:	-0.262	Pitch Set Point:	-0.164	Yaw Set Point:	-0.063	X_WP:	0.000	Y_WP:	0.000	Y_WP:	0.500	X:	0.128	Y:	0.086	Z:	0.401	yaw:	3.589	yaw rate:	-3.612	Roll:	4.511	Pitch:	2.631	Yaw:	7.484	Thrust:	28.117
Time:	3.322	Roll Set Point:	-0.262	Pitch Set Point:	-0.164	Yaw Set Point:	-0.063	X_WP:	0.000	Y_WP:	0.000	Y_WP:	0.500	X:	0.128	Y:	0.086	Z:	0.401	yaw:	3.589	yaw rate:	-3.612	Roll:	4.261	Pitch:	2.489	Yaw:	6.486	Thrust:	19.376
Time:	3.338	Roll Set Point:	-0.262	Pitch Set Point:	-0.164	Yaw Set Point:	-0.062	X_WP:	0.000	Y_WP:	0.000	Y_WP:	0.500	X:	0.128	Y:	0.086	Z:	0.401	yaw:	3.554	yaw rate:	-8.464	Roll:	4.208	Pitch:	2.553	Yaw:	5.868	Thrust:	19.445
Time:	3.354	Roll Set Point:	-0.262	Pitch Set Point:	-0.164	Yaw Set Point:	-0.062	X_WP:	0.000	Y_WP:	0.000	Y_WP:	0.500	X:	0.128	Y:	0.086	Z:	0.401	yaw:	3.554	yaw rate:	-8.464	Roll:	4.275	Pitch:	2.499	Yaw:	6.493	Thrust:	19.909
Time:	3.371	Roll Set Point:	-0.262	Pitch Set Point:	-0.164	Yaw Set Point:	-0.063	X_WP:	0.000	Y_WP:	0.000	Y_WP:	0.500	X:	0.128	Y:	0.086	Z:	0.401	yaw:	3.631	yaw rate:	7.687	Roll:	4.507	Pitch:	2.282	Yaw:	7.942	Thrust:	21.876
Time:	3.387	Roll Set Point:	-0.262	Pitch Set Point:	-0.164	Yaw Set Point:	-0.063	X_WP:	0.000	Y_WP:	0.000	Y_WP:	0.500	X:	0.128	Y:	0.086	Z:	0.401	yaw:	3.591	yaw rate:	-0.974	Roll:	4.168	Pitch:	2.664	Yaw:	5.892	Thrust:	19.998
Time:	3.403	Roll Set Point:	-0.262	Pitch Set Point:	-0.164	Yaw Set Point:	-0.062	X_WP:	0.000	Y_WP:	0.000	Y_WP:	0.500	X:	0.128	Y:	0.086	Z:	0.401	yaw:	3.571	yaw rate:	-2.014	Roll:	4.237	Pitch:	2.609	Yaw:	6.211	Thrust:	20.351
Time:	3.418	Roll Set Point:	-0.262	Pitch Set Point:	-0.164	Yaw Set Point:	-0.062	X_WP:	0.000	Y_WP:	0.000	Y_WP:	0.500	X:	0.128	Y:	0.086	Z:	0.401	yaw:	3.567	yaw rate:	-0.364	Roll:	4.298	Pitch:	2.446	Yaw:	6.482	Thrust:	20.422
Time:	3.434	Roll Set Point:	-0.262	Pitch Set Point:	-0.164	Yaw Set Point:	-0.063	X_WP:	0.000	Y_WP:	0.000	Y_WP:	0.500	X:	0.128	Y:	0.086	Z:	0.401	yaw:	3.620	yaw rate:	5.328	Roll:	4.434	Pitch:	2.367	Yaw:	7.510	Thrust:	20.825
Time:	3.449	Roll Set Point:	-0.262	Pitch Set Point:	-0.164	Yaw Set Point:	-0.062	X_WP:	0.000	Y_WP:	0.000	Y_WP:	0.500	X:	0.128	Y:	0.086	Z:	0.401	yaw:	3.566	yaw rate:	-5.425	Roll:	4.164	Pitch:	2.677	Yaw:	5.633	Thrust:	20.791
Time:	3.465	Roll Set Point:	-0.262	Pitch Set Point:	-0.164	Yaw Set Point:	-0.062	X_WP:	0.000	Y_WP:	0.000	Y_WP:	0.500	X:	0.128	Y:	0.086	Z:	0.401	yaw:	3.559	yaw rate:	-0.704	Roll:	4.301	Pitch:	2.535	Yaw:	6.414	Thrust:	21.003
Time:	3.481	Roll Set Point:	-0.262	Pitch Set Point:	-0.164	Yaw Set Point:	-0.063	X_WP:	0.000	Y_WP:	0.000	Y_WP:	0.500	X:	0.128	Y:	0.086	Z:	0.401	yaw:	3.595	yaw rate:	3.566	Roll:	4.374	Pitch:	2.431	Yaw:	7.179	Thrust:	21.219
Time:	3.496	Roll Set Point:	-0.262	Pitch Set Point:	-0.164	Yaw Set Point:	-0.063	X_WP:	0.000	Y_WP:	0.000	Y_WP:	0.500	X:	0.128	Y:	0.086	Z:	0.401	yaw:	3.615	yaw rate:	1.993	Roll:	4.375	Pitch:	2.453	Yaw:	6.943	Thrust:	21.535
Time:	3.512	Roll Set Point:	-0.262	Pitch Set Point:	-0.164	Yaw Set Point:	-0.062	X_WP:	0.000	Y_WP:	0.000	Y_WP:	0.500	X:	0.128	Y:	0.086	Z:	0.401	yaw:	3.565	yaw rate:	-4.907	Roll:	4.232	Pitch:	2.658	Yaw:	5.719	Thrust:	21.460
Time:	3.528	Roll Set Point:	-0.262	Pitch Set Point:	-0.164	Yaw Set Point:	-0.062	X_WP:	0.000	Y_WP:	0.000	Y_WP:	0.500	X:	0.128	Y:	0.086	Z:	0.401	yaw:	3.578	yaw rate:	1.245	Roll:	4.363	Pitch:	2.476	Yaw:	6.767	Thrust:	21.832
Time:	3.543	Roll Set Point:	-0.262	Pitch Set Point:	-0.164	Yaw Set Point:	-0.062	X_WP:	0.000	Y_WP:	0.000	Y_WP:	0.500	X:	0.128	Y:	0.086	Z:	0.401	yaw:	3.556	yaw rate:	-2.231	Roll:	4.288	Pitch:	2.619	Yaw:	6.153	Thrust:	22.030
Time:	3.559	Roll Set Point:	-0.262	Pitch Set Point:	-0.164	Yaw Set Point:	-0.062	X_WP:	0.000	Y_WP:	0.000	Y_WP:	0.500	X:	0.128	Y:	0.086	Z:	0.401	yaw:	3.578	yaw rate:	2.195	Roll:	4.348	Pitch:	2.455	Yaw:	6.926	Thrust:	22.004
Time:	3.575	Roll Set Point:	-0.262	Pitch Set Point:	-0.164	Yaw Set Point:	-0.063	X_WP:	0.000	Y_WP:	0.000	Y_WP:	0.500	X:	0.128	Y:	0.086	Z:	0.401	yaw:	3.631	yaw rate:	5.353	Roll:	4.423	Pitch:	2.458	Yaw:	7.532	Thrust:	22.647
Time:	3.590	Roll Set Point:	-0.262	Pitch Set Point:	-0.164	Yaw Set Point:	-0.062	X_WP:	0.000	Y_WP:	0.000	Y_WP:	0.500	X:	0.128	Y:	0.086	Z:	0.401	yaw:	3.566	yaw rate:	-6.553	Roll:	4.266	Pitch:	2.650	Yaw:	5.433	Thrust:	22.271
Time:	3.606	Roll Set Point:	-0.262	Pitch Set Point:	-0.164	Yaw Set Point:	-0.062	X_WP:	0.000	Y_WP:	0.000	Y_WP:	0.500	X:	0.128	Y:	0.086	Z:	0.401	yaw:	3.566	yaw rate:	-6.553	Roll:	4.355	Pitch:	2.544	Yaw:	6.541	Thrust:	22.717
Time:	3.621	Roll Set Point:	-0.262	Pitch Set Point:	-0.164	Yaw Set Point:	-0.063	X_WP:	0.000	Y_WP:	0.000	Y_WP:	0.500	X:	0.128	Y:	0.086	Z:	0.401	yaw:	3.619	yaw rate:	-2.117	Roll:	4.470	Pitch:	2.426	Yaw:	7.508	Thrust:	23.081
Time:	3.637	Roll Set Point:	-0.262	Pitch Set Point:	-0.164	Yaw Set Point:	-0.063	X_WP:	0.000	Y_WP:	0.000	Y_WP:	0.500	X:	0.128	Y:	0.086	Z:	0.401	yaw:	3.619	yaw rate:	-2.117	Roll:	4.368	Pitch:	2.547	Yaw:	6.616	Thrust:	23.092
Time:	3.653	Roll Set Point:	-0.262	Pitch Set Point:	-0.164	Yaw Set Point:	-0.063	X_WP:	0.000	Y_WP:	0.000	Y_WP:	0.500	X:	0.128	Y:	0.086	Z:	0.401	yaw:	3.612	yaw rate:	3.579	Roll:	4.320	Pitch:	2.600	Yaw:	6.485	Thrust:	23.238
Time:	3.668	Roll Set Point:	-0.262	Pitch Set Point:	-0.164	Yaw Set Point:	-0.063	X_WP:	0.000	Y_WP:	0.000	Y_WP:	0.500	X:	0.128	Y:	0.086	Z:	0.401	yaw:	3.590	yaw rate:	-2.145	Roll:	4.371	Pitch:	2.536	Yaw:	6.216	Thrust:	23.392
Time:	3.684	Roll Set Point:	-0.262	Pitch Set Point:	-0.164	Yaw Set Point:	-0.063	X_WP:	0.000	Y_WP:	0.000	Y_WP:	0.500	X:	0.128	Y:	0.086	Z:	0.401	yaw:	3.606	yaw rate:	1.622	Roll:	4.380	Pitch:	2.554	Yaw:	6.870	Thrust:	23.765
Time:	3.699	Roll Set Point:	-0.262	Pitch Set Point:	-0.164	Yaw Set Point:	-0.062	X_WP:	0.000	Y_WP:	0.000	Y_WP:	0.500	X:	0.128	Y:	0.086	Z:	0.401	yaw:	3.569	yaw rate:	-3.716	Roll:	4.362	Pitch:	2.656	Yaw:	5.924	Thrust:	23.684
Time:	3.715	Roll Set Point:	-0.262	Pitch Set Point:	-0.164	Yaw Set Point:	-0.062	X_WP:	0.000	Y_WP:	0.000	Y_WP:	0.500	X:	0.128	Y:	0.086	Z:	0.401	yaw:	3.556	yaw rate:	-1.280	Roll:	4.375	Pitch:	2.628	Yaw:	6.314	Thrust:	24.041
Time:	3.731	Roll Set Point:	-0.262	Pitch Set Point:	-0.164	Yaw Set Point:	-0.062	X_WP:	0.000	Y_WP:	0.000	Y_WP:	0.500	X:	0.128	Y:	0.086	Z:	0.401	yaw:	3.556	yaw rate:	-1.280	Roll:	4.396	Pitch:	2.570	Yaw:	6.528	Thrust:	24.202
Time:	3.746	Roll Set Point:	-0.262	Pitch Set Point:	-0.164	Yaw Set Point:	-0.063	X_WP:	0.000	Y_WP:	0.000	Y_WP:	0.500	X:	0.128	Y:	0.086	Z:	0.401	yaw:	3.593	yaw rate:	2.228	Roll:	4.437	Pitch:	2.432	Yaw:	7.196	Thrust:	24.495
Time:	3.762	Roll Set Point:	-0.262	Pitch Set Point:	-0.164	Yaw Set Point:	-0.063	X_WP:	0.000	Y_WP:	0.000	Y_WP:	0.500	X:	0.128	Y:	0.086	Z:	0.401	yaw:	3.584	yaw rate:	-0.952	Roll:	4.414	Pitch:	2.574	Yaw:	6.407	Thrust:	24.406
Time:	3.778	Roll Set Point:	-0.261	Pitch Set Point:	-0.164	Yaw Set Point:	-0.063	X_WP:	0.000	Y_WP:	0.000	Y_WP:	0.500	X:	0.128	Y:	0.086	Z:	0.401	yaw:	3.593	yaw rate:	0.913	Roll:	4.236	Pitch:	2.789	Yaw:	6.732	Thrust:	24.262
Time:	3.793	Roll Set Point:	-0.262	Pitch Set Point:	-0.164	Yaw Set Point:	-0.062	X_WP:	0.000	Y_WP:	0.000	Y_WP:	0.500	X:	0.128	Y:	0.086	Z:	0.401	yaw:	3.541	yaw rate:	-5.147	Roll:	4.482	Pitch:	2.501	Yaw:	5.645	Thrust:	25.449
Time:	3.809	Roll Set Point:	-0.262	Pitch Set Point:	-0.164	Yaw Set Point:	-0.063	X_WP:	0.000	Y_WP:	0.000	Y_WP:	0.500	X:	0.128	Y:	0.086	Z:	0.401	yaw:	3.595	yaw rate:	5.394	Roll:	4.518	Pitch:	2.458	Yaw:	7.486	Thrust:	25.242
Time:	3.825	Roll Set Point:	-0.262	Pitch Set Point:	-0.164	Yaw Set Point:	-0.062	X_WP:	0.000	Y_WP:	0.000	Y_WP:	0.500	X:	0.128	Y:	0.086	Z:	0.401	yaw:	3.581	yaw rate:	-1.477	Roll:	4.426	Pitch:	2.633	Yaw:	6.315	Thrust:	25.257
Time:	3.840	Roll Set Point:	-0.262	Pitch Set Point:	-0.164	Yaw Set Point:	-0.063	X_WP:	0.000	Y_WP:	0.000	Y_WP:	0.500	X:	0.128	Y:	0.086	Z:	0.401	yaw:	3.591	yaw rate:	1.027	Roll:	4.467	Pitch:	2.580	Yaw:	6.748	Thrust:	25.550
Time:	3.856	Roll Set Point:	-0.262	Pitch Set Point:	-0.164	Yaw Set Point:	-0.063	X_WP:	0.000	Y_WP:	0.000	Y_WP:	0.500	X:	0.128	Y:	0.086	Z:	0.401	yaw:	3.595	yaw rate:	0.401	Roll:	4.410	Pitch:	2.578	Yaw:	6.649	Thrust:	25.758
Time:	3.871	Roll Set Point:	-0.262	Pitch Set Point:	-0.164	Yaw Set Point:	-0.063	X_WP:	0.000	Y_WP:	0.000	Y_WP:	0.500	X:	0.128	Y:	0.086	Z:	0.401	yaw:	3.582	yaw rate:	-1.305	Roll:	4.449	Pitch:	2.569	Yaw:	6.345	Thrust:	25.697
Time:	3.887	Roll Set Point:	-0.262	Pitch Set Point:	-0.164	Yaw Set Point:	-0.063	X_WP:	0.000	Y_WP:	0.000	Y_WP:	0.500	X:	0.128	Y:	0.086	Z:	0.401	yaw:	3.582	yaw rate:	-1.305	Roll:	4.450	Pitch:	2.597	Yaw:	6.564	Thrust:	26.060
Time:	3.903	Roll Set Point:	-0.262	Pitch Set Point:	-0.164	Yaw Set Point:	-0.062	X_WP:	0.000	Y_WP:	0.000	Y_WP:	0.500	X:	0.128	Y:	0.086	Z:	0.401	yaw:	3.577	yaw rate:	-4.187	Roll:	4.444	Pitch:	2.660	Yaw:	6.480	Thrust:	26.258
Time:	3.918	Roll Set Point:	-0.262	Pitch Set Point:	-0.164	Yaw Set Point:	-0.064	X_WP:	0.000	Y_WP:	0.000	Y_WP:	0.500	X:	0.128	Y:	0.086	Z:	0.401	yaw:	3.655	yaw rate:	7.782	Roll:	4.403	Pitch:	2.558	Yaw:	7.970	Thrust:	25.979
Time:	3.934	Roll Set Point:	-0.262	Pitch Set Point:	-0.164	Yaw Set Point:	-0.062	X_WP:	0.000	Y_WP:	0.000	Y_WP:	0.500	X:	0.128	Y:	0.086	Z:	0.401	yaw:	3.580	yaw rate:	-7.474	Roll:	4.507	Pitch:	2.612	Yaw:	5.315	Thrust:	27.210
Time:	3.950	Roll Set Point:	-0.262	Pitch Set Point:	-0.164	Yaw Set Point:	-0.062	X_WP:	0.000	Y_WP:	0.000	Y_WP:	0.500	X:	0.128	Y:	0.086	Z:	0.401	yaw:	3.580	yaw rate:	-7.474	Roll:	4.455	Pitch:	2.609	Yaw:	6.559	Thrust:	26.768
Time:	3.965	Roll Set Point:	-0.262	Pitch Set Point:	-0.164	Yaw Set Point:	-0.062	X_WP:	0.000	Y_WP:	0.000	Y_WP:	0.500	X:	0.128	Y:	0.086	Z:	0.401	yaw:	3.577	yaw rate:	-1.068	Roll:	4.446	Pitch:	2.647	Yaw:	6.496	Thrust:	26.901
Time:	3.981	Roll Set Point:	-0.262	Pitch Set Point:	-0.164	Yaw Set Point:	-0.063	X_WP:	0.000	Y_WP:	0.000	Y_WP:	0.500	X:	0.128	Y:	0.086	Z:	0.401	yaw:	3.595	yaw rate:	1.864	Roll:	4.513	Pitch:	2.566	Yaw:	6.895	Thrust:	27.253
Time:	3.996	Roll Set Point:	-0.262	Pitch Set Point:	-0.164	Yaw Set Point:	-0.062	X_WP:	0.000	Y_WP:	0.000	Y_WP:	0.500	X:	0.128	Y:	0.086	Z:	0.401	yaw:	3.568	yaw rate:	-2.718	Roll:	4.372	Pitch:	2.667	Yaw:	6.089	Thrust:	27.263
Time:	4.012	Roll Set Point:	-0.262	Pitch Set Point:	-0.164	Yaw Set Point:	-0.062	X_WP:	0.000	Y_WP:	0.000	Y_WP:	0.500	X:	0.128	Y:	0.086	Z:	0.401	yaw:	3.568	yaw rate:	-2.718	Roll:	4.455	Pitch:	2.623	Yaw:	6.545	Thrust:	27.548
Time:	4.028	Roll Set Point:	-0.262	Pitch Set Point:	-0.164	Yaw Set Point:	-0.063	X_WP:	0.000	Y_WP:	0.000	Y_WP:	0.500	X:	0.128	Y:	0.086	Z:	0.401	yaw:	3.600	yaw rate:	1.680	Roll:	4.535	Pitch:	2.568	Yaw:	7.131	Thrust:	27.837
Time:	4.043	Roll Set Point:	-0.262	Pitch Set Point:	-0.164	Yaw Set Point:	-0.063	X_WP:	0.000	Y_WP:	0.000	Y_WP:	0.500	X:	0.128	Y:	0.086	Z:	0.401	yaw:	3.594	yaw rate:	-0.653	Roll:	4.428	Pitch:	2.656	Yaw:	6.471	Thrust:	27.888
Time:	4.059	Roll Set Point:	-0.262	Pitch Set Point:	-0.164	Yaw Set Point:	-0.062	X_WP:	0.000	Y_WP:	0.000	Y_WP:	0.500	X:	0.128	Y:	0.086	Z:	0.401	yaw:	3.558	yaw rate:	-3.561	Roll:	4.402	Pitch:	2.705	Yaw:	5.934	Thrust:	28.049
Time:	4.075	Roll Set Point:	-0.262	Pitch Set Point:	-0.164	Yaw Set Point:	-0.063	X_WP:	0.000	Y_WP:	0.000	Y_WP:	0.500	X:	0.128	Y:	0.086	Z:	0.401	yaw:	3.627	yaw rate:	6.920	Roll:	4.565	Pitch:	2.436	Yaw:	7.787	Thrust:	28.374
Time:	4.090	Roll Set Point:	-0.262	Pitch Set Point:	-0.164	Yaw Set Point:	-0.063	X_WP:	0.000	Y_WP:	0.000	Y_WP:	0.500	X:	0.128	Y:	0.086	Z:	0.401	yaw:	3.587	yaw rate:	-4.075	Roll:	4.387	Pitch:	2.785	Yaw:	5.888	Thrust:	28.486
Time:	4.106	Roll Set Point:	-0.262	Pitch Set Point:	-0.164	Yaw Set Point:	-0.063	X_WP:	0.000	Y_WP:	0.000	Y_WP:	0.500	X:	0.128	Y:	0.086	Z:	0.401	yaw:	3.592	yaw rate:	0.520	Roll:	4.483	Pitch:	2.613	Yaw:	6.665	Thrust:	28.604
Time:	4.121	Roll Set Point:	-0.262	Pitch Set Point:	-0.164	Yaw Set Point:	-0.062	X_WP:	0.000	Y_WP:	0.000	Y_WP:	0.500	X:	0.128	Y:	0.086	Z:	0.401	yaw:	3.575	yaw rate:	-1.683	Roll:	4.408	Pitch:	2.704	Yaw:	6.272	Thrust:	28.894
Time:	4.137	Roll Set Point:	-0.262	Pitch Set Point:	-0.164	Yaw Set Point:	-0.062	X_WP:	0.000	Y_WP:	0.000	Y_WP:	0.500	X:	0.128	Y:	0.086	Z:	0.401	yaw:	3.575	yaw rate:	-1.683	Roll:	4.456	Pitch:	2.648	Yaw:	6.554	Thrust:	29.033
Time:	4.153	Roll Set Point:	-0.262	Pitch Set Point:	-0.164	Yaw Set Point:	-0.062	X_WP:	0.000	Y_WP:	0.000	Y_WP:	0.500	X:	0.128	Y:	0.086	Z:	0.401	yaw:	3.580	yaw rate:	2.135	Roll:	4.463	Pitch:	2.655	Yaw:	6.649	Thrust:	29.291
Time:	4.168	Roll Set Point:	-0.262	Pitch Set Point:	-0.164	Yaw Set Point:	-0.062	X_WP:	0.000	Y_WP:	0.000	Y_WP:	0.500	X:	0.128	Y:	0.086	Z:	0.401	yaw:	3.571	yaw rate:	-0.971	Roll:	4.448	Pitch:	2.671	Yaw:	6.385	Thrust:	29.270
Time:	4.184	Roll Set Point:	-0.262	Pitch Set Point:	-0.164	Yaw Set Point:	-0.063	X_WP:	0.000	Y_WP:	0.000	Y_WP:	0.500	X:	0.128	Y:	0.086	Z:	0.401	yaw:	3.607	yaw rate:	3.657	Roll:	4.519	Pitch:	2.523	Yaw:	7.212	Thrust:	29.662
Time:	4.200	Roll Set Point:	-0.262	Pitch Set Point:	-0.164	Yaw Set Point:	-0.063	X_WP:	0.000	Y_WP:	0.000	Y_WP:	0.500	X:	0.128	Y:	0.086	Z:	0.401	yaw:	3.594	yaw rate:	-1.335	Roll:	4.448	Pitch:	2.705	Yaw:	6.357	Thrust:	29.737
Time:	4.215	Roll Set Point:	-0.262	Pitch Set Point:	-0.164	Yaw Set Point:	-0.062	X_WP:	0.000	Y_WP:	0.000	Y_WP:	0.500	X:	0.128	Y:	0.086	Z:	0.401	yaw:	3.578	yaw rate:	-1.575	Roll:	4.434	Pitch:	2.722	Yaw:	6.295	Thrust:	29.928
Time:	4.231	Roll Set Point:	-0.262	Pitch Set Point:	-0.164	Yaw Set Point:	-0.062	X_WP:	0.000	Y_WP:	0.000	Y_WP:	0.500	X:	0.128	Y:	0.086	Z:	0.401	yaw:	3.578	yaw rate:	-1.575	Roll:	4.456	Pitch:	2.666	Yaw:	6.558	Thrust:	30.142
Time:	4.246	Roll Set Point:	-0.262	Pitch Set Point:	-0.164	Yaw Set Point:	-0.063	X_WP:	0.000	Y_WP:	0.000	Y_WP:	0.500	X:	0.128	Y:	0.086	Z:	0.401	yaw:	3.604	yaw rate:	2.596	Roll:	4.512	Pitch:	2.555	Yaw:	7.030	Thrust:	30.361
Time:	4.262	Roll Set Point:	-0.262	Pitch Set Point:	-0.164	Yaw Set Point:	-0.063	X_WP:	0.000	Y_WP:	0.000	Y_WP:	0.500	X:	0.128	Y:	0.086	Z:	0.401	yaw:	3.604	yaw rate:	2.596	Roll:	4.458	Pitch:	2.669	Yaw:	6.595	Thrust:	30.524
Time:	4.278	Roll Set Point:	-0.262	Pitch Set Point:	-0.164	Yaw Set Point:	-0.062	X_WP:	0.000	Y_WP:	0.000	Y_WP:	0.500	X:	0.128	Y:	0.086	Z:	0.401	yaw:	3.562	yaw rate:	-4.164	Roll:	4.368	Pitch:	2.739	Yaw:	5.839	Thrust:	30.550
Time:	4.307	Roll Set Point:	-0.262	Pitch Set Point:	-0.164	Yaw Set Point:	-0.062	X_WP:	0.000	Y_WP:	0.000	Y_WP:	0.500	X:	0.128	Y:	0.086	Z:	0.401	yaw:	3.565	yaw rate:	0.296	Roll:	4.970	Pitch:	3.057	Yaw:	7.917	Thrust:	52.917
Time:	4.322	Roll Set Point:	-0.262	Pitch Set Point:	-0.164	Yaw Set Point:	-0.062	X_WP:	0.000	Y_WP:	0.000	Y_WP:	0.500	X:	0.128	Y:	0.086	Z:	0.401	yaw:	3.548	yaw rate:	-0.894	Roll:	4.416	Pitch:	2.721	Yaw:	6.231	Thrust:	31.140
Time:	4.338	Roll Set Point:	-0.262	Pitch Set Point:	-0.164	Yaw Set Point:	-0.063	X_WP:	0.000	Y_WP:	0.000	Y_WP:	0.500	X:	0.128	Y:	0.086	Z:	0.401	yaw:	3.597	yaw rate:	4.882	Roll:	4.541	Pitch:	2.565	Yaw:	7.403	Thrust:	31.233
Time:	4.354	Roll Set Point:	-0.262	Pitch Set Point:	-0.164	Yaw Set Point:	-0.063	X_WP:	0.000	Y_WP:	0.000	Y_WP:	0.500	X:	0.128	Y:	0.086	Z:	0.401	yaw:	3.597	yaw rate:	4.882	Roll:	4.460	Pitch:	2.687	Yaw:	6.594	Thrust:	31.590
Time:	4.369	Roll Set Point:	-0.262	Pitch Set Point:	-0.164	Yaw Set Point:	-0.062	X_WP:	0.000	Y_WP:	0.000	Y_WP:	0.500	X:	0.128	Y:	0.086	Z:	0.401	yaw:	3.579	yaw rate:	-1.757	Roll:	4.405	Pitch:	2.764	Yaw:	6.256	Thrust:	31.540
Time:	4.385	Roll Set Point:	-0.262	Pitch Set Point:	-0.164	Yaw Set Point:	-0.062	X_WP:	0.000	Y_WP:	0.000	Y_WP:	0.500	X:	0.128	Y:	0.086	Z:	0.401	yaw:	3.581	yaw rate:	0.116	Roll:	4.490	Pitch:	2.651	Yaw:	6.582	Thrust:	31.737
Time:	4.401	Roll Set Point:	-0.262	Pitch Set Point:	-0.164	Yaw Set Point:	-0.062	X_WP:	0.000	Y_WP:	0.000	Y_WP:	0.500	X:	0.128	Y:	0.086	Z:	0.401	yaw:	3.581	yaw rate:	0.116	Roll:	4.457	Pitch:	2.695	Yaw:	6.562	Thrust:	32.004
Time:	4.416	Roll Set Point:	-0.262	Pitch Set Point:	-0.164	Yaw Set Point:	-0.063	X_WP:	0.000	Y_WP:	0.000	Y_WP:	0.500	X:	0.128	Y:	0.086	Z:	0.401	yaw:	3.612	yaw rate:	4.200	Roll:	4.501	Pitch:	2.604	Yaw:	7.129	Thrust:	32.216
Time:	4.432	Roll Set Point:	-0.262	Pitch Set Point:	-0.164	Yaw Set Point:	-0.063	X_WP:	0.000	Y_WP:	0.000	Y_WP:	0.500	X:	0.128	Y:	0.086	Z:	0.401	yaw:	3.612	yaw rate:	4.200	Roll:	4.458	Pitch:	2.698	Yaw:	6.606	Thrust:	32.376
Time:	4.447	Roll Set Point:	-0.262	Pitch Set Point:	-0.164	Yaw Set Point:	-0.063	X_WP:	0.000	Y_WP:	0.000	Y_WP:	0.500	X:	0.128	Y:	0.086	Z:	0.401	yaw:	3.592	yaw rate:	3.752	Roll:	4.436	Pitch:	2.791	Yaw:	6.243	Thrust:	32.613
Time:	4.463	Roll Set Point:	-0.262	Pitch Set Point:	-0.164	Yaw Set Point:	-0.063	X_WP:	0.000	Y_WP:	0.000	Y_WP:	0.500	X:	0.128	Y:	0.086	Z:	0.401	yaw:	3.592	yaw rate:	3.752	Roll:	4.456	Pitch:	2.706	Yaw:	6.574	Thrust:	32.684
Time:	4.479	Roll Set Point:	-0.262	Pitch Set Point:	-0.164	Yaw Set Point:	-0.063	X_WP:	0.000	Y_WP:	0.000	Y_WP:	0.500	X:	0.128	Y:	0.086	Z:	0.401	yaw:	3.583	yaw rate:	-3.060	Roll:	4.421	Pitch:	2.730	Yaw:	6.417	Thrust:	32.991
Time:	4.494	Roll Set Point:	-0.262	Pitch Set Point:	-0.164	Yaw Set Point:	-0.063	X_WP:	0.000	Y_WP:	0.000	Y_WP:	0.500	X:	0.128	Y:	0.086	Z:	0.401	yaw:	3.583	yaw rate:	-3.060	Roll:	4.457	Pitch:	2.714	Yaw:	6.566	Thrust:	33.128
Time:	4.510	Roll Set Point:	-0.262	Pitch Set Point:	-0.164	Yaw Set Point:	-0.063	X_WP:	0.000	Y_WP:	0.000	Y_WP:	0.500	X:	0.128	Y:	0.086	Z:	0.401	yaw:	3.620	yaw rate:	2.630	Roll:	4.518	Pitch:	2.637	Yaw:	7.241	Thrust:	33.441
Time:	4.526	Roll Set Point:	-0.262	Pitch Set Point:	-0.164	Yaw Set Point:	-0.062	X_WP:	0.000	Y_WP:	0.000	Y_WP:	0.500	X:	0.128	Y:	0.086	Z:	0.401	yaw:	3.560	yaw rate:	-5.981	Roll:	4.374	Pitch:	2.870	Yaw:	5.523	Thrust:	33.300
Time:	4.541	Roll Set Point:	-0.262	Pitch Set Point:	-0.164	Yaw Set Point:	-0.062	X_WP:	0.000	Y_WP:	0.000	Y_WP:	0.500	X:	0.128	Y:	0.086	Z:	0.401	yaw:	3.556	yaw rate:	-0.452	Roll:	4.431	Pitch:	2.741	Yaw:	6.452	Thrust:	33.735
Time:	4.557	Roll Set Point:	-0.262	Pitch Set Point:	-0.164	Yaw Set Point:	-0.063	X_WP:	0.000	Y_WP:	0.000	Y_WP:	0.500	X:	0.128	Y:	0.086	Z:	0.401	yaw:	3.594	yaw rate:	3.881	Roll:	4.532	Pitch:	2.603	Yaw:	7.231	Thrust:	33.850
Time:	4.572	Roll Set Point:	-0.262	Pitch Set Point:	-0.164	Yaw Set Point:	-0.062	X_WP:	0.000	Y_WP:	0.000	Y_WP:	0.500	X:	0.128	Y:	0.086	Z:	0.401	yaw:	3.554	yaw rate:	-4.006	Roll:	4.407	Pitch:	2.823	Yaw:	5.854	Thrust:	33.940
Time:	4.588	Roll Set Point:	-0.262	Pitch Set Point:	-0.164	Yaw Set Point:	-0.062	X_WP:	0.000	Y_WP:	0.000	Y_WP:	0.500	X:	0.128	Y:	0.086	Z:	0.401	yaw:	3.580	yaw rate:	2.550	Roll:	4.505	Pitch:	2.674	Yaw:	6.988	Thrust:	34.328
Time:	4.604	Roll Set Point:	-0.262	Pitch Set Point:	-0.164	Yaw Set Point:	-0.063	X_WP:	0.000	Y_WP:	0.000	Y_WP:	0.500	X:	0.128	Y:	0.086	Z:	0.401	yaw:	3.609	yaw rate:	2.933	Roll:	4.455	Pitch:	2.706	Yaw:	7.093	Thrust:	34.426
Time:	4.619	Roll Set Point:	-0.262	Pitch Set Point:	-0.164	Yaw Set Point:	-0.063	X_WP:	0.000	Y_WP:	0.000	Y_WP:	0.500	X:	0.128	Y:	0.086	Z:	0.401	yaw:	3.621	yaw rate:	1.214	Roll:	4.473	Pitch:	2.703	Yaw:	6.823	Thrust:	34.727
Time:	4.635	Roll Set Point:	-0.262	Pitch Set Point:	-0.164	Yaw Set Point:	-0.063	X_WP:	0.000	Y_WP:	0.000	Y_WP:	0.500	X:	0.128	Y:	0.086	Z:	0.401	yaw:	3.621	yaw rate:	1.214	Roll:	4.458	Pitch:	2.739	Yaw:	6.619	Thrust:	34.794
Time:	4.651	Roll Set Point:	-0.262	Pitch Set Point:	-0.164	Yaw Set Point:	-0.063	X_WP:	0.000	Y_WP:	0.000	Y_WP:	0.500	X:	0.128	Y:	0.086	Z:	0.401	yaw:	3.617	yaw rate:	2.876	Roll:	4.509	Pitch:	2.710	Yaw:	6.548	Thrust:	34.935
Time:	4.666	Roll Set Point:	-0.262	Pitch Set Point:	-0.164	Yaw Set Point:	-0.063	X_WP:	0.000	Y_WP:	0.000	Y_WP:	0.500	X:	0.128	Y:	0.086	Z:	0.401	yaw:	3.626	yaw rate:	0.859	Roll:	4.244	Pitch:	2.881	Yaw:	6.770	Thrust:	34.382
Time:	4.682	Roll Set Point:	-0.262	Pitch Set Point:	-0.164	Yaw Set Point:	-0.063	X_WP:	0.000	Y_WP:	0.000	Y_WP:	0.500	X:	0.128	Y:	0.086	Z:	0.401	yaw:	3.626	yaw rate:	0.859	Roll:	4.453	Pitch:	2.751	Yaw:	6.625	Thrust:	35.335
Time:	4.697	Roll Set Point:	-0.262	Pitch Set Point:	-0.164	Yaw Set Point:	-0.063	X_WP:	0.000	Y_WP:	0.000	Y_WP:	0.500	X:	0.128	Y:	0.086	Z:	0.401	yaw:	3.630	yaw rate:	3.807	Roll:	4.632	Pitch:	2.551	Yaw:	6.696	Thrust:	36.315
Time:	4.713	Roll Set Point:	-0.262	Pitch Set Point:	-0.164	Yaw Set Point:	-0.062	X_WP:	0.000	Y_WP:	0.000	Y_WP:	0.500	X:	0.128	Y:	0.086	Z:	0.401	yaw:	3.549	yaw rate:	-8.075	Roll:	4.356	Pitch:	2.977	Yaw:	5.165	Thrust:	35.475
Time:	4.729	Roll Set Point:	-0.262	Pitch Set Point:	-0.164	Yaw Set Point:	-0.063	X_WP:	0.000	Y_WP:	0.000	Y_WP:	0.500	X:	0.128	Y:	0.086	Z:	0.401	yaw:	3.595	yaw rate:	4.633	Roll:	4.502	Pitch:	2.717	Yaw:	7.359	Thrust:	36.160
Time:	4.744	Roll Set Point:	-0.262	Pitch Set Point:	-0.164	Yaw Set Point:	-0.063	X_WP:	0.000	Y_WP:	0.000	Y_WP:	0.500	X:	0.128	Y:	0.086	Z:	0.401	yaw:	3.607	yaw rate:	1.193	Roll:	4.497	Pitch:	2.703	Yaw:	6.799	Thrust:	35.992
Time:	4.760	Roll Set Point:	-0.262	Pitch Set Point:	-0.164	Yaw Set Point:	-0.063	X_WP:	0.000	Y_WP:	0.000	Y_WP:	0.500	X:	0.128	Y:	0.086	Z:	0.401	yaw:	3.607	yaw rate:	1.193	Roll:	4.458	Pitch:	2.764	Yaw:	6.600	Thrust:	36.291
Time:	4.776	Roll Set Point:	-0.262	Pitch Set Point:	-0.164	Yaw Set Point:	-0.063	X_WP:	0.000	Y_WP:	0.000	Y_WP:	0.500	X:	0.128	Y:	0.086	Z:	0.401	yaw:	3.604	yaw rate:	-1.483	Roll:	4.457	Pitch:	2.744	Yaw:	6.541	Thrust:	36.515
Time:	4.791	Roll Set Point:	-0.262	Pitch Set Point:	-0.164	Yaw Set Point:	-0.063	X_WP:	0.000	Y_WP:	0.000	Y_WP:	0.500	X:	0.128	Y:	0.086	Z:	0.401	yaw:	3.604	yaw rate:	-1.483	Roll:	4.457	Pitch:	2.769	Yaw:	6.594	Thrust:	36.635
Time:	4.807	Roll Set Point:	-0.262	Pitch Set Point:	-0.164	Yaw Set Point:	-0.062	X_WP:	0.000	Y_WP:	0.000	Y_WP:	0.500	X:	0.128	Y:	0.086	Z:	0.401	yaw:	3.536	yaw rate:	-3.541	Roll:	4.372	Pitch:	2.920	Yaw:	5.362	Thrust:	36.693
Time:	4.822	Roll Set Point:	-0.262	Pitch Set Point:	-0.164	Yaw Set Point:	-0.063	X_WP:	0.000	Y_WP:	0.000	Y_WP:	0.500	X:	0.128	Y:	0.086	Z:	0.401	yaw:	3.606	yaw rate:	6.999	Roll:	4.570	Pitch:	2.586	Yaw:	7.769	Thrust:	37.097
Time:	4.838	Roll Set Point:	-0.262	Pitch Set Point:	-0.164	Yaw Set Point:	-0.062	X_WP:	0.000	Y_WP:	0.000	Y_WP:	0.500	X:	0.128	Y:	0.086	Z:	0.401	yaw:	3.566	yaw rate:	-4.009	Roll:	4.361	Pitch:	2.924	Yaw:	5.875	Thrust:	37.268
Time:	4.854	Roll Set Point:	-0.262	Pitch Set Point:	-0.164	Yaw Set Point:	-0.063	X_WP:	0.000	Y_WP:	0.000	Y_WP:	0.500	X:	0.128	Y:	0.086	Z:	0.401	yaw:	3.593	yaw rate:	2.732	Roll:	4.495	Pitch:	2.703	Yaw:	7.035	Thrust:	37.291
Time:	4.869	Roll Set Point:	-0.262	Pitch Set Point:	-0.164	Yaw Set Point:	-0.064	X_WP:	0.000	Y_WP:	0.000	Y_WP:	0.500	X:	0.128	Y:	0.086	Z:	0.401	yaw:	3.650	yaw rate:	5.737	Roll:	4.364	Pitch:	2.824	Yaw:	7.621	Thrust:	37.012
Time:	4.885	Roll Set Point:	-0.262	Pitch Set Point:	-0.164	Yaw Set Point:	-0.063	X_WP:	0.000	Y_WP:	0.000	Y_WP:	0.500	X:	0.128	Y:	0.086	Z:	0.401	yaw:	3.583	yaw rate:	-6.764	Roll:	4.555	Pitch:	2.779	Yaw:	5.432	Thrust:	38.295
Time:	4.901	Roll Set Point:	-0.262	Pitch Set Point:	-0.164	Yaw Set Point:	-0.063	X_WP:	0.000	Y_WP:	0.000	Y_WP:	0.500	X:	0.128	Y:	0.086	Z:	0.401	yaw:	3.621	yaw rate:	3.780	Roll:	4.502	Pitch:	2.687	Yaw:	7.251	Thrust:	38.095
Time:	4.916	Roll Set Point:	-0.262	Pitch Set Point:	-0.164	Yaw Set Point:	-0.063	X_WP:	0.000	Y_WP:	0.000	Y_WP:	0.500	X:	0.128	Y:	0.086	Z:	0.401	yaw:	3.621	yaw rate:	3.780	Roll:	4.458	Pitch:	2.793	Yaw:	6.618	Thrust:	38.133
Time:	4.932	Roll Set Point:	-0.262	Pitch Set Point:	-0.164	Yaw Set Point:	-0.062	X_WP:	0.000	Y_WP:	0.000	Y_WP:	0.500	X:	0.128	Y:	0.086	Z:	0.401	yaw:	3.548	yaw rate:	-7.294	Roll:	4.352	Pitch:	3.014	Yaw:	5.299	Thrust:	38.245
Time:	4.947	Roll Set Point:	-0.262	Pitch Set Point:	-0.164	Yaw Set Point:	-0.063	X_WP:	0.000	Y_WP:	0.000	Y_WP:	0.500	X:	0.128	Y:	0.086	Z:	0.401	yaw:	3.604	yaw rate:	-6.280	Roll:	4.554	Pitch:	2.644	Yaw:	7.532	Thrust:	38.566
Time:	4.963	Roll Set Point:	-0.262	Pitch Set Point:	-0.164	Yaw Set Point:	-0.062	X_WP:	0.000	Y_WP:	0.000	Y_WP:	0.500	X:	0.128	Y:	0.086	Z:	0.401	yaw:	3.579	yaw rate:	-2.428	Roll:	4.397	Pitch:	2.870	Yaw:	6.158	Thrust:	38.744
Time:	4.979	Roll Set Point:	-0.262	Pitch Set Point:	-0.164	Yaw Set Point:	-0.062	X_WP:	0.000	Y_WP:	0.000	Y_WP:	0.500	X:	0.128	Y:	0.086	Z:	0.401	yaw:	3.556	yaw rate:	-2.331	Roll:	4.429	Pitch:	2.887	Yaw:	6.133	Thrust:	38.707
Time:	4.994	Roll Set Point:	-0.262	Pitch Set Point:	-0.164	Yaw Set Point:	-0.063	X_WP:	0.000	Y_WP:	0.000	Y_WP:	0.500	X:	0.128	Y:	0.086	Z:	0.401	yaw:	3.637	yaw rate:	8.089	Roll:	4.402	Pitch:	2.755	Yaw:	7.996	Thrust:	38.451
Time:	5.010	Roll Set Point:	-0.262	Pitch Set Point:	-0.164	Yaw Set Point:	-0.063	X_WP:	0.000	Y_WP:	0.000	Y_WP:	0.500	X:	0.128	Y:	0.086	Z:	0.401	yaw:	3.637	yaw rate:	8.089	Roll:	4.454	Pitch:	2.815	Yaw:	6.641	Thrust:	39.239
Time:	5.026	Roll Set Point:	-0.262	Pitch Set Point:	-0.164	Yaw Set Point:	-0.063	X_WP:	0.000	Y_WP:	0.000	Y_WP:	0.500	X:	0.128	Y:	0.086	Z:	0.401	yaw:	3.603	yaw rate:	3.048	Roll:	4.598	Pitch:	2.663	Yaw:	6.019	Thrust:	40.109
Time:	5.041	Roll Set Point:	-0.262	Pitch Set Point:	-0.164	Yaw Set Point:	-0.063	X_WP:	0.000	Y_WP:	0.000	Y_WP:	0.500	X:	0.128	Y:	0.086	Z:	0.401	yaw:	3.603	yaw rate:	3.048	Roll:	4.458	Pitch:	2.817	Yaw:	6.593	Thrust:	39.619
Time:	5.057	Roll Set Point:	-0.262	Pitch Set Point:	-0.164	Yaw Set Point:	-0.062	X_WP:	0.000	Y_WP:	0.000	Y_WP:	0.500	X:	0.128	Y:	0.086	Z:	0.401	yaw:	3.546	yaw rate:	-6.256	Roll:	4.327	Pitch:	3.059	Yaw:	5.564	Thrust:	39.679
Time:	5.073	Roll Set Point:	-0.262	Pitch Set Point:	-0.164	Yaw Set Point:	-0.063	X_WP:	0.000	Y_WP:	0.000	Y_WP:	0.500	X:	0.128	Y:	0.086	Z:	0.401	yaw:	3.637	yaw rate:	9.060	Roll:	4.442	Pitch:	2.746	Yaw:	8.158	Thrust:	39.503
Time:	5.088	Roll Set Point:	-0.262	Pitch Set Point:	-0.164	Yaw Set Point:	-0.063	X_WP:	0.000	Y_WP:	0.000	Y_WP:	0.500	X:	0.128	Y:	0.086	Z:	0.401	yaw:	3.631	yaw rate:	-0.565	Roll:	4.620	Pitch:	2.651	Yaw:	6.537	Thrust:	40.874
Time:	5.104	Roll Set Point:	-0.262	Pitch Set Point:	-0.164	Yaw Set Point:	-0.063	X_WP:	0.000	Y_WP:	0.000	Y_WP:	0.500	X:	0.128	Y:	0.086	Z:	0.401	yaw:	3.614	yaw rate:	-1.678	Roll:	4.439	Pitch:	2.888	Yaw:	6.328	Thrust:	40.265
Time:	5.119	Roll Set Point:	-0.262	Pitch Set Point:	-0.164	Yaw Set Point:	-0.063	X_WP:	0.000	Y_WP:	0.000	Y_WP:	0.500	X:	0.128	Y:	0.086	Z:	0.401	yaw:	3.614	yaw rate:	-1.678	Roll:	4.458	Pitch:	2.833	Yaw:	6.609	Thrust:	40.550
Time:	5.135	Roll Set Point:	-0.262	Pitch Set Point:	-0.164	Yaw Set Point:	-0.063	X_WP:	0.000	Y_WP:	0.000	Y_WP:	0.500	X:	0.128	Y:	0.086	Z:	0.401	yaw:	3.587	yaw rate:	1.552	Roll:	4.421	Pitch:	2.932	Yaw:	6.114	Thrust:	40.718
Time:	5.151	Roll Set Point:	-0.262	Pitch Set Point:	-0.164	Yaw Set Point:	-0.062	X_WP:	0.000	Y_WP:	0.000	Y_WP:	0.500	X:	0.128	Y:	0.086	Z:	0.401	yaw:	3.578	yaw rate:	-0.875	Roll:	4.428	Pitch:	2.842	Yaw:	6.412	Thrust:	40.848
Time:	5.166	Roll Set Point:	-0.262	Pitch Set Point:	-0.164	Yaw Set Point:	-0.063	X_WP:	0.000	Y_WP:	0.000	Y_WP:	0.500	X:	0.128	Y:	0.086	Z:	0.401	yaw:	3.620	yaw rate:	4.132	Roll:	4.522	Pitch:	2.761	Yaw:	7.312	Thrust:	41.440
Time:	5.182	Roll Set Point:	-0.262	Pitch Set Point:	-0.164	Yaw Set Point:	-0.063	X_WP:	0.000	Y_WP:	0.000	Y_WP:	0.500	X:	0.128	Y:	0.086	Z:	0.401	yaw:	3.620	yaw rate:	4.132	Roll:	4.456	Pitch:	2.842	Yaw:	6.611	Thrust:	41.178
Time:	5.198	Roll Set Point:	-0.262	Pitch Set Point:	-0.164	Yaw Set Point:	-0.062	X_WP:	0.000	Y_WP:	0.000	Y_WP:	0.500	X:	0.128	Y:	0.086	Z:	0.401	yaw:	3.562	yaw rate:	-5.799	Roll:	4.378	Pitch:	2.974	Yaw:	5.563	Thrust:	41.253
Time:	5.213	Roll Set Point:	-0.262	Pitch Set Point:	-0.164	Yaw Set Point:	-0.063	X_WP:	0.000	Y_WP:	0.000	Y_WP:	0.500	X:	0.128	Y:	0.086	Z:	0.401	yaw:	3.602	yaw rate:	3.671	Roll:	4.519	Pitch:	2.697	Yaw:	7.264	Thrust:	41.797
Time:	5.229	Roll Set Point:	-0.262	Pitch Set Point:	-0.164	Yaw Set Point:	-0.062	X_WP:	0.000	Y_WP:	0.000	Y_WP:	0.500	X:	0.128	Y:	0.086	Z:	0.401	yaw:	3.563	yaw rate:	-3.839	Roll:	4.388	Pitch:	3.002	Yaw:	5.895	Thrust:	41.763
Time:	5.244	Roll Set Point:	-0.262	Pitch Set Point:	-0.164	Yaw Set Point:	-0.064	X_WP:	0.000	Y_WP:	0.000	Y_WP:	0.500	X:	0.128	Y:	0.086	Z:	0.401	yaw:	3.676	yaw rate:	11.244	Roll:	4.456	Pitch:	2.697	Yaw:	8.579	Thrust:	41.409
Time:	5.260	Roll Set Point:	-0.262	Pitch Set Point:	-0.164	Yaw Set Point:	-0.063	X_WP:	0.000	Y_WP:	0.000	Y_WP:	0.500	X:	0.128	Y:	0.086	Z:	0.401	yaw:	3.619	yaw rate:	-5.645	Roll:	4.544	Pitch:	2.836	Yaw:	5.671	Thrust:	42.859
Time:	5.276	Roll Set Point:	-0.262	Pitch Set Point:	-0.164	Yaw Set Point:	-0.063	X_WP:	0.000	Y_WP:	0.000	Y_WP:	0.500	X:	0.128	Y:	0.086	Z:	0.401	yaw:	3.601	yaw rate:	-1.844	Roll:	4.401	Pitch:	2.908	Yaw:	6.282	Thrust:	42.442
Time:	5.290	Roll Set Point:	-0.262	Pitch Set Point:	-0.164	Yaw Set Point:	-0.063	X_WP:	0.000	Y_WP:	0.000	Y_WP:	0.500	X:	0.128	Y:	0.086	Z:	0.401	yaw:	3.605	yaw rate:	0.392	Roll:	4.456	Pitch:	2.766	Yaw:	6.566	Thrust:	40.248
Time:	5.307	Roll Set Point:	-0.262	Pitch Set Point:	-0.164	Yaw Set Point:	-0.063	X_WP:	0.000	Y_WP:	0.000	Y_WP:	0.500	X:	0.128	Y:	0.086	Z:	0.401	yaw:	3.605	yaw rate:	0.392	Roll:	4.498	Pitch:	2.885	Yaw:	6.705	Thrust:	45.373
Time:	5.323	Roll Set Point:	-0.262	Pitch Set Point:	-0.164	Yaw Set Point:	-0.062	X_WP:	0.000	Y_WP:	0.000	Y_WP:	0.500	X:	0.128	Y:	0.086	Z:	0.401	yaw:	3.572	yaw rate:	-1.542	Roll:	4.393	Pitch:	2.960	Yaw:	6.007	Thrust:	42.831
Time:	5.338	Roll Set Point:	-0.262	Pitch Set Point:	-0.164	Yaw Set Point:	-0.062	X_WP:	0.000	Y_WP:	0.000	Y_WP:	0.500	X:	0.128	Y:	0.086	Z:	0.401	yaw:	3.564	yaw rate:	-0.862	Roll:	4.478	Pitch:	2.831	Yaw:	6.394	Thrust:	43.172
Time:	5.354	Roll Set Point:	-0.262	Pitch Set Point:	-0.164	Yaw Set Point:	-0.062	X_WP:	0.000	Y_WP:	0.000	Y_WP:	0.500	X:	0.128	Y:	0.086	Z:	0.401	yaw:	3.571	yaw rate:	0.705	Roll:	4.469	Pitch:	2.815	Yaw:	6.667	Thrust:	43.346
Time:	5.369	Roll Set Point:	-0.262	Pitch Set Point:	-0.164	Yaw Set Point:	-0.062	X_WP:	0.000	Y_WP:	0.000	Y_WP:	0.500	X:	0.128	Y:	0.086	Z:	0.401	yaw:	3.536	yaw rate:	-3.514	Roll:	4.365	Pitch:	2.976	Yaw:	5.911	Thrust:	43.398
Time:	5.385	Roll Set Point:	-0.262	Pitch Set Point:	-0.164	Yaw Set Point:	-0.062	X_WP:	0.000	Y_WP:	0.000	Y_WP:	0.500	X:	0.128	Y:	0.086	Z:	0.401	yaw:	3.536	yaw rate:	-3.514	Roll:	4.454	Pitch:	2.849	Yaw:	6.500	Thrust:	43.707
Time:	5.401	Roll Set Point:	-0.262	Pitch Set Point:	-0.164	Yaw Set Point:	-0.062	X_WP:	0.000	Y_WP:	0.000	Y_WP:	0.500	X:	0.128	Y:	0.086	Z:	0.401	yaw:	3.574	yaw rate:	-0.156	Roll:	4.532	Pitch:	2.739	Yaw:	7.202	Thrust:	44.007
Time:	5.416	Roll Set Point:	-0.262	Pitch Set Point:	-0.164	Yaw Set Point:	-0.062	X_WP:	0.000	Y_WP:	0.000	Y_WP:	0.500	X:	0.128	Y:	0.086	Z:	0.401	yaw:	3.571	yaw rate:	-0.294	Roll:	4.428	Pitch:	2.839	Yaw:	6.500	Thrust:	44.097
Time:	5.432	Roll Set Point:	-0.262	Pitch Set Point:	-0.164	Yaw Set Point:	-0.062	X_WP:	0.000	Y_WP:	0.000	Y_WP:	0.500	X:	0.128	Y:	0.086	Z:	0.401	yaw:	3.564	yaw rate:	-0.747	Roll:	4.484	Pitch:	2.906	Yaw:	6.414	Thrust:	44.251
Time:	5.448	Roll Set Point:	-0.262	Pitch Set Point:	-0.164	Yaw Set Point:	-0.062	X_WP:	0.000	Y_WP:	0.000	Y_WP:	0.500	X:	0.128	Y:	0.086	Z:	0.401	yaw:	3.576	yaw rate:	1.164	Roll:	4.468	Pitch:	2.836	Yaw:	6.750	Thrust:	44.451
Time:	5.463	Roll Set Point:	-0.262	Pitch Set Point:	-0.164	Yaw Set Point:	-0.062	X_WP:	0.000	Y_WP:	0.000	Y_WP:	0.500	X:	0.128	Y:	0.086	Z:	0.401	yaw:	3.553	yaw rate:	-2.224	Roll:	4.402	Pitch:	2.835	Yaw:	6.151	Thrust:	44.513
Time:	5.479	Roll Set Point:	-0.262	Pitch Set Point:	-0.164	Yaw Set Point:	-0.063	X_WP:	0.000	Y_WP:	0.000	Y_WP:	0.500	X:	0.128	Y:	0.086	Z:	0.401	yaw:	3.613	yaw rate:	5.967	Roll:	4.568	Pitch:	2.673	Yaw:	7.607	Thrust:	44.989
Time:	5.495	Roll Set Point:	-0.262	Pitch Set Point:	-0.164	Yaw Set Point:	-0.062	X_WP:	0.000	Y_WP:	0.000	Y_WP:	0.500	X:	0.128	Y:	0.086	Z:	0.401	yaw:	3.575	yaw rate:	-3.769	Roll:	4.386	Pitch:	2.970	Yaw:	5.923	Thrust:	44.864
Time:	5.510	Roll Set Point:	-0.262	Pitch Set Point:	-0.164	Yaw Set Point:	-0.062	X_WP:	0.000	Y_WP:	0.000	Y_WP:	0.500	X:	0.128	Y:	0.086	Z:	0.401	yaw:	3.575	yaw rate:	-3.769	Roll:	4.456	Pitch:	2.846	Yaw:	6.555	Thrust:	45.189
Time:	5.526	Roll Set Point:	-0.262	Pitch Set Point:	-0.164	Yaw Set Point:	-0.063	X_WP:	0.000	Y_WP:	0.000	Y_WP:	0.500	X:	0.128	Y:	0.086	Z:	0.401	yaw:	3.597	yaw rate:	2.157	Roll:	4.477	Pitch:	2.864	Yaw:	6.946	Thrust:	45.438
Time:	5.541	Roll Set Point:	-0.262	Pitch Set Point:	-0.164	Yaw Set Point:	-0.063	X_WP:	0.000	Y_WP:	0.000	Y_WP:	0.500	X:	0.128	Y:	0.086	Z:	0.401	yaw:	3.594	yaw rate:	-0.344	Roll:	4.477	Pitch:	2.784	Yaw:	6.524	Thrust:	45.580
Time:	5.557	Roll Set Point:	-0.262	Pitch Set Point:	-0.164	Yaw Set Point:	-0.063	X_WP:	0.000	Y_WP:	0.000	Y_WP:	0.500	X:	0.128	Y:	0.086	Z:	0.401	yaw:	3.594	yaw rate:	-0.344	Roll:	4.460	Pitch:	2.847	Yaw:	6.586	Thrust:	45.908
Time:	5.573	Roll Set Point:	-0.262	Pitch Set Point:	-0.164	Yaw Set Point:	-0.064	X_WP:	0.000	Y_WP:	0.000	Y_WP:	0.500	X:	0.128	Y:	0.086	Z:	0.401	yaw:	3.662	yaw rate:	8.772	Roll:	4.385	Pitch:	2.853	Yaw:	7.827	Thrust:	45.209
Time:	5.588	Roll Set Point:	-0.262	Pitch Set Point:	-0.164	Yaw Set Point:	-0.062	X_WP:	0.000	Y_WP:	0.000	Y_WP:	0.500	X:	0.128	Y:	0.086	Z:	0.401	yaw:	3.579	yaw rate:	-8.287	Roll:	4.453	Pitch:	2.951	Yaw:	5.172	Thrust:	46.693
Time:	5.604	Roll Set Point:	-0.262	Pitch Set Point:	-0.164	Yaw Set Point:	-0.063	X_WP:	0.000	Y_WP:	0.000	Y_WP:	0.500	X:	0.128	Y:	0.086	Z:	0.401	yaw:	3.605	yaw rate:	2.582	Roll:	4.554	Pitch:	2.716	Yaw:	7.029	Thrust:	46.316
Time:	5.620	Roll Set Point:	-0.262	Pitch Set Point:	-0.164	Yaw Set Point:	-0.062	X_WP:	0.000	Y_WP:	0.000	Y_WP:	0.500	X:	0.128	Y:	0.086	Z:	0.401	yaw:	3.560	yaw rate:	-4.536	Roll:	4.365	Pitch:	2.966	Yaw:	5.774	Thrust:	46.493
Time:	5.635	Roll Set Point:	-0.262	Pitch Set Point:	-0.164	Yaw Set Point:	-0.062	X_WP:	0.000	Y_WP:	0.000	Y_WP:	0.500	X:	0.128	Y:	0.086	Z:	0.401	yaw:	3.556	yaw rate:	-0.388	Roll:	4.463	Pitch:	2.867	Yaw:	6.463	Thrust:	46.580
Time:	5.651	Roll Set Point:	-0.262	Pitch Set Point:	-0.164	Yaw Set Point:	-0.062	X_WP:	0.000	Y_WP:	0.000	Y_WP:	0.500	X:	0.128	Y:	0.086	Z:	0.401	yaw:	3.577	yaw rate:	2.059	Roll:	4.482	Pitch:	2.799	Yaw:	6.902	Thrust:	46.939
Time:	5.666	Roll Set Point:	-0.262	Pitch Set Point:	-0.164	Yaw Set Point:	-0.063	X_WP:	0.000	Y_WP:	0.000	Y_WP:	0.500	X:	0.128	Y:	0.086	Z:	0.401	yaw:	3.594	yaw rate:	1.754	Roll:	4.456	Pitch:	2.792	Yaw:	6.878	Thrust:	47.162
Time:	5.682	Roll Set Point:	-0.262	Pitch Set Point:	-0.164	Yaw Set Point:	-0.063	X_WP:	0.000	Y_WP:	0.000	Y_WP:	0.500	X:	0.128	Y:	0.086	Z:	0.401	yaw:	3.616	yaw rate:	2.199	Roll:	4.500	Pitch:	2.820	Yaw:	6.980	Thrust:	47.299
Time:	5.698	Roll Set Point:	-0.262	Pitch Set Point:	-0.164	Yaw Set Point:	-0.062	X_WP:	0.000	Y_WP:	0.000	Y_WP:	0.500	X:	0.128	Y:	0.086	Z:	0.401	yaw:	3.547	yaw rate:	-6.892	Roll:	4.366	Pitch:	2.982	Yaw:	5.357	Thrust:	47.182
Time:	5.713	Roll Set Point:	-0.262	Pitch Set Point:	-0.164	Yaw Set Point:	-0.063	X_WP:	0.000	Y_WP:	0.000	Y_WP:	0.500	X:	0.128	Y:	0.086	Z:	0.401	yaw:	3.585	yaw rate:	3.732	Roll:	4.520	Pitch:	2.759	Yaw:	7.194	Thrust:	47.713
Time:	5.729	Roll Set Point:	-0.262	Pitch Set Point:	-0.164	Yaw Set Point:	-0.062	X_WP:	0.000	Y_WP:	0.000	Y_WP:	0.500	X:	0.128	Y:	0.086	Z:	0.401	yaw:	3.560	yaw rate:	-2.458	Roll:	4.404	Pitch:	2.924	Yaw:	6.118	Thrust:	47.743
Time:	5.745	Roll Set Point:	-0.262	Pitch Set Point:	-0.164	Yaw Set Point:	-0.063	X_WP:	0.000	Y_WP:	0.000	Y_WP:	0.500	X:	0.128	Y:	0.086	Z:	0.401	yaw:	3.596	yaw rate:	3.576	Roll:	4.553	Pitch:	2.731	Yaw:	7.182	Thrust:	47.968
Time:	5.760	Roll Set Point:	-0.262	Pitch Set Point:	-0.164	Yaw Set Point:	-0.063	X_WP:	0.000	Y_WP:	0.000	Y_WP:	0.500	X:	0.128	Y:	0.086	Z:	0.401	yaw:	3.595	yaw rate:	-0.059	Roll:	4.411	Pitch:	2.870	Yaw:	6.573	Thrust:	48.210
Time:	5.776	Roll Set Point:	-0.262	Pitch Set Point:	-0.164	Yaw Set Point:	-0.064	X_WP:	0.000	Y_WP:	0.000	Y_WP:	0.500	X:	0.128	Y:	0.086	Z:	0.401	yaw:	3.661	yaw rate:	6.606	Roll:	4.386	Pitch:	2.864	Yaw:	7.782	Thrust:	47.734
Time:	5.791	Roll Set Point:	-0.262	Pitch Set Point:	-0.164	Yaw Set Point:	-0.063	X_WP:	0.000	Y_WP:	0.000	Y_WP:	0.500	X:	0.128	Y:	0.086	Z:	0.401	yaw:	3.581	yaw rate:	-7.978	Roll:	4.526	Pitch:	2.863	Yaw:	5.232	Thrust:	49.216
Time:	5.807	Roll Set Point:	-0.262	Pitch Set Point:	-0.164	Yaw Set Point:	-0.063	X_WP:	0.000	Y_WP:	0.000	Y_WP:	0.500	X:	0.128	Y:	0.086	Z:	0.401	yaw:	3.581	yaw rate:	-7.978	Roll:	4.456	Pitch:	2.845	Yaw:	6.560	Thrust:	48.642
Time:	5.823	Roll Set Point:	-0.262	Pitch Set Point:	-0.164	Yaw Set Point:	-0.063	X_WP:	0.000	Y_WP:	0.000	Y_WP:	0.500	X:	0.128	Y:	0.086	Z:	0.401	yaw:	3.584	yaw rate:	3.123	Roll:	4.488	Pitch:	2.813	Yaw:	6.607	Thrust:	48.788
Time:	5.838	Roll Set Point:	-0.262	Pitch Set Point:	-0.164	Yaw Set Point:	-0.062	X_WP:	0.000	Y_WP:	0.000	Y_WP:	0.500	X:	0.128	Y:	0.086	Z:	0.401	yaw:	3.579	yaw rate:	-0.510	Roll:	4.403	Pitch:	2.888	Yaw:	6.474	Thrust:	49.194
Time:	5.854	Roll Set Point:	-0.262	Pitch Set Point:	-0.164	Yaw Set Point:	-0.062	X_WP:	0.000	Y_WP:	0.000	Y_WP:	0.500	X:	0.128	Y:	0.086	Z:	0.401	yaw:	3.568	yaw rate:	-1.025	Roll:	4.440	Pitch:	2.868	Yaw:	6.374	Thrust:	49.182
Time:	5.870	Roll Set Point:	-0.262	Pitch Set Point:	-0.164	Yaw Set Point:	-0.062	X_WP:	0.000	Y_WP:	0.000	Y_WP:	0.500	X:	0.128	Y:	0.086	Z:	0.401	yaw:	3.568	yaw rate:	-1.025	Roll:	4.456	Pitch:	2.847	Yaw:	6.545	Thrust:	49.460
Time:	5.885	Roll Set Point:	-0.262	Pitch Set Point:	-0.164	Yaw Set Point:	-0.063	X_WP:	0.000	Y_WP:	0.000	Y_WP:	0.500	X:	0.128	Y:	0.086	Z:	0.401	yaw:	3.592	yaw rate:	-1.956	Roll:	4.537	Pitch:	2.748	Yaw:	6.975	Thrust:	49.624
Time:	5.901	Roll Set Point:	-0.262	Pitch Set Point:	-0.164	Yaw Set Point:	-0.063	X_WP:	0.000	Y_WP:	0.000	Y_WP:	0.500	X:	0.128	Y:	0.086	Z:	0.401	yaw:	3.592	yaw rate:	-1.956	Roll:	4.458	Pitch:	2.845	Yaw:	6.578	Thrust:	49.839
Time:	5.916	Roll Set Point:	-0.262	Pitch Set Point:	-0.164	Yaw Set Point:	-0.062	X_WP:	0.000	Y_WP:	0.000	Y_WP:	0.500	X:	0.128	Y:	0.086	Z:	0.401	yaw:	3.559	yaw rate:	-11.364	Roll:	4.353	Pitch:	3.005	Yaw:	5.983	Thrust:	50.143
Time:	5.932	Roll Set Point:	-0.262	Pitch Set Point:	-0.164	Yaw Set Point:	-0.062	X_WP:	0.000	Y_WP:	0.000	Y_WP:	0.500	X:	0.128	Y:	0.086	Z:	0.401	yaw:	3.559	yaw rate:	-11.364	Roll:	4.456	Pitch:	2.849	Yaw:	6.534	Thrust:	50.236
Time:	5.948	Roll Set Point:	-0.262	Pitch Set Point:	-0.164	Yaw Set Point:	-0.063	X_WP:	0.000	Y_WP:	0.000	Y_WP:	0.500	X:	0.128	Y:	0.086	Z:	0.401	yaw:	3.633	yaw rate:	8.103	Roll:	4.577	Pitch:	2.606	Yaw:	7.861	Thrust:	50.406
Time:	5.963	Roll Set Point:	-0.262	Pitch Set Point:	-0.164	Yaw Set Point:	-0.063	X_WP:	0.000	Y_WP:	0.000	Y_WP:	0.500	X:	0.128	Y:	0.086	Z:	0.401	yaw:	3.592	yaw rate:	-4.061	Roll:	4.388	Pitch:	2.981	Yaw:	5.898	Thrust:	50.455
Time:	5.979	Roll Set Point:	-0.262	Pitch Set Point:	-0.164	Yaw Set Point:	-0.062	X_WP:	0.000	Y_WP:	0.000	Y_WP:	0.500	X:	0.128	Y:	0.086	Z:	0.401	yaw:	3.551	yaw rate:	-4.091	Roll:	4.404	Pitch:	2.956	Yaw:	5.840	Thrust:	50.874
Time:	5.995	Roll Set Point:	-0.262	Pitch Set Point:	-0.164	Yaw Set Point:	-0.063	X_WP:	0.000	Y_WP:	0.000	Y_WP:	0.500	X:	0.128	Y:	0.086	Z:	0.401	yaw:	3.588	yaw rate:	3.675	Roll:	4.527	Pitch:	2.678	Yaw:	7.186	Thrust:	50.864
Time:	6.010	Roll Set Point:	-0.129	Pitch Set Point:	-0.024	Yaw Set Point:	-0.063	X_WP:	0.124	Y_WP:	0.148	Y_WP:	0.500	X:	0.128	Y:	0.086	Z:	0.401	yaw:	3.588	yaw rate:	3.675	Roll:	-30.000	Pitch:	-30.000	Yaw:	6.572	Thrust:	51.135
Time:	6.026	Roll Set Point:	-0.129	Pitch Set Point:	-0.024	Yaw Set Point:	-0.063	X_WP:	0.124	Y_WP:	0.148	Y_WP:	0.500	X:	0.128	Y:	0.086	Z:	0.401	yaw:	3.635	yaw rate:	4.040	Roll:	0.601	Pitch:	-1.229	Yaw:	7.420	Thrust:	51.430
Time:	6.041	Roll Set Point:	-0.129	Pitch Set Point:	-0.024	Yaw Set Point:	-0.063	X_WP:	0.124	Y_WP:	0.148	Y_WP:	0.500	X:	0.128	Y:	0.086	Z:	0.401	yaw:	3.625	yaw rate:	-0.950	Roll:	0.708	Pitch:	-1.212	Yaw:	6.465	Thrust:	50.813
Time:	6.057	Roll Set Point:	-0.129	Pitch Set Point:	-0.024	Yaw Set Point:	-0.063	X_WP:	0.124	Y_WP:	0.148	Y_WP:	0.500	X:	0.128	Y:	0.086	Z:	0.401	yaw:	3.601	yaw rate:	-2.369	Roll:	0.503	Pitch:	-1.229	Yaw:	6.194	Thrust:	52.265
Time:	6.073	Roll Set Point:	-0.129	Pitch Set Point:	-0.024	Yaw Set Point:	-0.064	X_WP:	0.124	Y_WP:	0.148	Y_WP:	0.500	X:	0.128	Y:	0.086	Z:	0.401	yaw:	3.658	yaw rate:	5.624	Roll:	0.543	Pitch:	-1.248	Yaw:	7.613	Thrust:	52.088
Time:	6.088	Roll Set Point:	-0.129	Pitch Set Point:	-0.024	Yaw Set Point:	-0.063	X_WP:	0.124	Y_WP:	0.148	Y_WP:	0.500	X:	0.128	Y:	0.086	Z:	0.401	yaw:	3.612	yaw rate:	-4.523	Roll:	0.677	Pitch:	-1.233	Yaw:	5.849	Thrust:	51.918
Time:	6.104	Roll Set Point:	-0.129	Pitch Set Point:	-0.024	Yaw Set Point:	-0.062	X_WP:	0.124	Y_WP:	0.148	Y_WP:	0.500	X:	0.128	Y:	0.086	Z:	0.401	yaw:	3.557	yaw rate:	-5.542	Roll:	0.627	Pitch:	-1.239	Yaw:	5.596	Thrust:	52.161
Time:	6.120	Roll Set Point:	-0.129	Pitch Set Point:	-0.024	Yaw Set Point:	-0.063	X_WP:	0.124	Y_WP:	0.148	Y_WP:	0.500	X:	0.128	Y:	0.086	Z:	0.401	yaw:	3.590	yaw rate:	3.268	Roll:	0.596	Pitch:	-1.242	Yaw:	7.122	Thrust:	52.419
Time:	6.135	Roll Set Point:	-0.129	Pitch Set Point:	-0.024	Yaw Set Point:	-0.063	X_WP:	0.124	Y_WP:	0.148	Y_WP:	0.500	X:	0.128	Y:	0.086	Z:	0.401	yaw:	3.589	yaw rate:	-0.074	Roll:	0.619	Pitch:	-1.241	Yaw:	6.561	Thrust:	52.702
Time:	6.151	Roll Set Point:	-0.129	Pitch Set Point:	-0.024	Yaw Set Point:	-0.063	X_WP:	0.124	Y_WP:	0.148	Y_WP:	0.500	X:	0.128	Y:	0.086	Z:	0.401	yaw:	3.589	yaw rate:	-0.074	Roll:	0.605	Pitch:	-1.245	Yaw:	6.574	Thrust:	52.802
Time:	6.166	Roll Set Point:	-0.129	Pitch Set Point:	-0.024	Yaw Set Point:	-0.062	X_WP:	0.124	Y_WP:	0.148	Y_WP:	0.500	X:	0.128	Y:	0.086	Z:	0.401	yaw:	3.561	yaw rate:	-2.813	Roll:	0.604	Pitch:	-1.244	Yaw:	6.067	Thrust:	53.095
Time:	6.182	Roll Set Point:	-0.129	Pitch Set Point:	-0.024	Yaw Set Point:	-0.063	X_WP:	0.124	Y_WP:	0.148	Y_WP:	0.500	X:	0.128	Y:	0.086	Z:	0.401	yaw:	3.607	yaw rate:	1.311	Roll:	0.680	Pitch:	-1.234	Yaw:	7.373	Thrust:	52.432
Time:	6.198	Roll Set Point:	-0.129	Pitch Set Point:	-0.024	Yaw Set Point:	-0.062	X_WP:	0.124	Y_WP:	0.148	Y_WP:	0.500	X:	0.128	Y:	0.086	Z:	0.401	yaw:	3.579	yaw rate:	-2.757	Roll:	0.484	Pitch:	-1.247	Yaw:	6.099	Thrust:	53.871
Time:	6.213	Roll Set Point:	-0.129	Pitch Set Point:	-0.024	Yaw Set Point:	-0.062	X_WP:	0.124	Y_WP:	0.148	Y_WP:	0.500	X:	0.128	Y:	0.086	Z:	0.401	yaw:	3.559	yaw rate:	-2.039	Roll:	0.668	Pitch:	-1.274	Yaw:	6.191	Thrust:	53.641
Time:	6.229	Roll Set Point:	-0.129	Pitch Set Point:	-0.024	Yaw Set Point:	-0.063	X_WP:	0.124	Y_WP:	0.148	Y_WP:	0.500	X:	0.128	Y:	0.086	Z:	0.401	yaw:	3.590	yaw rate:	3.140	Roll:	0.563	Pitch:	-1.263	Yaw:	7.102	Thrust:	53.730
Time:	6.245	Roll Set Point:	-0.129	Pitch Set Point:	-0.024	Yaw Set Point:	-0.063	X_WP:	0.124	Y_WP:	0.148	Y_WP:	0.500	X:	0.128	Y:	0.086	Z:	0.401	yaw:	3.583	yaw rate:	-0.722	Roll:	0.615	Pitch:	-1.260	Yaw:	6.445	Thrust:	53.915
Time:	6.260	Roll Set Point:	-0.129	Pitch Set Point:	-0.024	Yaw Set Point:	-0.062	X_WP:	0.124	Y_WP:	0.148	Y_WP:	0.500	X:	0.128	Y:	0.086	Z:	0.401	yaw:	3.558	yaw rate:	-2.556	Roll:	0.614	Pitch:	-1.260	Yaw:	6.102	Thrust:	54.119
Time:	6.278	Roll Set Point:	-0.129	Pitch Set Point:	-0.024	Yaw Set Point:	-0.062	X_WP:	0.124	Y_WP:	0.148	Y_WP:	0.500	X:	0.128	Y:	0.086	Z:	0.401	yaw:	3.563	yaw rate:	0.492	Roll:	0.559	Pitch:	-1.265	Yaw:	6.780	Thrust:	54.307
Time:	6.292	Roll Set Point:	-0.129	Pitch Set Point:	-0.024	Yaw Set Point:	-0.063	X_WP:	0.124	Y_WP:	0.148	Y_WP:	0.500	X:	0.128	Y:	0.086	Z:	0.401	yaw:	3.589	yaw rate:	2.600	Roll:	0.650	Pitch:	-1.253	Yaw:	6.908	Thrust:	55.244
Time:	6.307	Roll Set Point:	-0.129	Pitch Set Point:	-0.024	Yaw Set Point:	-0.063	X_WP:	0.124	Y_WP:	0.148	Y_WP:	0.500	X:	0.128	Y:	0.086	Z:	0.401	yaw:	3.589	yaw rate:	2.600	Roll:	0.606	Pitch:	-1.266	Yaw:	6.582	Thrust:	54.943
Time:	6.323	Roll Set Point:	-0.129	Pitch Set Point:	-0.024	Yaw Set Point:	-0.062	X_WP:	0.124	Y_WP:	0.148	Y_WP:	0.500	X:	0.128	Y:	0.086	Z:	0.401	yaw:	3.577	yaw rate:	-0.126	Roll:	0.594	Pitch:	-1.278	Yaw:	6.353	Thrust:	54.499
Time:	6.339	Roll Set Point:	-0.129	Pitch Set Point:	-0.024	Yaw Set Point:	-0.063	X_WP:	0.124	Y_WP:	0.148	Y_WP:	0.500	X:	0.128	Y:	0.086	Z:	0.401	yaw:	3.600	yaw rate:	2.316	Roll:	0.556	Pitch:	-1.276	Yaw:	6.979	Thrust:	55.188
Time:	6.354	Roll Set Point:	-0.129	Pitch Set Point:	-0.024	Yaw Set Point:	-0.063	X_WP:	0.124	Y_WP:	0.148	Y_WP:	0.500	X:	0.128	Y:	0.086	Z:	0.401	yaw:	3.589	yaw rate:	-1.157	Roll:	0.648	Pitch:	-1.274	Yaw:	6.379	Thrust:	55.170
