Time:	2.047	Roll Set Point:	0.065	Pitch Set Point:	-0.116	Yaw Set Point:	-0.021	X_WP:	0.100	Y_WP:	0.000	Y_WP:	0.500	X:	0.017	Y:	0.057	Z:	0.057	yaw:	1.204	yaw rate:	-0.847	Roll:	-2.371	Pitch:	1.702	Yaw:	1.681	Thrust:	24.376
Time:	2.058	Roll Set Point:	0.065	Pitch Set Point:	-0.116	Yaw Set Point:	-0.021	X_WP:	0.100	Y_WP:	0.000	Y_WP:	0.500	X:	0.017	Y:	0.057	Z:	0.057	yaw:	1.199	yaw rate:	-0.452	Roll:	-2.365	Pitch:	1.709	Yaw:	1.577	Thrust:	24.936
Time:	2.069	Roll Set Point:	0.065	Pitch Set Point:	-0.116	Yaw Set Point:	-0.021	X_WP:	0.100	Y_WP:	0.000	Y_WP:	0.500	X:	0.017	Y:	0.057	Z:	0.057	yaw:	1.206	yaw rate:	0.652	Roll:	-2.370	Pitch:	1.700	Yaw:	1.861	Thrust:	25.430
Time:	2.079	Roll Set Point:	0.065	Pitch Set Point:	-0.116	Yaw Set Point:	-0.021	X_WP:	0.100	Y_WP:	0.000	Y_WP:	0.500	X:	0.017	Y:	0.057	Z:	0.057	yaw:	1.213	yaw rate:	0.727	Roll:	-2.394	Pitch:	1.685	Yaw:	1.880	Thrust:	26.316
Time:	2.091	Roll Set Point:	0.065	Pitch Set Point:	-0.116	Yaw Set Point:	-0.021	X_WP:	0.100	Y_WP:	0.000	Y_WP:	0.500	X:	0.017	Y:	0.057	Z:	0.057	yaw:	1.209	yaw rate:	-0.424	Roll:	-2.349	Pitch:	1.744	Yaw:	1.611	Thrust:	26.683
Time:	2.102	Roll Set Point:	0.065	Pitch Set Point:	-0.116	Yaw Set Point:	-0.021	X_WP:	0.100	Y_WP:	0.000	Y_WP:	0.500	X:	0.017	Y:	0.057	Z:	0.057	yaw:	1.205	yaw rate:	-0.418	Roll:	-2.394	Pitch:	1.709	Yaw:	1.607	Thrust:	27.346
Time:	2.114	Roll Set Point:	0.065	Pitch Set Point:	-0.116	Yaw Set Point:	-0.021	X_WP:	0.100	Y_WP:	0.000	Y_WP:	0.500	X:	0.017	Y:	0.057	Z:	0.057	yaw:	1.210	yaw rate:	0.543	Roll:	-2.410	Pitch:	1.671	Yaw:	1.838	Thrust:	28.288
Time:	2.125	Roll Set Point:	0.065	Pitch Set Point:	-0.116	Yaw Set Point:	-0.021	X_WP:	0.100	Y_WP:	0.000	Y_WP:	0.500	X:	0.017	Y:	0.057	Z:	0.057	yaw:	1.211	yaw rate:	0.104	Roll:	-2.346	Pitch:	1.774	Yaw:	1.749	Thrust:	28.336
Time:	2.136	Roll Set Point:	0.065	Pitch Set Point:	-0.116	Yaw Set Point:	-0.021	X_WP:	0.100	Y_WP:	0.000	Y_WP:	0.500	X:	0.017	Y:	0.057	Z:	0.057	yaw:	1.212	yaw rate:	0.101	Roll:	-2.396	Pitch:	1.692	Yaw:	1.753	Thrust:	29.127
Time:	2.147	Roll Set Point:	0.065	Pitch Set Point:	-0.116	Yaw Set Point:	-0.021	X_WP:	0.100	Y_WP:	0.000	Y_WP:	0.500	X:	0.017	Y:	0.057	Z:	0.057	yaw:	1.211	yaw rate:	-0.099	Roll:	-2.389	Pitch:	1.731	Yaw:	1.710	Thrust:	29.696
Time:	2.158	Roll Set Point:	0.065	Pitch Set Point:	-0.116	Yaw Set Point:	-0.021	X_WP:	0.100	Y_WP:	0.000	Y_WP:	0.500	X:	0.017	Y:	0.057	Z:	0.057	yaw:	1.210	yaw rate:	-0.101	Roll:	-2.408	Pitch:	1.714	Yaw:	1.709	Thrust:	29.944
Time:	2.169	Roll Set Point:	0.065	Pitch Set Point:	-0.116	Yaw Set Point:	-0.021	X_WP:	0.100	Y_WP:	0.000	Y_WP:	0.500	X:	0.017	Y:	0.057	Z:	0.057	yaw:	1.207	yaw rate:	-0.322	Roll:	-2.394	Pitch:	1.699	Yaw:	1.661	Thrust:	30.874
Time:	2.180	Roll Set Point:	0.065	Pitch Set Point:	-0.116	Yaw Set Point:	-0.021	X_WP:	0.100	Y_WP:	0.000	Y_WP:	0.500	X:	0.017	Y:	0.057	Z:	0.057	yaw:	1.206	yaw rate:	-0.097	Roll:	-2.395	Pitch:	1.725	Yaw:	1.717	Thrust:	31.389
Time:	2.191	Roll Set Point:	0.065	Pitch Set Point:	-0.116	Yaw Set Point:	-0.021	X_WP:	0.100	Y_WP:	0.000	Y_WP:	0.500	X:	0.017	Y:	0.057	Z:	0.057	yaw:	1.206	yaw rate:	-0.005	Roll:	-2.389	Pitch:	1.737	Yaw:	1.746	Thrust:	32.339
Time:	2.202	Roll Set Point:	0.065	Pitch Set Point:	-0.116	Yaw Set Point:	-0.021	X_WP:	0.100	Y_WP:	0.000	Y_WP:	0.500	X:	0.017	Y:	0.057	Z:	0.057	yaw:	1.215	yaw rate:	0.875	Roll:	-2.415	Pitch:	1.696	Yaw:	1.968	Thrust:	32.707
Time:	2.213	Roll Set Point:	0.065	Pitch Set Point:	-0.116	Yaw Set Point:	-0.021	X_WP:	0.100	Y_WP:	0.000	Y_WP:	0.500	X:	0.017	Y:	0.057	Z:	0.057	yaw:	1.202	yaw rate:	-1.260	Roll:	-2.403	Pitch:	1.752	Yaw:	1.450	Thrust:	33.187
Time:	2.225	Roll Set Point:	0.065	Pitch Set Point:	-0.116	Yaw Set Point:	-0.021	X_WP:	0.100	Y_WP:	0.000	Y_WP:	0.500	X:	0.017	Y:	0.057	Z:	0.057	yaw:	1.208	yaw rate:	0.599	Roll:	-2.388	Pitch:	1.739	Yaw:	1.901	Thrust:	34.111
Time:	2.236	Roll Set Point:	0.065	Pitch Set Point:	-0.116	Yaw Set Point:	-0.021	X_WP:	0.100	Y_WP:	0.000	Y_WP:	0.500	X:	0.017	Y:	0.057	Z:	0.057	yaw:	1.212	yaw rate:	0.349	Roll:	-2.442	Pitch:	1.682	Yaw:	1.854	Thrust:	34.367
Time:	2.246	Roll Set Point:	0.065	Pitch Set Point:	-0.116	Yaw Set Point:	-0.021	X_WP:	0.100	Y_WP:	0.000	Y_WP:	0.500	X:	0.017	Y:	0.057	Z:	0.057	yaw:	1.208	yaw rate:	-0.410	Roll:	-2.383	Pitch:	1.755	Yaw:	1.655	Thrust:	33.826
Time:	2.258	Roll Set Point:	0.065	Pitch Set Point:	-0.116	Yaw Set Point:	-0.021	X_WP:	0.100	Y_WP:	0.000	Y_WP:	0.500	X:	0.017	Y:	0.057	Z:	0.057	yaw:	1.208	yaw rate:	0.016	Roll:	-2.419	Pitch:	1.739	Yaw:	1.782	Thrust:	36.030
Time:	2.269	Roll Set Point:	0.065	Pitch Set Point:	-0.116	Yaw Set Point:	-0.021	X_WP:	0.100	Y_WP:	0.000	Y_WP:	0.500	X:	0.017	Y:	0.057	Z:	0.057	yaw:	1.210	yaw rate:	0.194	Roll:	-2.418	Pitch:	1.748	Yaw:	1.828	Thrust:	36.136
Time:	2.279	Roll Set Point:	0.065	Pitch Set Point:	-0.116	Yaw Set Point:	-0.021	X_WP:	0.100	Y_WP:	0.000	Y_WP:	0.500	X:	0.017	Y:	0.057	Z:	0.057	yaw:	1.207	yaw rate:	-0.261	Roll:	-2.414	Pitch:	1.730	Yaw:	1.721	Thrust:	36.707
Time:	2.290	Roll Set Point:	0.065	Pitch Set Point:	-0.116	Yaw Set Point:	-0.021	X_WP:	0.100	Y_WP:	0.000	Y_WP:	0.500	X:	0.017	Y:	0.057	Z:	0.057	yaw:	1.207	yaw rate:	0.007	Roll:	-2.417	Pitch:	1.738	Yaw:	1.790	Thrust:	37.286
Time:	2.301	Roll Set Point:	0.065	Pitch Set Point:	-0.116	Yaw Set Point:	-0.021	X_WP:	0.100	Y_WP:	0.000	Y_WP:	0.500	X:	0.017	Y:	0.057	Z:	0.057	yaw:	1.203	yaw rate:	-0.454	Roll:	-2.428	Pitch:	1.722	Yaw:	1.670	Thrust:	37.320
Time:	2.312	Roll Set Point:	0.065	Pitch Set Point:	-0.116	Yaw Set Point:	-0.021	X_WP:	0.100	Y_WP:	0.000	Y_WP:	0.500	X:	0.017	Y:	0.057	Z:	0.057	yaw:	1.208	yaw rate:	0.532	Roll:	-2.419	Pitch:	1.754	Yaw:	1.924	Thrust:	38.525
Time:	2.324	Roll Set Point:	0.065	Pitch Set Point:	-0.116	Yaw Set Point:	-0.021	X_WP:	0.100	Y_WP:	0.000	Y_WP:	0.500	X:	0.017	Y:	0.057	Z:	0.057	yaw:	1.204	yaw rate:	-0.427	Roll:	-2.440	Pitch:	1.734	Yaw:	1.705	Thrust:	39.700
Time:	2.336	Roll Set Point:	0.065	Pitch Set Point:	-0.116	Yaw Set Point:	-0.021	X_WP:	0.100	Y_WP:	0.000	Y_WP:	0.500	X:	0.017	Y:	0.057	Z:	0.057	yaw:	1.214	yaw rate:	1.060	Roll:	-2.418	Pitch:	1.739	Yaw:	2.054	Thrust:	41.825
Time:	2.347	Roll Set Point:	0.065	Pitch Set Point:	-0.116	Yaw Set Point:	-0.021	X_WP:	0.100	Y_WP:	0.000	Y_WP:	0.500	X:	0.017	Y:	0.057	Z:	0.057	yaw:	1.210	yaw rate:	-0.445	Roll:	-2.438	Pitch:	1.783	Yaw:	1.687	Thrust:	38.706
Time:	2.358	Roll Set Point:	0.065	Pitch Set Point:	-0.116	Yaw Set Point:	-0.021	X_WP:	0.100	Y_WP:	0.000	Y_WP:	0.500	X:	0.017	Y:	0.057	Z:	0.057	yaw:	1.198	yaw rate:	-1.130	Roll:	-2.450	Pitch:	1.705	Yaw:	1.553	Thrust:	41.541
Time:	2.369	Roll Set Point:	0.065	Pitch Set Point:	-0.116	Yaw Set Point:	-0.021	X_WP:	0.100	Y_WP:	0.000	Y_WP:	0.500	X:	0.017	Y:	0.057	Z:	0.057	yaw:	1.205	yaw rate:	0.671	Roll:	-2.419	Pitch:	1.754	Yaw:	1.977	Thrust:	41.110
Time:	2.380	Roll Set Point:	0.065	Pitch Set Point:	-0.116	Yaw Set Point:	-0.021	X_WP:	0.100	Y_WP:	0.000	Y_WP:	0.500	X:	0.017	Y:	0.057	Z:	0.057	yaw:	1.222	yaw rate:	1.658	Roll:	-2.423	Pitch:	1.760	Yaw:	2.239	Thrust:	40.536
Time:	2.391	Roll Set Point:	0.065	Pitch Set Point:	-0.116	Yaw Set Point:	-0.021	X_WP:	0.100	Y_WP:	0.000	Y_WP:	0.500	X:	0.017	Y:	0.057	Z:	0.057	yaw:	1.210	yaw rate:	-1.181	Roll:	-2.464	Pitch:	1.769	Yaw:	1.553	Thrust:	43.360
Time:	2.401	Roll Set Point:	0.065	Pitch Set Point:	-0.116	Yaw Set Point:	-0.021	X_WP:	0.100	Y_WP:	0.000	Y_WP:	0.500	X:	0.017	Y:	0.057	Z:	0.057	yaw:	1.209	yaw rate:	-0.108	Roll:	-2.420	Pitch:	1.757	Yaw:	1.803	Thrust:	43.123
Time:	2.411	Roll Set Point:	0.065	Pitch Set Point:	-0.116	Yaw Set Point:	-0.021	X_WP:	0.100	Y_WP:	0.000	Y_WP:	0.500	X:	0.017	Y:	0.057	Z:	0.057	yaw:	1.212	yaw rate:	0.338	Roll:	-2.453	Pitch:	1.752	Yaw:	1.920	Thrust:	41.955
Time:	2.422	Roll Set Point:	0.065	Pitch Set Point:	-0.116	Yaw Set Point:	-0.021	X_WP:	0.100	Y_WP:	0.000	Y_WP:	0.500	X:	0.017	Y:	0.057	Z:	0.057	yaw:	1.205	yaw rate:	-0.711	Roll:	-2.443	Pitch:	1.732	Yaw:	1.657	Thrust:	43.466
Time:	2.433	Roll Set Point:	0.065	Pitch Set Point:	-0.116	Yaw Set Point:	-0.021	X_WP:	0.100	Y_WP:	0.000	Y_WP:	0.500	X:	0.017	Y:	0.057	Z:	0.057	yaw:	1.213	yaw rate:	0.758	Roll:	-2.442	Pitch:	1.784	Yaw:	2.036	Thrust:	44.857
Time:	2.443	Roll Set Point:	0.065	Pitch Set Point:	-0.116	Yaw Set Point:	-0.021	X_WP:	0.100	Y_WP:	0.000	Y_WP:	0.500	X:	0.017	Y:	0.057	Z:	0.057	yaw:	1.206	yaw rate:	-0.698	Roll:	-2.462	Pitch:	1.739	Yaw:	1.654	Thrust:	43.576
Time:	2.454	Roll Set Point:	0.065	Pitch Set Point:	-0.116	Yaw Set Point:	-0.021	X_WP:	0.100	Y_WP:	0.000	Y_WP:	0.500	X:	0.017	Y:	0.057	Z:	0.057	yaw:	1.217	yaw rate:	1.107	Roll:	-2.463	Pitch:	1.721	Yaw:	2.130	Thrust:	47.139
Time:	2.466	Roll Set Point:	0.065	Pitch Set Point:	-0.116	Yaw Set Point:	-0.021	X_WP:	0.100	Y_WP:	0.000	Y_WP:	0.500	X:	0.017	Y:	0.057	Z:	0.057	yaw:	1.214	yaw rate:	-0.251	Roll:	-2.438	Pitch:	1.781	Yaw:	1.813	Thrust:	46.691
Time:	2.477	Roll Set Point:	0.065	Pitch Set Point:	-0.116	Yaw Set Point:	-0.021	X_WP:	0.100	Y_WP:	0.000	Y_WP:	0.500	X:	0.017	Y:	0.057	Z:	0.057	yaw:	1.212	yaw rate:	-0.271	Roll:	-2.446	Pitch:	1.763	Yaw:	1.810	Thrust:	47.422
Time:	2.487	Roll Set Point:	0.065	Pitch Set Point:	-0.116	Yaw Set Point:	-0.021	X_WP:	0.100	Y_WP:	0.000	Y_WP:	0.500	X:	0.017	Y:	0.057	Z:	0.057	yaw:	1.199	yaw rate:	-1.278	Roll:	-2.483	Pitch:	1.754	Yaw:	1.534	Thrust:	46.616
Time:	2.498	Roll Set Point:	0.065	Pitch Set Point:	-0.116	Yaw Set Point:	-0.021	X_WP:	0.100	Y_WP:	0.000	Y_WP:	0.500	X:	0.017	Y:	0.057	Z:	0.057	yaw:	1.209	yaw rate:	0.974	Roll:	-2.448	Pitch:	1.796	Yaw:	2.112	Thrust:	46.321
Time:	2.510	Roll Set Point:	0.065	Pitch Set Point:	-0.116	Yaw Set Point:	-0.021	X_WP:	0.100	Y_WP:	0.000	Y_WP:	0.500	X:	0.017	Y:	0.057	Z:	0.057	yaw:	1.217	yaw rate:	0.823	Roll:	-2.456	Pitch:	1.769	Yaw:	2.092	Thrust:	52.745
Time:	2.521	Roll Set Point:	0.065	Pitch Set Point:	-0.116	Yaw Set Point:	-0.021	X_WP:	0.100	Y_WP:	0.000	Y_WP:	0.500	X:	0.017	Y:	0.057	Z:	0.057	yaw:	1.209	yaw rate:	-0.817	Roll:	-2.475	Pitch:	1.791	Yaw:	1.694	Thrust:	48.417
Time:	2.532	Roll Set Point:	0.065	Pitch Set Point:	-0.116	Yaw Set Point:	-0.021	X_WP:	0.100	Y_WP:	0.000	Y_WP:	0.500	X:	0.017	Y:	0.057	Z:	0.057	yaw:	1.206	yaw rate:	-0.288	Roll:	-2.483	Pitch:	1.766	Yaw:	1.821	Thrust:	51.441
Time:	2.543	Roll Set Point:	0.065	Pitch Set Point:	-0.116	Yaw Set Point:	-0.021	X_WP:	0.100	Y_WP:	0.000	Y_WP:	0.500	X:	0.017	Y:	0.057	Z:	0.057	yaw:	1.216	yaw rate:	1.053	Roll:	-2.448	Pitch:	1.803	Yaw:	2.157	Thrust:	50.845
Time:	2.554	Roll Set Point:	0.065	Pitch Set Point:	-0.116	Yaw Set Point:	-0.021	X_WP:	0.100	Y_WP:	0.000	Y_WP:	0.500	X:	0.017	Y:	0.057	Z:	0.057	yaw:	1.209	yaw rate:	-0.736	Roll:	-2.498	Pitch:	1.733	Yaw:	1.709	Thrust:	48.926
Time:	2.564	Roll Set Point:	0.065	Pitch Set Point:	-0.116	Yaw Set Point:	-0.021	X_WP:	0.100	Y_WP:	0.000	Y_WP:	0.500	X:	0.017	Y:	0.057	Z:	0.057	yaw:	1.206	yaw rate:	-0.261	Roll:	-2.459	Pitch:	1.782	Yaw:	1.828	Thrust:	51.989
Time:	2.575	Roll Set Point:	0.065	Pitch Set Point:	-0.116	Yaw Set Point:	-0.021	X_WP:	0.100	Y_WP:	0.000	Y_WP:	0.500	X:	0.017	Y:	0.057	Z:	0.057	yaw:	1.216	yaw rate:	0.975	Roll:	-2.460	Pitch:	1.822	Yaw:	2.153	Thrust:	51.416
Time:	2.586	Roll Set Point:	0.065	Pitch Set Point:	-0.116	Yaw Set Point:	-0.021	X_WP:	0.100	Y_WP:	0.000	Y_WP:	0.500	X:	0.017	Y:	0.057	Z:	0.057	yaw:	1.212	yaw rate:	-0.361	Roll:	-2.509	Pitch:	1.715	Yaw:	1.849	Thrust:	54.422
Time:	2.598	Roll Set Point:	0.065	Pitch Set Point:	-0.116	Yaw Set Point:	-0.021	X_WP:	0.100	Y_WP:	0.000	Y_WP:	0.500	X:	0.017	Y:	0.057	Z:	0.057	yaw:	1.202	yaw rate:	-1.004	Roll:	-2.512	Pitch:	1.793	Yaw:	1.694	Thrust:	54.977
Time:	2.610	Roll Set Point:	0.065	Pitch Set Point:	-0.116	Yaw Set Point:	-0.021	X_WP:	0.100	Y_WP:	0.000	Y_WP:	0.500	X:	0.017	Y:	0.057	Z:	0.057	yaw:	1.211	yaw rate:	0.338	Roll:	-2.468	Pitch:	1.785	Yaw:	2.135	Thrust:	55.904
Time:	2.621	Roll Set Point:	0.065	Pitch Set Point:	-0.116	Yaw Set Point:	-0.021	X_WP:	0.100	Y_WP:	0.000	Y_WP:	0.500	X:	0.017	Y:	0.057	Z:	0.057	yaw:	1.209	yaw rate:	-0.176	Roll:	-2.495	Pitch:	1.816	Yaw:	1.901	Thrust:	54.832
Time:	2.632	Roll Set Point:	0.065	Pitch Set Point:	-0.116	Yaw Set Point:	-0.021	X_WP:	0.100	Y_WP:	0.000	Y_WP:	0.500	X:	0.017	Y:	0.057	Z:	0.057	yaw:	1.212	yaw rate:	0.298	Roll:	-2.485	Pitch:	1.800	Yaw:	2.010	Thrust:	56.780
Time:	2.643	Roll Set Point:	0.065	Pitch Set Point:	-0.116	Yaw Set Point:	-0.021	X_WP:	0.100	Y_WP:	0.000	Y_WP:	0.500	X:	0.017	Y:	0.057	Z:	0.057	yaw:	1.207	yaw rate:	-0.504	Roll:	-2.507	Pitch:	1.778	Yaw:	1.835	Thrust:	57.554
Time:	2.655	Roll Set Point:	0.065	Pitch Set Point:	-0.116	Yaw Set Point:	-0.021	X_WP:	0.100	Y_WP:	0.000	Y_WP:	0.500	X:	0.017	Y:	0.057	Z:	0.057	yaw:	1.213	yaw rate:	0.615	Roll:	-2.485	Pitch:	1.805	Yaw:	2.102	Thrust:	58.229
Time:	2.666	Roll Set Point:	0.065	Pitch Set Point:	-0.116	Yaw Set Point:	-0.021	X_WP:	0.100	Y_WP:	0.000	Y_WP:	0.500	X:	0.017	Y:	0.057	Z:	0.057	yaw:	1.210	yaw rate:	-0.296	Roll:	-2.503	Pitch:	1.754	Yaw:	1.880	Thrust:	55.759
Time:	2.676	Roll Set Point:	0.065	Pitch Set Point:	-0.116	Yaw Set Point:	-0.021	X_WP:	0.100	Y_WP:	0.000	Y_WP:	0.500	X:	0.017	Y:	0.057	Z:	0.057	yaw:	1.211	yaw rate:	0.083	Roll:	-2.497	Pitch:	1.830	Yaw:	1.954	Thrust:	56.189
Time:	2.688	Roll Set Point:	0.065	Pitch Set Point:	-0.116	Yaw Set Point:	-0.021	X_WP:	0.100	Y_WP:	0.000	Y_WP:	0.500	X:	0.017	Y:	0.057	Z:	0.057	yaw:	1.211	yaw rate:	-0.050	Roll:	-2.496	Pitch:	1.804	Yaw:	1.974	Thrust:	60.021
Time:	2.699	Roll Set Point:	0.065	Pitch Set Point:	-0.116	Yaw Set Point:	-0.021	X_WP:	0.100	Y_WP:	0.000	Y_WP:	0.500	X:	0.017	Y:	0.057	Z:	0.057	yaw:	1.220	yaw rate:	0.955	Roll:	-2.478	Pitch:	1.786	Yaw:	2.203	Thrust:	57.452
Time:	2.710	Roll Set Point:	0.065	Pitch Set Point:	-0.116	Yaw Set Point:	-0.021	X_WP:	0.100	Y_WP:	0.000	Y_WP:	0.500	X:	0.017	Y:	0.057	Z:	0.057	yaw:	1.209	yaw rate:	-1.130	Roll:	-2.534	Pitch:	1.781	Yaw:	1.724	Thrust:	61.154
Time:	2.720	Roll Set Point:	0.065	Pitch Set Point:	-0.116	Yaw Set Point:	-0.021	X_WP:	0.100	Y_WP:	0.000	Y_WP:	0.500	X:	0.017	Y:	0.057	Z:	0.057	yaw:	1.200	yaw rate:	-0.926	Roll:	-2.515	Pitch:	1.776	Yaw:	1.691	Thrust:	56.775
Time:	2.731	Roll Set Point:	0.065	Pitch Set Point:	-0.116	Yaw Set Point:	-0.021	X_WP:	0.100	Y_WP:	0.000	Y_WP:	0.500	X:	0.017	Y:	0.057	Z:	0.057	yaw:	1.210	yaw rate:	1.074	Roll:	-2.489	Pitch:	1.807	Yaw:	2.234	Thrust:	59.234
Time:	2.743	Roll Set Point:	0.065	Pitch Set Point:	-0.116	Yaw Set Point:	-0.021	X_WP:	0.100	Y_WP:	0.000	Y_WP:	0.500	X:	0.017	Y:	0.057	Z:	0.057	yaw:	1.211	yaw rate:	0.050	Roll:	-2.498	Pitch:	1.841	Yaw:	2.035	Thrust:	64.727
Time:	2.754	Roll Set Point:	0.065	Pitch Set Point:	-0.116	Yaw Set Point:	-0.021	X_WP:	0.100	Y_WP:	0.000	Y_WP:	0.500	X:	0.017	Y:	0.057	Z:	0.057	yaw:	1.206	yaw rate:	-0.446	Roll:	-2.543	Pitch:	1.806	Yaw:	1.839	Thrust:	61.956
Time:	2.764	Roll Set Point:	0.065	Pitch Set Point:	-0.116	Yaw Set Point:	-0.021	X_WP:	0.100	Y_WP:	0.000	Y_WP:	0.500	X:	0.017	Y:	0.057	Z:	0.057	yaw:	1.210	yaw rate:	0.345	Roll:	-2.506	Pitch:	1.759	Yaw:	2.074	Thrust:	62.455
Time:	2.775	Roll Set Point:	0.065	Pitch Set Point:	-0.116	Yaw Set Point:	-0.021	X_WP:	0.100	Y_WP:	0.000	Y_WP:	0.500	X:	0.017	Y:	0.057	Z:	0.057	yaw:	1.205	yaw rate:	-0.447	Roll:	-2.505	Pitch:	1.825	Yaw:	1.885	Thrust:	59.542
Time:	2.787	Roll Set Point:	0.065	Pitch Set Point:	-0.116	Yaw Set Point:	-0.021	X_WP:	0.100	Y_WP:	0.000	Y_WP:	0.500	X:	0.017	Y:	0.057	Z:	0.057	yaw:	1.209	yaw rate:	0.324	Roll:	-2.549	Pitch:	1.851	Yaw:	2.098	Thrust:	70.881
Time:	2.798	Roll Set Point:	0.065	Pitch Set Point:	-0.116	Yaw Set Point:	-0.021	X_WP:	0.100	Y_WP:	0.000	Y_WP:	0.500	X:	0.017	Y:	0.057	Z:	0.057	yaw:	1.214	yaw rate:	0.560	Roll:	-2.514	Pitch:	1.813	Yaw:	2.145	Thrust:	64.222
Time:	2.810	Roll Set Point:	0.065	Pitch Set Point:	-0.116	Yaw Set Point:	-0.021	X_WP:	0.100	Y_WP:	0.000	Y_WP:	0.500	X:	0.017	Y:	0.057	Z:	0.057	yaw:	1.207	yaw rate:	-0.702	Roll:	-2.535	Pitch:	1.798	Yaw:	1.868	Thrust:	63.538
Time:	2.821	Roll Set Point:	0.065	Pitch Set Point:	-0.116	Yaw Set Point:	-0.021	X_WP:	0.100	Y_WP:	0.000	Y_WP:	0.500	X:	0.017	Y:	0.057	Z:	0.057	yaw:	1.216	yaw rate:	0.863	Roll:	-2.515	Pitch:	1.848	Yaw:	2.223	Thrust:	67.340
Time:	2.831	Roll Set Point:	0.065	Pitch Set Point:	-0.116	Yaw Set Point:	-0.021	X_WP:	0.100	Y_WP:	0.000	Y_WP:	0.500	X:	0.017	Y:	0.057	Z:	0.057	yaw:	1.212	yaw rate:	-0.364	Roll:	-2.538	Pitch:	1.742	Yaw:	1.918	Thrust:	64.092
Time:	2.843	Roll Set Point:	0.065	Pitch Set Point:	-0.116	Yaw Set Point:	-0.021	X_WP:	0.100	Y_WP:	0.000	Y_WP:	0.500	X:	0.017	Y:	0.057	Z:	0.057	yaw:	1.204	yaw rate:	-0.812	Roll:	-2.544	Pitch:	1.858	Yaw:	1.833	Thrust:	67.385
Time:	2.854	Roll Set Point:	0.065	Pitch Set Point:	-0.116	Yaw Set Point:	-0.021	X_WP:	0.100	Y_WP:	0.000	Y_WP:	0.500	X:	0.017	Y:	0.057	Z:	0.057	yaw:	1.215	yaw rate:	1.079	Roll:	-2.538	Pitch:	1.817	Yaw:	2.296	Thrust:	67.309
Time:	2.865	Roll Set Point:	0.065	Pitch Set Point:	-0.116	Yaw Set Point:	-0.021	X_WP:	0.100	Y_WP:	0.000	Y_WP:	0.500	X:	0.017	Y:	0.057	Z:	0.057	yaw:	1.210	yaw rate:	-0.492	Roll:	-2.535	Pitch:	1.821	Yaw:	1.896	Thrust:	67.644
Time:	2.876	Roll Set Point:	0.065	Pitch Set Point:	-0.116	Yaw Set Point:	-0.021	X_WP:	0.100	Y_WP:	0.000	Y_WP:	0.500	X:	0.017	Y:	0.057	Z:	0.057	yaw:	1.223	yaw rate:	1.331	Roll:	-2.521	Pitch:	1.823	Yaw:	2.372	Thrust:	66.924
Time:	2.887	Roll Set Point:	0.065	Pitch Set Point:	-0.116	Yaw Set Point:	-0.021	X_WP:	0.100	Y_WP:	0.000	Y_WP:	0.500	X:	0.017	Y:	0.057	Z:	0.057	yaw:	1.214	yaw rate:	-0.893	Roll:	-2.539	Pitch:	1.818	Yaw:	1.887	Thrust:	71.067
Time:	2.898	Roll Set Point:	0.065	Pitch Set Point:	-0.116	Yaw Set Point:	-0.021	X_WP:	0.100	Y_WP:	0.000	Y_WP:	0.500	X:	0.017	Y:	0.057	Z:	0.057	yaw:	1.211	yaw rate:	-0.297	Roll:	-2.552	Pitch:	1.841	Yaw:	1.960	Thrust:	69.387
Time:	2.911	Roll Set Point:	0.065	Pitch Set Point:	-0.116	Yaw Set Point:	-0.021	X_WP:	0.100	Y_WP:	0.000	Y_WP:	0.500	X:	0.017	Y:	0.057	Z:	0.057	yaw:	1.207	yaw rate:	0.357	Roll:	-2.576	Pitch:	1.850	Yaw:	1.989	Thrust:	74.393
Time:	2.921	Roll Set Point:	0.065	Pitch Set Point:	-0.116	Yaw Set Point:	-0.021	X_WP:	0.100	Y_WP:	0.000	Y_WP:	0.500	X:	0.017	Y:	0.057	Z:	0.057	yaw:	1.210	yaw rate:	0.294	Roll:	-2.556	Pitch:	1.821	Yaw:	2.141	Thrust:	72.707
Time:	2.932	Roll Set Point:	0.065	Pitch Set Point:	-0.116	Yaw Set Point:	-0.021	X_WP:	0.100	Y_WP:	0.000	Y_WP:	0.500	X:	0.017	Y:	0.057	Z:	0.057	yaw:	1.212	yaw rate:	0.183	Roll:	-2.539	Pitch:	1.830	Yaw:	2.108	Thrust:	71.312
Time:	2.943	Roll Set Point:	0.065	Pitch Set Point:	-0.116	Yaw Set Point:	-0.021	X_WP:	0.100	Y_WP:	0.000	Y_WP:	0.500	X:	0.017	Y:	0.057	Z:	0.057	yaw:	1.216	yaw rate:	0.382	Roll:	-2.544	Pitch:	1.822	Yaw:	2.153	Thrust:	69.874
Time:	2.954	Roll Set Point:	0.065	Pitch Set Point:	-0.116	Yaw Set Point:	-0.021	X_WP:	0.100	Y_WP:	0.000	Y_WP:	0.500	X:	0.017	Y:	0.057	Z:	0.057	yaw:	1.210	yaw rate:	-0.546	Roll:	-2.576	Pitch:	1.820	Yaw:	1.965	Thrust:	74.655
Time:	2.965	Roll Set Point:	0.065	Pitch Set Point:	-0.116	Yaw Set Point:	-0.021	X_WP:	0.100	Y_WP:	0.000	Y_WP:	0.500	X:	0.017	Y:	0.057	Z:	0.057	yaw:	1.218	yaw rate:	0.793	Roll:	-2.512	Pitch:	1.872	Yaw:	2.259	Thrust:	68.453
Time:	2.976	Roll Set Point:	0.065	Pitch Set Point:	-0.116	Yaw Set Point:	-0.021	X_WP:	0.100	Y_WP:	0.000	Y_WP:	0.500	X:	0.017	Y:	0.057	Z:	0.057	yaw:	1.206	yaw rate:	-1.261	Roll:	-2.585	Pitch:	1.834	Yaw:	1.811	Thrust:	76.387
Time:	2.987	Roll Set Point:	0.065	Pitch Set Point:	-0.116	Yaw Set Point:	-0.021	X_WP:	0.100	Y_WP:	0.000	Y_WP:	0.500	X:	0.017	Y:	0.057	Z:	0.057	yaw:	1.199	yaw rate:	-0.659	Roll:	-2.585	Pitch:	1.821	Yaw:	1.913	Thrust:	74.112
Time:	2.998	Roll Set Point:	0.065	Pitch Set Point:	-0.116	Yaw Set Point:	-0.021	X_WP:	0.100	Y_WP:	0.000	Y_WP:	0.500	X:	0.017	Y:	0.057	Z:	0.057	yaw:	1.210	yaw rate:	1.095	Roll:	-2.539	Pitch:	1.810	Yaw:	2.350	Thrust:	72.621
Time:	3.009	Roll Set Point:	0.065	Pitch Set Point:	-0.116	Yaw Set Point:	-0.021	X_WP:	0.100	Y_WP:	0.000	Y_WP:	0.500	X:	0.017	Y:	0.057	Z:	0.057	yaw:	1.206	yaw rate:	-0.350	Roll:	-2.557	Pitch:	1.866	Yaw:	2.009	Thrust:	73.100
Time:	3.021	Roll Set Point:	0.065	Pitch Set Point:	-0.116	Yaw Set Point:	-0.021	X_WP:	0.100	Y_WP:	0.000	Y_WP:	0.500	X:	0.017	Y:	0.057	Z:	0.057	yaw:	1.204	yaw rate:	-0.274	Roll:	-2.585	Pitch:	1.867	Yaw:	2.046	Thrust:	83.044
Time:	3.032	Roll Set Point:	0.065	Pitch Set Point:	-0.116	Yaw Set Point:	-0.021	X_WP:	0.100	Y_WP:	0.000	Y_WP:	0.500	X:	0.017	Y:	0.057	Z:	0.057	yaw:	1.207	yaw rate:	0.325	Roll:	-2.577	Pitch:	1.840	Yaw:	2.177	Thrust:	76.611
Time:	3.045	Roll Set Point:	0.065	Pitch Set Point:	-0.116	Yaw Set Point:	-0.021	X_WP:	0.100	Y_WP:	0.000	Y_WP:	0.500	X:	0.017	Y:	0.057	Z:	0.057	yaw:	1.211	yaw rate:	0.361	Roll:	-2.602	Pitch:	1.874	Yaw:	2.226	Thrust:	82.040
Time:	3.056	Roll Set Point:	0.065	Pitch Set Point:	-0.116	Yaw Set Point:	-0.021	X_WP:	0.100	Y_WP:	0.000	Y_WP:	0.500	X:	0.017	Y:	0.057	Z:	0.057	yaw:	1.212	yaw rate:	0.189	Roll:	-2.614	Pitch:	1.825	Yaw:	2.214	Thrust:	82.588
Time:	3.067	Roll Set Point:	0.065	Pitch Set Point:	-0.116	Yaw Set Point:	-0.021	X_WP:	0.100	Y_WP:	0.000	Y_WP:	0.500	X:	0.017	Y:	0.057	Z:	0.057	yaw:	1.208	yaw rate:	-0.433	Roll:	-2.561	Pitch:	1.907	Yaw:	2.013	Thrust:	80.747
Time:	3.078	Roll Set Point:	0.065	Pitch Set Point:	-0.116	Yaw Set Point:	-0.021	X_WP:	0.100	Y_WP:	0.000	Y_WP:	0.500	X:	0.017	Y:	0.057	Z:	0.057	yaw:	1.214	yaw rate:	0.628	Roll:	-2.560	Pitch:	1.837	Yaw:	2.253	Thrust:	74.070
Time:	3.089	Roll Set Point:	0.065	Pitch Set Point:	-0.116	Yaw Set Point:	-0.021	X_WP:	0.100	Y_WP:	0.000	Y_WP:	0.500	X:	0.017	Y:	0.057	Z:	0.057	yaw:	1.212	yaw rate:	-0.264	Roll:	-2.566	Pitch:	1.854	Yaw:	2.089	Thrust:	81.926
Time:	3.100	Roll Set Point:	0.065	Pitch Set Point:	-0.116	Yaw Set Point:	-0.021	X_WP:	0.100	Y_WP:	0.000	Y_WP:	0.500	X:	0.017	Y:	0.057	Z:	0.057	yaw:	1.213	yaw rate:	0.077	Roll:	-2.594	Pitch:	1.883	Yaw:	2.155	Thrust:	80.363
Time:	3.112	Roll Set Point:	0.065	Pitch Set Point:	-0.116	Yaw Set Point:	-0.021	X_WP:	0.100	Y_WP:	0.000	Y_WP:	0.500	X:	0.017	Y:	0.057	Z:	0.057	yaw:	1.212	yaw rate:	-0.079	Roll:	-2.630	Pitch:	1.849	Yaw:	2.162	Thrust:	85.729
Time:	3.123	Roll Set Point:	0.065	Pitch Set Point:	-0.116	Yaw Set Point:	-0.021	X_WP:	0.100	Y_WP:	0.000	Y_WP:	0.500	X:	0.017	Y:	0.057	Z:	0.057	yaw:	1.211	yaw rate:	-0.032	Roll:	-2.563	Pitch:	1.883	Yaw:	2.157	Thrust:	83.959
Time:	3.134	Roll Set Point:	0.065	Pitch Set Point:	-0.116	Yaw Set Point:	-0.021	X_WP:	0.100	Y_WP:	0.000	Y_WP:	0.500	X:	0.017	Y:	0.057	Z:	0.057	yaw:	1.208	yaw rate:	-0.305	Roll:	-2.632	Pitch:	1.835	Yaw:	2.072	Thrust:	82.009
Time:	3.145	Roll Set Point:	0.065	Pitch Set Point:	-0.116	Yaw Set Point:	-0.021	X_WP:	0.100	Y_WP:	0.000	Y_WP:	0.500	X:	0.017	Y:	0.057	Z:	0.057	yaw:	1.212	yaw rate:	0.380	Roll:	-2.577	Pitch:	1.871	Yaw:	2.244	Thrust:	82.329
Time:	3.157	Roll Set Point:	0.065	Pitch Set Point:	-0.116	Yaw Set Point:	-0.021	X_WP:	0.100	Y_WP:	0.000	Y_WP:	0.500	X:	0.017	Y:	0.057	Z:	0.057	yaw:	1.209	yaw rate:	-0.339	Roll:	-2.598	Pitch:	1.865	Yaw:	2.122	Thrust:	88.475
Time:	3.169	Roll Set Point:	0.065	Pitch Set Point:	-0.116	Yaw Set Point:	-0.021	X_WP:	0.100	Y_WP:	0.000	Y_WP:	0.500	X:	0.017	Y:	0.057	Z:	0.057	yaw:	1.208	yaw rate:	-0.120	Roll:	-2.629	Pitch:	1.888	Yaw:	2.151	Thrust:	86.390
Time:	3.181	Roll Set Point:	0.065	Pitch Set Point:	-0.116	Yaw Set Point:	-0.021	X_WP:	0.100	Y_WP:	0.000	Y_WP:	0.500	X:	0.017	Y:	0.057	Z:	0.057	yaw:	1.213	yaw rate:	0.562	Roll:	-2.595	Pitch:	1.881	Yaw:	2.334	Thrust:	89.589
Time:	3.192	Roll Set Point:	0.065	Pitch Set Point:	-0.116	Yaw Set Point:	-0.021	X_WP:	0.100	Y_WP:	0.000	Y_WP:	0.500	X:	0.017	Y:	0.057	Z:	0.057	yaw:	1.210	yaw rate:	-0.326	Roll:	-2.598	Pitch:	1.858	Yaw:	2.092	Thrust:	84.839
Time:	3.203	Roll Set Point:	0.065	Pitch Set Point:	-0.116	Yaw Set Point:	-0.021	X_WP:	0.100	Y_WP:	0.000	Y_WP:	0.500	X:	0.017	Y:	0.057	Z:	0.057	yaw:	1.218	yaw rate:	0.853	Roll:	-2.625	Pitch:	1.844	Yaw:	2.377	Thrust:	83.020
Time:	3.214	Roll Set Point:	0.065	Pitch Set Point:	-0.116	Yaw Set Point:	-0.021	X_WP:	0.100	Y_WP:	0.000	Y_WP:	0.500	X:	0.017	Y:	0.057	Z:	0.057	yaw:	1.205	yaw rate:	-1.360	Roll:	-2.593	Pitch:	1.890	Yaw:	1.848	Thrust:	85.934
Time:	3.225	Roll Set Point:	0.065	Pitch Set Point:	-0.116	Yaw Set Point:	-0.021	X_WP:	0.100	Y_WP:	0.000	Y_WP:	0.500	X:	0.017	Y:	0.057	Z:	0.057	yaw:	1.219	yaw rate:	1.408	Roll:	-2.620	Pitch:	1.879	Yaw:	2.530	Thrust:	86.674
Time:	3.236	Roll Set Point:	0.065	Pitch Set Point:	-0.116	Yaw Set Point:	-0.021	X_WP:	0.100	Y_WP:	0.000	Y_WP:	0.500	X:	0.017	Y:	0.057	Z:	0.057	yaw:	1.209	yaw rate:	-0.037	Roll:	-2.613	Pitch:	1.879	Yaw:	1.950	Thrust:	87.040
Time:	3.246	Roll Set Point:	0.065	Pitch Set Point:	-0.116	Yaw Set Point:	-0.021	X_WP:	0.100	Y_WP:	0.000	Y_WP:	0.500	X:	0.017	Y:	0.057	Z:	0.057	yaw:	1.209	yaw rate:	-0.037	Roll:	-2.591	Pitch:	1.861	Yaw:	2.145	Thrust:	81.975
Time:	3.257	Roll Set Point:	0.065	Pitch Set Point:	-0.116	Yaw Set Point:	-0.021	X_WP:	0.100	Y_WP:	0.000	Y_WP:	0.500	X:	0.017	Y:	0.057	Z:	0.057	yaw:	1.213	yaw rate:	0.404	Roll:	-2.632	Pitch:	1.841	Yaw:	2.316	Thrust:	91.233
Time:	3.268	Roll Set Point:	0.065	Pitch Set Point:	-0.116	Yaw Set Point:	-0.021	X_WP:	0.100	Y_WP:	0.000	Y_WP:	0.500	X:	0.017	Y:	0.057	Z:	0.057	yaw:	1.208	yaw rate:	-0.467	Roll:	-2.617	Pitch:	1.929	Yaw:	2.095	Thrust:	89.452
Time:	3.280	Roll Set Point:	0.065	Pitch Set Point:	-0.116	Yaw Set Point:	-0.021	X_WP:	0.100	Y_WP:	0.000	Y_WP:	0.500	X:	0.017	Y:	0.057	Z:	0.057	yaw:	1.213	yaw rate:	0.460	Roll:	-2.616	Pitch:	1.852	Yaw:	2.320	Thrust:	89.642
Time:	3.291	Roll Set Point:	0.065	Pitch Set Point:	-0.116	Yaw Set Point:	-0.021	X_WP:	0.100	Y_WP:	0.000	Y_WP:	0.500	X:	0.017	Y:	0.057	Z:	0.057	yaw:	1.215	yaw rate:	0.571	Roll:	-2.636	Pitch:	1.858	Yaw:	2.297	Thrust:	90.009
Time:	3.302	Roll Set Point:	0.065	Pitch Set Point:	-0.116	Yaw Set Point:	-0.021	X_WP:	0.100	Y_WP:	0.000	Y_WP:	0.500	X:	0.017	Y:	0.057	Z:	0.057	yaw:	1.215	yaw rate:	0.571	Roll:	-2.614	Pitch:	1.876	Yaw:	2.177	Thrust:	87.792
Time:	3.312	Roll Set Point:	0.065	Pitch Set Point:	-0.116	Yaw Set Point:	-0.021	X_WP:	0.100	Y_WP:	0.000	Y_WP:	0.500	X:	0.017	Y:	0.057	Z:	0.057	yaw:	1.217	yaw rate:	0.120	Roll:	-2.617	Pitch:	1.919	Yaw:	2.258	Thrust:	91.344
Time:	3.324	Roll Set Point:	0.065	Pitch Set Point:	-0.116	Yaw Set Point:	-0.021	X_WP:	0.100	Y_WP:	0.000	Y_WP:	0.500	X:	0.017	Y:	0.057	Z:	0.057	yaw:	1.204	yaw rate:	-1.120	Roll:	-2.643	Pitch:	1.889	Yaw:	1.923	Thrust:	91.695
Time:	3.334	Roll Set Point:	0.065	Pitch Set Point:	-0.116	Yaw Set Point:	-0.021	X_WP:	0.100	Y_WP:	0.000	Y_WP:	0.500	X:	0.017	Y:	0.057	Z:	0.057	yaw:	1.214	yaw rate:	0.988	Roll:	-2.587	Pitch:	1.909	Yaw:	2.456	Thrust:	89.381
Time:	3.344	Roll Set Point:	0.065	Pitch Set Point:	-0.116	Yaw Set Point:	-0.021	X_WP:	0.100	Y_WP:	0.000	Y_WP:	0.500	X:	0.017	Y:	0.057	Z:	0.057	yaw:	1.214	yaw rate:	0.988	Roll:	-2.610	Pitch:	1.874	Yaw:	2.191	Thrust:	86.773
Time:	3.354	Roll Set Point:	0.065	Pitch Set Point:	-0.116	Yaw Set Point:	-0.021	X_WP:	0.100	Y_WP:	0.000	Y_WP:	0.500	X:	0.017	Y:	0.057	Z:	0.057	yaw:	1.203	yaw rate:	-1.119	Roll:	-2.636	Pitch:	1.838	Yaw:	1.887	Thrust:	87.269
Time:	3.365	Roll Set Point:	0.065	Pitch Set Point:	-0.116	Yaw Set Point:	-0.021	X_WP:	0.100	Y_WP:	0.000	Y_WP:	0.500	X:	0.017	Y:	0.057	Z:	0.057	yaw:	1.208	yaw rate:	0.471	Roll:	-2.646	Pitch:	1.906	Yaw:	2.332	Thrust:	91.019
Time:	3.376	Roll Set Point:	0.065	Pitch Set Point:	-0.116	Yaw Set Point:	-0.021	X_WP:	0.100	Y_WP:	0.000	Y_WP:	0.500	X:	0.017	Y:	0.057	Z:	0.057	yaw:	1.211	yaw rate:	0.368	Roll:	-2.656	Pitch:	1.928	Yaw:	2.381	Thrust:	100.000
Time:	3.388	Roll Set Point:	0.065	Pitch Set Point:	-0.116	Yaw Set Point:	-0.021	X_WP:	0.100	Y_WP:	0.000	Y_WP:	0.500	X:	0.017	Y:	0.057	Z:	0.057	yaw:	1.204	yaw rate:	-0.360	Roll:	-2.637	Pitch:	1.867	Yaw:	2.104	Thrust:	98.468
Time:	3.399	Roll Set Point:	0.065	Pitch Set Point:	-0.116	Yaw Set Point:	-0.021	X_WP:	0.100	Y_WP:	0.000	Y_WP:	0.500	X:	0.017	Y:	0.057	Z:	0.057	yaw:	1.224	yaw rate:	2.013	Roll:	-2.618	Pitch:	1.917	Yaw:	2.752	Thrust:	92.874
Time:	3.410	Roll Set Point:	0.065	Pitch Set Point:	-0.116	Yaw Set Point:	-0.021	X_WP:	0.100	Y_WP:	0.000	Y_WP:	0.500	X:	0.017	Y:	0.057	Z:	0.057	yaw:	1.220	yaw rate:	-0.431	Roll:	-2.662	Pitch:	1.885	Yaw:	2.158	Thrust:	94.905
Time:	3.421	Roll Set Point:	0.065	Pitch Set Point:	-0.116	Yaw Set Point:	-0.021	X_WP:	0.100	Y_WP:	0.000	Y_WP:	0.500	X:	0.017	Y:	0.057	Z:	0.057	yaw:	1.209	yaw rate:	-1.065	Roll:	-2.644	Pitch:	1.907	Yaw:	1.935	Thrust:	96.901
Time:	3.431	Roll Set Point:	0.065	Pitch Set Point:	-0.116	Yaw Set Point:	-0.021	X_WP:	0.100	Y_WP:	0.000	Y_WP:	0.500	X:	0.017	Y:	0.057	Z:	0.057	yaw:	1.217	yaw rate:	0.775	Roll:	-2.666	Pitch:	1.880	Yaw:	2.431	Thrust:	94.586
Time:	3.443	Roll Set Point:	0.065	Pitch Set Point:	-0.116	Yaw Set Point:	-0.021	X_WP:	0.100	Y_WP:	0.000	Y_WP:	0.500	X:	0.017	Y:	0.057	Z:	0.057	yaw:	1.212	yaw rate:	-0.523	Roll:	-2.663	Pitch:	1.944	Yaw:	2.205	Thrust:	100.000
Time:	3.454	Roll Set Point:	0.065	Pitch Set Point:	-0.116	Yaw Set Point:	-0.021	X_WP:	0.100	Y_WP:	0.000	Y_WP:	0.500	X:	0.017	Y:	0.057	Z:	0.057	yaw:	1.205	yaw rate:	-0.662	Roll:	-2.635	Pitch:	1.896	Yaw:	2.151	Thrust:	100.000
Time:	3.465	Roll Set Point:	0.065	Pitch Set Point:	-0.116	Yaw Set Point:	-0.021	X_WP:	0.100	Y_WP:	0.000	Y_WP:	0.500	X:	0.017	Y:	0.057	Z:	0.057	yaw:	1.198	yaw rate:	-0.664	Roll:	-2.689	Pitch:	1.892	Yaw:	2.077	Thrust:	95.945
Time:	3.476	Roll Set Point:	0.065	Pitch Set Point:	-0.116	Yaw Set Point:	-0.021	X_WP:	0.100	Y_WP:	0.000	Y_WP:	0.500	X:	0.017	Y:	0.057	Z:	0.057	yaw:	1.212	yaw rate:	1.345	Roll:	-2.639	Pitch:	1.954	Yaw:	2.626	Thrust:	100.000
Time:	3.487	Roll Set Point:	0.065	Pitch Set Point:	-0.116	Yaw Set Point:	-0.021	X_WP:	0.100	Y_WP:	0.000	Y_WP:	0.500	X:	0.017	Y:	0.057	Z:	0.057	yaw:	1.218	yaw rate:	0.626	Roll:	-2.658	Pitch:	1.874	Yaw:	2.435	Thrust:	97.446
Time:	3.497	Roll Set Point:	0.065	Pitch Set Point:	-0.116	Yaw Set Point:	-0.021	X_WP:	0.100	Y_WP:	0.000	Y_WP:	0.500	X:	0.017	Y:	0.057	Z:	0.057	yaw:	1.201	yaw rate:	-1.664	Roll:	-2.679	Pitch:	1.909	Yaw:	1.846	Thrust:	97.476
Time:	3.508	Roll Set Point:	0.065	Pitch Set Point:	-0.116	Yaw Set Point:	-0.021	X_WP:	0.100	Y_WP:	0.000	Y_WP:	0.500	X:	0.017	Y:	0.057	Z:	0.057	yaw:	1.217	yaw rate:	1.510	Roll:	-2.655	Pitch:	1.938	Yaw:	2.662	Thrust:	98.546
Time:	3.520	Roll Set Point:	0.065	Pitch Set Point:	-0.116	Yaw Set Point:	-0.021	X_WP:	0.100	Y_WP:	0.000	Y_WP:	0.500	X:	0.017	Y:	0.057	Z:	0.057	yaw:	1.200	yaw rate:	-1.676	Roll:	-2.671	Pitch:	1.906	Yaw:	2.029	Thrust:	100.000
Time:	3.531	Roll Set Point:	0.065	Pitch Set Point:	-0.116	Yaw Set Point:	-0.021	X_WP:	0.100	Y_WP:	0.000	Y_WP:	0.500	X:	0.017	Y:	0.057	Z:	0.057	yaw:	1.214	yaw rate:	1.443	Roll:	-2.674	Pitch:	1.938	Yaw:	2.640	Thrust:	95.869
Time:	3.543	Roll Set Point:	0.065	Pitch Set Point:	-0.116	Yaw Set Point:	-0.021	X_WP:	0.100	Y_WP:	0.000	Y_WP:	0.500	X:	0.017	Y:	0.057	Z:	0.057	yaw:	1.201	yaw rate:	-1.313	Roll:	-2.719	Pitch:	1.897	Yaw:	2.081	Thrust:	100.000
Time:	3.554	Roll Set Point:	0.065	Pitch Set Point:	-0.116	Yaw Set Point:	-0.021	X_WP:	0.100	Y_WP:	0.000	Y_WP:	0.500	X:	0.017	Y:	0.057	Z:	0.057	yaw:	1.218	yaw rate:	1.708	Roll:	-2.663	Pitch:	1.949	Yaw:	2.751	Thrust:	100.000
Time:	3.565	Roll Set Point:	0.065	Pitch Set Point:	-0.116	Yaw Set Point:	-0.021	X_WP:	0.100	Y_WP:	0.000	Y_WP:	0.500	X:	0.017	Y:	0.057	Z:	0.057	yaw:	1.202	yaw rate:	-1.629	Roll:	-2.712	Pitch:	1.901	Yaw:	1.919	Thrust:	100.000
Time:	3.577	Roll Set Point:	0.065	Pitch Set Point:	-0.116	Yaw Set Point:	-0.021	X_WP:	0.100	Y_WP:	0.000	Y_WP:	0.500	X:	0.017	Y:	0.057	Z:	0.057	yaw:	1.200	yaw rate:	-0.171	Roll:	-2.716	Pitch:	1.951	Yaw:	2.342	Thrust:	100.000
Time:	3.588	Roll Set Point:	0.065	Pitch Set Point:	-0.116	Yaw Set Point:	-0.021	X_WP:	0.100	Y_WP:	0.000	Y_WP:	0.500	X:	0.017	Y:	0.057	Z:	0.057	yaw:	1.217	yaw rate:	1.731	Roll:	-2.647	Pitch:	1.961	Yaw:	2.770	Thrust:	100.000
Time:	3.600	Roll Set Point:	0.065	Pitch Set Point:	-0.116	Yaw Set Point:	-0.021	X_WP:	0.100	Y_WP:	0.000	Y_WP:	0.500	X:	0.017	Y:	0.057	Z:	0.057	yaw:	1.210	yaw rate:	-0.780	Roll:	-2.742	Pitch:	1.939	Yaw:	2.196	Thrust:	100.000
Time:	3.611	Roll Set Point:	0.065	Pitch Set Point:	-0.116	Yaw Set Point:	-0.021	X_WP:	0.100	Y_WP:	0.000	Y_WP:	0.500	X:	0.017	Y:	0.057	Z:	0.057	yaw:	1.207	yaw rate:	-0.308	Roll:	-2.679	Pitch:	1.926	Yaw:	2.268	Thrust:	100.000
Time:	3.623	Roll Set Point:	0.065	Pitch Set Point:	-0.116	Yaw Set Point:	-0.021	X_WP:	0.100	Y_WP:	0.000	Y_WP:	0.500	X:	0.017	Y:	0.057	Z:	0.057	yaw:	1.205	yaw rate:	-0.160	Roll:	-2.699	Pitch:	1.935	Yaw:	2.340	Thrust:	100.000
Time:	3.634	Roll Set Point:	0.065	Pitch Set Point:	-0.116	Yaw Set Point:	-0.021	X_WP:	0.100	Y_WP:	0.000	Y_WP:	0.500	X:	0.017	Y:	0.057	Z:	0.057	yaw:	1.209	yaw rate:	0.400	Roll:	-2.701	Pitch:	1.938	Yaw:	2.451	Thrust:	100.000
Time:	3.645	Roll Set Point:	0.065	Pitch Set Point:	-0.116	Yaw Set Point:	-0.021	X_WP:	0.100	Y_WP:	0.000	Y_WP:	0.500	X:	0.017	Y:	0.057	Z:	0.057	yaw:	1.208	yaw rate:	-0.084	Roll:	-2.696	Pitch:	1.942	Yaw:	2.336	Thrust:	100.000
Time:	3.656	Roll Set Point:	0.065	Pitch Set Point:	-0.116	Yaw Set Point:	-0.021	X_WP:	0.100	Y_WP:	0.000	Y_WP:	0.500	X:	0.017	Y:	0.057	Z:	0.057	yaw:	1.210	yaw rate:	-0.074	Roll:	-2.701	Pitch:	1.947	Yaw:	2.440	Thrust:	100.000
Time:	3.667	Roll Set Point:	0.065	Pitch Set Point:	-0.116	Yaw Set Point:	-0.021	X_WP:	0.100	Y_WP:	0.000	Y_WP:	0.500	X:	0.017	Y:	0.057	Z:	0.057	yaw:	1.208	yaw rate:	-0.171	Roll:	-2.699	Pitch:	1.936	Yaw:	2.304	Thrust:	100.000
Time:	3.678	Roll Set Point:	0.065	Pitch Set Point:	-0.116	Yaw Set Point:	-0.021	X_WP:	0.100	Y_WP:	0.000	Y_WP:	0.500	X:	0.017	Y:	0.057	Z:	0.057	yaw:	1.219	yaw rate:	1.046	Roll:	-2.678	Pitch:	1.931	Yaw:	2.635	Thrust:	100.000
Time:	3.689	Roll Set Point:	0.065	Pitch Set Point:	-0.116	Yaw Set Point:	-0.021	X_WP:	0.100	Y_WP:	0.000	Y_WP:	0.500	X:	0.017	Y:	0.057	Z:	0.057	yaw:	1.201	yaw rate:	-1.801	Roll:	-2.761	Pitch:	1.932	Yaw:	1.992	Thrust:	100.000
Time:	3.700	Roll Set Point:	0.065	Pitch Set Point:	-0.116	Yaw Set Point:	-0.021	X_WP:	0.100	Y_WP:	0.000	Y_WP:	0.500	X:	0.017	Y:	0.057	Z:	0.057	yaw:	1.203	yaw rate:	0.265	Roll:	-2.679	Pitch:	1.945	Yaw:	2.421	Thrust:	100.000
Time:	3.712	Roll Set Point:	0.065	Pitch Set Point:	-0.116	Yaw Set Point:	-0.021	X_WP:	0.100	Y_WP:	0.000	Y_WP:	0.500	X:	0.017	Y:	0.057	Z:	0.057	yaw:	1.202	yaw rate:	-0.163	Roll:	-2.740	Pitch:	1.985	Yaw:	2.405	Thrust:	100.000
Time:	3.724	Roll Set Point:	0.065	Pitch Set Point:	-0.116	Yaw Set Point:	-0.021	X_WP:	0.100	Y_WP:	0.000	Y_WP:	0.500	X:	0.017	Y:	0.057	Z:	0.057	yaw:	1.221	yaw rate:	1.902	Roll:	-2.713	Pitch:	1.937	Yaw:	2.872	Thrust:	100.000
Time:	3.734	Roll Set Point:	0.065	Pitch Set Point:	-0.116	Yaw Set Point:	-0.021	X_WP:	0.100	Y_WP:	0.000	Y_WP:	0.500	X:	0.017	Y:	0.057	Z:	0.057	yaw:	1.198	yaw rate:	-2.269	Roll:	-2.732	Pitch:	1.924	Yaw:	1.789	Thrust:	100.000
Time:	3.746	Roll Set Point:	0.065	Pitch Set Point:	-0.116	Yaw Set Point:	-0.021	X_WP:	0.100	Y_WP:	0.000	Y_WP:	0.500	X:	0.017	Y:	0.057	Z:	0.057	yaw:	1.204	yaw rate:	0.624	Roll:	-2.706	Pitch:	1.987	Yaw:	2.595	Thrust:	100.000
Time:	3.757	Roll Set Point:	0.065	Pitch Set Point:	-0.116	Yaw Set Point:	-0.021	X_WP:	0.100	Y_WP:	0.000	Y_WP:	0.500	X:	0.017	Y:	0.057	Z:	0.057	yaw:	1.223	yaw rate:	1.825	Roll:	-2.688	Pitch:	1.965	Yaw:	2.846	Thrust:	100.000
Time:	3.767	Roll Set Point:	0.065	Pitch Set Point:	-0.116	Yaw Set Point:	-0.021	X_WP:	0.100	Y_WP:	0.000	Y_WP:	0.500	X:	0.017	Y:	0.057	Z:	0.057	yaw:	1.209	yaw rate:	-1.389	Roll:	-2.743	Pitch:	1.931	Yaw:	2.035	Thrust:	100.000
Time:	3.780	Roll Set Point:	0.065	Pitch Set Point:	-0.116	Yaw Set Point:	-0.021	X_WP:	0.100	Y_WP:	0.000	Y_WP:	0.500	X:	0.017	Y:	0.057	Z:	0.057	yaw:	1.212	yaw rate:	0.317	Roll:	-2.759	Pitch:	1.991	Yaw:	2.567	Thrust:	100.000
Time:	3.791	Roll Set Point:	0.065	Pitch Set Point:	-0.116	Yaw Set Point:	-0.021	X_WP:	0.100	Y_WP:	0.000	Y_WP:	0.500	X:	0.017	Y:	0.057	Z:	0.057	yaw:	1.221	yaw rate:	0.918	Roll:	-2.709	Pitch:	1.934	Yaw:	2.657	Thrust:	100.000
Time:	3.802	Roll Set Point:	0.065	Pitch Set Point:	-0.116	Yaw Set Point:	-0.021	X_WP:	0.100	Y_WP:	0.000	Y_WP:	0.500	X:	0.017	Y:	0.057	Z:	0.057	yaw:	1.210	yaw rate:	-1.138	Roll:	-2.748	Pitch:	1.968	Yaw:	2.160	Thrust:	100.000
Time:	3.812	Roll Set Point:	0.065	Pitch Set Point:	-0.116	Yaw Set Point:	-0.021	X_WP:	0.100	Y_WP:	0.000	Y_WP:	0.500	X:	0.017	Y:	0.057	Z:	0.057	yaw:	1.213	yaw rate:	0.363	Roll:	-2.682	Pitch:	1.958	Yaw:	2.462	Thrust:	100.000
Time:	3.822	Roll Set Point:	0.065	Pitch Set Point:	-0.116	Yaw Set Point:	-0.021	X_WP:	0.100	Y_WP:	0.000	Y_WP:	0.500	X:	0.017	Y:	0.057	Z:	0.057	yaw:	1.206	yaw rate:	-0.765	Roll:	-2.700	Pitch:	1.924	Yaw:	2.162	Thrust:	100.000
Time:	3.834	Roll Set Point:	0.065	Pitch Set Point:	-0.116	Yaw Set Point:	-0.021	X_WP:	0.100	Y_WP:	0.000	Y_WP:	0.500	X:	0.017	Y:	0.057	Z:	0.057	yaw:	1.206	yaw rate:	0.001	Roll:	-2.748	Pitch:	1.948	Yaw:	2.434	Thrust:	100.000
Time:	3.847	Roll Set Point:	0.065	Pitch Set Point:	-0.116	Yaw Set Point:	-0.021	X_WP:	0.100	Y_WP:	0.000	Y_WP:	0.500	X:	0.017	Y:	0.057	Z:	0.057	yaw:	1.208	yaw rate:	0.209	Roll:	-2.802	Pitch:	2.045	Yaw:	2.686	Thrust:	100.000
Time:	3.859	Roll Set Point:	0.065	Pitch Set Point:	-0.116	Yaw Set Point:	-0.021	X_WP:	0.100	Y_WP:	0.000	Y_WP:	0.500	X:	0.017	Y:	0.057	Z:	0.057	yaw:	1.207	yaw rate:	-0.040	Roll:	-2.784	Pitch:	1.973	Yaw:	2.471	Thrust:	100.000
Time:	3.870	Roll Set Point:	0.065	Pitch Set Point:	-0.116	Yaw Set Point:	-0.021	X_WP:	0.100	Y_WP:	0.000	Y_WP:	0.500	X:	0.017	Y:	0.057	Z:	0.057	yaw:	1.214	yaw rate:	0.700	Roll:	-2.743	Pitch:	2.010	Yaw:	2.653	Thrust:	100.000
Time:	3.884	Roll Set Point:	0.065	Pitch Set Point:	-0.116	Yaw Set Point:	-0.021	X_WP:	0.100	Y_WP:	0.000	Y_WP:	0.500	X:	0.017	Y:	0.057	Z:	0.057	yaw:	1.212	yaw rate:	-0.255	Roll:	-2.849	Pitch:	2.020	Yaw:	2.625	Thrust:	100.000
Time:	3.896	Roll Set Point:	0.065	Pitch Set Point:	-0.116	Yaw Set Point:	-0.021	X_WP:	0.100	Y_WP:	0.000	Y_WP:	0.500	X:	0.017	Y:	0.057	Z:	0.057	yaw:	1.215	yaw rate:	1.321	Roll:	-2.753	Pitch:	1.960	Yaw:	2.577	Thrust:	100.000
Time:	3.908	Roll Set Point:	0.065	Pitch Set Point:	-0.116	Yaw Set Point:	-0.021	X_WP:	0.100	Y_WP:	0.000	Y_WP:	0.500	X:	0.017	Y:	0.057	Z:	0.057	yaw:	1.211	yaw rate:	-0.358	Roll:	-2.773	Pitch:	1.998	Yaw:	2.391	Thrust:	100.000
Time:	3.918	Roll Set Point:	0.065	Pitch Set Point:	-0.116	Yaw Set Point:	-0.021	X_WP:	0.100	Y_WP:	0.000	Y_WP:	0.500	X:	0.017	Y:	0.057	Z:	0.057	yaw:	1.216	yaw rate:	0.425	Roll:	-2.720	Pitch:	1.964	Yaw:	2.612	Thrust:	100.000
Time:	3.929	Roll Set Point:	0.065	Pitch Set Point:	-0.116	Yaw Set Point:	-0.021	X_WP:	0.100	Y_WP:	0.000	Y_WP:	0.500	X:	0.017	Y:	0.057	Z:	0.057	yaw:	1.207	yaw rate:	-0.847	Roll:	-2.780	Pitch:	1.983	Yaw:	2.272	Thrust:	100.000
Time:	3.941	Roll Set Point:	0.065	Pitch Set Point:	-0.116	Yaw Set Point:	-0.021	X_WP:	0.100	Y_WP:	0.000	Y_WP:	0.500	X:	0.017	Y:	0.057	Z:	0.057	yaw:	1.212	yaw rate:	0.498	Roll:	-2.757	Pitch:	2.001	Yaw:	2.667	Thrust:	100.000
Time:	3.955	Roll Set Point:	0.065	Pitch Set Point:	-0.116	Yaw Set Point:	-0.021	X_WP:	0.100	Y_WP:	0.000	Y_WP:	0.500	X:	0.017	Y:	0.057	Z:	0.057	yaw:	1.205	yaw rate:	-0.767	Roll:	-2.862	Pitch:	2.045	Yaw:	2.473	Thrust:	100.000
Time:	3.966	Roll Set Point:	0.065	Pitch Set Point:	-0.116	Yaw Set Point:	-0.021	X_WP:	0.100	Y_WP:	0.000	Y_WP:	0.500	X:	0.017	Y:	0.057	Z:	0.057	yaw:	1.206	yaw rate:	0.129	Roll:	-2.749	Pitch:	1.939	Yaw:	2.481	Thrust:	100.000
Time:	3.979	Roll Set Point:	0.065	Pitch Set Point:	-0.116	Yaw Set Point:	-0.021	X_WP:	0.100	Y_WP:	0.000	Y_WP:	0.500	X:	0.017	Y:	0.057	Z:	0.057	yaw:	1.207	yaw rate:	0.089	Roll:	-2.839	Pitch:	2.067	Yaw:	2.735	Thrust:	100.000
Time:	3.990	Roll Set Point:	0.065	Pitch Set Point:	-0.116	Yaw Set Point:	-0.021	X_WP:	0.100	Y_WP:	0.000	Y_WP:	0.500	X:	0.017	Y:	0.057	Z:	0.057	yaw:	1.199	yaw rate:	-0.744	Roll:	-2.793	Pitch:	1.976	Yaw:	2.307	Thrust:	100.000
Time:	4.001	Roll Set Point:	0.065	Pitch Set Point:	-0.116	Yaw Set Point:	-0.021	X_WP:	0.100	Y_WP:	0.000	Y_WP:	0.500	X:	0.017	Y:	0.057	Z:	0.057	yaw:	1.201	yaw rate:	-0.292	Roll:	-2.770	Pitch:	1.993	Yaw:	2.540	Thrust:	100.000
Time:	4.013	Roll Set Point:	0.065	Pitch Set Point:	-0.116	Yaw Set Point:	-0.021	X_WP:	0.100	Y_WP:	0.000	Y_WP:	0.500	X:	0.017	Y:	0.057	Z:	0.057	yaw:	1.214	yaw rate:	1.307	Roll:	-2.801	Pitch:	2.003	Yaw:	2.874	Thrust:	100.000
Time:	4.025	Roll Set Point:	0.065	Pitch Set Point:	-0.116	Yaw Set Point:	-0.021	X_WP:	0.100	Y_WP:	0.000	Y_WP:	0.500	X:	0.017	Y:	0.057	Z:	0.057	yaw:	1.207	yaw rate:	-0.768	Roll:	-2.758	Pitch:	1.996	Yaw:	2.371	Thrust:	100.000
Time:	4.036	Roll Set Point:	0.065	Pitch Set Point:	-0.116	Yaw Set Point:	-0.021	X_WP:	0.100	Y_WP:	0.000	Y_WP:	0.500	X:	0.017	Y:	0.057	Z:	0.057	yaw:	1.207	yaw rate:	0.005	Roll:	-2.783	Pitch:	2.031	Yaw:	2.515	Thrust:	100.000
Time:	4.047	Roll Set Point:	0.065	Pitch Set Point:	-0.116	Yaw Set Point:	-0.021	X_WP:	0.100	Y_WP:	0.000	Y_WP:	0.500	X:	0.017	Y:	0.057	Z:	0.057	yaw:	1.215	yaw rate:	0.839	Roll:	-2.796	Pitch:	1.966	Yaw:	2.731	Thrust:	100.000
Time:	4.058	Roll Set Point:	0.065	Pitch Set Point:	-0.116	Yaw Set Point:	-0.021	X_WP:	0.100	Y_WP:	0.000	Y_WP:	0.500	X:	0.017	Y:	0.057	Z:	0.057	yaw:	1.211	yaw rate:	-0.417	Roll:	-2.780	Pitch:	2.012	Yaw:	2.473	Thrust:	100.000
Time:	4.069	Roll Set Point:	0.065	Pitch Set Point:	-0.116	Yaw Set Point:	-0.021	X_WP:	0.100	Y_WP:	0.000	Y_WP:	0.500	X:	0.017	Y:	0.057	Z:	0.057	yaw:	1.210	yaw rate:	-0.066	Roll:	-2.745	Pitch:	1.998	Yaw:	2.476	Thrust:	100.000
Time:	4.080	Roll Set Point:	0.065	Pitch Set Point:	-0.116	Yaw Set Point:	-0.021	X_WP:	0.100	Y_WP:	0.000	Y_WP:	0.500	X:	0.017	Y:	0.057	Z:	0.057	yaw:	1.208	yaw rate:	-0.279	Roll:	-2.739	Pitch:	1.971	Yaw:	2.384	Thrust:	100.000
Time:	4.091	Roll Set Point:	0.065	Pitch Set Point:	-0.116	Yaw Set Point:	-0.021	X_WP:	0.100	Y_WP:	0.000	Y_WP:	0.500	X:	0.017	Y:	0.057	Z:	0.057	yaw:	1.212	yaw rate:	0.420	Roll:	-2.839	Pitch:	1.999	Yaw:	2.713	Thrust:	100.000
Time:	4.102	Roll Set Point:	0.065	Pitch Set Point:	-0.116	Yaw Set Point:	-0.021	X_WP:	0.100	Y_WP:	0.000	Y_WP:	0.500	X:	0.017	Y:	0.057	Z:	0.057	yaw:	1.215	yaw rate:	0.361	Roll:	-2.782	Pitch:	2.002	Yaw:	2.643	Thrust:	100.000
Time:	4.113	Roll Set Point:	0.065	Pitch Set Point:	-0.116	Yaw Set Point:	-0.021	X_WP:	0.100	Y_WP:	0.000	Y_WP:	0.500	X:	0.017	Y:	0.057	Z:	0.057	yaw:	1.207	yaw rate:	-0.815	Roll:	-2.803	Pitch:	2.017	Yaw:	2.354	Thrust:	100.000
Time:	4.125	Roll Set Point:	0.065	Pitch Set Point:	-0.116	Yaw Set Point:	-0.021	X_WP:	0.100	Y_WP:	0.000	Y_WP:	0.500	X:	0.017	Y:	0.057	Z:	0.057	yaw:	1.205	yaw rate:	-0.225	Roll:	-2.821	Pitch:	1.970	Yaw:	2.579	Thrust:	100.000
Time:	4.136	Roll Set Point:	0.065	Pitch Set Point:	-0.116	Yaw Set Point:	-0.021	X_WP:	0.100	Y_WP:	0.000	Y_WP:	0.500	X:	0.017	Y:	0.057	Z:	0.057	yaw:	1.212	yaw rate:	0.665	Roll:	-2.741	Pitch:	2.028	Yaw:	2.689	Thrust:	100.000
Time:	4.147	Roll Set Point:	0.065	Pitch Set Point:	-0.116	Yaw Set Point:	-0.021	X_WP:	0.100	Y_WP:	0.000	Y_WP:	0.500	X:	0.017	Y:	0.057	Z:	0.057	yaw:	1.215	yaw rate:	0.333	Roll:	-2.771	Pitch:	2.051	Yaw:	2.651	Thrust:	100.000
Time:	4.158	Roll Set Point:	0.065	Pitch Set Point:	-0.116	Yaw Set Point:	-0.021	X_WP:	0.100	Y_WP:	0.000	Y_WP:	0.500	X:	0.017	Y:	0.057	Z:	0.057	yaw:	1.214	yaw rate:	-0.066	Roll:	-2.803	Pitch:	2.002	Yaw:	2.601	Thrust:	100.000
Time:	4.169	Roll Set Point:	0.065	Pitch Set Point:	-0.116	Yaw Set Point:	-0.021	X_WP:	0.100	Y_WP:	0.000	Y_WP:	0.500	X:	0.017	Y:	0.057	Z:	0.057	yaw:	1.202	yaw rate:	-1.240	Roll:	-2.812	Pitch:	2.013	Yaw:	2.272	Thrust:	100.000
Time:	4.181	Roll Set Point:	0.065	Pitch Set Point:	-0.116	Yaw Set Point:	-0.021	X_WP:	0.100	Y_WP:	0.000	Y_WP:	0.500	X:	0.017	Y:	0.057	Z:	0.057	yaw:	1.205	yaw rate:	0.302	Roll:	-2.825	Pitch:	2.042	Yaw:	2.710	Thrust:	100.000
Time:	4.195	Roll Set Point:	0.065	Pitch Set Point:	-0.116	Yaw Set Point:	-0.021	X_WP:	0.100	Y_WP:	0.000	Y_WP:	0.500	X:	0.017	Y:	0.057	Z:	0.057	yaw:	1.211	yaw rate:	0.621	Roll:	-2.793	Pitch:	2.040	Yaw:	2.909	Thrust:	100.000
Time:	4.205	Roll Set Point:	0.065	Pitch Set Point:	-0.116	Yaw Set Point:	-0.021	X_WP:	0.100	Y_WP:	0.000	Y_WP:	0.500	X:	0.017	Y:	0.057	Z:	0.057	yaw:	1.224	yaw rate:	1.328	Roll:	-2.821	Pitch:	2.040	Yaw:	2.898	Thrust:	100.000
Time:	4.218	Roll Set Point:	0.065	Pitch Set Point:	-0.116	Yaw Set Point:	-0.021	X_WP:	0.100	Y_WP:	0.000	Y_WP:	0.500	X:	0.017	Y:	0.057	Z:	0.057	yaw:	1.206	yaw rate:	-1.790	Roll:	-2.828	Pitch:	2.037	Yaw:	2.284	Thrust:	100.000
Time:	4.228	Roll Set Point:	0.065	Pitch Set Point:	-0.116	Yaw Set Point:	-0.021	X_WP:	0.100	Y_WP:	0.000	Y_WP:	0.500	X:	0.017	Y:	0.057	Z:	0.057	yaw:	1.213	yaw rate:	0.605	Roll:	-2.782	Pitch:	1.975	Yaw:	2.745	Thrust:	100.000
Time:	4.239	Roll Set Point:	0.065	Pitch Set Point:	-0.116	Yaw Set Point:	-0.021	X_WP:	0.100	Y_WP:	0.000	Y_WP:	0.500	X:	0.017	Y:	0.057	Z:	0.057	yaw:	1.212	yaw rate:	-0.046	Roll:	-2.785	Pitch:	2.088	Yaw:	2.596	Thrust:	100.000
Time:	4.250	Roll Set Point:	0.065	Pitch Set Point:	-0.116	Yaw Set Point:	-0.021	X_WP:	0.100	Y_WP:	0.000	Y_WP:	0.500	X:	0.017	Y:	0.057	Z:	0.057	yaw:	1.206	yaw rate:	-0.627	Roll:	-2.776	Pitch:	1.981	Yaw:	2.404	Thrust:	100.000
Time:	4.260	Roll Set Point:	0.065	Pitch Set Point:	-0.116	Yaw Set Point:	-0.021	X_WP:	0.100	Y_WP:	0.000	Y_WP:	0.500	X:	0.017	Y:	0.057	Z:	0.057	yaw:	1.221	yaw rate:	1.542	Roll:	-2.726	Pitch:	2.038	Yaw:	2.969	Thrust:	100.000
Time:	4.271	Roll Set Point:	0.065	Pitch Set Point:	-0.116	Yaw Set Point:	-0.021	X_WP:	0.100	Y_WP:	0.000	Y_WP:	0.500	X:	0.017	Y:	0.057	Z:	0.057	yaw:	1.209	yaw rate:	-1.210	Roll:	-2.816	Pitch:	1.983	Yaw:	2.272	Thrust:	100.000
Time:	4.281	Roll Set Point:	0.065	Pitch Set Point:	-0.116	Yaw Set Point:	-0.021	X_WP:	0.100	Y_WP:	0.000	Y_WP:	0.500	X:	0.017	Y:	0.057	Z:	0.057	yaw:	1.213	yaw rate:	0.345	Roll:	-2.723	Pitch:	2.013	Yaw:	2.630	Thrust:	100.000
Time:	4.293	Roll Set Point:	0.065	Pitch Set Point:	-0.116	Yaw Set Point:	-0.021	X_WP:	0.100	Y_WP:	0.000	Y_WP:	0.500	X:	0.017	Y:	0.057	Z:	0.057	yaw:	1.212	yaw rate:	-0.056	Roll:	-2.775	Pitch:	2.050	Yaw:	2.659	Thrust:	100.000
Time:	4.304	Roll Set Point:	0.065	Pitch Set Point:	-0.116	Yaw Set Point:	-0.021	X_WP:	0.100	Y_WP:	0.000	Y_WP:	0.500	X:	0.017	Y:	0.057	Z:	0.057	yaw:	1.207	yaw rate:	-0.451	Roll:	-2.831	Pitch:	2.004	Yaw:	2.520	Thrust:	100.000
Time:	4.314	Roll Set Point:	0.065	Pitch Set Point:	-0.116	Yaw Set Point:	-0.021	X_WP:	0.100	Y_WP:	0.000	Y_WP:	0.500	X:	0.017	Y:	0.057	Z:	0.057	yaw:	1.212	yaw rate:	0.445	Roll:	-2.744	Pitch:	2.011	Yaw:	2.666	Thrust:	100.000
Time:	4.325	Roll Set Point:	0.065	Pitch Set Point:	-0.116	Yaw Set Point:	-0.021	X_WP:	0.100	Y_WP:	0.000	Y_WP:	0.500	X:	0.017	Y:	0.057	Z:	0.057	yaw:	1.214	yaw rate:	0.251	Roll:	-2.770	Pitch:	2.052	Yaw:	2.746	Thrust:	100.000
Time:	4.337	Roll Set Point:	0.065	Pitch Set Point:	-0.116	Yaw Set Point:	-0.021	X_WP:	0.100	Y_WP:	0.000	Y_WP:	0.500	X:	0.017	Y:	0.057	Z:	0.057	yaw:	1.214	yaw rate:	-0.026	Roll:	-2.818	Pitch:	2.051	Yaw:	2.681	Thrust:	100.000
Time:	4.347	Roll Set Point:	0.065	Pitch Set Point:	-0.116	Yaw Set Point:	-0.021	X_WP:	0.100	Y_WP:	0.000	Y_WP:	0.500	X:	0.017	Y:	0.057	Z:	0.057	yaw:	1.207	yaw rate:	-0.729	Roll:	-2.752	Pitch:	1.999	Yaw:	2.367	Thrust:	100.000
Time:	4.358	Roll Set Point:	0.065	Pitch Set Point:	-0.116	Yaw Set Point:	-0.021	X_WP:	0.100	Y_WP:	0.000	Y_WP:	0.500	X:	0.017	Y:	0.057	Z:	0.057	yaw:	1.213	yaw rate:	0.629	Roll:	-2.780	Pitch:	2.056	Yaw:	2.845	Thrust:	100.000
Time:	4.369	Roll Set Point:	0.065	Pitch Set Point:	-0.116	Yaw Set Point:	-0.021	X_WP:	0.100	Y_WP:	0.000	Y_WP:	0.500	X:	0.017	Y:	0.057	Z:	0.057	yaw:	1.208	yaw rate:	-0.531	Roll:	-2.799	Pitch:	2.035	Yaw:	2.530	Thrust:	100.000
Time:	4.379	Roll Set Point:	0.065	Pitch Set Point:	-0.116	Yaw Set Point:	-0.021	X_WP:	0.100	Y_WP:	0.000	Y_WP:	0.500	X:	0.017	Y:	0.057	Z:	0.057	yaw:	1.211	yaw rate:	0.269	Roll:	-2.775	Pitch:	2.005	Yaw:	2.646	Thrust:	100.000
Time:	4.392	Roll Set Point:	0.065	Pitch Set Point:	-0.116	Yaw Set Point:	-0.021	X_WP:	0.100	Y_WP:	0.000	Y_WP:	0.500	X:	0.017	Y:	0.057	Z:	0.057	yaw:	1.217	yaw rate:	0.655	Roll:	-2.807	Pitch:	2.057	Yaw:	2.948	Thrust:	100.000
Time:	4.403	Roll Set Point:	0.065	Pitch Set Point:	-0.116	Yaw Set Point:	-0.021	X_WP:	0.100	Y_WP:	0.000	Y_WP:	0.500	X:	0.017	Y:	0.057	Z:	0.057	yaw:	1.206	yaw rate:	-1.068	Roll:	-2.807	Pitch:	2.072	Yaw:	2.426	Thrust:	100.000
Time:	4.414	Roll Set Point:	0.065	Pitch Set Point:	-0.116	Yaw Set Point:	-0.021	X_WP:	0.100	Y_WP:	0.000	Y_WP:	0.500	X:	0.017	Y:	0.057	Z:	0.057	yaw:	1.210	yaw rate:	0.329	Roll:	-2.771	Pitch:	2.050	Yaw:	2.755	Thrust:	100.000
Time:	4.424	Roll Set Point:	0.065	Pitch Set Point:	-0.116	Yaw Set Point:	-0.021	X_WP:	0.100	Y_WP:	0.000	Y_WP:	0.500	X:	0.017	Y:	0.057	Z:	0.057	yaw:	1.210	yaw rate:	0.016	Roll:	-2.745	Pitch:	1.988	Yaw:	2.596	Thrust:	100.000
Time:	4.435	Roll Set Point:	0.065	Pitch Set Point:	-0.116	Yaw Set Point:	-0.021	X_WP:	0.100	Y_WP:	0.000	Y_WP:	0.500	X:	0.017	Y:	0.057	Z:	0.057	yaw:	1.213	yaw rate:	0.268	Roll:	-2.794	Pitch:	2.082	Yaw:	2.754	Thrust:	100.000
Time:	4.446	Roll Set Point:	0.065	Pitch Set Point:	-0.116	Yaw Set Point:	-0.021	X_WP:	0.100	Y_WP:	0.000	Y_WP:	0.500	X:	0.017	Y:	0.057	Z:	0.057	yaw:	1.225	yaw rate:	0.636	Roll:	-2.790	Pitch:	2.050	Yaw:	3.031	Thrust:	100.000
Time:	4.458	Roll Set Point:	0.065	Pitch Set Point:	-0.116	Yaw Set Point:	-0.021	X_WP:	0.100	Y_WP:	0.000	Y_WP:	0.500	X:	0.017	Y:	0.057	Z:	0.057	yaw:	1.213	yaw rate:	-1.240	Roll:	-2.797	Pitch:	2.062	Yaw:	2.464	Thrust:	100.000
Time:	4.468	Roll Set Point:	0.065	Pitch Set Point:	-0.116	Yaw Set Point:	-0.021	X_WP:	0.100	Y_WP:	0.000	Y_WP:	0.500	X:	0.017	Y:	0.057	Z:	0.057	yaw:	1.213	yaw rate:	-1.240	Roll:	-2.766	Pitch:	2.038	Yaw:	2.616	Thrust:	100.000
Time:	4.479	Roll Set Point:	0.065	Pitch Set Point:	-0.116	Yaw Set Point:	-0.021	X_WP:	0.100	Y_WP:	0.000	Y_WP:	0.500	X:	0.017	Y:	0.057	Z:	0.057	yaw:	1.211	yaw rate:	-0.239	Roll:	-2.771	Pitch:	2.056	Yaw:	2.649	Thrust:	100.000
Time:	4.490	Roll Set Point:	0.065	Pitch Set Point:	-0.116	Yaw Set Point:	-0.021	X_WP:	0.100	Y_WP:	0.000	Y_WP:	0.500	X:	0.017	Y:	0.057	Z:	0.057	yaw:	1.205	yaw rate:	-1.146	Roll:	-2.798	Pitch:	2.026	Yaw:	2.625	Thrust:	100.000
Time:	4.501	Roll Set Point:	0.065	Pitch Set Point:	-0.116	Yaw Set Point:	-0.021	X_WP:	0.100	Y_WP:	0.000	Y_WP:	0.500	X:	0.017	Y:	0.057	Z:	0.057	yaw:	1.221	yaw rate:	1.613	Roll:	-2.782	Pitch:	2.070	Yaw:	3.108	Thrust:	100.000
Time:	4.511	Roll Set Point:	0.065	Pitch Set Point:	-0.116	Yaw Set Point:	-0.021	X_WP:	0.100	Y_WP:	0.000	Y_WP:	0.500	X:	0.017	Y:	0.057	Z:	0.057	yaw:	1.221	yaw rate:	1.613	Roll:	-2.746	Pitch:	2.027	Yaw:	2.641	Thrust:	100.000
Time:	4.523	Roll Set Point:	0.065	Pitch Set Point:	-0.116	Yaw Set Point:	-0.021	X_WP:	0.100	Y_WP:	0.000	Y_WP:	0.500	X:	0.017	Y:	0.057	Z:	0.057	yaw:	1.215	yaw rate:	0.402	Roll:	-2.792	Pitch:	2.096	Yaw:	2.630	Thrust:	100.000
Time:	4.534	Roll Set Point:	0.065	Pitch Set Point:	-0.116	Yaw Set Point:	-0.021	X_WP:	0.100	Y_WP:	0.000	Y_WP:	0.500	X:	0.017	Y:	0.057	Z:	0.057	yaw:	1.206	yaw rate:	-0.840	Roll:	-2.777	Pitch:	2.059	Yaw:	2.486	Thrust:	100.000
Time:	4.544	Roll Set Point:	0.065	Pitch Set Point:	-0.116	Yaw Set Point:	-0.021	X_WP:	0.100	Y_WP:	0.000	Y_WP:	0.500	X:	0.017	Y:	0.057	Z:	0.057	yaw:	1.204	yaw rate:	-0.210	Roll:	-2.764	Pitch:	2.016	Yaw:	2.575	Thrust:	100.000
Time:	4.555	Roll Set Point:	0.065	Pitch Set Point:	-0.116	Yaw Set Point:	-0.021	X_WP:	0.100	Y_WP:	0.000	Y_WP:	0.500	X:	0.017	Y:	0.057	Z:	0.057	yaw:	1.222	yaw rate:	1.794	Roll:	-2.765	Pitch:	2.092	Yaw:	3.210	Thrust:	100.000
Time:	4.566	Roll Set Point:	0.065	Pitch Set Point:	-0.116	Yaw Set Point:	-0.021	X_WP:	0.100	Y_WP:	0.000	Y_WP:	0.500	X:	0.017	Y:	0.057	Z:	0.057	yaw:	1.211	yaw rate:	-1.069	Roll:	-2.788	Pitch:	2.089	Yaw:	2.491	Thrust:	100.000
Time:	4.579	Roll Set Point:	0.065	Pitch Set Point:	-0.116	Yaw Set Point:	-0.021	X_WP:	0.100	Y_WP:	0.000	Y_WP:	0.500	X:	0.017	Y:	0.057	Z:	0.057	yaw:	1.204	yaw rate:	-0.781	Roll:	-2.848	Pitch:	2.055	Yaw:	2.617	Thrust:	100.000
Time:	4.590	Roll Set Point:	0.065	Pitch Set Point:	-0.116	Yaw Set Point:	-0.021	X_WP:	0.100	Y_WP:	0.000	Y_WP:	0.500	X:	0.017	Y:	0.057	Z:	0.057	yaw:	1.215	yaw rate:	1.109	Roll:	-2.788	Pitch:	2.117	Yaw:	3.062	Thrust:	100.000
Time:	4.601	Roll Set Point:	0.065	Pitch Set Point:	-0.116	Yaw Set Point:	-0.021	X_WP:	0.100	Y_WP:	0.000	Y_WP:	0.500	X:	0.017	Y:	0.057	Z:	0.057	yaw:	1.207	yaw rate:	-0.807	Roll:	-2.785	Pitch:	2.023	Yaw:	2.673	Thrust:	100.000
Time:	4.611	Roll Set Point:	0.065	Pitch Set Point:	-0.116	Yaw Set Point:	-0.021	X_WP:	0.100	Y_WP:	0.000	Y_WP:	0.500	X:	0.017	Y:	0.057	Z:	0.057	yaw:	1.211	yaw rate:	0.400	Roll:	-2.786	Pitch:	2.077	Yaw:	2.769	Thrust:	100.000
Time:	4.623	Roll Set Point:	0.065	Pitch Set Point:	-0.116	Yaw Set Point:	-0.021	X_WP:	0.100	Y_WP:	0.000	Y_WP:	0.500	X:	0.017	Y:	0.057	Z:	0.057	yaw:	1.213	yaw rate:	0.255	Roll:	-2.772	Pitch:	2.120	Yaw:	2.877	Thrust:	100.000
Time:	4.634	Roll Set Point:	0.065	Pitch Set Point:	-0.116	Yaw Set Point:	-0.021	X_WP:	0.100	Y_WP:	0.000	Y_WP:	0.500	X:	0.017	Y:	0.057	Z:	0.057	yaw:	1.208	yaw rate:	-0.560	Roll:	-2.819	Pitch:	2.078	Yaw:	2.634	Thrust:	100.000
Time:	4.647	Roll Set Point:	0.065	Pitch Set Point:	-0.116	Yaw Set Point:	-0.021	X_WP:	0.100	Y_WP:	0.000	Y_WP:	0.500	X:	0.017	Y:	0.057	Z:	0.057	yaw:	1.210	yaw rate:	0.286	Roll:	-2.780	Pitch:	2.106	Yaw:	2.991	Thrust:	100.000
Time:	4.657	Roll Set Point:	0.065	Pitch Set Point:	-0.116	Yaw Set Point:	-0.021	X_WP:	0.100	Y_WP:	0.000	Y_WP:	0.500	X:	0.017	Y:	0.057	Z:	0.057	yaw:	1.203	yaw rate:	-0.764	Roll:	-2.819	Pitch:	2.068	Yaw:	2.531	Thrust:	100.000
Time:	4.668	Roll Set Point:	0.065	Pitch Set Point:	-0.116	Yaw Set Point:	-0.021	X_WP:	0.100	Y_WP:	0.000	Y_WP:	0.500	X:	0.017	Y:	0.057	Z:	0.057	yaw:	1.217	yaw rate:	1.443	Roll:	-2.754	Pitch:	2.078	Yaw:	3.105	Thrust:	100.000
Time:	4.679	Roll Set Point:	0.065	Pitch Set Point:	-0.116	Yaw Set Point:	-0.021	X_WP:	0.100	Y_WP:	0.000	Y_WP:	0.500	X:	0.017	Y:	0.057	Z:	0.057	yaw:	1.217	yaw rate:	-0.029	Roll:	-2.799	Pitch:	2.066	Yaw:	2.792	Thrust:	100.000
Time:	4.691	Roll Set Point:	0.065	Pitch Set Point:	-0.116	Yaw Set Point:	-0.021	X_WP:	0.100	Y_WP:	0.000	Y_WP:	0.500	X:	0.017	Y:	0.057	Z:	0.057	yaw:	1.212	yaw rate:	-0.519	Roll:	-2.789	Pitch:	2.128	Yaw:	2.728	Thrust:	100.000
Time:	4.701	Roll Set Point:	0.065	Pitch Set Point:	-0.116	Yaw Set Point:	-0.021	X_WP:	0.100	Y_WP:	0.000	Y_WP:	0.500	X:	0.017	Y:	0.057	Z:	0.057	yaw:	1.221	yaw rate:	0.937	Roll:	-2.762	Pitch:	2.129	Yaw:	3.030	Thrust:	100.000
Time:	4.712	Roll Set Point:	0.065	Pitch Set Point:	-0.116	Yaw Set Point:	-0.021	X_WP:	0.100	Y_WP:	0.000	Y_WP:	0.500	X:	0.017	Y:	0.057	Z:	0.057	yaw:	1.218	yaw rate:	-0.275	Roll:	-2.769	Pitch:	2.046	Yaw:	2.739	Thrust:	100.000
Time:	4.724	Roll Set Point:	0.065	Pitch Set Point:	-0.116	Yaw Set Point:	-0.021	X_WP:	0.100	Y_WP:	0.000	Y_WP:	0.500	X:	0.017	Y:	0.057	Z:	0.057	yaw:	1.216	yaw rate:	-0.263	Roll:	-2.833	Pitch:	2.115	Yaw:	2.844	Thrust:	100.000
Time:	4.735	Roll Set Point:	0.065	Pitch Set Point:	-0.116	Yaw Set Point:	-0.021	X_WP:	0.100	Y_WP:	0.000	Y_WP:	0.500	X:	0.017	Y:	0.057	Z:	0.057	yaw:	1.206	yaw rate:	-1.661	Roll:	-2.828	Pitch:	2.107	Yaw:	2.562	Thrust:	100.000
Time:	4.747	Roll Set Point:	0.065	Pitch Set Point:	-0.116	Yaw Set Point:	-0.021	X_WP:	0.100	Y_WP:	0.000	Y_WP:	0.500	X:	0.017	Y:	0.057	Z:	0.057	yaw:	1.215	yaw rate:	0.907	Roll:	-2.774	Pitch:	2.075	Yaw:	3.029	Thrust:	100.000
Time:	4.758	Roll Set Point:	0.065	Pitch Set Point:	-0.116	Yaw Set Point:	-0.021	X_WP:	0.100	Y_WP:	0.000	Y_WP:	0.500	X:	0.017	Y:	0.057	Z:	0.057	yaw:	1.217	yaw rate:	0.166	Roll:	-2.785	Pitch:	2.141	Yaw:	2.842	Thrust:	100.000
Time:	4.768	Roll Set Point:	0.065	Pitch Set Point:	-0.116	Yaw Set Point:	-0.021	X_WP:	0.100	Y_WP:	0.000	Y_WP:	0.500	X:	0.017	Y:	0.057	Z:	0.057	yaw:	1.210	yaw rate:	-0.699	Roll:	-2.799	Pitch:	2.056	Yaw:	2.569	Thrust:	100.000
Time:	4.779	Roll Set Point:	0.065	Pitch Set Point:	-0.116	Yaw Set Point:	-0.021	X_WP:	0.100	Y_WP:	0.000	Y_WP:	0.500	X:	0.017	Y:	0.057	Z:	0.057	yaw:	1.213	yaw rate:	0.320	Roll:	-2.708	Pitch:	2.059	Yaw:	2.780	Thrust:	100.000
Time:	4.790	Roll Set Point:	0.065	Pitch Set Point:	-0.116	Yaw Set Point:	-0.021	X_WP:	0.100	Y_WP:	0.000	Y_WP:	0.500	X:	0.017	Y:	0.057	Z:	0.057	yaw:	1.208	yaw rate:	-0.465	Roll:	-2.809	Pitch:	2.070	Yaw:	2.735	Thrust:	100.000
Time:	4.801	Roll Set Point:	0.065	Pitch Set Point:	-0.116	Yaw Set Point:	-0.021	X_WP:	0.100	Y_WP:	0.000	Y_WP:	0.500	X:	0.017	Y:	0.057	Z:	0.057	yaw:	1.217	yaw rate:	0.831	Roll:	-2.791	Pitch:	2.182	Yaw:	3.041	Thrust:	100.000
Time:	4.811	Roll Set Point:	0.065	Pitch Set Point:	-0.116	Yaw Set Point:	-0.021	X_WP:	0.100	Y_WP:	0.000	Y_WP:	0.500	X:	0.017	Y:	0.057	Z:	0.057	yaw:	1.214	yaw rate:	-0.317	Roll:	-2.775	Pitch:	2.070	Yaw:	2.640	Thrust:	100.000
Time:	4.824	Roll Set Point:	0.065	Pitch Set Point:	-0.116	Yaw Set Point:	-0.021	X_WP:	0.100	Y_WP:	0.000	Y_WP:	0.500	X:	0.017	Y:	0.057	Z:	0.057	yaw:	1.218	yaw rate:	0.485	Roll:	-2.770	Pitch:	2.094	Yaw:	2.965	Thrust:	100.000
Time:	4.835	Roll Set Point:	0.065	Pitch Set Point:	-0.116	Yaw Set Point:	-0.021	X_WP:	0.100	Y_WP:	0.000	Y_WP:	0.500	X:	0.017	Y:	0.057	Z:	0.057	yaw:	1.216	yaw rate:	-0.202	Roll:	-2.805	Pitch:	2.167	Yaw:	2.861	Thrust:	100.000
Time:	4.846	Roll Set Point:	0.065	Pitch Set Point:	-0.116	Yaw Set Point:	-0.021	X_WP:	0.100	Y_WP:	0.000	Y_WP:	0.500	X:	0.017	Y:	0.057	Z:	0.057	yaw:	1.202	yaw rate:	-1.401	Roll:	-2.819	Pitch:	2.047	Yaw:	2.449	Thrust:	100.000
Time:	4.857	Roll Set Point:	0.065	Pitch Set Point:	-0.116	Yaw Set Point:	-0.021	X_WP:	0.100	Y_WP:	0.000	Y_WP:	0.500	X:	0.017	Y:	0.057	Z:	0.057	yaw:	1.205	yaw rate:	0.227	Roll:	-2.771	Pitch:	2.137	Yaw:	2.792	Thrust:	100.000
Time:	4.869	Roll Set Point:	0.065	Pitch Set Point:	-0.116	Yaw Set Point:	-0.021	X_WP:	0.100	Y_WP:	0.000	Y_WP:	0.500	X:	0.017	Y:	0.057	Z:	0.057	yaw:	1.203	yaw rate:	-0.178	Roll:	-2.799	Pitch:	2.126	Yaw:	2.746	Thrust:	100.000
Time:	4.880	Roll Set Point:	0.065	Pitch Set Point:	-0.116	Yaw Set Point:	-0.021	X_WP:	0.100	Y_WP:	0.000	Y_WP:	0.500	X:	0.017	Y:	0.057	Z:	0.057	yaw:	1.207	yaw rate:	0.375	Roll:	-2.791	Pitch:	2.132	Yaw:	3.005	Thrust:	100.000
Time:	4.891	Roll Set Point:	0.065	Pitch Set Point:	-0.116	Yaw Set Point:	-0.021	X_WP:	0.100	Y_WP:	0.000	Y_WP:	0.500	X:	0.017	Y:	0.057	Z:	0.057	yaw:	1.206	yaw rate:	-0.110	Roll:	-2.796	Pitch:	2.118	Yaw:	2.709	Thrust:	100.000
Time:	4.903	Roll Set Point:	0.065	Pitch Set Point:	-0.116	Yaw Set Point:	-0.021	X_WP:	0.100	Y_WP:	0.000	Y_WP:	0.500	X:	0.017	Y:	0.057	Z:	0.057	yaw:	1.217	yaw rate:	1.119	Roll:	-2.794	Pitch:	2.146	Yaw:	3.149	Thrust:	100.000
Time:	4.915	Roll Set Point:	0.065	Pitch Set Point:	-0.116	Yaw Set Point:	-0.021	X_WP:	0.100	Y_WP:	0.000	Y_WP:	0.500	X:	0.017	Y:	0.057	Z:	0.057	yaw:	1.209	yaw rate:	-0.822	Roll:	-2.824	Pitch:	2.133	Yaw:	2.685	Thrust:	100.000
Time:	4.926	Roll Set Point:	0.065	Pitch Set Point:	-0.116	Yaw Set Point:	-0.021	X_WP:	0.100	Y_WP:	0.000	Y_WP:	0.500	X:	0.017	Y:	0.057	Z:	0.057	yaw:	1.208	yaw rate:	-0.067	Roll:	-2.773	Pitch:	2.130	Yaw:	2.774	Thrust:	100.000
Time:	4.938	Roll Set Point:	0.065	Pitch Set Point:	-0.116	Yaw Set Point:	-0.021	X_WP:	0.100	Y_WP:	0.000	Y_WP:	0.500	X:	0.017	Y:	0.057	Z:	0.057	yaw:	1.208	yaw rate:	-0.027	Roll:	-2.847	Pitch:	2.151	Yaw:	2.838	Thrust:	100.000
Time:	4.950	Roll Set Point:	0.065	Pitch Set Point:	-0.116	Yaw Set Point:	-0.021	X_WP:	0.100	Y_WP:	0.000	Y_WP:	0.500	X:	0.017	Y:	0.057	Z:	0.057	yaw:	1.207	yaw rate:	-0.347	Roll:	-2.815	Pitch:	2.095	Yaw:	2.927	Thrust:	100.000
Time:	4.961	Roll Set Point:	0.065	Pitch Set Point:	-0.116	Yaw Set Point:	-0.021	X_WP:	0.100	Y_WP:	0.000	Y_WP:	0.500	X:	0.017	Y:	0.057	Z:	0.057	yaw:	1.207	yaw rate:	0.052	Roll:	-2.780	Pitch:	2.197	Yaw:	2.802	Thrust:	100.000
Time:	4.974	Roll Set Point:	0.065	Pitch Set Point:	-0.116	Yaw Set Point:	-0.021	X_WP:	0.100	Y_WP:	0.000	Y_WP:	0.500	X:	0.017	Y:	0.057	Z:	0.057	yaw:	1.215	yaw rate:	0.782	Roll:	-2.820	Pitch:	2.107	Yaw:	3.076	Thrust:	100.000
Time:	4.985	Roll Set Point:	0.065	Pitch Set Point:	-0.116	Yaw Set Point:	-0.021	X_WP:	0.100	Y_WP:	0.000	Y_WP:	0.500	X:	0.017	Y:	0.057	Z:	0.057	yaw:	1.213	yaw rate:	-0.178	Roll:	-2.810	Pitch:	2.189	Yaw:	2.808	Thrust:	100.000
Time:	4.996	Roll Set Point:	0.065	Pitch Set Point:	-0.116	Yaw Set Point:	-0.021	X_WP:	0.100	Y_WP:	0.000	Y_WP:	0.500	X:	0.017	Y:	0.057	Z:	0.057	yaw:	1.214	yaw rate:	0.072	Roll:	-2.810	Pitch:	2.137	Yaw:	2.914	Thrust:	100.000
Time:	5.010	Roll Set Point:	0.065	Pitch Set Point:	-0.116	Yaw Set Point:	-0.021	X_WP:	0.100	Y_WP:	0.000	Y_WP:	0.500	X:	0.017	Y:	0.057	Z:	0.057	yaw:	1.211	yaw rate:	-0.285	Roll:	-2.835	Pitch:	2.190	Yaw:	2.945	Thrust:	100.000
Time:	5.022	Roll Set Point:	0.065	Pitch Set Point:	-0.116	Yaw Set Point:	-0.021	X_WP:	0.100	Y_WP:	0.000	Y_WP:	0.500	X:	0.017	Y:	0.057	Z:	0.057	yaw:	1.207	yaw rate:	-0.393	Roll:	-2.858	Pitch:	2.151	Yaw:	2.806	Thrust:	100.000
Time:	5.033	Roll Set Point:	0.065	Pitch Set Point:	-0.116	Yaw Set Point:	-0.021	X_WP:	0.100	Y_WP:	0.000	Y_WP:	0.500	X:	0.017	Y:	0.057	Z:	0.057	yaw:	1.208	yaw rate:	0.011	Roll:	-2.792	Pitch:	2.111	Yaw:	2.742	Thrust:	100.000
Time:	5.044	Roll Set Point:	0.065	Pitch Set Point:	-0.116	Yaw Set Point:	-0.021	X_WP:	0.100	Y_WP:	0.000	Y_WP:	0.500	X:	0.017	Y:	0.057	Z:	0.057	yaw:	1.210	yaw rate:	0.244	Roll:	-2.789	Pitch:	2.126	Yaw:	2.947	Thrust:	100.000
