Time:	2.054	Roll Set Point:	-0.020	Pitch Set Point:	-0.001	Yaw Set Point:	0.047	X_WP:	0.000	Y_WP:	0.000	Y_WP:	0.500	X:	0.010	Y:	0.000	Z:	0.049	yaw:	-2.680	yaw rate:	13.332	Roll:	0.285	Pitch:	0.022	Yaw:	-3.743	Thrust:	24.779
Time:	2.065	Roll Set Point:	-0.020	Pitch Set Point:	-0.001	Yaw Set Point:	0.046	X_WP:	0.000	Y_WP:	0.000	Y_WP:	0.500	X:	0.010	Y:	0.000	Z:	0.049	yaw:	-2.651	yaw rate:	2.974	Roll:	0.315	Pitch:	-0.008	Yaw:	-3.005	Thrust:	25.407
Time:	2.076	Roll Set Point:	-0.020	Pitch Set Point:	-0.001	Yaw Set Point:	0.046	X_WP:	0.000	Y_WP:	0.000	Y_WP:	0.500	X:	0.010	Y:	0.000	Z:	0.049	yaw:	-2.651	yaw rate:	0.017	Roll:	0.321	Pitch:	0.052	Yaw:	-3.717	Thrust:	25.907
Time:	2.087	Roll Set Point:	-0.020	Pitch Set Point:	-0.001	Yaw Set Point:	0.046	X_WP:	0.000	Y_WP:	0.000	Y_WP:	0.500	X:	0.010	Y:	0.000	Z:	0.050	yaw:	-2.621	yaw rate:	2.979	Roll:	0.263	Pitch:	-0.015	Yaw:	-2.981	Thrust:	25.526
Time:	2.098	Roll Set Point:	-0.020	Pitch Set Point:	-0.001	Yaw Set Point:	0.055	X_WP:	0.000	Y_WP:	0.000	Y_WP:	0.500	X:	0.010	Y:	0.000	Z:	0.050	yaw:	-3.172	yaw rate:	-55.170	Roll:	0.143	Pitch:	0.320	Yaw:	-17.566	Thrust:	27.627
Time:	2.109	Roll Set Point:	-0.020	Pitch Set Point:	-0.001	Yaw Set Point:	0.052	X_WP:	0.000	Y_WP:	0.000	Y_WP:	0.500	X:	0.010	Y:	0.000	Z:	0.050	yaw:	-2.952	yaw rate:	22.075	Roll:	0.515	Pitch:	-0.180	Yaw:	1.066	Thrust:	27.589
Time:	2.120	Roll Set Point:	-0.020	Pitch Set Point:	-0.001	Yaw Set Point:	0.056	X_WP:	0.000	Y_WP:	0.000	Y_WP:	0.500	X:	0.010	Y:	0.000	Z:	0.050	yaw:	-3.218	yaw rate:	-26.652	Roll:	0.156	Pitch:	0.162	Yaw:	-10.883	Thrust:	27.745
Time:	2.131	Roll Set Point:	-0.020	Pitch Set Point:	-0.001	Yaw Set Point:	0.048	X_WP:	0.000	Y_WP:	0.000	Y_WP:	0.500	X:	0.010	Y:	0.000	Z:	0.050	yaw:	-2.767	yaw rate:	45.130	Roll:	0.430	Pitch:	0.171	Yaw:	6.773	Thrust:	29.740
Time:	2.142	Roll Set Point:	-0.020	Pitch Set Point:	-0.001	Yaw Set Point:	0.046	X_WP:	0.000	Y_WP:	0.000	Y_WP:	0.500	X:	0.010	Y:	0.000	Z:	0.050	yaw:	-2.628	yaw rate:	13.931	Roll:	0.408	Pitch:	-0.018	Yaw:	-0.450	Thrust:	29.632
Time:	2.153	Roll Set Point:	-0.020	Pitch Set Point:	-0.001	Yaw Set Point:	0.047	X_WP:	0.000	Y_WP:	0.000	Y_WP:	0.500	X:	0.010	Y:	0.000	Z:	0.050	yaw:	-2.717	yaw rate:	-8.943	Roll:	0.123	Pitch:	0.024	Yaw:	-6.014	Thrust:	30.128
Time:	2.164	Roll Set Point:	-0.020	Pitch Set Point:	-0.001	Yaw Set Point:	0.053	X_WP:	0.000	Y_WP:	0.000	Y_WP:	0.500	X:	0.010	Y:	0.000	Z:	0.050	yaw:	-3.025	yaw rate:	-30.838	Roll:	0.116	Pitch:	-0.078	Yaw:	-11.627	Thrust:	30.883
Time:	2.175	Roll Set Point:	-0.020	Pitch Set Point:	-0.001	Yaw Set Point:	0.053	X_WP:	0.000	Y_WP:	0.000	Y_WP:	0.500	X:	0.010	Y:	0.000	Z:	0.049	yaw:	-3.009	yaw rate:	1.630	Roll:	0.371	Pitch:	-0.043	Yaw:	-3.933	Thrust:	31.684
Time:	2.187	Roll Set Point:	-0.020	Pitch Set Point:	-0.001	Yaw Set Point:	0.045	X_WP:	0.000	Y_WP:	0.000	Y_WP:	0.500	X:	0.010	Y:	0.000	Z:	0.050	yaw:	-2.597	yaw rate:	41.202	Roll:	0.349	Pitch:	-0.109	Yaw:	5.868	Thrust:	31.596
Time:	2.198	Roll Set Point:	-0.020	Pitch Set Point:	-0.001	Yaw Set Point:	0.046	X_WP:	0.000	Y_WP:	0.000	Y_WP:	0.500	X:	0.010	Y:	0.000	Z:	0.050	yaw:	-2.618	yaw rate:	-2.042	Roll:	0.359	Pitch:	0.106	Yaw:	-4.261	Thrust:	32.929
Time:	2.209	Roll Set Point:	-0.019	Pitch Set Point:	-0.001	Yaw Set Point:	0.044	X_WP:	0.000	Y_WP:	0.000	Y_WP:	0.500	X:	0.010	Y:	0.000	Z:	0.049	yaw:	-2.535	yaw rate:	8.274	Roll:	-0.030	Pitch:	-0.023	Yaw:	-1.727	Thrust:	34.001
Time:	2.220	Roll Set Point:	-0.020	Pitch Set Point:	-0.001	Yaw Set Point:	0.045	X_WP:	0.000	Y_WP:	0.000	Y_WP:	0.500	X:	0.010	Y:	0.000	Z:	0.049	yaw:	-2.563	yaw rate:	-2.795	Roll:	0.500	Pitch:	0.051	Yaw:	-4.402	Thrust:	33.585
Time:	2.231	Roll Set Point:	-0.020	Pitch Set Point:	-0.001	Yaw Set Point:	0.046	X_WP:	0.000	Y_WP:	0.000	Y_WP:	0.500	X:	0.010	Y:	0.000	Z:	0.049	yaw:	-2.658	yaw rate:	-9.514	Roll:	0.143	Pitch:	-0.025	Yaw:	-6.141	Thrust:	34.536
Time:	2.243	Roll Set Point:	-0.020	Pitch Set Point:	-0.001	Yaw Set Point:	0.043	X_WP:	0.000	Y_WP:	0.000	Y_WP:	0.500	X:	0.010	Y:	0.000	Z:	0.050	yaw:	-2.451	yaw rate:	20.689	Roll:	0.687	Pitch:	0.083	Yaw:	1.308	Thrust:	33.781
Time:	2.254	Roll Set Point:	-0.020	Pitch Set Point:	-0.001	Yaw Set Point:	0.053	X_WP:	0.000	Y_WP:	0.000	Y_WP:	0.500	X:	0.010	Y:	0.000	Z:	0.049	yaw:	-3.043	yaw rate:	-59.229	Roll:	0.033	Pitch:	0.178	Yaw:	-18.493	Thrust:	36.193
Time:	2.265	Roll Set Point:	-0.020	Pitch Set Point:	-0.001	Yaw Set Point:	0.045	X_WP:	0.000	Y_WP:	0.000	Y_WP:	0.500	X:	0.010	Y:	0.000	Z:	0.049	yaw:	-2.590	yaw rate:	45.341	Roll:	0.219	Pitch:	-0.111	Yaw:	6.944	Thrust:	36.068
Time:	2.276	Roll Set Point:	-0.020	Pitch Set Point:	-0.001	Yaw Set Point:	0.045	X_WP:	0.000	Y_WP:	0.000	Y_WP:	0.500	X:	0.010	Y:	0.001	Z:	0.050	yaw:	-2.571	yaw rate:	1.937	Roll:	0.389	Pitch:	0.290	Yaw:	-3.341	Thrust:	36.264
Time:	2.287	Roll Set Point:	-0.020	Pitch Set Point:	-0.001	Yaw Set Point:	0.047	X_WP:	0.000	Y_WP:	0.000	Y_WP:	0.500	X:	0.010	Y:	0.000	Z:	0.050	yaw:	-2.705	yaw rate:	-13.496	Roll:	0.255	Pitch:	-0.263	Yaw:	-7.210	Thrust:	36.889
Time:	2.298	Roll Set Point:	-0.020	Pitch Set Point:	-0.001	Yaw Set Point:	0.051	X_WP:	0.000	Y_WP:	0.000	Y_WP:	0.500	X:	0.010	Y:	0.000	Z:	0.050	yaw:	-2.897	yaw rate:	-19.144	Roll:	0.382	Pitch:	0.075	Yaw:	-8.810	Thrust:	37.764
Time:	2.309	Roll Set Point:	-0.020	Pitch Set Point:	-0.001	Yaw Set Point:	0.046	X_WP:	0.000	Y_WP:	0.000	Y_WP:	0.500	X:	0.010	Y:	0.000	Z:	0.050	yaw:	-2.638	yaw rate:	25.878	Roll:	0.287	Pitch:	0.029	Yaw:	2.217	Thrust:	38.761
Time:	2.320	Roll Set Point:	-0.020	Pitch Set Point:	-0.001	Yaw Set Point:	0.049	X_WP:	0.000	Y_WP:	0.000	Y_WP:	0.500	X:	0.010	Y:	0.000	Z:	0.050	yaw:	-2.818	yaw rate:	-18.034	Roll:	0.191	Pitch:	0.001	Yaw:	-8.470	Thrust:	39.465
Time:	2.331	Roll Set Point:	-0.020	Pitch Set Point:	-0.001	Yaw Set Point:	0.051	X_WP:	0.000	Y_WP:	0.000	Y_WP:	0.500	X:	0.010	Y:	0.000	Z:	0.050	yaw:	-2.946	yaw rate:	-12.719	Roll:	0.320	Pitch:	0.114	Yaw:	-7.397	Thrust:	39.432
Time:	2.342	Roll Set Point:	-0.020	Pitch Set Point:	-0.001	Yaw Set Point:	0.049	X_WP:	0.000	Y_WP:	0.000	Y_WP:	0.500	X:	0.010	Y:	0.000	Z:	0.050	yaw:	-2.798	yaw rate:	14.803	Roll:	0.602	Pitch:	-0.104	Yaw:	-0.659	Thrust:	40.098
Time:	2.353	Roll Set Point:	-0.020	Pitch Set Point:	-0.001	Yaw Set Point:	0.043	X_WP:	0.000	Y_WP:	0.000	Y_WP:	0.500	X:	0.010	Y:	0.000	Z:	0.050	yaw:	-2.474	yaw rate:	32.412	Roll:	0.270	Pitch:	0.065	Yaw:	3.953	Thrust:	41.041
Time:	2.364	Roll Set Point:	-0.020	Pitch Set Point:	-0.001	Yaw Set Point:	0.043	X_WP:	0.000	Y_WP:	0.000	Y_WP:	0.500	X:	0.010	Y:	0.000	Z:	0.050	yaw:	-2.462	yaw rate:	1.168	Roll:	-0.060	Pitch:	0.015	Yaw:	-3.457	Thrust:	41.668
Time:	2.375	Roll Set Point:	-0.020	Pitch Set Point:	-0.001	Yaw Set Point:	0.045	X_WP:	0.000	Y_WP:	0.000	Y_WP:	0.500	X:	0.010	Y:	0.000	Z:	0.050	yaw:	-2.561	yaw rate:	-9.935	Roll:	0.242	Pitch:	0.086	Yaw:	-6.236	Thrust:	42.266
Time:	2.386	Roll Set Point:	-0.020	Pitch Set Point:	-0.001	Yaw Set Point:	0.046	X_WP:	0.000	Y_WP:	0.000	Y_WP:	0.500	X:	0.010	Y:	0.000	Z:	0.050	yaw:	-2.644	yaw rate:	-8.237	Roll:	0.459	Pitch:	-0.051	Yaw:	-5.965	Thrust:	41.967
Time:	2.397	Roll Set Point:	-0.020	Pitch Set Point:	-0.001	Yaw Set Point:	0.049	X_WP:	0.000	Y_WP:	0.000	Y_WP:	0.500	X:	0.010	Y:	0.000	Z:	0.050	yaw:	-2.815	yaw rate:	-17.119	Roll:	0.374	Pitch:	0.099	Yaw:	-8.311	Thrust:	43.145
Time:	2.408	Roll Set Point:	-0.020	Pitch Set Point:	-0.001	Yaw Set Point:	0.052	X_WP:	0.000	Y_WP:	0.000	Y_WP:	0.500	X:	0.010	Y:	0.000	Z:	0.050	yaw:	-2.992	yaw rate:	-17.719	Roll:	0.206	Pitch:	0.041	Yaw:	-8.722	Thrust:	43.611
Time:	2.419	Roll Set Point:	-0.020	Pitch Set Point:	-0.001	Yaw Set Point:	0.046	X_WP:	0.000	Y_WP:	0.000	Y_WP:	0.500	X:	0.010	Y:	0.000	Z:	0.050	yaw:	-2.633	yaw rate:	35.905	Roll:	0.309	Pitch:	-0.032	Yaw:	4.494	Thrust:	44.871
Time:	2.430	Roll Set Point:	-0.020	Pitch Set Point:	-0.001	Yaw Set Point:	0.040	X_WP:	0.000	Y_WP:	0.000	Y_WP:	0.500	X:	0.010	Y:	0.000	Z:	0.050	yaw:	-2.285	yaw rate:	34.764	Roll:	0.299	Pitch:	0.071	Yaw:	4.724	Thrust:	44.998
Time:	2.441	Roll Set Point:	-0.019	Pitch Set Point:	-0.001	Yaw Set Point:	0.047	X_WP:	0.000	Y_WP:	0.000	Y_WP:	0.500	X:	0.010	Y:	0.000	Z:	0.050	yaw:	-2.719	yaw rate:	-43.335	Roll:	0.006	Pitch:	0.029	Yaw:	-14.425	Thrust:	45.519
Time:	2.452	Roll Set Point:	-0.020	Pitch Set Point:	-0.001	Yaw Set Point:	0.044	X_WP:	0.000	Y_WP:	0.000	Y_WP:	0.500	X:	0.010	Y:	0.000	Z:	0.050	yaw:	-2.508	yaw rate:	21.057	Roll:	0.441	Pitch:	0.147	Yaw:	1.118	Thrust:	46.028
Time:	2.463	Roll Set Point:	-0.019	Pitch Set Point:	-0.001	Yaw Set Point:	0.051	X_WP:	0.000	Y_WP:	0.000	Y_WP:	0.500	X:	0.010	Y:	0.000	Z:	0.050	yaw:	-2.946	yaw rate:	-43.795	Roll:	0.091	Pitch:	0.105	Yaw:	-14.898	Thrust:	47.747
Time:	2.474	Roll Set Point:	-0.020	Pitch Set Point:	-0.002	Yaw Set Point:	0.037	X_WP:	0.000	Y_WP:	0.000	Y_WP:	0.500	X:	0.010	Y:	0.001	Z:	0.050	yaw:	-2.144	yaw rate:	80.194	Roll:	0.540	Pitch:	0.240	Yaw:	15.691	Thrust:	46.805
Time:	2.485	Roll Set Point:	-0.020	Pitch Set Point:	-0.002	Yaw Set Point:	0.038	X_WP:	0.000	Y_WP:	0.000	Y_WP:	0.500	X:	0.010	Y:	0.001	Z:	0.050	yaw:	-2.174	yaw rate:	-3.010	Roll:	0.245	Pitch:	0.147	Yaw:	-4.157	Thrust:	47.862
Time:	2.496	Roll Set Point:	-0.020	Pitch Set Point:	-0.002	Yaw Set Point:	0.047	X_WP:	0.000	Y_WP:	0.000	Y_WP:	0.500	X:	0.010	Y:	0.001	Z:	0.050	yaw:	-2.721	yaw rate:	-54.718	Roll:	0.279	Pitch:	0.103	Yaw:	-17.203	Thrust:	49.178
Time:	2.507	Roll Set Point:	-0.019	Pitch Set Point:	-0.002	Yaw Set Point:	0.043	X_WP:	0.000	Y_WP:	0.000	Y_WP:	0.500	X:	0.010	Y:	0.001	Z:	0.050	yaw:	-2.483	yaw rate:	23.815	Roll:	0.209	Pitch:	-0.148	Yaw:	1.760	Thrust:	49.268
Time:	2.518	Roll Set Point:	-0.020	Pitch Set Point:	-0.002	Yaw Set Point:	0.054	X_WP:	0.000	Y_WP:	0.000	Y_WP:	0.500	X:	0.010	Y:	0.001	Z:	0.050	yaw:	-3.070	yaw rate:	-58.655	Roll:	0.352	Pitch:	-0.049	Yaw:	-18.645	Thrust:	49.856
Time:	2.529	Roll Set Point:	-0.020	Pitch Set Point:	-0.002	Yaw Set Point:	0.051	X_WP:	0.000	Y_WP:	0.000	Y_WP:	0.500	X:	0.010	Y:	0.001	Z:	0.050	yaw:	-2.936	yaw rate:	13.345	Roll:	0.327	Pitch:	0.073	Yaw:	-1.379	Thrust:	49.597
Time:	2.540	Roll Set Point:	-0.020	Pitch Set Point:	-0.002	Yaw Set Point:	0.048	X_WP:	0.000	Y_WP:	0.000	Y_WP:	0.500	X:	0.010	Y:	0.001	Z:	0.050	yaw:	-2.736	yaw rate:	20.043	Roll:	0.400	Pitch:	0.082	Yaw:	0.479	Thrust:	51.072
Time:	2.551	Roll Set Point:	-0.019	Pitch Set Point:	-0.001	Yaw Set Point:	0.051	X_WP:	0.000	Y_WP:	0.000	Y_WP:	0.500	X:	0.010	Y:	0.000	Z:	0.049	yaw:	-2.941	yaw rate:	-20.540	Roll:	0.076	Pitch:	-0.190	Yaw:	-9.451	Thrust:	52.694
Time:	2.562	Roll Set Point:	-0.020	Pitch Set Point:	-0.001	Yaw Set Point:	0.052	X_WP:	0.000	Y_WP:	0.000	Y_WP:	0.500	X:	0.010	Y:	0.000	Z:	0.050	yaw:	-2.993	yaw rate:	-5.169	Roll:	0.444	Pitch:	0.038	Yaw:	-5.886	Thrust:	51.989
Time:	2.573	Roll Set Point:	-0.020	Pitch Set Point:	-0.002	Yaw Set Point:	0.050	X_WP:	0.000	Y_WP:	0.000	Y_WP:	0.500	X:	0.010	Y:	0.001	Z:	0.050	yaw:	-2.843	yaw rate:	15.008	Roll:	0.388	Pitch:	0.225	Yaw:	-0.899	Thrust:	52.230
Time:	2.584	Roll Set Point:	-0.020	Pitch Set Point:	-0.002	Yaw Set Point:	0.047	X_WP:	0.000	Y_WP:	0.000	Y_WP:	0.500	X:	0.010	Y:	0.001	Z:	0.050	yaw:	-2.680	yaw rate:	16.252	Roll:	0.276	Pitch:	0.254	Yaw:	-0.388	Thrust:	53.404
Time:	2.595	Roll Set Point:	-0.020	Pitch Set Point:	-0.002	Yaw Set Point:	0.049	X_WP:	0.000	Y_WP:	0.000	Y_WP:	0.500	X:	0.010	Y:	0.001	Z:	0.050	yaw:	-2.820	yaw rate:	-13.993	Roll:	0.376	Pitch:	-0.143	Yaw:	-7.772	Thrust:	53.797
Time:	2.607	Roll Set Point:	-0.020	Pitch Set Point:	-0.002	Yaw Set Point:	0.053	X_WP:	0.000	Y_WP:	0.000	Y_WP:	0.500	X:	0.010	Y:	0.001	Z:	0.050	yaw:	-3.051	yaw rate:	4.394	Roll:	0.072	Pitch:	0.260	Yaw:	-10.105	Thrust:	56.237
Time:	2.618	Roll Set Point:	-0.020	Pitch Set Point:	-0.002	Yaw Set Point:	0.053	X_WP:	0.000	Y_WP:	0.000	Y_WP:	0.500	X:	0.010	Y:	0.001	Z:	0.050	yaw:	-3.051	yaw rate:	4.394	Roll:	0.296	Pitch:	0.038	Yaw:	-4.796	Thrust:	55.176
Time:	2.629	Roll Set Point:	-0.020	Pitch Set Point:	-0.002	Yaw Set Point:	0.045	X_WP:	0.000	Y_WP:	0.000	Y_WP:	0.500	X:	0.010	Y:	0.001	Z:	0.050	yaw:	-2.590	yaw rate:	46.109	Roll:	0.485	Pitch:	0.185	Yaw:	6.780	Thrust:	54.794
Time:	2.640	Roll Set Point:	-0.020	Pitch Set Point:	-0.002	Yaw Set Point:	0.042	X_WP:	0.000	Y_WP:	0.000	Y_WP:	0.500	X:	0.010	Y:	0.001	Z:	0.050	yaw:	-2.407	yaw rate:	18.359	Roll:	0.308	Pitch:	0.017	Yaw:	0.441	Thrust:	56.467
Time:	2.651	Roll Set Point:	-0.020	Pitch Set Point:	-0.003	Yaw Set Point:	0.036	X_WP:	0.000	Y_WP:	0.000	Y_WP:	0.500	X:	0.010	Y:	0.001	Z:	0.050	yaw:	-2.086	yaw rate:	32.038	Roll:	0.150	Pitch:	0.219	Yaw:	4.126	Thrust:	56.840
Time:	2.663	Roll Set Point:	-0.020	Pitch Set Point:	-0.003	Yaw Set Point:	0.035	X_WP:	0.000	Y_WP:	0.000	Y_WP:	0.500	X:	0.010	Y:	0.001	Z:	0.050	yaw:	-2.014	yaw rate:	7.188	Roll:	0.293	Pitch:	0.054	Yaw:	-1.876	Thrust:	61.110
Time:	2.674	Roll Set Point:	-0.020	Pitch Set Point:	-0.003	Yaw Set Point:	0.027	X_WP:	0.000	Y_WP:	0.000	Y_WP:	0.500	X:	0.010	Y:	0.001	Z:	0.050	yaw:	-1.562	yaw rate:	45.187	Roll:	0.265	Pitch:	0.197	Yaw:	7.962	Thrust:	57.942
Time:	2.685	Roll Set Point:	-0.020	Pitch Set Point:	-0.004	Yaw Set Point:	0.023	X_WP:	0.000	Y_WP:	0.000	Y_WP:	0.500	X:	0.010	Y:	0.002	Z:	0.050	yaw:	-1.340	yaw rate:	16.892	Roll:	0.436	Pitch:	0.522	Yaw:	2.815	Thrust:	57.327
Time:	2.696	Roll Set Point:	-0.020	Pitch Set Point:	-0.004	Yaw Set Point:	0.023	X_WP:	0.000	Y_WP:	0.000	Y_WP:	0.500	X:	0.010	Y:	0.002	Z:	0.050	yaw:	-1.340	yaw rate:	16.892	Roll:	0.301	Pitch:	0.056	Yaw:	-2.465	Thrust:	59.322
Time:	2.707	Roll Set Point:	-0.020	Pitch Set Point:	-0.004	Yaw Set Point:	0.020	X_WP:	0.000	Y_WP:	0.000	Y_WP:	0.500	X:	0.010	Y:	0.002	Z:	0.050	yaw:	-1.166	yaw rate:	17.428	Roll:	0.279	Pitch:	0.137	Yaw:	1.909	Thrust:	60.418
Time:	2.718	Roll Set Point:	-0.020	Pitch Set Point:	-0.004	Yaw Set Point:	0.009	X_WP:	0.000	Y_WP:	0.000	Y_WP:	0.500	X:	0.010	Y:	0.002	Z:	0.050	yaw:	-0.495	yaw rate:	67.094	Roll:	0.461	Pitch:	0.210	Yaw:	14.593	Thrust:	60.457
Time:	2.729	Roll Set Point:	-0.020	Pitch Set Point:	-0.004	Yaw Set Point:	0.014	X_WP:	0.000	Y_WP:	0.000	Y_WP:	0.500	X:	0.010	Y:	0.002	Z:	0.050	yaw:	-0.794	yaw rate:	-29.943	Roll:	0.026	Pitch:	-0.052	Yaw:	-8.838	Thrust:	60.258
Time:	2.740	Roll Set Point:	-0.019	Pitch Set Point:	-0.004	Yaw Set Point:	0.006	X_WP:	0.000	Y_WP:	0.000	Y_WP:	0.500	X:	0.010	Y:	0.002	Z:	0.050	yaw:	-0.325	yaw rate:	46.904	Roll:	0.289	Pitch:	0.460	Yaw:	10.071	Thrust:	61.401
Time:	2.751	Roll Set Point:	-0.019	Pitch Set Point:	-0.005	Yaw Set Point:	-0.006	X_WP:	0.000	Y_WP:	0.000	Y_WP:	0.500	X:	0.010	Y:	0.002	Z:	0.050	yaw:	0.347	yaw rate:	67.280	Roll:	0.305	Pitch:	0.242	Yaw:	15.845	Thrust:	61.622
Time:	2.762	Roll Set Point:	-0.019	Pitch Set Point:	-0.005	Yaw Set Point:	-0.003	X_WP:	0.000	Y_WP:	0.000	Y_WP:	0.500	X:	0.010	Y:	0.002	Z:	0.050	yaw:	0.190	yaw rate:	-15.740	Roll:	0.217	Pitch:	0.232	Yaw:	-4.079	Thrust:	62.222
Time:	2.773	Roll Set Point:	-0.019	Pitch Set Point:	-0.005	Yaw Set Point:	-0.013	X_WP:	0.000	Y_WP:	0.000	Y_WP:	0.500	X:	0.010	Y:	0.003	Z:	0.051	yaw:	0.767	yaw rate:	57.690	Roll:	0.146	Pitch:	0.082	Yaw:	14.158	Thrust:	61.300
Time:	2.784	Roll Set Point:	-0.019	Pitch Set Point:	-0.005	Yaw Set Point:	-0.022	X_WP:	0.000	Y_WP:	0.000	Y_WP:	0.500	X:	0.010	Y:	0.003	Z:	0.051	yaw:	1.283	yaw rate:	51.578	Roll:	0.449	Pitch:	0.250	Yaw:	13.429	Thrust:	62.277
Time:	2.795	Roll Set Point:	-0.019	Pitch Set Point:	-0.006	Yaw Set Point:	-0.028	X_WP:	0.000	Y_WP:	0.000	Y_WP:	0.500	X:	0.010	Y:	0.003	Z:	0.052	yaw:	1.607	yaw rate:	32.414	Roll:	0.250	Pitch:	0.223	Yaw:	9.339	Thrust:	60.446
Time:	2.806	Roll Set Point:	-0.019	Pitch Set Point:	-0.005	Yaw Set Point:	-0.024	X_WP:	0.000	Y_WP:	0.000	Y_WP:	0.500	X:	0.009	Y:	0.003	Z:	0.053	yaw:	1.353	yaw rate:	-25.394	Roll:	-0.221	Pitch:	-0.020	Yaw:	-4.731	Thrust:	63.598
Time:	2.817	Roll Set Point:	-0.019	Pitch Set Point:	-0.006	Yaw Set Point:	-0.039	X_WP:	0.000	Y_WP:	0.000	Y_WP:	0.500	X:	0.009	Y:	0.003	Z:	0.054	yaw:	2.251	yaw rate:	89.812	Roll:	0.387	Pitch:	0.226	Yaw:	23.874	Thrust:	61.601
Time:	2.828	Roll Set Point:	-0.019	Pitch Set Point:	-0.006	Yaw Set Point:	-0.040	X_WP:	0.000	Y_WP:	0.000	Y_WP:	0.500	X:	0.009	Y:	0.003	Z:	0.055	yaw:	2.287	yaw rate:	3.620	Roll:	0.181	Pitch:	0.464	Yaw:	3.473	Thrust:	61.892
Time:	2.839	Roll Set Point:	-0.018	Pitch Set Point:	-0.006	Yaw Set Point:	-0.040	X_WP:	0.000	Y_WP:	0.000	Y_WP:	0.500	X:	0.009	Y:	0.003	Z:	0.056	yaw:	2.319	yaw rate:	3.202	Roll:	-0.018	Pitch:	-0.033	Yaw:	3.427	Thrust:	60.711
Time:	2.850	Roll Set Point:	-0.018	Pitch Set Point:	-0.006	Yaw Set Point:	-0.045	X_WP:	0.000	Y_WP:	0.000	Y_WP:	0.500	X:	0.009	Y:	0.003	Z:	0.057	yaw:	2.591	yaw rate:	27.217	Roll:	-0.046	Pitch:	0.351	Yaw:	9.517	Thrust:	62.524
Time:	2.862	Roll Set Point:	-0.017	Pitch Set Point:	-0.007	Yaw Set Point:	-0.049	X_WP:	0.000	Y_WP:	0.000	Y_WP:	0.500	X:	0.009	Y:	0.004	Z:	0.059	yaw:	2.807	yaw rate:	21.568	Roll:	0.012	Pitch:	0.214	Yaw:	8.487	Thrust:	62.097
Time:	2.873	Roll Set Point:	-0.017	Pitch Set Point:	-0.007	Yaw Set Point:	-0.058	X_WP:	0.000	Y_WP:	0.000	Y_WP:	0.500	X:	0.008	Y:	0.004	Z:	0.060	yaw:	3.315	yaw rate:	50.811	Roll:	0.060	Pitch:	0.011	Yaw:	16.149	Thrust:	62.453
Time:	2.884	Roll Set Point:	-0.017	Pitch Set Point:	-0.007	Yaw Set Point:	-0.060	X_WP:	0.000	Y_WP:	0.000	Y_WP:	0.500	X:	0.008	Y:	0.004	Z:	0.062	yaw:	3.449	yaw rate:	13.375	Roll:	0.107	Pitch:	0.341	Yaw:	7.462	Thrust:	62.486
Time:	2.895	Roll Set Point:	-0.016	Pitch Set Point:	-0.007	Yaw Set Point:	-0.056	X_WP:	0.000	Y_WP:	0.000	Y_WP:	0.500	X:	0.008	Y:	0.004	Z:	0.063	yaw:	3.217	yaw rate:	-23.163	Roll:	-0.431	Pitch:	0.142	Yaw:	-1.509	Thrust:	63.190
Time:	2.906	Roll Set Point:	-0.015	Pitch Set Point:	-0.007	Yaw Set Point:	-0.059	X_WP:	0.000	Y_WP:	0.000	Y_WP:	0.500	X:	0.007	Y:	0.004	Z:	0.066	yaw:	3.368	yaw rate:	15.035	Roll:	-0.338	Pitch:	-0.042	Yaw:	7.770	Thrust:	59.780
Time:	2.917	Roll Set Point:	-0.015	Pitch Set Point:	-0.007	Yaw Set Point:	-0.067	X_WP:	0.000	Y_WP:	0.000	Y_WP:	0.500	X:	0.007	Y:	0.004	Z:	0.068	yaw:	3.843	yaw rate:	47.503	Roll:	-0.000	Pitch:	0.326	Yaw:	16.176	Thrust:	62.601
Time:	2.928	Roll Set Point:	-0.014	Pitch Set Point:	-0.007	Yaw Set Point:	-0.068	X_WP:	0.000	Y_WP:	0.000	Y_WP:	0.500	X:	0.007	Y:	0.004	Z:	0.069	yaw:	3.915	yaw rate:	7.274	Roll:	-0.336	Pitch:	-0.052	Yaw:	6.719	Thrust:	64.049
Time:	2.939	Roll Set Point:	-0.013	Pitch Set Point:	-0.007	Yaw Set Point:	-0.073	X_WP:	0.000	Y_WP:	0.000	Y_WP:	0.500	X:	0.007	Y:	0.004	Z:	0.071	yaw:	4.211	yaw rate:	29.528	Roll:	-0.413	Pitch:	-0.043	Yaw:	12.428	Thrust:	63.088
Time:	2.950	Roll Set Point:	-0.012	Pitch Set Point:	-0.006	Yaw Set Point:	-0.075	X_WP:	0.000	Y_WP:	0.000	Y_WP:	0.500	X:	0.006	Y:	0.003	Z:	0.074	yaw:	4.316	yaw rate:	10.538	Roll:	-0.625	Pitch:	-0.122	Yaw:	8.084	Thrust:	58.841
Time:	2.961	Roll Set Point:	-0.011	Pitch Set Point:	-0.006	Yaw Set Point:	-0.081	X_WP:	0.000	Y_WP:	0.000	Y_WP:	0.500	X:	0.006	Y:	0.003	Z:	0.076	yaw:	4.653	yaw rate:	33.672	Roll:	-0.328	Pitch:	0.081	Yaw:	14.061	Thrust:	63.389
Time:	2.972	Roll Set Point:	-0.011	Pitch Set Point:	-0.006	Yaw Set Point:	-0.086	X_WP:	0.000	Y_WP:	0.000	Y_WP:	0.500	X:	0.005	Y:	0.003	Z:	0.078	yaw:	4.927	yaw rate:	27.396	Roll:	-0.529	Pitch:	-0.170	Yaw:	12.973	Thrust:	64.091
Time:	2.983	Roll Set Point:	-0.009	Pitch Set Point:	-0.005	Yaw Set Point:	-0.081	X_WP:	0.000	Y_WP:	0.000	Y_WP:	0.500	X:	0.005	Y:	0.003	Z:	0.080	yaw:	4.624	yaw rate:	-30.243	Roll:	-0.888	Pitch:	-0.442	Yaw:	-1.112	Thrust:	65.654
Time:	2.994	Roll Set Point:	-0.009	Pitch Set Point:	-0.005	Yaw Set Point:	-0.098	X_WP:	0.000	Y_WP:	0.000	Y_WP:	0.500	X:	0.004	Y:	0.003	Z:	0.084	yaw:	5.588	yaw rate:	96.391	Roll:	-0.197	Pitch:	-0.059	Yaw:	29.574	Thrust:	61.138
Time:	3.005	Roll Set Point:	-0.007	Pitch Set Point:	-0.005	Yaw Set Point:	-0.091	X_WP:	0.000	Y_WP:	0.000	Y_WP:	0.500	X:	0.004	Y:	0.002	Z:	0.086	yaw:	5.188	yaw rate:	-40.030	Roll:	-1.041	Pitch:	-0.312	Yaw:	-2.609	Thrust:	63.589
Time:	3.016	Roll Set Point:	-0.006	Pitch Set Point:	-0.004	Yaw Set Point:	-0.091	X_WP:	0.000	Y_WP:	0.000	Y_WP:	0.500	X:	0.003	Y:	0.002	Z:	0.088	yaw:	5.241	yaw rate:	5.338	Roll:	-0.729	Pitch:	-0.350	Yaw:	8.255	Thrust:	65.647
Time:	3.027	Roll Set Point:	-0.005	Pitch Set Point:	-0.004	Yaw Set Point:	-0.103	X_WP:	0.000	Y_WP:	0.000	Y_WP:	0.500	X:	0.003	Y:	0.002	Z:	0.091	yaw:	5.876	yaw rate:	63.498	Roll:	-0.462	Pitch:	-0.323	Yaw:	22.967	Thrust:	64.454
Time:	3.038	Roll Set Point:	-0.004	Pitch Set Point:	-0.003	Yaw Set Point:	-0.102	X_WP:	0.000	Y_WP:	0.000	Y_WP:	0.500	X:	0.002	Y:	0.002	Z:	0.093	yaw:	5.828	yaw rate:	-4.796	Roll:	-0.778	Pitch:	-0.280	Yaw:	6.709	Thrust:	65.726
Time:	3.049	Roll Set Point:	-0.003	Pitch Set Point:	-0.003	Yaw Set Point:	-0.097	X_WP:	0.000	Y_WP:	0.000	Y_WP:	0.500	X:	0.001	Y:	0.001	Z:	0.095	yaw:	5.551	yaw rate:	-27.775	Roll:	-0.957	Pitch:	-0.238	Yaw:	0.906	Thrust:	67.300
Time:	3.060	Roll Set Point:	-0.002	Pitch Set Point:	-0.001	Yaw Set Point:	-0.105	X_WP:	0.000	Y_WP:	0.000	Y_WP:	0.500	X:	0.001	Y:	0.001	Z:	0.099	yaw:	6.043	yaw rate:	49.287	Roll:	-1.092	Pitch:	-0.899	Yaw:	19.890	Thrust:	59.449
Time:	3.071	Roll Set Point:	-0.000	Pitch Set Point:	-0.001	Yaw Set Point:	-0.098	X_WP:	0.000	Y_WP:	0.000	Y_WP:	0.500	X:	0.000	Y:	0.000	Z:	0.101	yaw:	5.616	yaw rate:	-42.778	Roll:	-1.030	Pitch:	-0.536	Yaw:	-2.531	Thrust:	66.049
Time:	3.082	Roll Set Point:	0.001	Pitch Set Point:	-0.000	Yaw Set Point:	-0.108	X_WP:	0.000	Y_WP:	0.000	Y_WP:	0.500	X:	-0.000	Y:	-0.000	Z:	0.104	yaw:	6.200	yaw rate:	58.420	Roll:	-0.804	Pitch:	-0.372	Yaw:	22.364	Thrust:	66.147
Time:	3.093	Roll Set Point:	0.002	Pitch Set Point:	0.001	Yaw Set Point:	-0.113	X_WP:	0.000	Y_WP:	0.000	Y_WP:	0.500	X:	-0.001	Y:	-0.000	Z:	0.106	yaw:	6.473	yaw rate:	27.334	Roll:	-1.123	Pitch:	-0.592	Yaw:	15.350	Thrust:	66.827
Time:	3.105	Roll Set Point:	0.004	Pitch Set Point:	0.002	Yaw Set Point:	-0.113	X_WP:	0.000	Y_WP:	0.000	Y_WP:	0.500	X:	-0.002	Y:	-0.001	Z:	0.110	yaw:	6.481	yaw rate:	0.772	Roll:	-1.666	Pitch:	-0.817	Yaw:	9.081	Thrust:	61.394
Time:	3.116	Roll Set Point:	0.006	Pitch Set Point:	0.003	Yaw Set Point:	-0.110	X_WP:	0.000	Y_WP:	0.000	Y_WP:	0.500	X:	-0.003	Y:	-0.002	Z:	0.113	yaw:	6.299	yaw rate:	-18.211	Roll:	-1.253	Pitch:	-0.664	Yaw:	4.349	Thrust:	66.834
Time:	3.127	Roll Set Point:	0.007	Pitch Set Point:	0.004	Yaw Set Point:	-0.101	X_WP:	0.000	Y_WP:	0.000	Y_WP:	0.500	X:	-0.004	Y:	-0.002	Z:	0.115	yaw:	5.801	yaw rate:	-49.775	Roll:	-1.357	Pitch:	-1.007	Yaw:	-3.808	Thrust:	66.869
Time:	3.138	Roll Set Point:	0.009	Pitch Set Point:	0.005	Yaw Set Point:	-0.109	X_WP:	0.000	Y_WP:	0.000	Y_WP:	0.500	X:	-0.004	Y:	-0.003	Z:	0.118	yaw:	6.238	yaw rate:	43.710	Roll:	-1.167	Pitch:	-0.383	Yaw:	19.035	Thrust:	66.947
Time:	3.149	Roll Set Point:	0.010	Pitch Set Point:	0.006	Yaw Set Point:	-0.108	X_WP:	0.000	Y_WP:	0.000	Y_WP:	0.500	X:	-0.005	Y:	-0.003	Z:	0.121	yaw:	6.172	yaw rate:	-6.573	Roll:	-1.393	Pitch:	-0.701	Yaw:	7.003	Thrust:	67.520
Time:	3.160	Roll Set Point:	0.013	Pitch Set Point:	0.007	Yaw Set Point:	-0.107	X_WP:	0.000	Y_WP:	0.000	Y_WP:	0.500	X:	-0.006	Y:	-0.004	Z:	0.125	yaw:	6.156	yaw rate:	-1.605	Roll:	-2.062	Pitch:	-1.073	Yaw:	8.185	Thrust:	62.031
Time:	3.171	Roll Set Point:	0.014	Pitch Set Point:	0.008	Yaw Set Point:	-0.110	X_WP:	0.000	Y_WP:	0.000	Y_WP:	0.500	X:	-0.007	Y:	-0.004	Z:	0.128	yaw:	6.275	yaw rate:	11.835	Roll:	-1.506	Pitch:	-0.826	Yaw:	11.563	Thrust:	67.731
Time:	3.182	Roll Set Point:	0.016	Pitch Set Point:	0.009	Yaw Set Point:	-0.113	X_WP:	0.000	Y_WP:	0.000	Y_WP:	0.500	X:	-0.008	Y:	-0.005	Z:	0.131	yaw:	6.480	yaw rate:	20.545	Roll:	-1.541	Pitch:	-0.615	Yaw:	13.953	Thrust:	68.100
Time:	3.193	Roll Set Point:	0.018	Pitch Set Point:	0.010	Yaw Set Point:	-0.116	X_WP:	0.000	Y_WP:	0.000	Y_WP:	0.500	X:	-0.009	Y:	-0.005	Z:	0.133	yaw:	6.661	yaw rate:	18.123	Roll:	-1.662	Pitch:	-0.739	Yaw:	13.636	Thrust:	68.938
Time:	3.204	Roll Set Point:	0.019	Pitch Set Point:	0.010	Yaw Set Point:	-0.112	X_WP:	0.000	Y_WP:	0.000	Y_WP:	0.500	X:	-0.009	Y:	-0.006	Z:	0.136	yaw:	6.431	yaw rate:	-23.028	Roll:	-1.481	Pitch:	-0.665	Yaw:	3.584	Thrust:	67.599
Time:	3.215	Roll Set Point:	0.022	Pitch Set Point:	0.012	Yaw Set Point:	-0.098	X_WP:	0.000	Y_WP:	0.000	Y_WP:	0.500	X:	-0.011	Y:	-0.007	Z:	0.141	yaw:	5.616	yaw rate:	-81.487	Roll:	-2.249	Pitch:	-1.468	Yaw:	-11.419	Thrust:	62.387
Time:	3.226	Roll Set Point:	0.023	Pitch Set Point:	0.013	Yaw Set Point:	-0.106	X_WP:	0.000	Y_WP:	0.000	Y_WP:	0.500	X:	-0.011	Y:	-0.007	Z:	0.144	yaw:	6.064	yaw rate:	44.744	Roll:	-1.697	Pitch:	-0.323	Yaw:	19.222	Thrust:	68.239
Time:	3.237	Roll Set Point:	0.025	Pitch Set Point:	0.014	Yaw Set Point:	-0.097	X_WP:	0.000	Y_WP:	0.000	Y_WP:	0.500	X:	-0.012	Y:	-0.008	Z:	0.147	yaw:	5.554	yaw rate:	-51.012	Roll:	-1.794	Pitch:	-1.385	Yaw:	-4.217	Thrust:	69.890
Time:	3.248	Roll Set Point:	0.027	Pitch Set Point:	0.015	Yaw Set Point:	-0.092	X_WP:	0.000	Y_WP:	0.000	Y_WP:	0.500	X:	-0.013	Y:	-0.008	Z:	0.150	yaw:	5.294	yaw rate:	-25.991	Roll:	-1.632	Pitch:	-0.752	Yaw:	1.380	Thrust:	68.496
Time:	3.259	Roll Set Point:	0.029	Pitch Set Point:	0.015	Yaw Set Point:	-0.103	X_WP:	0.000	Y_WP:	0.000	Y_WP:	0.500	X:	-0.014	Y:	-0.008	Z:	0.153	yaw:	5.917	yaw rate:	62.307	Roll:	-1.857	Pitch:	-0.143	Yaw:	23.229	Thrust:	68.465
Time:	3.270	Roll Set Point:	0.031	Pitch Set Point:	0.016	Yaw Set Point:	-0.103	X_WP:	0.000	Y_WP:	0.000	Y_WP:	0.500	X:	-0.015	Y:	-0.009	Z:	0.158	yaw:	5.883	yaw rate:	-3.377	Roll:	-2.117	Pitch:	-0.899	Yaw:	7.614	Thrust:	61.526
Time:	3.281	Roll Set Point:	0.033	Pitch Set Point:	0.017	Yaw Set Point:	-0.097	X_WP:	0.000	Y_WP:	0.000	Y_WP:	0.500	X:	-0.016	Y:	-0.009	Z:	0.161	yaw:	5.556	yaw rate:	-32.721	Roll:	-2.003	Pitch:	-0.882	Yaw:	0.215	Thrust:	68.313
Time:	3.293	Roll Set Point:	0.036	Pitch Set Point:	0.018	Yaw Set Point:	-0.093	X_WP:	0.000	Y_WP:	0.000	Y_WP:	0.500	X:	-0.018	Y:	-0.010	Z:	0.168	yaw:	5.354	yaw rate:	-24.350	Roll:	-2.839	Pitch:	-1.275	Yaw:	3.253	Thrust:	61.340
Time:	3.304	Roll Set Point:	0.038	Pitch Set Point:	0.019	Yaw Set Point:	-0.092	X_WP:	0.000	Y_WP:	0.000	Y_WP:	0.500	X:	-0.018	Y:	-0.010	Z:	0.171	yaw:	5.277	yaw rate:	-7.691	Roll:	-1.814	Pitch:	-0.553	Yaw:	5.805	Thrust:	68.618
Time:	3.315	Roll Set Point:	0.039	Pitch Set Point:	0.019	Yaw Set Point:	-0.093	X_WP:	0.000	Y_WP:	0.000	Y_WP:	0.500	X:	-0.019	Y:	-0.011	Z:	0.175	yaw:	5.317	yaw rate:	3.928	Roll:	-1.990	Pitch:	-0.653	Yaw:	8.642	Thrust:	68.167
Time:	3.326	Roll Set Point:	0.042	Pitch Set Point:	0.020	Yaw Set Point:	-0.095	X_WP:	0.000	Y_WP:	0.000	Y_WP:	0.500	X:	-0.020	Y:	-0.011	Z:	0.180	yaw:	5.414	yaw rate:	9.797	Roll:	-2.433	Pitch:	-0.645	Yaw:	10.193	Thrust:	61.043
Time:	3.337	Roll Set Point:	0.044	Pitch Set Point:	0.021	Yaw Set Point:	-0.092	X_WP:	0.000	Y_WP:	0.000	Y_WP:	0.500	X:	-0.021	Y:	-0.011	Z:	0.184	yaw:	5.245	yaw rate:	-16.988	Roll:	-2.003	Pitch:	-0.729	Yaw:	3.644	Thrust:	68.195
Time:	3.348	Roll Set Point:	0.045	Pitch Set Point:	0.021	Yaw Set Point:	-0.089	X_WP:	0.000	Y_WP:	0.000	Y_WP:	0.500	X:	-0.022	Y:	-0.012	Z:	0.187	yaw:	5.093	yaw rate:	-15.207	Roll:	-1.846	Pitch:	-0.501	Yaw:	3.826	Thrust:	67.845
Time:	3.359	Roll Set Point:	0.047	Pitch Set Point:	0.021	Yaw Set Point:	-0.088	X_WP:	0.000	Y_WP:	0.000	Y_WP:	0.500	X:	-0.023	Y:	-0.012	Z:	0.191	yaw:	5.043	yaw rate:	-4.963	Roll:	-1.757	Pitch:	-0.542	Yaw:	6.235	Thrust:	68.952
Time:	3.370	Roll Set Point:	0.049	Pitch Set Point:	0.022	Yaw Set Point:	-0.080	X_WP:	0.000	Y_WP:	0.000	Y_WP:	0.500	X:	-0.024	Y:	-0.012	Z:	0.197	yaw:	4.584	yaw rate:	-45.907	Roll:	-2.359	Pitch:	-0.936	Yaw:	-4.140	Thrust:	60.771
Time:	3.381	Roll Set Point:	0.049	Pitch Set Point:	0.022	Yaw Set Point:	-0.080	X_WP:	0.000	Y_WP:	0.000	Y_WP:	0.500	X:	-0.024	Y:	-0.012	Z:	0.197	yaw:	4.584	yaw rate:	-45.907	Roll:	-0.706	Pitch:	-0.293	Yaw:	6.806	Thrust:	84.113
Time:	3.392	Roll Set Point:	0.050	Pitch Set Point:	0.022	Yaw Set Point:	-0.083	X_WP:	0.000	Y_WP:	0.000	Y_WP:	0.500	X:	-0.025	Y:	-0.012	Z:	0.200	yaw:	4.738	yaw rate:	15.445	Roll:	-1.781	Pitch:	-0.435	Yaw:	10.704	Thrust:	68.247
Time:	3.403	Roll Set Point:	0.053	Pitch Set Point:	0.023	Yaw Set Point:	-0.070	X_WP:	0.000	Y_WP:	0.000	Y_WP:	0.500	X:	-0.026	Y:	-0.012	Z:	0.208	yaw:	3.997	yaw rate:	-78.401	Roll:	-2.812	Pitch:	-1.034	Yaw:	-11.572	Thrust:	52.889
Time:	3.414	Roll Set Point:	0.054	Pitch Set Point:	0.023	Yaw Set Point:	-0.075	X_WP:	0.000	Y_WP:	0.000	Y_WP:	0.500	X:	-0.027	Y:	-0.012	Z:	0.212	yaw:	4.319	yaw rate:	32.204	Roll:	-1.682	Pitch:	0.032	Yaw:	14.132	Thrust:	68.554
Time:	3.425	Roll Set Point:	0.054	Pitch Set Point:	0.023	Yaw Set Point:	-0.075	X_WP:	0.000	Y_WP:	0.000	Y_WP:	0.500	X:	-0.027	Y:	-0.012	Z:	0.212	yaw:	4.319	yaw rate:	32.204	Roll:	-0.784	Pitch:	-0.304	Yaw:	6.503	Thrust:	84.700
Time:	3.436	Roll Set Point:	0.057	Pitch Set Point:	0.023	Yaw Set Point:	-0.078	X_WP:	0.000	Y_WP:	0.000	Y_WP:	0.500	X:	-0.028	Y:	-0.012	Z:	0.222	yaw:	4.492	yaw rate:	22.216	Roll:	-3.439	Pitch:	0.009	Yaw:	10.875	Thrust:	44.047
Time:	3.447	Roll Set Point:	0.059	Pitch Set Point:	0.023	Yaw Set Point:	-0.076	X_WP:	0.000	Y_WP:	0.000	Y_WP:	0.500	X:	-0.029	Y:	-0.012	Z:	0.226	yaw:	4.344	yaw rate:	-14.832	Roll:	-1.788	Pitch:	-0.286	Yaw:	3.051	Thrust:	67.483
Time:	3.458	Roll Set Point:	0.059	Pitch Set Point:	0.023	Yaw Set Point:	-0.076	X_WP:	0.000	Y_WP:	0.000	Y_WP:	0.500	X:	-0.029	Y:	-0.012	Z:	0.226	yaw:	4.344	yaw rate:	-14.832	Roll:	-0.853	Pitch:	-0.299	Yaw:	6.589	Thrust:	85.018
Time:	3.469	Roll Set Point:	0.061	Pitch Set Point:	0.022	Yaw Set Point:	-0.073	X_WP:	0.000	Y_WP:	0.000	Y_WP:	0.500	X:	-0.030	Y:	-0.012	Z:	0.235	yaw:	4.171	yaw rate:	36.821	Roll:	-2.457	Pitch:	-0.144	Yaw:	2.253	Thrust:	50.437
Time:	3.480	Roll Set Point:	0.061	Pitch Set Point:	0.022	Yaw Set Point:	-0.073	X_WP:	0.000	Y_WP:	0.000	Y_WP:	0.500	X:	-0.030	Y:	-0.012	Z:	0.235	yaw:	4.171	yaw rate:	36.821	Roll:	-0.884	Pitch:	-0.297	Yaw:	6.380	Thrust:	85.255
Time:	3.491	Roll Set Point:	0.062	Pitch Set Point:	0.023	Yaw Set Point:	-0.068	X_WP:	0.000	Y_WP:	0.000	Y_WP:	0.500	X:	-0.031	Y:	-0.012	Z:	0.241	yaw:	3.910	yaw rate:	-26.101	Roll:	-2.108	Pitch:	-0.387	Yaw:	-0.145	Thrust:	60.219
Time:	3.502	Roll Set Point:	0.063	Pitch Set Point:	0.022	Yaw Set Point:	-0.071	X_WP:	0.000	Y_WP:	0.000	Y_WP:	0.500	X:	-0.031	Y:	-0.012	Z:	0.245	yaw:	4.076	yaw rate:	16.550	Roll:	-1.605	Pitch:	0.172	Yaw:	10.215	Thrust:	67.537
Time:	3.513	Roll Set Point:	0.064	Pitch Set Point:	0.022	Yaw Set Point:	-0.075	X_WP:	0.000	Y_WP:	0.000	Y_WP:	0.500	X:	-0.032	Y:	-0.012	Z:	0.249	yaw:	4.296	yaw rate:	22.077	Roll:	-1.578	Pitch:	0.135	Yaw:	11.830	Thrust:	68.413
Time:	3.524	Roll Set Point:	0.065	Pitch Set Point:	0.022	Yaw Set Point:	-0.064	X_WP:	0.000	Y_WP:	0.000	Y_WP:	0.500	X:	-0.032	Y:	-0.012	Z:	0.254	yaw:	3.666	yaw rate:	-63.045	Roll:	-1.675	Pitch:	-0.739	Yaw:	-9.230	Thrust:	67.934
Time:	3.535	Roll Set Point:	0.067	Pitch Set Point:	0.021	Yaw Set Point:	-0.069	X_WP:	0.000	Y_WP:	0.000	Y_WP:	0.500	X:	-0.033	Y:	-0.012	Z:	0.260	yaw:	3.939	yaw rate:	27.256	Roll:	-2.229	Pitch:	0.566	Yaw:	12.616	Thrust:	59.919
Time:	3.546	Roll Set Point:	0.067	Pitch Set Point:	0.021	Yaw Set Point:	-0.065	X_WP:	0.000	Y_WP:	0.000	Y_WP:	0.500	X:	-0.033	Y:	-0.011	Z:	0.264	yaw:	3.729	yaw rate:	-20.974	Roll:	-1.383	Pitch:	0.019	Yaw:	0.889	Thrust:	68.235
Time:	3.557	Roll Set Point:	0.068	Pitch Set Point:	0.021	Yaw Set Point:	-0.055	X_WP:	0.000	Y_WP:	0.000	Y_WP:	0.500	X:	-0.034	Y:	-0.011	Z:	0.268	yaw:	3.166	yaw rate:	-56.255	Roll:	-1.484	Pitch:	-0.550	Yaw:	-8.300	Thrust:	68.494
Time:	3.568	Roll Set Point:	0.069	Pitch Set Point:	0.020	Yaw Set Point:	-0.063	X_WP:	0.000	Y_WP:	0.000	Y_WP:	0.500	X:	-0.034	Y:	-0.011	Z:	0.273	yaw:	3.586	yaw rate:	41.959	Roll:	-1.554	Pitch:	0.676	Yaw:	15.642	Thrust:	68.241
Time:	3.579	Roll Set Point:	0.069	Pitch Set Point:	0.019	Yaw Set Point:	-0.065	X_WP:	0.000	Y_WP:	0.000	Y_WP:	0.500	X:	-0.034	Y:	-0.010	Z:	0.279	yaw:	3.747	yaw rate:	16.088	Roll:	-1.710	Pitch:	0.647	Yaw:	9.739	Thrust:	59.768
Time:	3.591	Roll Set Point:	0.071	Pitch Set Point:	0.018	Yaw Set Point:	-0.058	X_WP:	0.000	Y_WP:	0.000	Y_WP:	0.500	X:	-0.035	Y:	-0.010	Z:	0.288	yaw:	3.332	yaw rate:	41.353	Roll:	-1.966	Pitch:	0.295	Yaw:	-3.881	Thrust:	57.006
Time:	3.602	Roll Set Point:	0.071	Pitch Set Point:	0.018	Yaw Set Point:	-0.058	X_WP:	0.000	Y_WP:	0.000	Y_WP:	0.500	X:	-0.035	Y:	-0.010	Z:	0.288	yaw:	3.332	yaw rate:	41.353	Roll:	-1.038	Pitch:	-0.232	Yaw:	5.369	Thrust:	85.851
Time:	3.613	Roll Set Point:	0.071	Pitch Set Point:	0.018	Yaw Set Point:	-0.050	X_WP:	0.000	Y_WP:	0.000	Y_WP:	0.500	X:	-0.035	Y:	-0.010	Z:	0.292	yaw:	2.838	yaw rate:	-49.411	Roll:	-1.368	Pitch:	-0.390	Yaw:	-7.037	Thrust:	68.724
Time:	3.625	Roll Set Point:	0.072	Pitch Set Point:	0.016	Yaw Set Point:	-0.052	X_WP:	0.000	Y_WP:	0.000	Y_WP:	0.500	X:	-0.036	Y:	-0.009	Z:	0.298	yaw:	2.986	yaw rate:	14.783	Roll:	-1.627	Pitch:	0.782	Yaw:	8.193	Thrust:	68.661
Time:	3.636	Roll Set Point:	0.072	Pitch Set Point:	0.015	Yaw Set Point:	-0.053	X_WP:	0.000	Y_WP:	0.000	Y_WP:	0.500	X:	-0.036	Y:	-0.009	Z:	0.303	yaw:	3.057	yaw rate:	7.123	Roll:	-1.238	Pitch:	0.619	Yaw:	6.710	Thrust:	67.259
Time:	3.647	Roll Set Point:	0.073	Pitch Set Point:	0.014	Yaw Set Point:	-0.055	X_WP:	0.000	Y_WP:	0.000	Y_WP:	0.500	X:	-0.036	Y:	-0.008	Z:	0.307	yaw:	3.139	yaw rate:	8.209	Roll:	-1.233	Pitch:	0.546	Yaw:	7.095	Thrust:	67.472
Time:	3.658	Roll Set Point:	0.073	Pitch Set Point:	0.014	Yaw Set Point:	-0.049	X_WP:	0.000	Y_WP:	0.000	Y_WP:	0.500	X:	-0.036	Y:	-0.008	Z:	0.312	yaw:	2.812	yaw rate:	-32.713	Roll:	-1.348	Pitch:	0.108	Yaw:	-3.065	Thrust:	67.192
Time:	3.669	Roll Set Point:	0.073	Pitch Set Point:	0.013	Yaw Set Point:	-0.039	X_WP:	0.000	Y_WP:	0.000	Y_WP:	0.500	X:	-0.036	Y:	-0.007	Z:	0.319	yaw:	2.255	yaw rate:	-55.724	Roll:	-1.180	Pitch:	0.059	Yaw:	-9.259	Thrust:	58.613
Time:	3.680	Roll Set Point:	0.073	Pitch Set Point:	0.012	Yaw Set Point:	-0.046	X_WP:	0.000	Y_WP:	0.000	Y_WP:	0.500	X:	-0.036	Y:	-0.007	Z:	0.323	yaw:	2.620	yaw rate:	36.543	Roll:	-1.015	Pitch:	1.046	Yaw:	13.148	Thrust:	66.182
Time:	3.691	Roll Set Point:	0.073	Pitch Set Point:	0.011	Yaw Set Point:	-0.041	X_WP:	0.000	Y_WP:	0.000	Y_WP:	0.500	X:	-0.036	Y:	-0.006	Z:	0.328	yaw:	2.353	yaw rate:	-26.743	Roll:	-1.039	Pitch:	0.328	Yaw:	-2.257	Thrust:	67.090
Time:	3.702	Roll Set Point:	0.073	Pitch Set Point:	0.010	Yaw Set Point:	-0.040	X_WP:	0.000	Y_WP:	0.000	Y_WP:	0.500	X:	-0.037	Y:	-0.006	Z:	0.332	yaw:	2.279	yaw rate:	-7.362	Roll:	-1.220	Pitch:	0.549	Yaw:	2.249	Thrust:	67.016
Time:	3.714	Roll Set Point:	0.073	Pitch Set Point:	0.010	Yaw Set Point:	-0.036	X_WP:	0.000	Y_WP:	0.000	Y_WP:	0.500	X:	-0.037	Y:	-0.005	Z:	0.337	yaw:	2.060	yaw rate:	-21.980	Roll:	-1.033	Pitch:	0.206	Yaw:	-1.519	Thrust:	66.239
Time:	3.725	Roll Set Point:	0.073	Pitch Set Point:	0.008	Yaw Set Point:	-0.039	X_WP:	0.000	Y_WP:	0.000	Y_WP:	0.500	X:	-0.037	Y:	-0.005	Z:	0.344	yaw:	2.208	yaw rate:	14.845	Roll:	-1.038	Pitch:	1.189	Yaw:	7.437	Thrust:	55.912
Time:	3.736	Roll Set Point:	0.073	Pitch Set Point:	0.008	Yaw Set Point:	-0.029	X_WP:	0.000	Y_WP:	0.000	Y_WP:	0.500	X:	-0.036	Y:	-0.004	Z:	0.349	yaw:	1.677	yaw rate:	-53.102	Roll:	-0.910	Pitch:	-0.143	Yaw:	-9.424	Thrust:	66.632
Time:	3.747	Roll Set Point:	0.073	Pitch Set Point:	0.006	Yaw Set Point:	-0.034	X_WP:	0.000	Y_WP:	0.000	Y_WP:	0.500	X:	-0.036	Y:	-0.004	Z:	0.354	yaw:	1.956	yaw rate:	27.885	Roll:	-0.684	Pitch:	1.261	Yaw:	10.195	Thrust:	64.452
Time:	3.758	Roll Set Point:	0.072	Pitch Set Point:	0.005	Yaw Set Point:	-0.029	X_WP:	0.000	Y_WP:	0.000	Y_WP:	0.500	X:	-0.036	Y:	-0.003	Z:	0.359	yaw:	1.659	yaw rate:	-29.705	Roll:	-0.816	Pitch:	0.315	Yaw:	-3.882	Thrust:	65.174
Time:	3.769	Roll Set Point:	0.072	Pitch Set Point:	0.004	Yaw Set Point:	-0.033	X_WP:	0.000	Y_WP:	0.000	Y_WP:	0.500	X:	-0.036	Y:	-0.003	Z:	0.364	yaw:	1.892	yaw rate:	23.295	Roll:	-0.785	Pitch:	1.087	Yaw:	9.031	Thrust:	65.276
Time:	3.780	Roll Set Point:	0.072	Pitch Set Point:	0.003	Yaw Set Point:	-0.024	X_WP:	0.000	Y_WP:	0.000	Y_WP:	0.500	X:	-0.036	Y:	-0.002	Z:	0.371	yaw:	1.383	yaw rate:	-50.838	Roll:	-0.731	Pitch:	0.387	Yaw:	-9.269	Thrust:	54.823
Time:	3.791	Roll Set Point:	0.071	Pitch Set Point:	0.002	Yaw Set Point:	-0.027	X_WP:	0.000	Y_WP:	0.000	Y_WP:	0.500	X:	-0.035	Y:	-0.001	Z:	0.376	yaw:	1.548	yaw rate:	16.482	Roll:	-0.480	Pitch:	1.133	Yaw:	6.946	Thrust:	65.067
Time:	3.803	Roll Set Point:	0.071	Pitch Set Point:	0.001	Yaw Set Point:	-0.026	X_WP:	0.000	Y_WP:	0.000	Y_WP:	0.500	X:	-0.035	Y:	-0.001	Z:	0.381	yaw:	1.513	yaw rate:	-3.491	Roll:	-0.850	Pitch:	0.593	Yaw:	2.311	Thrust:	73.566
Time:	3.814	Roll Set Point:	0.070	Pitch Set Point:	-0.000	Yaw Set Point:	-0.025	X_WP:	0.000	Y_WP:	0.000	Y_WP:	0.500	X:	-0.035	Y:	-0.000	Z:	0.386	yaw:	1.415	yaw rate:	-9.776	Roll:	-0.546	Pitch:	0.817	Yaw:	0.540	Thrust:	64.291
Time:	3.825	Roll Set Point:	0.068	Pitch Set Point:	-0.002	Yaw Set Point:	-0.026	X_WP:	0.000	Y_WP:	0.000	Y_WP:	0.500	X:	-0.034	Y:	0.001	Z:	0.396	yaw:	1.466	yaw rate:	12.431	Roll:	0.147	Pitch:	1.794	Yaw:	4.138	Thrust:	43.991
Time:	3.836	Roll Set Point:	0.068	Pitch Set Point:	-0.002	Yaw Set Point:	-0.026	X_WP:	0.000	Y_WP:	0.000	Y_WP:	0.500	X:	-0.034	Y:	0.001	Z:	0.396	yaw:	1.466	yaw rate:	12.431	Roll:	-1.017	Pitch:	0.041	Yaw:	2.943	Thrust:	84.422
Time:	3.848	Roll Set Point:	0.067	Pitch Set Point:	-0.005	Yaw Set Point:	-0.014	X_WP:	0.000	Y_WP:	0.000	Y_WP:	0.500	X:	-0.033	Y:	0.002	Z:	0.408	yaw:	0.817	yaw rate:	-70.232	Roll:	0.166	Pitch:	1.309	Yaw:	-12.346	Thrust:	41.830
Time:	3.859	Roll Set Point:	0.066	Pitch Set Point:	-0.006	Yaw Set Point:	-0.015	X_WP:	0.000	Y_WP:	0.000	Y_WP:	0.500	X:	-0.033	Y:	0.003	Z:	0.413	yaw:	0.865	yaw rate:	4.878	Roll:	-0.283	Pitch:	1.006	Yaw:	3.270	Thrust:	63.706
Time:	3.870	Roll Set Point:	0.064	Pitch Set Point:	-0.008	Yaw Set Point:	-0.024	X_WP:	0.000	Y_WP:	0.000	Y_WP:	0.500	X:	-0.032	Y:	0.004	Z:	0.421	yaw:	1.377	yaw rate:	51.156	Roll:	0.346	Pitch:	2.050	Yaw:	14.971	Thrust:	52.940
Time:	3.881	Roll Set Point:	0.064	Pitch Set Point:	-0.008	Yaw Set Point:	-0.024	X_WP:	0.000	Y_WP:	0.000	Y_WP:	0.500	X:	-0.032	Y:	0.004	Z:	0.421	yaw:	1.377	yaw rate:	51.156	Roll:	-0.959	Pitch:	0.120	Yaw:	2.835	Thrust:	83.487
Time:	3.892	Roll Set Point:	0.063	Pitch Set Point:	-0.010	Yaw Set Point:	-0.018	X_WP:	0.000	Y_WP:	0.000	Y_WP:	0.500	X:	-0.031	Y:	0.005	Z:	0.430	yaw:	1.033	yaw rate:	25.743	Roll:	0.414	Pitch:	1.240	Yaw:	-5.797	Thrust:	43.994
Time:	3.903	Roll Set Point:	0.063	Pitch Set Point:	-0.010	Yaw Set Point:	-0.018	X_WP:	0.000	Y_WP:	0.000	Y_WP:	0.500	X:	-0.031	Y:	0.005	Z:	0.430	yaw:	1.033	yaw rate:	25.743	Roll:	-0.936	Pitch:	0.141	Yaw:	2.365	Thrust:	83.165
Time:	3.914	Roll Set Point:	0.062	Pitch Set Point:	-0.011	Yaw Set Point:	-0.015	X_WP:	0.000	Y_WP:	0.000	Y_WP:	0.500	X:	-0.031	Y:	0.005	Z:	0.435	yaw:	0.847	yaw rate:	-18.645	Roll:	-0.161	Pitch:	1.002	Yaw:	-2.318	Thrust:	63.710
Time:	3.925	Roll Set Point:	0.061	Pitch Set Point:	-0.012	Yaw Set Point:	-0.015	X_WP:	0.000	Y_WP:	0.000	Y_WP:	0.500	X:	-0.030	Y:	0.006	Z:	0.440	yaw:	0.848	yaw rate:	0.124	Roll:	-0.299	Pitch:	0.743	Yaw:	2.143	Thrust:	63.530
Time:	3.936	Roll Set Point:	0.059	Pitch Set Point:	-0.013	Yaw Set Point:	-0.013	X_WP:	0.000	Y_WP:	0.000	Y_WP:	0.500	X:	-0.030	Y:	0.006	Z:	0.447	yaw:	0.762	yaw rate:	-8.567	Roll:	0.390	Pitch:	1.521	Yaw:	-0.028	Thrust:	53.288
Time:	3.947	Roll Set Point:	0.058	Pitch Set Point:	-0.015	Yaw Set Point:	-0.018	X_WP:	0.000	Y_WP:	0.000	Y_WP:	0.500	X:	-0.029	Y:	0.007	Z:	0.452	yaw:	1.038	yaw rate:	27.562	Roll:	0.408	Pitch:	1.723	Yaw:	8.942	Thrust:	62.415
Time:	3.958	Roll Set Point:	0.056	Pitch Set Point:	-0.016	Yaw Set Point:	-0.022	X_WP:	0.000	Y_WP:	0.000	Y_WP:	0.500	X:	-0.028	Y:	0.008	Z:	0.457	yaw:	1.284	yaw rate:	24.576	Roll:	0.067	Pitch:	1.047	Yaw:	8.488	Thrust:	64.076
Time:	3.969	Roll Set Point:	0.055	Pitch Set Point:	-0.017	Yaw Set Point:	-0.022	X_WP:	0.000	Y_WP:	0.000	Y_WP:	0.500	X:	-0.028	Y:	0.008	Z:	0.461	yaw:	1.260	yaw rate:	-2.432	Roll:	0.187	Pitch:	1.242	Yaw:	2.122	Thrust:	62.598
Time:	3.981	Roll Set Point:	0.053	Pitch Set Point:	-0.019	Yaw Set Point:	-0.022	X_WP:	0.000	Y_WP:	0.000	Y_WP:	0.500	X:	-0.027	Y:	0.009	Z:	0.468	yaw:	1.262	yaw rate:	0.215	Roll:	0.650	Pitch:	1.293	Yaw:	2.844	Thrust:	61.946
Time:	3.994	Roll Set Point:	0.051	Pitch Set Point:	-0.021	Yaw Set Point:	-0.021	X_WP:	0.000	Y_WP:	0.000	Y_WP:	0.500	X:	-0.025	Y:	0.010	Z:	0.478	yaw:	1.231	yaw rate:	-20.094	Roll:	0.695	Pitch:	1.473	Yaw:	2.228	Thrust:	63.768
Time:	4.005	Roll Set Point:	0.051	Pitch Set Point:	-0.021	Yaw Set Point:	-0.021	X_WP:	0.000	Y_WP:	0.000	Y_WP:	0.500	X:	-0.025	Y:	0.010	Z:	0.478	yaw:	1.231	yaw rate:	-20.094	Roll:	-0.770	Pitch:	0.303	Yaw:	2.680	Thrust:	81.319
Time:	4.016	Roll Set Point:	0.049	Pitch Set Point:	-0.022	Yaw Set Point:	-0.019	X_WP:	0.000	Y_WP:	0.000	Y_WP:	0.500	X:	-0.024	Y:	0.011	Z:	0.485	yaw:	1.066	yaw rate:	-16.498	Roll:	0.790	Pitch:	1.363	Yaw:	-1.477	Thrust:	51.837
Time:	4.027	Roll Set Point:	0.048	Pitch Set Point:	-0.022	Yaw Set Point:	-0.007	X_WP:	0.000	Y_WP:	0.000	Y_WP:	0.500	X:	-0.024	Y:	0.011	Z:	0.489	yaw:	0.384	yaw rate:	-68.169	Roll:	-0.053	Pitch:	0.330	Yaw:	-14.677	Thrust:	62.074
Time:	4.038	Roll Set Point:	0.046	Pitch Set Point:	-0.024	Yaw Set Point:	-0.012	X_WP:	0.000	Y_WP:	0.000	Y_WP:	0.500	X:	-0.023	Y:	0.012	Z:	0.494	yaw:	0.715	yaw rate:	33.081	Roll:	0.752	Pitch:	1.522	Yaw:	9.805	Thrust:	61.417
Time:	4.049	Roll Set Point:	0.044	Pitch Set Point:	-0.025	Yaw Set Point:	-0.016	X_WP:	0.000	Y_WP:	0.000	Y_WP:	0.500	X:	-0.022	Y:	0.012	Z:	0.501	yaw:	0.899	yaw rate:	18.416	Roll:	0.887	Pitch:	1.497	Yaw:	6.598	Thrust:	52.280
Time:	4.060	Roll Set Point:	0.043	Pitch Set Point:	-0.026	Yaw Set Point:	-0.009	X_WP:	0.000	Y_WP:	0.000	Y_WP:	0.500	X:	-0.021	Y:	0.013	Z:	0.505	yaw:	0.537	yaw rate:	-36.196	Roll:	0.130	Pitch:	0.433	Yaw:	-6.888	Thrust:	61.286
Time:	4.071	Roll Set Point:	0.041	Pitch Set Point:	-0.027	Yaw Set Point:	-0.017	X_WP:	0.000	Y_WP:	0.000	Y_WP:	0.500	X:	-0.021	Y:	0.013	Z:	0.509	yaw:	0.951	yaw rate:	41.354	Roll:	0.837	Pitch:	1.694	Yaw:	12.121	Thrust:	61.331
Time:	4.082	Roll Set Point:	0.040	Pitch Set Point:	-0.027	Yaw Set Point:	-0.007	X_WP:	0.000	Y_WP:	0.000	Y_WP:	0.500	X:	-0.020	Y:	0.014	Z:	0.514	yaw:	0.382	yaw rate:	-56.927	Roll:	0.093	Pitch:	0.455	Yaw:	-11.999	Thrust:	60.649
Time:	4.093	Roll Set Point:	0.038	Pitch Set Point:	-0.029	Yaw Set Point:	-0.015	X_WP:	0.000	Y_WP:	0.000	Y_WP:	0.500	X:	-0.019	Y:	0.014	Z:	0.519	yaw:	0.839	yaw rate:	45.722	Roll:	1.038	Pitch:	1.494	Yaw:	12.984	Thrust:	60.364
Time:	4.105	Roll Set Point:	0.037	Pitch Set Point:	-0.029	Yaw Set Point:	-0.010	X_WP:	0.000	Y_WP:	0.000	Y_WP:	0.500	X:	-0.018	Y:	0.015	Z:	0.523	yaw:	0.568	yaw rate:	-27.032	Roll:	0.348	Pitch:	0.904	Yaw:	-4.027	Thrust:	68.760
Time:	4.116	Roll Set Point:	0.035	Pitch Set Point:	-0.030	Yaw Set Point:	-0.012	X_WP:	0.000	Y_WP:	0.000	Y_WP:	0.500	X:	-0.017	Y:	0.015	Z:	0.529	yaw:	0.666	yaw rate:	9.795	Roll:	0.954	Pitch:	1.246	Yaw:	4.240	Thrust:	52.676
Time:	4.127	Roll Set Point:	0.033	Pitch Set Point:	-0.031	Yaw Set Point:	-0.007	X_WP:	0.000	Y_WP:	0.000	Y_WP:	0.500	X:	-0.017	Y:	0.016	Z:	0.534	yaw:	0.387	yaw rate:	-27.960	Roll:	0.733	Pitch:	1.107	Yaw:	-5.126	Thrust:	59.822
Time:	4.139	Roll Set Point:	0.032	Pitch Set Point:	-0.031	Yaw Set Point:	0.001	X_WP:	0.000	Y_WP:	0.000	Y_WP:	0.500	X:	-0.016	Y:	0.016	Z:	0.538	yaw:	-0.034	yaw rate:	-42.116	Roll:	0.462	Pitch:	0.479	Yaw:	-9.053	Thrust:	60.523
Time:	4.150	Roll Set Point:	0.030	Pitch Set Point:	-0.032	Yaw Set Point:	-0.002	X_WP:	0.000	Y_WP:	0.000	Y_WP:	0.500	X:	-0.015	Y:	0.016	Z:	0.542	yaw:	0.093	yaw rate:	12.766	Roll:	0.617	Pitch:	1.212	Yaw:	4.152	Thrust:	60.034
Time:	4.161	Roll Set Point:	0.027	Pitch Set Point:	-0.034	Yaw Set Point:	-0.007	X_WP:	0.000	Y_WP:	0.000	Y_WP:	0.500	X:	-0.014	Y:	0.017	Z:	0.549	yaw:	0.379	yaw rate:	28.617	Roll:	1.762	Pitch:	1.867	Yaw:	8.314	Thrust:	51.314
Time:	4.172	Roll Set Point:	0.026	Pitch Set Point:	-0.035	Yaw Set Point:	-0.009	X_WP:	0.000	Y_WP:	0.000	Y_WP:	0.500	X:	-0.013	Y:	0.017	Z:	0.553	yaw:	0.523	yaw rate:	14.335	Roll:	1.075	Pitch:	1.050	Yaw:	5.126	Thrust:	60.201
Time:	4.183	Roll Set Point:	0.024	Pitch Set Point:	-0.036	Yaw Set Point:	-0.006	X_WP:	0.000	Y_WP:	0.000	Y_WP:	0.500	X:	-0.012	Y:	0.018	Z:	0.557	yaw:	0.336	yaw rate:	-18.629	Roll:	0.573	Pitch:	1.076	Yaw:	-2.956	Thrust:	59.997
Time:	4.194	Roll Set Point:	0.023	Pitch Set Point:	-0.036	Yaw Set Point:	0.003	X_WP:	0.000	Y_WP:	0.000	Y_WP:	0.500	X:	-0.012	Y:	0.018	Z:	0.560	yaw:	-0.192	yaw rate:	-52.835	Roll:	0.283	Pitch:	0.570	Yaw:	-11.811	Thrust:	60.769
Time:	4.205	Roll Set Point:	0.021	Pitch Set Point:	-0.037	Yaw Set Point:	0.004	X_WP:	0.000	Y_WP:	0.000	Y_WP:	0.500	X:	-0.010	Y:	0.019	Z:	0.566	yaw:	-0.218	yaw rate:	-2.609	Roll:	1.765	Pitch:	1.550	Yaw:	0.072	Thrust:	51.881
Time:	4.216	Roll Set Point:	0.018	Pitch Set Point:	-0.038	Yaw Set Point:	-0.005	X_WP:	0.000	Y_WP:	0.000	Y_WP:	0.500	X:	-0.009	Y:	0.019	Z:	0.570	yaw:	0.271	yaw rate:	48.870	Roll:	1.438	Pitch:	1.644	Yaw:	12.946	Thrust:	60.465
Time:	4.227	Roll Set Point:	0.017	Pitch Set Point:	-0.039	Yaw Set Point:	0.008	X_WP:	0.000	Y_WP:	0.000	Y_WP:	0.500	X:	-0.008	Y:	0.019	Z:	0.574	yaw:	-0.465	yaw rate:	-73.554	Roll:	0.501	Pitch:	0.617	Yaw:	-17.160	Thrust:	59.534
Time:	4.238	Roll Set Point:	0.015	Pitch Set Point:	-0.040	Yaw Set Point:	-0.001	X_WP:	0.000	Y_WP:	0.000	Y_WP:	0.500	X:	-0.008	Y:	0.020	Z:	0.577	yaw:	0.035	yaw rate:	49.960	Roll:	1.231	Pitch:	1.604	Yaw:	12.902	Thrust:	61.081
Time:	4.249	Roll Set Point:	0.014	Pitch Set Point:	-0.040	Yaw Set Point:	0.008	X_WP:	0.000	Y_WP:	0.000	Y_WP:	0.500	X:	-0.007	Y:	0.020	Z:	0.581	yaw:	-0.454	yaw rate:	-48.924	Roll:	0.848	Pitch:	0.939	Yaw:	-11.253	Thrust:	60.506
Time:	4.260	Roll Set Point:	0.011	Pitch Set Point:	-0.042	Yaw Set Point:	0.000	X_WP:	0.000	Y_WP:	0.000	Y_WP:	0.500	X:	-0.006	Y:	0.021	Z:	0.586	yaw:	-0.007	yaw rate:	44.722	Roll:	2.006	Pitch:	1.782	Yaw:	11.598	Thrust:	53.256
Time:	4.271	Roll Set Point:	0.009	Pitch Set Point:	-0.042	Yaw Set Point:	0.012	X_WP:	0.000	Y_WP:	0.000	Y_WP:	0.500	X:	-0.005	Y:	0.021	Z:	0.589	yaw:	-0.699	yaw rate:	-69.224	Roll:	0.810	Pitch:	0.811	Yaw:	-16.378	Thrust:	61.250
Time:	4.282	Roll Set Point:	0.008	Pitch Set Point:	-0.043	Yaw Set Point:	0.000	X_WP:	0.000	Y_WP:	0.000	Y_WP:	0.500	X:	-0.004	Y:	0.022	Z:	0.592	yaw:	-0.010	yaw rate:	68.986	Roll:	1.552	Pitch:	1.649	Yaw:	17.385	Thrust:	61.271
Time:	4.293	Roll Set Point:	0.006	Pitch Set Point:	-0.044	Yaw Set Point:	0.000	X_WP:	0.000	Y_WP:	0.000	Y_WP:	0.500	X:	-0.003	Y:	0.022	Z:	0.595	yaw:	-0.007	yaw rate:	0.308	Roll:	1.340	Pitch:	1.204	Yaw:	1.054	Thrust:	60.973
Time:	4.304	Roll Set Point:	0.004	Pitch Set Point:	-0.045	Yaw Set Point:	0.007	X_WP:	0.000	Y_WP:	0.000	Y_WP:	0.500	X:	-0.002	Y:	0.023	Z:	0.598	yaw:	-0.403	yaw rate:	-39.617	Roll:	0.967	Pitch:	1.394	Yaw:	-8.977	Thrust:	60.199
Time:	4.315	Roll Set Point:	0.002	Pitch Set Point:	-0.046	Yaw Set Point:	0.018	X_WP:	0.000	Y_WP:	0.000	Y_WP:	0.500	X:	-0.001	Y:	0.023	Z:	0.602	yaw:	-1.006	yaw rate:	-60.368	Roll:	1.292	Pitch:	1.394	Yaw:	-14.744	Thrust:	56.466
Time:	4.326	Roll Set Point:	-0.000	Pitch Set Point:	-0.047	Yaw Set Point:	0.006	X_WP:	0.000	Y_WP:	0.000	Y_WP:	0.500	X:	0.000	Y:	0.024	Z:	0.605	yaw:	-0.316	yaw rate:	69.062	Roll:	2.057	Pitch:	1.571	Yaw:	16.902	Thrust:	61.227
Time:	4.337	Roll Set Point:	-0.002	Pitch Set Point:	-0.048	Yaw Set Point:	0.019	X_WP:	0.000	Y_WP:	0.000	Y_WP:	0.500	X:	0.001	Y:	0.024	Z:	0.607	yaw:	-1.070	yaw rate:	-75.440	Roll:	0.582	Pitch:	1.244	Yaw:	-18.462	Thrust:	61.248
Time:	4.348	Roll Set Point:	-0.004	Pitch Set Point:	-0.049	Yaw Set Point:	0.015	X_WP:	0.000	Y_WP:	0.000	Y_WP:	0.500	X:	0.002	Y:	0.024	Z:	0.610	yaw:	-0.850	yaw rate:	22.036	Roll:	1.577	Pitch:	1.543	Yaw:	5.013	Thrust:	61.848
Time:	4.359	Roll Set Point:	-0.006	Pitch Set Point:	-0.050	Yaw Set Point:	0.012	X_WP:	0.000	Y_WP:	0.000	Y_WP:	0.500	X:	0.003	Y:	0.025	Z:	0.614	yaw:	-0.678	yaw rate:	17.140	Roll:	2.399	Pitch:	1.891	Yaw:	4.098	Thrust:	56.756
Time:	4.370	Roll Set Point:	-0.008	Pitch Set Point:	-0.051	Yaw Set Point:	0.011	X_WP:	0.000	Y_WP:	0.000	Y_WP:	0.500	X:	0.004	Y:	0.025	Z:	0.616	yaw:	-0.636	yaw rate:	4.187	Roll:	1.399	Pitch:	1.284	Yaw:	1.079	Thrust:	61.777
Time:	4.382	Roll Set Point:	-0.009	Pitch Set Point:	-0.052	Yaw Set Point:	0.021	X_WP:	0.000	Y_WP:	0.000	Y_WP:	0.500	X:	0.005	Y:	0.026	Z:	0.618	yaw:	-1.206	yaw rate:	-56.954	Roll:	0.626	Pitch:	1.234	Yaw:	-13.017	Thrust:	69.701
Time:	4.393	Roll Set Point:	-0.013	Pitch Set Point:	-0.053	Yaw Set Point:	0.025	X_WP:	0.000	Y_WP:	0.000	Y_WP:	0.500	X:	0.007	Y:	0.027	Z:	0.622	yaw:	-1.434	yaw rate:	-46.069	Roll:	2.581	Pitch:	2.066	Yaw:	-6.444	Thrust:	53.974
Time:	4.404	Roll Set Point:	-0.013	Pitch Set Point:	-0.053	Yaw Set Point:	0.025	X_WP:	0.000	Y_WP:	0.000	Y_WP:	0.500	X:	0.007	Y:	0.027	Z:	0.622	yaw:	-1.434	yaw rate:	-46.069	Roll:	0.125	Pitch:	0.788	Yaw:	-1.041	Thrust:	70.448
Time:	4.415	Roll Set Point:	-0.017	Pitch Set Point:	-0.055	Yaw Set Point:	0.023	X_WP:	0.000	Y_WP:	0.000	Y_WP:	0.500	X:	0.009	Y:	0.028	Z:	0.627	yaw:	-1.330	yaw rate:	-39.028	Roll:	3.647	Pitch:	2.490	Yaw:	1.573	Thrust:	50.370
Time:	4.426	Roll Set Point:	-0.017	Pitch Set Point:	-0.055	Yaw Set Point:	0.023	X_WP:	0.000	Y_WP:	0.000	Y_WP:	0.500	X:	0.009	Y:	0.028	Z:	0.627	yaw:	-1.330	yaw rate:	-39.028	Roll:	0.191	Pitch:	0.821	Yaw:	-0.909	Thrust:	69.610
Time:	4.437	Roll Set Point:	-0.021	Pitch Set Point:	-0.058	Yaw Set Point:	0.023	X_WP:	0.000	Y_WP:	0.000	Y_WP:	0.500	X:	0.011	Y:	0.029	Z:	0.630	yaw:	-1.345	yaw rate:	-9.972	Roll:	3.028	Pitch:	2.527	Yaw:	-1.293	Thrust:	55.278
Time:	4.448	Roll Set Point:	-0.021	Pitch Set Point:	-0.058	Yaw Set Point:	0.023	X_WP:	0.000	Y_WP:	0.000	Y_WP:	0.500	X:	0.011	Y:	0.029	Z:	0.630	yaw:	-1.345	yaw rate:	-9.972	Roll:	0.243	Pitch:	0.854	Yaw:	-0.938	Thrust:	69.274
Time:	4.460	Roll Set Point:	-0.022	Pitch Set Point:	-0.058	Yaw Set Point:	0.029	X_WP:	0.000	Y_WP:	0.000	Y_WP:	0.500	X:	0.011	Y:	0.029	Z:	0.632	yaw:	-1.656	yaw rate:	-31.099	Roll:	1.084	Pitch:	1.447	Yaw:	-8.059	Thrust:	70.351
Time:	4.471	Roll Set Point:	-0.025	Pitch Set Point:	-0.060	Yaw Set Point:	0.021	X_WP:	0.000	Y_WP:	0.000	Y_WP:	0.500	X:	0.013	Y:	0.030	Z:	0.634	yaw:	-1.208	yaw rate:	44.790	Roll:	2.751	Pitch:	2.043	Yaw:	9.849	Thrust:	59.506
Time:	4.482	Roll Set Point:	-0.027	Pitch Set Point:	-0.060	Yaw Set Point:	0.019	X_WP:	0.000	Y_WP:	0.000	Y_WP:	0.500	X:	0.014	Y:	0.030	Z:	0.636	yaw:	-1.115	yaw rate:	9.357	Roll:	1.862	Pitch:	1.391	Yaw:	1.591	Thrust:	62.579
Time:	4.493	Roll Set Point:	-0.028	Pitch Set Point:	-0.061	Yaw Set Point:	0.021	X_WP:	0.000	Y_WP:	0.000	Y_WP:	0.500	X:	0.015	Y:	0.031	Z:	0.637	yaw:	-1.181	yaw rate:	-6.596	Roll:	1.481	Pitch:	1.717	Yaw:	-2.289	Thrust:	62.393
Time:	4.505	Roll Set Point:	-0.031	Pitch Set Point:	-0.062	Yaw Set Point:	0.016	X_WP:	0.000	Y_WP:	0.000	Y_WP:	0.500	X:	0.016	Y:	0.031	Z:	0.639	yaw:	-0.942	yaw rate:	23.888	Roll:	2.206	Pitch:	1.560	Yaw:	5.281	Thrust:	60.107
Time:	4.516	Roll Set Point:	-0.032	Pitch Set Point:	-0.063	Yaw Set Point:	0.021	X_WP:	0.000	Y_WP:	0.000	Y_WP:	0.500	X:	0.016	Y:	0.032	Z:	0.640	yaw:	-1.219	yaw rate:	-27.744	Roll:	1.570	Pitch:	1.857	Yaw:	-7.376	Thrust:	62.071
Time:	4.527	Roll Set Point:	-0.034	Pitch Set Point:	-0.064	Yaw Set Point:	0.023	X_WP:	0.000	Y_WP:	0.000	Y_WP:	0.500	X:	0.017	Y:	0.032	Z:	0.642	yaw:	-1.342	yaw rate:	-12.254	Roll:	1.538	Pitch:	1.479	Yaw:	-3.876	Thrust:	61.732
Time:	4.538	Roll Set Point:	-0.035	Pitch Set Point:	-0.065	Yaw Set Point:	0.032	X_WP:	0.000	Y_WP:	0.000	Y_WP:	0.500	X:	0.018	Y:	0.032	Z:	0.643	yaw:	-1.829	yaw rate:	-48.690	Roll:	0.854	Pitch:	1.583	Yaw:	-13.210	Thrust:	62.118
Time:	4.549	Roll Set Point:	-0.037	Pitch Set Point:	-0.065	Yaw Set Point:	0.018	X_WP:	0.000	Y_WP:	0.000	Y_WP:	0.500	X:	0.019	Y:	0.033	Z:	0.644	yaw:	-1.018	yaw rate:	81.098	Roll:	2.395	Pitch:	1.303	Yaw:	18.723	Thrust:	62.168
Time:	4.560	Roll Set Point:	-0.038	Pitch Set Point:	-0.066	Yaw Set Point:	0.024	X_WP:	0.000	Y_WP:	0.000	Y_WP:	0.500	X:	0.019	Y:	0.033	Z:	0.645	yaw:	-1.368	yaw rate:	-34.999	Roll:	1.468	Pitch:	1.845	Yaw:	-9.327	Thrust:	61.443
Time:	4.571	Roll Set Point:	-0.040	Pitch Set Point:	-0.067	Yaw Set Point:	0.032	X_WP:	0.000	Y_WP:	0.000	Y_WP:	0.500	X:	0.021	Y:	0.033	Z:	0.647	yaw:	-1.821	yaw rate:	-45.306	Roll:	1.819	Pitch:	1.881	Yaw:	-12.411	Thrust:	58.784
Time:	4.582	Roll Set Point:	-0.042	Pitch Set Point:	-0.068	Yaw Set Point:	0.022	X_WP:	0.000	Y_WP:	0.000	Y_WP:	0.500	X:	0.021	Y:	0.034	Z:	0.648	yaw:	-1.284	yaw rate:	53.691	Roll:	2.236	Pitch:	1.528	Yaw:	11.831	Thrust:	61.424
Time:	4.593	Roll Set Point:	-0.043	Pitch Set Point:	-0.069	Yaw Set Point:	0.024	X_WP:	0.000	Y_WP:	0.000	Y_WP:	0.500	X:	0.022	Y:	0.034	Z:	0.649	yaw:	-1.389	yaw rate:	-10.487	Roll:	1.487	Pitch:	1.595	Yaw:	-3.555	Thrust:	61.293
Time:	4.605	Roll Set Point:	-0.044	Pitch Set Point:	-0.069	Yaw Set Point:	0.032	X_WP:	0.000	Y_WP:	0.000	Y_WP:	0.500	X:	0.023	Y:	0.034	Z:	0.651	yaw:	-1.861	yaw rate:	-47.180	Roll:	0.956	Pitch:	1.422	Yaw:	-11.889	Thrust:	68.360
Time:	4.616	Roll Set Point:	-0.047	Pitch Set Point:	-0.070	Yaw Set Point:	0.028	X_WP:	0.000	Y_WP:	0.000	Y_WP:	0.500	X:	0.024	Y:	0.035	Z:	0.652	yaw:	-1.603	yaw rate:	25.771	Roll:	2.635	Pitch:	1.990	Yaw:	4.755	Thrust:	58.728
Time:	4.627	Roll Set Point:	-0.048	Pitch Set Point:	-0.071	Yaw Set Point:	0.029	X_WP:	0.000	Y_WP:	0.000	Y_WP:	0.500	X:	0.024	Y:	0.035	Z:	0.653	yaw:	-1.657	yaw rate:	-5.449	Roll:	1.403	Pitch:	1.516	Yaw:	-2.752	Thrust:	61.188
Time:	4.638	Roll Set Point:	-0.048	Pitch Set Point:	-0.071	Yaw Set Point:	0.037	X_WP:	0.000	Y_WP:	0.000	Y_WP:	0.500	X:	0.025	Y:	0.035	Z:	0.654	yaw:	-2.143	yaw rate:	-48.563	Roll:	1.069	Pitch:	1.607	Yaw:	-13.679	Thrust:	61.228
Time:	4.649	Roll Set Point:	-0.050	Pitch Set Point:	-0.072	Yaw Set Point:	0.030	X_WP:	0.000	Y_WP:	0.000	Y_WP:	0.500	X:	0.026	Y:	0.036	Z:	0.655	yaw:	-1.746	yaw rate:	39.701	Roll:	2.263	Pitch:	1.699	Yaw:	7.825	Thrust:	60.355
Time:	4.661	Roll Set Point:	-0.052	Pitch Set Point:	-0.073	Yaw Set Point:	0.029	X_WP:	0.000	Y_WP:	0.000	Y_WP:	0.500	X:	0.027	Y:	0.036	Z:	0.656	yaw:	-1.655	yaw rate:	9.058	Roll:	2.022	Pitch:	1.400	Yaw:	0.566	Thrust:	66.215
Time:	4.672	Roll Set Point:	-0.053	Pitch Set Point:	-0.073	Yaw Set Point:	0.027	X_WP:	0.000	Y_WP:	0.000	Y_WP:	0.500	X:	0.027	Y:	0.036	Z:	0.657	yaw:	-1.519	yaw rate:	13.633	Roll:	1.776	Pitch:	1.499	Yaw:	1.943	Thrust:	60.584
Time:	4.683	Roll Set Point:	-0.056	Pitch Set Point:	-0.074	Yaw Set Point:	0.026	X_WP:	0.000	Y_WP:	0.000	Y_WP:	0.500	X:	0.028	Y:	0.037	Z:	0.659	yaw:	-1.508	yaw rate:	45.122	Roll:	2.637	Pitch:	2.019	Yaw:	-1.032	Thrust:	57.236
Time:	4.695	Roll Set Point:	-0.057	Pitch Set Point:	-0.075	Yaw Set Point:	0.027	X_WP:	0.000	Y_WP:	0.000	Y_WP:	0.500	X:	0.029	Y:	0.037	Z:	0.659	yaw:	-1.547	yaw rate:	-3.897	Roll:	1.478	Pitch:	1.361	Yaw:	-2.119	Thrust:	66.935
Time:	4.706	Roll Set Point:	-0.059	Pitch Set Point:	-0.075	Yaw Set Point:	0.025	X_WP:	0.000	Y_WP:	0.000	Y_WP:	0.500	X:	0.030	Y:	0.037	Z:	0.660	yaw:	-1.423	yaw rate:	12.474	Roll:	2.341	Pitch:	1.582	Yaw:	1.788	Thrust:	58.901
Time:	4.717	Roll Set Point:	-0.059	Pitch Set Point:	-0.076	Yaw Set Point:	0.035	X_WP:	0.000	Y_WP:	0.000	Y_WP:	0.500	X:	0.030	Y:	0.037	Z:	0.661	yaw:	-2.025	yaw rate:	-60.258	Roll:	0.852	Pitch:	1.869	Yaw:	-16.327	Thrust:	60.062
Time:	4.728	Roll Set Point:	-0.060	Pitch Set Point:	-0.076	Yaw Set Point:	0.032	X_WP:	0.000	Y_WP:	0.000	Y_WP:	0.500	X:	0.031	Y:	0.038	Z:	0.662	yaw:	-1.808	yaw rate:	21.742	Roll:	1.908	Pitch:	1.256	Yaw:	3.422	Thrust:	59.479
Time:	4.739	Roll Set Point:	-0.062	Pitch Set Point:	-0.076	Yaw Set Point:	0.024	X_WP:	0.000	Y_WP:	0.000	Y_WP:	0.500	X:	0.031	Y:	0.038	Z:	0.662	yaw:	-1.355	yaw rate:	45.256	Roll:	1.979	Pitch:	1.133	Yaw:	9.647	Thrust:	60.712
Time:	4.750	Roll Set Point:	-0.063	Pitch Set Point:	-0.077	Yaw Set Point:	0.032	X_WP:	0.000	Y_WP:	0.000	Y_WP:	0.500	X:	0.032	Y:	0.038	Z:	0.663	yaw:	-1.826	yaw rate:	-47.051	Roll:	1.422	Pitch:	2.143	Yaw:	-12.934	Thrust:	58.890
Time:	4.761	Roll Set Point:	-0.063	Pitch Set Point:	-0.077	Yaw Set Point:	0.030	X_WP:	0.000	Y_WP:	0.000	Y_WP:	0.500	X:	0.032	Y:	0.038	Z:	0.664	yaw:	-1.713	yaw rate:	11.264	Roll:	1.442	Pitch:	1.048	Yaw:	1.062	Thrust:	60.529
Time:	4.772	Roll Set Point:	-0.064	Pitch Set Point:	-0.078	Yaw Set Point:	0.036	X_WP:	0.000	Y_WP:	0.000	Y_WP:	0.500	X:	0.033	Y:	0.038	Z:	0.664	yaw:	-2.071	yaw rate:	-35.801	Roll:	1.396	Pitch:	1.880	Yaw:	-10.604	Thrust:	59.396
Time:	4.783	Roll Set Point:	-0.065	Pitch Set Point:	-0.078	Yaw Set Point:	0.037	X_WP:	0.000	Y_WP:	0.000	Y_WP:	0.500	X:	0.033	Y:	0.038	Z:	0.665	yaw:	-2.106	yaw rate:	-3.486	Roll:	1.509	Pitch:	1.362	Yaw:	-3.004	Thrust:	59.668
Time:	4.794	Roll Set Point:	-0.067	Pitch Set Point:	-0.078	Yaw Set Point:	0.025	X_WP:	0.000	Y_WP:	0.000	Y_WP:	0.500	X:	0.034	Y:	0.039	Z:	0.665	yaw:	-1.452	yaw rate:	65.427	Roll:	2.682	Pitch:	1.212	Yaw:	14.298	Thrust:	59.527
Time:	4.805	Roll Set Point:	-0.068	Pitch Set Point:	-0.078	Yaw Set Point:	0.024	X_WP:	0.000	Y_WP:	0.000	Y_WP:	0.500	X:	0.034	Y:	0.039	Z:	0.665	yaw:	-1.364	yaw rate:	8.782	Roll:	1.458	Pitch:	1.190	Yaw:	0.926	Thrust:	59.906
Time:	4.816	Roll Set Point:	-0.068	Pitch Set Point:	-0.079	Yaw Set Point:	0.032	X_WP:	0.000	Y_WP:	0.000	Y_WP:	0.500	X:	0.035	Y:	0.039	Z:	0.666	yaw:	-1.844	yaw rate:	-48.012	Roll:	1.265	Pitch:	1.941	Yaw:	-13.254	Thrust:	59.195
Time:	4.827	Roll Set Point:	-0.068	Pitch Set Point:	-0.079	Yaw Set Point:	0.038	X_WP:	0.000	Y_WP:	0.000	Y_WP:	0.500	X:	0.035	Y:	0.039	Z:	0.666	yaw:	-2.156	yaw rate:	-31.234	Roll:	0.922	Pitch:	1.492	Yaw:	-9.671	Thrust:	60.566
Time:	4.839	Roll Set Point:	-0.070	Pitch Set Point:	-0.080	Yaw Set Point:	0.037	X_WP:	0.000	Y_WP:	0.000	Y_WP:	0.500	X:	0.036	Y:	0.039	Z:	0.666	yaw:	-2.102	yaw rate:	5.430	Roll:	1.728	Pitch:	1.468	Yaw:	-0.959	Thrust:	65.721
Time:	4.850	Roll Set Point:	-0.070	Pitch Set Point:	-0.080	Yaw Set Point:	0.037	X_WP:	0.000	Y_WP:	0.000	Y_WP:	0.500	X:	0.036	Y:	0.039	Z:	0.666	yaw:	-2.096	yaw rate:	0.638	Roll:	1.387	Pitch:	1.247	Yaw:	-2.055	Thrust:	60.369
Time:	4.861	Roll Set Point:	-0.071	Pitch Set Point:	-0.080	Yaw Set Point:	0.036	X_WP:	0.000	Y_WP:	0.000	Y_WP:	0.500	X:	0.036	Y:	0.039	Z:	0.666	yaw:	-2.072	yaw rate:	2.327	Roll:	1.392	Pitch:	1.529	Yaw:	-1.629	Thrust:	60.015
Time:	4.873	Roll Set Point:	-0.072	Pitch Set Point:	-0.080	Yaw Set Point:	0.028	X_WP:	0.000	Y_WP:	0.000	Y_WP:	0.500	X:	0.037	Y:	0.040	Z:	0.666	yaw:	-1.594	yaw rate:	47.823	Roll:	2.495	Pitch:	1.259	Yaw:	9.834	Thrust:	60.072
Time:	4.884	Roll Set Point:	-0.072	Pitch Set Point:	-0.081	Yaw Set Point:	0.035	X_WP:	0.000	Y_WP:	0.000	Y_WP:	0.500	X:	0.037	Y:	0.040	Z:	0.665	yaw:	-2.030	yaw rate:	-43.577	Roll:	0.901	Pitch:	1.622	Yaw:	-12.502	Thrust:	60.535
Time:	4.895	Roll Set Point:	-0.073	Pitch Set Point:	-0.081	Yaw Set Point:	0.034	X_WP:	0.000	Y_WP:	0.000	Y_WP:	0.500	X:	0.037	Y:	0.040	Z:	0.665	yaw:	-1.951	yaw rate:	7.896	Roll:	1.492	Pitch:	1.396	Yaw:	-0.160	Thrust:	60.235
Time:	4.906	Roll Set Point:	-0.074	Pitch Set Point:	-0.081	Yaw Set Point:	0.027	X_WP:	0.000	Y_WP:	0.000	Y_WP:	0.500	X:	0.038	Y:	0.040	Z:	0.665	yaw:	-1.559	yaw rate:	39.214	Roll:	2.044	Pitch:	1.281	Yaw:	7.814	Thrust:	59.760
Time:	4.917	Roll Set Point:	-0.075	Pitch Set Point:	-0.081	Yaw Set Point:	0.025	X_WP:	0.000	Y_WP:	0.000	Y_WP:	0.500	X:	0.038	Y:	0.040	Z:	0.664	yaw:	-1.454	yaw rate:	10.484	Roll:	1.614	Pitch:	1.258	Yaw:	1.135	Thrust:	60.757
Time:	4.928	Roll Set Point:	-0.075	Pitch Set Point:	-0.081	Yaw Set Point:	0.025	X_WP:	0.000	Y_WP:	0.000	Y_WP:	0.500	X:	0.038	Y:	0.040	Z:	0.664	yaw:	-1.457	yaw rate:	-0.318	Roll:	1.524	Pitch:	1.485	Yaw:	-1.440	Thrust:	59.599
Time:	4.939	Roll Set Point:	-0.075	Pitch Set Point:	-0.081	Yaw Set Point:	0.028	X_WP:	0.000	Y_WP:	0.000	Y_WP:	0.500	X:	0.038	Y:	0.040	Z:	0.663	yaw:	-1.598	yaw rate:	-14.058	Roll:	1.193	Pitch:	1.332	Yaw:	-4.903	Thrust:	61.303
Time:	4.950	Roll Set Point:	-0.076	Pitch Set Point:	-0.082	Yaw Set Point:	0.031	X_WP:	0.000	Y_WP:	0.000	Y_WP:	0.500	X:	0.038	Y:	0.040	Z:	0.663	yaw:	-1.763	yaw rate:	-16.493	Roll:	1.147	Pitch:	1.564	Yaw:	-5.703	Thrust:	60.316
Time:	4.962	Roll Set Point:	-0.076	Pitch Set Point:	-0.082	Yaw Set Point:	0.031	X_WP:	0.000	Y_WP:	0.000	Y_WP:	0.500	X:	0.039	Y:	0.040	Z:	0.662	yaw:	-1.765	yaw rate:	-0.257	Roll:	1.406	Pitch:	1.396	Yaw:	-1.874	Thrust:	60.087
Time:	4.972	Roll Set Point:	-0.077	Pitch Set Point:	-0.082	Yaw Set Point:	0.030	X_WP:	0.000	Y_WP:	0.000	Y_WP:	0.500	X:	0.039	Y:	0.041	Z:	0.662	yaw:	-1.710	yaw rate:	5.487	Roll:	1.636	Pitch:	1.489	Yaw:	-0.439	Thrust:	60.137
Time:	4.983	Roll Set Point:	-0.077	Pitch Set Point:	-0.082	Yaw Set Point:	0.029	X_WP:	0.000	Y_WP:	0.000	Y_WP:	0.500	X:	0.039	Y:	0.041	Z:	0.661	yaw:	-1.660	yaw rate:	5.078	Roll:	1.591	Pitch:	1.255	Yaw:	-0.474	Thrust:	60.152
Time:	4.995	Roll Set Point:	-0.077	Pitch Set Point:	-0.082	Yaw Set Point:	0.028	X_WP:	0.000	Y_WP:	0.000	Y_WP:	0.500	X:	0.039	Y:	0.041	Z:	0.660	yaw:	-1.606	yaw rate:	5.403	Roll:	1.134	Pitch:	1.437	Yaw:	-0.375	Thrust:	68.062
Time:	5.006	Roll Set Point:	-0.078	Pitch Set Point:	-0.083	Yaw Set Point:	0.033	X_WP:	0.000	Y_WP:	0.000	Y_WP:	0.500	X:	0.040	Y:	0.041	Z:	0.659	yaw:	-1.881	yaw rate:	-27.503	Roll:	1.129	Pitch:	1.622	Yaw:	-8.511	Thrust:	60.927
