Time:	2.056	Roll Set Point:	0.006	Pitch Set Point:	-0.030	Yaw Set Point:	-0.144	X_WP:	0.000	Y_WP:	0.000	Y_WP:	0.500	X:	-0.004	Y:	0.015	Z:	0.050	yaw:	8.269	yaw rate:	-2.443	Roll:	-0.058	Pitch:	0.446	Yaw:	11.546	Thrust:	24.747
Time:	2.067	Roll Set Point:	0.006	Pitch Set Point:	-0.030	Yaw Set Point:	-0.145	X_WP:	0.000	Y_WP:	0.000	Y_WP:	0.500	X:	-0.004	Y:	0.015	Z:	0.050	yaw:	8.280	yaw rate:	1.092	Roll:	-0.058	Pitch:	0.446	Yaw:	11.852	Thrust:	25.297
Time:	2.079	Roll Set Point:	0.006	Pitch Set Point:	-0.030	Yaw Set Point:	-0.145	X_WP:	0.000	Y_WP:	0.000	Y_WP:	0.500	X:	-0.004	Y:	0.015	Z:	0.050	yaw:	8.296	yaw rate:	1.653	Roll:	-0.035	Pitch:	0.448	Yaw:	12.040	Thrust:	25.849
Time:	2.090	Roll Set Point:	0.006	Pitch Set Point:	-0.030	Yaw Set Point:	-0.145	X_WP:	0.000	Y_WP:	0.000	Y_WP:	0.500	X:	-0.004	Y:	0.015	Z:	0.050	yaw:	8.308	yaw rate:	1.173	Roll:	-0.069	Pitch:	0.448	Yaw:	11.975	Thrust:	26.685
Time:	2.101	Roll Set Point:	0.006	Pitch Set Point:	-0.030	Yaw Set Point:	-0.143	X_WP:	0.000	Y_WP:	0.000	Y_WP:	0.500	X:	-0.004	Y:	0.015	Z:	0.050	yaw:	8.212	yaw rate:	-9.617	Roll:	-0.266	Pitch:	0.149	Yaw:	9.316	Thrust:	27.940
Time:	2.112	Roll Set Point:	0.006	Pitch Set Point:	-0.030	Yaw Set Point:	-0.135	X_WP:	0.000	Y_WP:	0.000	Y_WP:	0.500	X:	-0.004	Y:	0.015	Z:	0.050	yaw:	7.750	yaw rate:	-46.151	Roll:	-0.225	Pitch:	0.554	Yaw:	0.027	Thrust:	26.424
Time:	2.123	Roll Set Point:	0.006	Pitch Set Point:	-0.030	Yaw Set Point:	-0.137	X_WP:	0.000	Y_WP:	0.000	Y_WP:	0.500	X:	-0.004	Y:	0.015	Z:	0.050	yaw:	7.876	yaw rate:	12.559	Roll:	0.083	Pitch:	0.754	Yaw:	14.168	Thrust:	30.011
Time:	2.134	Roll Set Point:	0.006	Pitch Set Point:	-0.030	Yaw Set Point:	-0.141	X_WP:	0.000	Y_WP:	0.000	Y_WP:	0.500	X:	-0.004	Y:	0.015	Z:	0.050	yaw:	8.078	yaw rate:	20.202	Roll:	-0.058	Pitch:	0.352	Yaw:	16.293	Thrust:	29.140
Time:	2.145	Roll Set Point:	0.006	Pitch Set Point:	-0.030	Yaw Set Point:	-0.147	X_WP:	0.000	Y_WP:	0.000	Y_WP:	0.500	X:	-0.004	Y:	0.015	Z:	0.050	yaw:	8.435	yaw rate:	35.677	Roll:	0.320	Pitch:	0.227	Yaw:	20.496	Thrust:	27.737
Time:	2.156	Roll Set Point:	0.006	Pitch Set Point:	-0.030	Yaw Set Point:	-0.147	X_WP:	0.000	Y_WP:	0.000	Y_WP:	0.500	X:	-0.004	Y:	0.015	Z:	0.050	yaw:	8.425	yaw rate:	-0.960	Roll:	0.162	Pitch:	0.681	Yaw:	11.818	Thrust:	30.940
Time:	2.167	Roll Set Point:	0.006	Pitch Set Point:	-0.030	Yaw Set Point:	-0.145	X_WP:	0.000	Y_WP:	0.000	Y_WP:	0.500	X:	-0.004	Y:	0.015	Z:	0.050	yaw:	8.302	yaw rate:	-12.322	Roll:	-0.590	Pitch:	0.163	Yaw:	8.989	Thrust:	31.527
Time:	2.178	Roll Set Point:	0.007	Pitch Set Point:	-0.030	Yaw Set Point:	-0.140	X_WP:	0.000	Y_WP:	0.000	Y_WP:	0.500	X:	-0.004	Y:	0.015	Z:	0.050	yaw:	8.040	yaw rate:	-26.171	Roll:	-0.401	Pitch:	0.444	Yaw:	5.348	Thrust:	30.535
Time:	2.189	Roll Set Point:	0.006	Pitch Set Point:	-0.030	Yaw Set Point:	-0.144	X_WP:	0.000	Y_WP:	0.000	Y_WP:	0.500	X:	-0.004	Y:	0.015	Z:	0.050	yaw:	8.227	yaw rate:	18.632	Roll:	0.490	Pitch:	0.663	Yaw:	16.279	Thrust:	31.046
Time:	2.200	Roll Set Point:	0.006	Pitch Set Point:	-0.030	Yaw Set Point:	-0.145	X_WP:	0.000	Y_WP:	0.000	Y_WP:	0.500	X:	-0.004	Y:	0.015	Z:	0.050	yaw:	8.307	yaw rate:	8.049	Roll:	-0.085	Pitch:	0.277	Yaw:	13.919	Thrust:	33.253
Time:	2.211	Roll Set Point:	0.007	Pitch Set Point:	-0.030	Yaw Set Point:	-0.134	X_WP:	0.000	Y_WP:	0.000	Y_WP:	0.500	X:	-0.004	Y:	0.015	Z:	0.050	yaw:	7.656	yaw rate:	-65.079	Roll:	-0.608	Pitch:	0.312	Yaw:	-4.357	Thrust:	32.231
Time:	2.222	Roll Set Point:	0.006	Pitch Set Point:	-0.030	Yaw Set Point:	-0.144	X_WP:	0.000	Y_WP:	0.000	Y_WP:	0.500	X:	-0.004	Y:	0.015	Z:	0.050	yaw:	8.247	yaw rate:	59.065	Roll:	0.182	Pitch:	0.537	Yaw:	25.677	Thrust:	35.542
Time:	2.234	Roll Set Point:	0.006	Pitch Set Point:	-0.030	Yaw Set Point:	-0.144	X_WP:	0.000	Y_WP:	0.000	Y_WP:	0.500	X:	-0.004	Y:	0.015	Z:	0.050	yaw:	8.264	yaw rate:	28.106	Roll:	0.133	Pitch:	0.531	Yaw:	12.448	Thrust:	34.080
Time:	2.245	Roll Set Point:	0.006	Pitch Set Point:	-0.030	Yaw Set Point:	-0.142	X_WP:	0.000	Y_WP:	0.000	Y_WP:	0.500	X:	-0.004	Y:	0.015	Z:	0.050	yaw:	8.129	yaw rate:	-13.483	Roll:	-0.127	Pitch:	0.388	Yaw:	8.685	Thrust:	35.309
Time:	2.256	Roll Set Point:	0.006	Pitch Set Point:	-0.030	Yaw Set Point:	-0.142	X_WP:	0.000	Y_WP:	0.000	Y_WP:	0.500	X:	-0.004	Y:	0.015	Z:	0.050	yaw:	8.129	yaw rate:	-13.483	Roll:	-0.061	Pitch:	0.449	Yaw:	11.916	Thrust:	35.477
Time:	2.267	Roll Set Point:	0.007	Pitch Set Point:	-0.030	Yaw Set Point:	-0.146	X_WP:	0.000	Y_WP:	0.000	Y_WP:	0.500	X:	-0.004	Y:	0.015	Z:	0.050	yaw:	8.344	yaw rate:	21.499	Roll:	-0.230	Pitch:	0.556	Yaw:	17.340	Thrust:	36.967
Time:	2.278	Roll Set Point:	0.006	Pitch Set Point:	-0.030	Yaw Set Point:	-0.134	X_WP:	0.000	Y_WP:	0.000	Y_WP:	0.500	X:	-0.004	Y:	0.015	Z:	0.050	yaw:	7.655	yaw rate:	-68.878	Roll:	-0.136	Pitch:	0.186	Yaw:	-5.073	Thrust:	34.534
Time:	2.289	Roll Set Point:	0.006	Pitch Set Point:	-0.031	Yaw Set Point:	-0.137	X_WP:	0.000	Y_WP:	0.000	Y_WP:	0.500	X:	-0.004	Y:	0.015	Z:	0.050	yaw:	7.861	yaw rate:	20.590	Roll:	0.030	Pitch:	0.987	Yaw:	16.522	Thrust:	38.143
Time:	2.300	Roll Set Point:	0.006	Pitch Set Point:	-0.030	Yaw Set Point:	-0.144	X_WP:	0.000	Y_WP:	0.000	Y_WP:	0.500	X:	-0.004	Y:	0.015	Z:	0.050	yaw:	8.266	yaw rate:	40.470	Roll:	0.188	Pitch:	0.097	Yaw:	21.816	Thrust:	37.891
Time:	2.311	Roll Set Point:	0.006	Pitch Set Point:	-0.030	Yaw Set Point:	-0.145	X_WP:	0.000	Y_WP:	0.000	Y_WP:	0.500	X:	-0.004	Y:	0.015	Z:	0.050	yaw:	8.302	yaw rate:	3.607	Roll:	0.042	Pitch:	0.579	Yaw:	13.169	Thrust:	37.943
Time:	2.322	Roll Set Point:	0.006	Pitch Set Point:	-0.030	Yaw Set Point:	-0.142	X_WP:	0.000	Y_WP:	0.000	Y_WP:	0.500	X:	-0.004	Y:	0.015	Z:	0.050	yaw:	8.117	yaw rate:	-18.446	Roll:	-0.304	Pitch:	0.491	Yaw:	7.698	Thrust:	38.687
Time:	2.333	Roll Set Point:	0.006	Pitch Set Point:	-0.030	Yaw Set Point:	-0.142	X_WP:	0.000	Y_WP:	0.000	Y_WP:	0.500	X:	-0.004	Y:	0.015	Z:	0.050	yaw:	8.148	yaw rate:	3.034	Roll:	-0.011	Pitch:	0.407	Yaw:	12.881	Thrust:	39.536
Time:	2.344	Roll Set Point:	0.006	Pitch Set Point:	-0.030	Yaw Set Point:	-0.143	X_WP:	0.000	Y_WP:	0.000	Y_WP:	0.500	X:	-0.004	Y:	0.015	Z:	0.050	yaw:	8.190	yaw rate:	4.225	Roll:	-0.042	Pitch:	0.468	Yaw:	13.254	Thrust:	40.218
Time:	2.355	Roll Set Point:	0.006	Pitch Set Point:	-0.030	Yaw Set Point:	-0.144	X_WP:	0.000	Y_WP:	0.000	Y_WP:	0.500	X:	-0.004	Y:	0.015	Z:	0.050	yaw:	8.235	yaw rate:	4.512	Roll:	-0.179	Pitch:	0.504	Yaw:	13.417	Thrust:	41.472
Time:	2.366	Roll Set Point:	0.006	Pitch Set Point:	-0.030	Yaw Set Point:	-0.144	X_WP:	0.000	Y_WP:	0.000	Y_WP:	0.500	X:	-0.004	Y:	0.015	Z:	0.050	yaw:	8.275	yaw rate:	4.037	Roll:	0.189	Pitch:	0.359	Yaw:	13.392	Thrust:	41.637
Time:	2.377	Roll Set Point:	0.006	Pitch Set Point:	-0.030	Yaw Set Point:	-0.146	X_WP:	0.000	Y_WP:	0.000	Y_WP:	0.500	X:	-0.004	Y:	0.015	Z:	0.050	yaw:	8.347	yaw rate:	7.197	Roll:	-0.080	Pitch:	0.486	Yaw:	14.274	Thrust:	42.273
Time:	2.388	Roll Set Point:	0.007	Pitch Set Point:	-0.030	Yaw Set Point:	-0.137	X_WP:	0.000	Y_WP:	0.000	Y_WP:	0.500	X:	-0.004	Y:	0.015	Z:	0.050	yaw:	7.875	yaw rate:	-47.234	Roll:	-0.698	Pitch:	0.187	Yaw:	0.727	Thrust:	42.256
Time:	2.399	Roll Set Point:	0.007	Pitch Set Point:	-0.030	Yaw Set Point:	-0.142	X_WP:	0.000	Y_WP:	0.000	Y_WP:	0.500	X:	-0.004	Y:	0.015	Z:	0.050	yaw:	8.137	yaw rate:	26.213	Roll:	0.117	Pitch:	0.588	Yaw:	18.548	Thrust:	43.787
Time:	2.412	Roll Set Point:	0.007	Pitch Set Point:	-0.030	Yaw Set Point:	-0.141	X_WP:	0.000	Y_WP:	0.000	Y_WP:	0.500	X:	-0.004	Y:	0.015	Z:	0.050	yaw:	8.095	yaw rate:	-32.394	Roll:	-0.048	Pitch:	0.491	Yaw:	11.583	Thrust:	47.113
Time:	2.423	Roll Set Point:	0.007	Pitch Set Point:	-0.030	Yaw Set Point:	-0.141	X_WP:	0.000	Y_WP:	0.000	Y_WP:	0.500	X:	-0.004	Y:	0.015	Z:	0.050	yaw:	8.095	yaw rate:	-32.394	Roll:	-0.067	Pitch:	0.456	Yaw:	12.338	Thrust:	44.416
Time:	2.434	Roll Set Point:	0.006	Pitch Set Point:	-0.030	Yaw Set Point:	-0.144	X_WP:	0.000	Y_WP:	0.000	Y_WP:	0.500	X:	-0.004	Y:	0.015	Z:	0.050	yaw:	8.267	yaw rate:	17.261	Roll:	0.272	Pitch:	0.681	Yaw:	16.714	Thrust:	44.714
Time:	2.445	Roll Set Point:	0.006	Pitch Set Point:	-0.030	Yaw Set Point:	-0.144	X_WP:	0.000	Y_WP:	0.000	Y_WP:	0.500	X:	-0.004	Y:	0.015	Z:	0.050	yaw:	8.265	yaw rate:	-0.208	Roll:	-0.061	Pitch:	0.425	Yaw:	12.593	Thrust:	43.917
Time:	2.456	Roll Set Point:	0.006	Pitch Set Point:	-0.031	Yaw Set Point:	-0.151	X_WP:	0.000	Y_WP:	0.000	Y_WP:	0.500	X:	-0.004	Y:	0.015	Z:	0.050	yaw:	8.640	yaw rate:	37.455	Roll:	0.498	Pitch:	0.602	Yaw:	22.074	Thrust:	47.093
Time:	2.467	Roll Set Point:	0.006	Pitch Set Point:	-0.030	Yaw Set Point:	-0.144	X_WP:	0.000	Y_WP:	0.000	Y_WP:	0.500	X:	-0.004	Y:	0.015	Z:	0.050	yaw:	8.251	yaw rate:	-38.894	Roll:	-0.569	Pitch:	0.387	Yaw:	3.409	Thrust:	46.755
Time:	2.478	Roll Set Point:	0.006	Pitch Set Point:	-0.030	Yaw Set Point:	-0.144	X_WP:	0.000	Y_WP:	0.000	Y_WP:	0.500	X:	-0.004	Y:	0.015	Z:	0.050	yaw:	8.242	yaw rate:	-0.888	Roll:	-0.104	Pitch:	0.383	Yaw:	12.398	Thrust:	47.524
Time:	2.489	Roll Set Point:	0.006	Pitch Set Point:	-0.030	Yaw Set Point:	-0.149	X_WP:	0.000	Y_WP:	0.000	Y_WP:	0.500	X:	-0.004	Y:	0.015	Z:	0.050	yaw:	8.559	yaw rate:	31.719	Roll:	0.129	Pitch:	0.598	Yaw:	20.584	Thrust:	47.461
Time:	2.500	Roll Set Point:	0.006	Pitch Set Point:	-0.030	Yaw Set Point:	-0.147	X_WP:	0.000	Y_WP:	0.000	Y_WP:	0.500	X:	-0.004	Y:	0.015	Z:	0.050	yaw:	8.447	yaw rate:	-11.205	Roll:	-0.003	Pitch:	0.422	Yaw:	10.264	Thrust:	48.907
Time:	2.511	Roll Set Point:	0.006	Pitch Set Point:	-0.030	Yaw Set Point:	-0.145	X_WP:	0.000	Y_WP:	0.000	Y_WP:	0.500	X:	-0.004	Y:	0.015	Z:	0.050	yaw:	8.322	yaw rate:	-12.533	Roll:	-0.127	Pitch:	0.370	Yaw:	9.735	Thrust:	49.172
Time:	2.523	Roll Set Point:	0.006	Pitch Set Point:	-0.030	Yaw Set Point:	-0.145	X_WP:	0.000	Y_WP:	0.000	Y_WP:	0.500	X:	-0.004	Y:	0.015	Z:	0.050	yaw:	8.313	yaw rate:	-0.907	Roll:	-0.100	Pitch:	0.399	Yaw:	12.494	Thrust:	50.070
Time:	2.534	Roll Set Point:	0.006	Pitch Set Point:	-0.030	Yaw Set Point:	-0.146	X_WP:	0.000	Y_WP:	0.000	Y_WP:	0.500	X:	-0.004	Y:	0.015	Z:	0.050	yaw:	8.371	yaw rate:	5.815	Roll:	0.065	Pitch:	0.392	Yaw:	14.171	Thrust:	50.285
Time:	2.546	Roll Set Point:	0.006	Pitch Set Point:	-0.030	Yaw Set Point:	-0.149	X_WP:	0.000	Y_WP:	0.000	Y_WP:	0.500	X:	-0.004	Y:	0.015	Z:	0.050	yaw:	8.513	yaw rate:	14.254	Roll:	0.070	Pitch:	0.421	Yaw:	16.191	Thrust:	53.335
Time:	2.557	Roll Set Point:	0.006	Pitch Set Point:	-0.030	Yaw Set Point:	-0.153	X_WP:	0.000	Y_WP:	0.000	Y_WP:	0.500	X:	-0.004	Y:	0.015	Z:	0.050	yaw:	8.786	yaw rate:	23.528	Roll:	0.207	Pitch:	0.420	Yaw:	19.850	Thrust:	51.015
Time:	2.568	Roll Set Point:	0.006	Pitch Set Point:	-0.030	Yaw Set Point:	-0.153	X_WP:	0.000	Y_WP:	0.000	Y_WP:	0.500	X:	-0.004	Y:	0.015	Z:	0.050	yaw:	8.786	yaw rate:	23.528	Roll:	-0.049	Pitch:	0.461	Yaw:	13.371	Thrust:	52.139
Time:	2.579	Roll Set Point:	0.006	Pitch Set Point:	-0.030	Yaw Set Point:	-0.146	X_WP:	0.000	Y_WP:	0.000	Y_WP:	0.500	X:	-0.004	Y:	0.015	Z:	0.050	yaw:	8.337	yaw rate:	-44.901	Roll:	-0.432	Pitch:	0.402	Yaw:	2.087	Thrust:	52.414
Time:	2.590	Roll Set Point:	0.006	Pitch Set Point:	-0.030	Yaw Set Point:	-0.151	X_WP:	0.000	Y_WP:	0.000	Y_WP:	0.500	X:	-0.004	Y:	0.015	Z:	0.050	yaw:	8.667	yaw rate:	32.945	Roll:	0.107	Pitch:	0.518	Yaw:	21.007	Thrust:	53.663
Time:	2.601	Roll Set Point:	0.006	Pitch Set Point:	-0.030	Yaw Set Point:	-0.149	X_WP:	0.000	Y_WP:	0.000	Y_WP:	0.500	X:	-0.004	Y:	0.015	Z:	0.050	yaw:	8.516	yaw rate:	-15.095	Roll:	-0.169	Pitch:	0.244	Yaw:	9.398	Thrust:	54.416
Time:	2.612	Roll Set Point:	0.005	Pitch Set Point:	-0.030	Yaw Set Point:	-0.154	X_WP:	0.000	Y_WP:	0.000	Y_WP:	0.500	X:	-0.004	Y:	0.015	Z:	0.050	yaw:	8.818	yaw rate:	30.207	Roll:	0.312	Pitch:	0.555	Yaw:	20.585	Thrust:	54.122
Time:	2.623	Roll Set Point:	0.006	Pitch Set Point:	-0.029	Yaw Set Point:	-0.142	X_WP:	0.000	Y_WP:	0.000	Y_WP:	0.500	X:	-0.004	Y:	0.014	Z:	0.050	yaw:	8.140	yaw rate:	-67.824	Roll:	-0.896	Pitch:	0.102	Yaw:	-3.632	Thrust:	55.210
Time:	2.634	Roll Set Point:	0.006	Pitch Set Point:	-0.030	Yaw Set Point:	-0.149	X_WP:	0.000	Y_WP:	0.000	Y_WP:	0.500	X:	-0.004	Y:	0.015	Z:	0.050	yaw:	8.534	yaw rate:	39.403	Roll:	0.641	Pitch:	0.907	Yaw:	22.371	Thrust:	55.034
Time:	2.645	Roll Set Point:	0.006	Pitch Set Point:	-0.030	Yaw Set Point:	-0.144	X_WP:	0.000	Y_WP:	0.000	Y_WP:	0.500	X:	-0.004	Y:	0.015	Z:	0.050	yaw:	8.239	yaw rate:	-29.497	Roll:	-0.378	Pitch:	0.297	Yaw:	5.605	Thrust:	56.995
Time:	2.656	Roll Set Point:	0.005	Pitch Set Point:	-0.030	Yaw Set Point:	-0.152	X_WP:	0.000	Y_WP:	0.000	Y_WP:	0.500	X:	-0.004	Y:	0.015	Z:	0.050	yaw:	8.682	yaw rate:	44.363	Roll:	0.452	Pitch:	0.632	Yaw:	23.572	Thrust:	57.577
Time:	2.667	Roll Set Point:	0.005	Pitch Set Point:	-0.030	Yaw Set Point:	-0.149	X_WP:	0.000	Y_WP:	0.000	Y_WP:	0.500	X:	-0.004	Y:	0.015	Z:	0.050	yaw:	8.538	yaw rate:	-14.461	Roll:	-0.092	Pitch:	0.413	Yaw:	9.604	Thrust:	55.990
Time:	2.678	Roll Set Point:	0.006	Pitch Set Point:	-0.030	Yaw Set Point:	-0.145	X_WP:	0.000	Y_WP:	0.000	Y_WP:	0.500	X:	-0.004	Y:	0.015	Z:	0.051	yaw:	8.313	yaw rate:	-22.489	Roll:	-0.241	Pitch:	0.221	Yaw:	7.355	Thrust:	57.839
Time:	2.689	Roll Set Point:	0.006	Pitch Set Point:	-0.030	Yaw Set Point:	-0.134	X_WP:	0.000	Y_WP:	0.000	Y_WP:	0.500	X:	-0.004	Y:	0.015	Z:	0.051	yaw:	7.691	yaw rate:	-62.159	Roll:	-0.417	Pitch:	0.818	Yaw:	-2.912	Thrust:	57.924
Time:	2.700	Roll Set Point:	0.006	Pitch Set Point:	-0.030	Yaw Set Point:	-0.146	X_WP:	0.000	Y_WP:	0.000	Y_WP:	0.500	X:	-0.004	Y:	0.015	Z:	0.051	yaw:	8.354	yaw rate:	66.267	Roll:	0.322	Pitch:	0.270	Yaw:	28.498	Thrust:	58.418
Time:	2.711	Roll Set Point:	0.006	Pitch Set Point:	-0.030	Yaw Set Point:	-0.139	X_WP:	0.000	Y_WP:	0.000	Y_WP:	0.500	X:	-0.004	Y:	0.015	Z:	0.051	yaw:	7.955	yaw rate:	-39.866	Roll:	-0.192	Pitch:	0.846	Yaw:	2.748	Thrust:	58.780
Time:	2.722	Roll Set Point:	0.005	Pitch Set Point:	-0.030	Yaw Set Point:	-0.139	X_WP:	0.000	Y_WP:	0.000	Y_WP:	0.500	X:	-0.004	Y:	0.015	Z:	0.052	yaw:	7.982	yaw rate:	2.701	Roll:	0.239	Pitch:	0.113	Yaw:	12.894	Thrust:	58.998
Time:	2.733	Roll Set Point:	0.006	Pitch Set Point:	-0.030	Yaw Set Point:	-0.140	X_WP:	0.000	Y_WP:	0.000	Y_WP:	0.500	X:	-0.004	Y:	0.015	Z:	0.052	yaw:	8.023	yaw rate:	4.041	Roll:	-0.208	Pitch:	0.547	Yaw:	13.264	Thrust:	59.870
Time:	2.744	Roll Set Point:	0.005	Pitch Set Point:	-0.030	Yaw Set Point:	-0.139	X_WP:	0.000	Y_WP:	0.000	Y_WP:	0.500	X:	-0.004	Y:	0.015	Z:	0.053	yaw:	7.945	yaw rate:	-7.758	Roll:	0.192	Pitch:	0.414	Yaw:	10.361	Thrust:	58.802
Time:	2.755	Roll Set Point:	0.006	Pitch Set Point:	-0.030	Yaw Set Point:	-0.128	X_WP:	0.000	Y_WP:	0.000	Y_WP:	0.500	X:	-0.004	Y:	0.015	Z:	0.053	yaw:	7.343	yaw rate:	-60.167	Roll:	-0.521	Pitch:	0.149	Yaw:	-2.961	Thrust:	59.452
Time:	2.767	Roll Set Point:	0.005	Pitch Set Point:	-0.030	Yaw Set Point:	-0.130	X_WP:	0.000	Y_WP:	0.000	Y_WP:	0.500	X:	-0.004	Y:	0.015	Z:	0.054	yaw:	7.440	yaw rate:	9.694	Roll:	0.329	Pitch:	0.508	Yaw:	13.790	Thrust:	59.365
Time:	2.778	Roll Set Point:	0.005	Pitch Set Point:	-0.029	Yaw Set Point:	-0.128	X_WP:	0.000	Y_WP:	0.000	Y_WP:	0.500	X:	-0.003	Y:	0.015	Z:	0.055	yaw:	7.336	yaw rate:	-10.412	Roll:	0.045	Pitch:	0.212	Yaw:	8.875	Thrust:	60.592
Time:	2.789	Roll Set Point:	0.005	Pitch Set Point:	-0.029	Yaw Set Point:	-0.124	X_WP:	0.000	Y_WP:	0.000	Y_WP:	0.500	X:	-0.003	Y:	0.015	Z:	0.055	yaw:	7.093	yaw rate:	-24.314	Roll:	-0.060	Pitch:	0.501	Yaw:	5.231	Thrust:	61.333
Time:	2.800	Roll Set Point:	0.005	Pitch Set Point:	-0.029	Yaw Set Point:	-0.125	X_WP:	0.000	Y_WP:	0.000	Y_WP:	0.500	X:	-0.003	Y:	0.014	Z:	0.057	yaw:	7.168	yaw rate:	7.477	Roll:	0.192	Pitch:	-0.040	Yaw:	12.887	Thrust:	57.362
Time:	2.811	Roll Set Point:	0.004	Pitch Set Point:	-0.028	Yaw Set Point:	-0.121	X_WP:	0.000	Y_WP:	0.000	Y_WP:	0.500	X:	-0.003	Y:	0.014	Z:	0.058	yaw:	6.943	yaw rate:	-22.509	Roll:	-0.017	Pitch:	0.068	Yaw:	5.785	Thrust:	63.039
Time:	2.822	Roll Set Point:	0.004	Pitch Set Point:	-0.028	Yaw Set Point:	-0.117	X_WP:	0.000	Y_WP:	0.000	Y_WP:	0.500	X:	-0.003	Y:	0.014	Z:	0.059	yaw:	6.729	yaw rate:	-21.408	Roll:	-0.031	Pitch:	0.365	Yaw:	5.416	Thrust:	62.117
Time:	2.833	Roll Set Point:	0.005	Pitch Set Point:	-0.027	Yaw Set Point:	-0.112	X_WP:	0.000	Y_WP:	0.000	Y_WP:	0.500	X:	-0.003	Y:	0.013	Z:	0.060	yaw:	6.421	yaw rate:	-30.816	Roll:	-0.579	Pitch:	-0.455	Yaw:	2.754	Thrust:	61.249
Time:	2.844	Roll Set Point:	0.004	Pitch Set Point:	-0.026	Yaw Set Point:	-0.123	X_WP:	0.000	Y_WP:	0.000	Y_WP:	0.500	X:	-0.003	Y:	0.013	Z:	0.062	yaw:	7.029	yaw rate:	60.807	Roll:	0.666	Pitch:	-0.052	Yaw:	25.377	Thrust:	58.822
Time:	2.856	Roll Set Point:	0.004	Pitch Set Point:	-0.025	Yaw Set Point:	-0.111	X_WP:	0.000	Y_WP:	0.000	Y_WP:	0.500	X:	-0.003	Y:	0.012	Z:	0.064	yaw:	6.370	yaw rate:	-53.070	Roll:	-0.416	Pitch:	-0.766	Yaw:	-4.774	Thrust:	59.143
Time:	2.867	Roll Set Point:	0.004	Pitch Set Point:	-0.025	Yaw Set Point:	-0.111	X_WP:	0.000	Y_WP:	0.000	Y_WP:	0.500	X:	-0.003	Y:	0.012	Z:	0.064	yaw:	6.370	yaw rate:	-53.070	Roll:	-0.047	Pitch:	0.395	Yaw:	9.997	Thrust:	67.330
Time:	2.878	Roll Set Point:	0.005	Pitch Set Point:	-0.024	Yaw Set Point:	-0.110	X_WP:	0.000	Y_WP:	0.000	Y_WP:	0.500	X:	-0.003	Y:	0.012	Z:	0.065	yaw:	6.281	yaw rate:	-8.910	Roll:	-0.244	Pitch:	-0.154	Yaw:	7.757	Thrust:	64.275
Time:	2.889	Roll Set Point:	0.004	Pitch Set Point:	-0.023	Yaw Set Point:	-0.117	X_WP:	0.000	Y_WP:	0.000	Y_WP:	0.500	X:	-0.003	Y:	0.011	Z:	0.066	yaw:	6.709	yaw rate:	42.813	Roll:	0.295	Pitch:	-0.591	Yaw:	20.632	Thrust:	62.498
Time:	2.900	Roll Set Point:	0.004	Pitch Set Point:	-0.022	Yaw Set Point:	-0.115	X_WP:	0.000	Y_WP:	0.000	Y_WP:	0.500	X:	-0.003	Y:	0.011	Z:	0.069	yaw:	6.583	yaw rate:	-12.589	Roll:	-0.221	Pitch:	-0.742	Yaw:	7.309	Thrust:	59.798
Time:	2.911	Roll Set Point:	0.004	Pitch Set Point:	-0.020	Yaw Set Point:	-0.117	X_WP:	0.000	Y_WP:	0.000	Y_WP:	0.500	X:	-0.003	Y:	0.010	Z:	0.070	yaw:	6.691	yaw rate:	10.779	Roll:	0.112	Pitch:	-0.623	Yaw:	13.004	Thrust:	63.385
Time:	2.922	Roll Set Point:	0.004	Pitch Set Point:	-0.019	Yaw Set Point:	-0.110	X_WP:	0.000	Y_WP:	0.000	Y_WP:	0.500	X:	-0.003	Y:	0.009	Z:	0.072	yaw:	6.307	yaw rate:	-38.346	Roll:	-0.439	Pitch:	-0.692	Yaw:	0.783	Thrust:	63.733
Time:	2.933	Roll Set Point:	0.004	Pitch Set Point:	-0.018	Yaw Set Point:	-0.117	X_WP:	0.000	Y_WP:	0.000	Y_WP:	0.500	X:	-0.003	Y:	0.009	Z:	0.073	yaw:	6.718	yaw rate:	41.096	Roll:	0.046	Pitch:	-0.553	Yaw:	20.098	Thrust:	64.949
Time:	2.944	Roll Set Point:	0.004	Pitch Set Point:	-0.016	Yaw Set Point:	-0.120	X_WP:	0.000	Y_WP:	0.000	Y_WP:	0.500	X:	-0.002	Y:	0.008	Z:	0.076	yaw:	6.870	yaw rate:	15.224	Roll:	0.107	Pitch:	-1.278	Yaw:	14.318	Thrust:	59.337
Time:	2.955	Roll Set Point:	0.004	Pitch Set Point:	-0.014	Yaw Set Point:	-0.121	X_WP:	0.000	Y_WP:	0.000	Y_WP:	0.500	X:	-0.002	Y:	0.007	Z:	0.078	yaw:	6.922	yaw rate:	5.217	Roll:	-0.136	Pitch:	-0.839	Yaw:	12.007	Thrust:	64.031
Time:	2.966	Roll Set Point:	0.004	Pitch Set Point:	-0.013	Yaw Set Point:	-0.125	X_WP:	0.000	Y_WP:	0.000	Y_WP:	0.500	X:	-0.002	Y:	0.006	Z:	0.079	yaw:	7.157	yaw rate:	23.465	Roll:	-0.155	Pitch:	-1.033	Yaw:	16.666	Thrust:	64.619
Time:	2.977	Roll Set Point:	0.004	Pitch Set Point:	-0.011	Yaw Set Point:	-0.126	X_WP:	0.000	Y_WP:	0.000	Y_WP:	0.500	X:	-0.002	Y:	0.005	Z:	0.081	yaw:	7.235	yaw rate:	7.781	Roll:	-0.127	Pitch:	-1.203	Yaw:	13.053	Thrust:	65.263
Time:	2.988	Roll Set Point:	0.004	Pitch Set Point:	-0.009	Yaw Set Point:	-0.122	X_WP:	0.000	Y_WP:	0.000	Y_WP:	0.500	X:	-0.002	Y:	0.005	Z:	0.083	yaw:	7.010	yaw rate:	-22.497	Roll:	-0.125	Pitch:	-1.119	Yaw:	5.551	Thrust:	63.828
Time:	2.999	Roll Set Point:	0.004	Pitch Set Point:	-0.007	Yaw Set Point:	-0.120	X_WP:	0.000	Y_WP:	0.000	Y_WP:	0.500	X:	-0.002	Y:	0.003	Z:	0.086	yaw:	6.881	yaw rate:	-12.931	Roll:	-0.144	Pitch:	-1.935	Yaw:	7.649	Thrust:	60.057
Time:	3.010	Roll Set Point:	0.004	Pitch Set Point:	-0.004	Yaw Set Point:	-0.117	X_WP:	0.000	Y_WP:	0.000	Y_WP:	0.500	X:	-0.002	Y:	0.002	Z:	0.088	yaw:	6.707	yaw rate:	-17.410	Roll:	-0.533	Pitch:	-1.619	Yaw:	6.324	Thrust:	65.444
Time:	3.021	Roll Set Point:	0.004	Pitch Set Point:	-0.003	Yaw Set Point:	-0.121	X_WP:	0.000	Y_WP:	0.000	Y_WP:	0.500	X:	-0.002	Y:	0.001	Z:	0.090	yaw:	6.961	yaw rate:	25.453	Roll:	0.054	Pitch:	-1.034	Yaw:	16.855	Thrust:	64.767
Time:	3.033	Roll Set Point:	0.004	Pitch Set Point:	-0.001	Yaw Set Point:	-0.124	X_WP:	0.000	Y_WP:	0.000	Y_WP:	0.500	X:	-0.002	Y:	0.000	Z:	0.093	yaw:	7.105	yaw rate:	14.427	Roll:	-0.068	Pitch:	-1.464	Yaw:	14.400	Thrust:	64.983
Time:	3.044	Roll Set Point:	0.004	Pitch Set Point:	0.001	Yaw Set Point:	-0.124	X_WP:	0.000	Y_WP:	0.000	Y_WP:	0.500	X:	-0.002	Y:	-0.001	Z:	0.095	yaw:	7.118	yaw rate:	1.229	Roll:	-0.238	Pitch:	-1.412	Yaw:	11.333	Thrust:	65.115
Time:	3.055	Roll Set Point:	0.004	Pitch Set Point:	0.004	Yaw Set Point:	-0.117	X_WP:	0.000	Y_WP:	0.000	Y_WP:	0.500	X:	-0.002	Y:	-0.002	Z:	0.099	yaw:	6.687	yaw rate:	-43.079	Roll:	-0.406	Pitch:	-2.551	Yaw:	0.209	Thrust:	60.592
Time:	3.066	Roll Set Point:	0.004	Pitch Set Point:	0.006	Yaw Set Point:	-0.120	X_WP:	0.000	Y_WP:	0.000	Y_WP:	0.500	X:	-0.002	Y:	-0.003	Z:	0.101	yaw:	6.883	yaw rate:	19.604	Roll:	-0.195	Pitch:	-1.527	Yaw:	15.373	Thrust:	64.827
Time:	3.077	Roll Set Point:	0.004	Pitch Set Point:	0.008	Yaw Set Point:	-0.119	X_WP:	0.000	Y_WP:	0.000	Y_WP:	0.500	X:	-0.002	Y:	-0.004	Z:	0.104	yaw:	6.828	yaw rate:	-5.455	Roll:	-0.117	Pitch:	-1.594	Yaw:	9.463	Thrust:	67.785
Time:	3.088	Roll Set Point:	0.005	Pitch Set Point:	0.012	Yaw Set Point:	-0.119	X_WP:	0.000	Y_WP:	0.000	Y_WP:	0.500	X:	-0.002	Y:	-0.006	Z:	0.109	yaw:	6.792	yaw rate:	-14.096	Roll:	-0.791	Pitch:	-3.280	Yaw:	9.740	Thrust:	55.161
Time:	3.099	Roll Set Point:	0.005	Pitch Set Point:	0.015	Yaw Set Point:	-0.117	X_WP:	0.000	Y_WP:	0.000	Y_WP:	0.500	X:	-0.002	Y:	-0.008	Z:	0.113	yaw:	6.708	yaw rate:	-8.474	Roll:	-0.252	Pitch:	-2.396	Yaw:	8.449	Thrust:	60.798
Time:	3.110	Roll Set Point:	0.005	Pitch Set Point:	0.015	Yaw Set Point:	-0.117	X_WP:	0.000	Y_WP:	0.000	Y_WP:	0.500	X:	-0.002	Y:	-0.008	Z:	0.113	yaw:	6.708	yaw rate:	-8.474	Roll:	-0.092	Pitch:	-0.182	Yaw:	10.469	Thrust:	76.747
Time:	3.122	Roll Set Point:	0.005	Pitch Set Point:	0.018	Yaw Set Point:	-0.115	X_WP:	0.000	Y_WP:	0.000	Y_WP:	0.500	X:	-0.002	Y:	-0.009	Z:	0.116	yaw:	6.589	yaw rate:	-11.850	Roll:	-0.447	Pitch:	-2.041	Yaw:	7.490	Thrust:	64.742
Time:	3.133	Roll Set Point:	0.006	Pitch Set Point:	0.020	Yaw Set Point:	-0.116	X_WP:	0.000	Y_WP:	0.000	Y_WP:	0.500	X:	-0.002	Y:	-0.010	Z:	0.119	yaw:	6.669	yaw rate:	8.005	Roll:	-0.610	Pitch:	-2.136	Yaw:	12.315	Thrust:	65.662
Time:	3.144	Roll Set Point:	0.006	Pitch Set Point:	0.022	Yaw Set Point:	-0.109	X_WP:	0.000	Y_WP:	0.000	Y_WP:	0.500	X:	-0.002	Y:	-0.011	Z:	0.122	yaw:	6.237	yaw rate:	-43.212	Roll:	-0.285	Pitch:	-1.878	Yaw:	-0.417	Thrust:	66.624
Time:	3.155	Roll Set Point:	0.007	Pitch Set Point:	0.025	Yaw Set Point:	-0.114	X_WP:	0.000	Y_WP:	0.000	Y_WP:	0.500	X:	-0.003	Y:	-0.013	Z:	0.126	yaw:	6.511	yaw rate:	27.395	Roll:	-0.793	Pitch:	-2.794	Yaw:	16.697	Thrust:	60.804
Time:	3.166	Roll Set Point:	0.007	Pitch Set Point:	0.027	Yaw Set Point:	-0.116	X_WP:	0.000	Y_WP:	0.000	Y_WP:	0.500	X:	-0.003	Y:	-0.014	Z:	0.129	yaw:	6.626	yaw rate:	11.485	Roll:	-0.571	Pitch:	-1.841	Yaw:	13.081	Thrust:	66.703
Time:	3.178	Roll Set Point:	0.008	Pitch Set Point:	0.032	Yaw Set Point:	-0.106	X_WP:	0.000	Y_WP:	0.000	Y_WP:	0.500	X:	-0.003	Y:	-0.016	Z:	0.135	yaw:	6.068	yaw rate:	-18.865	Roll:	-0.656	Pitch:	-3.606	Yaw:	-2.488	Thrust:	60.882
Time:	3.189	Roll Set Point:	0.009	Pitch Set Point:	0.035	Yaw Set Point:	-0.105	X_WP:	0.000	Y_WP:	0.000	Y_WP:	0.500	X:	-0.003	Y:	-0.018	Z:	0.139	yaw:	5.998	yaw rate:	-7.031	Roll:	-0.845	Pitch:	-2.772	Yaw:	7.815	Thrust:	60.352
Time:	3.200	Roll Set Point:	0.009	Pitch Set Point:	0.035	Yaw Set Point:	-0.105	X_WP:	0.000	Y_WP:	0.000	Y_WP:	0.500	X:	-0.003	Y:	-0.018	Z:	0.139	yaw:	5.998	yaw rate:	-7.031	Roll:	-0.157	Pitch:	-0.468	Yaw:	9.478	Thrust:	79.286
Time:	3.211	Roll Set Point:	0.009	Pitch Set Point:	0.037	Yaw Set Point:	-0.104	X_WP:	0.000	Y_WP:	0.000	Y_WP:	0.500	X:	-0.003	Y:	-0.019	Z:	0.143	yaw:	5.982	yaw rate:	-1.615	Roll:	-0.361	Pitch:	-1.894	Yaw:	9.068	Thrust:	66.543
Time:	3.222	Roll Set Point:	0.010	Pitch Set Point:	0.039	Yaw Set Point:	-0.097	X_WP:	0.000	Y_WP:	0.000	Y_WP:	0.500	X:	-0.004	Y:	-0.020	Z:	0.146	yaw:	5.535	yaw rate:	-44.725	Roll:	-0.753	Pitch:	-2.386	Yaw:	-1.759	Thrust:	67.414
Time:	3.233	Roll Set Point:	0.010	Pitch Set Point:	0.041	Yaw Set Point:	-0.099	X_WP:	0.000	Y_WP:	0.000	Y_WP:	0.500	X:	-0.004	Y:	-0.021	Z:	0.149	yaw:	5.655	yaw rate:	12.056	Roll:	-0.636	Pitch:	-1.971	Yaw:	11.842	Thrust:	67.492
Time:	3.244	Roll Set Point:	0.010	Pitch Set Point:	0.043	Yaw Set Point:	-0.098	X_WP:	0.000	Y_WP:	0.000	Y_WP:	0.500	X:	-0.004	Y:	-0.022	Z:	0.152	yaw:	5.628	yaw rate:	-2.695	Roll:	-0.519	Pitch:	-2.103	Yaw:	8.323	Thrust:	67.421
Time:	3.255	Roll Set Point:	0.011	Pitch Set Point:	0.046	Yaw Set Point:	-0.094	X_WP:	0.000	Y_WP:	0.000	Y_WP:	0.500	X:	-0.004	Y:	-0.023	Z:	0.157	yaw:	5.363	yaw rate:	-26.521	Roll:	-0.566	Pitch:	-2.807	Yaw:	2.275	Thrust:	60.302
Time:	3.266	Roll Set Point:	0.011	Pitch Set Point:	0.048	Yaw Set Point:	-0.093	X_WP:	0.000	Y_WP:	0.000	Y_WP:	0.500	X:	-0.005	Y:	-0.024	Z:	0.160	yaw:	5.326	yaw rate:	-3.653	Roll:	-0.777	Pitch:	-2.201	Yaw:	7.685	Thrust:	68.656
Time:	3.277	Roll Set Point:	0.012	Pitch Set Point:	0.050	Yaw Set Point:	-0.080	X_WP:	0.000	Y_WP:	0.000	Y_WP:	0.500	X:	-0.005	Y:	-0.025	Z:	0.163	yaw:	4.579	yaw rate:	-74.721	Roll:	-0.397	Pitch:	-2.500	Yaw:	-10.247	Thrust:	68.040
Time:	3.288	Roll Set Point:	0.012	Pitch Set Point:	0.051	Yaw Set Point:	-0.089	X_WP:	0.000	Y_WP:	0.000	Y_WP:	0.500	X:	-0.005	Y:	-0.026	Z:	0.167	yaw:	5.077	yaw rate:	49.803	Roll:	-0.816	Pitch:	-1.730	Yaw:	20.011	Thrust:	66.931
Time:	3.299	Roll Set Point:	0.013	Pitch Set Point:	0.054	Yaw Set Point:	-0.093	X_WP:	0.000	Y_WP:	0.000	Y_WP:	0.500	X:	-0.005	Y:	-0.027	Z:	0.172	yaw:	5.300	yaw rate:	22.315	Roll:	-1.041	Pitch:	-2.700	Yaw:	13.801	Thrust:	60.375
Time:	3.310	Roll Set Point:	0.014	Pitch Set Point:	0.056	Yaw Set Point:	-0.092	X_WP:	0.000	Y_WP:	0.000	Y_WP:	0.500	X:	-0.006	Y:	-0.028	Z:	0.176	yaw:	5.256	yaw rate:	-4.465	Roll:	-0.776	Pitch:	-2.039	Yaw:	7.382	Thrust:	67.653
Time:	3.321	Roll Set Point:	0.014	Pitch Set Point:	0.058	Yaw Set Point:	-0.079	X_WP:	0.000	Y_WP:	0.000	Y_WP:	0.500	X:	-0.006	Y:	-0.029	Z:	0.179	yaw:	4.542	yaw rate:	-71.384	Roll:	-0.418	Pitch:	-2.405	Yaw:	-9.496	Thrust:	67.167
Time:	3.332	Roll Set Point:	0.015	Pitch Set Point:	0.059	Yaw Set Point:	-0.084	X_WP:	0.000	Y_WP:	0.000	Y_WP:	0.500	X:	-0.006	Y:	-0.030	Z:	0.183	yaw:	4.822	yaw rate:	28.051	Roll:	-0.719	Pitch:	-1.840	Yaw:	14.497	Thrust:	67.204
Time:	3.343	Roll Set Point:	0.015	Pitch Set Point:	0.061	Yaw Set Point:	-0.081	X_WP:	0.000	Y_WP:	0.000	Y_WP:	0.500	X:	-0.006	Y:	-0.031	Z:	0.187	yaw:	4.625	yaw rate:	-19.733	Roll:	-0.448	Pitch:	-1.979	Yaw:	2.875	Thrust:	67.922
Time:	3.354	Roll Set Point:	0.016	Pitch Set Point:	0.063	Yaw Set Point:	-0.069	X_WP:	0.000	Y_WP:	0.000	Y_WP:	0.500	X:	-0.007	Y:	-0.032	Z:	0.192	yaw:	3.951	yaw rate:	-67.433	Roll:	-0.519	Pitch:	-3.059	Yaw:	-9.380	Thrust:	59.540
Time:	3.365	Roll Set Point:	0.016	Pitch Set Point:	0.064	Yaw Set Point:	-0.079	X_WP:	0.000	Y_WP:	0.000	Y_WP:	0.500	X:	-0.007	Y:	-0.032	Z:	0.196	yaw:	4.503	yaw rate:	55.262	Roll:	-1.051	Pitch:	-1.564	Yaw:	20.514	Thrust:	67.184
Time:	3.376	Roll Set Point:	0.016	Pitch Set Point:	0.066	Yaw Set Point:	-0.076	X_WP:	0.000	Y_WP:	0.000	Y_WP:	0.500	X:	-0.007	Y:	-0.033	Z:	0.200	yaw:	4.362	yaw rate:	-14.166	Roll:	-0.403	Pitch:	-1.933	Yaw:	3.833	Thrust:	67.467
Time:	3.387	Roll Set Point:	0.017	Pitch Set Point:	0.067	Yaw Set Point:	-0.074	X_WP:	0.000	Y_WP:	0.000	Y_WP:	0.500	X:	-0.007	Y:	-0.034	Z:	0.204	yaw:	4.221	yaw rate:	-14.037	Roll:	-0.642	Pitch:	-1.961	Yaw:	3.664	Thrust:	67.184
Time:	3.398	Roll Set Point:	0.017	Pitch Set Point:	0.069	Yaw Set Point:	-0.064	X_WP:	0.000	Y_WP:	0.000	Y_WP:	0.500	X:	-0.008	Y:	-0.035	Z:	0.208	yaw:	3.639	yaw rate:	-58.210	Roll:	-0.372	Pitch:	-2.437	Yaw:	-7.630	Thrust:	67.457
Time:	3.409	Roll Set Point:	0.018	Pitch Set Point:	0.070	Yaw Set Point:	-0.065	X_WP:	0.000	Y_WP:	0.000	Y_WP:	0.500	X:	-0.008	Y:	-0.035	Z:	0.214	yaw:	3.697	yaw rate:	5.817	Roll:	-0.885	Pitch:	-2.194	Yaw:	7.646	Thrust:	59.297
Time:	3.421	Roll Set Point:	0.018	Pitch Set Point:	0.071	Yaw Set Point:	-0.065	X_WP:	0.000	Y_WP:	0.000	Y_WP:	0.500	X:	-0.008	Y:	-0.036	Z:	0.218	yaw:	3.699	yaw rate:	0.159	Roll:	-0.702	Pitch:	-1.804	Yaw:	6.305	Thrust:	67.250
Time:	3.432	Roll Set Point:	0.019	Pitch Set Point:	0.073	Yaw Set Point:	-0.057	X_WP:	0.000	Y_WP:	0.000	Y_WP:	0.500	X:	-0.008	Y:	-0.037	Z:	0.222	yaw:	3.290	yaw rate:	-40.912	Roll:	-0.502	Pitch:	-2.202	Yaw:	-4.010	Thrust:	67.187
Time:	3.444	Roll Set Point:	0.019	Pitch Set Point:	0.073	Yaw Set Point:	-0.067	X_WP:	0.000	Y_WP:	0.000	Y_WP:	0.500	X:	-0.008	Y:	-0.037	Z:	0.226	yaw:	3.847	yaw rate:	55.682	Roll:	-0.806	Pitch:	-1.279	Yaw:	18.711	Thrust:	74.595
Time:	3.455	Roll Set Point:	0.020	Pitch Set Point:	0.075	Yaw Set Point:	-0.055	X_WP:	0.000	Y_WP:	0.000	Y_WP:	0.500	X:	-0.009	Y:	-0.038	Z:	0.230	yaw:	3.163	yaw rate:	-68.365	Roll:	-0.340	Pitch:	-2.223	Yaw:	-10.676	Thrust:	67.097
Time:	3.466	Roll Set Point:	0.020	Pitch Set Point:	0.076	Yaw Set Point:	-0.061	X_WP:	0.000	Y_WP:	0.000	Y_WP:	0.500	X:	-0.009	Y:	-0.038	Z:	0.236	yaw:	3.468	yaw rate:	30.531	Roll:	-0.986	Pitch:	-1.728	Yaw:	13.191	Thrust:	58.290
Time:	3.477	Roll Set Point:	0.020	Pitch Set Point:	0.077	Yaw Set Point:	-0.056	X_WP:	0.000	Y_WP:	0.000	Y_WP:	0.500	X:	-0.009	Y:	-0.039	Z:	0.240	yaw:	3.223	yaw rate:	-24.503	Roll:	-0.316	Pitch:	-1.932	Yaw:	-0.228	Thrust:	67.374
Time:	3.488	Roll Set Point:	0.021	Pitch Set Point:	0.077	Yaw Set Point:	-0.057	X_WP:	0.000	Y_WP:	0.000	Y_WP:	0.500	X:	-0.009	Y:	-0.039	Z:	0.245	yaw:	3.276	yaw rate:	5.277	Roll:	-0.804	Pitch:	-1.728	Yaw:	6.930	Thrust:	66.144
Time:	3.499	Roll Set Point:	0.021	Pitch Set Point:	0.079	Yaw Set Point:	-0.047	X_WP:	0.000	Y_WP:	0.000	Y_WP:	0.500	X:	-0.010	Y:	-0.040	Z:	0.254	yaw:	2.672	yaw rate:	-53.671	Roll:	-0.341	Pitch:	-2.355	Yaw:	-9.009	Thrust:	51.514
Time:	3.510	Roll Set Point:	0.022	Pitch Set Point:	0.080	Yaw Set Point:	-0.050	X_WP:	0.000	Y_WP:	0.000	Y_WP:	0.500	X:	-0.010	Y:	-0.040	Z:	0.260	yaw:	2.883	yaw rate:	21.080	Roll:	-0.898	Pitch:	-1.665	Yaw:	10.131	Thrust:	56.946
Time:	3.521	Roll Set Point:	0.022	Pitch Set Point:	0.080	Yaw Set Point:	-0.052	X_WP:	0.000	Y_WP:	0.000	Y_WP:	0.500	X:	-0.010	Y:	-0.040	Z:	0.265	yaw:	2.994	yaw rate:	11.119	Roll:	-0.613	Pitch:	-1.381	Yaw:	7.919	Thrust:	65.429
Time:	3.532	Roll Set Point:	0.022	Pitch Set Point:	0.081	Yaw Set Point:	-0.037	X_WP:	0.000	Y_WP:	0.000	Y_WP:	0.500	X:	-0.010	Y:	-0.041	Z:	0.270	yaw:	2.137	yaw rate:	-85.744	Roll:	0.208	Pitch:	-1.879	Yaw:	-16.267	Thrust:	64.981
Time:	3.543	Roll Set Point:	0.022	Pitch Set Point:	0.081	Yaw Set Point:	-0.034	X_WP:	0.000	Y_WP:	0.000	Y_WP:	0.500	X:	-0.010	Y:	-0.041	Z:	0.274	yaw:	1.967	yaw rate:	-16.920	Roll:	-0.314	Pitch:	-1.444	Yaw:	-0.162	Thrust:	65.311
Time:	3.554	Roll Set Point:	0.022	Pitch Set Point:	0.081	Yaw Set Point:	-0.042	X_WP:	0.000	Y_WP:	0.000	Y_WP:	0.500	X:	-0.010	Y:	-0.041	Z:	0.279	yaw:	2.406	yaw rate:	43.851	Roll:	-0.770	Pitch:	-1.117	Yaw:	14.797	Thrust:	65.774
Time:	3.565	Roll Set Point:	0.022	Pitch Set Point:	0.081	Yaw Set Point:	-0.041	X_WP:	0.000	Y_WP:	0.000	Y_WP:	0.500	X:	-0.010	Y:	-0.041	Z:	0.284	yaw:	2.352	yaw rate:	-5.396	Roll:	-0.262	Pitch:	-1.256	Yaw:	3.105	Thrust:	65.334
Time:	3.576	Roll Set Point:	0.023	Pitch Set Point:	0.082	Yaw Set Point:	-0.039	X_WP:	0.000	Y_WP:	0.000	Y_WP:	0.500	X:	-0.011	Y:	-0.041	Z:	0.290	yaw:	2.221	yaw rate:	-13.072	Roll:	-0.757	Pitch:	-1.631	Yaw:	1.103	Thrust:	56.900
Time:	3.587	Roll Set Point:	0.023	Pitch Set Point:	0.082	Yaw Set Point:	-0.036	X_WP:	0.000	Y_WP:	0.000	Y_WP:	0.500	X:	-0.011	Y:	-0.041	Z:	0.295	yaw:	2.064	yaw rate:	-15.747	Roll:	-0.363	Pitch:	-1.255	Yaw:	0.246	Thrust:	65.836
Time:	3.599	Roll Set Point:	0.022	Pitch Set Point:	0.082	Yaw Set Point:	-0.026	X_WP:	0.000	Y_WP:	0.000	Y_WP:	0.500	X:	-0.011	Y:	-0.041	Z:	0.300	yaw:	1.465	yaw rate:	-59.841	Roll:	0.245	Pitch:	-1.476	Yaw:	-9.803	Thrust:	73.114
Time:	3.611	Roll Set Point:	0.022	Pitch Set Point:	0.082	Yaw Set Point:	-0.023	X_WP:	0.000	Y_WP:	0.000	Y_WP:	0.500	X:	-0.011	Y:	-0.041	Z:	0.304	yaw:	1.344	yaw rate:	-12.094	Roll:	-0.363	Pitch:	-1.216	Yaw:	0.317	Thrust:	70.138
Time:	3.622	Roll Set Point:	0.023	Pitch Set Point:	0.082	Yaw Set Point:	-0.035	X_WP:	0.000	Y_WP:	0.000	Y_WP:	0.500	X:	-0.011	Y:	-0.041	Z:	0.309	yaw:	1.992	yaw rate:	64.808	Roll:	-0.932	Pitch:	-0.902	Yaw:	19.268	Thrust:	64.676
Time:	3.633	Roll Set Point:	0.022	Pitch Set Point:	0.082	Yaw Set Point:	-0.025	X_WP:	0.000	Y_WP:	0.000	Y_WP:	0.500	X:	-0.011	Y:	-0.041	Z:	0.314	yaw:	1.459	yaw rate:	-53.359	Roll:	0.306	Pitch:	-1.184	Yaw:	-9.526	Thrust:	64.922
Time:	3.644	Roll Set Point:	0.022	Pitch Set Point:	0.081	Yaw Set Point:	-0.031	X_WP:	0.000	Y_WP:	0.000	Y_WP:	0.500	X:	-0.011	Y:	-0.041	Z:	0.321	yaw:	1.779	yaw rate:	32.038	Roll:	-0.704	Pitch:	-0.838	Yaw:	11.191	Thrust:	55.048
Time:	3.655	Roll Set Point:	0.023	Pitch Set Point:	0.081	Yaw Set Point:	-0.029	X_WP:	0.000	Y_WP:	0.000	Y_WP:	0.500	X:	-0.011	Y:	-0.041	Z:	0.326	yaw:	1.663	yaw rate:	-11.594	Roll:	-0.472	Pitch:	-1.078	Yaw:	0.681	Thrust:	64.980
Time:	3.667	Roll Set Point:	0.022	Pitch Set Point:	0.081	Yaw Set Point:	-0.027	X_WP:	0.000	Y_WP:	0.000	Y_WP:	0.500	X:	-0.011	Y:	-0.040	Z:	0.331	yaw:	1.547	yaw rate:	-11.633	Roll:	0.012	Pitch:	-0.698	Yaw:	0.825	Thrust:	71.643
Time:	3.678	Roll Set Point:	0.022	Pitch Set Point:	0.080	Yaw Set Point:	-0.027	X_WP:	0.000	Y_WP:	0.000	Y_WP:	0.500	X:	-0.010	Y:	-0.040	Z:	0.338	yaw:	1.527	yaw rate:	-1.943	Roll:	-0.079	Pitch:	-0.585	Yaw:	2.777	Thrust:	54.349
Time:	3.689	Roll Set Point:	0.022	Pitch Set Point:	0.080	Yaw Set Point:	-0.017	X_WP:	0.000	Y_WP:	0.000	Y_WP:	0.500	X:	-0.011	Y:	-0.040	Z:	0.343	yaw:	0.962	yaw rate:	-56.543	Roll:	0.020	Pitch:	-1.163	Yaw:	-10.999	Thrust:	63.066
Time:	3.700	Roll Set Point:	0.022	Pitch Set Point:	0.079	Yaw Set Point:	-0.018	X_WP:	0.000	Y_WP:	0.000	Y_WP:	0.500	X:	-0.011	Y:	-0.040	Z:	0.348	yaw:	1.046	yaw rate:	8.405	Roll:	-0.401	Pitch:	-0.950	Yaw:	4.559	Thrust:	64.009
Time:	3.711	Roll Set Point:	0.022	Pitch Set Point:	0.078	Yaw Set Point:	-0.021	X_WP:	0.000	Y_WP:	0.000	Y_WP:	0.500	X:	-0.010	Y:	-0.039	Z:	0.353	yaw:	1.193	yaw rate:	14.730	Roll:	-0.197	Pitch:	-0.300	Yaw:	6.259	Thrust:	63.698
Time:	3.722	Roll Set Point:	0.021	Pitch Set Point:	0.078	Yaw Set Point:	-0.014	X_WP:	0.000	Y_WP:	0.000	Y_WP:	0.500	X:	-0.010	Y:	-0.039	Z:	0.358	yaw:	0.804	yaw rate:	-38.897	Roll:	-0.015	Pitch:	-1.069	Yaw:	-7.012	Thrust:	63.528
Time:	3.734	Roll Set Point:	0.021	Pitch Set Point:	0.077	Yaw Set Point:	-0.018	X_WP:	0.000	Y_WP:	0.000	Y_WP:	0.500	X:	-0.010	Y:	-0.039	Z:	0.363	yaw:	1.044	yaw rate:	23.974	Roll:	-0.257	Pitch:	-0.284	Yaw:	8.124	Thrust:	65.599
Time:	3.745	Roll Set Point:	0.021	Pitch Set Point:	0.077	Yaw Set Point:	-0.012	X_WP:	0.000	Y_WP:	0.000	Y_WP:	0.500	X:	-0.010	Y:	-0.038	Z:	0.370	yaw:	0.691	yaw rate:	-35.319	Roll:	0.302	Pitch:	-0.686	Yaw:	-6.299	Thrust:	52.346
Time:	3.756	Roll Set Point:	0.020	Pitch Set Point:	0.075	Yaw Set Point:	-0.018	X_WP:	0.000	Y_WP:	0.000	Y_WP:	0.500	X:	-0.010	Y:	-0.038	Z:	0.375	yaw:	1.022	yaw rate:	33.117	Roll:	-0.290	Pitch:	-0.041	Yaw:	10.389	Thrust:	62.648
Time:	3.767	Roll Set Point:	0.020	Pitch Set Point:	0.074	Yaw Set Point:	-0.019	X_WP:	0.000	Y_WP:	0.000	Y_WP:	0.500	X:	-0.010	Y:	-0.037	Z:	0.381	yaw:	1.070	yaw rate:	4.763	Roll:	-0.115	Pitch:	-0.273	Yaw:	3.727	Thrust:	62.071
Time:	3.779	Roll Set Point:	0.020	Pitch Set Point:	0.073	Yaw Set Point:	-0.021	X_WP:	0.000	Y_WP:	0.000	Y_WP:	0.500	X:	-0.010	Y:	-0.037	Z:	0.385	yaw:	1.213	yaw rate:	14.356	Roll:	-0.213	Pitch:	-0.461	Yaw:	6.020	Thrust:	72.082
Time:	3.791	Roll Set Point:	0.019	Pitch Set Point:	0.072	Yaw Set Point:	-0.017	X_WP:	0.000	Y_WP:	0.000	Y_WP:	0.500	X:	-0.009	Y:	-0.036	Z:	0.393	yaw:	0.997	yaw rate:	-21.611	Roll:	0.367	Pitch:	-0.027	Yaw:	-2.086	Thrust:	61.852
Time:	3.802	Roll Set Point:	0.019	Pitch Set Point:	0.071	Yaw Set Point:	-0.018	X_WP:	0.000	Y_WP:	0.000	Y_WP:	0.500	X:	-0.009	Y:	-0.036	Z:	0.398	yaw:	1.004	yaw rate:	0.686	Roll:	0.077	Pitch:	-0.589	Yaw:	2.668	Thrust:	61.661
Time:	3.813	Roll Set Point:	0.018	Pitch Set Point:	0.070	Yaw Set Point:	-0.015	X_WP:	0.000	Y_WP:	0.000	Y_WP:	0.500	X:	-0.009	Y:	-0.035	Z:	0.403	yaw:	0.881	yaw rate:	-12.348	Roll:	0.017	Pitch:	-0.099	Yaw:	-0.599	Thrust:	61.777
Time:	3.824	Roll Set Point:	0.018	Pitch Set Point:	0.069	Yaw Set Point:	-0.006	X_WP:	0.000	Y_WP:	0.000	Y_WP:	0.500	X:	-0.009	Y:	-0.035	Z:	0.408	yaw:	0.330	yaw rate:	-55.092	Roll:	0.440	Pitch:	-0.685	Yaw:	-11.513	Thrust:	61.622
Time:	3.835	Roll Set Point:	0.017	Pitch Set Point:	0.068	Yaw Set Point:	-0.013	X_WP:	0.000	Y_WP:	0.000	Y_WP:	0.500	X:	-0.008	Y:	-0.034	Z:	0.413	yaw:	0.740	yaw rate:	41.028	Roll:	-0.218	Pitch:	0.253	Yaw:	11.875	Thrust:	61.630
Time:	3.846	Roll Set Point:	0.016	Pitch Set Point:	0.066	Yaw Set Point:	-0.003	X_WP:	0.000	Y_WP:	0.000	Y_WP:	0.500	X:	-0.008	Y:	-0.033	Z:	0.421	yaw:	0.160	yaw rate:	-58.044	Roll:	0.966	Pitch:	0.127	Yaw:	-12.452	Thrust:	51.514
Time:	3.857	Roll Set Point:	0.016	Pitch Set Point:	0.065	Yaw Set Point:	-0.001	X_WP:	0.000	Y_WP:	0.000	Y_WP:	0.500	X:	-0.008	Y:	-0.033	Z:	0.426	yaw:	0.035	yaw rate:	-12.463	Roll:	0.136	Pitch:	-0.331	Yaw:	-1.807	Thrust:	60.802
Time:	3.868	Roll Set Point:	0.015	Pitch Set Point:	0.064	Yaw Set Point:	-0.006	X_WP:	0.000	Y_WP:	0.000	Y_WP:	0.500	X:	-0.008	Y:	-0.032	Z:	0.431	yaw:	0.358	yaw rate:	32.343	Roll:	-0.128	Pitch:	0.380	Yaw:	9.281	Thrust:	60.773
Time:	3.879	Roll Set Point:	0.014	Pitch Set Point:	0.063	Yaw Set Point:	-0.005	X_WP:	0.000	Y_WP:	0.000	Y_WP:	0.500	X:	-0.007	Y:	-0.031	Z:	0.436	yaw:	0.283	yaw rate:	-7.491	Roll:	0.573	Pitch:	-0.191	Yaw:	-0.279	Thrust:	61.017
Time:	3.890	Roll Set Point:	0.014	Pitch Set Point:	0.061	Yaw Set Point:	-0.004	X_WP:	0.000	Y_WP:	0.000	Y_WP:	0.500	X:	-0.007	Y:	-0.031	Z:	0.441	yaw:	0.244	yaw rate:	-3.934	Roll:	0.052	Pitch:	0.321	Yaw:	0.510	Thrust:	60.328
Time:	3.901	Roll Set Point:	0.013	Pitch Set Point:	0.060	Yaw Set Point:	0.003	X_WP:	0.000	Y_WP:	0.000	Y_WP:	0.500	X:	-0.007	Y:	-0.030	Z:	0.446	yaw:	-0.152	yaw rate:	-39.565	Roll:	0.611	Pitch:	-0.103	Yaw:	-8.499	Thrust:	60.586
Time:	3.912	Roll Set Point:	0.012	Pitch Set Point:	0.058	Yaw Set Point:	-0.005	X_WP:	0.000	Y_WP:	0.000	Y_WP:	0.500	X:	-0.006	Y:	-0.029	Z:	0.453	yaw:	0.292	yaw rate:	44.356	Roll:	0.340	Pitch:	1.057	Yaw:	12.021	Thrust:	50.819
Time:	3.923	Roll Set Point:	0.011	Pitch Set Point:	0.056	Yaw Set Point:	-0.002	X_WP:	0.000	Y_WP:	0.000	Y_WP:	0.500	X:	-0.006	Y:	-0.028	Z:	0.458	yaw:	0.116	yaw rate:	-17.617	Roll:	0.460	Pitch:	0.065	Yaw:	-2.928	Thrust:	60.012
Time:	3.934	Roll Set Point:	0.011	Pitch Set Point:	0.055	Yaw Set Point:	-0.005	X_WP:	0.000	Y_WP:	0.000	Y_WP:	0.500	X:	-0.005	Y:	-0.027	Z:	0.463	yaw:	0.297	yaw rate:	18.093	Roll:	0.374	Pitch:	0.314	Yaw:	5.812	Thrust:	61.192
Time:	3.945	Roll Set Point:	0.010	Pitch Set Point:	0.053	Yaw Set Point:	-0.002	X_WP:	0.000	Y_WP:	0.000	Y_WP:	0.500	X:	-0.005	Y:	-0.027	Z:	0.467	yaw:	0.137	yaw rate:	-15.943	Roll:	0.375	Pitch:	0.363	Yaw:	-2.490	Thrust:	60.297
Time:	3.956	Roll Set Point:	0.009	Pitch Set Point:	0.051	Yaw Set Point:	0.004	X_WP:	0.000	Y_WP:	0.000	Y_WP:	0.500	X:	-0.004	Y:	-0.026	Z:	0.474	yaw:	-0.222	yaw rate:	-35.915	Roll:	0.965	Pitch:	0.734	Yaw:	-7.731	Thrust:	51.187
Time:	3.967	Roll Set Point:	0.008	Pitch Set Point:	0.050	Yaw Set Point:	0.004	X_WP:	0.000	Y_WP:	0.000	Y_WP:	0.500	X:	-0.004	Y:	-0.025	Z:	0.479	yaw:	-0.216	yaw rate:	0.607	Roll:	0.172	Pitch:	0.213	Yaw:	0.945	Thrust:	60.713
Time:	3.978	Roll Set Point:	0.007	Pitch Set Point:	0.049	Yaw Set Point:	0.012	X_WP:	0.000	Y_WP:	0.000	Y_WP:	0.500	X:	-0.004	Y:	-0.024	Z:	0.484	yaw:	-0.702	yaw rate:	-48.604	Roll:	0.981	Pitch:	0.477	Yaw:	-11.416	Thrust:	59.882
Time:	3.989	Roll Set Point:	0.006	Pitch Set Point:	0.047	Yaw Set Point:	0.007	X_WP:	0.000	Y_WP:	0.000	Y_WP:	0.500	X:	-0.003	Y:	-0.023	Z:	0.488	yaw:	-0.381	yaw rate:	32.075	Roll:	0.319	Pitch:	0.717	Yaw:	8.180	Thrust:	60.982
Time:	4.001	Roll Set Point:	0.006	Pitch Set Point:	0.045	Yaw Set Point:	0.003	X_WP:	0.000	Y_WP:	0.000	Y_WP:	0.500	X:	-0.003	Y:	-0.023	Z:	0.493	yaw:	-0.196	yaw rate:	18.522	Roll:	0.423	Pitch:	0.567	Yaw:	5.179	Thrust:	61.945
Time:	4.012	Roll Set Point:	0.005	Pitch Set Point:	0.043	Yaw Set Point:	0.008	X_WP:	0.000	Y_WP:	0.000	Y_WP:	0.500	X:	-0.002	Y:	-0.021	Z:	0.499	yaw:	-0.462	yaw rate:	-26.637	Roll:	0.656	Pitch:	0.955	Yaw:	-5.856	Thrust:	52.685
Time:	4.023	Roll Set Point:	0.004	Pitch Set Point:	0.041	Yaw Set Point:	0.015	X_WP:	0.000	Y_WP:	0.000	Y_WP:	0.500	X:	-0.002	Y:	-0.021	Z:	0.503	yaw:	-0.839	yaw rate:	-37.637	Roll:	0.909	Pitch:	0.732	Yaw:	-9.030	Thrust:	60.888
Time:	4.034	Roll Set Point:	0.003	Pitch Set Point:	0.040	Yaw Set Point:	0.010	X_WP:	0.000	Y_WP:	0.000	Y_WP:	0.500	X:	-0.001	Y:	-0.020	Z:	0.507	yaw:	-0.586	yaw rate:	25.262	Roll:	0.590	Pitch:	0.660	Yaw:	6.257	Thrust:	60.732
Time:	4.045	Roll Set Point:	0.002	Pitch Set Point:	0.038	Yaw Set Point:	0.017	X_WP:	0.000	Y_WP:	0.000	Y_WP:	0.500	X:	-0.001	Y:	-0.019	Z:	0.511	yaw:	-0.964	yaw rate:	-37.815	Roll:	0.361	Pitch:	0.316	Yaw:	-9.233	Thrust:	61.089
Time:	4.056	Roll Set Point:	0.001	Pitch Set Point:	0.036	Yaw Set Point:	0.008	X_WP:	0.000	Y_WP:	0.000	Y_WP:	0.500	X:	-0.001	Y:	-0.018	Z:	0.515	yaw:	-0.470	yaw rate:	49.382	Roll:	0.811	Pitch:	0.993	Yaw:	12.176	Thrust:	61.081
Time:	4.067	Roll Set Point:	0.000	Pitch Set Point:	0.035	Yaw Set Point:	0.013	X_WP:	0.000	Y_WP:	0.000	Y_WP:	0.500	X:	-0.000	Y:	-0.017	Z:	0.519	yaw:	-0.740	yaw rate:	-26.980	Roll:	0.552	Pitch:	0.820	Yaw:	-6.354	Thrust:	61.122
Time:	4.078	Roll Set Point:	-0.001	Pitch Set Point:	0.032	Yaw Set Point:	0.016	X_WP:	0.000	Y_WP:	0.000	Y_WP:	0.500	X:	0.000	Y:	-0.016	Z:	0.525	yaw:	-0.890	yaw rate:	-14.947	Roll:	1.127	Pitch:	1.439	Yaw:	-3.701	Thrust:	53.208
Time:	4.089	Roll Set Point:	-0.002	Pitch Set Point:	0.031	Yaw Set Point:	0.023	X_WP:	0.000	Y_WP:	0.000	Y_WP:	0.500	X:	0.001	Y:	-0.015	Z:	0.529	yaw:	-1.322	yaw rate:	-43.221	Roll:	0.659	Pitch:	0.722	Yaw:	-11.025	Thrust:	61.589
Time:	4.100	Roll Set Point:	-0.003	Pitch Set Point:	0.029	Yaw Set Point:	0.016	X_WP:	0.000	Y_WP:	0.000	Y_WP:	0.500	X:	0.001	Y:	-0.014	Z:	0.532	yaw:	-0.891	yaw rate:	43.080	Roll:	0.920	Pitch:	1.053	Yaw:	10.049	Thrust:	61.253
Time:	4.111	Roll Set Point:	-0.004	Pitch Set Point:	0.027	Yaw Set Point:	0.016	X_WP:	0.000	Y_WP:	0.000	Y_WP:	0.500	X:	0.002	Y:	-0.013	Z:	0.536	yaw:	-0.910	yaw rate:	-1.880	Roll:	0.727	Pitch:	0.955	Yaw:	-0.649	Thrust:	60.800
Time:	4.122	Roll Set Point:	-0.005	Pitch Set Point:	0.025	Yaw Set Point:	0.015	X_WP:	0.000	Y_WP:	0.000	Y_WP:	0.500	X:	0.002	Y:	-0.013	Z:	0.540	yaw:	-0.871	yaw rate:	3.841	Roll:	0.729	Pitch:	0.885	Yaw:	0.761	Thrust:	61.872
Time:	4.133	Roll Set Point:	-0.006	Pitch Set Point:	0.024	Yaw Set Point:	0.027	X_WP:	0.000	Y_WP:	0.000	Y_WP:	0.500	X:	0.003	Y:	-0.012	Z:	0.543	yaw:	-1.565	yaw rate:	-69.418	Roll:	0.719	Pitch:	0.583	Yaw:	-17.602	Thrust:	60.536
Time:	4.144	Roll Set Point:	-0.007	Pitch Set Point:	0.021	Yaw Set Point:	0.028	X_WP:	0.000	Y_WP:	0.000	Y_WP:	0.500	X:	0.003	Y:	-0.011	Z:	0.548	yaw:	-1.576	yaw rate:	-1.022	Roll:	1.133	Pitch:	1.729	Yaw:	-1.390	Thrust:	55.104
Time:	4.155	Roll Set Point:	-0.008	Pitch Set Point:	0.019	Yaw Set Point:	0.023	X_WP:	0.000	Y_WP:	0.000	Y_WP:	0.500	X:	0.004	Y:	-0.010	Z:	0.552	yaw:	-1.320	yaw rate:	25.536	Roll:	0.784	Pitch:	1.197	Yaw:	5.268	Thrust:	60.460
Time:	4.166	Roll Set Point:	-0.009	Pitch Set Point:	0.017	Yaw Set Point:	0.022	X_WP:	0.000	Y_WP:	0.000	Y_WP:	0.500	X:	0.004	Y:	-0.009	Z:	0.555	yaw:	-1.266	yaw rate:	5.399	Roll:	0.815	Pitch:	1.099	Yaw:	0.558	Thrust:	61.431
Time:	4.177	Roll Set Point:	-0.010	Pitch Set Point:	0.016	Yaw Set Point:	0.027	X_WP:	0.000	Y_WP:	0.000	Y_WP:	0.500	X:	0.005	Y:	-0.008	Z:	0.558	yaw:	-1.525	yaw rate:	-25.880	Roll:	0.756	Pitch:	0.981	Yaw:	-7.214	Thrust:	61.618
Time:	4.188	Roll Set Point:	-0.011	Pitch Set Point:	0.013	Yaw Set Point:	0.022	X_WP:	0.000	Y_WP:	0.000	Y_WP:	0.500	X:	0.006	Y:	-0.007	Z:	0.563	yaw:	-1.276	yaw rate:	24.875	Roll:	1.175	Pitch:	1.963	Yaw:	5.157	Thrust:	54.346
Time:	4.199	Roll Set Point:	-0.012	Pitch Set Point:	0.011	Yaw Set Point:	0.021	X_WP:	0.000	Y_WP:	0.000	Y_WP:	0.500	X:	0.006	Y:	-0.006	Z:	0.566	yaw:	-1.206	yaw rate:	7.052	Roll:	0.986	Pitch:	1.150	Yaw:	1.021	Thrust:	61.437
Time:	4.210	Roll Set Point:	-0.013	Pitch Set Point:	0.010	Yaw Set Point:	0.029	X_WP:	0.000	Y_WP:	0.000	Y_WP:	0.500	X:	0.006	Y:	-0.005	Z:	0.569	yaw:	-1.642	yaw rate:	-43.620	Roll:	0.820	Pitch:	0.929	Yaw:	-11.623	Thrust:	60.568
Time:	4.221	Roll Set Point:	-0.014	Pitch Set Point:	0.008	Yaw Set Point:	0.023	X_WP:	0.000	Y_WP:	0.000	Y_WP:	0.500	X:	0.007	Y:	-0.004	Z:	0.572	yaw:	-1.298	yaw rate:	34.453	Roll:	0.710	Pitch:	1.132	Yaw:	7.369	Thrust:	61.789
Time:	4.232	Roll Set Point:	-0.015	Pitch Set Point:	0.007	Yaw Set Point:	0.034	X_WP:	0.000	Y_WP:	0.000	Y_WP:	0.500	X:	0.007	Y:	-0.003	Z:	0.575	yaw:	-1.929	yaw rate:	-63.164	Roll:	0.988	Pitch:	1.184	Yaw:	-16.676	Thrust:	61.553
Time:	4.243	Roll Set Point:	-0.016	Pitch Set Point:	0.005	Yaw Set Point:	0.027	X_WP:	0.000	Y_WP:	0.000	Y_WP:	0.500	X:	0.008	Y:	-0.003	Z:	0.578	yaw:	-1.525	yaw rate:	40.426	Roll:	0.857	Pitch:	1.127	Yaw:	8.421	Thrust:	61.518
Time:	4.255	Roll Set Point:	-0.017	Pitch Set Point:	0.002	Yaw Set Point:	0.022	X_WP:	0.000	Y_WP:	0.000	Y_WP:	0.500	X:	0.009	Y:	-0.001	Z:	0.582	yaw:	-1.251	yaw rate:	27.368	Roll:	1.372	Pitch:	1.809	Yaw:	5.668	Thrust:	56.602
Time:	4.266	Roll Set Point:	-0.018	Pitch Set Point:	0.001	Yaw Set Point:	0.031	X_WP:	0.000	Y_WP:	0.000	Y_WP:	0.500	X:	0.009	Y:	-0.001	Z:	0.585	yaw:	-1.797	yaw rate:	-54.542	Roll:	1.017	Pitch:	1.253	Yaw:	-14.460	Thrust:	60.852
Time:	4.277	Roll Set Point:	-0.019	Pitch Set Point:	-0.001	Yaw Set Point:	0.022	X_WP:	0.000	Y_WP:	0.000	Y_WP:	0.500	X:	0.010	Y:	0.000	Z:	0.588	yaw:	-1.270	yaw rate:	52.654	Roll:	0.883	Pitch:	1.244	Yaw:	11.711	Thrust:	61.418
Time:	4.288	Roll Set Point:	-0.020	Pitch Set Point:	-0.002	Yaw Set Point:	0.033	X_WP:	0.000	Y_WP:	0.000	Y_WP:	0.500	X:	0.010	Y:	0.001	Z:	0.590	yaw:	-1.908	yaw rate:	-63.787	Roll:	0.922	Pitch:	1.282	Yaw:	-16.824	Thrust:	60.893
Time:	4.299	Roll Set Point:	-0.021	Pitch Set Point:	-0.004	Yaw Set Point:	0.027	X_WP:	0.000	Y_WP:	0.000	Y_WP:	0.500	X:	0.011	Y:	0.002	Z:	0.593	yaw:	-1.554	yaw rate:	35.391	Roll:	1.165	Pitch:	1.389	Yaw:	7.207	Thrust:	60.832
Time:	4.310	Roll Set Point:	-0.023	Pitch Set Point:	-0.006	Yaw Set Point:	0.025	X_WP:	0.000	Y_WP:	0.000	Y_WP:	0.500	X:	0.011	Y:	0.003	Z:	0.597	yaw:	-1.405	yaw rate:	14.934	Roll:	1.323	Pitch:	1.695	Yaw:	2.547	Thrust:	56.290
Time:	4.321	Roll Set Point:	-0.023	Pitch Set Point:	-0.008	Yaw Set Point:	0.026	X_WP:	0.000	Y_WP:	0.000	Y_WP:	0.500	X:	0.012	Y:	0.004	Z:	0.599	yaw:	-1.493	yaw rate:	-8.838	Roll:	0.868	Pitch:	1.075	Yaw:	-3.226	Thrust:	60.508
Time:	4.332	Roll Set Point:	-0.024	Pitch Set Point:	-0.009	Yaw Set Point:	0.027	X_WP:	0.000	Y_WP:	0.000	Y_WP:	0.500	X:	0.012	Y:	0.005	Z:	0.601	yaw:	-1.533	yaw rate:	-4.035	Roll:	0.948	Pitch:	1.377	Yaw:	-2.144	Thrust:	61.035
Time:	4.343	Roll Set Point:	-0.025	Pitch Set Point:	-0.011	Yaw Set Point:	0.029	X_WP:	0.000	Y_WP:	0.000	Y_WP:	0.500	X:	0.013	Y:	0.005	Z:	0.604	yaw:	-1.685	yaw rate:	-15.153	Roll:	1.238	Pitch:	1.409	Yaw:	-4.997	Thrust:	60.558
Time:	4.354	Roll Set Point:	-0.026	Pitch Set Point:	-0.012	Yaw Set Point:	0.032	X_WP:	0.000	Y_WP:	0.000	Y_WP:	0.500	X:	0.013	Y:	0.006	Z:	0.606	yaw:	-1.835	yaw rate:	-14.998	Roll:	1.102	Pitch:	1.088	Yaw:	-4.976	Thrust:	64.141
Time:	4.365	Roll Set Point:	-0.027	Pitch Set Point:	-0.014	Yaw Set Point:	0.035	X_WP:	0.000	Y_WP:	0.000	Y_WP:	0.500	X:	0.014	Y:	0.007	Z:	0.610	yaw:	-2.025	yaw rate:	-19.044	Roll:	1.156	Pitch:	1.971	Yaw:	-6.400	Thrust:	56.062
Time:	4.376	Roll Set Point:	-0.029	Pitch Set Point:	-0.016	Yaw Set Point:	0.024	X_WP:	0.000	Y_WP:	0.000	Y_WP:	0.500	X:	0.014	Y:	0.008	Z:	0.612	yaw:	-1.353	yaw rate:	67.217	Roll:	1.332	Pitch:	1.007	Yaw:	15.024	Thrust:	60.463
Time:	4.387	Roll Set Point:	-0.030	Pitch Set Point:	-0.017	Yaw Set Point:	0.025	X_WP:	0.000	Y_WP:	0.000	Y_WP:	0.500	X:	0.015	Y:	0.008	Z:	0.614	yaw:	-1.447	yaw rate:	-9.327	Roll:	1.088	Pitch:	1.430	Yaw:	-3.300	Thrust:	60.701
Time:	4.398	Roll Set Point:	-0.030	Pitch Set Point:	-0.018	Yaw Set Point:	0.025	X_WP:	0.000	Y_WP:	0.000	Y_WP:	0.500	X:	0.015	Y:	0.009	Z:	0.616	yaw:	-1.454	yaw rate:	-0.783	Roll:	0.965	Pitch:	0.983	Yaw:	-1.297	Thrust:	59.991
Time:	4.409	Roll Set Point:	-0.031	Pitch Set Point:	-0.020	Yaw Set Point:	0.035	X_WP:	0.000	Y_WP:	0.000	Y_WP:	0.500	X:	0.016	Y:	0.010	Z:	0.619	yaw:	-1.977	yaw rate:	-52.287	Roll:	1.184	Pitch:	2.012	Yaw:	-14.248	Thrust:	56.549
Time:	4.420	Roll Set Point:	-0.033	Pitch Set Point:	-0.022	Yaw Set Point:	0.028	X_WP:	0.000	Y_WP:	0.000	Y_WP:	0.500	X:	0.016	Y:	0.011	Z:	0.621	yaw:	-1.588	yaw rate:	38.887	Roll:	1.415	Pitch:	1.283	Yaw:	7.940	Thrust:	59.509
Time:	4.432	Roll Set Point:	-0.033	Pitch Set Point:	-0.023	Yaw Set Point:	0.031	X_WP:	0.000	Y_WP:	0.000	Y_WP:	0.500	X:	0.017	Y:	0.011	Z:	0.623	yaw:	-1.767	yaw rate:	-17.866	Roll:	0.890	Pitch:	1.103	Yaw:	-5.807	Thrust:	60.746
Time:	4.443	Roll Set Point:	-0.035	Pitch Set Point:	-0.024	Yaw Set Point:	0.025	X_WP:	0.000	Y_WP:	0.000	Y_WP:	0.500	X:	0.017	Y:	0.012	Z:	0.625	yaw:	-1.422	yaw rate:	34.466	Roll:	1.585	Pitch:	1.391	Yaw:	7.088	Thrust:	59.886
Time:	4.454	Roll Set Point:	-0.035	Pitch Set Point:	-0.025	Yaw Set Point:	0.027	X_WP:	0.000	Y_WP:	0.000	Y_WP:	0.500	X:	0.018	Y:	0.012	Z:	0.627	yaw:	-1.537	yaw rate:	-11.429	Roll:	0.728	Pitch:	1.114	Yaw:	-3.961	Thrust:	60.216
Time:	4.465	Roll Set Point:	-0.036	Pitch Set Point:	-0.027	Yaw Set Point:	0.027	X_WP:	0.000	Y_WP:	0.000	Y_WP:	0.500	X:	0.018	Y:	0.013	Z:	0.630	yaw:	-1.556	yaw rate:	-1.935	Roll:	1.407	Pitch:	1.650	Yaw:	-1.749	Thrust:	56.825
Time:	4.476	Roll Set Point:	-0.037	Pitch Set Point:	-0.028	Yaw Set Point:	0.025	X_WP:	0.000	Y_WP:	0.000	Y_WP:	0.500	X:	0.019	Y:	0.014	Z:	0.631	yaw:	-1.444	yaw rate:	11.245	Roll:	1.152	Pitch:	1.222	Yaw:	1.531	Thrust:	59.624
Time:	4.487	Roll Set Point:	-0.037	Pitch Set Point:	-0.029	Yaw Set Point:	0.033	X_WP:	0.000	Y_WP:	0.000	Y_WP:	0.500	X:	0.019	Y:	0.014	Z:	0.633	yaw:	-1.899	yaw rate:	-45.501	Roll:	0.789	Pitch:	1.293	Yaw:	-12.580	Thrust:	59.913
Time:	4.498	Roll Set Point:	-0.039	Pitch Set Point:	-0.030	Yaw Set Point:	0.025	X_WP:	0.000	Y_WP:	0.000	Y_WP:	0.500	X:	0.020	Y:	0.015	Z:	0.635	yaw:	-1.408	yaw rate:	49.103	Roll:	1.627	Pitch:	1.329	Yaw:	10.532	Thrust:	60.404
Time:	4.509	Roll Set Point:	-0.039	Pitch Set Point:	-0.031	Yaw Set Point:	0.029	X_WP:	0.000	Y_WP:	0.000	Y_WP:	0.500	X:	0.020	Y:	0.015	Z:	0.636	yaw:	-1.672	yaw rate:	-26.455	Roll:	0.743	Pitch:	1.201	Yaw:	-7.770	Thrust:	59.825
Time:	4.520	Roll Set Point:	-0.040	Pitch Set Point:	-0.032	Yaw Set Point:	0.030	X_WP:	0.000	Y_WP:	0.000	Y_WP:	0.500	X:	0.020	Y:	0.016	Z:	0.638	yaw:	-1.741	yaw rate:	-6.913	Roll:	1.332	Pitch:	1.345	Yaw:	-3.220	Thrust:	56.943
Time:	4.531	Roll Set Point:	-0.041	Pitch Set Point:	-0.033	Yaw Set Point:	0.023	X_WP:	0.000	Y_WP:	0.000	Y_WP:	0.500	X:	0.021	Y:	0.016	Z:	0.640	yaw:	-1.292	yaw rate:	44.963	Roll:	1.630	Pitch:	0.994	Yaw:	9.716	Thrust:	60.037
Time:	4.542	Roll Set Point:	-0.042	Pitch Set Point:	-0.034	Yaw Set Point:	0.021	X_WP:	0.000	Y_WP:	0.000	Y_WP:	0.500	X:	0.021	Y:	0.017	Z:	0.641	yaw:	-1.202	yaw rate:	8.945	Roll:	0.874	Pitch:	1.136	Yaw:	1.286	Thrust:	59.510
Time:	4.553	Roll Set Point:	-0.042	Pitch Set Point:	-0.035	Yaw Set Point:	0.026	X_WP:	0.000	Y_WP:	0.000	Y_WP:	0.500	X:	0.021	Y:	0.017	Z:	0.642	yaw:	-1.495	yaw rate:	-29.315	Roll:	0.910	Pitch:	1.431	Yaw:	-8.209	Thrust:	60.346
Time:	4.564	Roll Set Point:	-0.043	Pitch Set Point:	-0.036	Yaw Set Point:	0.023	X_WP:	0.000	Y_WP:	0.000	Y_WP:	0.500	X:	0.022	Y:	0.018	Z:	0.644	yaw:	-1.301	yaw rate:	19.394	Roll:	1.234	Pitch:	1.229	Yaw:	3.617	Thrust:	58.169
Time:	4.575	Roll Set Point:	-0.044	Pitch Set Point:	-0.037	Yaw Set Point:	0.022	X_WP:	0.000	Y_WP:	0.000	Y_WP:	0.500	X:	0.022	Y:	0.018	Z:	0.645	yaw:	-1.274	yaw rate:	2.780	Roll:	1.128	Pitch:	1.091	Yaw:	-0.293	Thrust:	59.634
Time:	4.587	Roll Set Point:	-0.045	Pitch Set Point:	-0.039	Yaw Set Point:	0.029	X_WP:	0.000	Y_WP:	0.000	Y_WP:	0.500	X:	0.023	Y:	0.019	Z:	0.647	yaw:	-1.689	yaw rate:	-46.542	Roll:	1.253	Pitch:	1.907	Yaw:	-10.886	Thrust:	60.216
Time:	4.598	Roll Set Point:	-0.045	Pitch Set Point:	-0.039	Yaw Set Point:	0.029	X_WP:	0.000	Y_WP:	0.000	Y_WP:	0.500	X:	0.023	Y:	0.019	Z:	0.647	yaw:	-1.689	yaw rate:	-46.542	Roll:	0.629	Pitch:	0.536	Yaw:	-1.544	Thrust:	64.127
Time:	4.609	Roll Set Point:	-0.045	Pitch Set Point:	-0.039	Yaw Set Point:	0.028	X_WP:	0.000	Y_WP:	0.000	Y_WP:	0.500	X:	0.023	Y:	0.019	Z:	0.648	yaw:	-1.622	yaw rate:	6.718	Roll:	0.946	Pitch:	0.870	Yaw:	0.138	Thrust:	59.658
Time:	4.620	Roll Set Point:	-0.046	Pitch Set Point:	-0.040	Yaw Set Point:	0.024	X_WP:	0.000	Y_WP:	0.000	Y_WP:	0.500	X:	0.023	Y:	0.020	Z:	0.650	yaw:	-1.403	yaw rate:	21.849	Roll:	1.834	Pitch:	1.381	Yaw:	4.028	Thrust:	57.818
Time:	4.631	Roll Set Point:	-0.046	Pitch Set Point:	-0.041	Yaw Set Point:	0.033	X_WP:	0.000	Y_WP:	0.000	Y_WP:	0.500	X:	0.023	Y:	0.020	Z:	0.650	yaw:	-1.879	yaw rate:	-47.555	Roll:	0.232	Pitch:	0.979	Yaw:	-13.115	Thrust:	60.576
Time:	4.642	Roll Set Point:	-0.047	Pitch Set Point:	-0.042	Yaw Set Point:	0.029	X_WP:	0.000	Y_WP:	0.000	Y_WP:	0.500	X:	0.024	Y:	0.020	Z:	0.651	yaw:	-1.677	yaw rate:	20.157	Roll:	1.380	Pitch:	1.234	Yaw:	3.231	Thrust:	60.070
Time:	4.654	Roll Set Point:	-0.048	Pitch Set Point:	-0.042	Yaw Set Point:	0.022	X_WP:	0.000	Y_WP:	0.000	Y_WP:	0.500	X:	0.024	Y:	0.021	Z:	0.652	yaw:	-1.253	yaw rate:	32.753	Roll:	1.325	Pitch:	0.862	Yaw:	8.423	Thrust:	63.497
Time:	4.665	Roll Set Point:	-0.048	Pitch Set Point:	-0.042	Yaw Set Point:	0.022	X_WP:	0.000	Y_WP:	0.000	Y_WP:	0.500	X:	0.024	Y:	0.021	Z:	0.652	yaw:	-1.253	yaw rate:	32.753	Roll:	0.680	Pitch:	0.586	Yaw:	-0.974	Thrust:	62.495
Time:	4.676	Roll Set Point:	-0.049	Pitch Set Point:	-0.043	Yaw Set Point:	0.024	X_WP:	0.000	Y_WP:	0.000	Y_WP:	0.500	X:	0.025	Y:	0.021	Z:	0.653	yaw:	-1.378	yaw rate:	-12.456	Roll:	1.392	Pitch:	1.505	Yaw:	-4.108	Thrust:	58.513
Time:	4.687	Roll Set Point:	-0.049	Pitch Set Point:	-0.044	Yaw Set Point:	0.027	X_WP:	0.000	Y_WP:	0.000	Y_WP:	0.500	X:	0.025	Y:	0.021	Z:	0.654	yaw:	-1.564	yaw rate:	-18.586	Roll:	0.631	Pitch:	0.973	Yaw:	-5.828	Thrust:	60.253
Time:	4.698	Roll Set Point:	-0.049	Pitch Set Point:	-0.044	Yaw Set Point:	0.038	X_WP:	0.000	Y_WP:	0.000	Y_WP:	0.500	X:	0.025	Y:	0.022	Z:	0.654	yaw:	-2.153	yaw rate:	-58.922	Roll:	0.606	Pitch:	1.169	Yaw:	-16.231	Thrust:	60.005
Time:	4.709	Roll Set Point:	-0.049	Pitch Set Point:	-0.044	Yaw Set Point:	0.036	X_WP:	0.000	Y_WP:	0.000	Y_WP:	0.500	X:	0.025	Y:	0.022	Z:	0.655	yaw:	-2.084	yaw rate:	6.911	Roll:	0.840	Pitch:	0.902	Yaw:	-0.516	Thrust:	59.518
Time:	4.720	Roll Set Point:	-0.050	Pitch Set Point:	-0.045	Yaw Set Point:	0.026	X_WP:	0.000	Y_WP:	0.000	Y_WP:	0.500	X:	0.025	Y:	0.022	Z:	0.656	yaw:	-1.501	yaw rate:	58.290	Roll:	1.756	Pitch:	0.865	Yaw:	12.459	Thrust:	58.775
Time:	4.731	Roll Set Point:	-0.050	Pitch Set Point:	-0.045	Yaw Set Point:	0.025	X_WP:	0.000	Y_WP:	0.000	Y_WP:	0.500	X:	0.025	Y:	0.022	Z:	0.656	yaw:	-1.414	yaw rate:	8.692	Roll:	0.891	Pitch:	0.782	Yaw:	0.829	Thrust:	60.398
Time:	4.742	Roll Set Point:	-0.050	Pitch Set Point:	-0.046	Yaw Set Point:	0.029	X_WP:	0.000	Y_WP:	0.000	Y_WP:	0.500	X:	0.025	Y:	0.022	Z:	0.656	yaw:	-1.686	yaw rate:	-27.185	Roll:	0.523	Pitch:	1.010	Yaw:	-8.084	Thrust:	59.428
Time:	4.753	Roll Set Point:	-0.050	Pitch Set Point:	-0.046	Yaw Set Point:	0.030	X_WP:	0.000	Y_WP:	0.000	Y_WP:	0.500	X:	0.025	Y:	0.022	Z:	0.656	yaw:	-1.733	yaw rate:	-4.768	Roll:	0.823	Pitch:	0.812	Yaw:	-2.821	Thrust:	59.984
Time:	4.764	Roll Set Point:	-0.051	Pitch Set Point:	-0.046	Yaw Set Point:	0.030	X_WP:	0.000	Y_WP:	0.000	Y_WP:	0.500	X:	0.026	Y:	0.023	Z:	0.657	yaw:	-1.721	yaw rate:	1.196	Roll:	0.976	Pitch:	0.728	Yaw:	-1.399	Thrust:	59.777
Time:	4.775	Roll Set Point:	-0.052	Pitch Set Point:	-0.046	Yaw Set Point:	0.021	X_WP:	0.000	Y_WP:	0.000	Y_WP:	0.500	X:	0.026	Y:	0.023	Z:	0.657	yaw:	-1.193	yaw rate:	52.828	Roll:	1.667	Pitch:	0.609	Yaw:	11.608	Thrust:	59.508
Time:	4.786	Roll Set Point:	-0.051	Pitch Set Point:	-0.046	Yaw Set Point:	0.026	X_WP:	0.000	Y_WP:	0.000	Y_WP:	0.500	X:	0.026	Y:	0.023	Z:	0.657	yaw:	-1.508	yaw rate:	-31.472	Roll:	0.505	Pitch:	0.948	Yaw:	-8.846	Thrust:	59.737
Time:	4.797	Roll Set Point:	-0.051	Pitch Set Point:	-0.046	Yaw Set Point:	0.027	X_WP:	0.000	Y_WP:	0.000	Y_WP:	0.500	X:	0.026	Y:	0.023	Z:	0.657	yaw:	-1.561	yaw rate:	-5.356	Roll:	0.676	Pitch:	0.688	Yaw:	-2.753	Thrust:	59.447
Time:	4.808	Roll Set Point:	-0.051	Pitch Set Point:	-0.047	Yaw Set Point:	0.031	X_WP:	0.000	Y_WP:	0.000	Y_WP:	0.500	X:	0.026	Y:	0.023	Z:	0.657	yaw:	-1.768	yaw rate:	-20.701	Roll:	0.722	Pitch:	1.064	Yaw:	-6.685	Thrust:	59.857
Time:	4.819	Roll Set Point:	-0.052	Pitch Set Point:	-0.047	Yaw Set Point:	0.027	X_WP:	0.000	Y_WP:	0.000	Y_WP:	0.500	X:	0.026	Y:	0.023	Z:	0.657	yaw:	-1.523	yaw rate:	24.493	Roll:	1.184	Pitch:	0.611	Yaw:	4.378	Thrust:	59.831
Time:	4.830	Roll Set Point:	-0.052	Pitch Set Point:	-0.047	Yaw Set Point:	0.026	X_WP:	0.000	Y_WP:	0.000	Y_WP:	0.500	X:	0.026	Y:	0.023	Z:	0.657	yaw:	-1.515	yaw rate:	0.822	Roll:	0.958	Pitch:	0.737	Yaw:	-1.236	Thrust:	59.960
Time:	4.841	Roll Set Point:	-0.052	Pitch Set Point:	-0.047	Yaw Set Point:	0.030	X_WP:	0.000	Y_WP:	0.000	Y_WP:	0.500	X:	0.026	Y:	0.023	Z:	0.656	yaw:	-1.721	yaw rate:	-20.604	Roll:	0.320	Pitch:	0.618	Yaw:	-6.615	Thrust:	60.111
Time:	4.852	Roll Set Point:	-0.051	Pitch Set Point:	-0.047	Yaw Set Point:	0.040	X_WP:	0.000	Y_WP:	0.000	Y_WP:	0.500	X:	0.026	Y:	0.023	Z:	0.656	yaw:	-2.281	yaw rate:	-55.928	Roll:	0.277	Pitch:	0.823	Yaw:	-15.763	Thrust:	61.012
Time:	4.863	Roll Set Point:	-0.052	Pitch Set Point:	-0.047	Yaw Set Point:	0.027	X_WP:	0.000	Y_WP:	0.000	Y_WP:	0.500	X:	0.026	Y:	0.023	Z:	0.656	yaw:	-1.567	yaw rate:	71.330	Roll:	1.659	Pitch:	0.447	Yaw:	15.427	Thrust:	60.221
Time:	4.874	Roll Set Point:	-0.052	Pitch Set Point:	-0.047	Yaw Set Point:	0.031	X_WP:	0.000	Y_WP:	0.000	Y_WP:	0.500	X:	0.027	Y:	0.023	Z:	0.655	yaw:	-1.800	yaw rate:	-23.303	Roll:	0.860	Pitch:	0.968	Yaw:	-7.398	Thrust:	60.279
Time:	4.887	Roll Set Point:	-0.052	Pitch Set Point:	-0.047	Yaw Set Point:	0.032	X_WP:	0.000	Y_WP:	0.000	Y_WP:	0.500	X:	0.026	Y:	0.023	Z:	0.655	yaw:	-1.862	yaw rate:	-6.162	Roll:	0.539	Pitch:	0.545	Yaw:	-3.230	Thrust:	65.768
Time:	4.900	Roll Set Point:	-0.052	Pitch Set Point:	-0.046	Yaw Set Point:	0.030	X_WP:	0.000	Y_WP:	0.000	Y_WP:	0.500	X:	0.026	Y:	0.023	Z:	0.654	yaw:	-1.693	yaw rate:	22.136	Roll:	0.846	Pitch:	0.301	Yaw:	1.612	Thrust:	79.931
Time:	4.914	Roll Set Point:	-0.052	Pitch Set Point:	-0.046	Yaw Set Point:	0.029	X_WP:	0.000	Y_WP:	0.000	Y_WP:	0.500	X:	0.027	Y:	0.023	Z:	0.653	yaw:	-1.653	yaw rate:	4.002	Roll:	0.879	Pitch:	0.735	Yaw:	-0.751	Thrust:	78.495
Time:	4.928	Roll Set Point:	-0.053	Pitch Set Point:	-0.046	Yaw Set Point:	0.029	X_WP:	0.000	Y_WP:	0.000	Y_WP:	0.500	X:	0.027	Y:	0.023	Z:	0.652	yaw:	-1.648	yaw rate:	0.494	Roll:	0.823	Pitch:	0.532	Yaw:	-1.405	Thrust:	79.334
Time:	4.941	Roll Set Point:	-0.052	Pitch Set Point:	-0.046	Yaw Set Point:	0.029	X_WP:	0.000	Y_WP:	0.000	Y_WP:	0.500	X:	0.026	Y:	0.023	Z:	0.651	yaw:	-1.649	yaw rate:	-0.171	Roll:	0.595	Pitch:	0.527	Yaw:	-1.602	Thrust:	72.179
Time:	4.952	Roll Set Point:	-0.053	Pitch Set Point:	-0.046	Yaw Set Point:	0.028	X_WP:	0.000	Y_WP:	0.000	Y_WP:	0.500	X:	0.027	Y:	0.023	Z:	0.651	yaw:	-1.622	yaw rate:	2.696	Roll:	1.124	Pitch:	0.595	Yaw:	-1.008	Thrust:	60.284
Time:	4.963	Roll Set Point:	-0.053	Pitch Set Point:	-0.046	Yaw Set Point:	0.027	X_WP:	0.000	Y_WP:	0.000	Y_WP:	0.500	X:	0.027	Y:	0.023	Z:	0.650	yaw:	-1.569	yaw rate:	5.303	Roll:	0.956	Pitch:	0.589	Yaw:	-0.320	Thrust:	60.543
Time:	4.974	Roll Set Point:	-0.052	Pitch Set Point:	-0.045	Yaw Set Point:	0.034	X_WP:	0.000	Y_WP:	0.000	Y_WP:	0.500	X:	0.027	Y:	0.022	Z:	0.649	yaw:	-1.957	yaw rate:	-38.807	Roll:	0.166	Pitch:	0.409	Yaw:	-11.319	Thrust:	61.186
Time:	4.986	Roll Set Point:	-0.052	Pitch Set Point:	-0.045	Yaw Set Point:	0.033	X_WP:	0.000	Y_WP:	0.000	Y_WP:	0.500	X:	0.026	Y:	0.022	Z:	0.648	yaw:	-1.879	yaw rate:	7.864	Roll:	0.591	Pitch:	0.201	Yaw:	-0.258	Thrust:	65.190
Time:	4.997	Roll Set Point:	-0.052	Pitch Set Point:	-0.045	Yaw Set Point:	0.030	X_WP:	0.000	Y_WP:	0.000	Y_WP:	0.500	X:	0.027	Y:	0.022	Z:	0.648	yaw:	-1.705	yaw rate:	17.373	Roll:	1.065	Pitch:	0.456	Yaw:	2.326	Thrust:	58.385
Time:	5.008	Roll Set Point:	-0.052	Pitch Set Point:	-0.044	Yaw Set Point:	0.027	X_WP:	0.000	Y_WP:	0.000	Y_WP:	0.500	X:	0.026	Y:	0.022	Z:	0.648	yaw:	-1.546	yaw rate:	15.867	Roll:	0.803	Pitch:	0.201	Yaw:	2.199	Thrust:	58.609
