Time:	2.111	Roll Set Point:	-0.234	Pitch Set Point:	-0.122	Yaw Set Point:	-0.579	X_WP:	0.000	Y_WP:	0.000	Y_WP:	0.500	X:	0.099	Y:	0.096	Z:	0.399	yaw:	33.154	yaw rate:	10.668	Roll:	3.923	Pitch:	0.751	Yaw:	46.292	Thrust:	5.580
Time:	2.127	Roll Set Point:	-0.234	Pitch Set Point:	-0.122	Yaw Set Point:	-0.577	X_WP:	0.000	Y_WP:	0.000	Y_WP:	0.500	X:	0.099	Y:	0.096	Z:	0.399	yaw:	33.084	yaw rate:	-7.036	Roll:	3.941	Pitch:	0.850	Yaw:	45.281	Thrust:	5.764
Time:	2.143	Roll Set Point:	-0.234	Pitch Set Point:	-0.122	Yaw Set Point:	-0.577	X_WP:	0.000	Y_WP:	0.000	Y_WP:	0.500	X:	0.099	Y:	0.096	Z:	0.399	yaw:	33.053	yaw rate:	-4.571	Roll:	3.937	Pitch:	0.813	Yaw:	45.998	Thrust:	6.022
Time:	2.159	Roll Set Point:	-0.234	Pitch Set Point:	-0.122	Yaw Set Point:	-0.577	X_WP:	0.000	Y_WP:	0.000	Y_WP:	0.500	X:	0.099	Y:	0.096	Z:	0.399	yaw:	33.054	yaw rate:	0.114	Roll:	3.928	Pitch:	0.709	Yaw:	46.713	Thrust:	6.089
Time:	2.174	Roll Set Point:	-0.234	Pitch Set Point:	-0.122	Yaw Set Point:	-0.578	X_WP:	0.000	Y_WP:	0.000	Y_WP:	0.500	X:	0.099	Y:	0.096	Z:	0.398	yaw:	33.116	yaw rate:	6.216	Roll:	3.985	Pitch:	0.696	Yaw:	48.003	Thrust:	6.524
Time:	2.190	Roll Set Point:	-0.234	Pitch Set Point:	-0.122	Yaw Set Point:	-0.578	X_WP:	0.000	Y_WP:	0.000	Y_WP:	0.500	X:	0.099	Y:	0.096	Z:	0.399	yaw:	33.105	yaw rate:	-1.103	Roll:	3.959	Pitch:	0.801	Yaw:	46.941	Thrust:	6.397
Time:	2.206	Roll Set Point:	-0.234	Pitch Set Point:	-0.122	Yaw Set Point:	-0.579	X_WP:	0.000	Y_WP:	0.000	Y_WP:	0.500	X:	0.099	Y:	0.096	Z:	0.399	yaw:	33.170	yaw rate:	6.468	Roll:	3.920	Pitch:	0.662	Yaw:	48.481	Thrust:	6.614
Time:	2.221	Roll Set Point:	-0.234	Pitch Set Point:	-0.121	Yaw Set Point:	-0.579	X_WP:	0.000	Y_WP:	0.000	Y_WP:	0.500	X:	0.099	Y:	0.096	Z:	0.399	yaw:	33.156	yaw rate:	-1.410	Roll:	3.953	Pitch:	0.676	Yaw:	47.322	Thrust:	6.742
Time:	2.237	Roll Set Point:	-0.234	Pitch Set Point:	-0.122	Yaw Set Point:	-0.578	X_WP:	0.000	Y_WP:	0.000	Y_WP:	0.500	X:	0.099	Y:	0.096	Z:	0.399	yaw:	33.091	yaw rate:	-6.458	Roll:	3.985	Pitch:	0.943	Yaw:	46.567	Thrust:	7.398
Time:	2.252	Roll Set Point:	-0.234	Pitch Set Point:	-0.122	Yaw Set Point:	-0.578	X_WP:	0.000	Y_WP:	0.000	Y_WP:	0.500	X:	0.099	Y:	0.096	Z:	0.399	yaw:	33.091	yaw rate:	-6.458	Roll:	3.971	Pitch:	0.763	Yaw:	47.770	Thrust:	7.296
Time:	2.268	Roll Set Point:	-0.234	Pitch Set Point:	-0.122	Yaw Set Point:	-0.577	X_WP:	0.000	Y_WP:	0.000	Y_WP:	0.500	X:	0.099	Y:	0.096	Z:	0.399	yaw:	33.087	yaw rate:	1.145	Roll:	3.969	Pitch:	0.770	Yaw:	47.678	Thrust:	7.473
Time:	2.284	Roll Set Point:	-0.234	Pitch Set Point:	-0.122	Yaw Set Point:	-0.577	X_WP:	0.000	Y_WP:	0.000	Y_WP:	0.500	X:	0.099	Y:	0.096	Z:	0.399	yaw:	33.073	yaw rate:	-1.332	Roll:	3.969	Pitch:	0.756	Yaw:	47.519	Thrust:	7.657
Time:	2.299	Roll Set Point:	-0.234	Pitch Set Point:	-0.122	Yaw Set Point:	-0.578	X_WP:	0.000	Y_WP:	0.000	Y_WP:	0.500	X:	0.099	Y:	0.096	Z:	0.399	yaw:	33.089	yaw rate:	1.598	Roll:	4.009	Pitch:	0.728	Yaw:	48.032	Thrust:	7.846
Time:	2.315	Roll Set Point:	-0.234	Pitch Set Point:	-0.122	Yaw Set Point:	-0.578	X_WP:	0.000	Y_WP:	0.000	Y_WP:	0.500	X:	0.099	Y:	0.096	Z:	0.399	yaw:	33.089	yaw rate:	1.598	Roll:	3.992	Pitch:	0.766	Yaw:	47.765	Thrust:	8.053
Time:	2.331	Roll Set Point:	-0.234	Pitch Set Point:	-0.122	Yaw Set Point:	-0.577	X_WP:	0.000	Y_WP:	0.000	Y_WP:	0.500	X:	0.099	Y:	0.096	Z:	0.399	yaw:	33.084	yaw rate:	-0.444	Roll:	3.993	Pitch:	0.832	Yaw:	47.675	Thrust:	8.308
Time:	2.346	Roll Set Point:	-0.234	Pitch Set Point:	-0.122	Yaw Set Point:	-0.577	X_WP:	0.000	Y_WP:	0.000	Y_WP:	0.500	X:	0.099	Y:	0.096	Z:	0.399	yaw:	33.073	yaw rate:	-1.105	Roll:	3.975	Pitch:	0.738	Yaw:	47.557	Thrust:	8.304
Time:	2.362	Roll Set Point:	-0.234	Pitch Set Point:	-0.122	Yaw Set Point:	-0.577	X_WP:	0.000	Y_WP:	0.000	Y_WP:	0.500	X:	0.099	Y:	0.096	Z:	0.399	yaw:	33.073	yaw rate:	-1.105	Roll:	4.007	Pitch:	0.770	Yaw:	47.742	Thrust:	8.623
Time:	2.377	Roll Set Point:	-0.234	Pitch Set Point:	-0.122	Yaw Set Point:	-0.578	X_WP:	0.000	Y_WP:	0.000	Y_WP:	0.500	X:	0.099	Y:	0.096	Z:	0.398	yaw:	33.104	yaw rate:	3.050	Roll:	4.042	Pitch:	0.748	Yaw:	48.295	Thrust:	9.032
Time:	2.393	Roll Set Point:	-0.234	Pitch Set Point:	-0.122	Yaw Set Point:	-0.578	X_WP:	0.000	Y_WP:	0.000	Y_WP:	0.500	X:	0.099	Y:	0.096	Z:	0.399	yaw:	33.095	yaw rate:	1.533	Roll:	4.018	Pitch:	0.772	Yaw:	47.618	Thrust:	8.952
Time:	2.409	Roll Set Point:	-0.234	Pitch Set Point:	-0.122	Yaw Set Point:	-0.578	X_WP:	0.000	Y_WP:	0.000	Y_WP:	0.500	X:	0.099	Y:	0.096	Z:	0.399	yaw:	33.089	yaw rate:	-0.549	Roll:	4.007	Pitch:	0.796	Yaw:	47.672	Thrust:	9.203
Time:	2.424	Roll Set Point:	-0.234	Pitch Set Point:	-0.122	Yaw Set Point:	-0.577	X_WP:	0.000	Y_WP:	0.000	Y_WP:	0.500	X:	0.099	Y:	0.096	Z:	0.399	yaw:	33.079	yaw rate:	-1.047	Roll:	4.034	Pitch:	0.751	Yaw:	47.574	Thrust:	9.202
Time:	2.440	Roll Set Point:	-0.234	Pitch Set Point:	-0.122	Yaw Set Point:	-0.578	X_WP:	0.000	Y_WP:	0.000	Y_WP:	0.500	X:	0.099	Y:	0.096	Z:	0.398	yaw:	33.097	yaw rate:	1.863	Roll:	4.058	Pitch:	0.823	Yaw:	48.088	Thrust:	9.808
Time:	2.456	Roll Set Point:	-0.234	Pitch Set Point:	-0.122	Yaw Set Point:	-0.578	X_WP:	0.000	Y_WP:	0.000	Y_WP:	0.500	X:	0.099	Y:	0.096	Z:	0.398	yaw:	33.097	yaw rate:	1.863	Roll:	4.040	Pitch:	0.777	Yaw:	47.775	Thrust:	9.768
Time:	2.471	Roll Set Point:	-0.234	Pitch Set Point:	-0.122	Yaw Set Point:	-0.578	X_WP:	0.000	Y_WP:	0.000	Y_WP:	0.500	X:	0.099	Y:	0.096	Z:	0.399	yaw:	33.112	yaw rate:	2.330	Roll:	4.017	Pitch:	0.712	Yaw:	48.034	Thrust:	9.895
Time:	2.487	Roll Set Point:	-0.235	Pitch Set Point:	-0.122	Yaw Set Point:	-0.578	X_WP:	0.000	Y_WP:	0.000	Y_WP:	0.500	X:	0.099	Y:	0.096	Z:	0.399	yaw:	33.114	yaw rate:	0.244	Roll:	4.094	Pitch:	0.719	Yaw:	47.840	Thrust:	10.087
Time:	2.502	Roll Set Point:	-0.234	Pitch Set Point:	-0.122	Yaw Set Point:	-0.578	X_WP:	0.000	Y_WP:	0.000	Y_WP:	0.500	X:	0.099	Y:	0.096	Z:	0.399	yaw:	33.089	yaw rate:	-2.536	Roll:	4.050	Pitch:	0.912	Yaw:	47.338	Thrust:	10.288
Time:	2.518	Roll Set Point:	-0.234	Pitch Set Point:	-0.122	Yaw Set Point:	-0.577	X_WP:	0.000	Y_WP:	0.000	Y_WP:	0.500	X:	0.099	Y:	0.096	Z:	0.399	yaw:	33.070	yaw rate:	-1.870	Roll:	4.005	Pitch:	0.776	Yaw:	47.424	Thrust:	10.571
Time:	2.534	Roll Set Point:	-0.234	Pitch Set Point:	-0.121	Yaw Set Point:	-0.579	X_WP:	0.000	Y_WP:	0.000	Y_WP:	0.500	X:	0.099	Y:	0.096	Z:	0.399	yaw:	33.182	yaw rate:	11.167	Roll:	4.067	Pitch:	0.558	Yaw:	49.764	Thrust:	10.495
Time:	2.549	Roll Set Point:	-0.234	Pitch Set Point:	-0.122	Yaw Set Point:	-0.578	X_WP:	0.000	Y_WP:	0.000	Y_WP:	0.500	X:	0.099	Y:	0.096	Z:	0.399	yaw:	33.105	yaw rate:	-7.650	Roll:	4.088	Pitch:	0.987	Yaw:	46.504	Thrust:	11.219
Time:	2.565	Roll Set Point:	-0.234	Pitch Set Point:	-0.122	Yaw Set Point:	-0.577	X_WP:	0.000	Y_WP:	0.000	Y_WP:	0.500	X:	0.099	Y:	0.096	Z:	0.399	yaw:	33.085	yaw rate:	-2.028	Roll:	4.091	Pitch:	0.795	Yaw:	47.418	Thrust:	10.900
Time:	2.581	Roll Set Point:	-0.234	Pitch Set Point:	-0.122	Yaw Set Point:	-0.577	X_WP:	0.000	Y_WP:	0.000	Y_WP:	0.500	X:	0.099	Y:	0.096	Z:	0.399	yaw:	33.061	yaw rate:	-2.370	Roll:	4.062	Pitch:	0.828	Yaw:	47.328	Thrust:	11.380
Time:	2.596	Roll Set Point:	-0.234	Pitch Set Point:	-0.122	Yaw Set Point:	-0.579	X_WP:	0.000	Y_WP:	0.000	Y_WP:	0.500	X:	0.099	Y:	0.096	Z:	0.399	yaw:	33.159	yaw rate:	9.765	Roll:	4.074	Pitch:	0.604	Yaw:	49.497	Thrust:	11.276
Time:	2.612	Roll Set Point:	-0.234	Pitch Set Point:	-0.122	Yaw Set Point:	-0.579	X_WP:	0.000	Y_WP:	0.000	Y_WP:	0.500	X:	0.099	Y:	0.096	Z:	0.399	yaw:	33.159	yaw rate:	9.765	Roll:	4.092	Pitch:	0.783	Yaw:	47.861	Thrust:	11.664
Time:	2.627	Roll Set Point:	-0.234	Pitch Set Point:	-0.122	Yaw Set Point:	-0.577	X_WP:	0.000	Y_WP:	0.000	Y_WP:	0.500	X:	0.099	Y:	0.096	Z:	0.399	yaw:	33.084	yaw rate:	-7.509	Roll:	4.111	Pitch:	0.918	Yaw:	46.499	Thrust:	12.104
Time:	2.643	Roll Set Point:	-0.234	Pitch Set Point:	-0.122	Yaw Set Point:	-0.577	X_WP:	0.000	Y_WP:	0.000	Y_WP:	0.500	X:	0.099	Y:	0.096	Z:	0.399	yaw:	33.068	yaw rate:	-3.817	Roll:	4.109	Pitch:	0.834	Yaw:	47.476	Thrust:	11.954
Time:	2.659	Roll Set Point:	-0.234	Pitch Set Point:	-0.122	Yaw Set Point:	-0.577	X_WP:	0.000	Y_WP:	0.000	Y_WP:	0.500	X:	0.099	Y:	0.096	Z:	0.399	yaw:	33.087	yaw rate:	1.834	Roll:	4.107	Pitch:	0.689	Yaw:	48.067	Thrust:	12.244
Time:	2.674	Roll Set Point:	-0.234	Pitch Set Point:	-0.122	Yaw Set Point:	-0.577	X_WP:	0.000	Y_WP:	0.000	Y_WP:	0.500	X:	0.099	Y:	0.096	Z:	0.399	yaw:	33.087	yaw rate:	1.834	Roll:	4.114	Pitch:	0.790	Yaw:	47.763	Thrust:	12.441
Time:	2.690	Roll Set Point:	-0.234	Pitch Set Point:	-0.122	Yaw Set Point:	-0.577	X_WP:	0.000	Y_WP:	0.000	Y_WP:	0.500	X:	0.099	Y:	0.096	Z:	0.399	yaw:	33.077	yaw rate:	-3.438	Roll:	4.144	Pitch:	0.871	Yaw:	47.571	Thrust:	12.640
Time:	2.706	Roll Set Point:	-0.234	Pitch Set Point:	-0.122	Yaw Set Point:	-0.577	X_WP:	0.000	Y_WP:	0.000	Y_WP:	0.500	X:	0.099	Y:	0.096	Z:	0.399	yaw:	33.077	yaw rate:	-3.438	Roll:	4.125	Pitch:	0.794	Yaw:	47.749	Thrust:	12.823
Time:	2.721	Roll Set Point:	-0.234	Pitch Set Point:	-0.122	Yaw Set Point:	-0.579	X_WP:	0.000	Y_WP:	0.000	Y_WP:	0.500	X:	0.099	Y:	0.096	Z:	0.399	yaw:	33.146	yaw rate:	6.956	Roll:	4.108	Pitch:	0.631	Yaw:	49.008	Thrust:	12.743
Time:	2.737	Roll Set Point:	-0.234	Pitch Set Point:	-0.122	Yaw Set Point:	-0.578	X_WP:	0.000	Y_WP:	0.000	Y_WP:	0.500	X:	0.099	Y:	0.096	Z:	0.399	yaw:	33.103	yaw rate:	-4.313	Roll:	4.148	Pitch:	0.889	Yaw:	47.061	Thrust:	13.492
Time:	2.753	Roll Set Point:	-0.234	Pitch Set Point:	-0.122	Yaw Set Point:	-0.578	X_WP:	0.000	Y_WP:	0.000	Y_WP:	0.500	X:	0.099	Y:	0.096	Z:	0.399	yaw:	33.103	yaw rate:	-4.313	Roll:	4.141	Pitch:	0.795	Yaw:	47.786	Thrust:	13.395
Time:	2.768	Roll Set Point:	-0.234	Pitch Set Point:	-0.122	Yaw Set Point:	-0.577	X_WP:	0.000	Y_WP:	0.000	Y_WP:	0.500	X:	0.099	Y:	0.096	Z:	0.399	yaw:	33.083	yaw rate:	4.287	Roll:	4.142	Pitch:	0.829	Yaw:	47.417	Thrust:	13.462
Time:	2.784	Roll Set Point:	-0.234	Pitch Set Point:	-0.122	Yaw Set Point:	-0.577	X_WP:	0.000	Y_WP:	0.000	Y_WP:	0.500	X:	0.099	Y:	0.096	Z:	0.399	yaw:	33.083	yaw rate:	4.287	Roll:	4.151	Pitch:	0.798	Yaw:	47.755	Thrust:	13.761
Time:	2.799	Roll Set Point:	-0.234	Pitch Set Point:	-0.122	Yaw Set Point:	-0.579	X_WP:	0.000	Y_WP:	0.000	Y_WP:	0.500	X:	0.099	Y:	0.096	Z:	0.399	yaw:	33.167	yaw rate:	5.638	Roll:	4.138	Pitch:	0.631	Yaw:	49.287	Thrust:	13.866
Time:	2.815	Roll Set Point:	-0.234	Pitch Set Point:	-0.122	Yaw Set Point:	-0.577	X_WP:	0.000	Y_WP:	0.000	Y_WP:	0.500	X:	0.099	Y:	0.096	Z:	0.399	yaw:	33.065	yaw rate:	-10.266	Roll:	4.156	Pitch:	1.002	Yaw:	46.016	Thrust:	14.221
Time:	2.831	Roll Set Point:	-0.234	Pitch Set Point:	-0.122	Yaw Set Point:	-0.577	X_WP:	0.000	Y_WP:	0.000	Y_WP:	0.500	X:	0.099	Y:	0.096	Z:	0.399	yaw:	33.055	yaw rate:	-0.972	Roll:	4.183	Pitch:	0.842	Yaw:	47.553	Thrust:	14.328
Time:	2.846	Roll Set Point:	-0.234	Pitch Set Point:	-0.122	Yaw Set Point:	-0.578	X_WP:	0.000	Y_WP:	0.000	Y_WP:	0.500	X:	0.099	Y:	0.096	Z:	0.399	yaw:	33.098	yaw rate:	4.273	Roll:	4.195	Pitch:	0.714	Yaw:	48.492	Thrust:	14.651
Time:	2.862	Roll Set Point:	-0.234	Pitch Set Point:	-0.122	Yaw Set Point:	-0.578	X_WP:	0.000	Y_WP:	0.000	Y_WP:	0.500	X:	0.099	Y:	0.096	Z:	0.399	yaw:	33.145	yaw rate:	4.712	Roll:	4.118	Pitch:	0.709	Yaw:	48.629	Thrust:	14.444
Time:	2.878	Roll Set Point:	-0.234	Pitch Set Point:	-0.122	Yaw Set Point:	-0.578	X_WP:	0.000	Y_WP:	0.000	Y_WP:	0.500	X:	0.099	Y:	0.096	Z:	0.399	yaw:	33.145	yaw rate:	4.712	Roll:	4.182	Pitch:	0.801	Yaw:	47.844	Thrust:	14.916
Time:	2.893	Roll Set Point:	-0.234	Pitch Set Point:	-0.122	Yaw Set Point:	-0.578	X_WP:	0.000	Y_WP:	0.000	Y_WP:	0.500	X:	0.099	Y:	0.096	Z:	0.399	yaw:	33.094	yaw rate:	-1.027	Roll:	4.231	Pitch:	0.954	Yaw:	46.923	Thrust:	15.297
Time:	2.909	Roll Set Point:	-0.234	Pitch Set Point:	-0.122	Yaw Set Point:	-0.577	X_WP:	0.000	Y_WP:	0.000	Y_WP:	0.500	X:	0.099	Y:	0.096	Z:	0.399	yaw:	33.079	yaw rate:	-1.513	Roll:	4.167	Pitch:	0.739	Yaw:	47.496	Thrust:	15.223
Time:	2.924	Roll Set Point:	-0.234	Pitch Set Point:	-0.122	Yaw Set Point:	-0.578	X_WP:	0.000	Y_WP:	0.000	Y_WP:	0.500	X:	0.099	Y:	0.096	Z:	0.399	yaw:	33.104	yaw rate:	2.536	Roll:	4.215	Pitch:	0.777	Yaw:	48.210	Thrust:	15.560
Time:	2.940	Roll Set Point:	-0.234	Pitch Set Point:	-0.122	Yaw Set Point:	-0.577	X_WP:	0.000	Y_WP:	0.000	Y_WP:	0.500	X:	0.099	Y:	0.096	Z:	0.399	yaw:	33.081	yaw rate:	-2.338	Roll:	4.212	Pitch:	0.831	Yaw:	47.357	Thrust:	15.566
Time:	2.956	Roll Set Point:	-0.234	Pitch Set Point:	-0.122	Yaw Set Point:	-0.577	X_WP:	0.000	Y_WP:	0.000	Y_WP:	0.500	X:	0.099	Y:	0.096	Z:	0.399	yaw:	33.081	yaw rate:	-2.338	Roll:	4.210	Pitch:	0.808	Yaw:	47.756	Thrust:	15.875
Time:	2.971	Roll Set Point:	-0.234	Pitch Set Point:	-0.122	Yaw Set Point:	-0.577	X_WP:	0.000	Y_WP:	0.000	Y_WP:	0.500	X:	0.099	Y:	0.096	Z:	0.399	yaw:	33.067	yaw rate:	-3.487	Roll:	4.199	Pitch:	0.822	Yaw:	47.500	Thrust:	16.024
Time:	2.987	Roll Set Point:	-0.234	Pitch Set Point:	-0.122	Yaw Set Point:	-0.579	X_WP:	0.000	Y_WP:	0.000	Y_WP:	0.500	X:	0.099	Y:	0.096	Z:	0.399	yaw:	33.167	yaw rate:	9.918	Roll:	4.195	Pitch:	0.673	Yaw:	49.533	Thrust:	16.087
Time:	3.003	Roll Set Point:	-0.234	Pitch Set Point:	-0.122	Yaw Set Point:	-0.577	X_WP:	0.000	Y_WP:	0.000	Y_WP:	0.500	X:	0.099	Y:	0.096	Z:	0.399	yaw:	33.085	yaw rate:	-8.181	Roll:	4.250	Pitch:	0.953	Yaw:	46.389	Thrust:	16.543
Time:	3.018	Roll Set Point:	-0.234	Pitch Set Point:	-0.122	Yaw Set Point:	-0.577	X_WP:	0.000	Y_WP:	0.000	Y_WP:	0.500	X:	0.099	Y:	0.096	Z:	0.399	yaw:	33.073	yaw rate:	-1.128	Roll:	4.239	Pitch:	0.906	Yaw:	47.553	Thrust:	16.749
Time:	3.034	Roll Set Point:	-0.234	Pitch Set Point:	-0.122	Yaw Set Point:	-0.578	X_WP:	0.000	Y_WP:	0.000	Y_WP:	0.500	X:	0.099	Y:	0.096	Z:	0.399	yaw:	33.093	yaw rate:	1.943	Roll:	4.233	Pitch:	0.723	Yaw:	48.097	Thrust:	16.815
Time:	3.065	Roll Set Point:	-0.234	Pitch Set Point:	-0.122	Yaw Set Point:	-0.577	X_WP:	0.000	Y_WP:	0.000	Y_WP:	0.500	X:	0.099	Y:	0.096	Z:	0.399	yaw:	33.084	yaw rate:	1.563	Roll:	4.540	Pitch:	0.883	Yaw:	49.197	Thrust:	28.041
Time:	3.080	Roll Set Point:	-0.234	Pitch Set Point:	-0.122	Yaw Set Point:	-0.578	X_WP:	0.000	Y_WP:	0.000	Y_WP:	0.500	X:	0.099	Y:	0.096	Z:	0.399	yaw:	33.095	yaw rate:	1.048	Roll:	4.290	Pitch:	0.838	Yaw:	47.947	Thrust:	17.087
Time:	3.096	Roll Set Point:	-0.234	Pitch Set Point:	-0.122	Yaw Set Point:	-0.578	X_WP:	0.000	Y_WP:	0.000	Y_WP:	0.500	X:	0.099	Y:	0.096	Z:	0.399	yaw:	33.094	yaw rate:	-0.085	Roll:	4.225	Pitch:	0.813	Yaw:	47.756	Thrust:	17.457
Time:	3.111	Roll Set Point:	-0.234	Pitch Set Point:	-0.122	Yaw Set Point:	-0.578	X_WP:	0.000	Y_WP:	0.000	Y_WP:	0.500	X:	0.099	Y:	0.096	Z:	0.399	yaw:	33.094	yaw rate:	-0.085	Roll:	4.256	Pitch:	0.819	Yaw:	47.771	Thrust:	17.566
Time:	3.127	Roll Set Point:	-0.234	Pitch Set Point:	-0.122	Yaw Set Point:	-0.578	X_WP:	0.000	Y_WP:	0.000	Y_WP:	0.500	X:	0.099	Y:	0.096	Z:	0.399	yaw:	33.097	yaw rate:	3.003	Roll:	4.264	Pitch:	0.785	Yaw:	47.827	Thrust:	17.706
Time:	3.143	Roll Set Point:	-0.234	Pitch Set Point:	-0.122	Yaw Set Point:	-0.578	X_WP:	0.000	Y_WP:	0.000	Y_WP:	0.500	X:	0.099	Y:	0.096	Z:	0.399	yaw:	33.096	yaw rate:	-0.107	Roll:	4.268	Pitch:	0.854	Yaw:	47.755	Thrust:	17.975
Time:	3.158	Roll Set Point:	-0.234	Pitch Set Point:	-0.122	Yaw Set Point:	-0.578	X_WP:	0.000	Y_WP:	0.000	Y_WP:	0.500	X:	0.099	Y:	0.096	Z:	0.399	yaw:	33.096	yaw rate:	-0.107	Roll:	4.272	Pitch:	0.822	Yaw:	47.773	Thrust:	18.137
Time:	3.174	Roll Set Point:	-0.234	Pitch Set Point:	-0.122	Yaw Set Point:	-0.577	X_WP:	0.000	Y_WP:	0.000	Y_WP:	0.500	X:	0.099	Y:	0.096	Z:	0.399	yaw:	33.052	yaw rate:	-3.934	Roll:	4.241	Pitch:	0.834	Yaw:	46.975	Thrust:	18.312
Time:	3.190	Roll Set Point:	-0.234	Pitch Set Point:	-0.122	Yaw Set Point:	-0.577	X_WP:	0.000	Y_WP:	0.000	Y_WP:	0.500	X:	0.099	Y:	0.096	Z:	0.399	yaw:	33.052	yaw rate:	-3.934	Roll:	4.282	Pitch:	0.824	Yaw:	47.712	Thrust:	18.517
Time:	3.205	Roll Set Point:	-0.234	Pitch Set Point:	-0.122	Yaw Set Point:	-0.577	X_WP:	0.000	Y_WP:	0.000	Y_WP:	0.500	X:	0.099	Y:	0.096	Z:	0.399	yaw:	33.072	yaw rate:	0.645	Roll:	4.326	Pitch:	0.808	Yaw:	48.083	Thrust:	18.656
Time:	3.221	Roll Set Point:	-0.234	Pitch Set Point:	-0.122	Yaw Set Point:	-0.577	X_WP:	0.000	Y_WP:	0.000	Y_WP:	0.500	X:	0.099	Y:	0.096	Z:	0.399	yaw:	33.070	yaw rate:	-0.211	Roll:	4.285	Pitch:	0.860	Yaw:	47.702	Thrust:	19.005
Time:	3.236	Roll Set Point:	-0.234	Pitch Set Point:	-0.122	Yaw Set Point:	-0.578	X_WP:	0.000	Y_WP:	0.000	Y_WP:	0.500	X:	0.099	Y:	0.096	Z:	0.398	yaw:	33.116	yaw rate:	4.552	Roll:	4.298	Pitch:	0.757	Yaw:	48.564	Thrust:	19.218
Time:	3.252	Roll Set Point:	-0.234	Pitch Set Point:	-0.122	Yaw Set Point:	-0.577	X_WP:	0.000	Y_WP:	0.000	Y_WP:	0.500	X:	0.099	Y:	0.096	Z:	0.399	yaw:	33.049	yaw rate:	-6.656	Roll:	4.273	Pitch:	0.834	Yaw:	46.593	Thrust:	18.981
Time:	3.268	Roll Set Point:	-0.234	Pitch Set Point:	-0.122	Yaw Set Point:	-0.577	X_WP:	0.000	Y_WP:	0.000	Y_WP:	0.500	X:	0.099	Y:	0.096	Z:	0.399	yaw:	33.049	yaw rate:	-6.656	Roll:	4.308	Pitch:	0.828	Yaw:	47.708	Thrust:	19.466
Time:	3.283	Roll Set Point:	-0.234	Pitch Set Point:	-0.122	Yaw Set Point:	-0.578	X_WP:	0.000	Y_WP:	0.000	Y_WP:	0.500	X:	0.099	Y:	0.096	Z:	0.399	yaw:	33.121	yaw rate:	-4.207	Roll:	4.369	Pitch:	0.792	Yaw:	49.009	Thrust:	19.861
Time:	3.299	Roll Set Point:	-0.234	Pitch Set Point:	-0.122	Yaw Set Point:	-0.579	X_WP:	0.000	Y_WP:	0.000	Y_WP:	0.500	X:	0.099	Y:	0.096	Z:	0.399	yaw:	33.153	yaw rate:	3.239	Roll:	4.271	Pitch:	0.749	Yaw:	48.396	Thrust:	19.642
Time:	3.315	Roll Set Point:	-0.234	Pitch Set Point:	-0.121	Yaw Set Point:	-0.578	X_WP:	0.000	Y_WP:	0.000	Y_WP:	0.500	X:	0.099	Y:	0.096	Z:	0.399	yaw:	33.134	yaw rate:	-1.955	Roll:	4.318	Pitch:	0.809	Yaw:	47.499	Thrust:	19.871
Time:	3.330	Roll Set Point:	-0.234	Pitch Set Point:	-0.122	Yaw Set Point:	-0.577	X_WP:	0.000	Y_WP:	0.000	Y_WP:	0.500	X:	0.099	Y:	0.096	Z:	0.399	yaw:	33.076	yaw rate:	-5.766	Roll:	4.354	Pitch:	1.033	Yaw:	46.780	Thrust:	20.529
Time:	3.346	Roll Set Point:	-0.234	Pitch Set Point:	-0.122	Yaw Set Point:	-0.578	X_WP:	0.000	Y_WP:	0.000	Y_WP:	0.500	X:	0.099	Y:	0.096	Z:	0.399	yaw:	33.106	yaw rate:	2.980	Roll:	4.369	Pitch:	0.756	Yaw:	48.286	Thrust:	20.430
Time:	3.361	Roll Set Point:	-0.234	Pitch Set Point:	-0.122	Yaw Set Point:	-0.577	X_WP:	0.000	Y_WP:	0.000	Y_WP:	0.500	X:	0.099	Y:	0.096	Z:	0.399	yaw:	33.069	yaw rate:	-3.734	Roll:	4.308	Pitch:	0.852	Yaw:	47.110	Thrust:	20.485
Time:	3.377	Roll Set Point:	-0.234	Pitch Set Point:	-0.121	Yaw Set Point:	-0.579	X_WP:	0.000	Y_WP:	0.000	Y_WP:	0.500	X:	0.099	Y:	0.096	Z:	0.399	yaw:	33.164	yaw rate:	9.558	Roll:	4.342	Pitch:	0.642	Yaw:	49.470	Thrust:	20.700
Time:	3.393	Roll Set Point:	-0.234	Pitch Set Point:	-0.122	Yaw Set Point:	-0.577	X_WP:	0.000	Y_WP:	0.000	Y_WP:	0.500	X:	0.099	Y:	0.096	Z:	0.399	yaw:	33.073	yaw rate:	-9.116	Roll:	4.351	Pitch:	1.036	Yaw:	46.214	Thrust:	21.077
Time:	3.408	Roll Set Point:	-0.234	Pitch Set Point:	-0.122	Yaw Set Point:	-0.578	X_WP:	0.000	Y_WP:	0.000	Y_WP:	0.500	X:	0.099	Y:	0.096	Z:	0.399	yaw:	33.110	yaw rate:	3.659	Roll:	4.397	Pitch:	0.826	Yaw:	48.405	Thrust:	21.276
Time:	3.424	Roll Set Point:	-0.234	Pitch Set Point:	-0.122	Yaw Set Point:	-0.578	X_WP:	0.000	Y_WP:	0.000	Y_WP:	0.500	X:	0.099	Y:	0.096	Z:	0.399	yaw:	33.093	yaw rate:	-1.617	Roll:	4.337	Pitch:	0.841	Yaw:	47.499	Thrust:	21.369
Time:	3.440	Roll Set Point:	-0.234	Pitch Set Point:	-0.122	Yaw Set Point:	-0.579	X_WP:	0.000	Y_WP:	0.000	Y_WP:	0.500	X:	0.099	Y:	0.096	Z:	0.399	yaw:	33.178	yaw rate:	8.446	Roll:	4.350	Pitch:	0.661	Yaw:	49.303	Thrust:	21.388
Time:	3.455	Roll Set Point:	-0.234	Pitch Set Point:	-0.122	Yaw Set Point:	-0.578	X_WP:	0.000	Y_WP:	0.000	Y_WP:	0.500	X:	0.099	Y:	0.096	Z:	0.399	yaw:	33.142	yaw rate:	-3.612	Roll:	4.367	Pitch:	0.892	Yaw:	47.232	Thrust:	21.646
Time:	3.471	Roll Set Point:	-0.234	Pitch Set Point:	-0.122	Yaw Set Point:	-0.577	X_WP:	0.000	Y_WP:	0.000	Y_WP:	0.500	X:	0.099	Y:	0.096	Z:	0.399	yaw:	33.079	yaw rate:	-6.291	Roll:	4.407	Pitch:	0.990	Yaw:	46.695	Thrust:	22.099
Time:	3.486	Roll Set Point:	-0.234	Pitch Set Point:	-0.122	Yaw Set Point:	-0.577	X_WP:	0.000	Y_WP:	0.000	Y_WP:	0.500	X:	0.099	Y:	0.096	Z:	0.399	yaw:	33.060	yaw rate:	-1.846	Roll:	4.377	Pitch:	0.863	Yaw:	47.414	Thrust:	22.144
Time:	3.502	Roll Set Point:	-0.234	Pitch Set Point:	-0.122	Yaw Set Point:	-0.577	X_WP:	0.000	Y_WP:	0.000	Y_WP:	0.500	X:	0.099	Y:	0.096	Z:	0.399	yaw:	33.058	yaw rate:	-0.282	Roll:	4.375	Pitch:	0.770	Yaw:	47.673	Thrust:	22.214
Time:	3.518	Roll Set Point:	-0.234	Pitch Set Point:	-0.122	Yaw Set Point:	-0.578	X_WP:	0.000	Y_WP:	0.000	Y_WP:	0.500	X:	0.099	Y:	0.096	Z:	0.399	yaw:	33.093	yaw rate:	3.531	Roll:	4.426	Pitch:	0.816	Yaw:	48.361	Thrust:	22.748
Time:	3.533	Roll Set Point:	-0.234	Pitch Set Point:	-0.122	Yaw Set Point:	-0.577	X_WP:	0.000	Y_WP:	0.000	Y_WP:	0.500	X:	0.099	Y:	0.096	Z:	0.399	yaw:	33.068	yaw rate:	-2.486	Roll:	4.362	Pitch:	0.942	Yaw:	47.318	Thrust:	22.593
Time:	3.549	Roll Set Point:	-0.234	Pitch Set Point:	-0.122	Yaw Set Point:	-0.578	X_WP:	0.000	Y_WP:	0.000	Y_WP:	0.500	X:	0.099	Y:	0.096	Z:	0.399	yaw:	33.096	yaw rate:	2.746	Roll:	4.440	Pitch:	0.808	Yaw:	48.233	Thrust:	22.960
Time:	3.565	Roll Set Point:	-0.234	Pitch Set Point:	-0.122	Yaw Set Point:	-0.578	X_WP:	0.000	Y_WP:	0.000	Y_WP:	0.500	X:	0.099	Y:	0.096	Z:	0.399	yaw:	33.096	yaw rate:	2.746	Roll:	4.410	Pitch:	0.848	Yaw:	47.773	Thrust:	23.083
Time:	3.580	Roll Set Point:	-0.234	Pitch Set Point:	-0.121	Yaw Set Point:	-0.579	X_WP:	0.000	Y_WP:	0.000	Y_WP:	0.500	X:	0.099	Y:	0.096	Z:	0.399	yaw:	33.172	yaw rate:	9.155	Roll:	4.384	Pitch:	0.660	Yaw:	49.169	Thrust:	23.115
Time:	3.596	Roll Set Point:	-0.234	Pitch Set Point:	-0.122	Yaw Set Point:	-0.577	X_WP:	0.000	Y_WP:	0.000	Y_WP:	0.500	X:	0.099	Y:	0.096	Z:	0.399	yaw:	33.055	yaw rate:	-11.773	Roll:	4.418	Pitch:	1.068	Yaw:	45.744	Thrust:	23.536
Time:	3.611	Roll Set Point:	-0.234	Pitch Set Point:	-0.122	Yaw Set Point:	-0.578	X_WP:	0.000	Y_WP:	0.000	Y_WP:	0.500	X:	0.099	Y:	0.096	Z:	0.399	yaw:	33.110	yaw rate:	5.565	Roll:	4.452	Pitch:	0.790	Yaw:	48.726	Thrust:	23.799
Time:	3.627	Roll Set Point:	-0.234	Pitch Set Point:	-0.121	Yaw Set Point:	-0.579	X_WP:	0.000	Y_WP:	0.000	Y_WP:	0.500	X:	0.099	Y:	0.096	Z:	0.399	yaw:	33.190	yaw rate:	7.998	Roll:	4.416	Pitch:	0.653	Yaw:	49.245	Thrust:	23.666
Time:	3.643	Roll Set Point:	-0.234	Pitch Set Point:	-0.122	Yaw Set Point:	-0.577	X_WP:	0.000	Y_WP:	0.000	Y_WP:	0.500	X:	0.099	Y:	0.096	Z:	0.399	yaw:	33.086	yaw rate:	-10.450	Roll:	4.435	Pitch:	1.030	Yaw:	46.009	Thrust:	24.147
Time:	3.658	Roll Set Point:	-0.234	Pitch Set Point:	-0.122	Yaw Set Point:	-0.577	X_WP:	0.000	Y_WP:	0.000	Y_WP:	0.500	X:	0.099	Y:	0.096	Z:	0.399	yaw:	33.086	yaw rate:	-10.450	Roll:	4.441	Pitch:	0.853	Yaw:	47.759	Thrust:	24.223
Time:	3.674	Roll Set Point:	-0.234	Pitch Set Point:	-0.122	Yaw Set Point:	-0.577	X_WP:	0.000	Y_WP:	0.000	Y_WP:	0.500	X:	0.099	Y:	0.096	Z:	0.399	yaw:	33.080	yaw rate:	-0.554	Roll:	4.455	Pitch:	0.891	Yaw:	47.659	Thrust:	24.360
Time:	3.690	Roll Set Point:	-0.234	Pitch Set Point:	-0.122	Yaw Set Point:	-0.577	X_WP:	0.000	Y_WP:	0.000	Y_WP:	0.500	X:	0.099	Y:	0.096	Z:	0.399	yaw:	33.082	yaw rate:	-5.556	Roll:	4.432	Pitch:	0.847	Yaw:	47.787	Thrust:	24.676
Time:	3.705	Roll Set Point:	-0.234	Pitch Set Point:	-0.122	Yaw Set Point:	-0.579	X_WP:	0.000	Y_WP:	0.000	Y_WP:	0.500	X:	0.099	Y:	0.096	Z:	0.399	yaw:	33.166	yaw rate:	8.362	Roll:	4.459	Pitch:	0.699	Yaw:	49.272	Thrust:	24.623
Time:	3.721	Roll Set Point:	-0.234	Pitch Set Point:	-0.122	Yaw Set Point:	-0.578	X_WP:	0.000	Y_WP:	0.000	Y_WP:	0.500	X:	0.099	Y:	0.096	Z:	0.399	yaw:	33.091	yaw rate:	-7.507	Roll:	4.482	Pitch:	0.988	Yaw:	46.509	Thrust:	25.133
Time:	3.736	Roll Set Point:	-0.234	Pitch Set Point:	-0.122	Yaw Set Point:	-0.578	X_WP:	0.000	Y_WP:	0.000	Y_WP:	0.500	X:	0.099	Y:	0.096	Z:	0.399	yaw:	33.093	yaw rate:	0.257	Roll:	4.469	Pitch:	0.907	Yaw:	47.813	Thrust:	25.214
Time:	3.752	Roll Set Point:	-0.234	Pitch Set Point:	-0.122	Yaw Set Point:	-0.577	X_WP:	0.000	Y_WP:	0.000	Y_WP:	0.500	X:	0.099	Y:	0.096	Z:	0.399	yaw:	33.043	yaw rate:	-5.027	Roll:	4.438	Pitch:	0.932	Yaw:	46.857	Thrust:	25.209
Time:	3.768	Roll Set Point:	-0.234	Pitch Set Point:	-0.122	Yaw Set Point:	-0.578	X_WP:	0.000	Y_WP:	0.000	Y_WP:	0.500	X:	0.099	Y:	0.096	Z:	0.399	yaw:	33.141	yaw rate:	9.785	Roll:	4.464	Pitch:	0.647	Yaw:	49.476	Thrust:	25.488
Time:	3.783	Roll Set Point:	-0.234	Pitch Set Point:	-0.122	Yaw Set Point:	-0.578	X_WP:	0.000	Y_WP:	0.000	Y_WP:	0.500	X:	0.099	Y:	0.096	Z:	0.399	yaw:	33.141	yaw rate:	9.785	Roll:	4.483	Pitch:	0.858	Yaw:	47.836	Thrust:	25.743
Time:	3.799	Roll Set Point:	-0.234	Pitch Set Point:	-0.122	Yaw Set Point:	-0.577	X_WP:	0.000	Y_WP:	0.000	Y_WP:	0.500	X:	0.099	Y:	0.096	Z:	0.399	yaw:	33.083	yaw rate:	-0.458	Roll:	4.523	Pitch:	1.047	Yaw:	46.787	Thrust:	26.097
Time:	3.815	Roll Set Point:	-0.234	Pitch Set Point:	-0.122	Yaw Set Point:	-0.577	X_WP:	0.000	Y_WP:	0.000	Y_WP:	0.500	X:	0.099	Y:	0.096	Z:	0.399	yaw:	33.083	yaw rate:	-0.458	Roll:	4.494	Pitch:	0.865	Yaw:	47.755	Thrust:	26.126
Time:	3.830	Roll Set Point:	-0.234	Pitch Set Point:	-0.122	Yaw Set Point:	-0.579	X_WP:	0.000	Y_WP:	0.000	Y_WP:	0.500	X:	0.099	Y:	0.096	Z:	0.399	yaw:	33.155	yaw rate:	3.288	Roll:	4.499	Pitch:	0.650	Yaw:	49.067	Thrust:	26.140
Time:	3.846	Roll Set Point:	-0.234	Pitch Set Point:	-0.121	Yaw Set Point:	-0.579	X_WP:	0.000	Y_WP:	0.000	Y_WP:	0.500	X:	0.099	Y:	0.096	Z:	0.399	yaw:	33.174	yaw rate:	1.838	Roll:	4.505	Pitch:	0.818	Yaw:	48.191	Thrust:	26.603
Time:	3.862	Roll Set Point:	-0.234	Pitch Set Point:	-0.122	Yaw Set Point:	-0.577	X_WP:	0.000	Y_WP:	0.000	Y_WP:	0.500	X:	0.099	Y:	0.096	Z:	0.399	yaw:	33.064	yaw rate:	-10.994	Roll:	4.513	Pitch:	1.118	Yaw:	45.885	Thrust:	26.707
Time:	3.877	Roll Set Point:	-0.234	Pitch Set Point:	-0.122	Yaw Set Point:	-0.577	X_WP:	0.000	Y_WP:	0.000	Y_WP:	0.500	X:	0.099	Y:	0.096	Z:	0.399	yaw:	33.084	yaw rate:	2.038	Roll:	4.512	Pitch:	0.833	Yaw:	48.098	Thrust:	26.972
Time:	3.893	Roll Set Point:	-0.234	Pitch Set Point:	-0.122	Yaw Set Point:	-0.578	X_WP:	0.000	Y_WP:	0.000	Y_WP:	0.500	X:	0.099	Y:	0.096	Z:	0.399	yaw:	33.089	yaw rate:	0.478	Roll:	4.512	Pitch:	0.817	Yaw:	47.843	Thrust:	27.039
Time:	3.908	Roll Set Point:	-0.234	Pitch Set Point:	-0.122	Yaw Set Point:	-0.578	X_WP:	0.000	Y_WP:	0.000	Y_WP:	0.500	X:	0.099	Y:	0.096	Z:	0.399	yaw:	33.089	yaw rate:	0.478	Roll:	4.510	Pitch:	0.869	Yaw:	47.764	Thrust:	27.267
Time:	3.924	Roll Set Point:	-0.234	Pitch Set Point:	-0.121	Yaw Set Point:	-0.579	X_WP:	0.000	Y_WP:	0.000	Y_WP:	0.500	X:	0.099	Y:	0.096	Z:	0.399	yaw:	33.158	yaw rate:	6.896	Roll:	4.498	Pitch:	0.736	Yaw:	49.015	Thrust:	27.338
Time:	3.940	Roll Set Point:	-0.234	Pitch Set Point:	-0.122	Yaw Set Point:	-0.578	X_WP:	0.000	Y_WP:	0.000	Y_WP:	0.500	X:	0.099	Y:	0.096	Z:	0.399	yaw:	33.103	yaw rate:	-0.890	Roll:	4.536	Pitch:	1.051	Yaw:	46.867	Thrust:	27.786
Time:	3.955	Roll Set Point:	-0.234	Pitch Set Point:	-0.122	Yaw Set Point:	-0.577	X_WP:	0.000	Y_WP:	0.000	Y_WP:	0.500	X:	0.099	Y:	0.096	Z:	0.399	yaw:	33.071	yaw rate:	-3.179	Roll:	4.493	Pitch:	0.897	Yaw:	47.207	Thrust:	27.843
Time:	3.971	Roll Set Point:	-0.234	Pitch Set Point:	-0.121	Yaw Set Point:	-0.578	X_WP:	0.000	Y_WP:	0.000	Y_WP:	0.500	X:	0.099	Y:	0.096	Z:	0.399	yaw:	33.142	yaw rate:	7.021	Roll:	4.484	Pitch:	0.691	Yaw:	49.014	Thrust:	27.799
Time:	3.987	Roll Set Point:	-0.234	Pitch Set Point:	-0.121	Yaw Set Point:	-0.579	X_WP:	0.000	Y_WP:	0.000	Y_WP:	0.500	X:	0.099	Y:	0.096	Z:	0.399	yaw:	33.185	yaw rate:	4.340	Roll:	4.528	Pitch:	0.787	Yaw:	48.624	Thrust:	28.257
Time:	4.002	Roll Set Point:	-0.234	Pitch Set Point:	-0.122	Yaw Set Point:	-0.577	X_WP:	0.000	Y_WP:	0.000	Y_WP:	0.500	X:	0.099	Y:	0.096	Z:	0.399	yaw:	33.071	yaw rate:	-11.454	Roll:	4.529	Pitch:	1.175	Yaw:	45.819	Thrust:	28.555
Time:	4.018	Roll Set Point:	-0.234	Pitch Set Point:	-0.122	Yaw Set Point:	-0.577	X_WP:	0.000	Y_WP:	0.000	Y_WP:	0.500	X:	0.099	Y:	0.096	Z:	0.399	yaw:	33.073	yaw rate:	0.289	Roll:	4.502	Pitch:	0.787	Yaw:	47.790	Thrust:	28.599
Time:	4.033	Roll Set Point:	-0.234	Pitch Set Point:	-0.122	Yaw Set Point:	-0.578	X_WP:	0.000	Y_WP:	0.000	Y_WP:	0.500	X:	0.099	Y:	0.096	Z:	0.399	yaw:	33.134	yaw rate:	6.030	Roll:	4.468	Pitch:	0.771	Yaw:	48.836	Thrust:	28.562
Time:	4.064	Roll Set Point:	-0.234	Pitch Set Point:	-0.122	Yaw Set Point:	-0.577	X_WP:	0.000	Y_WP:	0.000	Y_WP:	0.500	X:	0.099	Y:	0.096	Z:	0.399	yaw:	33.079	yaw rate:	-7.334	Roll:	5.080	Pitch:	1.070	Yaw:	48.753	Thrust:	51.206
Time:	4.079	Roll Set Point:	-0.234	Pitch Set Point:	-0.122	Yaw Set Point:	-0.577	X_WP:	0.000	Y_WP:	0.000	Y_WP:	0.500	X:	0.099	Y:	0.096	Z:	0.399	yaw:	33.079	yaw rate:	-7.334	Roll:	4.509	Pitch:	0.881	Yaw:	47.749	Thrust:	29.168
Time:	4.095	Roll Set Point:	-0.234	Pitch Set Point:	-0.122	Yaw Set Point:	-0.577	X_WP:	0.000	Y_WP:	0.000	Y_WP:	0.500	X:	0.099	Y:	0.096	Z:	0.399	yaw:	33.062	yaw rate:	-2.908	Roll:	4.512	Pitch:	0.837	Yaw:	47.457	Thrust:	29.430
Time:	4.111	Roll Set Point:	-0.234	Pitch Set Point:	-0.122	Yaw Set Point:	-0.577	X_WP:	0.000	Y_WP:	0.000	Y_WP:	0.500	X:	0.099	Y:	0.096	Z:	0.399	yaw:	33.062	yaw rate:	-2.908	Roll:	4.509	Pitch:	0.881	Yaw:	47.726	Thrust:	29.549
Time:	4.126	Roll Set Point:	-0.234	Pitch Set Point:	-0.121	Yaw Set Point:	-0.579	X_WP:	0.000	Y_WP:	0.000	Y_WP:	0.500	X:	0.099	Y:	0.096	Z:	0.399	yaw:	33.182	yaw rate:	11.952	Roll:	4.501	Pitch:	0.707	Yaw:	49.896	Thrust:	29.708
Time:	4.142	Roll Set Point:	-0.234	Pitch Set Point:	-0.122	Yaw Set Point:	-0.577	X_WP:	0.000	Y_WP:	0.000	Y_WP:	0.500	X:	0.099	Y:	0.096	Z:	0.399	yaw:	33.087	yaw rate:	-1.333	Roll:	4.526	Pitch:	1.126	Yaw:	46.173	Thrust:	29.987
Time:	4.158	Roll Set Point:	-0.234	Pitch Set Point:	-0.121	Yaw Set Point:	-0.579	X_WP:	0.000	Y_WP:	0.000	Y_WP:	0.500	X:	0.099	Y:	0.095	Z:	0.399	yaw:	33.167	yaw rate:	7.967	Roll:	4.268	Pitch:	0.538	Yaw:	49.207	Thrust:	29.461
Time:	4.173	Roll Set Point:	-0.234	Pitch Set Point:	-0.122	Yaw Set Point:	-0.579	X_WP:	0.000	Y_WP:	0.000	Y_WP:	0.500	X:	0.099	Y:	0.096	Z:	0.399	yaw:	33.171	yaw rate:	0.381	Roll:	4.715	Pitch:	1.005	Yaw:	47.941	Thrust:	30.833
Time:	4.189	Roll Set Point:	-0.234	Pitch Set Point:	-0.122	Yaw Set Point:	-0.577	X_WP:	0.000	Y_WP:	0.000	Y_WP:	0.500	X:	0.099	Y:	0.096	Z:	0.399	yaw:	33.066	yaw rate:	-10.495	Roll:	4.524	Pitch:	1.063	Yaw:	45.973	Thrust:	30.538
Time:	4.204	Roll Set Point:	-0.234	Pitch Set Point:	-0.122	Yaw Set Point:	-0.577	X_WP:	0.000	Y_WP:	0.000	Y_WP:	0.500	X:	0.099	Y:	0.096	Z:	0.399	yaw:	33.066	yaw rate:	-10.495	Roll:	4.509	Pitch:	0.888	Yaw:	47.731	Thrust:	30.688
Time:	4.220	Roll Set Point:	-0.234	Pitch Set Point:	-0.122	Yaw Set Point:	-0.577	X_WP:	0.000	Y_WP:	0.000	Y_WP:	0.500	X:	0.099	Y:	0.096	Z:	0.399	yaw:	33.083	yaw rate:	-2.924	Roll:	4.520	Pitch:	0.865	Yaw:	48.041	Thrust:	30.885
Time:	4.236	Roll Set Point:	-0.234	Pitch Set Point:	-0.122	Yaw Set Point:	-0.577	X_WP:	0.000	Y_WP:	0.000	Y_WP:	0.500	X:	0.099	Y:	0.096	Z:	0.399	yaw:	33.083	yaw rate:	-2.924	Roll:	4.510	Pitch:	0.890	Yaw:	47.755	Thrust:	31.071
Time:	4.251	Roll Set Point:	-0.234	Pitch Set Point:	-0.122	Yaw Set Point:	-0.578	X_WP:	0.000	Y_WP:	0.000	Y_WP:	0.500	X:	0.099	Y:	0.096	Z:	0.399	yaw:	33.121	yaw rate:	4.233	Roll:	4.498	Pitch:	0.826	Yaw:	48.456	Thrust:	31.380
Time:	4.267	Roll Set Point:	-0.234	Pitch Set Point:	-0.122	Yaw Set Point:	-0.577	X_WP:	0.000	Y_WP:	0.000	Y_WP:	0.500	X:	0.099	Y:	0.096	Z:	0.399	yaw:	33.064	yaw rate:	-5.688	Roll:	4.520	Pitch:	1.026	Yaw:	46.777	Thrust:	31.341
Time:	4.283	Roll Set Point:	-0.234	Pitch Set Point:	-0.122	Yaw Set Point:	-0.578	X_WP:	0.000	Y_WP:	0.000	Y_WP:	0.500	X:	0.099	Y:	0.096	Z:	0.399	yaw:	33.098	yaw rate:	3.324	Roll:	4.509	Pitch:	0.831	Yaw:	48.333	Thrust:	31.709
Time:	4.298	Roll Set Point:	-0.234	Pitch Set Point:	-0.122	Yaw Set Point:	-0.578	X_WP:	0.000	Y_WP:	0.000	Y_WP:	0.500	X:	0.099	Y:	0.096	Z:	0.399	yaw:	33.095	yaw rate:	-0.238	Roll:	4.468	Pitch:	0.837	Yaw:	47.733	Thrust:	31.424
Time:	4.314	Roll Set Point:	-0.234	Pitch Set Point:	-0.122	Yaw Set Point:	-0.578	X_WP:	0.000	Y_WP:	0.000	Y_WP:	0.500	X:	0.099	Y:	0.096	Z:	0.399	yaw:	33.095	yaw rate:	-0.238	Roll:	4.508	Pitch:	0.894	Yaw:	47.773	Thrust:	32.016
Time:	4.329	Roll Set Point:	-0.234	Pitch Set Point:	-0.122	Yaw Set Point:	-0.577	X_WP:	0.000	Y_WP:	0.000	Y_WP:	0.500	X:	0.099	Y:	0.096	Z:	0.399	yaw:	33.087	yaw rate:	-5.107	Roll:	4.555	Pitch:	0.939	Yaw:	47.625	Thrust:	32.475
Time:	4.345	Roll Set Point:	-0.234	Pitch Set Point:	-0.122	Yaw Set Point:	-0.577	X_WP:	0.000	Y_WP:	0.000	Y_WP:	0.500	X:	0.099	Y:	0.096	Z:	0.399	yaw:	33.087	yaw rate:	-5.107	Roll:	4.510	Pitch:	0.897	Yaw:	47.761	Thrust:	32.400
Time:	4.361	Roll Set Point:	-0.235	Pitch Set Point:	-0.122	Yaw Set Point:	-0.578	X_WP:	0.000	Y_WP:	0.000	Y_WP:	0.500	X:	0.099	Y:	0.096	Z:	0.398	yaw:	33.145	yaw rate:	6.023	Roll:	4.557	Pitch:	0.755	Yaw:	48.807	Thrust:	32.945
Time:	4.376	Roll Set Point:	-0.234	Pitch Set Point:	-0.121	Yaw Set Point:	-0.579	X_WP:	0.000	Y_WP:	0.000	Y_WP:	0.500	X:	0.099	Y:	0.096	Z:	0.399	yaw:	33.173	yaw rate:	2.777	Roll:	4.464	Pitch:	0.825	Yaw:	48.346	Thrust:	32.352
Time:	4.392	Roll Set Point:	-0.234	Pitch Set Point:	-0.121	Yaw Set Point:	-0.579	X_WP:	0.000	Y_WP:	0.000	Y_WP:	0.500	X:	0.099	Y:	0.096	Z:	0.399	yaw:	33.186	yaw rate:	1.366	Roll:	4.506	Pitch:	0.927	Yaw:	48.128	Thrust:	32.936
Time:	4.408	Roll Set Point:	-0.234	Pitch Set Point:	-0.122	Yaw Set Point:	-0.577	X_WP:	0.000	Y_WP:	0.000	Y_WP:	0.500	X:	0.099	Y:	0.096	Z:	0.399	yaw:	33.084	yaw rate:	-10.269	Roll:	4.514	Pitch:	1.139	Yaw:	46.036	Thrust:	33.376
Time:	4.423	Roll Set Point:	-0.234	Pitch Set Point:	-0.122	Yaw Set Point:	-0.577	X_WP:	0.000	Y_WP:	0.000	Y_WP:	0.500	X:	0.099	Y:	0.096	Z:	0.399	yaw:	33.084	yaw rate:	-10.269	Roll:	4.510	Pitch:	0.903	Yaw:	47.756	Thrust:	33.352
Time:	4.439	Roll Set Point:	-0.234	Pitch Set Point:	-0.121	Yaw Set Point:	-0.579	X_WP:	0.000	Y_WP:	0.000	Y_WP:	0.500	X:	0.099	Y:	0.096	Z:	0.399	yaw:	33.153	yaw rate:	8.513	Roll:	4.480	Pitch:	0.695	Yaw:	49.025	Thrust:	33.334
Time:	4.454	Roll Set Point:	-0.234	Pitch Set Point:	-0.122	Yaw Set Point:	-0.578	X_WP:	0.000	Y_WP:	0.000	Y_WP:	0.500	X:	0.099	Y:	0.096	Z:	0.399	yaw:	33.133	yaw rate:	-2.097	Roll:	4.495	Pitch:	0.966	Yaw:	47.473	Thrust:	33.720
Time:	4.470	Roll Set Point:	-0.234	Pitch Set Point:	-0.122	Yaw Set Point:	-0.578	X_WP:	0.000	Y_WP:	0.000	Y_WP:	0.500	X:	0.099	Y:	0.096	Z:	0.399	yaw:	33.092	yaw rate:	-4.009	Roll:	4.555	Pitch:	1.033	Yaw:	47.097	Thrust:	34.069
Time:	4.486	Roll Set Point:	-0.234	Pitch Set Point:	-0.122	Yaw Set Point:	-0.577	X_WP:	0.000	Y_WP:	0.000	Y_WP:	0.500	X:	0.099	Y:	0.096	Z:	0.399	yaw:	33.072	yaw rate:	-2.016	Roll:	4.499	Pitch:	0.974	Yaw:	47.403	Thrust:	34.255
Time:	4.501	Roll Set Point:	-0.235	Pitch Set Point:	-0.122	Yaw Set Point:	-0.577	X_WP:	0.000	Y_WP:	0.000	Y_WP:	0.500	X:	0.099	Y:	0.096	Z:	0.399	yaw:	33.060	yaw rate:	-1.268	Roll:	4.509	Pitch:	0.776	Yaw:	47.509	Thrust:	34.264
Time:	4.517	Roll Set Point:	-0.234	Pitch Set Point:	-0.122	Yaw Set Point:	-0.577	X_WP:	0.000	Y_WP:	0.000	Y_WP:	0.500	X:	0.099	Y:	0.096	Z:	0.399	yaw:	33.078	yaw rate:	1.852	Roll:	4.501	Pitch:	0.945	Yaw:	48.059	Thrust:	34.438
Time:	4.533	Roll Set Point:	-0.234	Pitch Set Point:	-0.122	Yaw Set Point:	-0.577	X_WP:	0.000	Y_WP:	0.000	Y_WP:	0.500	X:	0.099	Y:	0.096	Z:	0.399	yaw:	33.083	yaw rate:	0.523	Roll:	4.536	Pitch:	0.913	Yaw:	47.843	Thrust:	34.700
Time:	4.548	Roll Set Point:	-0.234	Pitch Set Point:	-0.122	Yaw Set Point:	-0.577	X_WP:	0.000	Y_WP:	0.000	Y_WP:	0.500	X:	0.099	Y:	0.096	Z:	0.399	yaw:	33.058	yaw rate:	-2.516	Roll:	4.481	Pitch:	0.953	Yaw:	47.299	Thrust:	34.826
Time:	4.564	Roll Set Point:	-0.234	Pitch Set Point:	-0.122	Yaw Set Point:	-0.577	X_WP:	0.000	Y_WP:	0.000	Y_WP:	0.500	X:	0.099	Y:	0.096	Z:	0.399	yaw:	33.058	yaw rate:	-2.516	Roll:	4.509	Pitch:	0.913	Yaw:	47.721	Thrust:	35.064
Time:	4.579	Roll Set Point:	-0.234	Pitch Set Point:	-0.122	Yaw Set Point:	-0.577	X_WP:	0.000	Y_WP:	0.000	Y_WP:	0.500	X:	0.099	Y:	0.096	Z:	0.399	yaw:	33.070	yaw rate:	-8.469	Roll:	4.516	Pitch:	0.898	Yaw:	47.936	Thrust:	35.376
Time:	4.595	Roll Set Point:	-0.234	Pitch Set Point:	-0.122	Yaw Set Point:	-0.577	X_WP:	0.000	Y_WP:	0.000	Y_WP:	0.500	X:	0.099	Y:	0.096	Z:	0.399	yaw:	33.073	yaw rate:	0.336	Roll:	4.526	Pitch:	0.943	Yaw:	47.798	Thrust:	35.373
Time:	4.611	Roll Set Point:	-0.234	Pitch Set Point:	-0.122	Yaw Set Point:	-0.577	X_WP:	0.000	Y_WP:	0.000	Y_WP:	0.500	X:	0.099	Y:	0.096	Z:	0.399	yaw:	33.075	yaw rate:	0.112	Roll:	4.493	Pitch:	0.883	Yaw:	47.762	Thrust:	35.604
Time:	4.626	Roll Set Point:	-0.234	Pitch Set Point:	-0.121	Yaw Set Point:	-0.579	X_WP:	0.000	Y_WP:	0.000	Y_WP:	0.500	X:	0.099	Y:	0.096	Z:	0.399	yaw:	33.174	yaw rate:	9.987	Roll:	4.515	Pitch:	0.690	Yaw:	49.556	Thrust:	35.729
Time:	4.642	Roll Set Point:	-0.234	Pitch Set Point:	-0.122	Yaw Set Point:	-0.578	X_WP:	0.000	Y_WP:	0.000	Y_WP:	0.500	X:	0.099	Y:	0.096	Z:	0.399	yaw:	33.141	yaw rate:	-3.373	Roll:	4.472	Pitch:	1.003	Yaw:	47.271	Thrust:	35.884
Time:	4.658	Roll Set Point:	-0.234	Pitch Set Point:	-0.122	Yaw Set Point:	-0.577	X_WP:	0.000	Y_WP:	0.000	Y_WP:	0.500	X:	0.099	Y:	0.096	Z:	0.399	yaw:	33.086	yaw rate:	-5.446	Roll:	4.556	Pitch:	1.095	Yaw:	46.847	Thrust:	36.493
Time:	4.673	Roll Set Point:	-0.234	Pitch Set Point:	-0.122	Yaw Set Point:	-0.578	X_WP:	0.000	Y_WP:	0.000	Y_WP:	0.500	X:	0.099	Y:	0.096	Z:	0.399	yaw:	33.096	yaw rate:	0.932	Roll:	4.505	Pitch:	0.844	Yaw:	47.929	Thrust:	36.354
Time:	4.689	Roll Set Point:	-0.234	Pitch Set Point:	-0.122	Yaw Set Point:	-0.578	X_WP:	0.000	Y_WP:	0.000	Y_WP:	0.500	X:	0.099	Y:	0.096	Z:	0.399	yaw:	33.144	yaw rate:	4.895	Roll:	4.486	Pitch:	0.788	Yaw:	48.661	Thrust:	36.345
Time:	4.705	Roll Set Point:	-0.234	Pitch Set Point:	-0.122	Yaw Set Point:	-0.578	X_WP:	0.000	Y_WP:	0.000	Y_WP:	0.500	X:	0.099	Y:	0.096	Z:	0.399	yaw:	33.144	yaw rate:	4.895	Roll:	4.509	Pitch:	0.917	Yaw:	47.841	Thrust:	36.771
Time:	4.720	Roll Set Point:	-0.234	Pitch Set Point:	-0.122	Yaw Set Point:	-0.578	X_WP:	0.000	Y_WP:	0.000	Y_WP:	0.500	X:	0.099	Y:	0.096	Z:	0.399	yaw:	33.106	yaw rate:	-8.585	Roll:	4.545	Pitch:	1.039	Yaw:	47.143	Thrust:	37.260
Time:	4.736	Roll Set Point:	-0.234	Pitch Set Point:	-0.122	Yaw Set Point:	-0.578	X_WP:	0.000	Y_WP:	0.000	Y_WP:	0.500	X:	0.099	Y:	0.096	Z:	0.399	yaw:	33.106	yaw rate:	-8.585	Roll:	4.510	Pitch:	0.922	Yaw:	47.788	Thrust:	37.161
Time:	4.751	Roll Set Point:	-0.234	Pitch Set Point:	-0.122	Yaw Set Point:	-0.577	X_WP:	0.000	Y_WP:	0.000	Y_WP:	0.500	X:	0.099	Y:	0.096	Z:	0.399	yaw:	33.074	yaw rate:	-3.203	Roll:	4.479	Pitch:	0.962	Yaw:	47.206	Thrust:	37.165
Time:	4.767	Roll Set Point:	-0.234	Pitch Set Point:	-0.122	Yaw Set Point:	-0.578	X_WP:	0.000	Y_WP:	0.000	Y_WP:	0.500	X:	0.099	Y:	0.096	Z:	0.398	yaw:	33.097	yaw rate:	0.280	Roll:	4.535	Pitch:	0.841	Yaw:	48.153	Thrust:	37.811
Time:	4.783	Roll Set Point:	-0.234	Pitch Set Point:	-0.122	Yaw Set Point:	-0.578	X_WP:	0.000	Y_WP:	0.000	Y_WP:	0.500	X:	0.099	Y:	0.096	Z:	0.399	yaw:	33.092	yaw rate:	-0.441	Roll:	4.497	Pitch:	0.982	Yaw:	47.694	Thrust:	37.658
Time:	4.798	Roll Set Point:	-0.234	Pitch Set Point:	-0.122	Yaw Set Point:	-0.578	X_WP:	0.000	Y_WP:	0.000	Y_WP:	0.500	X:	0.099	Y:	0.096	Z:	0.399	yaw:	33.097	yaw rate:	0.491	Roll:	4.519	Pitch:	0.919	Yaw:	47.857	Thrust:	37.902
Time:	4.814	Roll Set Point:	-0.234	Pitch Set Point:	-0.122	Yaw Set Point:	-0.577	X_WP:	0.000	Y_WP:	0.000	Y_WP:	0.500	X:	0.099	Y:	0.096	Z:	0.398	yaw:	33.087	yaw rate:	-1.051	Roll:	4.493	Pitch:	0.966	Yaw:	47.584	Thrust:	38.210
Time:	4.830	Roll Set Point:	-0.234	Pitch Set Point:	-0.122	Yaw Set Point:	-0.577	X_WP:	0.000	Y_WP:	0.000	Y_WP:	0.500	X:	0.099	Y:	0.096	Z:	0.398	yaw:	33.087	yaw rate:	-1.051	Roll:	4.509	Pitch:	0.929	Yaw:	47.760	Thrust:	38.302
Time:	4.845	Roll Set Point:	-0.234	Pitch Set Point:	-0.122	Yaw Set Point:	-0.577	X_WP:	0.000	Y_WP:	0.000	Y_WP:	0.500	X:	0.099	Y:	0.096	Z:	0.399	yaw:	33.057	yaw rate:	-3.692	Roll:	4.506	Pitch:	0.923	Yaw:	47.230	Thrust:	38.376
Time:	4.861	Roll Set Point:	-0.234	Pitch Set Point:	-0.122	Yaw Set Point:	-0.579	X_WP:	0.000	Y_WP:	0.000	Y_WP:	0.500	X:	0.099	Y:	0.096	Z:	0.399	yaw:	33.151	yaw rate:	9.379	Roll:	4.498	Pitch:	0.793	Yaw:	49.422	Thrust:	38.388
Time:	4.876	Roll Set Point:	-0.234	Pitch Set Point:	-0.122	Yaw Set Point:	-0.579	X_WP:	0.000	Y_WP:	0.000	Y_WP:	0.500	X:	0.099	Y:	0.096	Z:	0.399	yaw:	33.151	yaw rate:	9.379	Roll:	4.509	Pitch:	0.929	Yaw:	47.851	Thrust:	38.871
Time:	4.892	Roll Set Point:	-0.234	Pitch Set Point:	-0.122	Yaw Set Point:	-0.577	X_WP:	0.000	Y_WP:	0.000	Y_WP:	0.500	X:	0.099	Y:	0.096	Z:	0.399	yaw:	33.069	yaw rate:	-8.165	Roll:	4.512	Pitch:	1.056	Yaw:	46.369	Thrust:	39.228
Time:	4.908	Roll Set Point:	-0.234	Pitch Set Point:	-0.122	Yaw Set Point:	-0.578	X_WP:	0.000	Y_WP:	0.000	Y_WP:	0.500	X:	0.099	Y:	0.096	Z:	0.399	yaw:	33.092	yaw rate:	-5.804	Roll:	4.530	Pitch:	0.901	Yaw:	48.148	Thrust:	39.404
Time:	4.923	Roll Set Point:	-0.234	Pitch Set Point:	-0.122	Yaw Set Point:	-0.577	X_WP:	0.000	Y_WP:	0.000	Y_WP:	0.500	X:	0.099	Y:	0.096	Z:	0.399	yaw:	33.072	yaw rate:	-2.053	Roll:	4.494	Pitch:	1.025	Yaw:	47.395	Thrust:	39.463
Time:	4.939	Roll Set Point:	-0.234	Pitch Set Point:	-0.122	Yaw Set Point:	-0.577	X_WP:	0.000	Y_WP:	0.000	Y_WP:	0.500	X:	0.099	Y:	0.096	Z:	0.399	yaw:	33.072	yaw rate:	-2.053	Roll:	4.509	Pitch:	0.938	Yaw:	47.739	Thrust:	39.631
Time:	4.955	Roll Set Point:	-0.234	Pitch Set Point:	-0.122	Yaw Set Point:	-0.577	X_WP:	0.000	Y_WP:	0.000	Y_WP:	0.500	X:	0.099	Y:	0.096	Z:	0.399	yaw:	33.048	yaw rate:	-1.804	Roll:	4.501	Pitch:	0.897	Yaw:	47.302	Thrust:	39.673
Time:	4.970	Roll Set Point:	-0.234	Pitch Set Point:	-0.122	Yaw Set Point:	-0.577	X_WP:	0.000	Y_WP:	0.000	Y_WP:	0.500	X:	0.099	Y:	0.096	Z:	0.399	yaw:	33.084	yaw rate:	3.664	Roll:	4.544	Pitch:	0.886	Yaw:	48.371	Thrust:	40.141
Time:	4.986	Roll Set Point:	-0.234	Pitch Set Point:	-0.122	Yaw Set Point:	-0.577	X_WP:	0.000	Y_WP:	0.000	Y_WP:	0.500	X:	0.099	Y:	0.096	Z:	0.399	yaw:	33.067	yaw rate:	-1.739	Roll:	4.510	Pitch:	1.005	Yaw:	47.441	Thrust:	40.171
Time:	5.001	Roll Set Point:	-0.234	Pitch Set Point:	-0.122	Yaw Set Point:	-0.577	X_WP:	0.000	Y_WP:	0.000	Y_WP:	0.500	X:	0.099	Y:	0.096	Z:	0.399	yaw:	33.071	yaw rate:	0.374	Roll:	4.470	Pitch:	0.928	Yaw:	47.800	Thrust:	40.333
Time:	5.017	Roll Set Point:	-0.234	Pitch Set Point:	-0.122	Yaw Set Point:	-0.578	X_WP:	0.000	Y_WP:	0.000	Y_WP:	0.500	X:	0.099	Y:	0.096	Z:	0.399	yaw:	33.138	yaw rate:	6.746	Roll:	4.514	Pitch:	0.776	Yaw:	48.962	Thrust:	40.440
Time:	5.033	Roll Set Point:	-0.234	Pitch Set Point:	-0.122	Yaw Set Point:	-0.577	X_WP:	0.000	Y_WP:	0.000	Y_WP:	0.500	X:	0.099	Y:	0.096	Z:	0.398	yaw:	33.071	yaw rate:	-6.706	Roll:	4.538	Pitch:	1.087	Yaw:	46.615	Thrust:	41.089
Time:	5.048	Roll Set Point:	-0.234	Pitch Set Point:	-0.122	Yaw Set Point:	-0.577	X_WP:	0.000	Y_WP:	0.000	Y_WP:	0.500	X:	0.099	Y:	0.096	Z:	0.399	yaw:	33.062	yaw rate:	-0.931	Roll:	4.468	Pitch:	0.976	Yaw:	47.482	Thrust:	39.065
Time:	5.065	Roll Set Point:	-0.234	Pitch Set Point:	-0.122	Yaw Set Point:	-0.577	X_WP:	0.000	Y_WP:	0.000	Y_WP:	0.500	X:	0.099	Y:	0.096	Z:	0.399	yaw:	33.062	yaw rate:	-0.931	Roll:	4.572	Pitch:	0.966	Yaw:	47.893	Thrust:	44.963
Time:	5.080	Roll Set Point:	-0.234	Pitch Set Point:	-0.122	Yaw Set Point:	-0.577	X_WP:	0.000	Y_WP:	0.000	Y_WP:	0.500	X:	0.099	Y:	0.096	Z:	0.399	yaw:	33.065	yaw rate:	-1.592	Roll:	4.500	Pitch:	0.898	Yaw:	47.781	Thrust:	41.262
Time:	5.096	Roll Set Point:	-0.234	Pitch Set Point:	-0.122	Yaw Set Point:	-0.577	X_WP:	0.000	Y_WP:	0.000	Y_WP:	0.500	X:	0.099	Y:	0.096	Z:	0.398	yaw:	33.087	yaw rate:	2.249	Roll:	4.518	Pitch:	0.919	Yaw:	48.138	Thrust:	41.687
Time:	5.112	Roll Set Point:	-0.234	Pitch Set Point:	-0.122	Yaw Set Point:	-0.577	X_WP:	0.000	Y_WP:	0.000	Y_WP:	0.500	X:	0.099	Y:	0.096	Z:	0.399	yaw:	33.078	yaw rate:	-0.947	Roll:	4.511	Pitch:	0.991	Yaw:	47.590	Thrust:	41.689
Time:	5.130	Roll Set Point:	-0.234	Pitch Set Point:	-0.122	Yaw Set Point:	-0.577	X_WP:	0.000	Y_WP:	0.000	Y_WP:	0.500	X:	0.099	Y:	0.096	Z:	0.399	yaw:	33.083	yaw rate:	0.571	Roll:	4.597	Pitch:	0.994	Yaw:	48.090	Thrust:	47.722
Time:	5.145	Roll Set Point:	-0.234	Pitch Set Point:	-0.122	Yaw Set Point:	-0.577	X_WP:	0.000	Y_WP:	0.000	Y_WP:	0.500	X:	0.099	Y:	0.096	Z:	0.399	yaw:	33.083	yaw rate:	0.571	Roll:	4.509	Pitch:	0.950	Yaw:	47.755	Thrust:	42.094
Time:	5.161	Roll Set Point:	-0.234	Pitch Set Point:	-0.122	Yaw Set Point:	-0.577	X_WP:	0.000	Y_WP:	0.000	Y_WP:	0.500	X:	0.099	Y:	0.096	Z:	0.398	yaw:	33.070	yaw rate:	-2.510	Roll:	4.519	Pitch:	0.934	Yaw:	47.519	Thrust:	42.408
Time:	5.177	Roll Set Point:	-0.234	Pitch Set Point:	-0.122	Yaw Set Point:	-0.577	X_WP:	0.000	Y_WP:	0.000	Y_WP:	0.500	X:	0.099	Y:	0.096	Z:	0.398	yaw:	33.070	yaw rate:	-2.510	Roll:	4.510	Pitch:	0.952	Yaw:	47.738	Thrust:	42.499
Time:	5.192	Roll Set Point:	-0.234	Pitch Set Point:	-0.122	Yaw Set Point:	-0.577	X_WP:	0.000	Y_WP:	0.000	Y_WP:	0.500	X:	0.099	Y:	0.096	Z:	0.399	yaw:	33.063	yaw rate:	-0.766	Roll:	4.491	Pitch:	0.924	Yaw:	47.599	Thrust:	42.392
Time:	5.208	Roll Set Point:	-0.234	Pitch Set Point:	-0.122	Yaw Set Point:	-0.577	X_WP:	0.000	Y_WP:	0.000	Y_WP:	0.500	X:	0.099	Y:	0.096	Z:	0.399	yaw:	33.081	yaw rate:	-1.575	Roll:	4.527	Pitch:	0.965	Yaw:	48.056	Thrust:	42.949
Time:	5.224	Roll Set Point:	-0.235	Pitch Set Point:	-0.122	Yaw Set Point:	-0.577	X_WP:	0.000	Y_WP:	0.000	Y_WP:	0.500	X:	0.099	Y:	0.096	Z:	0.399	yaw:	33.073	yaw rate:	-0.777	Roll:	4.517	Pitch:	0.920	Yaw:	47.611	Thrust:	43.044
Time:	5.239	Roll Set Point:	-0.235	Pitch Set Point:	-0.122	Yaw Set Point:	-0.577	X_WP:	0.000	Y_WP:	0.000	Y_WP:	0.500	X:	0.099	Y:	0.096	Z:	0.399	yaw:	33.073	yaw rate:	-0.777	Roll:	4.510	Pitch:	0.954	Yaw:	47.741	Thrust:	43.243
Time:	5.255	Roll Set Point:	-0.234	Pitch Set Point:	-0.122	Yaw Set Point:	-0.579	X_WP:	0.000	Y_WP:	0.000	Y_WP:	0.500	X:	0.099	Y:	0.096	Z:	0.399	yaw:	33.146	yaw rate:	7.225	Roll:	4.480	Pitch:	0.863	Yaw:	49.060	Thrust:	43.252
Time:	5.270	Roll Set Point:	-0.234	Pitch Set Point:	-0.122	Yaw Set Point:	-0.577	X_WP:	0.000	Y_WP:	0.000	Y_WP:	0.500	X:	0.099	Y:	0.096	Z:	0.399	yaw:	33.050	yaw rate:	-9.571	Roll:	4.487	Pitch:	1.108	Yaw:	46.112	Thrust:	43.788
Time:	5.286	Roll Set Point:	-0.234	Pitch Set Point:	-0.122	Yaw Set Point:	-0.577	X_WP:	0.000	Y_WP:	0.000	Y_WP:	0.500	X:	0.099	Y:	0.096	Z:	0.399	yaw:	33.081	yaw rate:	3.143	Roll:	4.540	Pitch:	0.917	Yaw:	48.280	Thrust:	43.922
Time:	5.302	Roll Set Point:	-0.234	Pitch Set Point:	-0.122	Yaw Set Point:	-0.578	X_WP:	0.000	Y_WP:	0.000	Y_WP:	0.500	X:	0.099	Y:	0.096	Z:	0.398	yaw:	33.127	yaw rate:	4.603	Roll:	4.546	Pitch:	0.901	Yaw:	48.588	Thrust:	44.244
Time:	5.317	Roll Set Point:	-0.234	Pitch Set Point:	-0.122	Yaw Set Point:	-0.578	X_WP:	0.000	Y_WP:	0.000	Y_WP:	0.500	X:	0.099	Y:	0.096	Z:	0.398	yaw:	33.127	yaw rate:	4.603	Roll:	4.510	Pitch:	0.958	Yaw:	47.817	Thrust:	44.197
Time:	5.333	Roll Set Point:	-0.234	Pitch Set Point:	-0.122	Yaw Set Point:	-0.577	X_WP:	0.000	Y_WP:	0.000	Y_WP:	0.500	X:	0.099	Y:	0.096	Z:	0.399	yaw:	33.086	yaw rate:	0.839	Roll:	4.459	Pitch:	0.987	Yaw:	47.059	Thrust:	44.136
Time:	5.349	Roll Set Point:	-0.234	Pitch Set Point:	-0.122	Yaw Set Point:	-0.577	X_WP:	0.000	Y_WP:	0.000	Y_WP:	0.500	X:	0.099	Y:	0.096	Z:	0.399	yaw:	33.067	yaw rate:	-1.860	Roll:	4.530	Pitch:	1.002	Yaw:	47.425	Thrust:	44.569
Time:	5.364	Roll Set Point:	-0.234	Pitch Set Point:	-0.122	Yaw Set Point:	-0.577	X_WP:	0.000	Y_WP:	0.000	Y_WP:	0.500	X:	0.099	Y:	0.096	Z:	0.399	yaw:	33.085	yaw rate:	1.722	Roll:	4.508	Pitch:	0.989	Yaw:	48.046	Thrust:	44.883
Time:	5.380	Roll Set Point:	-0.234	Pitch Set Point:	-0.122	Yaw Set Point:	-0.578	X_WP:	0.000	Y_WP:	0.000	Y_WP:	0.500	X:	0.099	Y:	0.096	Z:	0.399	yaw:	33.091	yaw rate:	0.686	Roll:	4.486	Pitch:	0.915	Yaw:	47.879	Thrust:	44.884
Time:	5.396	Roll Set Point:	-0.234	Pitch Set Point:	-0.122	Yaw Set Point:	-0.578	X_WP:	0.000	Y_WP:	0.000	Y_WP:	0.500	X:	0.099	Y:	0.096	Z:	0.399	yaw:	33.104	yaw rate:	1.249	Roll:	4.507	Pitch:	0.972	Yaw:	47.996	Thrust:	45.200
Time:	5.411	Roll Set Point:	-0.234	Pitch Set Point:	-0.122	Yaw Set Point:	-0.578	X_WP:	0.000	Y_WP:	0.000	Y_WP:	0.500	X:	0.099	Y:	0.096	Z:	0.399	yaw:	33.093	yaw rate:	-1.052	Roll:	4.521	Pitch:	0.993	Yaw:	47.591	Thrust:	45.281
Time:	5.427	Roll Set Point:	-0.234	Pitch Set Point:	-0.122	Yaw Set Point:	-0.578	X_WP:	0.000	Y_WP:	0.000	Y_WP:	0.500	X:	0.099	Y:	0.096	Z:	0.398	yaw:	33.129	yaw rate:	3.566	Roll:	4.555	Pitch:	0.876	Yaw:	48.417	Thrust:	45.610
Time:	5.442	Roll Set Point:	-0.234	Pitch Set Point:	-0.121	Yaw Set Point:	-0.579	X_WP:	0.000	Y_WP:	0.000	Y_WP:	0.500	X:	0.099	Y:	0.096	Z:	0.399	yaw:	33.150	yaw rate:	2.069	Roll:	4.455	Pitch:	0.896	Yaw:	48.195	Thrust:	45.349
Time:	5.458	Roll Set Point:	-0.234	Pitch Set Point:	-0.122	Yaw Set Point:	-0.577	X_WP:	0.000	Y_WP:	0.000	Y_WP:	0.500	X:	0.099	Y:	0.096	Z:	0.399	yaw:	33.086	yaw rate:	-6.378	Roll:	4.515	Pitch:	1.149	Yaw:	46.691	Thrust:	46.176
Time:	5.474	Roll Set Point:	-0.234	Pitch Set Point:	-0.122	Yaw Set Point:	-0.578	X_WP:	0.000	Y_WP:	0.000	Y_WP:	0.500	X:	0.099	Y:	0.096	Z:	0.399	yaw:	33.098	yaw rate:	1.185	Roll:	4.544	Pitch:	0.920	Yaw:	47.975	Thrust:	46.122
Time:	5.489	Roll Set Point:	-0.234	Pitch Set Point:	-0.122	Yaw Set Point:	-0.578	X_WP:	0.000	Y_WP:	0.000	Y_WP:	0.500	X:	0.099	Y:	0.096	Z:	0.399	yaw:	33.100	yaw rate:	0.201	Roll:	4.510	Pitch:	0.925	Yaw:	47.813	Thrust:	46.312
Time:	5.505	Roll Set Point:	-0.234	Pitch Set Point:	-0.122	Yaw Set Point:	-0.578	X_WP:	0.000	Y_WP:	0.000	Y_WP:	0.500	X:	0.099	Y:	0.096	Z:	0.399	yaw:	33.129	yaw rate:	2.890	Roll:	4.451	Pitch:	0.958	Yaw:	48.303	Thrust:	46.255
Time:	5.521	Roll Set Point:	-0.234	Pitch Set Point:	-0.122	Yaw Set Point:	-0.578	X_WP:	0.000	Y_WP:	0.000	Y_WP:	0.500	X:	0.099	Y:	0.096	Z:	0.399	yaw:	33.129	yaw rate:	2.890	Roll:	4.510	Pitch:	0.972	Yaw:	47.822	Thrust:	46.749
Time:	5.536	Roll Set Point:	-0.234	Pitch Set Point:	-0.122	Yaw Set Point:	-0.578	X_WP:	0.000	Y_WP:	0.000	Y_WP:	0.500	X:	0.099	Y:	0.096	Z:	0.399	yaw:	33.111	yaw rate:	7.854	Roll:	4.507	Pitch:	1.047	Yaw:	47.491	Thrust:	46.719
Time:	5.552	Roll Set Point:	-0.234	Pitch Set Point:	-0.122	Yaw Set Point:	-0.577	X_WP:	0.000	Y_WP:	0.000	Y_WP:	0.500	X:	0.099	Y:	0.096	Z:	0.399	yaw:	33.064	yaw rate:	-4.622	Roll:	4.537	Pitch:	1.049	Yaw:	46.950	Thrust:	47.375
Time:	5.567	Roll Set Point:	-0.234	Pitch Set Point:	-0.122	Yaw Set Point:	-0.577	X_WP:	0.000	Y_WP:	0.000	Y_WP:	0.500	X:	0.099	Y:	0.096	Z:	0.399	yaw:	33.064	yaw rate:	-4.622	Roll:	4.509	Pitch:	0.978	Yaw:	47.730	Thrust:	47.257
Time:	5.583	Roll Set Point:	-0.234	Pitch Set Point:	-0.122	Yaw Set Point:	-0.579	X_WP:	0.000	Y_WP:	0.000	Y_WP:	0.500	X:	0.099	Y:	0.096	Z:	0.399	yaw:	33.151	yaw rate:	0.258	Roll:	4.501	Pitch:	0.757	Yaw:	49.292	Thrust:	47.194
Time:	5.599	Roll Set Point:	-0.234	Pitch Set Point:	-0.122	Yaw Set Point:	-0.577	X_WP:	0.000	Y_WP:	0.000	Y_WP:	0.500	X:	0.099	Y:	0.096	Z:	0.399	yaw:	33.069	yaw rate:	-8.184	Roll:	4.523	Pitch:	1.211	Yaw:	46.357	Thrust:	47.802
Time:	5.614	Roll Set Point:	-0.234	Pitch Set Point:	-0.122	Yaw Set Point:	-0.577	X_WP:	0.000	Y_WP:	0.000	Y_WP:	0.500	X:	0.099	Y:	0.096	Z:	0.399	yaw:	33.069	yaw rate:	-8.184	Roll:	4.509	Pitch:	0.982	Yaw:	47.735	Thrust:	47.812
Time:	5.630	Roll Set Point:	-0.234	Pitch Set Point:	-0.122	Yaw Set Point:	-0.577	X_WP:	0.000	Y_WP:	0.000	Y_WP:	0.500	X:	0.099	Y:	0.096	Z:	0.399	yaw:	33.051	yaw rate:	1.649	Roll:	4.486	Pitch:	0.946	Yaw:	47.416	Thrust:	48.019
Time:	5.646	Roll Set Point:	-0.234	Pitch Set Point:	-0.122	Yaw Set Point:	-0.579	X_WP:	0.000	Y_WP:	0.000	Y_WP:	0.500	X:	0.099	Y:	0.096	Z:	0.399	yaw:	33.151	yaw rate:	9.962	Roll:	4.496	Pitch:	0.811	Yaw:	49.519	Thrust:	47.939
Time:	5.661	Roll Set Point:	-0.234	Pitch Set Point:	-0.122	Yaw Set Point:	-0.579	X_WP:	0.000	Y_WP:	0.000	Y_WP:	0.500	X:	0.099	Y:	0.096	Z:	0.399	yaw:	33.151	yaw rate:	9.962	Roll:	4.508	Pitch:	0.979	Yaw:	47.850	Thrust:	48.378
Time:	5.677	Roll Set Point:	-0.234	Pitch Set Point:	-0.122	Yaw Set Point:	-0.578	X_WP:	0.000	Y_WP:	0.000	Y_WP:	0.500	X:	0.099	Y:	0.096	Z:	0.399	yaw:	33.114	yaw rate:	3.200	Roll:	4.569	Pitch:	1.094	Yaw:	47.177	Thrust:	48.822
Time:	5.692	Roll Set Point:	-0.234	Pitch Set Point:	-0.122	Yaw Set Point:	-0.578	X_WP:	0.000	Y_WP:	0.000	Y_WP:	0.500	X:	0.099	Y:	0.096	Z:	0.398	yaw:	33.092	yaw rate:	-2.188	Roll:	4.489	Pitch:	0.961	Yaw:	47.401	Thrust:	48.795
Time:	5.708	Roll Set Point:	-0.234	Pitch Set Point:	-0.122	Yaw Set Point:	-0.578	X_WP:	0.000	Y_WP:	0.000	Y_WP:	0.500	X:	0.099	Y:	0.096	Z:	0.398	yaw:	33.092	yaw rate:	-2.188	Roll:	4.509	Pitch:	0.985	Yaw:	47.767	Thrust:	48.955
Time:	5.724	Roll Set Point:	-0.234	Pitch Set Point:	-0.122	Yaw Set Point:	-0.577	X_WP:	0.000	Y_WP:	0.000	Y_WP:	0.500	X:	0.099	Y:	0.096	Z:	0.399	yaw:	33.075	yaw rate:	-8.773	Roll:	4.494	Pitch:	1.020	Yaw:	47.468	Thrust:	48.985
Time:	5.739	Roll Set Point:	-0.234	Pitch Set Point:	-0.122	Yaw Set Point:	-0.577	X_WP:	0.000	Y_WP:	0.000	Y_WP:	0.500	X:	0.099	Y:	0.096	Z:	0.399	yaw:	33.070	yaw rate:	-0.540	Roll:	4.531	Pitch:	1.052	Yaw:	47.646	Thrust:	49.407
Time:	5.755	Roll Set Point:	-0.234	Pitch Set Point:	-0.122	Yaw Set Point:	-0.577	X_WP:	0.000	Y_WP:	0.000	Y_WP:	0.500	X:	0.099	Y:	0.096	Z:	0.399	yaw:	33.070	yaw rate:	-0.540	Roll:	4.510	Pitch:	0.990	Yaw:	47.737	Thrust:	49.525
Time:	5.771	Roll Set Point:	-0.234	Pitch Set Point:	-0.122	Yaw Set Point:	-0.578	X_WP:	0.000	Y_WP:	0.000	Y_WP:	0.500	X:	0.099	Y:	0.096	Z:	0.399	yaw:	33.145	yaw rate:	5.418	Roll:	4.473	Pitch:	0.807	Yaw:	49.092	Thrust:	49.505
Time:	5.786	Roll Set Point:	-0.234	Pitch Set Point:	-0.122	Yaw Set Point:	-0.578	X_WP:	0.000	Y_WP:	0.000	Y_WP:	0.500	X:	0.099	Y:	0.096	Z:	0.399	yaw:	33.145	yaw rate:	5.418	Roll:	4.509	Pitch:	0.988	Yaw:	47.841	Thrust:	49.902
Time:	5.802	Roll Set Point:	-0.234	Pitch Set Point:	-0.122	Yaw Set Point:	-0.579	X_WP:	0.000	Y_WP:	0.000	Y_WP:	0.500	X:	0.099	Y:	0.096	Z:	0.399	yaw:	33.158	yaw rate:	10.016	Roll:	4.530	Pitch:	0.993	Yaw:	48.085	Thrust:	49.913
Time:	5.817	Roll Set Point:	-0.234	Pitch Set Point:	-0.122	Yaw Set Point:	-0.578	X_WP:	0.000	Y_WP:	0.000	Y_WP:	0.500	X:	0.099	Y:	0.096	Z:	0.399	yaw:	33.105	yaw rate:	-5.344	Roll:	4.531	Pitch:	1.040	Yaw:	46.890	Thrust:	50.729
Time:	5.833	Roll Set Point:	-0.234	Pitch Set Point:	-0.121	Yaw Set Point:	-0.579	X_WP:	0.000	Y_WP:	0.000	Y_WP:	0.500	X:	0.099	Y:	0.096	Z:	0.399	yaw:	33.164	yaw rate:	5.952	Roll:	4.494	Pitch:	0.858	Yaw:	48.866	Thrust:	50.201
Time:	5.849	Roll Set Point:	-0.234	Pitch Set Point:	-0.122	Yaw Set Point:	-0.578	X_WP:	0.000	Y_WP:	0.000	Y_WP:	0.500	X:	0.099	Y:	0.096	Z:	0.398	yaw:	33.120	yaw rate:	-4.432	Roll:	4.531	Pitch:	1.146	Yaw:	47.064	Thrust:	50.983
Time:	5.864	Roll Set Point:	-0.234	Pitch Set Point:	-0.122	Yaw Set Point:	-0.578	X_WP:	0.000	Y_WP:	0.000	Y_WP:	0.500	X:	0.099	Y:	0.096	Z:	0.399	yaw:	33.123	yaw rate:	0.355	Roll:	4.462	Pitch:	0.955	Yaw:	47.871	Thrust:	50.310
Time:	5.880	Roll Set Point:	-0.234	Pitch Set Point:	-0.122	Yaw Set Point:	-0.578	X_WP:	0.000	Y_WP:	0.000	Y_WP:	0.500	X:	0.099	Y:	0.096	Z:	0.399	yaw:	33.094	yaw rate:	-2.937	Roll:	4.554	Pitch:	1.046	Yaw:	47.279	Thrust:	51.484
Time:	5.896	Roll Set Point:	-0.234	Pitch Set Point:	-0.122	Yaw Set Point:	-0.578	X_WP:	0.000	Y_WP:	0.000	Y_WP:	0.500	X:	0.099	Y:	0.096	Z:	0.399	yaw:	33.127	yaw rate:	3.312	Roll:	4.473	Pitch:	0.931	Yaw:	48.372	Thrust:	50.923
Time:	5.911	Roll Set Point:	-0.234	Pitch Set Point:	-0.122	Yaw Set Point:	-0.578	X_WP:	0.000	Y_WP:	0.000	Y_WP:	0.500	X:	0.099	Y:	0.096	Z:	0.399	yaw:	33.105	yaw rate:	-2.191	Roll:	4.534	Pitch:	1.067	Yaw:	47.420	Thrust:	51.815
Time:	5.927	Roll Set Point:	-0.234	Pitch Set Point:	-0.122	Yaw Set Point:	-0.577	X_WP:	0.000	Y_WP:	0.000	Y_WP:	0.500	X:	0.099	Y:	0.096	Z:	0.399	yaw:	33.050	yaw rate:	-5.509	Roll:	4.499	Pitch:	1.096	Yaw:	46.786	Thrust:	51.371
Time:	5.942	Roll Set Point:	-0.234	Pitch Set Point:	-0.122	Yaw Set Point:	-0.578	X_WP:	0.000	Y_WP:	0.000	Y_WP:	0.500	X:	0.099	Y:	0.096	Z:	0.399	yaw:	33.110	yaw rate:	6.018	Roll:	4.529	Pitch:	0.913	Yaw:	48.802	Thrust:	51.967
Time:	5.958	Roll Set Point:	-0.234	Pitch Set Point:	-0.122	Yaw Set Point:	-0.579	X_WP:	0.000	Y_WP:	0.000	Y_WP:	0.500	X:	0.099	Y:	0.096	Z:	0.399	yaw:	33.153	yaw rate:	4.309	Roll:	4.483	Pitch:	0.883	Yaw:	48.575	Thrust:	51.781
Time:	5.974	Roll Set Point:	-0.234	Pitch Set Point:	-0.122	Yaw Set Point:	-0.579	X_WP:	0.000	Y_WP:	0.000	Y_WP:	0.500	X:	0.099	Y:	0.096	Z:	0.399	yaw:	33.159	yaw rate:	0.599	Roll:	4.501	Pitch:	1.018	Yaw:	47.962	Thrust:	52.189
Time:	5.989	Roll Set Point:	-0.234	Pitch Set Point:	-0.122	Yaw Set Point:	-0.579	X_WP:	0.000	Y_WP:	0.000	Y_WP:	0.500	X:	0.099	Y:	0.096	Z:	0.399	yaw:	33.159	yaw rate:	0.599	Roll:	4.509	Pitch:	1.001	Yaw:	47.862	Thrust:	52.372
Time:	6.005	Roll Set Point:	-0.088	Pitch Set Point:	-0.034	Yaw Set Point:	-0.578	X_WP:	0.075	Y_WP:	0.153	Y_WP:	0.500	X:	0.099	Y:	0.096	Z:	0.399	yaw:	33.097	yaw rate:	0.349	Roll:	-30.000	Pitch:	-30.000	Yaw:	46.728	Thrust:	52.809
Time:	6.021	Roll Set Point:	-0.088	Pitch Set Point:	-0.034	Yaw Set Point:	-0.579	X_WP:	0.075	Y_WP:	0.153	Y_WP:	0.500	X:	0.099	Y:	0.096	Z:	0.399	yaw:	33.173	yaw rate:	7.635	Roll:	0.161	Pitch:	-1.511	Yaw:	49.161	Thrust:	52.598
Time:	6.036	Roll Set Point:	-0.088	Pitch Set Point:	-0.034	Yaw Set Point:	-0.579	X_WP:	0.075	Y_WP:	0.153	Y_WP:	0.500	X:	0.099	Y:	0.096	Z:	0.399	yaw:	33.185	yaw rate:	1.157	Roll:	0.247	Pitch:	-1.535	Yaw:	48.089	Thrust:	53.019
Time:	6.063	Roll Set Point:	-0.088	Pitch Set Point:	-0.034	Yaw Set Point:	-0.578	X_WP:	0.075	Y_WP:	0.153	Y_WP:	0.500	X:	0.099	Y:	0.096	Z:	0.399	yaw:	33.089	yaw rate:	3.640	Roll:	0.717	Pitch:	-1.375	Yaw:	47.914	Thrust:	86.446
Time:	6.078	Roll Set Point:	-0.088	Pitch Set Point:	-0.034	Yaw Set Point:	-0.577	X_WP:	0.075	Y_WP:	0.153	Y_WP:	0.500	X:	0.099	Y:	0.096	Z:	0.399	yaw:	33.053	yaw rate:	-3.615	Roll:	0.296	Pitch:	-1.544	Yaw:	47.112	Thrust:	53.473
Time:	6.094	Roll Set Point:	-0.088	Pitch Set Point:	-0.034	Yaw Set Point:	-0.577	X_WP:	0.075	Y_WP:	0.153	Y_WP:	0.500	X:	0.099	Y:	0.096	Z:	0.399	yaw:	33.073	yaw rate:	2.063	Roll:	0.204	Pitch:	-1.529	Yaw:	48.085	Thrust:	53.490
Time:	6.110	Roll Set Point:	-0.088	Pitch Set Point:	-0.034	Yaw Set Point:	-0.577	X_WP:	0.075	Y_WP:	0.153	Y_WP:	0.500	X:	0.099	Y:	0.096	Z:	0.399	yaw:	33.050	yaw rate:	-2.389	Roll:	0.294	Pitch:	-1.552	Yaw:	47.308	Thrust:	53.604
Time:	6.125	Roll Set Point:	-0.088	Pitch Set Point:	-0.034	Yaw Set Point:	-0.577	X_WP:	0.075	Y_WP:	0.153	Y_WP:	0.500	X:	0.099	Y:	0.096	Z:	0.399	yaw:	33.068	yaw rate:	1.833	Roll:	0.259	Pitch:	-1.543	Yaw:	48.044	Thrust:	53.955
Time:	6.141	Roll Set Point:	-0.088	Pitch Set Point:	-0.034	Yaw Set Point:	-0.577	X_WP:	0.075	Y_WP:	0.153	Y_WP:	0.500	X:	0.099	Y:	0.096	Z:	0.399	yaw:	33.083	yaw rate:	1.527	Roll:	0.247	Pitch:	-1.548	Yaw:	48.011	Thrust:	54.199
Time:	6.157	Roll Set Point:	-0.088	Pitch Set Point:	-0.034	Yaw Set Point:	-0.577	X_WP:	0.075	Y_WP:	0.153	Y_WP:	0.500	X:	0.099	Y:	0.096	Z:	0.398	yaw:	33.082	yaw rate:	-0.136	Roll:	0.241	Pitch:	-1.548	Yaw:	47.731	Thrust:	54.361
Time:	6.172	Roll Set Point:	-0.088	Pitch Set Point:	-0.034	Yaw Set Point:	-0.577	X_WP:	0.075	Y_WP:	0.153	Y_WP:	0.500	X:	0.099	Y:	0.096	Z:	0.398	yaw:	33.082	yaw rate:	-0.136	Roll:	0.253	Pitch:	-1.553	Yaw:	47.750	Thrust:	54.372
Time:	6.188	Roll Set Point:	-0.088	Pitch Set Point:	-0.034	Yaw Set Point:	-0.577	X_WP:	0.075	Y_WP:	0.153	Y_WP:	0.500	X:	0.099	Y:	0.096	Z:	0.399	yaw:	33.076	yaw rate:	-9.727	Roll:	0.258	Pitch:	-1.552	Yaw:	47.641	Thrust:	54.478
Time:	6.203	Roll Set Point:	-0.088	Pitch Set Point:	-0.034	Yaw Set Point:	-0.577	X_WP:	0.075	Y_WP:	0.153	Y_WP:	0.500	X:	0.099	Y:	0.096	Z:	0.399	yaw:	33.076	yaw rate:	-9.727	Roll:	0.253	Pitch:	-1.557	Yaw:	47.748	Thrust:	54.943
Time:	6.219	Roll Set Point:	-0.088	Pitch Set Point:	-0.034	Yaw Set Point:	-0.577	X_WP:	0.075	Y_WP:	0.153	Y_WP:	0.500	X:	0.099	Y:	0.096	Z:	0.399	yaw:	33.065	yaw rate:	-1.053	Roll:	0.253	Pitch:	-1.564	Yaw:	47.551	Thrust:	54.838
Time:	6.235	Roll Set Point:	-0.088	Pitch Set Point:	-0.034	Yaw Set Point:	-0.578	X_WP:	0.075	Y_WP:	0.153	Y_WP:	0.500	X:	0.099	Y:	0.096	Z:	0.399	yaw:	33.094	yaw rate:	1.561	Roll:	0.198	Pitch:	-1.552	Yaw:	48.260	Thrust:	55.527
Time:	6.250	Roll Set Point:	-0.088	Pitch Set Point:	-0.034	Yaw Set Point:	-0.578	X_WP:	0.075	Y_WP:	0.153	Y_WP:	0.500	X:	0.099	Y:	0.096	Z:	0.399	yaw:	33.091	yaw rate:	-0.271	Roll:	0.285	Pitch:	-1.566	Yaw:	47.722	Thrust:	55.340
Time:	6.266	Roll Set Point:	-0.088	Pitch Set Point:	-0.034	Yaw Set Point:	-0.577	X_WP:	0.075	Y_WP:	0.153	Y_WP:	0.500	X:	0.099	Y:	0.096	Z:	0.399	yaw:	33.065	yaw rate:	-2.660	Roll:	0.273	Pitch:	-1.575	Yaw:	47.280	Thrust:	55.459
Time:	6.282	Roll Set Point:	-0.088	Pitch Set Point:	-0.034	Yaw Set Point:	-0.577	X_WP:	0.075	Y_WP:	0.153	Y_WP:	0.500	X:	0.099	Y:	0.096	Z:	0.399	yaw:	33.065	yaw rate:	-2.660	Roll:	0.252	Pitch:	-1.569	Yaw:	47.733	Thrust:	55.904
Time:	6.297	Roll Set Point:	-0.088	Pitch Set Point:	-0.034	Yaw Set Point:	-0.577	X_WP:	0.075	Y_WP:	0.153	Y_WP:	0.500	X:	0.099	Y:	0.096	Z:	0.399	yaw:	33.056	yaw rate:	-3.565	Roll:	0.240	Pitch:	-1.568	Yaw:	47.562	Thrust:	56.003
Time:	6.313	Roll Set Point:	-0.088	Pitch Set Point:	-0.034	Yaw Set Point:	-0.577	X_WP:	0.075	Y_WP:	0.153	Y_WP:	0.500	X:	0.099	Y:	0.096	Z:	0.399	yaw:	33.056	yaw rate:	-0.002	Roll:	0.260	Pitch:	-1.577	Yaw:	47.717	Thrust:	56.058
