Time:	2.122	Roll Set Point:	-0.234	Pitch Set Point:	-0.122	Yaw Set Point:	-0.577	X_WP:	0.000	Y_WP:	0.000	Y_WP:	0.500	X:	0.099	Y:	0.096	Z:	0.399	yaw:	33.039	yaw rate:	-12.577	Roll:	3.923	Pitch:	0.756	Yaw:	46.131	Thrust:	5.578
Time:	2.138	Roll Set Point:	-0.234	Pitch Set Point:	-0.122	Yaw Set Point:	-0.578	X_WP:	0.000	Y_WP:	0.000	Y_WP:	0.500	X:	0.099	Y:	0.096	Z:	0.399	yaw:	33.092	yaw rate:	5.302	Roll:	3.946	Pitch:	0.696	Yaw:	47.273	Thrust:	5.921
Time:	2.154	Roll Set Point:	-0.234	Pitch Set Point:	-0.122	Yaw Set Point:	-0.577	X_WP:	0.000	Y_WP:	0.000	Y_WP:	0.500	X:	0.099	Y:	0.096	Z:	0.399	yaw:	33.074	yaw rate:	-5.369	Roll:	3.919	Pitch:	0.786	Yaw:	46.247	Thrust:	5.931
Time:	2.169	Roll Set Point:	-0.234	Pitch Set Point:	-0.122	Yaw Set Point:	-0.579	X_WP:	0.000	Y_WP:	0.000	Y_WP:	0.500	X:	0.099	Y:	0.096	Z:	0.399	yaw:	33.166	yaw rate:	9.142	Roll:	3.932	Pitch:	0.595	Yaw:	48.381	Thrust:	5.822
Time:	2.185	Roll Set Point:	-0.234	Pitch Set Point:	-0.122	Yaw Set Point:	-0.578	X_WP:	0.000	Y_WP:	0.000	Y_WP:	0.500	X:	0.099	Y:	0.096	Z:	0.399	yaw:	33.095	yaw rate:	-7.064	Roll:	3.964	Pitch:	0.888	Yaw:	45.748	Thrust:	6.733
Time:	2.201	Roll Set Point:	-0.234	Pitch Set Point:	-0.122	Yaw Set Point:	-0.578	X_WP:	0.000	Y_WP:	0.000	Y_WP:	0.500	X:	0.099	Y:	0.096	Z:	0.399	yaw:	33.094	yaw rate:	-0.104	Roll:	3.940	Pitch:	0.769	Yaw:	47.093	Thrust:	6.513
Time:	2.216	Roll Set Point:	-0.234	Pitch Set Point:	-0.122	Yaw Set Point:	-0.578	X_WP:	0.000	Y_WP:	0.000	Y_WP:	0.500	X:	0.099	Y:	0.096	Z:	0.399	yaw:	33.132	yaw rate:	3.806	Roll:	3.920	Pitch:	0.697	Yaw:	47.982	Thrust:	6.409
Time:	2.232	Roll Set Point:	-0.234	Pitch Set Point:	-0.122	Yaw Set Point:	-0.578	X_WP:	0.000	Y_WP:	0.000	Y_WP:	0.500	X:	0.099	Y:	0.096	Z:	0.399	yaw:	33.132	yaw rate:	3.806	Roll:	3.959	Pitch:	0.760	Yaw:	47.525	Thrust:	6.907
Time:	2.247	Roll Set Point:	-0.234	Pitch Set Point:	-0.122	Yaw Set Point:	-0.577	X_WP:	0.000	Y_WP:	0.000	Y_WP:	0.500	X:	0.099	Y:	0.096	Z:	0.399	yaw:	33.074	yaw rate:	-1.219	Roll:	4.014	Pitch:	0.811	Yaw:	46.657	Thrust:	7.257
Time:	2.263	Roll Set Point:	-0.234	Pitch Set Point:	-0.122	Yaw Set Point:	-0.579	X_WP:	0.000	Y_WP:	0.000	Y_WP:	0.500	X:	0.099	Y:	0.096	Z:	0.399	yaw:	33.165	yaw rate:	9.127	Roll:	3.956	Pitch:	0.639	Yaw:	49.399	Thrust:	7.151
Time:	2.279	Roll Set Point:	-0.234	Pitch Set Point:	-0.122	Yaw Set Point:	-0.579	X_WP:	0.000	Y_WP:	0.000	Y_WP:	0.500	X:	0.099	Y:	0.096	Z:	0.399	yaw:	33.146	yaw rate:	-1.968	Roll:	3.971	Pitch:	0.799	Yaw:	47.513	Thrust:	7.396
Time:	2.294	Roll Set Point:	-0.234	Pitch Set Point:	-0.122	Yaw Set Point:	-0.578	X_WP:	0.000	Y_WP:	0.000	Y_WP:	0.500	X:	0.099	Y:	0.096	Z:	0.399	yaw:	33.101	yaw rate:	-4.469	Roll:	3.995	Pitch:	0.826	Yaw:	47.032	Thrust:	8.046
Time:	2.310	Roll Set Point:	-0.234	Pitch Set Point:	-0.122	Yaw Set Point:	-0.578	X_WP:	0.000	Y_WP:	0.000	Y_WP:	0.500	X:	0.099	Y:	0.096	Z:	0.399	yaw:	33.143	yaw rate:	4.234	Roll:	3.961	Pitch:	0.697	Yaw:	48.550	Thrust:	7.596
Time:	2.326	Roll Set Point:	-0.234	Pitch Set Point:	-0.122	Yaw Set Point:	-0.579	X_WP:	0.000	Y_WP:	0.000	Y_WP:	0.500	X:	0.099	Y:	0.096	Z:	0.399	yaw:	33.155	yaw rate:	1.209	Roll:	3.995	Pitch:	0.787	Yaw:	48.056	Thrust:	8.066
Time:	2.341	Roll Set Point:	-0.234	Pitch Set Point:	-0.122	Yaw Set Point:	-0.579	X_WP:	0.000	Y_WP:	0.000	Y_WP:	0.500	X:	0.099	Y:	0.096	Z:	0.399	yaw:	33.155	yaw rate:	1.209	Roll:	3.997	Pitch:	0.767	Yaw:	47.857	Thrust:	8.240
Time:	2.357	Roll Set Point:	-0.234	Pitch Set Point:	-0.122	Yaw Set Point:	-0.579	X_WP:	0.000	Y_WP:	0.000	Y_WP:	0.500	X:	0.099	Y:	0.096	Z:	0.399	yaw:	33.156	yaw rate:	0.038	Roll:	4.006	Pitch:	0.793	Yaw:	47.871	Thrust:	8.516
Time:	2.373	Roll Set Point:	-0.234	Pitch Set Point:	-0.122	Yaw Set Point:	-0.578	X_WP:	0.000	Y_WP:	0.000	Y_WP:	0.500	X:	0.099	Y:	0.096	Z:	0.399	yaw:	33.092	yaw rate:	-6.328	Roll:	4.019	Pitch:	0.838	Yaw:	46.708	Thrust:	8.756
Time:	2.388	Roll Set Point:	-0.234	Pitch Set Point:	-0.122	Yaw Set Point:	-0.577	X_WP:	0.000	Y_WP:	0.000	Y_WP:	0.500	X:	0.099	Y:	0.096	Z:	0.399	yaw:	33.086	yaw rate:	-0.650	Roll:	4.015	Pitch:	0.739	Yaw:	47.644	Thrust:	8.850
Time:	2.404	Roll Set Point:	-0.234	Pitch Set Point:	-0.122	Yaw Set Point:	-0.578	X_WP:	0.000	Y_WP:	0.000	Y_WP:	0.500	X:	0.099	Y:	0.096	Z:	0.399	yaw:	33.126	yaw rate:	3.969	Roll:	3.984	Pitch:	0.752	Yaw:	48.480	Thrust:	8.615
Time:	2.419	Roll Set Point:	-0.234	Pitch Set Point:	-0.122	Yaw Set Point:	-0.577	X_WP:	0.000	Y_WP:	0.000	Y_WP:	0.500	X:	0.099	Y:	0.096	Z:	0.399	yaw:	33.043	yaw rate:	-8.305	Roll:	4.038	Pitch:	0.892	Yaw:	46.307	Thrust:	9.386
Time:	2.435	Roll Set Point:	-0.234	Pitch Set Point:	-0.122	Yaw Set Point:	-0.578	X_WP:	0.000	Y_WP:	0.000	Y_WP:	0.500	X:	0.099	Y:	0.096	Z:	0.399	yaw:	33.106	yaw rate:	6.310	Roll:	4.048	Pitch:	0.619	Yaw:	48.843	Thrust:	9.482
Time:	2.451	Roll Set Point:	-0.234	Pitch Set Point:	-0.122	Yaw Set Point:	-0.578	X_WP:	0.000	Y_WP:	0.000	Y_WP:	0.500	X:	0.099	Y:	0.096	Z:	0.399	yaw:	33.106	yaw rate:	6.310	Roll:	4.034	Pitch:	0.774	Yaw:	47.787	Thrust:	9.574
Time:	2.466	Roll Set Point:	-0.234	Pitch Set Point:	-0.122	Yaw Set Point:	-0.579	X_WP:	0.000	Y_WP:	0.000	Y_WP:	0.500	X:	0.099	Y:	0.096	Z:	0.399	yaw:	33.147	yaw rate:	8.179	Roll:	4.029	Pitch:	0.766	Yaw:	48.535	Thrust:	9.489
Time:	2.482	Roll Set Point:	-0.234	Pitch Set Point:	-0.122	Yaw Set Point:	-0.579	X_WP:	0.000	Y_WP:	0.000	Y_WP:	0.500	X:	0.099	Y:	0.096	Z:	0.399	yaw:	33.147	yaw rate:	8.179	Roll:	4.045	Pitch:	0.776	Yaw:	47.844	Thrust:	9.948
Time:	2.497	Roll Set Point:	-0.234	Pitch Set Point:	-0.122	Yaw Set Point:	-0.578	X_WP:	0.000	Y_WP:	0.000	Y_WP:	0.500	X:	0.099	Y:	0.096	Z:	0.399	yaw:	33.141	yaw rate:	-0.616	Roll:	4.027	Pitch:	0.771	Yaw:	47.729	Thrust:	10.112
Time:	2.513	Roll Set Point:	-0.234	Pitch Set Point:	-0.122	Yaw Set Point:	-0.578	X_WP:	0.000	Y_WP:	0.000	Y_WP:	0.500	X:	0.099	Y:	0.096	Z:	0.399	yaw:	33.141	yaw rate:	-0.616	Roll:	4.055	Pitch:	0.778	Yaw:	47.836	Thrust:	10.328
Time:	2.529	Roll Set Point:	-0.234	Pitch Set Point:	-0.122	Yaw Set Point:	-0.577	X_WP:	0.000	Y_WP:	0.000	Y_WP:	0.500	X:	0.099	Y:	0.096	Z:	0.399	yaw:	33.071	yaw rate:	-5.026	Roll:	4.085	Pitch:	0.941	Yaw:	46.570	Thrust:	10.723
Time:	2.544	Roll Set Point:	-0.234	Pitch Set Point:	-0.122	Yaw Set Point:	-0.577	X_WP:	0.000	Y_WP:	0.000	Y_WP:	0.500	X:	0.099	Y:	0.096	Z:	0.399	yaw:	33.085	yaw rate:	1.445	Roll:	4.069	Pitch:	0.741	Yaw:	48.003	Thrust:	10.904
Time:	2.560	Roll Set Point:	-0.234	Pitch Set Point:	-0.122	Yaw Set Point:	-0.578	X_WP:	0.000	Y_WP:	0.000	Y_WP:	0.500	X:	0.099	Y:	0.096	Z:	0.399	yaw:	33.093	yaw rate:	0.766	Roll:	4.066	Pitch:	0.721	Yaw:	47.895	Thrust:	10.835
Time:	2.576	Roll Set Point:	-0.234	Pitch Set Point:	-0.122	Yaw Set Point:	-0.579	X_WP:	0.000	Y_WP:	0.000	Y_WP:	0.500	X:	0.099	Y:	0.096	Z:	0.399	yaw:	33.155	yaw rate:	6.193	Roll:	4.068	Pitch:	0.689	Yaw:	48.893	Thrust:	10.841
Time:	2.591	Roll Set Point:	-0.234	Pitch Set Point:	-0.122	Yaw Set Point:	-0.579	X_WP:	0.000	Y_WP:	0.000	Y_WP:	0.500	X:	0.099	Y:	0.096	Z:	0.399	yaw:	33.155	yaw rate:	6.193	Roll:	4.081	Pitch:	0.782	Yaw:	47.856	Thrust:	11.280
Time:	2.607	Roll Set Point:	-0.234	Pitch Set Point:	-0.122	Yaw Set Point:	-0.579	X_WP:	0.000	Y_WP:	0.000	Y_WP:	0.500	X:	0.099	Y:	0.096	Z:	0.399	yaw:	33.164	yaw rate:	0.861	Roll:	4.097	Pitch:	0.809	Yaw:	48.012	Thrust:	11.481
Time:	2.621	Roll Set Point:	-0.234	Pitch Set Point:	-0.122	Yaw Set Point:	-0.579	X_WP:	0.000	Y_WP:	0.000	Y_WP:	0.500	X:	0.099	Y:	0.096	Z:	0.399	yaw:	33.161	yaw rate:	-0.287	Roll:	4.084	Pitch:	0.776	Yaw:	47.713	Thrust:	11.272
Time:	2.638	Roll Set Point:	-0.234	Pitch Set Point:	-0.122	Yaw Set Point:	-0.577	X_WP:	0.000	Y_WP:	0.000	Y_WP:	0.500	X:	0.099	Y:	0.096	Z:	0.399	yaw:	33.078	yaw rate:	-7.065	Roll:	4.113	Pitch:	0.868	Yaw:	46.564	Thrust:	12.441
Time:	2.654	Roll Set Point:	-0.234	Pitch Set Point:	-0.122	Yaw Set Point:	-0.577	X_WP:	0.000	Y_WP:	0.000	Y_WP:	0.500	X:	0.099	Y:	0.096	Z:	0.399	yaw:	33.078	yaw rate:	-0.032	Roll:	4.106	Pitch:	0.800	Yaw:	47.741	Thrust:	11.988
Time:	2.669	Roll Set Point:	-0.234	Pitch Set Point:	-0.122	Yaw Set Point:	-0.579	X_WP:	0.000	Y_WP:	0.000	Y_WP:	0.500	X:	0.099	Y:	0.096	Z:	0.399	yaw:	33.202	yaw rate:	12.453	Roll:	4.133	Pitch:	0.639	Yaw:	50.009	Thrust:	12.223
Time:	2.685	Roll Set Point:	-0.234	Pitch Set Point:	-0.122	Yaw Set Point:	-0.579	X_WP:	0.000	Y_WP:	0.000	Y_WP:	0.500	X:	0.099	Y:	0.096	Z:	0.399	yaw:	33.164	yaw rate:	-3.792	Roll:	4.066	Pitch:	0.837	Yaw:	47.233	Thrust:	12.315
Time:	2.701	Roll Set Point:	-0.234	Pitch Set Point:	-0.122	Yaw Set Point:	-0.579	X_WP:	0.000	Y_WP:	0.000	Y_WP:	0.500	X:	0.099	Y:	0.096	Z:	0.399	yaw:	33.164	yaw rate:	-3.792	Roll:	4.119	Pitch:	0.789	Yaw:	47.872	Thrust:	12.627
Time:	2.716	Roll Set Point:	-0.234	Pitch Set Point:	-0.122	Yaw Set Point:	-0.579	X_WP:	0.000	Y_WP:	0.000	Y_WP:	0.500	X:	0.099	Y:	0.096	Z:	0.399	yaw:	33.148	yaw rate:	6.056	Roll:	4.140	Pitch:	0.845	Yaw:	47.571	Thrust:	12.761
Time:	2.732	Roll Set Point:	-0.234	Pitch Set Point:	-0.122	Yaw Set Point:	-0.579	X_WP:	0.000	Y_WP:	0.000	Y_WP:	0.500	X:	0.099	Y:	0.096	Z:	0.399	yaw:	33.148	yaw rate:	6.056	Roll:	4.129	Pitch:	0.793	Yaw:	47.845	Thrust:	12.989
Time:	2.748	Roll Set Point:	-0.234	Pitch Set Point:	-0.122	Yaw Set Point:	-0.577	X_WP:	0.000	Y_WP:	0.000	Y_WP:	0.500	X:	0.099	Y:	0.096	Z:	0.399	yaw:	33.078	yaw rate:	-1.234	Roll:	4.124	Pitch:	0.821	Yaw:	46.565	Thrust:	13.337
Time:	2.763	Roll Set Point:	-0.234	Pitch Set Point:	-0.122	Yaw Set Point:	-0.577	X_WP:	0.000	Y_WP:	0.000	Y_WP:	0.500	X:	0.099	Y:	0.096	Z:	0.399	yaw:	33.078	yaw rate:	-1.234	Roll:	4.140	Pitch:	0.796	Yaw:	47.748	Thrust:	13.374
Time:	2.779	Roll Set Point:	-0.234	Pitch Set Point:	-0.122	Yaw Set Point:	-0.577	X_WP:	0.000	Y_WP:	0.000	Y_WP:	0.500	X:	0.099	Y:	0.096	Z:	0.399	yaw:	33.038	yaw rate:	-13.302	Roll:	4.144	Pitch:	0.906	Yaw:	47.034	Thrust:	13.495
Time:	2.794	Roll Set Point:	-0.234	Pitch Set Point:	-0.122	Yaw Set Point:	-0.578	X_WP:	0.000	Y_WP:	0.000	Y_WP:	0.500	X:	0.099	Y:	0.096	Z:	0.399	yaw:	33.128	yaw rate:	8.996	Roll:	4.130	Pitch:	0.732	Yaw:	49.326	Thrust:	13.721
Time:	2.810	Roll Set Point:	-0.234	Pitch Set Point:	-0.122	Yaw Set Point:	-0.578	X_WP:	0.000	Y_WP:	0.000	Y_WP:	0.500	X:	0.099	Y:	0.096	Z:	0.399	yaw:	33.128	yaw rate:	8.996	Roll:	4.155	Pitch:	0.800	Yaw:	47.818	Thrust:	13.943
Time:	2.826	Roll Set Point:	-0.234	Pitch Set Point:	-0.122	Yaw Set Point:	-0.579	X_WP:	0.000	Y_WP:	0.000	Y_WP:	0.500	X:	0.099	Y:	0.096	Z:	0.399	yaw:	33.155	yaw rate:	6.670	Roll:	4.173	Pitch:	0.720	Yaw:	48.298	Thrust:	14.191
Time:	2.841	Roll Set Point:	-0.234	Pitch Set Point:	-0.122	Yaw Set Point:	-0.577	X_WP:	0.000	Y_WP:	0.000	Y_WP:	0.500	X:	0.099	Y:	0.096	Z:	0.399	yaw:	33.079	yaw rate:	-7.567	Roll:	4.204	Pitch:	0.880	Yaw:	46.482	Thrust:	14.470
Time:	2.857	Roll Set Point:	-0.234	Pitch Set Point:	-0.122	Yaw Set Point:	-0.577	X_WP:	0.000	Y_WP:	0.000	Y_WP:	0.500	X:	0.099	Y:	0.096	Z:	0.399	yaw:	33.070	yaw rate:	-0.935	Roll:	4.153	Pitch:	0.869	Yaw:	47.580	Thrust:	14.524
Time:	2.873	Roll Set Point:	-0.234	Pitch Set Point:	-0.122	Yaw Set Point:	-0.577	X_WP:	0.000	Y_WP:	0.000	Y_WP:	0.500	X:	0.099	Y:	0.096	Z:	0.399	yaw:	33.049	yaw rate:	-2.060	Roll:	4.150	Pitch:	0.808	Yaw:	47.366	Thrust:	14.608
Time:	2.888	Roll Set Point:	-0.234	Pitch Set Point:	-0.122	Yaw Set Point:	-0.577	X_WP:	0.000	Y_WP:	0.000	Y_WP:	0.500	X:	0.099	Y:	0.096	Z:	0.399	yaw:	33.049	yaw rate:	-2.060	Roll:	4.181	Pitch:	0.806	Yaw:	47.705	Thrust:	14.877
Time:	2.904	Roll Set Point:	-0.234	Pitch Set Point:	-0.122	Yaw Set Point:	-0.578	X_WP:	0.000	Y_WP:	0.000	Y_WP:	0.500	X:	0.099	Y:	0.096	Z:	0.398	yaw:	33.092	yaw rate:	-8.764	Roll:	4.227	Pitch:	0.772	Yaw:	48.493	Thrust:	15.363
Time:	2.919	Roll Set Point:	-0.234	Pitch Set Point:	-0.122	Yaw Set Point:	-0.579	X_WP:	0.000	Y_WP:	0.000	Y_WP:	0.500	X:	0.099	Y:	0.096	Z:	0.399	yaw:	33.147	yaw rate:	5.452	Roll:	4.171	Pitch:	0.696	Yaw:	48.758	Thrust:	14.874
Time:	2.935	Roll Set Point:	-0.234	Pitch Set Point:	-0.122	Yaw Set Point:	-0.579	X_WP:	0.000	Y_WP:	0.000	Y_WP:	0.500	X:	0.099	Y:	0.096	Z:	0.399	yaw:	33.196	yaw rate:	4.892	Roll:	4.201	Pitch:	0.697	Yaw:	48.732	Thrust:	15.588
Time:	2.951	Roll Set Point:	-0.234	Pitch Set Point:	-0.122	Yaw Set Point:	-0.579	X_WP:	0.000	Y_WP:	0.000	Y_WP:	0.500	X:	0.099	Y:	0.096	Z:	0.399	yaw:	33.196	yaw rate:	4.892	Roll:	4.203	Pitch:	0.804	Yaw:	47.913	Thrust:	15.656
Time:	2.966	Roll Set Point:	-0.234	Pitch Set Point:	-0.122	Yaw Set Point:	-0.579	X_WP:	0.000	Y_WP:	0.000	Y_WP:	0.500	X:	0.099	Y:	0.096	Z:	0.399	yaw:	33.157	yaw rate:	-3.873	Roll:	4.195	Pitch:	0.831	Yaw:	47.210	Thrust:	15.724
Time:	2.982	Roll Set Point:	-0.234	Pitch Set Point:	-0.122	Yaw Set Point:	-0.577	X_WP:	0.000	Y_WP:	0.000	Y_WP:	0.500	X:	0.099	Y:	0.096	Z:	0.399	yaw:	33.080	yaw rate:	-7.657	Roll:	4.227	Pitch:	1.027	Yaw:	46.469	Thrust:	16.339
Time:	2.998	Roll Set Point:	-0.234	Pitch Set Point:	-0.122	Yaw Set Point:	-0.577	X_WP:	0.000	Y_WP:	0.000	Y_WP:	0.500	X:	0.099	Y:	0.096	Z:	0.399	yaw:	33.048	yaw rate:	-8.626	Roll:	4.211	Pitch:	0.817	Yaw:	47.163	Thrust:	16.041
Time:	3.013	Roll Set Point:	-0.234	Pitch Set Point:	-0.122	Yaw Set Point:	-0.578	X_WP:	0.000	Y_WP:	0.000	Y_WP:	0.500	X:	0.099	Y:	0.096	Z:	0.399	yaw:	33.135	yaw rate:	8.736	Roll:	4.209	Pitch:	0.663	Yaw:	49.292	Thrust:	16.268
Time:	3.029	Roll Set Point:	-0.234	Pitch Set Point:	-0.122	Yaw Set Point:	-0.579	X_WP:	0.000	Y_WP:	0.000	Y_WP:	0.500	X:	0.099	Y:	0.096	Z:	0.399	yaw:	33.174	yaw rate:	3.835	Roll:	4.259	Pitch:	0.738	Yaw:	48.524	Thrust:	16.658
Time:	3.044	Roll Set Point:	-0.234	Pitch Set Point:	-0.122	Yaw Set Point:	-0.577	X_WP:	0.000	Y_WP:	0.000	Y_WP:	0.500	X:	0.099	Y:	0.096	Z:	0.399	yaw:	33.068	yaw rate:	-10.554	Roll:	4.230	Pitch:	1.034	Yaw:	45.967	Thrust:	16.974
Time:	3.060	Roll Set Point:	-0.234	Pitch Set Point:	-0.122	Yaw Set Point:	-0.579	X_WP:	0.000	Y_WP:	0.000	Y_WP:	0.500	X:	0.099	Y:	0.096	Z:	0.399	yaw:	33.158	yaw rate:	8.964	Roll:	4.229	Pitch:	0.631	Yaw:	49.361	Thrust:	16.738
Time:	3.076	Roll Set Point:	-0.234	Pitch Set Point:	-0.122	Yaw Set Point:	-0.576	X_WP:	0.000	Y_WP:	0.000	Y_WP:	0.500	X:	0.099	Y:	0.096	Z:	0.399	yaw:	33.028	yaw rate:	-12.945	Roll:	4.227	Pitch:	1.006	Yaw:	45.510	Thrust:	17.292
Time:	3.091	Roll Set Point:	-0.234	Pitch Set Point:	-0.122	Yaw Set Point:	-0.578	X_WP:	0.000	Y_WP:	0.000	Y_WP:	0.500	X:	0.099	Y:	0.096	Z:	0.399	yaw:	33.099	yaw rate:	7.056	Roll:	4.304	Pitch:	0.684	Yaw:	48.960	Thrust:	17.498
Time:	3.107	Roll Set Point:	-0.234	Pitch Set Point:	-0.122	Yaw Set Point:	-0.579	X_WP:	0.000	Y_WP:	0.000	Y_WP:	0.500	X:	0.099	Y:	0.096	Z:	0.399	yaw:	33.147	yaw rate:	4.824	Roll:	4.227	Pitch:	0.824	Yaw:	48.653	Thrust:	17.401
Time:	3.123	Roll Set Point:	-0.234	Pitch Set Point:	-0.122	Yaw Set Point:	-0.579	X_WP:	0.000	Y_WP:	0.000	Y_WP:	0.500	X:	0.099	Y:	0.096	Z:	0.399	yaw:	33.171	yaw rate:	2.352	Roll:	4.280	Pitch:	0.761	Yaw:	48.272	Thrust:	17.820
Time:	3.138	Roll Set Point:	-0.234	Pitch Set Point:	-0.122	Yaw Set Point:	-0.579	X_WP:	0.000	Y_WP:	0.000	Y_WP:	0.500	X:	0.099	Y:	0.096	Z:	0.399	yaw:	33.171	yaw rate:	2.352	Roll:	4.267	Pitch:	0.818	Yaw:	47.877	Thrust:	17.936
Time:	3.154	Roll Set Point:	-0.234	Pitch Set Point:	-0.122	Yaw Set Point:	-0.578	X_WP:	0.000	Y_WP:	0.000	Y_WP:	0.500	X:	0.099	Y:	0.096	Z:	0.399	yaw:	33.113	yaw rate:	-5.756	Roll:	4.282	Pitch:	0.872	Yaw:	46.832	Thrust:	18.279
Time:	3.170	Roll Set Point:	-0.234	Pitch Set Point:	-0.122	Yaw Set Point:	-0.578	X_WP:	0.000	Y_WP:	0.000	Y_WP:	0.500	X:	0.099	Y:	0.096	Z:	0.399	yaw:	33.107	yaw rate:	-0.589	Roll:	4.278	Pitch:	0.813	Yaw:	47.690	Thrust:	18.281
Time:	3.185	Roll Set Point:	-0.234	Pitch Set Point:	-0.122	Yaw Set Point:	-0.578	X_WP:	0.000	Y_WP:	0.000	Y_WP:	0.500	X:	0.099	Y:	0.096	Z:	0.399	yaw:	33.138	yaw rate:	5.755	Roll:	4.244	Pitch:	0.845	Yaw:	48.351	Thrust:	18.306
Time:	3.201	Roll Set Point:	-0.234	Pitch Set Point:	-0.122	Yaw Set Point:	-0.578	X_WP:	0.000	Y_WP:	0.000	Y_WP:	0.500	X:	0.099	Y:	0.096	Z:	0.399	yaw:	33.118	yaw rate:	-2.005	Roll:	4.270	Pitch:	0.806	Yaw:	47.468	Thrust:	18.538
Time:	3.216	Roll Set Point:	-0.234	Pitch Set Point:	-0.122	Yaw Set Point:	-0.578	X_WP:	0.000	Y_WP:	0.000	Y_WP:	0.500	X:	0.099	Y:	0.096	Z:	0.399	yaw:	33.089	yaw rate:	-2.872	Roll:	4.318	Pitch:	0.871	Yaw:	47.283	Thrust:	19.276
Time:	3.232	Roll Set Point:	-0.234	Pitch Set Point:	-0.122	Yaw Set Point:	-0.577	X_WP:	0.000	Y_WP:	0.000	Y_WP:	0.500	X:	0.099	Y:	0.096	Z:	0.399	yaw:	33.088	yaw rate:	-0.117	Roll:	4.313	Pitch:	0.839	Yaw:	47.743	Thrust:	19.067
Time:	3.248	Roll Set Point:	-0.234	Pitch Set Point:	-0.122	Yaw Set Point:	-0.577	X_WP:	0.000	Y_WP:	0.000	Y_WP:	0.500	X:	0.099	Y:	0.096	Z:	0.399	yaw:	33.088	yaw rate:	-0.117	Roll:	4.304	Pitch:	0.828	Yaw:	47.762	Thrust:	19.268
Time:	3.263	Roll Set Point:	-0.234	Pitch Set Point:	-0.122	Yaw Set Point:	-0.578	X_WP:	0.000	Y_WP:	0.000	Y_WP:	0.500	X:	0.099	Y:	0.096	Z:	0.399	yaw:	33.133	yaw rate:	-1.865	Roll:	4.274	Pitch:	0.782	Yaw:	48.573	Thrust:	19.220
Time:	3.279	Roll Set Point:	-0.234	Pitch Set Point:	-0.122	Yaw Set Point:	-0.578	X_WP:	0.000	Y_WP:	0.000	Y_WP:	0.500	X:	0.099	Y:	0.096	Z:	0.399	yaw:	33.133	yaw rate:	-1.865	Roll:	4.313	Pitch:	0.829	Yaw:	47.825	Thrust:	19.645
Time:	3.295	Roll Set Point:	-0.234	Pitch Set Point:	-0.122	Yaw Set Point:	-0.577	X_WP:	0.000	Y_WP:	0.000	Y_WP:	0.500	X:	0.099	Y:	0.096	Z:	0.399	yaw:	33.068	yaw rate:	-1.609	Roll:	4.348	Pitch:	0.909	Yaw:	46.647	Thrust:	20.043
Time:	3.310	Roll Set Point:	-0.234	Pitch Set Point:	-0.122	Yaw Set Point:	-0.577	X_WP:	0.000	Y_WP:	0.000	Y_WP:	0.500	X:	0.099	Y:	0.096	Z:	0.399	yaw:	33.068	yaw rate:	-1.609	Roll:	4.325	Pitch:	0.833	Yaw:	47.734	Thrust:	20.029
Time:	3.326	Roll Set Point:	-0.234	Pitch Set Point:	-0.122	Yaw Set Point:	-0.577	X_WP:	0.000	Y_WP:	0.000	Y_WP:	0.500	X:	0.099	Y:	0.096	Z:	0.399	yaw:	33.081	yaw rate:	1.367	Roll:	4.327	Pitch:	0.846	Yaw:	47.979	Thrust:	20.226
Time:	3.341	Roll Set Point:	-0.234	Pitch Set Point:	-0.122	Yaw Set Point:	-0.578	X_WP:	0.000	Y_WP:	0.000	Y_WP:	0.500	X:	0.099	Y:	0.096	Z:	0.399	yaw:	33.114	yaw rate:	3.302	Roll:	4.348	Pitch:	0.733	Yaw:	48.352	Thrust:	20.461
Time:	3.357	Roll Set Point:	-0.234	Pitch Set Point:	-0.122	Yaw Set Point:	-0.578	X_WP:	0.000	Y_WP:	0.000	Y_WP:	0.500	X:	0.099	Y:	0.096	Z:	0.399	yaw:	33.114	yaw rate:	3.302	Roll:	4.342	Pitch:	0.834	Yaw:	47.802	Thrust:	20.631
Time:	3.373	Roll Set Point:	-0.234	Pitch Set Point:	-0.122	Yaw Set Point:	-0.578	X_WP:	0.000	Y_WP:	0.000	Y_WP:	0.500	X:	0.099	Y:	0.096	Z:	0.399	yaw:	33.093	yaw rate:	-2.097	Roll:	4.341	Pitch:	0.873	Yaw:	47.419	Thrust:	20.842
Time:	3.388	Roll Set Point:	-0.234	Pitch Set Point:	-0.122	Yaw Set Point:	-0.577	X_WP:	0.000	Y_WP:	0.000	Y_WP:	0.500	X:	0.099	Y:	0.096	Z:	0.399	yaw:	33.064	yaw rate:	-2.951	Roll:	4.364	Pitch:	0.901	Yaw:	47.235	Thrust:	20.833
Time:	3.404	Roll Set Point:	-0.234	Pitch Set Point:	-0.122	Yaw Set Point:	-0.578	X_WP:	0.000	Y_WP:	0.000	Y_WP:	0.500	X:	0.099	Y:	0.096	Z:	0.399	yaw:	33.097	yaw rate:	1.086	Roll:	4.344	Pitch:	0.760	Yaw:	48.325	Thrust:	21.169
Time:	3.420	Roll Set Point:	-0.234	Pitch Set Point:	-0.122	Yaw Set Point:	-0.577	X_WP:	0.000	Y_WP:	0.000	Y_WP:	0.500	X:	0.099	Y:	0.096	Z:	0.399	yaw:	33.068	yaw rate:	-2.858	Roll:	4.345	Pitch:	0.910	Yaw:	47.256	Thrust:	21.372
Time:	3.435	Roll Set Point:	-0.234	Pitch Set Point:	-0.122	Yaw Set Point:	-0.578	X_WP:	0.000	Y_WP:	0.000	Y_WP:	0.500	X:	0.099	Y:	0.096	Z:	0.399	yaw:	33.106	yaw rate:	3.733	Roll:	4.411	Pitch:	0.800	Yaw:	48.412	Thrust:	21.688
Time:	3.451	Roll Set Point:	-0.234	Pitch Set Point:	-0.122	Yaw Set Point:	-0.579	X_WP:	0.000	Y_WP:	0.000	Y_WP:	0.500	X:	0.099	Y:	0.096	Z:	0.399	yaw:	33.150	yaw rate:	4.410	Roll:	4.334	Pitch:	0.766	Yaw:	48.592	Thrust:	21.474
Time:	3.466	Roll Set Point:	-0.234	Pitch Set Point:	-0.122	Yaw Set Point:	-0.578	X_WP:	0.000	Y_WP:	0.000	Y_WP:	0.500	X:	0.099	Y:	0.096	Z:	0.399	yaw:	33.135	yaw rate:	-1.467	Roll:	4.361	Pitch:	0.835	Yaw:	47.573	Thrust:	21.813
Time:	3.482	Roll Set Point:	-0.234	Pitch Set Point:	-0.122	Yaw Set Point:	-0.578	X_WP:	0.000	Y_WP:	0.000	Y_WP:	0.500	X:	0.099	Y:	0.096	Z:	0.399	yaw:	33.135	yaw rate:	-1.467	Roll:	4.382	Pitch:	0.841	Yaw:	47.828	Thrust:	22.118
Time:	3.498	Roll Set Point:	-0.234	Pitch Set Point:	-0.122	Yaw Set Point:	-0.579	X_WP:	0.000	Y_WP:	0.000	Y_WP:	0.500	X:	0.099	Y:	0.096	Z:	0.399	yaw:	33.153	yaw rate:	1.806	Roll:	4.388	Pitch:	0.782	Yaw:	48.156	Thrust:	22.379
Time:	3.513	Roll Set Point:	-0.234	Pitch Set Point:	-0.122	Yaw Set Point:	-0.578	X_WP:	0.000	Y_WP:	0.000	Y_WP:	0.500	X:	0.099	Y:	0.096	Z:	0.399	yaw:	33.100	yaw rate:	0.097	Roll:	4.436	Pitch:	1.020	Yaw:	46.898	Thrust:	22.829
Time:	3.529	Roll Set Point:	-0.234	Pitch Set Point:	-0.122	Yaw Set Point:	-0.577	X_WP:	0.000	Y_WP:	0.000	Y_WP:	0.500	X:	0.099	Y:	0.096	Z:	0.399	yaw:	33.059	yaw rate:	-4.182	Roll:	4.368	Pitch:	0.836	Yaw:	47.019	Thrust:	22.498
Time:	3.545	Roll Set Point:	-0.234	Pitch Set Point:	-0.122	Yaw Set Point:	-0.577	X_WP:	0.000	Y_WP:	0.000	Y_WP:	0.500	X:	0.099	Y:	0.096	Z:	0.399	yaw:	33.059	yaw rate:	-4.182	Roll:	4.404	Pitch:	0.848	Yaw:	47.721	Thrust:	22.881
Time:	3.560	Roll Set Point:	-0.234	Pitch Set Point:	-0.122	Yaw Set Point:	-0.577	X_WP:	0.000	Y_WP:	0.000	Y_WP:	0.500	X:	0.099	Y:	0.096	Z:	0.399	yaw:	33.072	yaw rate:	-1.978	Roll:	4.411	Pitch:	0.860	Yaw:	47.960	Thrust:	23.177
Time:	3.576	Roll Set Point:	-0.234	Pitch Set Point:	-0.122	Yaw Set Point:	-0.579	X_WP:	0.000	Y_WP:	0.000	Y_WP:	0.500	X:	0.099	Y:	0.096	Z:	0.399	yaw:	33.156	yaw rate:	8.442	Roll:	4.401	Pitch:	0.722	Yaw:	49.272	Thrust:	23.053
Time:	3.591	Roll Set Point:	-0.234	Pitch Set Point:	-0.122	Yaw Set Point:	-0.579	X_WP:	0.000	Y_WP:	0.000	Y_WP:	0.500	X:	0.099	Y:	0.096	Z:	0.399	yaw:	33.184	yaw rate:	2.770	Roll:	4.446	Pitch:	0.797	Yaw:	48.360	Thrust:	23.451
Time:	3.607	Roll Set Point:	-0.234	Pitch Set Point:	-0.122	Yaw Set Point:	-0.579	X_WP:	0.000	Y_WP:	0.000	Y_WP:	0.500	X:	0.099	Y:	0.096	Z:	0.399	yaw:	33.184	yaw rate:	2.770	Roll:	4.425	Pitch:	0.847	Yaw:	47.896	Thrust:	23.640
Time:	3.638	Roll Set Point:	-0.234	Pitch Set Point:	-0.122	Yaw Set Point:	-0.579	X_WP:	0.000	Y_WP:	0.000	Y_WP:	0.500	X:	0.099	Y:	0.096	Z:	0.399	yaw:	33.147	yaw rate:	5.146	Roll:	4.915	Pitch:	0.986	Yaw:	49.055	Thrust:	41.671
Time:	3.654	Roll Set Point:	-0.234	Pitch Set Point:	-0.122	Yaw Set Point:	-0.578	X_WP:	0.000	Y_WP:	0.000	Y_WP:	0.500	X:	0.099	Y:	0.096	Z:	0.399	yaw:	33.145	yaw rate:	-0.128	Roll:	4.433	Pitch:	0.845	Yaw:	47.821	Thrust:	23.932
Time:	3.669	Roll Set Point:	-0.234	Pitch Set Point:	-0.122	Yaw Set Point:	-0.578	X_WP:	0.000	Y_WP:	0.000	Y_WP:	0.500	X:	0.099	Y:	0.096	Z:	0.399	yaw:	33.104	yaw rate:	-4.115	Roll:	4.476	Pitch:	0.910	Yaw:	47.096	Thrust:	24.505
Time:	3.685	Roll Set Point:	-0.234	Pitch Set Point:	-0.122	Yaw Set Point:	-0.578	X_WP:	0.000	Y_WP:	0.000	Y_WP:	0.500	X:	0.099	Y:	0.096	Z:	0.399	yaw:	33.104	yaw rate:	-4.115	Roll:	4.448	Pitch:	0.855	Yaw:	47.788	Thrust:	24.445
Time:	3.700	Roll Set Point:	-0.234	Pitch Set Point:	-0.122	Yaw Set Point:	-0.578	X_WP:	0.000	Y_WP:	0.000	Y_WP:	0.500	X:	0.099	Y:	0.096	Z:	0.399	yaw:	33.110	yaw rate:	3.266	Roll:	4.447	Pitch:	0.832	Yaw:	47.888	Thrust:	24.702
Time:	3.716	Roll Set Point:	-0.234	Pitch Set Point:	-0.122	Yaw Set Point:	-0.578	X_WP:	0.000	Y_WP:	0.000	Y_WP:	0.500	X:	0.099	Y:	0.096	Z:	0.399	yaw:	33.110	yaw rate:	3.266	Roll:	4.457	Pitch:	0.856	Yaw:	47.793	Thrust:	24.787
Time:	3.732	Roll Set Point:	-0.234	Pitch Set Point:	-0.122	Yaw Set Point:	-0.579	X_WP:	0.000	Y_WP:	0.000	Y_WP:	0.500	X:	0.099	Y:	0.096	Z:	0.399	yaw:	33.151	yaw rate:	0.835	Roll:	4.446	Pitch:	0.777	Yaw:	48.531	Thrust:	24.494
Time:	3.747	Roll Set Point:	-0.234	Pitch Set Point:	-0.122	Yaw Set Point:	-0.577	X_WP:	0.000	Y_WP:	0.000	Y_WP:	0.500	X:	0.099	Y:	0.096	Z:	0.399	yaw:	33.086	yaw rate:	-6.490	Roll:	4.484	Pitch:	1.016	Yaw:	46.677	Thrust:	25.577
Time:	3.763	Roll Set Point:	-0.234	Pitch Set Point:	-0.122	Yaw Set Point:	-0.578	X_WP:	0.000	Y_WP:	0.000	Y_WP:	0.500	X:	0.099	Y:	0.096	Z:	0.399	yaw:	33.109	yaw rate:	2.348	Roll:	4.490	Pitch:	0.761	Yaw:	48.186	Thrust:	25.348
Time:	3.779	Roll Set Point:	-0.234	Pitch Set Point:	-0.122	Yaw Set Point:	-0.578	X_WP:	0.000	Y_WP:	0.000	Y_WP:	0.500	X:	0.099	Y:	0.096	Z:	0.399	yaw:	33.106	yaw rate:	-0.324	Roll:	4.450	Pitch:	0.921	Yaw:	47.730	Thrust:	25.564
Time:	3.794	Roll Set Point:	-0.234	Pitch Set Point:	-0.122	Yaw Set Point:	-0.578	X_WP:	0.000	Y_WP:	0.000	Y_WP:	0.500	X:	0.099	Y:	0.096	Z:	0.399	yaw:	33.106	yaw rate:	-0.324	Roll:	4.483	Pitch:	0.863	Yaw:	47.787	Thrust:	25.739
Time:	3.810	Roll Set Point:	-0.234	Pitch Set Point:	-0.122	Yaw Set Point:	-0.577	X_WP:	0.000	Y_WP:	0.000	Y_WP:	0.500	X:	0.099	Y:	0.096	Z:	0.399	yaw:	33.072	yaw rate:	-4.600	Roll:	4.512	Pitch:	0.921	Yaw:	47.170	Thrust:	25.774
Time:	3.825	Roll Set Point:	-0.234	Pitch Set Point:	-0.122	Yaw Set Point:	-0.578	X_WP:	0.000	Y_WP:	0.000	Y_WP:	0.500	X:	0.099	Y:	0.096	Z:	0.399	yaw:	33.123	yaw rate:	5.053	Roll:	4.503	Pitch:	0.718	Yaw:	48.659	Thrust:	26.321
Time:	3.841	Roll Set Point:	-0.234	Pitch Set Point:	-0.122	Yaw Set Point:	-0.579	X_WP:	0.000	Y_WP:	0.000	Y_WP:	0.500	X:	0.099	Y:	0.096	Z:	0.399	yaw:	33.171	yaw rate:	4.886	Roll:	4.462	Pitch:	0.816	Yaw:	48.697	Thrust:	26.038
Time:	3.857	Roll Set Point:	-0.234	Pitch Set Point:	-0.122	Yaw Set Point:	-0.579	X_WP:	0.000	Y_WP:	0.000	Y_WP:	0.500	X:	0.099	Y:	0.096	Z:	0.399	yaw:	33.171	yaw rate:	4.886	Roll:	4.504	Pitch:	0.863	Yaw:	47.879	Thrust:	26.496
Time:	3.872	Roll Set Point:	-0.234	Pitch Set Point:	-0.122	Yaw Set Point:	-0.577	X_WP:	0.000	Y_WP:	0.000	Y_WP:	0.500	X:	0.099	Y:	0.096	Z:	0.399	yaw:	33.040	yaw rate:	-13.132	Roll:	4.494	Pitch:	1.109	Yaw:	45.488	Thrust:	26.589
Time:	3.888	Roll Set Point:	-0.234	Pitch Set Point:	-0.122	Yaw Set Point:	-0.577	X_WP:	0.000	Y_WP:	0.000	Y_WP:	0.500	X:	0.099	Y:	0.096	Z:	0.399	yaw:	33.040	yaw rate:	-13.132	Roll:	4.510	Pitch:	0.872	Yaw:	47.698	Thrust:	26.912
Time:	3.904	Roll Set Point:	-0.234	Pitch Set Point:	-0.121	Yaw Set Point:	-0.579	X_WP:	0.000	Y_WP:	0.000	Y_WP:	0.500	X:	0.099	Y:	0.096	Z:	0.399	yaw:	33.183	yaw rate:	7.269	Roll:	4.524	Pitch:	0.518	Yaw:	50.287	Thrust:	27.047
Time:	3.919	Roll Set Point:	-0.234	Pitch Set Point:	-0.122	Yaw Set Point:	-0.578	X_WP:	0.000	Y_WP:	0.000	Y_WP:	0.500	X:	0.099	Y:	0.096	Z:	0.399	yaw:	33.125	yaw rate:	-5.822	Roll:	4.487	Pitch:	1.055	Yaw:	46.838	Thrust:	27.134
Time:	3.935	Roll Set Point:	-0.234	Pitch Set Point:	-0.122	Yaw Set Point:	-0.578	X_WP:	0.000	Y_WP:	0.000	Y_WP:	0.500	X:	0.099	Y:	0.096	Z:	0.399	yaw:	33.125	yaw rate:	-5.822	Roll:	4.507	Pitch:	0.870	Yaw:	47.810	Thrust:	27.395
Time:	3.950	Roll Set Point:	-0.234	Pitch Set Point:	-0.122	Yaw Set Point:	-0.578	X_WP:	0.000	Y_WP:	0.000	Y_WP:	0.500	X:	0.099	Y:	0.096	Z:	0.399	yaw:	33.140	yaw rate:	6.589	Roll:	4.520	Pitch:	0.891	Yaw:	48.093	Thrust:	27.747
Time:	3.966	Roll Set Point:	-0.234	Pitch Set Point:	-0.122	Yaw Set Point:	-0.578	X_WP:	0.000	Y_WP:	0.000	Y_WP:	0.500	X:	0.099	Y:	0.096	Z:	0.399	yaw:	33.143	yaw rate:	0.292	Roll:	4.502	Pitch:	0.788	Yaw:	47.891	Thrust:	27.880
Time:	3.982	Roll Set Point:	-0.234	Pitch Set Point:	-0.122	Yaw Set Point:	-0.579	X_WP:	0.000	Y_WP:	0.000	Y_WP:	0.500	X:	0.099	Y:	0.096	Z:	0.399	yaw:	33.182	yaw rate:	3.856	Roll:	4.527	Pitch:	0.835	Yaw:	48.539	Thrust:	28.136
Time:	3.997	Roll Set Point:	-0.234	Pitch Set Point:	-0.122	Yaw Set Point:	-0.577	X_WP:	0.000	Y_WP:	0.000	Y_WP:	0.500	X:	0.099	Y:	0.096	Z:	0.399	yaw:	33.067	yaw rate:	-11.469	Roll:	4.505	Pitch:	1.114	Yaw:	45.805	Thrust:	28.167
Time:	4.013	Roll Set Point:	-0.234	Pitch Set Point:	-0.122	Yaw Set Point:	-0.578	X_WP:	0.000	Y_WP:	0.000	Y_WP:	0.500	X:	0.099	Y:	0.096	Z:	0.399	yaw:	33.115	yaw rate:	4.839	Roll:	4.551	Pitch:	0.763	Yaw:	48.613	Thrust:	28.646
Time:	4.029	Roll Set Point:	-0.234	Pitch Set Point:	-0.122	Yaw Set Point:	-0.578	X_WP:	0.000	Y_WP:	0.000	Y_WP:	0.500	X:	0.099	Y:	0.096	Z:	0.399	yaw:	33.115	yaw rate:	4.839	Roll:	4.509	Pitch:	0.877	Yaw:	47.797	Thrust:	28.539
Time:	4.044	Roll Set Point:	-0.234	Pitch Set Point:	-0.122	Yaw Set Point:	-0.577	X_WP:	0.000	Y_WP:	0.000	Y_WP:	0.500	X:	0.099	Y:	0.096	Z:	0.399	yaw:	33.058	yaw rate:	-5.690	Roll:	4.452	Pitch:	0.901	Yaw:	46.768	Thrust:	28.594
Time:	4.060	Roll Set Point:	-0.234	Pitch Set Point:	-0.122	Yaw Set Point:	-0.578	X_WP:	0.000	Y_WP:	0.000	Y_WP:	0.500	X:	0.099	Y:	0.096	Z:	0.399	yaw:	33.109	yaw rate:	5.555	Roll:	4.553	Pitch:	0.859	Yaw:	48.648	Thrust:	29.052
Time:	4.075	Roll Set Point:	-0.234	Pitch Set Point:	-0.122	Yaw Set Point:	-0.578	X_WP:	0.000	Y_WP:	0.000	Y_WP:	0.500	X:	0.099	Y:	0.096	Z:	0.399	yaw:	33.098	yaw rate:	-1.186	Roll:	4.504	Pitch:	0.875	Yaw:	47.577	Thrust:	29.158
Time:	4.091	Roll Set Point:	-0.234	Pitch Set Point:	-0.122	Yaw Set Point:	-0.578	X_WP:	0.000	Y_WP:	0.000	Y_WP:	0.500	X:	0.099	Y:	0.096	Z:	0.399	yaw:	33.098	yaw rate:	-1.186	Roll:	4.510	Pitch:	0.881	Yaw:	47.776	Thrust:	29.351
Time:	4.107	Roll Set Point:	-0.234	Pitch Set Point:	-0.122	Yaw Set Point:	-0.579	X_WP:	0.000	Y_WP:	0.000	Y_WP:	0.500	X:	0.099	Y:	0.096	Z:	0.399	yaw:	33.164	yaw rate:	-0.479	Roll:	4.488	Pitch:	0.775	Yaw:	48.985	Thrust:	29.360
Time:	4.122	Roll Set Point:	-0.234	Pitch Set Point:	-0.122	Yaw Set Point:	-0.579	X_WP:	0.000	Y_WP:	0.000	Y_WP:	0.500	X:	0.099	Y:	0.096	Z:	0.399	yaw:	33.156	yaw rate:	-0.827	Roll:	4.503	Pitch:	0.945	Yaw:	47.719	Thrust:	29.735
Time:	4.138	Roll Set Point:	-0.234	Pitch Set Point:	-0.122	Yaw Set Point:	-0.579	X_WP:	0.000	Y_WP:	0.000	Y_WP:	0.500	X:	0.099	Y:	0.096	Z:	0.399	yaw:	33.153	yaw rate:	-0.281	Roll:	4.520	Pitch:	0.857	Yaw:	47.806	Thrust:	29.813
Time:	4.154	Roll Set Point:	-0.234	Pitch Set Point:	-0.122	Yaw Set Point:	-0.579	X_WP:	0.000	Y_WP:	0.000	Y_WP:	0.500	X:	0.099	Y:	0.096	Z:	0.399	yaw:	33.153	yaw rate:	-0.281	Roll:	4.509	Pitch:	0.883	Yaw:	47.853	Thrust:	30.105
Time:	4.169	Roll Set Point:	-0.234	Pitch Set Point:	-0.122	Yaw Set Point:	-0.579	X_WP:	0.000	Y_WP:	0.000	Y_WP:	0.500	X:	0.099	Y:	0.096	Z:	0.399	yaw:	33.162	yaw rate:	2.476	Roll:	4.502	Pitch:	0.822	Yaw:	48.018	Thrust:	30.402
Time:	4.185	Roll Set Point:	-0.234	Pitch Set Point:	-0.122	Yaw Set Point:	-0.579	X_WP:	0.000	Y_WP:	0.000	Y_WP:	0.500	X:	0.099	Y:	0.096	Z:	0.399	yaw:	33.162	yaw rate:	2.476	Roll:	4.509	Pitch:	0.884	Yaw:	47.866	Thrust:	30.488
Time:	4.200	Roll Set Point:	-0.234	Pitch Set Point:	-0.122	Yaw Set Point:	-0.579	X_WP:	0.000	Y_WP:	0.000	Y_WP:	0.500	X:	0.099	Y:	0.096	Z:	0.399	yaw:	33.176	yaw rate:	1.405	Roll:	4.538	Pitch:	0.942	Yaw:	48.121	Thrust:	30.715
Time:	4.216	Roll Set Point:	-0.234	Pitch Set Point:	-0.122	Yaw Set Point:	-0.577	X_WP:	0.000	Y_WP:	0.000	Y_WP:	0.500	X:	0.099	Y:	0.096	Z:	0.399	yaw:	33.084	yaw rate:	-0.620	Roll:	4.484	Pitch:	1.003	Yaw:	46.213	Thrust:	31.120
Time:	4.232	Roll Set Point:	-0.234	Pitch Set Point:	-0.122	Yaw Set Point:	-0.579	X_WP:	0.000	Y_WP:	0.000	Y_WP:	0.500	X:	0.099	Y:	0.096	Z:	0.399	yaw:	33.168	yaw rate:	8.408	Roll:	4.497	Pitch:	0.705	Yaw:	49.283	Thrust:	30.790
Time:	4.247	Roll Set Point:	-0.234	Pitch Set Point:	-0.122	Yaw Set Point:	-0.579	X_WP:	0.000	Y_WP:	0.000	Y_WP:	0.500	X:	0.099	Y:	0.096	Z:	0.399	yaw:	33.179	yaw rate:	1.096	Roll:	4.525	Pitch:	0.967	Yaw:	48.072	Thrust:	31.384
Time:	4.263	Roll Set Point:	-0.234	Pitch Set Point:	-0.122	Yaw Set Point:	-0.577	X_WP:	0.000	Y_WP:	0.000	Y_WP:	0.500	X:	0.099	Y:	0.096	Z:	0.399	yaw:	33.064	yaw rate:	-11.475	Roll:	4.497	Pitch:	1.078	Yaw:	45.812	Thrust:	31.448
Time:	4.279	Roll Set Point:	-0.234	Pitch Set Point:	-0.122	Yaw Set Point:	-0.577	X_WP:	0.000	Y_WP:	0.000	Y_WP:	0.500	X:	0.099	Y:	0.096	Z:	0.399	yaw:	33.063	yaw rate:	-0.096	Roll:	4.517	Pitch:	0.833	Yaw:	47.709	Thrust:	31.625
Time:	4.294	Roll Set Point:	-0.234	Pitch Set Point:	-0.122	Yaw Set Point:	-0.577	X_WP:	0.000	Y_WP:	0.000	Y_WP:	0.500	X:	0.099	Y:	0.096	Z:	0.399	yaw:	33.063	yaw rate:	-0.096	Roll:	4.509	Pitch:	0.896	Yaw:	47.728	Thrust:	31.823
Time:	4.310	Roll Set Point:	-0.234	Pitch Set Point:	-0.122	Yaw Set Point:	-0.577	X_WP:	0.000	Y_WP:	0.000	Y_WP:	0.500	X:	0.099	Y:	0.096	Z:	0.399	yaw:	33.073	yaw rate:	-12.628	Roll:	4.520	Pitch:	0.856	Yaw:	47.905	Thrust:	32.033
Time:	4.326	Roll Set Point:	-0.234	Pitch Set Point:	-0.122	Yaw Set Point:	-0.579	X_WP:	0.000	Y_WP:	0.000	Y_WP:	0.500	X:	0.099	Y:	0.096	Z:	0.399	yaw:	33.151	yaw rate:	7.774	Roll:	4.496	Pitch:	0.831	Yaw:	49.152	Thrust:	31.924
Time:	4.341	Roll Set Point:	-0.234	Pitch Set Point:	-0.122	Yaw Set Point:	-0.579	X_WP:	0.000	Y_WP:	0.000	Y_WP:	0.500	X:	0.099	Y:	0.096	Z:	0.399	yaw:	33.151	yaw rate:	7.774	Roll:	4.509	Pitch:	0.896	Yaw:	47.850	Thrust:	32.389
Time:	4.357	Roll Set Point:	-0.234	Pitch Set Point:	-0.122	Yaw Set Point:	-0.578	X_WP:	0.000	Y_WP:	0.000	Y_WP:	0.500	X:	0.099	Y:	0.096	Z:	0.398	yaw:	33.100	yaw rate:	3.340	Roll:	4.510	Pitch:	0.976	Yaw:	46.923	Thrust:	33.053
Time:	4.372	Roll Set Point:	-0.234	Pitch Set Point:	-0.122	Yaw Set Point:	-0.579	X_WP:	0.000	Y_WP:	0.000	Y_WP:	0.500	X:	0.099	Y:	0.096	Z:	0.399	yaw:	33.168	yaw rate:	6.836	Roll:	4.512	Pitch:	0.713	Yaw:	49.020	Thrust:	32.381
Time:	4.388	Roll Set Point:	-0.234	Pitch Set Point:	-0.122	Yaw Set Point:	-0.579	X_WP:	0.000	Y_WP:	0.000	Y_WP:	0.500	X:	0.099	Y:	0.096	Z:	0.399	yaw:	33.168	yaw rate:	6.836	Roll:	4.510	Pitch:	0.896	Yaw:	47.877	Thrust:	33.009
Time:	4.404	Roll Set Point:	-0.234	Pitch Set Point:	-0.122	Yaw Set Point:	-0.577	X_WP:	0.000	Y_WP:	0.000	Y_WP:	0.500	X:	0.099	Y:	0.096	Z:	0.399	yaw:	33.066	yaw rate:	-10.201	Roll:	4.487	Pitch:	1.174	Yaw:	46.017	Thrust:	33.286
Time:	4.419	Roll Set Point:	-0.234	Pitch Set Point:	-0.122	Yaw Set Point:	-0.578	X_WP:	0.000	Y_WP:	0.000	Y_WP:	0.500	X:	0.099	Y:	0.096	Z:	0.399	yaw:	33.092	yaw rate:	2.621	Roll:	4.559	Pitch:	0.772	Yaw:	48.207	Thrust:	33.424
Time:	4.435	Roll Set Point:	-0.234	Pitch Set Point:	-0.122	Yaw Set Point:	-0.578	X_WP:	0.000	Y_WP:	0.000	Y_WP:	0.500	X:	0.099	Y:	0.096	Z:	0.399	yaw:	33.092	yaw rate:	2.621	Roll:	4.511	Pitch:	0.903	Yaw:	47.772	Thrust:	33.593
Time:	4.451	Roll Set Point:	-0.234	Pitch Set Point:	-0.122	Yaw Set Point:	-0.577	X_WP:	0.000	Y_WP:	0.000	Y_WP:	0.500	X:	0.099	Y:	0.096	Z:	0.399	yaw:	33.083	yaw rate:	-8.441	Roll:	4.486	Pitch:	0.942	Yaw:	47.600	Thrust:	33.666
Time:	4.466	Roll Set Point:	-0.234	Pitch Set Point:	-0.122	Yaw Set Point:	-0.577	X_WP:	0.000	Y_WP:	0.000	Y_WP:	0.500	X:	0.099	Y:	0.096	Z:	0.399	yaw:	33.083	yaw rate:	-8.441	Roll:	4.509	Pitch:	0.906	Yaw:	47.755	Thrust:	33.903
Time:	4.482	Roll Set Point:	-0.234	Pitch Set Point:	-0.122	Yaw Set Point:	-0.577	X_WP:	0.000	Y_WP:	0.000	Y_WP:	0.500	X:	0.099	Y:	0.096	Z:	0.399	yaw:	33.065	yaw rate:	-8.683	Roll:	4.509	Pitch:	0.935	Yaw:	47.430	Thrust:	34.077
Time:	4.497	Roll Set Point:	-0.234	Pitch Set Point:	-0.122	Yaw Set Point:	-0.578	X_WP:	0.000	Y_WP:	0.000	Y_WP:	0.500	X:	0.099	Y:	0.096	Z:	0.399	yaw:	33.106	yaw rate:	4.064	Roll:	4.525	Pitch:	0.866	Yaw:	48.466	Thrust:	34.376
Time:	4.513	Roll Set Point:	-0.234	Pitch Set Point:	-0.122	Yaw Set Point:	-0.578	X_WP:	0.000	Y_WP:	0.000	Y_WP:	0.500	X:	0.099	Y:	0.096	Z:	0.399	yaw:	33.106	yaw rate:	0.033	Roll:	4.516	Pitch:	0.876	Yaw:	47.797	Thrust:	34.477
Time:	4.529	Roll Set Point:	-0.234	Pitch Set Point:	-0.122	Yaw Set Point:	-0.579	X_WP:	0.000	Y_WP:	0.000	Y_WP:	0.500	X:	0.099	Y:	0.096	Z:	0.399	yaw:	33.152	yaw rate:	4.572	Roll:	4.481	Pitch:	0.890	Yaw:	48.616	Thrust:	34.369
Time:	4.544	Roll Set Point:	-0.234	Pitch Set Point:	-0.122	Yaw Set Point:	-0.579	X_WP:	0.000	Y_WP:	0.000	Y_WP:	0.500	X:	0.099	Y:	0.096	Z:	0.399	yaw:	33.152	yaw rate:	4.572	Roll:	4.509	Pitch:	0.909	Yaw:	47.851	Thrust:	34.859
Time:	4.560	Roll Set Point:	-0.234	Pitch Set Point:	-0.122	Yaw Set Point:	-0.578	X_WP:	0.000	Y_WP:	0.000	Y_WP:	0.500	X:	0.099	Y:	0.096	Z:	0.399	yaw:	33.091	yaw rate:	-6.048	Roll:	4.522	Pitch:	0.935	Yaw:	46.754	Thrust:	35.253
Time:	4.576	Roll Set Point:	-0.234	Pitch Set Point:	-0.122	Yaw Set Point:	-0.579	X_WP:	0.000	Y_WP:	0.000	Y_WP:	0.500	X:	0.099	Y:	0.096	Z:	0.399	yaw:	33.169	yaw rate:	7.749	Roll:	4.499	Pitch:	0.786	Yaw:	49.173	Thrust:	35.010
Time:	4.591	Roll Set Point:	-0.234	Pitch Set Point:	-0.122	Yaw Set Point:	-0.579	X_WP:	0.000	Y_WP:	0.000	Y_WP:	0.500	X:	0.099	Y:	0.096	Z:	0.399	yaw:	33.180	yaw rate:	2.203	Roll:	4.537	Pitch:	0.960	Yaw:	48.086	Thrust:	35.583
Time:	4.607	Roll Set Point:	-0.234	Pitch Set Point:	-0.122	Yaw Set Point:	-0.579	X_WP:	0.000	Y_WP:	0.000	Y_WP:	0.500	X:	0.099	Y:	0.096	Z:	0.399	yaw:	33.180	yaw rate:	2.203	Roll:	4.509	Pitch:	0.912	Yaw:	47.888	Thrust:	35.564
Time:	4.623	Roll Set Point:	-0.234	Pitch Set Point:	-0.122	Yaw Set Point:	-0.579	X_WP:	0.000	Y_WP:	0.000	Y_WP:	0.500	X:	0.099	Y:	0.096	Z:	0.399	yaw:	33.158	yaw rate:	7.027	Roll:	4.505	Pitch:	0.882	Yaw:	47.500	Thrust:	36.083
Time:	4.638	Roll Set Point:	-0.234	Pitch Set Point:	-0.122	Yaw Set Point:	-0.579	X_WP:	0.000	Y_WP:	0.000	Y_WP:	0.500	X:	0.099	Y:	0.096	Z:	0.399	yaw:	33.158	yaw rate:	7.027	Roll:	4.511	Pitch:	0.914	Yaw:	47.863	Thrust:	36.065
Time:	4.654	Roll Set Point:	-0.234	Pitch Set Point:	-0.122	Yaw Set Point:	-0.577	X_WP:	0.000	Y_WP:	0.000	Y_WP:	0.500	X:	0.099	Y:	0.096	Z:	0.399	yaw:	33.088	yaw rate:	-6.952	Roll:	4.510	Pitch:	1.061	Yaw:	46.592	Thrust:	36.457
Time:	4.669	Roll Set Point:	-0.234	Pitch Set Point:	-0.122	Yaw Set Point:	-0.577	X_WP:	0.000	Y_WP:	0.000	Y_WP:	0.500	X:	0.099	Y:	0.096	Z:	0.399	yaw:	33.080	yaw rate:	-0.843	Roll:	4.506	Pitch:	0.956	Yaw:	47.609	Thrust:	36.219
Time:	4.685	Roll Set Point:	-0.234	Pitch Set Point:	-0.122	Yaw Set Point:	-0.577	X_WP:	0.000	Y_WP:	0.000	Y_WP:	0.500	X:	0.099	Y:	0.096	Z:	0.399	yaw:	33.080	yaw rate:	-0.843	Roll:	4.509	Pitch:	0.921	Yaw:	47.750	Thrust:	36.572
Time:	4.701	Roll Set Point:	-0.234	Pitch Set Point:	-0.122	Yaw Set Point:	-0.578	X_WP:	0.000	Y_WP:	0.000	Y_WP:	0.500	X:	0.099	Y:	0.096	Z:	0.399	yaw:	33.122	yaw rate:	4.291	Roll:	4.492	Pitch:	0.806	Yaw:	48.529	Thrust:	36.570
Time:	4.716	Roll Set Point:	-0.234	Pitch Set Point:	-0.122	Yaw Set Point:	-0.578	X_WP:	0.000	Y_WP:	0.000	Y_WP:	0.500	X:	0.099	Y:	0.096	Z:	0.399	yaw:	33.122	yaw rate:	4.291	Roll:	4.509	Pitch:	0.920	Yaw:	47.811	Thrust:	36.955
Time:	4.732	Roll Set Point:	-0.234	Pitch Set Point:	-0.122	Yaw Set Point:	-0.579	X_WP:	0.000	Y_WP:	0.000	Y_WP:	0.500	X:	0.099	Y:	0.096	Z:	0.399	yaw:	33.147	yaw rate:	5.097	Roll:	4.525	Pitch:	0.931	Yaw:	48.254	Thrust:	37.101
Time:	4.748	Roll Set Point:	-0.234	Pitch Set Point:	-0.122	Yaw Set Point:	-0.579	X_WP:	0.000	Y_WP:	0.000	Y_WP:	0.500	X:	0.099	Y:	0.096	Z:	0.399	yaw:	33.147	yaw rate:	5.097	Roll:	4.509	Pitch:	0.922	Yaw:	47.845	Thrust:	37.332
Time:	4.763	Roll Set Point:	-0.234	Pitch Set Point:	-0.122	Yaw Set Point:	-0.578	X_WP:	0.000	Y_WP:	0.000	Y_WP:	0.500	X:	0.099	Y:	0.096	Z:	0.399	yaw:	33.097	yaw rate:	-1.136	Roll:	4.517	Pitch:	0.958	Yaw:	46.934	Thrust:	37.964
Time:	4.779	Roll Set Point:	-0.234	Pitch Set Point:	-0.122	Yaw Set Point:	-0.578	X_WP:	0.000	Y_WP:	0.000	Y_WP:	0.500	X:	0.099	Y:	0.096	Z:	0.399	yaw:	33.097	yaw rate:	-1.136	Roll:	4.510	Pitch:	0.925	Yaw:	47.774	Thrust:	37.719
Time:	4.794	Roll Set Point:	-0.234	Pitch Set Point:	-0.122	Yaw Set Point:	-0.577	X_WP:	0.000	Y_WP:	0.000	Y_WP:	0.500	X:	0.099	Y:	0.096	Z:	0.399	yaw:	33.068	yaw rate:	-12.125	Roll:	4.519	Pitch:	1.041	Yaw:	47.260	Thrust:	37.719
Time:	4.810	Roll Set Point:	-0.234	Pitch Set Point:	-0.122	Yaw Set Point:	-0.578	X_WP:	0.000	Y_WP:	0.000	Y_WP:	0.500	X:	0.099	Y:	0.096	Z:	0.399	yaw:	33.112	yaw rate:	4.403	Roll:	4.539	Pitch:	0.799	Yaw:	48.534	Thrust:	38.187
Time:	4.826	Roll Set Point:	-0.234	Pitch Set Point:	-0.122	Yaw Set Point:	-0.578	X_WP:	0.000	Y_WP:	0.000	Y_WP:	0.500	X:	0.099	Y:	0.096	Z:	0.399	yaw:	33.112	yaw rate:	4.403	Roll:	4.511	Pitch:	0.928	Yaw:	47.796	Thrust:	38.288
Time:	4.841	Roll Set Point:	-0.234	Pitch Set Point:	-0.122	Yaw Set Point:	-0.580	X_WP:	0.000	Y_WP:	0.000	Y_WP:	0.500	X:	0.099	Y:	0.096	Z:	0.399	yaw:	33.203	yaw rate:	9.049	Roll:	4.503	Pitch:	0.752	Yaw:	49.439	Thrust:	38.385
Time:	4.857	Roll Set Point:	-0.234	Pitch Set Point:	-0.122	Yaw Set Point:	-0.578	X_WP:	0.000	Y_WP:	0.000	Y_WP:	0.500	X:	0.099	Y:	0.096	Z:	0.399	yaw:	33.091	yaw rate:	-1.953	Roll:	4.490	Pitch:	1.201	Yaw:	45.889	Thrust:	38.760
Time:	4.873	Roll Set Point:	-0.234	Pitch Set Point:	-0.122	Yaw Set Point:	-0.579	X_WP:	0.000	Y_WP:	0.000	Y_WP:	0.500	X:	0.099	Y:	0.096	Z:	0.399	yaw:	33.152	yaw rate:	6.097	Roll:	4.496	Pitch:	0.771	Yaw:	48.874	Thrust:	38.551
Time:	4.888	Roll Set Point:	-0.234	Pitch Set Point:	-0.122	Yaw Set Point:	-0.579	X_WP:	0.000	Y_WP:	0.000	Y_WP:	0.500	X:	0.099	Y:	0.096	Z:	0.399	yaw:	33.163	yaw rate:	1.136	Roll:	4.494	Pitch:	0.918	Yaw:	48.055	Thrust:	39.252
Time:	4.904	Roll Set Point:	-0.234	Pitch Set Point:	-0.122	Yaw Set Point:	-0.579	X_WP:	0.000	Y_WP:	0.000	Y_WP:	0.500	X:	0.099	Y:	0.096	Z:	0.399	yaw:	33.163	yaw rate:	1.136	Roll:	4.509	Pitch:	0.931	Yaw:	47.868	Thrust:	39.257
Time:	4.920	Roll Set Point:	-0.234	Pitch Set Point:	-0.122	Yaw Set Point:	-0.579	X_WP:	0.000	Y_WP:	0.000	Y_WP:	0.500	X:	0.099	Y:	0.096	Z:	0.399	yaw:	33.149	yaw rate:	-0.052	Roll:	4.520	Pitch:	0.949	Yaw:	47.604	Thrust:	39.151
Time:	4.935	Roll Set Point:	-0.234	Pitch Set Point:	-0.122	Yaw Set Point:	-0.578	X_WP:	0.000	Y_WP:	0.000	Y_WP:	0.500	X:	0.099	Y:	0.096	Z:	0.399	yaw:	33.100	yaw rate:	-4.848	Roll:	4.515	Pitch:	1.015	Yaw:	46.970	Thrust:	39.983
Time:	4.951	Roll Set Point:	-0.234	Pitch Set Point:	-0.121	Yaw Set Point:	-0.579	X_WP:	0.000	Y_WP:	0.000	Y_WP:	0.500	X:	0.099	Y:	0.096	Z:	0.399	yaw:	33.170	yaw rate:	7.000	Roll:	4.514	Pitch:	0.767	Yaw:	49.050	Thrust:	39.679
Time:	4.966	Roll Set Point:	-0.234	Pitch Set Point:	-0.122	Yaw Set Point:	-0.578	X_WP:	0.000	Y_WP:	0.000	Y_WP:	0.500	X:	0.099	Y:	0.096	Z:	0.399	yaw:	33.089	yaw rate:	-8.166	Roll:	4.516	Pitch:	1.104	Yaw:	46.390	Thrust:	40.108
Time:	4.982	Roll Set Point:	-0.234	Pitch Set Point:	-0.122	Yaw Set Point:	-0.578	X_WP:	0.000	Y_WP:	0.000	Y_WP:	0.500	X:	0.099	Y:	0.096	Z:	0.399	yaw:	33.124	yaw rate:	3.568	Roll:	4.480	Pitch:	0.933	Yaw:	48.411	Thrust:	39.852
Time:	4.998	Roll Set Point:	-0.234	Pitch Set Point:	-0.122	Yaw Set Point:	-0.578	X_WP:	0.000	Y_WP:	0.000	Y_WP:	0.500	X:	0.099	Y:	0.096	Z:	0.399	yaw:	33.134	yaw rate:	1.004	Roll:	4.508	Pitch:	0.942	Yaw:	47.998	Thrust:	40.555
Time:	5.013	Roll Set Point:	-0.234	Pitch Set Point:	-0.122	Yaw Set Point:	-0.577	X_WP:	0.000	Y_WP:	0.000	Y_WP:	0.500	X:	0.099	Y:	0.096	Z:	0.399	yaw:	33.065	yaw rate:	-6.896	Roll:	4.517	Pitch:	1.040	Yaw:	46.570	Thrust:	40.725
Time:	5.029	Roll Set Point:	-0.234	Pitch Set Point:	-0.122	Yaw Set Point:	-0.577	X_WP:	0.000	Y_WP:	0.000	Y_WP:	0.500	X:	0.099	Y:	0.096	Z:	0.399	yaw:	33.065	yaw rate:	-6.896	Roll:	4.510	Pitch:	0.945	Yaw:	47.734	Thrust:	40.828
Time:	5.045	Roll Set Point:	-0.234	Pitch Set Point:	-0.122	Yaw Set Point:	-0.579	X_WP:	0.000	Y_WP:	0.000	Y_WP:	0.500	X:	0.099	Y:	0.096	Z:	0.399	yaw:	33.171	yaw rate:	11.485	Roll:	4.530	Pitch:	0.754	Yaw:	49.657	Thrust:	40.705
Time:	5.060	Roll Set Point:	-0.234	Pitch Set Point:	-0.122	Yaw Set Point:	-0.578	X_WP:	0.000	Y_WP:	0.000	Y_WP:	0.500	X:	0.099	Y:	0.096	Z:	0.399	yaw:	33.091	yaw rate:	-8.058	Roll:	4.513	Pitch:	1.067	Yaw:	46.417	Thrust:	41.284
Time:	5.076	Roll Set Point:	-0.234	Pitch Set Point:	-0.122	Yaw Set Point:	-0.577	X_WP:	0.000	Y_WP:	0.000	Y_WP:	0.500	X:	0.099	Y:	0.096	Z:	0.399	yaw:	33.083	yaw rate:	-0.746	Roll:	4.488	Pitch:	0.960	Yaw:	47.634	Thrust:	41.530
Time:	5.091	Roll Set Point:	-0.234	Pitch Set Point:	-0.122	Yaw Set Point:	-0.577	X_WP:	0.000	Y_WP:	0.000	Y_WP:	0.500	X:	0.099	Y:	0.096	Z:	0.399	yaw:	33.067	yaw rate:	-1.595	Roll:	4.498	Pitch:	0.883	Yaw:	47.467	Thrust:	41.302
Time:	5.107	Roll Set Point:	-0.234	Pitch Set Point:	-0.122	Yaw Set Point:	-0.578	X_WP:	0.000	Y_WP:	0.000	Y_WP:	0.500	X:	0.099	Y:	0.096	Z:	0.399	yaw:	33.109	yaw rate:	4.142	Roll:	4.543	Pitch:	0.974	Yaw:	48.484	Thrust:	41.788
Time:	5.123	Roll Set Point:	-0.234	Pitch Set Point:	-0.122	Yaw Set Point:	-0.578	X_WP:	0.000	Y_WP:	0.000	Y_WP:	0.500	X:	0.099	Y:	0.096	Z:	0.399	yaw:	33.109	yaw rate:	4.142	Roll:	4.510	Pitch:	0.948	Yaw:	47.792	Thrust:	41.905
Time:	5.138	Roll Set Point:	-0.234	Pitch Set Point:	-0.122	Yaw Set Point:	-0.577	X_WP:	0.000	Y_WP:	0.000	Y_WP:	0.500	X:	0.099	Y:	0.096	Z:	0.399	yaw:	33.080	yaw rate:	-5.620	Roll:	4.493	Pitch:	1.025	Yaw:	47.280	Thrust:	42.210
Time:	5.154	Roll Set Point:	-0.234	Pitch Set Point:	-0.122	Yaw Set Point:	-0.577	X_WP:	0.000	Y_WP:	0.000	Y_WP:	0.500	X:	0.099	Y:	0.096	Z:	0.399	yaw:	33.080	yaw rate:	-5.620	Roll:	4.508	Pitch:	0.952	Yaw:	47.749	Thrust:	42.212
Time:	5.170	Roll Set Point:	-0.234	Pitch Set Point:	-0.122	Yaw Set Point:	-0.578	X_WP:	0.000	Y_WP:	0.000	Y_WP:	0.500	X:	0.099	Y:	0.096	Z:	0.399	yaw:	33.105	yaw rate:	2.402	Roll:	4.525	Pitch:	0.821	Yaw:	48.188	Thrust:	42.430
Time:	5.185	Roll Set Point:	-0.234	Pitch Set Point:	-0.122	Yaw Set Point:	-0.578	X_WP:	0.000	Y_WP:	0.000	Y_WP:	0.500	X:	0.099	Y:	0.096	Z:	0.399	yaw:	33.105	yaw rate:	2.402	Roll:	4.510	Pitch:	0.951	Yaw:	47.785	Thrust:	42.657
Time:	5.201	Roll Set Point:	-0.234	Pitch Set Point:	-0.122	Yaw Set Point:	-0.578	X_WP:	0.000	Y_WP:	0.000	Y_WP:	0.500	X:	0.099	Y:	0.096	Z:	0.399	yaw:	33.146	yaw rate:	4.102	Roll:	4.478	Pitch:	0.969	Yaw:	48.532	Thrust:	42.646
Time:	5.216	Roll Set Point:	-0.234	Pitch Set Point:	-0.122	Yaw Set Point:	-0.578	X_WP:	0.000	Y_WP:	0.000	Y_WP:	0.500	X:	0.099	Y:	0.096	Z:	0.399	yaw:	33.113	yaw rate:	-3.273	Roll:	4.529	Pitch:	0.964	Yaw:	47.248	Thrust:	43.374
Time:	5.232	Roll Set Point:	-0.234	Pitch Set Point:	-0.122	Yaw Set Point:	-0.578	X_WP:	0.000	Y_WP:	0.000	Y_WP:	0.500	X:	0.099	Y:	0.096	Z:	0.399	yaw:	33.113	yaw rate:	-3.273	Roll:	4.510	Pitch:	0.954	Yaw:	47.797	Thrust:	43.239
Time:	5.248	Roll Set Point:	-0.234	Pitch Set Point:	-0.122	Yaw Set Point:	-0.578	X_WP:	0.000	Y_WP:	0.000	Y_WP:	0.500	X:	0.099	Y:	0.096	Z:	0.399	yaw:	33.130	yaw rate:	8.462	Roll:	4.480	Pitch:	0.922	Yaw:	48.101	Thrust:	42.877
Time:	5.263	Roll Set Point:	-0.234	Pitch Set Point:	-0.122	Yaw Set Point:	-0.578	X_WP:	0.000	Y_WP:	0.000	Y_WP:	0.500	X:	0.099	Y:	0.096	Z:	0.399	yaw:	33.130	yaw rate:	8.462	Roll:	4.509	Pitch:	0.956	Yaw:	47.821	Thrust:	43.608
Time:	5.279	Roll Set Point:	-0.234	Pitch Set Point:	-0.122	Yaw Set Point:	-0.577	X_WP:	0.000	Y_WP:	0.000	Y_WP:	0.500	X:	0.099	Y:	0.096	Z:	0.399	yaw:	33.055	yaw rate:	-4.135	Roll:	4.514	Pitch:	1.077	Yaw:	46.473	Thrust:	44.107
Time:	5.295	Roll Set Point:	-0.234	Pitch Set Point:	-0.122	Yaw Set Point:	-0.577	X_WP:	0.000	Y_WP:	0.000	Y_WP:	0.500	X:	0.099	Y:	0.096	Z:	0.399	yaw:	33.055	yaw rate:	-4.135	Roll:	4.509	Pitch:	0.961	Yaw:	47.717	Thrust:	44.004
Time:	5.310	Roll Set Point:	-0.234	Pitch Set Point:	-0.122	Yaw Set Point:	-0.578	X_WP:	0.000	Y_WP:	0.000	Y_WP:	0.500	X:	0.099	Y:	0.096	Z:	0.399	yaw:	33.119	yaw rate:	3.166	Roll:	4.552	Pitch:	0.900	Yaw:	48.862	Thrust:	44.387
Time:	5.326	Roll Set Point:	-0.234	Pitch Set Point:	-0.122	Yaw Set Point:	-0.578	X_WP:	0.000	Y_WP:	0.000	Y_WP:	0.500	X:	0.099	Y:	0.096	Z:	0.399	yaw:	33.119	yaw rate:	3.166	Roll:	4.510	Pitch:	0.961	Yaw:	47.805	Thrust:	44.378
Time:	5.341	Roll Set Point:	-0.234	Pitch Set Point:	-0.122	Yaw Set Point:	-0.577	X_WP:	0.000	Y_WP:	0.000	Y_WP:	0.500	X:	0.099	Y:	0.096	Z:	0.399	yaw:	33.076	yaw rate:	-7.422	Roll:	4.473	Pitch:	1.022	Yaw:	47.026	Thrust:	44.427
Time:	5.357	Roll Set Point:	-0.234	Pitch Set Point:	-0.122	Yaw Set Point:	-0.578	X_WP:	0.000	Y_WP:	0.000	Y_WP:	0.500	X:	0.099	Y:	0.096	Z:	0.399	yaw:	33.096	yaw rate:	1.985	Roll:	4.528	Pitch:	0.878	Yaw:	48.105	Thrust:	44.824
Time:	5.373	Roll Set Point:	-0.234	Pitch Set Point:	-0.122	Yaw Set Point:	-0.577	X_WP:	0.000	Y_WP:	0.000	Y_WP:	0.500	X:	0.099	Y:	0.096	Z:	0.399	yaw:	33.083	yaw rate:	-1.227	Roll:	4.512	Pitch:	1.047	Yaw:	47.552	Thrust:	44.948
Time:	5.388	Roll Set Point:	-0.234	Pitch Set Point:	-0.122	Yaw Set Point:	-0.579	X_WP:	0.000	Y_WP:	0.000	Y_WP:	0.500	X:	0.099	Y:	0.096	Z:	0.399	yaw:	33.162	yaw rate:	7.885	Roll:	4.497	Pitch:	0.826	Yaw:	49.186	Thrust:	44.816
Time:	5.404	Roll Set Point:	-0.234	Pitch Set Point:	-0.122	Yaw Set Point:	-0.578	X_WP:	0.000	Y_WP:	0.000	Y_WP:	0.500	X:	0.099	Y:	0.096	Z:	0.399	yaw:	33.101	yaw rate:	-6.158	Roll:	4.522	Pitch:	1.027	Yaw:	46.748	Thrust:	45.644
Time:	5.420	Roll Set Point:	-0.234	Pitch Set Point:	-0.122	Yaw Set Point:	-0.579	X_WP:	0.000	Y_WP:	0.000	Y_WP:	0.500	X:	0.099	Y:	0.096	Z:	0.399	yaw:	33.180	yaw rate:	7.989	Roll:	4.504	Pitch:	0.837	Yaw:	49.230	Thrust:	45.266
Time:	5.435	Roll Set Point:	-0.234	Pitch Set Point:	-0.122	Yaw Set Point:	-0.579	X_WP:	0.000	Y_WP:	0.000	Y_WP:	0.500	X:	0.099	Y:	0.096	Z:	0.399	yaw:	33.180	yaw rate:	7.989	Roll:	4.509	Pitch:	0.964	Yaw:	47.891	Thrust:	45.702
Time:	5.451	Roll Set Point:	-0.234	Pitch Set Point:	-0.122	Yaw Set Point:	-0.579	X_WP:	0.000	Y_WP:	0.000	Y_WP:	0.500	X:	0.099	Y:	0.096	Z:	0.399	yaw:	33.152	yaw rate:	5.153	Roll:	4.497	Pitch:	1.094	Yaw:	47.373	Thrust:	45.900
Time:	5.466	Roll Set Point:	-0.234	Pitch Set Point:	-0.122	Yaw Set Point:	-0.579	X_WP:	0.000	Y_WP:	0.000	Y_WP:	0.500	X:	0.099	Y:	0.096	Z:	0.399	yaw:	33.154	yaw rate:	0.175	Roll:	4.507	Pitch:	0.926	Yaw:	47.883	Thrust:	46.081
Time:	5.482	Roll Set Point:	-0.234	Pitch Set Point:	-0.122	Yaw Set Point:	-0.579	X_WP:	0.000	Y_WP:	0.000	Y_WP:	0.500	X:	0.099	Y:	0.096	Z:	0.399	yaw:	33.154	yaw rate:	0.175	Roll:	4.509	Pitch:	0.970	Yaw:	47.854	Thrust:	46.283
Time:	5.498	Roll Set Point:	-0.234	Pitch Set Point:	-0.122	Yaw Set Point:	-0.577	X_WP:	0.000	Y_WP:	0.000	Y_WP:	0.500	X:	0.099	Y:	0.096	Z:	0.399	yaw:	33.058	yaw rate:	-3.764	Roll:	4.520	Pitch:	1.079	Yaw:	46.112	Thrust:	46.520
Time:	5.513	Roll Set Point:	-0.234	Pitch Set Point:	-0.122	Yaw Set Point:	-0.578	X_WP:	0.000	Y_WP:	0.000	Y_WP:	0.500	X:	0.099	Y:	0.096	Z:	0.399	yaw:	33.119	yaw rate:	6.183	Roll:	4.466	Pitch:	0.902	Yaw:	48.842	Thrust:	46.342
Time:	5.529	Roll Set Point:	-0.234	Pitch Set Point:	-0.122	Yaw Set Point:	-0.578	X_WP:	0.000	Y_WP:	0.000	Y_WP:	0.500	X:	0.099	Y:	0.096	Z:	0.399	yaw:	33.119	yaw rate:	6.183	Roll:	4.508	Pitch:	0.974	Yaw:	47.806	Thrust:	46.839
Time:	5.545	Roll Set Point:	-0.234	Pitch Set Point:	-0.122	Yaw Set Point:	-0.577	X_WP:	0.000	Y_WP:	0.000	Y_WP:	0.500	X:	0.099	Y:	0.096	Z:	0.399	yaw:	33.069	yaw rate:	-2.885	Roll:	4.539	Pitch:	1.042	Yaw:	46.889	Thrust:	47.392
Time:	5.560	Roll Set Point:	-0.234	Pitch Set Point:	-0.122	Yaw Set Point:	-0.578	X_WP:	0.000	Y_WP:	0.000	Y_WP:	0.500	X:	0.099	Y:	0.096	Z:	0.399	yaw:	33.093	yaw rate:	2.419	Roll:	4.521	Pitch:	0.931	Yaw:	48.175	Thrust:	47.299
Time:	5.576	Roll Set Point:	-0.234	Pitch Set Point:	-0.122	Yaw Set Point:	-0.578	X_WP:	0.000	Y_WP:	0.000	Y_WP:	0.500	X:	0.099	Y:	0.096	Z:	0.399	yaw:	33.093	yaw rate:	2.419	Roll:	4.510	Pitch:	0.978	Yaw:	47.772	Thrust:	47.478
Time:	5.591	Roll Set Point:	-0.234	Pitch Set Point:	-0.122	Yaw Set Point:	-0.579	X_WP:	0.000	Y_WP:	0.000	Y_WP:	0.500	X:	0.099	Y:	0.096	Z:	0.399	yaw:	33.151	yaw rate:	4.905	Roll:	4.513	Pitch:	0.891	Yaw:	48.829	Thrust:	47.330
Time:	5.607	Roll Set Point:	-0.234	Pitch Set Point:	-0.122	Yaw Set Point:	-0.579	X_WP:	0.000	Y_WP:	0.000	Y_WP:	0.500	X:	0.099	Y:	0.096	Z:	0.399	yaw:	33.151	yaw rate:	4.905	Roll:	4.508	Pitch:	0.976	Yaw:	47.847	Thrust:	47.698
Time:	5.622	Roll Set Point:	-0.234	Pitch Set Point:	-0.122	Yaw Set Point:	-0.577	X_WP:	0.000	Y_WP:	0.000	Y_WP:	0.500	X:	0.099	Y:	0.096	Z:	0.399	yaw:	33.082	yaw rate:	-7.703	Roll:	4.456	Pitch:	1.065	Yaw:	46.373	Thrust:	45.116
Time:	5.638	Roll Set Point:	-0.234	Pitch Set Point:	-0.122	Yaw Set Point:	-0.578	X_WP:	0.000	Y_WP:	0.000	Y_WP:	0.500	X:	0.099	Y:	0.096	Z:	0.399	yaw:	33.089	yaw rate:	0.781	Roll:	4.551	Pitch:	1.009	Yaw:	47.995	Thrust:	51.154
Time:	5.654	Roll Set Point:	-0.234	Pitch Set Point:	-0.122	Yaw Set Point:	-0.579	X_WP:	0.000	Y_WP:	0.000	Y_WP:	0.500	X:	0.099	Y:	0.096	Z:	0.399	yaw:	33.176	yaw rate:	8.661	Roll:	4.522	Pitch:	0.900	Yaw:	49.336	Thrust:	48.254
Time:	5.669	Roll Set Point:	-0.234	Pitch Set Point:	-0.122	Yaw Set Point:	-0.578	X_WP:	0.000	Y_WP:	0.000	Y_WP:	0.500	X:	0.099	Y:	0.096	Z:	0.399	yaw:	33.109	yaw rate:	-6.724	Roll:	4.527	Pitch:	1.018	Yaw:	46.664	Thrust:	48.620
Time:	5.685	Roll Set Point:	-0.234	Pitch Set Point:	-0.122	Yaw Set Point:	-0.577	X_WP:	0.000	Y_WP:	0.000	Y_WP:	0.500	X:	0.099	Y:	0.096	Z:	0.399	yaw:	33.046	yaw rate:	-6.237	Roll:	4.465	Pitch:	1.140	Yaw:	46.659	Thrust:	48.694
Time:	5.701	Roll Set Point:	-0.234	Pitch Set Point:	-0.122	Yaw Set Point:	-0.577	X_WP:	0.000	Y_WP:	0.000	Y_WP:	0.500	X:	0.099	Y:	0.096	Z:	0.399	yaw:	33.046	yaw rate:	-6.237	Roll:	4.510	Pitch:	0.989	Yaw:	47.707	Thrust:	49.022
Time:	5.716	Roll Set Point:	-0.234	Pitch Set Point:	-0.122	Yaw Set Point:	-0.577	X_WP:	0.000	Y_WP:	0.000	Y_WP:	0.500	X:	0.099	Y:	0.096	Z:	0.399	yaw:	33.062	yaw rate:	1.565	Roll:	4.513	Pitch:	0.903	Yaw:	47.988	Thrust:	49.065
Time:	5.732	Roll Set Point:	-0.234	Pitch Set Point:	-0.122	Yaw Set Point:	-0.578	X_WP:	0.000	Y_WP:	0.000	Y_WP:	0.500	X:	0.099	Y:	0.096	Z:	0.399	yaw:	33.136	yaw rate:	7.353	Roll:	4.487	Pitch:	0.912	Yaw:	49.060	Thrust:	48.996
Time:	5.748	Roll Set Point:	-0.234	Pitch Set Point:	-0.122	Yaw Set Point:	-0.577	X_WP:	0.000	Y_WP:	0.000	Y_WP:	0.500	X:	0.099	Y:	0.096	Z:	0.399	yaw:	33.058	yaw rate:	-4.598	Roll:	4.529	Pitch:	1.087	Yaw:	46.427	Thrust:	49.816
Time:	5.763	Roll Set Point:	-0.234	Pitch Set Point:	-0.122	Yaw Set Point:	-0.577	X_WP:	0.000	Y_WP:	0.000	Y_WP:	0.500	X:	0.099	Y:	0.096	Z:	0.399	yaw:	33.086	yaw rate:	2.793	Roll:	4.533	Pitch:	0.958	Yaw:	48.228	Thrust:	49.821
Time:	5.779	Roll Set Point:	-0.234	Pitch Set Point:	-0.122	Yaw Set Point:	-0.577	X_WP:	0.000	Y_WP:	0.000	Y_WP:	0.500	X:	0.099	Y:	0.096	Z:	0.399	yaw:	33.071	yaw rate:	-1.538	Roll:	4.489	Pitch:	1.021	Yaw:	47.484	Thrust:	49.876
Time:	5.795	Roll Set Point:	-0.234	Pitch Set Point:	-0.122	Yaw Set Point:	-0.578	X_WP:	0.000	Y_WP:	0.000	Y_WP:	0.500	X:	0.099	Y:	0.096	Z:	0.399	yaw:	33.100	yaw rate:	2.892	Roll:	4.529	Pitch:	0.931	Yaw:	48.263	Thrust:	50.142
Time:	5.810	Roll Set Point:	-0.234	Pitch Set Point:	-0.122	Yaw Set Point:	-0.577	X_WP:	0.000	Y_WP:	0.000	Y_WP:	0.500	X:	0.099	Y:	0.096	Z:	0.399	yaw:	33.082	yaw rate:	-1.804	Roll:	4.502	Pitch:	1.066	Yaw:	47.448	Thrust:	50.203
Time:	5.826	Roll Set Point:	-0.234	Pitch Set Point:	-0.122	Yaw Set Point:	-0.577	X_WP:	0.000	Y_WP:	0.000	Y_WP:	0.500	X:	0.099	Y:	0.096	Z:	0.399	yaw:	33.073	yaw rate:	-0.914	Roll:	4.493	Pitch:	0.960	Yaw:	47.591	Thrust:	50.479
Time:	5.841	Roll Set Point:	-0.234	Pitch Set Point:	-0.122	Yaw Set Point:	-0.577	X_WP:	0.000	Y_WP:	0.000	Y_WP:	0.500	X:	0.099	Y:	0.096	Z:	0.399	yaw:	33.073	yaw rate:	-0.914	Roll:	4.509	Pitch:	0.996	Yaw:	47.741	Thrust:	50.654
Time:	5.857	Roll Set Point:	-0.234	Pitch Set Point:	-0.122	Yaw Set Point:	-0.579	X_WP:	0.000	Y_WP:	0.000	Y_WP:	0.500	X:	0.099	Y:	0.096	Z:	0.399	yaw:	33.149	yaw rate:	3.753	Roll:	4.505	Pitch:	0.856	Yaw:	49.119	Thrust:	50.391
Time:	5.873	Roll Set Point:	-0.234	Pitch Set Point:	-0.122	Yaw Set Point:	-0.578	X_WP:	0.000	Y_WP:	0.000	Y_WP:	0.500	X:	0.099	Y:	0.096	Z:	0.399	yaw:	33.140	yaw rate:	-0.839	Roll:	4.525	Pitch:	1.032	Yaw:	47.698	Thrust:	51.157
Time:	5.888	Roll Set Point:	-0.234	Pitch Set Point:	-0.122	Yaw Set Point:	-0.578	X_WP:	0.000	Y_WP:	0.000	Y_WP:	0.500	X:	0.099	Y:	0.096	Z:	0.398	yaw:	33.098	yaw rate:	-4.220	Roll:	4.526	Pitch:	1.077	Yaw:	47.065	Thrust:	51.606
Time:	5.904	Roll Set Point:	-0.234	Pitch Set Point:	-0.122	Yaw Set Point:	-0.578	X_WP:	0.000	Y_WP:	0.000	Y_WP:	0.500	X:	0.099	Y:	0.096	Z:	0.398	yaw:	33.098	yaw rate:	-4.220	Roll:	4.510	Pitch:	0.999	Yaw:	47.776	Thrust:	51.411
Time:	5.920	Roll Set Point:	-0.234	Pitch Set Point:	-0.122	Yaw Set Point:	-0.578	X_WP:	0.000	Y_WP:	0.000	Y_WP:	0.500	X:	0.099	Y:	0.096	Z:	0.399	yaw:	33.129	yaw rate:	4.337	Roll:	4.460	Pitch:	0.963	Yaw:	48.330	Thrust:	51.164
Time:	5.935	Roll Set Point:	-0.234	Pitch Set Point:	-0.122	Yaw Set Point:	-0.577	X_WP:	0.000	Y_WP:	0.000	Y_WP:	0.500	X:	0.099	Y:	0.096	Z:	0.399	yaw:	33.057	yaw rate:	-7.126	Roll:	4.533	Pitch:	1.124	Yaw:	46.528	Thrust:	52.073
Time:	5.951	Roll Set Point:	-0.234	Pitch Set Point:	-0.122	Yaw Set Point:	-0.579	X_WP:	0.000	Y_WP:	0.000	Y_WP:	0.500	X:	0.099	Y:	0.096	Z:	0.399	yaw:	33.158	yaw rate:	10.020	Roll:	4.501	Pitch:	0.827	Yaw:	49.538	Thrust:	51.789
Time:	5.966	Roll Set Point:	-0.234	Pitch Set Point:	-0.121	Yaw Set Point:	-0.579	X_WP:	0.000	Y_WP:	0.000	Y_WP:	0.500	X:	0.099	Y:	0.096	Z:	0.399	yaw:	33.169	yaw rate:	1.118	Roll:	4.519	Pitch:	0.902	Yaw:	48.062	Thrust:	52.093
Time:	5.982	Roll Set Point:	-0.234	Pitch Set Point:	-0.122	Yaw Set Point:	-0.577	X_WP:	0.000	Y_WP:	0.000	Y_WP:	0.500	X:	0.099	Y:	0.096	Z:	0.399	yaw:	33.082	yaw rate:	-8.705	Roll:	4.507	Pitch:	1.201	Yaw:	46.295	Thrust:	52.626
Time:	5.998	Roll Set Point:	-0.234	Pitch Set Point:	-0.122	Yaw Set Point:	-0.577	X_WP:	0.000	Y_WP:	0.000	Y_WP:	0.500	X:	0.099	Y:	0.096	Z:	0.399	yaw:	33.082	yaw rate:	-8.705	Roll:	4.509	Pitch:	1.005	Yaw:	47.753	Thrust:	52.550
Time:	6.013	Roll Set Point:	-0.081	Pitch Set Point:	-0.036	Yaw Set Point:	-0.578	X_WP:	0.082	Y_WP:	0.156	Y_WP:	0.500	X:	0.099	Y:	0.096	Z:	0.399	yaw:	33.124	yaw rate:	2.868	Roll:	-30.000	Pitch:	-30.000	Yaw:	48.528	Thrust:	52.450
Time:	6.029	Roll Set Point:	-0.081	Pitch Set Point:	-0.036	Yaw Set Point:	-0.579	X_WP:	0.082	Y_WP:	0.156	Y_WP:	0.500	X:	0.099	Y:	0.096	Z:	0.399	yaw:	33.164	yaw rate:	3.940	Roll:	-0.021	Pitch:	-1.456	Yaw:	48.528	Thrust:	52.986
Time:	6.045	Roll Set Point:	-0.081	Pitch Set Point:	-0.036	Yaw Set Point:	-0.578	X_WP:	0.082	Y_WP:	0.156	Y_WP:	0.500	X:	0.099	Y:	0.096	Z:	0.399	yaw:	33.145	yaw rate:	-1.914	Roll:	0.125	Pitch:	-1.503	Yaw:	47.521	Thrust:	53.141
Time:	6.060	Roll Set Point:	-0.081	Pitch Set Point:	-0.036	Yaw Set Point:	-0.577	X_WP:	0.082	Y_WP:	0.156	Y_WP:	0.500	X:	0.099	Y:	0.096	Z:	0.399	yaw:	33.080	yaw rate:	-6.488	Roll:	0.095	Pitch:	-1.497	Yaw:	46.664	Thrust:	53.521
Time:	6.076	Roll Set Point:	-0.081	Pitch Set Point:	-0.036	Yaw Set Point:	-0.577	X_WP:	0.082	Y_WP:	0.155	Y_WP:	0.500	X:	0.099	Y:	0.096	Z:	0.399	yaw:	33.040	yaw rate:	-3.947	Roll:	0.063	Pitch:	-1.490	Yaw:	47.034	Thrust:	53.287
Time:	6.091	Roll Set Point:	-0.081	Pitch Set Point:	-0.036	Yaw Set Point:	-0.579	X_WP:	0.082	Y_WP:	0.156	Y_WP:	0.500	X:	0.099	Y:	0.096	Z:	0.399	yaw:	33.159	yaw rate:	11.887	Roll:	-0.022	Pitch:	-1.466	Yaw:	49.853	Thrust:	53.649
Time:	6.107	Roll Set Point:	-0.081	Pitch Set Point:	-0.036	Yaw Set Point:	-0.577	X_WP:	0.082	Y_WP:	0.156	Y_WP:	0.500	X:	0.099	Y:	0.096	Z:	0.399	yaw:	33.079	yaw rate:	-8.043	Roll:	0.141	Pitch:	-1.523	Yaw:	46.402	Thrust:	54.135
Time:	6.123	Roll Set Point:	-0.081	Pitch Set Point:	-0.036	Yaw Set Point:	-0.577	X_WP:	0.082	Y_WP:	0.156	Y_WP:	0.500	X:	0.099	Y:	0.096	Z:	0.399	yaw:	33.073	yaw rate:	-0.560	Roll:	0.058	Pitch:	-1.499	Yaw:	47.648	Thrust:	54.004
Time:	6.138	Roll Set Point:	-0.081	Pitch Set Point:	-0.036	Yaw Set Point:	-0.578	X_WP:	0.082	Y_WP:	0.156	Y_WP:	0.500	X:	0.099	Y:	0.096	Z:	0.399	yaw:	33.107	yaw rate:	3.441	Roll:	0.008	Pitch:	-1.484	Yaw:	48.366	Thrust:	54.296
Time:	6.154	Roll Set Point:	-0.081	Pitch Set Point:	-0.036	Yaw Set Point:	-0.578	X_WP:	0.082	Y_WP:	0.156	Y_WP:	0.500	X:	0.099	Y:	0.096	Z:	0.399	yaw:	33.102	yaw rate:	-0.580	Roll:	0.066	Pitch:	-1.503	Yaw:	47.684	Thrust:	54.541
Time:	6.170	Roll Set Point:	-0.081	Pitch Set Point:	-0.036	Yaw Set Point:	-0.577	X_WP:	0.082	Y_WP:	0.156	Y_WP:	0.500	X:	0.099	Y:	0.096	Z:	0.399	yaw:	33.066	yaw rate:	-3.612	Roll:	0.079	Pitch:	-1.510	Yaw:	47.126	Thrust:	54.438
Time:	6.185	Roll Set Point:	-0.081	Pitch Set Point:	-0.036	Yaw Set Point:	-0.577	X_WP:	0.082	Y_WP:	0.156	Y_WP:	0.500	X:	0.099	Y:	0.096	Z:	0.399	yaw:	33.066	yaw rate:	-3.612	Roll:	0.055	Pitch:	-1.506	Yaw:	47.731	Thrust:	54.832
Time:	6.201	Roll Set Point:	-0.081	Pitch Set Point:	-0.036	Yaw Set Point:	-0.577	X_WP:	0.082	Y_WP:	0.156	Y_WP:	0.500	X:	0.099	Y:	0.096	Z:	0.399	yaw:	33.077	yaw rate:	-9.056	Roll:	0.049	Pitch:	-1.496	Yaw:	47.941	Thrust:	55.106
Time:	6.216	Roll Set Point:	-0.081	Pitch Set Point:	-0.036	Yaw Set Point:	-0.577	X_WP:	0.082	Y_WP:	0.156	Y_WP:	0.500	X:	0.099	Y:	0.096	Z:	0.399	yaw:	33.077	yaw rate:	-9.056	Roll:	0.051	Pitch:	-1.509	Yaw:	47.747	Thrust:	55.214
Time:	6.232	Roll Set Point:	-0.081	Pitch Set Point:	-0.036	Yaw Set Point:	-0.577	X_WP:	0.082	Y_WP:	0.156	Y_WP:	0.500	X:	0.099	Y:	0.096	Z:	0.399	yaw:	33.041	yaw rate:	-13.735	Roll:	0.090	Pitch:	-1.524	Yaw:	47.097	Thrust:	55.369
Time:	6.248	Roll Set Point:	-0.081	Pitch Set Point:	-0.036	Yaw Set Point:	-0.577	X_WP:	0.082	Y_WP:	0.156	Y_WP:	0.500	X:	0.099	Y:	0.096	Z:	0.399	yaw:	33.081	yaw rate:	3.946	Roll:	0.043	Pitch:	-1.518	Yaw:	48.413	Thrust:	55.744
Time:	6.263	Roll Set Point:	-0.081	Pitch Set Point:	-0.036	Yaw Set Point:	-0.578	X_WP:	0.082	Y_WP:	0.156	Y_WP:	0.500	X:	0.099	Y:	0.096	Z:	0.399	yaw:	33.141	yaw rate:	6.038	Roll:	0.005	Pitch:	-1.504	Yaw:	48.848	Thrust:	55.457
Time:	6.279	Roll Set Point:	-0.081	Pitch Set Point:	-0.036	Yaw Set Point:	-0.579	X_WP:	0.082	Y_WP:	0.156	Y_WP:	0.500	X:	0.099	Y:	0.096	Z:	0.399	yaw:	33.181	yaw rate:	4.037	Roll:	-0.006	Pitch:	-1.506	Yaw:	48.569	Thrust:	56.096
Time:	6.295	Roll Set Point:	-0.081	Pitch Set Point:	-0.036	Yaw Set Point:	-0.577	X_WP:	0.082	Y_WP:	0.156	Y_WP:	0.500	X:	0.099	Y:	0.096	Z:	0.399	yaw:	33.075	yaw rate:	-10.691	Roll:	0.138	Pitch:	-1.543	Yaw:	45.953	Thrust:	56.325
