Time:	2.033	Roll Set Point:	0.126	Pitch Set Point:	0.067	Yaw Set Point:	0.027	X_WP:	0.100	Y_WP:	0.000	Y_WP:	0.500	X:	-0.014	Y:	-0.032	Z:	0.049	yaw:	-1.563	yaw rate:	18.944	Roll:	-3.265	Pitch:	-1.019	Yaw:	-2.182	Thrust:	24.783
Time:	2.044	Roll Set Point:	0.127	Pitch Set Point:	0.065	Yaw Set Point:	0.015	X_WP:	0.100	Y_WP:	0.000	Y_WP:	0.500	X:	-0.014	Y:	-0.032	Z:	0.050	yaw:	-0.851	yaw rate:	71.205	Roll:	-3.980	Pitch:	1.271	Yaw:	15.689	Thrust:	24.601
Time:	2.056	Roll Set Point:	0.127	Pitch Set Point:	0.065	Yaw Set Point:	0.012	X_WP:	0.100	Y_WP:	0.000	Y_WP:	0.500	X:	-0.014	Y:	-0.032	Z:	0.050	yaw:	-0.665	yaw rate:	20.970	Roll:	-3.500	Pitch:	-0.424	Yaw:	3.092	Thrust:	25.704
Time:	2.067	Roll Set Point:	0.126	Pitch Set Point:	0.067	Yaw Set Point:	0.025	X_WP:	0.100	Y_WP:	0.000	Y_WP:	0.500	X:	-0.014	Y:	-0.032	Z:	0.049	yaw:	-1.443	yaw rate:	-77.809	Roll:	-2.496	Pitch:	-3.710	Yaw:	-19.693	Thrust:	27.833
Time:	2.078	Roll Set Point:	0.127	Pitch Set Point:	0.065	Yaw Set Point:	0.015	X_WP:	0.100	Y_WP:	0.000	Y_WP:	0.500	X:	-0.014	Y:	-0.032	Z:	0.050	yaw:	-0.861	yaw rate:	58.154	Roll:	-3.921	Pitch:	1.194	Yaw:	13.242	Thrust:	26.135
Time:	2.088	Roll Set Point:	0.127	Pitch Set Point:	0.065	Yaw Set Point:	0.015	X_WP:	0.100	Y_WP:	0.000	Y_WP:	0.500	X:	-0.014	Y:	-0.032	Z:	0.050	yaw:	-0.854	yaw rate:	0.718	Roll:	-3.278	Pitch:	-0.947	Yaw:	-1.034	Thrust:	27.610
Time:	2.099	Roll Set Point:	0.126	Pitch Set Point:	0.068	Yaw Set Point:	0.031	X_WP:	0.100	Y_WP:	0.000	Y_WP:	0.500	X:	-0.014	Y:	-0.032	Z:	0.049	yaw:	-1.754	yaw rate:	-89.930	Roll:	-2.574	Pitch:	-4.505	Yaw:	-24.834	Thrust:	29.900
Time:	2.110	Roll Set Point:	0.127	Pitch Set Point:	0.066	Yaw Set Point:	0.020	X_WP:	0.100	Y_WP:	0.000	Y_WP:	0.500	X:	-0.014	Y:	-0.032	Z:	0.050	yaw:	-1.124	yaw rate:	62.910	Roll:	-3.883	Pitch:	1.363	Yaw:	14.015	Thrust:	27.497
Time:	2.121	Roll Set Point:	0.127	Pitch Set Point:	0.065	Yaw Set Point:	0.015	X_WP:	0.100	Y_WP:	0.000	Y_WP:	0.500	X:	-0.014	Y:	-0.032	Z:	0.050	yaw:	-0.880	yaw rate:	24.461	Roll:	-3.421	Pitch:	-0.030	Yaw:	4.545	Thrust:	29.000
Time:	2.132	Roll Set Point:	0.126	Pitch Set Point:	0.067	Yaw Set Point:	0.024	X_WP:	0.100	Y_WP:	0.000	Y_WP:	0.500	X:	-0.014	Y:	-0.032	Z:	0.049	yaw:	-1.358	yaw rate:	-47.831	Roll:	-2.818	Pitch:	-2.799	Yaw:	-13.285	Thrust:	31.168
Time:	2.142	Roll Set Point:	0.126	Pitch Set Point:	0.067	Yaw Set Point:	0.023	X_WP:	0.100	Y_WP:	0.000	Y_WP:	0.500	X:	-0.014	Y:	-0.032	Z:	0.049	yaw:	-1.346	yaw rate:	1.169	Roll:	-3.315	Pitch:	-0.948	Yaw:	-1.632	Thrust:	30.545
Time:	2.152	Roll Set Point:	0.127	Pitch Set Point:	0.065	Yaw Set Point:	0.015	X_WP:	0.100	Y_WP:	0.000	Y_WP:	0.500	X:	-0.014	Y:	-0.032	Z:	0.050	yaw:	-0.836	yaw rate:	51.085	Roll:	-3.840	Pitch:	1.007	Yaw:	12.129	Thrust:	29.569
Time:	2.166	Roll Set Point:	0.126	Pitch Set Point:	0.068	Yaw Set Point:	0.033	X_WP:	0.100	Y_WP:	0.000	Y_WP:	0.500	X:	-0.014	Y:	-0.032	Z:	0.049	yaw:	-1.882	yaw rate:	-104.608	Roll:	-2.546	Pitch:	-4.338	Yaw:	-23.693	Thrust:	34.829
Time:	2.177	Roll Set Point:	0.127	Pitch Set Point:	0.065	Yaw Set Point:	0.011	X_WP:	0.100	Y_WP:	0.000	Y_WP:	0.500	X:	-0.014	Y:	-0.032	Z:	0.050	yaw:	-0.621	yaw rate:	126.099	Roll:	-4.460	Pitch:	3.598	Yaw:	29.008	Thrust:	30.376
Time:	2.187	Roll Set Point:	0.126	Pitch Set Point:	0.068	Yaw Set Point:	0.031	X_WP:	0.100	Y_WP:	0.000	Y_WP:	0.500	X:	-0.014	Y:	-0.032	Z:	0.049	yaw:	-1.751	yaw rate:	-113.065	Roll:	-2.246	Pitch:	-5.267	Yaw:	-30.361	Thrust:	34.781
Time:	2.198	Roll Set Point:	0.127	Pitch Set Point:	0.065	Yaw Set Point:	0.011	X_WP:	0.100	Y_WP:	0.000	Y_WP:	0.500	X:	-0.014	Y:	-0.032	Z:	0.050	yaw:	-0.644	yaw rate:	110.705	Roll:	-4.381	Pitch:	3.193	Yaw:	26.556	Thrust:	31.392
Time:	2.208	Roll Set Point:	0.127	Pitch Set Point:	0.065	Yaw Set Point:	0.015	X_WP:	0.100	Y_WP:	0.000	Y_WP:	0.500	X:	-0.014	Y:	-0.032	Z:	0.050	yaw:	-0.877	yaw rate:	-23.312	Roll:	-3.014	Pitch:	-1.733	Yaw:	-6.821	Thrust:	34.656
Time:	2.219	Roll Set Point:	0.127	Pitch Set Point:	0.065	Yaw Set Point:	0.015	X_WP:	0.100	Y_WP:	0.000	Y_WP:	0.500	X:	-0.014	Y:	-0.032	Z:	0.050	yaw:	-0.884	yaw rate:	-0.703	Roll:	-3.321	Pitch:	-1.004	Yaw:	-1.476	Thrust:	34.914
Time:	2.231	Roll Set Point:	0.127	Pitch Set Point:	0.065	Yaw Set Point:	0.015	X_WP:	0.100	Y_WP:	0.000	Y_WP:	0.500	X:	-0.014	Y:	-0.032	Z:	0.050	yaw:	-0.854	yaw rate:	3.047	Roll:	-3.337	Pitch:	-0.897	Yaw:	-0.550	Thrust:	35.516
Time:	2.242	Roll Set Point:	0.126	Pitch Set Point:	0.068	Yaw Set Point:	0.033	X_WP:	0.100	Y_WP:	0.000	Y_WP:	0.500	X:	-0.014	Y:	-0.032	Z:	0.049	yaw:	-1.894	yaw rate:	-103.961	Roll:	-2.583	Pitch:	-4.562	Yaw:	-26.261	Thrust:	38.405
Time:	2.252	Roll Set Point:	0.127	Pitch Set Point:	0.065	Yaw Set Point:	0.011	X_WP:	0.100	Y_WP:	0.000	Y_WP:	0.500	X:	-0.014	Y:	-0.032	Z:	0.050	yaw:	-0.642	yaw rate:	125.115	Roll:	-4.601	Pitch:	3.967	Yaw:	31.394	Thrust:	33.473
Time:	2.264	Roll Set Point:	0.127	Pitch Set Point:	0.065	Yaw Set Point:	0.015	X_WP:	0.100	Y_WP:	0.000	Y_WP:	0.500	X:	-0.014	Y:	-0.032	Z:	0.050	yaw:	-0.868	yaw rate:	-22.607	Roll:	-3.059	Pitch:	-1.727	Yaw:	-6.465	Thrust:	38.042
Time:	2.274	Roll Set Point:	0.127	Pitch Set Point:	0.065	Yaw Set Point:	0.011	X_WP:	0.100	Y_WP:	0.000	Y_WP:	0.500	X:	-0.014	Y:	-0.032	Z:	0.050	yaw:	-0.643	yaw rate:	22.514	Roll:	-3.673	Pitch:	-0.207	Yaw:	4.611	Thrust:	36.904
Time:	2.285	Roll Set Point:	0.127	Pitch Set Point:	0.065	Yaw Set Point:	0.015	X_WP:	0.100	Y_WP:	0.000	Y_WP:	0.500	X:	-0.014	Y:	-0.032	Z:	0.050	yaw:	-0.857	yaw rate:	-21.390	Roll:	-3.034	Pitch:	-1.719	Yaw:	-6.608	Thrust:	37.718
Time:	2.297	Roll Set Point:	0.127	Pitch Set Point:	0.066	Yaw Set Point:	0.018	X_WP:	0.100	Y_WP:	0.000	Y_WP:	0.500	X:	-0.014	Y:	-0.032	Z:	0.050	yaw:	-1.033	yaw rate:	-17.558	Roll:	-3.317	Pitch:	-1.742	Yaw:	-5.559	Thrust:	39.876
Time:	2.308	Roll Set Point:	0.126	Pitch Set Point:	0.068	Yaw Set Point:	0.031	X_WP:	0.100	Y_WP:	0.000	Y_WP:	0.500	X:	-0.014	Y:	-0.032	Z:	0.049	yaw:	-1.749	yaw rate:	-71.585	Roll:	-2.783	Pitch:	-3.334	Yaw:	-18.381	Thrust:	42.462
Time:	2.318	Roll Set Point:	0.127	Pitch Set Point:	0.065	Yaw Set Point:	0.011	X_WP:	0.100	Y_WP:	0.000	Y_WP:	0.500	X:	-0.014	Y:	-0.032	Z:	0.050	yaw:	-0.632	yaw rate:	111.663	Roll:	-4.449	Pitch:	3.454	Yaw:	28.078	Thrust:	36.993
Time:	2.330	Roll Set Point:	0.127	Pitch Set Point:	0.066	Yaw Set Point:	0.019	X_WP:	0.100	Y_WP:	0.000	Y_WP:	0.500	X:	-0.014	Y:	-0.032	Z:	0.050	yaw:	-1.061	yaw rate:	-42.906	Roll:	-3.026	Pitch:	-2.527	Yaw:	-11.366	Thrust:	42.252
Time:	2.341	Roll Set Point:	0.127	Pitch Set Point:	0.065	Yaw Set Point:	0.015	X_WP:	0.100	Y_WP:	0.000	Y_WP:	0.500	X:	-0.014	Y:	-0.032	Z:	0.050	yaw:	-0.865	yaw rate:	19.647	Roll:	-3.388	Pitch:	-0.213	Yaw:	3.339	Thrust:	41.021
Time:	2.352	Roll Set Point:	0.127	Pitch Set Point:	0.065	Yaw Set Point:	0.015	X_WP:	0.100	Y_WP:	0.000	Y_WP:	0.500	X:	-0.014	Y:	-0.032	Z:	0.050	yaw:	-0.840	yaw rate:	2.474	Roll:	-3.396	Pitch:	-0.890	Yaw:	-0.708	Thrust:	42.178
Time:	2.363	Roll Set Point:	0.127	Pitch Set Point:	0.065	Yaw Set Point:	0.011	X_WP:	0.100	Y_WP:	0.000	Y_WP:	0.500	X:	-0.014	Y:	-0.032	Z:	0.050	yaw:	-0.619	yaw rate:	22.112	Roll:	-3.731	Pitch:	-0.224	Yaw:	4.525	Thrust:	41.339
Time:	2.374	Roll Set Point:	0.127	Pitch Set Point:	0.065	Yaw Set Point:	0.015	X_WP:	0.100	Y_WP:	0.000	Y_WP:	0.500	X:	-0.014	Y:	-0.032	Z:	0.050	yaw:	-0.879	yaw rate:	-26.035	Roll:	-3.031	Pitch:	-1.865	Yaw:	-7.270	Thrust:	44.512
Time:	2.385	Roll Set Point:	0.127	Pitch Set Point:	0.065	Yaw Set Point:	0.011	X_WP:	0.100	Y_WP:	0.000	Y_WP:	0.500	X:	-0.014	Y:	-0.032	Z:	0.050	yaw:	-0.639	yaw rate:	23.998	Roll:	-3.693	Pitch:	-0.209	Yaw:	4.951	Thrust:	42.604
Time:	2.395	Roll Set Point:	0.127	Pitch Set Point:	0.067	Yaw Set Point:	0.024	X_WP:	0.100	Y_WP:	0.000	Y_WP:	0.500	X:	-0.014	Y:	-0.032	Z:	0.049	yaw:	-1.385	yaw rate:	-74.622	Roll:	-2.950	Pitch:	-3.944	Yaw:	-19.480	Thrust:	45.220
Time:	2.407	Roll Set Point:	0.126	Pitch Set Point:	0.068	Yaw Set Point:	0.030	X_WP:	0.100	Y_WP:	0.000	Y_WP:	0.500	X:	-0.014	Y:	-0.032	Z:	0.049	yaw:	-1.743	yaw rate:	-35.777	Roll:	-2.870	Pitch:	-2.165	Yaw:	-10.900	Thrust:	46.842
Time:	2.418	Roll Set Point:	0.127	Pitch Set Point:	0.065	Yaw Set Point:	0.015	X_WP:	0.100	Y_WP:	0.000	Y_WP:	0.500	X:	-0.014	Y:	-0.032	Z:	0.050	yaw:	-0.860	yaw rate:	88.298	Roll:	-4.065	Pitch:	2.267	Yaw:	19.553	Thrust:	44.293
Time:	2.428	Roll Set Point:	0.127	Pitch Set Point:	0.065	Yaw Set Point:	0.011	X_WP:	0.100	Y_WP:	0.000	Y_WP:	0.500	X:	-0.014	Y:	-0.032	Z:	0.050	yaw:	-0.629	yaw rate:	23.119	Roll:	-3.742	Pitch:	-0.159	Yaw:	4.727	Thrust:	44.879
Time:	2.441	Roll Set Point:	0.127	Pitch Set Point:	0.065	Yaw Set Point:	0.015	X_WP:	0.100	Y_WP:	0.000	Y_WP:	0.500	X:	-0.014	Y:	-0.032	Z:	0.050	yaw:	-0.884	yaw rate:	-25.469	Roll:	-3.114	Pitch:	-1.727	Yaw:	-6.687	Thrust:	50.322
Time:	2.452	Roll Set Point:	0.127	Pitch Set Point:	0.066	Yaw Set Point:	0.018	X_WP:	0.100	Y_WP:	0.000	Y_WP:	0.500	X:	-0.014	Y:	-0.032	Z:	0.050	yaw:	-1.049	yaw rate:	-16.511	Roll:	-3.390	Pitch:	-1.715	Yaw:	-5.537	Thrust:	47.857
Time:	2.463	Roll Set Point:	0.127	Pitch Set Point:	0.065	Yaw Set Point:	0.015	X_WP:	0.100	Y_WP:	0.000	Y_WP:	0.500	X:	-0.014	Y:	-0.032	Z:	0.050	yaw:	-0.875	yaw rate:	17.389	Roll:	-3.415	Pitch:	-0.197	Yaw:	2.951	Thrust:	45.529
Time:	2.474	Roll Set Point:	0.127	Pitch Set Point:	0.065	Yaw Set Point:	0.015	X_WP:	0.100	Y_WP:	0.000	Y_WP:	0.500	X:	-0.014	Y:	-0.032	Z:	0.050	yaw:	-0.881	yaw rate:	-0.645	Roll:	-3.385	Pitch:	-1.052	Yaw:	-1.544	Thrust:	48.572
Time:	2.485	Roll Set Point:	0.127	Pitch Set Point:	0.065	Yaw Set Point:	0.015	X_WP:	0.100	Y_WP:	0.000	Y_WP:	0.500	X:	-0.014	Y:	-0.032	Z:	0.050	yaw:	-0.850	yaw rate:	3.108	Roll:	-3.463	Pitch:	-0.910	Yaw:	-0.653	Thrust:	51.385
Time:	2.500	Roll Set Point:	0.127	Pitch Set Point:	0.065	Yaw Set Point:	0.015	X_WP:	0.100	Y_WP:	0.000	Y_WP:	0.500	X:	-0.014	Y:	-0.032	Z:	0.050	yaw:	-0.867	yaw rate:	-1.701	Roll:	-3.426	Pitch:	-1.063	Yaw:	-1.745	Thrust:	55.535
Time:	2.512	Roll Set Point:	0.127	Pitch Set Point:	0.065	Yaw Set Point:	0.011	X_WP:	0.100	Y_WP:	0.000	Y_WP:	0.500	X:	-0.014	Y:	-0.032	Z:	0.050	yaw:	-0.622	yaw rate:	24.525	Roll:	-3.701	Pitch:	-0.380	Yaw:	3.664	Thrust:	55.936
Time:	2.524	Roll Set Point:	0.127	Pitch Set Point:	0.065	Yaw Set Point:	0.015	X_WP:	0.100	Y_WP:	0.000	Y_WP:	0.500	X:	-0.014	Y:	-0.032	Z:	0.050	yaw:	-0.873	yaw rate:	-25.065	Roll:	-3.075	Pitch:	-1.838	Yaw:	-7.089	Thrust:	52.578
Time:	2.535	Roll Set Point:	0.127	Pitch Set Point:	0.065	Yaw Set Point:	0.011	X_WP:	0.100	Y_WP:	0.000	Y_WP:	0.500	X:	-0.014	Y:	-0.032	Z:	0.050	yaw:	-0.622	yaw rate:	25.051	Roll:	-3.775	Pitch:	-0.209	Yaw:	4.902	Thrust:	51.172
Time:	2.546	Roll Set Point:	0.127	Pitch Set Point:	0.065	Yaw Set Point:	0.011	X_WP:	0.100	Y_WP:	0.000	Y_WP:	0.500	X:	-0.014	Y:	-0.032	Z:	0.050	yaw:	-0.636	yaw rate:	-1.353	Roll:	-3.436	Pitch:	-1.061	Yaw:	-1.382	Thrust:	53.480
Time:	2.557	Roll Set Point:	0.127	Pitch Set Point:	0.065	Yaw Set Point:	0.015	X_WP:	0.100	Y_WP:	0.000	Y_WP:	0.500	X:	-0.014	Y:	-0.032	Z:	0.050	yaw:	-0.868	yaw rate:	-23.210	Roll:	-3.065	Pitch:	-1.786	Yaw:	-7.155	Thrust:	51.959
Time:	2.568	Roll Set Point:	0.126	Pitch Set Point:	0.068	Yaw Set Point:	0.031	X_WP:	0.100	Y_WP:	0.000	Y_WP:	0.500	X:	-0.014	Y:	-0.032	Z:	0.049	yaw:	-1.760	yaw rate:	-89.210	Roll:	-2.764	Pitch:	-4.239	Yaw:	-22.903	Thrust:	56.010
Time:	2.580	Roll Set Point:	0.127	Pitch Set Point:	0.065	Yaw Set Point:	0.011	X_WP:	0.100	Y_WP:	0.000	Y_WP:	0.500	X:	-0.014	Y:	-0.032	Z:	0.050	yaw:	-0.645	yaw rate:	111.459	Roll:	-4.388	Pitch:	3.003	Yaw:	24.208	Thrust:	53.570
Time:	2.591	Roll Set Point:	0.127	Pitch Set Point:	0.065	Yaw Set Point:	0.015	X_WP:	0.100	Y_WP:	0.000	Y_WP:	0.500	X:	-0.014	Y:	-0.032	Z:	0.050	yaw:	-0.880	yaw rate:	-23.517	Roll:	-3.117	Pitch:	-1.749	Yaw:	-7.003	Thrust:	55.103
Time:	2.602	Roll Set Point:	0.127	Pitch Set Point:	0.065	Yaw Set Point:	0.015	X_WP:	0.100	Y_WP:	0.000	Y_WP:	0.500	X:	-0.014	Y:	-0.032	Z:	0.050	yaw:	-0.870	yaw rate:	1.075	Roll:	-3.464	Pitch:	-0.971	Yaw:	-1.156	Thrust:	55.087
Time:	2.614	Roll Set Point:	0.126	Pitch Set Point:	0.068	Yaw Set Point:	0.030	X_WP:	0.100	Y_WP:	0.000	Y_WP:	0.500	X:	-0.014	Y:	-0.032	Z:	0.049	yaw:	-1.730	yaw rate:	-87.216	Roll:	-2.807	Pitch:	-4.286	Yaw:	-23.016	Thrust:	57.149
Time:	2.625	Roll Set Point:	0.126	Pitch Set Point:	0.067	Yaw Set Point:	0.024	X_WP:	0.100	Y_WP:	0.000	Y_WP:	0.500	X:	-0.014	Y:	-0.032	Z:	0.049	yaw:	-1.355	yaw rate:	37.474	Roll:	-3.602	Pitch:	0.280	Yaw:	5.701	Thrust:	60.230
Time:	2.636	Roll Set Point:	0.127	Pitch Set Point:	0.065	Yaw Set Point:	0.011	X_WP:	0.100	Y_WP:	0.000	Y_WP:	0.500	X:	-0.014	Y:	-0.032	Z:	0.050	yaw:	-0.636	yaw rate:	71.844	Roll:	-4.213	Pitch:	1.385	Yaw:	15.953	Thrust:	55.790
Time:	2.648	Roll Set Point:	0.127	Pitch Set Point:	0.065	Yaw Set Point:	0.015	X_WP:	0.100	Y_WP:	0.000	Y_WP:	0.500	X:	-0.014	Y:	-0.032	Z:	0.050	yaw:	-0.885	yaw rate:	-24.905	Roll:	-3.123	Pitch:	-1.860	Yaw:	-7.361	Thrust:	57.895
Time:	2.659	Roll Set Point:	0.127	Pitch Set Point:	0.065	Yaw Set Point:	0.011	X_WP:	0.100	Y_WP:	0.000	Y_WP:	0.500	X:	-0.014	Y:	-0.032	Z:	0.050	yaw:	-0.621	yaw rate:	26.483	Roll:	-3.798	Pitch:	-0.141	Yaw:	4.917	Thrust:	57.725
Time:	2.670	Roll Set Point:	0.127	Pitch Set Point:	0.065	Yaw Set Point:	0.015	X_WP:	0.100	Y_WP:	0.000	Y_WP:	0.500	X:	-0.014	Y:	-0.032	Z:	0.050	yaw:	-0.861	yaw rate:	-24.042	Roll:	-3.148	Pitch:	-1.788	Yaw:	-7.129	Thrust:	59.228
Time:	2.681	Roll Set Point:	0.127	Pitch Set Point:	0.065	Yaw Set Point:	0.016	X_WP:	0.100	Y_WP:	0.000	Y_WP:	0.500	X:	-0.014	Y:	-0.032	Z:	0.050	yaw:	-0.893	yaw rate:	-3.191	Roll:	-3.429	Pitch:	-1.146	Yaw:	-2.228	Thrust:	60.941
Time:	2.692	Roll Set Point:	0.127	Pitch Set Point:	0.065	Yaw Set Point:	0.011	X_WP:	0.100	Y_WP:	0.000	Y_WP:	0.500	X:	-0.014	Y:	-0.032	Z:	0.050	yaw:	-0.621	yaw rate:	27.164	Roll:	-3.831	Pitch:	-0.115	Yaw:	5.190	Thrust:	60.360
Time:	2.703	Roll Set Point:	0.127	Pitch Set Point:	0.065	Yaw Set Point:	0.015	X_WP:	0.100	Y_WP:	0.000	Y_WP:	0.500	X:	-0.014	Y:	-0.032	Z:	0.050	yaw:	-0.868	yaw rate:	-24.627	Roll:	-3.119	Pitch:	-1.826	Yaw:	-7.550	Thrust:	59.384
Time:	2.714	Roll Set Point:	0.127	Pitch Set Point:	0.065	Yaw Set Point:	0.015	X_WP:	0.100	Y_WP:	0.000	Y_WP:	0.500	X:	-0.014	Y:	-0.032	Z:	0.050	yaw:	-0.880	yaw rate:	-1.256	Roll:	-3.453	Pitch:	-1.068	Yaw:	-1.760	Thrust:	61.180
Time:	2.726	Roll Set Point:	0.127	Pitch Set Point:	0.065	Yaw Set Point:	0.015	X_WP:	0.100	Y_WP:	0.000	Y_WP:	0.500	X:	-0.014	Y:	-0.032	Z:	0.050	yaw:	-0.865	yaw rate:	1.504	Roll:	-3.506	Pitch:	-0.979	Yaw:	-1.114	Thrust:	61.745
Time:	2.737	Roll Set Point:	0.127	Pitch Set Point:	0.065	Yaw Set Point:	0.015	X_WP:	0.100	Y_WP:	0.000	Y_WP:	0.500	X:	-0.014	Y:	-0.032	Z:	0.050	yaw:	-0.868	yaw rate:	-0.271	Roll:	-3.474	Pitch:	-1.030	Yaw:	-1.516	Thrust:	63.997
Time:	2.747	Roll Set Point:	0.126	Pitch Set Point:	0.068	Yaw Set Point:	0.031	X_WP:	0.100	Y_WP:	0.000	Y_WP:	0.500	X:	-0.014	Y:	-0.032	Z:	0.049	yaw:	-1.748	yaw rate:	-88.022	Roll:	-2.758	Pitch:	-4.688	Yaw:	-25.572	Thrust:	61.074
Time:	2.757	Roll Set Point:	0.126	Pitch Set Point:	0.067	Yaw Set Point:	0.023	X_WP:	0.100	Y_WP:	0.000	Y_WP:	0.500	X:	-0.014	Y:	-0.032	Z:	0.049	yaw:	-1.342	yaw rate:	40.579	Roll:	-3.668	Pitch:	0.662	Yaw:	8.003	Thrust:	61.108
Time:	2.768	Roll Set Point:	0.127	Pitch Set Point:	0.065	Yaw Set Point:	0.011	X_WP:	0.100	Y_WP:	0.000	Y_WP:	0.500	X:	-0.014	Y:	-0.032	Z:	0.050	yaw:	-0.641	yaw rate:	70.167	Roll:	-4.274	Pitch:	1.444	Yaw:	15.506	Thrust:	63.053
Time:	2.798	Roll Set Point:	0.127	Pitch Set Point:	0.065	Yaw Set Point:	0.011	X_WP:	0.100	Y_WP:	0.000	Y_WP:	0.500	X:	-0.014	Y:	-0.032	Z:	0.050	yaw:	-0.620	yaw rate:	2.021	Roll:	-3.860	Pitch:	-1.108	Yaw:	-1.383	Thrust:	100.000
Time:	2.811	Roll Set Point:	0.127	Pitch Set Point:	0.066	Yaw Set Point:	0.016	X_WP:	0.100	Y_WP:	0.000	Y_WP:	0.500	X:	-0.014	Y:	-0.032	Z:	0.050	yaw:	-0.936	yaw rate:	-31.602	Roll:	-3.400	Pitch:	-2.047	Yaw:	-7.974	Thrust:	74.854
Time:	2.825	Roll Set Point:	0.127	Pitch Set Point:	0.065	Yaw Set Point:	0.015	X_WP:	0.100	Y_WP:	0.000	Y_WP:	0.500	X:	-0.014	Y:	-0.032	Z:	0.050	yaw:	-0.877	yaw rate:	5.950	Roll:	-3.398	Pitch:	-0.745	Yaw:	-0.398	Thrust:	75.204
Time:	2.836	Roll Set Point:	0.127	Pitch Set Point:	0.065	Yaw Set Point:	0.015	X_WP:	0.100	Y_WP:	0.000	Y_WP:	0.500	X:	-0.014	Y:	-0.032	Z:	0.050	yaw:	-0.880	yaw rate:	-0.290	Roll:	-3.488	Pitch:	-1.065	Yaw:	-1.573	Thrust:	68.472
Time:	2.847	Roll Set Point:	0.127	Pitch Set Point:	0.067	Yaw Set Point:	0.024	X_WP:	0.100	Y_WP:	0.000	Y_WP:	0.500	X:	-0.014	Y:	-0.032	Z:	0.049	yaw:	-1.386	yaw rate:	-50.624	Roll:	-3.400	Pitch:	-3.211	Yaw:	-14.779	Thrust:	66.113
Time:	2.858	Roll Set Point:	0.127	Pitch Set Point:	0.065	Yaw Set Point:	0.015	X_WP:	0.100	Y_WP:	0.000	Y_WP:	0.500	X:	-0.014	Y:	-0.032	Z:	0.050	yaw:	-0.880	yaw rate:	50.594	Roll:	-3.609	Pitch:	1.010	Yaw:	10.502	Thrust:	66.735
Time:	2.869	Roll Set Point:	0.127	Pitch Set Point:	0.065	Yaw Set Point:	0.011	X_WP:	0.100	Y_WP:	0.000	Y_WP:	0.500	X:	-0.014	Y:	-0.032	Z:	0.050	yaw:	-0.623	yaw rate:	25.662	Roll:	-3.871	Pitch:	-0.140	Yaw:	5.245	Thrust:	65.932
Time:	2.879	Roll Set Point:	0.127	Pitch Set Point:	0.065	Yaw Set Point:	0.015	X_WP:	0.100	Y_WP:	0.000	Y_WP:	0.500	X:	-0.014	Y:	-0.032	Z:	0.050	yaw:	-0.857	yaw rate:	-23.312	Roll:	-3.162	Pitch:	-1.823	Yaw:	-7.007	Thrust:	69.310
Time:	2.890	Roll Set Point:	0.126	Pitch Set Point:	0.068	Yaw Set Point:	0.030	X_WP:	0.100	Y_WP:	0.000	Y_WP:	0.500	X:	-0.014	Y:	-0.032	Z:	0.049	yaw:	-1.747	yaw rate:	-89.005	Roll:	-2.837	Pitch:	-4.410	Yaw:	-23.833	Thrust:	70.845
Time:	2.901	Roll Set Point:	0.127	Pitch Set Point:	0.065	Yaw Set Point:	0.015	X_WP:	0.100	Y_WP:	0.000	Y_WP:	0.500	X:	-0.014	Y:	-0.032	Z:	0.050	yaw:	-0.881	yaw rate:	86.547	Roll:	-4.172	Pitch:	2.318	Yaw:	20.013	Thrust:	66.648
Time:	2.911	Roll Set Point:	0.127	Pitch Set Point:	0.065	Yaw Set Point:	0.011	X_WP:	0.100	Y_WP:	0.000	Y_WP:	0.500	X:	-0.014	Y:	-0.032	Z:	0.050	yaw:	-0.647	yaw rate:	23.418	Roll:	-3.859	Pitch:	-0.244	Yaw:	4.637	Thrust:	68.327
Time:	2.922	Roll Set Point:	0.127	Pitch Set Point:	0.065	Yaw Set Point:	0.011	X_WP:	0.100	Y_WP:	0.000	Y_WP:	0.500	X:	-0.014	Y:	-0.032	Z:	0.050	yaw:	-0.634	yaw rate:	1.301	Roll:	-3.510	Pitch:	-1.007	Yaw:	-0.846	Thrust:	68.905
Time:	2.932	Roll Set Point:	0.127	Pitch Set Point:	0.065	Yaw Set Point:	0.015	X_WP:	0.100	Y_WP:	0.000	Y_WP:	0.500	X:	-0.014	Y:	-0.032	Z:	0.050	yaw:	-0.853	yaw rate:	-21.862	Roll:	-3.203	Pitch:	-1.761	Yaw:	-6.913	Thrust:	68.095
Time:	2.942	Roll Set Point:	0.126	Pitch Set Point:	0.067	Yaw Set Point:	0.023	X_WP:	0.100	Y_WP:	0.000	Y_WP:	0.500	X:	-0.014	Y:	-0.032	Z:	0.049	yaw:	-1.345	yaw rate:	-49.235	Roll:	-3.012	Pitch:	-2.926	Yaw:	-15.006	Thrust:	71.174
Time:	2.954	Roll Set Point:	0.127	Pitch Set Point:	0.065	Yaw Set Point:	0.015	X_WP:	0.100	Y_WP:	0.000	Y_WP:	0.500	X:	-0.014	Y:	-0.032	Z:	0.050	yaw:	-0.874	yaw rate:	47.062	Roll:	-3.980	Pitch:	0.643	Yaw:	9.136	Thrust:	74.518
Time:	2.966	Roll Set Point:	0.127	Pitch Set Point:	0.065	Yaw Set Point:	0.011	X_WP:	0.100	Y_WP:	0.000	Y_WP:	0.500	X:	-0.014	Y:	-0.032	Z:	0.050	yaw:	-0.635	yaw rate:	23.942	Roll:	-3.857	Pitch:	-0.339	Yaw:	3.983	Thrust:	75.530
Time:	2.977	Roll Set Point:	0.127	Pitch Set Point:	0.065	Yaw Set Point:	0.011	X_WP:	0.100	Y_WP:	0.000	Y_WP:	0.500	X:	-0.014	Y:	-0.032	Z:	0.050	yaw:	-0.633	yaw rate:	0.157	Roll:	-3.576	Pitch:	-1.036	Yaw:	-1.171	Thrust:	77.937
Time:	2.988	Roll Set Point:	0.127	Pitch Set Point:	0.065	Yaw Set Point:	0.016	X_WP:	0.100	Y_WP:	0.000	Y_WP:	0.500	X:	-0.014	Y:	-0.032	Z:	0.050	yaw:	-0.893	yaw rate:	-25.931	Roll:	-3.175	Pitch:	-1.909	Yaw:	-7.715	Thrust:	75.187
Time:	3.000	Roll Set Point:	0.127	Pitch Set Point:	0.065	Yaw Set Point:	0.011	X_WP:	0.100	Y_WP:	0.000	Y_WP:	0.500	X:	-0.014	Y:	-0.032	Z:	0.050	yaw:	-0.619	yaw rate:	27.374	Roll:	-3.898	Pitch:	-0.116	Yaw:	5.014	Thrust:	77.353
Time:	3.011	Roll Set Point:	0.126	Pitch Set Point:	0.068	Yaw Set Point:	0.030	X_WP:	0.100	Y_WP:	0.000	Y_WP:	0.500	X:	-0.014	Y:	-0.032	Z:	0.049	yaw:	-1.732	yaw rate:	-86.104	Roll:	-2.687	Pitch:	-4.786	Yaw:	-27.821	Thrust:	80.637
Time:	3.023	Roll Set Point:	0.127	Pitch Set Point:	0.065	Yaw Set Point:	0.015	X_WP:	0.100	Y_WP:	0.000	Y_WP:	0.500	X:	-0.014	Y:	-0.032	Z:	0.050	yaw:	-0.861	yaw rate:	87.059	Roll:	-4.175	Pitch:	1.883	Yaw:	17.375	Thrust:	79.932
Time:	3.036	Roll Set Point:	0.127	Pitch Set Point:	0.065	Yaw Set Point:	0.016	X_WP:	0.100	Y_WP:	0.000	Y_WP:	0.500	X:	-0.014	Y:	-0.032	Z:	0.050	yaw:	-0.895	yaw rate:	-3.429	Roll:	-3.564	Pitch:	-1.152	Yaw:	-2.344	Thrust:	84.540
Time:	3.048	Roll Set Point:	0.127	Pitch Set Point:	0.065	Yaw Set Point:	0.015	X_WP:	0.100	Y_WP:	0.000	Y_WP:	0.500	X:	-0.014	Y:	-0.032	Z:	0.050	yaw:	-0.883	yaw rate:	1.257	Roll:	-3.596	Pitch:	-1.012	Yaw:	-1.298	Thrust:	80.353
Time:	3.059	Roll Set Point:	0.127	Pitch Set Point:	0.065	Yaw Set Point:	0.011	X_WP:	0.100	Y_WP:	0.000	Y_WP:	0.500	X:	-0.014	Y:	-0.032	Z:	0.050	yaw:	-0.611	yaw rate:	27.232	Roll:	-3.919	Pitch:	-0.165	Yaw:	4.975	Thrust:	77.743
Time:	3.070	Roll Set Point:	0.127	Pitch Set Point:	0.065	Yaw Set Point:	0.011	X_WP:	0.100	Y_WP:	0.000	Y_WP:	0.500	X:	-0.014	Y:	-0.032	Z:	0.050	yaw:	-0.607	yaw rate:	0.348	Roll:	-3.566	Pitch:	-1.021	Yaw:	-1.067	Thrust:	76.665
Time:	3.081	Roll Set Point:	0.127	Pitch Set Point:	0.065	Yaw Set Point:	0.015	X_WP:	0.100	Y_WP:	0.000	Y_WP:	0.500	X:	-0.014	Y:	-0.032	Z:	0.050	yaw:	-0.883	yaw rate:	-27.546	Roll:	-3.213	Pitch:	-1.961	Yaw:	-7.840	Thrust:	82.613
Time:	3.092	Roll Set Point:	0.127	Pitch Set Point:	0.065	Yaw Set Point:	0.011	X_WP:	0.100	Y_WP:	0.000	Y_WP:	0.500	X:	-0.014	Y:	-0.032	Z:	0.050	yaw:	-0.644	yaw rate:	23.818	Roll:	-3.887	Pitch:	-0.314	Yaw:	4.407	Thrust:	79.723
Time:	3.103	Roll Set Point:	0.126	Pitch Set Point:	0.068	Yaw Set Point:	0.031	X_WP:	0.100	Y_WP:	0.000	Y_WP:	0.500	X:	-0.014	Y:	-0.032	Z:	0.049	yaw:	-1.763	yaw rate:	-111.829	Roll:	-2.580	Pitch:	-5.170	Yaw:	-29.353	Thrust:	82.791
Time:	3.114	Roll Set Point:	0.127	Pitch Set Point:	0.065	Yaw Set Point:	0.015	X_WP:	0.100	Y_WP:	0.000	Y_WP:	0.500	X:	-0.014	Y:	-0.032	Z:	0.050	yaw:	-0.876	yaw rate:	88.681	Roll:	-4.246	Pitch:	2.197	Yaw:	19.125	Thrust:	80.796
Time:	3.125	Roll Set Point:	0.127	Pitch Set Point:	0.065	Yaw Set Point:	0.015	X_WP:	0.100	Y_WP:	0.000	Y_WP:	0.500	X:	-0.014	Y:	-0.032	Z:	0.050	yaw:	-0.856	yaw rate:	1.961	Roll:	-3.591	Pitch:	-1.020	Yaw:	-1.127	Thrust:	84.634
Time:	3.136	Roll Set Point:	0.127	Pitch Set Point:	0.065	Yaw Set Point:	0.011	X_WP:	0.100	Y_WP:	0.000	Y_WP:	0.500	X:	-0.014	Y:	-0.032	Z:	0.050	yaw:	-0.612	yaw rate:	24.419	Roll:	-3.915	Pitch:	-0.191	Yaw:	4.871	Thrust:	79.573
Time:	3.146	Roll Set Point:	0.127	Pitch Set Point:	0.065	Yaw Set Point:	0.016	X_WP:	0.100	Y_WP:	0.000	Y_WP:	0.500	X:	-0.014	Y:	-0.032	Z:	0.050	yaw:	-0.890	yaw rate:	-27.808	Roll:	-3.231	Pitch:	-1.988	Yaw:	-8.620	Thrust:	80.118
Time:	3.158	Roll Set Point:	0.127	Pitch Set Point:	0.065	Yaw Set Point:	0.016	X_WP:	0.100	Y_WP:	0.000	Y_WP:	0.500	X:	-0.014	Y:	-0.032	Z:	0.050	yaw:	-0.894	yaw rate:	-0.399	Roll:	-3.569	Pitch:	-1.100	Yaw:	-1.725	Thrust:	86.399
Time:	3.169	Roll Set Point:	0.126	Pitch Set Point:	0.067	Yaw Set Point:	0.024	X_WP:	0.100	Y_WP:	0.000	Y_WP:	0.500	X:	-0.014	Y:	-0.032	Z:	0.049	yaw:	-1.353	yaw rate:	-45.921	Roll:	-3.127	Pitch:	-2.832	Yaw:	-13.162	Thrust:	82.462
Time:	3.179	Roll Set Point:	0.127	Pitch Set Point:	0.065	Yaw Set Point:	0.015	X_WP:	0.100	Y_WP:	0.000	Y_WP:	0.500	X:	-0.014	Y:	-0.032	Z:	0.050	yaw:	-0.883	yaw rate:	47.017	Roll:	-4.090	Pitch:	0.716	Yaw:	10.700	Thrust:	81.456
Time:	3.190	Roll Set Point:	0.127	Pitch Set Point:	0.065	Yaw Set Point:	0.015	X_WP:	0.100	Y_WP:	0.000	Y_WP:	0.500	X:	-0.014	Y:	-0.032	Z:	0.050	yaw:	-0.861	yaw rate:	2.169	Roll:	-3.580	Pitch:	-0.973	Yaw:	-1.028	Thrust:	82.992
Time:	3.200	Roll Set Point:	0.127	Pitch Set Point:	0.066	Yaw Set Point:	0.018	X_WP:	0.100	Y_WP:	0.000	Y_WP:	0.500	X:	-0.014	Y:	-0.032	Z:	0.050	yaw:	-1.035	yaw rate:	-17.399	Roll:	-3.560	Pitch:	-1.830	Yaw:	-5.960	Thrust:	86.339
Time:	3.212	Roll Set Point:	0.127	Pitch Set Point:	0.065	Yaw Set Point:	0.016	X_WP:	0.100	Y_WP:	0.000	Y_WP:	0.500	X:	-0.014	Y:	-0.032	Z:	0.050	yaw:	-0.892	yaw rate:	14.328	Roll:	-3.627	Pitch:	-0.431	Yaw:	1.754	Thrust:	86.762
Time:	3.223	Roll Set Point:	0.127	Pitch Set Point:	0.065	Yaw Set Point:	0.011	X_WP:	0.100	Y_WP:	0.000	Y_WP:	0.500	X:	-0.014	Y:	-0.032	Z:	0.050	yaw:	-0.633	yaw rate:	25.894	Roll:	-3.954	Pitch:	-0.219	Yaw:	4.583	Thrust:	89.813
Time:	3.234	Roll Set Point:	0.127	Pitch Set Point:	0.068	Yaw Set Point:	0.027	X_WP:	0.100	Y_WP:	0.000	Y_WP:	0.500	X:	-0.014	Y:	-0.032	Z:	0.049	yaw:	-1.543	yaw rate:	-91.023	Roll:	-2.900	Pitch:	-4.732	Yaw:	-25.165	Thrust:	84.028
Time:	3.244	Roll Set Point:	0.126	Pitch Set Point:	0.067	Yaw Set Point:	0.024	X_WP:	0.100	Y_WP:	0.000	Y_WP:	0.500	X:	-0.014	Y:	-0.032	Z:	0.049	yaw:	-1.360	yaw rate:	18.297	Roll:	-3.429	Pitch:	-0.127	Yaw:	2.512	Thrust:	85.247
Time:	3.254	Roll Set Point:	0.127	Pitch Set Point:	0.065	Yaw Set Point:	0.015	X_WP:	0.100	Y_WP:	0.000	Y_WP:	0.500	X:	-0.014	Y:	-0.032	Z:	0.050	yaw:	-0.888	yaw rate:	47.263	Roll:	-4.102	Pitch:	0.802	Yaw:	10.732	Thrust:	82.343
Time:	3.268	Roll Set Point:	0.127	Pitch Set Point:	0.065	Yaw Set Point:	0.015	X_WP:	0.100	Y_WP:	0.000	Y_WP:	0.500	X:	-0.014	Y:	-0.032	Z:	0.050	yaw:	-0.887	yaw rate:	0.043	Roll:	-3.632	Pitch:	-1.107	Yaw:	-1.695	Thrust:	95.680
Time:	3.281	Roll Set Point:	0.126	Pitch Set Point:	0.067	Yaw Set Point:	0.024	X_WP:	0.100	Y_WP:	0.000	Y_WP:	0.500	X:	-0.014	Y:	-0.032	Z:	0.049	yaw:	-1.356	yaw rate:	-46.887	Roll:	-3.382	Pitch:	-2.367	Yaw:	-10.875	Thrust:	100.000
Time:	3.292	Roll Set Point:	0.127	Pitch Set Point:	0.065	Yaw Set Point:	0.011	X_WP:	0.100	Y_WP:	0.000	Y_WP:	0.500	X:	-0.014	Y:	-0.032	Z:	0.050	yaw:	-0.622	yaw rate:	73.426	Roll:	-4.406	Pitch:	1.268	Yaw:	15.356	Thrust:	95.980
Time:	3.304	Roll Set Point:	0.127	Pitch Set Point:	0.065	Yaw Set Point:	0.015	X_WP:	0.100	Y_WP:	0.000	Y_WP:	0.500	X:	-0.014	Y:	-0.032	Z:	0.050	yaw:	-0.866	yaw rate:	-24.361	Roll:	-3.316	Pitch:	-1.852	Yaw:	-7.248	Thrust:	93.825
Time:	3.315	Roll Set Point:	0.127	Pitch Set Point:	0.067	Yaw Set Point:	0.024	X_WP:	0.100	Y_WP:	0.000	Y_WP:	0.500	X:	-0.014	Y:	-0.032	Z:	0.049	yaw:	-1.392	yaw rate:	-52.596	Roll:	-3.484	Pitch:	-3.219	Yaw:	-14.849	Thrust:	93.297
Time:	3.326	Roll Set Point:	0.126	Pitch Set Point:	0.068	Yaw Set Point:	0.031	X_WP:	0.100	Y_WP:	0.000	Y_WP:	0.500	X:	-0.014	Y:	-0.032	Z:	0.049	yaw:	-1.752	yaw rate:	-36.036	Roll:	-3.081	Pitch:	-2.261	Yaw:	-11.076	Thrust:	96.270
Time:	3.338	Roll Set Point:	0.127	Pitch Set Point:	0.065	Yaw Set Point:	0.015	X_WP:	0.100	Y_WP:	0.000	Y_WP:	0.500	X:	-0.014	Y:	-0.032	Z:	0.050	yaw:	-0.881	yaw rate:	87.113	Roll:	-4.297	Pitch:	2.238	Yaw:	19.694	Thrust:	89.552
Time:	3.348	Roll Set Point:	0.127	Pitch Set Point:	0.065	Yaw Set Point:	0.015	X_WP:	0.100	Y_WP:	0.000	Y_WP:	0.500	X:	-0.014	Y:	-0.032	Z:	0.050	yaw:	-0.870	yaw rate:	1.112	Roll:	-3.663	Pitch:	-1.053	Yaw:	-1.389	Thrust:	94.048
Time:	3.359	Roll Set Point:	0.127	Pitch Set Point:	0.065	Yaw Set Point:	0.015	X_WP:	0.100	Y_WP:	0.000	Y_WP:	0.500	X:	-0.014	Y:	-0.032	Z:	0.050	yaw:	-0.864	yaw rate:	0.593	Roll:	-3.650	Pitch:	-1.016	Yaw:	-1.507	Thrust:	94.562
Time:	3.372	Roll Set Point:	0.127	Pitch Set Point:	0.065	Yaw Set Point:	0.011	X_WP:	0.100	Y_WP:	0.000	Y_WP:	0.500	X:	-0.014	Y:	-0.032	Z:	0.050	yaw:	-0.622	yaw rate:	24.160	Roll:	-3.962	Pitch:	-0.390	Yaw:	3.657	Thrust:	100.000
Time:	3.384	Roll Set Point:	0.127	Pitch Set Point:	0.065	Yaw Set Point:	0.011	X_WP:	0.100	Y_WP:	0.000	Y_WP:	0.500	X:	-0.014	Y:	-0.032	Z:	0.050	yaw:	-0.628	yaw rate:	-0.549	Roll:	-3.735	Pitch:	-1.084	Yaw:	-1.484	Thrust:	100.000
Time:	3.395	Roll Set Point:	0.127	Pitch Set Point:	0.065	Yaw Set Point:	0.016	X_WP:	0.100	Y_WP:	0.000	Y_WP:	0.500	X:	-0.014	Y:	-0.032	Z:	0.050	yaw:	-0.892	yaw rate:	-26.385	Roll:	-3.285	Pitch:	-1.930	Yaw:	-8.161	Thrust:	94.300
Time:	3.405	Roll Set Point:	0.127	Pitch Set Point:	0.065	Yaw Set Point:	0.016	X_WP:	0.100	Y_WP:	0.000	Y_WP:	0.500	X:	-0.014	Y:	-0.032	Z:	0.050	yaw:	-0.888	yaw rate:	0.333	Roll:	-3.679	Pitch:	-1.098	Yaw:	-1.615	Thrust:	96.906
Time:	3.417	Roll Set Point:	0.127	Pitch Set Point:	0.065	Yaw Set Point:	0.014	X_WP:	0.100	Y_WP:	0.000	Y_WP:	0.500	X:	-0.014	Y:	-0.032	Z:	0.050	yaw:	-0.783	yaw rate:	10.527	Roll:	-3.904	Pitch:	-0.802	Yaw:	0.697	Thrust:	100.000
Time:	3.431	Roll Set Point:	0.127	Pitch Set Point:	0.065	Yaw Set Point:	0.015	X_WP:	0.100	Y_WP:	0.000	Y_WP:	0.500	X:	-0.014	Y:	-0.032	Z:	0.050	yaw:	-0.858	yaw rate:	-7.512	Roll:	-3.506	Pitch:	-1.276	Yaw:	-3.216	Thrust:	100.000
Time:	3.443	Roll Set Point:	0.127	Pitch Set Point:	0.065	Yaw Set Point:	0.015	X_WP:	0.100	Y_WP:	0.000	Y_WP:	0.500	X:	-0.014	Y:	-0.032	Z:	0.050	yaw:	-0.875	yaw rate:	86.284	Roll:	-3.717	Pitch:	-1.169	Yaw:	-2.090	Thrust:	100.000
Time:	3.453	Roll Set Point:	0.127	Pitch Set Point:	0.065	Yaw Set Point:	0.015	X_WP:	0.100	Y_WP:	0.000	Y_WP:	0.500	X:	-0.014	Y:	-0.032	Z:	0.050	yaw:	-0.875	yaw rate:	86.284	Roll:	-3.669	Pitch:	-1.090	Yaw:	-1.689	Thrust:	99.320
Time:	3.464	Roll Set Point:	0.127	Pitch Set Point:	0.065	Yaw Set Point:	0.011	X_WP:	0.100	Y_WP:	0.000	Y_WP:	0.500	X:	-0.014	Y:	-0.032	Z:	0.050	yaw:	-0.642	yaw rate:	23.318	Roll:	-4.008	Pitch:	-0.198	Yaw:	4.454	Thrust:	96.233
Time:	3.475	Roll Set Point:	0.127	Pitch Set Point:	0.066	Yaw Set Point:	0.018	X_WP:	0.100	Y_WP:	0.000	Y_WP:	0.500	X:	-0.014	Y:	-0.032	Z:	0.050	yaw:	-1.032	yaw rate:	-39.033	Roll:	-3.358	Pitch:	-2.556	Yaw:	-11.150	Thrust:	100.000
Time:	3.487	Roll Set Point:	0.127	Pitch Set Point:	0.065	Yaw Set Point:	0.015	X_WP:	0.100	Y_WP:	0.000	Y_WP:	0.500	X:	-0.014	Y:	-0.032	Z:	0.050	yaw:	-0.882	yaw rate:	-0.644	Roll:	-3.701	Pitch:	-0.500	Yaw:	1.367	Thrust:	100.000
Time:	3.502	Roll Set Point:	0.127	Pitch Set Point:	0.065	Yaw Set Point:	0.011	X_WP:	0.100	Y_WP:	0.000	Y_WP:	0.500	X:	-0.014	Y:	-0.032	Z:	0.050	yaw:	-0.625	yaw rate:	25.664	Roll:	-4.052	Pitch:	-0.508	Yaw:	2.937	Thrust:	100.000
Time:	3.513	Roll Set Point:	0.126	Pitch Set Point:	0.068	Yaw Set Point:	0.031	X_WP:	0.100	Y_WP:	0.000	Y_WP:	0.500	X:	-0.014	Y:	-0.032	Z:	0.049	yaw:	-1.757	yaw rate:	-113.166	Roll:	-2.854	Pitch:	-4.925	Yaw:	-29.881	Thrust:	100.000
Time:	3.525	Roll Set Point:	0.126	Pitch Set Point:	0.067	Yaw Set Point:	0.023	X_WP:	0.100	Y_WP:	0.000	Y_WP:	0.500	X:	-0.014	Y:	-0.032	Z:	0.049	yaw:	-1.343	yaw rate:	41.347	Roll:	-3.919	Pitch:	0.388	Yaw:	6.586	Thrust:	100.000
Time:	3.536	Roll Set Point:	0.127	Pitch Set Point:	0.065	Yaw Set Point:	0.011	X_WP:	0.100	Y_WP:	0.000	Y_WP:	0.500	X:	-0.014	Y:	-0.032	Z:	0.050	yaw:	-0.627	yaw rate:	71.655	Roll:	-4.486	Pitch:	1.415	Yaw:	15.639	Thrust:	98.601
Time:	3.546	Roll Set Point:	0.127	Pitch Set Point:	0.065	Yaw Set Point:	0.015	X_WP:	0.100	Y_WP:	0.000	Y_WP:	0.500	X:	-0.014	Y:	-0.032	Z:	0.050	yaw:	-0.864	yaw rate:	-23.686	Roll:	-3.309	Pitch:	-1.910	Yaw:	-7.839	Thrust:	100.000
Time:	3.557	Roll Set Point:	0.127	Pitch Set Point:	0.065	Yaw Set Point:	0.011	X_WP:	0.100	Y_WP:	0.000	Y_WP:	0.500	X:	-0.014	Y:	-0.032	Z:	0.050	yaw:	-0.648	yaw rate:	21.593	Roll:	-4.156	Pitch:	-0.341	Yaw:	4.279	Thrust:	97.102
Time:	3.567	Roll Set Point:	0.127	Pitch Set Point:	0.065	Yaw Set Point:	0.011	X_WP:	0.100	Y_WP:	0.000	Y_WP:	0.500	X:	-0.014	Y:	-0.032	Z:	0.050	yaw:	-0.616	yaw rate:	3.191	Roll:	-3.603	Pitch:	-0.926	Yaw:	-0.605	Thrust:	100.000
Time:	3.579	Roll Set Point:	0.127	Pitch Set Point:	0.065	Yaw Set Point:	0.015	X_WP:	0.100	Y_WP:	0.000	Y_WP:	0.500	X:	-0.014	Y:	-0.032	Z:	0.050	yaw:	-0.871	yaw rate:	-25.489	Roll:	-3.367	Pitch:	-1.910	Yaw:	-7.518	Thrust:	100.000
Time:	3.591	Roll Set Point:	0.127	Pitch Set Point:	0.065	Yaw Set Point:	0.015	X_WP:	0.100	Y_WP:	0.000	Y_WP:	0.500	X:	-0.014	Y:	-0.032	Z:	0.050	yaw:	-0.876	yaw rate:	-0.536	Roll:	-3.708	Pitch:	-1.127	Yaw:	-1.876	Thrust:	100.000
Time:	3.602	Roll Set Point:	0.126	Pitch Set Point:	0.067	Yaw Set Point:	0.023	X_WP:	0.100	Y_WP:	0.000	Y_WP:	0.500	X:	-0.014	Y:	-0.032	Z:	0.049	yaw:	-1.346	yaw rate:	-47.038	Roll:	-3.210	Pitch:	-2.867	Yaw:	-13.557	Thrust:	100.000
Time:	3.612	Roll Set Point:	0.127	Pitch Set Point:	0.066	Yaw Set Point:	0.018	X_WP:	0.100	Y_WP:	0.000	Y_WP:	0.500	X:	-0.014	Y:	-0.032	Z:	0.050	yaw:	-1.043	yaw rate:	30.299	Roll:	-4.166	Pitch:	-0.162	Yaw:	5.581	Thrust:	100.000
Time:	3.624	Roll Set Point:	0.127	Pitch Set Point:	0.065	Yaw Set Point:	0.010	X_WP:	0.100	Y_WP:	0.000	Y_WP:	0.500	X:	-0.014	Y:	-0.032	Z:	0.050	yaw:	-0.597	yaw rate:	44.631	Roll:	-4.058	Pitch:	0.458	Yaw:	8.752	Thrust:	100.000
Time:	3.635	Roll Set Point:	0.126	Pitch Set Point:	0.067	Yaw Set Point:	0.024	X_WP:	0.100	Y_WP:	0.000	Y_WP:	0.500	X:	-0.014	Y:	-0.032	Z:	0.049	yaw:	-1.350	yaw rate:	-75.328	Roll:	-2.855	Pitch:	-3.862	Yaw:	-20.289	Thrust:	100.000
Time:	3.645	Roll Set Point:	0.127	Pitch Set Point:	0.065	Yaw Set Point:	0.015	X_WP:	0.100	Y_WP:	0.000	Y_WP:	0.500	X:	-0.014	Y:	-0.032	Z:	0.050	yaw:	-0.867	yaw rate:	48.304	Roll:	-4.177	Pitch:	0.646	Yaw:	10.294	Thrust:	100.000
Time:	3.657	Roll Set Point:	0.127	Pitch Set Point:	0.065	Yaw Set Point:	0.015	X_WP:	0.100	Y_WP:	0.000	Y_WP:	0.500	X:	-0.014	Y:	-0.032	Z:	0.050	yaw:	-0.861	yaw rate:	0.591	Roll:	-3.696	Pitch:	-1.102	Yaw:	-1.625	Thrust:	100.000
Time:	3.667	Roll Set Point:	0.126	Pitch Set Point:	0.068	Yaw Set Point:	0.031	X_WP:	0.100	Y_WP:	0.000	Y_WP:	0.500	X:	-0.014	Y:	-0.032	Z:	0.049	yaw:	-1.761	yaw rate:	-89.938	Roll:	-2.948	Pitch:	-4.648	Yaw:	-25.331	Thrust:	100.000
Time:	3.680	Roll Set Point:	0.127	Pitch Set Point:	0.065	Yaw Set Point:	0.015	X_WP:	0.100	Y_WP:	0.000	Y_WP:	0.500	X:	-0.014	Y:	-0.032	Z:	0.050	yaw:	-0.884	yaw rate:	87.698	Roll:	-4.364	Pitch:	2.318	Yaw:	18.992	Thrust:	100.000
Time:	3.691	Roll Set Point:	0.127	Pitch Set Point:	0.065	Yaw Set Point:	0.011	X_WP:	0.100	Y_WP:	0.000	Y_WP:	0.500	X:	-0.014	Y:	-0.032	Z:	0.050	yaw:	-0.619	yaw rate:	25.468	Roll:	-4.080	Pitch:	-0.442	Yaw:	4.038	Thrust:	100.000
Time:	3.701	Roll Set Point:	0.127	Pitch Set Point:	0.065	Yaw Set Point:	0.011	X_WP:	0.100	Y_WP:	0.000	Y_WP:	0.500	X:	-0.014	Y:	-0.032	Z:	0.050	yaw:	-0.619	yaw rate:	25.468	Roll:	-3.681	Pitch:	-1.088	Yaw:	-1.387	Thrust:	100.000
Time:	3.713	Roll Set Point:	0.127	Pitch Set Point:	0.065	Yaw Set Point:	0.011	X_WP:	0.100	Y_WP:	0.000	Y_WP:	0.500	X:	-0.014	Y:	-0.032	Z:	0.050	yaw:	-0.642	yaw rate:	23.088	Roll:	-3.708	Pitch:	-1.177	Yaw:	-1.974	Thrust:	100.000
Time:	3.755	Roll Set Point:	0.127	Pitch Set Point:	0.065	Yaw Set Point:	0.015	X_WP:	0.100	Y_WP:	0.000	Y_WP:	0.500	X:	-0.014	Y:	-0.032	Z:	0.050	yaw:	-0.845	yaw rate:	-20.327	Roll:	-4.761	Pitch:	-1.675	Yaw:	-4.552	Thrust:	100.000
Time:	3.767	Roll Set Point:	0.126	Pitch Set Point:	0.067	Yaw Set Point:	0.024	X_WP:	0.100	Y_WP:	0.000	Y_WP:	0.500	X:	-0.014	Y:	-0.032	Z:	0.049	yaw:	-1.358	yaw rate:	-51.344	Roll:	-3.235	Pitch:	-2.960	Yaw:	-14.135	Thrust:	100.000
Time:	3.778	Roll Set Point:	0.127	Pitch Set Point:	0.065	Yaw Set Point:	0.015	X_WP:	0.100	Y_WP:	0.000	Y_WP:	0.500	X:	-0.014	Y:	-0.032	Z:	0.050	yaw:	-0.881	yaw rate:	47.705	Roll:	-4.141	Pitch:	0.595	Yaw:	9.525	Thrust:	100.000
Time:	3.789	Roll Set Point:	0.127	Pitch Set Point:	0.065	Yaw Set Point:	0.015	X_WP:	0.100	Y_WP:	0.000	Y_WP:	0.500	X:	-0.014	Y:	-0.032	Z:	0.050	yaw:	-0.879	yaw rate:	0.210	Roll:	-3.716	Pitch:	-1.129	Yaw:	-1.748	Thrust:	100.000
Time:	3.800	Roll Set Point:	0.127	Pitch Set Point:	0.065	Yaw Set Point:	0.015	X_WP:	0.100	Y_WP:	0.000	Y_WP:	0.500	X:	-0.014	Y:	-0.032	Z:	0.050	yaw:	-0.871	yaw rate:	0.844	Roll:	-3.703	Pitch:	-1.067	Yaw:	-1.583	Thrust:	100.000
Time:	3.811	Roll Set Point:	0.127	Pitch Set Point:	0.065	Yaw Set Point:	0.011	X_WP:	0.100	Y_WP:	0.000	Y_WP:	0.500	X:	-0.014	Y:	-0.032	Z:	0.050	yaw:	-0.611	yaw rate:	25.979	Roll:	-4.028	Pitch:	-0.302	Yaw:	4.745	Thrust:	100.000
Time:	3.821	Roll Set Point:	0.127	Pitch Set Point:	0.065	Yaw Set Point:	0.016	X_WP:	0.100	Y_WP:	0.000	Y_WP:	0.500	X:	-0.014	Y:	-0.032	Z:	0.050	yaw:	-0.890	yaw rate:	-27.873	Roll:	-3.253	Pitch:	-2.115	Yaw:	-8.719	Thrust:	100.000
Time:	3.832	Roll Set Point:	0.127	Pitch Set Point:	0.065	Yaw Set Point:	0.011	X_WP:	0.100	Y_WP:	0.000	Y_WP:	0.500	X:	-0.014	Y:	-0.032	Z:	0.050	yaw:	-0.635	yaw rate:	25.449	Roll:	-4.059	Pitch:	-0.252	Yaw:	4.891	Thrust:	100.000
Time:	3.843	Roll Set Point:	0.127	Pitch Set Point:	0.065	Yaw Set Point:	0.014	X_WP:	0.100	Y_WP:	0.000	Y_WP:	0.500	X:	-0.014	Y:	-0.032	Z:	0.050	yaw:	-0.829	yaw rate:	-19.397	Roll:	-3.568	Pitch:	-1.809	Yaw:	-6.329	Thrust:	100.000
Time:	3.853	Roll Set Point:	0.127	Pitch Set Point:	0.065	Yaw Set Point:	0.015	X_WP:	0.100	Y_WP:	0.000	Y_WP:	0.500	X:	-0.014	Y:	-0.032	Z:	0.050	yaw:	-0.870	yaw rate:	-4.093	Roll:	-3.439	Pitch:	-1.199	Yaw:	-2.813	Thrust:	100.000
Time:	3.864	Roll Set Point:	0.127	Pitch Set Point:	0.066	Yaw Set Point:	0.018	X_WP:	0.100	Y_WP:	0.000	Y_WP:	0.500	X:	-0.014	Y:	-0.032	Z:	0.049	yaw:	-1.048	yaw rate:	-17.773	Roll:	-3.673	Pitch:	-1.875	Yaw:	-6.266	Thrust:	100.000
Time:	3.875	Roll Set Point:	0.126	Pitch Set Point:	0.067	Yaw Set Point:	0.024	X_WP:	0.100	Y_WP:	0.000	Y_WP:	0.500	X:	-0.014	Y:	-0.032	Z:	0.049	yaw:	-1.360	yaw rate:	-31.258	Roll:	-3.186	Pitch:	-2.192	Yaw:	-9.887	Thrust:	100.000
Time:	3.886	Roll Set Point:	0.127	Pitch Set Point:	0.065	Yaw Set Point:	0.015	X_WP:	0.100	Y_WP:	0.000	Y_WP:	0.500	X:	-0.014	Y:	-0.032	Z:	0.050	yaw:	-0.862	yaw rate:	49.871	Roll:	-4.196	Pitch:	0.646	Yaw:	10.040	Thrust:	100.000
Time:	3.899	Roll Set Point:	0.127	Pitch Set Point:	0.065	Yaw Set Point:	0.015	X_WP:	0.100	Y_WP:	0.000	Y_WP:	0.500	X:	-0.014	Y:	-0.032	Z:	0.050	yaw:	-0.883	yaw rate:	-2.161	Roll:	-3.712	Pitch:	-1.218	Yaw:	-2.369	Thrust:	100.000
Time:	3.910	Roll Set Point:	0.127	Pitch Set Point:	0.065	Yaw Set Point:	0.015	X_WP:	0.100	Y_WP:	0.000	Y_WP:	0.500	X:	-0.014	Y:	-0.032	Z:	0.050	yaw:	-0.885	yaw rate:	-0.167	Roll:	-3.731	Pitch:	-1.107	Yaw:	-1.877	Thrust:	100.000
Time:	3.921	Roll Set Point:	0.127	Pitch Set Point:	0.065	Yaw Set Point:	0.015	X_WP:	0.100	Y_WP:	0.000	Y_WP:	0.500	X:	-0.014	Y:	-0.032	Z:	0.050	yaw:	-0.881	yaw rate:	0.427	Roll:	-3.697	Pitch:	-1.117	Yaw:	-1.766	Thrust:	100.000
Time:	3.933	Roll Set Point:	0.127	Pitch Set Point:	0.065	Yaw Set Point:	0.015	X_WP:	0.100	Y_WP:	0.000	Y_WP:	0.500	X:	-0.014	Y:	-0.032	Z:	0.050	yaw:	-0.873	yaw rate:	0.717	Roll:	-3.717	Pitch:	-1.116	Yaw:	-1.658	Thrust:	100.000
Time:	3.944	Roll Set Point:	0.127	Pitch Set Point:	0.067	Yaw Set Point:	0.024	X_WP:	0.100	Y_WP:	0.000	Y_WP:	0.500	X:	-0.014	Y:	-0.032	Z:	0.049	yaw:	-1.397	yaw rate:	-52.385	Roll:	-3.565	Pitch:	-3.270	Yaw:	-14.993	Thrust:	100.000
Time:	3.955	Roll Set Point:	0.127	Pitch Set Point:	0.065	Yaw Set Point:	0.011	X_WP:	0.100	Y_WP:	0.000	Y_WP:	0.500	X:	-0.014	Y:	-0.032	Z:	0.050	yaw:	-0.635	yaw rate:	76.273	Roll:	-4.152	Pitch:	1.766	Yaw:	15.782	Thrust:	100.000
Time:	3.967	Roll Set Point:	0.127	Pitch Set Point:	0.066	Yaw Set Point:	0.018	X_WP:	0.100	Y_WP:	0.000	Y_WP:	0.500	X:	-0.014	Y:	-0.032	Z:	0.050	yaw:	-1.025	yaw rate:	-39.084	Roll:	-3.442	Pitch:	-2.484	Yaw:	-10.612	Thrust:	100.000
Time:	3.979	Roll Set Point:	0.126	Pitch Set Point:	0.068	Yaw Set Point:	0.033	X_WP:	0.100	Y_WP:	0.000	Y_WP:	0.500	X:	-0.014	Y:	-0.032	Z:	0.049	yaw:	-1.883	yaw rate:	-85.745	Roll:	-2.849	Pitch:	-4.225	Yaw:	-23.195	Thrust:	100.000
Time:	3.989	Roll Set Point:	0.126	Pitch Set Point:	0.067	Yaw Set Point:	0.023	X_WP:	0.100	Y_WP:	0.000	Y_WP:	0.500	X:	-0.014	Y:	-0.032	Z:	0.049	yaw:	-1.346	yaw rate:	53.718	Roll:	-4.068	Pitch:	0.919	Yaw:	10.242	Thrust:	100.000
Time:	4.000	Roll Set Point:	0.127	Pitch Set Point:	0.065	Yaw Set Point:	0.015	X_WP:	0.100	Y_WP:	0.000	Y_WP:	0.500	X:	-0.014	Y:	-0.032	Z:	0.050	yaw:	-0.873	yaw rate:	47.281	Roll:	-4.156	Pitch:	0.547	Yaw:	9.932	Thrust:	100.000
Time:	4.011	Roll Set Point:	0.127	Pitch Set Point:	0.065	Yaw Set Point:	0.016	X_WP:	0.100	Y_WP:	0.000	Y_WP:	0.500	X:	-0.014	Y:	-0.032	Z:	0.050	yaw:	-0.890	yaw rate:	-1.680	Roll:	-3.668	Pitch:	-1.208	Yaw:	-2.280	Thrust:	100.000
Time:	4.023	Roll Set Point:	0.127	Pitch Set Point:	0.065	Yaw Set Point:	0.011	X_WP:	0.100	Y_WP:	0.000	Y_WP:	0.500	X:	-0.014	Y:	-0.032	Z:	0.050	yaw:	-0.633	yaw rate:	25.675	Roll:	-4.069	Pitch:	-0.339	Yaw:	3.749	Thrust:	100.000
Time:	4.035	Roll Set Point:	0.127	Pitch Set Point:	0.065	Yaw Set Point:	0.015	X_WP:	0.100	Y_WP:	0.000	Y_WP:	0.500	X:	-0.014	Y:	-0.032	Z:	0.050	yaw:	-0.888	yaw rate:	-25.485	Roll:	-3.385	Pitch:	-1.962	Yaw:	-7.700	Thrust:	100.000
Time:	4.046	Roll Set Point:	0.127	Pitch Set Point:	0.065	Yaw Set Point:	0.015	X_WP:	0.100	Y_WP:	0.000	Y_WP:	0.500	X:	-0.014	Y:	-0.032	Z:	0.050	yaw:	-0.864	yaw rate:	2.421	Roll:	-3.718	Pitch:	-1.049	Yaw:	-1.269	Thrust:	100.000
Time:	4.057	Roll Set Point:	0.127	Pitch Set Point:	0.065	Yaw Set Point:	0.015	X_WP:	0.100	Y_WP:	0.000	Y_WP:	0.500	X:	-0.014	Y:	-0.032	Z:	0.050	yaw:	-0.851	yaw rate:	1.268	Roll:	-3.709	Pitch:	-1.097	Yaw:	-1.582	Thrust:	100.000
Time:	4.069	Roll Set Point:	0.126	Pitch Set Point:	0.067	Yaw Set Point:	0.023	X_WP:	0.100	Y_WP:	0.000	Y_WP:	0.500	X:	-0.014	Y:	-0.032	Z:	0.049	yaw:	-1.343	yaw rate:	-49.219	Roll:	-3.214	Pitch:	-2.882	Yaw:	-14.213	Thrust:	100.000
Time:	4.080	Roll Set Point:	0.127	Pitch Set Point:	0.065	Yaw Set Point:	0.011	X_WP:	0.100	Y_WP:	0.000	Y_WP:	0.500	X:	-0.014	Y:	-0.032	Z:	0.050	yaw:	-0.629	yaw rate:	-0.690	Roll:	-4.485	Pitch:	1.314	Yaw:	14.992	Thrust:	100.000
Time:	4.092	Roll Set Point:	0.127	Pitch Set Point:	0.065	Yaw Set Point:	0.011	X_WP:	0.100	Y_WP:	0.000	Y_WP:	0.500	X:	-0.014	Y:	-0.032	Z:	0.050	yaw:	-0.635	yaw rate:	-0.570	Roll:	-3.732	Pitch:	-1.153	Yaw:	-1.734	Thrust:	100.000
Time:	4.102	Roll Set Point:	0.127	Pitch Set Point:	0.065	Yaw Set Point:	0.014	X_WP:	0.100	Y_WP:	0.000	Y_WP:	0.500	X:	-0.014	Y:	-0.032	Z:	0.050	yaw:	-0.774	yaw rate:	-13.896	Roll:	-3.570	Pitch:	-1.643	Yaw:	-5.314	Thrust:	100.000
Time:	4.113	Roll Set Point:	0.127	Pitch Set Point:	0.065	Yaw Set Point:	0.011	X_WP:	0.100	Y_WP:	0.000	Y_WP:	0.500	X:	-0.014	Y:	-0.032	Z:	0.050	yaw:	-0.623	yaw rate:	15.123	Roll:	-3.792	Pitch:	-0.561	Yaw:	2.161	Thrust:	100.000
Time:	4.123	Roll Set Point:	0.127	Pitch Set Point:	0.065	Yaw Set Point:	0.015	X_WP:	0.100	Y_WP:	0.000	Y_WP:	0.500	X:	-0.014	Y:	-0.032	Z:	0.050	yaw:	-0.855	yaw rate:	-23.202	Roll:	-3.313	Pitch:	-1.960	Yaw:	-7.859	Thrust:	100.000
Time:	4.134	Roll Set Point:	0.127	Pitch Set Point:	0.065	Yaw Set Point:	0.015	X_WP:	0.100	Y_WP:	0.000	Y_WP:	0.500	X:	-0.014	Y:	-0.032	Z:	0.050	yaw:	-0.882	yaw rate:	-2.714	Roll:	-3.625	Pitch:	-1.224	Yaw:	-2.550	Thrust:	100.000
Time:	4.144	Roll Set Point:	0.126	Pitch Set Point:	0.067	Yaw Set Point:	0.024	X_WP:	0.100	Y_WP:	0.000	Y_WP:	0.500	X:	-0.014	Y:	-0.032	Z:	0.049	yaw:	-1.377	yaw rate:	-49.502	Roll:	-3.212	Pitch:	-2.957	Yaw:	-14.348	Thrust:	100.000
Time:	4.155	Roll Set Point:	0.126	Pitch Set Point:	0.067	Yaw Set Point:	0.024	X_WP:	0.100	Y_WP:	0.000	Y_WP:	0.500	X:	-0.014	Y:	-0.032	Z:	0.049	yaw:	-1.377	yaw rate:	-49.502	Roll:	-3.646	Pitch:	-1.171	Yaw:	-2.575	Thrust:	100.000
Time:	4.167	Roll Set Point:	0.126	Pitch Set Point:	0.068	Yaw Set Point:	0.031	X_WP:	0.100	Y_WP:	0.000	Y_WP:	0.500	X:	-0.014	Y:	-0.032	Z:	0.049	yaw:	-1.756	yaw rate:	-113.540	Roll:	-3.569	Pitch:	-2.579	Yaw:	-11.458	Thrust:	100.000
Time:	4.178	Roll Set Point:	0.127	Pitch Set Point:	0.065	Yaw Set Point:	0.011	X_WP:	0.100	Y_WP:	0.000	Y_WP:	0.500	X:	-0.014	Y:	-0.032	Z:	0.050	yaw:	-0.620	yaw rate:	113.668	Roll:	-4.695	Pitch:	3.172	Yaw:	26.654	Thrust:	100.000
Time:	4.188	Roll Set Point:	0.127	Pitch Set Point:	0.065	Yaw Set Point:	0.015	X_WP:	0.100	Y_WP:	0.000	Y_WP:	0.500	X:	-0.014	Y:	-0.032	Z:	0.050	yaw:	-0.863	yaw rate:	-24.337	Roll:	-3.334	Pitch:	-1.984	Yaw:	-7.922	Thrust:	100.000
Time:	4.199	Roll Set Point:	0.127	Pitch Set Point:	0.065	Yaw Set Point:	0.015	X_WP:	0.100	Y_WP:	0.000	Y_WP:	0.500	X:	-0.014	Y:	-0.032	Z:	0.050	yaw:	-0.875	yaw rate:	-1.147	Roll:	-3.672	Pitch:	-1.189	Yaw:	-2.194	Thrust:	100.000
Time:	4.209	Roll Set Point:	0.127	Pitch Set Point:	0.067	Yaw Set Point:	0.024	X_WP:	0.100	Y_WP:	0.000	Y_WP:	0.500	X:	-0.014	Y:	-0.032	Z:	0.049	yaw:	-1.382	yaw rate:	-50.760	Roll:	-3.520	Pitch:	-3.307	Yaw:	-15.822	Thrust:	100.000
Time:	4.220	Roll Set Point:	0.127	Pitch Set Point:	0.066	Yaw Set Point:	0.018	X_WP:	0.100	Y_WP:	0.000	Y_WP:	0.500	X:	-0.014	Y:	-0.032	Z:	0.050	yaw:	-1.052	yaw rate:	33.005	Roll:	-3.808	Pitch:	0.131	Yaw:	5.656	Thrust:	100.000
Time:	4.232	Roll Set Point:	0.127	Pitch Set Point:	0.065	Yaw Set Point:	0.015	X_WP:	0.100	Y_WP:	0.000	Y_WP:	0.500	X:	-0.014	Y:	-0.032	Z:	0.050	yaw:	-0.879	yaw rate:	17.312	Roll:	-3.719	Pitch:	-0.497	Yaw:	1.759	Thrust:	100.000
Time:	4.243	Roll Set Point:	0.126	Pitch Set Point:	0.067	Yaw Set Point:	0.023	X_WP:	0.100	Y_WP:	0.000	Y_WP:	0.500	X:	-0.014	Y:	-0.032	Z:	0.049	yaw:	-1.337	yaw rate:	-45.789	Roll:	-3.263	Pitch:	-2.861	Yaw:	-13.647	Thrust:	100.000
Time:	4.254	Roll Set Point:	0.126	Pitch Set Point:	0.068	Yaw Set Point:	0.030	X_WP:	0.100	Y_WP:	0.000	Y_WP:	0.500	X:	-0.014	Y:	-0.032	Z:	0.049	yaw:	-1.723	yaw rate:	-38.617	Roll:	-3.500	Pitch:	-2.703	Yaw:	-11.947	Thrust:	100.000
Time:	4.265	Roll Set Point:	0.127	Pitch Set Point:	0.065	Yaw Set Point:	0.011	X_WP:	0.100	Y_WP:	0.000	Y_WP:	0.500	X:	-0.014	Y:	-0.032	Z:	0.050	yaw:	-0.626	yaw rate:	109.673	Roll:	-4.671	Pitch:	2.818	Yaw:	25.707	Thrust:	100.000
Time:	4.276	Roll Set Point:	0.126	Pitch Set Point:	0.067	Yaw Set Point:	0.024	X_WP:	0.100	Y_WP:	0.000	Y_WP:	0.500	X:	-0.014	Y:	-0.032	Z:	0.049	yaw:	-1.351	yaw rate:	-72.492	Roll:	-2.883	Pitch:	-3.684	Yaw:	-18.927	Thrust:	100.000
Time:	4.287	Roll Set Point:	0.127	Pitch Set Point:	0.065	Yaw Set Point:	0.011	X_WP:	0.100	Y_WP:	0.000	Y_WP:	0.500	X:	-0.014	Y:	-0.032	Z:	0.050	yaw:	-0.639	yaw rate:	71.269	Roll:	-4.531	Pitch:	1.332	Yaw:	16.130	Thrust:	100.000
Time:	4.299	Roll Set Point:	0.127	Pitch Set Point:	0.065	Yaw Set Point:	0.015	X_WP:	0.100	Y_WP:	0.000	Y_WP:	0.500	X:	-0.014	Y:	-0.032	Z:	0.050	yaw:	-0.878	yaw rate:	-23.949	Roll:	-3.393	Pitch:	-1.903	Yaw:	-7.434	Thrust:	100.000
Time:	4.310	Roll Set Point:	0.127	Pitch Set Point:	0.065	Yaw Set Point:	0.014	X_WP:	0.100	Y_WP:	0.000	Y_WP:	0.500	X:	-0.014	Y:	-0.032	Z:	0.050	yaw:	-0.797	yaw rate:	8.136	Roll:	-3.921	Pitch:	-0.930	Yaw:	0.066	Thrust:	100.000
Time:	4.320	Roll Set Point:	0.127	Pitch Set Point:	0.065	Yaw Set Point:	0.011	X_WP:	0.100	Y_WP:	0.000	Y_WP:	0.500	X:	-0.014	Y:	-0.032	Z:	0.050	yaw:	-0.610	yaw rate:	18.641	Roll:	-3.805	Pitch:	-0.405	Yaw:	3.352	Thrust:	100.000
Time:	4.330	Roll Set Point:	0.127	Pitch Set Point:	0.065	Yaw Set Point:	0.015	X_WP:	0.100	Y_WP:	0.000	Y_WP:	0.500	X:	-0.014	Y:	-0.032	Z:	0.050	yaw:	-0.867	yaw rate:	-25.629	Roll:	-3.297	Pitch:	-2.062	Yaw:	-8.297	Thrust:	100.000
Time:	4.340	Roll Set Point:	0.127	Pitch Set Point:	0.065	Yaw Set Point:	0.012	X_WP:	0.100	Y_WP:	0.000	Y_WP:	0.500	X:	-0.014	Y:	-0.032	Z:	0.050	yaw:	-0.660	yaw rate:	20.655	Roll:	-3.977	Pitch:	-0.442	Yaw:	3.769	Thrust:	100.000
Time:	4.350	Roll Set Point:	0.127	Pitch Set Point:	0.065	Yaw Set Point:	0.016	X_WP:	0.100	Y_WP:	0.000	Y_WP:	0.500	X:	-0.014	Y:	-0.032	Z:	0.050	yaw:	-0.893	yaw rate:	-23.277	Roll:	-3.295	Pitch:	-1.988	Yaw:	-8.009	Thrust:	100.000
Time:	4.362	Roll Set Point:	0.127	Pitch Set Point:	0.065	Yaw Set Point:	0.011	X_WP:	0.100	Y_WP:	0.000	Y_WP:	0.500	X:	-0.014	Y:	-0.032	Z:	0.050	yaw:	-0.610	yaw rate:	28.233	Roll:	-4.101	Pitch:	-0.212	Yaw:	5.070	Thrust:	100.000
Time:	4.373	Roll Set Point:	0.127	Pitch Set Point:	0.065	Yaw Set Point:	0.015	X_WP:	0.100	Y_WP:	0.000	Y_WP:	0.500	X:	-0.014	Y:	-0.032	Z:	0.050	yaw:	-0.860	yaw rate:	-24.907	Roll:	-3.371	Pitch:	-1.958	Yaw:	-7.616	Thrust:	100.000
Time:	4.384	Roll Set Point:	0.127	Pitch Set Point:	0.065	Yaw Set Point:	0.015	X_WP:	0.100	Y_WP:	0.000	Y_WP:	0.500	X:	-0.014	Y:	-0.032	Z:	0.050	yaw:	-0.854	yaw rate:	0.593	Roll:	-3.669	Pitch:	-1.138	Yaw:	-1.813	Thrust:	100.000
Time:	4.395	Roll Set Point:	0.127	Pitch Set Point:	0.065	Yaw Set Point:	0.015	X_WP:	0.100	Y_WP:	0.000	Y_WP:	0.500	X:	-0.014	Y:	-0.032	Z:	0.050	yaw:	-0.866	yaw rate:	-1.197	Roll:	-3.694	Pitch:	-1.203	Yaw:	-2.280	Thrust:	100.000
Time:	4.407	Roll Set Point:	0.127	Pitch Set Point:	0.065	Yaw Set Point:	0.011	X_WP:	0.100	Y_WP:	0.000	Y_WP:	0.500	X:	-0.014	Y:	-0.032	Z:	0.050	yaw:	-0.641	yaw rate:	22.493	Roll:	-4.032	Pitch:	-0.457	Yaw:	3.658	Thrust:	100.000
Time:	4.417	Roll Set Point:	0.127	Pitch Set Point:	0.065	Yaw Set Point:	0.016	X_WP:	0.100	Y_WP:	0.000	Y_WP:	0.500	X:	-0.014	Y:	-0.032	Z:	0.050	yaw:	-0.895	yaw rate:	-25.433	Roll:	-3.286	Pitch:	-2.086	Yaw:	-8.591	Thrust:	100.000
Time:	4.428	Roll Set Point:	0.127	Pitch Set Point:	0.065	Yaw Set Point:	0.011	X_WP:	0.100	Y_WP:	0.000	Y_WP:	0.500	X:	-0.014	Y:	-0.032	Z:	0.050	yaw:	-0.627	yaw rate:	26.836	Roll:	-4.043	Pitch:	-0.274	Yaw:	4.719	Thrust:	100.000
Time:	4.439	Roll Set Point:	0.126	Pitch Set Point:	0.068	Yaw Set Point:	0.030	X_WP:	0.100	Y_WP:	0.000	Y_WP:	0.500	X:	-0.014	Y:	-0.032	Z:	0.049	yaw:	-1.747	yaw rate:	-111.993	Roll:	-2.708	Pitch:	-5.188	Yaw:	-29.345	Thrust:	100.000
Time:	4.450	Roll Set Point:	0.126	Pitch Set Point:	0.068	Yaw Set Point:	0.033	X_WP:	0.100	Y_WP:	0.000	Y_WP:	0.500	X:	-0.014	Y:	-0.032	Z:	0.049	yaw:	-1.882	yaw rate:	-13.594	Roll:	-3.470	Pitch:	-1.744	Yaw:	-6.639	Thrust:	100.000
Time:	4.460	Roll Set Point:	0.127	Pitch Set Point:	0.065	Yaw Set Point:	0.016	X_WP:	0.100	Y_WP:	0.000	Y_WP:	0.500	X:	-0.014	Y:	-0.032	Z:	0.050	yaw:	-0.889	yaw rate:	99.306	Roll:	-4.594	Pitch:	2.894	Yaw:	22.691	Thrust:	100.000
Time:	4.472	Roll Set Point:	0.127	Pitch Set Point:	0.068	Yaw Set Point:	0.027	X_WP:	0.100	Y_WP:	0.000	Y_WP:	0.500	X:	-0.014	Y:	-0.032	Z:	0.049	yaw:	-1.556	yaw rate:	-66.693	Roll:	-3.421	Pitch:	-3.763	Yaw:	-18.097	Thrust:	100.000
Time:	4.483	Roll Set Point:	0.127	Pitch Set Point:	0.065	Yaw Set Point:	0.011	X_WP:	0.100	Y_WP:	0.000	Y_WP:	0.500	X:	-0.014	Y:	-0.032	Z:	0.050	yaw:	-0.618	yaw rate:	93.857	Roll:	-4.349	Pitch:	2.377	Yaw:	20.565	Thrust:	100.000
Time:	4.494	Roll Set Point:	0.127	Pitch Set Point:	0.065	Yaw Set Point:	0.015	X_WP:	0.100	Y_WP:	0.000	Y_WP:	0.500	X:	-0.014	Y:	-0.032	Z:	0.050	yaw:	-0.871	yaw rate:	-25.357	Roll:	-3.369	Pitch:	-1.995	Yaw:	-8.050	Thrust:	100.000
Time:	4.507	Roll Set Point:	0.127	Pitch Set Point:	0.065	Yaw Set Point:	0.015	X_WP:	0.100	Y_WP:	0.000	Y_WP:	0.500	X:	-0.014	Y:	-0.032	Z:	0.050	yaw:	-0.861	yaw rate:	1.020	Roll:	-3.732	Pitch:	-1.147	Yaw:	-1.906	Thrust:	100.000
Time:	4.519	Roll Set Point:	0.126	Pitch Set Point:	0.067	Yaw Set Point:	0.023	X_WP:	0.100	Y_WP:	0.000	Y_WP:	0.500	X:	-0.014	Y:	-0.032	Z:	0.049	yaw:	-1.341	yaw rate:	-48.025	Roll:	-3.290	Pitch:	-2.829	Yaw:	-14.081	Thrust:	100.000
Time:	4.530	Roll Set Point:	0.127	Pitch Set Point:	0.065	Yaw Set Point:	0.015	X_WP:	0.100	Y_WP:	0.000	Y_WP:	0.500	X:	-0.014	Y:	-0.032	Z:	0.050	yaw:	-0.875	yaw rate:	46.685	Roll:	-4.158	Pitch:	0.343	Yaw:	8.038	Thrust:	100.000
Time:	4.542	Roll Set Point:	0.127	Pitch Set Point:	0.065	Yaw Set Point:	0.016	X_WP:	0.100	Y_WP:	0.000	Y_WP:	0.500	X:	-0.014	Y:	-0.032	Z:	0.050	yaw:	-0.891	yaw rate:	-1.625	Roll:	-3.686	Pitch:	-1.235	Yaw:	-2.513	Thrust:	100.000
Time:	4.552	Roll Set Point:	0.127	Pitch Set Point:	0.065	Yaw Set Point:	0.015	X_WP:	0.100	Y_WP:	0.000	Y_WP:	0.500	X:	-0.014	Y:	-0.032	Z:	0.050	yaw:	-0.884	yaw rate:	0.704	Roll:	-3.715	Pitch:	-1.167	Yaw:	-1.802	Thrust:	100.000
Time:	4.566	Roll Set Point:	0.127	Pitch Set Point:	0.065	Yaw Set Point:	0.011	X_WP:	0.100	Y_WP:	0.000	Y_WP:	0.500	X:	-0.014	Y:	-0.032	Z:	0.050	yaw:	-0.619	yaw rate:	71.949	Roll:	-4.065	Pitch:	-0.463	Yaw:	3.267	Thrust:	100.000
Time:	4.577	Roll Set Point:	0.127	Pitch Set Point:	0.065	Yaw Set Point:	0.015	X_WP:	0.100	Y_WP:	0.000	Y_WP:	0.500	X:	-0.014	Y:	-0.032	Z:	0.050	yaw:	-0.872	yaw rate:	-25.258	Roll:	-3.362	Pitch:	-1.994	Yaw:	-8.023	Thrust:	100.000
Time:	4.587	Roll Set Point:	0.127	Pitch Set Point:	0.066	Yaw Set Point:	0.017	X_WP:	0.100	Y_WP:	0.000	Y_WP:	0.500	X:	-0.014	Y:	-0.032	Z:	0.050	yaw:	-0.981	yaw rate:	-10.936	Roll:	-3.690	Pitch:	-1.774	Yaw:	-4.973	Thrust:	100.000
Time:	4.598	Roll Set Point:	0.127	Pitch Set Point:	0.065	Yaw Set Point:	0.015	X_WP:	0.100	Y_WP:	0.000	Y_WP:	0.500	X:	-0.014	Y:	-0.032	Z:	0.050	yaw:	-0.866	yaw rate:	11.454	Roll:	-3.705	Pitch:	-0.620	Yaw:	0.676	Thrust:	100.000
Time:	4.609	Roll Set Point:	0.127	Pitch Set Point:	0.065	Yaw Set Point:	0.015	X_WP:	0.100	Y_WP:	0.000	Y_WP:	0.500	X:	-0.014	Y:	-0.032	Z:	0.050	yaw:	-0.863	yaw rate:	0.358	Roll:	-3.666	Pitch:	-1.145	Yaw:	-1.924	Thrust:	100.000
Time:	4.619	Roll Set Point:	0.127	Pitch Set Point:	0.065	Yaw Set Point:	0.015	X_WP:	0.100	Y_WP:	0.000	Y_WP:	0.500	X:	-0.014	Y:	-0.032	Z:	0.050	yaw:	-0.859	yaw rate:	0.337	Roll:	-3.669	Pitch:	-1.141	Yaw:	-1.877	Thrust:	100.000
Time:	4.631	Roll Set Point:	0.126	Pitch Set Point:	0.067	Yaw Set Point:	0.023	X_WP:	0.100	Y_WP:	0.000	Y_WP:	0.500	X:	-0.014	Y:	-0.032	Z:	0.049	yaw:	-1.346	yaw rate:	-48.622	Roll:	-3.239	Pitch:	-2.851	Yaw:	-12.997	Thrust:	100.000
Time:	4.642	Roll Set Point:	0.126	Pitch Set Point:	0.067	Yaw Set Point:	0.024	X_WP:	0.100	Y_WP:	0.000	Y_WP:	0.500	X:	-0.014	Y:	-0.032	Z:	0.049	yaw:	-1.375	yaw rate:	-2.891	Roll:	-3.717	Pitch:	-1.312	Yaw:	-3.456	Thrust:	100.000
Time:	4.653	Roll Set Point:	0.127	Pitch Set Point:	0.065	Yaw Set Point:	0.016	X_WP:	0.100	Y_WP:	0.000	Y_WP:	0.500	X:	-0.014	Y:	-0.032	Z:	0.050	yaw:	-0.897	yaw rate:	47.770	Roll:	-4.130	Pitch:	0.519	Yaw:	9.197	Thrust:	100.000
Time:	4.665	Roll Set Point:	0.127	Pitch Set Point:	0.067	Yaw Set Point:	0.024	X_WP:	0.100	Y_WP:	0.000	Y_WP:	0.500	X:	-0.014	Y:	-0.032	Z:	0.049	yaw:	-1.392	yaw rate:	-49.544	Roll:	-3.616	Pitch:	-3.225	Yaw:	-14.086	Thrust:	100.000
Time:	4.675	Roll Set Point:	0.127	Pitch Set Point:	0.065	Yaw Set Point:	0.015	X_WP:	0.100	Y_WP:	0.000	Y_WP:	0.500	X:	-0.014	Y:	-0.032	Z:	0.050	yaw:	-0.867	yaw rate:	52.536	Roll:	-3.807	Pitch:	1.019	Yaw:	11.733	Thrust:	100.000
Time:	4.686	Roll Set Point:	0.127	Pitch Set Point:	0.065	Yaw Set Point:	0.015	X_WP:	0.100	Y_WP:	0.000	Y_WP:	0.500	X:	-0.014	Y:	-0.032	Z:	0.050	yaw:	-0.870	yaw rate:	-0.265	Roll:	-3.681	Pitch:	-1.186	Yaw:	-2.144	Thrust:	100.000
Time:	4.698	Roll Set Point:	0.127	Pitch Set Point:	0.065	Yaw Set Point:	0.015	X_WP:	0.100	Y_WP:	0.000	Y_WP:	0.500	X:	-0.014	Y:	-0.032	Z:	0.050	yaw:	-0.852	yaw rate:	1.770	Roll:	-3.726	Pitch:	-1.156	Yaw:	-1.754	Thrust:	100.000
Time:	4.709	Roll Set Point:	0.127	Pitch Set Point:	0.065	Yaw Set Point:	0.015	X_WP:	0.100	Y_WP:	0.000	Y_WP:	0.500	X:	-0.014	Y:	-0.032	Z:	0.050	yaw:	-0.874	yaw rate:	-2.163	Roll:	-3.719	Pitch:	-1.272	Yaw:	-2.607	Thrust:	100.000
Time:	4.719	Roll Set Point:	0.127	Pitch Set Point:	0.065	Yaw Set Point:	0.011	X_WP:	0.100	Y_WP:	0.000	Y_WP:	0.500	X:	-0.014	Y:	-0.032	Z:	0.050	yaw:	-0.629	yaw rate:	24.415	Roll:	-3.995	Pitch:	-0.287	Yaw:	4.699	Thrust:	100.000
Time:	4.729	Roll Set Point:	0.127	Pitch Set Point:	0.065	Yaw Set Point:	0.011	X_WP:	0.100	Y_WP:	0.000	Y_WP:	0.500	X:	-0.014	Y:	-0.032	Z:	0.050	yaw:	-0.615	yaw rate:	1.424	Roll:	-3.692	Pitch:	-1.121	Yaw:	-1.345	Thrust:	100.000
Time:	4.740	Roll Set Point:	0.127	Pitch Set Point:	0.065	Yaw Set Point:	0.011	X_WP:	0.100	Y_WP:	0.000	Y_WP:	0.500	X:	-0.014	Y:	-0.032	Z:	0.050	yaw:	-0.624	yaw rate:	-0.930	Roll:	-3.699	Pitch:	-1.194	Yaw:	-1.950	Thrust:	100.000
Time:	4.751	Roll Set Point:	0.127	Pitch Set Point:	0.066	Yaw Set Point:	0.018	X_WP:	0.100	Y_WP:	0.000	Y_WP:	0.500	X:	-0.014	Y:	-0.032	Z:	0.050	yaw:	-1.016	yaw rate:	-39.127	Roll:	-3.343	Pitch:	-2.679	Yaw:	-11.614	Thrust:	100.000
Time:	4.766	Roll Set Point:	0.127	Pitch Set Point:	0.065	Yaw Set Point:	0.015	X_WP:	0.100	Y_WP:	0.000	Y_WP:	0.500	X:	-0.014	Y:	-0.032	Z:	0.050	yaw:	-0.863	yaw rate:	15.300	Roll:	-3.823	Pitch:	-0.752	Yaw:	0.379	Thrust:	100.000
Time:	4.777	Roll Set Point:	0.127	Pitch Set Point:	0.065	Yaw Set Point:	0.016	X_WP:	0.100	Y_WP:	0.000	Y_WP:	0.500	X:	-0.014	Y:	-0.032	Z:	0.050	yaw:	-0.891	yaw rate:	-2.787	Roll:	-3.676	Pitch:	-1.268	Yaw:	-2.809	Thrust:	100.000
Time:	4.788	Roll Set Point:	0.127	Pitch Set Point:	0.065	Yaw Set Point:	0.016	X_WP:	0.100	Y_WP:	0.000	Y_WP:	0.500	X:	-0.014	Y:	-0.032	Z:	0.050	yaw:	-0.901	yaw rate:	-1.036	Roll:	-3.674	Pitch:	-1.238	Yaw:	-2.342	Thrust:	100.000
Time:	4.798	Roll Set Point:	0.127	Pitch Set Point:	0.065	Yaw Set Point:	0.015	X_WP:	0.100	Y_WP:	0.000	Y_WP:	0.500	X:	-0.014	Y:	-0.032	Z:	0.050	yaw:	-0.865	yaw rate:	3.574	Roll:	-3.698	Pitch:	-1.087	Yaw:	-1.259	Thrust:	100.000
Time:	4.809	Roll Set Point:	0.127	Pitch Set Point:	0.065	Yaw Set Point:	0.011	X_WP:	0.100	Y_WP:	0.000	Y_WP:	0.500	X:	-0.014	Y:	-0.032	Z:	0.050	yaw:	-0.640	yaw rate:	22.555	Roll:	-4.027	Pitch:	-0.449	Yaw:	3.541	Thrust:	100.000
Time:	4.821	Roll Set Point:	0.127	Pitch Set Point:	0.065	Yaw Set Point:	0.015	X_WP:	0.100	Y_WP:	0.000	Y_WP:	0.500	X:	-0.014	Y:	-0.032	Z:	0.050	yaw:	-0.847	yaw rate:	-20.717	Roll:	-3.399	Pitch:	-1.866	Yaw:	-7.015	Thrust:	100.000
Time:	4.832	Roll Set Point:	0.127	Pitch Set Point:	0.065	Yaw Set Point:	0.015	X_WP:	0.100	Y_WP:	0.000	Y_WP:	0.500	X:	-0.014	Y:	-0.032	Z:	0.050	yaw:	-0.878	yaw rate:	-3.125	Roll:	-3.672	Pitch:	-1.310	Yaw:	-2.884	Thrust:	100.000
Time:	4.843	Roll Set Point:	0.126	Pitch Set Point:	0.067	Yaw Set Point:	0.024	X_WP:	0.100	Y_WP:	0.000	Y_WP:	0.500	X:	-0.014	Y:	-0.032	Z:	0.049	yaw:	-1.358	yaw rate:	-47.971	Roll:	-3.242	Pitch:	-2.902	Yaw:	-14.115	Thrust:	100.000
Time:	4.855	Roll Set Point:	0.127	Pitch Set Point:	0.065	Yaw Set Point:	0.011	X_WP:	0.100	Y_WP:	0.000	Y_WP:	0.500	X:	-0.014	Y:	-0.032	Z:	0.050	yaw:	-0.645	yaw rate:	22.525	Roll:	-4.602	Pitch:	1.121	Yaw:	13.593	Thrust:	100.000
Time:	4.866	Roll Set Point:	0.127	Pitch Set Point:	0.065	Yaw Set Point:	0.011	X_WP:	0.100	Y_WP:	0.000	Y_WP:	0.500	X:	-0.014	Y:	-0.032	Z:	0.050	yaw:	-0.632	yaw rate:	1.374	Roll:	-3.605	Pitch:	-1.088	Yaw:	-1.420	Thrust:	100.000
Time:	4.878	Roll Set Point:	0.127	Pitch Set Point:	0.065	Yaw Set Point:	0.015	X_WP:	0.100	Y_WP:	0.000	Y_WP:	0.500	X:	-0.014	Y:	-0.032	Z:	0.050	yaw:	-0.882	yaw rate:	-25.072	Roll:	-3.347	Pitch:	-1.975	Yaw:	-7.654	Thrust:	100.000
Time:	4.890	Roll Set Point:	0.126	Pitch Set Point:	0.068	Yaw Set Point:	0.030	X_WP:	0.100	Y_WP:	0.000	Y_WP:	0.500	X:	-0.014	Y:	-0.032	Z:	0.049	yaw:	-1.737	yaw rate:	-85.486	Roll:	-3.126	Pitch:	-4.223	Yaw:	-22.072	Thrust:	100.000
Time:	4.902	Roll Set Point:	0.126	Pitch Set Point:	0.068	Yaw Set Point:	0.031	X_WP:	0.100	Y_WP:	0.000	Y_WP:	0.500	X:	-0.014	Y:	-0.032	Z:	0.049	yaw:	-1.758	yaw rate:	-2.106	Roll:	-3.717	Pitch:	-1.345	Yaw:	-3.929	Thrust:	100.000
Time:	4.914	Roll Set Point:	0.126	Pitch Set Point:	0.067	Yaw Set Point:	0.024	X_WP:	0.100	Y_WP:	0.000	Y_WP:	0.500	X:	-0.014	Y:	-0.032	Z:	0.049	yaw:	-1.347	yaw rate:	41.146	Roll:	-3.889	Pitch:	0.236	Yaw:	6.877	Thrust:	100.000
Time:	4.925	Roll Set Point:	0.126	Pitch Set Point:	0.068	Yaw Set Point:	0.030	X_WP:	0.100	Y_WP:	0.000	Y_WP:	0.500	X:	-0.014	Y:	-0.032	Z:	0.049	yaw:	-1.731	yaw rate:	-38.422	Roll:	-3.502	Pitch:	-2.702	Yaw:	-11.806	Thrust:	100.000
Time:	4.936	Roll Set Point:	0.127	Pitch Set Point:	0.065	Yaw Set Point:	0.015	X_WP:	0.100	Y_WP:	0.000	Y_WP:	0.500	X:	-0.014	Y:	-0.032	Z:	0.050	yaw:	-0.846	yaw rate:	88.530	Roll:	-4.368	Pitch:	2.064	Yaw:	18.881	Thrust:	100.000
Time:	4.948	Roll Set Point:	0.127	Pitch Set Point:	0.065	Yaw Set Point:	0.015	X_WP:	0.100	Y_WP:	0.000	Y_WP:	0.500	X:	-0.014	Y:	-0.032	Z:	0.050	yaw:	-0.862	yaw rate:	-1.608	Roll:	-3.657	Pitch:	-1.267	Yaw:	-2.544	Thrust:	100.000
Time:	4.961	Roll Set Point:	0.127	Pitch Set Point:	0.065	Yaw Set Point:	0.011	X_WP:	0.100	Y_WP:	0.000	Y_WP:	0.500	X:	-0.014	Y:	-0.032	Z:	0.050	yaw:	-0.624	yaw rate:	23.831	Roll:	-4.033	Pitch:	-0.505	Yaw:	2.782	Thrust:	100.000
Time:	4.973	Roll Set Point:	0.127	Pitch Set Point:	0.065	Yaw Set Point:	0.015	X_WP:	0.100	Y_WP:	0.000	Y_WP:	0.500	X:	-0.014	Y:	-0.032	Z:	0.050	yaw:	-0.877	yaw rate:	-25.360	Roll:	-3.459	Pitch:	-1.945	Yaw:	-7.437	Thrust:	100.000
Time:	4.986	Roll Set Point:	0.127	Pitch Set Point:	0.065	Yaw Set Point:	0.011	X_WP:	0.100	Y_WP:	0.000	Y_WP:	0.500	X:	-0.014	Y:	-0.032	Z:	0.050	yaw:	-0.624	yaw rate:	25.300	Roll:	-4.081	Pitch:	-0.512	Yaw:	3.320	Thrust:	100.000
Time:	4.997	Roll Set Point:	0.127	Pitch Set Point:	0.066	Yaw Set Point:	0.018	X_WP:	0.100	Y_WP:	0.000	Y_WP:	0.500	X:	-0.014	Y:	-0.032	Z:	0.050	yaw:	-1.012	yaw rate:	-38.793	Roll:	-3.401	Pitch:	-2.574	Yaw:	-11.122	Thrust:	100.000
Time:	5.009	Roll Set Point:	0.127	Pitch Set Point:	0.065	Yaw Set Point:	0.015	X_WP:	0.100	Y_WP:	0.000	Y_WP:	0.500	X:	-0.014	Y:	-0.032	Z:	0.050	yaw:	-0.869	yaw rate:	-0.333	Roll:	-3.720	Pitch:	-0.702	Yaw:	0.838	Thrust:	100.000
Time:	5.022	Roll Set Point:	0.126	Pitch Set Point:	0.067	Yaw Set Point:	0.025	X_WP:	0.100	Y_WP:	0.000	Y_WP:	0.500	X:	-0.014	Y:	-0.032	Z:	0.049	yaw:	-1.434	yaw rate:	-56.500	Roll:	-3.245	Pitch:	-3.123	Yaw:	-14.495	Thrust:	100.000
Time:	5.034	Roll Set Point:	0.127	Pitch Set Point:	0.065	Yaw Set Point:	0.016	X_WP:	0.100	Y_WP:	0.000	Y_WP:	0.500	X:	-0.014	Y:	-0.032	Z:	0.050	yaw:	-0.904	yaw rate:	52.990	Roll:	-4.233	Pitch:	0.423	Yaw:	9.747	Thrust:	100.000
