Time:	2.141	Roll Set Point:	-0.234	Pitch Set Point:	-0.122	Yaw Set Point:	-0.577	X_WP:	0.000	Y_WP:	0.000	Y_WP:	0.500	X:	0.099	Y:	0.096	Z:	0.399	yaw:	33.065	yaw rate:	-2.029	Roll:	3.923	Pitch:	0.754	Yaw:	46.167	Thrust:	5.567
Time:	2.157	Roll Set Point:	-0.234	Pitch Set Point:	-0.122	Yaw Set Point:	-0.577	X_WP:	0.000	Y_WP:	0.000	Y_WP:	0.500	X:	0.099	Y:	0.096	Z:	0.399	yaw:	33.084	yaw rate:	-2.914	Roll:	3.931	Pitch:	0.696	Yaw:	46.693	Thrust:	5.835
Time:	2.172	Roll Set Point:	-0.234	Pitch Set Point:	-0.122	Yaw Set Point:	-0.577	X_WP:	0.000	Y_WP:	0.000	Y_WP:	0.500	X:	0.099	Y:	0.096	Z:	0.399	yaw:	33.084	yaw rate:	-2.914	Roll:	3.933	Pitch:	0.755	Yaw:	46.554	Thrust:	5.948
Time:	2.188	Roll Set Point:	-0.234	Pitch Set Point:	-0.122	Yaw Set Point:	-0.577	X_WP:	0.000	Y_WP:	0.000	Y_WP:	0.500	X:	0.099	Y:	0.096	Z:	0.399	yaw:	33.086	yaw rate:	-9.741	Roll:	3.951	Pitch:	0.787	Yaw:	46.777	Thrust:	6.117
Time:	2.203	Roll Set Point:	-0.234	Pitch Set Point:	-0.122	Yaw Set Point:	-0.578	X_WP:	0.000	Y_WP:	0.000	Y_WP:	0.500	X:	0.099	Y:	0.096	Z:	0.399	yaw:	33.114	yaw rate:	2.850	Roll:	3.974	Pitch:	0.719	Yaw:	47.436	Thrust:	6.432
Time:	2.219	Roll Set Point:	-0.234	Pitch Set Point:	-0.122	Yaw Set Point:	-0.578	X_WP:	0.000	Y_WP:	0.000	Y_WP:	0.500	X:	0.099	Y:	0.096	Z:	0.399	yaw:	33.091	yaw rate:	-2.362	Roll:	3.929	Pitch:	0.811	Yaw:	46.708	Thrust:	6.505
Time:	2.250	Roll Set Point:	-0.234	Pitch Set Point:	-0.122	Yaw Set Point:	-0.579	X_WP:	0.000	Y_WP:	0.000	Y_WP:	0.500	X:	0.099	Y:	0.096	Z:	0.399	yaw:	33.172	yaw rate:	8.134	Roll:	3.978	Pitch:	0.694	Yaw:	49.164	Thrust:	7.798
Time:	2.266	Roll Set Point:	-0.234	Pitch Set Point:	-0.122	Yaw Set Point:	-0.578	X_WP:	0.000	Y_WP:	0.000	Y_WP:	0.500	X:	0.099	Y:	0.096	Z:	0.399	yaw:	33.107	yaw rate:	-6.466	Roll:	3.982	Pitch:	0.877	Yaw:	46.407	Thrust:	6.964
Time:	2.282	Roll Set Point:	-0.235	Pitch Set Point:	-0.122	Yaw Set Point:	-0.577	X_WP:	0.000	Y_WP:	0.000	Y_WP:	0.500	X:	0.099	Y:	0.096	Z:	0.399	yaw:	33.081	yaw rate:	-2.694	Roll:	3.977	Pitch:	0.719	Yaw:	47.187	Thrust:	6.974
Time:	2.297	Roll Set Point:	-0.234	Pitch Set Point:	-0.122	Yaw Set Point:	-0.578	X_WP:	0.000	Y_WP:	0.000	Y_WP:	0.500	X:	0.099	Y:	0.096	Z:	0.399	yaw:	33.089	yaw rate:	0.802	Roll:	3.931	Pitch:	0.805	Yaw:	47.894	Thrust:	7.436
Time:	2.313	Roll Set Point:	-0.234	Pitch Set Point:	-0.121	Yaw Set Point:	-0.577	X_WP:	0.000	Y_WP:	0.000	Y_WP:	0.500	X:	0.099	Y:	0.096	Z:	0.399	yaw:	33.059	yaw rate:	-2.984	Roll:	3.948	Pitch:	0.744	Yaw:	47.221	Thrust:	7.141
Time:	2.328	Roll Set Point:	-0.234	Pitch Set Point:	-0.122	Yaw Set Point:	-0.577	X_WP:	0.000	Y_WP:	0.000	Y_WP:	0.500	X:	0.099	Y:	0.096	Z:	0.399	yaw:	33.074	yaw rate:	1.546	Roll:	4.030	Pitch:	0.814	Yaw:	48.002	Thrust:	7.807
Time:	2.344	Roll Set Point:	-0.234	Pitch Set Point:	-0.122	Yaw Set Point:	-0.578	X_WP:	0.000	Y_WP:	0.000	Y_WP:	0.500	X:	0.099	Y:	0.096	Z:	0.399	yaw:	33.110	yaw rate:	3.559	Roll:	4.004	Pitch:	0.754	Yaw:	48.389	Thrust:	8.029
Time:	2.360	Roll Set Point:	-0.234	Pitch Set Point:	-0.122	Yaw Set Point:	-0.579	X_WP:	0.000	Y_WP:	0.000	Y_WP:	0.500	X:	0.099	Y:	0.096	Z:	0.399	yaw:	33.170	yaw rate:	6.024	Roll:	3.967	Pitch:	0.620	Yaw:	48.887	Thrust:	7.846
Time:	2.375	Roll Set Point:	-0.234	Pitch Set Point:	-0.121	Yaw Set Point:	-0.579	X_WP:	0.000	Y_WP:	0.000	Y_WP:	0.500	X:	0.099	Y:	0.096	Z:	0.399	yaw:	33.178	yaw rate:	0.768	Roll:	3.998	Pitch:	0.719	Yaw:	48.013	Thrust:	8.270
Time:	2.391	Roll Set Point:	-0.234	Pitch Set Point:	-0.122	Yaw Set Point:	-0.578	X_WP:	0.000	Y_WP:	0.000	Y_WP:	0.500	X:	0.099	Y:	0.096	Z:	0.399	yaw:	33.095	yaw rate:	-8.291	Roll:	4.016	Pitch:	0.959	Yaw:	46.383	Thrust:	8.412
Time:	2.407	Roll Set Point:	-0.234	Pitch Set Point:	-0.122	Yaw Set Point:	-0.578	X_WP:	0.000	Y_WP:	0.000	Y_WP:	0.500	X:	0.099	Y:	0.096	Z:	0.399	yaw:	33.145	yaw rate:	5.064	Roll:	3.995	Pitch:	0.688	Yaw:	48.691	Thrust:	8.509
Time:	2.422	Roll Set Point:	-0.234	Pitch Set Point:	-0.122	Yaw Set Point:	-0.577	X_WP:	0.000	Y_WP:	0.000	Y_WP:	0.500	X:	0.099	Y:	0.096	Z:	0.399	yaw:	33.050	yaw rate:	-9.563	Roll:	3.996	Pitch:	0.839	Yaw:	46.107	Thrust:	8.777
Time:	2.438	Roll Set Point:	-0.234	Pitch Set Point:	-0.122	Yaw Set Point:	-0.578	X_WP:	0.000	Y_WP:	0.000	Y_WP:	0.500	X:	0.099	Y:	0.096	Z:	0.399	yaw:	33.104	yaw rate:	5.395	Roll:	4.032	Pitch:	0.729	Yaw:	48.688	Thrust:	9.226
Time:	2.454	Roll Set Point:	-0.234	Pitch Set Point:	-0.122	Yaw Set Point:	-0.578	X_WP:	0.000	Y_WP:	0.000	Y_WP:	0.500	X:	0.099	Y:	0.096	Z:	0.399	yaw:	33.094	yaw rate:	-0.971	Roll:	4.043	Pitch:	0.800	Yaw:	47.613	Thrust:	9.081
Time:	2.469	Roll Set Point:	-0.234	Pitch Set Point:	-0.122	Yaw Set Point:	-0.579	X_WP:	0.000	Y_WP:	0.000	Y_WP:	0.500	X:	0.099	Y:	0.096	Z:	0.399	yaw:	33.163	yaw rate:	6.912	Roll:	4.020	Pitch:	0.714	Yaw:	49.024	Thrust:	9.297
Time:	2.485	Roll Set Point:	-0.234	Pitch Set Point:	-0.122	Yaw Set Point:	-0.578	X_WP:	0.000	Y_WP:	0.000	Y_WP:	0.500	X:	0.099	Y:	0.096	Z:	0.399	yaw:	33.098	yaw rate:	-6.562	Roll:	4.040	Pitch:	0.849	Yaw:	46.676	Thrust:	9.765
Time:	2.500	Roll Set Point:	-0.234	Pitch Set Point:	-0.122	Yaw Set Point:	-0.579	X_WP:	0.000	Y_WP:	0.000	Y_WP:	0.500	X:	0.099	Y:	0.096	Z:	0.399	yaw:	33.156	yaw rate:	5.899	Roll:	4.021	Pitch:	0.646	Yaw:	48.846	Thrust:	9.337
Time:	2.516	Roll Set Point:	-0.234	Pitch Set Point:	-0.122	Yaw Set Point:	-0.578	X_WP:	0.000	Y_WP:	0.000	Y_WP:	0.500	X:	0.099	Y:	0.096	Z:	0.399	yaw:	33.117	yaw rate:	-3.990	Roll:	4.074	Pitch:	0.843	Yaw:	47.134	Thrust:	10.246
Time:	2.532	Roll Set Point:	-0.234	Pitch Set Point:	-0.122	Yaw Set Point:	-0.578	X_WP:	0.000	Y_WP:	0.000	Y_WP:	0.500	X:	0.099	Y:	0.096	Z:	0.399	yaw:	33.107	yaw rate:	-0.976	Roll:	4.050	Pitch:	0.848	Yaw:	47.625	Thrust:	10.149
Time:	2.547	Roll Set Point:	-0.234	Pitch Set Point:	-0.121	Yaw Set Point:	-0.579	X_WP:	0.000	Y_WP:	0.000	Y_WP:	0.500	X:	0.099	Y:	0.096	Z:	0.399	yaw:	33.189	yaw rate:	8.244	Roll:	4.047	Pitch:	0.571	Yaw:	49.285	Thrust:	10.168
Time:	2.563	Roll Set Point:	-0.234	Pitch Set Point:	-0.121	Yaw Set Point:	-0.579	X_WP:	0.000	Y_WP:	0.000	Y_WP:	0.500	X:	0.099	Y:	0.096	Z:	0.399	yaw:	33.196	yaw rate:	0.722	Roll:	4.068	Pitch:	0.728	Yaw:	48.035	Thrust:	10.514
Time:	2.579	Roll Set Point:	-0.234	Pitch Set Point:	-0.121	Yaw Set Point:	-0.579	X_WP:	0.000	Y_WP:	0.000	Y_WP:	0.500	X:	0.099	Y:	0.096	Z:	0.399	yaw:	33.196	yaw rate:	0.722	Roll:	4.066	Pitch:	0.775	Yaw:	47.914	Thrust:	10.692
Time:	2.594	Roll Set Point:	-0.234	Pitch Set Point:	-0.122	Yaw Set Point:	-0.578	X_WP:	0.000	Y_WP:	0.000	Y_WP:	0.500	X:	0.099	Y:	0.096	Z:	0.399	yaw:	33.124	yaw rate:	-7.211	Roll:	4.082	Pitch:	0.979	Yaw:	46.605	Thrust:	11.050
Time:	2.610	Roll Set Point:	-0.234	Pitch Set Point:	-0.122	Yaw Set Point:	-0.578	X_WP:	0.000	Y_WP:	0.000	Y_WP:	0.500	X:	0.099	Y:	0.096	Z:	0.399	yaw:	33.124	yaw rate:	-7.211	Roll:	4.077	Pitch:	0.782	Yaw:	47.813	Thrust:	11.075
Time:	2.625	Roll Set Point:	-0.234	Pitch Set Point:	-0.121	Yaw Set Point:	-0.579	X_WP:	0.000	Y_WP:	0.000	Y_WP:	0.500	X:	0.099	Y:	0.096	Z:	0.399	yaw:	33.167	yaw rate:	7.646	Roll:	4.060	Pitch:	0.660	Yaw:	48.595	Thrust:	11.098
Time:	2.641	Roll Set Point:	-0.234	Pitch Set Point:	-0.121	Yaw Set Point:	-0.579	X_WP:	0.000	Y_WP:	0.000	Y_WP:	0.500	X:	0.099	Y:	0.096	Z:	0.399	yaw:	33.167	yaw rate:	7.646	Roll:	4.087	Pitch:	0.781	Yaw:	47.873	Thrust:	11.451
Time:	2.657	Roll Set Point:	-0.234	Pitch Set Point:	-0.121	Yaw Set Point:	-0.578	X_WP:	0.000	Y_WP:	0.000	Y_WP:	0.500	X:	0.099	Y:	0.095	Z:	0.399	yaw:	33.107	yaw rate:	-6.050	Roll:	3.895	Pitch:	0.776	Yaw:	46.775	Thrust:	11.419
Time:	2.672	Roll Set Point:	-0.234	Pitch Set Point:	-0.122	Yaw Set Point:	-0.578	X_WP:	0.000	Y_WP:	0.000	Y_WP:	0.500	X:	0.099	Y:	0.096	Z:	0.399	yaw:	33.088	yaw rate:	1.848	Roll:	4.287	Pitch:	0.978	Yaw:	47.451	Thrust:	12.215
Time:	2.688	Roll Set Point:	-0.234	Pitch Set Point:	-0.121	Yaw Set Point:	-0.579	X_WP:	0.000	Y_WP:	0.000	Y_WP:	0.500	X:	0.099	Y:	0.096	Z:	0.399	yaw:	33.173	yaw rate:	8.453	Roll:	4.100	Pitch:	0.550	Yaw:	49.297	Thrust:	11.751
Time:	2.704	Roll Set Point:	-0.234	Pitch Set Point:	-0.122	Yaw Set Point:	-0.578	X_WP:	0.000	Y_WP:	0.000	Y_WP:	0.500	X:	0.099	Y:	0.096	Z:	0.399	yaw:	33.111	yaw rate:	-6.191	Roll:	4.118	Pitch:	0.911	Yaw:	46.757	Thrust:	12.402
Time:	2.722	Roll Set Point:	-0.234	Pitch Set Point:	-0.122	Yaw Set Point:	-0.578	X_WP:	0.000	Y_WP:	0.000	Y_WP:	0.500	X:	0.099	Y:	0.096	Z:	0.399	yaw:	33.111	yaw rate:	-6.191	Roll:	4.114	Pitch:	0.792	Yaw:	48.032	Thrust:	13.221
Time:	2.738	Roll Set Point:	-0.234	Pitch Set Point:	-0.122	Yaw Set Point:	-0.578	X_WP:	0.000	Y_WP:	0.000	Y_WP:	0.500	X:	0.099	Y:	0.096	Z:	0.399	yaw:	33.105	yaw rate:	-1.317	Roll:	4.157	Pitch:	0.836	Yaw:	47.786	Thrust:	13.349
Time:	2.766	Roll Set Point:	-0.234	Pitch Set Point:	-0.122	Yaw Set Point:	-0.578	X_WP:	0.000	Y_WP:	0.000	Y_WP:	0.500	X:	0.099	Y:	0.096	Z:	0.399	yaw:	33.102	yaw rate:	-5.371	Roll:	4.283	Pitch:	0.803	Yaw:	48.946	Thrust:	18.248
Time:	2.781	Roll Set Point:	-0.234	Pitch Set Point:	-0.122	Yaw Set Point:	-0.578	X_WP:	0.000	Y_WP:	0.000	Y_WP:	0.500	X:	0.099	Y:	0.096	Z:	0.399	yaw:	33.102	yaw rate:	-5.371	Roll:	4.130	Pitch:	0.791	Yaw:	47.782	Thrust:	12.973
Time:	2.797	Roll Set Point:	-0.234	Pitch Set Point:	-0.122	Yaw Set Point:	-0.578	X_WP:	0.000	Y_WP:	0.000	Y_WP:	0.500	X:	0.099	Y:	0.096	Z:	0.399	yaw:	33.107	yaw rate:	-1.363	Roll:	4.121	Pitch:	0.821	Yaw:	47.877	Thrust:	13.209
Time:	2.813	Roll Set Point:	-0.234	Pitch Set Point:	-0.121	Yaw Set Point:	-0.579	X_WP:	0.000	Y_WP:	0.000	Y_WP:	0.500	X:	0.099	Y:	0.096	Z:	0.399	yaw:	33.151	yaw rate:	4.381	Roll:	4.123	Pitch:	0.650	Yaw:	48.584	Thrust:	12.918
Time:	2.828	Roll Set Point:	-0.234	Pitch Set Point:	-0.122	Yaw Set Point:	-0.578	X_WP:	0.000	Y_WP:	0.000	Y_WP:	0.500	X:	0.099	Y:	0.096	Z:	0.399	yaw:	33.111	yaw rate:	-3.998	Roll:	4.189	Pitch:	0.945	Yaw:	47.124	Thrust:	13.944
Time:	2.844	Roll Set Point:	-0.234	Pitch Set Point:	-0.122	Yaw Set Point:	-0.577	X_WP:	0.000	Y_WP:	0.000	Y_WP:	0.500	X:	0.099	Y:	0.096	Z:	0.399	yaw:	33.059	yaw rate:	-5.274	Roll:	4.101	Pitch:	0.922	Yaw:	46.838	Thrust:	13.616
Time:	2.859	Roll Set Point:	-0.234	Pitch Set Point:	-0.122	Yaw Set Point:	-0.577	X_WP:	0.000	Y_WP:	0.000	Y_WP:	0.500	X:	0.099	Y:	0.096	Z:	0.399	yaw:	33.059	yaw rate:	0.042	Roll:	4.158	Pitch:	0.709	Yaw:	47.729	Thrust:	13.769
Time:	2.875	Roll Set Point:	-0.234	Pitch Set Point:	-0.122	Yaw Set Point:	-0.579	X_WP:	0.000	Y_WP:	0.000	Y_WP:	0.500	X:	0.099	Y:	0.096	Z:	0.399	yaw:	33.149	yaw rate:	8.995	Roll:	4.161	Pitch:	0.687	Yaw:	49.354	Thrust:	14.046
Time:	2.891	Roll Set Point:	-0.234	Pitch Set Point:	-0.121	Yaw Set Point:	-0.579	X_WP:	0.000	Y_WP:	0.000	Y_WP:	0.500	X:	0.099	Y:	0.096	Z:	0.399	yaw:	33.154	yaw rate:	0.531	Roll:	4.190	Pitch:	0.755	Yaw:	47.944	Thrust:	14.275
Time:	2.906	Roll Set Point:	-0.234	Pitch Set Point:	-0.122	Yaw Set Point:	-0.577	X_WP:	0.000	Y_WP:	0.000	Y_WP:	0.500	X:	0.099	Y:	0.096	Z:	0.399	yaw:	33.056	yaw rate:	-9.814	Roll:	4.152	Pitch:	1.026	Yaw:	46.073	Thrust:	14.677
Time:	2.922	Roll Set Point:	-0.234	Pitch Set Point:	-0.122	Yaw Set Point:	-0.577	X_WP:	0.000	Y_WP:	0.000	Y_WP:	0.500	X:	0.099	Y:	0.096	Z:	0.399	yaw:	33.056	yaw rate:	-9.814	Roll:	4.177	Pitch:	0.804	Yaw:	47.718	Thrust:	14.679
Time:	2.938	Roll Set Point:	-0.234	Pitch Set Point:	-0.122	Yaw Set Point:	-0.578	X_WP:	0.000	Y_WP:	0.000	Y_WP:	0.500	X:	0.099	Y:	0.096	Z:	0.399	yaw:	33.131	yaw rate:	1.087	Roll:	4.184	Pitch:	0.620	Yaw:	49.083	Thrust:	14.651
Time:	2.953	Roll Set Point:	-0.234	Pitch Set Point:	-0.122	Yaw Set Point:	-0.578	X_WP:	0.000	Y_WP:	0.000	Y_WP:	0.500	X:	0.099	Y:	0.096	Z:	0.399	yaw:	33.131	yaw rate:	1.087	Roll:	4.187	Pitch:	0.802	Yaw:	47.820	Thrust:	15.036
Time:	2.969	Roll Set Point:	-0.234	Pitch Set Point:	-0.122	Yaw Set Point:	-0.577	X_WP:	0.000	Y_WP:	0.000	Y_WP:	0.500	X:	0.099	Y:	0.096	Z:	0.399	yaw:	33.075	yaw rate:	-6.296	Roll:	4.202	Pitch:	0.894	Yaw:	46.792	Thrust:	15.389
Time:	2.984	Roll Set Point:	-0.234	Pitch Set Point:	-0.122	Yaw Set Point:	-0.578	X_WP:	0.000	Y_WP:	0.000	Y_WP:	0.500	X:	0.099	Y:	0.096	Z:	0.399	yaw:	33.099	yaw rate:	2.425	Roll:	4.192	Pitch:	0.847	Yaw:	48.184	Thrust:	15.634
Time:	3.000	Roll Set Point:	-0.234	Pitch Set Point:	-0.121	Yaw Set Point:	-0.579	X_WP:	0.000	Y_WP:	0.000	Y_WP:	0.500	X:	0.099	Y:	0.096	Z:	0.399	yaw:	33.185	yaw rate:	8.606	Roll:	4.228	Pitch:	0.599	Yaw:	49.339	Thrust:	15.595
Time:	3.016	Roll Set Point:	-0.234	Pitch Set Point:	-0.122	Yaw Set Point:	-0.577	X_WP:	0.000	Y_WP:	0.000	Y_WP:	0.500	X:	0.099	Y:	0.096	Z:	0.399	yaw:	33.056	yaw rate:	-12.876	Roll:	4.178	Pitch:	1.010	Yaw:	45.553	Thrust:	15.784
Time:	3.031	Roll Set Point:	-0.234	Pitch Set Point:	-0.122	Yaw Set Point:	-0.578	X_WP:	0.000	Y_WP:	0.000	Y_WP:	0.500	X:	0.099	Y:	0.096	Z:	0.399	yaw:	33.097	yaw rate:	4.126	Roll:	4.244	Pitch:	0.730	Yaw:	48.468	Thrust:	16.017
Time:	3.047	Roll Set Point:	-0.234	Pitch Set Point:	-0.122	Yaw Set Point:	-0.578	X_WP:	0.000	Y_WP:	0.000	Y_WP:	0.500	X:	0.099	Y:	0.096	Z:	0.399	yaw:	33.097	yaw rate:	4.126	Roll:	4.219	Pitch:	0.809	Yaw:	47.772	Thrust:	16.174
Time:	3.063	Roll Set Point:	-0.234	Pitch Set Point:	-0.122	Yaw Set Point:	-0.577	X_WP:	0.000	Y_WP:	0.000	Y_WP:	0.500	X:	0.099	Y:	0.096	Z:	0.399	yaw:	33.080	yaw rate:	-3.479	Roll:	4.204	Pitch:	0.852	Yaw:	47.467	Thrust:	16.310
Time:	3.078	Roll Set Point:	-0.234	Pitch Set Point:	-0.122	Yaw Set Point:	-0.577	X_WP:	0.000	Y_WP:	0.000	Y_WP:	0.500	X:	0.099	Y:	0.096	Z:	0.399	yaw:	33.080	yaw rate:	-3.479	Roll:	4.230	Pitch:	0.812	Yaw:	47.752	Thrust:	16.575
Time:	3.094	Roll Set Point:	-0.234	Pitch Set Point:	-0.122	Yaw Set Point:	-0.578	X_WP:	0.000	Y_WP:	0.000	Y_WP:	0.500	X:	0.099	Y:	0.096	Z:	0.399	yaw:	33.145	yaw rate:	-1.979	Roll:	4.267	Pitch:	0.709	Yaw:	48.930	Thrust:	17.061
Time:	3.109	Roll Set Point:	-0.234	Pitch Set Point:	-0.122	Yaw Set Point:	-0.578	X_WP:	0.000	Y_WP:	0.000	Y_WP:	0.500	X:	0.099	Y:	0.096	Z:	0.399	yaw:	33.145	yaw rate:	-1.979	Roll:	4.241	Pitch:	0.811	Yaw:	47.842	Thrust:	16.956
Time:	3.125	Roll Set Point:	-0.234	Pitch Set Point:	-0.122	Yaw Set Point:	-0.577	X_WP:	0.000	Y_WP:	0.000	Y_WP:	0.500	X:	0.099	Y:	0.096	Z:	0.399	yaw:	33.058	yaw rate:	-3.639	Roll:	4.207	Pitch:	1.037	Yaw:	46.264	Thrust:	16.958
Time:	3.141	Roll Set Point:	-0.234	Pitch Set Point:	-0.122	Yaw Set Point:	-0.578	X_WP:	0.000	Y_WP:	0.000	Y_WP:	0.500	X:	0.099	Y:	0.096	Z:	0.399	yaw:	33.104	yaw rate:	4.539	Roll:	4.280	Pitch:	0.681	Yaw:	48.543	Thrust:	17.492
Time:	3.156	Roll Set Point:	-0.234	Pitch Set Point:	-0.122	Yaw Set Point:	-0.577	X_WP:	0.000	Y_WP:	0.000	Y_WP:	0.500	X:	0.099	Y:	0.096	Z:	0.399	yaw:	33.081	yaw rate:	-2.263	Roll:	4.236	Pitch:	0.820	Yaw:	47.374	Thrust:	17.337
Time:	3.172	Roll Set Point:	-0.234	Pitch Set Point:	-0.122	Yaw Set Point:	-0.578	X_WP:	0.000	Y_WP:	0.000	Y_WP:	0.500	X:	0.099	Y:	0.096	Z:	0.399	yaw:	33.096	yaw rate:	1.483	Roll:	4.263	Pitch:	0.850	Yaw:	48.021	Thrust:	17.848
Time:	3.188	Roll Set Point:	-0.234	Pitch Set Point:	-0.122	Yaw Set Point:	-0.578	X_WP:	0.000	Y_WP:	0.000	Y_WP:	0.500	X:	0.099	Y:	0.096	Z:	0.399	yaw:	33.096	yaw rate:	1.483	Roll:	4.267	Pitch:	0.820	Yaw:	47.773	Thrust:	17.909
Time:	3.203	Roll Set Point:	-0.234	Pitch Set Point:	-0.122	Yaw Set Point:	-0.577	X_WP:	0.000	Y_WP:	0.000	Y_WP:	0.500	X:	0.099	Y:	0.096	Z:	0.399	yaw:	33.087	yaw rate:	-1.390	Roll:	4.288	Pitch:	0.805	Yaw:	47.606	Thrust:	17.974
Time:	3.219	Roll Set Point:	-0.234	Pitch Set Point:	-0.121	Yaw Set Point:	-0.579	X_WP:	0.000	Y_WP:	0.000	Y_WP:	0.500	X:	0.099	Y:	0.096	Z:	0.399	yaw:	33.172	yaw rate:	8.560	Roll:	4.274	Pitch:	0.650	Yaw:	49.314	Thrust:	18.153
Time:	3.234	Roll Set Point:	-0.234	Pitch Set Point:	-0.121	Yaw Set Point:	-0.579	X_WP:	0.000	Y_WP:	0.000	Y_WP:	0.500	X:	0.099	Y:	0.096	Z:	0.399	yaw:	33.191	yaw rate:	1.907	Roll:	4.287	Pitch:	0.798	Yaw:	48.226	Thrust:	18.539
Time:	3.250	Roll Set Point:	-0.234	Pitch Set Point:	-0.122	Yaw Set Point:	-0.578	X_WP:	0.000	Y_WP:	0.000	Y_WP:	0.500	X:	0.099	Y:	0.096	Z:	0.399	yaw:	33.115	yaw rate:	-7.590	Roll:	4.293	Pitch:	1.013	Yaw:	46.529	Thrust:	18.866
Time:	3.266	Roll Set Point:	-0.234	Pitch Set Point:	-0.122	Yaw Set Point:	-0.577	X_WP:	0.000	Y_WP:	0.000	Y_WP:	0.500	X:	0.099	Y:	0.096	Z:	0.399	yaw:	33.074	yaw rate:	-4.116	Roll:	4.279	Pitch:	0.874	Yaw:	47.053	Thrust:	18.755
Time:	3.281	Roll Set Point:	-0.234	Pitch Set Point:	-0.121	Yaw Set Point:	-0.578	X_WP:	0.000	Y_WP:	0.000	Y_WP:	0.500	X:	0.099	Y:	0.096	Z:	0.399	yaw:	33.124	yaw rate:	4.930	Roll:	4.306	Pitch:	0.662	Yaw:	48.638	Thrust:	19.083
Time:	3.297	Roll Set Point:	-0.234	Pitch Set Point:	-0.122	Yaw Set Point:	-0.577	X_WP:	0.000	Y_WP:	0.000	Y_WP:	0.500	X:	0.099	Y:	0.096	Z:	0.399	yaw:	33.064	yaw rate:	-5.925	Roll:	4.271	Pitch:	0.931	Yaw:	46.737	Thrust:	19.127
Time:	3.313	Roll Set Point:	-0.234	Pitch Set Point:	-0.122	Yaw Set Point:	-0.577	X_WP:	0.000	Y_WP:	0.000	Y_WP:	0.500	X:	0.099	Y:	0.096	Z:	0.399	yaw:	33.072	yaw rate:	0.774	Roll:	4.321	Pitch:	0.905	Yaw:	47.869	Thrust:	19.547
Time:	3.328	Roll Set Point:	-0.234	Pitch Set Point:	-0.122	Yaw Set Point:	-0.577	X_WP:	0.000	Y_WP:	0.000	Y_WP:	0.500	X:	0.099	Y:	0.096	Z:	0.399	yaw:	33.072	yaw rate:	0.774	Roll:	4.314	Pitch:	0.830	Yaw:	47.740	Thrust:	19.616
Time:	3.344	Roll Set Point:	-0.234	Pitch Set Point:	-0.122	Yaw Set Point:	-0.578	X_WP:	0.000	Y_WP:	0.000	Y_WP:	0.500	X:	0.099	Y:	0.096	Z:	0.399	yaw:	33.106	yaw rate:	3.401	Roll:	4.344	Pitch:	0.767	Yaw:	48.357	Thrust:	19.848
Time:	3.359	Roll Set Point:	-0.234	Pitch Set Point:	-0.122	Yaw Set Point:	-0.577	X_WP:	0.000	Y_WP:	0.000	Y_WP:	0.500	X:	0.099	Y:	0.096	Z:	0.399	yaw:	33.071	yaw rate:	2.051	Roll:	4.299	Pitch:	0.797	Yaw:	47.142	Thrust:	19.795
Time:	3.375	Roll Set Point:	-0.234	Pitch Set Point:	-0.122	Yaw Set Point:	-0.578	X_WP:	0.000	Y_WP:	0.000	Y_WP:	0.500	X:	0.099	Y:	0.096	Z:	0.399	yaw:	33.134	yaw rate:	6.301	Roll:	4.350	Pitch:	0.838	Yaw:	48.881	Thrust:	20.473
Time:	3.391	Roll Set Point:	-0.234	Pitch Set Point:	-0.122	Yaw Set Point:	-0.578	X_WP:	0.000	Y_WP:	0.000	Y_WP:	0.500	X:	0.099	Y:	0.096	Z:	0.399	yaw:	33.093	yaw rate:	-4.098	Roll:	4.347	Pitch:	0.834	Yaw:	47.082	Thrust:	20.084
Time:	3.406	Roll Set Point:	-0.234	Pitch Set Point:	-0.122	Yaw Set Point:	-0.577	X_WP:	0.000	Y_WP:	0.000	Y_WP:	0.500	X:	0.099	Y:	0.096	Z:	0.399	yaw:	33.045	yaw rate:	-4.730	Roll:	4.297	Pitch:	0.867	Yaw:	46.910	Thrust:	20.606
Time:	3.422	Roll Set Point:	-0.234	Pitch Set Point:	-0.122	Yaw Set Point:	-0.577	X_WP:	0.000	Y_WP:	0.000	Y_WP:	0.500	X:	0.099	Y:	0.096	Z:	0.399	yaw:	33.045	yaw rate:	-4.730	Roll:	4.345	Pitch:	0.835	Yaw:	47.703	Thrust:	20.753
Time:	3.438	Roll Set Point:	-0.234	Pitch Set Point:	-0.122	Yaw Set Point:	-0.578	X_WP:	0.000	Y_WP:	0.000	Y_WP:	0.500	X:	0.099	Y:	0.096	Z:	0.399	yaw:	33.125	yaw rate:	-7.580	Roll:	4.389	Pitch:	0.839	Yaw:	49.142	Thrust:	21.165
Time:	3.453	Roll Set Point:	-0.234	Pitch Set Point:	-0.122	Yaw Set Point:	-0.578	X_WP:	0.000	Y_WP:	0.000	Y_WP:	0.500	X:	0.099	Y:	0.096	Z:	0.399	yaw:	33.125	yaw rate:	-7.580	Roll:	4.357	Pitch:	0.837	Yaw:	47.813	Thrust:	21.138
Time:	3.469	Roll Set Point:	-0.234	Pitch Set Point:	-0.122	Yaw Set Point:	-0.578	X_WP:	0.000	Y_WP:	0.000	Y_WP:	0.500	X:	0.099	Y:	0.096	Z:	0.399	yaw:	33.111	yaw rate:	-3.038	Roll:	4.366	Pitch:	0.750	Yaw:	47.562	Thrust:	21.198
Time:	3.484	Roll Set Point:	-0.234	Pitch Set Point:	-0.121	Yaw Set Point:	-0.579	X_WP:	0.000	Y_WP:	0.000	Y_WP:	0.500	X:	0.099	Y:	0.096	Z:	0.399	yaw:	33.164	yaw rate:	5.306	Roll:	4.342	Pitch:	0.758	Yaw:	48.757	Thrust:	21.362
Time:	3.500	Roll Set Point:	-0.234	Pitch Set Point:	-0.121	Yaw Set Point:	-0.579	X_WP:	0.000	Y_WP:	0.000	Y_WP:	0.500	X:	0.099	Y:	0.096	Z:	0.399	yaw:	33.164	yaw rate:	5.306	Roll:	4.372	Pitch:	0.836	Yaw:	47.868	Thrust:	21.701
Time:	3.516	Roll Set Point:	-0.234	Pitch Set Point:	-0.122	Yaw Set Point:	-0.578	X_WP:	0.000	Y_WP:	0.000	Y_WP:	0.500	X:	0.099	Y:	0.096	Z:	0.399	yaw:	33.112	yaw rate:	1.051	Roll:	4.387	Pitch:	1.016	Yaw:	46.929	Thrust:	22.137
Time:	3.531	Roll Set Point:	-0.234	Pitch Set Point:	-0.122	Yaw Set Point:	-0.578	X_WP:	0.000	Y_WP:	0.000	Y_WP:	0.500	X:	0.099	Y:	0.096	Z:	0.399	yaw:	33.103	yaw rate:	-0.885	Roll:	4.400	Pitch:	0.754	Yaw:	47.635	Thrust:	21.984
Time:	3.547	Roll Set Point:	-0.234	Pitch Set Point:	-0.122	Yaw Set Point:	-0.577	X_WP:	0.000	Y_WP:	0.000	Y_WP:	0.500	X:	0.099	Y:	0.096	Z:	0.399	yaw:	33.056	yaw rate:	-4.681	Roll:	4.337	Pitch:	0.893	Yaw:	46.934	Thrust:	22.126
Time:	3.563	Roll Set Point:	-0.234	Pitch Set Point:	-0.121	Yaw Set Point:	-0.578	X_WP:	0.000	Y_WP:	0.000	Y_WP:	0.500	X:	0.099	Y:	0.095	Z:	0.399	yaw:	33.114	yaw rate:	5.719	Roll:	4.236	Pitch:	0.691	Yaw:	48.756	Thrust:	22.367
Time:	3.578	Roll Set Point:	-0.234	Pitch Set Point:	-0.121	Yaw Set Point:	-0.578	X_WP:	0.000	Y_WP:	0.000	Y_WP:	0.500	X:	0.099	Y:	0.095	Z:	0.399	yaw:	33.114	yaw rate:	5.719	Roll:	4.395	Pitch:	0.841	Yaw:	47.801	Thrust:	22.681
Time:	3.594	Roll Set Point:	-0.234	Pitch Set Point:	-0.122	Yaw Set Point:	-0.578	X_WP:	0.000	Y_WP:	0.000	Y_WP:	0.500	X:	0.099	Y:	0.096	Z:	0.399	yaw:	33.112	yaw rate:	-0.136	Roll:	4.611	Pitch:	0.996	Yaw:	47.773	Thrust:	23.095
Time:	3.609	Roll Set Point:	-0.234	Pitch Set Point:	-0.122	Yaw Set Point:	-0.578	X_WP:	0.000	Y_WP:	0.000	Y_WP:	0.500	X:	0.099	Y:	0.096	Z:	0.399	yaw:	33.093	yaw rate:	-1.882	Roll:	4.395	Pitch:	0.811	Yaw:	47.451	Thrust:	22.874
Time:	3.625	Roll Set Point:	-0.234	Pitch Set Point:	-0.122	Yaw Set Point:	-0.579	X_WP:	0.000	Y_WP:	0.000	Y_WP:	0.500	X:	0.099	Y:	0.096	Z:	0.399	yaw:	33.162	yaw rate:	-1.342	Roll:	4.406	Pitch:	0.745	Yaw:	49.024	Thrust:	23.161
Time:	3.641	Roll Set Point:	-0.234	Pitch Set Point:	-0.122	Yaw Set Point:	-0.578	X_WP:	0.000	Y_WP:	0.000	Y_WP:	0.500	X:	0.099	Y:	0.096	Z:	0.399	yaw:	33.090	yaw rate:	-7.213	Roll:	4.421	Pitch:	0.986	Yaw:	46.562	Thrust:	23.523
Time:	3.656	Roll Set Point:	-0.234	Pitch Set Point:	-0.122	Yaw Set Point:	-0.578	X_WP:	0.000	Y_WP:	0.000	Y_WP:	0.500	X:	0.099	Y:	0.096	Z:	0.399	yaw:	33.090	yaw rate:	-7.213	Roll:	4.424	Pitch:	0.850	Yaw:	47.762	Thrust:	23.566
Time:	3.672	Roll Set Point:	-0.234	Pitch Set Point:	-0.122	Yaw Set Point:	-0.578	X_WP:	0.000	Y_WP:	0.000	Y_WP:	0.500	X:	0.099	Y:	0.096	Z:	0.399	yaw:	33.092	yaw rate:	0.126	Roll:	4.449	Pitch:	0.798	Yaw:	47.791	Thrust:	23.861
Time:	3.688	Roll Set Point:	-0.234	Pitch Set Point:	-0.122	Yaw Set Point:	-0.578	X_WP:	0.000	Y_WP:	0.000	Y_WP:	0.500	X:	0.099	Y:	0.096	Z:	0.399	yaw:	33.095	yaw rate:	0.324	Roll:	4.421	Pitch:	0.902	Yaw:	47.823	Thrust:	24.168
Time:	3.703	Roll Set Point:	-0.234	Pitch Set Point:	-0.122	Yaw Set Point:	-0.577	X_WP:	0.000	Y_WP:	0.000	Y_WP:	0.500	X:	0.099	Y:	0.096	Z:	0.399	yaw:	33.060	yaw rate:	-3.512	Roll:	4.419	Pitch:	0.878	Yaw:	47.134	Thrust:	23.910
Time:	3.719	Roll Set Point:	-0.234	Pitch Set Point:	-0.122	Yaw Set Point:	-0.578	X_WP:	0.000	Y_WP:	0.000	Y_WP:	0.500	X:	0.099	Y:	0.096	Z:	0.399	yaw:	33.091	yaw rate:	-2.084	Roll:	4.469	Pitch:	0.842	Yaw:	48.287	Thrust:	24.433
Time:	3.735	Roll Set Point:	-0.234	Pitch Set Point:	-0.122	Yaw Set Point:	-0.578	X_WP:	0.000	Y_WP:	0.000	Y_WP:	0.500	X:	0.099	Y:	0.096	Z:	0.399	yaw:	33.106	yaw rate:	1.566	Roll:	4.470	Pitch:	0.799	Yaw:	48.048	Thrust:	24.700
Time:	3.751	Roll Set Point:	-0.234	Pitch Set Point:	-0.122	Yaw Set Point:	-0.577	X_WP:	0.000	Y_WP:	0.000	Y_WP:	0.500	X:	0.099	Y:	0.096	Z:	0.399	yaw:	33.069	yaw rate:	-3.697	Roll:	4.451	Pitch:	0.913	Yaw:	47.221	Thrust:	25.553
Time:	3.767	Roll Set Point:	-0.234	Pitch Set Point:	-0.122	Yaw Set Point:	-0.577	X_WP:	0.000	Y_WP:	0.000	Y_WP:	0.500	X:	0.099	Y:	0.096	Z:	0.399	yaw:	33.069	yaw rate:	-3.697	Roll:	4.462	Pitch:	0.857	Yaw:	47.736	Thrust:	24.932
Time:	3.782	Roll Set Point:	-0.234	Pitch Set Point:	-0.122	Yaw Set Point:	-0.578	X_WP:	0.000	Y_WP:	0.000	Y_WP:	0.500	X:	0.099	Y:	0.096	Z:	0.399	yaw:	33.097	yaw rate:	2.734	Roll:	4.483	Pitch:	0.843	Yaw:	48.232	Thrust:	25.050
Time:	3.798	Roll Set Point:	-0.234	Pitch Set Point:	-0.121	Yaw Set Point:	-0.579	X_WP:	0.000	Y_WP:	0.000	Y_WP:	0.500	X:	0.099	Y:	0.096	Z:	0.399	yaw:	33.172	yaw rate:	10.386	Roll:	4.484	Pitch:	0.660	Yaw:	49.146	Thrust:	25.164
Time:	3.813	Roll Set Point:	-0.234	Pitch Set Point:	-0.122	Yaw Set Point:	-0.579	X_WP:	0.000	Y_WP:	0.000	Y_WP:	0.500	X:	0.099	Y:	0.096	Z:	0.399	yaw:	33.195	yaw rate:	2.308	Roll:	4.493	Pitch:	0.885	Yaw:	48.299	Thrust:	25.691
Time:	3.829	Roll Set Point:	-0.234	Pitch Set Point:	-0.122	Yaw Set Point:	-0.579	X_WP:	0.000	Y_WP:	0.000	Y_WP:	0.500	X:	0.099	Y:	0.096	Z:	0.399	yaw:	33.195	yaw rate:	2.308	Roll:	4.484	Pitch:	0.856	Yaw:	47.912	Thrust:	25.689
Time:	3.845	Roll Set Point:	-0.234	Pitch Set Point:	-0.122	Yaw Set Point:	-0.577	X_WP:	0.000	Y_WP:	0.000	Y_WP:	0.500	X:	0.099	Y:	0.096	Z:	0.399	yaw:	33.059	yaw rate:	-6.696	Roll:	4.444	Pitch:	1.087	Yaw:	45.439	Thrust:	25.774
Time:	3.860	Roll Set Point:	-0.234	Pitch Set Point:	-0.122	Yaw Set Point:	-0.577	X_WP:	0.000	Y_WP:	0.000	Y_WP:	0.500	X:	0.099	Y:	0.096	Z:	0.399	yaw:	33.087	yaw rate:	2.750	Roll:	4.501	Pitch:	0.801	Yaw:	48.221	Thrust:	26.154
Time:	3.876	Roll Set Point:	-0.234	Pitch Set Point:	-0.122	Yaw Set Point:	-0.578	X_WP:	0.000	Y_WP:	0.000	Y_WP:	0.500	X:	0.099	Y:	0.096	Z:	0.399	yaw:	33.120	yaw rate:	3.368	Roll:	4.527	Pitch:	0.788	Yaw:	48.371	Thrust:	26.355
Time:	3.892	Roll Set Point:	-0.234	Pitch Set Point:	-0.122	Yaw Set Point:	-0.578	X_WP:	0.000	Y_WP:	0.000	Y_WP:	0.500	X:	0.099	Y:	0.096	Z:	0.399	yaw:	33.119	yaw rate:	-0.095	Roll:	4.506	Pitch:	0.935	Yaw:	47.793	Thrust:	26.613
Time:	3.907	Roll Set Point:	-0.234	Pitch Set Point:	-0.122	Yaw Set Point:	-0.578	X_WP:	0.000	Y_WP:	0.000	Y_WP:	0.500	X:	0.099	Y:	0.096	Z:	0.399	yaw:	33.119	yaw rate:	-0.095	Roll:	4.510	Pitch:	0.866	Yaw:	47.806	Thrust:	26.645
Time:	3.923	Roll Set Point:	-0.234	Pitch Set Point:	-0.122	Yaw Set Point:	-0.578	X_WP:	0.000	Y_WP:	0.000	Y_WP:	0.500	X:	0.099	Y:	0.096	Z:	0.399	yaw:	33.100	yaw rate:	0.863	Roll:	4.474	Pitch:	0.878	Yaw:	47.447	Thrust:	26.675
Time:	3.938	Roll Set Point:	-0.234	Pitch Set Point:	-0.122	Yaw Set Point:	-0.578	X_WP:	0.000	Y_WP:	0.000	Y_WP:	0.500	X:	0.099	Y:	0.096	Z:	0.399	yaw:	33.088	yaw rate:	-1.128	Roll:	4.529	Pitch:	0.845	Yaw:	47.574	Thrust:	26.924
Time:	3.954	Roll Set Point:	-0.234	Pitch Set Point:	-0.122	Yaw Set Point:	-0.578	X_WP:	0.000	Y_WP:	0.000	Y_WP:	0.500	X:	0.099	Y:	0.096	Z:	0.399	yaw:	33.088	yaw rate:	-1.128	Roll:	4.509	Pitch:	0.868	Yaw:	47.763	Thrust:	27.207
Time:	3.970	Roll Set Point:	-0.234	Pitch Set Point:	-0.122	Yaw Set Point:	-0.577	X_WP:	0.000	Y_WP:	0.000	Y_WP:	0.500	X:	0.099	Y:	0.096	Z:	0.399	yaw:	33.073	yaw rate:	-1.569	Roll:	4.489	Pitch:	0.919	Yaw:	47.479	Thrust:	27.384
Time:	3.985	Roll Set Point:	-0.234	Pitch Set Point:	-0.122	Yaw Set Point:	-0.578	X_WP:	0.000	Y_WP:	0.000	Y_WP:	0.500	X:	0.099	Y:	0.096	Z:	0.399	yaw:	33.109	yaw rate:	1.382	Roll:	4.541	Pitch:	0.800	Yaw:	48.397	Thrust:	27.669
Time:	4.001	Roll Set Point:	-0.234	Pitch Set Point:	-0.122	Yaw Set Point:	-0.577	X_WP:	0.000	Y_WP:	0.000	Y_WP:	0.500	X:	0.099	Y:	0.096	Z:	0.399	yaw:	33.082	yaw rate:	-2.669	Roll:	4.495	Pitch:	0.890	Yaw:	47.307	Thrust:	27.731
Time:	4.017	Roll Set Point:	-0.234	Pitch Set Point:	-0.122	Yaw Set Point:	-0.578	X_WP:	0.000	Y_WP:	0.000	Y_WP:	0.500	X:	0.099	Y:	0.096	Z:	0.399	yaw:	33.102	yaw rate:	1.937	Roll:	4.509	Pitch:	0.880	Yaw:	48.104	Thrust:	28.053
Time:	4.032	Roll Set Point:	-0.234	Pitch Set Point:	-0.122	Yaw Set Point:	-0.577	X_WP:	0.000	Y_WP:	0.000	Y_WP:	0.500	X:	0.099	Y:	0.096	Z:	0.399	yaw:	33.086	yaw rate:	-1.527	Roll:	4.506	Pitch:	0.874	Yaw:	47.505	Thrust:	28.023
Time:	4.048	Roll Set Point:	-0.234	Pitch Set Point:	-0.122	Yaw Set Point:	-0.578	X_WP:	0.000	Y_WP:	0.000	Y_WP:	0.500	X:	0.099	Y:	0.096	Z:	0.399	yaw:	33.104	yaw rate:	1.731	Roll:	4.519	Pitch:	0.878	Yaw:	48.073	Thrust:	28.354
Time:	4.063	Roll Set Point:	-0.234	Pitch Set Point:	-0.122	Yaw Set Point:	-0.578	X_WP:	0.000	Y_WP:	0.000	Y_WP:	0.500	X:	0.099	Y:	0.096	Z:	0.399	yaw:	33.121	yaw rate:	1.742	Roll:	4.514	Pitch:	0.812	Yaw:	48.100	Thrust:	28.651
Time:	4.079	Roll Set Point:	-0.234	Pitch Set Point:	-0.122	Yaw Set Point:	-0.578	X_WP:	0.000	Y_WP:	0.000	Y_WP:	0.500	X:	0.099	Y:	0.096	Z:	0.399	yaw:	33.121	yaw rate:	1.742	Roll:	4.510	Pitch:	0.875	Yaw:	47.808	Thrust:	28.730
Time:	4.095	Roll Set Point:	-0.234	Pitch Set Point:	-0.122	Yaw Set Point:	-0.577	X_WP:	0.000	Y_WP:	0.000	Y_WP:	0.500	X:	0.099	Y:	0.096	Z:	0.399	yaw:	33.082	yaw rate:	-2.433	Roll:	4.480	Pitch:	0.985	Yaw:	47.102	Thrust:	28.929
Time:	4.110	Roll Set Point:	-0.234	Pitch Set Point:	-0.122	Yaw Set Point:	-0.577	X_WP:	0.000	Y_WP:	0.000	Y_WP:	0.500	X:	0.099	Y:	0.096	Z:	0.399	yaw:	33.082	yaw rate:	-2.433	Roll:	4.508	Pitch:	0.880	Yaw:	47.753	Thrust:	29.096
Time:	4.126	Roll Set Point:	-0.234	Pitch Set Point:	-0.122	Yaw Set Point:	-0.577	X_WP:	0.000	Y_WP:	0.000	Y_WP:	0.500	X:	0.099	Y:	0.096	Z:	0.399	yaw:	33.073	yaw rate:	-4.776	Roll:	4.507	Pitch:	0.895	Yaw:	47.591	Thrust:	29.191
Time:	4.142	Roll Set Point:	-0.234	Pitch Set Point:	-0.122	Yaw Set Point:	-0.578	X_WP:	0.000	Y_WP:	0.000	Y_WP:	0.500	X:	0.099	Y:	0.096	Z:	0.399	yaw:	33.105	yaw rate:	3.233	Roll:	4.537	Pitch:	0.794	Yaw:	48.328	Thrust:	29.631
Time:	4.157	Roll Set Point:	-0.234	Pitch Set Point:	-0.122	Yaw Set Point:	-0.578	X_WP:	0.000	Y_WP:	0.000	Y_WP:	0.500	X:	0.099	Y:	0.096	Z:	0.399	yaw:	33.119	yaw rate:	1.372	Roll:	4.526	Pitch:	0.865	Yaw:	48.038	Thrust:	29.728
Time:	4.173	Roll Set Point:	-0.234	Pitch Set Point:	-0.122	Yaw Set Point:	-0.577	X_WP:	0.000	Y_WP:	0.000	Y_WP:	0.500	X:	0.099	Y:	0.096	Z:	0.399	yaw:	33.081	yaw rate:	-3.774	Roll:	4.474	Pitch:	0.971	Yaw:	47.120	Thrust:	29.654
Time:	4.188	Roll Set Point:	-0.234	Pitch Set Point:	-0.122	Yaw Set Point:	-0.577	X_WP:	0.000	Y_WP:	0.000	Y_WP:	0.500	X:	0.099	Y:	0.096	Z:	0.399	yaw:	33.081	yaw rate:	-3.774	Roll:	4.509	Pitch:	0.885	Yaw:	47.753	Thrust:	30.062
Time:	4.204	Roll Set Point:	-0.234	Pitch Set Point:	-0.122	Yaw Set Point:	-0.577	X_WP:	0.000	Y_WP:	0.000	Y_WP:	0.500	X:	0.099	Y:	0.096	Z:	0.399	yaw:	33.071	yaw rate:	-2.712	Roll:	4.516	Pitch:	0.865	Yaw:	47.557	Thrust:	30.252
Time:	4.220	Roll Set Point:	-0.234	Pitch Set Point:	-0.122	Yaw Set Point:	-0.578	X_WP:	0.000	Y_WP:	0.000	Y_WP:	0.500	X:	0.099	Y:	0.096	Z:	0.399	yaw:	33.099	yaw rate:	2.844	Roll:	4.512	Pitch:	0.851	Yaw:	48.257	Thrust:	30.585
Time:	4.235	Roll Set Point:	-0.234	Pitch Set Point:	-0.122	Yaw Set Point:	-0.577	X_WP:	0.000	Y_WP:	0.000	Y_WP:	0.500	X:	0.099	Y:	0.096	Z:	0.399	yaw:	33.083	yaw rate:	-1.593	Roll:	4.526	Pitch:	0.890	Yaw:	47.488	Thrust:	30.502
Time:	4.251	Roll Set Point:	-0.234	Pitch Set Point:	-0.122	Yaw Set Point:	-0.577	X_WP:	0.000	Y_WP:	0.000	Y_WP:	0.500	X:	0.099	Y:	0.096	Z:	0.399	yaw:	33.083	yaw rate:	-1.593	Roll:	4.510	Pitch:	0.888	Yaw:	47.756	Thrust:	30.820
Time:	4.267	Roll Set Point:	-0.234	Pitch Set Point:	-0.122	Yaw Set Point:	-0.577	X_WP:	0.000	Y_WP:	0.000	Y_WP:	0.500	X:	0.099	Y:	0.096	Z:	0.399	yaw:	33.064	yaw rate:	-1.905	Roll:	4.478	Pitch:	0.970	Yaw:	47.406	Thrust:	30.973
Time:	4.282	Roll Set Point:	-0.234	Pitch Set Point:	-0.122	Yaw Set Point:	-0.577	X_WP:	0.000	Y_WP:	0.000	Y_WP:	0.500	X:	0.099	Y:	0.096	Z:	0.399	yaw:	33.056	yaw rate:	-0.817	Roll:	4.508	Pitch:	0.824	Yaw:	47.583	Thrust:	31.181
Time:	4.298	Roll Set Point:	-0.234	Pitch Set Point:	-0.121	Yaw Set Point:	-0.578	X_WP:	0.000	Y_WP:	0.000	Y_WP:	0.500	X:	0.099	Y:	0.095	Z:	0.399	yaw:	33.123	yaw rate:	6.703	Roll:	4.331	Pitch:	0.707	Yaw:	48.934	Thrust:	31.080
Time:	4.313	Roll Set Point:	-0.234	Pitch Set Point:	-0.121	Yaw Set Point:	-0.578	X_WP:	0.000	Y_WP:	0.000	Y_WP:	0.500	X:	0.099	Y:	0.095	Z:	0.399	yaw:	33.123	yaw rate:	6.703	Roll:	4.506	Pitch:	0.888	Yaw:	47.815	Thrust:	31.635
Time:	4.329	Roll Set Point:	-0.234	Pitch Set Point:	-0.122	Yaw Set Point:	-0.578	X_WP:	0.000	Y_WP:	0.000	Y_WP:	0.500	X:	0.099	Y:	0.096	Z:	0.399	yaw:	33.094	yaw rate:	-2.939	Roll:	4.695	Pitch:	1.100	Yaw:	47.276	Thrust:	32.189
Time:	4.345	Roll Set Point:	-0.234	Pitch Set Point:	-0.122	Yaw Set Point:	-0.578	X_WP:	0.000	Y_WP:	0.000	Y_WP:	0.500	X:	0.099	Y:	0.096	Z:	0.399	yaw:	33.094	yaw rate:	-2.939	Roll:	4.508	Pitch:	0.895	Yaw:	47.768	Thrust:	31.921
Time:	4.360	Roll Set Point:	-0.234	Pitch Set Point:	-0.122	Yaw Set Point:	-0.578	X_WP:	0.000	Y_WP:	0.000	Y_WP:	0.500	X:	0.099	Y:	0.096	Z:	0.399	yaw:	33.097	yaw rate:	-6.102	Roll:	4.514	Pitch:	0.868	Yaw:	47.837	Thrust:	32.059
Time:	4.376	Roll Set Point:	-0.234	Pitch Set Point:	-0.122	Yaw Set Point:	-0.578	X_WP:	0.000	Y_WP:	0.000	Y_WP:	0.500	X:	0.099	Y:	0.096	Z:	0.399	yaw:	33.091	yaw rate:	-0.621	Roll:	4.534	Pitch:	0.897	Yaw:	47.662	Thrust:	32.318
Time:	4.392	Roll Set Point:	-0.234	Pitch Set Point:	-0.122	Yaw Set Point:	-0.577	X_WP:	0.000	Y_WP:	0.000	Y_WP:	0.500	X:	0.099	Y:	0.096	Z:	0.399	yaw:	33.073	yaw rate:	-1.767	Roll:	4.455	Pitch:	0.954	Yaw:	47.445	Thrust:	32.591
Time:	4.407	Roll Set Point:	-0.234	Pitch Set Point:	-0.122	Yaw Set Point:	-0.577	X_WP:	0.000	Y_WP:	0.000	Y_WP:	0.500	X:	0.099	Y:	0.096	Z:	0.399	yaw:	33.073	yaw rate:	-1.767	Roll:	4.509	Pitch:	0.900	Yaw:	47.742	Thrust:	32.716
Time:	4.423	Roll Set Point:	-0.234	Pitch Set Point:	-0.122	Yaw Set Point:	-0.577	X_WP:	0.000	Y_WP:	0.000	Y_WP:	0.500	X:	0.099	Y:	0.096	Z:	0.399	yaw:	33.077	yaw rate:	-12.389	Roll:	4.527	Pitch:	0.857	Yaw:	47.799	Thrust:	32.852
Time:	4.438	Roll Set Point:	-0.234	Pitch Set Point:	-0.122	Yaw Set Point:	-0.578	X_WP:	0.000	Y_WP:	0.000	Y_WP:	0.500	X:	0.099	Y:	0.096	Z:	0.399	yaw:	33.091	yaw rate:	1.398	Roll:	4.515	Pitch:	0.918	Yaw:	48.000	Thrust:	32.919
Time:	4.454	Roll Set Point:	-0.234	Pitch Set Point:	-0.122	Yaw Set Point:	-0.578	X_WP:	0.000	Y_WP:	0.000	Y_WP:	0.500	X:	0.099	Y:	0.096	Z:	0.399	yaw:	33.091	yaw rate:	1.398	Roll:	4.510	Pitch:	0.902	Yaw:	47.767	Thrust:	33.306
Time:	4.470	Roll Set Point:	-0.234	Pitch Set Point:	-0.122	Yaw Set Point:	-0.578	X_WP:	0.000	Y_WP:	0.000	Y_WP:	0.500	X:	0.099	Y:	0.096	Z:	0.399	yaw:	33.134	yaw rate:	5.597	Roll:	4.474	Pitch:	0.787	Yaw:	48.548	Thrust:	33.430
Time:	4.485	Roll Set Point:	-0.234	Pitch Set Point:	-0.122	Yaw Set Point:	-0.578	X_WP:	0.000	Y_WP:	0.000	Y_WP:	0.500	X:	0.099	Y:	0.096	Z:	0.399	yaw:	33.134	yaw rate:	5.597	Roll:	4.508	Pitch:	0.901	Yaw:	47.826	Thrust:	33.659
Time:	4.501	Roll Set Point:	-0.234	Pitch Set Point:	-0.122	Yaw Set Point:	-0.579	X_WP:	0.000	Y_WP:	0.000	Y_WP:	0.500	X:	0.099	Y:	0.096	Z:	0.399	yaw:	33.177	yaw rate:	4.374	Roll:	4.551	Pitch:	0.841	Yaw:	48.620	Thrust:	33.927
Time:	4.517	Roll Set Point:	-0.234	Pitch Set Point:	-0.122	Yaw Set Point:	-0.578	X_WP:	0.000	Y_WP:	0.000	Y_WP:	0.500	X:	0.099	Y:	0.096	Z:	0.399	yaw:	33.095	yaw rate:	-2.145	Roll:	4.487	Pitch:	1.050	Yaw:	46.385	Thrust:	34.154
Time:	4.532	Roll Set Point:	-0.234	Pitch Set Point:	-0.122	Yaw Set Point:	-0.577	X_WP:	0.000	Y_WP:	0.000	Y_WP:	0.500	X:	0.099	Y:	0.096	Z:	0.399	yaw:	33.078	yaw rate:	-1.693	Roll:	4.498	Pitch:	0.905	Yaw:	47.464	Thrust:	34.231
Time:	4.548	Roll Set Point:	-0.234	Pitch Set Point:	-0.121	Yaw Set Point:	-0.579	X_WP:	0.000	Y_WP:	0.000	Y_WP:	0.500	X:	0.099	Y:	0.096	Z:	0.399	yaw:	33.165	yaw rate:	8.672	Roll:	4.545	Pitch:	0.746	Yaw:	49.322	Thrust:	34.161
Time:	4.563	Roll Set Point:	-0.234	Pitch Set Point:	-0.121	Yaw Set Point:	-0.579	X_WP:	0.000	Y_WP:	0.000	Y_WP:	0.500	X:	0.099	Y:	0.096	Z:	0.399	yaw:	33.165	yaw rate:	8.672	Roll:	4.510	Pitch:	0.904	Yaw:	47.869	Thrust:	34.607
Time:	4.579	Roll Set Point:	-0.234	Pitch Set Point:	-0.122	Yaw Set Point:	-0.577	X_WP:	0.000	Y_WP:	0.000	Y_WP:	0.500	X:	0.099	Y:	0.096	Z:	0.399	yaw:	33.051	yaw rate:	-5.025	Roll:	4.480	Pitch:	1.160	Yaw:	45.804	Thrust:	34.977
Time:	4.595	Roll Set Point:	-0.234	Pitch Set Point:	-0.122	Yaw Set Point:	-0.577	X_WP:	0.000	Y_WP:	0.000	Y_WP:	0.500	X:	0.099	Y:	0.096	Z:	0.399	yaw:	33.051	yaw rate:	-5.025	Roll:	4.508	Pitch:	0.913	Yaw:	47.709	Thrust:	34.969
Time:	4.610	Roll Set Point:	-0.234	Pitch Set Point:	-0.122	Yaw Set Point:	-0.578	X_WP:	0.000	Y_WP:	0.000	Y_WP:	0.500	X:	0.099	Y:	0.096	Z:	0.399	yaw:	33.096	yaw rate:	-2.291	Roll:	4.523	Pitch:	0.808	Yaw:	48.541	Thrust:	35.271
Time:	4.626	Roll Set Point:	-0.234	Pitch Set Point:	-0.122	Yaw Set Point:	-0.578	X_WP:	0.000	Y_WP:	0.000	Y_WP:	0.500	X:	0.099	Y:	0.096	Z:	0.399	yaw:	33.100	yaw rate:	0.361	Roll:	4.513	Pitch:	0.926	Yaw:	47.840	Thrust:	35.385
Time:	4.642	Roll Set Point:	-0.234	Pitch Set Point:	-0.122	Yaw Set Point:	-0.578	X_WP:	0.000	Y_WP:	0.000	Y_WP:	0.500	X:	0.099	Y:	0.096	Z:	0.399	yaw:	33.100	yaw rate:	0.361	Roll:	4.509	Pitch:	0.913	Yaw:	47.779	Thrust:	35.564
Time:	4.657	Roll Set Point:	-0.234	Pitch Set Point:	-0.122	Yaw Set Point:	-0.578	X_WP:	0.000	Y_WP:	0.000	Y_WP:	0.500	X:	0.099	Y:	0.096	Z:	0.399	yaw:	33.113	yaw rate:	2.869	Roll:	4.514	Pitch:	0.857	Yaw:	48.006	Thrust:	35.810
Time:	4.673	Roll Set Point:	-0.234	Pitch Set Point:	-0.122	Yaw Set Point:	-0.579	X_WP:	0.000	Y_WP:	0.000	Y_WP:	0.500	X:	0.099	Y:	0.096	Z:	0.399	yaw:	33.165	yaw rate:	5.210	Roll:	4.507	Pitch:	0.839	Yaw:	48.742	Thrust:	35.716
Time:	4.688	Roll Set Point:	-0.234	Pitch Set Point:	-0.122	Yaw Set Point:	-0.577	X_WP:	0.000	Y_WP:	0.000	Y_WP:	0.500	X:	0.099	Y:	0.096	Z:	0.399	yaw:	33.088	yaw rate:	-7.652	Roll:	4.523	Pitch:	1.049	Yaw:	46.479	Thrust:	36.195
Time:	4.704	Roll Set Point:	-0.234	Pitch Set Point:	-0.122	Yaw Set Point:	-0.577	X_WP:	0.000	Y_WP:	0.000	Y_WP:	0.500	X:	0.099	Y:	0.096	Z:	0.399	yaw:	33.082	yaw rate:	-0.560	Roll:	4.486	Pitch:	0.939	Yaw:	47.661	Thrust:	36.278
Time:	4.720	Roll Set Point:	-0.234	Pitch Set Point:	-0.122	Yaw Set Point:	-0.577	X_WP:	0.000	Y_WP:	0.000	Y_WP:	0.500	X:	0.099	Y:	0.096	Z:	0.399	yaw:	33.082	yaw rate:	-0.560	Roll:	4.509	Pitch:	0.919	Yaw:	47.755	Thrust:	36.507
Time:	4.735	Roll Set Point:	-0.234	Pitch Set Point:	-0.122	Yaw Set Point:	-0.578	X_WP:	0.000	Y_WP:	0.000	Y_WP:	0.500	X:	0.099	Y:	0.096	Z:	0.399	yaw:	33.108	yaw rate:	-0.537	Roll:	4.516	Pitch:	0.854	Yaw:	48.223	Thrust:	36.908
Time:	4.766	Roll Set Point:	-0.234	Pitch Set Point:	-0.122	Yaw Set Point:	-0.578	X_WP:	0.000	Y_WP:	0.000	Y_WP:	0.500	X:	0.099	Y:	0.096	Z:	0.399	yaw:	33.096	yaw rate:	1.270	Roll:	5.069	Pitch:	1.089	Yaw:	49.165	Thrust:	66.878
Time:	4.782	Roll Set Point:	-0.234	Pitch Set Point:	-0.122	Yaw Set Point:	-0.578	X_WP:	0.000	Y_WP:	0.000	Y_WP:	0.500	X:	0.099	Y:	0.096	Z:	0.399	yaw:	33.096	yaw rate:	1.270	Roll:	4.509	Pitch:	0.921	Yaw:	47.773	Thrust:	37.075
Time:	4.797	Roll Set Point:	-0.234	Pitch Set Point:	-0.122	Yaw Set Point:	-0.578	X_WP:	0.000	Y_WP:	0.000	Y_WP:	0.500	X:	0.099	Y:	0.096	Z:	0.399	yaw:	33.101	yaw rate:	-1.073	Roll:	4.515	Pitch:	0.913	Yaw:	47.863	Thrust:	37.425
Time:	4.813	Roll Set Point:	-0.234	Pitch Set Point:	-0.122	Yaw Set Point:	-0.578	X_WP:	0.000	Y_WP:	0.000	Y_WP:	0.500	X:	0.099	Y:	0.096	Z:	0.399	yaw:	33.101	yaw rate:	-1.073	Roll:	4.509	Pitch:	0.923	Yaw:	47.780	Thrust:	37.462
Time:	4.829	Roll Set Point:	-0.234	Pitch Set Point:	-0.122	Yaw Set Point:	-0.577	X_WP:	0.000	Y_WP:	0.000	Y_WP:	0.500	X:	0.099	Y:	0.096	Z:	0.399	yaw:	33.062	yaw rate:	-15.671	Roll:	4.484	Pitch:	1.002	Yaw:	47.078	Thrust:	37.414
Time:	4.844	Roll Set Point:	-0.234	Pitch Set Point:	-0.122	Yaw Set Point:	-0.578	X_WP:	0.000	Y_WP:	0.000	Y_WP:	0.500	X:	0.099	Y:	0.096	Z:	0.399	yaw:	33.112	yaw rate:	5.048	Roll:	4.527	Pitch:	0.880	Yaw:	48.643	Thrust:	38.037
Time:	4.860	Roll Set Point:	-0.234	Pitch Set Point:	-0.122	Yaw Set Point:	-0.578	X_WP:	0.000	Y_WP:	0.000	Y_WP:	0.500	X:	0.099	Y:	0.096	Z:	0.399	yaw:	33.099	yaw rate:	-1.321	Roll:	4.539	Pitch:	0.911	Yaw:	47.556	Thrust:	38.100
Time:	4.875	Roll Set Point:	-0.234	Pitch Set Point:	-0.122	Yaw Set Point:	-0.578	X_WP:	0.000	Y_WP:	0.000	Y_WP:	0.500	X:	0.099	Y:	0.096	Z:	0.399	yaw:	33.099	yaw rate:	-1.321	Roll:	4.510	Pitch:	0.927	Yaw:	47.777	Thrust:	38.207
Time:	4.891	Roll Set Point:	-0.234	Pitch Set Point:	-0.122	Yaw Set Point:	-0.578	X_WP:	0.000	Y_WP:	0.000	Y_WP:	0.500	X:	0.099	Y:	0.096	Z:	0.399	yaw:	33.120	yaw rate:	3.057	Roll:	4.503	Pitch:	0.881	Yaw:	48.155	Thrust:	38.494
Time:	4.907	Roll Set Point:	-0.234	Pitch Set Point:	-0.122	Yaw Set Point:	-0.578	X_WP:	0.000	Y_WP:	0.000	Y_WP:	0.500	X:	0.099	Y:	0.096	Z:	0.399	yaw:	33.120	yaw rate:	3.057	Roll:	4.509	Pitch:	0.928	Yaw:	47.804	Thrust:	38.543
Time:	4.922	Roll Set Point:	-0.234	Pitch Set Point:	-0.122	Yaw Set Point:	-0.577	X_WP:	0.000	Y_WP:	0.000	Y_WP:	0.500	X:	0.099	Y:	0.096	Z:	0.399	yaw:	33.086	yaw rate:	-3.407	Roll:	4.485	Pitch:	1.041	Yaw:	47.189	Thrust:	38.653
Time:	4.938	Roll Set Point:	-0.234	Pitch Set Point:	-0.122	Yaw Set Point:	-0.577	X_WP:	0.000	Y_WP:	0.000	Y_WP:	0.500	X:	0.099	Y:	0.096	Z:	0.399	yaw:	33.086	yaw rate:	-3.407	Roll:	4.509	Pitch:	0.933	Yaw:	47.759	Thrust:	38.973
Time:	4.954	Roll Set Point:	-0.234	Pitch Set Point:	-0.121	Yaw Set Point:	-0.579	X_WP:	0.000	Y_WP:	0.000	Y_WP:	0.500	X:	0.099	Y:	0.096	Z:	0.399	yaw:	33.177	yaw rate:	9.152	Roll:	4.514	Pitch:	0.704	Yaw:	49.420	Thrust:	39.084
Time:	4.969	Roll Set Point:	-0.234	Pitch Set Point:	-0.122	Yaw Set Point:	-0.577	X_WP:	0.000	Y_WP:	0.000	Y_WP:	0.500	X:	0.099	Y:	0.096	Z:	0.399	yaw:	33.075	yaw rate:	-13.266	Roll:	4.487	Pitch:	1.174	Yaw:	46.019	Thrust:	39.380
Time:	4.985	Roll Set Point:	-0.234	Pitch Set Point:	-0.122	Yaw Set Point:	-0.577	X_WP:	0.000	Y_WP:	0.000	Y_WP:	0.500	X:	0.099	Y:	0.096	Z:	0.399	yaw:	33.075	yaw rate:	-13.266	Roll:	4.510	Pitch:	0.937	Yaw:	47.747	Thrust:	39.618
Time:	5.000	Roll Set Point:	-0.234	Pitch Set Point:	-0.122	Yaw Set Point:	-0.577	X_WP:	0.000	Y_WP:	0.000	Y_WP:	0.500	X:	0.099	Y:	0.096	Z:	0.399	yaw:	33.063	yaw rate:	-4.937	Roll:	4.525	Pitch:	0.903	Yaw:	47.523	Thrust:	39.670
Time:	5.016	Roll Set Point:	-0.234	Pitch Set Point:	-0.121	Yaw Set Point:	-0.579	X_WP:	0.000	Y_WP:	0.000	Y_WP:	0.500	X:	0.099	Y:	0.096	Z:	0.399	yaw:	33.169	yaw rate:	10.579	Roll:	4.519	Pitch:	0.731	Yaw:	49.647	Thrust:	39.776
Time:	5.032	Roll Set Point:	-0.234	Pitch Set Point:	-0.121	Yaw Set Point:	-0.579	X_WP:	0.000	Y_WP:	0.000	Y_WP:	0.500	X:	0.099	Y:	0.096	Z:	0.399	yaw:	33.169	yaw rate:	10.579	Roll:	4.510	Pitch:	0.933	Yaw:	47.877	Thrust:	40.170
Time:	5.047	Roll Set Point:	-0.234	Pitch Set Point:	-0.122	Yaw Set Point:	-0.577	X_WP:	0.000	Y_WP:	0.000	Y_WP:	0.500	X:	0.099	Y:	0.096	Z:	0.399	yaw:	33.068	yaw rate:	-10.083	Roll:	4.467	Pitch:	1.147	Yaw:	46.044	Thrust:	40.420
Time:	5.063	Roll Set Point:	-0.234	Pitch Set Point:	-0.122	Yaw Set Point:	-0.577	X_WP:	0.000	Y_WP:	0.000	Y_WP:	0.500	X:	0.099	Y:	0.096	Z:	0.399	yaw:	33.087	yaw rate:	-1.771	Roll:	4.558	Pitch:	0.920	Yaw:	48.077	Thrust:	40.603
Time:	5.079	Roll Set Point:	-0.234	Pitch Set Point:	-0.122	Yaw Set Point:	-0.577	X_WP:	0.000	Y_WP:	0.000	Y_WP:	0.500	X:	0.099	Y:	0.096	Z:	0.399	yaw:	33.087	yaw rate:	-1.771	Roll:	4.510	Pitch:	0.941	Yaw:	47.761	Thrust:	40.689
Time:	5.094	Roll Set Point:	-0.234	Pitch Set Point:	-0.121	Yaw Set Point:	-0.579	X_WP:	0.000	Y_WP:	0.000	Y_WP:	0.500	X:	0.099	Y:	0.096	Z:	0.399	yaw:	33.189	yaw rate:	10.210	Roll:	4.498	Pitch:	0.689	Yaw:	49.614	Thrust:	40.617
Time:	5.110	Roll Set Point:	-0.234	Pitch Set Point:	-0.122	Yaw Set Point:	-0.578	X_WP:	0.000	Y_WP:	0.000	Y_WP:	0.500	X:	0.099	Y:	0.096	Z:	0.399	yaw:	33.093	yaw rate:	-9.577	Roll:	4.494	Pitch:	1.173	Yaw:	46.164	Thrust:	41.327
Time:	5.125	Roll Set Point:	-0.234	Pitch Set Point:	-0.122	Yaw Set Point:	-0.578	X_WP:	0.000	Y_WP:	0.000	Y_WP:	0.500	X:	0.099	Y:	0.096	Z:	0.399	yaw:	33.119	yaw rate:	2.610	Roll:	4.538	Pitch:	0.986	Yaw:	48.243	Thrust:	41.259
Time:	5.141	Roll Set Point:	-0.234	Pitch Set Point:	-0.121	Yaw Set Point:	-0.579	X_WP:	0.000	Y_WP:	0.000	Y_WP:	0.500	X:	0.099	Y:	0.096	Z:	0.399	yaw:	33.181	yaw rate:	9.490	Roll:	4.506	Pitch:	0.725	Yaw:	48.932	Thrust:	41.203
Time:	5.157	Roll Set Point:	-0.234	Pitch Set Point:	-0.122	Yaw Set Point:	-0.577	X_WP:	0.000	Y_WP:	0.000	Y_WP:	0.500	X:	0.099	Y:	0.096	Z:	0.399	yaw:	33.059	yaw rate:	-12.211	Roll:	4.463	Pitch:	1.194	Yaw:	45.676	Thrust:	41.746
Time:	5.172	Roll Set Point:	-0.234	Pitch Set Point:	-0.122	Yaw Set Point:	-0.577	X_WP:	0.000	Y_WP:	0.000	Y_WP:	0.500	X:	0.099	Y:	0.096	Z:	0.399	yaw:	33.084	yaw rate:	2.527	Roll:	4.546	Pitch:	0.912	Yaw:	48.180	Thrust:	41.809
Time:	5.188	Roll Set Point:	-0.234	Pitch Set Point:	-0.122	Yaw Set Point:	-0.578	X_WP:	0.000	Y_WP:	0.000	Y_WP:	0.500	X:	0.099	Y:	0.096	Z:	0.399	yaw:	33.111	yaw rate:	2.661	Roll:	4.525	Pitch:	0.880	Yaw:	48.240	Thrust:	42.089
Time:	5.204	Roll Set Point:	-0.234	Pitch Set Point:	-0.121	Yaw Set Point:	-0.579	X_WP:	0.000	Y_WP:	0.000	Y_WP:	0.500	X:	0.099	Y:	0.096	Z:	0.399	yaw:	33.190	yaw rate:	7.872	Roll:	4.514	Pitch:	0.775	Yaw:	49.223	Thrust:	42.080
Time:	5.219	Roll Set Point:	-0.234	Pitch Set Point:	-0.122	Yaw Set Point:	-0.577	X_WP:	0.000	Y_WP:	0.000	Y_WP:	0.500	X:	0.099	Y:	0.096	Z:	0.399	yaw:	33.051	yaw rate:	-13.911	Roll:	4.452	Pitch:	1.201	Yaw:	45.387	Thrust:	42.494
Time:	5.235	Roll Set Point:	-0.234	Pitch Set Point:	-0.122	Yaw Set Point:	-0.577	X_WP:	0.000	Y_WP:	0.000	Y_WP:	0.500	X:	0.099	Y:	0.096	Z:	0.399	yaw:	33.051	yaw rate:	-13.911	Roll:	4.507	Pitch:	0.952	Yaw:	47.707	Thrust:	42.511
Time:	5.250	Roll Set Point:	-0.234	Pitch Set Point:	-0.122	Yaw Set Point:	-0.577	X_WP:	0.000	Y_WP:	0.000	Y_WP:	0.500	X:	0.099	Y:	0.096	Z:	0.399	yaw:	33.072	yaw rate:	2.194	Roll:	4.524	Pitch:	0.942	Yaw:	48.109	Thrust:	42.760
Time:	5.266	Roll Set Point:	-0.234	Pitch Set Point:	-0.121	Yaw Set Point:	-0.579	X_WP:	0.000	Y_WP:	0.000	Y_WP:	0.500	X:	0.099	Y:	0.096	Z:	0.399	yaw:	33.158	yaw rate:	8.552	Roll:	4.538	Pitch:	0.768	Yaw:	49.293	Thrust:	42.829
Time:	5.282	Roll Set Point:	-0.234	Pitch Set Point:	-0.121	Yaw Set Point:	-0.579	X_WP:	0.000	Y_WP:	0.000	Y_WP:	0.500	X:	0.099	Y:	0.096	Z:	0.399	yaw:	33.158	yaw rate:	8.552	Roll:	4.509	Pitch:	0.950	Yaw:	47.860	Thrust:	43.148
Time:	5.297	Roll Set Point:	-0.234	Pitch Set Point:	-0.121	Yaw Set Point:	-0.579	X_WP:	0.000	Y_WP:	0.000	Y_WP:	0.500	X:	0.099	Y:	0.096	Z:	0.399	yaw:	33.168	yaw rate:	1.001	Roll:	4.479	Pitch:	0.956	Yaw:	48.042	Thrust:	43.477
Time:	5.313	Roll Set Point:	-0.234	Pitch Set Point:	-0.122	Yaw Set Point:	-0.578	X_WP:	0.000	Y_WP:	0.000	Y_WP:	0.500	X:	0.099	Y:	0.096	Z:	0.399	yaw:	33.129	yaw rate:	-3.877	Roll:	4.557	Pitch:	1.056	Yaw:	47.170	Thrust:	43.722
Time:	5.329	Roll Set Point:	-0.234	Pitch Set Point:	-0.122	Yaw Set Point:	-0.579	X_WP:	0.000	Y_WP:	0.000	Y_WP:	0.500	X:	0.099	Y:	0.096	Z:	0.399	yaw:	33.158	yaw rate:	4.314	Roll:	4.485	Pitch:	0.874	Yaw:	48.335	Thrust:	43.412
Time:	5.344	Roll Set Point:	-0.234	Pitch Set Point:	-0.121	Yaw Set Point:	-0.578	X_WP:	0.000	Y_WP:	0.000	Y_WP:	0.500	X:	0.099	Y:	0.096	Z:	0.399	yaw:	33.137	yaw rate:	-2.075	Roll:	4.481	Pitch:	0.953	Yaw:	47.483	Thrust:	43.790
Time:	5.360	Roll Set Point:	-0.234	Pitch Set Point:	-0.122	Yaw Set Point:	-0.577	X_WP:	0.000	Y_WP:	0.000	Y_WP:	0.500	X:	0.099	Y:	0.096	Z:	0.399	yaw:	33.087	yaw rate:	-4.976	Roll:	4.524	Pitch:	1.092	Yaw:	46.927	Thrust:	44.412
Time:	5.375	Roll Set Point:	-0.234	Pitch Set Point:	-0.122	Yaw Set Point:	-0.577	X_WP:	0.000	Y_WP:	0.000	Y_WP:	0.500	X:	0.099	Y:	0.096	Z:	0.399	yaw:	33.087	yaw rate:	-4.976	Roll:	4.509	Pitch:	0.960	Yaw:	47.761	Thrust:	44.291
Time:	5.391	Roll Set Point:	-0.234	Pitch Set Point:	-0.122	Yaw Set Point:	-0.577	X_WP:	0.000	Y_WP:	0.000	Y_WP:	0.500	X:	0.099	Y:	0.096	Z:	0.399	yaw:	33.068	yaw rate:	-3.077	Roll:	4.523	Pitch:	0.994	Yaw:	47.409	Thrust:	44.523
Time:	5.407	Roll Set Point:	-0.234	Pitch Set Point:	-0.121	Yaw Set Point:	-0.578	X_WP:	0.000	Y_WP:	0.000	Y_WP:	0.500	X:	0.099	Y:	0.096	Z:	0.399	yaw:	33.143	yaw rate:	7.481	Roll:	4.485	Pitch:	0.811	Yaw:	49.092	Thrust:	44.431
Time:	5.422	Roll Set Point:	-0.234	Pitch Set Point:	-0.122	Yaw Set Point:	-0.578	X_WP:	0.000	Y_WP:	0.000	Y_WP:	0.500	X:	0.099	Y:	0.096	Z:	0.399	yaw:	33.097	yaw rate:	-4.558	Roll:	4.510	Pitch:	1.056	Yaw:	47.011	Thrust:	45.071
Time:	5.438	Roll Set Point:	-0.234	Pitch Set Point:	-0.122	Yaw Set Point:	-0.577	X_WP:	0.000	Y_WP:	0.000	Y_WP:	0.500	X:	0.099	Y:	0.096	Z:	0.399	yaw:	33.080	yaw rate:	-1.669	Roll:	4.536	Pitch:	1.012	Yaw:	47.476	Thrust:	45.125
Time:	5.454	Roll Set Point:	-0.234	Pitch Set Point:	-0.122	Yaw Set Point:	-0.577	X_WP:	0.000	Y_WP:	0.000	Y_WP:	0.500	X:	0.099	Y:	0.096	Z:	0.399	yaw:	33.088	yaw rate:	0.729	Roll:	4.512	Pitch:	0.965	Yaw:	47.881	Thrust:	45.230
Time:	5.469	Roll Set Point:	-0.234	Pitch Set Point:	-0.122	Yaw Set Point:	-0.577	X_WP:	0.000	Y_WP:	0.000	Y_WP:	0.500	X:	0.099	Y:	0.096	Z:	0.399	yaw:	33.088	yaw rate:	0.729	Roll:	4.509	Pitch:	0.967	Yaw:	47.762	Thrust:	45.431
Time:	5.485	Roll Set Point:	-0.234	Pitch Set Point:	-0.122	Yaw Set Point:	-0.578	X_WP:	0.000	Y_WP:	0.000	Y_WP:	0.500	X:	0.099	Y:	0.096	Z:	0.399	yaw:	33.093	yaw rate:	0.557	Roll:	4.507	Pitch:	0.889	Yaw:	47.866	Thrust:	45.647
Time:	5.500	Roll Set Point:	-0.234	Pitch Set Point:	-0.122	Yaw Set Point:	-0.578	X_WP:	0.000	Y_WP:	0.000	Y_WP:	0.500	X:	0.099	Y:	0.096	Z:	0.399	yaw:	33.093	yaw rate:	0.557	Roll:	4.509	Pitch:	0.967	Yaw:	47.769	Thrust:	45.810
Time:	5.516	Roll Set Point:	-0.234	Pitch Set Point:	-0.122	Yaw Set Point:	-0.578	X_WP:	0.000	Y_WP:	0.000	Y_WP:	0.500	X:	0.099	Y:	0.096	Z:	0.399	yaw:	33.091	yaw rate:	-0.171	Roll:	4.503	Pitch:	1.020	Yaw:	47.735	Thrust:	45.864
Time:	5.532	Roll Set Point:	-0.234	Pitch Set Point:	-0.122	Yaw Set Point:	-0.578	X_WP:	0.000	Y_WP:	0.000	Y_WP:	0.500	X:	0.099	Y:	0.096	Z:	0.399	yaw:	33.091	yaw rate:	-0.171	Roll:	4.509	Pitch:	0.970	Yaw:	47.767	Thrust:	46.194
Time:	5.547	Roll Set Point:	-0.234	Pitch Set Point:	-0.121	Yaw Set Point:	-0.580	X_WP:	0.000	Y_WP:	0.000	Y_WP:	0.500	X:	0.099	Y:	0.096	Z:	0.399	yaw:	33.226	yaw rate:	13.412	Roll:	4.561	Pitch:	0.716	Yaw:	50.200	Thrust:	46.533
Time:	5.563	Roll Set Point:	-0.234	Pitch Set Point:	-0.122	Yaw Set Point:	-0.578	X_WP:	0.000	Y_WP:	0.000	Y_WP:	0.500	X:	0.099	Y:	0.096	Z:	0.399	yaw:	33.115	yaw rate:	-11.075	Roll:	4.467	Pitch:	1.207	Yaw:	45.945	Thrust:	46.604
Time:	5.579	Roll Set Point:	-0.234	Pitch Set Point:	-0.122	Yaw Set Point:	-0.578	X_WP:	0.000	Y_WP:	0.000	Y_WP:	0.500	X:	0.099	Y:	0.096	Z:	0.399	yaw:	33.115	yaw rate:	-11.075	Roll:	4.509	Pitch:	0.973	Yaw:	47.799	Thrust:	46.741
Time:	5.594	Roll Set Point:	-0.234	Pitch Set Point:	-0.122	Yaw Set Point:	-0.578	X_WP:	0.000	Y_WP:	0.000	Y_WP:	0.500	X:	0.099	Y:	0.096	Z:	0.399	yaw:	33.097	yaw rate:	-3.124	Roll:	4.517	Pitch:	0.959	Yaw:	47.480	Thrust:	46.860
Time:	5.610	Roll Set Point:	-0.234	Pitch Set Point:	-0.122	Yaw Set Point:	-0.578	X_WP:	0.000	Y_WP:	0.000	Y_WP:	0.500	X:	0.099	Y:	0.096	Z:	0.399	yaw:	33.097	yaw rate:	-3.124	Roll:	4.510	Pitch:	0.975	Yaw:	47.775	Thrust:	47.138
Time:	5.625	Roll Set Point:	-0.234	Pitch Set Point:	-0.122	Yaw Set Point:	-0.577	X_WP:	0.000	Y_WP:	0.000	Y_WP:	0.500	X:	0.099	Y:	0.096	Z:	0.399	yaw:	33.084	yaw rate:	-1.297	Roll:	4.470	Pitch:	1.057	Yaw:	47.543	Thrust:	47.387
Time:	5.641	Roll Set Point:	-0.234	Pitch Set Point:	-0.122	Yaw Set Point:	-0.577	X_WP:	0.000	Y_WP:	0.000	Y_WP:	0.500	X:	0.099	Y:	0.096	Z:	0.399	yaw:	33.084	yaw rate:	-1.297	Roll:	4.509	Pitch:	0.979	Yaw:	47.757	Thrust:	47.520
Time:	5.657	Roll Set Point:	-0.234	Pitch Set Point:	-0.122	Yaw Set Point:	-0.578	X_WP:	0.000	Y_WP:	0.000	Y_WP:	0.500	X:	0.099	Y:	0.096	Z:	0.399	yaw:	33.133	yaw rate:	3.213	Roll:	4.521	Pitch:	0.840	Yaw:	48.636	Thrust:	47.314
Time:	5.672	Roll Set Point:	-0.234	Pitch Set Point:	-0.122	Yaw Set Point:	-0.578	X_WP:	0.000	Y_WP:	0.000	Y_WP:	0.500	X:	0.099	Y:	0.096	Z:	0.399	yaw:	33.107	yaw rate:	-2.543	Roll:	4.546	Pitch:	1.016	Yaw:	47.363	Thrust:	48.335
Time:	5.688	Roll Set Point:	-0.234	Pitch Set Point:	-0.122	Yaw Set Point:	-0.577	X_WP:	0.000	Y_WP:	0.000	Y_WP:	0.500	X:	0.099	Y:	0.096	Z:	0.399	yaw:	33.065	yaw rate:	-4.239	Roll:	4.454	Pitch:	1.067	Yaw:	47.024	Thrust:	47.850
Time:	5.704	Roll Set Point:	-0.234	Pitch Set Point:	-0.122	Yaw Set Point:	-0.578	X_WP:	0.000	Y_WP:	0.000	Y_WP:	0.500	X:	0.099	Y:	0.096	Z:	0.399	yaw:	33.112	yaw rate:	4.690	Roll:	4.542	Pitch:	0.859	Yaw:	48.582	Thrust:	48.418
Time:	5.719	Roll Set Point:	-0.234	Pitch Set Point:	-0.122	Yaw Set Point:	-0.578	X_WP:	0.000	Y_WP:	0.000	Y_WP:	0.500	X:	0.099	Y:	0.096	Z:	0.399	yaw:	33.112	yaw rate:	4.690	Roll:	4.509	Pitch:	0.980	Yaw:	47.795	Thrust:	48.446
Time:	5.735	Roll Set Point:	-0.234	Pitch Set Point:	-0.122	Yaw Set Point:	-0.577	X_WP:	0.000	Y_WP:	0.000	Y_WP:	0.500	X:	0.099	Y:	0.096	Z:	0.399	yaw:	33.074	yaw rate:	-2.094	Roll:	4.528	Pitch:	1.077	Yaw:	47.111	Thrust:	48.640
Time:	5.766	Roll Set Point:	-0.234	Pitch Set Point:	-0.122	Yaw Set Point:	-0.577	X_WP:	0.000	Y_WP:	0.000	Y_WP:	0.500	X:	0.099	Y:	0.096	Z:	0.399	yaw:	33.087	yaw rate:	-10.600	Roll:	5.088	Pitch:	1.213	Yaw:	49.456	Thrust:	92.833
Time:	5.782	Roll Set Point:	-0.234	Pitch Set Point:	-0.122	Yaw Set Point:	-0.577	X_WP:	0.000	Y_WP:	0.000	Y_WP:	0.500	X:	0.099	Y:	0.096	Z:	0.399	yaw:	33.087	yaw rate:	-10.600	Roll:	4.509	Pitch:	0.985	Yaw:	47.761	Thrust:	49.035
Time:	5.798	Roll Set Point:	-0.234	Pitch Set Point:	-0.121	Yaw Set Point:	-0.579	X_WP:	0.000	Y_WP:	0.000	Y_WP:	0.500	X:	0.099	Y:	0.096	Z:	0.399	yaw:	33.169	yaw rate:	10.984	Roll:	4.545	Pitch:	0.835	Yaw:	49.247	Thrust:	49.150
Time:	5.813	Roll Set Point:	-0.234	Pitch Set Point:	-0.122	Yaw Set Point:	-0.578	X_WP:	0.000	Y_WP:	0.000	Y_WP:	0.500	X:	0.099	Y:	0.096	Z:	0.399	yaw:	33.094	yaw rate:	-7.479	Roll:	4.496	Pitch:	1.115	Yaw:	46.518	Thrust:	49.651
Time:	5.829	Roll Set Point:	-0.234	Pitch Set Point:	-0.122	Yaw Set Point:	-0.578	X_WP:	0.000	Y_WP:	0.000	Y_WP:	0.500	X:	0.099	Y:	0.096	Z:	0.399	yaw:	33.102	yaw rate:	0.818	Roll:	4.500	Pitch:	1.003	Yaw:	47.919	Thrust:	49.661
Time:	5.845	Roll Set Point:	-0.234	Pitch Set Point:	-0.122	Yaw Set Point:	-0.577	X_WP:	0.000	Y_WP:	0.000	Y_WP:	0.500	X:	0.099	Y:	0.096	Z:	0.399	yaw:	33.080	yaw rate:	-2.261	Roll:	4.509	Pitch:	0.994	Yaw:	47.372	Thrust:	49.570
Time:	5.860	Roll Set Point:	-0.234	Pitch Set Point:	-0.122	Yaw Set Point:	-0.577	X_WP:	0.000	Y_WP:	0.000	Y_WP:	0.500	X:	0.099	Y:	0.096	Z:	0.399	yaw:	33.080	yaw rate:	-2.261	Roll:	4.509	Pitch:	0.991	Yaw:	47.751	Thrust:	49.982
Time:	5.876	Roll Set Point:	-0.234	Pitch Set Point:	-0.121	Yaw Set Point:	-0.579	X_WP:	0.000	Y_WP:	0.000	Y_WP:	0.500	X:	0.099	Y:	0.096	Z:	0.399	yaw:	33.182	yaw rate:	4.579	Roll:	4.532	Pitch:	0.823	Yaw:	49.612	Thrust:	50.312
Time:	5.891	Roll Set Point:	-0.234	Pitch Set Point:	-0.121	Yaw Set Point:	-0.579	X_WP:	0.000	Y_WP:	0.000	Y_WP:	0.500	X:	0.099	Y:	0.096	Z:	0.399	yaw:	33.182	yaw rate:	4.579	Roll:	4.509	Pitch:	0.988	Yaw:	47.891	Thrust:	50.275
Time:	5.907	Roll Set Point:	-0.234	Pitch Set Point:	-0.122	Yaw Set Point:	-0.578	X_WP:	0.000	Y_WP:	0.000	Y_WP:	0.500	X:	0.099	Y:	0.096	Z:	0.399	yaw:	33.103	yaw rate:	-7.954	Roll:	4.488	Pitch:	1.171	Yaw:	46.450	Thrust:	50.678
Time:	5.923	Roll Set Point:	-0.234	Pitch Set Point:	-0.122	Yaw Set Point:	-0.578	X_WP:	0.000	Y_WP:	0.000	Y_WP:	0.500	X:	0.099	Y:	0.096	Z:	0.399	yaw:	33.103	yaw rate:	-7.954	Roll:	4.509	Pitch:	0.995	Yaw:	47.783	Thrust:	50.742
Time:	5.938	Roll Set Point:	-0.234	Pitch Set Point:	-0.122	Yaw Set Point:	-0.577	X_WP:	0.000	Y_WP:	0.000	Y_WP:	0.500	X:	0.099	Y:	0.096	Z:	0.399	yaw:	33.087	yaw rate:	-1.563	Roll:	4.521	Pitch:	1.028	Yaw:	47.499	Thrust:	51.007
Time:	5.954	Roll Set Point:	-0.234	Pitch Set Point:	-0.122	Yaw Set Point:	-0.578	X_WP:	0.000	Y_WP:	0.000	Y_WP:	0.500	X:	0.099	Y:	0.096	Z:	0.399	yaw:	33.090	yaw rate:	-8.370	Roll:	4.501	Pitch:	0.930	Yaw:	47.809	Thrust:	51.137
Time:	5.970	Roll Set Point:	-0.234	Pitch Set Point:	-0.122	Yaw Set Point:	-0.577	X_WP:	0.000	Y_WP:	0.000	Y_WP:	0.500	X:	0.099	Y:	0.096	Z:	0.399	yaw:	33.073	yaw rate:	-1.623	Roll:	4.503	Pitch:	1.063	Yaw:	47.467	Thrust:	51.179
Time:	5.985	Roll Set Point:	-0.234	Pitch Set Point:	-0.122	Yaw Set Point:	-0.577	X_WP:	0.000	Y_WP:	0.000	Y_WP:	0.500	X:	0.099	Y:	0.096	Z:	0.399	yaw:	33.060	yaw rate:	-1.307	Roll:	4.498	Pitch:	0.991	Yaw:	47.505	Thrust:	51.410
Time:	6.001	Roll Set Point:	-0.082	Pitch Set Point:	-0.036	Yaw Set Point:	-0.577	X_WP:	0.081	Y_WP:	0.155	Y_WP:	0.500	X:	0.099	Y:	0.096	Z:	0.399	yaw:	33.060	yaw rate:	-1.307	Roll:	-30.000	Pitch:	-30.000	Yaw:	47.723	Thrust:	51.680
Time:	6.016	Roll Set Point:	-0.082	Pitch Set Point:	-0.036	Yaw Set Point:	-0.579	X_WP:	0.080	Y_WP:	0.155	Y_WP:	0.500	X:	0.099	Y:	0.096	Z:	0.399	yaw:	33.201	yaw rate:	14.116	Roll:	0.004	Pitch:	-1.462	Yaw:	50.285	Thrust:	52.030
Time:	6.032	Roll Set Point:	-0.082	Pitch Set Point:	-0.036	Yaw Set Point:	-0.578	X_WP:	0.080	Y_WP:	0.155	Y_WP:	0.500	X:	0.099	Y:	0.096	Z:	0.399	yaw:	33.093	yaw rate:	1.014	Roll:	0.197	Pitch:	-1.532	Yaw:	45.959	Thrust:	52.106
Time:	6.048	Roll Set Point:	-0.082	Pitch Set Point:	-0.036	Yaw Set Point:	-0.577	X_WP:	0.081	Y_WP:	0.155	Y_WP:	0.500	X:	0.099	Y:	0.096	Z:	0.399	yaw:	33.069	yaw rate:	-2.425	Roll:	0.080	Pitch:	-1.498	Yaw:	47.329	Thrust:	52.189
Time:	6.063	Roll Set Point:	-0.082	Pitch Set Point:	-0.036	Yaw Set Point:	-0.579	X_WP:	0.080	Y_WP:	0.155	Y_WP:	0.500	X:	0.099	Y:	0.096	Z:	0.399	yaw:	33.162	yaw rate:	9.308	Roll:	0.043	Pitch:	-1.488	Yaw:	49.425	Thrust:	52.390
Time:	6.079	Roll Set Point:	-0.082	Pitch Set Point:	-0.036	Yaw Set Point:	-0.579	X_WP:	0.080	Y_WP:	0.155	Y_WP:	0.500	X:	0.099	Y:	0.096	Z:	0.399	yaw:	33.162	yaw rate:	9.308	Roll:	0.092	Pitch:	-1.506	Yaw:	47.866	Thrust:	52.640
Time:	6.095	Roll Set Point:	-0.082	Pitch Set Point:	-0.036	Yaw Set Point:	-0.578	X_WP:	0.080	Y_WP:	0.155	Y_WP:	0.500	X:	0.099	Y:	0.096	Z:	0.399	yaw:	33.116	yaw rate:	2.407	Roll:	0.114	Pitch:	-1.519	Yaw:	47.024	Thrust:	52.992
Time:	6.110	Roll Set Point:	-0.082	Pitch Set Point:	-0.036	Yaw Set Point:	-0.578	X_WP:	0.081	Y_WP:	0.155	Y_WP:	0.500	X:	0.099	Y:	0.096	Z:	0.399	yaw:	33.099	yaw rate:	-1.680	Roll:	0.101	Pitch:	-1.519	Yaw:	47.496	Thrust:	52.996
Time:	6.126	Roll Set Point:	-0.082	Pitch Set Point:	-0.036	Yaw Set Point:	-0.578	X_WP:	0.081	Y_WP:	0.155	Y_WP:	0.500	X:	0.099	Y:	0.096	Z:	0.399	yaw:	33.100	yaw rate:	0.117	Roll:	0.089	Pitch:	-1.514	Yaw:	47.799	Thrust:	53.279
Time:	6.141	Roll Set Point:	-0.082	Pitch Set Point:	-0.036	Yaw Set Point:	-0.579	X_WP:	0.080	Y_WP:	0.155	Y_WP:	0.500	X:	0.099	Y:	0.096	Z:	0.399	yaw:	33.192	yaw rate:	9.202	Roll:	0.022	Pitch:	-1.491	Yaw:	49.449	Thrust:	53.286
Time:	6.157	Roll Set Point:	-0.082	Pitch Set Point:	-0.036	Yaw Set Point:	-0.578	X_WP:	0.080	Y_WP:	0.155	Y_WP:	0.500	X:	0.099	Y:	0.096	Z:	0.399	yaw:	33.099	yaw rate:	-9.352	Roll:	0.171	Pitch:	-1.544	Yaw:	46.210	Thrust:	53.611
Time:	6.173	Roll Set Point:	-0.082	Pitch Set Point:	-0.036	Yaw Set Point:	-0.578	X_WP:	0.080	Y_WP:	0.155	Y_WP:	0.500	X:	0.099	Y:	0.096	Z:	0.399	yaw:	33.099	yaw rate:	-9.352	Roll:	0.089	Pitch:	-1.521	Yaw:	47.777	Thrust:	53.789
Time:	6.188	Roll Set Point:	-0.082	Pitch Set Point:	-0.036	Yaw Set Point:	-0.577	X_WP:	0.081	Y_WP:	0.155	Y_WP:	0.500	X:	0.099	Y:	0.096	Z:	0.399	yaw:	33.080	yaw rate:	1.498	Roll:	0.075	Pitch:	-1.522	Yaw:	47.429	Thrust:	53.993
Time:	6.204	Roll Set Point:	-0.082	Pitch Set Point:	-0.036	Yaw Set Point:	-0.579	X_WP:	0.080	Y_WP:	0.155	Y_WP:	0.500	X:	0.099	Y:	0.096	Z:	0.399	yaw:	33.188	yaw rate:	10.880	Roll:	0.004	Pitch:	-1.496	Yaw:	49.725	Thrust:	54.052
Time:	6.220	Roll Set Point:	-0.082	Pitch Set Point:	-0.036	Yaw Set Point:	-0.578	X_WP:	0.081	Y_WP:	0.155	Y_WP:	0.500	X:	0.099	Y:	0.096	Z:	0.399	yaw:	33.110	yaw rate:	-7.874	Roll:	0.152	Pitch:	-1.549	Yaw:	46.473	Thrust:	54.454
Time:	6.235	Roll Set Point:	-0.082	Pitch Set Point:	-0.036	Yaw Set Point:	-0.578	X_WP:	0.081	Y_WP:	0.155	Y_WP:	0.500	X:	0.099	Y:	0.096	Z:	0.399	yaw:	33.110	yaw rate:	-7.874	Roll:	0.085	Pitch:	-1.530	Yaw:	47.792	Thrust:	54.541
Time:	6.251	Roll Set Point:	-0.082	Pitch Set Point:	-0.035	Yaw Set Point:	-0.578	X_WP:	0.080	Y_WP:	0.155	Y_WP:	0.500	X:	0.099	Y:	0.095	Z:	0.399	yaw:	33.113	yaw rate:	1.106	Roll:	0.061	Pitch:	-1.512	Yaw:	47.853	Thrust:	54.444
Time:	6.266	Roll Set Point:	-0.082	Pitch Set Point:	-0.036	Yaw Set Point:	-0.579	X_WP:	0.080	Y_WP:	0.155	Y_WP:	0.500	X:	0.099	Y:	0.096	Z:	0.399	yaw:	33.161	yaw rate:	4.794	Roll:	0.084	Pitch:	-1.535	Yaw:	48.667	Thrust:	55.157
Time:	6.282	Roll Set Point:	-0.082	Pitch Set Point:	-0.036	Yaw Set Point:	-0.577	X_WP:	0.081	Y_WP:	0.155	Y_WP:	0.500	X:	0.099	Y:	0.096	Z:	0.399	yaw:	33.083	yaw rate:	-7.835	Roll:	0.131	Pitch:	-1.560	Yaw:	46.442	Thrust:	55.218
Time:	6.298	Roll Set Point:	-0.082	Pitch Set Point:	-0.036	Yaw Set Point:	-0.577	X_WP:	0.081	Y_WP:	0.155	Y_WP:	0.500	X:	0.099	Y:	0.096	Z:	0.399	yaw:	33.063	yaw rate:	-1.946	Roll:	0.091	Pitch:	-1.545	Yaw:	47.401	Thrust:	55.041
Time:	6.313	Roll Set Point:	-0.082	Pitch Set Point:	-0.036	Yaw Set Point:	-0.577	X_WP:	0.081	Y_WP:	0.155	Y_WP:	0.500	X:	0.099	Y:	0.096	Z:	0.399	yaw:	33.063	yaw rate:	-1.946	Roll:	0.085	Pitch:	-1.542	Yaw:	47.731	Thrust:	55.607
Time:	6.329	Roll Set Point:	-0.082	Pitch Set Point:	-0.036	Yaw Set Point:	-0.578	X_WP:	0.080	Y_WP:	0.155	Y_WP:	0.500	X:	0.099	Y:	0.096	Z:	0.399	yaw:	33.100	yaw rate:	-3.048	Roll:	0.080	Pitch:	-1.544	Yaw:	48.402	Thrust:	56.006
Time:	6.345	Roll Set Point:	-0.082	Pitch Set Point:	-0.036	Yaw Set Point:	-0.578	X_WP:	0.080	Y_WP:	0.155	Y_WP:	0.500	X:	0.099	Y:	0.096	Z:	0.399	yaw:	33.100	yaw rate:	-3.048	Roll:	0.082	Pitch:	-1.547	Yaw:	47.779	Thrust:	55.854
Time:	6.360	Roll Set Point:	-0.082	Pitch Set Point:	-0.036	Yaw Set Point:	-0.578	X_WP:	0.080	Y_WP:	0.155	Y_WP:	0.500	X:	0.099	Y:	0.096	Z:	0.399	yaw:	33.128	yaw rate:	-2.829	Roll:	0.045	Pitch:	-1.541	Yaw:	48.281	Thrust:	55.964
