Time:	2.115	Roll Set Point:	-0.234	Pitch Set Point:	-0.122	Yaw Set Point:	-0.577	X_WP:	0.000	Y_WP:	0.000	Y_WP:	0.500	X:	0.099	Y:	0.096	Z:	0.399	yaw:	33.085	yaw rate:	1.113	Roll:	3.924	Pitch:	0.754	Yaw:	46.196	Thrust:	5.579
Time:	2.131	Roll Set Point:	-0.234	Pitch Set Point:	-0.122	Yaw Set Point:	-0.577	X_WP:	0.000	Y_WP:	0.000	Y_WP:	0.500	X:	0.099	Y:	0.096	Z:	0.399	yaw:	33.074	yaw rate:	-1.175	Roll:	3.920	Pitch:	0.809	Yaw:	46.164	Thrust:	5.854
Time:	2.146	Roll Set Point:	-0.234	Pitch Set Point:	-0.122	Yaw Set Point:	-0.577	X_WP:	0.000	Y_WP:	0.000	Y_WP:	0.500	X:	0.099	Y:	0.096	Z:	0.398	yaw:	33.084	yaw rate:	1.018	Roll:	3.941	Pitch:	0.708	Yaw:	46.725	Thrust:	6.086
Time:	2.162	Roll Set Point:	-0.234	Pitch Set Point:	-0.122	Yaw Set Point:	-0.577	X_WP:	0.000	Y_WP:	0.000	Y_WP:	0.500	X:	0.099	Y:	0.096	Z:	0.399	yaw:	33.077	yaw rate:	-3.551	Roll:	3.932	Pitch:	0.756	Yaw:	46.603	Thrust:	5.972
Time:	2.177	Roll Set Point:	-0.234	Pitch Set Point:	-0.122	Yaw Set Point:	-0.577	X_WP:	0.000	Y_WP:	0.000	Y_WP:	0.500	X:	0.099	Y:	0.096	Z:	0.399	yaw:	33.077	yaw rate:	-3.551	Roll:	3.945	Pitch:	0.758	Yaw:	46.905	Thrust:	6.340
Time:	2.193	Roll Set Point:	-0.234	Pitch Set Point:	-0.122	Yaw Set Point:	-0.577	X_WP:	0.000	Y_WP:	0.000	Y_WP:	0.500	X:	0.099	Y:	0.096	Z:	0.399	yaw:	33.072	yaw rate:	-0.436	Roll:	3.950	Pitch:	0.776	Yaw:	47.008	Thrust:	6.521
Time:	2.209	Roll Set Point:	-0.234	Pitch Set Point:	-0.122	Yaw Set Point:	-0.577	X_WP:	0.000	Y_WP:	0.000	Y_WP:	0.500	X:	0.099	Y:	0.096	Z:	0.399	yaw:	33.072	yaw rate:	-0.436	Roll:	3.955	Pitch:	0.760	Yaw:	47.258	Thrust:	6.719
Time:	2.224	Roll Set Point:	-0.234	Pitch Set Point:	-0.121	Yaw Set Point:	-0.579	X_WP:	0.000	Y_WP:	0.000	Y_WP:	0.500	X:	0.099	Y:	0.096	Z:	0.399	yaw:	33.148	yaw rate:	12.124	Roll:	3.935	Pitch:	0.586	Yaw:	48.820	Thrust:	6.735
Time:	2.240	Roll Set Point:	-0.234	Pitch Set Point:	-0.122	Yaw Set Point:	-0.578	X_WP:	0.000	Y_WP:	0.000	Y_WP:	0.500	X:	0.099	Y:	0.096	Z:	0.399	yaw:	33.138	yaw rate:	-1.029	Roll:	3.960	Pitch:	0.822	Yaw:	47.541	Thrust:	7.014
Time:	2.256	Roll Set Point:	-0.234	Pitch Set Point:	-0.122	Yaw Set Point:	-0.578	X_WP:	0.000	Y_WP:	0.000	Y_WP:	0.500	X:	0.099	Y:	0.096	Z:	0.399	yaw:	33.104	yaw rate:	-3.382	Roll:	4.020	Pitch:	0.823	Yaw:	47.218	Thrust:	7.664
Time:	2.271	Roll Set Point:	-0.234	Pitch Set Point:	-0.122	Yaw Set Point:	-0.578	X_WP:	0.000	Y_WP:	0.000	Y_WP:	0.500	X:	0.099	Y:	0.096	Z:	0.399	yaw:	33.135	yaw rate:	3.055	Roll:	3.934	Pitch:	0.690	Yaw:	48.339	Thrust:	7.221
Time:	2.287	Roll Set Point:	-0.234	Pitch Set Point:	-0.122	Yaw Set Point:	-0.577	X_WP:	0.000	Y_WP:	0.000	Y_WP:	0.500	X:	0.099	Y:	0.096	Z:	0.399	yaw:	33.085	yaw rate:	-4.920	Roll:	4.008	Pitch:	0.824	Yaw:	46.935	Thrust:	7.906
Time:	2.302	Roll Set Point:	-0.234	Pitch Set Point:	-0.122	Yaw Set Point:	-0.578	X_WP:	0.000	Y_WP:	0.000	Y_WP:	0.500	X:	0.099	Y:	0.096	Z:	0.399	yaw:	33.092	yaw rate:	0.695	Roll:	3.980	Pitch:	0.808	Yaw:	47.885	Thrust:	7.857
Time:	2.318	Roll Set Point:	-0.234	Pitch Set Point:	-0.122	Yaw Set Point:	-0.578	X_WP:	0.000	Y_WP:	0.000	Y_WP:	0.500	X:	0.099	Y:	0.096	Z:	0.399	yaw:	33.092	yaw rate:	0.695	Roll:	3.992	Pitch:	0.767	Yaw:	47.768	Thrust:	8.054
Time:	2.334	Roll Set Point:	-0.234	Pitch Set Point:	-0.122	Yaw Set Point:	-0.577	X_WP:	0.000	Y_WP:	0.000	Y_WP:	0.500	X:	0.099	Y:	0.096	Z:	0.399	yaw:	33.059	yaw rate:	-1.702	Roll:	3.982	Pitch:	0.857	Yaw:	47.156	Thrust:	8.252
Time:	2.349	Roll Set Point:	-0.234	Pitch Set Point:	-0.121	Yaw Set Point:	-0.579	X_WP:	0.000	Y_WP:	0.000	Y_WP:	0.500	X:	0.099	Y:	0.096	Z:	0.399	yaw:	33.154	yaw rate:	9.517	Roll:	4.012	Pitch:	0.491	Yaw:	49.449	Thrust:	8.168
Time:	2.365	Roll Set Point:	-0.234	Pitch Set Point:	-0.122	Yaw Set Point:	-0.576	X_WP:	0.000	Y_WP:	0.000	Y_WP:	0.500	X:	0.099	Y:	0.096	Z:	0.399	yaw:	33.028	yaw rate:	-12.542	Roll:	3.993	Pitch:	1.058	Yaw:	45.577	Thrust:	8.720
Time:	2.381	Roll Set Point:	-0.234	Pitch Set Point:	-0.122	Yaw Set Point:	-0.577	X_WP:	0.000	Y_WP:	0.000	Y_WP:	0.500	X:	0.099	Y:	0.096	Z:	0.399	yaw:	33.060	yaw rate:	3.174	Roll:	4.036	Pitch:	0.706	Yaw:	48.257	Thrust:	8.859
Time:	2.396	Roll Set Point:	-0.234	Pitch Set Point:	-0.122	Yaw Set Point:	-0.577	X_WP:	0.000	Y_WP:	0.000	Y_WP:	0.500	X:	0.099	Y:	0.096	Z:	0.399	yaw:	33.060	yaw rate:	3.174	Roll:	4.018	Pitch:	0.773	Yaw:	47.720	Thrust:	8.996
Time:	2.412	Roll Set Point:	-0.234	Pitch Set Point:	-0.122	Yaw Set Point:	-0.578	X_WP:	0.000	Y_WP:	0.000	Y_WP:	0.500	X:	0.099	Y:	0.096	Z:	0.399	yaw:	33.091	yaw rate:	2.042	Roll:	4.033	Pitch:	0.698	Yaw:	48.284	Thrust:	9.349
Time:	2.427	Roll Set Point:	-0.234	Pitch Set Point:	-0.122	Yaw Set Point:	-0.579	X_WP:	0.000	Y_WP:	0.000	Y_WP:	0.500	X:	0.099	Y:	0.096	Z:	0.399	yaw:	33.150	yaw rate:	5.859	Roll:	3.985	Pitch:	0.696	Yaw:	48.830	Thrust:	9.094
Time:	2.443	Roll Set Point:	-0.234	Pitch Set Point:	-0.122	Yaw Set Point:	-0.577	X_WP:	0.000	Y_WP:	0.000	Y_WP:	0.500	X:	0.099	Y:	0.096	Z:	0.399	yaw:	33.068	yaw rate:	-8.195	Roll:	4.062	Pitch:	0.904	Yaw:	46.363	Thrust:	9.759
Time:	2.459	Roll Set Point:	-0.234	Pitch Set Point:	-0.122	Yaw Set Point:	-0.577	X_WP:	0.000	Y_WP:	0.000	Y_WP:	0.500	X:	0.099	Y:	0.096	Z:	0.399	yaw:	33.068	yaw rate:	-8.195	Roll:	4.040	Pitch:	0.777	Yaw:	47.734	Thrust:	9.765
Time:	2.474	Roll Set Point:	-0.234	Pitch Set Point:	-0.122	Yaw Set Point:	-0.578	X_WP:	0.000	Y_WP:	0.000	Y_WP:	0.500	X:	0.099	Y:	0.096	Z:	0.398	yaw:	33.126	yaw rate:	5.247	Roll:	4.053	Pitch:	0.686	Yaw:	48.796	Thrust:	10.205
Time:	2.490	Roll Set Point:	-0.234	Pitch Set Point:	-0.121	Yaw Set Point:	-0.579	X_WP:	0.000	Y_WP:	0.000	Y_WP:	0.500	X:	0.099	Y:	0.096	Z:	0.399	yaw:	33.173	yaw rate:	4.684	Roll:	4.057	Pitch:	0.648	Yaw:	48.666	Thrust:	9.819
Time:	2.506	Roll Set Point:	-0.234	Pitch Set Point:	-0.122	Yaw Set Point:	-0.579	X_WP:	0.000	Y_WP:	0.000	Y_WP:	0.500	X:	0.099	Y:	0.096	Z:	0.399	yaw:	33.147	yaw rate:	-2.562	Roll:	4.024	Pitch:	0.917	Yaw:	47.416	Thrust:	10.277
Time:	2.521	Roll Set Point:	-0.234	Pitch Set Point:	-0.122	Yaw Set Point:	-0.577	X_WP:	0.000	Y_WP:	0.000	Y_WP:	0.500	X:	0.099	Y:	0.096	Z:	0.399	yaw:	33.073	yaw rate:	-7.462	Roll:	4.082	Pitch:	0.833	Yaw:	46.491	Thrust:	10.630
Time:	2.537	Roll Set Point:	-0.234	Pitch Set Point:	-0.122	Yaw Set Point:	-0.577	X_WP:	0.000	Y_WP:	0.000	Y_WP:	0.500	X:	0.099	Y:	0.096	Z:	0.399	yaw:	33.077	yaw rate:	0.447	Roll:	4.061	Pitch:	0.767	Yaw:	47.822	Thrust:	10.843
Time:	2.552	Roll Set Point:	-0.234	Pitch Set Point:	-0.122	Yaw Set Point:	-0.578	X_WP:	0.000	Y_WP:	0.000	Y_WP:	0.500	X:	0.099	Y:	0.096	Z:	0.399	yaw:	33.105	yaw rate:	2.741	Roll:	4.094	Pitch:	0.739	Yaw:	48.245	Thrust:	10.931
Time:	2.568	Roll Set Point:	-0.234	Pitch Set Point:	-0.122	Yaw Set Point:	-0.578	X_WP:	0.000	Y_WP:	0.000	Y_WP:	0.500	X:	0.099	Y:	0.096	Z:	0.398	yaw:	33.103	yaw rate:	-0.155	Roll:	4.067	Pitch:	0.855	Yaw:	47.757	Thrust:	11.133
Time:	2.584	Roll Set Point:	-0.234	Pitch Set Point:	-0.122	Yaw Set Point:	-0.578	X_WP:	0.000	Y_WP:	0.000	Y_WP:	0.500	X:	0.099	Y:	0.096	Z:	0.399	yaw:	33.090	yaw rate:	-1.351	Roll:	4.078	Pitch:	0.830	Yaw:	47.538	Thrust:	11.245
Time:	2.599	Roll Set Point:	-0.234	Pitch Set Point:	-0.122	Yaw Set Point:	-0.577	X_WP:	0.000	Y_WP:	0.000	Y_WP:	0.500	X:	0.099	Y:	0.096	Z:	0.399	yaw:	33.087	yaw rate:	-0.234	Roll:	4.082	Pitch:	0.683	Yaw:	47.722	Thrust:	11.418
Time:	2.615	Roll Set Point:	-0.234	Pitch Set Point:	-0.121	Yaw Set Point:	-0.579	X_WP:	0.000	Y_WP:	0.000	Y_WP:	0.500	X:	0.099	Y:	0.096	Z:	0.399	yaw:	33.160	yaw rate:	7.309	Roll:	4.074	Pitch:	0.674	Yaw:	49.088	Thrust:	11.483
Time:	2.631	Roll Set Point:	-0.234	Pitch Set Point:	-0.122	Yaw Set Point:	-0.577	X_WP:	0.000	Y_WP:	0.000	Y_WP:	0.500	X:	0.099	Y:	0.096	Z:	0.399	yaw:	33.057	yaw rate:	-10.307	Roll:	4.106	Pitch:	1.037	Yaw:	45.993	Thrust:	12.044
Time:	2.646	Roll Set Point:	-0.234	Pitch Set Point:	-0.122	Yaw Set Point:	-0.577	X_WP:	0.000	Y_WP:	0.000	Y_WP:	0.500	X:	0.099	Y:	0.096	Z:	0.399	yaw:	33.057	yaw rate:	-10.307	Roll:	4.103	Pitch:	0.791	Yaw:	47.720	Thrust:	12.049
Time:	2.662	Roll Set Point:	-0.234	Pitch Set Point:	-0.122	Yaw Set Point:	-0.578	X_WP:	0.000	Y_WP:	0.000	Y_WP:	0.500	X:	0.099	Y:	0.096	Z:	0.399	yaw:	33.107	yaw rate:	1.531	Roll:	4.151	Pitch:	0.645	Yaw:	48.626	Thrust:	12.261
Time:	2.677	Roll Set Point:	-0.234	Pitch Set Point:	-0.122	Yaw Set Point:	-0.578	X_WP:	0.000	Y_WP:	0.000	Y_WP:	0.500	X:	0.099	Y:	0.096	Z:	0.399	yaw:	33.107	yaw rate:	1.531	Roll:	4.114	Pitch:	0.789	Yaw:	47.789	Thrust:	12.430
Time:	2.693	Roll Set Point:	-0.234	Pitch Set Point:	-0.121	Yaw Set Point:	-0.579	X_WP:	0.000	Y_WP:	0.000	Y_WP:	0.500	X:	0.099	Y:	0.096	Z:	0.399	yaw:	33.161	yaw rate:	2.247	Roll:	4.080	Pitch:	0.671	Yaw:	48.763	Thrust:	12.281
Time:	2.709	Roll Set Point:	-0.234	Pitch Set Point:	-0.121	Yaw Set Point:	-0.579	X_WP:	0.000	Y_WP:	0.000	Y_WP:	0.500	X:	0.099	Y:	0.096	Z:	0.399	yaw:	33.161	yaw rate:	2.247	Roll:	4.124	Pitch:	0.788	Yaw:	47.864	Thrust:	12.803
Time:	2.724	Roll Set Point:	-0.234	Pitch Set Point:	-0.122	Yaw Set Point:	-0.578	X_WP:	0.000	Y_WP:	0.000	Y_WP:	0.500	X:	0.099	Y:	0.096	Z:	0.399	yaw:	33.101	yaw rate:	4.708	Roll:	4.163	Pitch:	0.940	Yaw:	46.767	Thrust:	13.333
Time:	2.740	Roll Set Point:	-0.234	Pitch Set Point:	-0.121	Yaw Set Point:	-0.579	X_WP:	0.000	Y_WP:	0.000	Y_WP:	0.500	X:	0.099	Y:	0.096	Z:	0.399	yaw:	33.154	yaw rate:	5.348	Roll:	4.084	Pitch:	0.665	Yaw:	48.750	Thrust:	12.941
Time:	2.756	Roll Set Point:	-0.234	Pitch Set Point:	-0.122	Yaw Set Point:	-0.578	X_WP:	0.000	Y_WP:	0.000	Y_WP:	0.500	X:	0.099	Y:	0.096	Z:	0.399	yaw:	33.089	yaw rate:	-6.539	Roll:	4.184	Pitch:	0.899	Yaw:	46.668	Thrust:	13.625
Time:	2.771	Roll Set Point:	-0.234	Pitch Set Point:	-0.122	Yaw Set Point:	-0.579	X_WP:	0.000	Y_WP:	0.000	Y_WP:	0.500	X:	0.099	Y:	0.096	Z:	0.399	yaw:	33.157	yaw rate:	6.825	Roll:	4.119	Pitch:	0.735	Yaw:	49.002	Thrust:	13.297
Time:	2.787	Roll Set Point:	-0.234	Pitch Set Point:	-0.122	Yaw Set Point:	-0.577	X_WP:	0.000	Y_WP:	0.000	Y_WP:	0.500	X:	0.099	Y:	0.096	Z:	0.399	yaw:	33.088	yaw rate:	-6.855	Roll:	4.173	Pitch:	0.927	Yaw:	46.614	Thrust:	14.067
Time:	2.802	Roll Set Point:	-0.234	Pitch Set Point:	-0.121	Yaw Set Point:	-0.579	X_WP:	0.000	Y_WP:	0.000	Y_WP:	0.500	X:	0.099	Y:	0.096	Z:	0.399	yaw:	33.185	yaw rate:	9.677	Roll:	4.153	Pitch:	0.573	Yaw:	49.519	Thrust:	13.849
Time:	2.818	Roll Set Point:	-0.234	Pitch Set Point:	-0.122	Yaw Set Point:	-0.578	X_WP:	0.000	Y_WP:	0.000	Y_WP:	0.500	X:	0.099	Y:	0.096	Z:	0.399	yaw:	33.129	yaw rate:	-5.596	Roll:	4.112	Pitch:	0.884	Yaw:	46.882	Thrust:	13.916
Time:	2.834	Roll Set Point:	-0.234	Pitch Set Point:	-0.122	Yaw Set Point:	-0.578	X_WP:	0.000	Y_WP:	0.000	Y_WP:	0.500	X:	0.099	Y:	0.096	Z:	0.399	yaw:	33.129	yaw rate:	-5.596	Roll:	4.165	Pitch:	0.798	Yaw:	47.820	Thrust:	14.326
Time:	2.849	Roll Set Point:	-0.234	Pitch Set Point:	-0.122	Yaw Set Point:	-0.578	X_WP:	0.000	Y_WP:	0.000	Y_WP:	0.500	X:	0.099	Y:	0.096	Z:	0.399	yaw:	33.101	yaw rate:	-2.769	Roll:	4.212	Pitch:	0.860	Yaw:	47.317	Thrust:	14.808
Time:	2.865	Roll Set Point:	-0.234	Pitch Set Point:	-0.122	Yaw Set Point:	-0.578	X_WP:	0.000	Y_WP:	0.000	Y_WP:	0.500	X:	0.099	Y:	0.096	Z:	0.399	yaw:	33.094	yaw rate:	-0.762	Roll:	4.201	Pitch:	0.868	Yaw:	47.643	Thrust:	14.688
Time:	2.881	Roll Set Point:	-0.234	Pitch Set Point:	-0.121	Yaw Set Point:	-0.579	X_WP:	0.000	Y_WP:	0.000	Y_WP:	0.500	X:	0.099	Y:	0.096	Z:	0.399	yaw:	33.172	yaw rate:	-0.786	Roll:	4.147	Pitch:	0.599	Yaw:	49.185	Thrust:	14.743
Time:	2.896	Roll Set Point:	-0.234	Pitch Set Point:	-0.122	Yaw Set Point:	-0.577	X_WP:	0.000	Y_WP:	0.000	Y_WP:	0.500	X:	0.099	Y:	0.096	Z:	0.399	yaw:	33.071	yaw rate:	-10.051	Roll:	4.197	Pitch:	1.070	Yaw:	46.055	Thrust:	15.193
Time:	2.912	Roll Set Point:	-0.234	Pitch Set Point:	-0.122	Yaw Set Point:	-0.577	X_WP:	0.000	Y_WP:	0.000	Y_WP:	0.500	X:	0.099	Y:	0.096	Z:	0.399	yaw:	33.054	yaw rate:	-1.719	Roll:	4.181	Pitch:	0.819	Yaw:	47.431	Thrust:	15.197
Time:	2.927	Roll Set Point:	-0.234	Pitch Set Point:	-0.122	Yaw Set Point:	-0.577	X_WP:	0.000	Y_WP:	0.000	Y_WP:	0.500	X:	0.099	Y:	0.096	Z:	0.399	yaw:	33.054	yaw rate:	-1.719	Roll:	4.197	Pitch:	0.809	Yaw:	47.712	Thrust:	15.449
Time:	2.943	Roll Set Point:	-0.234	Pitch Set Point:	-0.121	Yaw Set Point:	-0.579	X_WP:	0.000	Y_WP:	0.000	Y_WP:	0.500	X:	0.099	Y:	0.096	Z:	0.399	yaw:	33.173	yaw rate:	6.054	Roll:	4.211	Pitch:	0.519	Yaw:	49.876	Thrust:	15.676
Time:	2.959	Roll Set Point:	-0.234	Pitch Set Point:	-0.121	Yaw Set Point:	-0.579	X_WP:	0.000	Y_WP:	0.000	Y_WP:	0.500	X:	0.099	Y:	0.096	Z:	0.399	yaw:	33.173	yaw rate:	6.054	Roll:	4.209	Pitch:	0.804	Yaw:	47.881	Thrust:	15.850
Time:	2.974	Roll Set Point:	-0.234	Pitch Set Point:	-0.122	Yaw Set Point:	-0.577	X_WP:	0.000	Y_WP:	0.000	Y_WP:	0.500	X:	0.099	Y:	0.096	Z:	0.399	yaw:	33.067	yaw rate:	-10.611	Roll:	4.219	Pitch:	1.028	Yaw:	45.955	Thrust:	16.032
Time:	2.990	Roll Set Point:	-0.234	Pitch Set Point:	-0.122	Yaw Set Point:	-0.577	X_WP:	0.000	Y_WP:	0.000	Y_WP:	0.500	X:	0.099	Y:	0.096	Z:	0.399	yaw:	33.066	yaw rate:	0.351	Roll:	4.221	Pitch:	0.776	Yaw:	47.713	Thrust:	16.313
Time:	3.006	Roll Set Point:	-0.234	Pitch Set Point:	-0.121	Yaw Set Point:	-0.578	X_WP:	0.000	Y_WP:	0.000	Y_WP:	0.500	X:	0.099	Y:	0.096	Z:	0.399	yaw:	33.124	yaw rate:	5.829	Roll:	4.188	Pitch:	0.709	Yaw:	48.789	Thrust:	16.227
Time:	3.021	Roll Set Point:	-0.234	Pitch Set Point:	-0.122	Yaw Set Point:	-0.577	X_WP:	0.000	Y_WP:	0.000	Y_WP:	0.500	X:	0.099	Y:	0.096	Z:	0.399	yaw:	33.065	yaw rate:	-5.894	Roll:	4.262	Pitch:	0.973	Yaw:	46.743	Thrust:	16.922
Time:	3.037	Roll Set Point:	-0.234	Pitch Set Point:	-0.122	Yaw Set Point:	-0.578	X_WP:	0.000	Y_WP:	0.000	Y_WP:	0.500	X:	0.099	Y:	0.096	Z:	0.399	yaw:	33.090	yaw rate:	2.510	Roll:	4.252	Pitch:	0.774	Yaw:	48.174	Thrust:	16.601
Time:	3.052	Roll Set Point:	-0.234	Pitch Set Point:	-0.122	Yaw Set Point:	-0.578	X_WP:	0.000	Y_WP:	0.000	Y_WP:	0.500	X:	0.099	Y:	0.096	Z:	0.399	yaw:	33.090	yaw rate:	2.510	Roll:	4.241	Pitch:	0.815	Yaw:	47.766	Thrust:	16.999
Time:	3.068	Roll Set Point:	-0.234	Pitch Set Point:	-0.122	Yaw Set Point:	-0.577	X_WP:	0.000	Y_WP:	0.000	Y_WP:	0.500	X:	0.099	Y:	0.096	Z:	0.399	yaw:	33.079	yaw rate:	-1.100	Roll:	4.223	Pitch:	0.769	Yaw:	47.565	Thrust:	17.248
Time:	3.084	Roll Set Point:	-0.234	Pitch Set Point:	-0.122	Yaw Set Point:	-0.578	X_WP:	0.000	Y_WP:	0.000	Y_WP:	0.500	X:	0.099	Y:	0.096	Z:	0.399	yaw:	33.104	yaw rate:	2.497	Roll:	4.274	Pitch:	0.804	Yaw:	48.203	Thrust:	17.383
Time:	3.099	Roll Set Point:	-0.234	Pitch Set Point:	-0.122	Yaw Set Point:	-0.578	X_WP:	0.000	Y_WP:	0.000	Y_WP:	0.500	X:	0.099	Y:	0.096	Z:	0.399	yaw:	33.104	yaw rate:	2.497	Roll:	4.257	Pitch:	0.817	Yaw:	47.785	Thrust:	17.566
Time:	3.115	Roll Set Point:	-0.234	Pitch Set Point:	-0.122	Yaw Set Point:	-0.578	X_WP:	0.000	Y_WP:	0.000	Y_WP:	0.500	X:	0.099	Y:	0.096	Z:	0.399	yaw:	33.089	yaw rate:	-2.135	Roll:	4.254	Pitch:	0.855	Yaw:	47.508	Thrust:	17.691
Time:	3.130	Roll Set Point:	-0.234	Pitch Set Point:	-0.122	Yaw Set Point:	-0.577	X_WP:	0.000	Y_WP:	0.000	Y_WP:	0.500	X:	0.099	Y:	0.096	Z:	0.399	yaw:	33.062	yaw rate:	-2.723	Roll:	4.238	Pitch:	0.814	Yaw:	47.270	Thrust:	17.905
Time:	3.146	Roll Set Point:	-0.234	Pitch Set Point:	-0.122	Yaw Set Point:	-0.578	X_WP:	0.000	Y_WP:	0.000	Y_WP:	0.500	X:	0.099	Y:	0.096	Z:	0.399	yaw:	33.095	yaw rate:	3.330	Roll:	4.316	Pitch:	0.812	Yaw:	48.331	Thrust:	18.211
Time:	3.162	Roll Set Point:	-0.234	Pitch Set Point:	-0.122	Yaw Set Point:	-0.579	X_WP:	0.000	Y_WP:	0.000	Y_WP:	0.500	X:	0.099	Y:	0.096	Z:	0.399	yaw:	33.150	yaw rate:	5.444	Roll:	4.251	Pitch:	0.758	Yaw:	48.760	Thrust:	18.101
Time:	3.177	Roll Set Point:	-0.234	Pitch Set Point:	-0.122	Yaw Set Point:	-0.579	X_WP:	0.000	Y_WP:	0.000	Y_WP:	0.500	X:	0.099	Y:	0.096	Z:	0.399	yaw:	33.150	yaw rate:	5.444	Roll:	4.283	Pitch:	0.821	Yaw:	47.848	Thrust:	18.507
Time:	3.193	Roll Set Point:	-0.234	Pitch Set Point:	-0.122	Yaw Set Point:	-0.577	X_WP:	0.000	Y_WP:	0.000	Y_WP:	0.500	X:	0.099	Y:	0.096	Z:	0.399	yaw:	33.086	yaw rate:	-6.324	Roll:	4.280	Pitch:	0.896	Yaw:	46.700	Thrust:	18.909
Time:	3.209	Roll Set Point:	-0.234	Pitch Set Point:	-0.122	Yaw Set Point:	-0.578	X_WP:	0.000	Y_WP:	0.000	Y_WP:	0.500	X:	0.099	Y:	0.096	Z:	0.398	yaw:	33.093	yaw rate:	-9.361	Roll:	4.303	Pitch:	0.854	Yaw:	47.875	Thrust:	19.027
Time:	3.224	Roll Set Point:	-0.234	Pitch Set Point:	-0.122	Yaw Set Point:	-0.577	X_WP:	0.000	Y_WP:	0.000	Y_WP:	0.500	X:	0.099	Y:	0.096	Z:	0.399	yaw:	33.042	yaw rate:	-5.077	Roll:	4.276	Pitch:	0.859	Yaw:	46.847	Thrust:	18.797
Time:	3.240	Roll Set Point:	-0.234	Pitch Set Point:	-0.122	Yaw Set Point:	-0.577	X_WP:	0.000	Y_WP:	0.000	Y_WP:	0.500	X:	0.099	Y:	0.096	Z:	0.399	yaw:	33.080	yaw rate:	3.796	Roll:	4.330	Pitch:	0.768	Yaw:	48.387	Thrust:	19.421
Time:	3.255	Roll Set Point:	-0.234	Pitch Set Point:	-0.121	Yaw Set Point:	-0.578	X_WP:	0.000	Y_WP:	0.000	Y_WP:	0.500	X:	0.099	Y:	0.096	Z:	0.399	yaw:	33.137	yaw rate:	5.690	Roll:	4.277	Pitch:	0.690	Yaw:	48.784	Thrust:	19.170
Time:	3.271	Roll Set Point:	-0.234	Pitch Set Point:	-0.121	Yaw Set Point:	-0.578	X_WP:	0.000	Y_WP:	0.000	Y_WP:	0.500	X:	0.099	Y:	0.096	Z:	0.399	yaw:	33.137	yaw rate:	5.690	Roll:	4.314	Pitch:	0.825	Yaw:	47.830	Thrust:	19.652
Time:	3.287	Roll Set Point:	-0.234	Pitch Set Point:	-0.122	Yaw Set Point:	-0.578	X_WP:	0.000	Y_WP:	0.000	Y_WP:	0.500	X:	0.099	Y:	0.096	Z:	0.399	yaw:	33.095	yaw rate:	-4.159	Roll:	4.360	Pitch:	0.936	Yaw:	47.076	Thrust:	20.230
Time:	3.302	Roll Set Point:	-0.234	Pitch Set Point:	-0.122	Yaw Set Point:	-0.577	X_WP:	0.000	Y_WP:	0.000	Y_WP:	0.500	X:	0.099	Y:	0.096	Z:	0.399	yaw:	33.069	yaw rate:	1.430	Roll:	4.311	Pitch:	0.882	Yaw:	47.303	Thrust:	19.897
Time:	3.318	Roll Set Point:	-0.234	Pitch Set Point:	-0.122	Yaw Set Point:	-0.577	X_WP:	0.000	Y_WP:	0.000	Y_WP:	0.500	X:	0.099	Y:	0.096	Z:	0.399	yaw:	33.069	yaw rate:	1.430	Roll:	4.330	Pitch:	0.832	Yaw:	47.736	Thrust:	20.227
Time:	3.334	Roll Set Point:	-0.234	Pitch Set Point:	-0.122	Yaw Set Point:	-0.578	X_WP:	0.000	Y_WP:	0.000	Y_WP:	0.500	X:	0.099	Y:	0.096	Z:	0.398	yaw:	33.098	yaw rate:	-1.080	Roll:	4.365	Pitch:	0.776	Yaw:	48.253	Thrust:	20.630
Time:	3.349	Roll Set Point:	-0.234	Pitch Set Point:	-0.122	Yaw Set Point:	-0.578	X_WP:	0.000	Y_WP:	0.000	Y_WP:	0.500	X:	0.099	Y:	0.096	Z:	0.398	yaw:	33.098	yaw rate:	-1.080	Roll:	4.342	Pitch:	0.833	Yaw:	47.779	Thrust:	20.643
Time:	3.365	Roll Set Point:	-0.234	Pitch Set Point:	-0.122	Yaw Set Point:	-0.577	X_WP:	0.000	Y_WP:	0.000	Y_WP:	0.500	X:	0.099	Y:	0.096	Z:	0.399	yaw:	33.077	yaw rate:	-7.115	Roll:	4.315	Pitch:	0.908	Yaw:	47.393	Thrust:	20.619
Time:	3.381	Roll Set Point:	-0.234	Pitch Set Point:	-0.122	Yaw Set Point:	-0.577	X_WP:	0.000	Y_WP:	0.000	Y_WP:	0.500	X:	0.099	Y:	0.096	Z:	0.399	yaw:	33.077	yaw rate:	-7.115	Roll:	4.352	Pitch:	0.837	Yaw:	47.750	Thrust:	21.020
Time:	3.396	Roll Set Point:	-0.234	Pitch Set Point:	-0.122	Yaw Set Point:	-0.578	X_WP:	0.000	Y_WP:	0.000	Y_WP:	0.500	X:	0.099	Y:	0.096	Z:	0.399	yaw:	33.102	yaw rate:	2.517	Roll:	4.371	Pitch:	0.775	Yaw:	48.202	Thrust:	21.152
Time:	3.412	Roll Set Point:	-0.234	Pitch Set Point:	-0.122	Yaw Set Point:	-0.578	X_WP:	0.000	Y_WP:	0.000	Y_WP:	0.500	X:	0.099	Y:	0.096	Z:	0.399	yaw:	33.103	yaw rate:	0.082	Roll:	4.380	Pitch:	0.851	Yaw:	47.797	Thrust:	21.464
Time:	3.427	Roll Set Point:	-0.234	Pitch Set Point:	-0.122	Yaw Set Point:	-0.578	X_WP:	0.000	Y_WP:	0.000	Y_WP:	0.500	X:	0.099	Y:	0.096	Z:	0.399	yaw:	33.103	yaw rate:	0.082	Roll:	4.369	Pitch:	0.839	Yaw:	47.786	Thrust:	21.591
Time:	3.443	Roll Set Point:	-0.234	Pitch Set Point:	-0.122	Yaw Set Point:	-0.577	X_WP:	0.000	Y_WP:	0.000	Y_WP:	0.500	X:	0.099	Y:	0.096	Z:	0.399	yaw:	33.077	yaw rate:	-2.634	Roll:	4.349	Pitch:	0.858	Yaw:	47.305	Thrust:	21.581
Time:	3.459	Roll Set Point:	-0.234	Pitch Set Point:	-0.122	Yaw Set Point:	-0.577	X_WP:	0.000	Y_WP:	0.000	Y_WP:	0.500	X:	0.099	Y:	0.096	Z:	0.399	yaw:	33.074	yaw rate:	-0.697	Roll:	4.386	Pitch:	0.841	Yaw:	47.697	Thrust:	22.033
Time:	3.474	Roll Set Point:	-0.234	Pitch Set Point:	-0.122	Yaw Set Point:	-0.578	X_WP:	0.000	Y_WP:	0.000	Y_WP:	0.500	X:	0.099	Y:	0.096	Z:	0.399	yaw:	33.092	yaw rate:	1.828	Roll:	4.387	Pitch:	0.787	Yaw:	48.072	Thrust:	22.042
Time:	3.490	Roll Set Point:	-0.234	Pitch Set Point:	-0.122	Yaw Set Point:	-0.578	X_WP:	0.000	Y_WP:	0.000	Y_WP:	0.500	X:	0.099	Y:	0.096	Z:	0.399	yaw:	33.143	yaw rate:	5.051	Roll:	4.342	Pitch:	0.806	Yaw:	48.685	Thrust:	22.073
Time:	3.506	Roll Set Point:	-0.234	Pitch Set Point:	-0.122	Yaw Set Point:	-0.578	X_WP:	0.000	Y_WP:	0.000	Y_WP:	0.500	X:	0.099	Y:	0.096	Z:	0.399	yaw:	33.143	yaw rate:	5.051	Roll:	4.393	Pitch:	0.842	Yaw:	47.838	Thrust:	22.505
Time:	3.521	Roll Set Point:	-0.234	Pitch Set Point:	-0.122	Yaw Set Point:	-0.577	X_WP:	0.000	Y_WP:	0.000	Y_WP:	0.500	X:	0.099	Y:	0.096	Z:	0.399	yaw:	33.065	yaw rate:	-1.914	Roll:	4.444	Pitch:	0.968	Yaw:	46.439	Thrust:	22.980
Time:	3.537	Roll Set Point:	-0.234	Pitch Set Point:	-0.122	Yaw Set Point:	-0.577	X_WP:	0.000	Y_WP:	0.000	Y_WP:	0.500	X:	0.099	Y:	0.096	Z:	0.399	yaw:	33.050	yaw rate:	-1.470	Roll:	4.385	Pitch:	0.832	Yaw:	47.464	Thrust:	22.760
Time:	3.552	Roll Set Point:	-0.234	Pitch Set Point:	-0.122	Yaw Set Point:	-0.577	X_WP:	0.000	Y_WP:	0.000	Y_WP:	0.500	X:	0.099	Y:	0.096	Z:	0.399	yaw:	33.077	yaw rate:	2.637	Roll:	4.407	Pitch:	0.835	Yaw:	48.186	Thrust:	23.192
Time:	3.568	Roll Set Point:	-0.234	Pitch Set Point:	-0.122	Yaw Set Point:	-0.577	X_WP:	0.000	Y_WP:	0.000	Y_WP:	0.500	X:	0.099	Y:	0.096	Z:	0.399	yaw:	33.049	yaw rate:	-2.778	Roll:	4.412	Pitch:	0.882	Yaw:	47.246	Thrust:	23.143
Time:	3.584	Roll Set Point:	-0.234	Pitch Set Point:	-0.122	Yaw Set Point:	-0.577	X_WP:	0.000	Y_WP:	0.000	Y_WP:	0.500	X:	0.099	Y:	0.096	Z:	0.399	yaw:	33.052	yaw rate:	0.337	Roll:	4.420	Pitch:	0.891	Yaw:	47.767	Thrust:	23.522
Time:	3.599	Roll Set Point:	-0.234	Pitch Set Point:	-0.122	Yaw Set Point:	-0.577	X_WP:	0.000	Y_WP:	0.000	Y_WP:	0.500	X:	0.099	Y:	0.096	Z:	0.399	yaw:	33.085	yaw rate:	3.244	Roll:	4.439	Pitch:	0.778	Yaw:	48.304	Thrust:	23.863
Time:	3.615	Roll Set Point:	-0.234	Pitch Set Point:	-0.122	Yaw Set Point:	-0.577	X_WP:	0.000	Y_WP:	0.000	Y_WP:	0.500	X:	0.099	Y:	0.096	Z:	0.399	yaw:	33.085	yaw rate:	3.244	Roll:	4.431	Pitch:	0.851	Yaw:	47.758	Thrust:	23.841
Time:	3.631	Roll Set Point:	-0.234	Pitch Set Point:	-0.122	Yaw Set Point:	-0.577	X_WP:	0.000	Y_WP:	0.000	Y_WP:	0.500	X:	0.099	Y:	0.096	Z:	0.399	yaw:	33.080	yaw rate:	0.762	Roll:	4.428	Pitch:	0.900	Yaw:	47.673	Thrust:	23.967
Time:	3.646	Roll Set Point:	-0.234	Pitch Set Point:	-0.122	Yaw Set Point:	-0.578	X_WP:	0.000	Y_WP:	0.000	Y_WP:	0.500	X:	0.099	Y:	0.096	Z:	0.399	yaw:	33.096	yaw rate:	1.603	Roll:	4.461	Pitch:	0.794	Yaw:	48.043	Thrust:	24.225
Time:	3.662	Roll Set Point:	-0.234	Pitch Set Point:	-0.122	Yaw Set Point:	-0.578	X_WP:	0.000	Y_WP:	0.000	Y_WP:	0.500	X:	0.099	Y:	0.096	Z:	0.399	yaw:	33.096	yaw rate:	1.603	Roll:	4.447	Pitch:	0.854	Yaw:	47.774	Thrust:	24.415
Time:	3.677	Roll Set Point:	-0.234	Pitch Set Point:	-0.122	Yaw Set Point:	-0.577	X_WP:	0.000	Y_WP:	0.000	Y_WP:	0.500	X:	0.099	Y:	0.096	Z:	0.399	yaw:	33.087	yaw rate:	-0.915	Roll:	4.437	Pitch:	0.863	Yaw:	47.608	Thrust:	24.603
Time:	3.693	Roll Set Point:	-0.234	Pitch Set Point:	-0.122	Yaw Set Point:	-0.577	X_WP:	0.000	Y_WP:	0.000	Y_WP:	0.500	X:	0.099	Y:	0.096	Z:	0.399	yaw:	33.087	yaw rate:	-0.915	Roll:	4.457	Pitch:	0.856	Yaw:	47.761	Thrust:	24.797
Time:	3.709	Roll Set Point:	-0.234	Pitch Set Point:	-0.122	Yaw Set Point:	-0.578	X_WP:	0.000	Y_WP:	0.000	Y_WP:	0.500	X:	0.099	Y:	0.096	Z:	0.399	yaw:	33.091	yaw rate:	0.357	Roll:	4.476	Pitch:	0.850	Yaw:	47.826	Thrust:	24.956
Time:	3.724	Roll Set Point:	-0.234	Pitch Set Point:	-0.122	Yaw Set Point:	-0.577	X_WP:	0.000	Y_WP:	0.000	Y_WP:	0.500	X:	0.099	Y:	0.096	Z:	0.399	yaw:	33.053	yaw rate:	-2.963	Roll:	4.451	Pitch:	0.921	Yaw:	47.085	Thrust:	25.143
Time:	3.740	Roll Set Point:	-0.234	Pitch Set Point:	-0.122	Yaw Set Point:	-0.577	X_WP:	0.000	Y_WP:	0.000	Y_WP:	0.500	X:	0.099	Y:	0.096	Z:	0.399	yaw:	33.070	yaw rate:	1.698	Roll:	4.455	Pitch:	0.804	Yaw:	48.022	Thrust:	25.372
Time:	3.756	Roll Set Point:	-0.234	Pitch Set Point:	-0.122	Yaw Set Point:	-0.577	X_WP:	0.000	Y_WP:	0.000	Y_WP:	0.500	X:	0.099	Y:	0.096	Z:	0.399	yaw:	33.070	yaw rate:	1.698	Roll:	4.478	Pitch:	0.860	Yaw:	47.738	Thrust:	25.556
Time:	3.771	Roll Set Point:	-0.234	Pitch Set Point:	-0.122	Yaw Set Point:	-0.578	X_WP:	0.000	Y_WP:	0.000	Y_WP:	0.500	X:	0.099	Y:	0.096	Z:	0.399	yaw:	33.093	yaw rate:	-1.914	Roll:	4.514	Pitch:	0.838	Yaw:	48.146	Thrust:	25.732
Time:	3.787	Roll Set Point:	-0.234	Pitch Set Point:	-0.122	Yaw Set Point:	-0.577	X_WP:	0.000	Y_WP:	0.000	Y_WP:	0.500	X:	0.099	Y:	0.096	Z:	0.399	yaw:	33.088	yaw rate:	-0.491	Roll:	4.474	Pitch:	0.869	Yaw:	47.680	Thrust:	26.000
Time:	3.802	Roll Set Point:	-0.234	Pitch Set Point:	-0.122	Yaw Set Point:	-0.577	X_WP:	0.000	Y_WP:	0.000	Y_WP:	0.500	X:	0.099	Y:	0.096	Z:	0.399	yaw:	33.080	yaw rate:	-0.760	Roll:	4.471	Pitch:	0.853	Yaw:	47.624	Thrust:	26.019
Time:	3.818	Roll Set Point:	-0.234	Pitch Set Point:	-0.122	Yaw Set Point:	-0.578	X_WP:	0.000	Y_WP:	0.000	Y_WP:	0.500	X:	0.099	Y:	0.096	Z:	0.399	yaw:	33.095	yaw rate:	1.460	Roll:	4.538	Pitch:	0.911	Yaw:	48.016	Thrust:	26.415
Time:	3.834	Roll Set Point:	-0.234	Pitch Set Point:	-0.122	Yaw Set Point:	-0.579	X_WP:	0.000	Y_WP:	0.000	Y_WP:	0.500	X:	0.099	Y:	0.096	Z:	0.399	yaw:	33.166	yaw rate:	7.084	Roll:	4.486	Pitch:	0.761	Yaw:	49.057	Thrust:	26.273
Time:	3.849	Roll Set Point:	-0.234	Pitch Set Point:	-0.122	Yaw Set Point:	-0.577	X_WP:	0.000	Y_WP:	0.000	Y_WP:	0.500	X:	0.099	Y:	0.096	Z:	0.399	yaw:	33.088	yaw rate:	-7.804	Roll:	4.504	Pitch:	0.925	Yaw:	46.454	Thrust:	26.914
Time:	3.865	Roll Set Point:	-0.234	Pitch Set Point:	-0.122	Yaw Set Point:	-0.577	X_WP:	0.000	Y_WP:	0.000	Y_WP:	0.500	X:	0.099	Y:	0.096	Z:	0.399	yaw:	33.073	yaw rate:	-1.509	Roll:	4.500	Pitch:	0.860	Yaw:	47.488	Thrust:	26.828
Time:	3.881	Roll Set Point:	-0.234	Pitch Set Point:	-0.122	Yaw Set Point:	-0.577	X_WP:	0.000	Y_WP:	0.000	Y_WP:	0.500	X:	0.099	Y:	0.096	Z:	0.399	yaw:	33.074	yaw rate:	0.186	Roll:	4.526	Pitch:	0.898	Yaw:	47.774	Thrust:	27.010
Time:	3.896	Roll Set Point:	-0.234	Pitch Set Point:	-0.122	Yaw Set Point:	-0.577	X_WP:	0.000	Y_WP:	0.000	Y_WP:	0.500	X:	0.099	Y:	0.096	Z:	0.399	yaw:	33.069	yaw rate:	-0.588	Roll:	4.496	Pitch:	0.891	Yaw:	47.637	Thrust:	27.240
Time:	3.912	Roll Set Point:	-0.234	Pitch Set Point:	-0.122	Yaw Set Point:	-0.577	X_WP:	0.000	Y_WP:	0.000	Y_WP:	0.500	X:	0.099	Y:	0.096	Z:	0.399	yaw:	33.069	yaw rate:	-0.588	Roll:	4.509	Pitch:	0.871	Yaw:	47.735	Thrust:	27.456
Time:	3.927	Roll Set Point:	-0.234	Pitch Set Point:	-0.122	Yaw Set Point:	-0.577	X_WP:	0.000	Y_WP:	0.000	Y_WP:	0.500	X:	0.099	Y:	0.096	Z:	0.399	yaw:	33.075	yaw rate:	0.650	Roll:	4.504	Pitch:	0.809	Yaw:	47.853	Thrust:	27.689
Time:	3.943	Roll Set Point:	-0.234	Pitch Set Point:	-0.122	Yaw Set Point:	-0.576	X_WP:	0.000	Y_WP:	0.000	Y_WP:	0.500	X:	0.099	Y:	0.096	Z:	0.399	yaw:	33.023	yaw rate:	-5.187	Roll:	4.490	Pitch:	0.995	Yaw:	46.803	Thrust:	27.736
Time:	3.959	Roll Set Point:	-0.234	Pitch Set Point:	-0.122	Yaw Set Point:	-0.577	X_WP:	0.000	Y_WP:	0.000	Y_WP:	0.500	X:	0.099	Y:	0.096	Z:	0.399	yaw:	33.072	yaw rate:	1.386	Roll:	4.558	Pitch:	0.774	Yaw:	48.565	Thrust:	28.192
Time:	3.974	Roll Set Point:	-0.235	Pitch Set Point:	-0.122	Yaw Set Point:	-0.577	X_WP:	0.000	Y_WP:	0.000	Y_WP:	0.500	X:	0.099	Y:	0.096	Z:	0.399	yaw:	33.061	yaw rate:	-1.146	Roll:	4.504	Pitch:	0.844	Yaw:	47.533	Thrust:	28.134
Time:	3.990	Roll Set Point:	-0.234	Pitch Set Point:	-0.122	Yaw Set Point:	-0.579	X_WP:	0.000	Y_WP:	0.000	Y_WP:	0.500	X:	0.099	Y:	0.096	Z:	0.399	yaw:	33.170	yaw rate:	10.897	Roll:	4.518	Pitch:	0.789	Yaw:	49.702	Thrust:	28.516
Time:	4.006	Roll Set Point:	-0.234	Pitch Set Point:	-0.122	Yaw Set Point:	-0.578	X_WP:	0.000	Y_WP:	0.000	Y_WP:	0.500	X:	0.099	Y:	0.096	Z:	0.399	yaw:	33.090	yaw rate:	-8.015	Roll:	4.514	Pitch:	1.011	Yaw:	46.422	Thrust:	28.654
Time:	4.021	Roll Set Point:	-0.234	Pitch Set Point:	-0.122	Yaw Set Point:	-0.577	X_WP:	0.000	Y_WP:	0.000	Y_WP:	0.500	X:	0.099	Y:	0.096	Z:	0.399	yaw:	33.068	yaw rate:	-2.172	Roll:	4.490	Pitch:	0.900	Yaw:	47.370	Thrust:	28.683
Time:	4.035	Roll Set Point:	-0.234	Pitch Set Point:	-0.122	Yaw Set Point:	-0.577	X_WP:	0.000	Y_WP:	0.000	Y_WP:	0.500	X:	0.099	Y:	0.096	Z:	0.399	yaw:	33.053	yaw rate:	-1.484	Roll:	4.435	Pitch:	0.841	Yaw:	47.274	Thrust:	26.468
Time:	4.052	Roll Set Point:	-0.234	Pitch Set Point:	-0.122	Yaw Set Point:	-0.577	X_WP:	0.000	Y_WP:	0.000	Y_WP:	0.500	X:	0.099	Y:	0.096	Z:	0.399	yaw:	33.053	yaw rate:	-1.484	Roll:	4.554	Pitch:	0.889	Yaw:	47.832	Thrust:	30.961
Time:	4.068	Roll Set Point:	-0.234	Pitch Set Point:	-0.122	Yaw Set Point:	-0.578	X_WP:	0.000	Y_WP:	0.000	Y_WP:	0.500	X:	0.099	Y:	0.096	Z:	0.399	yaw:	33.100	yaw rate:	2.364	Roll:	4.544	Pitch:	0.874	Yaw:	48.565	Thrust:	29.470
Time:	4.083	Roll Set Point:	-0.234	Pitch Set Point:	-0.122	Yaw Set Point:	-0.577	X_WP:	0.000	Y_WP:	0.000	Y_WP:	0.500	X:	0.099	Y:	0.096	Z:	0.399	yaw:	33.064	yaw rate:	-3.656	Roll:	4.507	Pitch:	0.935	Yaw:	47.116	Thrust:	29.590
Time:	4.099	Roll Set Point:	-0.234	Pitch Set Point:	-0.122	Yaw Set Point:	-0.579	X_WP:	0.000	Y_WP:	0.000	Y_WP:	0.500	X:	0.099	Y:	0.096	Z:	0.399	yaw:	33.162	yaw rate:	9.862	Roll:	4.481	Pitch:	0.681	Yaw:	49.518	Thrust:	29.428
Time:	4.115	Roll Set Point:	-0.234	Pitch Set Point:	-0.122	Yaw Set Point:	-0.579	X_WP:	0.000	Y_WP:	0.000	Y_WP:	0.500	X:	0.099	Y:	0.096	Z:	0.399	yaw:	33.170	yaw rate:	0.812	Roll:	4.519	Pitch:	0.876	Yaw:	48.013	Thrust:	30.148
Time:	4.130	Roll Set Point:	-0.234	Pitch Set Point:	-0.122	Yaw Set Point:	-0.577	X_WP:	0.000	Y_WP:	0.000	Y_WP:	0.500	X:	0.099	Y:	0.096	Z:	0.399	yaw:	33.050	yaw rate:	-12.021	Roll:	4.524	Pitch:	1.099	Yaw:	45.695	Thrust:	30.041
Time:	4.146	Roll Set Point:	-0.234	Pitch Set Point:	-0.122	Yaw Set Point:	-0.577	X_WP:	0.000	Y_WP:	0.000	Y_WP:	0.500	X:	0.099	Y:	0.096	Z:	0.399	yaw:	33.050	yaw rate:	-12.021	Roll:	4.510	Pitch:	0.887	Yaw:	47.709	Thrust:	30.308
Time:	4.161	Roll Set Point:	-0.234	Pitch Set Point:	-0.122	Yaw Set Point:	-0.577	X_WP:	0.000	Y_WP:	0.000	Y_WP:	0.500	X:	0.099	Y:	0.096	Z:	0.399	yaw:	33.065	yaw rate:	1.471	Roll:	4.492	Pitch:	0.861	Yaw:	47.976	Thrust:	30.559
Time:	4.177	Roll Set Point:	-0.234	Pitch Set Point:	-0.122	Yaw Set Point:	-0.577	X_WP:	0.000	Y_WP:	0.000	Y_WP:	0.500	X:	0.099	Y:	0.096	Z:	0.399	yaw:	33.083	yaw rate:	1.530	Roll:	4.524	Pitch:	0.847	Yaw:	48.056	Thrust:	30.843
Time:	4.193	Roll Set Point:	-0.234	Pitch Set Point:	-0.122	Yaw Set Point:	-0.577	X_WP:	0.000	Y_WP:	0.000	Y_WP:	0.500	X:	0.099	Y:	0.096	Z:	0.399	yaw:	33.077	yaw rate:	-0.580	Roll:	4.510	Pitch:	0.974	Yaw:	47.649	Thrust:	30.823
Time:	4.208	Roll Set Point:	-0.234	Pitch Set Point:	-0.122	Yaw Set Point:	-0.578	X_WP:	0.000	Y_WP:	0.000	Y_WP:	0.500	X:	0.099	Y:	0.096	Z:	0.399	yaw:	33.097	yaw rate:	1.965	Roll:	4.515	Pitch:	0.815	Yaw:	48.106	Thrust:	31.102
Time:	4.224	Roll Set Point:	-0.234	Pitch Set Point:	-0.122	Yaw Set Point:	-0.578	X_WP:	0.000	Y_WP:	0.000	Y_WP:	0.500	X:	0.099	Y:	0.096	Z:	0.399	yaw:	33.097	yaw rate:	1.965	Roll:	4.510	Pitch:	0.891	Yaw:	47.774	Thrust:	31.262
Time:	4.240	Roll Set Point:	-0.234	Pitch Set Point:	-0.122	Yaw Set Point:	-0.577	X_WP:	0.000	Y_WP:	0.000	Y_WP:	0.500	X:	0.099	Y:	0.096	Z:	0.399	yaw:	33.042	yaw rate:	-4.418	Roll:	4.488	Pitch:	0.931	Yaw:	46.786	Thrust:	31.285
Time:	4.255	Roll Set Point:	-0.234	Pitch Set Point:	-0.122	Yaw Set Point:	-0.578	X_WP:	0.000	Y_WP:	0.000	Y_WP:	0.500	X:	0.099	Y:	0.096	Z:	0.399	yaw:	33.099	yaw rate:	5.628	Roll:	4.536	Pitch:	0.864	Yaw:	48.721	Thrust:	31.822
Time:	4.271	Roll Set Point:	-0.234	Pitch Set Point:	-0.122	Yaw Set Point:	-0.577	X_WP:	0.000	Y_WP:	0.000	Y_WP:	0.500	X:	0.099	Y:	0.096	Z:	0.399	yaw:	33.086	yaw rate:	-1.232	Roll:	4.513	Pitch:	0.883	Yaw:	47.550	Thrust:	31.805
Time:	4.286	Roll Set Point:	-0.234	Pitch Set Point:	-0.122	Yaw Set Point:	-0.576	X_WP:	0.000	Y_WP:	0.000	Y_WP:	0.500	X:	0.099	Y:	0.096	Z:	0.399	yaw:	33.026	yaw rate:	-6.001	Roll:	4.451	Pitch:	0.990	Yaw:	46.678	Thrust:	31.921
Time:	4.302	Roll Set Point:	-0.234	Pitch Set Point:	-0.122	Yaw Set Point:	-0.578	X_WP:	0.000	Y_WP:	0.000	Y_WP:	0.500	X:	0.099	Y:	0.096	Z:	0.399	yaw:	33.093	yaw rate:	6.715	Roll:	4.548	Pitch:	0.803	Yaw:	48.895	Thrust:	32.364
Time:	4.318	Roll Set Point:	-0.234	Pitch Set Point:	-0.122	Yaw Set Point:	-0.577	X_WP:	0.000	Y_WP:	0.000	Y_WP:	0.500	X:	0.099	Y:	0.096	Z:	0.399	yaw:	33.087	yaw rate:	-0.648	Roll:	4.539	Pitch:	0.917	Yaw:	47.652	Thrust:	32.277
Time:	4.333	Roll Set Point:	-0.234	Pitch Set Point:	-0.122	Yaw Set Point:	-0.579	X_WP:	0.000	Y_WP:	0.000	Y_WP:	0.500	X:	0.099	Y:	0.096	Z:	0.399	yaw:	33.155	yaw rate:	6.770	Roll:	4.471	Pitch:	0.836	Yaw:	48.989	Thrust:	32.526
Time:	4.349	Roll Set Point:	-0.234	Pitch Set Point:	-0.122	Yaw Set Point:	-0.579	X_WP:	0.000	Y_WP:	0.000	Y_WP:	0.500	X:	0.099	Y:	0.096	Z:	0.399	yaw:	33.155	yaw rate:	6.770	Roll:	4.508	Pitch:	0.898	Yaw:	47.852	Thrust:	32.726
Time:	4.365	Roll Set Point:	-0.234	Pitch Set Point:	-0.122	Yaw Set Point:	-0.578	X_WP:	0.000	Y_WP:	0.000	Y_WP:	0.500	X:	0.099	Y:	0.096	Z:	0.399	yaw:	33.119	yaw rate:	2.036	Roll:	4.481	Pitch:	0.877	Yaw:	47.216	Thrust:	32.867
Time:	4.380	Roll Set Point:	-0.234	Pitch Set Point:	-0.122	Yaw Set Point:	-0.578	X_WP:	0.000	Y_WP:	0.000	Y_WP:	0.500	X:	0.099	Y:	0.096	Z:	0.399	yaw:	33.119	yaw rate:	2.036	Roll:	4.507	Pitch:	0.899	Yaw:	47.803	Thrust:	33.104
Time:	4.396	Roll Set Point:	-0.234	Pitch Set Point:	-0.122	Yaw Set Point:	-0.577	X_WP:	0.000	Y_WP:	0.000	Y_WP:	0.500	X:	0.099	Y:	0.096	Z:	0.399	yaw:	33.079	yaw rate:	1.411	Roll:	4.548	Pitch:	1.054	Yaw:	47.084	Thrust:	33.743
Time:	4.411	Roll Set Point:	-0.234	Pitch Set Point:	-0.122	Yaw Set Point:	-0.578	X_WP:	0.000	Y_WP:	0.000	Y_WP:	0.500	X:	0.099	Y:	0.096	Z:	0.399	yaw:	33.100	yaw rate:	2.091	Roll:	4.510	Pitch:	0.764	Yaw:	48.130	Thrust:	33.457
Time:	4.427	Roll Set Point:	-0.234	Pitch Set Point:	-0.122	Yaw Set Point:	-0.578	X_WP:	0.000	Y_WP:	0.000	Y_WP:	0.500	X:	0.099	Y:	0.096	Z:	0.399	yaw:	33.090	yaw rate:	-1.052	Roll:	4.500	Pitch:	0.962	Yaw:	47.589	Thrust:	33.806
Time:	4.443	Roll Set Point:	-0.234	Pitch Set Point:	-0.122	Yaw Set Point:	-0.578	X_WP:	0.000	Y_WP:	0.000	Y_WP:	0.500	X:	0.099	Y:	0.096	Z:	0.399	yaw:	33.101	yaw rate:	1.075	Roll:	4.542	Pitch:	0.861	Yaw:	47.960	Thrust:	33.841
Time:	4.458	Roll Set Point:	-0.234	Pitch Set Point:	-0.122	Yaw Set Point:	-0.578	X_WP:	0.000	Y_WP:	0.000	Y_WP:	0.500	X:	0.099	Y:	0.096	Z:	0.399	yaw:	33.101	yaw rate:	1.075	Roll:	4.510	Pitch:	0.905	Yaw:	47.780	Thrust:	34.114
Time:	4.474	Roll Set Point:	-0.234	Pitch Set Point:	-0.122	Yaw Set Point:	-0.577	X_WP:	0.000	Y_WP:	0.000	Y_WP:	0.500	X:	0.099	Y:	0.096	Z:	0.399	yaw:	33.056	yaw rate:	-4.480	Roll:	4.469	Pitch:	1.033	Yaw:	46.967	Thrust:	34.362
Time:	4.490	Roll Set Point:	-0.234	Pitch Set Point:	-0.122	Yaw Set Point:	-0.578	X_WP:	0.000	Y_WP:	0.000	Y_WP:	0.500	X:	0.099	Y:	0.096	Z:	0.399	yaw:	33.099	yaw rate:	0.250	Roll:	4.530	Pitch:	0.788	Yaw:	48.503	Thrust:	34.536
Time:	4.505	Roll Set Point:	-0.234	Pitch Set Point:	-0.122	Yaw Set Point:	-0.578	X_WP:	0.000	Y_WP:	0.000	Y_WP:	0.500	X:	0.099	Y:	0.096	Z:	0.399	yaw:	33.113	yaw rate:	1.422	Roll:	4.517	Pitch:	0.934	Yaw:	48.036	Thrust:	34.712
Time:	4.521	Roll Set Point:	-0.234	Pitch Set Point:	-0.122	Yaw Set Point:	-0.578	X_WP:	0.000	Y_WP:	0.000	Y_WP:	0.500	X:	0.099	Y:	0.096	Z:	0.399	yaw:	33.113	yaw rate:	1.422	Roll:	4.510	Pitch:	0.910	Yaw:	47.798	Thrust:	34.881
Time:	4.536	Roll Set Point:	-0.234	Pitch Set Point:	-0.122	Yaw Set Point:	-0.578	X_WP:	0.000	Y_WP:	0.000	Y_WP:	0.500	X:	0.099	Y:	0.096	Z:	0.399	yaw:	33.094	yaw rate:	-1.962	Roll:	4.515	Pitch:	0.907	Yaw:	47.441	Thrust:	34.986
Time:	4.552	Roll Set Point:	-0.234	Pitch Set Point:	-0.122	Yaw Set Point:	-0.578	X_WP:	0.000	Y_WP:	0.000	Y_WP:	0.500	X:	0.099	Y:	0.096	Z:	0.398	yaw:	33.123	yaw rate:	2.949	Roll:	4.497	Pitch:	0.856	Yaw:	48.305	Thrust:	35.427
Time:	4.568	Roll Set Point:	-0.234	Pitch Set Point:	-0.122	Yaw Set Point:	-0.577	X_WP:	0.000	Y_WP:	0.000	Y_WP:	0.500	X:	0.099	Y:	0.096	Z:	0.399	yaw:	33.054	yaw rate:	-6.912	Roll:	4.485	Pitch:	0.990	Yaw:	46.557	Thrust:	35.121
Time:	4.583	Roll Set Point:	-0.234	Pitch Set Point:	-0.122	Yaw Set Point:	-0.578	X_WP:	0.000	Y_WP:	0.000	Y_WP:	0.500	X:	0.099	Y:	0.096	Z:	0.399	yaw:	33.110	yaw rate:	3.850	Roll:	4.553	Pitch:	0.902	Yaw:	48.723	Thrust:	35.845
Time:	4.599	Roll Set Point:	-0.234	Pitch Set Point:	-0.122	Yaw Set Point:	-0.577	X_WP:	0.000	Y_WP:	0.000	Y_WP:	0.500	X:	0.099	Y:	0.096	Z:	0.399	yaw:	33.068	yaw rate:	-4.132	Roll:	4.476	Pitch:	0.948	Yaw:	47.042	Thrust:	35.751
Time:	4.615	Roll Set Point:	-0.234	Pitch Set Point:	-0.122	Yaw Set Point:	-0.578	X_WP:	0.000	Y_WP:	0.000	Y_WP:	0.500	X:	0.099	Y:	0.096	Z:	0.398	yaw:	33.132	yaw rate:	6.413	Roll:	4.546	Pitch:	0.818	Yaw:	48.899	Thrust:	36.196
Time:	4.630	Roll Set Point:	-0.234	Pitch Set Point:	-0.122	Yaw Set Point:	-0.578	X_WP:	0.000	Y_WP:	0.000	Y_WP:	0.500	X:	0.099	Y:	0.096	Z:	0.398	yaw:	33.132	yaw rate:	6.413	Roll:	4.510	Pitch:	0.915	Yaw:	47.824	Thrust:	36.211
Time:	4.646	Roll Set Point:	-0.235	Pitch Set Point:	-0.122	Yaw Set Point:	-0.578	X_WP:	0.000	Y_WP:	0.000	Y_WP:	0.500	X:	0.099	Y:	0.096	Z:	0.399	yaw:	33.093	yaw rate:	-3.899	Roll:	4.523	Pitch:	0.963	Yaw:	47.117	Thrust:	36.228
Time:	4.661	Roll Set Point:	-0.234	Pitch Set Point:	-0.122	Yaw Set Point:	-0.578	X_WP:	0.000	Y_WP:	0.000	Y_WP:	0.500	X:	0.099	Y:	0.096	Z:	0.398	yaw:	33.117	yaw rate:	0.647	Roll:	4.494	Pitch:	0.853	Yaw:	48.201	Thrust:	36.707
Time:	4.677	Roll Set Point:	-0.234	Pitch Set Point:	-0.122	Yaw Set Point:	-0.578	X_WP:	0.000	Y_WP:	0.000	Y_WP:	0.500	X:	0.099	Y:	0.096	Z:	0.399	yaw:	33.097	yaw rate:	-2.033	Roll:	4.521	Pitch:	1.004	Yaw:	47.434	Thrust:	36.686
Time:	4.693	Roll Set Point:	-0.234	Pitch Set Point:	-0.122	Yaw Set Point:	-0.578	X_WP:	0.000	Y_WP:	0.000	Y_WP:	0.500	X:	0.099	Y:	0.096	Z:	0.399	yaw:	33.097	yaw rate:	-2.033	Roll:	4.510	Pitch:	0.921	Yaw:	47.775	Thrust:	36.969
Time:	4.708	Roll Set Point:	-0.234	Pitch Set Point:	-0.122	Yaw Set Point:	-0.577	X_WP:	0.000	Y_WP:	0.000	Y_WP:	0.500	X:	0.099	Y:	0.096	Z:	0.399	yaw:	33.080	yaw rate:	0.647	Roll:	4.460	Pitch:	0.885	Yaw:	47.476	Thrust:	37.140
Time:	4.724	Roll Set Point:	-0.234	Pitch Set Point:	-0.122	Yaw Set Point:	-0.577	X_WP:	0.000	Y_WP:	0.000	Y_WP:	0.500	X:	0.099	Y:	0.096	Z:	0.399	yaw:	33.078	yaw rate:	-0.239	Roll:	4.496	Pitch:	0.939	Yaw:	47.708	Thrust:	37.399
Time:	4.740	Roll Set Point:	-0.234	Pitch Set Point:	-0.122	Yaw Set Point:	-0.577	X_WP:	0.000	Y_WP:	0.000	Y_WP:	0.500	X:	0.099	Y:	0.096	Z:	0.399	yaw:	33.054	yaw rate:	-2.367	Roll:	4.533	Pitch:	1.039	Yaw:	47.323	Thrust:	37.491
Time:	4.755	Roll Set Point:	-0.234	Pitch Set Point:	-0.122	Yaw Set Point:	-0.577	X_WP:	0.000	Y_WP:	0.000	Y_WP:	0.500	X:	0.099	Y:	0.096	Z:	0.399	yaw:	33.075	yaw rate:	2.032	Roll:	4.528	Pitch:	0.923	Yaw:	48.082	Thrust:	37.749
Time:	4.771	Roll Set Point:	-0.234	Pitch Set Point:	-0.122	Yaw Set Point:	-0.577	X_WP:	0.000	Y_WP:	0.000	Y_WP:	0.500	X:	0.099	Y:	0.096	Z:	0.399	yaw:	33.073	yaw rate:	-0.131	Roll:	4.498	Pitch:	0.873	Yaw:	47.723	Thrust:	38.014
Time:	4.786	Roll Set Point:	-0.234	Pitch Set Point:	-0.122	Yaw Set Point:	-0.577	X_WP:	0.000	Y_WP:	0.000	Y_WP:	0.500	X:	0.099	Y:	0.096	Z:	0.399	yaw:	33.073	yaw rate:	-0.131	Roll:	4.509	Pitch:	0.928	Yaw:	47.742	Thrust:	38.113
Time:	4.802	Roll Set Point:	-0.234	Pitch Set Point:	-0.122	Yaw Set Point:	-0.577	X_WP:	0.000	Y_WP:	0.000	Y_WP:	0.500	X:	0.099	Y:	0.096	Z:	0.399	yaw:	33.058	yaw rate:	-5.823	Roll:	4.499	Pitch:	0.927	Yaw:	47.457	Thrust:	38.227
Time:	4.818	Roll Set Point:	-0.234	Pitch Set Point:	-0.122	Yaw Set Point:	-0.578	X_WP:	0.000	Y_WP:	0.000	Y_WP:	0.500	X:	0.099	Y:	0.096	Z:	0.399	yaw:	33.119	yaw rate:	6.127	Roll:	4.552	Pitch:	0.891	Yaw:	48.831	Thrust:	38.472
Time:	4.833	Roll Set Point:	-0.234	Pitch Set Point:	-0.122	Yaw Set Point:	-0.578	X_WP:	0.000	Y_WP:	0.000	Y_WP:	0.500	X:	0.099	Y:	0.096	Z:	0.399	yaw:	33.119	yaw rate:	6.127	Roll:	4.510	Pitch:	0.930	Yaw:	47.806	Thrust:	38.684
Time:	4.849	Roll Set Point:	-0.234	Pitch Set Point:	-0.122	Yaw Set Point:	-0.577	X_WP:	0.000	Y_WP:	0.000	Y_WP:	0.500	X:	0.099	Y:	0.096	Z:	0.399	yaw:	33.077	yaw rate:	-4.227	Roll:	4.466	Pitch:	0.945	Yaw:	47.042	Thrust:	38.984
Time:	4.865	Roll Set Point:	-0.234	Pitch Set Point:	-0.122	Yaw Set Point:	-0.577	X_WP:	0.000	Y_WP:	0.000	Y_WP:	0.500	X:	0.099	Y:	0.096	Z:	0.399	yaw:	33.076	yaw rate:	-0.045	Roll:	4.514	Pitch:	0.929	Yaw:	47.738	Thrust:	38.975
Time:	4.880	Roll Set Point:	-0.234	Pitch Set Point:	-0.122	Yaw Set Point:	-0.578	X_WP:	0.000	Y_WP:	0.000	Y_WP:	0.500	X:	0.099	Y:	0.096	Z:	0.399	yaw:	33.088	yaw rate:	1.219	Roll:	4.538	Pitch:	0.924	Yaw:	47.967	Thrust:	39.211
Time:	4.896	Roll Set Point:	-0.234	Pitch Set Point:	-0.122	Yaw Set Point:	-0.577	X_WP:	0.000	Y_WP:	0.000	Y_WP:	0.500	X:	0.099	Y:	0.096	Z:	0.399	yaw:	33.049	yaw rate:	-3.894	Roll:	4.482	Pitch:	1.018	Yaw:	47.052	Thrust:	39.436
Time:	4.912	Roll Set Point:	-0.234	Pitch Set Point:	-0.122	Yaw Set Point:	-0.577	X_WP:	0.000	Y_WP:	0.000	Y_WP:	0.500	X:	0.099	Y:	0.096	Z:	0.399	yaw:	33.049	yaw rate:	-3.894	Roll:	4.510	Pitch:	0.938	Yaw:	47.711	Thrust:	39.691
Time:	4.927	Roll Set Point:	-0.234	Pitch Set Point:	-0.122	Yaw Set Point:	-0.577	X_WP:	0.000	Y_WP:	0.000	Y_WP:	0.500	X:	0.099	Y:	0.096	Z:	0.399	yaw:	33.046	yaw rate:	-12.978	Roll:	4.500	Pitch:	0.916	Yaw:	47.637	Thrust:	39.662
Time:	4.943	Roll Set Point:	-0.234	Pitch Set Point:	-0.122	Yaw Set Point:	-0.577	X_WP:	0.000	Y_WP:	0.000	Y_WP:	0.500	X:	0.099	Y:	0.096	Z:	0.399	yaw:	33.046	yaw rate:	-12.978	Roll:	4.510	Pitch:	0.939	Yaw:	47.707	Thrust:	40.088
Time:	4.958	Roll Set Point:	-0.234	Pitch Set Point:	-0.122	Yaw Set Point:	-0.577	X_WP:	0.000	Y_WP:	0.000	Y_WP:	0.500	X:	0.099	Y:	0.096	Z:	0.399	yaw:	33.074	yaw rate:	2.783	Roll:	4.537	Pitch:	0.928	Yaw:	48.206	Thrust:	40.139
Time:	4.974	Roll Set Point:	-0.234	Pitch Set Point:	-0.122	Yaw Set Point:	-0.577	X_WP:	0.000	Y_WP:	0.000	Y_WP:	0.500	X:	0.099	Y:	0.096	Z:	0.399	yaw:	33.081	yaw rate:	0.764	Roll:	4.486	Pitch:	0.916	Yaw:	47.883	Thrust:	40.648
Time:	4.990	Roll Set Point:	-0.234	Pitch Set Point:	-0.122	Yaw Set Point:	-0.579	X_WP:	0.000	Y_WP:	0.000	Y_WP:	0.500	X:	0.099	Y:	0.096	Z:	0.399	yaw:	33.175	yaw rate:	0.631	Roll:	4.517	Pitch:	0.798	Yaw:	49.461	Thrust:	40.382
Time:	5.005	Roll Set Point:	-0.234	Pitch Set Point:	-0.122	Yaw Set Point:	-0.579	X_WP:	0.000	Y_WP:	0.000	Y_WP:	0.500	X:	0.099	Y:	0.096	Z:	0.399	yaw:	33.175	yaw rate:	0.631	Roll:	4.509	Pitch:	0.938	Yaw:	47.884	Thrust:	40.777
Time:	5.021	Roll Set Point:	-0.234	Pitch Set Point:	-0.122	Yaw Set Point:	-0.578	X_WP:	0.000	Y_WP:	0.000	Y_WP:	0.500	X:	0.099	Y:	0.096	Z:	0.399	yaw:	33.119	yaw rate:	-5.619	Roll:	4.552	Pitch:	1.067	Yaw:	46.864	Thrust:	41.141
Time:	5.037	Roll Set Point:	-0.234	Pitch Set Point:	-0.122	Yaw Set Point:	-0.578	X_WP:	0.000	Y_WP:	0.000	Y_WP:	0.500	X:	0.099	Y:	0.096	Z:	0.399	yaw:	33.139	yaw rate:	6.262	Roll:	4.428	Pitch:	0.854	Yaw:	48.162	Thrust:	40.987
Time:	5.053	Roll Set Point:	-0.234	Pitch Set Point:	-0.122	Yaw Set Point:	-0.578	X_WP:	0.000	Y_WP:	0.000	Y_WP:	0.500	X:	0.099	Y:	0.096	Z:	0.399	yaw:	33.139	yaw rate:	6.262	Roll:	4.548	Pitch:	0.955	Yaw:	47.939	Thrust:	43.776
Time:	5.069	Roll Set Point:	-0.234	Pitch Set Point:	-0.122	Yaw Set Point:	-0.577	X_WP:	0.000	Y_WP:	0.000	Y_WP:	0.500	X:	0.099	Y:	0.096	Z:	0.399	yaw:	33.080	yaw rate:	4.464	Roll:	4.558	Pitch:	1.104	Yaw:	46.771	Thrust:	41.664
Time:	5.084	Roll Set Point:	-0.234	Pitch Set Point:	-0.122	Yaw Set Point:	-0.577	X_WP:	0.000	Y_WP:	0.000	Y_WP:	0.500	X:	0.099	Y:	0.096	Z:	0.399	yaw:	33.080	yaw rate:	4.464	Roll:	4.510	Pitch:	0.949	Yaw:	47.751	Thrust:	41.728
Time:	5.100	Roll Set Point:	-0.234	Pitch Set Point:	-0.122	Yaw Set Point:	-0.577	X_WP:	0.000	Y_WP:	0.000	Y_WP:	0.500	X:	0.099	Y:	0.096	Z:	0.399	yaw:	33.071	yaw rate:	-3.396	Roll:	4.484	Pitch:	0.842	Yaw:	47.597	Thrust:	41.929
Time:	5.116	Roll Set Point:	-0.234	Pitch Set Point:	-0.122	Yaw Set Point:	-0.577	X_WP:	0.000	Y_WP:	0.000	Y_WP:	0.500	X:	0.099	Y:	0.096	Z:	0.399	yaw:	33.071	yaw rate:	-3.396	Roll:	4.508	Pitch:	0.947	Yaw:	47.736	Thrust:	42.030
Time:	5.131	Roll Set Point:	-0.234	Pitch Set Point:	-0.122	Yaw Set Point:	-0.577	X_WP:	0.000	Y_WP:	0.000	Y_WP:	0.500	X:	0.099	Y:	0.096	Z:	0.399	yaw:	33.070	yaw rate:	-0.125	Roll:	4.525	Pitch:	0.972	Yaw:	47.717	Thrust:	42.310
Time:	5.147	Roll Set Point:	-0.234	Pitch Set Point:	-0.122	Yaw Set Point:	-0.577	X_WP:	0.000	Y_WP:	0.000	Y_WP:	0.500	X:	0.099	Y:	0.096	Z:	0.399	yaw:	33.070	yaw rate:	-0.125	Roll:	4.509	Pitch:	0.950	Yaw:	47.737	Thrust:	42.486
Time:	5.163	Roll Set Point:	-0.234	Pitch Set Point:	-0.122	Yaw Set Point:	-0.577	X_WP:	0.000	Y_WP:	0.000	Y_WP:	0.500	X:	0.099	Y:	0.096	Z:	0.399	yaw:	33.075	yaw rate:	0.610	Roll:	4.489	Pitch:	0.954	Yaw:	47.828	Thrust:	42.672
Time:	5.178	Roll Set Point:	-0.234	Pitch Set Point:	-0.122	Yaw Set Point:	-0.577	X_WP:	0.000	Y_WP:	0.000	Y_WP:	0.500	X:	0.099	Y:	0.096	Z:	0.399	yaw:	33.075	yaw rate:	0.610	Roll:	4.509	Pitch:	0.953	Yaw:	47.744	Thrust:	42.867
Time:	5.194	Roll Set Point:	-0.234	Pitch Set Point:	-0.122	Yaw Set Point:	-0.577	X_WP:	0.000	Y_WP:	0.000	Y_WP:	0.500	X:	0.099	Y:	0.096	Z:	0.399	yaw:	33.075	yaw rate:	-3.176	Roll:	4.527	Pitch:	0.992	Yaw:	47.736	Thrust:	43.102
Time:	5.210	Roll Set Point:	-0.234	Pitch Set Point:	-0.122	Yaw Set Point:	-0.577	X_WP:	0.000	Y_WP:	0.000	Y_WP:	0.500	X:	0.099	Y:	0.096	Z:	0.399	yaw:	33.075	yaw rate:	-3.176	Roll:	4.510	Pitch:	0.956	Yaw:	47.745	Thrust:	43.271
Time:	5.225	Roll Set Point:	-0.234	Pitch Set Point:	-0.122	Yaw Set Point:	-0.577	X_WP:	0.000	Y_WP:	0.000	Y_WP:	0.500	X:	0.099	Y:	0.096	Z:	0.399	yaw:	33.063	yaw rate:	-1.159	Roll:	4.513	Pitch:	0.977	Yaw:	47.534	Thrust:	43.358
Time:	5.241	Roll Set Point:	-0.234	Pitch Set Point:	-0.121	Yaw Set Point:	-0.579	X_WP:	0.000	Y_WP:	0.000	Y_WP:	0.500	X:	0.099	Y:	0.096	Z:	0.399	yaw:	33.171	yaw rate:	7.837	Roll:	4.483	Pitch:	0.682	Yaw:	49.686	Thrust:	43.387
Time:	5.256	Roll Set Point:	-0.234	Pitch Set Point:	-0.122	Yaw Set Point:	-0.577	X_WP:	0.000	Y_WP:	0.000	Y_WP:	0.500	X:	0.099	Y:	0.096	Z:	0.399	yaw:	33.081	yaw rate:	-8.985	Roll:	4.541	Pitch:	1.217	Yaw:	46.247	Thrust:	44.098
Time:	5.272	Roll Set Point:	-0.234	Pitch Set Point:	-0.122	Yaw Set Point:	-0.577	X_WP:	0.000	Y_WP:	0.000	Y_WP:	0.500	X:	0.099	Y:	0.096	Z:	0.399	yaw:	33.074	yaw rate:	-0.675	Roll:	4.502	Pitch:	0.966	Yaw:	47.634	Thrust:	44.089
Time:	5.288	Roll Set Point:	-0.234	Pitch Set Point:	-0.121	Yaw Set Point:	-0.579	X_WP:	0.000	Y_WP:	0.000	Y_WP:	0.500	X:	0.099	Y:	0.096	Z:	0.399	yaw:	33.196	yaw rate:	12.203	Roll:	4.499	Pitch:	0.723	Yaw:	49.959	Thrust:	44.139
Time:	5.303	Roll Set Point:	-0.234	Pitch Set Point:	-0.122	Yaw Set Point:	-0.578	X_WP:	0.000	Y_WP:	0.000	Y_WP:	0.500	X:	0.099	Y:	0.096	Z:	0.399	yaw:	33.145	yaw rate:	-5.181	Roll:	4.481	Pitch:	1.032	Yaw:	46.974	Thrust:	44.225
Time:	5.319	Roll Set Point:	-0.234	Pitch Set Point:	-0.122	Yaw Set Point:	-0.577	X_WP:	0.000	Y_WP:	0.000	Y_WP:	0.500	X:	0.099	Y:	0.096	Z:	0.399	yaw:	33.081	yaw rate:	-6.359	Roll:	4.554	Pitch:	1.110	Yaw:	46.687	Thrust:	44.712
Time:	5.335	Roll Set Point:	-0.234	Pitch Set Point:	-0.122	Yaw Set Point:	-0.577	X_WP:	0.000	Y_WP:	0.000	Y_WP:	0.500	X:	0.099	Y:	0.096	Z:	0.399	yaw:	33.087	yaw rate:	0.609	Roll:	4.509	Pitch:	0.985	Yaw:	47.863	Thrust:	44.880
Time:	5.350	Roll Set Point:	-0.234	Pitch Set Point:	-0.122	Yaw Set Point:	-0.577	X_WP:	0.000	Y_WP:	0.000	Y_WP:	0.500	X:	0.099	Y:	0.096	Z:	0.399	yaw:	33.087	yaw rate:	0.609	Roll:	4.510	Pitch:	0.965	Yaw:	47.761	Thrust:	44.963
Time:	5.366	Roll Set Point:	-0.234	Pitch Set Point:	-0.122	Yaw Set Point:	-0.577	X_WP:	0.000	Y_WP:	0.000	Y_WP:	0.500	X:	0.099	Y:	0.096	Z:	0.399	yaw:	33.081	yaw rate:	-0.599	Roll:	4.491	Pitch:	0.864	Yaw:	47.652	Thrust:	45.119
Time:	5.381	Roll Set Point:	-0.234	Pitch Set Point:	-0.122	Yaw Set Point:	-0.579	X_WP:	0.000	Y_WP:	0.000	Y_WP:	0.500	X:	0.099	Y:	0.096	Z:	0.399	yaw:	33.152	yaw rate:	7.040	Roll:	4.482	Pitch:	0.893	Yaw:	49.030	Thrust:	45.211
Time:	5.397	Roll Set Point:	-0.234	Pitch Set Point:	-0.122	Yaw Set Point:	-0.578	X_WP:	0.000	Y_WP:	0.000	Y_WP:	0.500	X:	0.099	Y:	0.096	Z:	0.399	yaw:	33.140	yaw rate:	4.322	Roll:	4.532	Pitch:	1.024	Yaw:	47.639	Thrust:	45.396
Time:	5.413	Roll Set Point:	-0.234	Pitch Set Point:	-0.122	Yaw Set Point:	-0.577	X_WP:	0.000	Y_WP:	0.000	Y_WP:	0.500	X:	0.099	Y:	0.096	Z:	0.399	yaw:	33.085	yaw rate:	-5.515	Roll:	4.524	Pitch:	1.033	Yaw:	46.834	Thrust:	46.029
Time:	5.428	Roll Set Point:	-0.234	Pitch Set Point:	-0.122	Yaw Set Point:	-0.577	X_WP:	0.000	Y_WP:	0.000	Y_WP:	0.500	X:	0.099	Y:	0.096	Z:	0.399	yaw:	33.042	yaw rate:	-4.321	Roll:	4.483	Pitch:	0.978	Yaw:	46.974	Thrust:	45.728
Time:	5.444	Roll Set Point:	-0.234	Pitch Set Point:	-0.122	Yaw Set Point:	-0.577	X_WP:	0.000	Y_WP:	0.000	Y_WP:	0.500	X:	0.099	Y:	0.096	Z:	0.399	yaw:	33.069	yaw rate:	2.727	Roll:	4.540	Pitch:	0.989	Yaw:	48.192	Thrust:	46.187
Time:	5.460	Roll Set Point:	-0.234	Pitch Set Point:	-0.122	Yaw Set Point:	-0.577	X_WP:	0.000	Y_WP:	0.000	Y_WP:	0.500	X:	0.099	Y:	0.096	Z:	0.399	yaw:	33.069	yaw rate:	2.727	Roll:	4.510	Pitch:	0.972	Yaw:	47.735	Thrust:	46.291
Time:	5.475	Roll Set Point:	-0.234	Pitch Set Point:	-0.122	Yaw Set Point:	-0.577	X_WP:	0.000	Y_WP:	0.000	Y_WP:	0.500	X:	0.099	Y:	0.096	Z:	0.399	yaw:	33.077	yaw rate:	0.857	Roll:	4.507	Pitch:	0.968	Yaw:	47.893	Thrust:	46.518
Time:	5.491	Roll Set Point:	-0.234	Pitch Set Point:	-0.122	Yaw Set Point:	-0.579	X_WP:	0.000	Y_WP:	0.000	Y_WP:	0.500	X:	0.099	Y:	0.096	Z:	0.399	yaw:	33.153	yaw rate:	7.558	Roll:	4.482	Pitch:	0.830	Yaw:	49.119	Thrust:	46.590
Time:	5.506	Roll Set Point:	-0.234	Pitch Set Point:	-0.122	Yaw Set Point:	-0.578	X_WP:	0.000	Y_WP:	0.000	Y_WP:	0.500	X:	0.099	Y:	0.096	Z:	0.399	yaw:	33.095	yaw rate:	-5.793	Roll:	4.558	Pitch:	1.073	Yaw:	46.801	Thrust:	47.023
Time:	5.522	Roll Set Point:	-0.234	Pitch Set Point:	-0.122	Yaw Set Point:	-0.578	X_WP:	0.000	Y_WP:	0.000	Y_WP:	0.500	X:	0.099	Y:	0.096	Z:	0.399	yaw:	33.095	yaw rate:	-5.793	Roll:	4.509	Pitch:	0.974	Yaw:	47.769	Thrust:	46.978
Time:	5.538	Roll Set Point:	-0.234	Pitch Set Point:	-0.122	Yaw Set Point:	-0.579	X_WP:	0.000	Y_WP:	0.000	Y_WP:	0.500	X:	0.099	Y:	0.096	Z:	0.399	yaw:	33.153	yaw rate:	5.789	Roll:	4.472	Pitch:	0.935	Yaw:	48.823	Thrust:	47.020
Time:	5.553	Roll Set Point:	-0.234	Pitch Set Point:	-0.122	Yaw Set Point:	-0.579	X_WP:	0.000	Y_WP:	0.000	Y_WP:	0.500	X:	0.099	Y:	0.096	Z:	0.399	yaw:	33.153	yaw rate:	5.789	Roll:	4.511	Pitch:	0.976	Yaw:	47.857	Thrust:	47.551
Time:	5.569	Roll Set Point:	-0.234	Pitch Set Point:	-0.122	Yaw Set Point:	-0.577	X_WP:	0.000	Y_WP:	0.000	Y_WP:	0.500	X:	0.099	Y:	0.096	Z:	0.399	yaw:	33.086	yaw rate:	-2.916	Roll:	4.537	Pitch:	0.999	Yaw:	46.630	Thrust:	47.685
Time:	5.585	Roll Set Point:	-0.234	Pitch Set Point:	-0.122	Yaw Set Point:	-0.577	X_WP:	0.000	Y_WP:	0.000	Y_WP:	0.500	X:	0.099	Y:	0.096	Z:	0.399	yaw:	33.062	yaw rate:	-2.341	Roll:	4.498	Pitch:	1.088	Yaw:	47.334	Thrust:	47.882
Time:	5.600	Roll Set Point:	-0.234	Pitch Set Point:	-0.122	Yaw Set Point:	-0.577	X_WP:	0.000	Y_WP:	0.000	Y_WP:	0.500	X:	0.099	Y:	0.096	Z:	0.399	yaw:	33.062	yaw rate:	-2.341	Roll:	4.508	Pitch:	0.982	Yaw:	47.724	Thrust:	47.932
Time:	5.616	Roll Set Point:	-0.234	Pitch Set Point:	-0.122	Yaw Set Point:	-0.578	X_WP:	0.000	Y_WP:	0.000	Y_WP:	0.500	X:	0.099	Y:	0.096	Z:	0.399	yaw:	33.132	yaw rate:	-4.018	Roll:	4.538	Pitch:	0.789	Yaw:	49.001	Thrust:	48.316
Time:	5.631	Roll Set Point:	-0.234	Pitch Set Point:	-0.122	Yaw Set Point:	-0.578	X_WP:	0.000	Y_WP:	0.000	Y_WP:	0.500	X:	0.099	Y:	0.096	Z:	0.399	yaw:	33.132	yaw rate:	-4.018	Roll:	4.510	Pitch:	0.979	Yaw:	47.824	Thrust:	48.372
Time:	5.647	Roll Set Point:	-0.234	Pitch Set Point:	-0.122	Yaw Set Point:	-0.577	X_WP:	0.000	Y_WP:	0.000	Y_WP:	0.500	X:	0.099	Y:	0.096	Z:	0.399	yaw:	33.080	yaw rate:	1.260	Roll:	4.507	Pitch:	1.111	Yaw:	46.873	Thrust:	48.532
Time:	5.663	Roll Set Point:	-0.234	Pitch Set Point:	-0.122	Yaw Set Point:	-0.577	X_WP:	0.000	Y_WP:	0.000	Y_WP:	0.500	X:	0.099	Y:	0.096	Z:	0.399	yaw:	33.080	yaw rate:	1.260	Roll:	4.509	Pitch:	0.984	Yaw:	47.749	Thrust:	48.698
Time:	5.678	Roll Set Point:	-0.234	Pitch Set Point:	-0.122	Yaw Set Point:	-0.578	X_WP:	0.000	Y_WP:	0.000	Y_WP:	0.500	X:	0.099	Y:	0.096	Z:	0.399	yaw:	33.117	yaw rate:	4.213	Roll:	4.510	Pitch:	0.872	Yaw:	48.428	Thrust:	48.994
Time:	5.694	Roll Set Point:	-0.234	Pitch Set Point:	-0.122	Yaw Set Point:	-0.578	X_WP:	0.000	Y_WP:	0.000	Y_WP:	0.500	X:	0.099	Y:	0.096	Z:	0.399	yaw:	33.117	yaw rate:	4.213	Roll:	4.511	Pitch:	0.984	Yaw:	47.806	Thrust:	49.219
Time:	5.710	Roll Set Point:	-0.234	Pitch Set Point:	-0.122	Yaw Set Point:	-0.577	X_WP:	0.000	Y_WP:	0.000	Y_WP:	0.500	X:	0.099	Y:	0.096	Z:	0.399	yaw:	33.048	yaw rate:	-6.885	Roll:	4.485	Pitch:	1.159	Yaw:	46.554	Thrust:	49.276
Time:	5.725	Roll Set Point:	-0.234	Pitch Set Point:	-0.122	Yaw Set Point:	-0.577	X_WP:	0.000	Y_WP:	0.000	Y_WP:	0.500	X:	0.099	Y:	0.096	Z:	0.399	yaw:	33.077	yaw rate:	2.876	Roll:	4.506	Pitch:	0.919	Yaw:	48.227	Thrust:	49.450
Time:	5.741	Roll Set Point:	-0.234	Pitch Set Point:	-0.122	Yaw Set Point:	-0.577	X_WP:	0.000	Y_WP:	0.000	Y_WP:	0.500	X:	0.099	Y:	0.096	Z:	0.399	yaw:	33.077	yaw rate:	2.876	Roll:	4.511	Pitch:	0.990	Yaw:	47.750	Thrust:	49.803
Time:	5.756	Roll Set Point:	-0.234	Pitch Set Point:	-0.122	Yaw Set Point:	-0.577	X_WP:	0.000	Y_WP:	0.000	Y_WP:	0.500	X:	0.099	Y:	0.096	Z:	0.399	yaw:	33.049	yaw rate:	-2.790	Roll:	4.503	Pitch:	1.025	Yaw:	47.236	Thrust:	49.711
Time:	5.772	Roll Set Point:	-0.235	Pitch Set Point:	-0.122	Yaw Set Point:	-0.577	X_WP:	0.000	Y_WP:	0.000	Y_WP:	0.500	X:	0.099	Y:	0.096	Z:	0.399	yaw:	33.082	yaw rate:	3.243	Roll:	4.542	Pitch:	0.950	Yaw:	48.299	Thrust:	50.301
Time:	5.788	Roll Set Point:	-0.234	Pitch Set Point:	-0.122	Yaw Set Point:	-0.577	X_WP:	0.000	Y_WP:	0.000	Y_WP:	0.500	X:	0.099	Y:	0.096	Z:	0.399	yaw:	33.082	yaw rate:	0.337	Roll:	4.478	Pitch:	0.971	Yaw:	47.750	Thrust:	50.221
Time:	5.803	Roll Set Point:	-0.234	Pitch Set Point:	-0.122	Yaw Set Point:	-0.578	X_WP:	0.000	Y_WP:	0.000	Y_WP:	0.500	X:	0.099	Y:	0.096	Z:	0.399	yaw:	33.091	yaw rate:	0.904	Roll:	4.515	Pitch:	0.941	Yaw:	47.918	Thrust:	50.320
Time:	5.819	Roll Set Point:	-0.234	Pitch Set Point:	-0.122	Yaw Set Point:	-0.578	X_WP:	0.000	Y_WP:	0.000	Y_WP:	0.500	X:	0.099	Y:	0.096	Z:	0.398	yaw:	33.093	yaw rate:	0.189	Roll:	4.542	Pitch:	1.126	Yaw:	47.800	Thrust:	50.961
Time:	5.835	Roll Set Point:	-0.235	Pitch Set Point:	-0.122	Yaw Set Point:	-0.577	X_WP:	0.000	Y_WP:	0.000	Y_WP:	0.500	X:	0.099	Y:	0.096	Z:	0.399	yaw:	33.046	yaw rate:	-4.632	Roll:	4.490	Pitch:	1.006	Yaw:	46.928	Thrust:	50.600
Time:	5.850	Roll Set Point:	-0.235	Pitch Set Point:	-0.122	Yaw Set Point:	-0.577	X_WP:	0.000	Y_WP:	0.000	Y_WP:	0.500	X:	0.099	Y:	0.096	Z:	0.399	yaw:	33.046	yaw rate:	-4.632	Roll:	4.510	Pitch:	0.998	Yaw:	47.704	Thrust:	51.046
Time:	5.866	Roll Set Point:	-0.234	Pitch Set Point:	-0.122	Yaw Set Point:	-0.577	X_WP:	0.000	Y_WP:	0.000	Y_WP:	0.500	X:	0.099	Y:	0.096	Z:	0.399	yaw:	33.076	yaw rate:	3.007	Roll:	4.498	Pitch:	0.947	Yaw:	48.236	Thrust:	51.286
Time:	5.881	Roll Set Point:	-0.234	Pitch Set Point:	-0.122	Yaw Set Point:	-0.577	X_WP:	0.000	Y_WP:	0.000	Y_WP:	0.500	X:	0.099	Y:	0.096	Z:	0.399	yaw:	33.074	yaw rate:	-0.119	Roll:	4.530	Pitch:	1.041	Yaw:	47.727	Thrust:	51.570
Time:	5.897	Roll Set Point:	-0.234	Pitch Set Point:	-0.122	Yaw Set Point:	-0.577	X_WP:	0.000	Y_WP:	0.000	Y_WP:	0.500	X:	0.099	Y:	0.096	Z:	0.399	yaw:	33.086	yaw rate:	1.177	Roll:	4.513	Pitch:	0.931	Yaw:	47.954	Thrust:	51.497
Time:	5.913	Roll Set Point:	-0.234	Pitch Set Point:	-0.122	Yaw Set Point:	-0.577	X_WP:	0.000	Y_WP:	0.000	Y_WP:	0.500	X:	0.099	Y:	0.096	Z:	0.399	yaw:	33.048	yaw rate:	-3.868	Roll:	4.465	Pitch:	1.041	Yaw:	47.058	Thrust:	51.719
Time:	5.928	Roll Set Point:	-0.234	Pitch Set Point:	-0.122	Yaw Set Point:	-0.578	X_WP:	0.000	Y_WP:	0.000	Y_WP:	0.500	X:	0.099	Y:	0.096	Z:	0.398	yaw:	33.096	yaw rate:	4.862	Roll:	4.538	Pitch:	1.029	Yaw:	48.588	Thrust:	52.284
Time:	5.944	Roll Set Point:	-0.234	Pitch Set Point:	-0.122	Yaw Set Point:	-0.578	X_WP:	0.000	Y_WP:	0.000	Y_WP:	0.500	X:	0.099	Y:	0.096	Z:	0.398	yaw:	33.096	yaw rate:	4.862	Roll:	4.510	Pitch:	1.004	Yaw:	47.774	Thrust:	52.191
Time:	5.960	Roll Set Point:	-0.234	Pitch Set Point:	-0.122	Yaw Set Point:	-0.578	X_WP:	0.000	Y_WP:	0.000	Y_WP:	0.500	X:	0.099	Y:	0.096	Z:	0.399	yaw:	33.090	yaw rate:	2.923	Roll:	4.527	Pitch:	0.968	Yaw:	47.670	Thrust:	52.274
Time:	5.975	Roll Set Point:	-0.234	Pitch Set Point:	-0.122	Yaw Set Point:	-0.578	X_WP:	0.000	Y_WP:	0.000	Y_WP:	0.500	X:	0.099	Y:	0.096	Z:	0.399	yaw:	33.090	yaw rate:	2.923	Roll:	4.510	Pitch:	1.005	Yaw:	47.765	Thrust:	52.567
Time:	5.991	Roll Set Point:	-0.234	Pitch Set Point:	-0.122	Yaw Set Point:	-0.578	X_WP:	0.000	Y_WP:	0.000	Y_WP:	0.500	X:	0.099	Y:	0.096	Z:	0.399	yaw:	33.139	yaw rate:	9.312	Roll:	4.457	Pitch:	0.890	Yaw:	48.655	Thrust:	52.366
Time:	6.006	Roll Set Point:	-0.081	Pitch Set Point:	-0.036	Yaw Set Point:	-0.577	X_WP:	0.082	Y_WP:	0.156	Y_WP:	0.500	X:	0.099	Y:	0.096	Z:	0.399	yaw:	33.079	yaw rate:	-6.089	Roll:	-30.000	Pitch:	-30.000	Yaw:	46.729	Thrust:	53.260
Time:	6.025	Roll Set Point:	-0.081	Pitch Set Point:	-0.036	Yaw Set Point:	-0.578	X_WP:	0.082	Y_WP:	0.156	Y_WP:	0.500	X:	0.099	Y:	0.096	Z:	0.398	yaw:	33.127	yaw rate:	4.828	Roll:	0.035	Pitch:	-1.475	Yaw:	48.783	Thrust:	53.320
Time:	6.053	Roll Set Point:	-0.081	Pitch Set Point:	-0.036	Yaw Set Point:	-0.578	X_WP:	0.082	Y_WP:	0.156	Y_WP:	0.500	X:	0.099	Y:	0.096	Z:	0.399	yaw:	33.097	yaw rate:	-3.017	Roll:	0.624	Pitch:	-1.246	Yaw:	48.708	Thrust:	99.112
Time:	6.068	Roll Set Point:	-0.081	Pitch Set Point:	-0.036	Yaw Set Point:	-0.578	X_WP:	0.082	Y_WP:	0.156	Y_WP:	0.500	X:	0.099	Y:	0.096	Z:	0.399	yaw:	33.125	yaw rate:	6.519	Roll:	0.074	Pitch:	-1.482	Yaw:	48.284	Thrust:	53.245
Time:	6.084	Roll Set Point:	-0.081	Pitch Set Point:	-0.036	Yaw Set Point:	-0.578	X_WP:	0.082	Y_WP:	0.156	Y_WP:	0.500	X:	0.099	Y:	0.096	Z:	0.399	yaw:	33.099	yaw rate:	-2.623	Roll:	0.047	Pitch:	-1.490	Yaw:	47.338	Thrust:	53.879
Time:	6.100	Roll Set Point:	-0.081	Pitch Set Point:	-0.036	Yaw Set Point:	-0.578	X_WP:	0.082	Y_WP:	0.156	Y_WP:	0.500	X:	0.099	Y:	0.096	Z:	0.398	yaw:	33.098	yaw rate:	-0.047	Roll:	0.074	Pitch:	-1.500	Yaw:	47.769	Thrust:	54.114
Time:	6.115	Roll Set Point:	-0.081	Pitch Set Point:	-0.036	Yaw Set Point:	-0.577	X_WP:	0.082	Y_WP:	0.155	Y_WP:	0.500	X:	0.099	Y:	0.096	Z:	0.399	yaw:	33.057	yaw rate:	-4.146	Roll:	0.065	Pitch:	-1.490	Yaw:	47.024	Thrust:	53.832
Time:	6.131	Roll Set Point:	-0.081	Pitch Set Point:	-0.036	Yaw Set Point:	-0.577	X_WP:	0.082	Y_WP:	0.156	Y_WP:	0.500	X:	0.099	Y:	0.096	Z:	0.399	yaw:	33.081	yaw rate:	2.479	Roll:	0.036	Pitch:	-1.494	Yaw:	48.168	Thrust:	54.294
Time:	6.146	Roll Set Point:	-0.081	Pitch Set Point:	-0.036	Yaw Set Point:	-0.577	X_WP:	0.082	Y_WP:	0.156	Y_WP:	0.500	X:	0.099	Y:	0.096	Z:	0.399	yaw:	33.073	yaw rate:	-0.839	Roll:	0.073	Pitch:	-1.504	Yaw:	47.600	Thrust:	54.478
Time:	6.162	Roll Set Point:	-0.081	Pitch Set Point:	-0.036	Yaw Set Point:	-0.578	X_WP:	0.082	Y_WP:	0.156	Y_WP:	0.500	X:	0.099	Y:	0.096	Z:	0.399	yaw:	33.090	yaw rate:	1.672	Roll:	0.047	Pitch:	-1.496	Yaw:	48.045	Thrust:	54.775
Time:	6.178	Roll Set Point:	-0.081	Pitch Set Point:	-0.036	Yaw Set Point:	-0.577	X_WP:	0.082	Y_WP:	0.156	Y_WP:	0.500	X:	0.099	Y:	0.096	Z:	0.399	yaw:	33.084	yaw rate:	-0.593	Roll:	0.052	Pitch:	-1.501	Yaw:	47.657	Thrust:	54.808
Time:	6.193	Roll Set Point:	-0.081	Pitch Set Point:	-0.036	Yaw Set Point:	-0.577	X_WP:	0.082	Y_WP:	0.156	Y_WP:	0.500	X:	0.099	Y:	0.096	Z:	0.399	yaw:	33.084	yaw rate:	-0.593	Roll:	0.056	Pitch:	-1.504	Yaw:	47.760	Thrust:	55.146
Time:	6.209	Roll Set Point:	-0.081	Pitch Set Point:	-0.036	Yaw Set Point:	-0.577	X_WP:	0.082	Y_WP:	0.156	Y_WP:	0.500	X:	0.099	Y:	0.096	Z:	0.399	yaw:	33.072	yaw rate:	-2.059	Roll:	0.086	Pitch:	-1.516	Yaw:	47.535	Thrust:	55.225
Time:	6.225	Roll Set Point:	-0.081	Pitch Set Point:	-0.036	Yaw Set Point:	-0.578	X_WP:	0.082	Y_WP:	0.156	Y_WP:	0.500	X:	0.099	Y:	0.096	Z:	0.399	yaw:	33.101	yaw rate:	2.942	Roll:	-0.001	Pitch:	-1.492	Yaw:	48.273	Thrust:	55.466
Time:	6.240	Roll Set Point:	-0.081	Pitch Set Point:	-0.036	Yaw Set Point:	-0.577	X_WP:	0.082	Y_WP:	0.155	Y_WP:	0.500	X:	0.099	Y:	0.096	Z:	0.399	yaw:	33.076	yaw rate:	-2.493	Roll:	0.070	Pitch:	-1.517	Yaw:	47.324	Thrust:	55.370
Time:	6.256	Roll Set Point:	-0.081	Pitch Set Point:	-0.036	Yaw Set Point:	-0.577	X_WP:	0.082	Y_WP:	0.155	Y_WP:	0.500	X:	0.099	Y:	0.096	Z:	0.399	yaw:	33.076	yaw rate:	-2.493	Roll:	0.053	Pitch:	-1.513	Yaw:	47.749	Thrust:	55.901
Time:	6.272	Roll Set Point:	-0.081	Pitch Set Point:	-0.036	Yaw Set Point:	-0.577	X_WP:	0.082	Y_WP:	0.156	Y_WP:	0.500	X:	0.099	Y:	0.096	Z:	0.399	yaw:	33.069	yaw rate:	-0.747	Roll:	0.077	Pitch:	-1.524	Yaw:	47.610	Thrust:	55.956
Time:	6.287	Roll Set Point:	-0.081	Pitch Set Point:	-0.036	Yaw Set Point:	-0.579	X_WP:	0.082	Y_WP:	0.155	Y_WP:	0.500	X:	0.099	Y:	0.096	Z:	0.399	yaw:	33.148	yaw rate:	7.050	Roll:	-0.027	Pitch:	-1.494	Yaw:	49.176	Thrust:	56.131
