Time:	2.034	Roll Set Point:	0.065	Pitch Set Point:	-0.116	Yaw Set Point:	-0.021	X_WP:	0.100	Y_WP:	0.000	Y_WP:	0.500	X:	0.017	Y:	0.057	Z:	0.057	yaw:	1.207	yaw rate:	-0.371	Roll:	-2.370	Pitch:	1.702	Yaw:	1.686	Thrust:	24.375
Time:	2.044	Roll Set Point:	0.065	Pitch Set Point:	-0.116	Yaw Set Point:	-0.021	X_WP:	0.100	Y_WP:	0.000	Y_WP:	0.500	X:	0.017	Y:	0.057	Z:	0.057	yaw:	1.209	yaw rate:	0.133	Roll:	-2.381	Pitch:	1.676	Yaw:	1.725	Thrust:	24.989
Time:	2.054	Roll Set Point:	0.065	Pitch Set Point:	-0.116	Yaw Set Point:	-0.021	X_WP:	0.100	Y_WP:	0.000	Y_WP:	0.500	X:	0.017	Y:	0.057	Z:	0.057	yaw:	1.209	yaw rate:	0.133	Roll:	-2.375	Pitch:	1.704	Yaw:	1.696	Thrust:	25.442
Time:	2.065	Roll Set Point:	0.065	Pitch Set Point:	-0.115	Yaw Set Point:	-0.016	X_WP:	0.100	Y_WP:	0.000	Y_WP:	0.500	X:	0.017	Y:	0.057	Z:	0.057	yaw:	0.899	yaw rate:	-30.839	Roll:	-2.824	Pitch:	0.956	Yaw:	-6.093	Thrust:	25.763
Time:	2.076	Roll Set Point:	0.065	Pitch Set Point:	-0.115	Yaw Set Point:	-0.017	X_WP:	0.100	Y_WP:	0.000	Y_WP:	0.500	X:	0.017	Y:	0.057	Z:	0.057	yaw:	0.954	yaw rate:	5.556	Roll:	-2.337	Pitch:	1.766	Yaw:	2.697	Thrust:	26.314
Time:	2.088	Roll Set Point:	0.065	Pitch Set Point:	-0.115	Yaw Set Point:	-0.016	X_WP:	0.100	Y_WP:	0.000	Y_WP:	0.500	X:	0.017	Y:	0.057	Z:	0.057	yaw:	0.908	yaw rate:	-4.590	Roll:	-2.515	Pitch:	1.577	Yaw:	0.244	Thrust:	28.018
Time:	2.099	Roll Set Point:	0.065	Pitch Set Point:	-0.115	Yaw Set Point:	-0.015	X_WP:	0.100	Y_WP:	0.000	Y_WP:	0.500	X:	0.017	Y:	0.057	Z:	0.057	yaw:	0.858	yaw rate:	-4.989	Roll:	-2.404	Pitch:	1.538	Yaw:	0.039	Thrust:	27.599
Time:	2.110	Roll Set Point:	0.065	Pitch Set Point:	-0.115	Yaw Set Point:	-0.016	X_WP:	0.100	Y_WP:	0.000	Y_WP:	0.500	X:	0.017	Y:	0.057	Z:	0.057	yaw:	0.890	yaw rate:	3.164	Roll:	-2.330	Pitch:	1.894	Yaw:	2.019	Thrust:	28.385
Time:	2.121	Roll Set Point:	0.065	Pitch Set Point:	-0.115	Yaw Set Point:	-0.016	X_WP:	0.100	Y_WP:	0.000	Y_WP:	0.500	X:	0.017	Y:	0.057	Z:	0.057	yaw:	0.910	yaw rate:	1.991	Roll:	-2.292	Pitch:	1.740	Yaw:	1.774	Thrust:	28.962
Time:	2.132	Roll Set Point:	0.065	Pitch Set Point:	-0.115	Yaw Set Point:	-0.015	X_WP:	0.100	Y_WP:	0.000	Y_WP:	0.500	X:	0.017	Y:	0.057	Z:	0.057	yaw:	0.859	yaw rate:	-5.048	Roll:	-2.609	Pitch:	1.615	Yaw:	0.038	Thrust:	29.880
Time:	2.143	Roll Set Point:	0.065	Pitch Set Point:	-0.115	Yaw Set Point:	-0.019	X_WP:	0.100	Y_WP:	0.000	Y_WP:	0.500	X:	0.017	Y:	0.057	Z:	0.057	yaw:	1.066	yaw rate:	20.635	Roll:	-1.900	Pitch:	2.222	Yaw:	6.236	Thrust:	30.096
Time:	2.153	Roll Set Point:	0.065	Pitch Set Point:	-0.115	Yaw Set Point:	-0.012	X_WP:	0.100	Y_WP:	0.000	Y_WP:	0.500	X:	0.017	Y:	0.057	Z:	0.057	yaw:	0.677	yaw rate:	-38.841	Roll:	-3.038	Pitch:	0.410	Yaw:	-9.156	Thrust:	30.184
Time:	2.165	Roll Set Point:	0.065	Pitch Set Point:	-0.115	Yaw Set Point:	-0.014	X_WP:	0.100	Y_WP:	0.000	Y_WP:	0.500	X:	0.017	Y:	0.057	Z:	0.057	yaw:	0.819	yaw rate:	14.144	Roll:	-2.445	Pitch:	2.118	Yaw:	4.401	Thrust:	32.550
Time:	2.175	Roll Set Point:	0.065	Pitch Set Point:	-0.115	Yaw Set Point:	-0.018	X_WP:	0.100	Y_WP:	0.000	Y_WP:	0.500	X:	0.017	Y:	0.057	Z:	0.057	yaw:	1.009	yaw rate:	18.986	Roll:	-1.924	Pitch:	2.409	Yaw:	6.175	Thrust:	31.376
Time:	2.186	Roll Set Point:	0.065	Pitch Set Point:	-0.116	Yaw Set Point:	-0.018	X_WP:	0.100	Y_WP:	0.000	Y_WP:	0.500	X:	0.017	Y:	0.057	Z:	0.057	yaw:	1.039	yaw rate:	2.996	Roll:	-2.335	Pitch:	1.793	Yaw:	2.213	Thrust:	32.291
Time:	2.198	Roll Set Point:	0.065	Pitch Set Point:	-0.115	Yaw Set Point:	-0.015	X_WP:	0.100	Y_WP:	0.000	Y_WP:	0.500	X:	0.017	Y:	0.057	Z:	0.057	yaw:	0.856	yaw rate:	-18.218	Roll:	-2.904	Pitch:	1.057	Yaw:	-2.880	Thrust:	33.693
Time:	2.210	Roll Set Point:	0.065	Pitch Set Point:	-0.115	Yaw Set Point:	-0.015	X_WP:	0.100	Y_WP:	0.000	Y_WP:	0.500	X:	0.017	Y:	0.057	Z:	0.057	yaw:	0.872	yaw rate:	1.540	Roll:	-2.343	Pitch:	1.849	Yaw:	1.637	Thrust:	33.719
Time:	2.222	Roll Set Point:	0.065	Pitch Set Point:	-0.115	Yaw Set Point:	-0.016	X_WP:	0.100	Y_WP:	0.000	Y_WP:	0.500	X:	0.017	Y:	0.057	Z:	0.057	yaw:	0.928	yaw rate:	5.650	Roll:	-2.420	Pitch:	1.803	Yaw:	2.611	Thrust:	35.225
Time:	2.234	Roll Set Point:	0.065	Pitch Set Point:	-0.116	Yaw Set Point:	-0.018	X_WP:	0.100	Y_WP:	0.000	Y_WP:	0.500	X:	0.017	Y:	0.057	Z:	0.057	yaw:	1.015	yaw rate:	8.636	Roll:	-2.116	Pitch:	2.100	Yaw:	3.228	Thrust:	36.565
Time:	2.246	Roll Set Point:	0.065	Pitch Set Point:	-0.115	Yaw Set Point:	-0.016	X_WP:	0.100	Y_WP:	0.000	Y_WP:	0.500	X:	0.017	Y:	0.057	Z:	0.057	yaw:	0.911	yaw rate:	9.374	Roll:	-2.758	Pitch:	1.284	Yaw:	-1.080	Thrust:	35.872
Time:	2.258	Roll Set Point:	0.065	Pitch Set Point:	-0.115	Yaw Set Point:	-0.015	X_WP:	0.100	Y_WP:	0.000	Y_WP:	0.500	X:	0.017	Y:	0.057	Z:	0.057	yaw:	0.857	yaw rate:	-5.341	Roll:	-2.455	Pitch:	1.688	Yaw:	0.171	Thrust:	37.549
Time:	2.269	Roll Set Point:	0.065	Pitch Set Point:	-0.115	Yaw Set Point:	-0.014	X_WP:	0.100	Y_WP:	0.000	Y_WP:	0.500	X:	0.017	Y:	0.057	Z:	0.057	yaw:	0.824	yaw rate:	-3.308	Roll:	-2.455	Pitch:	1.612	Yaw:	0.443	Thrust:	36.544
Time:	2.284	Roll Set Point:	0.065	Pitch Set Point:	-0.115	Yaw Set Point:	-0.015	X_WP:	0.100	Y_WP:	0.000	Y_WP:	0.500	X:	0.017	Y:	0.057	Z:	0.057	yaw:	0.863	yaw rate:	3.845	Roll:	-2.451	Pitch:	1.783	Yaw:	1.988	Thrust:	42.024
Time:	2.296	Roll Set Point:	0.065	Pitch Set Point:	-0.115	Yaw Set Point:	-0.014	X_WP:	0.100	Y_WP:	0.000	Y_WP:	0.500	X:	0.017	Y:	0.057	Z:	0.057	yaw:	0.824	yaw rate:	-3.914	Roll:	-2.465	Pitch:	1.671	Yaw:	0.389	Thrust:	38.522
Time:	2.307	Roll Set Point:	0.065	Pitch Set Point:	-0.115	Yaw Set Point:	-0.014	X_WP:	0.100	Y_WP:	0.000	Y_WP:	0.500	X:	0.017	Y:	0.057	Z:	0.057	yaw:	0.807	yaw rate:	-1.610	Roll:	-2.504	Pitch:	1.749	Yaw:	0.852	Thrust:	39.330
Time:	2.320	Roll Set Point:	0.065	Pitch Set Point:	-0.115	Yaw Set Point:	-0.014	X_WP:	0.100	Y_WP:	0.000	Y_WP:	0.500	X:	0.017	Y:	0.057	Z:	0.057	yaw:	0.824	yaw rate:	1.657	Roll:	-2.408	Pitch:	1.748	Yaw:	1.589	Thrust:	40.651
Time:	2.331	Roll Set Point:	0.065	Pitch Set Point:	-0.115	Yaw Set Point:	-0.014	X_WP:	0.100	Y_WP:	0.000	Y_WP:	0.500	X:	0.017	Y:	0.057	Z:	0.057	yaw:	0.817	yaw rate:	3.382	Roll:	-2.450	Pitch:	1.739	Yaw:	1.053	Thrust:	39.393
Time:	2.341	Roll Set Point:	0.065	Pitch Set Point:	-0.115	Yaw Set Point:	-0.014	X_WP:	0.100	Y_WP:	0.000	Y_WP:	0.500	X:	0.017	Y:	0.057	Z:	0.057	yaw:	0.785	yaw rate:	-3.163	Roll:	-2.529	Pitch:	1.660	Yaw:	0.360	Thrust:	39.473
Time:	2.354	Roll Set Point:	0.065	Pitch Set Point:	-0.115	Yaw Set Point:	-0.013	X_WP:	0.100	Y_WP:	0.000	Y_WP:	0.500	X:	0.017	Y:	0.057	Z:	0.057	yaw:	0.767	yaw rate:	-1.801	Roll:	-2.437	Pitch:	1.647	Yaw:	0.836	Thrust:	44.264
Time:	2.365	Roll Set Point:	0.065	Pitch Set Point:	-0.115	Yaw Set Point:	-0.013	X_WP:	0.100	Y_WP:	0.000	Y_WP:	0.500	X:	0.017	Y:	0.057	Z:	0.057	yaw:	0.771	yaw rate:	0.404	Roll:	-2.515	Pitch:	1.825	Yaw:	1.275	Thrust:	40.340
Time:	2.375	Roll Set Point:	0.065	Pitch Set Point:	-0.115	Yaw Set Point:	-0.014	X_WP:	0.100	Y_WP:	0.000	Y_WP:	0.500	X:	0.017	Y:	0.057	Z:	0.057	yaw:	0.775	yaw rate:	0.369	Roll:	-2.421	Pitch:	1.742	Yaw:	1.274	Thrust:	41.125
Time:	2.386	Roll Set Point:	0.065	Pitch Set Point:	-0.115	Yaw Set Point:	-0.013	X_WP:	0.100	Y_WP:	0.000	Y_WP:	0.500	X:	0.017	Y:	0.057	Z:	0.057	yaw:	0.771	yaw rate:	-0.366	Roll:	-2.434	Pitch:	1.662	Yaw:	1.098	Thrust:	42.775
Time:	2.398	Roll Set Point:	0.065	Pitch Set Point:	-0.115	Yaw Set Point:	-0.013	X_WP:	0.100	Y_WP:	0.000	Y_WP:	0.500	X:	0.017	Y:	0.057	Z:	0.057	yaw:	0.754	yaw rate:	-1.715	Roll:	-2.525	Pitch:	1.704	Yaw:	0.780	Thrust:	43.959
Time:	2.408	Roll Set Point:	0.065	Pitch Set Point:	-0.115	Yaw Set Point:	-0.013	X_WP:	0.100	Y_WP:	0.000	Y_WP:	0.500	X:	0.017	Y:	0.057	Z:	0.057	yaw:	0.760	yaw rate:	0.568	Roll:	-2.400	Pitch:	1.814	Yaw:	1.311	Thrust:	42.620
Time:	2.420	Roll Set Point:	0.065	Pitch Set Point:	-0.115	Yaw Set Point:	-0.013	X_WP:	0.100	Y_WP:	0.000	Y_WP:	0.500	X:	0.017	Y:	0.057	Z:	0.057	yaw:	0.771	yaw rate:	1.068	Roll:	-2.486	Pitch:	1.761	Yaw:	1.441	Thrust:	45.110
Time:	2.431	Roll Set Point:	0.065	Pitch Set Point:	-0.115	Yaw Set Point:	-0.014	X_WP:	0.100	Y_WP:	0.000	Y_WP:	0.500	X:	0.017	Y:	0.057	Z:	0.057	yaw:	0.778	yaw rate:	0.729	Roll:	-2.438	Pitch:	1.654	Yaw:	1.379	Thrust:	45.473
Time:	2.441	Roll Set Point:	0.065	Pitch Set Point:	-0.115	Yaw Set Point:	-0.013	X_WP:	0.100	Y_WP:	0.000	Y_WP:	0.500	X:	0.017	Y:	0.057	Z:	0.057	yaw:	0.736	yaw rate:	-4.142	Roll:	-2.512	Pitch:	1.741	Yaw:	0.069	Thrust:	43.299
Time:	2.454	Roll Set Point:	0.065	Pitch Set Point:	-0.115	Yaw Set Point:	-0.013	X_WP:	0.100	Y_WP:	0.000	Y_WP:	0.500	X:	0.017	Y:	0.057	Z:	0.057	yaw:	0.719	yaw rate:	-1.726	Roll:	-2.505	Pitch:	1.746	Yaw:	0.785	Thrust:	46.697
Time:	2.465	Roll Set Point:	0.065	Pitch Set Point:	-0.115	Yaw Set Point:	-0.013	X_WP:	0.100	Y_WP:	0.000	Y_WP:	0.500	X:	0.017	Y:	0.057	Z:	0.057	yaw:	0.734	yaw rate:	1.431	Roll:	-2.425	Pitch:	1.765	Yaw:	1.492	Thrust:	48.803
Time:	2.476	Roll Set Point:	0.065	Pitch Set Point:	-0.115	Yaw Set Point:	-0.012	X_WP:	0.100	Y_WP:	0.000	Y_WP:	0.500	X:	0.017	Y:	0.057	Z:	0.057	yaw:	0.714	yaw rate:	-1.907	Roll:	-2.538	Pitch:	1.734	Yaw:	0.690	Thrust:	47.714
Time:	2.486	Roll Set Point:	0.065	Pitch Set Point:	-0.116	Yaw Set Point:	-0.016	X_WP:	0.100	Y_WP:	0.000	Y_WP:	0.500	X:	0.017	Y:	0.057	Z:	0.057	yaw:	0.898	yaw rate:	18.383	Roll:	-2.013	Pitch:	2.421	Yaw:	6.019	Thrust:	46.454
Time:	2.498	Roll Set Point:	0.065	Pitch Set Point:	-0.115	Yaw Set Point:	-0.012	X_WP:	0.100	Y_WP:	0.000	Y_WP:	0.500	X:	0.017	Y:	0.057	Z:	0.057	yaw:	0.701	yaw rate:	-19.734	Roll:	-2.900	Pitch:	1.118	Yaw:	-3.355	Thrust:	48.226
Time:	2.508	Roll Set Point:	0.065	Pitch Set Point:	-0.115	Yaw Set Point:	-0.012	X_WP:	0.100	Y_WP:	0.000	Y_WP:	0.500	X:	0.017	Y:	0.057	Z:	0.057	yaw:	0.692	yaw rate:	-0.880	Roll:	-2.489	Pitch:	1.664	Yaw:	0.865	Thrust:	48.198
Time:	2.519	Roll Set Point:	0.065	Pitch Set Point:	-0.115	Yaw Set Point:	-0.012	X_WP:	0.100	Y_WP:	0.000	Y_WP:	0.500	X:	0.017	Y:	0.057	Z:	0.057	yaw:	0.715	yaw rate:	2.327	Roll:	-2.403	Pitch:	1.835	Yaw:	1.693	Thrust:	49.471
Time:	2.530	Roll Set Point:	0.065	Pitch Set Point:	-0.115	Yaw Set Point:	-0.013	X_WP:	0.100	Y_WP:	0.000	Y_WP:	0.500	X:	0.017	Y:	0.057	Z:	0.057	yaw:	0.718	yaw rate:	0.285	Roll:	-2.468	Pitch:	1.794	Yaw:	1.220	Thrust:	51.091
Time:	2.541	Roll Set Point:	0.065	Pitch Set Point:	-0.115	Yaw Set Point:	-0.012	X_WP:	0.100	Y_WP:	0.000	Y_WP:	0.500	X:	0.017	Y:	0.057	Z:	0.057	yaw:	0.665	yaw rate:	-5.364	Roll:	-2.563	Pitch:	1.620	Yaw:	-0.196	Thrust:	51.118
Time:	2.553	Roll Set Point:	0.065	Pitch Set Point:	-0.115	Yaw Set Point:	-0.012	X_WP:	0.100	Y_WP:	0.000	Y_WP:	0.500	X:	0.017	Y:	0.057	Z:	0.057	yaw:	0.685	yaw rate:	1.993	Roll:	-2.458	Pitch:	1.791	Yaw:	1.567	Thrust:	52.412
Time:	2.564	Roll Set Point:	0.065	Pitch Set Point:	-0.115	Yaw Set Point:	-0.012	X_WP:	0.100	Y_WP:	0.000	Y_WP:	0.500	X:	0.017	Y:	0.057	Z:	0.057	yaw:	0.695	yaw rate:	1.024	Roll:	-2.459	Pitch:	1.851	Yaw:	1.366	Thrust:	51.765
Time:	2.575	Roll Set Point:	0.065	Pitch Set Point:	-0.115	Yaw Set Point:	-0.012	X_WP:	0.100	Y_WP:	0.000	Y_WP:	0.500	X:	0.017	Y:	0.057	Z:	0.057	yaw:	0.660	yaw rate:	-3.465	Roll:	-2.527	Pitch:	1.654	Yaw:	0.234	Thrust:	51.977
Time:	2.585	Roll Set Point:	0.065	Pitch Set Point:	-0.115	Yaw Set Point:	-0.011	X_WP:	0.100	Y_WP:	0.000	Y_WP:	0.500	X:	0.017	Y:	0.057	Z:	0.057	yaw:	0.605	yaw rate:	-5.509	Roll:	-2.565	Pitch:	1.724	Yaw:	-0.449	Thrust:	50.366
Time:	2.596	Roll Set Point:	0.065	Pitch Set Point:	-0.115	Yaw Set Point:	-0.010	X_WP:	0.100	Y_WP:	0.000	Y_WP:	0.500	X:	0.017	Y:	0.057	Z:	0.057	yaw:	0.573	yaw rate:	-3.234	Roll:	-2.620	Pitch:	1.742	Yaw:	0.193	Thrust:	53.567
Time:	2.607	Roll Set Point:	0.065	Pitch Set Point:	-0.115	Yaw Set Point:	-0.010	X_WP:	0.100	Y_WP:	0.000	Y_WP:	0.500	X:	0.017	Y:	0.057	Z:	0.057	yaw:	0.545	yaw rate:	-2.804	Roll:	-2.583	Pitch:	1.682	Yaw:	0.283	Thrust:	55.261
Time:	2.618	Roll Set Point:	0.065	Pitch Set Point:	-0.115	Yaw Set Point:	-0.008	X_WP:	0.100	Y_WP:	0.000	Y_WP:	0.500	X:	0.017	Y:	0.057	Z:	0.057	yaw:	0.486	yaw rate:	-5.866	Roll:	-2.575	Pitch:	1.650	Yaw:	-0.539	Thrust:	54.977
Time:	2.630	Roll Set Point:	0.065	Pitch Set Point:	-0.115	Yaw Set Point:	-0.008	X_WP:	0.100	Y_WP:	0.000	Y_WP:	0.500	X:	0.017	Y:	0.057	Z:	0.057	yaw:	0.464	yaw rate:	-2.183	Roll:	-2.596	Pitch:	1.786	Yaw:	0.328	Thrust:	56.896
Time:	2.640	Roll Set Point:	0.066	Pitch Set Point:	-0.115	Yaw Set Point:	-0.006	X_WP:	0.100	Y_WP:	0.000	Y_WP:	0.500	X:	0.017	Y:	0.057	Z:	0.057	yaw:	0.339	yaw rate:	-12.490	Roll:	-2.740	Pitch:	1.662	Yaw:	-2.469	Thrust:	54.346
Time:	2.653	Roll Set Point:	0.066	Pitch Set Point:	-0.115	Yaw Set Point:	-0.005	X_WP:	0.100	Y_WP:	0.000	Y_WP:	0.500	X:	0.017	Y:	0.057	Z:	0.057	yaw:	0.307	yaw rate:	-3.257	Roll:	-2.623	Pitch:	1.817	Yaw:	-0.090	Thrust:	59.536
Time:	2.664	Roll Set Point:	0.065	Pitch Set Point:	-0.116	Yaw Set Point:	-0.006	X_WP:	0.100	Y_WP:	0.000	Y_WP:	0.500	X:	0.017	Y:	0.058	Z:	0.057	yaw:	0.350	yaw rate:	4.336	Roll:	-2.272	Pitch:	2.092	Yaw:	1.619	Thrust:	60.122
Time:	2.675	Roll Set Point:	0.066	Pitch Set Point:	-0.115	Yaw Set Point:	-0.002	X_WP:	0.100	Y_WP:	0.000	Y_WP:	0.500	X:	0.017	Y:	0.057	Z:	0.057	yaw:	0.127	yaw rate:	-22.284	Roll:	-2.968	Pitch:	1.112	Yaw:	-5.197	Thrust:	55.972
Time:	2.685	Roll Set Point:	0.066	Pitch Set Point:	-0.115	Yaw Set Point:	-0.001	X_WP:	0.100	Y_WP:	0.000	Y_WP:	0.500	X:	0.017	Y:	0.058	Z:	0.057	yaw:	0.044	yaw rate:	-8.323	Roll:	-2.602	Pitch:	1.675	Yaw:	-1.954	Thrust:	54.914
Time:	2.697	Roll Set Point:	0.066	Pitch Set Point:	-0.115	Yaw Set Point:	0.002	X_WP:	0.100	Y_WP:	0.000	Y_WP:	0.500	X:	0.017	Y:	0.057	Z:	0.057	yaw:	-0.135	yaw rate:	-17.896	Roll:	-2.698	Pitch:	1.330	Yaw:	-4.070	Thrust:	60.231
Time:	2.708	Roll Set Point:	0.066	Pitch Set Point:	-0.115	Yaw Set Point:	0.005	X_WP:	0.100	Y_WP:	0.000	Y_WP:	0.500	X:	0.017	Y:	0.058	Z:	0.058	yaw:	-0.258	yaw rate:	-12.294	Roll:	-2.707	Pitch:	1.682	Yaw:	-3.097	Thrust:	58.538
Time:	2.719	Roll Set Point:	0.066	Pitch Set Point:	-0.114	Yaw Set Point:	0.011	X_WP:	0.100	Y_WP:	0.000	Y_WP:	0.500	X:	0.017	Y:	0.058	Z:	0.058	yaw:	-0.635	yaw rate:	-37.749	Roll:	-2.897	Pitch:	0.774	Yaw:	-9.673	Thrust:	59.722
Time:	2.730	Roll Set Point:	0.066	Pitch Set Point:	-0.114	Yaw Set Point:	0.013	X_WP:	0.100	Y_WP:	0.000	Y_WP:	0.500	X:	0.018	Y:	0.058	Z:	0.058	yaw:	-0.754	yaw rate:	-11.907	Roll:	-2.343	Pitch:	1.604	Yaw:	-3.580	Thrust:	59.948
Time:	2.742	Roll Set Point:	0.065	Pitch Set Point:	-0.114	Yaw Set Point:	0.015	X_WP:	0.100	Y_WP:	0.000	Y_WP:	0.500	X:	0.018	Y:	0.058	Z:	0.058	yaw:	-0.855	yaw rate:	-10.012	Roll:	-2.258	Pitch:	1.608	Yaw:	-3.514	Thrust:	60.704
Time:	2.753	Roll Set Point:	0.063	Pitch Set Point:	-0.114	Yaw Set Point:	0.020	X_WP:	0.100	Y_WP:	0.000	Y_WP:	0.500	X:	0.019	Y:	0.058	Z:	0.059	yaw:	-1.141	yaw rate:	-18.247	Roll:	-1.355	Pitch:	1.666	Yaw:	-7.630	Thrust:	62.693
Time:	2.763	Roll Set Point:	0.063	Pitch Set Point:	-0.114	Yaw Set Point:	0.020	X_WP:	0.100	Y_WP:	0.000	Y_WP:	0.500	X:	0.019	Y:	0.058	Z:	0.059	yaw:	-1.141	yaw rate:	-18.247	Roll:	-2.515	Pitch:	1.730	Yaw:	-1.441	Thrust:	60.644
Time:	2.775	Roll Set Point:	0.062	Pitch Set Point:	-0.114	Yaw Set Point:	0.026	X_WP:	0.100	Y_WP:	0.000	Y_WP:	0.500	X:	0.020	Y:	0.058	Z:	0.059	yaw:	-1.492	yaw rate:	-18.113	Roll:	-1.654	Pitch:	1.396	Yaw:	-9.535	Thrust:	60.656
Time:	2.785	Roll Set Point:	0.062	Pitch Set Point:	-0.114	Yaw Set Point:	0.026	X_WP:	0.100	Y_WP:	0.000	Y_WP:	0.500	X:	0.020	Y:	0.058	Z:	0.059	yaw:	-1.492	yaw rate:	-18.113	Roll:	-2.516	Pitch:	1.736	Yaw:	-1.948	Thrust:	63.490
Time:	2.797	Roll Set Point:	0.060	Pitch Set Point:	-0.114	Yaw Set Point:	0.032	X_WP:	0.100	Y_WP:	0.000	Y_WP:	0.500	X:	0.021	Y:	0.058	Z:	0.060	yaw:	-1.816	yaw rate:	-30.646	Roll:	-1.371	Pitch:	1.403	Yaw:	-9.445	Thrust:	65.353
Time:	2.809	Roll Set Point:	0.059	Pitch Set Point:	-0.114	Yaw Set Point:	0.034	X_WP:	0.100	Y_WP:	0.000	Y_WP:	0.500	X:	0.022	Y:	0.059	Z:	0.061	yaw:	-1.935	yaw rate:	-11.890	Roll:	-1.851	Pitch:	1.640	Yaw:	-5.380	Thrust:	62.914
Time:	2.819	Roll Set Point:	0.057	Pitch Set Point:	-0.114	Yaw Set Point:	0.037	X_WP:	0.100	Y_WP:	0.000	Y_WP:	0.500	X:	0.022	Y:	0.059	Z:	0.061	yaw:	-2.095	yaw rate:	-15.919	Roll:	-1.523	Pitch:	1.491	Yaw:	-6.965	Thrust:	59.195
Time:	2.830	Roll Set Point:	0.056	Pitch Set Point:	-0.114	Yaw Set Point:	0.039	X_WP:	0.100	Y_WP:	0.000	Y_WP:	0.500	X:	0.023	Y:	0.059	Z:	0.061	yaw:	-2.219	yaw rate:	-12.453	Roll:	-1.462	Pitch:	1.574	Yaw:	-6.080	Thrust:	61.841
Time:	2.842	Roll Set Point:	0.055	Pitch Set Point:	-0.114	Yaw Set Point:	0.041	X_WP:	0.100	Y_WP:	0.000	Y_WP:	0.500	X:	0.024	Y:	0.059	Z:	0.062	yaw:	-2.345	yaw rate:	-12.575	Roll:	-1.639	Pitch:	1.615	Yaw:	-5.627	Thrust:	72.490
Time:	2.853	Roll Set Point:	0.053	Pitch Set Point:	-0.114	Yaw Set Point:	0.043	X_WP:	0.100	Y_WP:	0.000	Y_WP:	0.500	X:	0.025	Y:	0.059	Z:	0.063	yaw:	-2.467	yaw rate:	-12.232	Roll:	-1.218	Pitch:	1.513	Yaw:	-6.250	Thrust:	63.757
Time:	2.865	Roll Set Point:	0.051	Pitch Set Point:	-0.114	Yaw Set Point:	0.046	X_WP:	0.100	Y_WP:	0.000	Y_WP:	0.500	X:	0.026	Y:	0.059	Z:	0.064	yaw:	-2.635	yaw rate:	-16.770	Roll:	-1.258	Pitch:	1.424	Yaw:	-7.380	Thrust:	66.481
Time:	2.876	Roll Set Point:	0.049	Pitch Set Point:	-0.114	Yaw Set Point:	0.046	X_WP:	0.100	Y_WP:	0.000	Y_WP:	0.500	X:	0.027	Y:	0.059	Z:	0.064	yaw:	-2.653	yaw rate:	-1.818	Roll:	-0.819	Pitch:	1.952	Yaw:	-4.070	Thrust:	63.022
Time:	2.887	Roll Set Point:	0.047	Pitch Set Point:	-0.114	Yaw Set Point:	0.048	X_WP:	0.100	Y_WP:	0.000	Y_WP:	0.500	X:	0.028	Y:	0.059	Z:	0.065	yaw:	-2.774	yaw rate:	-12.106	Roll:	-0.922	Pitch:	1.485	Yaw:	-6.617	Thrust:	65.777
Time:	2.898	Roll Set Point:	0.045	Pitch Set Point:	-0.114	Yaw Set Point:	0.047	X_WP:	0.100	Y_WP:	0.000	Y_WP:	0.500	X:	0.029	Y:	0.059	Z:	0.066	yaw:	-2.721	yaw rate:	5.321	Roll:	-0.341	Pitch:	1.930	Yaw:	-2.526	Thrust:	64.692
Time:	2.909	Roll Set Point:	0.043	Pitch Set Point:	-0.113	Yaw Set Point:	0.055	X_WP:	0.100	Y_WP:	0.000	Y_WP:	0.500	X:	0.030	Y:	0.059	Z:	0.067	yaw:	-3.135	yaw rate:	-41.402	Roll:	-1.284	Pitch:	0.651	Yaw:	-14.586	Thrust:	66.108
Time:	2.920	Roll Set Point:	0.038	Pitch Set Point:	-0.113	Yaw Set Point:	0.055	X_WP:	0.100	Y_WP:	0.000	Y_WP:	0.500	X:	0.032	Y:	0.058	Z:	0.070	yaw:	-3.175	yaw rate:	-4.001	Roll:	1.296	Pitch:	1.456	Yaw:	-5.343	Thrust:	58.827
Time:	2.932	Roll Set Point:	0.035	Pitch Set Point:	-0.113	Yaw Set Point:	0.051	X_WP:	0.100	Y_WP:	0.000	Y_WP:	0.500	X:	0.034	Y:	0.058	Z:	0.071	yaw:	-2.908	yaw rate:	26.664	Roll:	0.373	Pitch:	2.279	Yaw:	2.020	Thrust:	66.780
Time:	2.943	Roll Set Point:	0.033	Pitch Set Point:	-0.113	Yaw Set Point:	0.051	X_WP:	0.100	Y_WP:	0.000	Y_WP:	0.500	X:	0.035	Y:	0.058	Z:	0.073	yaw:	-2.922	yaw rate:	-1.422	Roll:	-0.183	Pitch:	1.402	Yaw:	-4.386	Thrust:	67.136
Time:	2.955	Roll Set Point:	0.029	Pitch Set Point:	-0.112	Yaw Set Point:	0.050	X_WP:	0.100	Y_WP:	0.000	Y_WP:	0.500	X:	0.037	Y:	0.058	Z:	0.074	yaw:	-2.881	yaw rate:	4.133	Roll:	0.219	Pitch:	1.597	Yaw:	-3.082	Thrust:	67.972
Time:	2.966	Roll Set Point:	0.026	Pitch Set Point:	-0.112	Yaw Set Point:	0.049	X_WP:	0.100	Y_WP:	0.000	Y_WP:	0.500	X:	0.038	Y:	0.058	Z:	0.076	yaw:	-2.831	yaw rate:	5.048	Roll:	0.438	Pitch:	1.625	Yaw:	-2.813	Thrust:	67.198
Time:	2.977	Roll Set Point:	0.023	Pitch Set Point:	-0.112	Yaw Set Point:	0.050	X_WP:	0.100	Y_WP:	0.000	Y_WP:	0.500	X:	0.040	Y:	0.057	Z:	0.078	yaw:	-2.854	yaw rate:	-2.342	Roll:	0.107	Pitch:	1.543	Yaw:	-4.558	Thrust:	65.561
Time:	2.988	Roll Set Point:	0.021	Pitch Set Point:	-0.111	Yaw Set Point:	0.051	X_WP:	0.100	Y_WP:	0.000	Y_WP:	0.500	X:	0.041	Y:	0.057	Z:	0.079	yaw:	-2.925	yaw rate:	-7.107	Roll:	-0.021	Pitch:	1.157	Yaw:	-5.799	Thrust:	65.522
Time:	3.000	Roll Set Point:	0.015	Pitch Set Point:	-0.110	Yaw Set Point:	0.050	X_WP:	0.100	Y_WP:	0.000	Y_WP:	0.500	X:	0.044	Y:	0.057	Z:	0.083	yaw:	-2.890	yaw rate:	-0.071	Roll:	2.647	Pitch:	1.174	Yaw:	-3.237	Thrust:	57.018
Time:	3.010	Roll Set Point:	0.011	Pitch Set Point:	-0.110	Yaw Set Point:	0.050	X_WP:	0.100	Y_WP:	0.000	Y_WP:	0.500	X:	0.046	Y:	0.056	Z:	0.085	yaw:	-2.854	yaw rate:	3.575	Roll:	0.934	Pitch:	1.553	Yaw:	-3.181	Thrust:	65.688
Time:	3.020	Roll Set Point:	0.008	Pitch Set Point:	-0.110	Yaw Set Point:	0.048	X_WP:	0.100	Y_WP:	0.000	Y_WP:	0.500	X:	0.047	Y:	0.056	Z:	0.087	yaw:	-2.774	yaw rate:	7.980	Roll:	0.948	Pitch:	1.471	Yaw:	-1.884	Thrust:	60.737
Time:	3.032	Roll Set Point:	0.005	Pitch Set Point:	-0.110	Yaw Set Point:	0.043	X_WP:	0.100	Y_WP:	0.000	Y_WP:	0.500	X:	0.049	Y:	0.056	Z:	0.090	yaw:	-2.487	yaw rate:	28.749	Roll:	1.277	Pitch:	2.000	Yaw:	3.277	Thrust:	65.007
Time:	3.042	Roll Set Point:	0.002	Pitch Set Point:	-0.109	Yaw Set Point:	0.045	X_WP:	0.100	Y_WP:	0.000	Y_WP:	0.500	X:	0.050	Y:	0.055	Z:	0.092	yaw:	-2.564	yaw rate:	-7.673	Roll:	0.480	Pitch:	0.947	Yaw:	-5.555	Thrust:	62.696
Time:	3.053	Roll Set Point:	-0.002	Pitch Set Point:	-0.108	Yaw Set Point:	0.043	X_WP:	0.100	Y_WP:	0.000	Y_WP:	0.500	X:	0.052	Y:	0.055	Z:	0.094	yaw:	-2.470	yaw rate:	9.352	Roll:	1.341	Pitch:	1.609	Yaw:	-1.217	Thrust:	63.025
Time:	3.065	Roll Set Point:	-0.005	Pitch Set Point:	-0.108	Yaw Set Point:	0.042	X_WP:	0.100	Y_WP:	0.000	Y_WP:	0.500	X:	0.054	Y:	0.055	Z:	0.097	yaw:	-2.400	yaw rate:	6.977	Roll:	1.003	Pitch:	1.410	Yaw:	-1.945	Thrust:	68.026
Time:	3.076	Roll Set Point:	-0.012	Pitch Set Point:	-0.107	Yaw Set Point:	0.033	X_WP:	0.100	Y_WP:	0.000	Y_WP:	0.500	X:	0.057	Y:	0.054	Z:	0.102	yaw:	-1.912	yaw rate:	48.878	Roll:	4.011	Pitch:	1.711	Yaw:	8.708	Thrust:	58.190
Time:	3.088	Roll Set Point:	-0.016	Pitch Set Point:	-0.107	Yaw Set Point:	0.033	X_WP:	0.100	Y_WP:	0.000	Y_WP:	0.500	X:	0.059	Y:	0.054	Z:	0.105	yaw:	-1.891	yaw rate:	2.086	Roll:	1.452	Pitch:	1.303	Yaw:	-2.262	Thrust:	65.740
Time:	3.098	Roll Set Point:	-0.019	Pitch Set Point:	-0.106	Yaw Set Point:	0.033	X_WP:	0.100	Y_WP:	0.000	Y_WP:	0.500	X:	0.061	Y:	0.054	Z:	0.108	yaw:	-1.881	yaw rate:	0.996	Roll:	1.091	Pitch:	1.039	Yaw:	-2.530	Thrust:	68.446
Time:	3.111	Roll Set Point:	-0.023	Pitch Set Point:	-0.106	Yaw Set Point:	0.027	X_WP:	0.100	Y_WP:	0.000	Y_WP:	0.500	X:	0.062	Y:	0.053	Z:	0.110	yaw:	-1.557	yaw rate:	32.405	Roll:	1.508	Pitch:	1.740	Yaw:	4.166	Thrust:	71.677
Time:	3.122	Roll Set Point:	-0.027	Pitch Set Point:	-0.105	Yaw Set Point:	0.026	X_WP:	0.100	Y_WP:	0.000	Y_WP:	0.500	X:	0.064	Y:	0.053	Z:	0.113	yaw:	-1.489	yaw rate:	6.721	Roll:	1.298	Pitch:	1.114	Yaw:	-0.619	Thrust:	65.296
Time:	3.134	Roll Set Point:	-0.030	Pitch Set Point:	-0.104	Yaw Set Point:	0.028	X_WP:	0.100	Y_WP:	0.000	Y_WP:	0.500	X:	0.066	Y:	0.052	Z:	0.116	yaw:	-1.609	yaw rate:	-11.926	Roll:	1.106	Pitch:	0.954	Yaw:	-4.995	Thrust:	78.982
Time:	3.145	Roll Set Point:	-0.034	Pitch Set Point:	-0.103	Yaw Set Point:	0.024	X_WP:	0.100	Y_WP:	0.000	Y_WP:	0.500	X:	0.067	Y:	0.052	Z:	0.119	yaw:	-1.399	yaw rate:	20.953	Roll:	1.560	Pitch:	1.192	Yaw:	3.068	Thrust:	63.250
Time:	3.155	Roll Set Point:	-0.037	Pitch Set Point:	-0.102	Yaw Set Point:	0.023	X_WP:	0.100	Y_WP:	0.000	Y_WP:	0.500	X:	0.069	Y:	0.052	Z:	0.122	yaw:	-1.297	yaw rate:	10.219	Roll:	2.150	Pitch:	1.009	Yaw:	0.722	Thrust:	60.285
Time:	3.167	Roll Set Point:	-0.041	Pitch Set Point:	-0.102	Yaw Set Point:	0.019	X_WP:	0.100	Y_WP:	0.000	Y_WP:	0.500	X:	0.071	Y:	0.051	Z:	0.125	yaw:	-1.080	yaw rate:	21.682	Roll:	2.252	Pitch:	1.451	Yaw:	3.246	Thrust:	70.076
Time:	3.178	Roll Set Point:	-0.045	Pitch Set Point:	-0.101	Yaw Set Point:	0.020	X_WP:	0.100	Y_WP:	0.000	Y_WP:	0.500	X:	0.073	Y:	0.051	Z:	0.128	yaw:	-1.156	yaw rate:	-7.545	Roll:	1.276	Pitch:	0.650	Yaw:	-3.503	Thrust:	70.080
Time:	3.189	Roll Set Point:	-0.048	Pitch Set Point:	-0.100	Yaw Set Point:	0.019	X_WP:	0.100	Y_WP:	0.000	Y_WP:	0.500	X:	0.075	Y:	0.050	Z:	0.131	yaw:	-1.078	yaw rate:	7.764	Roll:	1.954	Pitch:	1.030	Yaw:	0.169	Thrust:	66.652
Time:	3.201	Roll Set Point:	-0.052	Pitch Set Point:	-0.099	Yaw Set Point:	0.016	X_WP:	0.100	Y_WP:	0.000	Y_WP:	0.500	X:	0.076	Y:	0.050	Z:	0.134	yaw:	-0.916	yaw rate:	16.156	Roll:	1.957	Pitch:	0.853	Yaw:	2.381	Thrust:	66.723
Time:	3.211	Roll Set Point:	-0.060	Pitch Set Point:	-0.097	Yaw Set Point:	0.015	X_WP:	0.100	Y_WP:	0.000	Y_WP:	0.500	X:	0.080	Y:	0.049	Z:	0.140	yaw:	-0.874	yaw rate:	4.193	Roll:	5.460	Pitch:	0.122	Yaw:	-0.349	Thrust:	49.723
Time:	3.222	Roll Set Point:	-0.063	Pitch Set Point:	-0.096	Yaw Set Point:	0.013	X_WP:	0.100	Y_WP:	0.000	Y_WP:	0.500	X:	0.082	Y:	0.048	Z:	0.144	yaw:	-0.771	yaw rate:	10.298	Roll:	1.859	Pitch:	0.810	Yaw:	1.180	Thrust:	66.244
Time:	3.233	Roll Set Point:	-0.067	Pitch Set Point:	-0.095	Yaw Set Point:	0.010	X_WP:	0.100	Y_WP:	0.000	Y_WP:	0.500	X:	0.084	Y:	0.048	Z:	0.147	yaw:	-0.562	yaw rate:	20.909	Roll:	2.518	Pitch:	0.955	Yaw:	3.996	Thrust:	66.558
Time:	3.244	Roll Set Point:	-0.071	Pitch Set Point:	-0.094	Yaw Set Point:	0.011	X_WP:	0.100	Y_WP:	0.000	Y_WP:	0.500	X:	0.086	Y:	0.047	Z:	0.151	yaw:	-0.644	yaw rate:	-8.111	Roll:	2.005	Pitch:	0.566	Yaw:	-3.004	Thrust:	66.111
Time:	3.255	Roll Set Point:	-0.075	Pitch Set Point:	-0.093	Yaw Set Point:	0.007	X_WP:	0.100	Y_WP:	0.000	Y_WP:	0.500	X:	0.087	Y:	0.047	Z:	0.154	yaw:	-0.386	yaw rate:	25.711	Roll:	2.668	Pitch:	1.022	Yaw:	5.376	Thrust:	65.960
Time:	3.266	Roll Set Point:	-0.078	Pitch Set Point:	-0.092	Yaw Set Point:	0.010	X_WP:	0.100	Y_WP:	0.000	Y_WP:	0.500	X:	0.089	Y:	0.046	Z:	0.158	yaw:	-0.545	yaw rate:	-15.909	Roll:	2.269	Pitch:	0.270	Yaw:	-4.896	Thrust:	62.593
Time:	3.278	Roll Set Point:	-0.086	Pitch Set Point:	-0.089	Yaw Set Point:	0.006	X_WP:	0.100	Y_WP:	0.000	Y_WP:	0.500	X:	0.093	Y:	0.045	Z:	0.166	yaw:	-0.372	yaw rate:	4.523	Roll:	4.569	Pitch:	0.046	Yaw:	2.886	Thrust:	62.868
Time:	3.289	Roll Set Point:	-0.090	Pitch Set Point:	-0.088	Yaw Set Point:	0.001	X_WP:	0.100	Y_WP:	0.000	Y_WP:	0.500	X:	0.095	Y:	0.044	Z:	0.169	yaw:	-0.036	yaw rate:	33.576	Roll:	2.988	Pitch:	0.669	Yaw:	7.668	Thrust:	66.742
Time:	3.301	Roll Set Point:	-0.093	Pitch Set Point:	-0.087	Yaw Set Point:	0.001	X_WP:	0.100	Y_WP:	0.000	Y_WP:	0.500	X:	0.097	Y:	0.044	Z:	0.173	yaw:	-0.045	yaw rate:	-0.898	Roll:	2.571	Pitch:	0.584	Yaw:	-0.469	Thrust:	65.813
Time:	3.311	Roll Set Point:	-0.097	Pitch Set Point:	-0.085	Yaw Set Point:	0.002	X_WP:	0.100	Y_WP:	0.000	Y_WP:	0.500	X:	0.098	Y:	0.043	Z:	0.177	yaw:	-0.095	yaw rate:	-4.985	Roll:	2.116	Pitch:	0.019	Yaw:	-1.556	Thrust:	65.285
Time:	3.321	Roll Set Point:	-0.101	Pitch Set Point:	-0.084	Yaw Set Point:	0.001	X_WP:	0.100	Y_WP:	0.000	Y_WP:	0.500	X:	0.100	Y:	0.042	Z:	0.181	yaw:	-0.046	yaw rate:	4.891	Roll:	3.211	Pitch:	0.532	Yaw:	1.037	Thrust:	58.942
Time:	3.333	Roll Set Point:	-0.104	Pitch Set Point:	-0.083	Yaw Set Point:	0.000	X_WP:	0.100	Y_WP:	0.000	Y_WP:	0.500	X:	0.102	Y:	0.042	Z:	0.185	yaw:	-0.016	yaw rate:	2.982	Roll:	2.694	Pitch:	0.406	Yaw:	0.452	Thrust:	69.721
Time:	3.344	Roll Set Point:	-0.108	Pitch Set Point:	-0.082	Yaw Set Point:	-0.001	X_WP:	0.100	Y_WP:	0.000	Y_WP:	0.500	X:	0.104	Y:	0.041	Z:	0.189	yaw:	0.053	yaw rate:	6.979	Roll:	2.508	Pitch:	0.384	Yaw:	1.537	Thrust:	65.879
Time:	3.354	Roll Set Point:	-0.115	Pitch Set Point:	-0.079	Yaw Set Point:	-0.007	X_WP:	0.100	Y_WP:	0.000	Y_WP:	0.500	X:	0.107	Y:	0.040	Z:	0.197	yaw:	0.379	yaw rate:	32.572	Roll:	6.331	Pitch:	-0.671	Yaw:	8.690	Thrust:	41.057
Time:	3.365	Roll Set Point:	-0.118	Pitch Set Point:	-0.078	Yaw Set Point:	-0.005	X_WP:	0.100	Y_WP:	0.000	Y_WP:	0.500	X:	0.109	Y:	0.039	Z:	0.202	yaw:	0.302	yaw rate:	-7.692	Roll:	2.473	Pitch:	0.137	Yaw:	-1.524	Thrust:	69.192
Time:	3.376	Roll Set Point:	-0.121	Pitch Set Point:	-0.076	Yaw Set Point:	-0.007	X_WP:	0.100	Y_WP:	0.000	Y_WP:	0.500	X:	0.111	Y:	0.038	Z:	0.206	yaw:	0.405	yaw rate:	10.301	Roll:	2.340	Pitch:	-0.002	Yaw:	2.816	Thrust:	64.983
Time:	3.387	Roll Set Point:	-0.125	Pitch Set Point:	-0.075	Yaw Set Point:	-0.011	X_WP:	0.100	Y_WP:	0.000	Y_WP:	0.500	X:	0.112	Y:	0.038	Z:	0.210	yaw:	0.607	yaw rate:	20.196	Roll:	3.049	Pitch:	0.344	Yaw:	5.452	Thrust:	64.958
Time:	3.399	Roll Set Point:	-0.128	Pitch Set Point:	-0.074	Yaw Set Point:	-0.009	X_WP:	0.100	Y_WP:	0.000	Y_WP:	0.500	X:	0.114	Y:	0.037	Z:	0.215	yaw:	0.496	yaw rate:	-11.163	Roll:	2.527	Pitch:	0.112	Yaw:	-2.037	Thrust:	69.711
Time:	3.410	Roll Set Point:	-0.131	Pitch Set Point:	-0.072	Yaw Set Point:	-0.009	X_WP:	0.100	Y_WP:	0.000	Y_WP:	0.500	X:	0.116	Y:	0.036	Z:	0.219	yaw:	0.502	yaw rate:	0.619	Roll:	2.875	Pitch:	0.334	Yaw:	0.673	Thrust:	62.613
Time:	3.420	Roll Set Point:	-0.134	Pitch Set Point:	-0.071	Yaw Set Point:	-0.011	X_WP:	0.100	Y_WP:	0.000	Y_WP:	0.500	X:	0.117	Y:	0.035	Z:	0.224	yaw:	0.648	yaw rate:	14.655	Roll:	2.625	Pitch:	-0.148	Yaw:	4.291	Thrust:	62.744
Time:	3.432	Roll Set Point:	-0.138	Pitch Set Point:	-0.069	Yaw Set Point:	-0.012	X_WP:	0.100	Y_WP:	0.000	Y_WP:	0.500	X:	0.119	Y:	0.035	Z:	0.228	yaw:	0.667	yaw rate:	1.881	Roll:	2.812	Pitch:	0.121	Yaw:	1.170	Thrust:	65.268
Time:	3.443	Roll Set Point:	-0.141	Pitch Set Point:	-0.068	Yaw Set Point:	-0.013	X_WP:	0.100	Y_WP:	0.000	Y_WP:	0.500	X:	0.120	Y:	0.034	Z:	0.233	yaw:	0.721	yaw rate:	5.436	Roll:	2.732	Pitch:	0.048	Yaw:	2.190	Thrust:	65.282
Time:	3.453	Roll Set Point:	-0.144	Pitch Set Point:	-0.067	Yaw Set Point:	-0.012	X_WP:	0.100	Y_WP:	0.000	Y_WP:	0.500	X:	0.122	Y:	0.033	Z:	0.237	yaw:	0.683	yaw rate:	-3.822	Roll:	2.836	Pitch:	0.115	Yaw:	-0.153	Thrust:	62.636
Time:	3.465	Roll Set Point:	-0.147	Pitch Set Point:	-0.065	Yaw Set Point:	-0.017	X_WP:	0.100	Y_WP:	0.000	Y_WP:	0.500	X:	0.123	Y:	0.033	Z:	0.242	yaw:	0.985	yaw rate:	30.211	Roll:	3.108	Pitch:	0.159	Yaw:	8.054	Thrust:	69.354
Time:	3.477	Roll Set Point:	-0.150	Pitch Set Point:	-0.064	Yaw Set Point:	-0.013	X_WP:	0.100	Y_WP:	0.000	Y_WP:	0.500	X:	0.125	Y:	0.032	Z:	0.246	yaw:	0.756	yaw rate:	-22.955	Roll:	2.336	Pitch:	0.003	Yaw:	-4.560	Thrust:	65.437
Time:	3.488	Roll Set Point:	-0.152	Pitch Set Point:	-0.063	Yaw Set Point:	-0.014	X_WP:	0.100	Y_WP:	0.000	Y_WP:	0.500	X:	0.126	Y:	0.031	Z:	0.251	yaw:	0.775	yaw rate:	1.938	Roll:	2.680	Pitch:	0.028	Yaw:	1.377	Thrust:	65.415
Time:	3.499	Roll Set Point:	-0.155	Pitch Set Point:	-0.061	Yaw Set Point:	-0.015	X_WP:	0.100	Y_WP:	0.000	Y_WP:	0.500	X:	0.127	Y:	0.031	Z:	0.255	yaw:	0.839	yaw rate:	6.414	Roll:	2.691	Pitch:	0.033	Yaw:	2.458	Thrust:	69.292
Time:	3.510	Roll Set Point:	-0.158	Pitch Set Point:	-0.060	Yaw Set Point:	-0.014	X_WP:	0.100	Y_WP:	0.000	Y_WP:	0.500	X:	0.129	Y:	0.030	Z:	0.260	yaw:	0.826	yaw rate:	-1.323	Roll:	2.466	Pitch:	0.214	Yaw:	0.692	Thrust:	73.601
Time:	3.522	Roll Set Point:	-0.160	Pitch Set Point:	-0.059	Yaw Set Point:	-0.014	X_WP:	0.100	Y_WP:	0.000	Y_WP:	0.500	X:	0.130	Y:	0.030	Z:	0.265	yaw:	0.786	yaw rate:	-3.993	Roll:	2.644	Pitch:	0.055	Yaw:	0.058	Thrust:	73.096
Time:	3.533	Roll Set Point:	-0.163	Pitch Set Point:	-0.057	Yaw Set Point:	-0.015	X_WP:	0.100	Y_WP:	0.000	Y_WP:	0.500	X:	0.131	Y:	0.029	Z:	0.269	yaw:	0.862	yaw rate:	7.610	Roll:	2.685	Pitch:	-0.100	Yaw:	2.948	Thrust:	61.081
Time:	3.544	Roll Set Point:	-0.168	Pitch Set Point:	-0.055	Yaw Set Point:	-0.018	X_WP:	0.100	Y_WP:	0.000	Y_WP:	0.500	X:	0.134	Y:	0.028	Z:	0.279	yaw:	1.026	yaw rate:	16.371	Roll:	4.600	Pitch:	-0.848	Yaw:	5.158	Thrust:	45.126
Time:	3.555	Roll Set Point:	-0.170	Pitch Set Point:	-0.054	Yaw Set Point:	-0.014	X_WP:	0.100	Y_WP:	0.000	Y_WP:	0.500	X:	0.135	Y:	0.027	Z:	0.284	yaw:	0.813	yaw rate:	-21.253	Roll:	2.310	Pitch:	-0.077	Yaw:	-4.137	Thrust:	62.721
Time:	3.566	Roll Set Point:	-0.172	Pitch Set Point:	-0.052	Yaw Set Point:	-0.015	X_WP:	0.100	Y_WP:	0.000	Y_WP:	0.500	X:	0.136	Y:	0.026	Z:	0.289	yaw:	0.861	yaw rate:	4.774	Roll:	2.663	Pitch:	-0.054	Yaw:	2.136	Thrust:	64.015
Time:	3.577	Roll Set Point:	-0.175	Pitch Set Point:	-0.051	Yaw Set Point:	-0.017	X_WP:	0.100	Y_WP:	0.000	Y_WP:	0.500	X:	0.137	Y:	0.026	Z:	0.294	yaw:	0.982	yaw rate:	12.040	Roll:	2.837	Pitch:	-0.011	Yaw:	4.342	Thrust:	60.202
Time:	3.587	Roll Set Point:	-0.177	Pitch Set Point:	-0.050	Yaw Set Point:	-0.015	X_WP:	0.100	Y_WP:	0.000	Y_WP:	0.500	X:	0.138	Y:	0.025	Z:	0.299	yaw:	0.865	yaw rate:	-11.670	Roll:	2.319	Pitch:	-0.117	Yaw:	-1.821	Thrust:	58.788
Time:	3.598	Roll Set Point:	-0.179	Pitch Set Point:	-0.049	Yaw Set Point:	-0.014	X_WP:	0.100	Y_WP:	0.000	Y_WP:	0.500	X:	0.139	Y:	0.025	Z:	0.304	yaw:	0.792	yaw rate:	-7.261	Roll:	2.752	Pitch:	-0.040	Yaw:	-0.825	Thrust:	58.661
Time:	3.609	Roll Set Point:	-0.181	Pitch Set Point:	-0.048	Yaw Set Point:	-0.014	X_WP:	0.100	Y_WP:	0.000	Y_WP:	0.500	X:	0.140	Y:	0.024	Z:	0.309	yaw:	0.819	yaw rate:	2.625	Roll:	2.411	Pitch:	0.050	Yaw:	1.631	Thrust:	62.837
Time:	3.619	Roll Set Point:	-0.183	Pitch Set Point:	-0.047	Yaw Set Point:	-0.014	X_WP:	0.100	Y_WP:	0.000	Y_WP:	0.500	X:	0.141	Y:	0.024	Z:	0.315	yaw:	0.827	yaw rate:	0.796	Roll:	2.616	Pitch:	-0.124	Yaw:	1.247	Thrust:	53.405
Time:	3.630	Roll Set Point:	-0.184	Pitch Set Point:	-0.045	Yaw Set Point:	-0.014	X_WP:	0.100	Y_WP:	0.000	Y_WP:	0.500	X:	0.142	Y:	0.023	Z:	0.320	yaw:	0.793	yaw rate:	-3.328	Roll:	2.403	Pitch:	-0.087	Yaw:	0.224	Thrust:	66.006
Time:	3.640	Roll Set Point:	-0.186	Pitch Set Point:	-0.044	Yaw Set Point:	-0.014	X_WP:	0.100	Y_WP:	0.000	Y_WP:	0.500	X:	0.143	Y:	0.022	Z:	0.325	yaw:	0.782	yaw rate:	-1.103	Roll:	2.536	Pitch:	-0.029	Yaw:	0.695	Thrust:	52.743
Time:	3.652	Roll Set Point:	-0.189	Pitch Set Point:	-0.042	Yaw Set Point:	-0.013	X_WP:	0.100	Y_WP:	0.000	Y_WP:	0.500	X:	0.145	Y:	0.021	Z:	0.336	yaw:	0.771	yaw rate:	-1.132	Roll:	3.502	Pitch:	-0.782	Yaw:	0.696	Thrust:	43.359
Time:	3.663	Roll Set Point:	-0.191	Pitch Set Point:	-0.041	Yaw Set Point:	-0.013	X_WP:	0.100	Y_WP:	0.000	Y_WP:	0.500	X:	0.145	Y:	0.021	Z:	0.342	yaw:	0.755	yaw rate:	-1.538	Roll:	2.285	Pitch:	0.040	Yaw:	0.586	Thrust:	65.407
Time:	3.674	Roll Set Point:	-0.194	Pitch Set Point:	-0.039	Yaw Set Point:	-0.012	X_WP:	0.100	Y_WP:	0.000	Y_WP:	0.500	X:	0.147	Y:	0.020	Z:	0.353	yaw:	0.662	yaw rate:	-3.548	Roll:	3.285	Pitch:	-0.588	Yaw:	-1.397	Thrust:	38.702
Time:	3.686	Roll Set Point:	-0.194	Pitch Set Point:	-0.039	Yaw Set Point:	-0.012	X_WP:	0.100	Y_WP:	0.000	Y_WP:	0.500	X:	0.147	Y:	0.020	Z:	0.353	yaw:	0.662	yaw rate:	-3.548	Roll:	1.173	Pitch:	0.764	Yaw:	0.816	Thrust:	83.170
Time:	3.697	Roll Set Point:	-0.197	Pitch Set Point:	-0.037	Yaw Set Point:	-0.012	X_WP:	0.100	Y_WP:	0.000	Y_WP:	0.500	X:	0.148	Y:	0.019	Z:	0.363	yaw:	0.666	yaw rate:	-16.294	Roll:	3.234	Pitch:	-0.658	Yaw:	0.921	Thrust:	39.294
Time:	3.709	Roll Set Point:	-0.198	Pitch Set Point:	-0.037	Yaw Set Point:	-0.011	X_WP:	0.100	Y_WP:	0.000	Y_WP:	0.500	X:	0.149	Y:	0.019	Z:	0.369	yaw:	0.641	yaw rate:	-2.557	Roll:	2.082	Pitch:	0.069	Yaw:	0.241	Thrust:	73.589
Time:	3.721	Roll Set Point:	-0.199	Pitch Set Point:	-0.036	Yaw Set Point:	-0.010	X_WP:	0.100	Y_WP:	0.000	Y_WP:	0.500	X:	0.149	Y:	0.018	Z:	0.374	yaw:	0.595	yaw rate:	-4.568	Roll:	2.007	Pitch:	0.156	Yaw:	-0.304	Thrust:	66.860
Time:	3.732	Roll Set Point:	-0.200	Pitch Set Point:	-0.035	Yaw Set Point:	-0.010	X_WP:	0.100	Y_WP:	0.000	Y_WP:	0.500	X:	0.150	Y:	0.018	Z:	0.379	yaw:	0.577	yaw rate:	-1.805	Roll:	2.164	Pitch:	0.217	Yaw:	0.292	Thrust:	66.262
Time:	3.743	Roll Set Point:	-0.201	Pitch Set Point:	-0.034	Yaw Set Point:	-0.009	X_WP:	0.100	Y_WP:	0.000	Y_WP:	0.500	X:	0.150	Y:	0.017	Z:	0.384	yaw:	0.538	yaw rate:	-3.923	Roll:	1.952	Pitch:	0.103	Yaw:	-0.252	Thrust:	64.913
Time:	3.755	Roll Set Point:	-0.202	Pitch Set Point:	-0.033	Yaw Set Point:	-0.010	X_WP:	0.100	Y_WP:	0.000	Y_WP:	0.500	X:	0.151	Y:	0.017	Z:	0.389	yaw:	0.552	yaw rate:	1.447	Roll:	2.012	Pitch:	0.036	Yaw:	1.004	Thrust:	65.581
Time:	3.766	Roll Set Point:	-0.203	Pitch Set Point:	-0.032	Yaw Set Point:	-0.009	X_WP:	0.100	Y_WP:	0.000	Y_WP:	0.500	X:	0.151	Y:	0.016	Z:	0.394	yaw:	0.499	yaw rate:	-5.288	Roll:	1.944	Pitch:	0.120	Yaw:	-0.600	Thrust:	66.252
Time:	3.778	Roll Set Point:	-0.204	Pitch Set Point:	-0.032	Yaw Set Point:	-0.008	X_WP:	0.100	Y_WP:	0.000	Y_WP:	0.500	X:	0.152	Y:	0.016	Z:	0.399	yaw:	0.430	yaw rate:	-6.935	Roll:	1.871	Pitch:	0.227	Yaw:	-1.124	Thrust:	62.374
Time:	3.789	Roll Set Point:	-0.204	Pitch Set Point:	-0.031	Yaw Set Point:	-0.008	X_WP:	0.100	Y_WP:	0.000	Y_WP:	0.500	X:	0.152	Y:	0.016	Z:	0.404	yaw:	0.461	yaw rate:	3.104	Roll:	1.948	Pitch:	0.095	Yaw:	1.292	Thrust:	61.334
Time:	3.800	Roll Set Point:	-0.206	Pitch Set Point:	-0.030	Yaw Set Point:	-0.007	X_WP:	0.100	Y_WP:	0.000	Y_WP:	0.500	X:	0.153	Y:	0.015	Z:	0.414	yaw:	0.395	yaw rate:	-6.545	Roll:	2.277	Pitch:	-0.236	Yaw:	-1.024	Thrust:	44.849
Time:	3.811	Roll Set Point:	-0.206	Pitch Set Point:	-0.029	Yaw Set Point:	-0.007	X_WP:	0.100	Y_WP:	0.000	Y_WP:	0.500	X:	0.153	Y:	0.015	Z:	0.419	yaw:	0.373	yaw rate:	-2.226	Roll:	1.792	Pitch:	0.143	Yaw:	-0.113	Thrust:	55.730
Time:	3.822	Roll Set Point:	-0.207	Pitch Set Point:	-0.029	Yaw Set Point:	-0.006	X_WP:	0.100	Y_WP:	0.000	Y_WP:	0.500	X:	0.153	Y:	0.014	Z:	0.424	yaw:	0.323	yaw rate:	-5.008	Roll:	1.655	Pitch:	0.202	Yaw:	-0.822	Thrust:	59.513
Time:	3.833	Roll Set Point:	-0.207	Pitch Set Point:	-0.028	Yaw Set Point:	-0.006	X_WP:	0.100	Y_WP:	0.000	Y_WP:	0.500	X:	0.153	Y:	0.014	Z:	0.430	yaw:	0.368	yaw rate:	4.498	Roll:	1.688	Pitch:	0.150	Yaw:	1.498	Thrust:	59.230
Time:	3.844	Roll Set Point:	-0.207	Pitch Set Point:	-0.028	Yaw Set Point:	-0.006	X_WP:	0.100	Y_WP:	0.000	Y_WP:	0.500	X:	0.154	Y:	0.014	Z:	0.435	yaw:	0.370	yaw rate:	0.147	Roll:	1.583	Pitch:	0.278	Yaw:	0.467	Thrust:	60.777
Time:	3.855	Roll Set Point:	-0.207	Pitch Set Point:	-0.027	Yaw Set Point:	-0.006	X_WP:	0.100	Y_WP:	0.000	Y_WP:	0.500	X:	0.154	Y:	0.014	Z:	0.440	yaw:	0.320	yaw rate:	-4.940	Roll:	1.532	Pitch:	0.302	Yaw:	-0.858	Thrust:	53.999
Time:	3.867	Roll Set Point:	-0.208	Pitch Set Point:	-0.027	Yaw Set Point:	-0.006	X_WP:	0.100	Y_WP:	0.000	Y_WP:	0.500	X:	0.154	Y:	0.014	Z:	0.446	yaw:	0.325	yaw rate:	0.451	Roll:	1.524	Pitch:	0.271	Yaw:	0.466	Thrust:	62.995
Time:	3.879	Roll Set Point:	-0.208	Pitch Set Point:	-0.026	Yaw Set Point:	-0.006	X_WP:	0.100	Y_WP:	0.000	Y_WP:	0.500	X:	0.154	Y:	0.013	Z:	0.451	yaw:	0.338	yaw rate:	1.291	Roll:	1.485	Pitch:	0.292	Yaw:	0.664	Thrust:	63.926
Time:	3.891	Roll Set Point:	-0.208	Pitch Set Point:	-0.026	Yaw Set Point:	-0.006	X_WP:	0.100	Y_WP:	0.000	Y_WP:	0.500	X:	0.154	Y:	0.013	Z:	0.456	yaw:	0.364	yaw rate:	2.650	Roll:	1.347	Pitch:	0.327	Yaw:	0.968	Thrust:	76.956
Time:	3.903	Roll Set Point:	-0.208	Pitch Set Point:	-0.025	Yaw Set Point:	-0.006	X_WP:	0.100	Y_WP:	0.000	Y_WP:	0.500	X:	0.154	Y:	0.013	Z:	0.467	yaw:	0.358	yaw rate:	5.917	Roll:	1.301	Pitch:	0.121	Yaw:	0.292	Thrust:	47.801
Time:	3.916	Roll Set Point:	-0.207	Pitch Set Point:	-0.025	Yaw Set Point:	-0.006	X_WP:	0.100	Y_WP:	0.000	Y_WP:	0.500	X:	0.154	Y:	0.013	Z:	0.477	yaw:	0.318	yaw rate:	-4.032	Roll:	1.083	Pitch:	0.216	Yaw:	-0.452	Thrust:	48.175
Time:	3.928	Roll Set Point:	-0.207	Pitch Set Point:	-0.024	Yaw Set Point:	-0.007	X_WP:	0.100	Y_WP:	0.000	Y_WP:	0.500	X:	0.153	Y:	0.012	Z:	0.482	yaw:	0.373	yaw rate:	5.506	Roll:	1.180	Pitch:	0.314	Yaw:	1.589	Thrust:	79.511
Time:	3.939	Roll Set Point:	-0.207	Pitch Set Point:	-0.024	Yaw Set Point:	-0.005	X_WP:	0.100	Y_WP:	0.000	Y_WP:	0.500	X:	0.153	Y:	0.012	Z:	0.487	yaw:	0.304	yaw rate:	-6.866	Roll:	1.174	Pitch:	0.419	Yaw:	-1.350	Thrust:	48.695
Time:	3.954	Roll Set Point:	-0.206	Pitch Set Point:	-0.024	Yaw Set Point:	-0.005	X_WP:	0.100	Y_WP:	0.000	Y_WP:	0.500	X:	0.153	Y:	0.012	Z:	0.492	yaw:	0.295	yaw rate:	-0.946	Roll:	1.064	Pitch:	0.441	Yaw:	0.154	Thrust:	89.711
Time:	3.966	Roll Set Point:	-0.206	Pitch Set Point:	-0.024	Yaw Set Point:	-0.005	X_WP:	0.100	Y_WP:	0.000	Y_WP:	0.500	X:	0.153	Y:	0.012	Z:	0.497	yaw:	0.270	yaw rate:	-2.531	Roll:	1.105	Pitch:	0.536	Yaw:	-0.270	Thrust:	70.448
Time:	3.978	Roll Set Point:	-0.206	Pitch Set Point:	-0.024	Yaw Set Point:	-0.008	X_WP:	0.100	Y_WP:	0.000	Y_WP:	0.500	X:	0.153	Y:	0.012	Z:	0.502	yaw:	0.446	yaw rate:	17.663	Roll:	1.167	Pitch:	0.358	Yaw:	4.827	Thrust:	55.443
Time:	3.989	Roll Set Point:	-0.204	Pitch Set Point:	-0.023	Yaw Set Point:	-0.005	X_WP:	0.100	Y_WP:	0.000	Y_WP:	0.500	X:	0.152	Y:	0.012	Z:	0.512	yaw:	0.282	yaw rate:	-4.097	Roll:	0.377	Pitch:	0.380	Yaw:	-3.181	Thrust:	48.865
Time:	4.001	Roll Set Point:	-0.204	Pitch Set Point:	-0.023	Yaw Set Point:	-0.005	X_WP:	0.100	Y_WP:	0.000	Y_WP:	0.500	X:	0.152	Y:	0.012	Z:	0.517	yaw:	0.259	yaw rate:	-2.340	Roll:	0.873	Pitch:	0.419	Yaw:	-0.237	Thrust:	60.805
Time:	4.012	Roll Set Point:	-0.203	Pitch Set Point:	-0.023	Yaw Set Point:	-0.005	X_WP:	0.100	Y_WP:	0.000	Y_WP:	0.500	X:	0.151	Y:	0.012	Z:	0.521	yaw:	0.274	yaw rate:	1.533	Roll:	0.809	Pitch:	0.452	Yaw:	0.682	Thrust:	56.599
Time:	4.022	Roll Set Point:	-0.202	Pitch Set Point:	-0.023	Yaw Set Point:	-0.005	X_WP:	0.100	Y_WP:	0.000	Y_WP:	0.500	X:	0.151	Y:	0.012	Z:	0.526	yaw:	0.266	yaw rate:	-0.830	Roll:	0.802	Pitch:	0.532	Yaw:	0.104	Thrust:	50.053
Time:	4.034	Roll Set Point:	-0.201	Pitch Set Point:	-0.023	Yaw Set Point:	-0.006	X_WP:	0.100	Y_WP:	0.000	Y_WP:	0.500	X:	0.151	Y:	0.012	Z:	0.531	yaw:	0.335	yaw rate:	6.920	Roll:	0.686	Pitch:	0.419	Yaw:	1.975	Thrust:	55.715
Time:	4.044	Roll Set Point:	-0.200	Pitch Set Point:	-0.023	Yaw Set Point:	-0.006	X_WP:	0.100	Y_WP:	0.000	Y_WP:	0.500	X:	0.150	Y:	0.012	Z:	0.541	yaw:	0.326	yaw rate:	-0.915	Roll:	0.028	Pitch:	0.561	Yaw:	0.171	Thrust:	35.278
Time:	4.054	Roll Set Point:	-0.199	Pitch Set Point:	-0.023	Yaw Set Point:	-0.006	X_WP:	0.100	Y_WP:	0.000	Y_WP:	0.500	X:	0.149	Y:	0.012	Z:	0.546	yaw:	0.327	yaw rate:	0.037	Roll:	0.537	Pitch:	0.468	Yaw:	0.412	Thrust:	45.883
Time:	4.066	Roll Set Point:	-0.198	Pitch Set Point:	-0.023	Yaw Set Point:	-0.005	X_WP:	0.100	Y_WP:	0.000	Y_WP:	0.500	X:	0.149	Y:	0.012	Z:	0.551	yaw:	0.265	yaw rate:	-6.158	Roll:	0.545	Pitch:	0.626	Yaw:	-1.088	Thrust:	59.455
Time:	4.076	Roll Set Point:	-0.197	Pitch Set Point:	-0.023	Yaw Set Point:	-0.006	X_WP:	0.100	Y_WP:	0.000	Y_WP:	0.500	X:	0.148	Y:	0.012	Z:	0.555	yaw:	0.364	yaw rate:	9.938	Roll:	0.541	Pitch:	0.507	Yaw:	2.925	Thrust:	50.947
Time:	4.087	Roll Set Point:	-0.196	Pitch Set Point:	-0.023	Yaw Set Point:	-0.006	X_WP:	0.100	Y_WP:	0.000	Y_WP:	0.500	X:	0.148	Y:	0.012	Z:	0.560	yaw:	0.334	yaw rate:	-3.006	Roll:	0.452	Pitch:	0.583	Yaw:	-0.302	Thrust:	55.197
Time:	4.099	Roll Set Point:	-0.195	Pitch Set Point:	-0.023	Yaw Set Point:	-0.007	X_WP:	0.100	Y_WP:	0.000	Y_WP:	0.500	X:	0.147	Y:	0.012	Z:	0.564	yaw:	0.374	yaw rate:	3.954	Roll:	0.425	Pitch:	0.558	Yaw:	1.363	Thrust:	60.063
Time:	4.109	Roll Set Point:	-0.194	Pitch Set Point:	-0.023	Yaw Set Point:	-0.007	X_WP:	0.100	Y_WP:	0.000	Y_WP:	0.500	X:	0.147	Y:	0.012	Z:	0.569	yaw:	0.424	yaw rate:	5.047	Roll:	0.294	Pitch:	0.390	Yaw:	1.797	Thrust:	51.399
Time:	4.120	Roll Set Point:	-0.193	Pitch Set Point:	-0.023	Yaw Set Point:	-0.011	X_WP:	0.100	Y_WP:	0.000	Y_WP:	0.500	X:	0.146	Y:	0.012	Z:	0.573	yaw:	0.622	yaw rate:	19.809	Roll:	0.571	Pitch:	0.614	Yaw:	5.520	Thrust:	56.286
Time:	4.132	Roll Set Point:	-0.192	Pitch Set Point:	-0.023	Yaw Set Point:	-0.007	X_WP:	0.100	Y_WP:	0.000	Y_WP:	0.500	X:	0.146	Y:	0.012	Z:	0.576	yaw:	0.416	yaw rate:	-20.678	Roll:	0.298	Pitch:	0.880	Yaw:	-3.971	Thrust:	65.601
Time:	4.145	Roll Set Point:	-0.190	Pitch Set Point:	-0.023	Yaw Set Point:	-0.008	X_WP:	0.100	Y_WP:	0.000	Y_WP:	0.500	X:	0.145	Y:	0.012	Z:	0.580	yaw:	0.437	yaw rate:	2.118	Roll:	0.351	Pitch:	0.621	Yaw:	0.998	Thrust:	61.757
Time:	4.155	Roll Set Point:	-0.189	Pitch Set Point:	-0.023	Yaw Set Point:	-0.008	X_WP:	0.100	Y_WP:	0.000	Y_WP:	0.500	X:	0.145	Y:	0.012	Z:	0.584	yaw:	0.438	yaw rate:	0.108	Roll:	0.256	Pitch:	0.626	Yaw:	0.598	Thrust:	57.774
Time:	4.167	Roll Set Point:	-0.188	Pitch Set Point:	-0.024	Yaw Set Point:	-0.008	X_WP:	0.100	Y_WP:	0.000	Y_WP:	0.500	X:	0.144	Y:	0.012	Z:	0.587	yaw:	0.437	yaw rate:	-0.072	Roll:	0.242	Pitch:	0.746	Yaw:	0.548	Thrust:	62.016
Time:	4.178	Roll Set Point:	-0.185	Pitch Set Point:	-0.024	Yaw Set Point:	-0.008	X_WP:	0.100	Y_WP:	0.000	Y_WP:	0.500	X:	0.143	Y:	0.012	Z:	0.593	yaw:	0.475	yaw rate:	3.771	Roll:	-0.749	Pitch:	0.590	Yaw:	1.491	Thrust:	47.743
Time:	4.189	Roll Set Point:	-0.184	Pitch Set Point:	-0.024	Yaw Set Point:	-0.008	X_WP:	0.100	Y_WP:	0.000	Y_WP:	0.500	X:	0.142	Y:	0.012	Z:	0.597	yaw:	0.459	yaw rate:	-1.611	Roll:	0.108	Pitch:	0.696	Yaw:	0.230	Thrust:	61.867
Time:	4.201	Roll Set Point:	-0.183	Pitch Set Point:	-0.024	Yaw Set Point:	-0.007	X_WP:	0.100	Y_WP:	0.000	Y_WP:	0.500	X:	0.141	Y:	0.012	Z:	0.599	yaw:	0.381	yaw rate:	-7.810	Roll:	0.210	Pitch:	0.946	Yaw:	-1.282	Thrust:	63.052
Time:	4.212	Roll Set Point:	-0.182	Pitch Set Point:	-0.025	Yaw Set Point:	-0.008	X_WP:	0.100	Y_WP:	0.000	Y_WP:	0.500	X:	0.141	Y:	0.012	Z:	0.602	yaw:	0.440	yaw rate:	5.952	Roll:	0.117	Pitch:	0.712	Yaw:	1.983	Thrust:	59.372
Time:	4.226	Roll Set Point:	-0.180	Pitch Set Point:	-0.025	Yaw Set Point:	-0.008	X_WP:	0.100	Y_WP:	0.000	Y_WP:	0.500	X:	0.140	Y:	0.013	Z:	0.605	yaw:	0.437	yaw rate:	-0.269	Roll:	0.187	Pitch:	0.800	Yaw:	0.516	Thrust:	77.175
Time:	4.236	Roll Set Point:	-0.179	Pitch Set Point:	-0.025	Yaw Set Point:	-0.007	X_WP:	0.100	Y_WP:	0.000	Y_WP:	0.500	X:	0.139	Y:	0.013	Z:	0.607	yaw:	0.428	yaw rate:	-0.957	Roll:	-0.076	Pitch:	0.779	Yaw:	0.317	Thrust:	55.264
Time:	4.250	Roll Set Point:	-0.178	Pitch Set Point:	-0.025	Yaw Set Point:	-0.007	X_WP:	0.100	Y_WP:	0.000	Y_WP:	0.500	X:	0.139	Y:	0.013	Z:	0.610	yaw:	0.396	yaw rate:	-3.195	Roll:	-0.213	Pitch:	0.652	Yaw:	-0.090	Thrust:	76.749
Time:	4.262	Roll Set Point:	-0.175	Pitch Set Point:	-0.026	Yaw Set Point:	-0.007	X_WP:	0.100	Y_WP:	0.000	Y_WP:	0.500	X:	0.137	Y:	0.013	Z:	0.615	yaw:	0.425	yaw rate:	7.438	Roll:	-0.737	Pitch:	0.955	Yaw:	1.198	Thrust:	62.019
Time:	4.273	Roll Set Point:	-0.173	Pitch Set Point:	-0.026	Yaw Set Point:	-0.006	X_WP:	0.100	Y_WP:	0.000	Y_WP:	0.500	X:	0.137	Y:	0.013	Z:	0.617	yaw:	0.323	yaw rate:	-10.215	Roll:	-0.006	Pitch:	1.026	Yaw:	-2.002	Thrust:	59.380
Time:	4.284	Roll Set Point:	-0.172	Pitch Set Point:	-0.026	Yaw Set Point:	-0.006	X_WP:	0.100	Y_WP:	0.000	Y_WP:	0.500	X:	0.136	Y:	0.013	Z:	0.619	yaw:	0.341	yaw rate:	1.852	Roll:	-0.262	Pitch:	0.789	Yaw:	0.926	Thrust:	53.017
Time:	4.295	Roll Set Point:	-0.171	Pitch Set Point:	-0.027	Yaw Set Point:	-0.006	X_WP:	0.100	Y_WP:	0.000	Y_WP:	0.500	X:	0.135	Y:	0.013	Z:	0.622	yaw:	0.328	yaw rate:	-1.356	Roll:	-0.204	Pitch:	0.893	Yaw:	0.122	Thrust:	62.518
Time:	4.305	Roll Set Point:	-0.169	Pitch Set Point:	-0.027	Yaw Set Point:	-0.006	X_WP:	0.100	Y_WP:	0.000	Y_WP:	0.500	X:	0.134	Y:	0.014	Z:	0.624	yaw:	0.358	yaw rate:	3.027	Roll:	-0.348	Pitch:	0.693	Yaw:	1.194	Thrust:	58.505
Time:	4.318	Roll Set Point:	-0.168	Pitch Set Point:	-0.027	Yaw Set Point:	-0.006	X_WP:	0.100	Y_WP:	0.000	Y_WP:	0.500	X:	0.134	Y:	0.014	Z:	0.626	yaw:	0.364	yaw rate:	0.585	Roll:	-0.122	Pitch:	1.015	Yaw:	0.605	Thrust:	69.254
Time:	4.330	Roll Set Point:	-0.164	Pitch Set Point:	-0.028	Yaw Set Point:	-0.006	X_WP:	0.100	Y_WP:	0.000	Y_WP:	0.500	X:	0.132	Y:	0.014	Z:	0.630	yaw:	0.326	yaw rate:	-3.810	Roll:	-1.321	Pitch:	1.140	Yaw:	-0.396	Thrust:	58.144
Time:	4.340	Roll Set Point:	-0.163	Pitch Set Point:	-0.028	Yaw Set Point:	-0.008	X_WP:	0.100	Y_WP:	0.000	Y_WP:	0.500	X:	0.132	Y:	0.014	Z:	0.633	yaw:	0.461	yaw rate:	13.557	Roll:	-0.173	Pitch:	0.961	Yaw:	3.996	Thrust:	54.291
Time:	4.353	Roll Set Point:	-0.161	Pitch Set Point:	-0.029	Yaw Set Point:	-0.005	X_WP:	0.100	Y_WP:	0.000	Y_WP:	0.500	X:	0.131	Y:	0.014	Z:	0.635	yaw:	0.284	yaw rate:	-17.696	Roll:	-0.623	Pitch:	0.877	Yaw:	-3.421	Thrust:	59.627
Time:	4.363	Roll Set Point:	-0.160	Pitch Set Point:	-0.029	Yaw Set Point:	-0.005	X_WP:	0.100	Y_WP:	0.000	Y_WP:	0.500	X:	0.130	Y:	0.015	Z:	0.637	yaw:	0.274	yaw rate:	-1.080	Roll:	-0.478	Pitch:	0.884	Yaw:	0.097	Thrust:	61.602
Time:	4.374	Roll Set Point:	-0.158	Pitch Set Point:	-0.029	Yaw Set Point:	-0.005	X_WP:	0.100	Y_WP:	0.000	Y_WP:	0.500	X:	0.129	Y:	0.015	Z:	0.639	yaw:	0.268	yaw rate:	-0.552	Roll:	-0.610	Pitch:	0.726	Yaw:	0.227	Thrust:	57.348
Time:	4.385	Roll Set Point:	-0.156	Pitch Set Point:	-0.030	Yaw Set Point:	-0.005	X_WP:	0.100	Y_WP:	0.000	Y_WP:	0.500	X:	0.128	Y:	0.015	Z:	0.641	yaw:	0.261	yaw rate:	-0.707	Roll:	-0.404	Pitch:	1.154	Yaw:	0.181	Thrust:	58.037
Time:	4.397	Roll Set Point:	-0.155	Pitch Set Point:	-0.030	Yaw Set Point:	-0.005	X_WP:	0.100	Y_WP:	0.000	Y_WP:	0.500	X:	0.127	Y:	0.015	Z:	0.643	yaw:	0.262	yaw rate:	0.094	Roll:	-0.493	Pitch:	0.968	Yaw:	0.372	Thrust:	61.159
Time:	4.408	Roll Set Point:	-0.153	Pitch Set Point:	-0.031	Yaw Set Point:	-0.005	X_WP:	0.100	Y_WP:	0.000	Y_WP:	0.500	X:	0.127	Y:	0.015	Z:	0.645	yaw:	0.267	yaw rate:	0.501	Roll:	-0.569	Pitch:	0.964	Yaw:	0.478	Thrust:	57.651
Time:	4.419	Roll Set Point:	-0.152	Pitch Set Point:	-0.031	Yaw Set Point:	-0.005	X_WP:	0.100	Y_WP:	0.000	Y_WP:	0.500	X:	0.126	Y:	0.015	Z:	0.647	yaw:	0.275	yaw rate:	0.782	Roll:	-0.685	Pitch:	0.783	Yaw:	0.548	Thrust:	60.449
Time:	4.431	Roll Set Point:	-0.150	Pitch Set Point:	-0.031	Yaw Set Point:	-0.004	X_WP:	0.100	Y_WP:	0.000	Y_WP:	0.500	X:	0.125	Y:	0.016	Z:	0.649	yaw:	0.242	yaw rate:	-3.317	Roll:	-0.546	Pitch:	1.198	Yaw:	-0.428	Thrust:	61.043
Time:	4.442	Roll Set Point:	-0.148	Pitch Set Point:	-0.032	Yaw Set Point:	-0.003	X_WP:	0.100	Y_WP:	0.000	Y_WP:	0.500	X:	0.124	Y:	0.016	Z:	0.650	yaw:	0.193	yaw rate:	-4.877	Roll:	-0.581	Pitch:	1.025	Yaw:	-0.882	Thrust:	58.297
Time:	4.454	Roll Set Point:	-0.143	Pitch Set Point:	-0.033	Yaw Set Point:	-0.003	X_WP:	0.100	Y_WP:	0.000	Y_WP:	0.500	X:	0.122	Y:	0.016	Z:	0.655	yaw:	0.160	yaw rate:	0.388	Roll:	-3.077	Pitch:	1.593	Yaw:	-0.524	Thrust:	50.349
Time:	4.464	Roll Set Point:	-0.142	Pitch Set Point:	-0.033	Yaw Set Point:	-0.003	X_WP:	0.100	Y_WP:	0.000	Y_WP:	0.500	X:	0.121	Y:	0.017	Z:	0.657	yaw:	0.150	yaw rate:	-0.924	Roll:	-0.910	Pitch:	0.991	Yaw:	-0.029	Thrust:	53.791
Time:	4.475	Roll Set Point:	-0.140	Pitch Set Point:	-0.034	Yaw Set Point:	-0.003	X_WP:	0.100	Y_WP:	0.000	Y_WP:	0.500	X:	0.120	Y:	0.017	Z:	0.658	yaw:	0.146	yaw rate:	-0.438	Roll:	-0.796	Pitch:	1.051	Yaw:	0.087	Thrust:	54.250
Time:	4.486	Roll Set Point:	-0.138	Pitch Set Point:	-0.034	Yaw Set Point:	-0.002	X_WP:	0.100	Y_WP:	0.000	Y_WP:	0.500	X:	0.119	Y:	0.017	Z:	0.660	yaw:	0.106	yaw rate:	-4.009	Roll:	-0.841	Pitch:	1.035	Yaw:	-0.814	Thrust:	56.888
Time:	4.497	Roll Set Point:	-0.137	Pitch Set Point:	-0.034	Yaw Set Point:	-0.002	X_WP:	0.100	Y_WP:	0.000	Y_WP:	0.500	X:	0.118	Y:	0.017	Z:	0.661	yaw:	0.130	yaw rate:	2.459	Roll:	-1.005	Pitch:	1.047	Yaw:	0.786	Thrust:	53.442
Time:	4.509	Roll Set Point:	-0.135	Pitch Set Point:	-0.035	Yaw Set Point:	-0.001	X_WP:	0.100	Y_WP:	0.000	Y_WP:	0.500	X:	0.118	Y:	0.017	Z:	0.663	yaw:	0.046	yaw rate:	-8.448	Roll:	-0.832	Pitch:	1.091	Yaw:	-1.776	Thrust:	64.074
Time:	4.521	Roll Set Point:	-0.133	Pitch Set Point:	-0.035	Yaw Set Point:	-0.002	X_WP:	0.100	Y_WP:	0.000	Y_WP:	0.500	X:	0.117	Y:	0.018	Z:	0.664	yaw:	0.128	yaw rate:	8.204	Roll:	-0.668	Pitch:	1.012	Yaw:	1.955	Thrust:	64.094
Time:	4.532	Roll Set Point:	-0.132	Pitch Set Point:	-0.036	Yaw Set Point:	-0.002	X_WP:	0.100	Y_WP:	0.000	Y_WP:	0.500	X:	0.116	Y:	0.018	Z:	0.665	yaw:	0.092	yaw rate:	-3.558	Roll:	-0.981	Pitch:	1.042	Yaw:	-0.686	Thrust:	60.365
Time:	4.543	Roll Set Point:	-0.130	Pitch Set Point:	-0.036	Yaw Set Point:	-0.002	X_WP:	0.100	Y_WP:	0.000	Y_WP:	0.500	X:	0.115	Y:	0.018	Z:	0.666	yaw:	0.098	yaw rate:	0.525	Roll:	-0.885	Pitch:	1.085	Yaw:	0.255	Thrust:	57.151
Time:	4.555	Roll Set Point:	-0.128	Pitch Set Point:	-0.037	Yaw Set Point:	-0.001	X_WP:	0.100	Y_WP:	0.000	Y_WP:	0.500	X:	0.114	Y:	0.018	Z:	0.667	yaw:	0.063	yaw rate:	-3.443	Roll:	-0.911	Pitch:	1.072	Yaw:	-0.686	Thrust:	61.939
Time:	4.567	Roll Set Point:	-0.127	Pitch Set Point:	-0.037	Yaw Set Point:	-0.002	X_WP:	0.100	Y_WP:	0.000	Y_WP:	0.500	X:	0.113	Y:	0.018	Z:	0.668	yaw:	0.104	yaw rate:	4.118	Roll:	-1.004	Pitch:	1.078	Yaw:	1.074	Thrust:	60.519
Time:	4.578	Roll Set Point:	-0.123	Pitch Set Point:	-0.038	Yaw Set Point:	-0.001	X_WP:	0.100	Y_WP:	0.000	Y_WP:	0.500	X:	0.112	Y:	0.019	Z:	0.670	yaw:	0.085	yaw rate:	-1.939	Roll:	-2.272	Pitch:	1.405	Yaw:	-0.366	Thrust:	50.574
Time:	4.589	Roll Set Point:	-0.122	Pitch Set Point:	-0.038	Yaw Set Point:	-0.001	X_WP:	0.100	Y_WP:	0.000	Y_WP:	0.500	X:	0.111	Y:	0.019	Z:	0.671	yaw:	0.051	yaw rate:	-3.444	Roll:	-1.035	Pitch:	1.044	Yaw:	-0.737	Thrust:	58.396
Time:	4.607	Roll Set Point:	-0.119	Pitch Set Point:	-0.039	Yaw Set Point:	-0.001	X_WP:	0.100	Y_WP:	0.000	Y_WP:	0.500	X:	0.109	Y:	0.019	Z:	0.672	yaw:	0.058	yaw rate:	-6.021	Roll:	-1.472	Pitch:	1.304	Yaw:	0.171	Thrust:	100.000
Time:	4.620	Roll Set Point:	-0.117	Pitch Set Point:	-0.039	Yaw Set Point:	-0.001	X_WP:	0.100	Y_WP:	0.000	Y_WP:	0.500	X:	0.108	Y:	0.020	Z:	0.673	yaw:	0.075	yaw rate:	1.772	Roll:	-0.904	Pitch:	1.097	Yaw:	0.486	Thrust:	63.746
Time:	4.631	Roll Set Point:	-0.115	Pitch Set Point:	-0.039	Yaw Set Point:	-0.002	X_WP:	0.100	Y_WP:	0.000	Y_WP:	0.500	X:	0.108	Y:	0.020	Z:	0.673	yaw:	0.087	yaw rate:	1.121	Roll:	-1.217	Pitch:	0.983	Yaw:	0.360	Thrust:	63.187
Time:	4.642	Roll Set Point:	-0.114	Pitch Set Point:	-0.040	Yaw Set Point:	-0.001	X_WP:	0.100	Y_WP:	0.000	Y_WP:	0.500	X:	0.107	Y:	0.020	Z:	0.674	yaw:	0.037	yaw rate:	-4.996	Roll:	-0.929	Pitch:	1.212	Yaw:	-1.132	Thrust:	57.916
Time:	4.653	Roll Set Point:	-0.112	Pitch Set Point:	-0.040	Yaw Set Point:	0.000	X_WP:	0.100	Y_WP:	0.000	Y_WP:	0.500	X:	0.106	Y:	0.020	Z:	0.674	yaw:	-0.006	yaw rate:	-4.226	Roll:	-1.212	Pitch:	1.076	Yaw:	-1.015	Thrust:	57.032
Time:	4.665	Roll Set Point:	-0.111	Pitch Set Point:	-0.041	Yaw Set Point:	-0.004	X_WP:	0.100	Y_WP:	0.000	Y_WP:	0.500	X:	0.105	Y:	0.020	Z:	0.675	yaw:	0.221	yaw rate:	22.636	Roll:	-0.897	Pitch:	1.307	Yaw:	5.676	Thrust:	56.824
Time:	4.676	Roll Set Point:	-0.109	Pitch Set Point:	-0.041	Yaw Set Point:	0.000	X_WP:	0.100	Y_WP:	0.000	Y_WP:	0.500	X:	0.105	Y:	0.020	Z:	0.675	yaw:	-0.019	yaw rate:	-23.954	Roll:	-1.490	Pitch:	0.916	Yaw:	-5.476	Thrust:	53.419
Time:	4.688	Roll Set Point:	-0.108	Pitch Set Point:	-0.041	Yaw Set Point:	-0.000	X_WP:	0.100	Y_WP:	0.000	Y_WP:	0.500	X:	0.104	Y:	0.021	Z:	0.676	yaw:	0.016	yaw rate:	3.473	Roll:	-1.026	Pitch:	1.126	Yaw:	0.767	Thrust:	69.850
Time:	4.699	Roll Set Point:	-0.105	Pitch Set Point:	-0.042	Yaw Set Point:	0.000	X_WP:	0.100	Y_WP:	0.000	Y_WP:	0.500	X:	0.102	Y:	0.021	Z:	0.677	yaw:	-0.022	yaw rate:	-3.801	Roll:	-2.210	Pitch:	1.402	Yaw:	-0.896	Thrust:	57.199
Time:	4.712	Roll Set Point:	-0.103	Pitch Set Point:	-0.042	Yaw Set Point:	-0.001	X_WP:	0.100	Y_WP:	0.000	Y_WP:	0.500	X:	0.101	Y:	0.021	Z:	0.677	yaw:	0.037	yaw rate:	5.938	Roll:	-1.115	Pitch:	1.084	Yaw:	1.289	Thrust:	65.342
Time:	4.732	Roll Set Point:	-0.100	Pitch Set Point:	-0.043	Yaw Set Point:	-0.001	X_WP:	0.100	Y_WP:	0.000	Y_WP:	0.500	X:	0.100	Y:	0.022	Z:	0.678	yaw:	0.038	yaw rate:	-0.555	Roll:	-1.349	Pitch:	1.336	Yaw:	0.051	Thrust:	100.000
Time:	4.743	Roll Set Point:	-0.099	Pitch Set Point:	-0.043	Yaw Set Point:	0.001	X_WP:	0.100	Y_WP:	0.000	Y_WP:	0.500	X:	0.099	Y:	0.022	Z:	0.679	yaw:	-0.034	yaw rate:	-7.155	Roll:	-1.226	Pitch:	1.131	Yaw:	-1.737	Thrust:	55.993
Time:	4.755	Roll Set Point:	-0.097	Pitch Set Point:	-0.044	Yaw Set Point:	0.001	X_WP:	0.100	Y_WP:	0.000	Y_WP:	0.500	X:	0.099	Y:	0.022	Z:	0.679	yaw:	-0.038	yaw rate:	-0.405	Roll:	-1.101	Pitch:	1.176	Yaw:	-0.144	Thrust:	61.878
Time:	4.767	Roll Set Point:	-0.096	Pitch Set Point:	-0.044	Yaw Set Point:	-0.003	X_WP:	0.100	Y_WP:	0.000	Y_WP:	0.500	X:	0.098	Y:	0.022	Z:	0.679	yaw:	0.195	yaw rate:	23.309	Roll:	-0.970	Pitch:	1.375	Yaw:	5.337	Thrust:	61.543
Time:	4.784	Roll Set Point:	-0.093	Pitch Set Point:	-0.045	Yaw Set Point:	-0.000	X_WP:	0.100	Y_WP:	0.000	Y_WP:	0.500	X:	0.097	Y:	0.022	Z:	0.680	yaw:	0.018	yaw rate:	-19.207	Roll:	-2.308	Pitch:	1.170	Yaw:	-2.674	Thrust:	92.195
Time:	4.796	Roll Set Point:	-0.092	Pitch Set Point:	-0.045	Yaw Set Point:	-0.000	X_WP:	0.100	Y_WP:	0.000	Y_WP:	0.500	X:	0.096	Y:	0.022	Z:	0.680	yaw:	0.012	yaw rate:	-0.519	Roll:	-1.063	Pitch:	1.063	Yaw:	-0.114	Thrust:	51.283
Time:	4.807	Roll Set Point:	-0.091	Pitch Set Point:	-0.045	Yaw Set Point:	-0.000	X_WP:	0.100	Y_WP:	0.000	Y_WP:	0.500	X:	0.095	Y:	0.023	Z:	0.681	yaw:	0.003	yaw rate:	-0.951	Roll:	-0.988	Pitch:	1.256	Yaw:	-0.205	Thrust:	60.840
Time:	4.819	Roll Set Point:	-0.090	Pitch Set Point:	-0.046	Yaw Set Point:	-0.000	X_WP:	0.100	Y_WP:	0.000	Y_WP:	0.500	X:	0.095	Y:	0.023	Z:	0.681	yaw:	0.006	yaw rate:	0.324	Roll:	-1.155	Pitch:	1.181	Yaw:	0.077	Thrust:	60.026
Time:	4.830	Roll Set Point:	-0.088	Pitch Set Point:	-0.046	Yaw Set Point:	-0.000	X_WP:	0.100	Y_WP:	0.000	Y_WP:	0.500	X:	0.094	Y:	0.023	Z:	0.681	yaw:	0.003	yaw rate:	-0.296	Roll:	-1.230	Pitch:	1.154	Yaw:	-0.071	Thrust:	50.614
Time:	4.841	Roll Set Point:	-0.086	Pitch Set Point:	-0.047	Yaw Set Point:	-0.004	X_WP:	0.100	Y_WP:	0.000	Y_WP:	0.500	X:	0.093	Y:	0.023	Z:	0.682	yaw:	0.227	yaw rate:	22.391	Roll:	-1.776	Pitch:	1.633	Yaw:	5.630	Thrust:	51.175
Time:	4.852	Roll Set Point:	-0.085	Pitch Set Point:	-0.047	Yaw Set Point:	0.000	X_WP:	0.100	Y_WP:	0.000	Y_WP:	0.500	X:	0.092	Y:	0.024	Z:	0.683	yaw:	-0.000	yaw rate:	-22.725	Roll:	-1.489	Pitch:	0.916	Yaw:	-5.323	Thrust:	50.705
Time:	4.862	Roll Set Point:	-0.084	Pitch Set Point:	-0.047	Yaw Set Point:	0.000	X_WP:	0.100	Y_WP:	0.000	Y_WP:	0.500	X:	0.092	Y:	0.024	Z:	0.683	yaw:	-0.020	yaw rate:	-2.011	Roll:	-1.202	Pitch:	1.136	Yaw:	-0.529	Thrust:	52.492
Time:	4.873	Roll Set Point:	-0.083	Pitch Set Point:	-0.048	Yaw Set Point:	0.000	X_WP:	0.100	Y_WP:	0.000	Y_WP:	0.500	X:	0.091	Y:	0.024	Z:	0.684	yaw:	-0.001	yaw rate:	1.953	Roll:	-1.147	Pitch:	1.178	Yaw:	0.461	Thrust:	52.164
Time:	4.886	Roll Set Point:	-0.081	Pitch Set Point:	-0.048	Yaw Set Point:	-0.001	X_WP:	0.100	Y_WP:	0.000	Y_WP:	0.500	X:	0.091	Y:	0.024	Z:	0.685	yaw:	0.044	yaw rate:	4.472	Roll:	-1.224	Pitch:	1.047	Yaw:	0.973	Thrust:	62.472
Time:	4.899	Roll Set Point:	-0.079	Pitch Set Point:	-0.048	Yaw Set Point:	-0.001	X_WP:	0.100	Y_WP:	0.000	Y_WP:	0.500	X:	0.090	Y:	0.024	Z:	0.685	yaw:	0.039	yaw rate:	-0.120	Roll:	-1.800	Pitch:	1.397	Yaw:	-0.055	Thrust:	56.727
Time:	4.910	Roll Set Point:	-0.079	Pitch Set Point:	-0.049	Yaw Set Point:	-0.001	X_WP:	0.100	Y_WP:	0.000	Y_WP:	0.500	X:	0.089	Y:	0.024	Z:	0.685	yaw:	0.038	yaw rate:	-0.147	Roll:	-0.991	Pitch:	1.346	Yaw:	0.019	Thrust:	53.019
Time:	4.922	Roll Set Point:	-0.078	Pitch Set Point:	-0.049	Yaw Set Point:	-0.001	X_WP:	0.100	Y_WP:	0.000	Y_WP:	0.500	X:	0.089	Y:	0.025	Z:	0.686	yaw:	0.055	yaw rate:	1.739	Roll:	-1.136	Pitch:	1.157	Yaw:	0.474	Thrust:	60.729
Time:	4.934	Roll Set Point:	-0.077	Pitch Set Point:	-0.049	Yaw Set Point:	-0.001	X_WP:	0.100	Y_WP:	0.000	Y_WP:	0.500	X:	0.088	Y:	0.025	Z:	0.686	yaw:	0.079	yaw rate:	2.427	Roll:	-1.070	Pitch:	1.187	Yaw:	0.638	Thrust:	55.656
Time:	4.945	Roll Set Point:	-0.076	Pitch Set Point:	-0.050	Yaw Set Point:	-0.001	X_WP:	0.100	Y_WP:	0.000	Y_WP:	0.500	X:	0.088	Y:	0.025	Z:	0.686	yaw:	0.068	yaw rate:	-1.091	Roll:	-1.129	Pitch:	1.197	Yaw:	-0.153	Thrust:	53.089
Time:	4.957	Roll Set Point:	-0.075	Pitch Set Point:	-0.050	Yaw Set Point:	-0.002	X_WP:	0.100	Y_WP:	0.000	Y_WP:	0.500	X:	0.088	Y:	0.025	Z:	0.685	yaw:	0.129	yaw rate:	6.027	Roll:	-1.032	Pitch:	1.175	Yaw:	1.522	Thrust:	57.242
Time:	4.969	Roll Set Point:	-0.074	Pitch Set Point:	-0.050	Yaw Set Point:	-0.002	X_WP:	0.100	Y_WP:	0.000	Y_WP:	0.500	X:	0.087	Y:	0.025	Z:	0.685	yaw:	0.119	yaw rate:	-0.930	Roll:	-1.037	Pitch:	1.188	Yaw:	-0.044	Thrust:	61.520
Time:	4.985	Roll Set Point:	-0.074	Pitch Set Point:	-0.050	Yaw Set Point:	-0.002	X_WP:	0.100	Y_WP:	0.000	Y_WP:	0.500	X:	0.087	Y:	0.025	Z:	0.685	yaw:	0.108	yaw rate:	-1.169	Roll:	-1.010	Pitch:	1.176	Yaw:	-0.045	Thrust:	73.076
Time:	4.996	Roll Set Point:	-0.072	Pitch Set Point:	-0.051	Yaw Set Point:	-0.003	X_WP:	0.100	Y_WP:	0.000	Y_WP:	0.500	X:	0.086	Y:	0.026	Z:	0.683	yaw:	0.174	yaw rate:	3.122	Roll:	-1.720	Pitch:	1.531	Yaw:	1.694	Thrust:	66.379
Time:	5.008	Roll Set Point:	-0.071	Pitch Set Point:	-0.051	Yaw Set Point:	-0.003	X_WP:	0.100	Y_WP:	0.000	Y_WP:	0.500	X:	0.085	Y:	0.026	Z:	0.682	yaw:	0.159	yaw rate:	-1.539	Roll:	-1.001	Pitch:	1.123	Yaw:	-0.125	Thrust:	55.050
Time:	5.018	Roll Set Point:	-0.070	Pitch Set Point:	-0.052	Yaw Set Point:	-0.003	X_WP:	0.100	Y_WP:	0.000	Y_WP:	0.500	X:	0.085	Y:	0.026	Z:	0.681	yaw:	0.199	yaw rate:	4.038	Roll:	-0.958	Pitch:	1.235	Yaw:	1.267	Thrust:	58.709
Time:	5.030	Roll Set Point:	-0.070	Pitch Set Point:	-0.052	Yaw Set Point:	-0.004	X_WP:	0.100	Y_WP:	0.000	Y_WP:	0.500	X:	0.085	Y:	0.026	Z:	0.681	yaw:	0.201	yaw rate:	0.216	Roll:	-1.010	Pitch:	1.105	Yaw:	0.332	Thrust:	57.990
Time:	5.042	Roll Set Point:	-0.069	Pitch Set Point:	-0.052	Yaw Set Point:	-0.003	X_WP:	0.100	Y_WP:	0.000	Y_WP:	0.500	X:	0.085	Y:	0.026	Z:	0.679	yaw:	0.192	yaw rate:	-0.943	Roll:	-0.997	Pitch:	1.157	Yaw:	0.042	Thrust:	56.477
Time:	5.053	Roll Set Point:	-0.069	Pitch Set Point:	-0.052	Yaw Set Point:	-0.004	X_WP:	0.100	Y_WP:	0.000	Y_WP:	0.500	X:	0.084	Y:	0.026	Z:	0.678	yaw:	0.201	yaw rate:	0.889	Roll:	-0.947	Pitch:	1.203	Yaw:	0.476	Thrust:	56.565
Time:	5.064	Roll Set Point:	-0.068	Pitch Set Point:	-0.052	Yaw Set Point:	-0.004	X_WP:	0.100	Y_WP:	0.000	Y_WP:	0.500	X:	0.084	Y:	0.026	Z:	0.677	yaw:	0.238	yaw rate:	3.751	Roll:	-0.929	Pitch:	1.169	Yaw:	1.228	Thrust:	58.210
Time:	5.077	Roll Set Point:	-0.067	Pitch Set Point:	-0.052	Yaw Set Point:	-0.004	X_WP:	0.100	Y_WP:	0.000	Y_WP:	0.500	X:	0.084	Y:	0.026	Z:	0.676	yaw:	0.218	yaw rate:	-2.058	Roll:	-1.098	Pitch:	0.979	Yaw:	-0.118	Thrust:	60.476
