Time:	2.140	Roll Set Point:	0.006	Pitch Set Point:	-0.050	Yaw Set Point:	0.111	X_WP:	0.000	Y_WP:	0.000	Y_WP:	0.500	X:	-0.001	Y:	0.025	Z:	0.049	yaw:	-6.379	yaw rate:	-1.160	Roll:	-0.121	Pitch:	0.716	Yaw:	-8.907	Thrust:	24.811
Time:	2.171	Roll Set Point:	0.006	Pitch Set Point:	-0.050	Yaw Set Point:	0.111	X_WP:	0.000	Y_WP:	0.000	Y_WP:	0.500	X:	-0.001	Y:	0.025	Z:	0.049	yaw:	-6.373	yaw rate:	0.580	Roll:	-0.131	Pitch:	0.718	Yaw:	-8.919	Thrust:	26.531
Time:	2.202	Roll Set Point:	0.006	Pitch Set Point:	-0.050	Yaw Set Point:	0.111	X_WP:	0.000	Y_WP:	0.000	Y_WP:	0.500	X:	-0.001	Y:	0.025	Z:	0.049	yaw:	-6.378	yaw rate:	-0.499	Roll:	-0.112	Pitch:	0.712	Yaw:	-9.086	Thrust:	28.131
Time:	2.234	Roll Set Point:	0.006	Pitch Set Point:	-0.050	Yaw Set Point:	0.112	X_WP:	0.000	Y_WP:	0.000	Y_WP:	0.500	X:	-0.001	Y:	0.025	Z:	0.049	yaw:	-6.389	yaw rate:	-1.023	Roll:	-0.129	Pitch:	0.726	Yaw:	-9.218	Thrust:	30.039
Time:	2.251	Roll Set Point:	0.006	Pitch Set Point:	-0.050	Yaw Set Point:	0.111	X_WP:	0.000	Y_WP:	0.000	Y_WP:	0.500	X:	-0.001	Y:	0.025	Z:	0.049	yaw:	-6.370	yaw rate:	-0.201	Roll:	-0.112	Pitch:	0.697	Yaw:	-8.760	Thrust:	28.439
Time:	2.271	Roll Set Point:	0.006	Pitch Set Point:	-0.050	Yaw Set Point:	0.111	X_WP:	0.000	Y_WP:	0.000	Y_WP:	0.500	X:	-0.001	Y:	0.025	Z:	0.049	yaw:	-6.370	yaw rate:	-0.201	Roll:	-0.122	Pitch:	0.721	Yaw:	-9.117	Thrust:	30.237
Time:	2.285	Roll Set Point:	0.006	Pitch Set Point:	-0.050	Yaw Set Point:	0.111	X_WP:	0.000	Y_WP:	0.000	Y_WP:	0.500	X:	-0.001	Y:	0.025	Z:	0.049	yaw:	-6.343	yaw rate:	3.654	Roll:	-0.105	Pitch:	0.746	Yaw:	-8.538	Thrust:	29.464
Time:	2.317	Roll Set Point:	0.006	Pitch Set Point:	-0.050	Yaw Set Point:	0.111	X_WP:	0.000	Y_WP:	0.000	Y_WP:	0.500	X:	-0.001	Y:	0.025	Z:	0.049	yaw:	-6.343	yaw rate:	3.654	Roll:	-0.123	Pitch:	0.729	Yaw:	-9.356	Thrust:	36.970
Time:	2.330	Roll Set Point:	0.006	Pitch Set Point:	-0.050	Yaw Set Point:	0.111	X_WP:	0.000	Y_WP:	0.000	Y_WP:	0.500	X:	-0.001	Y:	0.025	Z:	0.049	yaw:	-6.342	yaw rate:	2.797	Roll:	-0.129	Pitch:	0.741	Yaw:	-9.076	Thrust:	30.414
Time:	2.365	Roll Set Point:	0.006	Pitch Set Point:	-0.050	Yaw Set Point:	0.111	X_WP:	0.000	Y_WP:	0.000	Y_WP:	0.500	X:	-0.001	Y:	0.025	Z:	0.049	yaw:	-6.342	yaw rate:	2.797	Roll:	-0.124	Pitch:	0.735	Yaw:	-9.537	Thrust:	41.420
Time:	2.391	Roll Set Point:	0.006	Pitch Set Point:	-0.050	Yaw Set Point:	0.111	X_WP:	0.000	Y_WP:	0.000	Y_WP:	0.500	X:	-0.001	Y:	0.025	Z:	0.049	yaw:	-6.367	yaw rate:	-2.504	Roll:	-0.125	Pitch:	0.714	Yaw:	-9.709	Thrust:	38.372
Time:	2.416	Roll Set Point:	0.006	Pitch Set Point:	-0.050	Yaw Set Point:	0.111	X_WP:	0.000	Y_WP:	0.000	Y_WP:	0.500	X:	-0.001	Y:	0.025	Z:	0.049	yaw:	-6.375	yaw rate:	-1.574	Roll:	-0.128	Pitch:	0.749	Yaw:	-9.612	Thrust:	39.733
Time:	2.429	Roll Set Point:	0.006	Pitch Set Point:	-0.050	Yaw Set Point:	0.111	X_WP:	0.000	Y_WP:	0.000	Y_WP:	0.500	X:	-0.001	Y:	0.025	Z:	0.049	yaw:	-6.368	yaw rate:	0.680	Roll:	-0.131	Pitch:	0.706	Yaw:	-9.102	Thrust:	33.969
Time:	2.443	Roll Set Point:	0.006	Pitch Set Point:	-0.050	Yaw Set Point:	0.111	X_WP:	0.000	Y_WP:	0.000	Y_WP:	0.500	X:	-0.001	Y:	0.025	Z:	0.049	yaw:	-6.377	yaw rate:	-0.913	Roll:	-0.130	Pitch:	0.721	Yaw:	-9.480	Thrust:	34.594
Time:	2.459	Roll Set Point:	0.006	Pitch Set Point:	-0.050	Yaw Set Point:	0.111	X_WP:	0.000	Y_WP:	0.000	Y_WP:	0.500	X:	-0.001	Y:	0.025	Z:	0.049	yaw:	-6.365	yaw rate:	1.198	Roll:	-0.121	Pitch:	0.727	Yaw:	-9.191	Thrust:	37.044
Time:	2.480	Roll Set Point:	0.006	Pitch Set Point:	-0.050	Yaw Set Point:	0.111	X_WP:	0.000	Y_WP:	0.000	Y_WP:	0.500	X:	-0.001	Y:	0.025	Z:	0.049	yaw:	-6.361	yaw rate:	0.354	Roll:	-0.110	Pitch:	0.755	Yaw:	-9.540	Thrust:	41.915
Time:	2.493	Roll Set Point:	0.006	Pitch Set Point:	-0.050	Yaw Set Point:	0.111	X_WP:	0.000	Y_WP:	0.000	Y_WP:	0.500	X:	-0.001	Y:	0.025	Z:	0.049	yaw:	-6.362	yaw rate:	-0.039	Roll:	-0.121	Pitch:	0.691	Yaw:	-9.354	Thrust:	36.056
Time:	2.526	Roll Set Point:	0.006	Pitch Set Point:	-0.050	Yaw Set Point:	0.111	X_WP:	0.000	Y_WP:	0.000	Y_WP:	0.500	X:	-0.001	Y:	0.025	Z:	0.049	yaw:	-6.362	yaw rate:	-0.039	Roll:	-0.127	Pitch:	0.750	Yaw:	-10.133	Thrust:	55.258
Time:	2.546	Roll Set Point:	0.006	Pitch Set Point:	-0.050	Yaw Set Point:	0.111	X_WP:	0.000	Y_WP:	0.000	Y_WP:	0.500	X:	-0.001	Y:	0.025	Z:	0.049	yaw:	-6.363	yaw rate:	0.076	Roll:	-0.134	Pitch:	0.738	Yaw:	-9.695	Thrust:	44.396
Time:	2.574	Roll Set Point:	0.006	Pitch Set Point:	-0.050	Yaw Set Point:	0.111	X_WP:	0.000	Y_WP:	0.000	Y_WP:	0.500	X:	-0.001	Y:	0.025	Z:	0.049	yaw:	-6.363	yaw rate:	0.076	Roll:	-0.127	Pitch:	0.748	Yaw:	-10.069	Thrust:	53.687
Time:	2.597	Roll Set Point:	0.006	Pitch Set Point:	-0.050	Yaw Set Point:	0.111	X_WP:	0.000	Y_WP:	0.000	Y_WP:	0.500	X:	-0.001	Y:	0.025	Z:	0.049	yaw:	-6.374	yaw rate:	-1.095	Roll:	-0.134	Pitch:	0.747	Yaw:	-10.048	Thrust:	48.639
Time:	2.620	Roll Set Point:	0.006	Pitch Set Point:	-0.050	Yaw Set Point:	0.111	X_WP:	0.000	Y_WP:	0.000	Y_WP:	0.500	X:	-0.001	Y:	0.025	Z:	0.049	yaw:	-6.367	yaw rate:	0.630	Roll:	-0.110	Pitch:	0.752	Yaw:	-9.895	Thrust:	52.182
Time:	2.648	Roll Set Point:	0.006	Pitch Set Point:	-0.050	Yaw Set Point:	0.111	X_WP:	0.000	Y_WP:	0.000	Y_WP:	0.500	X:	-0.001	Y:	0.025	Z:	0.049	yaw:	-6.380	yaw rate:	-1.288	Roll:	-0.143	Pitch:	0.749	Yaw:	-10.401	Thrust:	58.234
Time:	2.663	Roll Set Point:	0.006	Pitch Set Point:	-0.050	Yaw Set Point:	0.111	X_WP:	0.000	Y_WP:	0.000	Y_WP:	0.500	X:	-0.001	Y:	0.025	Z:	0.049	yaw:	-6.377	yaw rate:	-1.988	Roll:	-0.114	Pitch:	0.716	Yaw:	-9.613	Thrust:	43.515
Time:	2.678	Roll Set Point:	0.006	Pitch Set Point:	-0.050	Yaw Set Point:	0.111	X_WP:	0.000	Y_WP:	0.000	Y_WP:	0.500	X:	-0.001	Y:	0.025	Z:	0.049	yaw:	-6.348	yaw rate:	2.861	Roll:	-0.113	Pitch:	0.757	Yaw:	-9.168	Thrust:	44.423
Time:	2.693	Roll Set Point:	0.006	Pitch Set Point:	-0.050	Yaw Set Point:	0.111	X_WP:	0.000	Y_WP:	0.000	Y_WP:	0.500	X:	-0.001	Y:	0.025	Z:	0.049	yaw:	-6.354	yaw rate:	-0.610	Roll:	-0.128	Pitch:	0.748	Yaw:	-9.814	Thrust:	45.136
Time:	2.727	Roll Set Point:	0.006	Pitch Set Point:	-0.050	Yaw Set Point:	0.111	X_WP:	0.000	Y_WP:	0.000	Y_WP:	0.500	X:	-0.001	Y:	0.025	Z:	0.049	yaw:	-6.354	yaw rate:	-0.610	Roll:	-0.130	Pitch:	0.770	Yaw:	-10.842	Thrust:	72.796
Time:	2.745	Roll Set Point:	0.006	Pitch Set Point:	-0.050	Yaw Set Point:	0.111	X_WP:	0.000	Y_WP:	0.000	Y_WP:	0.500	X:	-0.001	Y:	0.025	Z:	0.049	yaw:	-6.354	yaw rate:	0.070	Roll:	-0.133	Pitch:	0.718	Yaw:	-9.883	Thrust:	49.718
Time:	2.843	Roll Set Point:	0.006	Pitch Set Point:	-0.050	Yaw Set Point:	0.111	X_WP:	0.000	Y_WP:	0.000	Y_WP:	0.500	X:	-0.001	Y:	0.025	Z:	0.049	yaw:	-6.375	yaw rate:	-2.187	Roll:	-0.148	Pitch:	0.888	Yaw:	-15.072	Thrust:	100.000
Time:	2.877	Roll Set Point:	0.006	Pitch Set Point:	-0.050	Yaw Set Point:	0.107	X_WP:	0.000	Y_WP:	0.000	Y_WP:	0.500	X:	-0.002	Y:	0.025	Z:	0.049	yaw:	-6.154	yaw rate:	22.139	Roll:	-0.139	Pitch:	0.821	Yaw:	-9.089	Thrust:	78.600
Time:	2.903	Roll Set Point:	0.005	Pitch Set Point:	-0.050	Yaw Set Point:	0.106	X_WP:	0.000	Y_WP:	0.000	Y_WP:	0.500	X:	-0.001	Y:	0.025	Z:	0.049	yaw:	-6.064	yaw rate:	30.903	Roll:	0.026	Pitch:	0.761	Yaw:	-9.298	Thrust:	66.820
Time:	2.920	Roll Set Point:	0.005	Pitch Set Point:	-0.049	Yaw Set Point:	0.109	X_WP:	0.000	Y_WP:	0.000	Y_WP:	0.500	X:	-0.001	Y:	0.025	Z:	0.049	yaw:	-6.234	yaw rate:	-17.047	Roll:	-0.094	Pitch:	0.602	Yaw:	-12.494	Thrust:	53.278
Time:	2.936	Roll Set Point:	0.005	Pitch Set Point:	-0.050	Yaw Set Point:	0.105	X_WP:	0.000	Y_WP:	0.000	Y_WP:	0.500	X:	-0.001	Y:	0.025	Z:	0.049	yaw:	-6.002	yaw rate:	23.211	Roll:	-0.052	Pitch:	0.843	Yaw:	-5.730	Thrust:	52.834
Time:	2.951	Roll Set Point:	0.005	Pitch Set Point:	-0.049	Yaw Set Point:	0.109	X_WP:	0.000	Y_WP:	0.000	Y_WP:	0.500	X:	-0.001	Y:	0.025	Z:	0.049	yaw:	-6.218	yaw rate:	-21.579	Roll:	-0.241	Pitch:	0.603	Yaw:	-13.535	Thrust:	49.925
Time:	2.969	Roll Set Point:	0.005	Pitch Set Point:	-0.050	Yaw Set Point:	0.108	X_WP:	0.000	Y_WP:	0.000	Y_WP:	0.500	X:	-0.001	Y:	0.025	Z:	0.049	yaw:	-6.189	yaw rate:	2.890	Roll:	-0.071	Pitch:	0.803	Yaw:	-9.479	Thrust:	55.894
Time:	2.983	Roll Set Point:	0.005	Pitch Set Point:	-0.050	Yaw Set Point:	0.109	X_WP:	0.000	Y_WP:	0.000	Y_WP:	0.500	X:	-0.001	Y:	0.025	Z:	0.049	yaw:	-6.226	yaw rate:	-8.707	Roll:	-0.195	Pitch:	0.742	Yaw:	-10.498	Thrust:	55.114
Time:	3.005	Roll Set Point:	0.005	Pitch Set Point:	-0.050	Yaw Set Point:	0.109	X_WP:	0.000	Y_WP:	0.000	Y_WP:	0.500	X:	-0.001	Y:	0.025	Z:	0.049	yaw:	-6.226	yaw rate:	-8.707	Roll:	-0.124	Pitch:	0.763	Yaw:	-10.447	Thrust:	67.801
Time:	3.019	Roll Set Point:	0.005	Pitch Set Point:	-0.050	Yaw Set Point:	0.109	X_WP:	0.000	Y_WP:	0.000	Y_WP:	0.500	X:	-0.001	Y:	0.025	Z:	0.049	yaw:	-6.230	yaw rate:	0.020	Roll:	-0.057	Pitch:	0.758	Yaw:	-9.912	Thrust:	52.941
Time:	3.046	Roll Set Point:	0.005	Pitch Set Point:	-0.050	Yaw Set Point:	0.109	X_WP:	0.000	Y_WP:	0.000	Y_WP:	0.500	X:	-0.001	Y:	0.025	Z:	0.049	yaw:	-6.230	yaw rate:	0.020	Roll:	-0.125	Pitch:	0.775	Yaw:	-10.967	Thrust:	78.428
Time:	3.083	Roll Set Point:	0.005	Pitch Set Point:	-0.050	Yaw Set Point:	0.105	X_WP:	0.000	Y_WP:	0.000	Y_WP:	0.500	X:	-0.001	Y:	0.025	Z:	0.049	yaw:	-6.038	yaw rate:	19.152	Roll:	-0.131	Pitch:	0.797	Yaw:	-10.146	Thrust:	100.000
Time:	3.106	Roll Set Point:	0.005	Pitch Set Point:	-0.050	Yaw Set Point:	0.107	X_WP:	0.000	Y_WP:	0.000	Y_WP:	0.500	X:	-0.001	Y:	0.025	Z:	0.049	yaw:	-6.103	yaw rate:	-6.473	Roll:	-0.044	Pitch:	0.789	Yaw:	-11.345	Thrust:	76.537
Time:	3.140	Roll Set Point:	0.005	Pitch Set Point:	-0.050	Yaw Set Point:	0.105	X_WP:	0.000	Y_WP:	0.000	Y_WP:	0.500	X:	-0.001	Y:	0.025	Z:	0.049	yaw:	-6.023	yaw rate:	7.978	Roll:	-0.071	Pitch:	0.796	Yaw:	-10.764	Thrust:	98.205
Time:	3.157	Roll Set Point:	0.005	Pitch Set Point:	-0.050	Yaw Set Point:	0.103	X_WP:	0.000	Y_WP:	0.000	Y_WP:	0.500	X:	-0.001	Y:	0.025	Z:	0.049	yaw:	-5.910	yaw rate:	11.311	Roll:	-0.077	Pitch:	0.792	Yaw:	-8.088	Thrust:	63.612
Time:	3.172	Roll Set Point:	0.005	Pitch Set Point:	-0.050	Yaw Set Point:	0.097	X_WP:	0.000	Y_WP:	0.000	Y_WP:	0.500	X:	-0.001	Y:	0.025	Z:	0.049	yaw:	-5.572	yaw rate:	33.835	Roll:	0.067	Pitch:	0.822	Yaw:	-3.309	Thrust:	58.653
Time:	3.196	Roll Set Point:	0.004	Pitch Set Point:	-0.049	Yaw Set Point:	0.094	X_WP:	0.000	Y_WP:	0.000	Y_WP:	0.500	X:	-0.001	Y:	0.025	Z:	0.051	yaw:	-5.358	yaw rate:	21.405	Roll:	0.057	Pitch:	0.531	Yaw:	-7.470	Thrust:	76.599
Time:	3.241	Roll Set Point:	0.003	Pitch Set Point:	-0.048	Yaw Set Point:	0.075	X_WP:	0.000	Y_WP:	0.000	Y_WP:	0.500	X:	-0.001	Y:	0.024	Z:	0.054	yaw:	-4.295	yaw rate:	22.244	Roll:	0.249	Pitch:	0.698	Yaw:	-4.024	Thrust:	100.000
Time:	3.256	Roll Set Point:	0.003	Pitch Set Point:	-0.048	Yaw Set Point:	0.073	X_WP:	0.000	Y_WP:	0.000	Y_WP:	0.500	X:	-0.001	Y:	0.024	Z:	0.055	yaw:	-4.167	yaw rate:	12.775	Roll:	0.077	Pitch:	0.578	Yaw:	-5.332	Thrust:	62.815
Time:	3.270	Roll Set Point:	0.003	Pitch Set Point:	-0.047	Yaw Set Point:	0.069	X_WP:	0.000	Y_WP:	0.000	Y_WP:	0.500	X:	-0.001	Y:	0.024	Z:	0.056	yaw:	-3.933	yaw rate:	23.381	Roll:	-0.025	Pitch:	0.357	Yaw:	-2.551	Thrust:	57.960
Time:	3.283	Roll Set Point:	0.002	Pitch Set Point:	-0.047	Yaw Set Point:	0.065	X_WP:	0.000	Y_WP:	0.000	Y_WP:	0.500	X:	-0.000	Y:	0.024	Z:	0.056	yaw:	-3.711	yaw rate:	22.262	Roll:	0.300	Pitch:	0.776	Yaw:	-2.046	Thrust:	55.787
Time:	3.297	Roll Set Point:	0.002	Pitch Set Point:	-0.047	Yaw Set Point:	0.058	X_WP:	0.000	Y_WP:	0.000	Y_WP:	0.500	X:	-0.000	Y:	0.023	Z:	0.058	yaw:	-3.316	yaw rate:	39.435	Roll:	0.131	Pitch:	0.399	Yaw:	1.267	Thrust:	56.122
Time:	3.312	Roll Set Point:	0.002	Pitch Set Point:	-0.047	Yaw Set Point:	0.058	X_WP:	0.000	Y_WP:	0.000	Y_WP:	0.500	X:	-0.000	Y:	0.023	Z:	0.058	yaw:	-3.316	yaw rate:	39.435	Roll:	-0.059	Pitch:	0.724	Yaw:	-6.209	Thrust:	64.954
Time:	3.326	Roll Set Point:	0.002	Pitch Set Point:	-0.046	Yaw Set Point:	0.052	X_WP:	0.000	Y_WP:	0.000	Y_WP:	0.500	X:	-0.001	Y:	0.023	Z:	0.060	yaw:	-3.008	yaw rate:	30.874	Roll:	0.001	Pitch:	0.101	Yaw:	0.069	Thrust:	54.370
Time:	3.340	Roll Set Point:	0.002	Pitch Set Point:	-0.045	Yaw Set Point:	0.041	X_WP:	0.000	Y_WP:	0.000	Y_WP:	0.500	X:	-0.000	Y:	0.023	Z:	0.063	yaw:	-2.365	yaw rate:	64.303	Roll:	0.351	Pitch:	0.416	Yaw:	7.186	Thrust:	57.129
Time:	3.363	Roll Set Point:	0.002	Pitch Set Point:	-0.045	Yaw Set Point:	0.034	X_WP:	0.000	Y_WP:	0.000	Y_WP:	0.500	X:	-0.000	Y:	0.022	Z:	0.066	yaw:	-1.964	yaw rate:	40.035	Roll:	0.093	Pitch:	0.548	Yaw:	-0.689	Thrust:	84.116
Time:	3.377	Roll Set Point:	0.001	Pitch Set Point:	-0.044	Yaw Set Point:	0.025	X_WP:	0.000	Y_WP:	0.000	Y_WP:	0.500	X:	-0.000	Y:	0.022	Z:	0.072	yaw:	-1.412	yaw rate:	21.696	Roll:	0.363	Pitch:	-0.044	Yaw:	6.808	Thrust:	44.932
Time:	3.391	Roll Set Point:	-0.000	Pitch Set Point:	-0.042	Yaw Set Point:	0.007	X_WP:	0.000	Y_WP:	0.000	Y_WP:	0.500	X:	0.000	Y:	0.021	Z:	0.078	yaw:	-0.381	yaw rate:	103.033	Roll:	1.214	Pitch:	-0.180	Yaw:	17.152	Thrust:	45.764
Time:	3.406	Roll Set Point:	-0.000	Pitch Set Point:	-0.042	Yaw Set Point:	0.007	X_WP:	0.000	Y_WP:	0.000	Y_WP:	0.500	X:	0.000	Y:	0.021	Z:	0.078	yaw:	-0.381	yaw rate:	103.033	Roll:	-0.004	Pitch:	0.664	Yaw:	-2.177	Thrust:	68.572
Time:	3.419	Roll Set Point:	-0.001	Pitch Set Point:	-0.041	Yaw Set Point:	-0.010	X_WP:	0.000	Y_WP:	0.000	Y_WP:	0.500	X:	0.000	Y:	0.021	Z:	0.085	yaw:	0.550	yaw rate:	54.878	Roll:	0.596	Pitch:	-0.085	Yaw:	18.050	Thrust:	38.892
Time:	3.443	Roll Set Point:	-0.001	Pitch Set Point:	-0.041	Yaw Set Point:	-0.010	X_WP:	0.000	Y_WP:	0.000	Y_WP:	0.500	X:	0.000	Y:	0.021	Z:	0.085	yaw:	0.550	yaw rate:	54.878	Roll:	0.004	Pitch:	0.681	Yaw:	-1.861	Thrust:	97.814
Time:	3.457	Roll Set Point:	-0.003	Pitch Set Point:	-0.037	Yaw Set Point:	-0.017	X_WP:	0.000	Y_WP:	0.000	Y_WP:	0.500	X:	0.001	Y:	0.019	Z:	0.102	yaw:	0.984	yaw rate:	9.541	Roll:	1.231	Pitch:	-1.715	Yaw:	7.935	Thrust:	10.038
Time:	3.493	Roll Set Point:	-0.003	Pitch Set Point:	-0.037	Yaw Set Point:	-0.017	X_WP:	0.000	Y_WP:	0.000	Y_WP:	0.500	X:	0.001	Y:	0.019	Z:	0.102	yaw:	0.984	yaw rate:	9.541	Roll:	0.028	Pitch:	0.665	Yaw:	-2.442	Thrust:	100.000
Time:	3.516	Roll Set Point:	-0.005	Pitch Set Point:	-0.032	Yaw Set Point:	-0.038	X_WP:	0.000	Y_WP:	0.000	Y_WP:	0.500	X:	0.002	Y:	0.016	Z:	0.123	yaw:	2.186	yaw rate:	120.186	Roll:	0.827	Pitch:	-1.327	Yaw:	14.197	Thrust:	54.665
Time:	3.533	Roll Set Point:	-0.005	Pitch Set Point:	-0.029	Yaw Set Point:	-0.040	X_WP:	0.000	Y_WP:	0.000	Y_WP:	0.500	X:	0.002	Y:	0.014	Z:	0.135	yaw:	2.285	yaw rate:	9.952	Roll:	0.371	Pitch:	-1.303	Yaw:	2.885	Thrust:	44.892
Time:	3.566	Roll Set Point:	-0.006	Pitch Set Point:	-0.025	Yaw Set Point:	-0.052	X_WP:	0.000	Y_WP:	0.000	Y_WP:	0.500	X:	0.003	Y:	0.013	Z:	0.148	yaw:	2.971	yaw rate:	68.585	Roll:	0.279	Pitch:	-0.474	Yaw:	6.317	Thrust:	100.000
Time:	3.600	Roll Set Point:	-0.007	Pitch Set Point:	-0.019	Yaw Set Point:	-0.072	X_WP:	0.000	Y_WP:	0.000	Y_WP:	0.500	X:	0.003	Y:	0.010	Z:	0.168	yaw:	4.111	yaw rate:	114.021	Roll:	0.312	Pitch:	-1.035	Yaw:	10.533	Thrust:	100.000
Time:	3.615	Roll Set Point:	-0.008	Pitch Set Point:	-0.011	Yaw Set Point:	-0.080	X_WP:	0.000	Y_WP:	0.000	Y_WP:	0.500	X:	0.004	Y:	0.006	Z:	0.193	yaw:	4.588	yaw rate:	47.629	Roll:	0.424	Pitch:	-4.478	Yaw:	13.129	Thrust:	0.000
Time:	3.635	Roll Set Point:	-0.007	Pitch Set Point:	-0.000	Yaw Set Point:	-0.094	X_WP:	0.000	Y_WP:	0.000	Y_WP:	0.500	X:	0.004	Y:	0.000	Z:	0.221	yaw:	5.365	yaw rate:	22.147	Roll:	-0.168	Pitch:	-4.575	Yaw:	15.579	Thrust:	21.545
Time:	3.649	Roll Set Point:	-0.007	Pitch Set Point:	0.002	Yaw Set Point:	-0.099	X_WP:	0.000	Y_WP:	0.000	Y_WP:	0.500	X:	0.004	Y:	-0.001	Z:	0.228	yaw:	5.701	yaw rate:	33.511	Roll:	0.015	Pitch:	-1.364	Yaw:	12.796	Thrust:	42.822
Time:	3.668	Roll Set Point:	-0.007	Pitch Set Point:	0.002	Yaw Set Point:	-0.099	X_WP:	0.000	Y_WP:	0.000	Y_WP:	0.500	X:	0.004	Y:	-0.001	Z:	0.228	yaw:	5.701	yaw rate:	33.511	Roll:	0.097	Pitch:	0.033	Yaw:	6.174	Thrust:	78.779
Time:	3.685	Roll Set Point:	-0.007	Pitch Set Point:	0.008	Yaw Set Point:	-0.101	X_WP:	0.000	Y_WP:	0.000	Y_WP:	0.500	X:	0.004	Y:	-0.004	Z:	0.241	yaw:	5.760	yaw rate:	5.957	Roll:	-0.106	Pitch:	-2.813	Yaw:	7.156	Thrust:	46.224
Time:	3.699	Roll Set Point:	-0.007	Pitch Set Point:	0.016	Yaw Set Point:	-0.109	X_WP:	0.000	Y_WP:	0.000	Y_WP:	0.500	X:	0.004	Y:	-0.008	Z:	0.260	yaw:	6.238	yaw rate:	33.655	Roll:	-0.490	Pitch:	-5.118	Yaw:	16.291	Thrust:	3.231
Time:	3.735	Roll Set Point:	-0.007	Pitch Set Point:	0.016	Yaw Set Point:	-0.109	X_WP:	0.000	Y_WP:	0.000	Y_WP:	0.500	X:	0.004	Y:	-0.008	Z:	0.260	yaw:	6.238	yaw rate:	33.655	Roll:	0.070	Pitch:	-0.107	Yaw:	5.362	Thrust:	100.000
Time:	3.774	Roll Set Point:	-0.006	Pitch Set Point:	0.026	Yaw Set Point:	-0.111	X_WP:	0.000	Y_WP:	0.000	Y_WP:	0.500	X:	0.004	Y:	-0.013	Z:	0.282	yaw:	6.343	yaw rate:	10.508	Roll:	-0.181	Pitch:	-2.486	Yaw:	6.019	Thrust:	100.000
Time:	3.794	Roll Set Point:	-0.005	Pitch Set Point:	0.043	Yaw Set Point:	-0.114	X_WP:	0.000	Y_WP:	0.000	Y_WP:	0.500	X:	0.004	Y:	-0.021	Z:	0.314	yaw:	6.513	yaw rate:	-18.730	Roll:	-1.066	Pitch:	-7.580	Yaw:	9.751	Thrust:	10.893
Time:	3.819	Roll Set Point:	-0.004	Pitch Set Point:	0.050	Yaw Set Point:	-0.112	X_WP:	0.000	Y_WP:	0.000	Y_WP:	0.500	X:	0.003	Y:	-0.025	Z:	0.325	yaw:	6.440	yaw rate:	-7.293	Roll:	-0.331	Pitch:	-2.797	Yaw:	6.016	Thrust:	87.430
Time:	3.833	Roll Set Point:	-0.004	Pitch Set Point:	0.052	Yaw Set Point:	-0.112	X_WP:	0.000	Y_WP:	0.000	Y_WP:	0.500	X:	0.003	Y:	-0.026	Z:	0.330	yaw:	6.419	yaw rate:	-2.102	Roll:	-0.209	Pitch:	-2.274	Yaw:	7.395	Thrust:	48.120
Time:	3.849	Roll Set Point:	-0.004	Pitch Set Point:	0.052	Yaw Set Point:	-0.112	X_WP:	0.000	Y_WP:	0.000	Y_WP:	0.500	X:	0.003	Y:	-0.026	Z:	0.330	yaw:	6.419	yaw rate:	-2.102	Roll:	0.005	Pitch:	-0.706	Yaw:	7.654	Thrust:	69.468
Time:	3.887	Roll Set Point:	-0.003	Pitch Set Point:	0.057	Yaw Set Point:	-0.109	X_WP:	0.000	Y_WP:	0.000	Y_WP:	0.500	X:	0.003	Y:	-0.029	Z:	0.338	yaw:	6.235	yaw rate:	-18.431	Roll:	-0.150	Pitch:	-1.831	Yaw:	4.462	Thrust:	100.000
Time:	3.900	Roll Set Point:	-0.002	Pitch Set Point:	0.071	Yaw Set Point:	-0.103	X_WP:	0.000	Y_WP:	0.000	Y_WP:	0.500	X:	0.003	Y:	-0.035	Z:	0.363	yaw:	5.913	yaw rate:	-14.777	Roll:	-0.957	Pitch:	-9.695	Yaw:	0.796	Thrust:	0.000
Time:	3.936	Roll Set Point:	-0.002	Pitch Set Point:	0.071	Yaw Set Point:	-0.103	X_WP:	0.000	Y_WP:	0.000	Y_WP:	0.500	X:	0.003	Y:	-0.035	Z:	0.363	yaw:	5.913	yaw rate:	-14.777	Roll:	-0.032	Pitch:	-0.908	Yaw:	5.546	Thrust:	100.000
Time:	3.950	Roll Set Point:	-0.002	Pitch Set Point:	0.080	Yaw Set Point:	-0.101	X_WP:	0.000	Y_WP:	0.000	Y_WP:	0.500	X:	0.003	Y:	-0.040	Z:	0.384	yaw:	5.765	yaw rate:	-4.408	Roll:	-0.753	Pitch:	-6.857	Yaw:	4.248	Thrust:	0.000
Time:	3.965	Roll Set Point:	-0.002	Pitch Set Point:	0.083	Yaw Set Point:	-0.097	X_WP:	0.000	Y_WP:	0.000	Y_WP:	0.500	X:	0.003	Y:	-0.041	Z:	0.390	yaw:	5.565	yaw rate:	-19.997	Roll:	-0.062	Pitch:	-2.599	Yaw:	3.221	Thrust:	46.735
Time:	3.981	Roll Set Point:	-0.001	Pitch Set Point:	0.088	Yaw Set Point:	-0.100	X_WP:	0.000	Y_WP:	0.000	Y_WP:	0.500	X:	0.003	Y:	-0.044	Z:	0.402	yaw:	5.751	yaw rate:	18.614	Roll:	-0.682	Pitch:	-3.961	Yaw:	9.959	Thrust:	33.059
Time:	4.007	Roll Set Point:	-0.001	Pitch Set Point:	0.094	Yaw Set Point:	-0.093	X_WP:	0.000	Y_WP:	0.000	Y_WP:	0.500	X:	0.003	Y:	-0.047	Z:	0.418	yaw:	5.305	yaw rate:	-44.586	Roll:	-0.077	Pitch:	-3.316	Yaw:	1.181	Thrust:	76.733
Time:	4.020	Roll Set Point:	-0.001	Pitch Set Point:	0.095	Yaw Set Point:	-0.095	X_WP:	0.000	Y_WP:	0.000	Y_WP:	0.500	X:	0.003	Y:	-0.048	Z:	0.422	yaw:	5.416	yaw rate:	11.118	Roll:	-0.317	Pitch:	-2.033	Yaw:	8.945	Thrust:	42.808
Time:	4.042	Roll Set Point:	-0.000	Pitch Set Point:	0.104	Yaw Set Point:	-0.082	X_WP:	0.000	Y_WP:	0.000	Y_WP:	0.500	X:	0.002	Y:	-0.052	Z:	0.444	yaw:	4.701	yaw rate:	-71.459	Roll:	0.018	Pitch:	-4.927	Yaw:	-3.313	Thrust:	43.724
Time:	4.070	Roll Set Point:	0.001	Pitch Set Point:	0.109	Yaw Set Point:	-0.098	X_WP:	0.000	Y_WP:	0.000	Y_WP:	0.500	X:	0.002	Y:	-0.054	Z:	0.460	yaw:	5.594	yaw rate:	89.257	Roll:	-0.733	Pitch:	-2.922	Yaw:	14.403	Thrust:	81.384
Time:	4.105	Roll Set Point:	0.001	Pitch Set Point:	0.116	Yaw Set Point:	-0.092	X_WP:	0.000	Y_WP:	0.000	Y_WP:	0.500	X:	0.002	Y:	-0.058	Z:	0.480	yaw:	5.282	yaw rate:	-31.220	Roll:	-0.201	Pitch:	-3.237	Yaw:	2.950	Thrust:	100.000
Time:	4.124	Roll Set Point:	0.003	Pitch Set Point:	0.127	Yaw Set Point:	-0.099	X_WP:	0.000	Y_WP:	0.000	Y_WP:	0.500	X:	0.002	Y:	-0.063	Z:	0.511	yaw:	5.692	yaw rate:	40.981	Roll:	-1.458	Pitch:	-6.623	Yaw:	12.478	Thrust:	0.000
Time:	4.156	Roll Set Point:	0.004	Pitch Set Point:	0.135	Yaw Set Point:	-0.101	X_WP:	0.000	Y_WP:	0.000	Y_WP:	0.500	X:	0.001	Y:	-0.068	Z:	0.532	yaw:	5.788	yaw rate:	9.604	Roll:	-0.708	Pitch:	-4.057	Yaw:	7.071	Thrust:	93.804
Time:	4.205	Roll Set Point:	0.007	Pitch Set Point:	0.145	Yaw Set Point:	-0.099	X_WP:	0.000	Y_WP:	0.000	Y_WP:	0.500	X:	0.000	Y:	-0.073	Z:	0.556	yaw:	5.654	yaw rate:	-13.349	Roll:	-0.681	Pitch:	-3.723	Yaw:	4.537	Thrust:	100.000
Time:	4.249	Roll Set Point:	0.009	Pitch Set Point:	0.152	Yaw Set Point:	-0.103	X_WP:	0.000	Y_WP:	0.000	Y_WP:	0.500	X:	-0.000	Y:	-0.076	Z:	0.571	yaw:	5.921	yaw rate:	26.716	Roll:	-0.876	Pitch:	-3.436	Yaw:	7.652	Thrust:	100.000
Time:	4.270	Roll Set Point:	0.011	Pitch Set Point:	0.159	Yaw Set Point:	-0.119	X_WP:	0.000	Y_WP:	0.000	Y_WP:	0.500	X:	-0.001	Y:	-0.080	Z:	0.585	yaw:	6.797	yaw rate:	14.534	Roll:	-1.985	Pitch:	-5.096	Yaw:	19.328	Thrust:	47.534
Time:	4.287	Roll Set Point:	0.012	Pitch Set Point:	0.163	Yaw Set Point:	-0.119	X_WP:	0.000	Y_WP:	0.000	Y_WP:	0.500	X:	-0.001	Y:	-0.082	Z:	0.591	yaw:	6.842	yaw rate:	4.471	Roll:	-0.853	Pitch:	-4.143	Yaw:	9.430	Thrust:	44.361
Time:	4.315	Roll Set Point:	0.014	Pitch Set Point:	0.165	Yaw Set Point:	-0.124	X_WP:	0.000	Y_WP:	0.000	Y_WP:	0.500	X:	-0.002	Y:	-0.083	Z:	0.595	yaw:	7.105	yaw rate:	26.317	Roll:	-0.935	Pitch:	-3.033	Yaw:	11.109	Thrust:	96.794
Time:	4.348	Roll Set Point:	0.016	Pitch Set Point:	0.169	Yaw Set Point:	-0.129	X_WP:	0.000	Y_WP:	0.000	Y_WP:	0.500	X:	-0.002	Y:	-0.085	Z:	0.600	yaw:	7.368	yaw rate:	26.344	Roll:	-1.074	Pitch:	-3.327	Yaw:	10.963	Thrust:	100.000
Time:	4.361	Roll Set Point:	0.019	Pitch Set Point:	0.174	Yaw Set Point:	-0.132	X_WP:	0.000	Y_WP:	0.000	Y_WP:	0.500	X:	-0.004	Y:	-0.088	Z:	0.603	yaw:	7.563	yaw rate:	-8.890	Roll:	-2.864	Pitch:	-5.714	Yaw:	13.945	Thrust:	31.915
Time:	4.375	Roll Set Point:	0.020	Pitch Set Point:	0.175	Yaw Set Point:	-0.134	X_WP:	0.000	Y_WP:	0.000	Y_WP:	0.500	X:	-0.004	Y:	-0.088	Z:	0.603	yaw:	7.665	yaw rate:	10.269	Roll:	-1.082	Pitch:	-2.980	Yaw:	12.093	Thrust:	47.905
Time:	4.389	Roll Set Point:	0.021	Pitch Set Point:	0.176	Yaw Set Point:	-0.134	X_WP:	0.000	Y_WP:	0.000	Y_WP:	0.500	X:	-0.005	Y:	-0.089	Z:	0.602	yaw:	7.703	yaw rate:	3.714	Roll:	-1.464	Pitch:	-3.445	Yaw:	10.961	Thrust:	51.367
Time:	4.418	Roll Set Point:	0.023	Pitch Set Point:	0.177	Yaw Set Point:	-0.139	X_WP:	0.000	Y_WP:	0.000	Y_WP:	0.500	X:	-0.005	Y:	-0.090	Z:	0.600	yaw:	7.951	yaw rate:	24.878	Roll:	-1.208	Pitch:	-2.820	Yaw:	12.411	Thrust:	100.000
Time:	4.444	Roll Set Point:	0.023	Pitch Set Point:	0.177	Yaw Set Point:	-0.139	X_WP:	0.000	Y_WP:	0.000	Y_WP:	0.500	X:	-0.005	Y:	-0.090	Z:	0.600	yaw:	7.951	yaw rate:	24.878	Roll:	-0.533	Pitch:	-2.553	Yaw:	10.369	Thrust:	89.192
Time:	4.457	Roll Set Point:	0.027	Pitch Set Point:	0.178	Yaw Set Point:	-0.143	X_WP:	0.000	Y_WP:	0.000	Y_WP:	0.500	X:	-0.007	Y:	-0.090	Z:	0.588	yaw:	8.183	yaw rate:	10.753	Roll:	-3.280	Pitch:	-2.843	Yaw:	15.376	Thrust:	84.200
Time:	4.471	Roll Set Point:	0.028	Pitch Set Point:	0.178	Yaw Set Point:	-0.145	X_WP:	0.000	Y_WP:	0.000	Y_WP:	0.500	X:	-0.008	Y:	-0.090	Z:	0.584	yaw:	8.287	yaw rate:	10.408	Roll:	-1.436	Pitch:	-2.315	Yaw:	13.181	Thrust:	63.923
Time:	4.511	Roll Set Point:	0.028	Pitch Set Point:	0.178	Yaw Set Point:	-0.145	X_WP:	0.000	Y_WP:	0.000	Y_WP:	0.500	X:	-0.008	Y:	-0.090	Z:	0.584	yaw:	8.287	yaw rate:	10.408	Roll:	-0.633	Pitch:	-2.582	Yaw:	10.740	Thrust:	100.000
Time:	4.536	Roll Set Point:	0.032	Pitch Set Point:	0.176	Yaw Set Point:	-0.149	X_WP:	0.000	Y_WP:	0.000	Y_WP:	0.500	X:	-0.009	Y:	-0.089	Z:	0.567	yaw:	8.532	yaw rate:	24.507	Roll:	-1.845	Pitch:	-1.920	Yaw:	14.026	Thrust:	100.000
Time:	4.554	Roll Set Point:	0.034	Pitch Set Point:	0.174	Yaw Set Point:	-0.151	X_WP:	0.000	Y_WP:	0.000	Y_WP:	0.500	X:	-0.010	Y:	-0.088	Z:	0.554	yaw:	8.644	yaw rate:	11.149	Roll:	-1.781	Pitch:	-1.443	Yaw:	13.528	Thrust:	94.345
Time:	4.594	Roll Set Point:	0.038	Pitch Set Point:	0.168	Yaw Set Point:	-0.153	X_WP:	0.000	Y_WP:	0.000	Y_WP:	0.500	X:	-0.013	Y:	-0.086	Z:	0.519	yaw:	8.778	yaw rate:	8.103	Roll:	-1.684	Pitch:	-1.120	Yaw:	12.629	Thrust:	100.000
Time:	4.625	Roll Set Point:	0.038	Pitch Set Point:	0.168	Yaw Set Point:	-0.153	X_WP:	0.000	Y_WP:	0.000	Y_WP:	0.500	X:	-0.013	Y:	-0.086	Z:	0.519	yaw:	8.778	yaw rate:	8.103	Roll:	-0.777	Pitch:	-2.446	Yaw:	12.002	Thrust:	100.000
Time:	4.641	Roll Set Point:	0.042	Pitch Set Point:	0.162	Yaw Set Point:	-0.158	X_WP:	0.000	Y_WP:	0.000	Y_WP:	0.500	X:	-0.014	Y:	-0.082	Z:	0.488	yaw:	9.055	yaw rate:	7.668	Roll:	-2.425	Pitch:	1.217	Yaw:	16.793	Thrust:	100.000
Time:	4.657	Roll Set Point:	0.043	Pitch Set Point:	0.158	Yaw Set Point:	-0.157	X_WP:	0.000	Y_WP:	0.000	Y_WP:	0.500	X:	-0.015	Y:	-0.081	Z:	0.471	yaw:	9.003	yaw rate:	-5.177	Roll:	-1.462	Pitch:	-0.001	Yaw:	11.631	Thrust:	100.000
Time:	4.671	Roll Set Point:	0.044	Pitch Set Point:	0.156	Yaw Set Point:	-0.156	X_WP:	0.000	Y_WP:	0.000	Y_WP:	0.500	X:	-0.016	Y:	-0.080	Z:	0.462	yaw:	8.941	yaw rate:	-6.217	Roll:	-1.213	Pitch:	-1.205	Yaw:	11.411	Thrust:	85.593
Time:	4.685	Roll Set Point:	0.046	Pitch Set Point:	0.153	Yaw Set Point:	-0.158	X_WP:	0.000	Y_WP:	0.000	Y_WP:	0.500	X:	-0.017	Y:	-0.078	Z:	0.447	yaw:	9.054	yaw rate:	11.294	Roll:	-1.704	Pitch:	0.076	Yaw:	14.959	Thrust:	100.000
Time:	4.699	Roll Set Point:	0.047	Pitch Set Point:	0.149	Yaw Set Point:	-0.159	X_WP:	0.000	Y_WP:	0.000	Y_WP:	0.500	X:	-0.017	Y:	-0.076	Z:	0.432	yaw:	9.129	yaw rate:	7.503	Roll:	-1.422	Pitch:	-0.003	Yaw:	14.156	Thrust:	100.000
Time:	4.718	Roll Set Point:	0.048	Pitch Set Point:	0.146	Yaw Set Point:	-0.165	X_WP:	0.000	Y_WP:	0.000	Y_WP:	0.500	X:	-0.018	Y:	-0.075	Z:	0.422	yaw:	9.477	yaw rate:	34.848	Roll:	-1.739	Pitch:	-0.655	Yaw:	18.211	Thrust:	98.074
Time:	4.740	Roll Set Point:	0.049	Pitch Set Point:	0.143	Yaw Set Point:	-0.162	X_WP:	0.000	Y_WP:	0.000	Y_WP:	0.500	X:	-0.019	Y:	-0.073	Z:	0.406	yaw:	9.255	yaw rate:	-22.240	Roll:	-1.044	Pitch:	-0.733	Yaw:	10.576	Thrust:	100.000
Time:	4.754	Roll Set Point:	0.052	Pitch Set Point:	0.133	Yaw Set Point:	-0.161	X_WP:	0.000	Y_WP:	0.000	Y_WP:	0.500	X:	-0.020	Y:	-0.068	Z:	0.366	yaw:	9.206	yaw rate:	-6.174	Roll:	-2.020	Pitch:	3.694	Yaw:	12.171	Thrust:	100.000
Time:	4.769	Roll Set Point:	0.053	Pitch Set Point:	0.130	Yaw Set Point:	-0.168	X_WP:	0.000	Y_WP:	0.000	Y_WP:	0.500	X:	-0.021	Y:	-0.067	Z:	0.353	yaw:	9.645	yaw rate:	43.883	Roll:	-2.065	Pitch:	0.207	Yaw:	21.403	Thrust:	100.000
Time:	4.782	Roll Set Point:	0.054	Pitch Set Point:	0.125	Yaw Set Point:	-0.165	X_WP:	0.000	Y_WP:	0.000	Y_WP:	0.500	X:	-0.022	Y:	-0.065	Z:	0.334	yaw:	9.437	yaw rate:	-20.811	Roll:	-0.796	Pitch:	1.282	Yaw:	9.298	Thrust:	100.000
Time:	4.814	Roll Set Point:	0.054	Pitch Set Point:	0.125	Yaw Set Point:	-0.165	X_WP:	0.000	Y_WP:	0.000	Y_WP:	0.500	X:	-0.022	Y:	-0.065	Z:	0.334	yaw:	9.437	yaw rate:	-20.811	Roll:	-0.992	Pitch:	-1.861	Yaw:	14.026	Thrust:	100.000
Time:	4.861	Roll Set Point:	0.056	Pitch Set Point:	0.115	Yaw Set Point:	-0.166	X_WP:	0.000	Y_WP:	0.000	Y_WP:	0.500	X:	-0.023	Y:	-0.060	Z:	0.295	yaw:	9.491	yaw rate:	5.419	Roll:	-1.334	Pitch:	0.109	Yaw:	14.933	Thrust:	100.000
Time:	4.874	Roll Set Point:	0.061	Pitch Set Point:	0.095	Yaw Set Point:	-0.168	X_WP:	0.000	Y_WP:	0.000	Y_WP:	0.500	X:	-0.026	Y:	-0.050	Z:	0.215	yaw:	9.604	yaw rate:	11.286	Roll:	-2.976	Pitch:	11.036	Yaw:	15.979	Thrust:	100.000
Time:	4.896	Roll Set Point:	0.063	Pitch Set Point:	0.085	Yaw Set Point:	-0.167	X_WP:	0.000	Y_WP:	0.000	Y_WP:	0.500	X:	-0.028	Y:	-0.045	Z:	0.175	yaw:	9.566	yaw rate:	-3.785	Roll:	-1.488	Pitch:	2.639	Yaw:	13.711	Thrust:	100.000
Time:	4.940	Roll Set Point:	0.067	Pitch Set Point:	0.065	Yaw Set Point:	-0.170	X_WP:	0.000	Y_WP:	0.000	Y_WP:	0.500	X:	-0.031	Y:	-0.035	Z:	0.100	yaw:	9.730	yaw rate:	16.433	Roll:	-1.559	Pitch:	2.848	Yaw:	16.316	Thrust:	100.000
Time:	4.965	Roll Set Point:	0.069	Pitch Set Point:	0.053	Yaw Set Point:	-0.171	X_WP:	0.000	Y_WP:	0.000	Y_WP:	0.500	X:	-0.032	Y:	-0.029	Z:	0.056	yaw:	9.802	yaw rate:	7.185	Roll:	-1.454	Pitch:	3.345	Yaw:	15.519	Thrust:	100.000
Time:	4.981	Roll Set Point:	0.069	Pitch Set Point:	0.056	Yaw Set Point:	-0.167	X_WP:	0.000	Y_WP:	0.000	Y_WP:	0.500	X:	-0.032	Y:	-0.031	Z:	0.047	yaw:	9.561	yaw rate:	-24.074	Roll:	-1.480	Pitch:	-2.604	Yaw:	10.168	Thrust:	100.000
Time:	4.996	Roll Set Point:	0.068	Pitch Set Point:	0.065	Yaw Set Point:	-0.120	X_WP:	0.000	Y_WP:	0.000	Y_WP:	0.500	X:	-0.032	Y:	-0.035	Z:	0.061	yaw:	6.864	yaw rate:	-269.691	Roll:	-0.107	Pitch:	-7.401	Yaw:	-40.012	Thrust:	36.544
Time:	5.018	Roll Set Point:	0.068	Pitch Set Point:	0.070	Yaw Set Point:	-0.092	X_WP:	0.000	Y_WP:	0.000	Y_WP:	0.500	X:	-0.032	Y:	-0.037	Z:	0.068	yaw:	5.300	yaw rate:	-156.462	Roll:	-0.629	Pitch:	-3.406	Yaw:	-10.014	Thrust:	100.000
Time:	5.032	Roll Set Point:	0.067	Pitch Set Point:	0.077	Yaw Set Point:	-0.064	X_WP:	0.000	Y_WP:	0.000	Y_WP:	0.500	X:	-0.032	Y:	-0.040	Z:	0.077	yaw:	3.660	yaw rate:	-163.961	Roll:	-0.161	Pitch:	-5.843	Yaw:	-24.710	Thrust:	52.933
Time:	5.045	Roll Set Point:	0.067	Pitch Set Point:	0.083	Yaw Set Point:	-0.048	X_WP:	0.000	Y_WP:	0.000	Y_WP:	0.500	X:	-0.032	Y:	-0.042	Z:	0.082	yaw:	2.746	yaw rate:	-91.462	Roll:	-0.487	Pitch:	-4.937	Yaw:	-13.814	Thrust:	59.099
Time:	5.065	Roll Set Point:	0.062	Pitch Set Point:	0.110	Yaw Set Point:	0.016	X_WP:	0.000	Y_WP:	0.000	Y_WP:	0.500	X:	-0.031	Y:	-0.055	Z:	0.102	yaw:	-0.902	yaw rate:	-170.520	Roll:	2.252	Pitch:	-13.989	Yaw:	-47.741	Thrust:	63.987
Time:	5.079	Roll Set Point:	0.061	Pitch Set Point:	0.122	Yaw Set Point:	0.029	X_WP:	0.000	Y_WP:	0.000	Y_WP:	0.500	X:	-0.031	Y:	-0.060	Z:	0.108	yaw:	-1.653	yaw rate:	-75.172	Roll:	0.260	Pitch:	-9.517	Yaw:	-15.540	Thrust:	63.680
Time:	5.099	Roll Set Point:	0.060	Pitch Set Point:	0.140	Yaw Set Point:	0.036	X_WP:	0.000	Y_WP:	0.000	Y_WP:	0.500	X:	-0.031	Y:	-0.070	Z:	0.115	yaw:	-2.082	yaw rate:	-42.890	Roll:	0.111	Pitch:	-10.498	Yaw:	-7.394	Thrust:	88.778
Time:	5.113	Roll Set Point:	0.058	Pitch Set Point:	0.151	Yaw Set Point:	0.046	X_WP:	0.000	Y_WP:	0.000	Y_WP:	0.500	X:	-0.031	Y:	-0.075	Z:	0.118	yaw:	-2.610	yaw rate:	-52.735	Roll:	0.639	Pitch:	-8.427	Yaw:	-12.709	Thrust:	78.543
Time:	5.142	Roll Set Point:	0.058	Pitch Set Point:	0.151	Yaw Set Point:	0.046	X_WP:	0.000	Y_WP:	0.000	Y_WP:	0.500	X:	-0.031	Y:	-0.075	Z:	0.118	yaw:	-2.610	yaw rate:	-52.735	Roll:	-0.878	Pitch:	-2.358	Yaw:	-2.131	Thrust:	100.000
Time:	5.156	Roll Set Point:	0.057	Pitch Set Point:	0.203	Yaw Set Point:	0.031	X_WP:	0.000	Y_WP:	0.000	Y_WP:	0.500	X:	-0.030	Y:	-0.101	Z:	0.128	yaw:	-1.783	yaw rate:	-43.706	Roll:	-0.776	Pitch:	-30.000	Yaw:	12.699	Thrust:	59.072
Time:	5.181	Roll Set Point:	0.057	Pitch Set Point:	0.203	Yaw Set Point:	0.031	X_WP:	0.000	Y_WP:	0.000	Y_WP:	0.500	X:	-0.030	Y:	-0.101	Z:	0.128	yaw:	-1.783	yaw rate:	-43.706	Roll:	-0.867	Pitch:	-3.104	Yaw:	-1.177	Thrust:	100.000
Time:	5.236	Roll Set Point:	0.059	Pitch Set Point:	0.239	Yaw Set Point:	0.004	X_WP:	0.000	Y_WP:	0.000	Y_WP:	0.500	X:	-0.030	Y:	-0.120	Z:	0.131	yaw:	-0.221	yaw rate:	156.194	Roll:	-1.682	Pitch:	-9.267	Yaw:	9.960	Thrust:	100.000
Time:	5.275	Roll Set Point:	0.060	Pitch Set Point:	0.307	Yaw Set Point:	-0.032	X_WP:	0.000	Y_WP:	0.000	Y_WP:	0.500	X:	-0.028	Y:	-0.154	Z:	0.132	yaw:	1.823	yaw rate:	204.375	Roll:	-2.477	Pitch:	-19.563	Yaw:	18.248	Thrust:	100.000
Time:	5.297	Roll Set Point:	0.059	Pitch Set Point:	0.355	Yaw Set Point:	-0.055	X_WP:	0.000	Y_WP:	0.000	Y_WP:	0.500	X:	-0.025	Y:	-0.178	Z:	0.127	yaw:	3.131	yaw rate:	130.780	Roll:	-2.628	Pitch:	-22.555	Yaw:	21.047	Thrust:	100.000
Time:	5.312	Roll Set Point:	0.058	Pitch Set Point:	0.395	Yaw Set Point:	-0.069	X_WP:	0.000	Y_WP:	0.000	Y_WP:	0.500	X:	-0.022	Y:	-0.199	Z:	0.119	yaw:	3.932	yaw rate:	27.221	Roll:	-2.715	Pitch:	-28.620	Yaw:	20.240	Thrust:	100.000
Time:	5.327	Roll Set Point:	0.058	Pitch Set Point:	0.401	Yaw Set Point:	-0.071	X_WP:	0.000	Y_WP:	0.000	Y_WP:	0.500	X:	-0.022	Y:	-0.202	Z:	0.118	yaw:	4.044	yaw rate:	11.167	Roll:	-1.239	Pitch:	-9.148	Yaw:	8.413	Thrust:	97.005
Time:	5.342	Roll Set Point:	0.058	Pitch Set Point:	0.418	Yaw Set Point:	-0.078	X_WP:	0.000	Y_WP:	0.000	Y_WP:	0.500	X:	-0.021	Y:	-0.210	Z:	0.114	yaw:	4.443	yaw rate:	39.945	Roll:	-2.326	Pitch:	-15.724	Yaw:	14.004	Thrust:	100.000
Time:	5.357	Roll Set Point:	0.058	Pitch Set Point:	0.435	Yaw Set Point:	-0.083	X_WP:	0.000	Y_WP:	0.000	Y_WP:	0.500	X:	-0.020	Y:	-0.219	Z:	0.109	yaw:	4.756	yaw rate:	31.313	Roll:	-1.951	Pitch:	-15.989	Yaw:	12.959	Thrust:	100.000
Time:	5.380	Roll Set Point:	0.059	Pitch Set Point:	0.463	Yaw Set Point:	-0.101	X_WP:	0.000	Y_WP:	0.000	Y_WP:	0.500	X:	-0.018	Y:	-0.233	Z:	0.099	yaw:	5.772	yaw rate:	101.581	Roll:	-4.051	Pitch:	-17.350	Yaw:	21.425	Thrust:	100.000
Time:	5.395	Roll Set Point:	0.059	Pitch Set Point:	0.475	Yaw Set Point:	-0.102	X_WP:	0.000	Y_WP:	0.000	Y_WP:	0.500	X:	-0.017	Y:	-0.239	Z:	0.094	yaw:	5.845	yaw rate:	7.335	Roll:	-1.288	Pitch:	-13.445	Yaw:	10.362	Thrust:	100.000
Time:	5.431	Roll Set Point:	0.062	Pitch Set Point:	0.516	Yaw Set Point:	-0.133	X_WP:	0.000	Y_WP:	0.000	Y_WP:	0.500	X:	-0.014	Y:	-0.260	Z:	0.070	yaw:	7.613	yaw rate:	176.777	Roll:	-4.841	Pitch:	-17.439	Yaw:	26.044	Thrust:	100.000
Time:	5.453	Roll Set Point:	0.065	Pitch Set Point:	0.530	Yaw Set Point:	-0.148	X_WP:	0.000	Y_WP:	0.000	Y_WP:	0.500	X:	-0.013	Y:	-0.268	Z:	0.059	yaw:	8.508	yaw rate:	89.530	Roll:	-5.181	Pitch:	-13.162	Yaw:	23.564	Thrust:	100.000
Time:	5.489	Roll Set Point:	0.087	Pitch Set Point:	0.540	Yaw Set Point:	-0.224	X_WP:	0.000	Y_WP:	0.000	Y_WP:	0.500	X:	-0.013	Y:	-0.275	Z:	0.050	yaw:	12.858	yaw rate:	434.997	Roll:	-11.486	Pitch:	-9.183	Yaw:	52.006	Thrust:	100.000
Time:	5.503	Roll Set Point:	0.073	Pitch Set Point:	0.535	Yaw Set Point:	-0.218	X_WP:	0.000	Y_WP:	0.000	Y_WP:	0.500	X:	-0.007	Y:	-0.272	Z:	0.056	yaw:	12.512	yaw rate:	-132.630	Roll:	7.786	Pitch:	-6.017	Yaw:	12.037	Thrust:	77.193
Time:	5.522	Roll Set Point:	0.073	Pitch Set Point:	0.535	Yaw Set Point:	-0.218	X_WP:	0.000	Y_WP:	0.000	Y_WP:	0.500	X:	-0.007	Y:	-0.272	Z:	0.056	yaw:	12.512	yaw rate:	-132.630	Roll:	-2.000	Pitch:	-7.889	Yaw:	18.953	Thrust:	100.000
Time:	5.542	Roll Set Point:	0.050	Pitch Set Point:	0.528	Yaw Set Point:	-0.179	X_WP:	0.000	Y_WP:	0.000	Y_WP:	0.500	X:	-0.001	Y:	-0.266	Z:	0.056	yaw:	10.278	yaw rate:	-122.093	Roll:	13.576	Pitch:	-6.287	Yaw:	-13.163	Thrust:	100.000
Time:	5.555	Roll Set Point:	0.048	Pitch Set Point:	0.526	Yaw Set Point:	-0.175	X_WP:	0.000	Y_WP:	0.000	Y_WP:	0.500	X:	-0.001	Y:	-0.265	Z:	0.055	yaw:	10.026	yaw rate:	-25.163	Roll:	0.688	Pitch:	-7.009	Yaw:	10.064	Thrust:	100.000
Time:	5.571	Roll Set Point:	0.048	Pitch Set Point:	0.526	Yaw Set Point:	-0.175	X_WP:	0.000	Y_WP:	0.000	Y_WP:	0.500	X:	-0.001	Y:	-0.265	Z:	0.055	yaw:	10.026	yaw rate:	-25.163	Roll:	-1.450	Pitch:	-7.813	Yaw:	15.433	Thrust:	100.000
Time:	5.585	Roll Set Point:	0.055	Pitch Set Point:	0.528	Yaw Set Point:	-0.182	X_WP:	0.000	Y_WP:	0.000	Y_WP:	0.500	X:	-0.003	Y:	-0.266	Z:	0.053	yaw:	10.407	yaw rate:	-7.683	Roll:	-6.624	Pitch:	-7.974	Yaw:	22.950	Thrust:	100.000
Time:	5.609	Roll Set Point:	0.055	Pitch Set Point:	0.528	Yaw Set Point:	-0.182	X_WP:	0.000	Y_WP:	0.000	Y_WP:	0.500	X:	-0.003	Y:	-0.266	Z:	0.053	yaw:	10.407	yaw rate:	-7.683	Roll:	-1.614	Pitch:	-7.952	Yaw:	16.757	Thrust:	100.000
Time:	5.622	Roll Set Point:	0.066	Pitch Set Point:	0.528	Yaw Set Point:	-0.176	X_WP:	0.000	Y_WP:	0.000	Y_WP:	0.500	X:	-0.010	Y:	-0.267	Z:	0.045	yaw:	10.101	yaw rate:	11.422	Roll:	-7.754	Pitch:	-7.746	Yaw:	9.802	Thrust:	100.000
Time:	5.639	Roll Set Point:	0.065	Pitch Set Point:	0.528	Yaw Set Point:	-0.174	X_WP:	0.000	Y_WP:	0.000	Y_WP:	0.500	X:	-0.010	Y:	-0.267	Z:	0.045	yaw:	9.980	yaw rate:	-12.194	Roll:	-1.163	Pitch:	-7.925	Yaw:	13.766	Thrust:	100.000
Time:	5.655	Roll Set Point:	0.057	Pitch Set Point:	0.528	Yaw Set Point:	-0.160	X_WP:	0.000	Y_WP:	0.000	Y_WP:	0.500	X:	-0.007	Y:	-0.266	Z:	0.047	yaw:	9.194	yaw rate:	-78.519	Roll:	4.601	Pitch:	-8.414	Yaw:	1.627	Thrust:	100.000
Time:	5.671	Roll Set Point:	0.052	Pitch Set Point:	0.528	Yaw Set Point:	-0.154	X_WP:	0.000	Y_WP:	0.000	Y_WP:	0.500	X:	-0.006	Y:	-0.266	Z:	0.046	yaw:	8.810	yaw rate:	-38.422	Roll:	2.348	Pitch:	-8.398	Yaw:	7.636	Thrust:	100.000
Time:	5.685	Roll Set Point:	0.049	Pitch Set Point:	0.528	Yaw Set Point:	-0.144	X_WP:	0.000	Y_WP:	0.000	Y_WP:	0.500	X:	-0.005	Y:	-0.266	Z:	0.045	yaw:	8.252	yaw rate:	-55.806	Roll:	2.158	Pitch:	-7.770	Yaw:	2.518	Thrust:	100.000
Time:	5.700	Roll Set Point:	0.048	Pitch Set Point:	0.527	Yaw Set Point:	-0.139	X_WP:	0.000	Y_WP:	0.000	Y_WP:	0.500	X:	-0.006	Y:	-0.265	Z:	0.045	yaw:	7.954	yaw rate:	-29.819	Roll:	-0.085	Pitch:	-7.712	Yaw:	6.948	Thrust:	100.000
Time:	5.737	Roll Set Point:	0.048	Pitch Set Point:	0.527	Yaw Set Point:	-0.140	X_WP:	0.000	Y_WP:	0.000	Y_WP:	0.500	X:	-0.006	Y:	-0.265	Z:	0.045	yaw:	8.036	yaw rate:	8.234	Roll:	-1.600	Pitch:	-8.344	Yaw:	15.596	Thrust:	100.000
Time:	5.752	Roll Set Point:	0.049	Pitch Set Point:	0.527	Yaw Set Point:	-0.141	X_WP:	0.000	Y_WP:	0.000	Y_WP:	0.500	X:	-0.006	Y:	-0.265	Z:	0.045	yaw:	8.060	yaw rate:	4.271	Roll:	-1.484	Pitch:	-7.854	Yaw:	13.110	Thrust:	100.000
Time:	5.766	Roll Set Point:	0.050	Pitch Set Point:	0.527	Yaw Set Point:	-0.143	X_WP:	0.000	Y_WP:	0.000	Y_WP:	0.500	X:	-0.006	Y:	-0.265	Z:	0.045	yaw:	8.207	yaw rate:	14.673	Roll:	-2.418	Pitch:	-7.844	Yaw:	15.600	Thrust:	100.000
Time:	5.781	Roll Set Point:	0.048	Pitch Set Point:	0.527	Yaw Set Point:	-0.140	X_WP:	0.000	Y_WP:	0.000	Y_WP:	0.500	X:	-0.006	Y:	-0.265	Z:	0.045	yaw:	8.014	yaw rate:	-19.340	Roll:	-0.103	Pitch:	-8.039	Yaw:	9.327	Thrust:	100.000
Time:	5.801	Roll Set Point:	0.048	Pitch Set Point:	0.527	Yaw Set Point:	-0.140	X_WP:	0.000	Y_WP:	0.000	Y_WP:	0.500	X:	-0.006	Y:	-0.265	Z:	0.045	yaw:	8.026	yaw rate:	1.272	Roll:	-1.423	Pitch:	-8.053	Yaw:	13.379	Thrust:	100.000
Time:	5.833	Roll Set Point:	0.049	Pitch Set Point:	0.527	Yaw Set Point:	-0.142	X_WP:	0.000	Y_WP:	0.000	Y_WP:	0.500	X:	-0.006	Y:	-0.265	Z:	0.045	yaw:	8.159	yaw rate:	13.257	Roll:	-1.908	Pitch:	-8.358	Yaw:	15.682	Thrust:	100.000
Time:	5.847	Roll Set Point:	0.048	Pitch Set Point:	0.527	Yaw Set Point:	-0.139	X_WP:	0.000	Y_WP:	0.000	Y_WP:	0.500	X:	-0.006	Y:	-0.265	Z:	0.045	yaw:	7.980	yaw rate:	-17.918	Roll:	-0.092	Pitch:	-8.055	Yaw:	9.204	Thrust:	100.000
Time:	5.907	Roll Set Point:	0.048	Pitch Set Point:	0.527	Yaw Set Point:	-0.140	X_WP:	0.000	Y_WP:	0.000	Y_WP:	0.500	X:	-0.006	Y:	-0.265	Z:	0.045	yaw:	8.004	yaw rate:	2.439	Roll:	-1.565	Pitch:	-9.094	Yaw:	17.200	Thrust:	100.000
Time:	5.920	Roll Set Point:	0.050	Pitch Set Point:	0.527	Yaw Set Point:	-0.143	X_WP:	0.000	Y_WP:	0.000	Y_WP:	0.500	X:	-0.006	Y:	-0.265	Z:	0.045	yaw:	8.188	yaw rate:	14.732	Roll:	-2.046	Pitch:	-7.826	Yaw:	16.259	Thrust:	100.000
Time:	5.935	Roll Set Point:	0.049	Pitch Set Point:	0.527	Yaw Set Point:	-0.141	X_WP:	0.000	Y_WP:	0.000	Y_WP:	0.500	X:	-0.006	Y:	-0.265	Z:	0.045	yaw:	8.088	yaw rate:	-10.009	Roll:	-0.641	Pitch:	-7.998	Yaw:	11.054	Thrust:	100.000
Time:	5.957	Roll Set Point:	0.049	Pitch Set Point:	0.527	Yaw Set Point:	-0.141	X_WP:	0.000	Y_WP:	0.000	Y_WP:	0.500	X:	-0.006	Y:	-0.265	Z:	0.045	yaw:	8.088	yaw rate:	-10.009	Roll:	-1.411	Pitch:	-8.197	Yaw:	13.498	Thrust:	100.000
Time:	5.972	Roll Set Point:	0.048	Pitch Set Point:	0.527	Yaw Set Point:	-0.139	X_WP:	0.000	Y_WP:	0.000	Y_WP:	0.500	X:	-0.006	Y:	-0.265	Z:	0.045	yaw:	7.973	yaw rate:	-7.614	Roll:	-0.704	Pitch:	-8.188	Yaw:	10.641	Thrust:	100.000
Time:	5.996	Roll Set Point:	0.048	Pitch Set Point:	0.527	Yaw Set Point:	-0.139	X_WP:	0.000	Y_WP:	0.000	Y_WP:	0.500	X:	-0.006	Y:	-0.265	Z:	0.045	yaw:	7.973	yaw rate:	-7.614	Roll:	-1.414	Pitch:	-8.288	Yaw:	13.539	Thrust:	100.000
Time:	6.023	Roll Set Point:	0.040	Pitch Set Point:	0.213	Yaw Set Point:	-0.140	X_WP:	0.036	Y_WP:	-0.312	Y_WP:	0.500	X:	-0.006	Y:	-0.265	Z:	0.045	yaw:	8.037	yaw rate:	6.418	Roll:	3.656	Pitch:	30.000	Yaw:	14.550	Thrust:	100.000
Time:	6.044	Roll Set Point:	0.040	Pitch Set Point:	0.214	Yaw Set Point:	-0.140	X_WP:	0.036	Y_WP:	-0.312	Y_WP:	0.500	X:	-0.006	Y:	-0.265	Z:	0.045	yaw:	8.033	yaw rate:	-0.440	Roll:	-1.156	Pitch:	0.915	Yaw:	13.267	Thrust:	100.000
Time:	6.060	Roll Set Point:	0.040	Pitch Set Point:	0.214	Yaw Set Point:	-0.139	X_WP:	0.036	Y_WP:	-0.312	Y_WP:	0.500	X:	-0.006	Y:	-0.265	Z:	0.045	yaw:	7.987	yaw rate:	-4.563	Roll:	-1.191	Pitch:	0.973	Yaw:	12.012	Thrust:	100.000
Time:	6.079	Roll Set Point:	0.041	Pitch Set Point:	0.214	Yaw Set Point:	-0.139	X_WP:	0.036	Y_WP:	-0.312	Y_WP:	0.500	X:	-0.006	Y:	-0.265	Z:	0.045	yaw:	7.981	yaw rate:	3.837	Roll:	-1.156	Pitch:	0.952	Yaw:	12.964	Thrust:	100.000
Time:	6.113	Roll Set Point:	0.040	Pitch Set Point:	0.213	Yaw Set Point:	-0.140	X_WP:	0.036	Y_WP:	-0.312	Y_WP:	0.500	X:	-0.006	Y:	-0.265	Z:	0.045	yaw:	8.040	yaw rate:	5.872	Roll:	-1.259	Pitch:	0.536	Yaw:	15.085	Thrust:	100.000
Time:	6.150	Roll Set Point:	0.041	Pitch Set Point:	0.214	Yaw Set Point:	-0.138	X_WP:	0.036	Y_WP:	-0.312	Y_WP:	0.500	X:	-0.006	Y:	-0.265	Z:	0.045	yaw:	7.924	yaw rate:	-11.585	Roll:	-1.291	Pitch:	0.435	Yaw:	13.833	Thrust:	100.000
Time:	6.167	Roll Set Point:	0.040	Pitch Set Point:	0.213	Yaw Set Point:	-0.140	X_WP:	0.036	Y_WP:	-0.312	Y_WP:	0.500	X:	-0.006	Y:	-0.265	Z:	0.045	yaw:	7.995	yaw rate:	7.060	Roll:	-1.176	Pitch:	1.083	Yaw:	13.951	Thrust:	100.000
Time:	6.180	Roll Set Point:	0.040	Pitch Set Point:	0.213	Yaw Set Point:	-0.140	X_WP:	0.036	Y_WP:	-0.312	Y_WP:	0.500	X:	-0.006	Y:	-0.265	Z:	0.045	yaw:	8.035	yaw rate:	-0.102	Roll:	-1.085	Pitch:	1.144	Yaw:	13.325	Thrust:	100.000
Time:	6.228	Roll Set Point:	0.040	Pitch Set Point:	0.213	Yaw Set Point:	-0.140	X_WP:	0.036	Y_WP:	-0.312	Y_WP:	0.500	X:	-0.006	Y:	-0.265	Z:	0.045	yaw:	8.035	yaw rate:	-0.102	Roll:	-1.403	Pitch:	0.141	Yaw:	16.031	Thrust:	100.000
Time:	6.261	Roll Set Point:	0.040	Pitch Set Point:	0.213	Yaw Set Point:	-0.143	X_WP:	0.036	Y_WP:	-0.312	Y_WP:	0.500	X:	-0.006	Y:	-0.265	Z:	0.045	yaw:	8.184	yaw rate:	15.517	Roll:	-1.201	Pitch:	0.649	Yaw:	15.857	Thrust:	100.000
Time:	6.277	Roll Set Point:	0.040	Pitch Set Point:	0.213	Yaw Set Point:	-0.143	X_WP:	0.036	Y_WP:	-0.312	Y_WP:	0.500	X:	-0.006	Y:	-0.265	Z:	0.045	yaw:	8.184	yaw rate:	15.517	Roll:	-1.148	Pitch:	1.056	Yaw:	13.131	Thrust:	100.000
Time:	6.290	Roll Set Point:	0.041	Pitch Set Point:	0.214	Yaw Set Point:	-0.138	X_WP:	0.036	Y_WP:	-0.312	Y_WP:	0.500	X:	-0.006	Y:	-0.265	Z:	0.045	yaw:	7.889	yaw rate:	-9.009	Roll:	-1.442	Pitch:	0.890	Yaw:	6.393	Thrust:	100.000
Time:	6.304	Roll Set Point:	0.040	Pitch Set Point:	0.213	Yaw Set Point:	-0.145	X_WP:	0.036	Y_WP:	-0.312	Y_WP:	0.500	X:	-0.006	Y:	-0.265	Z:	0.045	yaw:	8.289	yaw rate:	39.983	Roll:	-0.689	Pitch:	1.402	Yaw:	20.434	Thrust:	100.000
Time:	6.319	Roll Set Point:	0.040	Pitch Set Point:	0.213	Yaw Set Point:	-0.140	X_WP:	0.036	Y_WP:	-0.312	Y_WP:	0.500	X:	-0.006	Y:	-0.265	Z:	0.045	yaw:	8.046	yaw rate:	-24.324	Roll:	-1.404	Pitch:	0.927	Yaw:	8.508	Thrust:	100.000
Time:	6.337	Roll Set Point:	0.040	Pitch Set Point:	0.214	Yaw Set Point:	-0.139	X_WP:	0.036	Y_WP:	-0.312	Y_WP:	0.500	X:	-0.006	Y:	-0.265	Z:	0.045	yaw:	7.949	yaw rate:	-9.688	Roll:	-1.256	Pitch:	0.953	Yaw:	11.496	Thrust:	100.000
Time:	6.365	Roll Set Point:	0.040	Pitch Set Point:	0.214	Yaw Set Point:	-0.139	X_WP:	0.036	Y_WP:	-0.312	Y_WP:	0.500	X:	-0.006	Y:	-0.265	Z:	0.045	yaw:	7.949	yaw rate:	-9.688	Roll:	-1.262	Pitch:	0.733	Yaw:	13.906	Thrust:	100.000
Time:	6.397	Roll Set Point:	0.040	Pitch Set Point:	0.213	Yaw Set Point:	-0.143	X_WP:	0.036	Y_WP:	-0.312	Y_WP:	0.500	X:	-0.006	Y:	-0.265	Z:	0.045	yaw:	8.215	yaw rate:	21.185	Roll:	-1.162	Pitch:	0.746	Yaw:	16.851	Thrust:	100.000
Time:	6.411	Roll Set Point:	0.040	Pitch Set Point:	0.213	Yaw Set Point:	-0.140	X_WP:	0.036	Y_WP:	-0.312	Y_WP:	0.500	X:	-0.006	Y:	-0.265	Z:	0.045	yaw:	8.039	yaw rate:	-17.628	Roll:	-1.330	Pitch:	0.974	Yaw:	9.341	Thrust:	100.000
Time:	6.424	Roll Set Point:	0.040	Pitch Set Point:	0.213	Yaw Set Point:	-0.141	X_WP:	0.036	Y_WP:	-0.312	Y_WP:	0.500	X:	-0.006	Y:	-0.265	Z:	0.045	yaw:	8.054	yaw rate:	1.551	Roll:	-1.114	Pitch:	1.169	Yaw:	12.861	Thrust:	100.000
Time:	6.446	Roll Set Point:	0.040	Pitch Set Point:	0.213	Yaw Set Point:	-0.141	X_WP:	0.036	Y_WP:	-0.312	Y_WP:	0.500	X:	-0.006	Y:	-0.265	Z:	0.045	yaw:	8.054	yaw rate:	1.551	Roll:	-1.212	Pitch:	0.911	Yaw:	13.452	Thrust:	100.000
Time:	6.466	Roll Set Point:	0.040	Pitch Set Point:	0.213	Yaw Set Point:	-0.140	X_WP:	0.036	Y_WP:	-0.312	Y_WP:	0.500	X:	-0.006	Y:	-0.265	Z:	0.045	yaw:	8.030	yaw rate:	-2.459	Roll:	-1.213	Pitch:	0.954	Yaw:	12.896	Thrust:	100.000
Time:	6.481	Roll Set Point:	0.041	Pitch Set Point:	0.214	Yaw Set Point:	-0.141	X_WP:	0.036	Y_WP:	-0.312	Y_WP:	0.500	X:	-0.006	Y:	-0.265	Z:	0.045	yaw:	8.084	yaw rate:	15.682	Roll:	-1.073	Pitch:	1.135	Yaw:	13.731	Thrust:	100.000
Time:	6.518	Roll Set Point:	0.040	Pitch Set Point:	0.213	Yaw Set Point:	-0.141	X_WP:	0.036	Y_WP:	-0.312	Y_WP:	0.500	X:	-0.006	Y:	-0.265	Z:	0.045	yaw:	8.075	yaw rate:	-0.814	Roll:	-1.361	Pitch:	0.542	Yaw:	14.826	Thrust:	100.000
Time:	6.536	Roll Set Point:	0.040	Pitch Set Point:	0.213	Yaw Set Point:	-0.141	X_WP:	0.036	Y_WP:	-0.312	Y_WP:	0.500	X:	-0.006	Y:	-0.265	Z:	0.045	yaw:	8.075	yaw rate:	-0.814	Roll:	-1.170	Pitch:	1.028	Yaw:	13.080	Thrust:	100.000
Time:	6.570	Roll Set Point:	0.040	Pitch Set Point:	0.213	Yaw Set Point:	-0.140	X_WP:	0.036	Y_WP:	-0.312	Y_WP:	0.500	X:	-0.006	Y:	-0.265	Z:	0.045	yaw:	8.000	yaw rate:	-7.509	Roll:	-1.388	Pitch:	0.590	Yaw:	14.013	Thrust:	100.000
Time:	6.585	Roll Set Point:	0.040	Pitch Set Point:	0.213	Yaw Set Point:	-0.144	X_WP:	0.036	Y_WP:	-0.312	Y_WP:	0.500	X:	-0.006	Y:	-0.265	Z:	0.045	yaw:	8.244	yaw rate:	27.351	Roll:	-0.852	Pitch:	1.282	Yaw:	17.264	Thrust:	100.000
Time:	6.603	Roll Set Point:	0.040	Pitch Set Point:	0.213	Yaw Set Point:	-0.144	X_WP:	0.036	Y_WP:	-0.312	Y_WP:	0.500	X:	-0.006	Y:	-0.265	Z:	0.045	yaw:	8.244	yaw rate:	27.351	Roll:	-1.190	Pitch:	1.038	Yaw:	13.316	Thrust:	100.000
Time:	6.635	Roll Set Point:	0.040	Pitch Set Point:	0.214	Yaw Set Point:	-0.139	X_WP:	0.036	Y_WP:	-0.312	Y_WP:	0.500	X:	-0.006	Y:	-0.265	Z:	0.045	yaw:	7.970	yaw rate:	-27.461	Roll:	-1.460	Pitch:	0.576	Yaw:	12.096	Thrust:	100.000
Time:	6.650	Roll Set Point:	0.041	Pitch Set Point:	0.214	Yaw Set Point:	-0.138	X_WP:	0.036	Y_WP:	-0.312	Y_WP:	0.500	X:	-0.006	Y:	-0.265	Z:	0.045	yaw:	7.927	yaw rate:	-5.269	Roll:	-1.208	Pitch:	1.100	Yaw:	11.826	Thrust:	100.000
Time:	6.666	Roll Set Point:	0.041	Pitch Set Point:	0.214	Yaw Set Point:	-0.133	X_WP:	0.036	Y_WP:	-0.312	Y_WP:	0.500	X:	-0.006	Y:	-0.265	Z:	0.045	yaw:	7.635	yaw rate:	-29.223	Roll:	-1.464	Pitch:	0.893	Yaw:	7.495	Thrust:	100.000
Time:	6.689	Roll Set Point:	0.041	Pitch Set Point:	0.214	Yaw Set Point:	-0.133	X_WP:	0.036	Y_WP:	-0.312	Y_WP:	0.500	X:	-0.006	Y:	-0.265	Z:	0.045	yaw:	7.635	yaw rate:	-29.223	Roll:	-1.244	Pitch:	0.909	Yaw:	12.966	Thrust:	100.000
Time:	6.703	Roll Set Point:	0.040	Pitch Set Point:	0.213	Yaw Set Point:	-0.140	X_WP:	0.036	Y_WP:	-0.312	Y_WP:	0.500	X:	-0.006	Y:	-0.265	Z:	0.045	yaw:	8.039	yaw rate:	4.839	Roll:	-0.754	Pitch:	1.443	Yaw:	20.161	Thrust:	100.000
Time:	6.737	Roll Set Point:	0.040	Pitch Set Point:	0.213	Yaw Set Point:	-0.140	X_WP:	0.036	Y_WP:	-0.312	Y_WP:	0.500	X:	-0.006	Y:	-0.265	Z:	0.045	yaw:	8.039	yaw rate:	4.839	Roll:	-1.364	Pitch:	0.644	Yaw:	14.633	Thrust:	100.000
Time:	6.764	Roll Set Point:	0.040	Pitch Set Point:	0.213	Yaw Set Point:	-0.146	X_WP:	0.036	Y_WP:	-0.312	Y_WP:	0.500	X:	-0.006	Y:	-0.265	Z:	0.045	yaw:	8.339	yaw rate:	30.084	Roll:	-1.094	Pitch:	0.944	Yaw:	17.261	Thrust:	100.000
Time:	6.778	Roll Set Point:	0.040	Pitch Set Point:	0.213	Yaw Set Point:	-0.140	X_WP:	0.036	Y_WP:	-0.312	Y_WP:	0.500	X:	-0.006	Y:	-0.265	Z:	0.045	yaw:	8.031	yaw rate:	-1.476	Roll:	-1.492	Pitch:	0.937	Yaw:	6.865	Thrust:	100.000
Time:	6.801	Roll Set Point:	0.040	Pitch Set Point:	0.213	Yaw Set Point:	-0.140	X_WP:	0.036	Y_WP:	-0.312	Y_WP:	0.500	X:	-0.006	Y:	-0.265	Z:	0.045	yaw:	8.005	yaw rate:	-2.642	Roll:	-1.263	Pitch:	0.944	Yaw:	13.183	Thrust:	100.000
Time:	6.814	Roll Set Point:	0.040	Pitch Set Point:	0.213	Yaw Set Point:	-0.140	X_WP:	0.036	Y_WP:	-0.312	Y_WP:	0.500	X:	-0.006	Y:	-0.265	Z:	0.045	yaw:	8.012	yaw rate:	0.689	Roll:	-1.150	Pitch:	1.159	Yaw:	12.628	Thrust:	100.000
Time:	6.871	Roll Set Point:	0.040	Pitch Set Point:	0.213	Yaw Set Point:	-0.140	X_WP:	0.036	Y_WP:	-0.312	Y_WP:	0.500	X:	-0.006	Y:	-0.265	Z:	0.045	yaw:	7.997	yaw rate:	-1.408	Roll:	-1.614	Pitch:	0.122	Yaw:	16.716	Thrust:	100.000
Time:	6.893	Roll Set Point:	0.040	Pitch Set Point:	0.213	Yaw Set Point:	-0.140	X_WP:	0.036	Y_WP:	-0.312	Y_WP:	0.500	X:	-0.006	Y:	-0.265	Z:	0.045	yaw:	7.997	yaw rate:	-1.408	Roll:	-1.251	Pitch:	0.964	Yaw:	13.372	Thrust:	100.000
Time:	6.907	Roll Set Point:	0.041	Pitch Set Point:	0.214	Yaw Set Point:	-0.139	X_WP:	0.036	Y_WP:	-0.312	Y_WP:	0.500	X:	-0.006	Y:	-0.265	Z:	0.045	yaw:	7.959	yaw rate:	-4.519	Roll:	-1.200	Pitch:	1.130	Yaw:	11.806	Thrust:	100.000
Time:	6.922	Roll Set Point:	0.040	Pitch Set Point:	0.213	Yaw Set Point:	-0.140	X_WP:	0.036	Y_WP:	-0.312	Y_WP:	0.500	X:	-0.006	Y:	-0.265	Z:	0.045	yaw:	8.014	yaw rate:	5.472	Roll:	-1.112	Pitch:	1.198	Yaw:	13.614	Thrust:	100.000
Time:	6.935	Roll Set Point:	0.040	Pitch Set Point:	0.213	Yaw Set Point:	-0.140	X_WP:	0.036	Y_WP:	-0.312	Y_WP:	0.500	X:	-0.006	Y:	-0.265	Z:	0.045	yaw:	8.002	yaw rate:	-1.179	Roll:	-1.184	Pitch:	1.167	Yaw:	12.357	Thrust:	100.000
Time:	6.961	Roll Set Point:	0.040	Pitch Set Point:	0.213	Yaw Set Point:	-0.140	X_WP:	0.036	Y_WP:	-0.312	Y_WP:	0.500	X:	-0.006	Y:	-0.265	Z:	0.045	yaw:	8.025	yaw rate:	2.226	Roll:	-1.289	Pitch:	0.888	Yaw:	14.035	Thrust:	100.000
Time:	6.980	Roll Set Point:	0.040	Pitch Set Point:	0.213	Yaw Set Point:	-0.139	X_WP:	0.036	Y_WP:	-0.312	Y_WP:	0.500	X:	-0.006	Y:	-0.265	Z:	0.045	yaw:	7.991	yaw rate:	-3.330	Roll:	-1.253	Pitch:	1.032	Yaw:	12.605	Thrust:	100.000
Time:	7.014	Roll Set Point:	0.040	Pitch Set Point:	0.213	Yaw Set Point:	-0.140	X_WP:	0.036	Y_WP:	-0.312	Y_WP:	0.500	X:	-0.006	Y:	-0.265	Z:	0.045	yaw:	8.007	yaw rate:	1.545	Roll:	-1.393	Pitch:	0.702	Yaw:	14.707	Thrust:	100.000
Time:	7.041	Roll Set Point:	0.040	Pitch Set Point:	0.213	Yaw Set Point:	-0.139	X_WP:	0.036	Y_WP:	-0.312	Y_WP:	0.500	X:	-0.006	Y:	-0.265	Z:	0.045	yaw:	7.988	yaw rate:	-1.826	Roll:	-1.332	Pitch:	0.860	Yaw:	13.685	Thrust:	100.000
Time:	7.055	Roll Set Point:	0.041	Pitch Set Point:	0.214	Yaw Set Point:	-0.139	X_WP:	0.036	Y_WP:	-0.312	Y_WP:	0.500	X:	-0.006	Y:	-0.265	Z:	0.045	yaw:	7.958	yaw rate:	-2.992	Roll:	-1.187	Pitch:	1.147	Yaw:	11.958	Thrust:	100.000
Time:	7.072	Roll Set Point:	0.041	Pitch Set Point:	0.214	Yaw Set Point:	-0.139	X_WP:	0.036	Y_WP:	-0.312	Y_WP:	0.500	X:	-0.006	Y:	-0.265	Z:	0.045	yaw:	7.960	yaw rate:	0.155	Roll:	-1.213	Pitch:	1.115	Yaw:	12.843	Thrust:	100.000
Time:	7.094	Roll Set Point:	0.041	Pitch Set Point:	0.214	Yaw Set Point:	-0.139	X_WP:	0.036	Y_WP:	-0.312	Y_WP:	0.500	X:	-0.006	Y:	-0.265	Z:	0.045	yaw:	7.984	yaw rate:	2.394	Roll:	-1.177	Pitch:	1.027	Yaw:	13.638	Thrust:	100.000
Time:	7.126	Roll Set Point:	0.040	Pitch Set Point:	0.213	Yaw Set Point:	-0.139	X_WP:	0.036	Y_WP:	-0.312	Y_WP:	0.500	X:	-0.006	Y:	-0.265	Z:	0.045	yaw:	7.988	yaw rate:	0.440	Roll:	-1.450	Pitch:	0.759	Yaw:	14.299	Thrust:	100.000
Time:	7.145	Roll Set Point:	0.040	Pitch Set Point:	0.213	Yaw Set Point:	-0.140	X_WP:	0.036	Y_WP:	-0.312	Y_WP:	0.500	X:	-0.006	Y:	-0.265	Z:	0.045	yaw:	7.995	yaw rate:	0.333	Roll:	-1.237	Pitch:	1.055	Yaw:	13.254	Thrust:	100.000
Time:	7.160	Roll Set Point:	0.040	Pitch Set Point:	0.213	Yaw Set Point:	-0.140	X_WP:	0.036	Y_WP:	-0.312	Y_WP:	0.500	X:	-0.006	Y:	-0.265	Z:	0.045	yaw:	8.005	yaw rate:	1.054	Roll:	-1.192	Pitch:	1.168	Yaw:	12.865	Thrust:	100.000
Time:	7.174	Roll Set Point:	0.040	Pitch Set Point:	0.213	Yaw Set Point:	-0.140	X_WP:	0.036	Y_WP:	-0.312	Y_WP:	0.500	X:	-0.006	Y:	-0.265	Z:	0.045	yaw:	8.002	yaw rate:	-0.352	Roll:	-1.182	Pitch:	1.182	Yaw:	12.511	Thrust:	100.000
Time:	7.189	Roll Set Point:	0.040	Pitch Set Point:	0.213	Yaw Set Point:	-0.140	X_WP:	0.036	Y_WP:	-0.312	Y_WP:	0.500	X:	-0.006	Y:	-0.265	Z:	0.045	yaw:	8.006	yaw rate:	0.432	Roll:	-1.188	Pitch:	1.169	Yaw:	12.758	Thrust:	100.000
Time:	7.254	Roll Set Point:	0.040	Pitch Set Point:	0.213	Yaw Set Point:	-0.140	X_WP:	0.036	Y_WP:	-0.312	Y_WP:	0.500	X:	-0.006	Y:	-0.265	Z:	0.045	yaw:	8.014	yaw rate:	0.726	Roll:	-1.789	Pitch:	0.092	Yaw:	17.536	Thrust:	100.000
Time:	7.267	Roll Set Point:	0.040	Pitch Set Point:	0.213	Yaw Set Point:	-0.140	X_WP:	0.036	Y_WP:	-0.312	Y_WP:	0.500	X:	-0.006	Y:	-0.265	Z:	0.045	yaw:	7.997	yaw rate:	-1.651	Roll:	-1.189	Pitch:	1.201	Yaw:	12.262	Thrust:	100.000
Time:	7.308	Roll Set Point:	0.040	Pitch Set Point:	0.213	Yaw Set Point:	-0.140	X_WP:	0.036	Y_WP:	-0.312	Y_WP:	0.500	X:	-0.006	Y:	-0.265	Z:	0.045	yaw:	8.001	yaw rate:	0.448	Roll:	-1.536	Pitch:	0.574	Yaw:	15.311	Thrust:	100.000
Time:	7.335	Roll Set Point:	0.041	Pitch Set Point:	0.214	Yaw Set Point:	-0.139	X_WP:	0.036	Y_WP:	-0.312	Y_WP:	0.500	X:	-0.006	Y:	-0.265	Z:	0.045	yaw:	7.975	yaw rate:	-2.645	Roll:	-1.357	Pitch:	0.895	Yaw:	13.587	Thrust:	100.000
Time:	7.358	Roll Set Point:	0.040	Pitch Set Point:	0.213	Yaw Set Point:	-0.140	X_WP:	0.036	Y_WP:	-0.312	Y_WP:	0.500	X:	-0.006	Y:	-0.265	Z:	0.045	yaw:	7.996	yaw rate:	2.062	Roll:	-1.290	Pitch:	1.010	Yaw:	13.684	Thrust:	100.000
Time:	7.380	Roll Set Point:	0.040	Pitch Set Point:	0.213	Yaw Set Point:	-0.140	X_WP:	0.036	Y_WP:	-0.312	Y_WP:	0.500	X:	-0.006	Y:	-0.265	Z:	0.045	yaw:	8.003	yaw rate:	0.759	Roll:	-1.289	Pitch:	1.034	Yaw:	13.471	Thrust:	100.000
Time:	7.395	Roll Set Point:	0.040	Pitch Set Point:	0.213	Yaw Set Point:	-0.139	X_WP:	0.036	Y_WP:	-0.312	Y_WP:	0.500	X:	-0.006	Y:	-0.265	Z:	0.045	yaw:	7.992	yaw rate:	1.672	Roll:	-1.208	Pitch:	1.163	Yaw:	12.465	Thrust:	100.000
Time:	7.441	Roll Set Point:	0.040	Pitch Set Point:	0.213	Yaw Set Point:	-0.139	X_WP:	0.036	Y_WP:	-0.312	Y_WP:	0.500	X:	-0.006	Y:	-0.265	Z:	0.045	yaw:	7.992	yaw rate:	1.672	Roll:	-1.607	Pitch:	0.513	Yaw:	15.771	Thrust:	100.000
Time:	7.454	Roll Set Point:	0.040	Pitch Set Point:	0.213	Yaw Set Point:	-0.140	X_WP:	0.036	Y_WP:	-0.312	Y_WP:	0.500	X:	-0.006	Y:	-0.265	Z:	0.045	yaw:	8.007	yaw rate:	1.588	Roll:	-1.167	Pitch:	1.246	Yaw:	12.788	Thrust:	100.000
Time:	7.467	Roll Set Point:	0.040	Pitch Set Point:	0.213	Yaw Set Point:	-0.140	X_WP:	0.036	Y_WP:	-0.312	Y_WP:	0.500	X:	-0.006	Y:	-0.265	Z:	0.045	yaw:	8.007	yaw rate:	1.588	Roll:	-1.185	Pitch:	1.216	Yaw:	12.534	Thrust:	100.000
Time:	7.483	Roll Set Point:	0.040	Pitch Set Point:	0.213	Yaw Set Point:	-0.140	X_WP:	0.036	Y_WP:	-0.312	Y_WP:	0.500	X:	-0.006	Y:	-0.265	Z:	0.045	yaw:	8.006	yaw rate:	0.422	Roll:	-1.211	Pitch:	1.180	Yaw:	12.695	Thrust:	100.000
Time:	7.497	Roll Set Point:	0.040	Pitch Set Point:	0.213	Yaw Set Point:	-0.140	X_WP:	0.036	Y_WP:	-0.312	Y_WP:	0.500	X:	-0.006	Y:	-0.265	Z:	0.045	yaw:	7.998	yaw rate:	-0.853	Roll:	-1.203	Pitch:	1.204	Yaw:	12.411	Thrust:	100.000
Time:	7.526	Roll Set Point:	0.040	Pitch Set Point:	0.213	Yaw Set Point:	-0.140	X_WP:	0.036	Y_WP:	-0.312	Y_WP:	0.500	X:	-0.006	Y:	-0.265	Z:	0.045	yaw:	7.998	yaw rate:	-0.853	Roll:	-1.385	Pitch:	0.898	Yaw:	14.075	Thrust:	100.000
Time:	7.540	Roll Set Point:	0.040	Pitch Set Point:	0.213	Yaw Set Point:	-0.140	X_WP:	0.036	Y_WP:	-0.312	Y_WP:	0.500	X:	-0.006	Y:	-0.265	Z:	0.045	yaw:	8.011	yaw rate:	1.207	Roll:	-1.197	Pitch:	1.221	Yaw:	12.840	Thrust:	100.000
Time:	7.562	Roll Set Point:	0.040	Pitch Set Point:	0.213	Yaw Set Point:	-0.140	X_WP:	0.036	Y_WP:	-0.312	Y_WP:	0.500	X:	-0.006	Y:	-0.265	Z:	0.045	yaw:	8.006	yaw rate:	-0.474	Roll:	-1.304	Pitch:	1.048	Yaw:	13.330	Thrust:	100.000
Time:	7.578	Roll Set Point:	0.040	Pitch Set Point:	0.213	Yaw Set Point:	-0.139	X_WP:	0.036	Y_WP:	-0.312	Y_WP:	0.500	X:	-0.006	Y:	-0.265	Z:	0.045	yaw:	7.986	yaw rate:	-2.018	Roll:	-1.235	Pitch:	1.173	Yaw:	12.366	Thrust:	100.000
Time:	7.593	Roll Set Point:	0.040	Pitch Set Point:	0.213	Yaw Set Point:	-0.140	X_WP:	0.036	Y_WP:	-0.312	Y_WP:	0.500	X:	-0.006	Y:	-0.265	Z:	0.045	yaw:	7.994	yaw rate:	0.794	Roll:	-1.221	Pitch:	1.204	Yaw:	12.803	Thrust:	100.000
Time:	7.608	Roll Set Point:	0.040	Pitch Set Point:	0.213	Yaw Set Point:	-0.139	X_WP:	0.036	Y_WP:	-0.312	Y_WP:	0.500	X:	-0.006	Y:	-0.265	Z:	0.045	yaw:	7.987	yaw rate:	-0.668	Roll:	-1.222	Pitch:	1.195	Yaw:	12.595	Thrust:	100.000
Time:	7.632	Roll Set Point:	0.040	Pitch Set Point:	0.213	Yaw Set Point:	-0.139	X_WP:	0.036	Y_WP:	-0.312	Y_WP:	0.500	X:	-0.006	Y:	-0.265	Z:	0.045	yaw:	7.987	yaw rate:	-0.668	Roll:	-1.344	Pitch:	1.021	Yaw:	13.559	Thrust:	100.000
Time:	7.649	Roll Set Point:	0.041	Pitch Set Point:	0.214	Yaw Set Point:	-0.139	X_WP:	0.036	Y_WP:	-0.312	Y_WP:	0.500	X:	-0.006	Y:	-0.265	Z:	0.045	yaw:	7.968	yaw rate:	-1.991	Roll:	-1.251	Pitch:	1.147	Yaw:	12.523	Thrust:	100.000
Time:	7.665	Roll Set Point:	0.040	Pitch Set Point:	0.213	Yaw Set Point:	-0.140	X_WP:	0.036	Y_WP:	-0.312	Y_WP:	0.500	X:	-0.006	Y:	-0.265	Z:	0.045	yaw:	7.994	yaw rate:	2.654	Roll:	-1.210	Pitch:	1.196	Yaw:	13.163	Thrust:	100.000
Time:	7.693	Roll Set Point:	0.040	Pitch Set Point:	0.213	Yaw Set Point:	-0.139	X_WP:	0.036	Y_WP:	-0.312	Y_WP:	0.500	X:	-0.006	Y:	-0.265	Z:	0.045	yaw:	7.984	yaw rate:	-2.683	Roll:	-1.416	Pitch:	0.964	Yaw:	13.814	Thrust:	100.000
Time:	7.720	Roll Set Point:	0.040	Pitch Set Point:	0.213	Yaw Set Point:	-0.139	X_WP:	0.036	Y_WP:	-0.312	Y_WP:	0.500	X:	-0.006	Y:	-0.265	Z:	0.045	yaw:	7.984	yaw rate:	-2.683	Roll:	-1.381	Pitch:	0.974	Yaw:	13.906	Thrust:	100.000
Time:	7.739	Roll Set Point:	0.040	Pitch Set Point:	0.213	Yaw Set Point:	-0.139	X_WP:	0.036	Y_WP:	-0.312	Y_WP:	0.500	X:	-0.006	Y:	-0.265	Z:	0.045	yaw:	7.992	yaw rate:	0.787	Roll:	-1.282	Pitch:	1.138	Yaw:	13.220	Thrust:	100.000
Time:	7.754	Roll Set Point:	0.041	Pitch Set Point:	0.214	Yaw Set Point:	-0.139	X_WP:	0.036	Y_WP:	-0.312	Y_WP:	0.500	X:	-0.006	Y:	-0.265	Z:	0.045	yaw:	7.983	yaw rate:	-2.514	Roll:	-1.227	Pitch:	1.194	Yaw:	12.483	Thrust:	100.000
Time:	7.771	Roll Set Point:	0.040	Pitch Set Point:	0.213	Yaw Set Point:	-0.140	X_WP:	0.036	Y_WP:	-0.312	Y_WP:	0.500	X:	-0.006	Y:	-0.265	Z:	0.045	yaw:	8.007	yaw rate:	2.427	Roll:	-1.227	Pitch:	1.206	Yaw:	13.180	Thrust:	100.000
Time:	7.789	Roll Set Point:	0.041	Pitch Set Point:	0.214	Yaw Set Point:	-0.139	X_WP:	0.036	Y_WP:	-0.312	Y_WP:	0.500	X:	-0.006	Y:	-0.265	Z:	0.045	yaw:	7.972	yaw rate:	-2.485	Roll:	-1.294	Pitch:	1.145	Yaw:	12.422	Thrust:	100.000
Time:	7.808	Roll Set Point:	0.040	Pitch Set Point:	0.213	Yaw Set Point:	-0.140	X_WP:	0.036	Y_WP:	-0.312	Y_WP:	0.500	X:	-0.006	Y:	-0.265	Z:	0.045	yaw:	8.016	yaw rate:	4.463	Roll:	-1.209	Pitch:	1.161	Yaw:	13.711	Thrust:	100.000
Time:	7.824	Roll Set Point:	0.040	Pitch Set Point:	0.213	Yaw Set Point:	-0.140	X_WP:	0.036	Y_WP:	-0.312	Y_WP:	0.500	X:	-0.006	Y:	-0.265	Z:	0.045	yaw:	8.001	yaw rate:	2.646	Roll:	-1.302	Pitch:	1.195	Yaw:	12.531	Thrust:	100.000
Time:	7.855	Roll Set Point:	0.040	Pitch Set Point:	0.213	Yaw Set Point:	-0.140	X_WP:	0.036	Y_WP:	-0.312	Y_WP:	0.500	X:	-0.006	Y:	-0.265	Z:	0.045	yaw:	8.001	yaw rate:	2.646	Roll:	-1.471	Pitch:	0.925	Yaw:	14.280	Thrust:	100.000
Time:	7.870	Roll Set Point:	0.040	Pitch Set Point:	0.213	Yaw Set Point:	-0.140	X_WP:	0.036	Y_WP:	-0.312	Y_WP:	0.500	X:	-0.006	Y:	-0.265	Z:	0.045	yaw:	7.998	yaw rate:	3.511	Roll:	-1.227	Pitch:	1.232	Yaw:	12.568	Thrust:	100.000
Time:	7.885	Roll Set Point:	0.040	Pitch Set Point:	0.213	Yaw Set Point:	-0.140	X_WP:	0.036	Y_WP:	-0.312	Y_WP:	0.500	X:	-0.006	Y:	-0.265	Z:	0.045	yaw:	8.002	yaw rate:	0.337	Roll:	-1.237	Pitch:	1.230	Yaw:	12.783	Thrust:	100.000
Time:	7.900	Roll Set Point:	0.040	Pitch Set Point:	0.214	Yaw Set Point:	-0.139	X_WP:	0.036	Y_WP:	-0.312	Y_WP:	0.500	X:	-0.006	Y:	-0.265	Z:	0.045	yaw:	7.980	yaw rate:	-2.195	Roll:	-1.265	Pitch:	1.213	Yaw:	12.263	Thrust:	100.000
Time:	7.919	Roll Set Point:	0.040	Pitch Set Point:	0.213	Yaw Set Point:	-0.140	X_WP:	0.036	Y_WP:	-0.312	Y_WP:	0.500	X:	-0.006	Y:	-0.265	Z:	0.045	yaw:	8.001	yaw rate:	2.139	Roll:	-1.281	Pitch:	1.161	Yaw:	13.371	Thrust:	100.000
Time:	7.934	Roll Set Point:	0.040	Pitch Set Point:	0.213	Yaw Set Point:	-0.140	X_WP:	0.036	Y_WP:	-0.312	Y_WP:	0.500	X:	-0.006	Y:	-0.265	Z:	0.045	yaw:	8.003	yaw rate:	-1.482	Roll:	-1.236	Pitch:	1.242	Yaw:	12.759	Thrust:	100.000
Time:	7.951	Roll Set Point:	0.040	Pitch Set Point:	0.213	Yaw Set Point:	-0.140	X_WP:	0.036	Y_WP:	-0.312	Y_WP:	0.500	X:	-0.006	Y:	-0.265	Z:	0.045	yaw:	8.016	yaw rate:	1.280	Roll:	-1.249	Pitch:	1.217	Yaw:	13.004	Thrust:	100.000
Time:	7.988	Roll Set Point:	0.041	Pitch Set Point:	0.214	Yaw Set Point:	-0.139	X_WP:	0.036	Y_WP:	-0.312	Y_WP:	0.500	X:	-0.006	Y:	-0.265	Z:	0.045	yaw:	7.968	yaw rate:	-0.289	Roll:	-1.593	Pitch:	0.844	Yaw:	14.440	Thrust:	100.000
