Time:	2.125	Roll Set Point:	0.059	Pitch Set Point:	-0.192	Yaw Set Point:	0.511	X_WP:	0.000	Y_WP:	0.000	Y_WP:	0.500	X:	-0.005	Y:	0.104	Z:	0.045	yaw:	-29.274	yaw rate:	-15.330	Roll:	-1.588	Pitch:	2.562	Yaw:	-40.874	Thrust:	25.011
Time:	2.141	Roll Set Point:	0.059	Pitch Set Point:	-0.192	Yaw Set Point:	0.511	X_WP:	0.000	Y_WP:	0.000	Y_WP:	0.500	X:	-0.005	Y:	0.104	Z:	0.045	yaw:	-29.286	yaw rate:	-1.249	Roll:	-1.601	Pitch:	2.519	Yaw:	-41.260	Thrust:	25.803
Time:	2.157	Roll Set Point:	0.059	Pitch Set Point:	-0.192	Yaw Set Point:	0.511	X_WP:	0.000	Y_WP:	0.000	Y_WP:	0.500	X:	-0.005	Y:	0.104	Z:	0.045	yaw:	-29.265	yaw rate:	2.140	Roll:	-1.597	Pitch:	2.610	Yaw:	-40.822	Thrust:	26.684
Time:	2.172	Roll Set Point:	0.059	Pitch Set Point:	-0.192	Yaw Set Point:	0.511	X_WP:	0.000	Y_WP:	0.000	Y_WP:	0.500	X:	-0.005	Y:	0.104	Z:	0.045	yaw:	-29.265	yaw rate:	2.140	Roll:	-1.595	Pitch:	2.573	Yaw:	-41.341	Thrust:	27.566
Time:	2.188	Roll Set Point:	0.059	Pitch Set Point:	-0.192	Yaw Set Point:	0.511	X_WP:	0.000	Y_WP:	0.000	Y_WP:	0.500	X:	-0.005	Y:	0.104	Z:	0.045	yaw:	-29.254	yaw rate:	2.545	Roll:	-1.530	Pitch:	2.582	Yaw:	-41.296	Thrust:	28.300
Time:	2.203	Roll Set Point:	0.059	Pitch Set Point:	-0.192	Yaw Set Point:	0.510	X_WP:	0.000	Y_WP:	0.000	Y_WP:	0.500	X:	-0.005	Y:	0.104	Z:	0.045	yaw:	-29.243	yaw rate:	1.049	Roll:	-1.610	Pitch:	2.610	Yaw:	-41.454	Thrust:	29.449
Time:	2.219	Roll Set Point:	0.059	Pitch Set Point:	-0.192	Yaw Set Point:	0.511	X_WP:	0.000	Y_WP:	0.000	Y_WP:	0.500	X:	-0.005	Y:	0.104	Z:	0.045	yaw:	-29.254	yaw rate:	-1.097	Roll:	-1.588	Pitch:	2.588	Yaw:	-41.989	Thrust:	30.035
Time:	2.235	Roll Set Point:	0.059	Pitch Set Point:	-0.192	Yaw Set Point:	0.511	X_WP:	0.000	Y_WP:	0.000	Y_WP:	0.500	X:	-0.005	Y:	0.104	Z:	0.045	yaw:	-29.258	yaw rate:	-0.410	Roll:	-1.583	Pitch:	2.568	Yaw:	-42.033	Thrust:	30.978
Time:	2.250	Roll Set Point:	0.059	Pitch Set Point:	-0.192	Yaw Set Point:	0.511	X_WP:	0.000	Y_WP:	0.000	Y_WP:	0.500	X:	-0.005	Y:	0.104	Z:	0.045	yaw:	-29.258	yaw rate:	-0.410	Roll:	-1.603	Pitch:	2.590	Yaw:	-42.129	Thrust:	31.830
Time:	2.266	Roll Set Point:	0.059	Pitch Set Point:	-0.192	Yaw Set Point:	0.510	X_WP:	0.000	Y_WP:	0.000	Y_WP:	0.500	X:	-0.005	Y:	0.104	Z:	0.045	yaw:	-29.242	yaw rate:	0.289	Roll:	-1.604	Pitch:	2.604	Yaw:	-42.000	Thrust:	32.797
Time:	2.297	Roll Set Point:	0.059	Pitch Set Point:	-0.192	Yaw Set Point:	0.510	X_WP:	0.000	Y_WP:	0.000	Y_WP:	0.500	X:	-0.005	Y:	0.104	Z:	0.045	yaw:	-29.248	yaw rate:	-0.609	Roll:	-1.664	Pitch:	2.631	Yaw:	-44.083	Thrust:	41.952
Time:	2.328	Roll Set Point:	0.059	Pitch Set Point:	-0.192	Yaw Set Point:	0.511	X_WP:	0.000	Y_WP:	0.000	Y_WP:	0.500	X:	-0.005	Y:	0.104	Z:	0.045	yaw:	-29.262	yaw rate:	-0.387	Roll:	-1.608	Pitch:	2.624	Yaw:	-44.482	Thrust:	43.857
Time:	2.344	Roll Set Point:	0.059	Pitch Set Point:	-0.192	Yaw Set Point:	0.510	X_WP:	0.000	Y_WP:	0.000	Y_WP:	0.500	X:	-0.005	Y:	0.104	Z:	0.045	yaw:	-29.248	yaw rate:	1.409	Roll:	-1.661	Pitch:	2.648	Yaw:	-42.507	Thrust:	35.233
Time:	2.360	Roll Set Point:	0.059	Pitch Set Point:	-0.192	Yaw Set Point:	0.511	X_WP:	0.000	Y_WP:	0.000	Y_WP:	0.500	X:	-0.005	Y:	0.104	Z:	0.045	yaw:	-29.251	yaw rate:	-0.347	Roll:	-1.543	Pitch:	2.576	Yaw:	-42.983	Thrust:	35.977
Time:	2.391	Roll Set Point:	0.059	Pitch Set Point:	-0.192	Yaw Set Point:	0.511	X_WP:	0.000	Y_WP:	0.000	Y_WP:	0.500	X:	-0.005	Y:	0.104	Z:	0.045	yaw:	-29.271	yaw rate:	-1.793	Roll:	-1.660	Pitch:	2.648	Yaw:	-45.504	Thrust:	48.940
Time:	2.407	Roll Set Point:	0.059	Pitch Set Point:	-0.192	Yaw Set Point:	0.510	X_WP:	0.000	Y_WP:	0.000	Y_WP:	0.500	X:	-0.005	Y:	0.104	Z:	0.045	yaw:	-29.232	yaw rate:	3.860	Roll:	-1.631	Pitch:	2.666	Yaw:	-42.564	Thrust:	37.788
Time:	2.422	Roll Set Point:	0.059	Pitch Set Point:	-0.192	Yaw Set Point:	0.511	X_WP:	0.000	Y_WP:	0.000	Y_WP:	0.500	X:	-0.005	Y:	0.104	Z:	0.045	yaw:	-29.266	yaw rate:	-3.345	Roll:	-1.629	Pitch:	2.574	Yaw:	-43.969	Thrust:	38.577
Time:	2.438	Roll Set Point:	0.059	Pitch Set Point:	-0.192	Yaw Set Point:	0.511	X_WP:	0.000	Y_WP:	0.000	Y_WP:	0.500	X:	-0.005	Y:	0.104	Z:	0.045	yaw:	-29.278	yaw rate:	-1.234	Roll:	-1.629	Pitch:	2.596	Yaw:	-43.800	Thrust:	39.576
Time:	2.469	Roll Set Point:	0.059	Pitch Set Point:	-0.192	Yaw Set Point:	0.511	X_WP:	0.000	Y_WP:	0.000	Y_WP:	0.500	X:	-0.005	Y:	0.104	Z:	0.045	yaw:	-29.261	yaw rate:	-2.311	Roll:	-1.668	Pitch:	2.700	Yaw:	-46.473	Thrust:	55.777
Time:	2.500	Roll Set Point:	0.059	Pitch Set Point:	-0.192	Yaw Set Point:	0.511	X_WP:	0.000	Y_WP:	0.000	Y_WP:	0.500	X:	-0.005	Y:	0.104	Z:	0.045	yaw:	-29.251	yaw rate:	0.753	Roll:	-1.657	Pitch:	2.691	Yaw:	-46.815	Thrust:	57.353
Time:	2.516	Roll Set Point:	0.059	Pitch Set Point:	-0.192	Yaw Set Point:	0.511	X_WP:	0.000	Y_WP:	0.000	Y_WP:	0.500	X:	-0.005	Y:	0.104	Z:	0.045	yaw:	-29.272	yaw rate:	-2.082	Roll:	-1.671	Pitch:	2.651	Yaw:	-44.344	Thrust:	42.002
Time:	2.532	Roll Set Point:	0.059	Pitch Set Point:	-0.192	Yaw Set Point:	0.511	X_WP:	0.000	Y_WP:	0.000	Y_WP:	0.500	X:	-0.005	Y:	0.104	Z:	0.045	yaw:	-29.263	yaw rate:	0.936	Roll:	-1.634	Pitch:	2.636	Yaw:	-43.844	Thrust:	43.055
Time:	2.547	Roll Set Point:	0.059	Pitch Set Point:	-0.192	Yaw Set Point:	0.511	X_WP:	0.000	Y_WP:	0.000	Y_WP:	0.500	X:	-0.005	Y:	0.104	Z:	0.045	yaw:	-29.263	yaw rate:	0.936	Roll:	-1.635	Pitch:	2.639	Yaw:	-43.983	Thrust:	43.762
Time:	2.563	Roll Set Point:	0.059	Pitch Set Point:	-0.192	Yaw Set Point:	0.511	X_WP:	0.000	Y_WP:	0.000	Y_WP:	0.500	X:	-0.005	Y:	0.104	Z:	0.045	yaw:	-29.277	yaw rate:	-1.424	Roll:	-1.624	Pitch:	2.610	Yaw:	-44.243	Thrust:	44.542
Time:	2.579	Roll Set Point:	0.059	Pitch Set Point:	-0.192	Yaw Set Point:	0.511	X_WP:	0.000	Y_WP:	0.000	Y_WP:	0.500	X:	-0.005	Y:	0.104	Z:	0.045	yaw:	-29.277	yaw rate:	-1.424	Roll:	-1.639	Pitch:	2.646	Yaw:	-44.043	Thrust:	45.725
Time:	2.595	Roll Set Point:	0.059	Pitch Set Point:	-0.192	Yaw Set Point:	0.510	X_WP:	0.000	Y_WP:	0.000	Y_WP:	0.500	X:	-0.005	Y:	0.104	Z:	0.045	yaw:	-29.243	yaw rate:	3.437	Roll:	-1.625	Pitch:	2.709	Yaw:	-43.478	Thrust:	46.922
Time:	2.621	Roll Set Point:	0.059	Pitch Set Point:	-0.192	Yaw Set Point:	0.510	X_WP:	0.000	Y_WP:	0.000	Y_WP:	0.500	X:	-0.005	Y:	0.104	Z:	0.045	yaw:	-29.243	yaw rate:	-0.066	Roll:	-1.665	Pitch:	2.698	Yaw:	-46.019	Thrust:	61.740
Time:	2.636	Roll Set Point:	0.059	Pitch Set Point:	-0.192	Yaw Set Point:	0.510	X_WP:	0.000	Y_WP:	0.000	Y_WP:	0.500	X:	-0.005	Y:	0.104	Z:	0.045	yaw:	-29.241	yaw rate:	1.053	Roll:	-1.621	Pitch:	2.670	Yaw:	-43.912	Thrust:	48.065
Time:	2.652	Roll Set Point:	0.059	Pitch Set Point:	-0.192	Yaw Set Point:	0.511	X_WP:	0.000	Y_WP:	0.000	Y_WP:	0.500	X:	-0.005	Y:	0.104	Z:	0.045	yaw:	-29.256	yaw rate:	-1.513	Roll:	-1.696	Pitch:	2.632	Yaw:	-44.213	Thrust:	48.791
Time:	2.667	Roll Set Point:	0.059	Pitch Set Point:	-0.192	Yaw Set Point:	0.511	X_WP:	0.000	Y_WP:	0.000	Y_WP:	0.500	X:	-0.005	Y:	0.104	Z:	0.045	yaw:	-29.256	yaw rate:	-1.513	Roll:	-1.649	Pitch:	2.663	Yaw:	-43.990	Thrust:	49.861
Time:	2.683	Roll Set Point:	0.059	Pitch Set Point:	-0.192	Yaw Set Point:	0.510	X_WP:	0.000	Y_WP:	0.000	Y_WP:	0.500	X:	-0.005	Y:	0.104	Z:	0.045	yaw:	-29.244	yaw rate:	1.205	Roll:	-1.589	Pitch:	2.712	Yaw:	-43.739	Thrust:	50.325
Time:	2.699	Roll Set Point:	0.059	Pitch Set Point:	-0.192	Yaw Set Point:	0.511	X_WP:	0.000	Y_WP:	0.000	Y_WP:	0.500	X:	-0.005	Y:	0.104	Z:	0.045	yaw:	-29.265	yaw rate:	1.969	Roll:	-1.729	Pitch:	2.628	Yaw:	-44.358	Thrust:	51.723
Time:	2.714	Roll Set Point:	0.059	Pitch Set Point:	-0.192	Yaw Set Point:	0.510	X_WP:	0.000	Y_WP:	0.000	Y_WP:	0.500	X:	-0.005	Y:	0.104	Z:	0.045	yaw:	-29.245	yaw rate:	1.982	Roll:	-1.585	Pitch:	2.697	Yaw:	-43.610	Thrust:	52.176
Time:	2.730	Roll Set Point:	0.059	Pitch Set Point:	-0.192	Yaw Set Point:	0.510	X_WP:	0.000	Y_WP:	0.000	Y_WP:	0.500	X:	-0.005	Y:	0.104	Z:	0.045	yaw:	-29.245	yaw rate:	1.982	Roll:	-1.656	Pitch:	2.677	Yaw:	-43.960	Thrust:	53.152
Time:	2.749	Roll Set Point:	0.059	Pitch Set Point:	-0.192	Yaw Set Point:	0.511	X_WP:	0.000	Y_WP:	0.000	Y_WP:	0.500	X:	-0.005	Y:	0.104	Z:	0.045	yaw:	-29.289	yaw rate:	-2.644	Roll:	-1.728	Pitch:	2.647	Yaw:	-45.282	Thrust:	60.056
Time:	2.766	Roll Set Point:	0.059	Pitch Set Point:	-0.192	Yaw Set Point:	0.510	X_WP:	0.000	Y_WP:	0.000	Y_WP:	0.500	X:	-0.005	Y:	0.104	Z:	0.045	yaw:	-29.242	yaw rate:	4.698	Roll:	-1.593	Pitch:	2.771	Yaw:	-43.655	Thrust:	58.664
Time:	2.782	Roll Set Point:	0.059	Pitch Set Point:	-0.192	Yaw Set Point:	0.510	X_WP:	0.000	Y_WP:	0.000	Y_WP:	0.500	X:	-0.005	Y:	0.104	Z:	0.045	yaw:	-29.242	yaw rate:	4.698	Roll:	-1.663	Pitch:	2.689	Yaw:	-43.972	Thrust:	55.881
Time:	2.798	Roll Set Point:	0.059	Pitch Set Point:	-0.192	Yaw Set Point:	0.510	X_WP:	0.000	Y_WP:	0.000	Y_WP:	0.500	X:	-0.005	Y:	0.104	Z:	0.045	yaw:	-29.219	yaw rate:	2.574	Roll:	-1.647	Pitch:	2.710	Yaw:	-43.539	Thrust:	56.647
Time:	2.813	Roll Set Point:	0.059	Pitch Set Point:	-0.192	Yaw Set Point:	0.511	X_WP:	0.000	Y_WP:	0.000	Y_WP:	0.500	X:	-0.005	Y:	0.104	Z:	0.045	yaw:	-29.281	yaw rate:	-6.258	Roll:	-1.821	Pitch:	2.604	Yaw:	-45.059	Thrust:	57.393
Time:	2.829	Roll Set Point:	0.059	Pitch Set Point:	-0.192	Yaw Set Point:	0.511	X_WP:	0.000	Y_WP:	0.000	Y_WP:	0.500	X:	-0.005	Y:	0.104	Z:	0.045	yaw:	-29.254	yaw rate:	2.744	Roll:	-1.598	Pitch:	2.745	Yaw:	-43.511	Thrust:	58.269
Time:	2.845	Roll Set Point:	0.059	Pitch Set Point:	-0.192	Yaw Set Point:	0.510	X_WP:	0.000	Y_WP:	0.000	Y_WP:	0.500	X:	-0.005	Y:	0.104	Z:	0.045	yaw:	-29.230	yaw rate:	2.371	Roll:	-1.621	Pitch:	2.720	Yaw:	-43.532	Thrust:	59.039
Time:	2.860	Roll Set Point:	0.059	Pitch Set Point:	-0.192	Yaw Set Point:	0.510	X_WP:	0.000	Y_WP:	0.000	Y_WP:	0.500	X:	-0.005	Y:	0.104	Z:	0.045	yaw:	-29.230	yaw rate:	2.371	Roll:	-1.673	Pitch:	2.705	Yaw:	-43.944	Thrust:	60.029
Time:	2.876	Roll Set Point:	0.059	Pitch Set Point:	-0.192	Yaw Set Point:	0.510	X_WP:	0.000	Y_WP:	0.000	Y_WP:	0.500	X:	-0.005	Y:	0.104	Z:	0.045	yaw:	-29.235	yaw rate:	-0.445	Roll:	-1.679	Pitch:	2.701	Yaw:	-44.017	Thrust:	60.699
Time:	2.892	Roll Set Point:	0.059	Pitch Set Point:	-0.192	Yaw Set Point:	0.510	X_WP:	0.000	Y_WP:	0.000	Y_WP:	0.500	X:	-0.005	Y:	0.104	Z:	0.045	yaw:	-29.235	yaw rate:	-0.445	Roll:	-1.678	Pitch:	2.712	Yaw:	-43.945	Thrust:	61.680
Time:	2.907	Roll Set Point:	0.059	Pitch Set Point:	-0.192	Yaw Set Point:	0.510	X_WP:	0.000	Y_WP:	0.000	Y_WP:	0.500	X:	-0.005	Y:	0.104	Z:	0.045	yaw:	-29.234	yaw rate:	0.087	Roll:	-1.710	Pitch:	2.723	Yaw:	-43.929	Thrust:	62.504
Time:	2.923	Roll Set Point:	0.059	Pitch Set Point:	-0.192	Yaw Set Point:	0.510	X_WP:	0.000	Y_WP:	0.000	Y_WP:	0.500	X:	-0.004	Y:	0.104	Z:	0.045	yaw:	-29.239	yaw rate:	-0.513	Roll:	-1.616	Pitch:	2.730	Yaw:	-44.036	Thrust:	63.458
Time:	2.938	Roll Set Point:	0.059	Pitch Set Point:	-0.192	Yaw Set Point:	0.510	X_WP:	0.000	Y_WP:	0.000	Y_WP:	0.500	X:	-0.004	Y:	0.104	Z:	0.045	yaw:	-29.239	yaw rate:	-0.513	Roll:	-1.683	Pitch:	2.723	Yaw:	-43.953	Thrust:	64.264
Time:	2.954	Roll Set Point:	0.059	Pitch Set Point:	-0.192	Yaw Set Point:	0.511	X_WP:	0.000	Y_WP:	0.000	Y_WP:	0.500	X:	-0.005	Y:	0.104	Z:	0.045	yaw:	-29.269	yaw rate:	-2.978	Roll:	-1.781	Pitch:	2.678	Yaw:	-44.489	Thrust:	64.944
Time:	2.985	Roll Set Point:	0.059	Pitch Set Point:	-0.192	Yaw Set Point:	0.511	X_WP:	0.000	Y_WP:	0.000	Y_WP:	0.500	X:	-0.005	Y:	0.104	Z:	0.045	yaw:	-29.254	yaw rate:	-11.181	Roll:	-1.776	Pitch:	2.910	Yaw:	-46.973	Thrust:	100.000
Time:	3.001	Roll Set Point:	0.059	Pitch Set Point:	-0.192	Yaw Set Point:	0.511	X_WP:	0.000	Y_WP:	0.000	Y_WP:	0.500	X:	-0.005	Y:	0.104	Z:	0.045	yaw:	-29.270	yaw rate:	-1.559	Roll:	-1.761	Pitch:	2.690	Yaw:	-44.260	Thrust:	66.763
Time:	3.017	Roll Set Point:	0.059	Pitch Set Point:	-0.192	Yaw Set Point:	0.510	X_WP:	0.000	Y_WP:	0.000	Y_WP:	0.500	X:	-0.005	Y:	0.104	Z:	0.045	yaw:	-29.248	yaw rate:	2.224	Roll:	-1.633	Pitch:	2.755	Yaw:	-43.576	Thrust:	67.556
Time:	3.032	Roll Set Point:	0.059	Pitch Set Point:	-0.192	Yaw Set Point:	0.510	X_WP:	0.000	Y_WP:	0.000	Y_WP:	0.500	X:	-0.005	Y:	0.104	Z:	0.045	yaw:	-29.244	yaw rate:	0.366	Roll:	-1.706	Pitch:	2.752	Yaw:	-43.915	Thrust:	68.672
Time:	3.048	Roll Set Point:	0.059	Pitch Set Point:	-0.192	Yaw Set Point:	0.510	X_WP:	0.000	Y_WP:	0.000	Y_WP:	0.500	X:	-0.005	Y:	0.104	Z:	0.045	yaw:	-29.246	yaw rate:	-0.192	Roll:	-1.694	Pitch:	2.759	Yaw:	-43.976	Thrust:	69.165
Time:	3.063	Roll Set Point:	0.059	Pitch Set Point:	-0.192	Yaw Set Point:	0.510	X_WP:	0.000	Y_WP:	0.000	Y_WP:	0.500	X:	-0.005	Y:	0.104	Z:	0.045	yaw:	-29.245	yaw rate:	0.088	Roll:	-1.636	Pitch:	2.721	Yaw:	-43.956	Thrust:	70.327
Time:	3.095	Roll Set Point:	0.059	Pitch Set Point:	-0.192	Yaw Set Point:	0.508	X_WP:	0.000	Y_WP:	0.000	Y_WP:	0.500	X:	-0.005	Y:	0.104	Z:	0.045	yaw:	-29.128	yaw rate:	12.711	Roll:	-1.750	Pitch:	3.011	Yaw:	-45.928	Thrust:	100.000
Time:	3.110	Roll Set Point:	0.059	Pitch Set Point:	-0.192	Yaw Set Point:	0.511	X_WP:	0.000	Y_WP:	0.000	Y_WP:	0.500	X:	-0.005	Y:	0.104	Z:	0.045	yaw:	-29.265	yaw rate:	-13.658	Roll:	-1.918	Pitch:	2.605	Yaw:	-46.275	Thrust:	71.677
Time:	3.142	Roll Set Point:	0.059	Pitch Set Point:	-0.192	Yaw Set Point:	0.510	X_WP:	0.000	Y_WP:	0.000	Y_WP:	0.500	X:	-0.005	Y:	0.104	Z:	0.045	yaw:	-29.242	yaw rate:	0.072	Roll:	-1.799	Pitch:	2.960	Yaw:	-46.903	Thrust:	100.000
Time:	3.157	Roll Set Point:	0.059	Pitch Set Point:	-0.192	Yaw Set Point:	0.511	X_WP:	0.000	Y_WP:	0.000	Y_WP:	0.500	X:	-0.005	Y:	0.104	Z:	0.045	yaw:	-29.267	yaw rate:	-2.532	Roll:	-1.761	Pitch:	2.725	Yaw:	-44.414	Thrust:	73.493
Time:	3.173	Roll Set Point:	0.059	Pitch Set Point:	-0.192	Yaw Set Point:	0.511	X_WP:	0.000	Y_WP:	0.000	Y_WP:	0.500	X:	-0.005	Y:	0.104	Z:	0.045	yaw:	-29.265	yaw rate:	0.265	Roll:	-1.745	Pitch:	2.773	Yaw:	-43.942	Thrust:	74.489
Time:	3.188	Roll Set Point:	0.059	Pitch Set Point:	-0.192	Yaw Set Point:	0.511	X_WP:	0.000	Y_WP:	0.000	Y_WP:	0.500	X:	-0.005	Y:	0.104	Z:	0.045	yaw:	-29.265	yaw rate:	0.265	Roll:	-1.714	Pitch:	2.766	Yaw:	-43.987	Thrust:	75.328
Time:	3.204	Roll Set Point:	0.059	Pitch Set Point:	-0.192	Yaw Set Point:	0.511	X_WP:	0.000	Y_WP:	0.000	Y_WP:	0.500	X:	-0.005	Y:	0.104	Z:	0.045	yaw:	-29.269	yaw rate:	-0.437	Roll:	-1.634	Pitch:	2.733	Yaw:	-44.064	Thrust:	76.142
Time:	3.220	Roll Set Point:	0.059	Pitch Set Point:	-0.192	Yaw Set Point:	0.511	X_WP:	0.000	Y_WP:	0.000	Y_WP:	0.500	X:	-0.005	Y:	0.104	Z:	0.045	yaw:	-29.269	yaw rate:	-0.437	Roll:	-1.717	Pitch:	2.772	Yaw:	-43.995	Thrust:	77.057
Time:	3.235	Roll Set Point:	0.059	Pitch Set Point:	-0.192	Yaw Set Point:	0.510	X_WP:	0.000	Y_WP:	0.000	Y_WP:	0.500	X:	-0.005	Y:	0.104	Z:	0.045	yaw:	-29.243	yaw rate:	2.611	Roll:	-1.734	Pitch:	2.862	Yaw:	-43.504	Thrust:	77.633
Time:	3.251	Roll Set Point:	0.059	Pitch Set Point:	-0.192	Yaw Set Point:	0.510	X_WP:	0.000	Y_WP:	0.000	Y_WP:	0.500	X:	-0.005	Y:	0.104	Z:	0.045	yaw:	-29.243	yaw rate:	2.611	Roll:	-1.721	Pitch:	2.781	Yaw:	-43.956	Thrust:	78.721
Time:	3.267	Roll Set Point:	0.059	Pitch Set Point:	-0.192	Yaw Set Point:	0.511	X_WP:	0.000	Y_WP:	0.000	Y_WP:	0.500	X:	-0.005	Y:	0.104	Z:	0.045	yaw:	-29.280	yaw rate:	-0.422	Roll:	-1.755	Pitch:	2.682	Yaw:	-44.642	Thrust:	79.684
Time:	3.282	Roll Set Point:	0.059	Pitch Set Point:	-0.192	Yaw Set Point:	0.510	X_WP:	0.000	Y_WP:	0.000	Y_WP:	0.500	X:	-0.005	Y:	0.104	Z:	0.045	yaw:	-29.242	yaw rate:	3.807	Roll:	-1.713	Pitch:	2.863	Yaw:	-43.318	Thrust:	80.607
Time:	3.298	Roll Set Point:	0.059	Pitch Set Point:	-0.192	Yaw Set Point:	0.511	X_WP:	0.000	Y_WP:	0.000	Y_WP:	0.500	X:	-0.005	Y:	0.104	Z:	0.045	yaw:	-29.288	yaw rate:	-4.558	Roll:	-1.764	Pitch:	2.742	Yaw:	-44.776	Thrust:	80.789
Time:	3.313	Roll Set Point:	0.059	Pitch Set Point:	-0.192	Yaw Set Point:	0.510	X_WP:	0.000	Y_WP:	0.000	Y_WP:	0.500	X:	-0.005	Y:	0.104	Z:	0.045	yaw:	-29.244	yaw rate:	4.408	Roll:	-1.651	Pitch:	2.832	Yaw:	-43.219	Thrust:	82.407
Time:	3.345	Roll Set Point:	0.059	Pitch Set Point:	-0.192	Yaw Set Point:	0.511	X_WP:	0.000	Y_WP:	0.000	Y_WP:	0.500	X:	-0.005	Y:	0.104	Z:	0.045	yaw:	-29.252	yaw rate:	-0.773	Roll:	-1.889	Pitch:	3.005	Yaw:	-47.158	Thrust:	100.000
Time:	3.376	Roll Set Point:	0.059	Pitch Set Point:	-0.192	Yaw Set Point:	0.511	X_WP:	0.000	Y_WP:	0.000	Y_WP:	0.500	X:	-0.005	Y:	0.104	Z:	0.045	yaw:	-29.278	yaw rate:	-0.817	Roll:	-1.884	Pitch:	3.052	Yaw:	-47.367	Thrust:	100.000
Time:	3.392	Roll Set Point:	0.059	Pitch Set Point:	-0.192	Yaw Set Point:	0.510	X_WP:	0.000	Y_WP:	0.000	Y_WP:	0.500	X:	-0.005	Y:	0.104	Z:	0.045	yaw:	-29.243	yaw rate:	3.502	Roll:	-1.745	Pitch:	2.799	Yaw:	-43.375	Thrust:	84.791
Time:	3.407	Roll Set Point:	0.059	Pitch Set Point:	-0.192	Yaw Set Point:	0.510	X_WP:	0.000	Y_WP:	0.000	Y_WP:	0.500	X:	-0.005	Y:	0.104	Z:	0.045	yaw:	-29.249	yaw rate:	-0.578	Roll:	-1.694	Pitch:	2.827	Yaw:	-44.060	Thrust:	85.374
Time:	3.423	Roll Set Point:	0.059	Pitch Set Point:	-0.192	Yaw Set Point:	0.510	X_WP:	0.000	Y_WP:	0.000	Y_WP:	0.500	X:	-0.005	Y:	0.104	Z:	0.045	yaw:	-29.246	yaw rate:	0.284	Roll:	-1.767	Pitch:	2.838	Yaw:	-43.913	Thrust:	86.298
Time:	3.439	Roll Set Point:	0.059	Pitch Set Point:	-0.192	Yaw Set Point:	0.511	X_WP:	0.000	Y_WP:	0.000	Y_WP:	0.500	X:	-0.005	Y:	0.104	Z:	0.045	yaw:	-29.300	yaw rate:	-5.344	Roll:	-1.840	Pitch:	2.756	Yaw:	-44.933	Thrust:	87.494
Time:	3.454	Roll Set Point:	0.059	Pitch Set Point:	-0.192	Yaw Set Point:	0.511	X_WP:	0.000	Y_WP:	0.000	Y_WP:	0.500	X:	-0.005	Y:	0.104	Z:	0.045	yaw:	-29.300	yaw rate:	-5.344	Roll:	-1.747	Pitch:	2.817	Yaw:	-44.035	Thrust:	88.101
Time:	3.470	Roll Set Point:	0.059	Pitch Set Point:	-0.192	Yaw Set Point:	0.510	X_WP:	0.000	Y_WP:	0.000	Y_WP:	0.500	X:	-0.005	Y:	0.104	Z:	0.045	yaw:	-29.240	yaw rate:	5.926	Roll:	-1.619	Pitch:	2.877	Yaw:	-42.954	Thrust:	88.906
Time:	3.485	Roll Set Point:	0.059	Pitch Set Point:	-0.192	Yaw Set Point:	0.510	X_WP:	0.000	Y_WP:	0.000	Y_WP:	0.500	X:	-0.005	Y:	0.104	Z:	0.045	yaw:	-29.240	yaw rate:	5.926	Roll:	-1.748	Pitch:	2.826	Yaw:	-43.952	Thrust:	89.794
Time:	3.501	Roll Set Point:	0.059	Pitch Set Point:	-0.192	Yaw Set Point:	0.511	X_WP:	0.000	Y_WP:	0.000	Y_WP:	0.500	X:	-0.005	Y:	0.104	Z:	0.045	yaw:	-29.260	yaw rate:	-1.980	Roll:	-1.832	Pitch:	2.822	Yaw:	-44.313	Thrust:	90.687
Time:	3.517	Roll Set Point:	0.059	Pitch Set Point:	-0.192	Yaw Set Point:	0.510	X_WP:	0.000	Y_WP:	0.000	Y_WP:	0.500	X:	-0.005	Y:	0.104	Z:	0.045	yaw:	-29.235	yaw rate:	2.492	Roll:	-1.638	Pitch:	2.833	Yaw:	-43.528	Thrust:	91.429
Time:	3.532	Roll Set Point:	0.059	Pitch Set Point:	-0.192	Yaw Set Point:	0.510	X_WP:	0.000	Y_WP:	0.000	Y_WP:	0.500	X:	-0.005	Y:	0.104	Z:	0.045	yaw:	-29.235	yaw rate:	2.492	Roll:	-1.754	Pitch:	2.836	Yaw:	-43.945	Thrust:	92.367
Time:	3.548	Roll Set Point:	0.059	Pitch Set Point:	-0.192	Yaw Set Point:	0.511	X_WP:	0.000	Y_WP:	0.000	Y_WP:	0.500	X:	-0.005	Y:	0.104	Z:	0.045	yaw:	-29.281	yaw rate:	-3.058	Roll:	-1.828	Pitch:	2.784	Yaw:	-44.774	Thrust:	93.016
Time:	3.563	Roll Set Point:	0.059	Pitch Set Point:	-0.192	Yaw Set Point:	0.509	X_WP:	0.000	Y_WP:	0.000	Y_WP:	0.500	X:	-0.005	Y:	0.104	Z:	0.045	yaw:	-29.189	yaw rate:	9.194	Roll:	-1.737	Pitch:	2.991	Yaw:	-42.323	Thrust:	94.290
Time:	3.579	Roll Set Point:	0.059	Pitch Set Point:	-0.192	Yaw Set Point:	0.511	X_WP:	0.000	Y_WP:	0.000	Y_WP:	0.500	X:	-0.005	Y:	0.104	Z:	0.045	yaw:	-29.302	yaw rate:	-11.336	Roll:	-1.834	Pitch:	2.664	Yaw:	-45.943	Thrust:	94.948
Time:	3.595	Roll Set Point:	0.059	Pitch Set Point:	-0.192	Yaw Set Point:	0.511	X_WP:	0.000	Y_WP:	0.000	Y_WP:	0.500	X:	-0.005	Y:	0.104	Z:	0.045	yaw:	-29.302	yaw rate:	-11.336	Roll:	-1.766	Pitch:	2.848	Yaw:	-44.044	Thrust:	95.888
Time:	3.610	Roll Set Point:	0.059	Pitch Set Point:	-0.192	Yaw Set Point:	0.511	X_WP:	0.000	Y_WP:	0.000	Y_WP:	0.500	X:	-0.005	Y:	0.104	Z:	0.045	yaw:	-29.251	yaw rate:	-0.952	Roll:	-1.715	Pitch:	2.956	Yaw:	-43.093	Thrust:	96.114
Time:	3.626	Roll Set Point:	0.059	Pitch Set Point:	-0.192	Yaw Set Point:	0.510	X_WP:	0.000	Y_WP:	0.000	Y_WP:	0.500	X:	-0.005	Y:	0.104	Z:	0.045	yaw:	-29.235	yaw rate:	1.612	Roll:	-1.731	Pitch:	2.883	Yaw:	-43.676	Thrust:	97.624
Time:	3.642	Roll Set Point:	0.059	Pitch Set Point:	-0.192	Yaw Set Point:	0.511	X_WP:	0.000	Y_WP:	0.000	Y_WP:	0.500	X:	-0.005	Y:	0.104	Z:	0.045	yaw:	-29.296	yaw rate:	-6.038	Roll:	-1.880	Pitch:	2.768	Yaw:	-45.042	Thrust:	98.481
Time:	3.657	Roll Set Point:	0.059	Pitch Set Point:	-0.192	Yaw Set Point:	0.511	X_WP:	0.000	Y_WP:	0.000	Y_WP:	0.500	X:	-0.005	Y:	0.104	Z:	0.045	yaw:	-29.296	yaw rate:	-6.038	Roll:	-1.774	Pitch:	2.862	Yaw:	-44.029	Thrust:	99.164
Time:	3.673	Roll Set Point:	0.059	Pitch Set Point:	-0.192	Yaw Set Point:	0.511	X_WP:	0.000	Y_WP:	0.000	Y_WP:	0.500	X:	-0.005	Y:	0.104	Z:	0.045	yaw:	-29.251	yaw rate:	-0.325	Roll:	-1.712	Pitch:	2.904	Yaw:	-43.244	Thrust:	100.000
Time:	3.689	Roll Set Point:	0.059	Pitch Set Point:	-0.192	Yaw Set Point:	0.511	X_WP:	0.000	Y_WP:	0.000	Y_WP:	0.500	X:	-0.005	Y:	0.104	Z:	0.045	yaw:	-29.272	yaw rate:	-2.047	Roll:	-1.792	Pitch:	2.843	Yaw:	-44.337	Thrust:	100.000
Time:	3.704	Roll Set Point:	0.059	Pitch Set Point:	-0.192	Yaw Set Point:	0.511	X_WP:	0.000	Y_WP:	0.000	Y_WP:	0.500	X:	-0.005	Y:	0.104	Z:	0.045	yaw:	-29.257	yaw rate:	1.485	Roll:	-1.799	Pitch:	2.896	Yaw:	-43.714	Thrust:	100.000
Time:	3.720	Roll Set Point:	0.059	Pitch Set Point:	-0.192	Yaw Set Point:	0.510	X_WP:	0.000	Y_WP:	0.000	Y_WP:	0.500	X:	-0.005	Y:	0.104	Z:	0.045	yaw:	-29.239	yaw rate:	1.835	Roll:	-1.708	Pitch:	2.885	Yaw:	-43.642	Thrust:	100.000
Time:	3.735	Roll Set Point:	0.059	Pitch Set Point:	-0.192	Yaw Set Point:	0.511	X_WP:	0.000	Y_WP:	0.000	Y_WP:	0.500	X:	-0.005	Y:	0.104	Z:	0.045	yaw:	-29.261	yaw rate:	-2.207	Roll:	-1.883	Pitch:	2.910	Yaw:	-44.362	Thrust:	100.000
Time:	3.766	Roll Set Point:	0.059	Pitch Set Point:	-0.192	Yaw Set Point:	0.511	X_WP:	0.000	Y_WP:	0.000	Y_WP:	0.500	X:	-0.005	Y:	0.104	Z:	0.045	yaw:	-29.272	yaw rate:	-4.173	Roll:	-1.955	Pitch:	3.174	Yaw:	-47.135	Thrust:	100.000
Time:	3.782	Roll Set Point:	0.059	Pitch Set Point:	-0.192	Yaw Set Point:	0.510	X_WP:	0.000	Y_WP:	0.000	Y_WP:	0.500	X:	-0.005	Y:	0.104	Z:	0.045	yaw:	-29.241	yaw rate:	3.052	Roll:	-1.750	Pitch:	2.895	Yaw:	-43.448	Thrust:	100.000
Time:	3.798	Roll Set Point:	0.059	Pitch Set Point:	-0.192	Yaw Set Point:	0.511	X_WP:	0.000	Y_WP:	0.000	Y_WP:	0.500	X:	-0.005	Y:	0.104	Z:	0.045	yaw:	-29.253	yaw rate:	-1.215	Roll:	-1.775	Pitch:	2.904	Yaw:	-44.174	Thrust:	100.000
Time:	3.813	Roll Set Point:	0.059	Pitch Set Point:	-0.192	Yaw Set Point:	0.511	X_WP:	0.000	Y_WP:	0.000	Y_WP:	0.500	X:	-0.005	Y:	0.104	Z:	0.045	yaw:	-29.277	yaw rate:	-2.405	Roll:	-1.832	Pitch:	2.846	Yaw:	-44.407	Thrust:	100.000
Time:	3.829	Roll Set Point:	0.059	Pitch Set Point:	-0.192	Yaw Set Point:	0.511	X_WP:	0.000	Y_WP:	0.000	Y_WP:	0.500	X:	-0.005	Y:	0.104	Z:	0.045	yaw:	-29.277	yaw rate:	-2.405	Roll:	-1.794	Pitch:	2.897	Yaw:	-44.009	Thrust:	100.000
Time:	3.844	Roll Set Point:	0.059	Pitch Set Point:	-0.192	Yaw Set Point:	0.511	X_WP:	0.000	Y_WP:	0.000	Y_WP:	0.500	X:	-0.005	Y:	0.104	Z:	0.045	yaw:	-29.282	yaw rate:	-4.061	Roll:	-1.822	Pitch:	2.893	Yaw:	-44.070	Thrust:	100.000
Time:	3.860	Roll Set Point:	0.059	Pitch Set Point:	-0.192	Yaw Set Point:	0.511	X_WP:	0.000	Y_WP:	0.000	Y_WP:	0.500	X:	-0.005	Y:	0.104	Z:	0.045	yaw:	-29.282	yaw rate:	-4.061	Roll:	-1.800	Pitch:	2.905	Yaw:	-44.029	Thrust:	100.000
Time:	3.876	Roll Set Point:	0.059	Pitch Set Point:	-0.192	Yaw Set Point:	0.510	X_WP:	0.000	Y_WP:	0.000	Y_WP:	0.500	X:	-0.005	Y:	0.104	Z:	0.045	yaw:	-29.226	yaw rate:	0.787	Roll:	-1.747	Pitch:	3.010	Yaw:	-42.991	Thrust:	100.000
Time:	3.891	Roll Set Point:	0.059	Pitch Set Point:	-0.192	Yaw Set Point:	0.510	X_WP:	0.000	Y_WP:	0.000	Y_WP:	0.500	X:	-0.005	Y:	0.104	Z:	0.045	yaw:	-29.226	yaw rate:	0.787	Roll:	-1.802	Pitch:	2.913	Yaw:	-43.933	Thrust:	100.000
Time:	3.907	Roll Set Point:	0.059	Pitch Set Point:	-0.192	Yaw Set Point:	0.510	X_WP:	0.000	Y_WP:	0.000	Y_WP:	0.500	X:	-0.005	Y:	0.104	Z:	0.045	yaw:	-29.249	yaw rate:	2.568	Roll:	-1.827	Pitch:	2.867	Yaw:	-44.347	Thrust:	100.000
Time:	3.922	Roll Set Point:	0.059	Pitch Set Point:	-0.192	Yaw Set Point:	0.510	X_WP:	0.000	Y_WP:	0.000	Y_WP:	0.500	X:	-0.005	Y:	0.104	Z:	0.045	yaw:	-29.249	yaw rate:	2.568	Roll:	-1.805	Pitch:	2.916	Yaw:	-43.946	Thrust:	100.000
Time:	3.938	Roll Set Point:	0.059	Pitch Set Point:	-0.192	Yaw Set Point:	0.511	X_WP:	0.000	Y_WP:	0.000	Y_WP:	0.500	X:	-0.005	Y:	0.104	Z:	0.045	yaw:	-29.255	yaw rate:	-1.950	Roll:	-1.818	Pitch:	2.908	Yaw:	-44.079	Thrust:	100.000
Time:	3.954	Roll Set Point:	0.059	Pitch Set Point:	-0.192	Yaw Set Point:	0.511	X_WP:	0.000	Y_WP:	0.000	Y_WP:	0.500	X:	-0.005	Y:	0.104	Z:	0.045	yaw:	-29.255	yaw rate:	-1.950	Roll:	-1.811	Pitch:	2.925	Yaw:	-43.973	Thrust:	100.000
Time:	3.969	Roll Set Point:	0.059	Pitch Set Point:	-0.192	Yaw Set Point:	0.511	X_WP:	0.000	Y_WP:	0.000	Y_WP:	0.500	X:	-0.005	Y:	0.104	Z:	0.045	yaw:	-29.274	yaw rate:	-14.201	Roll:	-1.808	Pitch:	2.904	Yaw:	-44.327	Thrust:	100.000
Time:	3.985	Roll Set Point:	0.059	Pitch Set Point:	-0.192	Yaw Set Point:	0.511	X_WP:	0.000	Y_WP:	0.000	Y_WP:	0.500	X:	-0.005	Y:	0.104	Z:	0.045	yaw:	-29.274	yaw rate:	-14.201	Roll:	-1.815	Pitch:	2.931	Yaw:	-44.000	Thrust:	100.000
Time:	4.001	Roll Set Point:	0.059	Pitch Set Point:	-0.192	Yaw Set Point:	0.511	X_WP:	0.000	Y_WP:	0.000	Y_WP:	0.500	X:	-0.005	Y:	0.104	Z:	0.045	yaw:	-29.265	yaw rate:	0.960	Roll:	-1.875	Pitch:	2.960	Yaw:	-43.826	Thrust:	100.000
Time:	4.016	Roll Set Point:	0.059	Pitch Set Point:	-0.192	Yaw Set Point:	0.511	X_WP:	0.000	Y_WP:	0.000	Y_WP:	0.500	X:	-0.005	Y:	0.104	Z:	0.045	yaw:	-29.265	yaw rate:	0.960	Roll:	-1.821	Pitch:	2.939	Yaw:	-43.987	Thrust:	100.000
Time:	4.032	Roll Set Point:	0.059	Pitch Set Point:	-0.192	Yaw Set Point:	0.510	X_WP:	0.000	Y_WP:	0.000	Y_WP:	0.500	X:	-0.005	Y:	0.104	Z:	0.045	yaw:	-29.220	yaw rate:	4.449	Roll:	-1.731	Pitch:	2.968	Yaw:	-43.179	Thrust:	100.000
Time:	4.048	Roll Set Point:	0.059	Pitch Set Point:	-0.192	Yaw Set Point:	0.510	X_WP:	0.000	Y_WP:	0.000	Y_WP:	0.500	X:	-0.005	Y:	0.104	Z:	0.045	yaw:	-29.220	yaw rate:	4.449	Roll:	-1.823	Pitch:	2.947	Yaw:	-43.928	Thrust:	100.000
Time:	4.063	Roll Set Point:	0.059	Pitch Set Point:	-0.192	Yaw Set Point:	0.511	X_WP:	0.000	Y_WP:	0.000	Y_WP:	0.500	X:	-0.005	Y:	0.104	Z:	0.045	yaw:	-29.264	yaw rate:	-4.317	Roll:	-1.860	Pitch:	2.907	Yaw:	-44.706	Thrust:	100.000
Time:	4.079	Roll Set Point:	0.059	Pitch Set Point:	-0.192	Yaw Set Point:	0.511	X_WP:	0.000	Y_WP:	0.000	Y_WP:	0.500	X:	-0.005	Y:	0.104	Z:	0.045	yaw:	-29.264	yaw rate:	-4.317	Roll:	-1.828	Pitch:	2.952	Yaw:	-43.985	Thrust:	100.000
Time:	4.094	Roll Set Point:	0.059	Pitch Set Point:	-0.192	Yaw Set Point:	0.510	X_WP:	0.000	Y_WP:	0.000	Y_WP:	0.500	X:	-0.005	Y:	0.104	Z:	0.045	yaw:	-29.234	yaw rate:	3.281	Roll:	-1.799	Pitch:	2.997	Yaw:	-43.454	Thrust:	100.000
Time:	4.110	Roll Set Point:	0.059	Pitch Set Point:	-0.192	Yaw Set Point:	0.511	X_WP:	0.000	Y_WP:	0.000	Y_WP:	0.500	X:	-0.005	Y:	0.104	Z:	0.045	yaw:	-29.274	yaw rate:	-3.940	Roll:	-1.943	Pitch:	2.898	Yaw:	-44.660	Thrust:	100.000
Time:	4.126	Roll Set Point:	0.059	Pitch Set Point:	-0.192	Yaw Set Point:	0.511	X_WP:	0.000	Y_WP:	0.000	Y_WP:	0.500	X:	-0.005	Y:	0.104	Z:	0.045	yaw:	-29.278	yaw rate:	-0.458	Roll:	-1.783	Pitch:	2.959	Yaw:	-44.082	Thrust:	100.000
Time:	4.141	Roll Set Point:	0.059	Pitch Set Point:	-0.192	Yaw Set Point:	0.511	X_WP:	0.000	Y_WP:	0.000	Y_WP:	0.500	X:	-0.005	Y:	0.104	Z:	0.045	yaw:	-29.278	yaw rate:	-0.458	Roll:	-1.837	Pitch:	2.965	Yaw:	-44.005	Thrust:	100.000
Time:	4.157	Roll Set Point:	0.059	Pitch Set Point:	-0.192	Yaw Set Point:	0.511	X_WP:	0.000	Y_WP:	0.000	Y_WP:	0.500	X:	-0.005	Y:	0.104	Z:	0.045	yaw:	-29.259	yaw rate:	-3.191	Roll:	-1.860	Pitch:	3.015	Yaw:	-43.654	Thrust:	100.000
Time:	4.173	Roll Set Point:	0.059	Pitch Set Point:	-0.192	Yaw Set Point:	0.510	X_WP:	0.000	Y_WP:	0.000	Y_WP:	0.500	X:	-0.005	Y:	0.104	Z:	0.045	yaw:	-29.247	yaw rate:	1.178	Roll:	-1.774	Pitch:	2.965	Yaw:	-43.764	Thrust:	100.000
Time:	4.188	Roll Set Point:	0.059	Pitch Set Point:	-0.192	Yaw Set Point:	0.511	X_WP:	0.000	Y_WP:	0.000	Y_WP:	0.500	X:	-0.005	Y:	0.104	Z:	0.045	yaw:	-29.255	yaw rate:	-0.778	Roll:	-1.812	Pitch:	2.996	Yaw:	-44.103	Thrust:	100.000
Time:	4.204	Roll Set Point:	0.059	Pitch Set Point:	-0.192	Yaw Set Point:	0.511	X_WP:	0.000	Y_WP:	0.000	Y_WP:	0.500	X:	-0.005	Y:	0.104	Z:	0.045	yaw:	-29.255	yaw rate:	-0.778	Roll:	-1.844	Pitch:	2.981	Yaw:	-43.973	Thrust:	100.000
Time:	4.219	Roll Set Point:	0.059	Pitch Set Point:	-0.192	Yaw Set Point:	0.509	X_WP:	0.000	Y_WP:	0.000	Y_WP:	0.500	X:	-0.005	Y:	0.104	Z:	0.045	yaw:	-29.156	yaw rate:	9.905	Roll:	-1.834	Pitch:	3.074	Yaw:	-42.179	Thrust:	100.000
Time:	4.235	Roll Set Point:	0.059	Pitch Set Point:	-0.192	Yaw Set Point:	0.511	X_WP:	0.000	Y_WP:	0.000	Y_WP:	0.500	X:	-0.005	Y:	0.104	Z:	0.045	yaw:	-29.256	yaw rate:	-9.979	Roll:	-1.960	Pitch:	2.892	Yaw:	-45.646	Thrust:	100.000
Time:	4.251	Roll Set Point:	0.059	Pitch Set Point:	-0.192	Yaw Set Point:	0.510	X_WP:	0.000	Y_WP:	0.000	Y_WP:	0.500	X:	-0.005	Y:	0.104	Z:	0.045	yaw:	-29.207	yaw rate:	5.746	Roll:	-1.668	Pitch:	3.049	Yaw:	-43.096	Thrust:	100.000
Time:	4.267	Roll Set Point:	0.059	Pitch Set Point:	-0.192	Yaw Set Point:	0.510	X_WP:	0.000	Y_WP:	0.000	Y_WP:	0.500	X:	-0.005	Y:	0.104	Z:	0.045	yaw:	-29.207	yaw rate:	5.746	Roll:	-1.855	Pitch:	3.003	Yaw:	-43.959	Thrust:	100.000
Time:	4.282	Roll Set Point:	0.059	Pitch Set Point:	-0.192	Yaw Set Point:	0.510	X_WP:	0.000	Y_WP:	0.000	Y_WP:	0.500	X:	-0.005	Y:	0.104	Z:	0.045	yaw:	-29.233	yaw rate:	-2.613	Roll:	-1.991	Pitch:	2.958	Yaw:	-44.285	Thrust:	100.000
Time:	4.306	Roll Set Point:	0.059	Pitch Set Point:	-0.192	Yaw Set Point:	0.511	X_WP:	0.000	Y_WP:	0.000	Y_WP:	0.500	X:	-0.005	Y:	0.104	Z:	0.045	yaw:	-29.273	yaw rate:	-0.067	Roll:	-2.006	Pitch:	3.213	Yaw:	-46.262	Thrust:	100.000
Time:	4.322	Roll Set Point:	0.059	Pitch Set Point:	-0.192	Yaw Set Point:	0.511	X_WP:	0.000	Y_WP:	0.000	Y_WP:	0.500	X:	-0.005	Y:	0.104	Z:	0.045	yaw:	-29.289	yaw rate:	-1.615	Roll:	-1.911	Pitch:	2.968	Yaw:	-44.284	Thrust:	100.000
Time:	4.338	Roll Set Point:	0.059	Pitch Set Point:	-0.192	Yaw Set Point:	0.511	X_WP:	0.000	Y_WP:	0.000	Y_WP:	0.500	X:	-0.005	Y:	0.104	Z:	0.045	yaw:	-29.289	yaw rate:	-1.615	Roll:	-1.863	Pitch:	3.006	Yaw:	-44.019	Thrust:	100.000
Time:	4.353	Roll Set Point:	0.059	Pitch Set Point:	-0.192	Yaw Set Point:	0.510	X_WP:	0.000	Y_WP:	0.000	Y_WP:	0.500	X:	-0.005	Y:	0.104	Z:	0.045	yaw:	-29.244	yaw rate:	1.602	Roll:	-1.828	Pitch:	3.081	Yaw:	-43.181	Thrust:	100.000
Time:	4.369	Roll Set Point:	0.059	Pitch Set Point:	-0.192	Yaw Set Point:	0.511	X_WP:	0.000	Y_WP:	0.000	Y_WP:	0.500	X:	-0.005	Y:	0.104	Z:	0.045	yaw:	-29.262	yaw rate:	-1.875	Roll:	-1.823	Pitch:	2.980	Yaw:	-44.312	Thrust:	100.000
Time:	4.385	Roll Set Point:	0.059	Pitch Set Point:	-0.192	Yaw Set Point:	0.511	X_WP:	0.000	Y_WP:	0.000	Y_WP:	0.500	X:	-0.005	Y:	0.104	Z:	0.045	yaw:	-29.250	yaw rate:	1.181	Roll:	-1.889	Pitch:	3.083	Yaw:	-43.770	Thrust:	100.000
Time:	4.400	Roll Set Point:	0.059	Pitch Set Point:	-0.192	Yaw Set Point:	0.511	X_WP:	0.000	Y_WP:	0.000	Y_WP:	0.500	X:	-0.005	Y:	0.104	Z:	0.045	yaw:	-29.253	yaw rate:	-0.230	Roll:	-1.880	Pitch:	2.992	Yaw:	-44.005	Thrust:	100.000
Time:	4.416	Roll Set Point:	0.059	Pitch Set Point:	-0.192	Yaw Set Point:	0.511	X_WP:	0.000	Y_WP:	0.000	Y_WP:	0.500	X:	-0.005	Y:	0.104	Z:	0.045	yaw:	-29.251	yaw rate:	0.157	Roll:	-1.856	Pitch:	3.033	Yaw:	-43.941	Thrust:	100.000
Time:	4.431	Roll Set Point:	0.059	Pitch Set Point:	-0.192	Yaw Set Point:	0.510	X_WP:	0.000	Y_WP:	0.000	Y_WP:	0.500	X:	-0.005	Y:	0.104	Z:	0.045	yaw:	-29.247	yaw rate:	0.466	Roll:	-1.862	Pitch:	3.014	Yaw:	-43.885	Thrust:	100.000
Time:	4.447	Roll Set Point:	0.059	Pitch Set Point:	-0.192	Yaw Set Point:	0.511	X_WP:	0.000	Y_WP:	0.000	Y_WP:	0.500	X:	-0.005	Y:	0.104	Z:	0.045	yaw:	-29.268	yaw rate:	-2.168	Roll:	-1.908	Pitch:	3.025	Yaw:	-44.355	Thrust:	100.000
Time:	4.463	Roll Set Point:	0.059	Pitch Set Point:	-0.192	Yaw Set Point:	0.511	X_WP:	0.000	Y_WP:	0.000	Y_WP:	0.500	X:	-0.005	Y:	0.104	Z:	0.045	yaw:	-29.259	yaw rate:	0.964	Roll:	-1.894	Pitch:	3.043	Yaw:	-43.814	Thrust:	100.000
Time:	4.478	Roll Set Point:	0.059	Pitch Set Point:	-0.192	Yaw Set Point:	0.511	X_WP:	0.000	Y_WP:	0.000	Y_WP:	0.500	X:	-0.005	Y:	0.104	Z:	0.045	yaw:	-29.287	yaw rate:	-2.885	Roll:	-1.928	Pitch:	3.003	Yaw:	-44.501	Thrust:	100.000
Time:	4.494	Roll Set Point:	0.059	Pitch Set Point:	-0.192	Yaw Set Point:	0.510	X_WP:	0.000	Y_WP:	0.000	Y_WP:	0.500	X:	-0.005	Y:	0.104	Z:	0.045	yaw:	-29.229	yaw rate:	5.803	Roll:	-1.736	Pitch:	3.119	Yaw:	-42.949	Thrust:	100.000
Time:	4.510	Roll Set Point:	0.059	Pitch Set Point:	-0.192	Yaw Set Point:	0.511	X_WP:	0.000	Y_WP:	0.000	Y_WP:	0.500	X:	-0.005	Y:	0.104	Z:	0.045	yaw:	-29.297	yaw rate:	-6.757	Roll:	-2.013	Pitch:	2.964	Yaw:	-45.172	Thrust:	100.000
Time:	4.525	Roll Set Point:	0.059	Pitch Set Point:	-0.192	Yaw Set Point:	0.511	X_WP:	0.000	Y_WP:	0.000	Y_WP:	0.500	X:	-0.005	Y:	0.104	Z:	0.045	yaw:	-29.274	yaw rate:	2.306	Roll:	-1.874	Pitch:	3.077	Yaw:	-43.614	Thrust:	100.000
Time:	4.556	Roll Set Point:	0.059	Pitch Set Point:	-0.192	Yaw Set Point:	0.511	X_WP:	0.000	Y_WP:	0.000	Y_WP:	0.500	X:	-0.005	Y:	0.104	Z:	0.045	yaw:	-29.292	yaw rate:	-1.781	Roll:	-2.227	Pitch:	3.525	Yaw:	-47.300	Thrust:	100.000
Time:	4.572	Roll Set Point:	0.059	Pitch Set Point:	-0.192	Yaw Set Point:	0.511	X_WP:	0.000	Y_WP:	0.000	Y_WP:	0.500	X:	-0.005	Y:	0.104	Z:	0.045	yaw:	-29.276	yaw rate:	1.615	Roll:	-1.852	Pitch:	3.078	Yaw:	-43.731	Thrust:	100.000
Time:	4.588	Roll Set Point:	0.059	Pitch Set Point:	-0.192	Yaw Set Point:	0.511	X_WP:	0.000	Y_WP:	0.000	Y_WP:	0.500	X:	-0.005	Y:	0.104	Z:	0.045	yaw:	-29.276	yaw rate:	1.615	Roll:	-1.896	Pitch:	3.059	Yaw:	-44.002	Thrust:	100.000
Time:	4.603	Roll Set Point:	0.059	Pitch Set Point:	-0.192	Yaw Set Point:	0.509	X_WP:	0.000	Y_WP:	0.000	Y_WP:	0.500	X:	-0.005	Y:	0.104	Z:	0.045	yaw:	-29.192	yaw rate:	8.345	Roll:	-1.769	Pitch:	3.189	Yaw:	-42.466	Thrust:	100.000
Time:	4.619	Roll Set Point:	0.059	Pitch Set Point:	-0.192	Yaw Set Point:	0.511	X_WP:	0.000	Y_WP:	0.000	Y_WP:	0.500	X:	-0.005	Y:	0.104	Z:	0.045	yaw:	-29.290	yaw rate:	-9.774	Roll:	-2.072	Pitch:	2.956	Yaw:	-45.666	Thrust:	100.000
Time:	4.635	Roll Set Point:	0.059	Pitch Set Point:	-0.192	Yaw Set Point:	0.511	X_WP:	0.000	Y_WP:	0.000	Y_WP:	0.500	X:	-0.005	Y:	0.104	Z:	0.045	yaw:	-29.290	yaw rate:	-9.774	Roll:	-1.903	Pitch:	3.070	Yaw:	-44.022	Thrust:	100.000
Time:	4.650	Roll Set Point:	0.059	Pitch Set Point:	-0.192	Yaw Set Point:	0.511	X_WP:	0.000	Y_WP:	0.000	Y_WP:	0.500	X:	-0.005	Y:	0.104	Z:	0.045	yaw:	-29.272	yaw rate:	1.767	Roll:	-1.802	Pitch:	3.060	Yaw:	-43.685	Thrust:	100.000
Time:	4.666	Roll Set Point:	0.059	Pitch Set Point:	-0.192	Yaw Set Point:	0.511	X_WP:	0.000	Y_WP:	0.000	Y_WP:	0.500	X:	-0.005	Y:	0.104	Z:	0.045	yaw:	-29.276	yaw rate:	-2.531	Roll:	-1.992	Pitch:	3.109	Yaw:	-44.073	Thrust:	100.000
Time:	4.681	Roll Set Point:	0.059	Pitch Set Point:	-0.192	Yaw Set Point:	0.510	X_WP:	0.000	Y_WP:	0.000	Y_WP:	0.500	X:	-0.005	Y:	0.104	Z:	0.045	yaw:	-29.222	yaw rate:	5.380	Roll:	-1.834	Pitch:	3.148	Yaw:	-43.038	Thrust:	100.000
Time:	4.697	Roll Set Point:	0.059	Pitch Set Point:	-0.192	Yaw Set Point:	0.510	X_WP:	0.000	Y_WP:	0.000	Y_WP:	0.500	X:	-0.005	Y:	0.104	Z:	0.045	yaw:	-29.222	yaw rate:	5.380	Roll:	-1.909	Pitch:	3.086	Yaw:	-43.927	Thrust:	100.000
Time:	4.713	Roll Set Point:	0.059	Pitch Set Point:	-0.192	Yaw Set Point:	0.511	X_WP:	0.000	Y_WP:	0.000	Y_WP:	0.500	X:	-0.005	Y:	0.104	Z:	0.045	yaw:	-29.274	yaw rate:	-0.264	Roll:	-1.947	Pitch:	2.999	Yaw:	-44.872	Thrust:	100.000
Time:	4.728	Roll Set Point:	0.059	Pitch Set Point:	-0.192	Yaw Set Point:	0.510	X_WP:	0.000	Y_WP:	0.000	Y_WP:	0.500	X:	-0.005	Y:	0.104	Z:	0.045	yaw:	-29.237	yaw rate:	3.712	Roll:	-1.884	Pitch:	3.158	Yaw:	-43.308	Thrust:	100.000
Time:	4.747	Roll Set Point:	0.059	Pitch Set Point:	-0.192	Yaw Set Point:	0.511	X_WP:	0.000	Y_WP:	0.000	Y_WP:	0.500	X:	-0.005	Y:	0.104	Z:	0.045	yaw:	-29.262	yaw rate:	-2.508	Roll:	-2.019	Pitch:	3.131	Yaw:	-44.894	Thrust:	100.000
Time:	4.769	Roll Set Point:	0.059	Pitch Set Point:	-0.192	Yaw Set Point:	0.511	X_WP:	0.000	Y_WP:	0.000	Y_WP:	0.500	X:	-0.005	Y:	0.104	Z:	0.045	yaw:	-29.293	yaw rate:	-5.452	Roll:	-2.034	Pitch:	3.291	Yaw:	-45.658	Thrust:	100.000
Time:	4.784	Roll Set Point:	0.059	Pitch Set Point:	-0.192	Yaw Set Point:	0.511	X_WP:	0.000	Y_WP:	0.000	Y_WP:	0.500	X:	-0.005	Y:	0.104	Z:	0.045	yaw:	-29.293	yaw rate:	-5.452	Roll:	-1.921	Pitch:	3.100	Yaw:	-44.027	Thrust:	100.000
Time:	4.800	Roll Set Point:	0.059	Pitch Set Point:	-0.192	Yaw Set Point:	0.510	X_WP:	0.000	Y_WP:	0.000	Y_WP:	0.500	X:	-0.005	Y:	0.104	Z:	0.045	yaw:	-29.245	yaw rate:	2.275	Roll:	-1.911	Pitch:	3.184	Yaw:	-43.135	Thrust:	100.000
Time:	4.815	Roll Set Point:	0.059	Pitch Set Point:	-0.192	Yaw Set Point:	0.510	X_WP:	0.000	Y_WP:	0.000	Y_WP:	0.500	X:	-0.004	Y:	0.104	Z:	0.045	yaw:	-29.237	yaw rate:	0.810	Roll:	-1.823	Pitch:	3.118	Yaw:	-43.827	Thrust:	100.000
Time:	4.831	Roll Set Point:	0.059	Pitch Set Point:	-0.192	Yaw Set Point:	0.510	X_WP:	0.000	Y_WP:	0.000	Y_WP:	0.500	X:	-0.005	Y:	0.104	Z:	0.045	yaw:	-29.244	yaw rate:	-0.649	Roll:	-1.948	Pitch:	3.107	Yaw:	-44.066	Thrust:	100.000
Time:	4.847	Roll Set Point:	0.059	Pitch Set Point:	-0.192	Yaw Set Point:	0.510	X_WP:	0.000	Y_WP:	0.000	Y_WP:	0.500	X:	-0.005	Y:	0.104	Z:	0.045	yaw:	-29.236	yaw rate:	0.756	Roll:	-1.934	Pitch:	3.100	Yaw:	-43.820	Thrust:	100.000
Time:	4.862	Roll Set Point:	0.059	Pitch Set Point:	-0.192	Yaw Set Point:	0.510	X_WP:	0.000	Y_WP:	0.000	Y_WP:	0.500	X:	-0.005	Y:	0.104	Z:	0.045	yaw:	-29.248	yaw rate:	-1.194	Roll:	-1.978	Pitch:	3.123	Yaw:	-44.163	Thrust:	100.000
Time:	4.878	Roll Set Point:	0.059	Pitch Set Point:	-0.192	Yaw Set Point:	0.510	X_WP:	0.000	Y_WP:	0.000	Y_WP:	0.500	X:	-0.005	Y:	0.104	Z:	0.045	yaw:	-29.248	yaw rate:	-1.194	Roll:	-1.933	Pitch:	3.123	Yaw:	-43.964	Thrust:	100.000
Time:	4.894	Roll Set Point:	0.059	Pitch Set Point:	-0.192	Yaw Set Point:	0.510	X_WP:	0.000	Y_WP:	0.000	Y_WP:	0.500	X:	-0.005	Y:	0.104	Z:	0.045	yaw:	-29.235	yaw rate:	1.334	Roll:	-1.861	Pitch:	3.123	Yaw:	-43.705	Thrust:	100.000
Time:	4.909	Roll Set Point:	0.059	Pitch Set Point:	-0.192	Yaw Set Point:	0.510	X_WP:	0.000	Y_WP:	0.000	Y_WP:	0.500	X:	-0.005	Y:	0.104	Z:	0.045	yaw:	-29.235	yaw rate:	1.334	Roll:	-1.937	Pitch:	3.132	Yaw:	-43.959	Thrust:	100.000
Time:	4.925	Roll Set Point:	0.059	Pitch Set Point:	-0.192	Yaw Set Point:	0.510	X_WP:	0.000	Y_WP:	0.000	Y_WP:	0.500	X:	-0.005	Y:	0.104	Z:	0.045	yaw:	-29.247	yaw rate:	-0.964	Roll:	-2.054	Pitch:	3.112	Yaw:	-44.165	Thrust:	100.000
Time:	4.940	Roll Set Point:	0.059	Pitch Set Point:	-0.192	Yaw Set Point:	0.510	X_WP:	0.000	Y_WP:	0.000	Y_WP:	0.500	X:	-0.005	Y:	0.104	Z:	0.045	yaw:	-29.247	yaw rate:	-0.964	Roll:	-1.942	Pitch:	3.135	Yaw:	-43.959	Thrust:	100.000
Time:	4.956	Roll Set Point:	0.059	Pitch Set Point:	-0.192	Yaw Set Point:	0.510	X_WP:	0.000	Y_WP:	0.000	Y_WP:	0.500	X:	-0.005	Y:	0.104	Z:	0.045	yaw:	-29.238	yaw rate:	1.656	Roll:	-1.897	Pitch:	3.149	Yaw:	-43.805	Thrust:	100.000
Time:	4.972	Roll Set Point:	0.059	Pitch Set Point:	-0.192	Yaw Set Point:	0.510	X_WP:	0.000	Y_WP:	0.000	Y_WP:	0.500	X:	-0.005	Y:	0.104	Z:	0.045	yaw:	-29.238	yaw rate:	1.656	Roll:	-1.945	Pitch:	3.143	Yaw:	-43.948	Thrust:	100.000
Time:	4.987	Roll Set Point:	0.059	Pitch Set Point:	-0.192	Yaw Set Point:	0.511	X_WP:	0.000	Y_WP:	0.000	Y_WP:	0.500	X:	-0.005	Y:	0.104	Z:	0.045	yaw:	-29.283	yaw rate:	-4.531	Roll:	-2.008	Pitch:	3.117	Yaw:	-44.763	Thrust:	100.000
Time:	5.019	Roll Set Point:	0.059	Pitch Set Point:	-0.192	Yaw Set Point:	0.511	X_WP:	0.000	Y_WP:	0.000	Y_WP:	0.500	X:	-0.005	Y:	0.104	Z:	0.045	yaw:	-29.284	yaw rate:	-1.349	Roll:	-2.295	Pitch:	3.740	Yaw:	-47.142	Thrust:	100.000
Time:	5.034	Roll Set Point:	0.059	Pitch Set Point:	-0.192	Yaw Set Point:	0.511	X_WP:	0.000	Y_WP:	0.000	Y_WP:	0.500	X:	-0.005	Y:	0.104	Z:	0.045	yaw:	-29.254	yaw rate:	2.986	Roll:	-1.939	Pitch:	3.167	Yaw:	-43.471	Thrust:	100.000
Time:	5.050	Roll Set Point:	0.059	Pitch Set Point:	-0.192	Yaw Set Point:	0.511	X_WP:	0.000	Y_WP:	0.000	Y_WP:	0.500	X:	-0.005	Y:	0.104	Z:	0.045	yaw:	-29.284	yaw rate:	-2.955	Roll:	-1.960	Pitch:	3.099	Yaw:	-44.508	Thrust:	100.000
Time:	5.065	Roll Set Point:	0.059	Pitch Set Point:	-0.192	Yaw Set Point:	0.511	X_WP:	0.000	Y_WP:	0.000	Y_WP:	0.500	X:	-0.005	Y:	0.104	Z:	0.045	yaw:	-29.296	yaw rate:	-1.240	Roll:	-2.042	Pitch:	3.178	Yaw:	-44.238	Thrust:	100.000
Time:	5.081	Roll Set Point:	0.059	Pitch Set Point:	-0.192	Yaw Set Point:	0.510	X_WP:	0.000	Y_WP:	0.000	Y_WP:	0.500	X:	-0.005	Y:	0.104	Z:	0.045	yaw:	-29.237	yaw rate:	5.902	Roll:	-1.875	Pitch:	3.211	Yaw:	-42.970	Thrust:	100.000
Time:	5.097	Roll Set Point:	0.059	Pitch Set Point:	-0.192	Yaw Set Point:	0.511	X_WP:	0.000	Y_WP:	0.000	Y_WP:	0.500	X:	-0.005	Y:	0.104	Z:	0.045	yaw:	-29.267	yaw rate:	-3.017	Roll:	-1.948	Pitch:	3.083	Yaw:	-44.499	Thrust:	100.000
Time:	5.112	Roll Set Point:	0.059	Pitch Set Point:	-0.192	Yaw Set Point:	0.511	X_WP:	0.000	Y_WP:	0.000	Y_WP:	0.500	X:	-0.005	Y:	0.104	Z:	0.045	yaw:	-29.270	yaw rate:	-0.232	Roll:	-1.980	Pitch:	3.127	Yaw:	-44.032	Thrust:	100.000
Time:	5.128	Roll Set Point:	0.059	Pitch Set Point:	-0.192	Yaw Set Point:	0.510	X_WP:	0.000	Y_WP:	0.000	Y_WP:	0.500	X:	-0.005	Y:	0.104	Z:	0.045	yaw:	-29.245	yaw rate:	2.419	Roll:	-1.921	Pitch:	3.213	Yaw:	-43.555	Thrust:	100.000
Time:	5.144	Roll Set Point:	0.059	Pitch Set Point:	-0.192	Yaw Set Point:	0.510	X_WP:	0.000	Y_WP:	0.000	Y_WP:	0.500	X:	-0.005	Y:	0.104	Z:	0.045	yaw:	-29.245	yaw rate:	2.419	Roll:	-1.965	Pitch:	3.147	Yaw:	-43.946	Thrust:	100.000
Time:	5.159	Roll Set Point:	0.059	Pitch Set Point:	-0.192	Yaw Set Point:	0.510	X_WP:	0.000	Y_WP:	0.000	Y_WP:	0.500	X:	-0.005	Y:	0.104	Z:	0.045	yaw:	-29.224	yaw rate:	2.092	Roll:	-1.950	Pitch:	3.204	Yaw:	-43.580	Thrust:	100.000
Time:	5.175	Roll Set Point:	0.059	Pitch Set Point:	-0.192	Yaw Set Point:	0.510	X_WP:	0.000	Y_WP:	0.000	Y_WP:	0.500	X:	-0.005	Y:	0.104	Z:	0.045	yaw:	-29.224	yaw rate:	2.092	Roll:	-1.970	Pitch:	3.151	Yaw:	-43.930	Thrust:	100.000
Time:	5.191	Roll Set Point:	0.059	Pitch Set Point:	-0.192	Yaw Set Point:	0.510	X_WP:	0.000	Y_WP:	0.000	Y_WP:	0.500	X:	-0.005	Y:	0.104	Z:	0.045	yaw:	-29.242	yaw rate:	3.520	Roll:	-2.009	Pitch:	3.094	Yaw:	-44.261	Thrust:	100.000
Time:	5.206	Roll Set Point:	0.059	Pitch Set Point:	-0.192	Yaw Set Point:	0.510	X_WP:	0.000	Y_WP:	0.000	Y_WP:	0.500	X:	-0.005	Y:	0.104	Z:	0.045	yaw:	-29.242	yaw rate:	3.520	Roll:	-1.975	Pitch:	3.149	Yaw:	-43.954	Thrust:	100.000
Time:	5.222	Roll Set Point:	0.059	Pitch Set Point:	-0.192	Yaw Set Point:	0.511	X_WP:	0.000	Y_WP:	0.000	Y_WP:	0.500	X:	-0.005	Y:	0.104	Z:	0.045	yaw:	-29.286	yaw rate:	-2.869	Roll:	-2.056	Pitch:	3.077	Yaw:	-44.746	Thrust:	100.000
Time:	5.237	Roll Set Point:	0.059	Pitch Set Point:	-0.192	Yaw Set Point:	0.511	X_WP:	0.000	Y_WP:	0.000	Y_WP:	0.500	X:	-0.005	Y:	0.104	Z:	0.045	yaw:	-29.267	yaw rate:	1.827	Roll:	-1.925	Pitch:	3.189	Yaw:	-43.684	Thrust:	100.000
Time:	5.253	Roll Set Point:	0.059	Pitch Set Point:	-0.192	Yaw Set Point:	0.511	X_WP:	0.000	Y_WP:	0.000	Y_WP:	0.500	X:	-0.005	Y:	0.104	Z:	0.045	yaw:	-29.274	yaw rate:	-0.635	Roll:	-1.988	Pitch:	3.158	Yaw:	-44.103	Thrust:	100.000
Time:	5.269	Roll Set Point:	0.059	Pitch Set Point:	-0.192	Yaw Set Point:	0.511	X_WP:	0.000	Y_WP:	0.000	Y_WP:	0.500	X:	-0.005	Y:	0.104	Z:	0.045	yaw:	-29.274	yaw rate:	-0.635	Roll:	-1.986	Pitch:	3.150	Yaw:	-44.007	Thrust:	100.000
Time:	5.284	Roll Set Point:	0.059	Pitch Set Point:	-0.192	Yaw Set Point:	0.510	X_WP:	0.000	Y_WP:	0.000	Y_WP:	0.500	X:	-0.005	Y:	0.104	Z:	0.045	yaw:	-29.238	yaw rate:	3.538	Roll:	-1.972	Pitch:	3.185	Yaw:	-43.336	Thrust:	100.000
Time:	5.300	Roll Set Point:	0.059	Pitch Set Point:	-0.192	Yaw Set Point:	0.511	X_WP:	0.000	Y_WP:	0.000	Y_WP:	0.500	X:	-0.005	Y:	0.104	Z:	0.045	yaw:	-29.251	yaw rate:	-1.131	Roll:	-1.972	Pitch:	3.090	Yaw:	-44.186	Thrust:	100.000
Time:	5.316	Roll Set Point:	0.059	Pitch Set Point:	-0.192	Yaw Set Point:	0.511	X_WP:	0.000	Y_WP:	0.000	Y_WP:	0.500	X:	-0.005	Y:	0.104	Z:	0.045	yaw:	-29.250	yaw rate:	0.096	Roll:	-1.992	Pitch:	3.179	Yaw:	-43.963	Thrust:	100.000
Time:	5.331	Roll Set Point:	0.059	Pitch Set Point:	-0.192	Yaw Set Point:	0.511	X_WP:	0.000	Y_WP:	0.000	Y_WP:	0.500	X:	-0.005	Y:	0.104	Z:	0.045	yaw:	-29.265	yaw rate:	-1.511	Roll:	-2.018	Pitch:	3.137	Yaw:	-44.240	Thrust:	100.000
Time:	5.347	Roll Set Point:	0.059	Pitch Set Point:	-0.192	Yaw Set Point:	0.510	X_WP:	0.000	Y_WP:	0.000	Y_WP:	0.500	X:	-0.005	Y:	0.104	Z:	0.045	yaw:	-29.231	yaw rate:	3.458	Roll:	-1.970	Pitch:	3.173	Yaw:	-43.360	Thrust:	100.000
Time:	5.362	Roll Set Point:	0.059	Pitch Set Point:	-0.192	Yaw Set Point:	0.510	X_WP:	0.000	Y_WP:	0.000	Y_WP:	0.500	X:	-0.005	Y:	0.104	Z:	0.045	yaw:	-29.218	yaw rate:	1.283	Roll:	-1.910	Pitch:	3.131	Yaw:	-43.687	Thrust:	100.000
Time:	5.378	Roll Set Point:	0.059	Pitch Set Point:	-0.192	Yaw Set Point:	0.510	X_WP:	0.000	Y_WP:	0.000	Y_WP:	0.500	X:	-0.005	Y:	0.104	Z:	0.045	yaw:	-29.218	yaw rate:	1.283	Roll:	-1.997	Pitch:	3.149	Yaw:	-43.922	Thrust:	100.000
Time:	5.394	Roll Set Point:	0.059	Pitch Set Point:	-0.192	Yaw Set Point:	0.510	X_WP:	0.000	Y_WP:	0.000	Y_WP:	0.500	X:	-0.005	Y:	0.104	Z:	0.045	yaw:	-29.225	yaw rate:	-0.771	Roll:	-2.032	Pitch:	3.199	Yaw:	-44.061	Thrust:	100.000
Time:	5.409	Roll Set Point:	0.059	Pitch Set Point:	-0.192	Yaw Set Point:	0.511	X_WP:	0.000	Y_WP:	0.000	Y_WP:	0.500	X:	-0.005	Y:	0.104	Z:	0.045	yaw:	-29.277	yaw rate:	-2.401	Roll:	-2.128	Pitch:	3.061	Yaw:	-44.859	Thrust:	100.000
Time:	5.425	Roll Set Point:	0.059	Pitch Set Point:	-0.192	Yaw Set Point:	0.511	X_WP:	0.000	Y_WP:	0.000	Y_WP:	0.500	X:	-0.005	Y:	0.104	Z:	0.045	yaw:	-29.277	yaw rate:	-2.401	Roll:	-2.009	Pitch:	3.151	Yaw:	-44.019	Thrust:	100.000
Time:	5.441	Roll Set Point:	0.059	Pitch Set Point:	-0.192	Yaw Set Point:	0.511	X_WP:	0.000	Y_WP:	0.000	Y_WP:	0.500	X:	-0.005	Y:	0.104	Z:	0.045	yaw:	-29.266	yaw rate:	0.388	Roll:	-1.951	Pitch:	3.176	Yaw:	-43.806	Thrust:	100.000
Time:	5.456	Roll Set Point:	0.059	Pitch Set Point:	-0.192	Yaw Set Point:	0.511	X_WP:	0.000	Y_WP:	0.000	Y_WP:	0.500	X:	-0.005	Y:	0.104	Z:	0.045	yaw:	-29.266	yaw rate:	0.388	Roll:	-2.009	Pitch:	3.148	Yaw:	-43.983	Thrust:	100.000
Time:	5.472	Roll Set Point:	0.059	Pitch Set Point:	-0.192	Yaw Set Point:	0.511	X_WP:	0.000	Y_WP:	0.000	Y_WP:	0.500	X:	-0.005	Y:	0.104	Z:	0.045	yaw:	-29.256	yaw rate:	2.965	Roll:	-2.022	Pitch:	3.155	Yaw:	-43.820	Thrust:	100.000
Time:	5.487	Roll Set Point:	0.059	Pitch Set Point:	-0.192	Yaw Set Point:	0.511	X_WP:	0.000	Y_WP:	0.000	Y_WP:	0.500	X:	-0.005	Y:	0.104	Z:	0.045	yaw:	-29.259	yaw rate:	-0.308	Roll:	-2.057	Pitch:	3.131	Yaw:	-44.029	Thrust:	100.000
Time:	5.519	Roll Set Point:	0.059	Pitch Set Point:	-0.192	Yaw Set Point:	0.511	X_WP:	0.000	Y_WP:	0.000	Y_WP:	0.500	X:	-0.005	Y:	0.104	Z:	0.045	yaw:	-29.258	yaw rate:	0.184	Roll:	-2.413	Pitch:	3.747	Yaw:	-47.090	Thrust:	100.000
Time:	5.534	Roll Set Point:	0.059	Pitch Set Point:	-0.192	Yaw Set Point:	0.510	X_WP:	0.000	Y_WP:	0.000	Y_WP:	0.500	X:	-0.005	Y:	0.104	Z:	0.045	yaw:	-29.213	yaw rate:	2.038	Roll:	-1.943	Pitch:	3.206	Yaw:	-43.154	Thrust:	100.000
Time:	5.550	Roll Set Point:	0.059	Pitch Set Point:	-0.192	Yaw Set Point:	0.511	X_WP:	0.000	Y_WP:	0.000	Y_WP:	0.500	X:	-0.005	Y:	0.104	Z:	0.045	yaw:	-29.278	yaw rate:	-6.434	Roll:	-2.193	Pitch:	3.022	Yaw:	-45.091	Thrust:	100.000
Time:	5.566	Roll Set Point:	0.059	Pitch Set Point:	-0.192	Yaw Set Point:	0.510	X_WP:	0.000	Y_WP:	0.000	Y_WP:	0.500	X:	-0.005	Y:	0.104	Z:	0.045	yaw:	-29.244	yaw rate:	3.334	Roll:	-1.885	Pitch:	3.230	Yaw:	-43.391	Thrust:	100.000
Time:	5.581	Roll Set Point:	0.059	Pitch Set Point:	-0.192	Yaw Set Point:	0.511	X_WP:	0.000	Y_WP:	0.000	Y_WP:	0.500	X:	-0.005	Y:	0.104	Z:	0.045	yaw:	-29.274	yaw rate:	-2.985	Roll:	-2.103	Pitch:	3.084	Yaw:	-44.507	Thrust:	100.000
Time:	5.597	Roll Set Point:	0.059	Pitch Set Point:	-0.192	Yaw Set Point:	0.510	X_WP:	0.000	Y_WP:	0.000	Y_WP:	0.500	X:	-0.005	Y:	0.104	Z:	0.045	yaw:	-29.249	yaw rate:	2.503	Roll:	-2.012	Pitch:	3.206	Yaw:	-43.545	Thrust:	100.000
Time:	5.612	Roll Set Point:	0.059	Pitch Set Point:	-0.192	Yaw Set Point:	0.511	X_WP:	0.000	Y_WP:	0.000	Y_WP:	0.500	X:	-0.005	Y:	0.104	Z:	0.045	yaw:	-29.268	yaw rate:	-1.883	Roll:	-2.032	Pitch:	3.080	Yaw:	-44.306	Thrust:	100.000
Time:	5.628	Roll Set Point:	0.059	Pitch Set Point:	-0.192	Yaw Set Point:	0.511	X_WP:	0.000	Y_WP:	0.000	Y_WP:	0.500	X:	-0.005	Y:	0.104	Z:	0.045	yaw:	-29.270	yaw rate:	-0.210	Roll:	-2.050	Pitch:	3.174	Yaw:	-44.030	Thrust:	100.000
Time:	5.644	Roll Set Point:	0.059	Pitch Set Point:	-0.192	Yaw Set Point:	0.511	X_WP:	0.000	Y_WP:	0.000	Y_WP:	0.500	X:	-0.005	Y:	0.104	Z:	0.045	yaw:	-29.256	yaw rate:	1.403	Roll:	-1.997	Pitch:	3.195	Yaw:	-43.724	Thrust:	100.000
Time:	5.659	Roll Set Point:	0.059	Pitch Set Point:	-0.192	Yaw Set Point:	0.511	X_WP:	0.000	Y_WP:	0.000	Y_WP:	0.500	X:	-0.005	Y:	0.104	Z:	0.045	yaw:	-29.256	yaw rate:	1.403	Roll:	-2.038	Pitch:	3.152	Yaw:	-43.989	Thrust:	100.000
Time:	5.675	Roll Set Point:	0.059	Pitch Set Point:	-0.192	Yaw Set Point:	0.511	X_WP:	0.000	Y_WP:	0.000	Y_WP:	0.500	X:	-0.005	Y:	0.104	Z:	0.045	yaw:	-29.259	yaw rate:	1.346	Roll:	-2.045	Pitch:	3.093	Yaw:	-44.037	Thrust:	100.000
Time:	5.691	Roll Set Point:	0.059	Pitch Set Point:	-0.192	Yaw Set Point:	0.511	X_WP:	0.000	Y_WP:	0.000	Y_WP:	0.500	X:	-0.005	Y:	0.104	Z:	0.045	yaw:	-29.276	yaw rate:	-1.664	Roll:	-2.042	Pitch:	3.158	Yaw:	-44.282	Thrust:	100.000
Time:	5.706	Roll Set Point:	0.059	Pitch Set Point:	-0.192	Yaw Set Point:	0.511	X_WP:	0.000	Y_WP:	0.000	Y_WP:	0.500	X:	-0.005	Y:	0.104	Z:	0.045	yaw:	-29.285	yaw rate:	-0.935	Roll:	-2.068	Pitch:	3.162	Yaw:	-44.171	Thrust:	100.000
Time:	5.722	Roll Set Point:	0.059	Pitch Set Point:	-0.192	Yaw Set Point:	0.511	X_WP:	0.000	Y_WP:	0.000	Y_WP:	0.500	X:	-0.005	Y:	0.104	Z:	0.045	yaw:	-29.259	yaw rate:	2.621	Roll:	-2.000	Pitch:	3.180	Yaw:	-43.534	Thrust:	100.000
Time:	5.737	Roll Set Point:	0.059	Pitch Set Point:	-0.192	Yaw Set Point:	0.511	X_WP:	0.000	Y_WP:	0.000	Y_WP:	0.500	X:	-0.005	Y:	0.104	Z:	0.045	yaw:	-29.258	yaw rate:	0.097	Roll:	-2.064	Pitch:	3.095	Yaw:	-43.949	Thrust:	100.000
Time:	5.766	Roll Set Point:	0.059	Pitch Set Point:	-0.192	Yaw Set Point:	0.511	X_WP:	0.000	Y_WP:	0.000	Y_WP:	0.500	X:	-0.005	Y:	0.104	Z:	0.045	yaw:	-29.269	yaw rate:	-2.222	Roll:	-2.435	Pitch:	3.655	Yaw:	-46.708	Thrust:	100.000
Time:	5.782	Roll Set Point:	0.059	Pitch Set Point:	-0.192	Yaw Set Point:	0.511	X_WP:	0.000	Y_WP:	0.000	Y_WP:	0.500	X:	-0.005	Y:	0.104	Z:	0.045	yaw:	-29.253	yaw rate:	1.559	Roll:	-2.045	Pitch:	3.168	Yaw:	-43.710	Thrust:	100.000
Time:	5.797	Roll Set Point:	0.059	Pitch Set Point:	-0.192	Yaw Set Point:	0.511	X_WP:	0.000	Y_WP:	0.000	Y_WP:	0.500	X:	-0.005	Y:	0.104	Z:	0.045	yaw:	-29.270	yaw rate:	-1.674	Roll:	-2.090	Pitch:	3.105	Yaw:	-44.274	Thrust:	100.000
Time:	5.813	Roll Set Point:	0.059	Pitch Set Point:	-0.192	Yaw Set Point:	0.511	X_WP:	0.000	Y_WP:	0.000	Y_WP:	0.500	X:	-0.005	Y:	0.104	Z:	0.045	yaw:	-29.270	yaw rate:	-1.674	Roll:	-2.056	Pitch:	3.148	Yaw:	-43.997	Thrust:	100.000
Time:	5.829	Roll Set Point:	0.059	Pitch Set Point:	-0.192	Yaw Set Point:	0.511	X_WP:	0.000	Y_WP:	0.000	Y_WP:	0.500	X:	-0.005	Y:	0.104	Z:	0.045	yaw:	-29.298	yaw rate:	-2.761	Roll:	-2.117	Pitch:	3.144	Yaw:	-44.495	Thrust:	100.000
Time:	5.844	Roll Set Point:	0.059	Pitch Set Point:	-0.192	Yaw Set Point:	0.510	X_WP:	0.000	Y_WP:	0.000	Y_WP:	0.500	X:	-0.005	Y:	0.104	Z:	0.045	yaw:	-29.231	yaw rate:	6.660	Roll:	-1.875	Pitch:	3.203	Yaw:	-42.811	Thrust:	100.000
Time:	5.860	Roll Set Point:	0.059	Pitch Set Point:	-0.192	Yaw Set Point:	0.510	X_WP:	0.000	Y_WP:	0.000	Y_WP:	0.500	X:	-0.005	Y:	0.104	Z:	0.045	yaw:	-29.231	yaw rate:	6.660	Roll:	-2.060	Pitch:	3.151	Yaw:	-43.949	Thrust:	100.000
Time:	5.875	Roll Set Point:	0.059	Pitch Set Point:	-0.192	Yaw Set Point:	0.511	X_WP:	0.000	Y_WP:	0.000	Y_WP:	0.500	X:	-0.005	Y:	0.104	Z:	0.045	yaw:	-29.268	yaw rate:	-2.370	Roll:	-2.198	Pitch:	3.134	Yaw:	-44.615	Thrust:	100.000
Time:	5.891	Roll Set Point:	0.059	Pitch Set Point:	-0.192	Yaw Set Point:	0.511	X_WP:	0.000	Y_WP:	0.000	Y_WP:	0.500	X:	-0.005	Y:	0.104	Z:	0.045	yaw:	-29.268	yaw rate:	-2.370	Roll:	-2.067	Pitch:	3.149	Yaw:	-43.992	Thrust:	100.000
Time:	5.907	Roll Set Point:	0.059	Pitch Set Point:	-0.192	Yaw Set Point:	0.511	X_WP:	0.000	Y_WP:	0.000	Y_WP:	0.500	X:	-0.005	Y:	0.104	Z:	0.045	yaw:	-29.270	yaw rate:	-0.179	Roll:	-2.028	Pitch:	3.108	Yaw:	-44.009	Thrust:	100.000
Time:	5.938	Roll Set Point:	0.059	Pitch Set Point:	-0.192	Yaw Set Point:	0.510	X_WP:	0.000	Y_WP:	0.000	Y_WP:	0.500	X:	-0.005	Y:	0.104	Z:	0.045	yaw:	-29.241	yaw rate:	1.603	Roll:	-2.537	Pitch:	3.759	Yaw:	-46.834	Thrust:	100.000
Time:	5.954	Roll Set Point:	0.059	Pitch Set Point:	-0.192	Yaw Set Point:	0.511	X_WP:	0.000	Y_WP:	0.000	Y_WP:	0.500	X:	-0.005	Y:	0.104	Z:	0.045	yaw:	-29.253	yaw rate:	-1.213	Roll:	-2.079	Pitch:	3.142	Yaw:	-44.173	Thrust:	100.000
Time:	5.969	Roll Set Point:	0.059	Pitch Set Point:	-0.192	Yaw Set Point:	0.511	X_WP:	0.000	Y_WP:	0.000	Y_WP:	0.500	X:	-0.005	Y:	0.104	Z:	0.045	yaw:	-29.270	yaw rate:	-1.712	Roll:	-2.108	Pitch:	3.105	Yaw:	-44.281	Thrust:	100.000
Time:	5.985	Roll Set Point:	0.059	Pitch Set Point:	-0.192	Yaw Set Point:	0.511	X_WP:	0.000	Y_WP:	0.000	Y_WP:	0.500	X:	-0.005	Y:	0.104	Z:	0.045	yaw:	-29.256	yaw rate:	1.465	Roll:	-2.093	Pitch:	3.175	Yaw:	-43.741	Thrust:	100.000
Time:	6.000	Roll Set Point:	-0.057	Pitch Set Point:	-0.111	Yaw Set Point:	0.510	X_WP:	-0.062	Y_WP:	0.128	Y_WP:	0.500	X:	-0.005	Y:	0.104	Z:	0.045	yaw:	-29.247	yaw rate:	0.804	Roll:	30.000	Pitch:	-30.000	Yaw:	-43.827	Thrust:	100.000
Time:	6.032	Roll Set Point:	-0.058	Pitch Set Point:	-0.111	Yaw Set Point:	0.510	X_WP:	-0.062	Y_WP:	0.128	Y_WP:	0.500	X:	-0.005	Y:	0.104	Z:	0.045	yaw:	-29.239	yaw rate:	3.072	Roll:	0.822	Pitch:	1.354	Yaw:	-47.012	Thrust:	100.000
Time:	6.047	Roll Set Point:	-0.057	Pitch Set Point:	-0.111	Yaw Set Point:	0.510	X_WP:	-0.062	Y_WP:	0.128	Y_WP:	0.500	X:	-0.005	Y:	0.104	Z:	0.045	yaw:	-29.247	yaw rate:	-0.789	Roll:	1.308	Pitch:	0.806	Yaw:	-44.095	Thrust:	100.000
Time:	6.079	Roll Set Point:	-0.057	Pitch Set Point:	-0.111	Yaw Set Point:	0.511	X_WP:	-0.062	Y_WP:	0.128	Y_WP:	0.500	X:	-0.005	Y:	0.104	Z:	0.045	yaw:	-29.251	yaw rate:	-7.934	Roll:	0.829	Pitch:	1.368	Yaw:	-47.127	Thrust:	100.000
Time:	6.094	Roll Set Point:	-0.057	Pitch Set Point:	-0.111	Yaw Set Point:	0.511	X_WP:	-0.062	Y_WP:	0.128	Y_WP:	0.500	X:	-0.005	Y:	0.104	Z:	0.045	yaw:	-29.287	yaw rate:	-3.569	Roll:	1.313	Pitch:	0.810	Yaw:	-44.616	Thrust:	100.000
Time:	6.126	Roll Set Point:	-0.057	Pitch Set Point:	-0.111	Yaw Set Point:	0.511	X_WP:	-0.062	Y_WP:	0.128	Y_WP:	0.500	X:	-0.005	Y:	0.104	Z:	0.045	yaw:	-29.252	yaw rate:	3.477	Roll:	0.839	Pitch:	1.364	Yaw:	-46.801	Thrust:	100.000
Time:	6.157	Roll Set Point:	-0.057	Pitch Set Point:	-0.110	Yaw Set Point:	0.509	X_WP:	-0.062	Y_WP:	0.128	Y_WP:	0.500	X:	-0.005	Y:	0.104	Z:	0.045	yaw:	-29.155	yaw rate:	11.350	Roll:	0.853	Pitch:	1.310	Yaw:	-46.149	Thrust:	100.000
Time:	6.172	Roll Set Point:	-0.058	Pitch Set Point:	-0.111	Yaw Set Point:	0.510	X_WP:	-0.062	Y_WP:	0.128	Y_WP:	0.500	X:	-0.005	Y:	0.104	Z:	0.045	yaw:	-29.241	yaw rate:	-8.556	Roll:	1.313	Pitch:	0.845	Yaw:	-45.386	Thrust:	100.000
Time:	6.188	Roll Set Point:	-0.057	Pitch Set Point:	-0.111	Yaw Set Point:	0.511	X_WP:	-0.062	Y_WP:	0.128	Y_WP:	0.500	X:	-0.005	Y:	0.104	Z:	0.045	yaw:	-29.271	yaw rate:	-3.048	Roll:	1.320	Pitch:	0.843	Yaw:	-44.507	Thrust:	100.000
Time:	6.204	Roll Set Point:	-0.057	Pitch Set Point:	-0.111	Yaw Set Point:	0.511	X_WP:	-0.062	Y_WP:	0.128	Y_WP:	0.500	X:	-0.005	Y:	0.104	Z:	0.045	yaw:	-29.254	yaw rate:	1.695	Roll:	1.336	Pitch:	0.763	Yaw:	-43.674	Thrust:	100.000
Time:	6.219	Roll Set Point:	-0.057	Pitch Set Point:	-0.111	Yaw Set Point:	0.510	X_WP:	-0.062	Y_WP:	0.128	Y_WP:	0.500	X:	-0.005	Y:	0.104	Z:	0.045	yaw:	-29.237	yaw rate:	1.735	Roll:	1.332	Pitch:	0.749	Yaw:	-43.671	Thrust:	100.000
Time:	6.235	Roll Set Point:	-0.057	Pitch Set Point:	-0.111	Yaw Set Point:	0.511	X_WP:	-0.062	Y_WP:	0.128	Y_WP:	0.500	X:	-0.005	Y:	0.104	Z:	0.045	yaw:	-29.287	yaw rate:	-5.031	Roll:	1.324	Pitch:	0.842	Yaw:	-44.861	Thrust:	100.000
Time:	6.251	Roll Set Point:	-0.057	Pitch Set Point:	-0.111	Yaw Set Point:	0.511	X_WP:	-0.062	Y_WP:	0.128	Y_WP:	0.500	X:	-0.005	Y:	0.104	Z:	0.045	yaw:	-29.287	yaw rate:	-5.031	Roll:	1.336	Pitch:	0.782	Yaw:	-44.018	Thrust:	100.000
Time:	6.266	Roll Set Point:	-0.057	Pitch Set Point:	-0.111	Yaw Set Point:	0.511	X_WP:	-0.062	Y_WP:	0.128	Y_WP:	0.500	X:	-0.005	Y:	0.104	Z:	0.045	yaw:	-29.260	yaw rate:	2.783	Roll:	1.344	Pitch:	0.746	Yaw:	-43.514	Thrust:	100.000
Time:	6.282	Roll Set Point:	-0.057	Pitch Set Point:	-0.111	Yaw Set Point:	0.511	X_WP:	-0.062	Y_WP:	0.128	Y_WP:	0.500	X:	-0.005	Y:	0.104	Z:	0.045	yaw:	-29.260	yaw rate:	2.783	Roll:	1.341	Pitch:	0.781	Yaw:	-43.980	Thrust:	100.000
Time:	6.297	Roll Set Point:	-0.057	Pitch Set Point:	-0.111	Yaw Set Point:	0.510	X_WP:	-0.062	Y_WP:	0.128	Y_WP:	0.500	X:	-0.005	Y:	0.104	Z:	0.045	yaw:	-29.231	yaw rate:	2.860	Roll:	1.348	Pitch:	0.750	Yaw:	-43.460	Thrust:	100.000
Time:	6.313	Roll Set Point:	-0.057	Pitch Set Point:	-0.111	Yaw Set Point:	0.510	X_WP:	-0.062	Y_WP:	0.128	Y_WP:	0.500	X:	-0.005	Y:	0.104	Z:	0.045	yaw:	-29.231	yaw rate:	2.860	Roll:	1.346	Pitch:	0.781	Yaw:	-43.940	Thrust:	100.000
Time:	6.329	Roll Set Point:	-0.057	Pitch Set Point:	-0.110	Yaw Set Point:	0.510	X_WP:	-0.062	Y_WP:	0.128	Y_WP:	0.500	X:	-0.005	Y:	0.104	Z:	0.045	yaw:	-29.238	yaw rate:	-0.676	Roll:	1.345	Pitch:	0.785	Yaw:	-44.064	Thrust:	100.000
Time:	6.344	Roll Set Point:	-0.057	Pitch Set Point:	-0.111	Yaw Set Point:	0.511	X_WP:	-0.062	Y_WP:	0.128	Y_WP:	0.500	X:	-0.005	Y:	0.104	Z:	0.045	yaw:	-29.284	yaw rate:	-4.598	Roll:	1.342	Pitch:	0.856	Yaw:	-44.772	Thrust:	100.000
Time:	6.360	Roll Set Point:	-0.057	Pitch Set Point:	-0.111	Yaw Set Point:	0.511	X_WP:	-0.062	Y_WP:	0.128	Y_WP:	0.500	X:	-0.005	Y:	0.104	Z:	0.045	yaw:	-29.284	yaw rate:	-4.598	Roll:	1.350	Pitch:	0.786	Yaw:	-44.029	Thrust:	100.000
Time:	6.376	Roll Set Point:	-0.057	Pitch Set Point:	-0.111	Yaw Set Point:	0.511	X_WP:	-0.062	Y_WP:	0.128	Y_WP:	0.500	X:	-0.005	Y:	0.104	Z:	0.045	yaw:	-29.276	yaw rate:	0.815	Roll:	1.361	Pitch:	0.752	Yaw:	-43.864	Thrust:	100.000
Time:	6.391	Roll Set Point:	-0.057	Pitch Set Point:	-0.111	Yaw Set Point:	0.511	X_WP:	-0.062	Y_WP:	0.128	Y_WP:	0.500	X:	-0.005	Y:	0.104	Z:	0.045	yaw:	-29.270	yaw rate:	0.517	Roll:	1.359	Pitch:	0.789	Yaw:	-43.908	Thrust:	100.000
Time:	6.407	Roll Set Point:	-0.057	Pitch Set Point:	-0.111	Yaw Set Point:	0.511	X_WP:	-0.062	Y_WP:	0.128	Y_WP:	0.500	X:	-0.005	Y:	0.104	Z:	0.045	yaw:	-29.250	yaw rate:	2.068	Roll:	1.359	Pitch:	0.769	Yaw:	-43.619	Thrust:	100.000
Time:	6.438	Roll Set Point:	-0.057	Pitch Set Point:	-0.111	Yaw Set Point:	0.511	X_WP:	-0.062	Y_WP:	0.128	Y_WP:	0.500	X:	-0.005	Y:	0.104	Z:	0.045	yaw:	-29.256	yaw rate:	-0.635	Roll:	0.928	Pitch:	1.364	Yaw:	-47.153	Thrust:	100.000
Time:	6.454	Roll Set Point:	-0.057	Pitch Set Point:	-0.111	Yaw Set Point:	0.511	X_WP:	-0.062	Y_WP:	0.128	Y_WP:	0.500	X:	-0.005	Y:	0.104	Z:	0.045	yaw:	-29.293	yaw rate:	-3.151	Roll:	1.360	Pitch:	0.826	Yaw:	-44.642	Thrust:	100.000
Time:	6.469	Roll Set Point:	-0.057	Pitch Set Point:	-0.111	Yaw Set Point:	0.511	X_WP:	-0.062	Y_WP:	0.128	Y_WP:	0.500	X:	-0.005	Y:	0.104	Z:	0.045	yaw:	-29.271	yaw rate:	2.197	Roll:	1.371	Pitch:	0.755	Yaw:	-43.638	Thrust:	100.000
Time:	6.485	Roll Set Point:	-0.057	Pitch Set Point:	-0.111	Yaw Set Point:	0.511	X_WP:	-0.062	Y_WP:	0.128	Y_WP:	0.500	X:	-0.005	Y:	0.104	Z:	0.045	yaw:	-29.273	yaw rate:	-0.169	Roll:	1.370	Pitch:	0.784	Yaw:	-44.025	Thrust:	100.000
Time:	6.501	Roll Set Point:	-0.057	Pitch Set Point:	-0.111	Yaw Set Point:	0.511	X_WP:	-0.062	Y_WP:	0.128	Y_WP:	0.500	X:	-0.005	Y:	0.104	Z:	0.045	yaw:	-29.260	yaw rate:	1.323	Roll:	1.374	Pitch:	0.746	Yaw:	-43.760	Thrust:	100.000
Time:	6.516	Roll Set Point:	-0.057	Pitch Set Point:	-0.111	Yaw Set Point:	0.511	X_WP:	-0.062	Y_WP:	0.128	Y_WP:	0.500	X:	-0.005	Y:	0.104	Z:	0.045	yaw:	-29.274	yaw rate:	-1.466	Roll:	1.373	Pitch:	0.797	Yaw:	-44.246	Thrust:	100.000
Time:	6.532	Roll Set Point:	-0.057	Pitch Set Point:	-0.111	Yaw Set Point:	0.510	X_WP:	-0.062	Y_WP:	0.128	Y_WP:	0.500	X:	-0.005	Y:	0.104	Z:	0.045	yaw:	-29.226	yaw rate:	4.833	Roll:	1.382	Pitch:	0.742	Yaw:	-43.128	Thrust:	100.000
Time:	6.547	Roll Set Point:	-0.057	Pitch Set Point:	-0.111	Yaw Set Point:	0.510	X_WP:	-0.062	Y_WP:	0.128	Y_WP:	0.500	X:	-0.005	Y:	0.104	Z:	0.045	yaw:	-29.216	yaw rate:	1.029	Roll:	1.384	Pitch:	0.767	Yaw:	-43.743	Thrust:	100.000
Time:	6.579	Roll Set Point:	-0.057	Pitch Set Point:	-0.111	Yaw Set Point:	0.511	X_WP:	-0.062	Y_WP:	0.128	Y_WP:	0.500	X:	-0.005	Y:	0.104	Z:	0.045	yaw:	-29.251	yaw rate:	-3.516	Roll:	0.965	Pitch:	1.387	Yaw:	-47.373	Thrust:	100.000
Time:	6.610	Roll Set Point:	-0.057	Pitch Set Point:	-0.111	Yaw Set Point:	0.511	X_WP:	-0.062	Y_WP:	0.128	Y_WP:	0.500	X:	-0.005	Y:	0.104	Z:	0.045	yaw:	-29.262	yaw rate:	-1.073	Roll:	0.969	Pitch:	1.376	Yaw:	-47.200	Thrust:	100.000
