Time:	2.125	Roll Set Point:	-0.234	Pitch Set Point:	-0.122	Yaw Set Point:	-0.577	X_WP:	0.000	Y_WP:	0.000	Y_WP:	0.500	X:	0.099	Y:	0.096	Z:	0.399	yaw:	33.058	yaw rate:	-10.723	Roll:	3.923	Pitch:	0.755	Yaw:	46.157	Thrust:	5.578
Time:	2.141	Roll Set Point:	-0.234	Pitch Set Point:	-0.122	Yaw Set Point:	-0.578	X_WP:	0.000	Y_WP:	0.000	Y_WP:	0.500	X:	0.099	Y:	0.096	Z:	0.399	yaw:	33.110	yaw rate:	5.270	Roll:	3.957	Pitch:	0.703	Yaw:	47.295	Thrust:	5.853
Time:	2.156	Roll Set Point:	-0.234	Pitch Set Point:	-0.122	Yaw Set Point:	-0.578	X_WP:	0.000	Y_WP:	0.000	Y_WP:	0.500	X:	0.099	Y:	0.096	Z:	0.399	yaw:	33.144	yaw rate:	3.326	Roll:	3.897	Pitch:	0.718	Yaw:	47.195	Thrust:	5.745
Time:	2.172	Roll Set Point:	-0.234	Pitch Set Point:	-0.122	Yaw Set Point:	-0.577	X_WP:	0.000	Y_WP:	0.000	Y_WP:	0.500	X:	0.099	Y:	0.096	Z:	0.399	yaw:	33.080	yaw rate:	2.581	Roll:	3.951	Pitch:	0.803	Yaw:	45.674	Thrust:	6.419
Time:	2.187	Roll Set Point:	-0.234	Pitch Set Point:	-0.122	Yaw Set Point:	-0.577	X_WP:	0.000	Y_WP:	0.000	Y_WP:	0.500	X:	0.099	Y:	0.096	Z:	0.399	yaw:	33.080	yaw rate:	2.581	Roll:	3.944	Pitch:	0.758	Yaw:	46.906	Thrust:	6.336
Time:	2.203	Roll Set Point:	-0.234	Pitch Set Point:	-0.122	Yaw Set Point:	-0.578	X_WP:	0.000	Y_WP:	0.000	Y_WP:	0.500	X:	0.099	Y:	0.096	Z:	0.399	yaw:	33.111	yaw rate:	3.094	Roll:	3.968	Pitch:	0.774	Yaw:	47.654	Thrust:	6.636
Time:	2.219	Roll Set Point:	-0.234	Pitch Set Point:	-0.122	Yaw Set Point:	-0.578	X_WP:	0.000	Y_WP:	0.000	Y_WP:	0.500	X:	0.099	Y:	0.096	Z:	0.399	yaw:	33.088	yaw rate:	-2.251	Roll:	3.944	Pitch:	0.788	Yaw:	46.902	Thrust:	6.643
Time:	2.234	Roll Set Point:	-0.234	Pitch Set Point:	-0.122	Yaw Set Point:	-0.577	X_WP:	0.000	Y_WP:	0.000	Y_WP:	0.500	X:	0.099	Y:	0.096	Z:	0.399	yaw:	33.088	yaw rate:	-0.050	Roll:	3.962	Pitch:	0.679	Yaw:	47.457	Thrust:	6.858
Time:	2.250	Roll Set Point:	-0.234	Pitch Set Point:	-0.122	Yaw Set Point:	-0.577	X_WP:	0.000	Y_WP:	0.000	Y_WP:	0.500	X:	0.099	Y:	0.096	Z:	0.399	yaw:	33.088	yaw rate:	-0.050	Roll:	3.965	Pitch:	0.761	Yaw:	47.641	Thrust:	7.099
Time:	2.266	Roll Set Point:	-0.234	Pitch Set Point:	-0.122	Yaw Set Point:	-0.579	X_WP:	0.000	Y_WP:	0.000	Y_WP:	0.500	X:	0.099	Y:	0.096	Z:	0.399	yaw:	33.157	yaw rate:	6.862	Roll:	3.955	Pitch:	0.746	Yaw:	49.008	Thrust:	7.085
Time:	2.281	Roll Set Point:	-0.234	Pitch Set Point:	-0.122	Yaw Set Point:	-0.579	X_WP:	0.000	Y_WP:	0.000	Y_WP:	0.500	X:	0.099	Y:	0.096	Z:	0.399	yaw:	33.157	yaw rate:	6.862	Roll:	3.976	Pitch:	0.763	Yaw:	47.858	Thrust:	7.479
Time:	2.297	Roll Set Point:	-0.234	Pitch Set Point:	-0.122	Yaw Set Point:	-0.577	X_WP:	0.000	Y_WP:	0.000	Y_WP:	0.500	X:	0.099	Y:	0.096	Z:	0.399	yaw:	33.051	yaw rate:	-5.400	Roll:	3.982	Pitch:	0.842	Yaw:	45.949	Thrust:	7.740
Time:	2.312	Roll Set Point:	-0.234	Pitch Set Point:	-0.122	Yaw Set Point:	-0.577	X_WP:	0.000	Y_WP:	0.000	Y_WP:	0.500	X:	0.099	Y:	0.096	Z:	0.399	yaw:	33.045	yaw rate:	-0.602	Roll:	4.002	Pitch:	0.836	Yaw:	47.601	Thrust:	7.883
Time:	2.328	Roll Set Point:	-0.234	Pitch Set Point:	-0.122	Yaw Set Point:	-0.578	X_WP:	0.000	Y_WP:	0.000	Y_WP:	0.500	X:	0.099	Y:	0.096	Z:	0.399	yaw:	33.108	yaw rate:	6.326	Roll:	4.014	Pitch:	0.716	Yaw:	48.844	Thrust:	8.134
Time:	2.345	Roll Set Point:	-0.234	Pitch Set Point:	-0.122	Yaw Set Point:	-0.578	X_WP:	0.000	Y_WP:	0.000	Y_WP:	0.500	X:	0.099	Y:	0.096	Z:	0.399	yaw:	33.108	yaw rate:	6.326	Roll:	4.003	Pitch:	0.770	Yaw:	47.897	Thrust:	8.425
Time:	2.360	Roll Set Point:	-0.234	Pitch Set Point:	-0.122	Yaw Set Point:	-0.577	X_WP:	0.000	Y_WP:	0.000	Y_WP:	0.500	X:	0.099	Y:	0.096	Z:	0.399	yaw:	33.055	yaw rate:	-3.723	Roll:	3.974	Pitch:	0.732	Yaw:	46.827	Thrust:	8.434
Time:	2.376	Roll Set Point:	-0.234	Pitch Set Point:	-0.122	Yaw Set Point:	-0.578	X_WP:	0.000	Y_WP:	0.000	Y_WP:	0.500	X:	0.099	Y:	0.096	Z:	0.398	yaw:	33.099	yaw rate:	4.362	Roll:	4.031	Pitch:	0.783	Yaw:	48.508	Thrust:	8.794
Time:	2.391	Roll Set Point:	-0.234	Pitch Set Point:	-0.122	Yaw Set Point:	-0.578	X_WP:	0.000	Y_WP:	0.000	Y_WP:	0.500	X:	0.099	Y:	0.096	Z:	0.398	yaw:	33.099	yaw rate:	4.362	Roll:	4.014	Pitch:	0.772	Yaw:	47.777	Thrust:	8.816
Time:	2.407	Roll Set Point:	-0.234	Pitch Set Point:	-0.122	Yaw Set Point:	-0.577	X_WP:	0.000	Y_WP:	0.000	Y_WP:	0.500	X:	0.099	Y:	0.096	Z:	0.399	yaw:	33.070	yaw rate:	-2.856	Roll:	4.010	Pitch:	0.838	Yaw:	47.255	Thrust:	8.770
Time:	2.423	Roll Set Point:	-0.234	Pitch Set Point:	-0.122	Yaw Set Point:	-0.577	X_WP:	0.000	Y_WP:	0.000	Y_WP:	0.500	X:	0.099	Y:	0.096	Z:	0.399	yaw:	33.084	yaw rate:	-5.496	Roll:	4.035	Pitch:	0.684	Yaw:	48.000	Thrust:	9.380
Time:	2.438	Roll Set Point:	-0.234	Pitch Set Point:	-0.122	Yaw Set Point:	-0.578	X_WP:	0.000	Y_WP:	0.000	Y_WP:	0.500	X:	0.099	Y:	0.096	Z:	0.398	yaw:	33.120	yaw rate:	3.559	Roll:	4.041	Pitch:	0.722	Yaw:	48.403	Thrust:	9.425
Time:	2.454	Roll Set Point:	-0.234	Pitch Set Point:	-0.122	Yaw Set Point:	-0.578	X_WP:	0.000	Y_WP:	0.000	Y_WP:	0.500	X:	0.099	Y:	0.096	Z:	0.399	yaw:	33.106	yaw rate:	-1.399	Roll:	4.022	Pitch:	0.807	Yaw:	47.553	Thrust:	9.377
Time:	2.470	Roll Set Point:	-0.234	Pitch Set Point:	-0.122	Yaw Set Point:	-0.578	X_WP:	0.000	Y_WP:	0.000	Y_WP:	0.500	X:	0.099	Y:	0.096	Z:	0.399	yaw:	33.106	yaw rate:	-1.399	Roll:	4.040	Pitch:	0.776	Yaw:	47.784	Thrust:	9.756
Time:	2.485	Roll Set Point:	-0.234	Pitch Set Point:	-0.122	Yaw Set Point:	-0.577	X_WP:	0.000	Y_WP:	0.000	Y_WP:	0.500	X:	0.099	Y:	0.096	Z:	0.399	yaw:	33.079	yaw rate:	-0.790	Roll:	4.020	Pitch:	0.834	Yaw:	47.291	Thrust:	9.994
Time:	2.501	Roll Set Point:	-0.234	Pitch Set Point:	-0.122	Yaw Set Point:	-0.577	X_WP:	0.000	Y_WP:	0.000	Y_WP:	0.500	X:	0.099	Y:	0.096	Z:	0.399	yaw:	33.079	yaw rate:	-0.790	Roll:	4.050	Pitch:	0.779	Yaw:	47.752	Thrust:	10.154
Time:	2.516	Roll Set Point:	-0.234	Pitch Set Point:	-0.122	Yaw Set Point:	-0.578	X_WP:	0.000	Y_WP:	0.000	Y_WP:	0.500	X:	0.099	Y:	0.096	Z:	0.399	yaw:	33.096	yaw rate:	1.344	Roll:	4.087	Pitch:	0.761	Yaw:	48.066	Thrust:	10.447
Time:	2.532	Roll Set Point:	-0.234	Pitch Set Point:	-0.122	Yaw Set Point:	-0.578	X_WP:	0.000	Y_WP:	0.000	Y_WP:	0.500	X:	0.099	Y:	0.096	Z:	0.399	yaw:	33.128	yaw rate:	3.241	Roll:	4.015	Pitch:	0.747	Yaw:	48.359	Thrust:	10.144
Time:	2.548	Roll Set Point:	-0.234	Pitch Set Point:	-0.122	Yaw Set Point:	-0.578	X_WP:	0.000	Y_WP:	0.000	Y_WP:	0.500	X:	0.099	Y:	0.096	Z:	0.399	yaw:	33.128	yaw rate:	3.241	Roll:	4.066	Pitch:	0.781	Yaw:	47.823	Thrust:	10.725
Time:	2.563	Roll Set Point:	-0.234	Pitch Set Point:	-0.122	Yaw Set Point:	-0.577	X_WP:	0.000	Y_WP:	0.000	Y_WP:	0.500	X:	0.099	Y:	0.096	Z:	0.399	yaw:	33.067	yaw rate:	-1.161	Roll:	4.097	Pitch:	0.818	Yaw:	46.688	Thrust:	11.099
Time:	2.579	Roll Set Point:	-0.234	Pitch Set Point:	-0.122	Yaw Set Point:	-0.577	X_WP:	0.000	Y_WP:	0.000	Y_WP:	0.500	X:	0.099	Y:	0.096	Z:	0.399	yaw:	33.067	yaw rate:	-1.161	Roll:	4.077	Pitch:	0.784	Yaw:	47.732	Thrust:	11.095
Time:	2.595	Roll Set Point:	-0.234	Pitch Set Point:	-0.122	Yaw Set Point:	-0.579	X_WP:	0.000	Y_WP:	0.000	Y_WP:	0.500	X:	0.099	Y:	0.096	Z:	0.399	yaw:	33.173	yaw rate:	10.684	Roll:	4.064	Pitch:	0.623	Yaw:	49.671	Thrust:	11.095
Time:	2.610	Roll Set Point:	-0.234	Pitch Set Point:	-0.122	Yaw Set Point:	-0.577	X_WP:	0.000	Y_WP:	0.000	Y_WP:	0.500	X:	0.099	Y:	0.096	Z:	0.399	yaw:	33.076	yaw rate:	-4.406	Roll:	4.084	Pitch:	0.998	Yaw:	46.112	Thrust:	11.759
Time:	2.626	Roll Set Point:	-0.234	Pitch Set Point:	-0.122	Yaw Set Point:	-0.577	X_WP:	0.000	Y_WP:	0.000	Y_WP:	0.500	X:	0.099	Y:	0.096	Z:	0.399	yaw:	33.074	yaw rate:	-0.145	Roll:	4.111	Pitch:	0.717	Yaw:	47.716	Thrust:	11.635
Time:	2.641	Roll Set Point:	-0.234	Pitch Set Point:	-0.122	Yaw Set Point:	-0.577	X_WP:	0.000	Y_WP:	0.000	Y_WP:	0.500	X:	0.099	Y:	0.096	Z:	0.399	yaw:	33.046	yaw rate:	-2.848	Roll:	4.070	Pitch:	0.891	Yaw:	47.226	Thrust:	11.879
Time:	2.657	Roll Set Point:	-0.234	Pitch Set Point:	-0.122	Yaw Set Point:	-0.577	X_WP:	0.000	Y_WP:	0.000	Y_WP:	0.500	X:	0.099	Y:	0.096	Z:	0.399	yaw:	33.046	yaw rate:	-2.848	Roll:	4.102	Pitch:	0.791	Yaw:	47.703	Thrust:	12.048
Time:	2.673	Roll Set Point:	-0.234	Pitch Set Point:	-0.122	Yaw Set Point:	-0.577	X_WP:	0.000	Y_WP:	0.000	Y_WP:	0.500	X:	0.099	Y:	0.096	Z:	0.399	yaw:	33.048	yaw rate:	0.225	Roll:	4.102	Pitch:	0.792	Yaw:	47.744	Thrust:	11.999
Time:	2.688	Roll Set Point:	-0.234	Pitch Set Point:	-0.122	Yaw Set Point:	-0.577	X_WP:	0.000	Y_WP:	0.000	Y_WP:	0.500	X:	0.099	Y:	0.096	Z:	0.399	yaw:	33.048	yaw rate:	0.225	Roll:	4.113	Pitch:	0.793	Yaw:	47.706	Thrust:	12.424
Time:	2.704	Roll Set Point:	-0.234	Pitch Set Point:	-0.122	Yaw Set Point:	-0.577	X_WP:	0.000	Y_WP:	0.000	Y_WP:	0.500	X:	0.099	Y:	0.096	Z:	0.399	yaw:	33.044	yaw rate:	-0.348	Roll:	4.144	Pitch:	0.716	Yaw:	47.643	Thrust:	12.773
Time:	2.720	Roll Set Point:	-0.234	Pitch Set Point:	-0.122	Yaw Set Point:	-0.577	X_WP:	0.000	Y_WP:	0.000	Y_WP:	0.500	X:	0.099	Y:	0.096	Z:	0.399	yaw:	33.075	yaw rate:	3.048	Roll:	4.118	Pitch:	0.809	Yaw:	48.254	Thrust:	12.820
Time:	2.735	Roll Set Point:	-0.234	Pitch Set Point:	-0.122	Yaw Set Point:	-0.577	X_WP:	0.000	Y_WP:	0.000	Y_WP:	0.500	X:	0.099	Y:	0.096	Z:	0.399	yaw:	33.075	yaw rate:	3.048	Roll:	4.129	Pitch:	0.795	Yaw:	47.746	Thrust:	13.010
Time:	2.751	Roll Set Point:	-0.234	Pitch Set Point:	-0.122	Yaw Set Point:	-0.579	X_WP:	0.000	Y_WP:	0.000	Y_WP:	0.500	X:	0.099	Y:	0.096	Z:	0.399	yaw:	33.149	yaw rate:	7.366	Roll:	4.117	Pitch:	0.716	Yaw:	49.081	Thrust:	12.977
Time:	2.766	Roll Set Point:	-0.234	Pitch Set Point:	-0.122	Yaw Set Point:	-0.578	X_WP:	0.000	Y_WP:	0.000	Y_WP:	0.500	X:	0.099	Y:	0.096	Z:	0.399	yaw:	33.088	yaw rate:	-6.017	Roll:	4.176	Pitch:	0.842	Yaw:	46.750	Thrust:	13.692
Time:	2.782	Roll Set Point:	-0.234	Pitch Set Point:	-0.122	Yaw Set Point:	-0.579	X_WP:	0.000	Y_WP:	0.000	Y_WP:	0.500	X:	0.099	Y:	0.096	Z:	0.399	yaw:	33.166	yaw rate:	9.369	Roll:	4.115	Pitch:	0.665	Yaw:	49.171	Thrust:	13.252
Time:	2.798	Roll Set Point:	-0.234	Pitch Set Point:	-0.122	Yaw Set Point:	-0.579	X_WP:	0.000	Y_WP:	0.000	Y_WP:	0.500	X:	0.099	Y:	0.096	Z:	0.399	yaw:	33.167	yaw rate:	0.123	Roll:	4.162	Pitch:	0.827	Yaw:	47.893	Thrust:	13.894
Time:	2.813	Roll Set Point:	-0.234	Pitch Set Point:	-0.122	Yaw Set Point:	-0.578	X_WP:	0.000	Y_WP:	0.000	Y_WP:	0.500	X:	0.099	Y:	0.096	Z:	0.399	yaw:	33.094	yaw rate:	-7.310	Roll:	4.165	Pitch:	0.924	Yaw:	46.546	Thrust:	14.126
Time:	2.829	Roll Set Point:	-0.234	Pitch Set Point:	-0.122	Yaw Set Point:	-0.576	X_WP:	0.000	Y_WP:	0.000	Y_WP:	0.500	X:	0.099	Y:	0.096	Z:	0.399	yaw:	33.024	yaw rate:	-6.961	Roll:	4.141	Pitch:	0.863	Yaw:	46.507	Thrust:	14.017
Time:	2.845	Roll Set Point:	-0.234	Pitch Set Point:	-0.122	Yaw Set Point:	-0.576	X_WP:	0.000	Y_WP:	0.000	Y_WP:	0.500	X:	0.099	Y:	0.096	Z:	0.399	yaw:	33.024	yaw rate:	-6.961	Roll:	4.166	Pitch:	0.803	Yaw:	47.674	Thrust:	14.331
Time:	2.860	Roll Set Point:	-0.234	Pitch Set Point:	-0.122	Yaw Set Point:	-0.578	X_WP:	0.000	Y_WP:	0.000	Y_WP:	0.500	X:	0.099	Y:	0.096	Z:	0.399	yaw:	33.094	yaw rate:	0.091	Roll:	4.187	Pitch:	0.707	Yaw:	48.943	Thrust:	14.494
Time:	2.876	Roll Set Point:	-0.234	Pitch Set Point:	-0.122	Yaw Set Point:	-0.578	X_WP:	0.000	Y_WP:	0.000	Y_WP:	0.500	X:	0.099	Y:	0.096	Z:	0.399	yaw:	33.135	yaw rate:	4.058	Roll:	4.141	Pitch:	0.789	Yaw:	48.506	Thrust:	14.561
Time:	2.892	Roll Set Point:	-0.234	Pitch Set Point:	-0.122	Yaw Set Point:	-0.578	X_WP:	0.000	Y_WP:	0.000	Y_WP:	0.500	X:	0.099	Y:	0.096	Z:	0.399	yaw:	33.135	yaw rate:	4.058	Roll:	4.182	Pitch:	0.803	Yaw:	47.830	Thrust:	14.912
Time:	2.907	Roll Set Point:	-0.234	Pitch Set Point:	-0.122	Yaw Set Point:	-0.577	X_WP:	0.000	Y_WP:	0.000	Y_WP:	0.500	X:	0.099	Y:	0.096	Z:	0.399	yaw:	33.063	yaw rate:	-3.145	Roll:	4.216	Pitch:	0.863	Yaw:	46.520	Thrust:	15.340
Time:	2.923	Roll Set Point:	-0.234	Pitch Set Point:	-0.122	Yaw Set Point:	-0.577	X_WP:	0.000	Y_WP:	0.000	Y_WP:	0.500	X:	0.099	Y:	0.096	Z:	0.399	yaw:	33.063	yaw rate:	-3.145	Roll:	4.193	Pitch:	0.807	Yaw:	47.727	Thrust:	15.282
Time:	2.938	Roll Set Point:	-0.234	Pitch Set Point:	-0.122	Yaw Set Point:	-0.577	X_WP:	0.000	Y_WP:	0.000	Y_WP:	0.500	X:	0.099	Y:	0.096	Z:	0.399	yaw:	33.063	yaw rate:	0.019	Roll:	4.191	Pitch:	0.830	Yaw:	47.734	Thrust:	15.417
Time:	2.954	Roll Set Point:	-0.234	Pitch Set Point:	-0.122	Yaw Set Point:	-0.577	X_WP:	0.000	Y_WP:	0.000	Y_WP:	0.500	X:	0.099	Y:	0.096	Z:	0.399	yaw:	33.075	yaw rate:	1.176	Roll:	4.237	Pitch:	0.769	Yaw:	47.939	Thrust:	15.758
Time:	2.970	Roll Set Point:	-0.234	Pitch Set Point:	-0.122	Yaw Set Point:	-0.577	X_WP:	0.000	Y_WP:	0.000	Y_WP:	0.500	X:	0.099	Y:	0.096	Z:	0.399	yaw:	33.075	yaw rate:	1.176	Roll:	4.210	Pitch:	0.810	Yaw:	47.747	Thrust:	15.873
Time:	2.985	Roll Set Point:	-0.234	Pitch Set Point:	-0.122	Yaw Set Point:	-0.577	X_WP:	0.000	Y_WP:	0.000	Y_WP:	0.500	X:	0.099	Y:	0.096	Z:	0.399	yaw:	33.038	yaw rate:	-0.607	Roll:	4.170	Pitch:	0.935	Yaw:	47.069	Thrust:	15.844
Time:	3.001	Roll Set Point:	-0.234	Pitch Set Point:	-0.122	Yaw Set Point:	-0.577	X_WP:	0.000	Y_WP:	0.000	Y_WP:	0.500	X:	0.099	Y:	0.096	Z:	0.399	yaw:	33.050	yaw rate:	1.153	Roll:	4.229	Pitch:	0.757	Yaw:	47.904	Thrust:	16.149
Time:	3.017	Roll Set Point:	-0.234	Pitch Set Point:	-0.122	Yaw Set Point:	-0.579	X_WP:	0.000	Y_WP:	0.000	Y_WP:	0.500	X:	0.099	Y:	0.096	Z:	0.399	yaw:	33.157	yaw rate:	10.749	Roll:	4.224	Pitch:	0.710	Yaw:	49.660	Thrust:	16.534
Time:	3.032	Roll Set Point:	-0.234	Pitch Set Point:	-0.122	Yaw Set Point:	-0.577	X_WP:	0.000	Y_WP:	0.000	Y_WP:	0.500	X:	0.099	Y:	0.096	Z:	0.399	yaw:	33.069	yaw rate:	-8.818	Roll:	4.263	Pitch:	0.849	Yaw:	46.258	Thrust:	16.807
Time:	3.048	Roll Set Point:	-0.234	Pitch Set Point:	-0.122	Yaw Set Point:	-0.577	X_WP:	0.000	Y_WP:	0.000	Y_WP:	0.500	X:	0.099	Y:	0.096	Z:	0.399	yaw:	33.068	yaw rate:	-0.097	Roll:	4.226	Pitch:	0.813	Yaw:	47.718	Thrust:	16.644
Time:	3.063	Roll Set Point:	-0.234	Pitch Set Point:	-0.122	Yaw Set Point:	-0.577	X_WP:	0.000	Y_WP:	0.000	Y_WP:	0.500	X:	0.099	Y:	0.096	Z:	0.399	yaw:	33.068	yaw rate:	-0.097	Roll:	4.240	Pitch:	0.815	Yaw:	47.731	Thrust:	16.969
Time:	3.079	Roll Set Point:	-0.234	Pitch Set Point:	-0.122	Yaw Set Point:	-0.577	X_WP:	0.000	Y_WP:	0.000	Y_WP:	0.500	X:	0.099	Y:	0.096	Z:	0.399	yaw:	33.080	yaw rate:	1.194	Roll:	4.241	Pitch:	0.869	Yaw:	47.951	Thrust:	17.172
Time:	3.095	Roll Set Point:	-0.234	Pitch Set Point:	-0.122	Yaw Set Point:	-0.577	X_WP:	0.000	Y_WP:	0.000	Y_WP:	0.500	X:	0.099	Y:	0.096	Z:	0.399	yaw:	33.080	yaw rate:	1.194	Roll:	4.251	Pitch:	0.819	Yaw:	47.751	Thrust:	17.373
Time:	3.110	Roll Set Point:	-0.234	Pitch Set Point:	-0.122	Yaw Set Point:	-0.576	X_WP:	0.000	Y_WP:	0.000	Y_WP:	0.500	X:	0.099	Y:	0.096	Z:	0.399	yaw:	33.026	yaw rate:	-5.353	Roll:	4.218	Pitch:	0.855	Yaw:	46.784	Thrust:	17.523
Time:	3.126	Roll Set Point:	-0.234	Pitch Set Point:	-0.122	Yaw Set Point:	-0.576	X_WP:	0.000	Y_WP:	0.000	Y_WP:	0.500	X:	0.099	Y:	0.096	Z:	0.399	yaw:	33.026	yaw rate:	-5.353	Roll:	4.260	Pitch:	0.822	Yaw:	47.674	Thrust:	17.732
Time:	3.142	Roll Set Point:	-0.234	Pitch Set Point:	-0.122	Yaw Set Point:	-0.577	X_WP:	0.000	Y_WP:	0.000	Y_WP:	0.500	X:	0.099	Y:	0.096	Z:	0.399	yaw:	33.058	yaw rate:	-13.066	Roll:	4.310	Pitch:	0.791	Yaw:	48.250	Thrust:	17.789
Time:	3.157	Roll Set Point:	-0.234	Pitch Set Point:	-0.122	Yaw Set Point:	-0.577	X_WP:	0.000	Y_WP:	0.000	Y_WP:	0.500	X:	0.099	Y:	0.096	Z:	0.399	yaw:	33.070	yaw rate:	1.213	Roll:	4.278	Pitch:	0.843	Yaw:	47.940	Thrust:	18.480
Time:	3.173	Roll Set Point:	-0.234	Pitch Set Point:	-0.122	Yaw Set Point:	-0.577	X_WP:	0.000	Y_WP:	0.000	Y_WP:	0.500	X:	0.099	Y:	0.096	Z:	0.399	yaw:	33.036	yaw rate:	-3.391	Roll:	4.236	Pitch:	0.799	Yaw:	47.122	Thrust:	18.119
Time:	3.188	Roll Set Point:	-0.234	Pitch Set Point:	-0.122	Yaw Set Point:	-0.578	X_WP:	0.000	Y_WP:	0.000	Y_WP:	0.500	X:	0.099	Y:	0.096	Z:	0.399	yaw:	33.143	yaw rate:	10.672	Roll:	4.279	Pitch:	0.744	Yaw:	49.627	Thrust:	18.461
Time:	3.204	Roll Set Point:	-0.234	Pitch Set Point:	-0.122	Yaw Set Point:	-0.578	X_WP:	0.000	Y_WP:	0.000	Y_WP:	0.500	X:	0.099	Y:	0.096	Z:	0.399	yaw:	33.143	yaw rate:	10.672	Roll:	4.287	Pitch:	0.824	Yaw:	47.839	Thrust:	18.702
Time:	3.220	Roll Set Point:	-0.234	Pitch Set Point:	-0.122	Yaw Set Point:	-0.578	X_WP:	0.000	Y_WP:	0.000	Y_WP:	0.500	X:	0.099	Y:	0.096	Z:	0.399	yaw:	33.090	yaw rate:	-5.268	Roll:	4.345	Pitch:	0.892	Yaw:	46.883	Thrust:	19.035
Time:	3.235	Roll Set Point:	-0.234	Pitch Set Point:	-0.122	Yaw Set Point:	-0.578	X_WP:	0.000	Y_WP:	0.000	Y_WP:	0.500	X:	0.099	Y:	0.096	Z:	0.399	yaw:	33.090	yaw rate:	-5.268	Roll:	4.299	Pitch:	0.828	Yaw:	47.765	Thrust:	19.085
Time:	3.251	Roll Set Point:	-0.234	Pitch Set Point:	-0.122	Yaw Set Point:	-0.578	X_WP:	0.000	Y_WP:	0.000	Y_WP:	0.500	X:	0.099	Y:	0.096	Z:	0.399	yaw:	33.092	yaw rate:	1.133	Roll:	4.284	Pitch:	0.784	Yaw:	47.805	Thrust:	19.295
Time:	3.267	Roll Set Point:	-0.234	Pitch Set Point:	-0.122	Yaw Set Point:	-0.578	X_WP:	0.000	Y_WP:	0.000	Y_WP:	0.500	X:	0.099	Y:	0.096	Z:	0.399	yaw:	33.092	yaw rate:	1.133	Roll:	4.309	Pitch:	0.829	Yaw:	47.769	Thrust:	19.466
Time:	3.282	Roll Set Point:	-0.234	Pitch Set Point:	-0.122	Yaw Set Point:	-0.577	X_WP:	0.000	Y_WP:	0.000	Y_WP:	0.500	X:	0.099	Y:	0.096	Z:	0.399	yaw:	33.070	yaw rate:	-7.260	Roll:	4.326	Pitch:	0.918	Yaw:	47.369	Thrust:	19.669
Time:	3.298	Roll Set Point:	-0.234	Pitch Set Point:	-0.122	Yaw Set Point:	-0.577	X_WP:	0.000	Y_WP:	0.000	Y_WP:	0.500	X:	0.099	Y:	0.096	Z:	0.399	yaw:	33.070	yaw rate:	-7.260	Roll:	4.320	Pitch:	0.833	Yaw:	47.737	Thrust:	19.843
Time:	3.313	Roll Set Point:	-0.234	Pitch Set Point:	-0.122	Yaw Set Point:	-0.578	X_WP:	0.000	Y_WP:	0.000	Y_WP:	0.500	X:	0.099	Y:	0.096	Z:	0.399	yaw:	33.098	yaw rate:	-1.285	Roll:	4.323	Pitch:	0.720	Yaw:	48.244	Thrust:	20.129
Time:	3.344	Roll Set Point:	-0.234	Pitch Set Point:	-0.122	Yaw Set Point:	-0.579	X_WP:	0.000	Y_WP:	0.000	Y_WP:	0.500	X:	0.099	Y:	0.096	Z:	0.399	yaw:	33.149	yaw rate:	5.086	Roll:	4.705	Pitch:	0.874	Yaw:	49.801	Thrust:	34.293
Time:	3.360	Roll Set Point:	-0.234	Pitch Set Point:	-0.122	Yaw Set Point:	-0.577	X_WP:	0.000	Y_WP:	0.000	Y_WP:	0.500	X:	0.099	Y:	0.096	Z:	0.399	yaw:	33.082	yaw rate:	-0.438	Roll:	4.367	Pitch:	0.943	Yaw:	46.632	Thrust:	20.844
Time:	3.376	Roll Set Point:	-0.234	Pitch Set Point:	-0.122	Yaw Set Point:	-0.579	X_WP:	0.000	Y_WP:	0.000	Y_WP:	0.500	X:	0.099	Y:	0.096	Z:	0.399	yaw:	33.147	yaw rate:	6.473	Roll:	4.300	Pitch:	0.709	Yaw:	48.929	Thrust:	20.277
Time:	3.391	Roll Set Point:	-0.234	Pitch Set Point:	-0.122	Yaw Set Point:	-0.579	X_WP:	0.000	Y_WP:	0.000	Y_WP:	0.500	X:	0.099	Y:	0.096	Z:	0.399	yaw:	33.157	yaw rate:	1.028	Roll:	4.366	Pitch:	0.858	Yaw:	48.031	Thrust:	20.777
Time:	3.407	Roll Set Point:	-0.234	Pitch Set Point:	-0.122	Yaw Set Point:	-0.579	X_WP:	0.000	Y_WP:	0.000	Y_WP:	0.500	X:	0.099	Y:	0.096	Z:	0.399	yaw:	33.157	yaw rate:	1.028	Roll:	4.351	Pitch:	0.835	Yaw:	47.859	Thrust:	20.983
Time:	3.422	Roll Set Point:	-0.234	Pitch Set Point:	-0.122	Yaw Set Point:	-0.578	X_WP:	0.000	Y_WP:	0.000	Y_WP:	0.500	X:	0.099	Y:	0.096	Z:	0.398	yaw:	33.101	yaw rate:	2.640	Roll:	4.405	Pitch:	0.926	Yaw:	46.830	Thrust:	21.565
Time:	3.438	Roll Set Point:	-0.234	Pitch Set Point:	-0.122	Yaw Set Point:	-0.578	X_WP:	0.000	Y_WP:	0.000	Y_WP:	0.500	X:	0.099	Y:	0.096	Z:	0.398	yaw:	33.101	yaw rate:	2.640	Roll:	4.363	Pitch:	0.839	Yaw:	47.780	Thrust:	21.369
Time:	3.454	Roll Set Point:	-0.234	Pitch Set Point:	-0.122	Yaw Set Point:	-0.578	X_WP:	0.000	Y_WP:	0.000	Y_WP:	0.500	X:	0.099	Y:	0.096	Z:	0.399	yaw:	33.130	yaw rate:	2.978	Roll:	4.296	Pitch:	0.721	Yaw:	48.320	Thrust:	21.139
Time:	3.469	Roll Set Point:	-0.234	Pitch Set Point:	-0.122	Yaw Set Point:	-0.578	X_WP:	0.000	Y_WP:	0.000	Y_WP:	0.500	X:	0.099	Y:	0.096	Z:	0.399	yaw:	33.097	yaw rate:	-3.353	Roll:	4.406	Pitch:	0.996	Yaw:	47.213	Thrust:	21.953
Time:	3.485	Roll Set Point:	-0.234	Pitch Set Point:	-0.122	Yaw Set Point:	-0.577	X_WP:	0.000	Y_WP:	0.000	Y_WP:	0.500	X:	0.099	Y:	0.096	Z:	0.399	yaw:	33.068	yaw rate:	-2.832	Roll:	4.423	Pitch:	0.871	Yaw:	47.261	Thrust:	21.937
Time:	3.501	Roll Set Point:	-0.234	Pitch Set Point:	-0.122	Yaw Set Point:	-0.577	X_WP:	0.000	Y_WP:	0.000	Y_WP:	0.500	X:	0.099	Y:	0.096	Z:	0.399	yaw:	33.068	yaw rate:	-2.832	Roll:	4.385	Pitch:	0.845	Yaw:	47.738	Thrust:	22.156
Time:	3.516	Roll Set Point:	-0.234	Pitch Set Point:	-0.122	Yaw Set Point:	-0.578	X_WP:	0.000	Y_WP:	0.000	Y_WP:	0.500	X:	0.099	Y:	0.096	Z:	0.399	yaw:	33.102	yaw rate:	4.574	Roll:	4.351	Pitch:	0.698	Yaw:	48.343	Thrust:	22.421
Time:	3.532	Roll Set Point:	-0.234	Pitch Set Point:	-0.122	Yaw Set Point:	-0.577	X_WP:	0.000	Y_WP:	0.000	Y_WP:	0.500	X:	0.099	Y:	0.096	Z:	0.399	yaw:	33.046	yaw rate:	-5.584	Roll:	4.372	Pitch:	1.021	Yaw:	46.768	Thrust:	22.198
Time:	3.547	Roll Set Point:	-0.234	Pitch Set Point:	-0.122	Yaw Set Point:	-0.577	X_WP:	0.000	Y_WP:	0.000	Y_WP:	0.500	X:	0.099	Y:	0.096	Z:	0.399	yaw:	33.086	yaw rate:	3.956	Roll:	4.445	Pitch:	0.813	Yaw:	48.422	Thrust:	22.934
Time:	3.563	Roll Set Point:	-0.234	Pitch Set Point:	-0.122	Yaw Set Point:	-0.578	X_WP:	0.000	Y_WP:	0.000	Y_WP:	0.500	X:	0.099	Y:	0.096	Z:	0.399	yaw:	33.108	yaw rate:	2.236	Roll:	4.384	Pitch:	0.755	Yaw:	48.167	Thrust:	23.028
Time:	3.579	Roll Set Point:	-0.234	Pitch Set Point:	-0.122	Yaw Set Point:	-0.578	X_WP:	0.000	Y_WP:	0.000	Y_WP:	0.500	X:	0.099	Y:	0.096	Z:	0.399	yaw:	33.108	yaw rate:	2.236	Roll:	4.409	Pitch:	0.847	Yaw:	47.787	Thrust:	23.047
Time:	3.594	Roll Set Point:	-0.234	Pitch Set Point:	-0.122	Yaw Set Point:	-0.577	X_WP:	0.000	Y_WP:	0.000	Y_WP:	0.500	X:	0.099	Y:	0.096	Z:	0.399	yaw:	33.064	yaw rate:	1.517	Roll:	4.395	Pitch:	0.977	Yaw:	46.999	Thrust:	23.185
Time:	3.610	Roll Set Point:	-0.234	Pitch Set Point:	-0.122	Yaw Set Point:	-0.577	X_WP:	0.000	Y_WP:	0.000	Y_WP:	0.500	X:	0.099	Y:	0.096	Z:	0.399	yaw:	33.088	yaw rate:	2.329	Roll:	4.473	Pitch:	0.739	Yaw:	48.152	Thrust:	23.436
Time:	3.626	Roll Set Point:	-0.234	Pitch Set Point:	-0.122	Yaw Set Point:	-0.577	X_WP:	0.000	Y_WP:	0.000	Y_WP:	0.500	X:	0.099	Y:	0.096	Z:	0.399	yaw:	33.079	yaw rate:	-0.872	Roll:	4.408	Pitch:	0.898	Yaw:	47.600	Thrust:	23.717
Time:	3.641	Roll Set Point:	-0.234	Pitch Set Point:	-0.122	Yaw Set Point:	-0.578	X_WP:	0.000	Y_WP:	0.000	Y_WP:	0.500	X:	0.099	Y:	0.096	Z:	0.399	yaw:	33.114	yaw rate:	3.497	Roll:	4.424	Pitch:	0.770	Yaw:	48.386	Thrust:	23.850
Time:	3.657	Roll Set Point:	-0.234	Pitch Set Point:	-0.122	Yaw Set Point:	-0.578	X_WP:	0.000	Y_WP:	0.000	Y_WP:	0.500	X:	0.099	Y:	0.096	Z:	0.399	yaw:	33.128	yaw rate:	1.448	Roll:	4.392	Pitch:	0.868	Yaw:	48.061	Thrust:	23.772
Time:	3.672	Roll Set Point:	-0.234	Pitch Set Point:	-0.122	Yaw Set Point:	-0.577	X_WP:	0.000	Y_WP:	0.000	Y_WP:	0.500	X:	0.099	Y:	0.096	Z:	0.399	yaw:	33.043	yaw rate:	-8.538	Roll:	4.465	Pitch:	0.968	Yaw:	46.268	Thrust:	24.243
Time:	3.688	Roll Set Point:	-0.234	Pitch Set Point:	-0.122	Yaw Set Point:	-0.577	X_WP:	0.000	Y_WP:	0.000	Y_WP:	0.500	X:	0.099	Y:	0.096	Z:	0.399	yaw:	33.059	yaw rate:	1.590	Roll:	4.462	Pitch:	0.840	Yaw:	47.985	Thrust:	24.541
Time:	3.704	Roll Set Point:	-0.234	Pitch Set Point:	-0.122	Yaw Set Point:	-0.579	X_WP:	0.000	Y_WP:	0.000	Y_WP:	0.500	X:	0.099	Y:	0.096	Z:	0.399	yaw:	33.158	yaw rate:	9.887	Roll:	4.419	Pitch:	0.651	Yaw:	49.516	Thrust:	24.539
Time:	3.719	Roll Set Point:	-0.234	Pitch Set Point:	-0.122	Yaw Set Point:	-0.578	X_WP:	0.000	Y_WP:	0.000	Y_WP:	0.500	X:	0.099	Y:	0.096	Z:	0.399	yaw:	33.117	yaw rate:	-4.051	Roll:	4.436	Pitch:	0.974	Yaw:	47.120	Thrust:	24.456
Time:	3.735	Roll Set Point:	-0.234	Pitch Set Point:	-0.122	Yaw Set Point:	-0.577	X_WP:	0.000	Y_WP:	0.000	Y_WP:	0.500	X:	0.099	Y:	0.096	Z:	0.399	yaw:	33.066	yaw rate:	-5.123	Roll:	4.491	Pitch:	0.983	Yaw:	46.878	Thrust:	25.365
Time:	3.751	Roll Set Point:	-0.234	Pitch Set Point:	-0.122	Yaw Set Point:	-0.578	X_WP:	0.000	Y_WP:	0.000	Y_WP:	0.500	X:	0.099	Y:	0.096	Z:	0.398	yaw:	33.110	yaw rate:	4.374	Roll:	4.500	Pitch:	0.708	Yaw:	48.525	Thrust:	25.390
Time:	3.766	Roll Set Point:	-0.234	Pitch Set Point:	-0.122	Yaw Set Point:	-0.577	X_WP:	0.000	Y_WP:	0.000	Y_WP:	0.500	X:	0.099	Y:	0.096	Z:	0.399	yaw:	33.078	yaw rate:	-3.181	Roll:	4.451	Pitch:	0.924	Yaw:	47.215	Thrust:	25.300
Time:	3.782	Roll Set Point:	-0.234	Pitch Set Point:	-0.122	Yaw Set Point:	-0.577	X_WP:	0.000	Y_WP:	0.000	Y_WP:	0.500	X:	0.099	Y:	0.096	Z:	0.399	yaw:	33.078	yaw rate:	-3.181	Roll:	4.477	Pitch:	0.861	Yaw:	47.745	Thrust:	25.519
Time:	3.797	Roll Set Point:	-0.234	Pitch Set Point:	-0.122	Yaw Set Point:	-0.577	X_WP:	0.000	Y_WP:	0.000	Y_WP:	0.500	X:	0.099	Y:	0.096	Z:	0.399	yaw:	33.051	yaw rate:	-2.680	Roll:	4.471	Pitch:	0.974	Yaw:	47.262	Thrust:	25.513
Time:	3.813	Roll Set Point:	-0.234	Pitch Set Point:	-0.122	Yaw Set Point:	-0.577	X_WP:	0.000	Y_WP:	0.000	Y_WP:	0.500	X:	0.099	Y:	0.096	Z:	0.399	yaw:	33.065	yaw rate:	1.347	Roll:	4.503	Pitch:	0.788	Yaw:	47.955	Thrust:	26.073
Time:	3.829	Roll Set Point:	-0.234	Pitch Set Point:	-0.122	Yaw Set Point:	-0.577	X_WP:	0.000	Y_WP:	0.000	Y_WP:	0.500	X:	0.099	Y:	0.096	Z:	0.399	yaw:	33.065	yaw rate:	1.347	Roll:	4.494	Pitch:	0.866	Yaw:	47.729	Thrust:	26.123
Time:	3.844	Roll Set Point:	-0.234	Pitch Set Point:	-0.122	Yaw Set Point:	-0.577	X_WP:	0.000	Y_WP:	0.000	Y_WP:	0.500	X:	0.099	Y:	0.096	Z:	0.399	yaw:	33.061	yaw rate:	-0.375	Roll:	4.503	Pitch:	0.855	Yaw:	47.662	Thrust:	26.349
Time:	3.860	Roll Set Point:	-0.234	Pitch Set Point:	-0.122	Yaw Set Point:	-0.577	X_WP:	0.000	Y_WP:	0.000	Y_WP:	0.500	X:	0.099	Y:	0.096	Z:	0.399	yaw:	33.061	yaw rate:	-0.375	Roll:	4.505	Pitch:	0.867	Yaw:	47.724	Thrust:	26.503
Time:	3.876	Roll Set Point:	-0.234	Pitch Set Point:	-0.122	Yaw Set Point:	-0.577	X_WP:	0.000	Y_WP:	0.000	Y_WP:	0.500	X:	0.099	Y:	0.096	Z:	0.399	yaw:	33.086	yaw rate:	2.486	Roll:	4.516	Pitch:	0.896	Yaw:	48.175	Thrust:	26.615
Time:	3.891	Roll Set Point:	-0.234	Pitch Set Point:	-0.122	Yaw Set Point:	-0.578	X_WP:	0.000	Y_WP:	0.000	Y_WP:	0.500	X:	0.099	Y:	0.096	Z:	0.399	yaw:	33.096	yaw rate:	3.870	Roll:	4.516	Pitch:	0.773	Yaw:	47.953	Thrust:	27.003
Time:	3.907	Roll Set Point:	-0.234	Pitch Set Point:	-0.122	Yaw Set Point:	-0.578	X_WP:	0.000	Y_WP:	0.000	Y_WP:	0.500	X:	0.099	Y:	0.096	Z:	0.399	yaw:	33.090	yaw rate:	-0.622	Roll:	4.504	Pitch:	0.943	Yaw:	47.661	Thrust:	27.107
Time:	3.922	Roll Set Point:	-0.234	Pitch Set Point:	-0.122	Yaw Set Point:	-0.579	X_WP:	0.000	Y_WP:	0.000	Y_WP:	0.500	X:	0.099	Y:	0.096	Z:	0.399	yaw:	33.147	yaw rate:	5.739	Roll:	4.480	Pitch:	0.774	Yaw:	48.807	Thrust:	26.967
Time:	3.938	Roll Set Point:	-0.234	Pitch Set Point:	-0.122	Yaw Set Point:	-0.578	X_WP:	0.000	Y_WP:	0.000	Y_WP:	0.500	X:	0.099	Y:	0.096	Z:	0.399	yaw:	33.116	yaw rate:	-3.176	Roll:	4.541	Pitch:	0.895	Yaw:	47.270	Thrust:	27.706
Time:	3.954	Roll Set Point:	-0.234	Pitch Set Point:	-0.122	Yaw Set Point:	-0.578	X_WP:	0.000	Y_WP:	0.000	Y_WP:	0.500	X:	0.099	Y:	0.096	Z:	0.399	yaw:	33.116	yaw rate:	-3.176	Roll:	4.509	Pitch:	0.872	Yaw:	47.800	Thrust:	27.635
Time:	3.969	Roll Set Point:	-0.234	Pitch Set Point:	-0.122	Yaw Set Point:	-0.578	X_WP:	0.000	Y_WP:	0.000	Y_WP:	0.500	X:	0.099	Y:	0.096	Z:	0.399	yaw:	33.114	yaw rate:	-0.148	Roll:	4.528	Pitch:	0.855	Yaw:	47.774	Thrust:	27.827
Time:	3.985	Roll Set Point:	-0.234	Pitch Set Point:	-0.122	Yaw Set Point:	-0.578	X_WP:	0.000	Y_WP:	0.000	Y_WP:	0.500	X:	0.099	Y:	0.096	Z:	0.399	yaw:	33.090	yaw rate:	-2.387	Roll:	4.497	Pitch:	0.919	Yaw:	47.370	Thrust:	27.996
Time:	4.001	Roll Set Point:	-0.234	Pitch Set Point:	-0.122	Yaw Set Point:	-0.577	X_WP:	0.000	Y_WP:	0.000	Y_WP:	0.500	X:	0.099	Y:	0.096	Z:	0.399	yaw:	33.080	yaw rate:	-1.238	Roll:	4.480	Pitch:	0.890	Yaw:	47.573	Thrust:	28.262
Time:	4.016	Roll Set Point:	-0.234	Pitch Set Point:	-0.122	Yaw Set Point:	-0.578	X_WP:	0.000	Y_WP:	0.000	Y_WP:	0.500	X:	0.099	Y:	0.096	Z:	0.399	yaw:	33.093	yaw rate:	1.256	Roll:	4.542	Pitch:	0.812	Yaw:	47.979	Thrust:	28.422
Time:	4.032	Roll Set Point:	-0.234	Pitch Set Point:	-0.122	Yaw Set Point:	-0.578	X_WP:	0.000	Y_WP:	0.000	Y_WP:	0.500	X:	0.099	Y:	0.096	Z:	0.399	yaw:	33.093	yaw rate:	1.256	Roll:	4.510	Pitch:	0.876	Yaw:	47.769	Thrust:	28.601
Time:	4.047	Roll Set Point:	-0.234	Pitch Set Point:	-0.122	Yaw Set Point:	-0.578	X_WP:	0.000	Y_WP:	0.000	Y_WP:	0.500	X:	0.099	Y:	0.096	Z:	0.399	yaw:	33.092	yaw rate:	-0.054	Roll:	4.513	Pitch:	0.903	Yaw:	47.759	Thrust:	28.664
Time:	4.063	Roll Set Point:	-0.234	Pitch Set Point:	-0.122	Yaw Set Point:	-0.578	X_WP:	0.000	Y_WP:	0.000	Y_WP:	0.500	X:	0.099	Y:	0.096	Z:	0.399	yaw:	33.140	yaw rate:	2.817	Roll:	4.472	Pitch:	0.886	Yaw:	48.633	Thrust:	28.888
Time:	4.079	Roll Set Point:	-0.234	Pitch Set Point:	-0.122	Yaw Set Point:	-0.578	X_WP:	0.000	Y_WP:	0.000	Y_WP:	0.500	X:	0.099	Y:	0.096	Z:	0.399	yaw:	33.105	yaw rate:	-3.423	Roll:	4.529	Pitch:	0.848	Yaw:	47.213	Thrust:	29.371
Time:	4.094	Roll Set Point:	-0.234	Pitch Set Point:	-0.122	Yaw Set Point:	-0.578	X_WP:	0.000	Y_WP:	0.000	Y_WP:	0.500	X:	0.099	Y:	0.096	Z:	0.398	yaw:	33.096	yaw rate:	-0.942	Roll:	4.534	Pitch:	0.917	Yaw:	47.616	Thrust:	29.452
Time:	4.110	Roll Set Point:	-0.234	Pitch Set Point:	-0.122	Yaw Set Point:	-0.578	X_WP:	0.000	Y_WP:	0.000	Y_WP:	0.500	X:	0.099	Y:	0.096	Z:	0.399	yaw:	33.102	yaw rate:	0.597	Roll:	4.491	Pitch:	0.887	Yaw:	47.882	Thrust:	29.350
Time:	4.126	Roll Set Point:	-0.234	Pitch Set Point:	-0.122	Yaw Set Point:	-0.579	X_WP:	0.000	Y_WP:	0.000	Y_WP:	0.500	X:	0.099	Y:	0.096	Z:	0.399	yaw:	33.167	yaw rate:	6.457	Roll:	4.493	Pitch:	0.776	Yaw:	48.954	Thrust:	29.617
Time:	4.141	Roll Set Point:	-0.234	Pitch Set Point:	-0.122	Yaw Set Point:	-0.579	X_WP:	0.000	Y_WP:	0.000	Y_WP:	0.500	X:	0.099	Y:	0.096	Z:	0.399	yaw:	33.167	yaw rate:	6.457	Roll:	4.509	Pitch:	0.882	Yaw:	47.872	Thrust:	29.925
Time:	4.157	Roll Set Point:	-0.234	Pitch Set Point:	-0.122	Yaw Set Point:	-0.577	X_WP:	0.000	Y_WP:	0.000	Y_WP:	0.500	X:	0.099	Y:	0.096	Z:	0.399	yaw:	33.080	yaw rate:	-8.622	Roll:	4.527	Pitch:	0.985	Yaw:	46.307	Thrust:	30.263
Time:	4.172	Roll Set Point:	-0.234	Pitch Set Point:	-0.122	Yaw Set Point:	-0.579	X_WP:	0.000	Y_WP:	0.000	Y_WP:	0.500	X:	0.099	Y:	0.096	Z:	0.399	yaw:	33.161	yaw rate:	5.368	Roll:	4.487	Pitch:	0.798	Yaw:	49.210	Thrust:	30.168
Time:	4.188	Roll Set Point:	-0.234	Pitch Set Point:	-0.122	Yaw Set Point:	-0.577	X_WP:	0.000	Y_WP:	0.000	Y_WP:	0.500	X:	0.099	Y:	0.096	Z:	0.399	yaw:	33.073	yaw rate:	-8.750	Roll:	4.519	Pitch:	0.998	Yaw:	46.282	Thrust:	30.619
Time:	4.204	Roll Set Point:	-0.234	Pitch Set Point:	-0.122	Yaw Set Point:	-0.577	X_WP:	0.000	Y_WP:	0.000	Y_WP:	0.500	X:	0.099	Y:	0.096	Z:	0.399	yaw:	33.062	yaw rate:	-1.099	Roll:	4.491	Pitch:	0.924	Yaw:	47.538	Thrust:	30.648
Time:	4.219	Roll Set Point:	-0.234	Pitch Set Point:	-0.122	Yaw Set Point:	-0.577	X_WP:	0.000	Y_WP:	0.000	Y_WP:	0.500	X:	0.099	Y:	0.096	Z:	0.399	yaw:	33.071	yaw rate:	0.874	Roll:	4.551	Pitch:	0.882	Yaw:	47.888	Thrust:	30.960
Time:	4.235	Roll Set Point:	-0.234	Pitch Set Point:	-0.122	Yaw Set Point:	-0.577	X_WP:	0.000	Y_WP:	0.000	Y_WP:	0.500	X:	0.099	Y:	0.096	Z:	0.399	yaw:	33.071	yaw rate:	0.874	Roll:	4.510	Pitch:	0.892	Yaw:	47.738	Thrust:	31.068
Time:	4.251	Roll Set Point:	-0.234	Pitch Set Point:	-0.122	Yaw Set Point:	-0.576	X_WP:	0.000	Y_WP:	0.000	Y_WP:	0.500	X:	0.099	Y:	0.096	Z:	0.399	yaw:	33.029	yaw rate:	-4.229	Roll:	4.477	Pitch:	0.939	Yaw:	46.967	Thrust:	31.126
Time:	4.266	Roll Set Point:	-0.234	Pitch Set Point:	-0.122	Yaw Set Point:	-0.578	X_WP:	0.000	Y_WP:	0.000	Y_WP:	0.500	X:	0.099	Y:	0.096	Z:	0.399	yaw:	33.144	yaw rate:	5.160	Roll:	4.491	Pitch:	0.725	Yaw:	49.768	Thrust:	31.309
Time:	4.282	Roll Set Point:	-0.234	Pitch Set Point:	-0.122	Yaw Set Point:	-0.577	X_WP:	0.000	Y_WP:	0.000	Y_WP:	0.500	X:	0.099	Y:	0.096	Z:	0.399	yaw:	33.067	yaw rate:	-7.667	Roll:	4.559	Pitch:	0.979	Yaw:	46.448	Thrust:	31.866
Time:	4.298	Roll Set Point:	-0.234	Pitch Set Point:	-0.122	Yaw Set Point:	-0.577	X_WP:	0.000	Y_WP:	0.000	Y_WP:	0.500	X:	0.099	Y:	0.096	Z:	0.399	yaw:	33.048	yaw rate:	-1.928	Roll:	4.495	Pitch:	0.971	Yaw:	47.387	Thrust:	31.780
Time:	4.313	Roll Set Point:	-0.234	Pitch Set Point:	-0.122	Yaw Set Point:	-0.577	X_WP:	0.000	Y_WP:	0.000	Y_WP:	0.500	X:	0.099	Y:	0.096	Z:	0.399	yaw:	33.048	yaw rate:	-1.928	Roll:	4.509	Pitch:	0.898	Yaw:	47.705	Thrust:	32.005
Time:	4.343	Roll Set Point:	-0.234	Pitch Set Point:	-0.122	Yaw Set Point:	-0.577	X_WP:	0.000	Y_WP:	0.000	Y_WP:	0.500	X:	0.099	Y:	0.096	Z:	0.399	yaw:	33.067	yaw rate:	-3.001	Roll:	5.063	Pitch:	1.041	Yaw:	49.366	Thrust:	57.368
Time:	4.359	Roll Set Point:	-0.234	Pitch Set Point:	-0.122	Yaw Set Point:	-0.577	X_WP:	0.000	Y_WP:	0.000	Y_WP:	0.500	X:	0.099	Y:	0.096	Z:	0.399	yaw:	33.067	yaw rate:	-3.001	Roll:	4.508	Pitch:	0.900	Yaw:	47.730	Thrust:	32.352
Time:	4.375	Roll Set Point:	-0.234	Pitch Set Point:	-0.122	Yaw Set Point:	-0.578	X_WP:	0.000	Y_WP:	0.000	Y_WP:	0.500	X:	0.099	Y:	0.096	Z:	0.399	yaw:	33.091	yaw rate:	2.220	Roll:	4.508	Pitch:	0.820	Yaw:	48.178	Thrust:	32.600
Time:	4.390	Roll Set Point:	-0.234	Pitch Set Point:	-0.122	Yaw Set Point:	-0.577	X_WP:	0.000	Y_WP:	0.000	Y_WP:	0.500	X:	0.099	Y:	0.096	Z:	0.399	yaw:	33.077	yaw rate:	-1.448	Roll:	4.511	Pitch:	0.931	Yaw:	47.504	Thrust:	32.732
Time:	4.406	Roll Set Point:	-0.234	Pitch Set Point:	-0.122	Yaw Set Point:	-0.578	X_WP:	0.000	Y_WP:	0.000	Y_WP:	0.500	X:	0.099	Y:	0.096	Z:	0.399	yaw:	33.133	yaw rate:	5.649	Roll:	4.475	Pitch:	0.850	Yaw:	48.772	Thrust:	32.828
Time:	4.422	Roll Set Point:	-0.234	Pitch Set Point:	-0.122	Yaw Set Point:	-0.577	X_WP:	0.000	Y_WP:	0.000	Y_WP:	0.500	X:	0.099	Y:	0.096	Z:	0.399	yaw:	33.075	yaw rate:	-5.814	Roll:	4.553	Pitch:	0.910	Yaw:	46.770	Thrust:	33.352
Time:	4.437	Roll Set Point:	-0.234	Pitch Set Point:	-0.122	Yaw Set Point:	-0.578	X_WP:	0.000	Y_WP:	0.000	Y_WP:	0.500	X:	0.099	Y:	0.096	Z:	0.399	yaw:	33.111	yaw rate:	3.607	Roll:	4.517	Pitch:	0.878	Yaw:	48.397	Thrust:	33.367
Time:	4.453	Roll Set Point:	-0.234	Pitch Set Point:	-0.122	Yaw Set Point:	-0.578	X_WP:	0.000	Y_WP:	0.000	Y_WP:	0.500	X:	0.099	Y:	0.096	Z:	0.399	yaw:	33.111	yaw rate:	3.607	Roll:	4.511	Pitch:	0.903	Yaw:	47.797	Thrust:	33.588
Time:	4.468	Roll Set Point:	-0.234	Pitch Set Point:	-0.122	Yaw Set Point:	-0.579	X_WP:	0.000	Y_WP:	0.000	Y_WP:	0.500	X:	0.099	Y:	0.096	Z:	0.399	yaw:	33.154	yaw rate:	-2.332	Roll:	4.464	Pitch:	0.862	Yaw:	48.571	Thrust:	33.376
Time:	4.484	Roll Set Point:	-0.234	Pitch Set Point:	-0.122	Yaw Set Point:	-0.577	X_WP:	0.000	Y_WP:	0.000	Y_WP:	0.500	X:	0.099	Y:	0.096	Z:	0.399	yaw:	33.071	yaw rate:	-8.248	Roll:	4.532	Pitch:	1.009	Yaw:	46.357	Thrust:	34.145
Time:	4.500	Roll Set Point:	-0.234	Pitch Set Point:	-0.122	Yaw Set Point:	-0.577	X_WP:	0.000	Y_WP:	0.000	Y_WP:	0.500	X:	0.099	Y:	0.096	Z:	0.399	yaw:	33.062	yaw rate:	-0.938	Roll:	4.513	Pitch:	0.925	Yaw:	47.569	Thrust:	34.109
Time:	4.515	Roll Set Point:	-0.234	Pitch Set Point:	-0.122	Yaw Set Point:	-0.578	X_WP:	0.000	Y_WP:	0.000	Y_WP:	0.500	X:	0.099	Y:	0.096	Z:	0.399	yaw:	33.113	yaw rate:	5.140	Roll:	4.517	Pitch:	0.835	Yaw:	48.659	Thrust:	34.390
Time:	4.531	Roll Set Point:	-0.234	Pitch Set Point:	-0.122	Yaw Set Point:	-0.578	X_WP:	0.000	Y_WP:	0.000	Y_WP:	0.500	X:	0.099	Y:	0.096	Z:	0.399	yaw:	33.113	yaw rate:	5.140	Roll:	4.510	Pitch:	0.908	Yaw:	47.798	Thrust:	34.497
Time:	4.547	Roll Set Point:	-0.234	Pitch Set Point:	-0.122	Yaw Set Point:	-0.578	X_WP:	0.000	Y_WP:	0.000	Y_WP:	0.500	X:	0.099	Y:	0.096	Z:	0.399	yaw:	33.096	yaw rate:	0.155	Roll:	4.497	Pitch:	0.974	Yaw:	47.474	Thrust:	34.682
Time:	4.562	Roll Set Point:	-0.234	Pitch Set Point:	-0.122	Yaw Set Point:	-0.578	X_WP:	0.000	Y_WP:	0.000	Y_WP:	0.500	X:	0.099	Y:	0.096	Z:	0.399	yaw:	33.096	yaw rate:	0.155	Roll:	4.509	Pitch:	0.912	Yaw:	47.773	Thrust:	34.877
Time:	4.578	Roll Set Point:	-0.234	Pitch Set Point:	-0.122	Yaw Set Point:	-0.577	X_WP:	0.000	Y_WP:	0.000	Y_WP:	0.500	X:	0.099	Y:	0.096	Z:	0.399	yaw:	33.049	yaw rate:	-4.647	Roll:	4.504	Pitch:	0.924	Yaw:	46.929	Thrust:	34.898
Time:	4.593	Roll Set Point:	-0.234	Pitch Set Point:	-0.122	Yaw Set Point:	-0.577	X_WP:	0.000	Y_WP:	0.000	Y_WP:	0.500	X:	0.099	Y:	0.096	Z:	0.399	yaw:	33.080	yaw rate:	-7.214	Roll:	4.508	Pitch:	0.869	Yaw:	48.267	Thrust:	35.315
Time:	4.609	Roll Set Point:	-0.234	Pitch Set Point:	-0.122	Yaw Set Point:	-0.577	X_WP:	0.000	Y_WP:	0.000	Y_WP:	0.500	X:	0.099	Y:	0.096	Z:	0.399	yaw:	33.067	yaw rate:	-1.263	Roll:	4.504	Pitch:	0.959	Yaw:	47.518	Thrust:	35.436
Time:	4.625	Roll Set Point:	-0.234	Pitch Set Point:	-0.122	Yaw Set Point:	-0.577	X_WP:	0.000	Y_WP:	0.000	Y_WP:	0.500	X:	0.099	Y:	0.096	Z:	0.399	yaw:	33.077	yaw rate:	1.009	Roll:	4.539	Pitch:	0.861	Yaw:	47.916	Thrust:	35.616
Time:	4.640	Roll Set Point:	-0.234	Pitch Set Point:	-0.122	Yaw Set Point:	-0.577	X_WP:	0.000	Y_WP:	0.000	Y_WP:	0.500	X:	0.099	Y:	0.096	Z:	0.399	yaw:	33.077	yaw rate:	1.009	Roll:	4.510	Pitch:	0.916	Yaw:	47.747	Thrust:	35.825
Time:	4.656	Roll Set Point:	-0.234	Pitch Set Point:	-0.122	Yaw Set Point:	-0.579	X_WP:	0.000	Y_WP:	0.000	Y_WP:	0.500	X:	0.099	Y:	0.096	Z:	0.399	yaw:	33.162	yaw rate:	6.814	Roll:	4.474	Pitch:	0.846	Yaw:	49.292	Thrust:	35.917
Time:	4.672	Roll Set Point:	-0.234	Pitch Set Point:	-0.122	Yaw Set Point:	-0.578	X_WP:	0.000	Y_WP:	0.000	Y_WP:	0.500	X:	0.099	Y:	0.096	Z:	0.399	yaw:	33.100	yaw rate:	-6.233	Roll:	4.544	Pitch:	0.976	Yaw:	46.735	Thrust:	36.438
Time:	4.687	Roll Set Point:	-0.234	Pitch Set Point:	-0.122	Yaw Set Point:	-0.578	X_WP:	0.000	Y_WP:	0.000	Y_WP:	0.500	X:	0.099	Y:	0.096	Z:	0.399	yaw:	33.111	yaw rate:	1.050	Roll:	4.494	Pitch:	0.903	Yaw:	47.970	Thrust:	36.440
Time:	4.703	Roll Set Point:	-0.234	Pitch Set Point:	-0.122	Yaw Set Point:	-0.577	X_WP:	0.000	Y_WP:	0.000	Y_WP:	0.500	X:	0.099	Y:	0.096	Z:	0.399	yaw:	33.066	yaw rate:	-4.415	Roll:	4.498	Pitch:	0.990	Yaw:	46.992	Thrust:	36.450
Time:	4.718	Roll Set Point:	-0.234	Pitch Set Point:	-0.122	Yaw Set Point:	-0.577	X_WP:	0.000	Y_WP:	0.000	Y_WP:	0.500	X:	0.099	Y:	0.096	Z:	0.399	yaw:	33.044	yaw rate:	-2.279	Roll:	4.471	Pitch:	0.987	Yaw:	47.321	Thrust:	36.692
Time:	4.734	Roll Set Point:	-0.234	Pitch Set Point:	-0.121	Yaw Set Point:	-0.578	X_WP:	0.000	Y_WP:	0.000	Y_WP:	0.500	X:	0.099	Y:	0.095	Z:	0.399	yaw:	33.111	yaw rate:	6.779	Roll:	4.359	Pitch:	0.676	Yaw:	48.930	Thrust:	36.715
Time:	4.750	Roll Set Point:	-0.234	Pitch Set Point:	-0.121	Yaw Set Point:	-0.578	X_WP:	0.000	Y_WP:	0.000	Y_WP:	0.500	X:	0.099	Y:	0.095	Z:	0.399	yaw:	33.111	yaw rate:	6.779	Roll:	4.505	Pitch:	0.920	Yaw:	47.798	Thrust:	37.210
Time:	4.765	Roll Set Point:	-0.234	Pitch Set Point:	-0.122	Yaw Set Point:	-0.578	X_WP:	0.000	Y_WP:	0.000	Y_WP:	0.500	X:	0.099	Y:	0.096	Z:	0.399	yaw:	33.092	yaw rate:	0.618	Roll:	4.702	Pitch:	1.028	Yaw:	47.445	Thrust:	37.676
Time:	4.781	Roll Set Point:	-0.234	Pitch Set Point:	-0.122	Yaw Set Point:	-0.578	X_WP:	0.000	Y_WP:	0.000	Y_WP:	0.500	X:	0.099	Y:	0.096	Z:	0.399	yaw:	33.106	yaw rate:	1.373	Roll:	4.505	Pitch:	0.947	Yaw:	48.017	Thrust:	37.606
Time:	4.797	Roll Set Point:	-0.234	Pitch Set Point:	-0.122	Yaw Set Point:	-0.578	X_WP:	0.000	Y_WP:	0.000	Y_WP:	0.500	X:	0.099	Y:	0.096	Z:	0.399	yaw:	33.128	yaw rate:	2.180	Roll:	4.463	Pitch:	0.908	Yaw:	48.181	Thrust:	37.284
Time:	4.812	Roll Set Point:	-0.234	Pitch Set Point:	-0.122	Yaw Set Point:	-0.578	X_WP:	0.000	Y_WP:	0.000	Y_WP:	0.500	X:	0.099	Y:	0.096	Z:	0.399	yaw:	33.128	yaw rate:	2.180	Roll:	4.508	Pitch:	0.927	Yaw:	47.818	Thrust:	37.910
Time:	4.828	Roll Set Point:	-0.234	Pitch Set Point:	-0.122	Yaw Set Point:	-0.577	X_WP:	0.000	Y_WP:	0.000	Y_WP:	0.500	X:	0.099	Y:	0.096	Z:	0.399	yaw:	33.077	yaw rate:	-5.084	Roll:	4.547	Pitch:	0.980	Yaw:	46.900	Thrust:	38.498
Time:	4.843	Roll Set Point:	-0.234	Pitch Set Point:	-0.122	Yaw Set Point:	-0.577	X_WP:	0.000	Y_WP:	0.000	Y_WP:	0.500	X:	0.099	Y:	0.096	Z:	0.399	yaw:	33.045	yaw rate:	-3.224	Roll:	4.481	Pitch:	1.022	Yaw:	47.157	Thrust:	38.124
Time:	4.859	Roll Set Point:	-0.234	Pitch Set Point:	-0.122	Yaw Set Point:	-0.577	X_WP:	0.000	Y_WP:	0.000	Y_WP:	0.500	X:	0.099	Y:	0.096	Z:	0.399	yaw:	33.045	yaw rate:	-3.224	Roll:	4.508	Pitch:	0.933	Yaw:	47.702	Thrust:	38.488
Time:	4.875	Roll Set Point:	-0.234	Pitch Set Point:	-0.122	Yaw Set Point:	-0.578	X_WP:	0.000	Y_WP:	0.000	Y_WP:	0.500	X:	0.099	Y:	0.096	Z:	0.399	yaw:	33.126	yaw rate:	-2.158	Roll:	4.567	Pitch:	0.741	Yaw:	49.171	Thrust:	38.845
Time:	4.890	Roll Set Point:	-0.234	Pitch Set Point:	-0.122	Yaw Set Point:	-0.578	X_WP:	0.000	Y_WP:	0.000	Y_WP:	0.500	X:	0.099	Y:	0.096	Z:	0.399	yaw:	33.126	yaw rate:	-2.158	Roll:	4.510	Pitch:	0.930	Yaw:	47.815	Thrust:	38.870
Time:	4.906	Roll Set Point:	-0.234	Pitch Set Point:	-0.122	Yaw Set Point:	-0.578	X_WP:	0.000	Y_WP:	0.000	Y_WP:	0.500	X:	0.099	Y:	0.096	Z:	0.399	yaw:	33.116	yaw rate:	-0.944	Roll:	4.506	Pitch:	0.978	Yaw:	47.647	Thrust:	39.151
Time:	4.922	Roll Set Point:	-0.234	Pitch Set Point:	-0.122	Yaw Set Point:	-0.577	X_WP:	0.000	Y_WP:	0.000	Y_WP:	0.500	X:	0.099	Y:	0.096	Z:	0.399	yaw:	33.064	yaw rate:	-5.236	Roll:	4.466	Pitch:	1.005	Yaw:	46.851	Thrust:	39.045
Time:	4.937	Roll Set Point:	-0.234	Pitch Set Point:	-0.122	Yaw Set Point:	-0.577	X_WP:	0.000	Y_WP:	0.000	Y_WP:	0.500	X:	0.099	Y:	0.096	Z:	0.399	yaw:	33.064	yaw rate:	-5.236	Roll:	4.508	Pitch:	0.936	Yaw:	47.725	Thrust:	39.376
Time:	4.953	Roll Set Point:	-0.234	Pitch Set Point:	-0.122	Yaw Set Point:	-0.577	X_WP:	0.000	Y_WP:	0.000	Y_WP:	0.500	X:	0.099	Y:	0.096	Z:	0.399	yaw:	33.069	yaw rate:	-1.076	Roll:	4.531	Pitch:	0.908	Yaw:	47.816	Thrust:	39.638
Time:	4.968	Roll Set Point:	-0.234	Pitch Set Point:	-0.122	Yaw Set Point:	-0.577	X_WP:	0.000	Y_WP:	0.000	Y_WP:	0.500	X:	0.099	Y:	0.096	Z:	0.399	yaw:	33.084	yaw rate:	1.570	Roll:	4.504	Pitch:	0.963	Yaw:	48.020	Thrust:	39.944
Time:	4.984	Roll Set Point:	-0.234	Pitch Set Point:	-0.122	Yaw Set Point:	-0.578	X_WP:	0.000	Y_WP:	0.000	Y_WP:	0.500	X:	0.099	Y:	0.096	Z:	0.399	yaw:	33.132	yaw rate:	4.762	Roll:	4.473	Pitch:	0.866	Yaw:	48.623	Thrust:	39.760
Time:	5.000	Roll Set Point:	-0.234	Pitch Set Point:	-0.122	Yaw Set Point:	-0.577	X_WP:	0.000	Y_WP:	0.000	Y_WP:	0.500	X:	0.099	Y:	0.096	Z:	0.399	yaw:	33.071	yaw rate:	-6.099	Roll:	4.550	Pitch:	0.989	Yaw:	46.716	Thrust:	40.370
Time:	5.015	Roll Set Point:	-0.234	Pitch Set Point:	-0.122	Yaw Set Point:	-0.577	X_WP:	0.000	Y_WP:	0.000	Y_WP:	0.500	X:	0.099	Y:	0.096	Z:	0.399	yaw:	33.073	yaw rate:	0.249	Roll:	4.523	Pitch:	0.969	Yaw:	47.781	Thrust:	40.495
Time:	5.031	Roll Set Point:	-0.235	Pitch Set Point:	-0.122	Yaw Set Point:	-0.577	X_WP:	0.000	Y_WP:	0.000	Y_WP:	0.500	X:	0.099	Y:	0.096	Z:	0.399	yaw:	33.053	yaw rate:	-2.007	Roll:	4.505	Pitch:	0.891	Yaw:	47.378	Thrust:	40.400
Time:	5.047	Roll Set Point:	-0.235	Pitch Set Point:	-0.122	Yaw Set Point:	-0.577	X_WP:	0.000	Y_WP:	0.000	Y_WP:	0.500	X:	0.099	Y:	0.096	Z:	0.399	yaw:	33.053	yaw rate:	-2.007	Roll:	4.511	Pitch:	0.943	Yaw:	47.717	Thrust:	40.841
Time:	5.062	Roll Set Point:	-0.234	Pitch Set Point:	-0.122	Yaw Set Point:	-0.577	X_WP:	0.000	Y_WP:	0.000	Y_WP:	0.500	X:	0.099	Y:	0.096	Z:	0.399	yaw:	33.063	yaw rate:	1.011	Roll:	4.489	Pitch:	0.989	Yaw:	47.895	Thrust:	40.974
Time:	5.078	Roll Set Point:	-0.234	Pitch Set Point:	-0.122	Yaw Set Point:	-0.577	X_WP:	0.000	Y_WP:	0.000	Y_WP:	0.500	X:	0.099	Y:	0.096	Z:	0.399	yaw:	33.070	yaw rate:	-2.379	Roll:	4.529	Pitch:	0.947	Yaw:	47.842	Thrust:	41.146
Time:	5.094	Roll Set Point:	-0.234	Pitch Set Point:	-0.122	Yaw Set Point:	-0.578	X_WP:	0.000	Y_WP:	0.000	Y_WP:	0.500	X:	0.099	Y:	0.096	Z:	0.399	yaw:	33.104	yaw rate:	3.438	Roll:	4.520	Pitch:	0.881	Yaw:	48.361	Thrust:	41.556
Time:	5.109	Roll Set Point:	-0.234	Pitch Set Point:	-0.122	Yaw Set Point:	-0.577	X_WP:	0.000	Y_WP:	0.000	Y_WP:	0.500	X:	0.099	Y:	0.096	Z:	0.399	yaw:	33.045	yaw rate:	-5.857	Roll:	4.466	Pitch:	1.055	Yaw:	46.716	Thrust:	41.239
Time:	5.125	Roll Set Point:	-0.234	Pitch Set Point:	-0.122	Yaw Set Point:	-0.577	X_WP:	0.000	Y_WP:	0.000	Y_WP:	0.500	X:	0.099	Y:	0.096	Z:	0.399	yaw:	33.067	yaw rate:	2.115	Roll:	4.516	Pitch:	0.946	Yaw:	48.087	Thrust:	41.767
Time:	5.140	Roll Set Point:	-0.234	Pitch Set Point:	-0.122	Yaw Set Point:	-0.577	X_WP:	0.000	Y_WP:	0.000	Y_WP:	0.500	X:	0.099	Y:	0.096	Z:	0.399	yaw:	33.067	yaw rate:	2.115	Roll:	4.509	Pitch:	0.951	Yaw:	47.732	Thrust:	41.907
Time:	5.156	Roll Set Point:	-0.234	Pitch Set Point:	-0.122	Yaw Set Point:	-0.577	X_WP:	0.000	Y_WP:	0.000	Y_WP:	0.500	X:	0.099	Y:	0.096	Z:	0.399	yaw:	33.071	yaw rate:	-2.609	Roll:	4.531	Pitch:	0.864	Yaw:	47.813	Thrust:	42.139
Time:	5.172	Roll Set Point:	-0.234	Pitch Set Point:	-0.122	Yaw Set Point:	-0.577	X_WP:	0.000	Y_WP:	0.000	Y_WP:	0.500	X:	0.099	Y:	0.096	Z:	0.399	yaw:	33.071	yaw rate:	-0.032	Roll:	4.511	Pitch:	0.948	Yaw:	47.733	Thrust:	42.249
Time:	5.187	Roll Set Point:	-0.234	Pitch Set Point:	-0.122	Yaw Set Point:	-0.578	X_WP:	0.000	Y_WP:	0.000	Y_WP:	0.500	X:	0.099	Y:	0.096	Z:	0.399	yaw:	33.126	yaw rate:	5.552	Roll:	4.485	Pitch:	0.926	Yaw:	48.746	Thrust:	42.325
Time:	5.203	Roll Set Point:	-0.234	Pitch Set Point:	-0.122	Yaw Set Point:	-0.577	X_WP:	0.000	Y_WP:	0.000	Y_WP:	0.500	X:	0.099	Y:	0.096	Z:	0.399	yaw:	33.083	yaw rate:	-4.276	Roll:	4.543	Pitch:	1.011	Yaw:	47.040	Thrust:	42.794
Time:	5.219	Roll Set Point:	-0.234	Pitch Set Point:	-0.122	Yaw Set Point:	-0.578	X_WP:	0.000	Y_WP:	0.000	Y_WP:	0.500	X:	0.099	Y:	0.096	Z:	0.398	yaw:	33.108	yaw rate:	2.493	Roll:	4.501	Pitch:	0.853	Yaw:	48.208	Thrust:	43.110
Time:	5.234	Roll Set Point:	-0.234	Pitch Set Point:	-0.122	Yaw Set Point:	-0.578	X_WP:	0.000	Y_WP:	0.000	Y_WP:	0.500	X:	0.099	Y:	0.096	Z:	0.399	yaw:	33.089	yaw rate:	-1.959	Roll:	4.504	Pitch:	1.009	Yaw:	47.435	Thrust:	42.956
Time:	5.250	Roll Set Point:	-0.234	Pitch Set Point:	-0.122	Yaw Set Point:	-0.577	X_WP:	0.000	Y_WP:	0.000	Y_WP:	0.500	X:	0.099	Y:	0.096	Z:	0.399	yaw:	33.066	yaw rate:	-2.262	Roll:	4.513	Pitch:	1.117	Yaw:	47.353	Thrust:	43.268
Time:	5.265	Roll Set Point:	-0.234	Pitch Set Point:	-0.122	Yaw Set Point:	-0.578	X_WP:	0.000	Y_WP:	0.000	Y_WP:	0.500	X:	0.099	Y:	0.096	Z:	0.399	yaw:	33.096	yaw rate:	2.953	Roll:	4.527	Pitch:	0.842	Yaw:	48.268	Thrust:	43.404
Time:	5.281	Roll Set Point:	-0.234	Pitch Set Point:	-0.122	Yaw Set Point:	-0.578	X_WP:	0.000	Y_WP:	0.000	Y_WP:	0.500	X:	0.099	Y:	0.096	Z:	0.399	yaw:	33.096	yaw rate:	2.953	Roll:	4.510	Pitch:	0.958	Yaw:	47.773	Thrust:	43.619
Time:	5.297	Roll Set Point:	-0.234	Pitch Set Point:	-0.122	Yaw Set Point:	-0.577	X_WP:	0.000	Y_WP:	0.000	Y_WP:	0.500	X:	0.099	Y:	0.096	Z:	0.399	yaw:	33.086	yaw rate:	-0.937	Roll:	4.492	Pitch:	0.914	Yaw:	47.603	Thrust:	43.785
Time:	5.312	Roll Set Point:	-0.234	Pitch Set Point:	-0.122	Yaw Set Point:	-0.577	X_WP:	0.000	Y_WP:	0.000	Y_WP:	0.500	X:	0.099	Y:	0.096	Z:	0.399	yaw:	33.087	yaw rate:	0.056	Roll:	4.503	Pitch:	0.953	Yaw:	47.770	Thrust:	44.038
Time:	5.343	Roll Set Point:	-0.234	Pitch Set Point:	-0.122	Yaw Set Point:	-0.577	X_WP:	0.000	Y_WP:	0.000	Y_WP:	0.500	X:	0.099	Y:	0.096	Z:	0.399	yaw:	33.077	yaw rate:	-4.680	Roll:	5.093	Pitch:	1.215	Yaw:	49.203	Thrust:	82.148
Time:	5.359	Roll Set Point:	-0.234	Pitch Set Point:	-0.122	Yaw Set Point:	-0.577	X_WP:	0.000	Y_WP:	0.000	Y_WP:	0.500	X:	0.099	Y:	0.096	Z:	0.399	yaw:	33.082	yaw rate:	-0.520	Roll:	4.495	Pitch:	0.896	Yaw:	47.834	Thrust:	44.453
Time:	5.375	Roll Set Point:	-0.234	Pitch Set Point:	-0.122	Yaw Set Point:	-0.577	X_WP:	0.000	Y_WP:	0.000	Y_WP:	0.500	X:	0.099	Y:	0.096	Z:	0.399	yaw:	33.082	yaw rate:	-0.520	Roll:	4.509	Pitch:	0.963	Yaw:	47.754	Thrust:	44.578
Time:	5.390	Roll Set Point:	-0.234	Pitch Set Point:	-0.122	Yaw Set Point:	-0.578	X_WP:	0.000	Y_WP:	0.000	Y_WP:	0.500	X:	0.099	Y:	0.096	Z:	0.399	yaw:	33.093	yaw rate:	3.471	Roll:	4.546	Pitch:	0.979	Yaw:	47.954	Thrust:	44.727
Time:	5.406	Roll Set Point:	-0.234	Pitch Set Point:	-0.122	Yaw Set Point:	-0.577	X_WP:	0.000	Y_WP:	0.000	Y_WP:	0.500	X:	0.099	Y:	0.096	Z:	0.399	yaw:	33.082	yaw rate:	-1.157	Roll:	4.491	Pitch:	0.962	Yaw:	47.563	Thrust:	45.047
Time:	5.421	Roll Set Point:	-0.234	Pitch Set Point:	-0.122	Yaw Set Point:	-0.578	X_WP:	0.000	Y_WP:	0.000	Y_WP:	0.500	X:	0.099	Y:	0.096	Z:	0.399	yaw:	33.128	yaw rate:	4.696	Roll:	4.443	Pitch:	0.839	Yaw:	48.605	Thrust:	44.716
Time:	5.437	Roll Set Point:	-0.234	Pitch Set Point:	-0.122	Yaw Set Point:	-0.578	X_WP:	0.000	Y_WP:	0.000	Y_WP:	0.500	X:	0.099	Y:	0.096	Z:	0.399	yaw:	33.101	yaw rate:	-2.786	Roll:	4.569	Pitch:	1.095	Yaw:	47.313	Thrust:	45.824
Time:	5.453	Roll Set Point:	-0.234	Pitch Set Point:	-0.122	Yaw Set Point:	-0.577	X_WP:	0.000	Y_WP:	0.000	Y_WP:	0.500	X:	0.099	Y:	0.096	Z:	0.399	yaw:	33.037	yaw rate:	-6.345	Roll:	4.492	Pitch:	1.112	Yaw:	46.623	Thrust:	45.209
Time:	5.468	Roll Set Point:	-0.234	Pitch Set Point:	-0.122	Yaw Set Point:	-0.578	X_WP:	0.000	Y_WP:	0.000	Y_WP:	0.500	X:	0.099	Y:	0.096	Z:	0.399	yaw:	33.100	yaw rate:	6.303	Roll:	4.533	Pitch:	0.823	Yaw:	48.835	Thrust:	45.859
Time:	5.484	Roll Set Point:	-0.234	Pitch Set Point:	-0.122	Yaw Set Point:	-0.579	X_WP:	0.000	Y_WP:	0.000	Y_WP:	0.500	X:	0.099	Y:	0.096	Z:	0.399	yaw:	33.146	yaw rate:	4.589	Roll:	4.453	Pitch:	0.855	Yaw:	48.614	Thrust:	45.840
Time:	5.500	Roll Set Point:	-0.234	Pitch Set Point:	-0.122	Yaw Set Point:	-0.579	X_WP:	0.000	Y_WP:	0.000	Y_WP:	0.500	X:	0.099	Y:	0.096	Z:	0.399	yaw:	33.158	yaw rate:	1.157	Roll:	4.540	Pitch:	0.943	Yaw:	48.053	Thrust:	45.957
Time:	5.515	Roll Set Point:	-0.234	Pitch Set Point:	-0.122	Yaw Set Point:	-0.579	X_WP:	0.000	Y_WP:	0.000	Y_WP:	0.500	X:	0.099	Y:	0.096	Z:	0.399	yaw:	33.158	yaw rate:	1.157	Roll:	4.508	Pitch:	0.968	Yaw:	47.857	Thrust:	46.208
Time:	5.531	Roll Set Point:	-0.234	Pitch Set Point:	-0.122	Yaw Set Point:	-0.577	X_WP:	0.000	Y_WP:	0.000	Y_WP:	0.500	X:	0.099	Y:	0.096	Z:	0.399	yaw:	33.068	yaw rate:	0.040	Roll:	4.502	Pitch:	1.135	Yaw:	46.236	Thrust:	46.817
Time:	5.546	Roll Set Point:	-0.234	Pitch Set Point:	-0.122	Yaw Set Point:	-0.579	X_WP:	0.000	Y_WP:	0.000	Y_WP:	0.500	X:	0.099	Y:	0.096	Z:	0.399	yaw:	33.164	yaw rate:	9.636	Roll:	4.502	Pitch:	0.780	Yaw:	49.483	Thrust:	46.534
Time:	5.562	Roll Set Point:	-0.234	Pitch Set Point:	-0.122	Yaw Set Point:	-0.577	X_WP:	0.000	Y_WP:	0.000	Y_WP:	0.500	X:	0.099	Y:	0.096	Z:	0.399	yaw:	33.073	yaw rate:	-9.156	Roll:	4.518	Pitch:	1.166	Yaw:	46.207	Thrust:	47.012
Time:	5.578	Roll Set Point:	-0.234	Pitch Set Point:	-0.122	Yaw Set Point:	-0.577	X_WP:	0.000	Y_WP:	0.000	Y_WP:	0.500	X:	0.099	Y:	0.096	Z:	0.399	yaw:	33.071	yaw rate:	-0.211	Roll:	4.535	Pitch:	1.020	Yaw:	47.700	Thrust:	46.889
Time:	5.593	Roll Set Point:	-0.234	Pitch Set Point:	-0.122	Yaw Set Point:	-0.579	X_WP:	0.000	Y_WP:	0.000	Y_WP:	0.500	X:	0.099	Y:	0.096	Z:	0.399	yaw:	33.160	yaw rate:	8.979	Roll:	4.493	Pitch:	0.852	Yaw:	49.368	Thrust:	47.199
Time:	5.609	Roll Set Point:	-0.234	Pitch Set Point:	-0.121	Yaw Set Point:	-0.579	X_WP:	0.000	Y_WP:	0.000	Y_WP:	0.500	X:	0.099	Y:	0.096	Z:	0.399	yaw:	33.162	yaw rate:	0.201	Roll:	4.490	Pitch:	0.825	Yaw:	47.900	Thrust:	47.276
Time:	5.625	Roll Set Point:	-0.234	Pitch Set Point:	-0.122	Yaw Set Point:	-0.577	X_WP:	0.000	Y_WP:	0.000	Y_WP:	0.500	X:	0.099	Y:	0.096	Z:	0.399	yaw:	33.078	yaw rate:	-8.466	Roll:	4.523	Pitch:	1.152	Yaw:	46.330	Thrust:	47.899
Time:	5.640	Roll Set Point:	-0.234	Pitch Set Point:	-0.122	Yaw Set Point:	-0.577	X_WP:	0.000	Y_WP:	0.000	Y_WP:	0.500	X:	0.099	Y:	0.096	Z:	0.399	yaw:	33.078	yaw rate:	-8.466	Roll:	4.510	Pitch:	0.980	Yaw:	47.751	Thrust:	47.885
Time:	5.656	Roll Set Point:	-0.234	Pitch Set Point:	-0.122	Yaw Set Point:	-0.577	X_WP:	0.000	Y_WP:	0.000	Y_WP:	0.500	X:	0.099	Y:	0.096	Z:	0.399	yaw:	33.061	yaw rate:	-2.514	Roll:	4.528	Pitch:	1.055	Yaw:	47.441	Thrust:	47.765
Time:	5.671	Roll Set Point:	-0.234	Pitch Set Point:	-0.121	Yaw Set Point:	-0.579	X_WP:	0.000	Y_WP:	0.000	Y_WP:	0.500	X:	0.099	Y:	0.096	Z:	0.399	yaw:	33.163	yaw rate:	10.177	Roll:	4.477	Pitch:	0.731	Yaw:	49.571	Thrust:	48.147
Time:	5.687	Roll Set Point:	-0.234	Pitch Set Point:	-0.122	Yaw Set Point:	-0.578	X_WP:	0.000	Y_WP:	0.000	Y_WP:	0.500	X:	0.099	Y:	0.096	Z:	0.399	yaw:	33.092	yaw rate:	-7.121	Roll:	4.526	Pitch:	1.117	Yaw:	46.576	Thrust:	48.671
Time:	5.703	Roll Set Point:	-0.234	Pitch Set Point:	-0.122	Yaw Set Point:	-0.578	X_WP:	0.000	Y_WP:	0.000	Y_WP:	0.500	X:	0.099	Y:	0.096	Z:	0.399	yaw:	33.090	yaw rate:	-0.130	Roll:	4.548	Pitch:	1.102	Yaw:	47.744	Thrust:	48.572
Time:	5.718	Roll Set Point:	-0.234	Pitch Set Point:	-0.122	Yaw Set Point:	-0.578	X_WP:	0.000	Y_WP:	0.000	Y_WP:	0.500	X:	0.099	Y:	0.096	Z:	0.399	yaw:	33.090	yaw rate:	-0.130	Roll:	4.510	Pitch:	0.987	Yaw:	47.764	Thrust:	48.733
Time:	5.734	Roll Set Point:	-0.234	Pitch Set Point:	-0.121	Yaw Set Point:	-0.579	X_WP:	0.000	Y_WP:	0.000	Y_WP:	0.500	X:	0.099	Y:	0.096	Z:	0.399	yaw:	33.153	yaw rate:	2.964	Roll:	4.437	Pitch:	0.766	Yaw:	48.912	Thrust:	48.721
Time:	5.750	Roll Set Point:	-0.234	Pitch Set Point:	-0.121	Yaw Set Point:	-0.579	X_WP:	0.000	Y_WP:	0.000	Y_WP:	0.500	X:	0.099	Y:	0.096	Z:	0.399	yaw:	33.153	yaw rate:	2.964	Roll:	4.507	Pitch:	0.983	Yaw:	47.851	Thrust:	49.061
Time:	5.765	Roll Set Point:	-0.234	Pitch Set Point:	-0.122	Yaw Set Point:	-0.577	X_WP:	0.000	Y_WP:	0.000	Y_WP:	0.500	X:	0.099	Y:	0.096	Z:	0.399	yaw:	33.047	yaw rate:	4.285	Roll:	4.555	Pitch:	1.249	Yaw:	45.932	Thrust:	49.526
Time:	5.781	Roll Set Point:	-0.234	Pitch Set Point:	-0.122	Yaw Set Point:	-0.576	X_WP:	0.000	Y_WP:	0.000	Y_WP:	0.500	X:	0.099	Y:	0.096	Z:	0.399	yaw:	33.027	yaw rate:	-2.012	Roll:	4.495	Pitch:	1.005	Yaw:	47.335	Thrust:	49.285
Time:	5.796	Roll Set Point:	-0.234	Pitch Set Point:	-0.122	Yaw Set Point:	-0.578	X_WP:	0.000	Y_WP:	0.000	Y_WP:	0.500	X:	0.099	Y:	0.096	Z:	0.399	yaw:	33.092	yaw rate:	6.480	Roll:	4.521	Pitch:	0.857	Yaw:	48.853	Thrust:	50.017
Time:	5.812	Roll Set Point:	-0.234	Pitch Set Point:	-0.121	Yaw Set Point:	-0.579	X_WP:	0.000	Y_WP:	0.000	Y_WP:	0.500	X:	0.099	Y:	0.096	Z:	0.399	yaw:	33.166	yaw rate:	7.448	Roll:	4.499	Pitch:	0.813	Yaw:	49.119	Thrust:	49.716
Time:	5.828	Roll Set Point:	-0.234	Pitch Set Point:	-0.122	Yaw Set Point:	-0.577	X_WP:	0.000	Y_WP:	0.000	Y_WP:	0.500	X:	0.099	Y:	0.096	Z:	0.399	yaw:	33.061	yaw rate:	-10.527	Roll:	4.518	Pitch:	1.219	Yaw:	45.961	Thrust:	50.102
Time:	5.843	Roll Set Point:	-0.234	Pitch Set Point:	-0.122	Yaw Set Point:	-0.577	X_WP:	0.000	Y_WP:	0.000	Y_WP:	0.500	X:	0.099	Y:	0.096	Z:	0.399	yaw:	33.084	yaw rate:	2.339	Roll:	4.525	Pitch:	0.973	Yaw:	48.149	Thrust:	50.234
Time:	5.859	Roll Set Point:	-0.234	Pitch Set Point:	-0.122	Yaw Set Point:	-0.579	X_WP:	0.000	Y_WP:	0.000	Y_WP:	0.500	X:	0.099	Y:	0.096	Z:	0.399	yaw:	33.164	yaw rate:	7.967	Roll:	4.469	Pitch:	0.856	Yaw:	49.203	Thrust:	50.538
Time:	5.875	Roll Set Point:	-0.234	Pitch Set Point:	-0.122	Yaw Set Point:	-0.578	X_WP:	0.000	Y_WP:	0.000	Y_WP:	0.500	X:	0.099	Y:	0.096	Z:	0.399	yaw:	33.127	yaw rate:	-3.709	Roll:	4.480	Pitch:	1.049	Yaw:	47.195	Thrust:	50.591
Time:	5.890	Roll Set Point:	-0.234	Pitch Set Point:	-0.122	Yaw Set Point:	-0.578	X_WP:	0.000	Y_WP:	0.000	Y_WP:	0.500	X:	0.099	Y:	0.096	Z:	0.399	yaw:	33.127	yaw rate:	-3.709	Roll:	4.508	Pitch:	0.995	Yaw:	47.817	Thrust:	50.864
Time:	5.906	Roll Set Point:	-0.234	Pitch Set Point:	-0.122	Yaw Set Point:	-0.577	X_WP:	0.000	Y_WP:	0.000	Y_WP:	0.500	X:	0.099	Y:	0.096	Z:	0.399	yaw:	33.051	yaw rate:	-7.587	Roll:	4.554	Pitch:	1.148	Yaw:	46.439	Thrust:	51.071
Time:	5.921	Roll Set Point:	-0.234	Pitch Set Point:	-0.122	Yaw Set Point:	-0.577	X_WP:	0.000	Y_WP:	0.000	Y_WP:	0.500	X:	0.099	Y:	0.096	Z:	0.399	yaw:	33.050	yaw rate:	-0.082	Roll:	4.507	Pitch:	1.029	Yaw:	47.696	Thrust:	51.199
Time:	5.937	Roll Set Point:	-0.234	Pitch Set Point:	-0.122	Yaw Set Point:	-0.577	X_WP:	0.000	Y_WP:	0.000	Y_WP:	0.500	X:	0.099	Y:	0.096	Z:	0.399	yaw:	33.085	yaw rate:	2.538	Roll:	4.501	Pitch:	0.853	Yaw:	48.337	Thrust:	51.555
Time:	5.953	Roll Set Point:	-0.234	Pitch Set Point:	-0.122	Yaw Set Point:	-0.577	X_WP:	0.000	Y_WP:	0.000	Y_WP:	0.500	X:	0.099	Y:	0.096	Z:	0.399	yaw:	33.085	yaw rate:	2.538	Roll:	4.510	Pitch:	1.000	Yaw:	47.760	Thrust:	51.687
Time:	5.968	Roll Set Point:	-0.234	Pitch Set Point:	-0.122	Yaw Set Point:	-0.577	X_WP:	0.000	Y_WP:	0.000	Y_WP:	0.500	X:	0.099	Y:	0.096	Z:	0.399	yaw:	33.059	yaw rate:	0.734	Roll:	4.520	Pitch:	1.164	Yaw:	47.277	Thrust:	51.695
Time:	5.984	Roll Set Point:	-0.234	Pitch Set Point:	-0.122	Yaw Set Point:	-0.577	X_WP:	0.000	Y_WP:	0.000	Y_WP:	0.500	X:	0.099	Y:	0.096	Z:	0.399	yaw:	33.059	yaw rate:	0.734	Roll:	4.509	Pitch:	1.006	Yaw:	47.722	Thrust:	52.006
Time:	6.000	Roll Set Point:	-0.234	Pitch Set Point:	-0.122	Yaw Set Point:	-0.578	X_WP:	0.000	Y_WP:	0.000	Y_WP:	0.500	X:	0.099	Y:	0.096	Z:	0.399	yaw:	33.095	yaw rate:	-0.516	Roll:	4.509	Pitch:	0.853	Yaw:	48.391	Thrust:	52.235
Time:	6.015	Roll Set Point:	-0.088	Pitch Set Point:	-0.034	Yaw Set Point:	-0.578	X_WP:	0.075	Y_WP:	0.153	Y_WP:	0.500	X:	0.099	Y:	0.096	Z:	0.399	yaw:	33.095	yaw rate:	-0.516	Roll:	-30.000	Pitch:	-30.000	Yaw:	47.773	Thrust:	52.377
Time:	6.031	Roll Set Point:	-0.088	Pitch Set Point:	-0.034	Yaw Set Point:	-0.577	X_WP:	0.075	Y_WP:	0.153	Y_WP:	0.500	X:	0.099	Y:	0.096	Z:	0.399	yaw:	33.055	yaw rate:	-4.803	Roll:	0.319	Pitch:	-1.541	Yaw:	47.029	Thrust:	52.388
Time:	6.046	Roll Set Point:	-0.088	Pitch Set Point:	-0.034	Yaw Set Point:	-0.578	X_WP:	0.075	Y_WP:	0.153	Y_WP:	0.500	X:	0.099	Y:	0.096	Z:	0.399	yaw:	33.101	yaw rate:	4.648	Roll:	0.202	Pitch:	-1.526	Yaw:	48.559	Thrust:	52.956
Time:	6.062	Roll Set Point:	-0.088	Pitch Set Point:	-0.034	Yaw Set Point:	-0.578	X_WP:	0.075	Y_WP:	0.153	Y_WP:	0.500	X:	0.099	Y:	0.096	Z:	0.399	yaw:	33.101	yaw rate:	4.648	Roll:	0.256	Pitch:	-1.536	Yaw:	47.783	Thrust:	53.019
Time:	6.078	Roll Set Point:	-0.088	Pitch Set Point:	-0.034	Yaw Set Point:	-0.577	X_WP:	0.075	Y_WP:	0.153	Y_WP:	0.500	X:	0.099	Y:	0.096	Z:	0.399	yaw:	33.050	yaw rate:	0.037	Roll:	0.302	Pitch:	-1.543	Yaw:	46.845	Thrust:	52.990
Time:	6.093	Roll Set Point:	-0.088	Pitch Set Point:	-0.034	Yaw Set Point:	-0.577	X_WP:	0.075	Y_WP:	0.153	Y_WP:	0.500	X:	0.099	Y:	0.096	Z:	0.399	yaw:	33.060	yaw rate:	1.010	Roll:	0.241	Pitch:	-1.543	Yaw:	47.892	Thrust:	53.169
Time:	6.109	Roll Set Point:	-0.088	Pitch Set Point:	-0.034	Yaw Set Point:	-0.578	X_WP:	0.075	Y_WP:	0.153	Y_WP:	0.500	X:	0.099	Y:	0.096	Z:	0.399	yaw:	33.095	yaw rate:	3.551	Roll:	0.198	Pitch:	-1.530	Yaw:	48.369	Thrust:	53.713
Time:	6.125	Roll Set Point:	-0.088	Pitch Set Point:	-0.034	Yaw Set Point:	-0.578	X_WP:	0.075	Y_WP:	0.153	Y_WP:	0.500	X:	0.099	Y:	0.096	Z:	0.399	yaw:	33.144	yaw rate:	4.890	Roll:	0.231	Pitch:	-1.537	Yaw:	48.660	Thrust:	53.466
Time:	6.140	Roll Set Point:	-0.088	Pitch Set Point:	-0.034	Yaw Set Point:	-0.578	X_WP:	0.075	Y_WP:	0.153	Y_WP:	0.500	X:	0.099	Y:	0.096	Z:	0.398	yaw:	33.104	yaw rate:	-4.052	Roll:	0.315	Pitch:	-1.558	Yaw:	47.106	Thrust:	54.350
Time:	6.156	Roll Set Point:	-0.088	Pitch Set Point:	-0.034	Yaw Set Point:	-0.578	X_WP:	0.075	Y_WP:	0.153	Y_WP:	0.500	X:	0.099	Y:	0.096	Z:	0.398	yaw:	33.104	yaw rate:	-4.052	Roll:	0.252	Pitch:	-1.551	Yaw:	47.781	Thrust:	53.986
Time:	6.171	Roll Set Point:	-0.088	Pitch Set Point:	-0.034	Yaw Set Point:	-0.578	X_WP:	0.075	Y_WP:	0.153	Y_WP:	0.500	X:	0.099	Y:	0.096	Z:	0.399	yaw:	33.136	yaw rate:	8.005	Roll:	0.237	Pitch:	-1.546	Yaw:	48.364	Thrust:	53.867
Time:	6.187	Roll Set Point:	-0.088	Pitch Set Point:	-0.034	Yaw Set Point:	-0.578	X_WP:	0.075	Y_WP:	0.153	Y_WP:	0.500	X:	0.099	Y:	0.096	Z:	0.399	yaw:	33.136	yaw rate:	8.005	Roll:	0.253	Pitch:	-1.554	Yaw:	47.832	Thrust:	54.562
Time:	6.203	Roll Set Point:	-0.088	Pitch Set Point:	-0.034	Yaw Set Point:	-0.577	X_WP:	0.075	Y_WP:	0.153	Y_WP:	0.500	X:	0.099	Y:	0.096	Z:	0.399	yaw:	33.038	yaw rate:	-5.384	Roll:	0.304	Pitch:	-1.578	Yaw:	46.052	Thrust:	54.664
Time:	6.218	Roll Set Point:	-0.088	Pitch Set Point:	-0.034	Yaw Set Point:	-0.577	X_WP:	0.075	Y_WP:	0.153	Y_WP:	0.500	X:	0.099	Y:	0.096	Z:	0.399	yaw:	33.080	yaw rate:	4.221	Roll:	0.220	Pitch:	-1.553	Yaw:	48.459	Thrust:	54.972
Time:	6.234	Roll Set Point:	-0.088	Pitch Set Point:	-0.034	Yaw Set Point:	-0.577	X_WP:	0.075	Y_WP:	0.153	Y_WP:	0.500	X:	0.099	Y:	0.096	Z:	0.399	yaw:	33.086	yaw rate:	0.622	Roll:	0.228	Pitch:	-1.558	Yaw:	47.864	Thrust:	55.048
Time:	6.250	Roll Set Point:	-0.088	Pitch Set Point:	-0.034	Yaw Set Point:	-0.577	X_WP:	0.075	Y_WP:	0.153	Y_WP:	0.500	X:	0.099	Y:	0.096	Z:	0.399	yaw:	33.086	yaw rate:	0.622	Roll:	0.252	Pitch:	-1.564	Yaw:	47.763	Thrust:	55.314
Time:	6.265	Roll Set Point:	-0.088	Pitch Set Point:	-0.034	Yaw Set Point:	-0.577	X_WP:	0.075	Y_WP:	0.153	Y_WP:	0.500	X:	0.099	Y:	0.096	Z:	0.399	yaw:	33.058	yaw rate:	0.657	Roll:	0.305	Pitch:	-1.578	Yaw:	47.252	Thrust:	55.276
Time:	6.281	Roll Set Point:	-0.088	Pitch Set Point:	-0.034	Yaw Set Point:	-0.578	X_WP:	0.075	Y_WP:	0.153	Y_WP:	0.500	X:	0.099	Y:	0.096	Z:	0.399	yaw:	33.091	yaw rate:	3.243	Roll:	0.221	Pitch:	-1.565	Yaw:	48.309	Thrust:	55.843
Time:	6.297	Roll Set Point:	-0.088	Pitch Set Point:	-0.034	Yaw Set Point:	-0.577	X_WP:	0.075	Y_WP:	0.153	Y_WP:	0.500	X:	0.099	Y:	0.096	Z:	0.399	yaw:	33.077	yaw rate:	-1.377	Roll:	0.236	Pitch:	-1.566	Yaw:	47.517	Thrust:	55.631
Time:	6.312	Roll Set Point:	-0.088	Pitch Set Point:	-0.034	Yaw Set Point:	-0.576	X_WP:	0.075	Y_WP:	0.153	Y_WP:	0.500	X:	0.099	Y:	0.096	Z:	0.399	yaw:	33.022	yaw rate:	-5.503	Roll:	0.302	Pitch:	-1.589	Yaw:	46.743	Thrust:	55.869
Time:	6.327	Roll Set Point:	-0.088	Pitch Set Point:	-0.034	Yaw Set Point:	-0.577	X_WP:	0.075	Y_WP:	0.153	Y_WP:	0.500	X:	0.099	Y:	0.096	Z:	0.399	yaw:	33.068	yaw rate:	4.592	Roll:	0.197	Pitch:	-1.577	Yaw:	48.469	Thrust:	53.971
