Time:	2.115	Roll Set Point:	-0.234	Pitch Set Point:	-0.122	Yaw Set Point:	-0.579	X_WP:	0.000	Y_WP:	0.000	Y_WP:	0.500	X:	0.099	Y:	0.096	Z:	0.399	yaw:	33.181	yaw rate:	2.715	Roll:	3.924	Pitch:	0.749	Yaw:	46.330	Thrust:	5.579
Time:	2.130	Roll Set Point:	-0.234	Pitch Set Point:	-0.122	Yaw Set Point:	-0.578	X_WP:	0.000	Y_WP:	0.000	Y_WP:	0.500	X:	0.099	Y:	0.096	Z:	0.399	yaw:	33.105	yaw rate:	-7.656	Roll:	3.931	Pitch:	0.896	Yaw:	45.118	Thrust:	5.955
Time:	2.146	Roll Set Point:	-0.234	Pitch Set Point:	-0.122	Yaw Set Point:	-0.578	X_WP:	0.000	Y_WP:	0.000	Y_WP:	0.500	X:	0.099	Y:	0.096	Z:	0.399	yaw:	33.088	yaw rate:	-1.606	Roll:	3.927	Pitch:	0.752	Yaw:	46.293	Thrust:	5.768
Time:	2.162	Roll Set Point:	-0.234	Pitch Set Point:	-0.122	Yaw Set Point:	-0.577	X_WP:	0.000	Y_WP:	0.000	Y_WP:	0.500	X:	0.099	Y:	0.096	Z:	0.399	yaw:	33.074	yaw rate:	-9.729	Roll:	3.923	Pitch:	0.776	Yaw:	46.480	Thrust:	6.184
Time:	2.177	Roll Set Point:	-0.234	Pitch Set Point:	-0.122	Yaw Set Point:	-0.577	X_WP:	0.000	Y_WP:	0.000	Y_WP:	0.500	X:	0.099	Y:	0.096	Z:	0.399	yaw:	33.074	yaw rate:	-9.729	Roll:	3.945	Pitch:	0.757	Yaw:	46.902	Thrust:	6.340
Time:	2.193	Roll Set Point:	-0.234	Pitch Set Point:	-0.122	Yaw Set Point:	-0.578	X_WP:	0.000	Y_WP:	0.000	Y_WP:	0.500	X:	0.099	Y:	0.096	Z:	0.399	yaw:	33.089	yaw rate:	-0.654	Roll:	3.950	Pitch:	0.778	Yaw:	47.358	Thrust:	6.578
Time:	2.208	Roll Set Point:	-0.234	Pitch Set Point:	-0.122	Yaw Set Point:	-0.579	X_WP:	0.000	Y_WP:	0.000	Y_WP:	0.500	X:	0.099	Y:	0.096	Z:	0.399	yaw:	33.171	yaw rate:	8.207	Roll:	3.928	Pitch:	0.602	Yaw:	48.774	Thrust:	6.517
Time:	2.224	Roll Set Point:	-0.234	Pitch Set Point:	-0.121	Yaw Set Point:	-0.579	X_WP:	0.000	Y_WP:	0.000	Y_WP:	0.500	X:	0.099	Y:	0.096	Z:	0.399	yaw:	33.177	yaw rate:	0.579	Roll:	3.980	Pitch:	0.716	Yaw:	47.685	Thrust:	6.849
Time:	2.240	Roll Set Point:	-0.234	Pitch Set Point:	-0.122	Yaw Set Point:	-0.578	X_WP:	0.000	Y_WP:	0.000	Y_WP:	0.500	X:	0.099	Y:	0.096	Z:	0.399	yaw:	33.105	yaw rate:	-7.254	Roll:	3.979	Pitch:	0.954	Yaw:	46.452	Thrust:	7.447
Time:	2.255	Roll Set Point:	-0.234	Pitch Set Point:	-0.122	Yaw Set Point:	-0.578	X_WP:	0.000	Y_WP:	0.000	Y_WP:	0.500	X:	0.099	Y:	0.096	Z:	0.399	yaw:	33.089	yaw rate:	-1.531	Roll:	3.943	Pitch:	0.794	Yaw:	47.508	Thrust:	7.246
Time:	2.271	Roll Set Point:	-0.234	Pitch Set Point:	-0.122	Yaw Set Point:	-0.579	X_WP:	0.000	Y_WP:	0.000	Y_WP:	0.500	X:	0.099	Y:	0.096	Z:	0.399	yaw:	33.172	yaw rate:	8.283	Roll:	3.977	Pitch:	0.596	Yaw:	49.267	Thrust:	7.337
Time:	2.287	Roll Set Point:	-0.234	Pitch Set Point:	-0.122	Yaw Set Point:	-0.578	X_WP:	0.000	Y_WP:	0.000	Y_WP:	0.500	X:	0.099	Y:	0.096	Z:	0.399	yaw:	33.105	yaw rate:	-6.722	Roll:	4.015	Pitch:	0.862	Yaw:	46.665	Thrust:	7.847
Time:	2.302	Roll Set Point:	-0.234	Pitch Set Point:	-0.122	Yaw Set Point:	-0.578	X_WP:	0.000	Y_WP:	0.000	Y_WP:	0.500	X:	0.099	Y:	0.096	Z:	0.399	yaw:	33.105	yaw rate:	-6.722	Roll:	3.987	Pitch:	0.765	Yaw:	47.786	Thrust:	7.864
Time:	2.318	Roll Set Point:	-0.234	Pitch Set Point:	-0.122	Yaw Set Point:	-0.577	X_WP:	0.000	Y_WP:	0.000	Y_WP:	0.500	X:	0.099	Y:	0.096	Z:	0.399	yaw:	33.087	yaw rate:	0.977	Roll:	3.970	Pitch:	0.814	Yaw:	47.465	Thrust:	8.023
Time:	2.333	Roll Set Point:	-0.234	Pitch Set Point:	-0.122	Yaw Set Point:	-0.577	X_WP:	0.000	Y_WP:	0.000	Y_WP:	0.500	X:	0.099	Y:	0.096	Z:	0.399	yaw:	33.071	yaw rate:	-1.606	Roll:	3.976	Pitch:	0.736	Yaw:	47.474	Thrust:	8.171
Time:	2.349	Roll Set Point:	-0.234	Pitch Set Point:	-0.122	Yaw Set Point:	-0.577	X_WP:	0.000	Y_WP:	0.000	Y_WP:	0.500	X:	0.099	Y:	0.096	Z:	0.399	yaw:	33.071	yaw rate:	-1.606	Roll:	4.002	Pitch:	0.769	Yaw:	47.739	Thrust:	8.433
Time:	2.365	Roll Set Point:	-0.234	Pitch Set Point:	-0.122	Yaw Set Point:	-0.578	X_WP:	0.000	Y_WP:	0.000	Y_WP:	0.500	X:	0.099	Y:	0.096	Z:	0.399	yaw:	33.089	yaw rate:	1.797	Roll:	4.031	Pitch:	0.774	Yaw:	48.067	Thrust:	8.723
Time:	2.380	Roll Set Point:	-0.234	Pitch Set Point:	-0.122	Yaw Set Point:	-0.578	X_WP:	0.000	Y_WP:	0.000	Y_WP:	0.500	X:	0.099	Y:	0.096	Z:	0.399	yaw:	33.093	yaw rate:	0.430	Roll:	4.025	Pitch:	0.746	Yaw:	47.822	Thrust:	8.812
Time:	2.396	Roll Set Point:	-0.234	Pitch Set Point:	-0.122	Yaw Set Point:	-0.577	X_WP:	0.000	Y_WP:	0.000	Y_WP:	0.500	X:	0.099	Y:	0.096	Z:	0.399	yaw:	33.066	yaw rate:	-2.721	Roll:	3.987	Pitch:	0.868	Yaw:	47.246	Thrust:	8.967
Time:	2.411	Roll Set Point:	-0.234	Pitch Set Point:	-0.122	Yaw Set Point:	-0.577	X_WP:	0.000	Y_WP:	0.000	Y_WP:	0.500	X:	0.099	Y:	0.096	Z:	0.399	yaw:	33.070	yaw rate:	0.413	Roll:	4.017	Pitch:	0.754	Yaw:	47.807	Thrust:	9.138
Time:	2.427	Roll Set Point:	-0.234	Pitch Set Point:	-0.122	Yaw Set Point:	-0.577	X_WP:	0.000	Y_WP:	0.000	Y_WP:	0.500	X:	0.099	Y:	0.096	Z:	0.399	yaw:	33.080	yaw rate:	0.995	Roll:	4.064	Pitch:	0.727	Yaw:	47.916	Thrust:	9.354
Time:	2.443	Roll Set Point:	-0.234	Pitch Set Point:	-0.122	Yaw Set Point:	-0.577	X_WP:	0.000	Y_WP:	0.000	Y_WP:	0.500	X:	0.099	Y:	0.096	Z:	0.399	yaw:	33.080	yaw rate:	0.995	Roll:	4.035	Pitch:	0.775	Yaw:	47.751	Thrust:	9.575
Time:	2.458	Roll Set Point:	-0.234	Pitch Set Point:	-0.122	Yaw Set Point:	-0.578	X_WP:	0.000	Y_WP:	0.000	Y_WP:	0.500	X:	0.099	Y:	0.096	Z:	0.399	yaw:	33.144	yaw rate:	6.754	Roll:	3.985	Pitch:	0.701	Yaw:	48.928	Thrust:	9.549
Time:	2.474	Roll Set Point:	-0.234	Pitch Set Point:	-0.122	Yaw Set Point:	-0.577	X_WP:	0.000	Y_WP:	0.000	Y_WP:	0.500	X:	0.099	Y:	0.096	Z:	0.399	yaw:	33.082	yaw rate:	-6.259	Roll:	4.080	Pitch:	0.853	Yaw:	46.705	Thrust:	10.192
Time:	2.489	Roll Set Point:	-0.234	Pitch Set Point:	-0.122	Yaw Set Point:	-0.578	X_WP:	0.000	Y_WP:	0.000	Y_WP:	0.500	X:	0.099	Y:	0.096	Z:	0.399	yaw:	33.105	yaw rate:	2.325	Roll:	4.060	Pitch:	0.756	Yaw:	48.176	Thrust:	10.193
Time:	2.505	Roll Set Point:	-0.234	Pitch Set Point:	-0.122	Yaw Set Point:	-0.578	X_WP:	0.000	Y_WP:	0.000	Y_WP:	0.500	X:	0.099	Y:	0.096	Z:	0.399	yaw:	33.091	yaw rate:	-1.441	Roll:	4.066	Pitch:	0.774	Yaw:	47.528	Thrust:	10.330
Time:	2.521	Roll Set Point:	-0.234	Pitch Set Point:	-0.122	Yaw Set Point:	-0.578	X_WP:	0.000	Y_WP:	0.000	Y_WP:	0.500	X:	0.099	Y:	0.096	Z:	0.399	yaw:	33.091	yaw rate:	-1.441	Roll:	4.061	Pitch:	0.779	Yaw:	47.766	Thrust:	10.527
Time:	2.536	Roll Set Point:	-0.234	Pitch Set Point:	-0.122	Yaw Set Point:	-0.577	X_WP:	0.000	Y_WP:	0.000	Y_WP:	0.500	X:	0.099	Y:	0.096	Z:	0.399	yaw:	33.066	yaw rate:	-2.510	Roll:	4.025	Pitch:	0.875	Yaw:	47.307	Thrust:	10.700
Time:	2.552	Roll Set Point:	-0.234	Pitch Set Point:	-0.122	Yaw Set Point:	-0.577	X_WP:	0.000	Y_WP:	0.000	Y_WP:	0.500	X:	0.099	Y:	0.096	Z:	0.399	yaw:	33.066	yaw rate:	-2.510	Roll:	4.071	Pitch:	0.784	Yaw:	47.731	Thrust:	10.906
Time:	2.568	Roll Set Point:	-0.234	Pitch Set Point:	-0.122	Yaw Set Point:	-0.578	X_WP:	0.000	Y_WP:	0.000	Y_WP:	0.500	X:	0.099	Y:	0.096	Z:	0.398	yaw:	33.098	yaw rate:	-1.122	Roll:	4.118	Pitch:	0.685	Yaw:	48.320	Thrust:	11.214
Time:	2.583	Roll Set Point:	-0.234	Pitch Set Point:	-0.122	Yaw Set Point:	-0.578	X_WP:	0.000	Y_WP:	0.000	Y_WP:	0.500	X:	0.099	Y:	0.096	Z:	0.398	yaw:	33.098	yaw rate:	-1.122	Roll:	4.082	Pitch:	0.783	Yaw:	47.773	Thrust:	11.279
Time:	2.599	Roll Set Point:	-0.234	Pitch Set Point:	-0.122	Yaw Set Point:	-0.578	X_WP:	0.000	Y_WP:	0.000	Y_WP:	0.500	X:	0.099	Y:	0.096	Z:	0.399	yaw:	33.131	yaw rate:	6.766	Roll:	4.084	Pitch:	0.711	Yaw:	48.375	Thrust:	11.368
Time:	2.615	Roll Set Point:	-0.234	Pitch Set Point:	-0.122	Yaw Set Point:	-0.578	X_WP:	0.000	Y_WP:	0.000	Y_WP:	0.500	X:	0.099	Y:	0.096	Z:	0.399	yaw:	33.088	yaw rate:	-4.253	Roll:	4.063	Pitch:	0.867	Yaw:	47.050	Thrust:	11.531
Time:	2.630	Roll Set Point:	-0.234	Pitch Set Point:	-0.122	Yaw Set Point:	-0.577	X_WP:	0.000	Y_WP:	0.000	Y_WP:	0.500	X:	0.099	Y:	0.096	Z:	0.399	yaw:	33.074	yaw rate:	-1.389	Roll:	4.133	Pitch:	0.833	Yaw:	47.511	Thrust:	12.038
Time:	2.646	Roll Set Point:	-0.234	Pitch Set Point:	-0.122	Yaw Set Point:	-0.577	X_WP:	0.000	Y_WP:	0.000	Y_WP:	0.500	X:	0.099	Y:	0.096	Z:	0.399	yaw:	33.074	yaw rate:	-1.389	Roll:	4.103	Pitch:	0.789	Yaw:	47.740	Thrust:	12.036
Time:	2.661	Roll Set Point:	-0.234	Pitch Set Point:	-0.122	Yaw Set Point:	-0.577	X_WP:	0.000	Y_WP:	0.000	Y_WP:	0.500	X:	0.099	Y:	0.096	Z:	0.399	yaw:	33.086	yaw rate:	1.113	Roll:	4.086	Pitch:	0.743	Yaw:	47.945	Thrust:	12.285
Time:	2.677	Roll Set Point:	-0.234	Pitch Set Point:	-0.122	Yaw Set Point:	-0.577	X_WP:	0.000	Y_WP:	0.000	Y_WP:	0.500	X:	0.099	Y:	0.096	Z:	0.399	yaw:	33.086	yaw rate:	1.113	Roll:	4.113	Pitch:	0.790	Yaw:	47.759	Thrust:	12.431
Time:	2.693	Roll Set Point:	-0.234	Pitch Set Point:	-0.122	Yaw Set Point:	-0.577	X_WP:	0.000	Y_WP:	0.000	Y_WP:	0.500	X:	0.099	Y:	0.096	Z:	0.399	yaw:	33.082	yaw rate:	-7.156	Roll:	4.116	Pitch:	0.859	Yaw:	47.687	Thrust:	12.589
Time:	2.708	Roll Set Point:	-0.234	Pitch Set Point:	-0.122	Yaw Set Point:	-0.577	X_WP:	0.000	Y_WP:	0.000	Y_WP:	0.500	X:	0.099	Y:	0.096	Z:	0.399	yaw:	33.031	yaw rate:	-5.045	Roll:	4.114	Pitch:	0.817	Yaw:	46.843	Thrust:	12.662
Time:	2.724	Roll Set Point:	-0.234	Pitch Set Point:	-0.122	Yaw Set Point:	-0.577	X_WP:	0.000	Y_WP:	0.000	Y_WP:	0.500	X:	0.099	Y:	0.096	Z:	0.399	yaw:	33.031	yaw rate:	-5.045	Roll:	4.129	Pitch:	0.795	Yaw:	47.683	Thrust:	13.001
Time:	2.740	Roll Set Point:	-0.234	Pitch Set Point:	-0.122	Yaw Set Point:	-0.578	X_WP:	0.000	Y_WP:	0.000	Y_WP:	0.500	X:	0.099	Y:	0.096	Z:	0.399	yaw:	33.094	yaw rate:	-1.143	Roll:	4.172	Pitch:	0.706	Yaw:	48.827	Thrust:	13.253
Time:	2.755	Roll Set Point:	-0.234	Pitch Set Point:	-0.122	Yaw Set Point:	-0.578	X_WP:	0.000	Y_WP:	0.000	Y_WP:	0.500	X:	0.099	Y:	0.096	Z:	0.399	yaw:	33.089	yaw rate:	-0.549	Roll:	4.131	Pitch:	0.827	Yaw:	47.671	Thrust:	13.464
Time:	2.771	Roll Set Point:	-0.234	Pitch Set Point:	-0.121	Yaw Set Point:	-0.578	X_WP:	0.000	Y_WP:	0.000	Y_WP:	0.500	X:	0.099	Y:	0.096	Z:	0.399	yaw:	33.140	yaw rate:	5.102	Roll:	4.120	Pitch:	0.634	Yaw:	48.688	Thrust:	13.087
Time:	2.786	Roll Set Point:	-0.234	Pitch Set Point:	-0.122	Yaw Set Point:	-0.578	X_WP:	0.000	Y_WP:	0.000	Y_WP:	0.500	X:	0.099	Y:	0.096	Z:	0.398	yaw:	33.092	yaw rate:	-4.813	Roll:	4.159	Pitch:	0.978	Yaw:	46.961	Thrust:	14.293
Time:	2.802	Roll Set Point:	-0.234	Pitch Set Point:	-0.122	Yaw Set Point:	-0.579	X_WP:	0.000	Y_WP:	0.000	Y_WP:	0.500	X:	0.099	Y:	0.096	Z:	0.399	yaw:	33.162	yaw rate:	7.031	Roll:	4.145	Pitch:	0.670	Yaw:	49.043	Thrust:	13.589
Time:	2.818	Roll Set Point:	-0.234	Pitch Set Point:	-0.122	Yaw Set Point:	-0.579	X_WP:	0.000	Y_WP:	0.000	Y_WP:	0.500	X:	0.099	Y:	0.096	Z:	0.399	yaw:	33.162	yaw rate:	7.031	Roll:	4.161	Pitch:	0.797	Yaw:	47.865	Thrust:	14.135
Time:	2.833	Roll Set Point:	-0.234	Pitch Set Point:	-0.122	Yaw Set Point:	-0.577	X_WP:	0.000	Y_WP:	0.000	Y_WP:	0.500	X:	0.099	Y:	0.096	Z:	0.399	yaw:	33.058	yaw rate:	-10.352	Roll:	4.158	Pitch:	0.961	Yaw:	45.987	Thrust:	14.446
Time:	2.849	Roll Set Point:	-0.234	Pitch Set Point:	-0.122	Yaw Set Point:	-0.577	X_WP:	0.000	Y_WP:	0.000	Y_WP:	0.500	X:	0.099	Y:	0.096	Z:	0.399	yaw:	33.069	yaw rate:	-2.995	Roll:	4.180	Pitch:	0.740	Yaw:	47.910	Thrust:	14.611
Time:	2.865	Roll Set Point:	-0.234	Pitch Set Point:	-0.122	Yaw Set Point:	-0.577	X_WP:	0.000	Y_WP:	0.000	Y_WP:	0.500	X:	0.099	Y:	0.096	Z:	0.399	yaw:	33.063	yaw rate:	-0.539	Roll:	4.164	Pitch:	0.855	Yaw:	47.638	Thrust:	14.693
Time:	2.880	Roll Set Point:	-0.234	Pitch Set Point:	-0.122	Yaw Set Point:	-0.579	X_WP:	0.000	Y_WP:	0.000	Y_WP:	0.500	X:	0.099	Y:	0.096	Z:	0.399	yaw:	33.186	yaw rate:	12.290	Roll:	4.221	Pitch:	0.600	Yaw:	49.958	Thrust:	14.737
Time:	2.896	Roll Set Point:	-0.234	Pitch Set Point:	-0.122	Yaw Set Point:	-0.578	X_WP:	0.000	Y_WP:	0.000	Y_WP:	0.500	X:	0.099	Y:	0.096	Z:	0.399	yaw:	33.106	yaw rate:	-8.041	Roll:	4.177	Pitch:	0.971	Yaw:	46.441	Thrust:	15.366
Time:	2.911	Roll Set Point:	-0.234	Pitch Set Point:	-0.122	Yaw Set Point:	-0.578	X_WP:	0.000	Y_WP:	0.000	Y_WP:	0.500	X:	0.099	Y:	0.096	Z:	0.399	yaw:	33.106	yaw rate:	-8.041	Roll:	4.193	Pitch:	0.806	Yaw:	47.787	Thrust:	15.283
Time:	2.927	Roll Set Point:	-0.234	Pitch Set Point:	-0.121	Yaw Set Point:	-0.579	X_WP:	0.000	Y_WP:	0.000	Y_WP:	0.500	X:	0.099	Y:	0.096	Z:	0.399	yaw:	33.184	yaw rate:	7.838	Roll:	4.180	Pitch:	0.593	Yaw:	49.210	Thrust:	15.153
Time:	2.943	Roll Set Point:	-0.234	Pitch Set Point:	-0.122	Yaw Set Point:	-0.577	X_WP:	0.000	Y_WP:	0.000	Y_WP:	0.500	X:	0.099	Y:	0.096	Z:	0.399	yaw:	33.077	yaw rate:	-10.678	Roll:	4.196	Pitch:	1.039	Yaw:	45.960	Thrust:	15.886
Time:	2.958	Roll Set Point:	-0.234	Pitch Set Point:	-0.122	Yaw Set Point:	-0.577	X_WP:	0.000	Y_WP:	0.000	Y_WP:	0.500	X:	0.099	Y:	0.096	Z:	0.399	yaw:	33.079	yaw rate:	0.138	Roll:	4.245	Pitch:	0.771	Yaw:	47.772	Thrust:	15.787
Time:	2.974	Roll Set Point:	-0.234	Pitch Set Point:	-0.122	Yaw Set Point:	-0.578	X_WP:	0.000	Y_WP:	0.000	Y_WP:	0.500	X:	0.099	Y:	0.096	Z:	0.399	yaw:	33.102	yaw rate:	2.176	Roll:	4.221	Pitch:	0.761	Yaw:	48.170	Thrust:	16.204
Time:	2.990	Roll Set Point:	-0.234	Pitch Set Point:	-0.122	Yaw Set Point:	-0.577	X_WP:	0.000	Y_WP:	0.000	Y_WP:	0.500	X:	0.099	Y:	0.096	Z:	0.399	yaw:	33.060	yaw rate:	-4.191	Roll:	4.189	Pitch:	0.896	Yaw:	47.021	Thrust:	16.156
Time:	3.005	Roll Set Point:	-0.234	Pitch Set Point:	-0.122	Yaw Set Point:	-0.578	X_WP:	0.000	Y_WP:	0.000	Y_WP:	0.500	X:	0.099	Y:	0.096	Z:	0.399	yaw:	33.108	yaw rate:	4.781	Roll:	4.249	Pitch:	0.772	Yaw:	48.591	Thrust:	16.508
Time:	3.021	Roll Set Point:	-0.234	Pitch Set Point:	-0.122	Yaw Set Point:	-0.578	X_WP:	0.000	Y_WP:	0.000	Y_WP:	0.500	X:	0.099	Y:	0.096	Z:	0.399	yaw:	33.108	yaw rate:	4.781	Roll:	4.230	Pitch:	0.813	Yaw:	47.790	Thrust:	16.615
Time:	3.036	Roll Set Point:	-0.234	Pitch Set Point:	-0.122	Yaw Set Point:	-0.577	X_WP:	0.000	Y_WP:	0.000	Y_WP:	0.500	X:	0.099	Y:	0.096	Z:	0.399	yaw:	33.057	yaw rate:	0.364	Roll:	4.211	Pitch:	0.823	Yaw:	46.867	Thrust:	16.623
Time:	3.052	Roll Set Point:	-0.234	Pitch Set Point:	-0.122	Yaw Set Point:	-0.578	X_WP:	0.000	Y_WP:	0.000	Y_WP:	0.500	X:	0.099	Y:	0.096	Z:	0.399	yaw:	33.107	yaw rate:	4.998	Roll:	4.268	Pitch:	0.764	Yaw:	48.628	Thrust:	17.115
Time:	3.068	Roll Set Point:	-0.234	Pitch Set Point:	-0.122	Yaw Set Point:	-0.578	X_WP:	0.000	Y_WP:	0.000	Y_WP:	0.500	X:	0.099	Y:	0.096	Z:	0.399	yaw:	33.107	yaw rate:	4.998	Roll:	4.245	Pitch:	0.814	Yaw:	47.786	Thrust:	17.161
Time:	3.083	Roll Set Point:	-0.234	Pitch Set Point:	-0.122	Yaw Set Point:	-0.578	X_WP:	0.000	Y_WP:	0.000	Y_WP:	0.500	X:	0.099	Y:	0.096	Z:	0.399	yaw:	33.123	yaw rate:	1.614	Roll:	4.251	Pitch:	0.802	Yaw:	48.082	Thrust:	17.506
Time:	3.099	Roll Set Point:	-0.234	Pitch Set Point:	-0.122	Yaw Set Point:	-0.577	X_WP:	0.000	Y_WP:	0.000	Y_WP:	0.500	X:	0.099	Y:	0.096	Z:	0.399	yaw:	33.076	yaw rate:	-4.739	Roll:	4.240	Pitch:	0.839	Yaw:	46.955	Thrust:	17.396
Time:	3.115	Roll Set Point:	-0.235	Pitch Set Point:	-0.122	Yaw Set Point:	-0.577	X_WP:	0.000	Y_WP:	0.000	Y_WP:	0.500	X:	0.099	Y:	0.096	Z:	0.399	yaw:	33.049	yaw rate:	-4.025	Roll:	4.269	Pitch:	0.866	Yaw:	47.250	Thrust:	17.693
Time:	3.130	Roll Set Point:	-0.234	Pitch Set Point:	-0.122	Yaw Set Point:	-0.579	X_WP:	0.000	Y_WP:	0.000	Y_WP:	0.500	X:	0.099	Y:	0.096	Z:	0.399	yaw:	33.159	yaw rate:	10.994	Roll:	4.253	Pitch:	0.706	Yaw:	49.702	Thrust:	17.895
Time:	3.146	Roll Set Point:	-0.234	Pitch Set Point:	-0.122	Yaw Set Point:	-0.578	X_WP:	0.000	Y_WP:	0.000	Y_WP:	0.500	X:	0.099	Y:	0.096	Z:	0.399	yaw:	33.103	yaw rate:	-5.602	Roll:	4.295	Pitch:	0.829	Yaw:	46.839	Thrust:	18.267
Time:	3.161	Roll Set Point:	-0.234	Pitch Set Point:	-0.122	Yaw Set Point:	-0.576	X_WP:	0.000	Y_WP:	0.000	Y_WP:	0.500	X:	0.099	Y:	0.096	Z:	0.399	yaw:	33.013	yaw rate:	-8.923	Roll:	4.226	Pitch:	1.027	Yaw:	46.170	Thrust:	18.324
Time:	3.177	Roll Set Point:	-0.234	Pitch Set Point:	-0.122	Yaw Set Point:	-0.578	X_WP:	0.000	Y_WP:	0.000	Y_WP:	0.500	X:	0.099	Y:	0.096	Z:	0.399	yaw:	33.091	yaw rate:	7.796	Roll:	4.334	Pitch:	0.675	Yaw:	49.073	Thrust:	18.511
Time:	3.193	Roll Set Point:	-0.234	Pitch Set Point:	-0.122	Yaw Set Point:	-0.578	X_WP:	0.000	Y_WP:	0.000	Y_WP:	0.500	X:	0.099	Y:	0.096	Z:	0.399	yaw:	33.091	yaw rate:	7.796	Roll:	4.288	Pitch:	0.823	Yaw:	47.767	Thrust:	18.709
Time:	3.208	Roll Set Point:	-0.234	Pitch Set Point:	-0.122	Yaw Set Point:	-0.577	X_WP:	0.000	Y_WP:	0.000	Y_WP:	0.500	X:	0.099	Y:	0.096	Z:	0.399	yaw:	33.071	yaw rate:	2.425	Roll:	4.260	Pitch:	0.839	Yaw:	47.394	Thrust:	18.856
Time:	3.224	Roll Set Point:	-0.234	Pitch Set Point:	-0.122	Yaw Set Point:	-0.577	X_WP:	0.000	Y_WP:	0.000	Y_WP:	0.500	X:	0.099	Y:	0.096	Z:	0.399	yaw:	33.071	yaw rate:	2.425	Roll:	4.298	Pitch:	0.825	Yaw:	47.738	Thrust:	19.085
Time:	3.240	Roll Set Point:	-0.235	Pitch Set Point:	-0.122	Yaw Set Point:	-0.577	X_WP:	0.000	Y_WP:	0.000	Y_WP:	0.500	X:	0.099	Y:	0.096	Z:	0.399	yaw:	33.056	yaw rate:	-4.064	Roll:	4.324	Pitch:	0.819	Yaw:	47.463	Thrust:	19.234
Time:	3.255	Roll Set Point:	-0.235	Pitch Set Point:	-0.121	Yaw Set Point:	-0.578	X_WP:	0.000	Y_WP:	0.000	Y_WP:	0.500	X:	0.099	Y:	0.096	Z:	0.399	yaw:	33.111	yaw rate:	5.470	Roll:	4.351	Pitch:	0.717	Yaw:	48.710	Thrust:	19.514
Time:	3.271	Roll Set Point:	-0.235	Pitch Set Point:	-0.121	Yaw Set Point:	-0.578	X_WP:	0.000	Y_WP:	0.000	Y_WP:	0.500	X:	0.099	Y:	0.096	Z:	0.399	yaw:	33.111	yaw rate:	5.470	Roll:	4.316	Pitch:	0.825	Yaw:	47.794	Thrust:	19.656
Time:	3.286	Roll Set Point:	-0.234	Pitch Set Point:	-0.122	Yaw Set Point:	-0.577	X_WP:	0.000	Y_WP:	0.000	Y_WP:	0.500	X:	0.099	Y:	0.096	Z:	0.399	yaw:	33.082	yaw rate:	-2.811	Roll:	4.251	Pitch:	0.981	Yaw:	47.284	Thrust:	19.936
Time:	3.302	Roll Set Point:	-0.234	Pitch Set Point:	-0.122	Yaw Set Point:	-0.577	X_WP:	0.000	Y_WP:	0.000	Y_WP:	0.500	X:	0.099	Y:	0.096	Z:	0.399	yaw:	33.056	yaw rate:	-3.912	Roll:	4.349	Pitch:	0.853	Yaw:	47.280	Thrust:	19.955
Time:	3.318	Roll Set Point:	-0.234	Pitch Set Point:	-0.122	Yaw Set Point:	-0.577	X_WP:	0.000	Y_WP:	0.000	Y_WP:	0.500	X:	0.099	Y:	0.096	Z:	0.399	yaw:	33.056	yaw rate:	-3.912	Roll:	4.329	Pitch:	0.833	Yaw:	47.714	Thrust:	20.197
Time:	3.333	Roll Set Point:	-0.234	Pitch Set Point:	-0.122	Yaw Set Point:	-0.579	X_WP:	0.000	Y_WP:	0.000	Y_WP:	0.500	X:	0.099	Y:	0.096	Z:	0.399	yaw:	33.156	yaw rate:	5.499	Roll:	4.323	Pitch:	0.666	Yaw:	49.523	Thrust:	20.343
Time:	3.349	Roll Set Point:	-0.234	Pitch Set Point:	-0.122	Yaw Set Point:	-0.578	X_WP:	0.000	Y_WP:	0.000	Y_WP:	0.500	X:	0.099	Y:	0.096	Z:	0.399	yaw:	33.089	yaw rate:	-6.637	Roll:	4.356	Pitch:	0.963	Yaw:	46.646	Thrust:	20.780
Time:	3.365	Roll Set Point:	-0.234	Pitch Set Point:	-0.122	Yaw Set Point:	-0.577	X_WP:	0.000	Y_WP:	0.000	Y_WP:	0.500	X:	0.099	Y:	0.096	Z:	0.399	yaw:	33.055	yaw rate:	-3.440	Roll:	4.338	Pitch:	0.913	Yaw:	47.144	Thrust:	20.780
Time:	3.380	Roll Set Point:	-0.234	Pitch Set Point:	-0.122	Yaw Set Point:	-0.578	X_WP:	0.000	Y_WP:	0.000	Y_WP:	0.500	X:	0.099	Y:	0.096	Z:	0.399	yaw:	33.103	yaw rate:	4.837	Roll:	4.388	Pitch:	0.713	Yaw:	48.592	Thrust:	21.006
Time:	3.394	Roll Set Point:	-0.234	Pitch Set Point:	-0.122	Yaw Set Point:	-0.578	X_WP:	0.000	Y_WP:	0.000	Y_WP:	0.500	X:	0.099	Y:	0.096	Z:	0.399	yaw:	33.097	yaw rate:	-0.606	Roll:	4.289	Pitch:	0.816	Yaw:	47.523	Thrust:	19.731
Time:	3.412	Roll Set Point:	-0.234	Pitch Set Point:	-0.122	Yaw Set Point:	-0.578	X_WP:	0.000	Y_WP:	0.000	Y_WP:	0.500	X:	0.099	Y:	0.096	Z:	0.399	yaw:	33.097	yaw rate:	-0.606	Roll:	4.421	Pitch:	0.848	Yaw:	47.983	Thrust:	23.474
Time:	3.428	Roll Set Point:	-0.234	Pitch Set Point:	-0.122	Yaw Set Point:	-0.577	X_WP:	0.000	Y_WP:	0.000	Y_WP:	0.500	X:	0.099	Y:	0.096	Z:	0.399	yaw:	33.080	yaw rate:	-1.676	Roll:	4.373	Pitch:	0.865	Yaw:	47.470	Thrust:	21.557
Time:	3.443	Roll Set Point:	-0.234	Pitch Set Point:	-0.122	Yaw Set Point:	-0.577	X_WP:	0.000	Y_WP:	0.000	Y_WP:	0.500	X:	0.099	Y:	0.096	Z:	0.399	yaw:	33.077	yaw rate:	-0.347	Roll:	4.388	Pitch:	0.884	Yaw:	47.686	Thrust:	21.738
Time:	3.459	Roll Set Point:	-0.234	Pitch Set Point:	-0.122	Yaw Set Point:	-0.578	X_WP:	0.000	Y_WP:	0.000	Y_WP:	0.500	X:	0.099	Y:	0.096	Z:	0.399	yaw:	33.119	yaw rate:	4.184	Roll:	4.352	Pitch:	0.738	Yaw:	48.508	Thrust:	22.017
Time:	3.475	Roll Set Point:	-0.234	Pitch Set Point:	-0.122	Yaw Set Point:	-0.578	X_WP:	0.000	Y_WP:	0.000	Y_WP:	0.500	X:	0.099	Y:	0.096	Z:	0.399	yaw:	33.119	yaw rate:	4.184	Roll:	4.382	Pitch:	0.840	Yaw:	47.802	Thrust:	22.095
Time:	3.490	Roll Set Point:	-0.234	Pitch Set Point:	-0.122	Yaw Set Point:	-0.577	X_WP:	0.000	Y_WP:	0.000	Y_WP:	0.500	X:	0.099	Y:	0.096	Z:	0.399	yaw:	33.073	yaw rate:	-8.164	Roll:	4.394	Pitch:	0.972	Yaw:	46.969	Thrust:	22.246
Time:	3.506	Roll Set Point:	-0.234	Pitch Set Point:	-0.122	Yaw Set Point:	-0.577	X_WP:	0.000	Y_WP:	0.000	Y_WP:	0.500	X:	0.099	Y:	0.096	Z:	0.399	yaw:	33.059	yaw rate:	-1.328	Roll:	4.376	Pitch:	0.894	Yaw:	47.500	Thrust:	22.566
Time:	3.521	Roll Set Point:	-0.234	Pitch Set Point:	-0.122	Yaw Set Point:	-0.578	X_WP:	0.000	Y_WP:	0.000	Y_WP:	0.500	X:	0.099	Y:	0.096	Z:	0.399	yaw:	33.089	yaw rate:	3.007	Roll:	4.421	Pitch:	0.689	Yaw:	48.268	Thrust:	22.675
Time:	3.537	Roll Set Point:	-0.234	Pitch Set Point:	-0.122	Yaw Set Point:	-0.578	X_WP:	0.000	Y_WP:	0.000	Y_WP:	0.500	X:	0.099	Y:	0.096	Z:	0.399	yaw:	33.089	yaw rate:	3.007	Roll:	4.404	Pitch:	0.845	Yaw:	47.764	Thrust:	22.890
Time:	3.553	Roll Set Point:	-0.234	Pitch Set Point:	-0.122	Yaw Set Point:	-0.577	X_WP:	0.000	Y_WP:	0.000	Y_WP:	0.500	X:	0.099	Y:	0.096	Z:	0.399	yaw:	33.055	yaw rate:	-9.169	Roll:	4.395	Pitch:	0.952	Yaw:	47.140	Thrust:	23.073
Time:	3.568	Roll Set Point:	-0.234	Pitch Set Point:	-0.122	Yaw Set Point:	-0.578	X_WP:	0.000	Y_WP:	0.000	Y_WP:	0.500	X:	0.099	Y:	0.096	Z:	0.398	yaw:	33.145	yaw rate:	8.968	Roll:	4.455	Pitch:	0.707	Yaw:	49.344	Thrust:	23.436
Time:	3.584	Roll Set Point:	-0.234	Pitch Set Point:	-0.122	Yaw Set Point:	-0.578	X_WP:	0.000	Y_WP:	0.000	Y_WP:	0.500	X:	0.099	Y:	0.096	Z:	0.398	yaw:	33.145	yaw rate:	8.968	Roll:	4.421	Pitch:	0.847	Yaw:	47.842	Thrust:	23.466
Time:	3.600	Roll Set Point:	-0.234	Pitch Set Point:	-0.122	Yaw Set Point:	-0.579	X_WP:	0.000	Y_WP:	0.000	Y_WP:	0.500	X:	0.099	Y:	0.096	Z:	0.399	yaw:	33.181	yaw rate:	8.327	Roll:	4.374	Pitch:	0.779	Yaw:	48.496	Thrust:	23.386
Time:	3.615	Roll Set Point:	-0.234	Pitch Set Point:	-0.122	Yaw Set Point:	-0.579	X_WP:	0.000	Y_WP:	0.000	Y_WP:	0.500	X:	0.099	Y:	0.096	Z:	0.399	yaw:	33.181	yaw rate:	8.327	Roll:	4.430	Pitch:	0.847	Yaw:	47.892	Thrust:	23.838
Time:	3.631	Roll Set Point:	-0.234	Pitch Set Point:	-0.122	Yaw Set Point:	-0.577	X_WP:	0.000	Y_WP:	0.000	Y_WP:	0.500	X:	0.099	Y:	0.096	Z:	0.399	yaw:	33.074	yaw rate:	-10.639	Roll:	4.422	Pitch:	1.043	Yaw:	45.960	Thrust:	24.209
Time:	3.647	Roll Set Point:	-0.234	Pitch Set Point:	-0.122	Yaw Set Point:	-0.577	X_WP:	0.000	Y_WP:	0.000	Y_WP:	0.500	X:	0.099	Y:	0.096	Z:	0.399	yaw:	33.077	yaw rate:	0.178	Roll:	4.480	Pitch:	0.837	Yaw:	47.797	Thrust:	24.152
Time:	3.662	Roll Set Point:	-0.234	Pitch Set Point:	-0.122	Yaw Set Point:	-0.578	X_WP:	0.000	Y_WP:	0.000	Y_WP:	0.500	X:	0.099	Y:	0.096	Z:	0.399	yaw:	33.103	yaw rate:	2.525	Roll:	4.446	Pitch:	0.792	Yaw:	48.206	Thrust:	24.488
Time:	3.678	Roll Set Point:	-0.234	Pitch Set Point:	-0.122	Yaw Set Point:	-0.579	X_WP:	0.000	Y_WP:	0.000	Y_WP:	0.500	X:	0.099	Y:	0.096	Z:	0.399	yaw:	33.164	yaw rate:	6.137	Roll:	4.435	Pitch:	0.758	Yaw:	48.897	Thrust:	24.453
Time:	3.693	Roll Set Point:	-0.234	Pitch Set Point:	-0.122	Yaw Set Point:	-0.577	X_WP:	0.000	Y_WP:	0.000	Y_WP:	0.500	X:	0.099	Y:	0.096	Z:	0.399	yaw:	33.050	yaw rate:	-11.375	Roll:	4.452	Pitch:	1.019	Yaw:	45.807	Thrust:	24.725
Time:	3.709	Roll Set Point:	-0.234	Pitch Set Point:	-0.122	Yaw Set Point:	-0.577	X_WP:	0.000	Y_WP:	0.000	Y_WP:	0.500	X:	0.099	Y:	0.096	Z:	0.399	yaw:	33.079	yaw rate:	2.855	Roll:	4.498	Pitch:	0.854	Yaw:	48.227	Thrust:	25.080
Time:	3.725	Roll Set Point:	-0.234	Pitch Set Point:	-0.122	Yaw Set Point:	-0.577	X_WP:	0.000	Y_WP:	0.000	Y_WP:	0.500	X:	0.099	Y:	0.096	Z:	0.399	yaw:	33.079	yaw rate:	0.004	Roll:	4.452	Pitch:	0.882	Yaw:	47.750	Thrust:	25.232
Time:	3.740	Roll Set Point:	-0.234	Pitch Set Point:	-0.122	Yaw Set Point:	-0.579	X_WP:	0.000	Y_WP:	0.000	Y_WP:	0.500	X:	0.099	Y:	0.096	Z:	0.399	yaw:	33.168	yaw rate:	8.879	Roll:	4.446	Pitch:	0.683	Yaw:	49.361	Thrust:	25.291
Time:	3.756	Roll Set Point:	-0.234	Pitch Set Point:	-0.122	Yaw Set Point:	-0.577	X_WP:	0.000	Y_WP:	0.000	Y_WP:	0.500	X:	0.099	Y:	0.096	Z:	0.399	yaw:	33.088	yaw rate:	-7.947	Roll:	4.474	Pitch:	1.001	Yaw:	46.431	Thrust:	25.625
Time:	3.772	Roll Set Point:	-0.234	Pitch Set Point:	-0.122	Yaw Set Point:	-0.577	X_WP:	0.000	Y_WP:	0.000	Y_WP:	0.500	X:	0.099	Y:	0.096	Z:	0.399	yaw:	33.066	yaw rate:	-2.245	Roll:	4.483	Pitch:	0.898	Yaw:	47.359	Thrust:	25.723
Time:	3.787	Roll Set Point:	-0.234	Pitch Set Point:	-0.122	Yaw Set Point:	-0.577	X_WP:	0.000	Y_WP:	0.000	Y_WP:	0.500	X:	0.099	Y:	0.096	Z:	0.399	yaw:	33.066	yaw rate:	-2.245	Roll:	4.487	Pitch:	0.863	Yaw:	47.728	Thrust:	25.894
Time:	3.803	Roll Set Point:	-0.234	Pitch Set Point:	-0.122	Yaw Set Point:	-0.578	X_WP:	0.000	Y_WP:	0.000	Y_WP:	0.500	X:	0.099	Y:	0.096	Z:	0.398	yaw:	33.119	yaw rate:	5.363	Roll:	4.539	Pitch:	0.753	Yaw:	48.706	Thrust:	26.393
Time:	3.818	Roll Set Point:	-0.234	Pitch Set Point:	-0.122	Yaw Set Point:	-0.577	X_WP:	0.000	Y_WP:	0.000	Y_WP:	0.500	X:	0.099	Y:	0.096	Z:	0.399	yaw:	33.082	yaw rate:	-3.738	Roll:	4.465	Pitch:	0.924	Yaw:	47.128	Thrust:	26.246
Time:	3.834	Roll Set Point:	-0.234	Pitch Set Point:	-0.122	Yaw Set Point:	-0.577	X_WP:	0.000	Y_WP:	0.000	Y_WP:	0.500	X:	0.099	Y:	0.096	Z:	0.399	yaw:	33.082	yaw rate:	-3.738	Roll:	4.503	Pitch:	0.865	Yaw:	47.751	Thrust:	26.463
Time:	3.850	Roll Set Point:	-0.234	Pitch Set Point:	-0.122	Yaw Set Point:	-0.577	X_WP:	0.000	Y_WP:	0.000	Y_WP:	0.500	X:	0.099	Y:	0.096	Z:	0.399	yaw:	33.063	yaw rate:	-1.967	Roll:	4.522	Pitch:	0.891	Yaw:	47.413	Thrust:	26.523
Time:	3.865	Roll Set Point:	-0.234	Pitch Set Point:	-0.122	Yaw Set Point:	-0.577	X_WP:	0.000	Y_WP:	0.000	Y_WP:	0.500	X:	0.099	Y:	0.096	Z:	0.399	yaw:	33.067	yaw rate:	0.426	Roll:	4.492	Pitch:	0.849	Yaw:	47.802	Thrust:	26.929
Time:	3.881	Roll Set Point:	-0.234	Pitch Set Point:	-0.121	Yaw Set Point:	-0.579	X_WP:	0.000	Y_WP:	0.000	Y_WP:	0.500	X:	0.099	Y:	0.096	Z:	0.399	yaw:	33.172	yaw rate:	10.438	Roll:	4.507	Pitch:	0.712	Yaw:	49.627	Thrust:	27.079
Time:	3.897	Roll Set Point:	-0.234	Pitch Set Point:	-0.121	Yaw Set Point:	-0.579	X_WP:	0.000	Y_WP:	0.000	Y_WP:	0.500	X:	0.099	Y:	0.096	Z:	0.399	yaw:	33.172	yaw rate:	10.438	Roll:	4.509	Pitch:	0.865	Yaw:	47.879	Thrust:	27.263
Time:	3.912	Roll Set Point:	-0.234	Pitch Set Point:	-0.122	Yaw Set Point:	-0.578	X_WP:	0.000	Y_WP:	0.000	Y_WP:	0.500	X:	0.099	Y:	0.096	Z:	0.399	yaw:	33.104	yaw rate:	-0.872	Roll:	4.560	Pitch:	1.001	Yaw:	46.649	Thrust:	27.598
Time:	3.928	Roll Set Point:	-0.234	Pitch Set Point:	-0.122	Yaw Set Point:	-0.578	X_WP:	0.000	Y_WP:	0.000	Y_WP:	0.500	X:	0.099	Y:	0.096	Z:	0.399	yaw:	33.104	yaw rate:	-0.872	Roll:	4.510	Pitch:	0.871	Yaw:	47.785	Thrust:	27.647
Time:	3.943	Roll Set Point:	-0.234	Pitch Set Point:	-0.122	Yaw Set Point:	-0.578	X_WP:	0.000	Y_WP:	0.000	Y_WP:	0.500	X:	0.099	Y:	0.096	Z:	0.399	yaw:	33.099	yaw rate:	-0.498	Roll:	4.463	Pitch:	0.888	Yaw:	47.694	Thrust:	27.813
Time:	3.959	Roll Set Point:	-0.234	Pitch Set Point:	-0.122	Yaw Set Point:	-0.577	X_WP:	0.000	Y_WP:	0.000	Y_WP:	0.500	X:	0.099	Y:	0.096	Z:	0.399	yaw:	33.064	yaw rate:	-10.406	Roll:	4.517	Pitch:	0.864	Yaw:	47.151	Thrust:	27.937
Time:	3.975	Roll Set Point:	-0.234	Pitch Set Point:	-0.122	Yaw Set Point:	-0.577	X_WP:	0.000	Y_WP:	0.000	Y_WP:	0.500	X:	0.099	Y:	0.096	Z:	0.399	yaw:	33.076	yaw rate:	1.206	Roll:	4.530	Pitch:	0.903	Yaw:	47.948	Thrust:	28.307
Time:	3.990	Roll Set Point:	-0.234	Pitch Set Point:	-0.122	Yaw Set Point:	-0.577	X_WP:	0.000	Y_WP:	0.000	Y_WP:	0.500	X:	0.099	Y:	0.096	Z:	0.399	yaw:	33.076	yaw rate:	1.206	Roll:	4.509	Pitch:	0.876	Yaw:	47.745	Thrust:	28.400
Time:	4.006	Roll Set Point:	-0.234	Pitch Set Point:	-0.121	Yaw Set Point:	-0.579	X_WP:	0.000	Y_WP:	0.000	Y_WP:	0.500	X:	0.099	Y:	0.096	Z:	0.399	yaw:	33.158	yaw rate:	8.355	Roll:	4.449	Pitch:	0.719	Yaw:	49.219	Thrust:	28.338
Time:	4.022	Roll Set Point:	-0.234	Pitch Set Point:	-0.121	Yaw Set Point:	-0.579	X_WP:	0.000	Y_WP:	0.000	Y_WP:	0.500	X:	0.099	Y:	0.096	Z:	0.399	yaw:	33.165	yaw rate:	0.702	Roll:	4.504	Pitch:	0.848	Yaw:	47.989	Thrust:	28.805
Time:	4.037	Roll Set Point:	-0.234	Pitch Set Point:	-0.121	Yaw Set Point:	-0.579	X_WP:	0.000	Y_WP:	0.000	Y_WP:	0.500	X:	0.099	Y:	0.096	Z:	0.399	yaw:	33.165	yaw rate:	0.702	Roll:	4.507	Pitch:	0.874	Yaw:	47.866	Thrust:	28.930
Time:	4.053	Roll Set Point:	-0.234	Pitch Set Point:	-0.122	Yaw Set Point:	-0.578	X_WP:	0.000	Y_WP:	0.000	Y_WP:	0.500	X:	0.099	Y:	0.096	Z:	0.399	yaw:	33.103	yaw rate:	-6.132	Roll:	4.587	Pitch:	1.052	Yaw:	46.764	Thrust:	29.533
Time:	4.068	Roll Set Point:	-0.234	Pitch Set Point:	-0.122	Yaw Set Point:	-0.578	X_WP:	0.000	Y_WP:	0.000	Y_WP:	0.500	X:	0.099	Y:	0.096	Z:	0.399	yaw:	33.103	yaw rate:	-6.132	Roll:	4.509	Pitch:	0.880	Yaw:	47.780	Thrust:	29.313
Time:	4.084	Roll Set Point:	-0.234	Pitch Set Point:	-0.121	Yaw Set Point:	-0.579	X_WP:	0.000	Y_WP:	0.000	Y_WP:	0.500	X:	0.099	Y:	0.096	Z:	0.399	yaw:	33.160	yaw rate:	0.545	Roll:	4.461	Pitch:	0.690	Yaw:	48.819	Thrust:	29.287
Time:	4.100	Roll Set Point:	-0.234	Pitch Set Point:	-0.121	Yaw Set Point:	-0.579	X_WP:	0.000	Y_WP:	0.000	Y_WP:	0.500	X:	0.099	Y:	0.096	Z:	0.399	yaw:	33.160	yaw rate:	0.545	Roll:	4.507	Pitch:	0.877	Yaw:	47.860	Thrust:	29.685
Time:	4.115	Roll Set Point:	-0.234	Pitch Set Point:	-0.122	Yaw Set Point:	-0.577	X_WP:	0.000	Y_WP:	0.000	Y_WP:	0.500	X:	0.099	Y:	0.096	Z:	0.399	yaw:	33.079	yaw rate:	-1.276	Roll:	4.547	Pitch:	1.117	Yaw:	46.385	Thrust:	30.104
Time:	4.131	Roll Set Point:	-0.234	Pitch Set Point:	-0.122	Yaw Set Point:	-0.577	X_WP:	0.000	Y_WP:	0.000	Y_WP:	0.500	X:	0.099	Y:	0.096	Z:	0.399	yaw:	33.079	yaw rate:	-1.276	Roll:	4.510	Pitch:	0.886	Yaw:	47.749	Thrust:	30.118
Time:	4.147	Roll Set Point:	-0.234	Pitch Set Point:	-0.122	Yaw Set Point:	-0.579	X_WP:	0.000	Y_WP:	0.000	Y_WP:	0.500	X:	0.099	Y:	0.096	Z:	0.399	yaw:	33.153	yaw rate:	7.370	Roll:	4.464	Pitch:	0.731	Yaw:	49.087	Thrust:	30.280
Time:	4.162	Roll Set Point:	-0.234	Pitch Set Point:	-0.122	Yaw Set Point:	-0.577	X_WP:	0.000	Y_WP:	0.000	Y_WP:	0.500	X:	0.099	Y:	0.096	Z:	0.399	yaw:	33.081	yaw rate:	-8.078	Roll:	4.541	Pitch:	0.980	Yaw:	46.546	Thrust:	30.581
Time:	4.178	Roll Set Point:	-0.234	Pitch Set Point:	-0.122	Yaw Set Point:	-0.577	X_WP:	0.000	Y_WP:	0.000	Y_WP:	0.500	X:	0.099	Y:	0.096	Z:	0.399	yaw:	33.081	yaw rate:	-8.078	Roll:	4.509	Pitch:	0.887	Yaw:	47.752	Thrust:	30.692
Time:	4.193	Roll Set Point:	-0.234	Pitch Set Point:	-0.122	Yaw Set Point:	-0.578	X_WP:	0.000	Y_WP:	0.000	Y_WP:	0.500	X:	0.099	Y:	0.096	Z:	0.399	yaw:	33.106	yaw rate:	7.027	Roll:	4.506	Pitch:	0.836	Yaw:	48.211	Thrust:	30.907
Time:	4.209	Roll Set Point:	-0.234	Pitch Set Point:	-0.122	Yaw Set Point:	-0.578	X_WP:	0.000	Y_WP:	0.000	Y_WP:	0.500	X:	0.099	Y:	0.096	Z:	0.399	yaw:	33.132	yaw rate:	2.621	Roll:	4.456	Pitch:	0.853	Yaw:	48.263	Thrust:	30.855
Time:	4.225	Roll Set Point:	-0.234	Pitch Set Point:	-0.122	Yaw Set Point:	-0.577	X_WP:	0.000	Y_WP:	0.000	Y_WP:	0.500	X:	0.099	Y:	0.096	Z:	0.399	yaw:	33.076	yaw rate:	-5.627	Roll:	4.545	Pitch:	0.998	Yaw:	46.802	Thrust:	31.505
Time:	4.240	Roll Set Point:	-0.234	Pitch Set Point:	-0.122	Yaw Set Point:	-0.577	X_WP:	0.000	Y_WP:	0.000	Y_WP:	0.500	X:	0.099	Y:	0.096	Z:	0.399	yaw:	33.076	yaw rate:	-5.627	Roll:	4.509	Pitch:	0.892	Yaw:	47.745	Thrust:	31.452
Time:	4.256	Roll Set Point:	-0.234	Pitch Set Point:	-0.121	Yaw Set Point:	-0.579	X_WP:	0.000	Y_WP:	0.000	Y_WP:	0.500	X:	0.099	Y:	0.095	Z:	0.399	yaw:	33.174	yaw rate:	8.059	Roll:	4.293	Pitch:	0.570	Yaw:	49.527	Thrust:	30.982
Time:	4.272	Roll Set Point:	-0.234	Pitch Set Point:	-0.122	Yaw Set Point:	-0.579	X_WP:	0.000	Y_WP:	0.000	Y_WP:	0.500	X:	0.099	Y:	0.096	Z:	0.399	yaw:	33.151	yaw rate:	-2.276	Roll:	4.700	Pitch:	1.094	Yaw:	47.469	Thrust:	32.292
Time:	4.287	Roll Set Point:	-0.234	Pitch Set Point:	-0.122	Yaw Set Point:	-0.578	X_WP:	0.000	Y_WP:	0.000	Y_WP:	0.500	X:	0.099	Y:	0.096	Z:	0.399	yaw:	33.113	yaw rate:	-3.809	Roll:	4.512	Pitch:	0.970	Yaw:	47.159	Thrust:	31.802
Time:	4.303	Roll Set Point:	-0.234	Pitch Set Point:	-0.122	Yaw Set Point:	-0.578	X_WP:	0.000	Y_WP:	0.000	Y_WP:	0.500	X:	0.099	Y:	0.096	Z:	0.399	yaw:	33.113	yaw rate:	-3.809	Roll:	4.508	Pitch:	0.895	Yaw:	47.797	Thrust:	32.206
Time:	4.318	Roll Set Point:	-0.234	Pitch Set Point:	-0.122	Yaw Set Point:	-0.579	X_WP:	0.000	Y_WP:	0.000	Y_WP:	0.500	X:	0.099	Y:	0.096	Z:	0.399	yaw:	33.163	yaw rate:	8.747	Roll:	4.507	Pitch:	0.817	Yaw:	48.696	Thrust:	32.666
Time:	4.334	Roll Set Point:	-0.234	Pitch Set Point:	-0.121	Yaw Set Point:	-0.579	X_WP:	0.000	Y_WP:	0.000	Y_WP:	0.500	X:	0.099	Y:	0.096	Z:	0.399	yaw:	33.172	yaw rate:	0.953	Roll:	4.503	Pitch:	0.826	Yaw:	48.040	Thrust:	32.422
Time:	4.350	Roll Set Point:	-0.234	Pitch Set Point:	-0.122	Yaw Set Point:	-0.578	X_WP:	0.000	Y_WP:	0.000	Y_WP:	0.500	X:	0.099	Y:	0.096	Z:	0.399	yaw:	33.095	yaw rate:	-7.670	Roll:	4.535	Pitch:	1.116	Yaw:	46.487	Thrust:	32.991
Time:	4.365	Roll Set Point:	-0.234	Pitch Set Point:	-0.122	Yaw Set Point:	-0.577	X_WP:	0.000	Y_WP:	0.000	Y_WP:	0.500	X:	0.099	Y:	0.096	Z:	0.399	yaw:	33.085	yaw rate:	-1.050	Roll:	4.521	Pitch:	0.867	Yaw:	47.582	Thrust:	32.914
Time:	4.381	Roll Set Point:	-0.234	Pitch Set Point:	-0.122	Yaw Set Point:	-0.578	X_WP:	0.000	Y_WP:	0.000	Y_WP:	0.500	X:	0.099	Y:	0.096	Z:	0.399	yaw:	33.100	yaw rate:	1.509	Roll:	4.505	Pitch:	0.863	Yaw:	48.032	Thrust:	33.298
Time:	4.396	Roll Set Point:	-0.234	Pitch Set Point:	-0.122	Yaw Set Point:	-0.579	X_WP:	0.000	Y_WP:	0.000	Y_WP:	0.500	X:	0.099	Y:	0.096	Z:	0.399	yaw:	33.167	yaw rate:	6.677	Roll:	4.464	Pitch:	0.790	Yaw:	48.979	Thrust:	32.402
Time:	4.412	Roll Set Point:	-0.234	Pitch Set Point:	-0.122	Yaw Set Point:	-0.579	X_WP:	0.000	Y_WP:	0.000	Y_WP:	0.500	X:	0.099	Y:	0.096	Z:	0.399	yaw:	33.167	yaw rate:	6.677	Roll:	4.510	Pitch:	0.900	Yaw:	47.875	Thrust:	33.596
Time:	4.427	Roll Set Point:	-0.234	Pitch Set Point:	-0.122	Yaw Set Point:	-0.577	X_WP:	0.000	Y_WP:	0.000	Y_WP:	0.500	X:	0.099	Y:	0.096	Z:	0.399	yaw:	33.073	yaw rate:	-0.846	Roll:	4.526	Pitch:	1.075	Yaw:	46.166	Thrust:	33.713
Time:	4.443	Roll Set Point:	-0.234	Pitch Set Point:	-0.122	Yaw Set Point:	-0.577	X_WP:	0.000	Y_WP:	0.000	Y_WP:	0.500	X:	0.099	Y:	0.096	Z:	0.399	yaw:	33.073	yaw rate:	-0.846	Roll:	4.509	Pitch:	0.906	Yaw:	47.742	Thrust:	33.925
Time:	4.459	Roll Set Point:	-0.234	Pitch Set Point:	-0.122	Yaw Set Point:	-0.577	X_WP:	0.000	Y_WP:	0.000	Y_WP:	0.500	X:	0.099	Y:	0.096	Z:	0.399	yaw:	33.078	yaw rate:	-3.060	Roll:	4.519	Pitch:	0.876	Yaw:	47.830	Thrust:	34.155
Time:	4.474	Roll Set Point:	-0.234	Pitch Set Point:	-0.122	Yaw Set Point:	-0.577	X_WP:	0.000	Y_WP:	0.000	Y_WP:	0.500	X:	0.099	Y:	0.096	Z:	0.399	yaw:	33.084	yaw rate:	0.553	Roll:	4.527	Pitch:	0.904	Yaw:	47.852	Thrust:	34.359
Time:	4.490	Roll Set Point:	-0.234	Pitch Set Point:	-0.122	Yaw Set Point:	-0.577	X_WP:	0.000	Y_WP:	0.000	Y_WP:	0.500	X:	0.099	Y:	0.096	Z:	0.399	yaw:	33.088	yaw rate:	0.437	Roll:	4.523	Pitch:	0.867	Yaw:	47.835	Thrust:	34.531
Time:	4.506	Roll Set Point:	-0.234	Pitch Set Point:	-0.122	Yaw Set Point:	-0.578	X_WP:	0.000	Y_WP:	0.000	Y_WP:	0.500	X:	0.099	Y:	0.096	Z:	0.399	yaw:	33.099	yaw rate:	1.160	Roll:	4.495	Pitch:	0.876	Yaw:	47.972	Thrust:	34.714
Time:	4.521	Roll Set Point:	-0.234	Pitch Set Point:	-0.122	Yaw Set Point:	-0.578	X_WP:	0.000	Y_WP:	0.000	Y_WP:	0.500	X:	0.099	Y:	0.096	Z:	0.399	yaw:	33.135	yaw rate:	3.532	Roll:	4.459	Pitch:	0.889	Yaw:	48.418	Thrust:	34.597
Time:	4.537	Roll Set Point:	-0.234	Pitch Set Point:	-0.122	Yaw Set Point:	-0.578	X_WP:	0.000	Y_WP:	0.000	Y_WP:	0.500	X:	0.099	Y:	0.096	Z:	0.399	yaw:	33.135	yaw rate:	3.532	Roll:	4.508	Pitch:	0.909	Yaw:	47.827	Thrust:	35.049
Time:	4.552	Roll Set Point:	-0.234	Pitch Set Point:	-0.122	Yaw Set Point:	-0.579	X_WP:	0.000	Y_WP:	0.000	Y_WP:	0.500	X:	0.099	Y:	0.096	Z:	0.399	yaw:	33.176	yaw rate:	7.930	Roll:	4.559	Pitch:	0.878	Yaw:	48.575	Thrust:	35.338
Time:	4.568	Roll Set Point:	-0.234	Pitch Set Point:	-0.122	Yaw Set Point:	-0.579	X_WP:	0.000	Y_WP:	0.000	Y_WP:	0.500	X:	0.099	Y:	0.096	Z:	0.399	yaw:	33.158	yaw rate:	-1.828	Roll:	4.494	Pitch:	0.888	Yaw:	47.549	Thrust:	35.391
Time:	4.584	Roll Set Point:	-0.234	Pitch Set Point:	-0.122	Yaw Set Point:	-0.579	X_WP:	0.000	Y_WP:	0.000	Y_WP:	0.500	X:	0.099	Y:	0.096	Z:	0.399	yaw:	33.169	yaw rate:	1.088	Roll:	4.509	Pitch:	0.920	Yaw:	48.060	Thrust:	35.812
Time:	4.599	Roll Set Point:	-0.234	Pitch Set Point:	-0.122	Yaw Set Point:	-0.579	X_WP:	0.000	Y_WP:	0.000	Y_WP:	0.500	X:	0.099	Y:	0.096	Z:	0.399	yaw:	33.169	yaw rate:	1.088	Roll:	4.508	Pitch:	0.911	Yaw:	47.871	Thrust:	35.762
Time:	4.615	Roll Set Point:	-0.234	Pitch Set Point:	-0.122	Yaw Set Point:	-0.578	X_WP:	0.000	Y_WP:	0.000	Y_WP:	0.500	X:	0.099	Y:	0.096	Z:	0.399	yaw:	33.103	yaw rate:	-6.575	Roll:	4.530	Pitch:	0.968	Yaw:	46.686	Thrust:	36.059
Time:	4.631	Roll Set Point:	-0.235	Pitch Set Point:	-0.122	Yaw Set Point:	-0.578	X_WP:	0.000	Y_WP:	0.000	Y_WP:	0.500	X:	0.099	Y:	0.096	Z:	0.399	yaw:	33.098	yaw rate:	0.917	Roll:	4.538	Pitch:	0.919	Yaw:	47.701	Thrust:	36.260
Time:	4.646	Roll Set Point:	-0.234	Pitch Set Point:	-0.122	Yaw Set Point:	-0.578	X_WP:	0.000	Y_WP:	0.000	Y_WP:	0.500	X:	0.099	Y:	0.096	Z:	0.399	yaw:	33.099	yaw rate:	0.083	Roll:	4.478	Pitch:	0.926	Yaw:	47.788	Thrust:	36.453
Time:	4.662	Roll Set Point:	-0.234	Pitch Set Point:	-0.122	Yaw Set Point:	-0.578	X_WP:	0.000	Y_WP:	0.000	Y_WP:	0.500	X:	0.099	Y:	0.096	Z:	0.399	yaw:	33.099	yaw rate:	0.083	Roll:	4.510	Pitch:	0.918	Yaw:	47.778	Thrust:	36.590
Time:	4.677	Roll Set Point:	-0.235	Pitch Set Point:	-0.122	Yaw Set Point:	-0.578	X_WP:	0.000	Y_WP:	0.000	Y_WP:	0.500	X:	0.099	Y:	0.096	Z:	0.399	yaw:	33.116	yaw rate:	1.715	Roll:	4.543	Pitch:	0.864	Yaw:	48.089	Thrust:	36.569
Time:	4.693	Roll Set Point:	-0.235	Pitch Set Point:	-0.122	Yaw Set Point:	-0.578	X_WP:	0.000	Y_WP:	0.000	Y_WP:	0.500	X:	0.099	Y:	0.096	Z:	0.399	yaw:	33.116	yaw rate:	1.715	Roll:	4.512	Pitch:	0.919	Yaw:	47.805	Thrust:	37.036
Time:	4.709	Roll Set Point:	-0.234	Pitch Set Point:	-0.122	Yaw Set Point:	-0.579	X_WP:	0.000	Y_WP:	0.000	Y_WP:	0.500	X:	0.099	Y:	0.096	Z:	0.399	yaw:	33.148	yaw rate:	9.295	Roll:	4.459	Pitch:	0.895	Yaw:	48.384	Thrust:	37.002
Time:	4.724	Roll Set Point:	-0.234	Pitch Set Point:	-0.122	Yaw Set Point:	-0.579	X_WP:	0.000	Y_WP:	0.000	Y_WP:	0.500	X:	0.099	Y:	0.096	Z:	0.399	yaw:	33.148	yaw rate:	9.295	Roll:	4.508	Pitch:	0.919	Yaw:	47.844	Thrust:	37.290
Time:	4.740	Roll Set Point:	-0.234	Pitch Set Point:	-0.122	Yaw Set Point:	-0.577	X_WP:	0.000	Y_WP:	0.000	Y_WP:	0.500	X:	0.099	Y:	0.096	Z:	0.399	yaw:	33.069	yaw rate:	-7.975	Roll:	4.514	Pitch:	1.016	Yaw:	46.403	Thrust:	37.684
Time:	4.756	Roll Set Point:	-0.234	Pitch Set Point:	-0.122	Yaw Set Point:	-0.577	X_WP:	0.000	Y_WP:	0.000	Y_WP:	0.500	X:	0.099	Y:	0.096	Z:	0.399	yaw:	33.061	yaw rate:	-0.717	Roll:	4.499	Pitch:	1.047	Yaw:	47.602	Thrust:	37.800
Time:	4.771	Roll Set Point:	-0.234	Pitch Set Point:	-0.122	Yaw Set Point:	-0.577	X_WP:	0.000	Y_WP:	0.000	Y_WP:	0.500	X:	0.099	Y:	0.096	Z:	0.399	yaw:	33.061	yaw rate:	-0.717	Roll:	4.509	Pitch:	0.928	Yaw:	47.725	Thrust:	37.913
Time:	4.787	Roll Set Point:	-0.234	Pitch Set Point:	-0.122	Yaw Set Point:	-0.578	X_WP:	0.000	Y_WP:	0.000	Y_WP:	0.500	X:	0.099	Y:	0.096	Z:	0.399	yaw:	33.092	yaw rate:	-6.325	Roll:	4.511	Pitch:	0.875	Yaw:	48.284	Thrust:	38.258
Time:	4.802	Roll Set Point:	-0.234	Pitch Set Point:	-0.122	Yaw Set Point:	-0.578	X_WP:	0.000	Y_WP:	0.000	Y_WP:	0.500	X:	0.099	Y:	0.096	Z:	0.399	yaw:	33.091	yaw rate:	-0.101	Roll:	4.519	Pitch:	0.911	Yaw:	47.748	Thrust:	38.137
Time:	4.818	Roll Set Point:	-0.234	Pitch Set Point:	-0.122	Yaw Set Point:	-0.578	X_WP:	0.000	Y_WP:	0.000	Y_WP:	0.500	X:	0.099	Y:	0.096	Z:	0.399	yaw:	33.091	yaw rate:	-0.101	Roll:	4.509	Pitch:	0.930	Yaw:	47.767	Thrust:	38.493
Time:	4.834	Roll Set Point:	-0.234	Pitch Set Point:	-0.122	Yaw Set Point:	-0.579	X_WP:	0.000	Y_WP:	0.000	Y_WP:	0.500	X:	0.099	Y:	0.096	Z:	0.399	yaw:	33.155	yaw rate:	7.721	Roll:	4.458	Pitch:	0.801	Yaw:	48.928	Thrust:	38.636
Time:	4.849	Roll Set Point:	-0.234	Pitch Set Point:	-0.122	Yaw Set Point:	-0.579	X_WP:	0.000	Y_WP:	0.000	Y_WP:	0.500	X:	0.099	Y:	0.096	Z:	0.399	yaw:	33.155	yaw rate:	7.721	Roll:	4.508	Pitch:	0.928	Yaw:	47.856	Thrust:	38.867
Time:	4.865	Roll Set Point:	-0.234	Pitch Set Point:	-0.122	Yaw Set Point:	-0.577	X_WP:	0.000	Y_WP:	0.000	Y_WP:	0.500	X:	0.099	Y:	0.096	Z:	0.399	yaw:	33.061	yaw rate:	-0.528	Roll:	4.539	Pitch:	1.096	Yaw:	46.162	Thrust:	39.207
Time:	4.881	Roll Set Point:	-0.234	Pitch Set Point:	-0.122	Yaw Set Point:	-0.577	X_WP:	0.000	Y_WP:	0.000	Y_WP:	0.500	X:	0.099	Y:	0.096	Z:	0.399	yaw:	33.061	yaw rate:	-0.528	Roll:	4.508	Pitch:	0.934	Yaw:	47.722	Thrust:	39.193
Time:	4.896	Roll Set Point:	-0.234	Pitch Set Point:	-0.122	Yaw Set Point:	-0.578	X_WP:	0.000	Y_WP:	0.000	Y_WP:	0.500	X:	0.099	Y:	0.096	Z:	0.399	yaw:	33.106	yaw rate:	4.445	Roll:	4.550	Pitch:	0.833	Yaw:	48.532	Thrust:	39.343
Time:	4.912	Roll Set Point:	-0.234	Pitch Set Point:	-0.121	Yaw Set Point:	-0.578	X_WP:	0.000	Y_WP:	0.000	Y_WP:	0.500	X:	0.099	Y:	0.096	Z:	0.399	yaw:	33.137	yaw rate:	3.114	Roll:	4.473	Pitch:	0.849	Yaw:	48.352	Thrust:	39.398
Time:	4.927	Roll Set Point:	-0.234	Pitch Set Point:	-0.122	Yaw Set Point:	-0.579	X_WP:	0.000	Y_WP:	0.000	Y_WP:	0.500	X:	0.099	Y:	0.096	Z:	0.399	yaw:	33.162	yaw rate:	-0.987	Roll:	4.539	Pitch:	0.918	Yaw:	48.293	Thrust:	39.889
Time:	4.943	Roll Set Point:	-0.235	Pitch Set Point:	-0.122	Yaw Set Point:	-0.578	X_WP:	0.000	Y_WP:	0.000	Y_WP:	0.500	X:	0.099	Y:	0.096	Z:	0.399	yaw:	33.096	yaw rate:	-6.641	Roll:	4.549	Pitch:	1.032	Yaw:	46.661	Thrust:	40.215
Time:	4.959	Roll Set Point:	-0.234	Pitch Set Point:	-0.122	Yaw Set Point:	-0.577	X_WP:	0.000	Y_WP:	0.000	Y_WP:	0.500	X:	0.099	Y:	0.096	Z:	0.399	yaw:	33.071	yaw rate:	-2.494	Roll:	4.445	Pitch:	0.987	Yaw:	47.321	Thrust:	40.242
Time:	4.974	Roll Set Point:	-0.234	Pitch Set Point:	-0.122	Yaw Set Point:	-0.577	X_WP:	0.000	Y_WP:	0.000	Y_WP:	0.500	X:	0.099	Y:	0.096	Z:	0.399	yaw:	33.071	yaw rate:	-2.494	Roll:	4.509	Pitch:	0.939	Yaw:	47.739	Thrust:	40.393
Time:	4.990	Roll Set Point:	-0.234	Pitch Set Point:	-0.122	Yaw Set Point:	-0.577	X_WP:	0.000	Y_WP:	0.000	Y_WP:	0.500	X:	0.099	Y:	0.096	Z:	0.399	yaw:	33.049	yaw rate:	-11.626	Roll:	4.509	Pitch:	0.988	Yaw:	47.329	Thrust:	40.355
Time:	5.006	Roll Set Point:	-0.234	Pitch Set Point:	-0.122	Yaw Set Point:	-0.579	X_WP:	0.000	Y_WP:	0.000	Y_WP:	0.500	X:	0.099	Y:	0.096	Z:	0.399	yaw:	33.155	yaw rate:	10.683	Roll:	4.524	Pitch:	0.807	Yaw:	49.646	Thrust:	40.684
Time:	5.021	Roll Set Point:	-0.234	Pitch Set Point:	-0.122	Yaw Set Point:	-0.577	X_WP:	0.000	Y_WP:	0.000	Y_WP:	0.500	X:	0.099	Y:	0.096	Z:	0.399	yaw:	33.082	yaw rate:	-7.286	Roll:	4.517	Pitch:	1.059	Yaw:	46.533	Thrust:	41.338
Time:	5.037	Roll Set Point:	-0.234	Pitch Set Point:	-0.121	Yaw Set Point:	-0.579	X_WP:	0.000	Y_WP:	0.000	Y_WP:	0.500	X:	0.099	Y:	0.096	Z:	0.399	yaw:	33.160	yaw rate:	7.716	Roll:	4.500	Pitch:	0.742	Yaw:	49.155	Thrust:	40.868
Time:	5.052	Roll Set Point:	-0.234	Pitch Set Point:	-0.122	Yaw Set Point:	-0.577	X_WP:	0.000	Y_WP:	0.000	Y_WP:	0.500	X:	0.099	Y:	0.096	Z:	0.399	yaw:	33.087	yaw rate:	-7.241	Roll:	4.520	Pitch:	1.080	Yaw:	46.548	Thrust:	41.418
Time:	5.068	Roll Set Point:	-0.234	Pitch Set Point:	-0.122	Yaw Set Point:	-0.578	X_WP:	0.000	Y_WP:	0.000	Y_WP:	0.500	X:	0.099	Y:	0.096	Z:	0.399	yaw:	33.101	yaw rate:	1.340	Roll:	4.508	Pitch:	0.950	Yaw:	48.007	Thrust:	41.699
Time:	5.084	Roll Set Point:	-0.234	Pitch Set Point:	-0.122	Yaw Set Point:	-0.578	X_WP:	0.000	Y_WP:	0.000	Y_WP:	0.500	X:	0.099	Y:	0.096	Z:	0.399	yaw:	33.101	yaw rate:	1.340	Roll:	4.510	Pitch:	0.946	Yaw:	47.780	Thrust:	41.727
Time:	5.099	Roll Set Point:	-0.234	Pitch Set Point:	-0.122	Yaw Set Point:	-0.577	X_WP:	0.000	Y_WP:	0.000	Y_WP:	0.500	X:	0.099	Y:	0.096	Z:	0.399	yaw:	33.075	yaw rate:	-2.598	Roll:	4.484	Pitch:	1.004	Yaw:	47.304	Thrust:	41.827
Time:	5.115	Roll Set Point:	-0.234	Pitch Set Point:	-0.122	Yaw Set Point:	-0.577	X_WP:	0.000	Y_WP:	0.000	Y_WP:	0.500	X:	0.099	Y:	0.096	Z:	0.398	yaw:	33.083	yaw rate:	0.869	Roll:	4.505	Pitch:	0.938	Yaw:	47.901	Thrust:	42.265
Time:	5.131	Roll Set Point:	-0.234	Pitch Set Point:	-0.122	Yaw Set Point:	-0.578	X_WP:	0.000	Y_WP:	0.000	Y_WP:	0.500	X:	0.099	Y:	0.096	Z:	0.399	yaw:	33.143	yaw rate:	7.033	Roll:	4.499	Pitch:	0.873	Yaw:	48.845	Thrust:	41.862
Time:	5.146	Roll Set Point:	-0.234	Pitch Set Point:	-0.122	Yaw Set Point:	-0.578	X_WP:	0.000	Y_WP:	0.000	Y_WP:	0.500	X:	0.099	Y:	0.096	Z:	0.399	yaw:	33.141	yaw rate:	-0.277	Roll:	4.508	Pitch:	0.936	Yaw:	47.789	Thrust:	42.601
Time:	5.162	Roll Set Point:	-0.234	Pitch Set Point:	-0.121	Yaw Set Point:	-0.579	X_WP:	0.000	Y_WP:	0.000	Y_WP:	0.500	X:	0.099	Y:	0.096	Z:	0.399	yaw:	33.168	yaw rate:	2.751	Roll:	4.538	Pitch:	0.856	Yaw:	48.337	Thrust:	42.712
Time:	5.177	Roll Set Point:	-0.234	Pitch Set Point:	-0.121	Yaw Set Point:	-0.579	X_WP:	0.000	Y_WP:	0.000	Y_WP:	0.500	X:	0.099	Y:	0.096	Z:	0.399	yaw:	33.168	yaw rate:	2.751	Roll:	4.508	Pitch:	0.948	Yaw:	47.871	Thrust:	42.784
Time:	5.193	Roll Set Point:	-0.234	Pitch Set Point:	-0.122	Yaw Set Point:	-0.578	X_WP:	0.000	Y_WP:	0.000	Y_WP:	0.500	X:	0.099	Y:	0.096	Z:	0.399	yaw:	33.137	yaw rate:	5.405	Roll:	4.496	Pitch:	1.023	Yaw:	47.304	Thrust:	42.908
Time:	5.209	Roll Set Point:	-0.234	Pitch Set Point:	-0.122	Yaw Set Point:	-0.577	X_WP:	0.000	Y_WP:	0.000	Y_WP:	0.500	X:	0.099	Y:	0.096	Z:	0.399	yaw:	33.077	yaw rate:	-5.940	Roll:	4.511	Pitch:	1.029	Yaw:	46.757	Thrust:	43.563
Time:	5.224	Roll Set Point:	-0.234	Pitch Set Point:	-0.122	Yaw Set Point:	-0.577	X_WP:	0.000	Y_WP:	0.000	Y_WP:	0.500	X:	0.099	Y:	0.096	Z:	0.399	yaw:	33.077	yaw rate:	-5.940	Roll:	4.508	Pitch:	0.955	Yaw:	47.745	Thrust:	43.368
Time:	5.240	Roll Set Point:	-0.234	Pitch Set Point:	-0.122	Yaw Set Point:	-0.577	X_WP:	0.000	Y_WP:	0.000	Y_WP:	0.500	X:	0.099	Y:	0.096	Z:	0.399	yaw:	33.083	yaw rate:	0.602	Roll:	4.519	Pitch:	0.943	Yaw:	47.846	Thrust:	43.757
Time:	5.256	Roll Set Point:	-0.234	Pitch Set Point:	-0.122	Yaw Set Point:	-0.577	X_WP:	0.000	Y_WP:	0.000	Y_WP:	0.500	X:	0.099	Y:	0.096	Z:	0.399	yaw:	33.066	yaw rate:	-1.690	Roll:	4.497	Pitch:	1.016	Yaw:	47.444	Thrust:	43.646
Time:	5.271	Roll Set Point:	-0.234	Pitch Set Point:	-0.122	Yaw Set Point:	-0.577	X_WP:	0.000	Y_WP:	0.000	Y_WP:	0.500	X:	0.099	Y:	0.096	Z:	0.399	yaw:	33.059	yaw rate:	-0.629	Roll:	4.510	Pitch:	0.983	Yaw:	47.620	Thrust:	44.053
Time:	5.287	Roll Set Point:	-0.234	Pitch Set Point:	-0.122	Yaw Set Point:	-0.577	X_WP:	0.000	Y_WP:	0.000	Y_WP:	0.500	X:	0.099	Y:	0.096	Z:	0.399	yaw:	33.070	yaw rate:	1.062	Roll:	4.528	Pitch:	0.910	Yaw:	47.913	Thrust:	44.256
Time:	5.303	Roll Set Point:	-0.234	Pitch Set Point:	-0.121	Yaw Set Point:	-0.579	X_WP:	0.000	Y_WP:	0.000	Y_WP:	0.500	X:	0.099	Y:	0.096	Z:	0.399	yaw:	33.149	yaw rate:	7.933	Roll:	4.493	Pitch:	0.814	Yaw:	49.177	Thrust:	44.227
Time:	5.318	Roll Set Point:	-0.234	Pitch Set Point:	-0.121	Yaw Set Point:	-0.579	X_WP:	0.000	Y_WP:	0.000	Y_WP:	0.500	X:	0.099	Y:	0.096	Z:	0.399	yaw:	33.149	yaw rate:	7.933	Roll:	4.508	Pitch:	0.957	Yaw:	47.844	Thrust:	44.474
Time:	5.334	Roll Set Point:	-0.234	Pitch Set Point:	-0.122	Yaw Set Point:	-0.577	X_WP:	0.000	Y_WP:	0.000	Y_WP:	0.500	X:	0.099	Y:	0.096	Z:	0.399	yaw:	33.077	yaw rate:	1.416	Roll:	4.499	Pitch:	1.137	Yaw:	46.544	Thrust:	44.949
Time:	5.349	Roll Set Point:	-0.234	Pitch Set Point:	-0.122	Yaw Set Point:	-0.577	X_WP:	0.000	Y_WP:	0.000	Y_WP:	0.500	X:	0.099	Y:	0.096	Z:	0.399	yaw:	33.077	yaw rate:	1.416	Roll:	4.510	Pitch:	0.965	Yaw:	47.751	Thrust:	45.034
Time:	5.365	Roll Set Point:	-0.234	Pitch Set Point:	-0.122	Yaw Set Point:	-0.577	X_WP:	0.000	Y_WP:	0.000	Y_WP:	0.500	X:	0.099	Y:	0.096	Z:	0.399	yaw:	33.083	yaw rate:	0.579	Roll:	4.530	Pitch:	0.925	Yaw:	47.852	Thrust:	45.229
Time:	5.381	Roll Set Point:	-0.234	Pitch Set Point:	-0.122	Yaw Set Point:	-0.577	X_WP:	0.000	Y_WP:	0.000	Y_WP:	0.500	X:	0.099	Y:	0.096	Z:	0.399	yaw:	33.083	yaw rate:	0.579	Roll:	4.508	Pitch:	0.965	Yaw:	47.753	Thrust:	45.264
Time:	5.395	Roll Set Point:	-0.234	Pitch Set Point:	-0.122	Yaw Set Point:	-0.577	X_WP:	0.000	Y_WP:	0.000	Y_WP:	0.500	X:	0.099	Y:	0.096	Z:	0.399	yaw:	33.044	yaw rate:	-2.023	Roll:	4.468	Pitch:	0.972	Yaw:	46.937	Thrust:	43.294
Time:	5.413	Roll Set Point:	-0.234	Pitch Set Point:	-0.122	Yaw Set Point:	-0.577	X_WP:	0.000	Y_WP:	0.000	Y_WP:	0.500	X:	0.099	Y:	0.096	Z:	0.399	yaw:	33.044	yaw rate:	-2.023	Roll:	4.584	Pitch:	0.996	Yaw:	47.902	Thrust:	50.887
Time:	5.429	Roll Set Point:	-0.234	Pitch Set Point:	-0.122	Yaw Set Point:	-0.577	X_WP:	0.000	Y_WP:	0.000	Y_WP:	0.500	X:	0.099	Y:	0.096	Z:	0.399	yaw:	33.043	yaw rate:	-2.446	Roll:	4.507	Pitch:	0.987	Yaw:	47.683	Thrust:	46.121
Time:	5.444	Roll Set Point:	-0.234	Pitch Set Point:	-0.122	Yaw Set Point:	-0.577	X_WP:	0.000	Y_WP:	0.000	Y_WP:	0.500	X:	0.099	Y:	0.096	Z:	0.399	yaw:	33.043	yaw rate:	-2.446	Roll:	4.509	Pitch:	0.970	Yaw:	47.700	Thrust:	46.094
Time:	5.460	Roll Set Point:	-0.234	Pitch Set Point:	-0.122	Yaw Set Point:	-0.578	X_WP:	0.000	Y_WP:	0.000	Y_WP:	0.500	X:	0.099	Y:	0.096	Z:	0.399	yaw:	33.127	yaw rate:	6.089	Roll:	4.503	Pitch:	0.906	Yaw:	49.217	Thrust:	46.071
Time:	5.476	Roll Set Point:	-0.234	Pitch Set Point:	-0.122	Yaw Set Point:	-0.577	X_WP:	0.000	Y_WP:	0.000	Y_WP:	0.500	X:	0.099	Y:	0.096	Z:	0.399	yaw:	33.087	yaw rate:	-3.987	Roll:	4.536	Pitch:	1.000	Yaw:	47.092	Thrust:	46.682
Time:	5.491	Roll Set Point:	-0.234	Pitch Set Point:	-0.121	Yaw Set Point:	-0.579	X_WP:	0.000	Y_WP:	0.000	Y_WP:	0.500	X:	0.099	Y:	0.096	Z:	0.399	yaw:	33.159	yaw rate:	7.258	Roll:	4.490	Pitch:	0.784	Yaw:	49.078	Thrust:	46.470
Time:	5.507	Roll Set Point:	-0.234	Pitch Set Point:	-0.122	Yaw Set Point:	-0.577	X_WP:	0.000	Y_WP:	0.000	Y_WP:	0.500	X:	0.099	Y:	0.096	Z:	0.399	yaw:	33.086	yaw rate:	-7.385	Roll:	4.542	Pitch:	1.170	Yaw:	46.522	Thrust:	47.155
Time:	5.523	Roll Set Point:	-0.234	Pitch Set Point:	-0.122	Yaw Set Point:	-0.578	X_WP:	0.000	Y_WP:	0.000	Y_WP:	0.500	X:	0.099	Y:	0.096	Z:	0.399	yaw:	33.123	yaw rate:	3.698	Roll:	4.471	Pitch:	0.909	Yaw:	48.430	Thrust:	46.572
Time:	5.538	Roll Set Point:	-0.234	Pitch Set Point:	-0.122	Yaw Set Point:	-0.577	X_WP:	0.000	Y_WP:	0.000	Y_WP:	0.500	X:	0.099	Y:	0.096	Z:	0.399	yaw:	33.069	yaw rate:	-5.319	Roll:	4.517	Pitch:	1.069	Yaw:	46.845	Thrust:	47.641
Time:	5.554	Roll Set Point:	-0.234	Pitch Set Point:	-0.121	Yaw Set Point:	-0.579	X_WP:	0.000	Y_WP:	0.000	Y_WP:	0.500	X:	0.099	Y:	0.096	Z:	0.399	yaw:	33.183	yaw rate:	11.314	Roll:	4.529	Pitch:	0.714	Yaw:	49.790	Thrust:	47.193
Time:	5.569	Roll Set Point:	-0.234	Pitch Set Point:	-0.121	Yaw Set Point:	-0.578	X_WP:	0.000	Y_WP:	0.000	Y_WP:	0.500	X:	0.099	Y:	0.096	Z:	0.399	yaw:	33.145	yaw rate:	-3.757	Roll:	4.480	Pitch:	1.057	Yaw:	47.212	Thrust:	47.606
Time:	5.585	Roll Set Point:	-0.234	Pitch Set Point:	-0.122	Yaw Set Point:	-0.577	X_WP:	0.000	Y_WP:	0.000	Y_WP:	0.500	X:	0.099	Y:	0.096	Z:	0.399	yaw:	33.047	yaw rate:	-9.803	Roll:	4.515	Pitch:	1.147	Yaw:	46.062	Thrust:	47.882
Time:	5.601	Roll Set Point:	-0.234	Pitch Set Point:	-0.122	Yaw Set Point:	-0.577	X_WP:	0.000	Y_WP:	0.000	Y_WP:	0.500	X:	0.099	Y:	0.096	Z:	0.399	yaw:	33.047	yaw rate:	-9.803	Roll:	4.509	Pitch:	0.980	Yaw:	47.704	Thrust:	47.983
Time:	5.616	Roll Set Point:	-0.234	Pitch Set Point:	-0.121	Yaw Set Point:	-0.579	X_WP:	0.000	Y_WP:	0.000	Y_WP:	0.500	X:	0.099	Y:	0.096	Z:	0.399	yaw:	33.187	yaw rate:	4.867	Roll:	4.519	Pitch:	0.694	Yaw:	50.238	Thrust:	48.215
Time:	5.632	Roll Set Point:	-0.234	Pitch Set Point:	-0.121	Yaw Set Point:	-0.579	X_WP:	0.000	Y_WP:	0.000	Y_WP:	0.500	X:	0.099	Y:	0.096	Z:	0.399	yaw:	33.187	yaw rate:	4.867	Roll:	4.510	Pitch:	0.976	Yaw:	47.903	Thrust:	48.467
Time:	5.648	Roll Set Point:	-0.234	Pitch Set Point:	-0.121	Yaw Set Point:	-0.579	X_WP:	0.000	Y_WP:	0.000	Y_WP:	0.500	X:	0.099	Y:	0.096	Z:	0.399	yaw:	33.161	yaw rate:	-2.519	Roll:	4.501	Pitch:	1.020	Yaw:	47.438	Thrust:	48.454
Time:	5.663	Roll Set Point:	-0.234	Pitch Set Point:	-0.122	Yaw Set Point:	-0.577	X_WP:	0.000	Y_WP:	0.000	Y_WP:	0.500	X:	0.099	Y:	0.096	Z:	0.399	yaw:	33.067	yaw rate:	-0.650	Roll:	4.539	Pitch:	1.240	Yaw:	46.161	Thrust:	48.849
Time:	5.679	Roll Set Point:	-0.234	Pitch Set Point:	-0.122	Yaw Set Point:	-0.578	X_WP:	0.000	Y_WP:	0.000	Y_WP:	0.500	X:	0.099	Y:	0.096	Z:	0.399	yaw:	33.094	yaw rate:	2.648	Roll:	4.498	Pitch:	0.908	Yaw:	48.214	Thrust:	49.120
Time:	5.694	Roll Set Point:	-0.234	Pitch Set Point:	-0.121	Yaw Set Point:	-0.579	X_WP:	0.000	Y_WP:	0.000	Y_WP:	0.500	X:	0.099	Y:	0.096	Z:	0.399	yaw:	33.158	yaw rate:	6.436	Roll:	4.484	Pitch:	0.812	Yaw:	48.939	Thrust:	48.959
Time:	5.710	Roll Set Point:	-0.234	Pitch Set Point:	-0.122	Yaw Set Point:	-0.577	X_WP:	0.000	Y_WP:	0.000	Y_WP:	0.500	X:	0.099	Y:	0.096	Z:	0.399	yaw:	33.050	yaw rate:	-10.803	Roll:	4.521	Pitch:	1.200	Yaw:	45.900	Thrust:	49.466
Time:	5.726	Roll Set Point:	-0.234	Pitch Set Point:	-0.122	Yaw Set Point:	-0.578	X_WP:	0.000	Y_WP:	0.000	Y_WP:	0.500	X:	0.099	Y:	0.096	Z:	0.399	yaw:	33.103	yaw rate:	5.322	Roll:	4.530	Pitch:	1.004	Yaw:	48.674	Thrust:	49.521
Time:	5.741	Roll Set Point:	-0.234	Pitch Set Point:	-0.122	Yaw Set Point:	-0.577	X_WP:	0.000	Y_WP:	0.000	Y_WP:	0.500	X:	0.099	Y:	0.096	Z:	0.399	yaw:	33.066	yaw rate:	-3.721	Roll:	4.505	Pitch:	0.950	Yaw:	47.113	Thrust:	49.662
Time:	5.757	Roll Set Point:	-0.234	Pitch Set Point:	-0.121	Yaw Set Point:	-0.579	X_WP:	0.000	Y_WP:	0.000	Y_WP:	0.500	X:	0.099	Y:	0.096	Z:	0.399	yaw:	33.146	yaw rate:	7.951	Roll:	4.478	Pitch:	0.806	Yaw:	49.175	Thrust:	49.693
Time:	5.773	Roll Set Point:	-0.234	Pitch Set Point:	-0.121	Yaw Set Point:	-0.579	X_WP:	0.000	Y_WP:	0.000	Y_WP:	0.500	X:	0.099	Y:	0.096	Z:	0.399	yaw:	33.161	yaw rate:	1.544	Roll:	4.526	Pitch:	1.023	Yaw:	48.123	Thrust:	50.278
Time:	5.788	Roll Set Point:	-0.234	Pitch Set Point:	-0.121	Yaw Set Point:	-0.579	X_WP:	0.000	Y_WP:	0.000	Y_WP:	0.500	X:	0.099	Y:	0.096	Z:	0.399	yaw:	33.161	yaw rate:	1.544	Roll:	4.508	Pitch:	0.987	Yaw:	47.861	Thrust:	50.187
Time:	5.804	Roll Set Point:	-0.234	Pitch Set Point:	-0.122	Yaw Set Point:	-0.577	X_WP:	0.000	Y_WP:	0.000	Y_WP:	0.500	X:	0.099	Y:	0.096	Z:	0.399	yaw:	33.078	yaw rate:	-3.270	Roll:	4.522	Pitch:	1.171	Yaw:	46.363	Thrust:	50.569
Time:	5.819	Roll Set Point:	-0.234	Pitch Set Point:	-0.121	Yaw Set Point:	-0.578	X_WP:	0.000	Y_WP:	0.000	Y_WP:	0.500	X:	0.099	Y:	0.096	Z:	0.399	yaw:	33.099	yaw rate:	2.124	Roll:	4.503	Pitch:	0.857	Yaw:	48.134	Thrust:	50.814
Time:	5.835	Roll Set Point:	-0.234	Pitch Set Point:	-0.121	Yaw Set Point:	-0.578	X_WP:	0.000	Y_WP:	0.000	Y_WP:	0.500	X:	0.099	Y:	0.096	Z:	0.399	yaw:	33.143	yaw rate:	4.323	Roll:	4.480	Pitch:	0.984	Yaw:	48.562	Thrust:	50.550
Time:	5.851	Roll Set Point:	-0.234	Pitch Set Point:	-0.122	Yaw Set Point:	-0.577	X_WP:	0.000	Y_WP:	0.000	Y_WP:	0.500	X:	0.099	Y:	0.096	Z:	0.399	yaw:	33.086	yaw rate:	-5.698	Roll:	4.535	Pitch:	1.160	Yaw:	46.800	Thrust:	51.106
Time:	5.866	Roll Set Point:	-0.234	Pitch Set Point:	-0.122	Yaw Set Point:	-0.577	X_WP:	0.000	Y_WP:	0.000	Y_WP:	0.500	X:	0.099	Y:	0.096	Z:	0.399	yaw:	33.073	yaw rate:	-1.259	Roll:	4.503	Pitch:	1.008	Yaw:	47.530	Thrust:	51.312
Time:	5.882	Roll Set Point:	-0.234	Pitch Set Point:	-0.122	Yaw Set Point:	-0.577	X_WP:	0.000	Y_WP:	0.000	Y_WP:	0.500	X:	0.099	Y:	0.096	Z:	0.399	yaw:	33.073	yaw rate:	-1.259	Roll:	4.510	Pitch:	1.000	Yaw:	47.744	Thrust:	51.508
Time:	5.898	Roll Set Point:	-0.234	Pitch Set Point:	-0.121	Yaw Set Point:	-0.579	X_WP:	0.000	Y_WP:	0.000	Y_WP:	0.500	X:	0.099	Y:	0.095	Z:	0.399	yaw:	33.164	yaw rate:	9.126	Roll:	4.278	Pitch:	0.642	Yaw:	49.398	Thrust:	51.004
Time:	5.913	Roll Set Point:	-0.234	Pitch Set Point:	-0.122	Yaw Set Point:	-0.577	X_WP:	0.000	Y_WP:	0.000	Y_WP:	0.500	X:	0.099	Y:	0.096	Z:	0.399	yaw:	33.079	yaw rate:	-8.540	Roll:	4.766	Pitch:	1.284	Yaw:	46.320	Thrust:	52.312
Time:	5.929	Roll Set Point:	-0.234	Pitch Set Point:	-0.122	Yaw Set Point:	-0.577	X_WP:	0.000	Y_WP:	0.000	Y_WP:	0.500	X:	0.099	Y:	0.096	Z:	0.399	yaw:	33.079	yaw rate:	-8.540	Roll:	4.509	Pitch:	1.000	Yaw:	47.746	Thrust:	51.894
Time:	5.944	Roll Set Point:	-0.234	Pitch Set Point:	-0.122	Yaw Set Point:	-0.578	X_WP:	0.000	Y_WP:	0.000	Y_WP:	0.500	X:	0.099	Y:	0.096	Z:	0.399	yaw:	33.143	yaw rate:	6.432	Roll:	4.465	Pitch:	0.946	Yaw:	48.918	Thrust:	52.118
Time:	5.960	Roll Set Point:	-0.234	Pitch Set Point:	-0.122	Yaw Set Point:	-0.577	X_WP:	0.000	Y_WP:	0.000	Y_WP:	0.500	X:	0.099	Y:	0.096	Z:	0.399	yaw:	33.076	yaw rate:	-6.729	Roll:	4.517	Pitch:	1.054	Yaw:	46.617	Thrust:	52.545
Time:	5.976	Roll Set Point:	-0.234	Pitch Set Point:	-0.121	Yaw Set Point:	-0.579	X_WP:	0.000	Y_WP:	0.000	Y_WP:	0.500	X:	0.099	Y:	0.096	Z:	0.399	yaw:	33.180	yaw rate:	10.442	Roll:	4.517	Pitch:	0.810	Yaw:	49.641	Thrust:	52.626
Time:	5.991	Roll Set Point:	-0.234	Pitch Set Point:	-0.122	Yaw Set Point:	-0.577	X_WP:	0.000	Y_WP:	0.000	Y_WP:	0.500	X:	0.099	Y:	0.096	Z:	0.399	yaw:	33.039	yaw rate:	-4.884	Roll:	4.501	Pitch:	1.308	Yaw:	45.322	Thrust:	52.474
Time:	6.007	Roll Set Point:	-0.088	Pitch Set Point:	-0.034	Yaw Set Point:	-0.579	X_WP:	0.075	Y_WP:	0.153	Y_WP:	0.500	X:	0.099	Y:	0.096	Z:	0.399	yaw:	33.150	yaw rate:	11.059	Roll:	-30.000	Pitch:	-30.000	Yaw:	49.701	Thrust:	52.861
Time:	6.023	Roll Set Point:	-0.088	Pitch Set Point:	-0.034	Yaw Set Point:	-0.579	X_WP:	0.075	Y_WP:	0.153	Y_WP:	0.500	X:	0.099	Y:	0.096	Z:	0.399	yaw:	33.170	yaw rate:	2.036	Roll:	0.239	Pitch:	-1.528	Yaw:	48.220	Thrust:	53.279
Time:	6.038	Roll Set Point:	-0.088	Pitch Set Point:	-0.034	Yaw Set Point:	-0.577	X_WP:	0.075	Y_WP:	0.153	Y_WP:	0.500	X:	0.099	Y:	0.096	Z:	0.399	yaw:	33.069	yaw rate:	-10.134	Roll:	0.361	Pitch:	-1.547	Yaw:	46.037	Thrust:	53.495
Time:	6.054	Roll Set Point:	-0.088	Pitch Set Point:	-0.034	Yaw Set Point:	-0.577	X_WP:	0.075	Y_WP:	0.153	Y_WP:	0.500	X:	0.099	Y:	0.096	Z:	0.399	yaw:	33.064	yaw rate:	-0.514	Roll:	0.266	Pitch:	-1.540	Yaw:	47.642	Thrust:	53.361
Time:	6.069	Roll Set Point:	-0.088	Pitch Set Point:	-0.034	Yaw Set Point:	-0.577	X_WP:	0.075	Y_WP:	0.153	Y_WP:	0.500	X:	0.099	Y:	0.096	Z:	0.399	yaw:	33.064	yaw rate:	-0.514	Roll:	0.256	Pitch:	-1.536	Yaw:	47.729	Thrust:	53.720
Time:	6.085	Roll Set Point:	-0.088	Pitch Set Point:	-0.034	Yaw Set Point:	-0.579	X_WP:	0.075	Y_WP:	0.153	Y_WP:	0.500	X:	0.099	Y:	0.096	Z:	0.399	yaw:	33.169	yaw rate:	8.627	Roll:	0.154	Pitch:	-1.517	Yaw:	49.638	Thrust:	53.878
Time:	6.101	Roll Set Point:	-0.088	Pitch Set Point:	-0.034	Yaw Set Point:	-0.577	X_WP:	0.075	Y_WP:	0.153	Y_WP:	0.500	X:	0.099	Y:	0.096	Z:	0.399	yaw:	33.074	yaw rate:	-9.532	Roll:	0.316	Pitch:	-1.546	Yaw:	46.151	Thrust:	54.232
Time:	6.116	Roll Set Point:	-0.088	Pitch Set Point:	-0.034	Yaw Set Point:	-0.577	X_WP:	0.075	Y_WP:	0.153	Y_WP:	0.500	X:	0.099	Y:	0.096	Z:	0.399	yaw:	33.085	yaw rate:	1.157	Roll:	0.284	Pitch:	-1.551	Yaw:	47.949	Thrust:	54.133
Time:	6.132	Roll Set Point:	-0.088	Pitch Set Point:	-0.034	Yaw Set Point:	-0.577	X_WP:	0.075	Y_WP:	0.153	Y_WP:	0.500	X:	0.099	Y:	0.096	Z:	0.399	yaw:	33.085	yaw rate:	-0.036	Roll:	0.260	Pitch:	-1.553	Yaw:	47.752	Thrust:	54.542
Time:	6.148	Roll Set Point:	-0.088	Pitch Set Point:	-0.034	Yaw Set Point:	-0.579	X_WP:	0.075	Y_WP:	0.153	Y_WP:	0.500	X:	0.099	Y:	0.096	Z:	0.399	yaw:	33.186	yaw rate:	10.147	Roll:	0.131	Pitch:	-1.522	Yaw:	49.599	Thrust:	54.536
Time:	6.163	Roll Set Point:	-0.088	Pitch Set Point:	-0.034	Yaw Set Point:	-0.579	X_WP:	0.075	Y_WP:	0.153	Y_WP:	0.500	X:	0.099	Y:	0.096	Z:	0.399	yaw:	33.186	yaw rate:	10.147	Roll:	0.250	Pitch:	-1.550	Yaw:	47.899	Thrust:	54.842
Time:	6.179	Roll Set Point:	-0.088	Pitch Set Point:	-0.034	Yaw Set Point:	-0.579	X_WP:	0.075	Y_WP:	0.153	Y_WP:	0.500	X:	0.099	Y:	0.096	Z:	0.399	yaw:	33.158	yaw rate:	5.432	Roll:	0.319	Pitch:	-1.557	Yaw:	47.381	Thrust:	54.952
Time:	6.194	Roll Set Point:	-0.088	Pitch Set Point:	-0.034	Yaw Set Point:	-0.579	X_WP:	0.075	Y_WP:	0.153	Y_WP:	0.500	X:	0.099	Y:	0.096	Z:	0.399	yaw:	33.158	yaw rate:	5.432	Roll:	0.251	Pitch:	-1.555	Yaw:	47.859	Thrust:	55.220
Time:	6.210	Roll Set Point:	-0.088	Pitch Set Point:	-0.034	Yaw Set Point:	-0.578	X_WP:	0.075	Y_WP:	0.153	Y_WP:	0.500	X:	0.099	Y:	0.096	Z:	0.399	yaw:	33.097	yaw rate:	-0.202	Roll:	0.256	Pitch:	-1.566	Yaw:	46.761	Thrust:	55.610
Time:	6.226	Roll Set Point:	-0.088	Pitch Set Point:	-0.034	Yaw Set Point:	-0.579	X_WP:	0.075	Y_WP:	0.153	Y_WP:	0.500	X:	0.099	Y:	0.096	Z:	0.399	yaw:	33.182	yaw rate:	8.520	Roll:	0.179	Pitch:	-1.544	Yaw:	49.322	Thrust:	55.413
Time:	6.241	Roll Set Point:	-0.088	Pitch Set Point:	-0.034	Yaw Set Point:	-0.579	X_WP:	0.075	Y_WP:	0.153	Y_WP:	0.500	X:	0.099	Y:	0.096	Z:	0.399	yaw:	33.182	yaw rate:	8.520	Roll:	0.248	Pitch:	-1.562	Yaw:	47.892	Thrust:	55.731
Time:	6.257	Roll Set Point:	-0.088	Pitch Set Point:	-0.034	Yaw Set Point:	-0.577	X_WP:	0.075	Y_WP:	0.153	Y_WP:	0.500	X:	0.099	Y:	0.096	Z:	0.399	yaw:	33.082	yaw rate:	-1.757	Roll:	0.363	Pitch:	-1.590	Yaw:	46.081	Thrust:	56.233
Time:	6.273	Roll Set Point:	-0.088	Pitch Set Point:	-0.034	Yaw Set Point:	-0.577	X_WP:	0.075	Y_WP:	0.153	Y_WP:	0.500	X:	0.099	Y:	0.096	Z:	0.399	yaw:	33.086	yaw rate:	0.342	Roll:	0.236	Pitch:	-1.565	Yaw:	47.817	Thrust:	56.078
