Time:	2.039	Roll Set Point:	0.087	Pitch Set Point:	-0.104	Yaw Set Point:	-0.034	X_WP:	0.100	Y_WP:	0.000	Y_WP:	0.500	X:	0.005	Y:	0.051	Z:	0.049	yaw:	1.933	yaw rate:	-0.502	Roll:	-2.692	Pitch:	1.561	Yaw:	2.699	Thrust:	24.810
Time:	2.054	Roll Set Point:	0.087	Pitch Set Point:	-0.105	Yaw Set Point:	-0.034	X_WP:	0.100	Y_WP:	0.000	Y_WP:	0.500	X:	0.006	Y:	0.051	Z:	0.049	yaw:	1.944	yaw rate:	1.097	Roll:	-2.589	Pitch:	1.687	Yaw:	2.915	Thrust:	25.494
Time:	2.065	Roll Set Point:	0.087	Pitch Set Point:	-0.105	Yaw Set Point:	-0.035	X_WP:	0.100	Y_WP:	0.000	Y_WP:	0.500	X:	0.006	Y:	0.051	Z:	0.049	yaw:	2.016	yaw rate:	7.179	Roll:	-2.589	Pitch:	1.760	Yaw:	4.462	Thrust:	26.297
Time:	2.078	Roll Set Point:	0.087	Pitch Set Point:	-0.105	Yaw Set Point:	-0.035	X_WP:	0.100	Y_WP:	0.000	Y_WP:	0.500	X:	0.005	Y:	0.051	Z:	0.049	yaw:	1.984	yaw rate:	20.663	Roll:	-2.839	Pitch:	1.302	Yaw:	2.049	Thrust:	26.851
Time:	2.089	Roll Set Point:	0.087	Pitch Set Point:	-0.105	Yaw Set Point:	-0.036	X_WP:	0.100	Y_WP:	0.000	Y_WP:	0.500	X:	0.005	Y:	0.051	Z:	0.049	yaw:	2.043	yaw rate:	5.908	Roll:	-2.671	Pitch:	1.793	Yaw:	4.193	Thrust:	27.151
Time:	2.099	Roll Set Point:	0.088	Pitch Set Point:	-0.104	Yaw Set Point:	-0.028	X_WP:	0.100	Y_WP:	0.000	Y_WP:	0.500	X:	0.005	Y:	0.051	Z:	0.049	yaw:	1.593	yaw rate:	-45.056	Roll:	-3.702	Pitch:	0.277	Yaw:	-8.433	Thrust:	26.496
Time:	2.110	Roll Set Point:	0.087	Pitch Set Point:	-0.105	Yaw Set Point:	-0.036	X_WP:	0.100	Y_WP:	0.000	Y_WP:	0.500	X:	0.005	Y:	0.051	Z:	0.049	yaw:	2.088	yaw rate:	49.495	Roll:	-1.517	Pitch:	2.853	Yaw:	15.211	Thrust:	30.163
Time:	2.122	Roll Set Point:	0.087	Pitch Set Point:	-0.105	Yaw Set Point:	-0.039	X_WP:	0.100	Y_WP:	0.000	Y_WP:	0.500	X:	0.005	Y:	0.051	Z:	0.049	yaw:	2.217	yaw rate:	12.977	Roll:	-2.496	Pitch:	2.194	Yaw:	6.097	Thrust:	29.157
Time:	2.133	Roll Set Point:	0.087	Pitch Set Point:	-0.105	Yaw Set Point:	-0.037	X_WP:	0.100	Y_WP:	0.000	Y_WP:	0.500	X:	0.005	Y:	0.051	Z:	0.049	yaw:	2.115	yaw rate:	-10.255	Roll:	-2.837	Pitch:	1.178	Yaw:	0.579	Thrust:	28.402
Time:	2.143	Roll Set Point:	0.088	Pitch Set Point:	-0.104	Yaw Set Point:	-0.029	X_WP:	0.100	Y_WP:	0.000	Y_WP:	0.500	X:	0.005	Y:	0.051	Z:	0.049	yaw:	1.636	yaw rate:	-47.908	Roll:	-3.608	Pitch:	0.280	Yaw:	-10.159	Thrust:	30.667
Time:	2.157	Roll Set Point:	0.088	Pitch Set Point:	-0.104	Yaw Set Point:	-0.029	X_WP:	0.100	Y_WP:	0.000	Y_WP:	0.500	X:	0.005	Y:	0.051	Z:	0.049	yaw:	1.684	yaw rate:	4.856	Roll:	-2.826	Pitch:	1.638	Yaw:	3.381	Thrust:	30.831
Time:	2.167	Roll Set Point:	0.088	Pitch Set Point:	-0.104	Yaw Set Point:	-0.030	X_WP:	0.100	Y_WP:	0.000	Y_WP:	0.500	X:	0.005	Y:	0.051	Z:	0.049	yaw:	1.740	yaw rate:	5.594	Roll:	-2.629	Pitch:	1.652	Yaw:	3.840	Thrust:	32.854
Time:	2.179	Roll Set Point:	0.087	Pitch Set Point:	-0.104	Yaw Set Point:	-0.032	X_WP:	0.100	Y_WP:	0.000	Y_WP:	0.500	X:	0.006	Y:	0.051	Z:	0.049	yaw:	1.805	yaw rate:	6.521	Roll:	-2.199	Pitch:	1.683	Yaw:	4.031	Thrust:	31.094
Time:	2.194	Roll Set Point:	0.087	Pitch Set Point:	-0.104	Yaw Set Point:	-0.030	X_WP:	0.100	Y_WP:	0.000	Y_WP:	0.500	X:	0.005	Y:	0.051	Z:	0.049	yaw:	1.712	yaw rate:	-9.349	Roll:	-2.900	Pitch:	1.553	Yaw:	0.846	Thrust:	36.416
Time:	2.204	Roll Set Point:	0.088	Pitch Set Point:	-0.104	Yaw Set Point:	-0.031	X_WP:	0.100	Y_WP:	0.000	Y_WP:	0.500	X:	0.005	Y:	0.051	Z:	0.049	yaw:	1.772	yaw rate:	6.026	Roll:	-3.272	Pitch:	1.596	Yaw:	4.070	Thrust:	33.928
Time:	2.220	Roll Set Point:	0.087	Pitch Set Point:	-0.105	Yaw Set Point:	-0.034	X_WP:	0.100	Y_WP:	0.000	Y_WP:	0.500	X:	0.005	Y:	0.051	Z:	0.049	yaw:	1.952	yaw rate:	18.023	Roll:	-2.022	Pitch:	2.098	Yaw:	5.825	Thrust:	36.354
Time:	2.232	Roll Set Point:	0.088	Pitch Set Point:	-0.103	Yaw Set Point:	-0.021	X_WP:	0.100	Y_WP:	0.000	Y_WP:	0.500	X:	0.005	Y:	0.050	Z:	0.049	yaw:	1.201	yaw rate:	-103.342	Roll:	-3.730	Pitch:	-0.706	Yaw:	-16.037	Thrust:	36.005
Time:	2.243	Roll Set Point:	0.087	Pitch Set Point:	-0.105	Yaw Set Point:	-0.036	X_WP:	0.100	Y_WP:	0.000	Y_WP:	0.500	X:	0.005	Y:	0.051	Z:	0.049	yaw:	2.071	yaw rate:	86.964	Roll:	-1.529	Pitch:	4.309	Yaw:	23.439	Thrust:	34.595
Time:	2.256	Roll Set Point:	0.087	Pitch Set Point:	-0.105	Yaw Set Point:	-0.037	X_WP:	0.100	Y_WP:	0.000	Y_WP:	0.500	X:	0.005	Y:	0.051	Z:	0.049	yaw:	2.098	yaw rate:	2.728	Roll:	-2.656	Pitch:	1.399	Yaw:	3.630	Thrust:	37.106
Time:	2.267	Roll Set Point:	0.087	Pitch Set Point:	-0.105	Yaw Set Point:	-0.033	X_WP:	0.100	Y_WP:	0.000	Y_WP:	0.500	X:	0.005	Y:	0.051	Z:	0.049	yaw:	1.907	yaw rate:	-19.110	Roll:	-2.868	Pitch:	1.306	Yaw:	-1.739	Thrust:	36.105
Time:	2.281	Roll Set Point:	0.088	Pitch Set Point:	-0.103	Yaw Set Point:	-0.023	X_WP:	0.100	Y_WP:	0.000	Y_WP:	0.500	X:	0.005	Y:	0.050	Z:	0.049	yaw:	1.332	yaw rate:	-57.484	Roll:	-3.625	Pitch:	0.013	Yaw:	-9.469	Thrust:	39.024
Time:	2.291	Roll Set Point:	0.087	Pitch Set Point:	-0.105	Yaw Set Point:	-0.034	X_WP:	0.100	Y_WP:	0.000	Y_WP:	0.500	X:	0.006	Y:	0.051	Z:	0.049	yaw:	1.972	yaw rate:	63.930	Roll:	-1.796	Pitch:	3.653	Yaw:	17.401	Thrust:	37.914
Time:	2.303	Roll Set Point:	0.087	Pitch Set Point:	-0.104	Yaw Set Point:	-0.029	X_WP:	0.100	Y_WP:	0.000	Y_WP:	0.500	X:	0.006	Y:	0.051	Z:	0.049	yaw:	1.662	yaw rate:	-30.947	Roll:	-3.190	Pitch:	0.742	Yaw:	-4.495	Thrust:	38.723
Time:	2.322	Roll Set Point:	0.087	Pitch Set Point:	-0.105	Yaw Set Point:	-0.034	X_WP:	0.100	Y_WP:	0.000	Y_WP:	0.500	X:	0.006	Y:	0.051	Z:	0.049	yaw:	1.929	yaw rate:	26.711	Roll:	-2.426	Pitch:	2.202	Yaw:	6.836	Thrust:	44.444
Time:	2.334	Roll Set Point:	0.087	Pitch Set Point:	-0.105	Yaw Set Point:	-0.034	X_WP:	0.100	Y_WP:	0.000	Y_WP:	0.500	X:	0.006	Y:	0.051	Z:	0.049	yaw:	1.921	yaw rate:	31.875	Roll:	-2.789	Pitch:	1.589	Yaw:	2.712	Thrust:	44.209
Time:	2.347	Roll Set Point:	0.088	Pitch Set Point:	-0.104	Yaw Set Point:	-0.033	X_WP:	0.100	Y_WP:	0.000	Y_WP:	0.500	X:	0.005	Y:	0.051	Z:	0.049	yaw:	1.908	yaw rate:	-1.311	Roll:	-3.167	Pitch:	1.300	Yaw:	2.612	Thrust:	42.585
Time:	2.359	Roll Set Point:	0.088	Pitch Set Point:	-0.104	Yaw Set Point:	-0.032	X_WP:	0.100	Y_WP:	0.000	Y_WP:	0.500	X:	0.005	Y:	0.051	Z:	0.049	yaw:	1.815	yaw rate:	-9.348	Roll:	-2.838	Pitch:	1.376	Yaw:	0.708	Thrust:	41.739
Time:	2.370	Roll Set Point:	0.088	Pitch Set Point:	-0.104	Yaw Set Point:	-0.028	X_WP:	0.100	Y_WP:	0.000	Y_WP:	0.500	X:	0.005	Y:	0.051	Z:	0.049	yaw:	1.576	yaw rate:	-23.911	Roll:	-2.914	Pitch:	1.072	Yaw:	-3.274	Thrust:	41.130
Time:	2.385	Roll Set Point:	0.088	Pitch Set Point:	-0.104	Yaw Set Point:	-0.028	X_WP:	0.100	Y_WP:	0.000	Y_WP:	0.500	X:	0.005	Y:	0.051	Z:	0.049	yaw:	1.577	yaw rate:	0.136	Roll:	-2.957	Pitch:	1.500	Yaw:	2.480	Thrust:	46.097
Time:	2.398	Roll Set Point:	0.087	Pitch Set Point:	-0.105	Yaw Set Point:	-0.035	X_WP:	0.100	Y_WP:	0.000	Y_WP:	0.500	X:	0.005	Y:	0.051	Z:	0.049	yaw:	2.005	yaw rate:	42.759	Roll:	-2.154	Pitch:	2.572	Yaw:	10.993	Thrust:	45.964
Time:	2.409	Roll Set Point:	0.088	Pitch Set Point:	-0.104	Yaw Set Point:	-0.033	X_WP:	0.100	Y_WP:	0.000	Y_WP:	0.500	X:	0.005	Y:	0.051	Z:	0.049	yaw:	1.877	yaw rate:	-38.655	Roll:	-3.108	Pitch:	1.224	Yaw:	-0.058	Thrust:	44.812
Time:	2.421	Roll Set Point:	0.087	Pitch Set Point:	-0.105	Yaw Set Point:	-0.035	X_WP:	0.100	Y_WP:	0.000	Y_WP:	0.500	X:	0.005	Y:	0.051	Z:	0.049	yaw:	2.000	yaw rate:	12.309	Roll:	-2.496	Pitch:	2.089	Yaw:	5.708	Thrust:	44.942
Time:	2.432	Roll Set Point:	0.087	Pitch Set Point:	-0.105	Yaw Set Point:	-0.035	X_WP:	0.100	Y_WP:	0.000	Y_WP:	0.500	X:	0.005	Y:	0.051	Z:	0.049	yaw:	1.985	yaw rate:	-1.422	Roll:	-2.797	Pitch:	1.693	Yaw:	2.662	Thrust:	43.342
Time:	2.445	Roll Set Point:	0.087	Pitch Set Point:	-0.105	Yaw Set Point:	-0.034	X_WP:	0.100	Y_WP:	0.000	Y_WP:	0.500	X:	0.005	Y:	0.051	Z:	0.049	yaw:	1.974	yaw rate:	-1.120	Roll:	-2.818	Pitch:	1.631	Yaw:	2.771	Thrust:	46.661
Time:	2.458	Roll Set Point:	0.087	Pitch Set Point:	-0.105	Yaw Set Point:	-0.038	X_WP:	0.100	Y_WP:	0.000	Y_WP:	0.500	X:	0.005	Y:	0.051	Z:	0.049	yaw:	2.171	yaw rate:	19.669	Roll:	-2.494	Pitch:	1.968	Yaw:	7.129	Thrust:	49.198
Time:	2.470	Roll Set Point:	0.087	Pitch Set Point:	-0.105	Yaw Set Point:	-0.035	X_WP:	0.100	Y_WP:	0.000	Y_WP:	0.500	X:	0.005	Y:	0.051	Z:	0.049	yaw:	2.013	yaw rate:	-15.762	Roll:	-2.912	Pitch:	1.122	Yaw:	-0.452	Thrust:	46.879
Time:	2.481	Roll Set Point:	0.088	Pitch Set Point:	-0.103	Yaw Set Point:	-0.025	X_WP:	0.100	Y_WP:	0.000	Y_WP:	0.500	X:	0.005	Y:	0.051	Z:	0.049	yaw:	1.449	yaw rate:	-56.406	Roll:	-3.723	Pitch:	-0.242	Yaw:	-11.109	Thrust:	46.597
Time:	2.498	Roll Set Point:	0.088	Pitch Set Point:	-0.104	Yaw Set Point:	-0.027	X_WP:	0.100	Y_WP:	0.000	Y_WP:	0.500	X:	0.005	Y:	0.051	Z:	0.049	yaw:	1.562	yaw rate:	-36.119	Roll:	-2.884	Pitch:	1.993	Yaw:	4.289	Thrust:	60.522
Time:	2.509	Roll Set Point:	0.088	Pitch Set Point:	-0.104	Yaw Set Point:	-0.029	X_WP:	0.100	Y_WP:	0.000	Y_WP:	0.500	X:	0.005	Y:	0.051	Z:	0.049	yaw:	1.674	yaw rate:	11.129	Roll:	-2.651	Pitch:	1.805	Yaw:	5.241	Thrust:	47.408
Time:	2.523	Roll Set Point:	0.087	Pitch Set Point:	-0.105	Yaw Set Point:	-0.038	X_WP:	0.100	Y_WP:	0.000	Y_WP:	0.500	X:	0.005	Y:	0.051	Z:	0.049	yaw:	2.159	yaw rate:	48.538	Roll:	-2.079	Pitch:	2.719	Yaw:	13.091	Thrust:	51.816
Time:	2.534	Roll Set Point:	0.087	Pitch Set Point:	-0.105	Yaw Set Point:	-0.033	X_WP:	0.100	Y_WP:	0.000	Y_WP:	0.500	X:	0.006	Y:	0.051	Z:	0.049	yaw:	1.867	yaw rate:	-29.228	Roll:	-2.921	Pitch:	0.905	Yaw:	-4.046	Thrust:	47.432
Time:	2.545	Roll Set Point:	0.087	Pitch Set Point:	-0.104	Yaw Set Point:	-0.029	X_WP:	0.100	Y_WP:	0.000	Y_WP:	0.500	X:	0.006	Y:	0.051	Z:	0.049	yaw:	1.679	yaw rate:	-18.791	Roll:	-3.119	Pitch:	1.039	Yaw:	-1.898	Thrust:	50.097
Time:	2.557	Roll Set Point:	0.087	Pitch Set Point:	-0.105	Yaw Set Point:	-0.038	X_WP:	0.100	Y_WP:	0.000	Y_WP:	0.500	X:	0.005	Y:	0.051	Z:	0.049	yaw:	2.198	yaw rate:	51.938	Roll:	-2.532	Pitch:	2.919	Yaw:	14.237	Thrust:	53.373
Time:	2.567	Roll Set Point:	0.087	Pitch Set Point:	-0.105	Yaw Set Point:	-0.036	X_WP:	0.100	Y_WP:	0.000	Y_WP:	0.500	X:	0.005	Y:	0.051	Z:	0.049	yaw:	2.084	yaw rate:	-11.476	Roll:	-2.775	Pitch:	1.388	Yaw:	0.349	Thrust:	49.088
Time:	2.578	Roll Set Point:	0.087	Pitch Set Point:	-0.105	Yaw Set Point:	-0.036	X_WP:	0.100	Y_WP:	0.000	Y_WP:	0.500	X:	0.005	Y:	0.051	Z:	0.049	yaw:	2.035	yaw rate:	-4.890	Roll:	-2.941	Pitch:	1.330	Yaw:	1.891	Thrust:	49.132
Time:	2.593	Roll Set Point:	0.087	Pitch Set Point:	-0.105	Yaw Set Point:	-0.037	X_WP:	0.100	Y_WP:	0.000	Y_WP:	0.500	X:	0.005	Y:	0.051	Z:	0.049	yaw:	2.139	yaw rate:	10.442	Roll:	-2.752	Pitch:	1.840	Yaw:	5.266	Thrust:	59.730
Time:	2.603	Roll Set Point:	0.087	Pitch Set Point:	-0.105	Yaw Set Point:	-0.037	X_WP:	0.100	Y_WP:	0.000	Y_WP:	0.500	X:	0.005	Y:	0.051	Z:	0.049	yaw:	2.138	yaw rate:	-0.152	Roll:	-2.669	Pitch:	1.675	Yaw:	3.269	Thrust:	51.331
Time:	2.618	Roll Set Point:	0.086	Pitch Set Point:	-0.106	Yaw Set Point:	-0.044	X_WP:	0.100	Y_WP:	0.000	Y_WP:	0.500	X:	0.006	Y:	0.051	Z:	0.050	yaw:	2.499	yaw rate:	36.146	Roll:	-2.044	Pitch:	2.457	Yaw:	10.657	Thrust:	59.719
Time:	2.630	Roll Set Point:	0.086	Pitch Set Point:	-0.105	Yaw Set Point:	-0.041	X_WP:	0.100	Y_WP:	0.000	Y_WP:	0.500	X:	0.006	Y:	0.051	Z:	0.050	yaw:	2.355	yaw rate:	-15.834	Roll:	-2.389	Pitch:	1.162	Yaw:	0.816	Thrust:	56.218
Time:	2.641	Roll Set Point:	0.085	Pitch Set Point:	-0.105	Yaw Set Point:	-0.047	X_WP:	0.100	Y_WP:	0.000	Y_WP:	0.500	X:	0.006	Y:	0.051	Z:	0.051	yaw:	2.708	yaw rate:	35.263	Roll:	-1.928	Pitch:	2.351	Yaw:	12.891	Thrust:	49.567
Time:	2.655	Roll Set Point:	0.084	Pitch Set Point:	-0.105	Yaw Set Point:	-0.049	X_WP:	0.100	Y_WP:	0.000	Y_WP:	0.500	X:	0.007	Y:	0.050	Z:	0.051	yaw:	2.793	yaw rate:	8.547	Roll:	-2.105	Pitch:	1.693	Yaw:	5.923	Thrust:	62.981
Time:	2.666	Roll Set Point:	0.083	Pitch Set Point:	-0.104	Yaw Set Point:	-0.045	X_WP:	0.100	Y_WP:	0.000	Y_WP:	0.500	X:	0.007	Y:	0.050	Z:	0.052	yaw:	2.565	yaw rate:	-22.822	Roll:	-2.698	Pitch:	0.600	Yaw:	-1.457	Thrust:	52.904
Time:	2.678	Roll Set Point:	0.082	Pitch Set Point:	-0.105	Yaw Set Point:	-0.048	X_WP:	0.100	Y_WP:	0.000	Y_WP:	0.500	X:	0.008	Y:	0.050	Z:	0.053	yaw:	2.776	yaw rate:	21.051	Roll:	-1.698	Pitch:	2.210	Yaw:	9.119	Thrust:	51.520
Time:	2.694	Roll Set Point:	0.081	Pitch Set Point:	-0.105	Yaw Set Point:	-0.053	X_WP:	0.100	Y_WP:	0.000	Y_WP:	0.500	X:	0.008	Y:	0.050	Z:	0.053	yaw:	3.022	yaw rate:	24.667	Roll:	-1.912	Pitch:	1.826	Yaw:	8.870	Thrust:	70.933
Time:	2.705	Roll Set Point:	0.078	Pitch Set Point:	-0.104	Yaw Set Point:	-0.054	X_WP:	0.100	Y_WP:	0.000	Y_WP:	0.500	X:	0.010	Y:	0.050	Z:	0.055	yaw:	3.111	yaw rate:	9.922	Roll:	-0.660	Pitch:	1.309	Yaw:	6.843	Thrust:	51.972
Time:	2.720	Roll Set Point:	0.077	Pitch Set Point:	-0.103	Yaw Set Point:	-0.049	X_WP:	0.100	Y_WP:	0.000	Y_WP:	0.500	X:	0.010	Y:	0.049	Z:	0.055	yaw:	2.834	yaw rate:	-27.754	Roll:	-2.186	Pitch:	0.627	Yaw:	-0.478	Thrust:	63.027
Time:	2.732	Roll Set Point:	0.073	Pitch Set Point:	-0.103	Yaw Set Point:	-0.053	X_WP:	0.100	Y_WP:	0.000	Y_WP:	0.500	X:	0.012	Y:	0.049	Z:	0.057	yaw:	3.042	yaw rate:	20.831	Roll:	-0.193	Pitch:	1.501	Yaw:	9.257	Thrust:	58.441
Time:	2.744	Roll Set Point:	0.071	Pitch Set Point:	-0.102	Yaw Set Point:	-0.056	X_WP:	0.100	Y_WP:	0.000	Y_WP:	0.500	X:	0.013	Y:	0.049	Z:	0.058	yaw:	3.180	yaw rate:	13.797	Roll:	-1.092	Pitch:	1.348	Yaw:	7.829	Thrust:	59.870
Time:	2.757	Roll Set Point:	0.069	Pitch Set Point:	-0.101	Yaw Set Point:	-0.055	X_WP:	0.100	Y_WP:	0.000	Y_WP:	0.500	X:	0.014	Y:	0.048	Z:	0.059	yaw:	3.166	yaw rate:	-1.388	Roll:	-1.205	Pitch:	1.223	Yaw:	4.655	Thrust:	57.702
Time:	2.768	Roll Set Point:	0.067	Pitch Set Point:	-0.101	Yaw Set Point:	-0.055	X_WP:	0.100	Y_WP:	0.000	Y_WP:	0.500	X:	0.015	Y:	0.048	Z:	0.060	yaw:	3.174	yaw rate:	0.786	Roll:	-0.796	Pitch:	0.856	Yaw:	5.089	Thrust:	53.917
Time:	2.786	Roll Set Point:	0.064	Pitch Set Point:	-0.100	Yaw Set Point:	-0.059	X_WP:	0.100	Y_WP:	0.000	Y_WP:	0.500	X:	0.016	Y:	0.047	Z:	0.062	yaw:	3.387	yaw rate:	21.249	Roll:	-0.453	Pitch:	1.321	Yaw:	8.839	Thrust:	60.411
Time:	2.799	Roll Set Point:	0.059	Pitch Set Point:	-0.098	Yaw Set Point:	-0.056	X_WP:	0.100	Y_WP:	0.000	Y_WP:	0.500	X:	0.019	Y:	0.047	Z:	0.065	yaw:	3.181	yaw rate:	4.219	Roll:	-0.367	Pitch:	0.491	Yaw:	1.460	Thrust:	78.327
Time:	2.810	Roll Set Point:	0.056	Pitch Set Point:	-0.097	Yaw Set Point:	-0.054	X_WP:	0.100	Y_WP:	0.000	Y_WP:	0.500	X:	0.021	Y:	0.046	Z:	0.066	yaw:	3.121	yaw rate:	-5.963	Roll:	-0.227	Pitch:	0.573	Yaw:	3.452	Thrust:	53.361
Time:	2.822	Roll Set Point:	0.053	Pitch Set Point:	-0.096	Yaw Set Point:	-0.061	X_WP:	0.100	Y_WP:	0.000	Y_WP:	0.500	X:	0.022	Y:	0.046	Z:	0.069	yaw:	3.500	yaw rate:	37.858	Roll:	0.175	Pitch:	1.465	Yaw:	13.692	Thrust:	56.966
Time:	2.833	Roll Set Point:	0.046	Pitch Set Point:	-0.093	Yaw Set Point:	-0.055	X_WP:	0.100	Y_WP:	0.000	Y_WP:	0.500	X:	0.026	Y:	0.044	Z:	0.073	yaw:	3.157	yaw rate:	-34.302	Roll:	2.384	Pitch:	-1.199	Yaw:	-3.201	Thrust:	44.018
Time:	2.847	Roll Set Point:	0.043	Pitch Set Point:	-0.092	Yaw Set Point:	-0.064	X_WP:	0.100	Y_WP:	0.000	Y_WP:	0.500	X:	0.027	Y:	0.044	Z:	0.075	yaw:	3.640	yaw rate:	48.343	Roll:	0.810	Pitch:	1.372	Yaw:	15.427	Thrust:	57.418
Time:	2.858	Roll Set Point:	0.039	Pitch Set Point:	-0.091	Yaw Set Point:	-0.061	X_WP:	0.100	Y_WP:	0.000	Y_WP:	0.500	X:	0.029	Y:	0.043	Z:	0.078	yaw:	3.490	yaw rate:	-15.077	Roll:	0.242	Pitch:	0.303	Yaw:	2.044	Thrust:	58.728
Time:	2.869	Roll Set Point:	0.035	Pitch Set Point:	-0.089	Yaw Set Point:	-0.065	X_WP:	0.100	Y_WP:	0.000	Y_WP:	0.500	X:	0.031	Y:	0.043	Z:	0.080	yaw:	3.699	yaw rate:	20.943	Roll:	0.734	Pitch:	0.595	Yaw:	10.698	Thrust:	52.240
Time:	2.887	Roll Set Point:	0.031	Pitch Set Point:	-0.088	Yaw Set Point:	-0.062	X_WP:	0.100	Y_WP:	0.000	Y_WP:	0.500	X:	0.033	Y:	0.042	Z:	0.083	yaw:	3.580	yaw rate:	-11.922	Roll:	0.763	Pitch:	-0.091	Yaw:	3.046	Thrust:	57.471
Time:	2.900	Roll Set Point:	0.023	Pitch Set Point:	-0.085	Yaw Set Point:	-0.067	X_WP:	0.100	Y_WP:	0.000	Y_WP:	0.500	X:	0.037	Y:	0.040	Z:	0.088	yaw:	3.843	yaw rate:	-3.413	Roll:	1.607	Pitch:	0.129	Yaw:	10.009	Thrust:	80.174
Time:	2.911	Roll Set Point:	0.014	Pitch Set Point:	-0.081	Yaw Set Point:	-0.069	X_WP:	0.100	Y_WP:	0.000	Y_WP:	0.500	X:	0.041	Y:	0.039	Z:	0.094	yaw:	3.947	yaw rate:	10.440	Roll:	4.451	Pitch:	-1.298	Yaw:	8.524	Thrust:	40.040
Time:	2.924	Roll Set Point:	0.010	Pitch Set Point:	-0.079	Yaw Set Point:	-0.069	X_WP:	0.100	Y_WP:	0.000	Y_WP:	0.500	X:	0.044	Y:	0.038	Z:	0.097	yaw:	3.938	yaw rate:	-0.894	Roll:	1.072	Pitch:	-0.264	Yaw:	6.029	Thrust:	61.603
Time:	2.935	Roll Set Point:	0.006	Pitch Set Point:	-0.077	Yaw Set Point:	-0.066	X_WP:	0.100	Y_WP:	0.000	Y_WP:	0.500	X:	0.046	Y:	0.037	Z:	0.100	yaw:	3.766	yaw rate:	-17.194	Roll:	1.436	Pitch:	-0.763	Yaw:	1.824	Thrust:	52.429
Time:	2.946	Roll Set Point:	0.001	Pitch Set Point:	-0.076	Yaw Set Point:	-0.078	X_WP:	0.100	Y_WP:	0.000	Y_WP:	0.500	X:	0.048	Y:	0.036	Z:	0.103	yaw:	4.454	yaw rate:	68.793	Roll:	2.514	Pitch:	0.937	Yaw:	23.195	Thrust:	52.528
Time:	2.958	Roll Set Point:	-0.004	Pitch Set Point:	-0.074	Yaw Set Point:	-0.074	X_WP:	0.100	Y_WP:	0.000	Y_WP:	0.500	X:	0.050	Y:	0.035	Z:	0.106	yaw:	4.223	yaw rate:	-23.088	Roll:	1.457	Pitch:	-0.525	Yaw:	1.861	Thrust:	59.818
Time:	2.970	Roll Set Point:	-0.009	Pitch Set Point:	-0.072	Yaw Set Point:	-0.072	X_WP:	0.100	Y_WP:	0.000	Y_WP:	0.500	X:	0.053	Y:	0.034	Z:	0.109	yaw:	4.110	yaw rate:	-11.305	Roll:	1.969	Pitch:	-0.519	Yaw:	3.865	Thrust:	55.807
Time:	2.985	Roll Set Point:	-0.013	Pitch Set Point:	-0.069	Yaw Set Point:	-0.068	X_WP:	0.100	Y_WP:	0.000	Y_WP:	0.500	X:	0.055	Y:	0.033	Z:	0.112	yaw:	3.909	yaw rate:	-20.066	Roll:	1.632	Pitch:	-0.599	Yaw:	2.894	Thrust:	68.732
Time:	2.997	Roll Set Point:	-0.023	Pitch Set Point:	-0.065	Yaw Set Point:	-0.072	X_WP:	0.100	Y_WP:	0.000	Y_WP:	0.500	X:	0.061	Y:	0.031	Z:	0.118	yaw:	4.139	yaw rate:	-20.240	Roll:	4.519	Pitch:	-1.329	Yaw:	11.404	Thrust:	56.509
Time:	3.009	Roll Set Point:	-0.033	Pitch Set Point:	-0.061	Yaw Set Point:	-0.074	X_WP:	0.100	Y_WP:	0.000	Y_WP:	0.500	X:	0.066	Y:	0.029	Z:	0.123	yaw:	4.212	yaw rate:	7.293	Roll:	6.045	Pitch:	-2.421	Yaw:	8.312	Thrust:	46.581
Time:	3.022	Roll Set Point:	-0.038	Pitch Set Point:	-0.058	Yaw Set Point:	-0.070	X_WP:	0.100	Y_WP:	0.000	Y_WP:	0.500	X:	0.068	Y:	0.028	Z:	0.126	yaw:	3.996	yaw rate:	-21.656	Roll:	2.178	Pitch:	-0.784	Yaw:	1.916	Thrust:	64.452
Time:	3.033	Roll Set Point:	-0.043	Pitch Set Point:	-0.056	Yaw Set Point:	-0.066	X_WP:	0.100	Y_WP:	0.000	Y_WP:	0.500	X:	0.071	Y:	0.027	Z:	0.128	yaw:	3.757	yaw rate:	-23.819	Roll:	2.627	Pitch:	-0.874	Yaw:	0.646	Thrust:	59.139
Time:	3.044	Roll Set Point:	-0.049	Pitch Set Point:	-0.054	Yaw Set Point:	-0.070	X_WP:	0.100	Y_WP:	0.000	Y_WP:	0.500	X:	0.073	Y:	0.026	Z:	0.131	yaw:	3.989	yaw rate:	23.205	Roll:	3.276	Pitch:	-0.656	Yaw:	11.639	Thrust:	59.810
Time:	3.058	Roll Set Point:	-0.054	Pitch Set Point:	-0.052	Yaw Set Point:	-0.073	X_WP:	0.100	Y_WP:	0.000	Y_WP:	0.500	X:	0.076	Y:	0.025	Z:	0.133	yaw:	4.193	yaw rate:	20.312	Roll:	2.457	Pitch:	-0.605	Yaw:	10.873	Thrust:	67.614
Time:	3.069	Roll Set Point:	-0.059	Pitch Set Point:	-0.050	Yaw Set Point:	-0.069	X_WP:	0.100	Y_WP:	0.000	Y_WP:	0.500	X:	0.079	Y:	0.024	Z:	0.135	yaw:	3.938	yaw rate:	-25.473	Roll:	2.528	Pitch:	-1.104	Yaw:	0.574	Thrust:	61.927
Time:	3.086	Roll Set Point:	-0.064	Pitch Set Point:	-0.048	Yaw Set Point:	-0.072	X_WP:	0.100	Y_WP:	0.000	Y_WP:	0.500	X:	0.081	Y:	0.023	Z:	0.138	yaw:	4.137	yaw rate:	19.876	Roll:	2.734	Pitch:	-0.294	Yaw:	10.231	Thrust:	78.415
Time:	3.099	Roll Set Point:	-0.074	Pitch Set Point:	-0.043	Yaw Set Point:	-0.065	X_WP:	0.100	Y_WP:	0.000	Y_WP:	0.500	X:	0.086	Y:	0.021	Z:	0.142	yaw:	3.722	yaw rate:	-41.477	Roll:	4.550	Pitch:	-2.128	Yaw:	-1.451	Thrust:	70.633
Time:	3.111	Roll Set Point:	-0.085	Pitch Set Point:	-0.039	Yaw Set Point:	-0.070	X_WP:	0.100	Y_WP:	0.000	Y_WP:	0.500	X:	0.092	Y:	0.019	Z:	0.147	yaw:	3.996	yaw rate:	6.504	Roll:	7.160	Pitch:	-2.524	Yaw:	12.760	Thrust:	54.538
Time:	3.123	Roll Set Point:	-0.090	Pitch Set Point:	-0.037	Yaw Set Point:	-0.066	X_WP:	0.100	Y_WP:	0.000	Y_WP:	0.500	X:	0.095	Y:	0.018	Z:	0.150	yaw:	3.762	yaw rate:	-23.387	Roll:	3.473	Pitch:	-1.027	Yaw:	0.863	Thrust:	62.066
Time:	3.133	Roll Set Point:	-0.096	Pitch Set Point:	-0.035	Yaw Set Point:	-0.067	X_WP:	0.100	Y_WP:	0.000	Y_WP:	0.500	X:	0.097	Y:	0.017	Z:	0.152	yaw:	3.837	yaw rate:	7.507	Roll:	3.957	Pitch:	-1.124	Yaw:	8.034	Thrust:	56.139
Time:	3.145	Roll Set Point:	-0.101	Pitch Set Point:	-0.033	Yaw Set Point:	-0.061	X_WP:	0.100	Y_WP:	0.000	Y_WP:	0.500	X:	0.100	Y:	0.016	Z:	0.155	yaw:	3.493	yaw rate:	-34.413	Roll:	3.665	Pitch:	-1.115	Yaw:	-1.968	Thrust:	59.632
Time:	3.156	Roll Set Point:	-0.106	Pitch Set Point:	-0.031	Yaw Set Point:	-0.071	X_WP:	0.100	Y_WP:	0.000	Y_WP:	0.500	X:	0.103	Y:	0.015	Z:	0.158	yaw:	4.067	yaw rate:	57.351	Roll:	3.730	Pitch:	-1.002	Yaw:	19.622	Thrust:	67.149
Time:	3.168	Roll Set Point:	-0.111	Pitch Set Point:	-0.029	Yaw Set Point:	-0.071	X_WP:	0.100	Y_WP:	0.000	Y_WP:	0.500	X:	0.105	Y:	0.014	Z:	0.161	yaw:	4.090	yaw rate:	2.356	Roll:	3.689	Pitch:	-1.045	Yaw:	7.227	Thrust:	60.924
Time:	3.183	Roll Set Point:	-0.116	Pitch Set Point:	-0.026	Yaw Set Point:	-0.064	X_WP:	0.100	Y_WP:	0.000	Y_WP:	0.500	X:	0.108	Y:	0.013	Z:	0.164	yaw:	3.660	yaw rate:	-43.069	Roll:	3.904	Pitch:	-1.028	Yaw:	-1.377	Thrust:	72.176
Time:	3.196	Roll Set Point:	-0.127	Pitch Set Point:	-0.022	Yaw Set Point:	-0.068	X_WP:	0.100	Y_WP:	0.000	Y_WP:	0.500	X:	0.113	Y:	0.012	Z:	0.171	yaw:	3.879	yaw rate:	21.916	Roll:	5.121	Pitch:	-2.011	Yaw:	10.841	Thrust:	63.166
Time:	3.206	Roll Set Point:	-0.132	Pitch Set Point:	-0.021	Yaw Set Point:	-0.068	X_WP:	0.100	Y_WP:	0.000	Y_WP:	0.500	X:	0.116	Y:	0.011	Z:	0.174	yaw:	3.902	yaw rate:	2.318	Roll:	4.265	Pitch:	-0.986	Yaw:	6.963	Thrust:	57.381
Time:	3.222	Roll Set Point:	-0.137	Pitch Set Point:	-0.019	Yaw Set Point:	-0.069	X_WP:	0.100	Y_WP:	0.000	Y_WP:	0.500	X:	0.118	Y:	0.010	Z:	0.178	yaw:	3.967	yaw rate:	6.531	Roll:	3.748	Pitch:	-0.912	Yaw:	8.046	Thrust:	78.958
Time:	3.233	Roll Set Point:	-0.147	Pitch Set Point:	-0.015	Yaw Set Point:	-0.070	X_WP:	0.100	Y_WP:	0.000	Y_WP:	0.500	X:	0.123	Y:	0.008	Z:	0.186	yaw:	3.984	yaw rate:	63.369	Roll:	6.634	Pitch:	-2.538	Yaw:	6.966	Thrust:	39.014
Time:	3.244	Roll Set Point:	-0.151	Pitch Set Point:	-0.013	Yaw Set Point:	-0.059	X_WP:	0.100	Y_WP:	0.000	Y_WP:	0.500	X:	0.126	Y:	0.007	Z:	0.190	yaw:	3.388	yaw rate:	-59.526	Roll:	4.275	Pitch:	-1.181	Yaw:	-8.334	Thrust:	57.114
Time:	3.258	Roll Set Point:	-0.156	Pitch Set Point:	-0.012	Yaw Set Point:	-0.063	X_WP:	0.100	Y_WP:	0.000	Y_WP:	0.500	X:	0.128	Y:	0.007	Z:	0.194	yaw:	3.593	yaw rate:	20.465	Roll:	3.568	Pitch:	-0.499	Yaw:	10.250	Thrust:	70.241
Time:	3.269	Roll Set Point:	-0.161	Pitch Set Point:	-0.010	Yaw Set Point:	-0.067	X_WP:	0.100	Y_WP:	0.000	Y_WP:	0.500	X:	0.130	Y:	0.006	Z:	0.199	yaw:	3.819	yaw rate:	22.576	Roll:	4.182	Pitch:	-1.521	Yaw:	11.741	Thrust:	52.690
Time:	3.286	Roll Set Point:	-0.166	Pitch Set Point:	-0.009	Yaw Set Point:	-0.059	X_WP:	0.100	Y_WP:	0.000	Y_WP:	0.500	X:	0.133	Y:	0.005	Z:	0.204	yaw:	3.393	yaw rate:	-42.613	Roll:	3.330	Pitch:	-0.482	Yaw:	-0.154	Thrust:	83.999
Time:	3.298	Roll Set Point:	-0.179	Pitch Set Point:	-0.004	Yaw Set Point:	-0.062	X_WP:	0.100	Y_WP:	0.000	Y_WP:	0.500	X:	0.140	Y:	0.003	Z:	0.218	yaw:	3.568	yaw rate:	-24.013	Roll:	8.568	Pitch:	-3.055	Yaw:	9.874	Thrust:	36.449
Time:	3.309	Roll Set Point:	-0.183	Pitch Set Point:	-0.003	Yaw Set Point:	-0.057	X_WP:	0.100	Y_WP:	0.000	Y_WP:	0.500	X:	0.141	Y:	0.002	Z:	0.223	yaw:	3.267	yaw rate:	-30.071	Roll:	3.873	Pitch:	-0.777	Yaw:	-1.456	Thrust:	52.977
Time:	3.323	Roll Set Point:	-0.187	Pitch Set Point:	-0.001	Yaw Set Point:	-0.056	X_WP:	0.100	Y_WP:	0.000	Y_WP:	0.500	X:	0.144	Y:	0.002	Z:	0.227	yaw:	3.201	yaw rate:	-6.648	Roll:	3.840	Pitch:	-0.974	Yaw:	4.438	Thrust:	66.051
Time:	3.334	Roll Set Point:	-0.192	Pitch Set Point:	0.000	Yaw Set Point:	-0.056	X_WP:	0.100	Y_WP:	0.000	Y_WP:	0.500	X:	0.146	Y:	0.001	Z:	0.232	yaw:	3.183	yaw rate:	-1.834	Roll:	4.263	Pitch:	-0.718	Yaw:	5.179	Thrust:	54.423
Time:	3.347	Roll Set Point:	-0.195	Pitch Set Point:	0.001	Yaw Set Point:	-0.056	X_WP:	0.100	Y_WP:	0.000	Y_WP:	0.500	X:	0.148	Y:	0.001	Z:	0.237	yaw:	3.201	yaw rate:	1.820	Roll:	3.917	Pitch:	-1.038	Yaw:	6.049	Thrust:	56.495
Time:	3.358	Roll Set Point:	-0.199	Pitch Set Point:	0.002	Yaw Set Point:	-0.057	X_WP:	0.100	Y_WP:	0.000	Y_WP:	0.500	X:	0.150	Y:	0.000	Z:	0.242	yaw:	3.240	yaw rate:	3.883	Roll:	3.790	Pitch:	-0.605	Yaw:	6.589	Thrust:	58.873
Time:	3.369	Roll Set Point:	-0.203	Pitch Set Point:	0.004	Yaw Set Point:	-0.059	X_WP:	0.100	Y_WP:	0.000	Y_WP:	0.500	X:	0.152	Y:	-0.000	Z:	0.247	yaw:	3.387	yaw rate:	14.697	Roll:	4.200	Pitch:	-1.270	Yaw:	9.413	Thrust:	51.800
Time:	3.382	Roll Set Point:	-0.207	Pitch Set Point:	0.005	Yaw Set Point:	-0.056	X_WP:	0.100	Y_WP:	0.000	Y_WP:	0.500	X:	0.153	Y:	-0.001	Z:	0.253	yaw:	3.184	yaw rate:	-20.253	Roll:	4.442	Pitch:	-0.646	Yaw:	1.250	Thrust:	58.249
Time:	3.396	Roll Set Point:	-0.214	Pitch Set Point:	0.007	Yaw Set Point:	-0.052	X_WP:	0.100	Y_WP:	0.000	Y_WP:	0.500	X:	0.157	Y:	-0.002	Z:	0.263	yaw:	2.993	yaw rate:	-8.966	Roll:	5.005	Pitch:	-1.129	Yaw:	2.512	Thrust:	61.891
Time:	3.407	Roll Set Point:	-0.217	Pitch Set Point:	0.008	Yaw Set Point:	-0.054	X_WP:	0.100	Y_WP:	0.000	Y_WP:	0.500	X:	0.159	Y:	-0.002	Z:	0.268	yaw:	3.102	yaw rate:	10.896	Roll:	3.837	Pitch:	-1.018	Yaw:	8.088	Thrust:	50.758
Time:	3.421	Roll Set Point:	-0.224	Pitch Set Point:	0.010	Yaw Set Point:	-0.047	X_WP:	0.100	Y_WP:	0.000	Y_WP:	0.500	X:	0.162	Y:	-0.003	Z:	0.279	yaw:	2.666	yaw rate:	-43.635	Roll:	6.821	Pitch:	-1.035	Yaw:	-4.115	Thrust:	37.528
Time:	3.433	Roll Set Point:	-0.227	Pitch Set Point:	0.011	Yaw Set Point:	-0.055	X_WP:	0.100	Y_WP:	0.000	Y_WP:	0.500	X:	0.164	Y:	-0.004	Z:	0.284	yaw:	3.149	yaw rate:	48.349	Roll:	3.681	Pitch:	-1.102	Yaw:	15.760	Thrust:	63.897
Time:	3.446	Roll Set Point:	-0.230	Pitch Set Point:	0.011	Yaw Set Point:	-0.053	X_WP:	0.100	Y_WP:	0.000	Y_WP:	0.500	X:	0.165	Y:	-0.004	Z:	0.290	yaw:	3.034	yaw rate:	-11.473	Roll:	3.643	Pitch:	-0.415	Yaw:	3.337	Thrust:	66.210
Time:	3.457	Roll Set Point:	-0.233	Pitch Set Point:	0.012	Yaw Set Point:	-0.048	X_WP:	0.100	Y_WP:	0.000	Y_WP:	0.500	X:	0.167	Y:	-0.004	Z:	0.295	yaw:	2.735	yaw rate:	-29.909	Roll:	3.888	Pitch:	-0.437	Yaw:	-1.786	Thrust:	54.318
Time:	3.468	Roll Set Point:	-0.236	Pitch Set Point:	0.012	Yaw Set Point:	-0.043	X_WP:	0.100	Y_WP:	0.000	Y_WP:	0.500	X:	0.168	Y:	-0.005	Z:	0.300	yaw:	2.480	yaw rate:	-25.485	Roll:	3.978	Pitch:	-0.325	Yaw:	-1.484	Thrust:	49.869
Time:	3.480	Roll Set Point:	-0.239	Pitch Set Point:	0.013	Yaw Set Point:	-0.043	X_WP:	0.100	Y_WP:	0.000	Y_WP:	0.500	X:	0.170	Y:	-0.005	Z:	0.306	yaw:	2.485	yaw rate:	0.461	Roll:	4.122	Pitch:	-0.717	Yaw:	4.683	Thrust:	49.649
Time:	3.493	Roll Set Point:	-0.242	Pitch Set Point:	0.013	Yaw Set Point:	-0.039	X_WP:	0.100	Y_WP:	0.000	Y_WP:	0.500	X:	0.171	Y:	-0.005	Z:	0.311	yaw:	2.247	yaw rate:	-23.756	Roll:	3.682	Pitch:	-0.115	Yaw:	-0.097	Thrust:	67.853
Time:	3.504	Roll Set Point:	-0.244	Pitch Set Point:	0.014	Yaw Set Point:	-0.040	X_WP:	0.100	Y_WP:	0.000	Y_WP:	0.500	X:	0.172	Y:	-0.006	Z:	0.316	yaw:	2.290	yaw rate:	4.299	Roll:	3.709	Pitch:	-0.884	Yaw:	5.321	Thrust:	49.506
Time:	3.520	Roll Set Point:	-0.247	Pitch Set Point:	0.016	Yaw Set Point:	-0.050	X_WP:	0.100	Y_WP:	0.000	Y_WP:	0.500	X:	0.174	Y:	-0.006	Z:	0.322	yaw:	2.881	yaw rate:	59.092	Roll:	3.161	Pitch:	-1.254	Yaw:	15.268	Thrust:	83.925
Time:	3.532	Roll Set Point:	-0.254	Pitch Set Point:	0.016	Yaw Set Point:	-0.033	X_WP:	0.100	Y_WP:	0.000	Y_WP:	0.500	X:	0.177	Y:	-0.007	Z:	0.337	yaw:	1.918	yaw rate:	-29.561	Roll:	6.950	Pitch:	0.128	Yaw:	-16.200	Thrust:	22.940
Time:	3.544	Roll Set Point:	-0.256	Pitch Set Point:	0.017	Yaw Set Point:	-0.036	X_WP:	0.100	Y_WP:	0.000	Y_WP:	0.500	X:	0.178	Y:	-0.007	Z:	0.342	yaw:	2.039	yaw rate:	12.167	Roll:	3.659	Pitch:	-0.672	Yaw:	6.807	Thrust:	50.982
Time:	3.557	Roll Set Point:	-0.259	Pitch Set Point:	0.017	Yaw Set Point:	-0.036	X_WP:	0.100	Y_WP:	0.000	Y_WP:	0.500	X:	0.180	Y:	-0.007	Z:	0.348	yaw:	2.071	yaw rate:	3.183	Roll:	3.805	Pitch:	-0.407	Yaw:	4.811	Thrust:	59.589
Time:	3.568	Roll Set Point:	-0.261	Pitch Set Point:	0.017	Yaw Set Point:	-0.030	X_WP:	0.100	Y_WP:	0.000	Y_WP:	0.500	X:	0.180	Y:	-0.007	Z:	0.353	yaw:	1.731	yaw rate:	-34.042	Roll:	3.665	Pitch:	0.101	Yaw:	-4.160	Thrust:	53.382
Time:	3.584	Roll Set Point:	-0.262	Pitch Set Point:	0.018	Yaw Set Point:	-0.035	X_WP:	0.100	Y_WP:	0.000	Y_WP:	0.500	X:	0.181	Y:	-0.008	Z:	0.358	yaw:	2.024	yaw rate:	29.282	Roll:	3.105	Pitch:	-1.194	Yaw:	9.307	Thrust:	74.579
Time:	3.596	Roll Set Point:	-0.266	Pitch Set Point:	0.018	Yaw Set Point:	-0.028	X_WP:	0.100	Y_WP:	0.000	Y_WP:	0.500	X:	0.183	Y:	-0.008	Z:	0.368	yaw:	1.630	yaw rate:	-3.235	Roll:	4.622	Pitch:	0.237	Yaw:	-4.295	Thrust:	57.099
Time:	3.608	Roll Set Point:	-0.268	Pitch Set Point:	0.019	Yaw Set Point:	-0.033	X_WP:	0.100	Y_WP:	0.000	Y_WP:	0.500	X:	0.184	Y:	-0.008	Z:	0.372	yaw:	1.883	yaw rate:	25.305	Roll:	3.487	Pitch:	-1.123	Yaw:	9.961	Thrust:	48.492
Time:	3.620	Roll Set Point:	-0.269	Pitch Set Point:	0.019	Yaw Set Point:	-0.023	X_WP:	0.100	Y_WP:	0.000	Y_WP:	0.500	X:	0.185	Y:	-0.008	Z:	0.377	yaw:	1.307	yaw rate:	-57.675	Roll:	3.427	Pitch:	0.624	Yaw:	-8.447	Thrust:	66.161
Time:	3.631	Roll Set Point:	-0.273	Pitch Set Point:	0.019	Yaw Set Point:	-0.022	X_WP:	0.100	Y_WP:	0.000	Y_WP:	0.500	X:	0.186	Y:	-0.009	Z:	0.385	yaw:	1.238	yaw rate:	-6.861	Roll:	4.974	Pitch:	-0.584	Yaw:	1.203	Thrust:	36.248
Time:	3.642	Roll Set Point:	-0.274	Pitch Set Point:	0.020	Yaw Set Point:	-0.021	X_WP:	0.100	Y_WP:	0.000	Y_WP:	0.500	X:	0.187	Y:	-0.009	Z:	0.388	yaw:	1.210	yaw rate:	-2.759	Roll:	3.426	Pitch:	-0.557	Yaw:	2.091	Thrust:	52.149
Time:	3.656	Roll Set Point:	-0.276	Pitch Set Point:	0.020	Yaw Set Point:	-0.029	X_WP:	0.100	Y_WP:	0.000	Y_WP:	0.500	X:	0.188	Y:	-0.009	Z:	0.392	yaw:	1.637	yaw rate:	42.673	Roll:	3.264	Pitch:	-0.782	Yaw:	11.410	Thrust:	77.811
Time:	3.668	Roll Set Point:	-0.277	Pitch Set Point:	0.021	Yaw Set Point:	-0.027	X_WP:	0.100	Y_WP:	0.000	Y_WP:	0.500	X:	0.189	Y:	-0.009	Z:	0.396	yaw:	1.561	yaw rate:	-7.636	Roll:	3.246	Pitch:	-0.590	Yaw:	1.599	Thrust:	56.966
Time:	3.683	Roll Set Point:	-0.278	Pitch Set Point:	0.021	Yaw Set Point:	-0.022	X_WP:	0.100	Y_WP:	0.000	Y_WP:	0.500	X:	0.189	Y:	-0.009	Z:	0.400	yaw:	1.284	yaw rate:	-27.648	Roll:	3.055	Pitch:	0.100	Yaw:	-1.303	Thrust:	77.719
Time:	3.696	Roll Set Point:	-0.280	Pitch Set Point:	0.020	Yaw Set Point:	-0.021	X_WP:	0.100	Y_WP:	0.000	Y_WP:	0.500	X:	0.190	Y:	-0.009	Z:	0.408	yaw:	1.179	yaw rate:	-21.600	Roll:	3.775	Pitch:	0.061	Yaw:	0.664	Thrust:	57.806
Time:	3.706	Roll Set Point:	-0.281	Pitch Set Point:	0.021	Yaw Set Point:	-0.024	X_WP:	0.100	Y_WP:	0.000	Y_WP:	0.500	X:	0.190	Y:	-0.010	Z:	0.411	yaw:	1.397	yaw rate:	21.761	Roll:	2.919	Pitch:	-1.352	Yaw:	8.634	Thrust:	47.429
Time:	3.720	Roll Set Point:	-0.282	Pitch Set Point:	0.021	Yaw Set Point:	-0.018	X_WP:	0.100	Y_WP:	0.000	Y_WP:	0.500	X:	0.191	Y:	-0.010	Z:	0.415	yaw:	1.032	yaw rate:	-36.483	Roll:	3.323	Pitch:	0.427	Yaw:	-3.947	Thrust:	67.992
Time:	3.732	Roll Set Point:	-0.282	Pitch Set Point:	0.021	Yaw Set Point:	-0.019	X_WP:	0.100	Y_WP:	0.000	Y_WP:	0.500	X:	0.191	Y:	-0.010	Z:	0.418	yaw:	1.080	yaw rate:	4.806	Roll:	2.981	Pitch:	-0.312	Yaw:	3.757	Thrust:	68.552
Time:	3.744	Roll Set Point:	-0.283	Pitch Set Point:	0.022	Yaw Set Point:	-0.021	X_WP:	0.100	Y_WP:	0.000	Y_WP:	0.500	X:	0.192	Y:	-0.010	Z:	0.422	yaw:	1.232	yaw rate:	15.156	Roll:	3.154	Pitch:	-0.726	Yaw:	6.220	Thrust:	61.258
Time:	3.758	Roll Set Point:	-0.284	Pitch Set Point:	0.022	Yaw Set Point:	-0.016	X_WP:	0.100	Y_WP:	0.000	Y_WP:	0.500	X:	0.192	Y:	-0.010	Z:	0.429	yaw:	0.899	yaw rate:	-33.322	Roll:	2.984	Pitch:	-0.070	Yaw:	-3.539	Thrust:	58.318
Time:	3.768	Roll Set Point:	-0.284	Pitch Set Point:	0.023	Yaw Set Point:	-0.021	X_WP:	0.100	Y_WP:	0.000	Y_WP:	0.500	X:	0.192	Y:	-0.010	Z:	0.433	yaw:	1.209	yaw rate:	31.002	Roll:	2.451	Pitch:	-1.072	Yaw:	10.450	Thrust:	52.557
Time:	3.784	Roll Set Point:	-0.285	Pitch Set Point:	0.021	Yaw Set Point:	-0.008	X_WP:	0.100	Y_WP:	0.000	Y_WP:	0.500	X:	0.192	Y:	-0.010	Z:	0.437	yaw:	0.433	yaw rate:	-77.588	Roll:	3.114	Pitch:	1.180	Yaw:	-11.386	Thrust:	79.589
Time:	3.796	Roll Set Point:	-0.285	Pitch Set Point:	0.022	Yaw Set Point:	-0.012	X_WP:	0.100	Y_WP:	0.000	Y_WP:	0.500	X:	0.193	Y:	-0.010	Z:	0.446	yaw:	0.695	yaw rate:	23.122	Roll:	2.751	Pitch:	-0.880	Yaw:	7.530	Thrust:	51.329
Time:	3.807	Roll Set Point:	-0.285	Pitch Set Point:	0.022	Yaw Set Point:	-0.016	X_WP:	0.100	Y_WP:	0.000	Y_WP:	0.500	X:	0.193	Y:	-0.010	Z:	0.450	yaw:	0.909	yaw rate:	21.470	Roll:	2.566	Pitch:	-0.798	Yaw:	7.528	Thrust:	48.999
Time:	3.820	Roll Set Point:	-0.285	Pitch Set Point:	0.024	Yaw Set Point:	-0.025	X_WP:	0.100	Y_WP:	0.000	Y_WP:	0.500	X:	0.192	Y:	-0.011	Z:	0.454	yaw:	1.412	yaw rate:	50.250	Roll:	2.153	Pitch:	-1.690	Yaw:	13.358	Thrust:	65.396
Time:	3.832	Roll Set Point:	-0.285	Pitch Set Point:	0.022	Yaw Set Point:	-0.006	X_WP:	0.100	Y_WP:	0.000	Y_WP:	0.500	X:	0.193	Y:	-0.011	Z:	0.458	yaw:	0.353	yaw rate:	-105.862	Roll:	3.069	Pitch:	2.177	Yaw:	-22.391	Thrust:	52.692
Time:	3.843	Roll Set Point:	-0.285	Pitch Set Point:	0.022	Yaw Set Point:	-0.007	X_WP:	0.100	Y_WP:	0.000	Y_WP:	0.500	X:	0.192	Y:	-0.011	Z:	0.463	yaw:	0.373	yaw rate:	1.926	Roll:	2.310	Pitch:	-0.363	Yaw:	2.057	Thrust:	46.056
Time:	3.856	Roll Set Point:	-0.284	Pitch Set Point:	0.022	Yaw Set Point:	-0.001	X_WP:	0.100	Y_WP:	0.000	Y_WP:	0.500	X:	0.192	Y:	-0.011	Z:	0.472	yaw:	0.055	yaw rate:	-31.789	Roll:	2.347	Pitch:	0.237	Yaw:	-5.000	Thrust:	47.617
Time:	3.867	Roll Set Point:	-0.284	Pitch Set Point:	0.022	Yaw Set Point:	0.000	X_WP:	0.100	Y_WP:	0.000	Y_WP:	0.500	X:	0.192	Y:	-0.011	Z:	0.476	yaw:	-0.007	yaw rate:	-6.155	Roll:	2.274	Pitch:	-0.189	Yaw:	-0.368	Thrust:	47.924
Time:	3.880	Roll Set Point:	-0.283	Pitch Set Point:	0.022	Yaw Set Point:	-0.002	X_WP:	0.100	Y_WP:	0.000	Y_WP:	0.500	X:	0.192	Y:	-0.011	Z:	0.481	yaw:	0.093	yaw rate:	9.970	Roll:	2.264	Pitch:	-0.476	Yaw:	3.496	Thrust:	56.062
Time:	3.891	Roll Set Point:	-0.283	Pitch Set Point:	0.023	Yaw Set Point:	-0.002	X_WP:	0.100	Y_WP:	0.000	Y_WP:	0.500	X:	0.191	Y:	-0.011	Z:	0.485	yaw:	0.135	yaw rate:	4.216	Roll:	2.146	Pitch:	-0.398	Yaw:	2.323	Thrust:	58.964
Time:	3.902	Roll Set Point:	-0.281	Pitch Set Point:	0.023	Yaw Set Point:	-0.010	X_WP:	0.100	Y_WP:	0.000	Y_WP:	0.500	X:	0.191	Y:	-0.011	Z:	0.494	yaw:	0.559	yaw rate:	-39.685	Roll:	1.377	Pitch:	-1.480	Yaw:	11.958	Thrust:	28.404
Time:	3.917	Roll Set Point:	-0.281	Pitch Set Point:	0.022	Yaw Set Point:	0.003	X_WP:	0.100	Y_WP:	0.000	Y_WP:	0.500	X:	0.190	Y:	-0.011	Z:	0.499	yaw:	-0.169	yaw rate:	-72.839	Roll:	2.349	Pitch:	1.377	Yaw:	-11.880	Thrust:	65.905
Time:	3.929	Roll Set Point:	-0.281	Pitch Set Point:	0.023	Yaw Set Point:	-0.003	X_WP:	0.100	Y_WP:	0.000	Y_WP:	0.500	X:	0.190	Y:	-0.011	Z:	0.503	yaw:	0.157	yaw rate:	32.625	Roll:	2.267	Pitch:	-0.708	Yaw:	8.290	Thrust:	65.154
Time:	3.940	Roll Set Point:	-0.280	Pitch Set Point:	0.022	Yaw Set Point:	0.007	X_WP:	0.100	Y_WP:	0.000	Y_WP:	0.500	X:	0.190	Y:	-0.011	Z:	0.507	yaw:	-0.400	yaw rate:	-55.704	Roll:	1.919	Pitch:	1.099	Yaw:	-13.920	Thrust:	40.288
Time:	3.955	Roll Set Point:	-0.279	Pitch Set Point:	0.022	Yaw Set Point:	0.003	X_WP:	0.100	Y_WP:	0.000	Y_WP:	0.500	X:	0.189	Y:	-0.011	Z:	0.512	yaw:	-0.193	yaw rate:	20.678	Roll:	1.730	Pitch:	-0.759	Yaw:	4.901	Thrust:	69.164
Time:	3.967	Roll Set Point:	-0.277	Pitch Set Point:	0.022	Yaw Set Point:	0.000	X_WP:	0.100	Y_WP:	0.000	Y_WP:	0.500	X:	0.188	Y:	-0.011	Z:	0.520	yaw:	-0.027	yaw rate:	28.651	Roll:	1.519	Pitch:	-0.353	Yaw:	4.600	Thrust:	47.175
Time:	3.984	Roll Set Point:	-0.275	Pitch Set Point:	0.022	Yaw Set Point:	0.009	X_WP:	0.100	Y_WP:	0.000	Y_WP:	0.500	X:	0.187	Y:	-0.011	Z:	0.528	yaw:	-0.533	yaw rate:	-50.606	Roll:	1.185	Pitch:	0.588	Yaw:	-6.809	Thrust:	80.949
Time:	3.997	Roll Set Point:	-0.274	Pitch Set Point:	0.022	Yaw Set Point:	0.009	X_WP:	0.100	Y_WP:	0.000	Y_WP:	0.500	X:	0.187	Y:	-0.011	Z:	0.532	yaw:	-0.513	yaw rate:	2.022	Roll:	1.868	Pitch:	-0.280	Yaw:	1.000	Thrust:	62.484
Time:	4.008	Roll Set Point:	-0.273	Pitch Set Point:	0.022	Yaw Set Point:	0.012	X_WP:	0.100	Y_WP:	0.000	Y_WP:	0.500	X:	0.186	Y:	-0.011	Z:	0.536	yaw:	-0.672	yaw rate:	-15.917	Roll:	1.646	Pitch:	0.276	Yaw:	-3.831	Thrust:	43.710
Time:	4.022	Roll Set Point:	-0.272	Pitch Set Point:	0.021	Yaw Set Point:	0.013	X_WP:	0.100	Y_WP:	0.000	Y_WP:	0.500	X:	0.186	Y:	-0.011	Z:	0.540	yaw:	-0.756	yaw rate:	-8.462	Roll:	1.783	Pitch:	-0.011	Yaw:	-1.137	Thrust:	71.364
Time:	4.034	Roll Set Point:	-0.269	Pitch Set Point:	0.022	Yaw Set Point:	0.011	X_WP:	0.100	Y_WP:	0.000	Y_WP:	0.500	X:	0.184	Y:	-0.011	Z:	0.548	yaw:	-0.615	yaw rate:	-0.361	Roll:	0.313	Pitch:	-0.542	Yaw:	3.590	Thrust:	30.124
Time:	4.044	Roll Set Point:	-0.268	Pitch Set Point:	0.022	Yaw Set Point:	0.010	X_WP:	0.100	Y_WP:	0.000	Y_WP:	0.500	X:	0.184	Y:	-0.011	Z:	0.552	yaw:	-0.563	yaw rate:	5.162	Roll:	1.712	Pitch:	-0.274	Yaw:	1.536	Thrust:	41.103
Time:	4.057	Roll Set Point:	-0.267	Pitch Set Point:	0.022	Yaw Set Point:	0.009	X_WP:	0.100	Y_WP:	0.000	Y_WP:	0.500	X:	0.183	Y:	-0.011	Z:	0.556	yaw:	-0.515	yaw rate:	4.843	Roll:	1.590	Pitch:	-0.188	Yaw:	1.538	Thrust:	59.366
Time:	4.068	Roll Set Point:	-0.266	Pitch Set Point:	0.022	Yaw Set Point:	0.005	X_WP:	0.100	Y_WP:	0.000	Y_WP:	0.500	X:	0.183	Y:	-0.011	Z:	0.561	yaw:	-0.310	yaw rate:	20.474	Roll:	1.455	Pitch:	-0.673	Yaw:	5.693	Thrust:	37.043
Time:	4.080	Roll Set Point:	-0.264	Pitch Set Point:	0.021	Yaw Set Point:	0.011	X_WP:	0.100	Y_WP:	0.000	Y_WP:	0.500	X:	0.182	Y:	-0.011	Z:	0.565	yaw:	-0.624	yaw rate:	-31.338	Roll:	1.211	Pitch:	0.505	Yaw:	-6.849	Thrust:	51.297
Time:	4.094	Roll Set Point:	-0.263	Pitch Set Point:	0.022	Yaw Set Point:	0.011	X_WP:	0.100	Y_WP:	0.000	Y_WP:	0.500	X:	0.181	Y:	-0.011	Z:	0.569	yaw:	-0.651	yaw rate:	-2.760	Roll:	1.450	Pitch:	-0.233	Yaw:	0.022	Thrust:	68.958
Time:	4.105	Roll Set Point:	-0.260	Pitch Set Point:	0.022	Yaw Set Point:	0.004	X_WP:	0.100	Y_WP:	0.000	Y_WP:	0.500	X:	0.180	Y:	-0.011	Z:	0.577	yaw:	-0.235	yaw rate:	41.651	Roll:	0.384	Pitch:	-1.007	Yaw:	10.564	Thrust:	29.037
Time:	4.120	Roll Set Point:	-0.259	Pitch Set Point:	0.021	Yaw Set Point:	0.017	X_WP:	0.100	Y_WP:	0.000	Y_WP:	0.500	X:	0.179	Y:	-0.011	Z:	0.581	yaw:	-0.964	yaw rate:	-72.905	Roll:	1.511	Pitch:	1.120	Yaw:	-13.045	Thrust:	58.412
Time:	4.131	Roll Set Point:	-0.257	Pitch Set Point:	0.021	Yaw Set Point:	0.017	X_WP:	0.100	Y_WP:	0.000	Y_WP:	0.500	X:	0.178	Y:	-0.011	Z:	0.588	yaw:	-0.973	yaw rate:	-18.408	Roll:	0.541	Pitch:	-0.138	Yaw:	-0.445	Thrust:	46.096
Time:	4.142	Roll Set Point:	-0.255	Pitch Set Point:	0.021	Yaw Set Point:	0.016	X_WP:	0.100	Y_WP:	0.000	Y_WP:	0.500	X:	0.177	Y:	-0.011	Z:	0.591	yaw:	-0.929	yaw rate:	4.404	Roll:	1.010	Pitch:	-0.476	Yaw:	0.818	Thrust:	46.200
Time:	4.156	Roll Set Point:	-0.254	Pitch Set Point:	0.021	Yaw Set Point:	0.017	X_WP:	0.100	Y_WP:	0.000	Y_WP:	0.500	X:	0.177	Y:	-0.011	Z:	0.595	yaw:	-0.946	yaw rate:	-1.697	Roll:	1.542	Pitch:	0.113	Yaw:	-0.336	Thrust:	62.137
Time:	4.167	Roll Set Point:	-0.252	Pitch Set Point:	0.021	Yaw Set Point:	0.020	X_WP:	0.100	Y_WP:	0.000	Y_WP:	0.500	X:	0.176	Y:	-0.011	Z:	0.598	yaw:	-1.156	yaw rate:	-21.030	Roll:	1.144	Pitch:	0.133	Yaw:	-5.544	Thrust:	46.037
Time:	4.177	Roll Set Point:	-0.251	Pitch Set Point:	0.021	Yaw Set Point:	0.016	X_WP:	0.100	Y_WP:	0.000	Y_WP:	0.500	X:	0.175	Y:	-0.011	Z:	0.601	yaw:	-0.939	yaw rate:	21.726	Roll:	1.046	Pitch:	-0.389	Yaw:	5.100	Thrust:	41.232
Time:	4.189	Roll Set Point:	-0.250	Pitch Set Point:	0.021	Yaw Set Point:	0.023	X_WP:	0.100	Y_WP:	0.000	Y_WP:	0.500	X:	0.175	Y:	-0.011	Z:	0.604	yaw:	-1.340	yaw rate:	-40.157	Roll:	1.218	Pitch:	0.346	Yaw:	-9.877	Thrust:	50.624
Time:	4.200	Roll Set Point:	-0.249	Pitch Set Point:	0.021	Yaw Set Point:	0.011	X_WP:	0.100	Y_WP:	0.000	Y_WP:	0.500	X:	0.174	Y:	-0.011	Z:	0.606	yaw:	-0.659	yaw rate:	68.170	Roll:	1.143	Pitch:	-1.573	Yaw:	16.312	Thrust:	46.429
Time:	4.213	Roll Set Point:	-0.246	Pitch Set Point:	0.021	Yaw Set Point:	0.018	X_WP:	0.100	Y_WP:	0.000	Y_WP:	0.500	X:	0.173	Y:	-0.011	Z:	0.612	yaw:	-1.049	yaw rate:	-39.042	Roll:	0.262	Pitch:	0.656	Yaw:	-8.415	Thrust:	36.242
Time:	4.229	Roll Set Point:	-0.243	Pitch Set Point:	0.020	Yaw Set Point:	0.022	X_WP:	0.100	Y_WP:	0.000	Y_WP:	0.500	X:	0.172	Y:	-0.011	Z:	0.616	yaw:	-1.282	yaw rate:	-2.134	Roll:	0.757	Pitch:	0.165	Yaw:	-3.906	Thrust:	86.296
Time:	4.240	Roll Set Point:	-0.241	Pitch Set Point:	0.021	Yaw Set Point:	0.017	X_WP:	0.100	Y_WP:	0.000	Y_WP:	0.500	X:	0.171	Y:	-0.011	Z:	0.618	yaw:	-0.984	yaw rate:	29.766	Roll:	0.610	Pitch:	-1.025	Yaw:	6.728	Thrust:	49.067
Time:	4.253	Roll Set Point:	-0.240	Pitch Set Point:	0.021	Yaw Set Point:	0.021	X_WP:	0.100	Y_WP:	0.000	Y_WP:	0.500	X:	0.170	Y:	-0.011	Z:	0.620	yaw:	-1.208	yaw rate:	-22.431	Roll:	1.252	Pitch:	0.448	Yaw:	-4.956	Thrust:	61.865
Time:	4.265	Roll Set Point:	-0.239	Pitch Set Point:	0.020	Yaw Set Point:	0.028	X_WP:	0.100	Y_WP:	0.000	Y_WP:	0.500	X:	0.169	Y:	-0.011	Z:	0.621	yaw:	-1.577	yaw rate:	-36.905	Roll:	1.325	Pitch:	0.316	Yaw:	-9.110	Thrust:	52.237
Time:	4.276	Roll Set Point:	-0.238	Pitch Set Point:	0.021	Yaw Set Point:	0.013	X_WP:	0.100	Y_WP:	0.000	Y_WP:	0.500	X:	0.169	Y:	-0.011	Z:	0.623	yaw:	-0.748	yaw rate:	82.910	Roll:	1.000	Pitch:	-1.591	Yaw:	20.350	Thrust:	50.252
Time:	4.289	Roll Set Point:	-0.237	Pitch Set Point:	0.020	Yaw Set Point:	0.030	X_WP:	0.100	Y_WP:	0.000	Y_WP:	0.500	X:	0.168	Y:	-0.011	Z:	0.624	yaw:	-1.696	yaw rate:	-94.760	Roll:	1.237	Pitch:	1.451	Yaw:	-20.187	Thrust:	62.060
Time:	4.300	Roll Set Point:	-0.235	Pitch Set Point:	0.020	Yaw Set Point:	0.030	X_WP:	0.100	Y_WP:	0.000	Y_WP:	0.500	X:	0.167	Y:	-0.011	Z:	0.626	yaw:	-1.731	yaw rate:	-3.542	Roll:	0.789	Pitch:	0.133	Yaw:	-2.161	Thrust:	49.298
Time:	4.313	Roll Set Point:	-0.234	Pitch Set Point:	0.020	Yaw Set Point:	0.028	X_WP:	0.100	Y_WP:	0.000	Y_WP:	0.500	X:	0.167	Y:	-0.011	Z:	0.627	yaw:	-1.590	yaw rate:	14.170	Roll:	0.921	Pitch:	-0.559	Yaw:	1.955	Thrust:	57.019
Time:	4.325	Roll Set Point:	-0.233	Pitch Set Point:	0.020	Yaw Set Point:	0.026	X_WP:	0.100	Y_WP:	0.000	Y_WP:	0.500	X:	0.166	Y:	-0.011	Z:	0.628	yaw:	-1.504	yaw rate:	8.544	Roll:	1.351	Pitch:	-0.232	Yaw:	0.823	Thrust:	57.860
Time:	4.335	Roll Set Point:	-0.232	Pitch Set Point:	0.020	Yaw Set Point:	0.030	X_WP:	0.100	Y_WP:	0.000	Y_WP:	0.500	X:	0.166	Y:	-0.011	Z:	0.630	yaw:	-1.731	yaw rate:	-22.721	Roll:	1.033	Pitch:	0.402	Yaw:	-7.093	Thrust:	46.651
Time:	4.347	Roll Set Point:	-0.229	Pitch Set Point:	0.019	Yaw Set Point:	0.037	X_WP:	0.100	Y_WP:	0.000	Y_WP:	0.500	X:	0.164	Y:	-0.011	Z:	0.632	yaw:	-2.125	yaw rate:	-39.369	Roll:	0.150	Pitch:	0.487	Yaw:	-10.454	Thrust:	51.849
Time:	4.361	Roll Set Point:	-0.228	Pitch Set Point:	0.019	Yaw Set Point:	0.038	X_WP:	0.100	Y_WP:	0.000	Y_WP:	0.500	X:	0.164	Y:	-0.011	Z:	0.633	yaw:	-2.158	yaw rate:	-3.310	Roll:	1.009	Pitch:	0.100	Yaw:	-2.442	Thrust:	61.286
Time:	4.371	Roll Set Point:	-0.226	Pitch Set Point:	0.019	Yaw Set Point:	0.028	X_WP:	0.100	Y_WP:	0.000	Y_WP:	0.500	X:	0.163	Y:	-0.011	Z:	0.634	yaw:	-1.600	yaw rate:	55.770	Roll:	0.451	Pitch:	-1.197	Yaw:	12.520	Thrust:	50.959
Time:	4.384	Roll Set Point:	-0.225	Pitch Set Point:	0.019	Yaw Set Point:	0.033	X_WP:	0.100	Y_WP:	0.000	Y_WP:	0.500	X:	0.163	Y:	-0.011	Z:	0.635	yaw:	-1.919	yaw rate:	-31.882	Roll:	1.250	Pitch:	0.429	Yaw:	-7.935	Thrust:	61.239
Time:	4.398	Roll Set Point:	-0.225	Pitch Set Point:	0.018	Yaw Set Point:	0.039	X_WP:	0.100	Y_WP:	0.000	Y_WP:	0.500	X:	0.162	Y:	-0.010	Z:	0.636	yaw:	-2.222	yaw rate:	-30.284	Roll:	1.339	Pitch:	0.397	Yaw:	-8.343	Thrust:	57.817
Time:	4.410	Roll Set Point:	-0.221	Pitch Set Point:	0.018	Yaw Set Point:	0.037	X_WP:	0.100	Y_WP:	0.000	Y_WP:	0.500	X:	0.160	Y:	-0.010	Z:	0.639	yaw:	-2.124	yaw rate:	21.577	Roll:	-0.744	Pitch:	-0.070	Yaw:	0.154	Thrust:	48.281
Time:	4.422	Roll Set Point:	-0.220	Pitch Set Point:	0.018	Yaw Set Point:	0.040	X_WP:	0.100	Y_WP:	0.000	Y_WP:	0.500	X:	0.160	Y:	-0.010	Z:	0.640	yaw:	-2.297	yaw rate:	-17.277	Roll:	0.943	Pitch:	0.278	Yaw:	-5.939	Thrust:	57.355
Time:	4.433	Roll Set Point:	-0.219	Pitch Set Point:	0.018	Yaw Set Point:	0.035	X_WP:	0.100	Y_WP:	0.000	Y_WP:	0.500	X:	0.159	Y:	-0.010	Z:	0.641	yaw:	-2.005	yaw rate:	29.201	Roll:	0.854	Pitch:	-0.578	Yaw:	5.065	Thrust:	49.552
Time:	4.446	Roll Set Point:	-0.218	Pitch Set Point:	0.018	Yaw Set Point:	0.036	X_WP:	0.100	Y_WP:	0.000	Y_WP:	0.500	X:	0.159	Y:	-0.010	Z:	0.642	yaw:	-2.081	yaw rate:	-7.592	Roll:	0.800	Pitch:	0.250	Yaw:	-3.554	Thrust:	48.098
Time:	4.457	Roll Set Point:	-0.216	Pitch Set Point:	0.018	Yaw Set Point:	0.035	X_WP:	0.100	Y_WP:	0.000	Y_WP:	0.500	X:	0.158	Y:	-0.010	Z:	0.642	yaw:	-1.981	yaw rate:	9.991	Roll:	0.972	Pitch:	-0.343	Yaw:	0.361	Thrust:	63.445
Time:	4.468	Roll Set Point:	-0.216	Pitch Set Point:	0.018	Yaw Set Point:	0.037	X_WP:	0.100	Y_WP:	0.000	Y_WP:	0.500	X:	0.158	Y:	-0.010	Z:	0.643	yaw:	-2.135	yaw rate:	-15.377	Roll:	1.116	Pitch:	0.165	Yaw:	-5.720	Thrust:	47.985
Time:	4.483	Roll Set Point:	-0.215	Pitch Set Point:	0.017	Yaw Set Point:	0.039	X_WP:	0.100	Y_WP:	0.000	Y_WP:	0.500	X:	0.157	Y:	-0.010	Z:	0.644	yaw:	-2.221	yaw rate:	-8.632	Roll:	0.811	Pitch:	0.030	Yaw:	-3.562	Thrust:	60.057
Time:	4.496	Roll Set Point:	-0.213	Pitch Set Point:	0.018	Yaw Set Point:	0.034	X_WP:	0.100	Y_WP:	0.000	Y_WP:	0.500	X:	0.156	Y:	-0.010	Z:	0.645	yaw:	-1.943	yaw rate:	27.850	Roll:	1.047	Pitch:	-0.262	Yaw:	3.613	Thrust:	69.923
Time:	4.508	Roll Set Point:	-0.212	Pitch Set Point:	0.017	Yaw Set Point:	0.038	X_WP:	0.100	Y_WP:	0.000	Y_WP:	0.500	X:	0.156	Y:	-0.010	Z:	0.647	yaw:	-2.154	yaw rate:	-21.095	Roll:	0.420	Pitch:	0.389	Yaw:	-7.385	Thrust:	41.672
Time:	4.520	Roll Set Point:	-0.210	Pitch Set Point:	0.017	Yaw Set Point:	0.028	X_WP:	0.100	Y_WP:	0.000	Y_WP:	0.500	X:	0.155	Y:	-0.009	Z:	0.648	yaw:	-1.628	yaw rate:	-11.096	Roll:	0.453	Pitch:	-0.677	Yaw:	9.312	Thrust:	56.394
Time:	4.531	Roll Set Point:	-0.209	Pitch Set Point:	0.017	Yaw Set Point:	0.034	X_WP:	0.100	Y_WP:	0.000	Y_WP:	0.500	X:	0.154	Y:	-0.009	Z:	0.649	yaw:	-1.926	yaw rate:	-29.726	Roll:	0.682	Pitch:	0.387	Yaw:	-8.874	Thrust:	47.564
Time:	4.542	Roll Set Point:	-0.207	Pitch Set Point:	0.017	Yaw Set Point:	0.031	X_WP:	0.100	Y_WP:	0.000	Y_WP:	0.500	X:	0.154	Y:	-0.009	Z:	0.650	yaw:	-1.755	yaw rate:	17.042	Roll:	0.455	Pitch:	-0.203	Yaw:	2.602	Thrust:	45.855
Time:	4.556	Roll Set Point:	-0.207	Pitch Set Point:	0.016	Yaw Set Point:	0.040	X_WP:	0.100	Y_WP:	0.000	Y_WP:	0.500	X:	0.153	Y:	-0.009	Z:	0.650	yaw:	-2.270	yaw rate:	-51.533	Roll:	1.275	Pitch:	0.534	Yaw:	-11.296	Thrust:	66.545
Time:	4.567	Roll Set Point:	-0.206	Pitch Set Point:	0.017	Yaw Set Point:	0.035	X_WP:	0.100	Y_WP:	0.000	Y_WP:	0.500	X:	0.153	Y:	-0.009	Z:	0.651	yaw:	-2.010	yaw rate:	26.092	Roll:	0.667	Pitch:	-0.457	Yaw:	4.236	Thrust:	48.476
Time:	4.583	Roll Set Point:	-0.205	Pitch Set Point:	0.017	Yaw Set Point:	0.030	X_WP:	0.100	Y_WP:	0.000	Y_WP:	0.500	X:	0.153	Y:	-0.009	Z:	0.651	yaw:	-1.733	yaw rate:	27.698	Roll:	1.364	Pitch:	-0.354	Yaw:	3.543	Thrust:	69.380
Time:	4.596	Roll Set Point:	-0.204	Pitch Set Point:	0.016	Yaw Set Point:	0.035	X_WP:	0.100	Y_WP:	0.000	Y_WP:	0.500	X:	0.152	Y:	-0.009	Z:	0.652	yaw:	-2.010	yaw rate:	-27.761	Roll:	0.856	Pitch:	0.257	Yaw:	-7.170	Thrust:	58.551
Time:	4.607	Roll Set Point:	-0.202	Pitch Set Point:	0.016	Yaw Set Point:	0.032	X_WP:	0.100	Y_WP:	0.000	Y_WP:	0.500	X:	0.151	Y:	-0.009	Z:	0.652	yaw:	-1.814	yaw rate:	19.602	Roll:	0.089	Pitch:	-0.371	Yaw:	2.772	Thrust:	53.364
Time:	4.620	Roll Set Point:	-0.201	Pitch Set Point:	0.016	Yaw Set Point:	0.037	X_WP:	0.100	Y_WP:	0.000	Y_WP:	0.500	X:	0.150	Y:	-0.009	Z:	0.652	yaw:	-2.094	yaw rate:	-62.319	Roll:	0.884	Pitch:	0.473	Yaw:	-7.579	Thrust:	59.246
Time:	4.631	Roll Set Point:	-0.200	Pitch Set Point:	0.016	Yaw Set Point:	0.035	X_WP:	0.100	Y_WP:	0.000	Y_WP:	0.500	X:	0.150	Y:	-0.009	Z:	0.652	yaw:	-2.006	yaw rate:	8.805	Roll:	0.644	Pitch:	-0.122	Yaw:	0.100	Thrust:	49.394
Time:	4.642	Roll Set Point:	-0.199	Pitch Set Point:	0.016	Yaw Set Point:	0.026	X_WP:	0.100	Y_WP:	0.000	Y_WP:	0.500	X:	0.149	Y:	-0.009	Z:	0.652	yaw:	-1.489	yaw rate:	51.713	Roll:	0.525	Pitch:	-0.939	Yaw:	11.542	Thrust:	46.675
Time:	4.656	Roll Set Point:	-0.199	Pitch Set Point:	0.016	Yaw Set Point:	0.040	X_WP:	0.100	Y_WP:	0.000	Y_WP:	0.500	X:	0.149	Y:	-0.009	Z:	0.652	yaw:	-2.282	yaw rate:	-79.316	Roll:	1.568	Pitch:	0.857	Yaw:	-16.937	Thrust:	64.221
Time:	4.667	Roll Set Point:	-0.198	Pitch Set Point:	0.016	Yaw Set Point:	0.034	X_WP:	0.100	Y_WP:	0.000	Y_WP:	0.500	X:	0.149	Y:	-0.009	Z:	0.652	yaw:	-1.952	yaw rate:	33.056	Roll:	0.467	Pitch:	-0.404	Yaw:	5.910	Thrust:	46.764
Time:	4.682	Roll Set Point:	-0.197	Pitch Set Point:	0.015	Yaw Set Point:	0.039	X_WP:	0.100	Y_WP:	0.000	Y_WP:	0.500	X:	0.149	Y:	-0.009	Z:	0.652	yaw:	-2.262	yaw rate:	-30.982	Roll:	1.351	Pitch:	0.211	Yaw:	-7.484	Thrust:	71.498
Time:	4.702	Roll Set Point:	-0.196	Pitch Set Point:	0.015	Yaw Set Point:	0.037	X_WP:	0.100	Y_WP:	0.000	Y_WP:	0.500	X:	0.148	Y:	-0.008	Z:	0.651	yaw:	-2.141	yaw rate:	-65.731	Roll:	0.752	Pitch:	0.079	Yaw:	-0.010	Thrust:	93.601
Time:	4.718	Roll Set Point:	-0.195	Pitch Set Point:	0.015	Yaw Set Point:	0.039	X_WP:	0.100	Y_WP:	0.000	Y_WP:	0.500	X:	0.147	Y:	-0.008	Z:	0.650	yaw:	-2.237	yaw rate:	-9.515	Roll:	0.923	Pitch:	0.099	Yaw:	-3.562	Thrust:	72.347
Time:	4.729	Roll Set Point:	-0.194	Pitch Set Point:	0.015	Yaw Set Point:	0.043	X_WP:	0.100	Y_WP:	0.000	Y_WP:	0.500	X:	0.147	Y:	-0.008	Z:	0.650	yaw:	-2.474	yaw rate:	-23.710	Roll:	1.250	Pitch:	0.175	Yaw:	-8.333	Thrust:	51.997
Time:	4.740	Roll Set Point:	-0.194	Pitch Set Point:	0.015	Yaw Set Point:	0.041	X_WP:	0.100	Y_WP:	0.000	Y_WP:	0.500	X:	0.147	Y:	-0.008	Z:	0.649	yaw:	-2.327	yaw rate:	14.653	Roll:	0.951	Pitch:	-0.170	Yaw:	0.974	Thrust:	49.869
Time:	4.756	Roll Set Point:	-0.193	Pitch Set Point:	0.014	Yaw Set Point:	0.036	X_WP:	0.100	Y_WP:	0.000	Y_WP:	0.500	X:	0.146	Y:	-0.008	Z:	0.649	yaw:	-2.071	yaw rate:	25.652	Roll:	0.962	Pitch:	-0.124	Yaw:	2.457	Thrust:	69.318
Time:	4.767	Roll Set Point:	-0.192	Pitch Set Point:	0.014	Yaw Set Point:	0.034	X_WP:	0.100	Y_WP:	0.000	Y_WP:	0.500	X:	0.146	Y:	-0.008	Z:	0.648	yaw:	-1.923	yaw rate:	-41.599	Roll:	0.788	Pitch:	-0.061	Yaw:	1.329	Thrust:	55.370
Time:	4.785	Roll Set Point:	-0.192	Pitch Set Point:	0.014	Yaw Set Point:	0.032	X_WP:	0.100	Y_WP:	0.000	Y_WP:	0.500	X:	0.146	Y:	-0.008	Z:	0.648	yaw:	-1.845	yaw rate:	7.751	Roll:	0.947	Pitch:	-0.086	Yaw:	-0.272	Thrust:	79.538
Time:	4.799	Roll Set Point:	-0.190	Pitch Set Point:	0.015	Yaw Set Point:	0.020	X_WP:	0.100	Y_WP:	0.000	Y_WP:	0.500	X:	0.145	Y:	-0.008	Z:	0.647	yaw:	-1.136	yaw rate:	70.888	Roll:	0.844	Pitch:	-0.548	Yaw:	12.540	Thrust:	65.845
Time:	4.811	Roll Set Point:	-0.191	Pitch Set Point:	0.014	Yaw Set Point:	0.026	X_WP:	0.100	Y_WP:	0.000	Y_WP:	0.500	X:	0.145	Y:	-0.008	Z:	0.647	yaw:	-1.487	yaw rate:	-26.224	Roll:	1.489	Pitch:	0.477	Yaw:	-8.590	Thrust:	52.409
Time:	4.827	Roll Set Point:	-0.190	Pitch Set Point:	0.014	Yaw Set Point:	0.034	X_WP:	0.100	Y_WP:	0.000	Y_WP:	0.500	X:	0.145	Y:	-0.008	Z:	0.647	yaw:	-1.965	yaw rate:	-47.821	Roll:	1.102	Pitch:	0.363	Yaw:	-9.806	Thrust:	71.704
Time:	4.838	Roll Set Point:	-0.190	Pitch Set Point:	0.013	Yaw Set Point:	0.036	X_WP:	0.100	Y_WP:	0.000	Y_WP:	0.500	X:	0.145	Y:	-0.008	Z:	0.647	yaw:	-2.035	yaw rate:	-6.996	Roll:	1.217	Pitch:	0.160	Yaw:	-3.853	Thrust:	44.915
Time:	4.853	Roll Set Point:	-0.189	Pitch Set Point:	0.013	Yaw Set Point:	0.029	X_WP:	0.100	Y_WP:	0.000	Y_WP:	0.500	X:	0.145	Y:	-0.007	Z:	0.647	yaw:	-1.648	yaw rate:	38.671	Roll:	1.095	Pitch:	-0.162	Yaw:	5.168	Thrust:	68.428
Time:	4.866	Roll Set Point:	-0.189	Pitch Set Point:	0.013	Yaw Set Point:	0.032	X_WP:	0.100	Y_WP:	0.000	Y_WP:	0.500	X:	0.144	Y:	-0.007	Z:	0.647	yaw:	-1.854	yaw rate:	-22.285	Roll:	0.970	Pitch:	0.269	Yaw:	-6.095	Thrust:	49.807
Time:	4.877	Roll Set Point:	-0.189	Pitch Set Point:	0.013	Yaw Set Point:	0.032	X_WP:	0.100	Y_WP:	0.000	Y_WP:	0.500	X:	0.144	Y:	-0.007	Z:	0.647	yaw:	-1.845	yaw rate:	0.816	Roll:	1.208	Pitch:	-0.040	Yaw:	-1.689	Thrust:	49.046
Time:	4.898	Roll Set Point:	-0.188	Pitch Set Point:	0.013	Yaw Set Point:	0.029	X_WP:	0.100	Y_WP:	0.000	Y_WP:	0.500	X:	0.144	Y:	-0.007	Z:	0.648	yaw:	-1.634	yaw rate:	21.153	Roll:	1.303	Pitch:	-0.024	Yaw:	1.652	Thrust:	91.299
Time:	4.909	Roll Set Point:	-0.188	Pitch Set Point:	0.013	Yaw Set Point:	0.025	X_WP:	0.100	Y_WP:	0.000	Y_WP:	0.500	X:	0.144	Y:	-0.007	Z:	0.648	yaw:	-1.423	yaw rate:	21.086	Roll:	1.438	Pitch:	-0.143	Yaw:	3.679	Thrust:	42.014
Time:	4.921	Roll Set Point:	-0.188	Pitch Set Point:	0.013	Yaw Set Point:	0.021	X_WP:	0.100	Y_WP:	0.000	Y_WP:	0.500	X:	0.144	Y:	-0.007	Z:	0.649	yaw:	-1.200	yaw rate:	19.868	Roll:	0.948	Pitch:	0.004	Yaw:	3.886	Thrust:	47.023
Time:	4.932	Roll Set Point:	-0.188	Pitch Set Point:	0.012	Yaw Set Point:	0.026	X_WP:	0.100	Y_WP:	0.000	Y_WP:	0.500	X:	0.144	Y:	-0.007	Z:	0.650	yaw:	-1.487	yaw rate:	-28.671	Roll:	1.049	Pitch:	0.345	Yaw:	-7.904	Thrust:	43.103
Time:	4.943	Roll Set Point:	-0.188	Pitch Set Point:	0.012	Yaw Set Point:	0.028	X_WP:	0.100	Y_WP:	0.000	Y_WP:	0.500	X:	0.144	Y:	-0.007	Z:	0.650	yaw:	-1.584	yaw rate:	-9.728	Roll:	1.382	Pitch:	-0.020	Yaw:	-4.013	Thrust:	43.799
Time:	4.956	Roll Set Point:	-0.187	Pitch Set Point:	0.012	Yaw Set Point:	0.025	X_WP:	0.100	Y_WP:	0.000	Y_WP:	0.500	X:	0.144	Y:	-0.007	Z:	0.650	yaw:	-1.444	yaw rate:	14.075	Roll:	1.117	Pitch:	-0.116	Yaw:	1.565	Thrust:	52.925
Time:	4.967	Roll Set Point:	-0.187	Pitch Set Point:	0.012	Yaw Set Point:	0.030	X_WP:	0.100	Y_WP:	0.000	Y_WP:	0.500	X:	0.144	Y:	-0.007	Z:	0.650	yaw:	-1.725	yaw rate:	-28.129	Roll:	1.462	Pitch:	0.303	Yaw:	-8.450	Thrust:	43.627
Time:	4.977	Roll Set Point:	-0.187	Pitch Set Point:	0.012	Yaw Set Point:	0.014	X_WP:	0.100	Y_WP:	0.000	Y_WP:	0.500	X:	0.144	Y:	-0.006	Z:	0.650	yaw:	-0.812	yaw rate:	91.329	Roll:	1.173	Pitch:	-0.897	Yaw:	23.272	Thrust:	38.989
Time:	4.990	Roll Set Point:	-0.187	Pitch Set Point:	0.012	Yaw Set Point:	0.031	X_WP:	0.100	Y_WP:	0.000	Y_WP:	0.500	X:	0.144	Y:	-0.007	Z:	0.650	yaw:	-1.781	yaw rate:	-96.936	Roll:	1.443	Pitch:	0.857	Yaw:	-21.654	Thrust:	51.804
Time:	5.000	Roll Set Point:	-0.187	Pitch Set Point:	0.012	Yaw Set Point:	0.021	X_WP:	0.100	Y_WP:	0.000	Y_WP:	0.500	X:	0.144	Y:	-0.007	Z:	0.650	yaw:	-1.194	yaw rate:	58.671	Roll:	1.385	Pitch:	-0.778	Yaw:	13.514	Thrust:	42.031
Time:	5.014	Roll Set Point:	-0.188	Pitch Set Point:	0.012	Yaw Set Point:	0.019	X_WP:	0.100	Y_WP:	0.000	Y_WP:	0.500	X:	0.144	Y:	-0.006	Z:	0.649	yaw:	-1.113	yaw rate:	8.093	Roll:	1.519	Pitch:	0.218	Yaw:	0.762	Thrust:	53.510
Time:	5.028	Roll Set Point:	-0.187	Pitch Set Point:	0.012	Yaw Set Point:	0.028	X_WP:	0.100	Y_WP:	0.000	Y_WP:	0.500	X:	0.143	Y:	-0.006	Z:	0.648	yaw:	-1.584	yaw rate:	-47.036	Roll:	1.137	Pitch:	0.225	Yaw:	-9.883	Thrust:	66.045
Time:	5.040	Roll Set Point:	-0.187	Pitch Set Point:	0.011	Yaw Set Point:	0.014	X_WP:	0.100	Y_WP:	0.000	Y_WP:	0.500	X:	0.144	Y:	-0.006	Z:	0.646	yaw:	-0.808	yaw rate:	67.273	Roll:	1.350	Pitch:	-0.485	Yaw:	17.862	Thrust:	51.831
Time:	5.054	Roll Set Point:	-0.187	Pitch Set Point:	0.011	Yaw Set Point:	0.014	X_WP:	0.100	Y_WP:	0.000	Y_WP:	0.500	X:	0.144	Y:	-0.006	Z:	0.646	yaw:	-0.808	yaw rate:	67.273	Roll:	1.356	Pitch:	-0.052	Yaw:	-0.364	Thrust:	52.174
Time:	5.065	Roll Set Point:	-0.187	Pitch Set Point:	0.011	Yaw Set Point:	0.024	X_WP:	0.100	Y_WP:	0.000	Y_WP:	0.500	X:	0.144	Y:	-0.006	Z:	0.644	yaw:	-1.388	yaw rate:	15.882	Roll:	1.486	Pitch:	0.603	Yaw:	-14.486	Thrust:	57.603
Time:	5.076	Roll Set Point:	-0.187	Pitch Set Point:	0.011	Yaw Set Point:	0.030	X_WP:	0.100	Y_WP:	0.000	Y_WP:	0.500	X:	0.144	Y:	-0.006	Z:	0.642	yaw:	-1.722	yaw rate:	-33.430	Roll:	1.320	Pitch:	0.349	Yaw:	-10.126	Thrust:	49.501
Time:	5.089	Roll Set Point:	-0.187	Pitch Set Point:	0.011	Yaw Set Point:	0.021	X_WP:	0.100	Y_WP:	0.000	Y_WP:	0.500	X:	0.143	Y:	-0.006	Z:	0.640	yaw:	-1.222	yaw rate:	50.009	Roll:	1.158	Pitch:	-0.414	Yaw:	9.058	Thrust:	58.589
Time:	5.100	Roll Set Point:	-0.187	Pitch Set Point:	0.011	Yaw Set Point:	0.021	X_WP:	0.100	Y_WP:	0.000	Y_WP:	0.500	X:	0.144	Y:	-0.006	Z:	0.636	yaw:	-1.227	yaw rate:	-0.547	Roll:	1.511	Pitch:	0.176	Yaw:	-1.263	Thrust:	59.153
Time:	5.118	Roll Set Point:	-0.188	Pitch Set Point:	0.010	Yaw Set Point:	0.030	X_WP:	0.100	Y_WP:	0.000	Y_WP:	0.500	X:	0.144	Y:	-0.006	Z:	0.634	yaw:	-1.736	yaw rate:	-50.910	Roll:	1.672	Pitch:	0.417	Yaw:	-8.640	Thrust:	55.748
Time:	5.131	Roll Set Point:	-0.187	Pitch Set Point:	0.011	Yaw Set Point:	0.013	X_WP:	0.100	Y_WP:	0.000	Y_WP:	0.500	X:	0.144	Y:	-0.006	Z:	0.629	yaw:	-0.727	yaw rate:	57.189	Roll:	1.174	Pitch:	-0.579	Yaw:	20.714	Thrust:	90.146
Time:	5.142	Roll Set Point:	-0.188	Pitch Set Point:	0.010	Yaw Set Point:	0.028	X_WP:	0.100	Y_WP:	0.000	Y_WP:	0.500	X:	0.144	Y:	-0.006	Z:	0.626	yaw:	-1.598	yaw rate:	-87.046	Roll:	1.988	Pitch:	1.058	Yaw:	-22.580	Thrust:	52.606
Time:	5.155	Roll Set Point:	-0.188	Pitch Set Point:	0.010	Yaw Set Point:	0.030	X_WP:	0.100	Y_WP:	0.000	Y_WP:	0.500	X:	0.144	Y:	-0.006	Z:	0.624	yaw:	-1.737	yaw rate:	-13.942	Roll:	1.440	Pitch:	0.119	Yaw:	-4.431	Thrust:	62.742
Time:	5.167	Roll Set Point:	-0.188	Pitch Set Point:	0.010	Yaw Set Point:	0.025	X_WP:	0.100	Y_WP:	0.000	Y_WP:	0.500	X:	0.144	Y:	-0.006	Z:	0.621	yaw:	-1.458	yaw rate:	27.862	Roll:	1.104	Pitch:	-0.206	Yaw:	4.869	Thrust:	55.721
Time:	5.188	Roll Set Point:	-0.188	Pitch Set Point:	0.010	Yaw Set Point:	0.029	X_WP:	0.100	Y_WP:	0.000	Y_WP:	0.500	X:	0.144	Y:	-0.006	Z:	0.618	yaw:	-1.675	yaw rate:	-21.632	Roll:	1.660	Pitch:	0.115	Yaw:	-4.424	Thrust:	73.254
Time:	5.200	Roll Set Point:	-0.189	Pitch Set Point:	0.010	Yaw Set Point:	0.021	X_WP:	0.100	Y_WP:	0.000	Y_WP:	0.500	X:	0.144	Y:	-0.006	Z:	0.611	yaw:	-1.199	yaw rate:	39.864	Roll:	1.815	Pitch:	-0.192	Yaw:	7.886	Thrust:	88.679
Time:	5.217	Roll Set Point:	-0.189	Pitch Set Point:	0.010	Yaw Set Point:	0.020	X_WP:	0.100	Y_WP:	0.000	Y_WP:	0.500	X:	0.144	Y:	-0.005	Z:	0.608	yaw:	-1.175	yaw rate:	2.437	Roll:	1.407	Pitch:	0.076	Yaw:	-0.473	Thrust:	60.358
Time:	5.229	Roll Set Point:	-0.189	Pitch Set Point:	0.010	Yaw Set Point:	0.029	X_WP:	0.100	Y_WP:	0.000	Y_WP:	0.500	X:	0.144	Y:	-0.005	Z:	0.606	yaw:	-1.677	yaw rate:	-50.252	Roll:	1.486	Pitch:	0.355	Yaw:	-11.040	Thrust:	74.065
Time:	5.242	Roll Set Point:	-0.189	Pitch Set Point:	0.010	Yaw Set Point:	0.032	X_WP:	0.100	Y_WP:	0.000	Y_WP:	0.500	X:	0.144	Y:	-0.006	Z:	0.603	yaw:	-1.826	yaw rate:	-14.935	Roll:	1.372	Pitch:	0.138	Yaw:	-5.218	Thrust:	56.393
Time:	5.256	Roll Set Point:	-0.189	Pitch Set Point:	0.010	Yaw Set Point:	0.029	X_WP:	0.100	Y_WP:	0.000	Y_WP:	0.500	X:	0.145	Y:	-0.005	Z:	0.599	yaw:	-1.646	yaw rate:	14.663	Roll:	1.685	Pitch:	-0.044	Yaw:	1.546	Thrust:	72.783
Time:	5.268	Roll Set Point:	-0.190	Pitch Set Point:	0.010	Yaw Set Point:	0.023	X_WP:	0.100	Y_WP:	0.000	Y_WP:	0.500	X:	0.145	Y:	-0.005	Z:	0.596	yaw:	-1.323	yaw rate:	32.316	Roll:	1.561	Pitch:	-0.451	Yaw:	6.026	Thrust:	54.233
Time:	5.288	Roll Set Point:	-0.189	Pitch Set Point:	0.010	Yaw Set Point:	0.018	X_WP:	0.100	Y_WP:	0.000	Y_WP:	0.500	X:	0.144	Y:	-0.006	Z:	0.594	yaw:	-1.037	yaw rate:	28.596	Roll:	0.985	Pitch:	-0.269	Yaw:	3.206	Thrust:	87.409
Time:	5.301	Roll Set Point:	-0.190	Pitch Set Point:	0.010	Yaw Set Point:	0.028	X_WP:	0.100	Y_WP:	0.000	Y_WP:	0.500	X:	0.145	Y:	-0.005	Z:	0.589	yaw:	-1.625	yaw rate:	-30.648	Roll:	2.065	Pitch:	0.618	Yaw:	-13.978	Thrust:	69.689
Time:	5.314	Roll Set Point:	-0.191	Pitch Set Point:	0.010	Yaw Set Point:	0.020	X_WP:	0.100	Y_WP:	0.000	Y_WP:	0.500	X:	0.145	Y:	-0.005	Z:	0.587	yaw:	-1.139	yaw rate:	48.581	Roll:	1.567	Pitch:	-0.457	Yaw:	8.600	Thrust:	60.527
Time:	5.328	Roll Set Point:	-0.191	Pitch Set Point:	0.009	Yaw Set Point:	0.031	X_WP:	0.100	Y_WP:	0.000	Y_WP:	0.500	X:	0.145	Y:	-0.005	Z:	0.586	yaw:	-1.776	yaw rate:	-63.756	Roll:	1.486	Pitch:	0.553	Yaw:	-13.312	Thrust:	60.881
Time:	5.341	Roll Set Point:	-0.191	Pitch Set Point:	0.010	Yaw Set Point:	0.027	X_WP:	0.100	Y_WP:	0.000	Y_WP:	0.500	X:	0.145	Y:	-0.005	Z:	0.583	yaw:	-1.522	yaw rate:	-16.144	Roll:	1.637	Pitch:	-0.313	Yaw:	3.801	Thrust:	56.812
Time:	5.357	Roll Set Point:	-0.191	Pitch Set Point:	0.010	Yaw Set Point:	0.027	X_WP:	0.100	Y_WP:	0.000	Y_WP:	0.500	X:	0.145	Y:	-0.005	Z:	0.583	yaw:	-1.522	yaw rate:	-16.144	Roll:	1.442	Pitch:	-0.013	Yaw:	-1.427	Thrust:	62.717
Time:	5.368	Roll Set Point:	-0.191	Pitch Set Point:	0.010	Yaw Set Point:	0.023	X_WP:	0.100	Y_WP:	0.000	Y_WP:	0.500	X:	0.145	Y:	-0.005	Z:	0.581	yaw:	-1.327	yaw rate:	14.897	Roll:	1.478	Pitch:	-0.172	Yaw:	3.250	Thrust:	57.139
Time:	5.388	Roll Set Point:	-0.192	Pitch Set Point:	0.010	Yaw Set Point:	0.027	X_WP:	0.100	Y_WP:	0.000	Y_WP:	0.500	X:	0.146	Y:	-0.005	Z:	0.580	yaw:	-1.557	yaw rate:	-22.944	Roll:	1.885	Pitch:	0.208	Yaw:	-4.274	Thrust:	82.169
Time:	5.400	Roll Set Point:	-0.192	Pitch Set Point:	0.010	Yaw Set Point:	0.022	X_WP:	0.100	Y_WP:	0.000	Y_WP:	0.500	X:	0.146	Y:	-0.005	Z:	0.579	yaw:	-1.246	yaw rate:	36.546	Roll:	1.393	Pitch:	-0.249	Yaw:	5.525	Thrust:	51.707
