Time:	2.037	Roll Set Point:	-0.020	Pitch Set Point:	-0.125	Yaw Set Point:	-0.089	X_WP:	0.100	Y_WP:	0.000	Y_WP:	0.500	X:	0.057	Y:	0.060	Z:	0.049	yaw:	5.116	yaw rate:	2.740	Roll:	-1.073	Pitch:	1.857	Yaw:	7.143	Thrust:	24.802
Time:	2.047	Roll Set Point:	-0.020	Pitch Set Point:	-0.124	Yaw Set Point:	-0.089	X_WP:	0.100	Y_WP:	0.000	Y_WP:	0.500	X:	0.057	Y:	0.060	Z:	0.049	yaw:	5.101	yaw rate:	0.992	Roll:	-1.102	Pitch:	1.814	Yaw:	6.783	Thrust:	25.295
Time:	2.060	Roll Set Point:	-0.021	Pitch Set Point:	-0.125	Yaw Set Point:	-0.089	X_WP:	0.100	Y_WP:	0.000	Y_WP:	0.500	X:	0.057	Y:	0.060	Z:	0.049	yaw:	5.125	yaw rate:	2.442	Roll:	-1.001	Pitch:	1.923	Yaw:	7.693	Thrust:	26.254
Time:	2.073	Roll Set Point:	-0.020	Pitch Set Point:	-0.125	Yaw Set Point:	-0.089	X_WP:	0.100	Y_WP:	0.000	Y_WP:	0.500	X:	0.057	Y:	0.060	Z:	0.049	yaw:	5.108	yaw rate:	-1.724	Roll:	-1.113	Pitch:	1.828	Yaw:	6.840	Thrust:	26.755
Time:	2.083	Roll Set Point:	-0.020	Pitch Set Point:	-0.124	Yaw Set Point:	-0.089	X_WP:	0.100	Y_WP:	0.000	Y_WP:	0.500	X:	0.057	Y:	0.060	Z:	0.049	yaw:	5.108	yaw rate:	-0.030	Roll:	-1.086	Pitch:	1.848	Yaw:	7.200	Thrust:	27.132
Time:	2.095	Roll Set Point:	-0.020	Pitch Set Point:	-0.124	Yaw Set Point:	-0.089	X_WP:	0.100	Y_WP:	0.000	Y_WP:	0.500	X:	0.057	Y:	0.060	Z:	0.049	yaw:	5.102	yaw rate:	-0.546	Roll:	-1.102	Pitch:	1.863	Yaw:	7.103	Thrust:	27.860
Time:	2.107	Roll Set Point:	-0.020	Pitch Set Point:	-0.124	Yaw Set Point:	-0.089	X_WP:	0.100	Y_WP:	0.000	Y_WP:	0.500	X:	0.057	Y:	0.060	Z:	0.049	yaw:	5.085	yaw rate:	-1.723	Roll:	-1.103	Pitch:	1.852	Yaw:	6.833	Thrust:	28.445
Time:	2.117	Roll Set Point:	-0.020	Pitch Set Point:	-0.124	Yaw Set Point:	-0.089	X_WP:	0.100	Y_WP:	0.000	Y_WP:	0.500	X:	0.057	Y:	0.060	Z:	0.049	yaw:	5.094	yaw rate:	0.871	Roll:	-1.042	Pitch:	1.881	Yaw:	7.465	Thrust:	28.930
Time:	2.128	Roll Set Point:	-0.021	Pitch Set Point:	-0.125	Yaw Set Point:	-0.089	X_WP:	0.100	Y_WP:	0.000	Y_WP:	0.500	X:	0.057	Y:	0.060	Z:	0.049	yaw:	5.096	yaw rate:	0.207	Roll:	-1.055	Pitch:	1.903	Yaw:	7.324	Thrust:	29.646
Time:	2.138	Roll Set Point:	-0.020	Pitch Set Point:	-0.124	Yaw Set Point:	-0.089	X_WP:	0.100	Y_WP:	0.000	Y_WP:	0.500	X:	0.057	Y:	0.060	Z:	0.049	yaw:	5.092	yaw rate:	-0.397	Roll:	-1.111	Pitch:	1.821	Yaw:	7.180	Thrust:	29.540
Time:	2.149	Roll Set Point:	-0.020	Pitch Set Point:	-0.124	Yaw Set Point:	-0.089	X_WP:	0.100	Y_WP:	0.000	Y_WP:	0.500	X:	0.057	Y:	0.060	Z:	0.049	yaw:	5.102	yaw rate:	1.044	Roll:	-1.103	Pitch:	1.898	Yaw:	7.571	Thrust:	30.836
Time:	2.160	Roll Set Point:	-0.020	Pitch Set Point:	-0.124	Yaw Set Point:	-0.089	X_WP:	0.100	Y_WP:	0.000	Y_WP:	0.500	X:	0.057	Y:	0.060	Z:	0.049	yaw:	5.105	yaw rate:	0.250	Roll:	-1.083	Pitch:	1.878	Yaw:	7.397	Thrust:	31.066
Time:	2.171	Roll Set Point:	-0.020	Pitch Set Point:	-0.125	Yaw Set Point:	-0.089	X_WP:	0.100	Y_WP:	0.000	Y_WP:	0.500	X:	0.057	Y:	0.060	Z:	0.049	yaw:	5.083	yaw rate:	-2.234	Roll:	-1.082	Pitch:	1.874	Yaw:	6.834	Thrust:	32.374
Time:	2.182	Roll Set Point:	-0.021	Pitch Set Point:	-0.125	Yaw Set Point:	-0.089	X_WP:	0.100	Y_WP:	0.000	Y_WP:	0.500	X:	0.057	Y:	0.060	Z:	0.049	yaw:	5.120	yaw rate:	3.700	Roll:	-1.025	Pitch:	1.909	Yaw:	8.282	Thrust:	32.544
Time:	2.193	Roll Set Point:	-0.020	Pitch Set Point:	-0.124	Yaw Set Point:	-0.089	X_WP:	0.100	Y_WP:	0.000	Y_WP:	0.500	X:	0.057	Y:	0.060	Z:	0.049	yaw:	5.087	yaw rate:	-3.298	Roll:	-1.162	Pitch:	1.819	Yaw:	6.545	Thrust:	32.642
Time:	2.203	Roll Set Point:	-0.020	Pitch Set Point:	-0.124	Yaw Set Point:	-0.089	X_WP:	0.100	Y_WP:	0.000	Y_WP:	0.500	X:	0.057	Y:	0.060	Z:	0.049	yaw:	5.080	yaw rate:	-0.646	Roll:	-1.069	Pitch:	1.892	Yaw:	7.214	Thrust:	33.018
Time:	2.213	Roll Set Point:	-0.020	Pitch Set Point:	-0.125	Yaw Set Point:	-0.089	X_WP:	0.100	Y_WP:	0.000	Y_WP:	0.500	X:	0.057	Y:	0.060	Z:	0.049	yaw:	5.115	yaw rate:	3.525	Roll:	-1.057	Pitch:	1.919	Yaw:	8.346	Thrust:	34.071
Time:	2.224	Roll Set Point:	-0.020	Pitch Set Point:	-0.124	Yaw Set Point:	-0.089	X_WP:	0.100	Y_WP:	0.000	Y_WP:	0.500	X:	0.057	Y:	0.060	Z:	0.049	yaw:	5.094	yaw rate:	-2.110	Roll:	-1.104	Pitch:	1.851	Yaw:	6.946	Thrust:	34.710
Time:	2.235	Roll Set Point:	-0.020	Pitch Set Point:	-0.124	Yaw Set Point:	-0.089	X_WP:	0.100	Y_WP:	0.000	Y_WP:	0.500	X:	0.057	Y:	0.060	Z:	0.049	yaw:	5.084	yaw rate:	-0.982	Roll:	-1.110	Pitch:	1.881	Yaw:	7.193	Thrust:	35.180
Time:	2.246	Roll Set Point:	-0.020	Pitch Set Point:	-0.124	Yaw Set Point:	-0.089	X_WP:	0.100	Y_WP:	0.000	Y_WP:	0.500	X:	0.057	Y:	0.060	Z:	0.049	yaw:	5.120	yaw rate:	3.586	Roll:	-1.043	Pitch:	1.918	Yaw:	8.393	Thrust:	35.728
Time:	2.263	Roll Set Point:	-0.021	Pitch Set Point:	-0.124	Yaw Set Point:	-0.089	X_WP:	0.100	Y_WP:	0.000	Y_WP:	0.500	X:	0.057	Y:	0.060	Z:	0.049	yaw:	5.119	yaw rate:	-0.139	Roll:	-1.083	Pitch:	1.915	Yaw:	7.753	Thrust:	43.866
Time:	2.274	Roll Set Point:	-0.020	Pitch Set Point:	-0.125	Yaw Set Point:	-0.089	X_WP:	0.100	Y_WP:	0.000	Y_WP:	0.500	X:	0.057	Y:	0.060	Z:	0.049	yaw:	5.109	yaw rate:	-1.008	Roll:	-1.130	Pitch:	1.897	Yaw:	7.336	Thrust:	37.969
Time:	2.286	Roll Set Point:	-0.020	Pitch Set Point:	-0.125	Yaw Set Point:	-0.089	X_WP:	0.100	Y_WP:	0.000	Y_WP:	0.500	X:	0.057	Y:	0.060	Z:	0.049	yaw:	5.108	yaw rate:	-0.055	Roll:	-1.112	Pitch:	1.900	Yaw:	7.572	Thrust:	37.713
Time:	2.301	Roll Set Point:	-0.020	Pitch Set Point:	-0.124	Yaw Set Point:	-0.089	X_WP:	0.100	Y_WP:	0.000	Y_WP:	0.500	X:	0.057	Y:	0.060	Z:	0.049	yaw:	5.097	yaw rate:	-0.233	Roll:	-1.114	Pitch:	1.894	Yaw:	7.520	Thrust:	43.700
Time:	2.312	Roll Set Point:	-0.020	Pitch Set Point:	-0.125	Yaw Set Point:	-0.089	X_WP:	0.100	Y_WP:	0.000	Y_WP:	0.500	X:	0.057	Y:	0.060	Z:	0.049	yaw:	5.103	yaw rate:	0.543	Roll:	-1.097	Pitch:	1.918	Yaw:	7.725	Thrust:	39.158
Time:	2.332	Roll Set Point:	-0.021	Pitch Set Point:	-0.124	Yaw Set Point:	-0.089	X_WP:	0.100	Y_WP:	0.000	Y_WP:	0.500	X:	0.057	Y:	0.060	Z:	0.049	yaw:	5.114	yaw rate:	1.084	Roll:	-1.049	Pitch:	1.916	Yaw:	8.153	Thrust:	46.261
Time:	2.345	Roll Set Point:	-0.020	Pitch Set Point:	-0.124	Yaw Set Point:	-0.089	X_WP:	0.100	Y_WP:	0.000	Y_WP:	0.500	X:	0.057	Y:	0.060	Z:	0.049	yaw:	5.093	yaw rate:	1.232	Roll:	-1.151	Pitch:	1.913	Yaw:	7.346	Thrust:	48.852
Time:	2.362	Roll Set Point:	-0.020	Pitch Set Point:	-0.124	Yaw Set Point:	-0.089	X_WP:	0.100	Y_WP:	0.000	Y_WP:	0.500	X:	0.057	Y:	0.060	Z:	0.049	yaw:	5.114	yaw rate:	2.102	Roll:	-1.095	Pitch:	1.924	Yaw:	8.256	Thrust:	48.223
Time:	2.375	Roll Set Point:	-0.021	Pitch Set Point:	-0.124	Yaw Set Point:	-0.088	X_WP:	0.100	Y_WP:	0.000	Y_WP:	0.500	X:	0.058	Y:	0.060	Z:	0.049	yaw:	5.064	yaw rate:	-5.083	Roll:	-1.081	Pitch:	1.771	Yaw:	6.829	Thrust:	45.641
Time:	2.387	Roll Set Point:	-0.021	Pitch Set Point:	-0.125	Yaw Set Point:	-0.087	X_WP:	0.100	Y_WP:	0.000	Y_WP:	0.500	X:	0.058	Y:	0.061	Z:	0.049	yaw:	4.997	yaw rate:	-1.792	Roll:	-1.185	Pitch:	2.102	Yaw:	6.156	Thrust:	44.660
Time:	2.401	Roll Set Point:	-0.021	Pitch Set Point:	-0.125	Yaw Set Point:	-0.088	X_WP:	0.100	Y_WP:	0.000	Y_WP:	0.500	X:	0.058	Y:	0.061	Z:	0.049	yaw:	5.029	yaw rate:	3.213	Roll:	-1.015	Pitch:	1.977	Yaw:	8.375	Thrust:	47.608
Time:	2.412	Roll Set Point:	-0.021	Pitch Set Point:	-0.125	Yaw Set Point:	-0.090	X_WP:	0.100	Y_WP:	0.000	Y_WP:	0.500	X:	0.057	Y:	0.060	Z:	0.049	yaw:	5.177	yaw rate:	14.708	Roll:	-1.077	Pitch:	1.916	Yaw:	11.466	Thrust:	41.103
Time:	2.422	Roll Set Point:	-0.020	Pitch Set Point:	-0.124	Yaw Set Point:	-0.084	X_WP:	0.100	Y_WP:	0.000	Y_WP:	0.500	X:	0.058	Y:	0.060	Z:	0.049	yaw:	4.812	yaw rate:	-36.420	Roll:	-1.616	Pitch:	1.366	Yaw:	-2.213	Thrust:	43.435
Time:	2.435	Roll Set Point:	-0.020	Pitch Set Point:	-0.124	Yaw Set Point:	-0.086	X_WP:	0.100	Y_WP:	0.000	Y_WP:	0.500	X:	0.057	Y:	0.060	Z:	0.049	yaw:	4.940	yaw rate:	12.798	Roll:	-0.996	Pitch:	2.129	Yaw:	10.228	Thrust:	48.231
Time:	2.446	Roll Set Point:	-0.021	Pitch Set Point:	-0.125	Yaw Set Point:	-0.091	X_WP:	0.100	Y_WP:	0.000	Y_WP:	0.500	X:	0.058	Y:	0.061	Z:	0.049	yaw:	5.212	yaw rate:	27.141	Roll:	-0.488	Pitch:	2.270	Yaw:	14.121	Thrust:	46.217
Time:	2.464	Roll Set Point:	-0.020	Pitch Set Point:	-0.124	Yaw Set Point:	-0.085	X_WP:	0.100	Y_WP:	0.000	Y_WP:	0.500	X:	0.058	Y:	0.060	Z:	0.049	yaw:	4.898	yaw rate:	-31.331	Roll:	-1.595	Pitch:	1.637	Yaw:	3.257	Thrust:	58.250
Time:	2.477	Roll Set Point:	-0.020	Pitch Set Point:	-0.124	Yaw Set Point:	-0.084	X_WP:	0.100	Y_WP:	0.000	Y_WP:	0.500	X:	0.058	Y:	0.060	Z:	0.049	yaw:	4.804	yaw rate:	-45.915	Roll:	-1.267	Pitch:	1.855	Yaw:	5.754	Thrust:	50.938
Time:	2.495	Roll Set Point:	-0.020	Pitch Set Point:	-0.124	Yaw Set Point:	-0.084	X_WP:	0.100	Y_WP:	0.000	Y_WP:	0.500	X:	0.058	Y:	0.060	Z:	0.049	yaw:	4.802	yaw rate:	-0.248	Roll:	-1.142	Pitch:	1.914	Yaw:	7.818	Thrust:	59.863
Time:	2.508	Roll Set Point:	-0.020	Pitch Set Point:	-0.124	Yaw Set Point:	-0.086	X_WP:	0.100	Y_WP:	0.000	Y_WP:	0.500	X:	0.058	Y:	0.060	Z:	0.049	yaw:	4.908	yaw rate:	2.687	Roll:	-0.936	Pitch:	2.003	Yaw:	9.838	Thrust:	51.942
Time:	2.520	Roll Set Point:	-0.021	Pitch Set Point:	-0.124	Yaw Set Point:	-0.090	X_WP:	0.100	Y_WP:	0.000	Y_WP:	0.500	X:	0.058	Y:	0.060	Z:	0.049	yaw:	5.145	yaw rate:	23.737	Roll:	-0.655	Pitch:	2.021	Yaw:	13.180	Thrust:	50.547
Time:	2.535	Roll Set Point:	-0.020	Pitch Set Point:	-0.124	Yaw Set Point:	-0.082	X_WP:	0.100	Y_WP:	0.000	Y_WP:	0.500	X:	0.058	Y:	0.060	Z:	0.049	yaw:	4.682	yaw rate:	-46.359	Roll:	-1.742	Pitch:	1.471	Yaw:	-0.611	Thrust:	56.863
Time:	2.546	Roll Set Point:	-0.020	Pitch Set Point:	-0.124	Yaw Set Point:	-0.084	X_WP:	0.100	Y_WP:	0.000	Y_WP:	0.500	X:	0.057	Y:	0.060	Z:	0.049	yaw:	4.834	yaw rate:	15.239	Roll:	-1.043	Pitch:	1.914	Yaw:	11.128	Thrust:	49.527
Time:	2.561	Roll Set Point:	-0.020	Pitch Set Point:	-0.124	Yaw Set Point:	-0.085	X_WP:	0.100	Y_WP:	0.000	Y_WP:	0.500	X:	0.058	Y:	0.060	Z:	0.049	yaw:	4.883	yaw rate:	4.845	Roll:	-0.927	Pitch:	2.049	Yaw:	8.761	Thrust:	54.371
Time:	2.572	Roll Set Point:	-0.021	Pitch Set Point:	-0.124	Yaw Set Point:	-0.090	X_WP:	0.100	Y_WP:	0.000	Y_WP:	0.500	X:	0.058	Y:	0.060	Z:	0.049	yaw:	5.151	yaw rate:	26.793	Roll:	-0.773	Pitch:	2.094	Yaw:	14.087	Thrust:	54.008
Time:	2.583	Roll Set Point:	-0.021	Pitch Set Point:	-0.124	Yaw Set Point:	-0.094	X_WP:	0.100	Y_WP:	0.000	Y_WP:	0.500	X:	0.058	Y:	0.060	Z:	0.049	yaw:	5.398	yaw rate:	-9.701	Roll:	-0.582	Pitch:	2.216	Yaw:	14.503	Thrust:	49.860
Time:	2.595	Roll Set Point:	-0.021	Pitch Set Point:	-0.124	Yaw Set Point:	-0.094	X_WP:	0.100	Y_WP:	0.000	Y_WP:	0.500	X:	0.058	Y:	0.060	Z:	0.049	yaw:	5.398	yaw rate:	-9.701	Roll:	-1.110	Pitch:	1.934	Yaw:	8.535	Thrust:	52.929
Time:	2.608	Roll Set Point:	-0.021	Pitch Set Point:	-0.124	Yaw Set Point:	-0.091	X_WP:	0.100	Y_WP:	0.000	Y_WP:	0.500	X:	0.058	Y:	0.060	Z:	0.049	yaw:	5.220	yaw rate:	13.942	Roll:	-1.056	Pitch:	1.934	Yaw:	4.768	Thrust:	59.915
Time:	2.620	Roll Set Point:	-0.021	Pitch Set Point:	-0.124	Yaw Set Point:	-0.088	X_WP:	0.100	Y_WP:	0.000	Y_WP:	0.500	X:	0.058	Y:	0.060	Z:	0.049	yaw:	5.056	yaw rate:	-16.360	Roll:	-1.400	Pitch:	1.820	Yaw:	4.505	Thrust:	55.060
Time:	2.634	Roll Set Point:	-0.021	Pitch Set Point:	-0.124	Yaw Set Point:	-0.084	X_WP:	0.100	Y_WP:	0.000	Y_WP:	0.500	X:	0.058	Y:	0.060	Z:	0.049	yaw:	4.790	yaw rate:	-26.570	Roll:	-1.420	Pitch:	1.625	Yaw:	2.716	Thrust:	60.354
Time:	2.644	Roll Set Point:	-0.022	Pitch Set Point:	-0.124	Yaw Set Point:	-0.088	X_WP:	0.100	Y_WP:	0.000	Y_WP:	0.500	X:	0.058	Y:	0.060	Z:	0.049	yaw:	5.055	yaw rate:	26.489	Roll:	-0.383	Pitch:	2.339	Yaw:	14.557	Thrust:	50.130
Time:	2.660	Roll Set Point:	-0.021	Pitch Set Point:	-0.123	Yaw Set Point:	-0.078	X_WP:	0.100	Y_WP:	0.000	Y_WP:	0.500	X:	0.058	Y:	0.060	Z:	0.049	yaw:	4.498	yaw rate:	-55.761	Roll:	-1.733	Pitch:	1.351	Yaw:	-2.457	Thrust:	65.744
Time:	2.671	Roll Set Point:	-0.022	Pitch Set Point:	-0.124	Yaw Set Point:	-0.082	X_WP:	0.100	Y_WP:	0.000	Y_WP:	0.500	X:	0.059	Y:	0.060	Z:	0.049	yaw:	4.673	yaw rate:	17.532	Roll:	-0.443	Pitch:	2.305	Yaw:	11.316	Thrust:	58.790
Time:	2.682	Roll Set Point:	-0.022	Pitch Set Point:	-0.124	Yaw Set Point:	-0.084	X_WP:	0.100	Y_WP:	0.000	Y_WP:	0.500	X:	0.059	Y:	0.060	Z:	0.050	yaw:	4.789	yaw rate:	11.633	Roll:	-0.865	Pitch:	1.982	Yaw:	10.459	Thrust:	55.292
Time:	2.696	Roll Set Point:	-0.023	Pitch Set Point:	-0.124	Yaw Set Point:	-0.082	X_WP:	0.100	Y_WP:	0.000	Y_WP:	0.500	X:	0.059	Y:	0.060	Z:	0.050	yaw:	4.682	yaw rate:	-1.598	Roll:	-0.516	Pitch:	1.874	Yaw:	5.608	Thrust:	60.453
Time:	2.708	Roll Set Point:	-0.024	Pitch Set Point:	-0.124	Yaw Set Point:	-0.085	X_WP:	0.100	Y_WP:	0.000	Y_WP:	0.500	X:	0.059	Y:	0.060	Z:	0.050	yaw:	4.884	yaw rate:	20.203	Roll:	-0.503	Pitch:	2.244	Yaw:	12.361	Thrust:	57.547
Time:	2.723	Roll Set Point:	-0.025	Pitch Set Point:	-0.124	Yaw Set Point:	-0.086	X_WP:	0.100	Y_WP:	0.000	Y_WP:	0.500	X:	0.060	Y:	0.060	Z:	0.051	yaw:	4.950	yaw rate:	6.590	Roll:	-0.481	Pitch:	1.844	Yaw:	9.511	Thrust:	65.984
Time:	2.736	Roll Set Point:	-0.025	Pitch Set Point:	-0.124	Yaw Set Point:	-0.088	X_WP:	0.100	Y_WP:	0.000	Y_WP:	0.500	X:	0.060	Y:	0.060	Z:	0.052	yaw:	5.030	yaw rate:	8.020	Roll:	-0.707	Pitch:	2.031	Yaw:	9.905	Thrust:	66.607
Time:	2.747	Roll Set Point:	-0.026	Pitch Set Point:	-0.124	Yaw Set Point:	-0.085	X_WP:	0.100	Y_WP:	0.000	Y_WP:	0.500	X:	0.060	Y:	0.060	Z:	0.052	yaw:	4.875	yaw rate:	-15.548	Roll:	-0.529	Pitch:	1.785	Yaw:	4.227	Thrust:	55.577
Time:	2.761	Roll Set Point:	-0.027	Pitch Set Point:	-0.124	Yaw Set Point:	-0.088	X_WP:	0.100	Y_WP:	0.000	Y_WP:	0.500	X:	0.061	Y:	0.060	Z:	0.053	yaw:	5.023	yaw rate:	14.870	Roll:	-0.146	Pitch:	2.074	Yaw:	11.189	Thrust:	66.615
Time:	2.772	Roll Set Point:	-0.029	Pitch Set Point:	-0.125	Yaw Set Point:	-0.089	X_WP:	0.100	Y_WP:	0.000	Y_WP:	0.500	X:	0.062	Y:	0.061	Z:	0.055	yaw:	5.100	yaw rate:	7.652	Roll:	0.458	Pitch:	2.276	Yaw:	10.078	Thrust:	49.134
Time:	2.784	Roll Set Point:	-0.032	Pitch Set Point:	-0.125	Yaw Set Point:	-0.089	X_WP:	0.100	Y_WP:	0.000	Y_WP:	0.500	X:	0.063	Y:	0.061	Z:	0.058	yaw:	5.074	yaw rate:	32.231	Roll:	0.723	Pitch:	2.169	Yaw:	7.663	Thrust:	52.441
Time:	2.796	Roll Set Point:	-0.033	Pitch Set Point:	-0.125	Yaw Set Point:	-0.086	X_WP:	0.100	Y_WP:	0.000	Y_WP:	0.500	X:	0.064	Y:	0.061	Z:	0.059	yaw:	4.906	yaw rate:	-16.813	Roll:	-0.352	Pitch:	2.016	Yaw:	4.607	Thrust:	60.425
Time:	2.807	Roll Set Point:	-0.034	Pitch Set Point:	-0.126	Yaw Set Point:	-0.091	X_WP:	0.100	Y_WP:	0.000	Y_WP:	0.500	X:	0.064	Y:	0.061	Z:	0.061	yaw:	5.228	yaw rate:	32.170	Roll:	0.633	Pitch:	2.476	Yaw:	15.762	Thrust:	54.066
Time:	2.823	Roll Set Point:	-0.036	Pitch Set Point:	-0.126	Yaw Set Point:	-0.092	X_WP:	0.100	Y_WP:	0.000	Y_WP:	0.500	X:	0.065	Y:	0.062	Z:	0.062	yaw:	5.268	yaw rate:	3.987	Roll:	0.279	Pitch:	2.376	Yaw:	9.533	Thrust:	70.688
Time:	2.836	Roll Set Point:	-0.038	Pitch Set Point:	-0.127	Yaw Set Point:	-0.094	X_WP:	0.100	Y_WP:	0.000	Y_WP:	0.500	X:	0.066	Y:	0.062	Z:	0.064	yaw:	5.411	yaw rate:	14.344	Roll:	0.063	Pitch:	2.238	Yaw:	11.626	Thrust:	66.518
Time:	2.847	Roll Set Point:	-0.039	Pitch Set Point:	-0.127	Yaw Set Point:	-0.092	X_WP:	0.100	Y_WP:	0.000	Y_WP:	0.500	X:	0.067	Y:	0.062	Z:	0.066	yaw:	5.292	yaw rate:	-11.914	Roll:	-0.049	Pitch:	2.126	Yaw:	5.683	Thrust:	55.354
Time:	2.861	Roll Set Point:	-0.041	Pitch Set Point:	-0.128	Yaw Set Point:	-0.094	X_WP:	0.100	Y_WP:	0.000	Y_WP:	0.500	X:	0.067	Y:	0.062	Z:	0.068	yaw:	5.409	yaw rate:	11.664	Roll:	0.532	Pitch:	2.367	Yaw:	11.197	Thrust:	62.954
Time:	2.873	Roll Set Point:	-0.046	Pitch Set Point:	-0.129	Yaw Set Point:	-0.094	X_WP:	0.100	Y_WP:	0.000	Y_WP:	0.500	X:	0.070	Y:	0.063	Z:	0.075	yaw:	5.363	yaw rate:	13.366	Roll:	2.599	Pitch:	3.069	Yaw:	7.870	Thrust:	43.750
Time:	2.884	Roll Set Point:	-0.048	Pitch Set Point:	-0.130	Yaw Set Point:	-0.095	X_WP:	0.100	Y_WP:	0.000	Y_WP:	0.500	X:	0.071	Y:	0.064	Z:	0.077	yaw:	5.426	yaw rate:	6.303	Roll:	0.845	Pitch:	2.518	Yaw:	10.175	Thrust:	55.478
Time:	2.896	Roll Set Point:	-0.049	Pitch Set Point:	-0.130	Yaw Set Point:	-0.092	X_WP:	0.100	Y_WP:	0.000	Y_WP:	0.500	X:	0.072	Y:	0.064	Z:	0.079	yaw:	5.294	yaw rate:	-13.221	Roll:	0.223	Pitch:	2.180	Yaw:	5.551	Thrust:	59.401
Time:	2.907	Roll Set Point:	-0.052	Pitch Set Point:	-0.131	Yaw Set Point:	-0.095	X_WP:	0.100	Y_WP:	0.000	Y_WP:	0.500	X:	0.073	Y:	0.064	Z:	0.082	yaw:	5.463	yaw rate:	16.944	Roll:	1.270	Pitch:	2.774	Yaw:	12.626	Thrust:	54.556
Time:	2.923	Roll Set Point:	-0.054	Pitch Set Point:	-0.132	Yaw Set Point:	-0.099	X_WP:	0.100	Y_WP:	0.000	Y_WP:	0.500	X:	0.074	Y:	0.065	Z:	0.084	yaw:	5.644	yaw rate:	18.061	Roll:	1.113	Pitch:	2.488	Yaw:	12.577	Thrust:	73.775
Time:	2.939	Roll Set Point:	-0.057	Pitch Set Point:	-0.134	Yaw Set Point:	-0.099	X_WP:	0.100	Y_WP:	0.000	Y_WP:	0.500	X:	0.075	Y:	0.066	Z:	0.089	yaw:	5.659	yaw rate:	19.881	Roll:	0.973	Pitch:	2.874	Yaw:	9.788	Thrust:	74.389
Time:	2.951	Roll Set Point:	-0.060	Pitch Set Point:	-0.134	Yaw Set Point:	-0.097	X_WP:	0.100	Y_WP:	0.000	Y_WP:	0.500	X:	0.077	Y:	0.066	Z:	0.091	yaw:	5.551	yaw rate:	-10.786	Roll:	1.081	Pitch:	2.507	Yaw:	6.751	Thrust:	62.660
Time:	2.968	Roll Set Point:	-0.064	Pitch Set Point:	-0.136	Yaw Set Point:	-0.099	X_WP:	0.100	Y_WP:	0.000	Y_WP:	0.500	X:	0.079	Y:	0.067	Z:	0.096	yaw:	5.692	yaw rate:	14.104	Roll:	1.773	Pitch:	2.869	Yaw:	11.834	Thrust:	75.716
Time:	2.979	Roll Set Point:	-0.066	Pitch Set Point:	-0.136	Yaw Set Point:	-0.096	X_WP:	0.100	Y_WP:	0.000	Y_WP:	0.500	X:	0.080	Y:	0.067	Z:	0.098	yaw:	5.512	yaw rate:	-17.952	Roll:	0.849	Pitch:	2.497	Yaw:	4.776	Thrust:	59.919
Time:	2.994	Roll Set Point:	-0.068	Pitch Set Point:	-0.137	Yaw Set Point:	-0.095	X_WP:	0.100	Y_WP:	0.000	Y_WP:	0.500	X:	0.081	Y:	0.068	Z:	0.100	yaw:	5.425	yaw rate:	-8.757	Roll:	0.678	Pitch:	2.539	Yaw:	7.567	Thrust:	76.803
Time:	3.008	Roll Set Point:	-0.073	Pitch Set Point:	-0.139	Yaw Set Point:	-0.097	X_WP:	0.100	Y_WP:	0.000	Y_WP:	0.500	X:	0.083	Y:	0.069	Z:	0.105	yaw:	5.565	yaw rate:	21.627	Roll:	2.647	Pitch:	3.076	Yaw:	11.886	Thrust:	59.198
Time:	3.019	Roll Set Point:	-0.075	Pitch Set Point:	-0.139	Yaw Set Point:	-0.086	X_WP:	0.100	Y_WP:	0.000	Y_WP:	0.500	X:	0.084	Y:	0.069	Z:	0.107	yaw:	4.954	yaw rate:	-61.124	Roll:	0.558	Pitch:	2.384	Yaw:	-5.171	Thrust:	57.539
Time:	3.032	Roll Set Point:	-0.078	Pitch Set Point:	-0.140	Yaw Set Point:	-0.095	X_WP:	0.100	Y_WP:	0.000	Y_WP:	0.500	X:	0.086	Y:	0.070	Z:	0.110	yaw:	5.451	yaw rate:	49.749	Roll:	1.960	Pitch:	2.775	Yaw:	19.237	Thrust:	69.959
Time:	3.043	Roll Set Point:	-0.080	Pitch Set Point:	-0.141	Yaw Set Point:	-0.092	X_WP:	0.100	Y_WP:	0.000	Y_WP:	0.500	X:	0.087	Y:	0.070	Z:	0.112	yaw:	5.260	yaw rate:	-19.111	Roll:	1.518	Pitch:	2.823	Yaw:	3.909	Thrust:	56.826
Time:	3.057	Roll Set Point:	-0.083	Pitch Set Point:	-0.142	Yaw Set Point:	-0.097	X_WP:	0.100	Y_WP:	0.000	Y_WP:	0.500	X:	0.088	Y:	0.070	Z:	0.115	yaw:	5.573	yaw rate:	31.319	Roll:	2.064	Pitch:	2.685	Yaw:	15.166	Thrust:	64.812
Time:	3.072	Roll Set Point:	-0.088	Pitch Set Point:	-0.143	Yaw Set Point:	-0.093	X_WP:	0.100	Y_WP:	0.000	Y_WP:	0.500	X:	0.091	Y:	0.071	Z:	0.121	yaw:	5.326	yaw rate:	-24.750	Roll:	2.158	Pitch:	2.733	Yaw:	4.974	Thrust:	78.404
Time:	3.085	Roll Set Point:	-0.094	Pitch Set Point:	-0.144	Yaw Set Point:	-0.092	X_WP:	0.100	Y_WP:	0.000	Y_WP:	0.500	X:	0.093	Y:	0.072	Z:	0.128	yaw:	5.249	yaw rate:	32.634	Roll:	3.783	Pitch:	3.147	Yaw:	6.867	Thrust:	46.787
Time:	3.098	Roll Set Point:	-0.096	Pitch Set Point:	-0.145	Yaw Set Point:	-0.086	X_WP:	0.100	Y_WP:	0.000	Y_WP:	0.500	X:	0.095	Y:	0.072	Z:	0.132	yaw:	4.933	yaw rate:	-31.640	Roll:	1.405	Pitch:	2.668	Yaw:	2.141	Thrust:	66.223
Time:	3.109	Roll Set Point:	-0.099	Pitch Set Point:	-0.146	Yaw Set Point:	-0.086	X_WP:	0.100	Y_WP:	0.000	Y_WP:	0.500	X:	0.096	Y:	0.073	Z:	0.136	yaw:	4.953	yaw rate:	2.039	Roll:	2.043	Pitch:	2.466	Yaw:	8.503	Thrust:	56.821
Time:	3.127	Roll Set Point:	-0.102	Pitch Set Point:	-0.146	Yaw Set Point:	-0.084	X_WP:	0.100	Y_WP:	0.000	Y_WP:	0.500	X:	0.098	Y:	0.073	Z:	0.139	yaw:	4.792	yaw rate:	-16.091	Roll:	1.550	Pitch:	2.786	Yaw:	5.676	Thrust:	76.761
Time:	3.141	Roll Set Point:	-0.108	Pitch Set Point:	-0.148	Yaw Set Point:	-0.084	X_WP:	0.100	Y_WP:	0.000	Y_WP:	0.500	X:	0.101	Y:	0.074	Z:	0.147	yaw:	4.797	yaw rate:	24.333	Roll:	3.107	Pitch:	2.918	Yaw:	8.346	Thrust:	74.679
Time:	3.153	Roll Set Point:	-0.111	Pitch Set Point:	-0.148	Yaw Set Point:	-0.085	X_WP:	0.100	Y_WP:	0.000	Y_WP:	0.500	X:	0.102	Y:	0.074	Z:	0.151	yaw:	4.847	yaw rate:	4.961	Roll:	2.464	Pitch:	2.697	Yaw:	9.057	Thrust:	62.461
Time:	3.167	Roll Set Point:	-0.117	Pitch Set Point:	-0.150	Yaw Set Point:	-0.079	X_WP:	0.100	Y_WP:	0.000	Y_WP:	0.500	X:	0.105	Y:	0.075	Z:	0.159	yaw:	4.499	yaw rate:	-34.781	Roll:	3.390	Pitch:	3.045	Yaw:	0.612	Thrust:	52.471
Time:	3.178	Roll Set Point:	-0.119	Pitch Set Point:	-0.151	Yaw Set Point:	-0.079	X_WP:	0.100	Y_WP:	0.000	Y_WP:	0.500	X:	0.107	Y:	0.076	Z:	0.163	yaw:	4.522	yaw rate:	2.354	Roll:	2.602	Pitch:	2.933	Yaw:	7.976	Thrust:	54.315
Time:	3.193	Roll Set Point:	-0.122	Pitch Set Point:	-0.151	Yaw Set Point:	-0.074	X_WP:	0.100	Y_WP:	0.000	Y_WP:	0.500	X:	0.108	Y:	0.076	Z:	0.167	yaw:	4.249	yaw rate:	-27.364	Roll:	2.247	Pitch:	2.430	Yaw:	2.461	Thrust:	66.617
Time:	3.207	Roll Set Point:	-0.128	Pitch Set Point:	-0.152	Yaw Set Point:	-0.069	X_WP:	0.100	Y_WP:	0.000	Y_WP:	0.500	X:	0.111	Y:	0.076	Z:	0.175	yaw:	3.966	yaw rate:	-17.255	Roll:	2.949	Pitch:	3.012	Yaw:	1.912	Thrust:	71.689
Time:	3.221	Roll Set Point:	-0.131	Pitch Set Point:	-0.153	Yaw Set Point:	-0.068	X_WP:	0.100	Y_WP:	0.000	Y_WP:	0.500	X:	0.113	Y:	0.077	Z:	0.179	yaw:	3.923	yaw rate:	-4.252	Roll:	2.458	Pitch:	2.701	Yaw:	5.758	Thrust:	54.833
Time:	3.235	Roll Set Point:	-0.134	Pitch Set Point:	-0.153	Yaw Set Point:	-0.066	X_WP:	0.100	Y_WP:	0.000	Y_WP:	0.500	X:	0.114	Y:	0.077	Z:	0.183	yaw:	3.791	yaw rate:	-13.191	Roll:	1.933	Pitch:	2.663	Yaw:	4.721	Thrust:	88.018
Time:	3.245	Roll Set Point:	-0.137	Pitch Set Point:	-0.153	Yaw Set Point:	-0.070	X_WP:	0.100	Y_WP:	0.000	Y_WP:	0.500	X:	0.116	Y:	0.077	Z:	0.187	yaw:	4.022	yaw rate:	23.113	Roll:	3.263	Pitch:	2.514	Yaw:	12.419	Thrust:	50.728
Time:	3.264	Roll Set Point:	-0.140	Pitch Set Point:	-0.154	Yaw Set Point:	-0.065	X_WP:	0.100	Y_WP:	0.000	Y_WP:	0.500	X:	0.117	Y:	0.078	Z:	0.192	yaw:	3.708	yaw rate:	-31.475	Roll:	1.922	Pitch:	2.861	Yaw:	2.575	Thrust:	97.636
Time:	3.275	Roll Set Point:	-0.148	Pitch Set Point:	-0.155	Yaw Set Point:	-0.060	X_WP:	0.100	Y_WP:	0.000	Y_WP:	0.500	X:	0.122	Y:	0.078	Z:	0.205	yaw:	3.433	yaw rate:	-1.209	Roll:	5.741	Pitch:	2.956	Yaw:	-0.616	Thrust:	17.193
Time:	3.293	Roll Set Point:	-0.152	Pitch Set Point:	-0.155	Yaw Set Point:	-0.061	X_WP:	0.100	Y_WP:	0.000	Y_WP:	0.500	X:	0.123	Y:	0.078	Z:	0.209	yaw:	3.521	yaw rate:	8.759	Roll:	2.750	Pitch:	2.610	Yaw:	7.966	Thrust:	86.245
Time:	3.305	Roll Set Point:	-0.156	Pitch Set Point:	-0.155	Yaw Set Point:	-0.048	X_WP:	0.100	Y_WP:	0.000	Y_WP:	0.500	X:	0.126	Y:	0.078	Z:	0.219	yaw:	2.737	yaw rate:	-62.883	Roll:	2.645	Pitch:	2.647	Yaw:	-10.074	Thrust:	55.976
Time:	3.317	Roll Set Point:	-0.160	Pitch Set Point:	-0.156	Yaw Set Point:	-0.057	X_WP:	0.100	Y_WP:	0.000	Y_WP:	0.500	X:	0.128	Y:	0.079	Z:	0.223	yaw:	3.268	yaw rate:	53.048	Roll:	4.270	Pitch:	2.475	Yaw:	17.282	Thrust:	57.919
Time:	3.332	Roll Set Point:	-0.163	Pitch Set Point:	-0.156	Yaw Set Point:	-0.058	X_WP:	0.100	Y_WP:	0.000	Y_WP:	0.500	X:	0.129	Y:	0.079	Z:	0.228	yaw:	3.322	yaw rate:	5.494	Roll:	2.605	Pitch:	2.363	Yaw:	7.066	Thrust:	70.696
Time:	3.343	Roll Set Point:	-0.166	Pitch Set Point:	-0.156	Yaw Set Point:	-0.058	X_WP:	0.100	Y_WP:	0.000	Y_WP:	0.500	X:	0.131	Y:	0.079	Z:	0.233	yaw:	3.335	yaw rate:	1.212	Roll:	3.266	Pitch:	2.543	Yaw:	6.084	Thrust:	50.592
Time:	3.357	Roll Set Point:	-0.169	Pitch Set Point:	-0.156	Yaw Set Point:	-0.057	X_WP:	0.100	Y_WP:	0.000	Y_WP:	0.500	X:	0.132	Y:	0.079	Z:	0.238	yaw:	3.243	yaw rate:	-9.115	Roll:	2.864	Pitch:	2.659	Yaw:	4.366	Thrust:	72.306
Time:	3.372	Roll Set Point:	-0.171	Pitch Set Point:	-0.156	Yaw Set Point:	-0.055	X_WP:	0.100	Y_WP:	0.000	Y_WP:	0.500	X:	0.134	Y:	0.079	Z:	0.243	yaw:	3.129	yaw rate:	-11.454	Roll:	2.160	Pitch:	2.492	Yaw:	3.831	Thrust:	82.624
Time:	3.384	Roll Set Point:	-0.179	Pitch Set Point:	-0.156	Yaw Set Point:	-0.051	X_WP:	0.100	Y_WP:	0.000	Y_WP:	0.500	X:	0.138	Y:	0.079	Z:	0.257	yaw:	2.940	yaw rate:	26.912	Roll:	7.056	Pitch:	2.017	Yaw:	0.719	Thrust:	12.888
Time:	3.396	Roll Set Point:	-0.182	Pitch Set Point:	-0.156	Yaw Set Point:	-0.048	X_WP:	0.100	Y_WP:	0.000	Y_WP:	0.500	X:	0.139	Y:	0.079	Z:	0.262	yaw:	2.741	yaw rate:	-19.879	Roll:	2.709	Pitch:	2.615	Yaw:	0.897	Thrust:	57.438
Time:	3.407	Roll Set Point:	-0.185	Pitch Set Point:	-0.156	Yaw Set Point:	-0.052	X_WP:	0.100	Y_WP:	0.000	Y_WP:	0.500	X:	0.140	Y:	0.079	Z:	0.267	yaw:	2.972	yaw rate:	23.114	Roll:	3.522	Pitch:	2.101	Yaw:	10.561	Thrust:	58.021
Time:	3.421	Roll Set Point:	-0.187	Pitch Set Point:	-0.156	Yaw Set Point:	-0.046	X_WP:	0.100	Y_WP:	0.000	Y_WP:	0.500	X:	0.142	Y:	0.079	Z:	0.272	yaw:	2.614	yaw rate:	-35.779	Roll:	2.752	Pitch:	2.448	Yaw:	-2.562	Thrust:	61.653
Time:	3.432	Roll Set Point:	-0.190	Pitch Set Point:	-0.155	Yaw Set Point:	-0.049	X_WP:	0.100	Y_WP:	0.000	Y_WP:	0.500	X:	0.143	Y:	0.079	Z:	0.277	yaw:	2.821	yaw rate:	20.702	Roll:	3.104	Pitch:	2.110	Yaw:	9.643	Thrust:	58.146
Time:	3.443	Roll Set Point:	-0.192	Pitch Set Point:	-0.155	Yaw Set Point:	-0.050	X_WP:	0.100	Y_WP:	0.000	Y_WP:	0.500	X:	0.144	Y:	0.079	Z:	0.282	yaw:	2.875	yaw rate:	5.406	Roll:	3.438	Pitch:	1.964	Yaw:	6.395	Thrust:	52.680
Time:	3.461	Roll Set Point:	-0.195	Pitch Set Point:	-0.155	Yaw Set Point:	-0.046	X_WP:	0.100	Y_WP:	0.000	Y_WP:	0.500	X:	0.145	Y:	0.078	Z:	0.287	yaw:	2.611	yaw rate:	-26.484	Roll:	2.251	Pitch:	2.666	Yaw:	1.504	Thrust:	94.531
Time:	3.472	Roll Set Point:	-0.202	Pitch Set Point:	-0.154	Yaw Set Point:	-0.046	X_WP:	0.100	Y_WP:	0.000	Y_WP:	0.500	X:	0.149	Y:	0.078	Z:	0.304	yaw:	2.615	yaw rate:	-10.300	Roll:	6.380	Pitch:	1.382	Yaw:	4.860	Thrust:	0.000
Time:	3.483	Roll Set Point:	-0.205	Pitch Set Point:	-0.153	Yaw Set Point:	-0.049	X_WP:	0.100	Y_WP:	0.000	Y_WP:	0.500	X:	0.150	Y:	0.078	Z:	0.309	yaw:	2.831	yaw rate:	21.585	Roll:	3.814	Pitch:	1.678	Yaw:	10.373	Thrust:	47.050
Time:	3.495	Roll Set Point:	-0.207	Pitch Set Point:	-0.152	Yaw Set Point:	-0.045	X_WP:	0.100	Y_WP:	0.000	Y_WP:	0.500	X:	0.152	Y:	0.077	Z:	0.315	yaw:	2.579	yaw rate:	-25.144	Roll:	2.771	Pitch:	2.021	Yaw:	-0.724	Thrust:	53.971
Time:	3.507	Roll Set Point:	-0.209	Pitch Set Point:	-0.152	Yaw Set Point:	-0.046	X_WP:	0.100	Y_WP:	0.000	Y_WP:	0.500	X:	0.153	Y:	0.077	Z:	0.321	yaw:	2.619	yaw rate:	3.972	Roll:	3.259	Pitch:	2.086	Yaw:	5.725	Thrust:	54.778
Time:	3.520	Roll Set Point:	-0.211	Pitch Set Point:	-0.152	Yaw Set Point:	-0.040	X_WP:	0.100	Y_WP:	0.000	Y_WP:	0.500	X:	0.154	Y:	0.077	Z:	0.326	yaw:	2.304	yaw rate:	-31.534	Roll:	2.587	Pitch:	2.361	Yaw:	-1.811	Thrust:	56.021
Time:	3.532	Roll Set Point:	-0.213	Pitch Set Point:	-0.151	Yaw Set Point:	-0.042	X_WP:	0.100	Y_WP:	0.000	Y_WP:	0.500	X:	0.155	Y:	0.077	Z:	0.331	yaw:	2.419	yaw rate:	11.537	Roll:	3.204	Pitch:	1.866	Yaw:	7.090	Thrust:	62.852
Time:	3.543	Roll Set Point:	-0.216	Pitch Set Point:	-0.150	Yaw Set Point:	-0.046	X_WP:	0.100	Y_WP:	0.000	Y_WP:	0.500	X:	0.156	Y:	0.076	Z:	0.336	yaw:	2.648	yaw rate:	22.920	Roll:	3.745	Pitch:	1.463	Yaw:	10.242	Thrust:	49.795
Time:	3.554	Roll Set Point:	-0.218	Pitch Set Point:	-0.149	Yaw Set Point:	-0.053	X_WP:	0.100	Y_WP:	0.000	Y_WP:	0.500	X:	0.157	Y:	0.076	Z:	0.341	yaw:	3.009	yaw rate:	36.024	Roll:	3.944	Pitch:	1.179	Yaw:	13.517	Thrust:	54.127
Time:	3.569	Roll Set Point:	-0.220	Pitch Set Point:	-0.149	Yaw Set Point:	-0.048	X_WP:	0.100	Y_WP:	0.000	Y_WP:	0.500	X:	0.158	Y:	0.076	Z:	0.346	yaw:	2.722	yaw rate:	-28.685	Roll:	2.753	Pitch:	2.559	Yaw:	0.100	Thrust:	76.095
Time:	3.580	Roll Set Point:	-0.225	Pitch Set Point:	-0.147	Yaw Set Point:	-0.061	X_WP:	0.100	Y_WP:	0.000	Y_WP:	0.500	X:	0.160	Y:	0.075	Z:	0.354	yaw:	3.513	yaw rate:	79.126	Roll:	6.280	Pitch:	-0.486	Yaw:	24.790	Thrust:	36.272
Time:	3.593	Roll Set Point:	-0.226	Pitch Set Point:	-0.147	Yaw Set Point:	-0.050	X_WP:	0.100	Y_WP:	0.000	Y_WP:	0.500	X:	0.161	Y:	0.075	Z:	0.357	yaw:	2.854	yaw rate:	-65.912	Roll:	2.212	Pitch:	2.771	Yaw:	-7.940	Thrust:	68.769
Time:	3.607	Roll Set Point:	-0.231	Pitch Set Point:	-0.145	Yaw Set Point:	-0.062	X_WP:	0.100	Y_WP:	0.000	Y_WP:	0.500	X:	0.163	Y:	0.074	Z:	0.365	yaw:	3.560	yaw rate:	0.886	Roll:	5.016	Pitch:	0.810	Yaw:	19.752	Thrust:	62.097
Time:	3.619	Roll Set Point:	-0.233	Pitch Set Point:	-0.144	Yaw Set Point:	-0.067	X_WP:	0.100	Y_WP:	0.000	Y_WP:	0.500	X:	0.164	Y:	0.074	Z:	0.368	yaw:	3.860	yaw rate:	29.944	Roll:	3.719	Pitch:	0.986	Yaw:	13.097	Thrust:	63.643
Time:	3.632	Roll Set Point:	-0.235	Pitch Set Point:	-0.143	Yaw Set Point:	-0.067	X_WP:	0.100	Y_WP:	0.000	Y_WP:	0.500	X:	0.165	Y:	0.074	Z:	0.371	yaw:	3.863	yaw rate:	0.290	Roll:	3.247	Pitch:	1.889	Yaw:	6.756	Thrust:	70.436
Time:	3.643	Roll Set Point:	-0.237	Pitch Set Point:	-0.142	Yaw Set Point:	-0.073	X_WP:	0.100	Y_WP:	0.000	Y_WP:	0.500	X:	0.166	Y:	0.073	Z:	0.374	yaw:	4.183	yaw rate:	32.056	Roll:	3.873	Pitch:	0.898	Yaw:	14.553	Thrust:	53.613
Time:	3.661	Roll Set Point:	-0.239	Pitch Set Point:	-0.141	Yaw Set Point:	-0.073	X_WP:	0.100	Y_WP:	0.000	Y_WP:	0.500	X:	0.167	Y:	0.073	Z:	0.377	yaw:	4.185	yaw rate:	0.195	Roll:	2.892	Pitch:	1.916	Yaw:	7.673	Thrust:	98.774
Time:	3.673	Roll Set Point:	-0.242	Pitch Set Point:	-0.139	Yaw Set Point:	-0.082	X_WP:	0.100	Y_WP:	0.000	Y_WP:	0.500	X:	0.168	Y:	0.073	Z:	0.383	yaw:	4.717	yaw rate:	83.728	Roll:	4.696	Pitch:	0.542	Yaw:	19.234	Thrust:	59.274
Time:	3.693	Roll Set Point:	-0.244	Pitch Set Point:	-0.139	Yaw Set Point:	-0.077	X_WP:	0.100	Y_WP:	0.000	Y_WP:	0.500	X:	0.169	Y:	0.072	Z:	0.387	yaw:	4.403	yaw rate:	-31.364	Roll:	3.005	Pitch:	2.319	Yaw:	3.745	Thrust:	60.341
Time:	3.705	Roll Set Point:	-0.248	Pitch Set Point:	-0.137	Yaw Set Point:	-0.086	X_WP:	0.100	Y_WP:	0.000	Y_WP:	0.500	X:	0.171	Y:	0.072	Z:	0.397	yaw:	4.949	yaw rate:	-6.883	Roll:	4.383	Pitch:	0.944	Yaw:	19.164	Thrust:	97.856
Time:	3.716	Roll Set Point:	-0.250	Pitch Set Point:	-0.136	Yaw Set Point:	-0.089	X_WP:	0.100	Y_WP:	0.000	Y_WP:	0.500	X:	0.172	Y:	0.071	Z:	0.401	yaw:	5.080	yaw rate:	13.177	Roll:	3.495	Pitch:	1.489	Yaw:	11.314	Thrust:	57.181
Time:	3.729	Roll Set Point:	-0.251	Pitch Set Point:	-0.135	Yaw Set Point:	-0.096	X_WP:	0.100	Y_WP:	0.000	Y_WP:	0.500	X:	0.172	Y:	0.071	Z:	0.405	yaw:	5.488	yaw rate:	40.774	Roll:	3.475	Pitch:	1.208	Yaw:	17.156	Thrust:	66.908
Time:	3.741	Roll Set Point:	-0.253	Pitch Set Point:	-0.135	Yaw Set Point:	-0.095	X_WP:	0.100	Y_WP:	0.000	Y_WP:	0.500	X:	0.173	Y:	0.071	Z:	0.409	yaw:	5.438	yaw rate:	-4.968	Roll:	3.070	Pitch:	1.845	Yaw:	7.721	Thrust:	59.000
Time:	3.760	Roll Set Point:	-0.254	Pitch Set Point:	-0.134	Yaw Set Point:	-0.105	X_WP:	0.100	Y_WP:	0.000	Y_WP:	0.500	X:	0.174	Y:	0.071	Z:	0.413	yaw:	6.029	yaw rate:	59.106	Roll:	3.728	Pitch:	1.098	Yaw:	18.990	Thrust:	75.487
Time:	3.772	Roll Set Point:	-0.257	Pitch Set Point:	-0.133	Yaw Set Point:	-0.111	X_WP:	0.100	Y_WP:	0.000	Y_WP:	0.500	X:	0.175	Y:	0.071	Z:	0.427	yaw:	6.339	yaw rate:	-0.892	Roll:	3.978	Pitch:	1.242	Yaw:	16.379	Thrust:	58.756
Time:	3.783	Roll Set Point:	-0.258	Pitch Set Point:	-0.133	Yaw Set Point:	-0.109	X_WP:	0.100	Y_WP:	0.000	Y_WP:	0.500	X:	0.175	Y:	0.071	Z:	0.432	yaw:	6.231	yaw rate:	-10.894	Roll:	2.876	Pitch:	2.417	Yaw:	7.215	Thrust:	47.355
Time:	3.796	Roll Set Point:	-0.259	Pitch Set Point:	-0.133	Yaw Set Point:	-0.114	X_WP:	0.100	Y_WP:	0.000	Y_WP:	0.500	X:	0.175	Y:	0.071	Z:	0.437	yaw:	6.515	yaw rate:	28.470	Roll:	3.163	Pitch:	1.633	Yaw:	16.289	Thrust:	57.786
Time:	3.807	Roll Set Point:	-0.259	Pitch Set Point:	-0.133	Yaw Set Point:	-0.114	X_WP:	0.100	Y_WP:	0.000	Y_WP:	0.500	X:	0.176	Y:	0.071	Z:	0.442	yaw:	6.511	yaw rate:	-0.426	Roll:	3.033	Pitch:	2.445	Yaw:	10.147	Thrust:	50.142
Time:	3.819	Roll Set Point:	-0.260	Pitch Set Point:	-0.133	Yaw Set Point:	-0.116	X_WP:	0.100	Y_WP:	0.000	Y_WP:	0.500	X:	0.176	Y:	0.071	Z:	0.448	yaw:	6.619	yaw rate:	10.839	Roll:	2.875	Pitch:	1.756	Yaw:	12.990	Thrust:	41.330
Time:	3.832	Roll Set Point:	-0.260	Pitch Set Point:	-0.134	Yaw Set Point:	-0.111	X_WP:	0.100	Y_WP:	0.000	Y_WP:	0.500	X:	0.176	Y:	0.071	Z:	0.453	yaw:	6.338	yaw rate:	-28.135	Roll:	2.401	Pitch:	2.905	Yaw:	5.013	Thrust:	62.868
Time:	3.842	Roll Set Point:	-0.261	Pitch Set Point:	-0.134	Yaw Set Point:	-0.112	X_WP:	0.100	Y_WP:	0.000	Y_WP:	0.500	X:	0.177	Y:	0.072	Z:	0.459	yaw:	6.393	yaw rate:	5.502	Roll:	2.952	Pitch:	2.192	Yaw:	11.347	Thrust:	38.633
Time:	3.856	Roll Set Point:	-0.260	Pitch Set Point:	-0.135	Yaw Set Point:	-0.104	X_WP:	0.100	Y_WP:	0.000	Y_WP:	0.500	X:	0.177	Y:	0.072	Z:	0.465	yaw:	5.938	yaw rate:	-45.539	Roll:	1.719	Pitch:	3.114	Yaw:	0.468	Thrust:	62.464
Time:	3.872	Roll Set Point:	-0.261	Pitch Set Point:	-0.137	Yaw Set Point:	-0.100	X_WP:	0.100	Y_WP:	0.000	Y_WP:	0.500	X:	0.177	Y:	0.073	Z:	0.483	yaw:	5.739	yaw rate:	-52.161	Roll:	2.655	Pitch:	3.395	Yaw:	6.620	Thrust:	51.855
Time:	3.883	Roll Set Point:	-0.261	Pitch Set Point:	-0.138	Yaw Set Point:	-0.101	X_WP:	0.100	Y_WP:	0.000	Y_WP:	0.500	X:	0.177	Y:	0.073	Z:	0.489	yaw:	5.779	yaw rate:	4.033	Roll:	2.337	Pitch:	2.545	Yaw:	10.130	Thrust:	40.817
Time:	3.895	Roll Set Point:	-0.260	Pitch Set Point:	-0.138	Yaw Set Point:	-0.095	X_WP:	0.100	Y_WP:	0.000	Y_WP:	0.500	X:	0.177	Y:	0.073	Z:	0.495	yaw:	5.421	yaw rate:	-35.856	Roll:	1.908	Pitch:	3.146	Yaw:	0.985	Thrust:	48.226
Time:	3.907	Roll Set Point:	-0.261	Pitch Set Point:	-0.139	Yaw Set Point:	-0.100	X_WP:	0.100	Y_WP:	0.000	Y_WP:	0.500	X:	0.177	Y:	0.073	Z:	0.501	yaw:	5.755	yaw rate:	33.432	Roll:	3.093	Pitch:	2.171	Yaw:	16.761	Thrust:	43.821
Time:	3.920	Roll Set Point:	-0.260	Pitch Set Point:	-0.140	Yaw Set Point:	-0.095	X_WP:	0.100	Y_WP:	0.000	Y_WP:	0.500	X:	0.177	Y:	0.074	Z:	0.507	yaw:	5.441	yaw rate:	-31.396	Roll:	1.803	Pitch:	3.302	Yaw:	2.660	Thrust:	48.207
Time:	3.934	Roll Set Point:	-0.260	Pitch Set Point:	-0.141	Yaw Set Point:	-0.094	X_WP:	0.100	Y_WP:	0.000	Y_WP:	0.500	X:	0.177	Y:	0.074	Z:	0.513	yaw:	5.381	yaw rate:	-6.037	Roll:	2.351	Pitch:	2.903	Yaw:	7.817	Thrust:	70.333
Time:	3.945	Roll Set Point:	-0.260	Pitch Set Point:	-0.142	Yaw Set Point:	-0.091	X_WP:	0.100	Y_WP:	0.000	Y_WP:	0.500	X:	0.177	Y:	0.074	Z:	0.519	yaw:	5.208	yaw rate:	-17.234	Roll:	1.930	Pitch:	3.020	Yaw:	4.283	Thrust:	39.027
Time:	3.962	Roll Set Point:	-0.260	Pitch Set Point:	-0.142	Yaw Set Point:	-0.094	X_WP:	0.100	Y_WP:	0.000	Y_WP:	0.500	X:	0.176	Y:	0.075	Z:	0.525	yaw:	5.410	yaw rate:	20.132	Roll:	2.665	Pitch:	2.545	Yaw:	12.327	Thrust:	84.630
Time:	3.973	Roll Set Point:	-0.259	Pitch Set Point:	-0.145	Yaw Set Point:	-0.089	X_WP:	0.100	Y_WP:	0.000	Y_WP:	0.500	X:	0.176	Y:	0.076	Z:	0.542	yaw:	5.089	yaw rate:	15.198	Roll:	1.428	Pitch:	4.704	Yaw:	0.211	Thrust:	0.000
Time:	3.986	Roll Set Point:	-0.258	Pitch Set Point:	-0.146	Yaw Set Point:	-0.085	X_WP:	0.100	Y_WP:	0.000	Y_WP:	0.500	X:	0.176	Y:	0.076	Z:	0.547	yaw:	4.886	yaw rate:	-20.272	Roll:	1.721	Pitch:	3.199	Yaw:	3.373	Thrust:	44.137
Time:	4.000	Roll Set Point:	-0.258	Pitch Set Point:	-0.147	Yaw Set Point:	-0.089	X_WP:	0.100	Y_WP:	0.000	Y_WP:	0.500	X:	0.176	Y:	0.077	Z:	0.552	yaw:	5.113	yaw rate:	22.685	Roll:	2.678	Pitch:	2.562	Yaw:	12.512	Thrust:	69.344
Time:	4.011	Roll Set Point:	-0.257	Pitch Set Point:	-0.148	Yaw Set Point:	-0.083	X_WP:	0.100	Y_WP:	0.000	Y_WP:	0.500	X:	0.175	Y:	0.077	Z:	0.557	yaw:	4.730	yaw rate:	-38.274	Roll:	1.222	Pitch:	3.550	Yaw:	-1.377	Thrust:	41.248
Time:	4.028	Roll Set Point:	-0.257	Pitch Set Point:	-0.148	Yaw Set Point:	-0.083	X_WP:	0.100	Y_WP:	0.000	Y_WP:	0.500	X:	0.175	Y:	0.077	Z:	0.562	yaw:	4.746	yaw rate:	1.567	Roll:	2.414	Pitch:	2.912	Yaw:	8.490	Thrust:	80.225
Time:	4.042	Roll Set Point:	-0.256	Pitch Set Point:	-0.150	Yaw Set Point:	-0.080	X_WP:	0.100	Y_WP:	0.000	Y_WP:	0.500	X:	0.175	Y:	0.078	Z:	0.571	yaw:	4.610	yaw rate:	-27.257	Roll:	1.638	Pitch:	3.385	Yaw:	5.434	Thrust:	48.263
Time:	4.054	Roll Set Point:	-0.256	Pitch Set Point:	-0.150	Yaw Set Point:	-0.087	X_WP:	0.100	Y_WP:	0.000	Y_WP:	0.500	X:	0.175	Y:	0.078	Z:	0.576	yaw:	4.987	yaw rate:	37.760	Roll:	2.764	Pitch:	2.329	Yaw:	16.457	Thrust:	51.418
Time:	4.066	Roll Set Point:	-0.255	Pitch Set Point:	-0.151	Yaw Set Point:	-0.084	X_WP:	0.100	Y_WP:	0.000	Y_WP:	0.500	X:	0.174	Y:	0.079	Z:	0.580	yaw:	4.820	yaw rate:	-16.735	Roll:	1.632	Pitch:	3.155	Yaw:	4.305	Thrust:	49.018
Time:	4.077	Roll Set Point:	-0.255	Pitch Set Point:	-0.151	Yaw Set Point:	-0.091	X_WP:	0.100	Y_WP:	0.000	Y_WP:	0.500	X:	0.174	Y:	0.079	Z:	0.584	yaw:	5.189	yaw rate:	36.925	Roll:	2.751	Pitch:	2.343	Yaw:	17.113	Thrust:	41.599
Time:	4.093	Roll Set Point:	-0.254	Pitch Set Point:	-0.152	Yaw Set Point:	-0.092	X_WP:	0.100	Y_WP:	0.000	Y_WP:	0.500	X:	0.173	Y:	0.079	Z:	0.588	yaw:	5.268	yaw rate:	7.854	Roll:	2.052	Pitch:	2.612	Yaw:	10.241	Thrust:	76.498
Time:	4.106	Roll Set Point:	-0.253	Pitch Set Point:	-0.154	Yaw Set Point:	-0.101	X_WP:	0.100	Y_WP:	0.000	Y_WP:	0.500	X:	0.173	Y:	0.081	Z:	0.601	yaw:	5.767	yaw rate:	42.706	Roll:	2.310	Pitch:	3.418	Yaw:	19.574	Thrust:	24.313
Time:	4.117	Roll Set Point:	-0.252	Pitch Set Point:	-0.154	Yaw Set Point:	-0.101	X_WP:	0.100	Y_WP:	0.000	Y_WP:	0.500	X:	0.172	Y:	0.081	Z:	0.605	yaw:	5.786	yaw rate:	1.904	Roll:	1.693	Pitch:	2.823	Yaw:	9.612	Thrust:	39.068
Time:	4.129	Roll Set Point:	-0.252	Pitch Set Point:	-0.155	Yaw Set Point:	-0.104	X_WP:	0.100	Y_WP:	0.000	Y_WP:	0.500	X:	0.172	Y:	0.081	Z:	0.608	yaw:	5.952	yaw rate:	16.597	Roll:	2.381	Pitch:	2.599	Yaw:	12.947	Thrust:	56.361
Time:	4.143	Roll Set Point:	-0.251	Pitch Set Point:	-0.155	Yaw Set Point:	-0.106	X_WP:	0.100	Y_WP:	0.000	Y_WP:	0.500	X:	0.171	Y:	0.082	Z:	0.612	yaw:	6.098	yaw rate:	14.599	Roll:	2.163	Pitch:	2.898	Yaw:	12.692	Thrust:	59.108
Time:	4.158	Roll Set Point:	-0.250	Pitch Set Point:	-0.156	Yaw Set Point:	-0.102	X_WP:	0.100	Y_WP:	0.000	Y_WP:	0.500	X:	0.171	Y:	0.082	Z:	0.616	yaw:	5.862	yaw rate:	-23.603	Roll:	1.485	Pitch:	3.299	Yaw:	5.585	Thrust:	62.975
Time:	4.173	Roll Set Point:	-0.249	Pitch Set Point:	-0.157	Yaw Set Point:	-0.114	X_WP:	0.100	Y_WP:	0.000	Y_WP:	0.500	X:	0.170	Y:	0.083	Z:	0.624	yaw:	6.546	yaw rate:	-4.779	Roll:	2.265	Pitch:	2.841	Yaw:	22.687	Thrust:	55.246
Time:	4.183	Roll Set Point:	-0.248	Pitch Set Point:	-0.158	Yaw Set Point:	-0.114	X_WP:	0.100	Y_WP:	0.000	Y_WP:	0.500	X:	0.169	Y:	0.083	Z:	0.627	yaw:	6.524	yaw rate:	-2.115	Roll:	1.520	Pitch:	3.196	Yaw:	9.637	Thrust:	42.966
Time:	4.197	Roll Set Point:	-0.248	Pitch Set Point:	-0.159	Yaw Set Point:	-0.120	X_WP:	0.100	Y_WP:	0.000	Y_WP:	0.500	X:	0.169	Y:	0.084	Z:	0.629	yaw:	6.882	yaw rate:	35.721	Roll:	2.719	Pitch:	2.614	Yaw:	17.651	Thrust:	68.655
Time:	4.209	Roll Set Point:	-0.247	Pitch Set Point:	-0.160	Yaw Set Point:	-0.119	X_WP:	0.100	Y_WP:	0.000	Y_WP:	0.500	X:	0.169	Y:	0.084	Z:	0.631	yaw:	6.824	yaw rate:	-5.808	Roll:	1.709	Pitch:	3.204	Yaw:	9.465	Thrust:	50.002
Time:	4.228	Roll Set Point:	-0.246	Pitch Set Point:	-0.160	Yaw Set Point:	-0.115	X_WP:	0.100	Y_WP:	0.000	Y_WP:	0.500	X:	0.168	Y:	0.084	Z:	0.633	yaw:	6.579	yaw rate:	-24.439	Roll:	1.721	Pitch:	3.299	Yaw:	7.756	Thrust:	96.214
Time:	4.240	Roll Set Point:	-0.245	Pitch Set Point:	-0.161	Yaw Set Point:	-0.125	X_WP:	0.100	Y_WP:	0.000	Y_WP:	0.500	X:	0.167	Y:	0.085	Z:	0.636	yaw:	7.135	yaw rate:	16.564	Roll:	2.274	Pitch:	2.801	Yaw:	23.743	Thrust:	49.113
Time:	4.251	Roll Set Point:	-0.244	Pitch Set Point:	-0.162	Yaw Set Point:	-0.122	X_WP:	0.100	Y_WP:	0.000	Y_WP:	0.500	X:	0.167	Y:	0.086	Z:	0.637	yaw:	7.015	yaw rate:	-12.008	Roll:	1.538	Pitch:	3.296	Yaw:	8.049	Thrust:	49.069
Time:	4.265	Roll Set Point:	-0.243	Pitch Set Point:	-0.163	Yaw Set Point:	-0.119	X_WP:	0.100	Y_WP:	0.000	Y_WP:	0.500	X:	0.167	Y:	0.086	Z:	0.638	yaw:	6.819	yaw rate:	-19.604	Roll:	1.433	Pitch:	3.390	Yaw:	7.323	Thrust:	65.212
Time:	4.277	Roll Set Point:	-0.241	Pitch Set Point:	-0.164	Yaw Set Point:	-0.118	X_WP:	0.100	Y_WP:	0.000	Y_WP:	0.500	X:	0.166	Y:	0.086	Z:	0.640	yaw:	6.783	yaw rate:	-3.637	Roll:	1.065	Pitch:	3.643	Yaw:	9.710	Thrust:	50.816
Time:	4.293	Roll Set Point:	-0.240	Pitch Set Point:	-0.165	Yaw Set Point:	-0.114	X_WP:	0.100	Y_WP:	0.000	Y_WP:	0.500	X:	0.165	Y:	0.087	Z:	0.640	yaw:	6.506	yaw rate:	-27.649	Roll:	1.152	Pitch:	3.481	Yaw:	6.366	Thrust:	80.010
Time:	4.306	Roll Set Point:	-0.238	Pitch Set Point:	-0.166	Yaw Set Point:	-0.116	X_WP:	0.100	Y_WP:	0.000	Y_WP:	0.500	X:	0.164	Y:	0.087	Z:	0.641	yaw:	6.657	yaw rate:	13.871	Roll:	1.675	Pitch:	3.405	Yaw:	13.634	Thrust:	61.623
Time:	4.316	Roll Set Point:	-0.238	Pitch Set Point:	-0.167	Yaw Set Point:	-0.115	X_WP:	0.100	Y_WP:	0.000	Y_WP:	0.500	X:	0.164	Y:	0.088	Z:	0.641	yaw:	6.604	yaw rate:	-5.319	Roll:	1.405	Pitch:	3.238	Yaw:	8.839	Thrust:	48.686
Time:	4.330	Roll Set Point:	-0.237	Pitch Set Point:	-0.168	Yaw Set Point:	-0.113	X_WP:	0.100	Y_WP:	0.000	Y_WP:	0.500	X:	0.164	Y:	0.088	Z:	0.641	yaw:	6.501	yaw rate:	-10.251	Roll:	1.600	Pitch:	3.287	Yaw:	8.325	Thrust:	64.135
Time:	4.342	Roll Set Point:	-0.236	Pitch Set Point:	-0.168	Yaw Set Point:	-0.116	X_WP:	0.100	Y_WP:	0.000	Y_WP:	0.500	X:	0.163	Y:	0.088	Z:	0.641	yaw:	6.670	yaw rate:	16.893	Roll:	1.939	Pitch:	2.905	Yaw:	14.011	Thrust:	63.337
Time:	4.359	Roll Set Point:	-0.235	Pitch Set Point:	-0.169	Yaw Set Point:	-0.112	X_WP:	0.100	Y_WP:	0.000	Y_WP:	0.500	X:	0.163	Y:	0.088	Z:	0.641	yaw:	6.436	yaw rate:	-23.457	Roll:	1.281	Pitch:	3.404	Yaw:	7.007	Thrust:	78.949
Time:	4.372	Roll Set Point:	-0.233	Pitch Set Point:	-0.170	Yaw Set Point:	-0.107	X_WP:	0.100	Y_WP:	0.000	Y_WP:	0.500	X:	0.162	Y:	0.089	Z:	0.641	yaw:	6.147	yaw rate:	-35.447	Roll:	0.927	Pitch:	3.823	Yaw:	3.949	Thrust:	67.975
Time:	4.385	Roll Set Point:	-0.232	Pitch Set Point:	-0.170	Yaw Set Point:	-0.112	X_WP:	0.100	Y_WP:	0.000	Y_WP:	0.500	X:	0.161	Y:	0.089	Z:	0.641	yaw:	6.394	yaw rate:	24.738	Roll:	1.830	Pitch:	2.644	Yaw:	15.516	Thrust:	59.202
Time:	4.400	Roll Set Point:	-0.231	Pitch Set Point:	-0.171	Yaw Set Point:	-0.111	X_WP:	0.100	Y_WP:	0.000	Y_WP:	0.500	X:	0.161	Y:	0.089	Z:	0.641	yaw:	6.341	yaw rate:	-5.312	Roll:	1.833	Pitch:	3.191	Yaw:	9.514	Thrust:	79.489
Time:	4.411	Roll Set Point:	-0.229	Pitch Set Point:	-0.172	Yaw Set Point:	-0.111	X_WP:	0.100	Y_WP:	0.000	Y_WP:	0.500	X:	0.160	Y:	0.090	Z:	0.640	yaw:	6.352	yaw rate:	-5.233	Roll:	0.301	Pitch:	3.836	Yaw:	10.272	Thrust:	56.780
Time:	4.428	Roll Set Point:	-0.228	Pitch Set Point:	-0.173	Yaw Set Point:	-0.109	X_WP:	0.100	Y_WP:	0.000	Y_WP:	0.500	X:	0.159	Y:	0.090	Z:	0.640	yaw:	6.273	yaw rate:	-7.846	Roll:	1.480	Pitch:	3.265	Yaw:	9.090	Thrust:	74.103
Time:	4.443	Roll Set Point:	-0.227	Pitch Set Point:	-0.173	Yaw Set Point:	-0.111	X_WP:	0.100	Y_WP:	0.000	Y_WP:	0.500	X:	0.159	Y:	0.090	Z:	0.640	yaw:	6.384	yaw rate:	11.017	Roll:	1.867	Pitch:	2.869	Yaw:	12.334	Thrust:	78.541
Time:	4.455	Roll Set Point:	-0.225	Pitch Set Point:	-0.174	Yaw Set Point:	-0.105	X_WP:	0.100	Y_WP:	0.000	Y_WP:	0.500	X:	0.158	Y:	0.090	Z:	0.640	yaw:	5.987	yaw rate:	-13.634	Roll:	0.347	Pitch:	3.939	Yaw:	0.522	Thrust:	52.638
Time:	4.468	Roll Set Point:	-0.225	Pitch Set Point:	-0.174	Yaw Set Point:	-0.110	X_WP:	0.100	Y_WP:	0.000	Y_WP:	0.500	X:	0.158	Y:	0.090	Z:	0.641	yaw:	6.280	yaw rate:	29.289	Roll:	2.117	Pitch:	2.805	Yaw:	15.488	Thrust:	68.539
Time:	4.479	Roll Set Point:	-0.224	Pitch Set Point:	-0.174	Yaw Set Point:	-0.111	X_WP:	0.100	Y_WP:	0.000	Y_WP:	0.500	X:	0.157	Y:	0.090	Z:	0.641	yaw:	6.351	yaw rate:	7.055	Roll:	1.727	Pitch:	2.845	Yaw:	11.645	Thrust:	49.321
Time:	4.493	Roll Set Point:	-0.224	Pitch Set Point:	-0.174	Yaw Set Point:	-0.107	X_WP:	0.100	Y_WP:	0.000	Y_WP:	0.500	X:	0.157	Y:	0.090	Z:	0.642	yaw:	6.148	yaw rate:	-20.306	Roll:	1.240	Pitch:	3.239	Yaw:	6.009	Thrust:	59.200
Time:	4.505	Roll Set Point:	-0.223	Pitch Set Point:	-0.175	Yaw Set Point:	-0.103	X_WP:	0.100	Y_WP:	0.000	Y_WP:	0.500	X:	0.157	Y:	0.091	Z:	0.643	yaw:	5.882	yaw rate:	-26.599	Roll:	1.244	Pitch:	3.379	Yaw:	3.915	Thrust:	58.711
Time:	4.522	Roll Set Point:	-0.222	Pitch Set Point:	-0.175	Yaw Set Point:	-0.109	X_WP:	0.100	Y_WP:	0.000	Y_WP:	0.500	X:	0.156	Y:	0.091	Z:	0.644	yaw:	6.228	yaw rate:	34.571	Roll:	2.256	Pitch:	2.436	Yaw:	16.063	Thrust:	71.137
Time:	4.536	Roll Set Point:	-0.220	Pitch Set Point:	-0.175	Yaw Set Point:	-0.102	X_WP:	0.100	Y_WP:	0.000	Y_WP:	0.500	X:	0.156	Y:	0.091	Z:	0.647	yaw:	5.841	yaw rate:	-3.978	Roll:	0.761	Pitch:	3.548	Yaw:	2.758	Thrust:	58.169
Time:	4.547	Roll Set Point:	-0.219	Pitch Set Point:	-0.175	Yaw Set Point:	-0.099	X_WP:	0.100	Y_WP:	0.000	Y_WP:	0.500	X:	0.155	Y:	0.091	Z:	0.649	yaw:	5.647	yaw rate:	-19.430	Roll:	1.331	Pitch:	3.227	Yaw:	4.669	Thrust:	45.720
Time:	4.563	Roll Set Point:	-0.219	Pitch Set Point:	-0.176	Yaw Set Point:	-0.099	X_WP:	0.100	Y_WP:	0.000	Y_WP:	0.500	X:	0.155	Y:	0.091	Z:	0.651	yaw:	5.663	yaw rate:	1.591	Roll:	1.774	Pitch:	3.033	Yaw:	9.726	Thrust:	67.344
Time:	4.574	Roll Set Point:	-0.219	Pitch Set Point:	-0.176	Yaw Set Point:	-0.104	X_WP:	0.100	Y_WP:	0.000	Y_WP:	0.500	X:	0.155	Y:	0.091	Z:	0.653	yaw:	5.934	yaw rate:	27.139	Roll:	2.460	Pitch:	2.697	Yaw:	15.599	Thrust:	43.459
Time:	4.589	Roll Set Point:	-0.218	Pitch Set Point:	-0.176	Yaw Set Point:	-0.103	X_WP:	0.100	Y_WP:	0.000	Y_WP:	0.500	X:	0.155	Y:	0.091	Z:	0.657	yaw:	5.924	yaw rate:	-5.800	Roll:	1.395	Pitch:	3.005	Yaw:	9.489	Thrust:	43.994
Time:	4.603	Roll Set Point:	-0.218	Pitch Set Point:	-0.176	Yaw Set Point:	-0.100	X_WP:	0.100	Y_WP:	0.000	Y_WP:	0.500	X:	0.154	Y:	0.091	Z:	0.660	yaw:	5.722	yaw rate:	-20.275	Roll:	1.491	Pitch:	3.214	Yaw:	5.799	Thrust:	64.871
Time:	4.614	Roll Set Point:	-0.217	Pitch Set Point:	-0.176	Yaw Set Point:	-0.099	X_WP:	0.100	Y_WP:	0.000	Y_WP:	0.500	X:	0.154	Y:	0.091	Z:	0.662	yaw:	5.679	yaw rate:	-4.221	Roll:	1.647	Pitch:	2.958	Yaw:	7.934	Thrust:	35.610
Time:	4.629	Roll Set Point:	-0.217	Pitch Set Point:	-0.176	Yaw Set Point:	-0.094	X_WP:	0.100	Y_WP:	0.000	Y_WP:	0.500	X:	0.154	Y:	0.091	Z:	0.664	yaw:	5.390	yaw rate:	-28.918	Roll:	1.113	Pitch:	3.195	Yaw:	4.001	Thrust:	55.987
Time:	4.642	Roll Set Point:	-0.217	Pitch Set Point:	-0.176	Yaw Set Point:	-0.102	X_WP:	0.100	Y_WP:	0.000	Y_WP:	0.500	X:	0.154	Y:	0.091	Z:	0.672	yaw:	5.869	yaw rate:	41.662	Roll:	2.487	Pitch:	2.523	Yaw:	19.110	Thrust:	38.612
Time:	4.654	Roll Set Point:	-0.216	Pitch Set Point:	-0.176	Yaw Set Point:	-0.094	X_WP:	0.100	Y_WP:	0.000	Y_WP:	0.500	X:	0.154	Y:	0.091	Z:	0.674	yaw:	5.362	yaw rate:	-50.738	Roll:	0.796	Pitch:	3.622	Yaw:	-2.346	Thrust:	42.708
Time:	4.665	Roll Set Point:	-0.215	Pitch Set Point:	-0.176	Yaw Set Point:	-0.088	X_WP:	0.100	Y_WP:	0.000	Y_WP:	0.500	X:	0.154	Y:	0.091	Z:	0.676	yaw:	5.047	yaw rate:	-31.531	Roll:	1.191	Pitch:	3.150	Yaw:	1.049	Thrust:	39.722
Time:	4.676	Roll Set Point:	-0.215	Pitch Set Point:	-0.176	Yaw Set Point:	-0.089	X_WP:	0.100	Y_WP:	0.000	Y_WP:	0.500	X:	0.154	Y:	0.091	Z:	0.679	yaw:	5.095	yaw rate:	4.816	Roll:	1.870	Pitch:	2.697	Yaw:	9.360	Thrust:	36.025
Time:	4.693	Roll Set Point:	-0.215	Pitch Set Point:	-0.176	Yaw Set Point:	-0.089	X_WP:	0.100	Y_WP:	0.000	Y_WP:	0.500	X:	0.154	Y:	0.090	Z:	0.681	yaw:	5.086	yaw rate:	-0.881	Roll:	1.898	Pitch:	2.910	Yaw:	8.562	Thrust:	56.319
Time:	4.706	Roll Set Point:	-0.215	Pitch Set Point:	-0.176	Yaw Set Point:	-0.086	X_WP:	0.100	Y_WP:	0.000	Y_WP:	0.500	X:	0.154	Y:	0.090	Z:	0.683	yaw:	4.950	yaw rate:	-13.633	Roll:	1.658	Pitch:	3.076	Yaw:	5.617	Thrust:	56.021
Time:	4.719	Roll Set Point:	-0.214	Pitch Set Point:	-0.176	Yaw Set Point:	-0.083	X_WP:	0.100	Y_WP:	0.000	Y_WP:	0.500	X:	0.154	Y:	0.090	Z:	0.687	yaw:	4.741	yaw rate:	-25.529	Roll:	1.369	Pitch:	3.038	Yaw:	3.946	Thrust:	47.774
Time:	4.738	Roll Set Point:	-0.214	Pitch Set Point:	-0.175	Yaw Set Point:	-0.085	X_WP:	0.100	Y_WP:	0.000	Y_WP:	0.500	X:	0.153	Y:	0.090	Z:	0.690	yaw:	4.845	yaw rate:	-12.913	Roll:	2.084	Pitch:	3.003	Yaw:	10.104	Thrust:	77.183
Time:	4.749	Roll Set Point:	-0.214	Pitch Set Point:	-0.175	Yaw Set Point:	-0.085	X_WP:	0.100	Y_WP:	0.000	Y_WP:	0.500	X:	0.153	Y:	0.090	Z:	0.690	yaw:	4.845	yaw rate:	-12.913	Roll:	1.908	Pitch:	2.861	Yaw:	7.818	Thrust:	41.514
Time:	4.764	Roll Set Point:	-0.214	Pitch Set Point:	-0.175	Yaw Set Point:	-0.079	X_WP:	0.100	Y_WP:	0.000	Y_WP:	0.500	X:	0.153	Y:	0.090	Z:	0.693	yaw:	4.517	yaw rate:	6.570	Roll:	1.288	Pitch:	2.973	Yaw:	1.873	Thrust:	51.580
Time:	4.776	Roll Set Point:	-0.214	Pitch Set Point:	-0.175	Yaw Set Point:	-0.076	X_WP:	0.100	Y_WP:	0.000	Y_WP:	0.500	X:	0.154	Y:	0.090	Z:	0.693	yaw:	4.332	yaw rate:	-18.557	Roll:	1.761	Pitch:	3.132	Yaw:	3.455	Thrust:	48.782
Time:	4.792	Roll Set Point:	-0.214	Pitch Set Point:	-0.175	Yaw Set Point:	-0.077	X_WP:	0.100	Y_WP:	0.000	Y_WP:	0.500	X:	0.154	Y:	0.089	Z:	0.694	yaw:	4.394	yaw rate:	6.225	Roll:	2.201	Pitch:	2.563	Yaw:	8.723	Thrust:	56.185
Time:	4.807	Roll Set Point:	-0.213	Pitch Set Point:	-0.174	Yaw Set Point:	-0.069	X_WP:	0.100	Y_WP:	0.000	Y_WP:	0.500	X:	0.154	Y:	0.089	Z:	0.694	yaw:	3.980	yaw rate:	-10.164	Roll:	1.256	Pitch:	3.181	Yaw:	0.175	Thrust:	68.464
Time:	4.821	Roll Set Point:	-0.214	Pitch Set Point:	-0.174	Yaw Set Point:	-0.070	X_WP:	0.100	Y_WP:	0.000	Y_WP:	0.500	X:	0.154	Y:	0.089	Z:	0.694	yaw:	4.021	yaw rate:	4.161	Roll:	2.105	Pitch:	2.617	Yaw:	7.773	Thrust:	49.718
Time:	4.840	Roll Set Point:	-0.213	Pitch Set Point:	-0.173	Yaw Set Point:	-0.061	X_WP:	0.100	Y_WP:	0.000	Y_WP:	0.500	X:	0.154	Y:	0.088	Z:	0.694	yaw:	3.470	yaw rate:	-46.051	Roll:	1.403	Pitch:	3.291	Yaw:	-0.554	Thrust:	89.516
Time:	4.852	Roll Set Point:	-0.212	Pitch Set Point:	-0.173	Yaw Set Point:	-0.058	X_WP:	0.100	Y_WP:	0.000	Y_WP:	0.500	X:	0.154	Y:	0.088	Z:	0.693	yaw:	3.302	yaw rate:	-16.802	Roll:	1.378	Pitch:	2.703	Yaw:	1.726	Thrust:	43.861
Time:	4.866	Roll Set Point:	-0.213	Pitch Set Point:	-0.172	Yaw Set Point:	-0.057	X_WP:	0.100	Y_WP:	0.000	Y_WP:	0.500	X:	0.154	Y:	0.088	Z:	0.692	yaw:	3.262	yaw rate:	-3.924	Roll:	1.994	Pitch:	2.720	Yaw:	5.341	Thrust:	63.561
Time:	4.878	Roll Set Point:	-0.213	Pitch Set Point:	-0.172	Yaw Set Point:	-0.058	X_WP:	0.100	Y_WP:	0.000	Y_WP:	0.500	X:	0.154	Y:	0.087	Z:	0.691	yaw:	3.308	yaw rate:	4.548	Roll:	1.966	Pitch:	2.321	Yaw:	6.805	Thrust:	46.684
Time:	4.898	Roll Set Point:	-0.212	Pitch Set Point:	-0.172	Yaw Set Point:	-0.046	X_WP:	0.100	Y_WP:	0.000	Y_WP:	0.500	X:	0.154	Y:	0.087	Z:	0.690	yaw:	2.626	yaw rate:	-68.176	Roll:	1.029	Pitch:	3.423	Yaw:	-3.312	Thrust:	78.126
Time:	4.911	Roll Set Point:	-0.212	Pitch Set Point:	-0.170	Yaw Set Point:	-0.055	X_WP:	0.100	Y_WP:	0.000	Y_WP:	0.500	X:	0.154	Y:	0.086	Z:	0.689	yaw:	3.137	yaw rate:	-13.867	Roll:	2.631	Pitch:	1.637	Yaw:	15.941	Thrust:	62.484
Time:	4.924	Roll Set Point:	-0.213	Pitch Set Point:	-0.169	Yaw Set Point:	-0.056	X_WP:	0.100	Y_WP:	0.000	Y_WP:	0.500	X:	0.154	Y:	0.086	Z:	0.688	yaw:	3.184	yaw rate:	4.757	Roll:	2.175	Pitch:	2.652	Yaw:	6.738	Thrust:	57.190
Time:	4.937	Roll Set Point:	-0.213	Pitch Set Point:	-0.169	Yaw Set Point:	-0.057	X_WP:	0.100	Y_WP:	0.000	Y_WP:	0.500	X:	0.154	Y:	0.086	Z:	0.688	yaw:	3.267	yaw rate:	8.302	Roll:	2.093	Pitch:	2.316	Yaw:	7.529	Thrust:	50.053
Time:	4.949	Roll Set Point:	-0.213	Pitch Set Point:	-0.167	Yaw Set Point:	-0.052	X_WP:	0.100	Y_WP:	0.000	Y_WP:	0.500	X:	0.154	Y:	0.085	Z:	0.687	yaw:	2.952	yaw rate:	-32.991	Roll:	1.255	Pitch:	2.121	Yaw:	-2.184	Thrust:	46.955
Time:	4.964	Roll Set Point:	-0.213	Pitch Set Point:	-0.167	Yaw Set Point:	-0.052	X_WP:	0.100	Y_WP:	0.000	Y_WP:	0.500	X:	0.154	Y:	0.085	Z:	0.686	yaw:	2.970	yaw rate:	1.723	Roll:	2.038	Pitch:	2.573	Yaw:	5.872	Thrust:	55.257
Time:	4.976	Roll Set Point:	-0.212	Pitch Set Point:	-0.166	Yaw Set Point:	-0.048	X_WP:	0.100	Y_WP:	0.000	Y_WP:	0.500	X:	0.154	Y:	0.084	Z:	0.686	yaw:	2.769	yaw rate:	-20.022	Roll:	1.513	Pitch:	2.457	Yaw:	1.358	Thrust:	52.894
Time:	4.993	Roll Set Point:	-0.213	Pitch Set Point:	-0.164	Yaw Set Point:	-0.051	X_WP:	0.100	Y_WP:	0.000	Y_WP:	0.500	X:	0.154	Y:	0.084	Z:	0.686	yaw:	2.900	yaw rate:	13.027	Roll:	2.356	Pitch:	1.922	Yaw:	7.764	Thrust:	61.268
Time:	5.005	Roll Set Point:	-0.213	Pitch Set Point:	-0.163	Yaw Set Point:	-0.047	X_WP:	0.100	Y_WP:	0.000	Y_WP:	0.500	X:	0.155	Y:	0.083	Z:	0.685	yaw:	2.701	yaw rate:	13.590	Roll:	1.780	Pitch:	2.108	Yaw:	0.654	Thrust:	48.763
Time:	5.017	Roll Set Point:	-0.212	Pitch Set Point:	-0.162	Yaw Set Point:	-0.040	X_WP:	0.100	Y_WP:	0.000	Y_WP:	0.500	X:	0.155	Y:	0.082	Z:	0.685	yaw:	2.283	yaw rate:	-41.804	Roll:	1.070	Pitch:	2.593	Yaw:	-4.288	Thrust:	47.840
Time:	5.029	Roll Set Point:	-0.213	Pitch Set Point:	-0.162	Yaw Set Point:	-0.041	X_WP:	0.100	Y_WP:	0.000	Y_WP:	0.500	X:	0.155	Y:	0.082	Z:	0.684	yaw:	2.341	yaw rate:	5.858	Roll:	2.050	Pitch:	2.362	Yaw:	5.747	Thrust:	45.478
Time:	5.042	Roll Set Point:	-0.213	Pitch Set Point:	-0.161	Yaw Set Point:	-0.043	X_WP:	0.100	Y_WP:	0.000	Y_WP:	0.500	X:	0.155	Y:	0.081	Z:	0.684	yaw:	2.477	yaw rate:	13.547	Roll:	2.220	Pitch:	1.852	Yaw:	7.538	Thrust:	47.633
Time:	5.054	Roll Set Point:	-0.212	Pitch Set Point:	-0.160	Yaw Set Point:	-0.036	X_WP:	0.100	Y_WP:	0.000	Y_WP:	0.500	X:	0.155	Y:	0.081	Z:	0.683	yaw:	2.041	yaw rate:	-43.536	Roll:	1.043	Pitch:	2.614	Yaw:	-5.487	Thrust:	45.430
Time:	5.065	Roll Set Point:	-0.213	Pitch Set Point:	-0.159	Yaw Set Point:	-0.042	X_WP:	0.100	Y_WP:	0.000	Y_WP:	0.500	X:	0.155	Y:	0.081	Z:	0.683	yaw:	2.426	yaw rate:	38.422	Roll:	2.781	Pitch:	1.547	Yaw:	13.251	Thrust:	43.131
Time:	5.076	Roll Set Point:	-0.212	Pitch Set Point:	-0.157	Yaw Set Point:	-0.032	X_WP:	0.100	Y_WP:	0.000	Y_WP:	0.500	X:	0.155	Y:	0.080	Z:	0.681	yaw:	1.845	yaw rate:	-58.099	Roll:	0.626	Pitch:	2.101	Yaw:	-10.112	Thrust:	46.427
Time:	5.094	Roll Set Point:	-0.213	Pitch Set Point:	-0.156	Yaw Set Point:	-0.034	X_WP:	0.100	Y_WP:	0.000	Y_WP:	0.500	X:	0.155	Y:	0.079	Z:	0.679	yaw:	1.952	yaw rate:	10.750	Roll:	2.197	Pitch:	2.053	Yaw:	6.081	Thrust:	56.952
Time:	5.106	Roll Set Point:	-0.214	Pitch Set Point:	-0.154	Yaw Set Point:	-0.040	X_WP:	0.100	Y_WP:	0.000	Y_WP:	0.500	X:	0.155	Y:	0.078	Z:	0.677	yaw:	2.282	yaw rate:	34.313	Roll:	2.560	Pitch:	1.162	Yaw:	11.320	Thrust:	62.067
Time:	5.116	Roll Set Point:	-0.213	Pitch Set Point:	-0.154	Yaw Set Point:	-0.035	X_WP:	0.100	Y_WP:	0.000	Y_WP:	0.500	X:	0.155	Y:	0.078	Z:	0.675	yaw:	1.988	yaw rate:	-29.414	Roll:	1.489	Pitch:	2.514	Yaw:	-3.466	Thrust:	43.189
Time:	5.131	Roll Set Point:	-0.213	Pitch Set Point:	-0.153	Yaw Set Point:	-0.033	X_WP:	0.100	Y_WP:	0.000	Y_WP:	0.500	X:	0.155	Y:	0.077	Z:	0.673	yaw:	1.866	yaw rate:	-12.137	Roll:	1.610	Pitch:	2.182	Yaw:	1.999	Thrust:	58.912
Time:	5.142	Roll Set Point:	-0.214	Pitch Set Point:	-0.151	Yaw Set Point:	-0.038	X_WP:	0.100	Y_WP:	0.000	Y_WP:	0.500	X:	0.155	Y:	0.077	Z:	0.671	yaw:	2.194	yaw rate:	32.736	Roll:	2.421	Pitch:	1.334	Yaw:	11.938	Thrust:	48.168
Time:	5.162	Roll Set Point:	-0.213	Pitch Set Point:	-0.150	Yaw Set Point:	-0.031	X_WP:	0.100	Y_WP:	0.000	Y_WP:	0.500	X:	0.155	Y:	0.076	Z:	0.669	yaw:	1.798	yaw rate:	-39.620	Roll:	1.248	Pitch:	2.489	Yaw:	-1.102	Thrust:	67.471
Time:	5.174	Roll Set Point:	-0.212	Pitch Set Point:	-0.148	Yaw Set Point:	-0.023	X_WP:	0.100	Y_WP:	0.000	Y_WP:	0.500	X:	0.155	Y:	0.074	Z:	0.661	yaw:	1.318	yaw rate:	-9.716	Roll:	1.413	Pitch:	1.643	Yaw:	-6.469	Thrust:	79.824
Time:	5.188	Roll Set Point:	-0.212	Pitch Set Point:	-0.147	Yaw Set Point:	-0.018	X_WP:	0.100	Y_WP:	0.000	Y_WP:	0.500	X:	0.156	Y:	0.074	Z:	0.658	yaw:	1.027	yaw rate:	-29.064	Roll:	1.517	Pitch:	2.473	Yaw:	-3.101	Thrust:	55.334
Time:	5.205	Roll Set Point:	-0.212	Pitch Set Point:	-0.145	Yaw Set Point:	-0.018	X_WP:	0.100	Y_WP:	0.000	Y_WP:	0.500	X:	0.155	Y:	0.073	Z:	0.651	yaw:	1.011	yaw rate:	-18.761	Roll:	1.864	Pitch:	1.744	Yaw:	2.980	Thrust:	85.834
Time:	5.220	Roll Set Point:	-0.212	Pitch Set Point:	-0.144	Yaw Set Point:	-0.016	X_WP:	0.100	Y_WP:	0.000	Y_WP:	0.500	X:	0.156	Y:	0.073	Z:	0.648	yaw:	0.912	yaw rate:	-9.842	Roll:	1.845	Pitch:	2.228	Yaw:	0.844	Thrust:	62.036
Time:	5.232	Roll Set Point:	-0.212	Pitch Set Point:	-0.143	Yaw Set Point:	-0.019	X_WP:	0.100	Y_WP:	0.000	Y_WP:	0.500	X:	0.156	Y:	0.072	Z:	0.644	yaw:	1.098	yaw rate:	18.578	Roll:	2.154	Pitch:	1.402	Yaw:	6.565	Thrust:	59.334
Time:	5.243	Roll Set Point:	-0.212	Pitch Set Point:	-0.142	Yaw Set Point:	-0.014	X_WP:	0.100	Y_WP:	0.000	Y_WP:	0.500	X:	0.156	Y:	0.072	Z:	0.640	yaw:	0.821	yaw rate:	-27.684	Roll:	1.410	Pitch:	2.369	Yaw:	-4.322	Thrust:	52.965
Time:	5.257	Roll Set Point:	-0.212	Pitch Set Point:	-0.141	Yaw Set Point:	-0.020	X_WP:	0.100	Y_WP:	0.000	Y_WP:	0.500	X:	0.156	Y:	0.071	Z:	0.636	yaw:	1.152	yaw rate:	33.129	Roll:	2.327	Pitch:	1.047	Yaw:	10.282	Thrust:	54.644
Time:	5.275	Roll Set Point:	-0.212	Pitch Set Point:	-0.138	Yaw Set Point:	-0.014	X_WP:	0.100	Y_WP:	0.000	Y_WP:	0.500	X:	0.156	Y:	0.069	Z:	0.625	yaw:	0.793	yaw rate:	-47.707	Roll:	1.637	Pitch:	1.666	Yaw:	-1.584	Thrust:	100.000
Time:	5.293	Roll Set Point:	-0.212	Pitch Set Point:	-0.137	Yaw Set Point:	-0.018	X_WP:	0.100	Y_WP:	0.000	Y_WP:	0.500	X:	0.156	Y:	0.069	Z:	0.622	yaw:	1.020	yaw rate:	22.795	Roll:	2.253	Pitch:	1.767	Yaw:	6.626	Thrust:	65.209
Time:	5.305	Roll Set Point:	-0.213	Pitch Set Point:	-0.134	Yaw Set Point:	-0.023	X_WP:	0.100	Y_WP:	0.000	Y_WP:	0.500	X:	0.156	Y:	0.068	Z:	0.616	yaw:	1.310	yaw rate:	-8.787	Roll:	2.430	Pitch:	0.900	Yaw:	8.942	Thrust:	74.130
Time:	5.318	Roll Set Point:	-0.212	Pitch Set Point:	-0.134	Yaw Set Point:	-0.016	X_WP:	0.100	Y_WP:	0.000	Y_WP:	0.500	X:	0.156	Y:	0.067	Z:	0.612	yaw:	0.904	yaw rate:	-40.604	Roll:	1.141	Pitch:	2.195	Yaw:	-6.801	Thrust:	53.522
Time:	5.333	Roll Set Point:	-0.212	Pitch Set Point:	-0.133	Yaw Set Point:	-0.015	X_WP:	0.100	Y_WP:	0.000	Y_WP:	0.500	X:	0.156	Y:	0.067	Z:	0.609	yaw:	0.884	yaw rate:	-2.035	Roll:	1.949	Pitch:	2.028	Yaw:	2.569	Thrust:	68.130
Time:	5.345	Roll Set Point:	-0.212	Pitch Set Point:	-0.132	Yaw Set Point:	-0.015	X_WP:	0.100	Y_WP:	0.000	Y_WP:	0.500	X:	0.156	Y:	0.066	Z:	0.606	yaw:	0.834	yaw rate:	-4.922	Roll:	1.877	Pitch:	1.735	Yaw:	1.201	Thrust:	54.608
Time:	5.363	Roll Set Point:	-0.212	Pitch Set Point:	-0.131	Yaw Set Point:	-0.009	X_WP:	0.100	Y_WP:	0.000	Y_WP:	0.500	X:	0.156	Y:	0.066	Z:	0.603	yaw:	0.541	yaw rate:	-29.376	Roll:	1.659	Pitch:	2.273	Yaw:	-1.562	Thrust:	72.832
Time:	5.376	Roll Set Point:	-0.212	Pitch Set Point:	-0.128	Yaw Set Point:	-0.010	X_WP:	0.100	Y_WP:	0.000	Y_WP:	0.500	X:	0.156	Y:	0.064	Z:	0.595	yaw:	0.587	yaw rate:	12.684	Roll:	1.938	Pitch:	0.299	Yaw:	3.039	Thrust:	75.410
Time:	5.398	Roll Set Point:	-0.213	Pitch Set Point:	-0.126	Yaw Set Point:	-0.017	X_WP:	0.100	Y_WP:	0.000	Y_WP:	0.500	X:	0.156	Y:	0.064	Z:	0.592	yaw:	0.977	yaw rate:	38.965	Roll:	2.292	Pitch:	1.839	Yaw:	8.137	Thrust:	85.046
Time:	5.410	Roll Set Point:	-0.213	Pitch Set Point:	-0.125	Yaw Set Point:	-0.007	X_WP:	0.100	Y_WP:	0.000	Y_WP:	0.500	X:	0.156	Y:	0.063	Z:	0.587	yaw:	0.418	yaw rate:	-3.173	Roll:	1.593	Pitch:	1.857	Yaw:	-10.965	Thrust:	65.519
Time:	5.430	Roll Set Point:	-0.213	Pitch Set Point:	-0.124	Yaw Set Point:	-0.013	X_WP:	0.100	Y_WP:	0.000	Y_WP:	0.500	X:	0.156	Y:	0.062	Z:	0.585	yaw:	0.767	yaw rate:	34.975	Roll:	2.324	Pitch:	0.981	Yaw:	7.782	Thrust:	62.075
Time:	5.444	Roll Set Point:	-0.213	Pitch Set Point:	-0.122	Yaw Set Point:	-0.008	X_WP:	0.100	Y_WP:	0.000	Y_WP:	0.500	X:	0.156	Y:	0.061	Z:	0.581	yaw:	0.435	yaw rate:	5.276	Roll:	2.015	Pitch:	2.105	Yaw:	-3.567	Thrust:	81.222
Time:	5.465	Roll Set Point:	-0.214	Pitch Set Point:	-0.120	Yaw Set Point:	-0.021	X_WP:	0.100	Y_WP:	0.000	Y_WP:	0.500	X:	0.156	Y:	0.061	Z:	0.579	yaw:	1.183	yaw rate:	74.776	Roll:	2.954	Pitch:	1.094	Yaw:	13.203	Thrust:	75.614
Time:	5.477	Roll Set Point:	-0.214	Pitch Set Point:	-0.118	Yaw Set Point:	-0.009	X_WP:	0.100	Y_WP:	0.000	Y_WP:	0.500	X:	0.157	Y:	0.059	Z:	0.575	yaw:	0.541	yaw rate:	2.663	Roll:	1.514	Pitch:	1.571	Yaw:	-10.825	Thrust:	65.425
Time:	5.495	Roll Set Point:	-0.214	Pitch Set Point:	-0.117	Yaw Set Point:	-0.011	X_WP:	0.100	Y_WP:	0.000	Y_WP:	0.500	X:	0.157	Y:	0.059	Z:	0.574	yaw:	0.654	yaw rate:	11.338	Roll:	2.352	Pitch:	1.679	Yaw:	4.366	Thrust:	63.025
Time:	5.507	Roll Set Point:	-0.214	Pitch Set Point:	-0.116	Yaw Set Point:	-0.003	X_WP:	0.100	Y_WP:	0.000	Y_WP:	0.500	X:	0.157	Y:	0.058	Z:	0.572	yaw:	0.200	yaw rate:	-81.370	Roll:	1.565	Pitch:	1.572	Yaw:	-7.027	Thrust:	55.144
Time:	5.529	Roll Set Point:	-0.214	Pitch Set Point:	-0.114	Yaw Set Point:	-0.008	X_WP:	0.100	Y_WP:	0.000	Y_WP:	0.500	X:	0.157	Y:	0.057	Z:	0.572	yaw:	0.444	yaw rate:	24.388	Roll:	2.493	Pitch:	1.334	Yaw:	6.069	Thrust:	54.489
Time:	5.542	Roll Set Point:	-0.214	Pitch Set Point:	-0.113	Yaw Set Point:	-0.002	X_WP:	0.100	Y_WP:	0.000	Y_WP:	0.500	X:	0.157	Y:	0.057	Z:	0.571	yaw:	0.142	yaw rate:	-50.329	Roll:	2.026	Pitch:	1.931	Yaw:	-2.556	Thrust:	77.874
Time:	5.563	Roll Set Point:	-0.215	Pitch Set Point:	-0.111	Yaw Set Point:	-0.005	X_WP:	0.100	Y_WP:	0.000	Y_WP:	0.500	X:	0.157	Y:	0.056	Z:	0.572	yaw:	0.287	yaw rate:	14.527	Roll:	2.368	Pitch:	1.473	Yaw:	4.321	Thrust:	78.029
Time:	5.575	Roll Set Point:	-0.215	Pitch Set Point:	-0.110	Yaw Set Point:	0.002	X_WP:	0.100	Y_WP:	0.000	Y_WP:	0.500	X:	0.158	Y:	0.055	Z:	0.573	yaw:	-0.122	yaw rate:	-23.909	Roll:	1.950	Pitch:	1.471	Yaw:	-8.312	Thrust:	38.074
Time:	5.597	Roll Set Point:	-0.216	Pitch Set Point:	-0.109	Yaw Set Point:	0.002	X_WP:	0.100	Y_WP:	0.000	Y_WP:	0.500	X:	0.158	Y:	0.054	Z:	0.573	yaw:	-0.121	yaw rate:	0.090	Roll:	2.151	Pitch:	1.898	Yaw:	1.954	Thrust:	77.301
