Time:	2.059	Roll Set Point:	-0.045	Pitch Set Point:	0.211	Yaw Set Point:	-0.044	X_WP:	0.000	Y_WP:	0.000	Y_WP:	0.500	X:	0.025	Y:	-0.105	Z:	0.049	yaw:	2.506	yaw rate:	-4.911	Roll:	0.591	Pitch:	-3.070	Yaw:	3.499	Thrust:	24.824
Time:	2.070	Roll Set Point:	-0.045	Pitch Set Point:	0.211	Yaw Set Point:	-0.044	X_WP:	0.000	Y_WP:	0.000	Y_WP:	0.500	X:	0.025	Y:	-0.105	Z:	0.049	yaw:	2.524	yaw rate:	1.804	Roll:	0.502	Pitch:	-3.123	Yaw:	3.963	Thrust:	25.483
Time:	2.081	Roll Set Point:	-0.045	Pitch Set Point:	0.211	Yaw Set Point:	-0.045	X_WP:	0.000	Y_WP:	0.000	Y_WP:	0.500	X:	0.025	Y:	-0.105	Z:	0.049	yaw:	2.551	yaw rate:	2.694	Roll:	0.571	Pitch:	-3.131	Yaw:	4.221	Thrust:	25.948
Time:	2.092	Roll Set Point:	-0.045	Pitch Set Point:	0.211	Yaw Set Point:	-0.044	X_WP:	0.000	Y_WP:	0.000	Y_WP:	0.500	X:	0.025	Y:	-0.105	Z:	0.049	yaw:	2.495	yaw rate:	-5.620	Roll:	0.729	Pitch:	-3.113	Yaw:	2.179	Thrust:	26.602
Time:	2.103	Roll Set Point:	-0.045	Pitch Set Point:	0.211	Yaw Set Point:	-0.042	X_WP:	0.000	Y_WP:	0.000	Y_WP:	0.500	X:	0.025	Y:	-0.105	Z:	0.049	yaw:	2.402	yaw rate:	-9.361	Roll:	0.745	Pitch:	-3.250	Yaw:	1.170	Thrust:	27.465
Time:	2.114	Roll Set Point:	-0.044	Pitch Set Point:	0.211	Yaw Set Point:	-0.053	X_WP:	0.000	Y_WP:	0.000	Y_WP:	0.500	X:	0.025	Y:	-0.105	Z:	0.049	yaw:	3.031	yaw rate:	62.922	Roll:	-0.959	Pitch:	-3.741	Yaw:	19.216	Thrust:	28.159
Time:	2.125	Roll Set Point:	-0.045	Pitch Set Point:	0.211	Yaw Set Point:	-0.047	X_WP:	0.000	Y_WP:	0.000	Y_WP:	0.500	X:	0.025	Y:	-0.105	Z:	0.049	yaw:	2.667	yaw rate:	-36.400	Roll:	1.300	Pitch:	-2.762	Yaw:	-4.857	Thrust:	27.903
Time:	2.136	Roll Set Point:	-0.045	Pitch Set Point:	0.211	Yaw Set Point:	-0.045	X_WP:	0.000	Y_WP:	0.000	Y_WP:	0.500	X:	0.025	Y:	-0.105	Z:	0.049	yaw:	2.557	yaw rate:	-10.959	Roll:	1.176	Pitch:	-3.023	Yaw:	1.039	Thrust:	28.922
Time:	2.147	Roll Set Point:	-0.045	Pitch Set Point:	0.211	Yaw Set Point:	-0.046	X_WP:	0.000	Y_WP:	0.000	Y_WP:	0.500	X:	0.025	Y:	-0.105	Z:	0.049	yaw:	2.628	yaw rate:	7.052	Roll:	0.425	Pitch:	-3.355	Yaw:	5.423	Thrust:	29.841
Time:	2.158	Roll Set Point:	-0.045	Pitch Set Point:	0.211	Yaw Set Point:	-0.041	X_WP:	0.000	Y_WP:	0.000	Y_WP:	0.500	X:	0.025	Y:	-0.105	Z:	0.049	yaw:	2.322	yaw rate:	-30.572	Roll:	1.362	Pitch:	-3.500	Yaw:	-3.925	Thrust:	29.852
Time:	2.169	Roll Set Point:	-0.045	Pitch Set Point:	0.211	Yaw Set Point:	-0.047	X_WP:	0.000	Y_WP:	0.000	Y_WP:	0.500	X:	0.025	Y:	-0.105	Z:	0.048	yaw:	2.697	yaw rate:	37.460	Roll:	-0.559	Pitch:	-3.275	Yaw:	12.755	Thrust:	32.525
Time:	2.180	Roll Set Point:	-0.045	Pitch Set Point:	0.211	Yaw Set Point:	-0.046	X_WP:	0.000	Y_WP:	0.000	Y_WP:	0.500	X:	0.025	Y:	-0.105	Z:	0.048	yaw:	2.622	yaw rate:	-7.449	Roll:	0.956	Pitch:	-3.187	Yaw:	2.002	Thrust:	30.863
Time:	2.191	Roll Set Point:	-0.045	Pitch Set Point:	0.211	Yaw Set Point:	-0.047	X_WP:	0.000	Y_WP:	0.000	Y_WP:	0.500	X:	0.025	Y:	-0.105	Z:	0.049	yaw:	2.689	yaw rate:	6.696	Roll:	0.591	Pitch:	-3.410	Yaw:	5.463	Thrust:	31.454
Time:	2.202	Roll Set Point:	-0.045	Pitch Set Point:	0.211	Yaw Set Point:	-0.045	X_WP:	0.000	Y_WP:	0.000	Y_WP:	0.500	X:	0.025	Y:	-0.105	Z:	0.049	yaw:	2.588	yaw rate:	-10.094	Roll:	0.713	Pitch:	-3.278	Yaw:	1.347	Thrust:	32.496
Time:	2.213	Roll Set Point:	-0.045	Pitch Set Point:	0.211	Yaw Set Point:	-0.043	X_WP:	0.000	Y_WP:	0.000	Y_WP:	0.500	X:	0.025	Y:	-0.105	Z:	0.048	yaw:	2.439	yaw rate:	-14.949	Roll:	1.085	Pitch:	-3.408	Yaw:	-0.004	Thrust:	33.994
Time:	2.224	Roll Set Point:	-0.045	Pitch Set Point:	0.211	Yaw Set Point:	-0.046	X_WP:	0.000	Y_WP:	0.000	Y_WP:	0.500	X:	0.025	Y:	-0.105	Z:	0.049	yaw:	2.632	yaw rate:	19.323	Roll:	0.279	Pitch:	-3.535	Yaw:	8.410	Thrust:	33.007
Time:	2.235	Roll Set Point:	-0.045	Pitch Set Point:	0.211	Yaw Set Point:	-0.043	X_WP:	0.000	Y_WP:	0.000	Y_WP:	0.500	X:	0.025	Y:	-0.105	Z:	0.048	yaw:	2.485	yaw rate:	-14.678	Roll:	0.876	Pitch:	-3.418	Yaw:	0.145	Thrust:	35.757
Time:	2.246	Roll Set Point:	-0.045	Pitch Set Point:	0.211	Yaw Set Point:	-0.043	X_WP:	0.000	Y_WP:	0.000	Y_WP:	0.500	X:	0.025	Y:	-0.105	Z:	0.049	yaw:	2.465	yaw rate:	-1.983	Roll:	0.823	Pitch:	-3.333	Yaw:	3.140	Thrust:	33.795
Time:	2.257	Roll Set Point:	-0.045	Pitch Set Point:	0.211	Yaw Set Point:	-0.051	X_WP:	0.000	Y_WP:	0.000	Y_WP:	0.500	X:	0.025	Y:	-0.105	Z:	0.048	yaw:	2.904	yaw rate:	43.889	Roll:	-0.540	Pitch:	-3.688	Yaw:	14.652	Thrust:	36.394
Time:	2.269	Roll Set Point:	-0.045	Pitch Set Point:	0.211	Yaw Set Point:	-0.046	X_WP:	0.000	Y_WP:	0.000	Y_WP:	0.500	X:	0.025	Y:	-0.105	Z:	0.049	yaw:	2.639	yaw rate:	-26.546	Roll:	1.481	Pitch:	-3.469	Yaw:	-2.230	Thrust:	35.479
Time:	2.280	Roll Set Point:	-0.045	Pitch Set Point:	0.211	Yaw Set Point:	-0.044	X_WP:	0.000	Y_WP:	0.000	Y_WP:	0.500	X:	0.025	Y:	-0.105	Z:	0.048	yaw:	2.501	yaw rate:	-13.771	Roll:	0.945	Pitch:	-3.566	Yaw:	0.411	Thrust:	37.354
Time:	2.291	Roll Set Point:	-0.045	Pitch Set Point:	0.211	Yaw Set Point:	-0.048	X_WP:	0.000	Y_WP:	0.000	Y_WP:	0.500	X:	0.025	Y:	-0.105	Z:	0.048	yaw:	2.723	yaw rate:	22.252	Roll:	0.164	Pitch:	-3.480	Yaw:	9.283	Thrust:	37.847
Time:	2.302	Roll Set Point:	-0.045	Pitch Set Point:	0.211	Yaw Set Point:	-0.048	X_WP:	0.000	Y_WP:	0.000	Y_WP:	0.500	X:	0.025	Y:	-0.105	Z:	0.048	yaw:	2.765	yaw rate:	4.169	Roll:	0.314	Pitch:	-3.943	Yaw:	5.072	Thrust:	38.279
Time:	2.313	Roll Set Point:	-0.045	Pitch Set Point:	0.211	Yaw Set Point:	-0.047	X_WP:	0.000	Y_WP:	0.000	Y_WP:	0.500	X:	0.025	Y:	-0.105	Z:	0.048	yaw:	2.685	yaw rate:	-7.982	Roll:	0.976	Pitch:	-3.389	Yaw:	2.090	Thrust:	37.944
Time:	2.324	Roll Set Point:	-0.045	Pitch Set Point:	0.211	Yaw Set Point:	-0.046	X_WP:	0.000	Y_WP:	0.000	Y_WP:	0.500	X:	0.025	Y:	-0.105	Z:	0.049	yaw:	2.654	yaw rate:	-3.131	Roll:	0.736	Pitch:	-3.624	Yaw:	3.203	Thrust:	38.884
Time:	2.335	Roll Set Point:	-0.045	Pitch Set Point:	0.211	Yaw Set Point:	-0.045	X_WP:	0.000	Y_WP:	0.000	Y_WP:	0.500	X:	0.025	Y:	-0.105	Z:	0.049	yaw:	2.598	yaw rate:	-5.648	Roll:	0.984	Pitch:	-3.463	Yaw:	2.537	Thrust:	38.996
Time:	2.346	Roll Set Point:	-0.045	Pitch Set Point:	0.211	Yaw Set Point:	-0.045	X_WP:	0.000	Y_WP:	0.000	Y_WP:	0.500	X:	0.025	Y:	-0.105	Z:	0.049	yaw:	2.554	yaw rate:	-4.306	Roll:	0.845	Pitch:	-3.686	Yaw:	2.805	Thrust:	40.681
Time:	2.357	Roll Set Point:	-0.045	Pitch Set Point:	0.211	Yaw Set Point:	-0.047	X_WP:	0.000	Y_WP:	0.000	Y_WP:	0.500	X:	0.025	Y:	-0.105	Z:	0.049	yaw:	2.703	yaw rate:	14.873	Roll:	0.205	Pitch:	-4.009	Yaw:	7.574	Thrust:	41.427
Time:	2.368	Roll Set Point:	-0.045	Pitch Set Point:	0.211	Yaw Set Point:	-0.045	X_WP:	0.000	Y_WP:	0.000	Y_WP:	0.500	X:	0.025	Y:	-0.105	Z:	0.048	yaw:	2.552	yaw rate:	-15.107	Roll:	1.191	Pitch:	-3.589	Yaw:	0.257	Thrust:	41.901
Time:	2.379	Roll Set Point:	-0.044	Pitch Set Point:	0.211	Yaw Set Point:	-0.051	X_WP:	0.000	Y_WP:	0.000	Y_WP:	0.500	X:	0.025	Y:	-0.105	Z:	0.048	yaw:	2.911	yaw rate:	35.844	Roll:	-0.483	Pitch:	-3.883	Yaw:	12.863	Thrust:	42.254
Time:	2.390	Roll Set Point:	-0.045	Pitch Set Point:	0.211	Yaw Set Point:	-0.045	X_WP:	0.000	Y_WP:	0.000	Y_WP:	0.500	X:	0.025	Y:	-0.105	Z:	0.049	yaw:	2.587	yaw rate:	-32.328	Roll:	1.692	Pitch:	-3.515	Yaw:	-3.757	Thrust:	42.126
Time:	2.401	Roll Set Point:	-0.045	Pitch Set Point:	0.211	Yaw Set Point:	-0.047	X_WP:	0.000	Y_WP:	0.000	Y_WP:	0.500	X:	0.025	Y:	-0.105	Z:	0.049	yaw:	2.682	yaw rate:	9.451	Roll:	0.498	Pitch:	-4.045	Yaw:	6.301	Thrust:	43.474
Time:	2.412	Roll Set Point:	-0.045	Pitch Set Point:	0.211	Yaw Set Point:	-0.047	X_WP:	0.000	Y_WP:	0.000	Y_WP:	0.500	X:	0.025	Y:	-0.105	Z:	0.049	yaw:	2.718	yaw rate:	3.659	Roll:	0.638	Pitch:	-3.766	Yaw:	4.986	Thrust:	43.976
Time:	2.424	Roll Set Point:	-0.045	Pitch Set Point:	0.211	Yaw Set Point:	-0.046	X_WP:	0.000	Y_WP:	0.000	Y_WP:	0.500	X:	0.025	Y:	-0.105	Z:	0.049	yaw:	2.642	yaw rate:	22.721	Roll:	1.045	Pitch:	-3.768	Yaw:	2.376	Thrust:	45.716
Time:	2.435	Roll Set Point:	-0.045	Pitch Set Point:	0.211	Yaw Set Point:	-0.046	X_WP:	0.000	Y_WP:	0.000	Y_WP:	0.500	X:	0.025	Y:	-0.105	Z:	0.049	yaw:	2.642	yaw rate:	22.721	Roll:	0.734	Pitch:	-3.867	Yaw:	4.031	Thrust:	45.140
Time:	2.446	Roll Set Point:	-0.045	Pitch Set Point:	0.211	Yaw Set Point:	-0.046	X_WP:	0.000	Y_WP:	0.000	Y_WP:	0.500	X:	0.025	Y:	-0.105	Z:	0.049	yaw:	2.632	yaw rate:	-0.950	Roll:	0.636	Pitch:	-4.040	Yaw:	3.803	Thrust:	46.196
Time:	2.458	Roll Set Point:	-0.045	Pitch Set Point:	0.211	Yaw Set Point:	-0.042	X_WP:	0.000	Y_WP:	0.000	Y_WP:	0.500	X:	0.025	Y:	-0.105	Z:	0.048	yaw:	2.399	yaw rate:	-23.300	Roll:	1.297	Pitch:	-3.733	Yaw:	-1.324	Thrust:	49.108
Time:	2.469	Roll Set Point:	-0.045	Pitch Set Point:	0.211	Yaw Set Point:	-0.048	X_WP:	0.000	Y_WP:	0.000	Y_WP:	0.500	X:	0.025	Y:	-0.105	Z:	0.048	yaw:	2.770	yaw rate:	37.046	Roll:	-0.385	Pitch:	-4.308	Yaw:	13.016	Thrust:	46.904
Time:	2.481	Roll Set Point:	-0.045	Pitch Set Point:	0.211	Yaw Set Point:	-0.050	X_WP:	0.000	Y_WP:	0.000	Y_WP:	0.500	X:	0.025	Y:	-0.105	Z:	0.048	yaw:	2.869	yaw rate:	20.100	Roll:	0.632	Pitch:	-3.981	Yaw:	6.590	Thrust:	49.320
Time:	2.492	Roll Set Point:	-0.045	Pitch Set Point:	0.211	Yaw Set Point:	-0.050	X_WP:	0.000	Y_WP:	0.000	Y_WP:	0.500	X:	0.025	Y:	-0.105	Z:	0.048	yaw:	2.869	yaw rate:	20.100	Roll:	0.742	Pitch:	-3.987	Yaw:	4.400	Thrust:	48.136
Time:	2.503	Roll Set Point:	-0.045	Pitch Set Point:	0.211	Yaw Set Point:	-0.044	X_WP:	0.000	Y_WP:	0.000	Y_WP:	0.500	X:	0.025	Y:	-0.105	Z:	0.048	yaw:	2.504	yaw rate:	-36.497	Roll:	1.799	Pitch:	-3.881	Yaw:	-4.762	Thrust:	48.669
Time:	2.514	Roll Set Point:	-0.045	Pitch Set Point:	0.211	Yaw Set Point:	-0.050	X_WP:	0.000	Y_WP:	0.000	Y_WP:	0.500	X:	0.025	Y:	-0.105	Z:	0.048	yaw:	2.873	yaw rate:	36.857	Roll:	-0.217	Pitch:	-4.230	Yaw:	13.153	Thrust:	49.834
Time:	2.526	Roll Set Point:	-0.045	Pitch Set Point:	0.211	Yaw Set Point:	-0.044	X_WP:	0.000	Y_WP:	0.000	Y_WP:	0.500	X:	0.025	Y:	-0.105	Z:	0.049	yaw:	2.531	yaw rate:	-34.121	Roll:	1.630	Pitch:	-3.878	Yaw:	-3.443	Thrust:	50.970
Time:	2.537	Roll Set Point:	-0.045	Pitch Set Point:	0.211	Yaw Set Point:	-0.049	X_WP:	0.000	Y_WP:	0.000	Y_WP:	0.500	X:	0.025	Y:	-0.105	Z:	0.049	yaw:	2.824	yaw rate:	29.225	Roll:	0.020	Pitch:	-4.186	Yaw:	11.299	Thrust:	50.736
Time:	2.548	Roll Set Point:	-0.045	Pitch Set Point:	0.211	Yaw Set Point:	-0.044	X_WP:	0.000	Y_WP:	0.000	Y_WP:	0.500	X:	0.025	Y:	-0.105	Z:	0.048	yaw:	2.550	yaw rate:	-27.398	Roll:	1.552	Pitch:	-3.928	Yaw:	-2.514	Thrust:	51.551
Time:	2.559	Roll Set Point:	-0.045	Pitch Set Point:	0.211	Yaw Set Point:	-0.044	X_WP:	0.000	Y_WP:	0.000	Y_WP:	0.500	X:	0.025	Y:	-0.105	Z:	0.049	yaw:	2.524	yaw rate:	-2.513	Roll:	0.878	Pitch:	-4.194	Yaw:	3.387	Thrust:	51.447
Time:	2.570	Roll Set Point:	-0.045	Pitch Set Point:	0.211	Yaw Set Point:	-0.048	X_WP:	0.000	Y_WP:	0.000	Y_WP:	0.500	X:	0.025	Y:	-0.105	Z:	0.048	yaw:	2.747	yaw rate:	22.296	Roll:	-0.020	Pitch:	-4.297	Yaw:	9.604	Thrust:	52.760
Time:	2.582	Roll Set Point:	-0.045	Pitch Set Point:	0.211	Yaw Set Point:	-0.045	X_WP:	0.000	Y_WP:	0.000	Y_WP:	0.500	X:	0.025	Y:	-0.105	Z:	0.048	yaw:	2.551	yaw rate:	-19.651	Roll:	1.220	Pitch:	-4.157	Yaw:	-0.194	Thrust:	56.127
Time:	2.594	Roll Set Point:	-0.045	Pitch Set Point:	0.211	Yaw Set Point:	-0.044	X_WP:	0.000	Y_WP:	0.000	Y_WP:	0.500	X:	0.025	Y:	-0.105	Z:	0.049	yaw:	2.543	yaw rate:	-0.769	Roll:	0.919	Pitch:	-4.299	Yaw:	3.856	Thrust:	52.422
Time:	2.605	Roll Set Point:	-0.045	Pitch Set Point:	0.211	Yaw Set Point:	-0.047	X_WP:	0.000	Y_WP:	0.000	Y_WP:	0.500	X:	0.025	Y:	-0.105	Z:	0.049	yaw:	2.710	yaw rate:	16.696	Roll:	0.498	Pitch:	-4.285	Yaw:	8.242	Thrust:	54.135
Time:	2.616	Roll Set Point:	-0.045	Pitch Set Point:	0.211	Yaw Set Point:	-0.045	X_WP:	0.000	Y_WP:	0.000	Y_WP:	0.500	X:	0.025	Y:	-0.105	Z:	0.049	yaw:	2.591	yaw rate:	-11.894	Roll:	1.035	Pitch:	-4.176	Yaw:	1.302	Thrust:	54.811
Time:	2.627	Roll Set Point:	-0.045	Pitch Set Point:	0.211	Yaw Set Point:	-0.042	X_WP:	0.000	Y_WP:	0.000	Y_WP:	0.500	X:	0.025	Y:	-0.105	Z:	0.048	yaw:	2.413	yaw rate:	-17.814	Roll:	1.217	Pitch:	-4.323	Yaw:	-0.342	Thrust:	55.805
Time:	2.638	Roll Set Point:	-0.045	Pitch Set Point:	0.211	Yaw Set Point:	-0.046	X_WP:	0.000	Y_WP:	0.000	Y_WP:	0.500	X:	0.025	Y:	-0.105	Z:	0.049	yaw:	2.631	yaw rate:	21.771	Roll:	0.140	Pitch:	-4.254	Yaw:	9.368	Thrust:	55.510
Time:	2.649	Roll Set Point:	-0.045	Pitch Set Point:	0.211	Yaw Set Point:	-0.047	X_WP:	0.000	Y_WP:	0.000	Y_WP:	0.500	X:	0.025	Y:	-0.105	Z:	0.049	yaw:	2.716	yaw rate:	8.485	Roll:	0.520	Pitch:	-4.337	Yaw:	6.346	Thrust:	56.234
Time:	2.660	Roll Set Point:	-0.045	Pitch Set Point:	0.211	Yaw Set Point:	-0.046	X_WP:	0.000	Y_WP:	0.000	Y_WP:	0.500	X:	0.025	Y:	-0.105	Z:	0.049	yaw:	2.619	yaw rate:	-9.636	Roll:	0.995	Pitch:	-4.324	Yaw:	1.923	Thrust:	57.246
Time:	2.672	Roll Set Point:	-0.045	Pitch Set Point:	0.211	Yaw Set Point:	-0.046	X_WP:	0.000	Y_WP:	0.000	Y_WP:	0.500	X:	0.025	Y:	-0.105	Z:	0.049	yaw:	2.616	yaw rate:	-0.335	Roll:	1.082	Pitch:	-4.254	Yaw:	4.186	Thrust:	60.073
Time:	2.683	Roll Set Point:	-0.045	Pitch Set Point:	0.211	Yaw Set Point:	-0.044	X_WP:	0.000	Y_WP:	0.000	Y_WP:	0.500	X:	0.025	Y:	-0.105	Z:	0.049	yaw:	2.514	yaw rate:	-10.175	Roll:	1.158	Pitch:	-4.352	Yaw:	1.665	Thrust:	58.161
Time:	2.695	Roll Set Point:	-0.045	Pitch Set Point:	0.211	Yaw Set Point:	-0.041	X_WP:	0.000	Y_WP:	0.000	Y_WP:	0.500	X:	0.025	Y:	-0.105	Z:	0.049	yaw:	2.358	yaw rate:	-15.619	Roll:	1.125	Pitch:	-4.763	Yaw:	0.528	Thrust:	62.230
Time:	2.706	Roll Set Point:	-0.045	Pitch Set Point:	0.211	Yaw Set Point:	-0.046	X_WP:	0.000	Y_WP:	0.000	Y_WP:	0.500	X:	0.025	Y:	-0.105	Z:	0.048	yaw:	2.608	yaw rate:	25.039	Roll:	0.390	Pitch:	-4.506	Yaw:	10.171	Thrust:	60.252
Time:	2.717	Roll Set Point:	-0.045	Pitch Set Point:	0.211	Yaw Set Point:	-0.048	X_WP:	0.000	Y_WP:	0.000	Y_WP:	0.500	X:	0.025	Y:	-0.105	Z:	0.049	yaw:	2.753	yaw rate:	14.505	Roll:	0.307	Pitch:	-4.470	Yaw:	7.883	Thrust:	59.683
Time:	2.728	Roll Set Point:	-0.044	Pitch Set Point:	0.211	Yaw Set Point:	-0.050	X_WP:	0.000	Y_WP:	0.000	Y_WP:	0.500	X:	0.025	Y:	-0.105	Z:	0.048	yaw:	2.846	yaw rate:	14.580	Roll:	0.490	Pitch:	-4.715	Yaw:	6.753	Thrust:	61.805
Time:	2.739	Roll Set Point:	-0.045	Pitch Set Point:	0.211	Yaw Set Point:	-0.049	X_WP:	0.000	Y_WP:	0.000	Y_WP:	0.500	X:	0.025	Y:	-0.105	Z:	0.048	yaw:	2.811	yaw rate:	-3.494	Roll:	1.114	Pitch:	-4.300	Yaw:	3.713	Thrust:	61.261
Time:	2.751	Roll Set Point:	-0.045	Pitch Set Point:	0.211	Yaw Set Point:	-0.049	X_WP:	0.000	Y_WP:	0.000	Y_WP:	0.500	X:	0.025	Y:	-0.105	Z:	0.049	yaw:	2.789	yaw rate:	-2.230	Roll:	1.024	Pitch:	-4.491	Yaw:	4.030	Thrust:	62.807
Time:	2.762	Roll Set Point:	-0.045	Pitch Set Point:	0.211	Yaw Set Point:	-0.052	X_WP:	0.000	Y_WP:	0.000	Y_WP:	0.500	X:	0.025	Y:	-0.105	Z:	0.049	yaw:	2.972	yaw rate:	18.266	Roll:	0.365	Pitch:	-4.353	Yaw:	9.124	Thrust:	62.160
Time:	2.773	Roll Set Point:	-0.044	Pitch Set Point:	0.211	Yaw Set Point:	-0.056	X_WP:	0.000	Y_WP:	0.000	Y_WP:	0.500	X:	0.025	Y:	-0.105	Z:	0.049	yaw:	3.197	yaw rate:	22.510	Roll:	0.039	Pitch:	-4.889	Yaw:	10.457	Thrust:	63.260
Time:	2.784	Roll Set Point:	-0.044	Pitch Set Point:	0.211	Yaw Set Point:	-0.056	X_WP:	0.000	Y_WP:	0.000	Y_WP:	0.500	X:	0.025	Y:	-0.105	Z:	0.049	yaw:	3.199	yaw rate:	0.181	Roll:	1.039	Pitch:	-4.426	Yaw:	5.171	Thrust:	62.890
Time:	2.795	Roll Set Point:	-0.044	Pitch Set Point:	0.211	Yaw Set Point:	-0.053	X_WP:	0.000	Y_WP:	0.000	Y_WP:	0.500	X:	0.025	Y:	-0.105	Z:	0.049	yaw:	3.029	yaw rate:	-16.980	Roll:	1.239	Pitch:	-4.748	Yaw:	0.873	Thrust:	64.597
Time:	2.807	Roll Set Point:	-0.044	Pitch Set Point:	0.211	Yaw Set Point:	-0.059	X_WP:	0.000	Y_WP:	0.000	Y_WP:	0.500	X:	0.025	Y:	-0.105	Z:	0.049	yaw:	3.359	yaw rate:	32.987	Roll:	0.233	Pitch:	-4.730	Yaw:	12.659	Thrust:	68.625
Time:	2.818	Roll Set Point:	-0.044	Pitch Set Point:	0.211	Yaw Set Point:	-0.059	X_WP:	0.000	Y_WP:	0.000	Y_WP:	0.500	X:	0.025	Y:	-0.105	Z:	0.049	yaw:	3.402	yaw rate:	4.386	Roll:	0.775	Pitch:	-4.760	Yaw:	6.492	Thrust:	64.203
Time:	2.829	Roll Set Point:	-0.044	Pitch Set Point:	0.210	Yaw Set Point:	-0.068	X_WP:	0.000	Y_WP:	0.000	Y_WP:	0.500	X:	0.025	Y:	-0.104	Z:	0.049	yaw:	3.873	yaw rate:	47.065	Roll:	-0.287	Pitch:	-4.425	Yaw:	17.297	Thrust:	65.254
Time:	2.840	Roll Set Point:	-0.043	Pitch Set Point:	0.211	Yaw Set Point:	-0.068	X_WP:	0.000	Y_WP:	0.000	Y_WP:	0.500	X:	0.025	Y:	-0.105	Z:	0.049	yaw:	3.913	yaw rate:	4.002	Roll:	0.637	Pitch:	-5.102	Yaw:	7.141	Thrust:	66.918
Time:	2.851	Roll Set Point:	-0.043	Pitch Set Point:	0.210	Yaw Set Point:	-0.077	X_WP:	0.000	Y_WP:	0.000	Y_WP:	0.500	X:	0.025	Y:	-0.104	Z:	0.049	yaw:	4.428	yaw rate:	51.480	Roll:	-0.411	Pitch:	-4.542	Yaw:	19.150	Thrust:	66.136
Time:	2.862	Roll Set Point:	-0.043	Pitch Set Point:	0.210	Yaw Set Point:	-0.074	X_WP:	0.000	Y_WP:	0.000	Y_WP:	0.500	X:	0.026	Y:	-0.104	Z:	0.050	yaw:	4.250	yaw rate:	-17.835	Roll:	1.598	Pitch:	-4.465	Yaw:	2.462	Thrust:	65.312
Time:	2.873	Roll Set Point:	-0.043	Pitch Set Point:	0.210	Yaw Set Point:	-0.079	X_WP:	0.000	Y_WP:	0.000	Y_WP:	0.500	X:	0.026	Y:	-0.104	Z:	0.050	yaw:	4.508	yaw rate:	25.858	Roll:	0.041	Pitch:	-4.707	Yaw:	13.208	Thrust:	67.612
Time:	2.884	Roll Set Point:	-0.043	Pitch Set Point:	0.210	Yaw Set Point:	-0.079	X_WP:	0.000	Y_WP:	0.000	Y_WP:	0.500	X:	0.026	Y:	-0.104	Z:	0.051	yaw:	4.499	yaw rate:	-0.920	Roll:	0.985	Pitch:	-4.525	Yaw:	6.857	Thrust:	66.351
Time:	2.895	Roll Set Point:	-0.043	Pitch Set Point:	0.209	Yaw Set Point:	-0.080	X_WP:	0.000	Y_WP:	0.000	Y_WP:	0.500	X:	0.026	Y:	-0.104	Z:	0.051	yaw:	4.606	yaw rate:	10.704	Roll:	0.663	Pitch:	-4.460	Yaw:	9.783	Thrust:	66.148
Time:	2.906	Roll Set Point:	-0.043	Pitch Set Point:	0.208	Yaw Set Point:	-0.079	X_WP:	0.000	Y_WP:	0.000	Y_WP:	0.500	X:	0.026	Y:	-0.103	Z:	0.052	yaw:	4.554	yaw rate:	-5.237	Roll:	1.076	Pitch:	-4.289	Yaw:	5.944	Thrust:	66.536
Time:	2.917	Roll Set Point:	-0.042	Pitch Set Point:	0.208	Yaw Set Point:	-0.089	X_WP:	0.000	Y_WP:	0.000	Y_WP:	0.500	X:	0.026	Y:	-0.103	Z:	0.053	yaw:	5.092	yaw rate:	53.813	Roll:	-0.966	Pitch:	-4.543	Yaw:	20.728	Thrust:	67.744
Time:	2.928	Roll Set Point:	-0.042	Pitch Set Point:	0.207	Yaw Set Point:	-0.088	X_WP:	0.000	Y_WP:	0.000	Y_WP:	0.500	X:	0.026	Y:	-0.102	Z:	0.054	yaw:	5.056	yaw rate:	-3.531	Roll:	1.130	Pitch:	-4.001	Yaw:	7.088	Thrust:	68.385
Time:	2.939	Roll Set Point:	-0.042	Pitch Set Point:	0.206	Yaw Set Point:	-0.079	X_WP:	0.000	Y_WP:	0.000	Y_WP:	0.500	X:	0.025	Y:	-0.102	Z:	0.055	yaw:	4.545	yaw rate:	-51.187	Roll:	1.783	Pitch:	-4.258	Yaw:	-4.951	Thrust:	65.188
Time:	2.950	Roll Set Point:	-0.041	Pitch Set Point:	0.205	Yaw Set Point:	-0.087	X_WP:	0.000	Y_WP:	0.000	Y_WP:	0.500	X:	0.025	Y:	-0.102	Z:	0.056	yaw:	4.982	yaw rate:	43.783	Roll:	-0.560	Pitch:	-3.978	Yaw:	18.253	Thrust:	69.391
Time:	2.961	Roll Set Point:	-0.041	Pitch Set Point:	0.204	Yaw Set Point:	-0.087	X_WP:	0.000	Y_WP:	0.000	Y_WP:	0.500	X:	0.025	Y:	-0.101	Z:	0.057	yaw:	4.990	yaw rate:	0.781	Roll:	0.717	Pitch:	-4.049	Yaw:	8.076	Thrust:	68.992
Time:	2.972	Roll Set Point:	-0.040	Pitch Set Point:	0.203	Yaw Set Point:	-0.090	X_WP:	0.000	Y_WP:	0.000	Y_WP:	0.500	X:	0.025	Y:	-0.101	Z:	0.058	yaw:	5.149	yaw rate:	15.828	Roll:	-0.003	Pitch:	-4.092	Yaw:	11.887	Thrust:	70.693
Time:	2.983	Roll Set Point:	-0.041	Pitch Set Point:	0.202	Yaw Set Point:	-0.082	X_WP:	0.000	Y_WP:	0.000	Y_WP:	0.500	X:	0.025	Y:	-0.100	Z:	0.059	yaw:	4.698	yaw rate:	-45.025	Roll:	1.827	Pitch:	-3.836	Yaw:	-3.161	Thrust:	69.201
Time:	2.994	Roll Set Point:	-0.040	Pitch Set Point:	0.199	Yaw Set Point:	-0.089	X_WP:	0.000	Y_WP:	0.000	Y_WP:	0.500	X:	0.024	Y:	-0.099	Z:	0.060	yaw:	5.124	yaw rate:	42.537	Roll:	-0.540	Pitch:	-2.874	Yaw:	18.233	Thrust:	69.276
Time:	3.006	Roll Set Point:	-0.039	Pitch Set Point:	0.198	Yaw Set Point:	-0.093	X_WP:	0.000	Y_WP:	0.000	Y_WP:	0.500	X:	0.024	Y:	-0.098	Z:	0.061	yaw:	5.307	yaw rate:	18.291	Roll:	-0.007	Pitch:	-4.027	Yaw:	12.620	Thrust:	73.190
Time:	3.018	Roll Set Point:	-0.038	Pitch Set Point:	0.196	Yaw Set Point:	-0.093	X_WP:	0.000	Y_WP:	0.000	Y_WP:	0.500	X:	0.024	Y:	-0.097	Z:	0.062	yaw:	5.321	yaw rate:	1.421	Roll:	0.540	Pitch:	-3.828	Yaw:	8.849	Thrust:	75.489
Time:	3.029	Roll Set Point:	-0.038	Pitch Set Point:	0.194	Yaw Set Point:	-0.092	X_WP:	0.000	Y_WP:	0.000	Y_WP:	0.500	X:	0.023	Y:	-0.096	Z:	0.063	yaw:	5.288	yaw rate:	-3.266	Roll:	0.484	Pitch:	-3.548	Yaw:	7.652	Thrust:	72.001
Time:	3.040	Roll Set Point:	-0.037	Pitch Set Point:	0.192	Yaw Set Point:	-0.095	X_WP:	0.000	Y_WP:	0.000	Y_WP:	0.500	X:	0.023	Y:	-0.095	Z:	0.065	yaw:	5.463	yaw rate:	17.451	Roll:	-0.386	Pitch:	-2.847	Yaw:	12.836	Thrust:	69.308
Time:	3.051	Roll Set Point:	-0.035	Pitch Set Point:	0.190	Yaw Set Point:	-0.098	X_WP:	0.000	Y_WP:	0.000	Y_WP:	0.500	X:	0.022	Y:	-0.094	Z:	0.066	yaw:	5.627	yaw rate:	16.446	Roll:	-0.170	Pitch:	-3.204	Yaw:	12.836	Thrust:	71.720
Time:	3.062	Roll Set Point:	-0.034	Pitch Set Point:	0.188	Yaw Set Point:	-0.102	X_WP:	0.000	Y_WP:	0.000	Y_WP:	0.500	X:	0.022	Y:	-0.093	Z:	0.067	yaw:	5.835	yaw rate:	20.758	Roll:	-0.604	Pitch:	-3.281	Yaw:	14.183	Thrust:	72.109
Time:	3.073	Roll Set Point:	-0.033	Pitch Set Point:	0.185	Yaw Set Point:	-0.106	X_WP:	0.000	Y_WP:	0.000	Y_WP:	0.500	X:	0.021	Y:	-0.092	Z:	0.068	yaw:	6.070	yaw rate:	23.491	Roll:	-0.534	Pitch:	-3.168	Yaw:	15.154	Thrust:	72.897
Time:	3.084	Roll Set Point:	-0.031	Pitch Set Point:	0.183	Yaw Set Point:	-0.115	X_WP:	0.000	Y_WP:	0.000	Y_WP:	0.500	X:	0.021	Y:	-0.091	Z:	0.070	yaw:	6.579	yaw rate:	50.956	Roll:	-1.394	Pitch:	-2.950	Yaw:	22.357	Thrust:	73.133
Time:	3.095	Roll Set Point:	-0.029	Pitch Set Point:	0.181	Yaw Set Point:	-0.117	X_WP:	0.000	Y_WP:	0.000	Y_WP:	0.500	X:	0.020	Y:	-0.089	Z:	0.071	yaw:	6.704	yaw rate:	12.481	Roll:	-0.372	Pitch:	-2.914	Yaw:	13.426	Thrust:	72.532
Time:	3.106	Roll Set Point:	-0.028	Pitch Set Point:	0.179	Yaw Set Point:	-0.119	X_WP:	0.000	Y_WP:	0.000	Y_WP:	0.500	X:	0.019	Y:	-0.088	Z:	0.073	yaw:	6.790	yaw rate:	8.574	Roll:	-0.642	Pitch:	-3.270	Yaw:	12.618	Thrust:	72.972
Time:	3.117	Roll Set Point:	-0.026	Pitch Set Point:	0.175	Yaw Set Point:	-0.124	X_WP:	0.000	Y_WP:	0.000	Y_WP:	0.500	X:	0.018	Y:	-0.086	Z:	0.076	yaw:	7.088	yaw rate:	29.863	Roll:	-1.262	Pitch:	-1.499	Yaw:	18.103	Thrust:	68.694
Time:	3.128	Roll Set Point:	-0.025	Pitch Set Point:	0.172	Yaw Set Point:	-0.114	X_WP:	0.000	Y_WP:	0.000	Y_WP:	0.500	X:	0.017	Y:	-0.085	Z:	0.077	yaw:	6.519	yaw rate:	-56.910	Roll:	0.771	Pitch:	-2.726	Yaw:	-3.268	Thrust:	73.163
Time:	3.139	Roll Set Point:	-0.022	Pitch Set Point:	0.169	Yaw Set Point:	-0.124	X_WP:	0.000	Y_WP:	0.000	Y_WP:	0.500	X:	0.016	Y:	-0.084	Z:	0.079	yaw:	7.125	yaw rate:	60.556	Roll:	-1.847	Pitch:	-2.466	Yaw:	25.457	Thrust:	72.371
Time:	3.150	Roll Set Point:	-0.020	Pitch Set Point:	0.165	Yaw Set Point:	-0.124	X_WP:	0.000	Y_WP:	0.000	Y_WP:	0.500	X:	0.015	Y:	-0.082	Z:	0.083	yaw:	7.121	yaw rate:	-0.363	Roll:	-1.220	Pitch:	-1.369	Yaw:	10.960	Thrust:	67.363
Time:	3.161	Roll Set Point:	-0.018	Pitch Set Point:	0.162	Yaw Set Point:	-0.128	X_WP:	0.000	Y_WP:	0.000	Y_WP:	0.500	X:	0.014	Y:	-0.081	Z:	0.085	yaw:	7.321	yaw rate:	20.008	Roll:	-1.252	Pitch:	-2.545	Yaw:	16.075	Thrust:	73.339
Time:	3.172	Roll Set Point:	-0.016	Pitch Set Point:	0.159	Yaw Set Point:	-0.129	X_WP:	0.000	Y_WP:	0.000	Y_WP:	0.500	X:	0.013	Y:	-0.079	Z:	0.087	yaw:	7.382	yaw rate:	6.057	Roll:	-0.493	Pitch:	-1.929	Yaw:	12.847	Thrust:	71.904
Time:	3.183	Roll Set Point:	-0.014	Pitch Set Point:	0.157	Yaw Set Point:	-0.132	X_WP:	0.000	Y_WP:	0.000	Y_WP:	0.500	X:	0.012	Y:	-0.078	Z:	0.090	yaw:	7.566	yaw rate:	18.456	Roll:	-1.240	Pitch:	-2.538	Yaw:	16.055	Thrust:	71.303
Time:	3.195	Roll Set Point:	-0.013	Pitch Set Point:	0.153	Yaw Set Point:	-0.133	X_WP:	0.000	Y_WP:	0.000	Y_WP:	0.500	X:	0.011	Y:	-0.076	Z:	0.093	yaw:	7.610	yaw rate:	4.329	Roll:	-0.564	Pitch:	-2.333	Yaw:	12.770	Thrust:	77.672
Time:	3.206	Roll Set Point:	-0.010	Pitch Set Point:	0.150	Yaw Set Point:	-0.134	X_WP:	0.000	Y_WP:	0.000	Y_WP:	0.500	X:	0.010	Y:	-0.075	Z:	0.095	yaw:	7.655	yaw rate:	4.495	Roll:	-1.035	Pitch:	-2.101	Yaw:	12.858	Thrust:	71.787
Time:	3.217	Roll Set Point:	-0.008	Pitch Set Point:	0.146	Yaw Set Point:	-0.135	X_WP:	0.000	Y_WP:	0.000	Y_WP:	0.500	X:	0.009	Y:	-0.073	Z:	0.100	yaw:	7.739	yaw rate:	8.414	Roll:	-1.574	Pitch:	-0.837	Yaw:	13.906	Thrust:	66.649
Time:	3.228	Roll Set Point:	-0.006	Pitch Set Point:	0.142	Yaw Set Point:	-0.137	X_WP:	0.000	Y_WP:	0.000	Y_WP:	0.500	X:	0.008	Y:	-0.071	Z:	0.103	yaw:	7.845	yaw rate:	10.658	Roll:	-1.142	Pitch:	-1.777	Yaw:	14.587	Thrust:	70.992
Time:	3.239	Roll Set Point:	-0.003	Pitch Set Point:	0.139	Yaw Set Point:	-0.145	X_WP:	0.000	Y_WP:	0.000	Y_WP:	0.500	X:	0.007	Y:	-0.069	Z:	0.106	yaw:	8.283	yaw rate:	43.733	Roll:	-1.717	Pitch:	-1.899	Yaw:	22.824	Thrust:	73.145
Time:	3.250	Roll Set Point:	-0.002	Pitch Set Point:	0.136	Yaw Set Point:	-0.140	X_WP:	0.000	Y_WP:	0.000	Y_WP:	0.500	X:	0.006	Y:	-0.068	Z:	0.109	yaw:	8.016	yaw rate:	-26.664	Roll:	-0.522	Pitch:	-1.614	Yaw:	5.966	Thrust:	71.770
Time:	3.261	Roll Set Point:	0.000	Pitch Set Point:	0.133	Yaw Set Point:	-0.138	X_WP:	0.000	Y_WP:	0.000	Y_WP:	0.500	X:	0.004	Y:	-0.066	Z:	0.112	yaw:	7.902	yaw rate:	-11.418	Roll:	-1.207	Pitch:	-2.081	Yaw:	9.426	Thrust:	70.986
Time:	3.273	Roll Set Point:	0.002	Pitch Set Point:	0.129	Yaw Set Point:	-0.139	X_WP:	0.000	Y_WP:	0.000	Y_WP:	0.500	X:	0.003	Y:	-0.065	Z:	0.116	yaw:	7.953	yaw rate:	5.142	Roll:	-0.978	Pitch:	-1.523	Yaw:	13.428	Thrust:	71.495
Time:	3.284	Roll Set Point:	0.006	Pitch Set Point:	0.124	Yaw Set Point:	-0.144	X_WP:	0.000	Y_WP:	0.000	Y_WP:	0.500	X:	0.002	Y:	-0.062	Z:	0.121	yaw:	8.259	yaw rate:	30.612	Roll:	-2.507	Pitch:	-0.245	Yaw:	19.901	Thrust:	64.294
Time:	3.295	Roll Set Point:	0.007	Pitch Set Point:	0.121	Yaw Set Point:	-0.133	X_WP:	0.000	Y_WP:	0.000	Y_WP:	0.500	X:	0.000	Y:	-0.061	Z:	0.124	yaw:	7.619	yaw rate:	-64.048	Roll:	-0.394	Pitch:	-1.540	Yaw:	-3.462	Thrust:	71.791
Time:	3.307	Roll Set Point:	0.010	Pitch Set Point:	0.118	Yaw Set Point:	-0.135	X_WP:	0.000	Y_WP:	0.000	Y_WP:	0.500	X:	-0.001	Y:	-0.059	Z:	0.128	yaw:	7.731	yaw rate:	11.169	Roll:	-1.523	Pitch:	-2.133	Yaw:	14.427	Thrust:	77.700
Time:	3.318	Roll Set Point:	0.012	Pitch Set Point:	0.115	Yaw Set Point:	-0.134	X_WP:	0.000	Y_WP:	0.000	Y_WP:	0.500	X:	-0.002	Y:	-0.058	Z:	0.132	yaw:	7.655	yaw rate:	-7.532	Roll:	-1.383	Pitch:	-1.835	Yaw:	10.004	Thrust:	71.146
Time:	3.329	Roll Set Point:	0.016	Pitch Set Point:	0.110	Yaw Set Point:	-0.138	X_WP:	0.000	Y_WP:	0.000	Y_WP:	0.500	X:	-0.004	Y:	-0.055	Z:	0.137	yaw:	7.917	yaw rate:	26.149	Roll:	-2.672	Pitch:	0.275	Yaw:	18.298	Thrust:	64.738
Time:	3.341	Roll Set Point:	0.017	Pitch Set Point:	0.109	Yaw Set Point:	-0.130	X_WP:	0.000	Y_WP:	0.000	Y_WP:	0.500	X:	-0.005	Y:	-0.055	Z:	0.139	yaw:	7.438	yaw rate:	-47.882	Roll:	-0.218	Pitch:	-3.472	Yaw:	1.140	Thrust:	85.915
Time:	3.352	Roll Set Point:	0.020	Pitch Set Point:	0.104	Yaw Set Point:	-0.128	X_WP:	0.000	Y_WP:	0.000	Y_WP:	0.500	X:	-0.007	Y:	-0.052	Z:	0.145	yaw:	7.358	yaw rate:	-8.009	Roll:	-2.396	Pitch:	-0.123	Yaw:	9.476	Thrust:	63.639
Time:	3.363	Roll Set Point:	0.023	Pitch Set Point:	0.101	Yaw Set Point:	-0.128	X_WP:	0.000	Y_WP:	0.000	Y_WP:	0.500	X:	-0.008	Y:	-0.051	Z:	0.149	yaw:	7.309	yaw rate:	-4.866	Roll:	-1.844	Pitch:	-1.518	Yaw:	10.153	Thrust:	71.148
Time:	3.374	Roll Set Point:	0.026	Pitch Set Point:	0.097	Yaw Set Point:	-0.133	X_WP:	0.000	Y_WP:	0.000	Y_WP:	0.500	X:	-0.010	Y:	-0.049	Z:	0.153	yaw:	7.636	yaw rate:	32.729	Roll:	-2.255	Pitch:	-0.859	Yaw:	19.549	Thrust:	71.245
Time:	3.385	Roll Set Point:	0.028	Pitch Set Point:	0.095	Yaw Set Point:	-0.124	X_WP:	0.000	Y_WP:	0.000	Y_WP:	0.500	X:	-0.011	Y:	-0.048	Z:	0.156	yaw:	7.133	yaw rate:	-50.391	Roll:	-1.465	Pitch:	-2.099	Yaw:	-0.867	Thrust:	72.471
Time:	3.396	Roll Set Point:	0.032	Pitch Set Point:	0.090	Yaw Set Point:	-0.118	X_WP:	0.000	Y_WP:	0.000	Y_WP:	0.500	X:	-0.013	Y:	-0.046	Z:	0.162	yaw:	6.773	yaw rate:	-35.971	Roll:	-2.701	Pitch:	0.170	Yaw:	1.997	Thrust:	63.621
Time:	3.407	Roll Set Point:	0.034	Pitch Set Point:	0.086	Yaw Set Point:	-0.127	X_WP:	0.000	Y_WP:	0.000	Y_WP:	0.500	X:	-0.014	Y:	-0.044	Z:	0.167	yaw:	7.301	yaw rate:	52.791	Roll:	-2.278	Pitch:	-0.767	Yaw:	23.800	Thrust:	71.247
Time:	3.418	Roll Set Point:	0.037	Pitch Set Point:	0.084	Yaw Set Point:	-0.121	X_WP:	0.000	Y_WP:	0.000	Y_WP:	0.500	X:	-0.016	Y:	-0.043	Z:	0.171	yaw:	6.946	yaw rate:	-35.426	Roll:	-2.310	Pitch:	-2.194	Yaw:	2.389	Thrust:	70.322
Time:	3.429	Roll Set Point:	0.040	Pitch Set Point:	0.081	Yaw Set Point:	-0.118	X_WP:	0.000	Y_WP:	0.000	Y_WP:	0.500	X:	-0.018	Y:	-0.042	Z:	0.175	yaw:	6.770	yaw rate:	-17.663	Roll:	-2.129	Pitch:	-1.347	Yaw:	6.364	Thrust:	70.286
Time:	3.440	Roll Set Point:	0.043	Pitch Set Point:	0.078	Yaw Set Point:	-0.116	X_WP:	0.000	Y_WP:	0.000	Y_WP:	0.500	X:	-0.019	Y:	-0.040	Z:	0.180	yaw:	6.672	yaw rate:	-9.795	Roll:	-2.215	Pitch:	-1.636	Yaw:	8.094	Thrust:	71.052
Time:	3.451	Roll Set Point:	0.046	Pitch Set Point:	0.074	Yaw Set Point:	-0.118	X_WP:	0.000	Y_WP:	0.000	Y_WP:	0.500	X:	-0.021	Y:	-0.038	Z:	0.186	yaw:	6.738	yaw rate:	6.598	Roll:	-3.218	Pitch:	0.115	Yaw:	12.078	Thrust:	61.678
Time:	3.462	Roll Set Point:	0.049	Pitch Set Point:	0.071	Yaw Set Point:	-0.111	X_WP:	0.000	Y_WP:	0.000	Y_WP:	0.500	X:	-0.023	Y:	-0.037	Z:	0.191	yaw:	6.366	yaw rate:	-37.236	Roll:	-2.195	Pitch:	-1.443	Yaw:	1.177	Thrust:	71.087
Time:	3.473	Roll Set Point:	0.052	Pitch Set Point:	0.069	Yaw Set Point:	-0.108	X_WP:	0.000	Y_WP:	0.000	Y_WP:	0.500	X:	-0.024	Y:	-0.036	Z:	0.195	yaw:	6.181	yaw rate:	-18.437	Roll:	-2.531	Pitch:	-1.655	Yaw:	5.344	Thrust:	70.991
Time:	3.484	Roll Set Point:	0.054	Pitch Set Point:	0.065	Yaw Set Point:	-0.107	X_WP:	0.000	Y_WP:	0.000	Y_WP:	0.500	X:	-0.025	Y:	-0.034	Z:	0.200	yaw:	6.157	yaw rate:	-2.455	Roll:	-2.048	Pitch:	-0.885	Yaw:	9.116	Thrust:	70.747
Time:	3.495	Roll Set Point:	0.057	Pitch Set Point:	0.063	Yaw Set Point:	-0.113	X_WP:	0.000	Y_WP:	0.000	Y_WP:	0.500	X:	-0.027	Y:	-0.033	Z:	0.204	yaw:	6.471	yaw rate:	31.455	Roll:	-2.976	Pitch:	-1.308	Yaw:	17.590	Thrust:	69.698
Time:	3.506	Roll Set Point:	0.061	Pitch Set Point:	0.059	Yaw Set Point:	-0.098	X_WP:	0.000	Y_WP:	0.000	Y_WP:	0.500	X:	-0.029	Y:	-0.031	Z:	0.211	yaw:	5.605	yaw rate:	-86.576	Roll:	-2.806	Pitch:	-0.930	Yaw:	-11.674	Thrust:	60.681
Time:	3.517	Roll Set Point:	0.064	Pitch Set Point:	0.056	Yaw Set Point:	-0.105	X_WP:	0.000	Y_WP:	0.000	Y_WP:	0.500	X:	-0.030	Y:	-0.030	Z:	0.216	yaw:	6.013	yaw rate:	40.796	Roll:	-2.800	Pitch:	-0.815	Yaw:	19.183	Thrust:	70.766
Time:	3.528	Roll Set Point:	0.066	Pitch Set Point:	0.053	Yaw Set Point:	-0.101	X_WP:	0.000	Y_WP:	0.000	Y_WP:	0.500	X:	-0.032	Y:	-0.028	Z:	0.221	yaw:	5.769	yaw rate:	-24.457	Roll:	-2.415	Pitch:	-1.258	Yaw:	3.353	Thrust:	70.148
Time:	3.539	Roll Set Point:	0.069	Pitch Set Point:	0.051	Yaw Set Point:	-0.096	X_WP:	0.000	Y_WP:	0.000	Y_WP:	0.500	X:	-0.033	Y:	-0.027	Z:	0.225	yaw:	5.483	yaw rate:	-28.602	Roll:	-2.446	Pitch:	-1.653	Yaw:	1.969	Thrust:	70.369
Time:	3.550	Roll Set Point:	0.071	Pitch Set Point:	0.049	Yaw Set Point:	-0.087	X_WP:	0.000	Y_WP:	0.000	Y_WP:	0.500	X:	-0.035	Y:	-0.026	Z:	0.230	yaw:	4.962	yaw rate:	-52.119	Roll:	-2.809	Pitch:	-2.021	Yaw:	-4.307	Thrust:	70.871
Time:	3.561	Roll Set Point:	0.075	Pitch Set Point:	0.045	Yaw Set Point:	-0.084	X_WP:	0.000	Y_WP:	0.000	Y_WP:	0.500	X:	-0.037	Y:	-0.024	Z:	0.237	yaw:	4.798	yaw rate:	-16.311	Roll:	-3.300	Pitch:	0.010	Yaw:	3.918	Thrust:	60.022
Time:	3.572	Roll Set Point:	0.077	Pitch Set Point:	0.043	Yaw Set Point:	-0.083	X_WP:	0.000	Y_WP:	0.000	Y_WP:	0.500	X:	-0.038	Y:	-0.023	Z:	0.242	yaw:	4.755	yaw rate:	-4.320	Roll:	-2.619	Pitch:	-1.312	Yaw:	6.722	Thrust:	69.832
Time:	3.583	Roll Set Point:	0.080	Pitch Set Point:	0.040	Yaw Set Point:	-0.081	X_WP:	0.000	Y_WP:	0.000	Y_WP:	0.500	X:	-0.039	Y:	-0.022	Z:	0.247	yaw:	4.651	yaw rate:	-10.421	Roll:	-2.581	Pitch:	-1.271	Yaw:	5.119	Thrust:	70.250
Time:	3.594	Roll Set Point:	0.082	Pitch Set Point:	0.039	Yaw Set Point:	-0.065	X_WP:	0.000	Y_WP:	0.000	Y_WP:	0.500	X:	-0.040	Y:	-0.021	Z:	0.252	yaw:	3.741	yaw rate:	-91.025	Roll:	-2.414	Pitch:	-2.622	Yaw:	-15.243	Thrust:	70.742
Time:	3.606	Roll Set Point:	0.086	Pitch Set Point:	0.034	Yaw Set Point:	-0.074	X_WP:	0.000	Y_WP:	0.000	Y_WP:	0.500	X:	-0.042	Y:	-0.019	Z:	0.259	yaw:	4.231	yaw rate:	48.992	Roll:	-3.864	Pitch:	0.741	Yaw:	18.636	Thrust:	60.578
Time:	3.617	Roll Set Point:	0.087	Pitch Set Point:	0.032	Yaw Set Point:	-0.067	X_WP:	0.000	Y_WP:	0.000	Y_WP:	0.500	X:	-0.043	Y:	-0.017	Z:	0.264	yaw:	3.849	yaw rate:	-38.223	Roll:	-2.277	Pitch:	-1.406	Yaw:	-2.626	Thrust:	69.528
Time:	3.628	Roll Set Point:	0.089	Pitch Set Point:	0.030	Yaw Set Point:	-0.060	X_WP:	0.000	Y_WP:	0.000	Y_WP:	0.500	X:	-0.044	Y:	-0.016	Z:	0.269	yaw:	3.411	yaw rate:	-43.781	Roll:	-2.521	Pitch:	-1.769	Yaw:	-4.526	Thrust:	69.411
Time:	3.639	Roll Set Point:	0.091	Pitch Set Point:	0.027	Yaw Set Point:	-0.066	X_WP:	0.000	Y_WP:	0.000	Y_WP:	0.500	X:	-0.045	Y:	-0.015	Z:	0.274	yaw:	3.808	yaw rate:	39.764	Roll:	-2.488	Pitch:	-0.448	Yaw:	15.841	Thrust:	69.706
Time:	3.650	Roll Set Point:	0.093	Pitch Set Point:	0.024	Yaw Set Point:	-0.062	X_WP:	0.000	Y_WP:	0.000	Y_WP:	0.500	X:	-0.046	Y:	-0.014	Z:	0.279	yaw:	3.567	yaw rate:	-24.116	Roll:	-2.453	Pitch:	-1.172	Yaw:	0.359	Thrust:	69.726
Time:	3.661	Roll Set Point:	0.096	Pitch Set Point:	0.021	Yaw Set Point:	-0.057	X_WP:	0.000	Y_WP:	0.000	Y_WP:	0.500	X:	-0.048	Y:	-0.012	Z:	0.287	yaw:	3.277	yaw rate:	-29.037	Roll:	-3.232	Pitch:	-0.300	Yaw:	-1.232	Thrust:	58.910
Time:	3.672	Roll Set Point:	0.097	Pitch Set Point:	0.018	Yaw Set Point:	-0.051	X_WP:	0.000	Y_WP:	0.000	Y_WP:	0.500	X:	-0.049	Y:	-0.010	Z:	0.292	yaw:	2.947	yaw rate:	-32.971	Roll:	-2.491	Pitch:	-1.436	Yaw:	-2.592	Thrust:	69.608
Time:	3.683	Roll Set Point:	0.099	Pitch Set Point:	0.017	Yaw Set Point:	-0.045	X_WP:	0.000	Y_WP:	0.000	Y_WP:	0.500	X:	-0.049	Y:	-0.009	Z:	0.296	yaw:	2.576	yaw rate:	-37.090	Roll:	-2.571	Pitch:	-1.626	Yaw:	-4.121	Thrust:	70.013
Time:	3.694	Roll Set Point:	0.101	Pitch Set Point:	0.014	Yaw Set Point:	-0.046	X_WP:	0.000	Y_WP:	0.000	Y_WP:	0.500	X:	-0.050	Y:	-0.008	Z:	0.302	yaw:	2.624	yaw rate:	4.762	Roll:	-2.346	Pitch:	-0.468	Yaw:	5.897	Thrust:	69.085
Time:	3.705	Roll Set Point:	0.102	Pitch Set Point:	0.011	Yaw Set Point:	-0.045	X_WP:	0.000	Y_WP:	0.000	Y_WP:	0.500	X:	-0.051	Y:	-0.007	Z:	0.307	yaw:	2.554	yaw rate:	-6.979	Roll:	-2.471	Pitch:	-0.911	Yaw:	3.019	Thrust:	69.688
Time:	3.716	Roll Set Point:	0.104	Pitch Set Point:	0.008	Yaw Set Point:	-0.037	X_WP:	0.000	Y_WP:	0.000	Y_WP:	0.500	X:	-0.052	Y:	-0.005	Z:	0.314	yaw:	2.096	yaw rate:	-45.761	Roll:	-2.734	Pitch:	-0.424	Yaw:	-6.858	Thrust:	59.308
Time:	3.727	Roll Set Point:	0.105	Pitch Set Point:	0.005	Yaw Set Point:	-0.031	X_WP:	0.000	Y_WP:	0.000	Y_WP:	0.500	X:	-0.053	Y:	-0.003	Z:	0.319	yaw:	1.785	yaw rate:	-31.163	Roll:	-2.216	Pitch:	-1.108	Yaw:	-3.787	Thrust:	69.104
Time:	3.738	Roll Set Point:	0.106	Pitch Set Point:	0.002	Yaw Set Point:	-0.031	X_WP:	0.000	Y_WP:	0.000	Y_WP:	0.500	X:	-0.053	Y:	-0.002	Z:	0.324	yaw:	1.750	yaw rate:	-3.503	Roll:	-2.219	Pitch:	-0.666	Yaw:	2.711	Thrust:	68.536
Time:	3.749	Roll Set Point:	0.107	Pitch Set Point:	-0.000	Yaw Set Point:	-0.030	X_WP:	0.000	Y_WP:	0.000	Y_WP:	0.500	X:	-0.054	Y:	-0.001	Z:	0.329	yaw:	1.691	yaw rate:	-5.842	Roll:	-2.085	Pitch:	-0.662	Yaw:	2.082	Thrust:	69.412
Time:	3.760	Roll Set Point:	0.109	Pitch Set Point:	-0.003	Yaw Set Point:	-0.016	X_WP:	0.000	Y_WP:	0.000	Y_WP:	0.500	X:	-0.054	Y:	0.001	Z:	0.337	yaw:	0.933	yaw rate:	-75.787	Roll:	-2.676	Pitch:	-0.795	Yaw:	-15.577	Thrust:	57.672
Time:	3.771	Roll Set Point:	0.110	Pitch Set Point:	-0.006	Yaw Set Point:	-0.016	X_WP:	0.000	Y_WP:	0.000	Y_WP:	0.500	X:	-0.055	Y:	0.002	Z:	0.342	yaw:	0.903	yaw rate:	-3.030	Roll:	-2.160	Pitch:	-0.746	Yaw:	1.641	Thrust:	68.112
Time:	3.782	Roll Set Point:	0.110	Pitch Set Point:	-0.009	Yaw Set Point:	-0.018	X_WP:	0.000	Y_WP:	0.000	Y_WP:	0.500	X:	-0.055	Y:	0.004	Z:	0.347	yaw:	1.005	yaw rate:	10.197	Roll:	-1.773	Pitch:	0.000	Yaw:	4.924	Thrust:	68.593
Time:	3.793	Roll Set Point:	0.110	Pitch Set Point:	-0.012	Yaw Set Point:	-0.014	X_WP:	0.000	Y_WP:	0.000	Y_WP:	0.500	X:	-0.055	Y:	0.005	Z:	0.352	yaw:	0.795	yaw rate:	-21.030	Roll:	-1.813	Pitch:	-0.777	Yaw:	-2.793	Thrust:	68.350
Time:	3.804	Roll Set Point:	0.111	Pitch Set Point:	-0.013	Yaw Set Point:	-0.003	X_WP:	0.000	Y_WP:	0.000	Y_WP:	0.500	X:	-0.055	Y:	0.007	Z:	0.358	yaw:	0.158	yaw rate:	-63.635	Roll:	-2.169	Pitch:	-1.505	Yaw:	-13.779	Thrust:	68.129
Time:	3.815	Roll Set Point:	0.111	Pitch Set Point:	-0.017	Yaw Set Point:	-0.008	X_WP:	0.000	Y_WP:	0.000	Y_WP:	0.500	X:	-0.056	Y:	0.008	Z:	0.363	yaw:	0.466	yaw rate:	30.720	Roll:	-1.632	Pitch:	0.313	Yaw:	9.045	Thrust:	67.857
Time:	3.826	Roll Set Point:	0.111	Pitch Set Point:	-0.021	Yaw Set Point:	-0.008	X_WP:	0.000	Y_WP:	0.000	Y_WP:	0.500	X:	-0.056	Y:	0.010	Z:	0.370	yaw:	0.470	yaw rate:	0.444	Roll:	-1.756	Pitch:	0.907	Yaw:	1.865	Thrust:	57.658
Time:	3.837	Roll Set Point:	0.112	Pitch Set Point:	-0.023	Yaw Set Point:	0.002	X_WP:	0.000	Y_WP:	0.000	Y_WP:	0.500	X:	-0.056	Y:	0.011	Z:	0.376	yaw:	-0.124	yaw rate:	-59.384	Roll:	-1.927	Pitch:	-1.400	Yaw:	-13.166	Thrust:	67.867
Time:	3.849	Roll Set Point:	0.111	Pitch Set Point:	-0.026	Yaw Set Point:	-0.004	X_WP:	0.000	Y_WP:	0.000	Y_WP:	0.500	X:	-0.056	Y:	0.013	Z:	0.381	yaw:	0.205	yaw rate:	32.853	Roll:	-1.270	Pitch:	0.274	Yaw:	8.945	Thrust:	71.217
Time:	3.860	Roll Set Point:	0.111	Pitch Set Point:	-0.029	Yaw Set Point:	0.001	X_WP:	0.000	Y_WP:	0.000	Y_WP:	0.500	X:	-0.056	Y:	0.014	Z:	0.386	yaw:	-0.040	yaw rate:	-24.438	Roll:	-1.657	Pitch:	-0.499	Yaw:	-4.752	Thrust:	67.618
Time:	3.871	Roll Set Point:	0.111	Pitch Set Point:	-0.033	Yaw Set Point:	0.006	X_WP:	0.000	Y_WP:	0.000	Y_WP:	0.500	X:	-0.055	Y:	0.016	Z:	0.393	yaw:	-0.336	yaw rate:	-29.602	Roll:	-1.474	Pitch:	0.517	Yaw:	-6.393	Thrust:	57.154
Time:	3.882	Roll Set Point:	0.111	Pitch Set Point:	-0.035	Yaw Set Point:	0.004	X_WP:	0.000	Y_WP:	0.000	Y_WP:	0.500	X:	-0.055	Y:	0.018	Z:	0.398	yaw:	-0.251	yaw rate:	8.485	Roll:	-1.369	Pitch:	-0.023	Yaw:	2.765	Thrust:	67.987
Time:	3.893	Roll Set Point:	0.110	Pitch Set Point:	-0.038	Yaw Set Point:	0.007	X_WP:	0.000	Y_WP:	0.000	Y_WP:	0.500	X:	-0.055	Y:	0.019	Z:	0.403	yaw:	-0.427	yaw rate:	-17.588	Roll:	-1.216	Pitch:	-0.115	Yaw:	-3.670	Thrust:	66.877
Time:	3.904	Roll Set Point:	0.109	Pitch Set Point:	-0.040	Yaw Set Point:	0.017	X_WP:	0.000	Y_WP:	0.000	Y_WP:	0.500	X:	-0.054	Y:	0.021	Z:	0.409	yaw:	-0.951	yaw rate:	-52.448	Roll:	-1.338	Pitch:	-0.897	Yaw:	-12.678	Thrust:	66.892
Time:	3.915	Roll Set Point:	0.108	Pitch Set Point:	-0.044	Yaw Set Point:	0.012	X_WP:	0.000	Y_WP:	0.000	Y_WP:	0.500	X:	-0.054	Y:	0.022	Z:	0.414	yaw:	-0.681	yaw rate:	27.036	Roll:	-0.693	Pitch:	0.734	Yaw:	6.562	Thrust:	67.074
Time:	3.926	Roll Set Point:	0.107	Pitch Set Point:	-0.047	Yaw Set Point:	0.021	X_WP:	0.000	Y_WP:	0.000	Y_WP:	0.500	X:	-0.053	Y:	0.024	Z:	0.421	yaw:	-1.202	yaw rate:	-52.096	Roll:	-0.848	Pitch:	0.144	Yaw:	-12.951	Thrust:	56.214
Time:	3.937	Roll Set Point:	0.106	Pitch Set Point:	-0.049	Yaw Set Point:	0.024	X_WP:	0.000	Y_WP:	0.000	Y_WP:	0.500	X:	-0.053	Y:	0.025	Z:	0.426	yaw:	-1.374	yaw rate:	-17.264	Roll:	-1.043	Pitch:	-0.047	Yaw:	-4.929	Thrust:	66.410
Time:	3.948	Roll Set Point:	0.104	Pitch Set Point:	-0.053	Yaw Set Point:	0.020	X_WP:	0.000	Y_WP:	0.000	Y_WP:	0.500	X:	-0.052	Y:	0.027	Z:	0.431	yaw:	-1.172	yaw rate:	20.235	Roll:	-0.456	Pitch:	0.751	Yaw:	4.250	Thrust:	66.905
Time:	3.959	Roll Set Point:	0.103	Pitch Set Point:	-0.055	Yaw Set Point:	0.023	X_WP:	0.000	Y_WP:	0.000	Y_WP:	0.500	X:	-0.051	Y:	0.028	Z:	0.436	yaw:	-1.325	yaw rate:	-15.262	Roll:	-0.786	Pitch:	-0.054	Yaw:	-4.394	Thrust:	67.001
Time:	3.970	Roll Set Point:	0.101	Pitch Set Point:	-0.059	Yaw Set Point:	0.023	X_WP:	0.000	Y_WP:	0.000	Y_WP:	0.500	X:	-0.050	Y:	0.030	Z:	0.443	yaw:	-1.313	yaw rate:	1.160	Roll:	-0.233	Pitch:	1.115	Yaw:	-0.477	Thrust:	58.023
Time:	3.981	Roll Set Point:	0.098	Pitch Set Point:	-0.064	Yaw Set Point:	0.029	X_WP:	0.000	Y_WP:	0.000	Y_WP:	0.500	X:	-0.049	Y:	0.033	Z:	0.453	yaw:	-1.650	yaw rate:	-5.671	Roll:	0.711	Pitch:	1.900	Yaw:	-8.931	Thrust:	50.508
Time:	3.992	Roll Set Point:	0.096	Pitch Set Point:	-0.067	Yaw Set Point:	0.029	X_WP:	0.000	Y_WP:	0.000	Y_WP:	0.500	X:	-0.048	Y:	0.034	Z:	0.458	yaw:	-1.677	yaw rate:	-2.678	Roll:	-0.266	Pitch:	0.374	Yaw:	-1.920	Thrust:	65.710
Time:	4.003	Roll Set Point:	0.096	Pitch Set Point:	-0.067	Yaw Set Point:	0.029	X_WP:	0.000	Y_WP:	0.000	Y_WP:	0.500	X:	-0.048	Y:	0.034	Z:	0.458	yaw:	-1.677	yaw rate:	-2.678	Roll:	-1.584	Pitch:	-1.682	Yaw:	-1.287	Thrust:	85.847
Time:	4.014	Roll Set Point:	0.094	Pitch Set Point:	-0.070	Yaw Set Point:	0.028	X_WP:	0.000	Y_WP:	0.000	Y_WP:	0.500	X:	-0.047	Y:	0.035	Z:	0.463	yaw:	-1.589	yaw rate:	8.835	Roll:	0.130	Pitch:	0.546	Yaw:	0.925	Thrust:	65.873
Time:	4.026	Roll Set Point:	0.091	Pitch Set Point:	-0.074	Yaw Set Point:	0.028	X_WP:	0.000	Y_WP:	0.000	Y_WP:	0.500	X:	-0.045	Y:	0.037	Z:	0.470	yaw:	-1.596	yaw rate:	-0.691	Roll:	0.831	Pitch:	1.463	Yaw:	-1.349	Thrust:	56.393
Time:	4.037	Roll Set Point:	0.090	Pitch Set Point:	-0.076	Yaw Set Point:	0.034	X_WP:	0.000	Y_WP:	0.000	Y_WP:	0.500	X:	-0.044	Y:	0.039	Z:	0.475	yaw:	-1.930	yaw rate:	-33.405	Roll:	-0.589	Pitch:	-0.063	Yaw:	-9.588	Thrust:	66.248
Time:	4.048	Roll Set Point:	0.087	Pitch Set Point:	-0.078	Yaw Set Point:	0.035	X_WP:	0.000	Y_WP:	0.000	Y_WP:	0.500	X:	-0.043	Y:	0.040	Z:	0.479	yaw:	-1.995	yaw rate:	-6.509	Roll:	0.180	Pitch:	0.489	Yaw:	-3.301	Thrust:	66.063
Time:	4.059	Roll Set Point:	0.085	Pitch Set Point:	-0.081	Yaw Set Point:	0.035	X_WP:	0.000	Y_WP:	0.000	Y_WP:	0.500	X:	-0.042	Y:	0.041	Z:	0.484	yaw:	-1.980	yaw rate:	1.462	Roll:	0.367	Pitch:	0.576	Yaw:	-1.397	Thrust:	66.177
Time:	4.070	Roll Set Point:	0.083	Pitch Set Point:	-0.083	Yaw Set Point:	0.035	X_WP:	0.000	Y_WP:	0.000	Y_WP:	0.500	X:	-0.041	Y:	0.042	Z:	0.488	yaw:	-2.009	yaw rate:	-2.842	Roll:	0.257	Pitch:	0.532	Yaw:	-2.465	Thrust:	66.494
Time:	4.081	Roll Set Point:	0.079	Pitch Set Point:	-0.087	Yaw Set Point:	0.039	X_WP:	0.000	Y_WP:	0.000	Y_WP:	0.500	X:	-0.039	Y:	0.044	Z:	0.494	yaw:	-2.242	yaw rate:	-23.317	Roll:	1.140	Pitch:	1.197	Yaw:	-7.659	Thrust:	57.824
Time:	4.092	Roll Set Point:	0.077	Pitch Set Point:	-0.089	Yaw Set Point:	0.041	X_WP:	0.000	Y_WP:	0.000	Y_WP:	0.500	X:	-0.037	Y:	0.045	Z:	0.499	yaw:	-2.321	yaw rate:	-7.867	Roll:	0.403	Pitch:	0.472	Yaw:	-4.116	Thrust:	66.038
Time:	4.103	Roll Set Point:	0.074	Pitch Set Point:	-0.091	Yaw Set Point:	0.040	X_WP:	0.000	Y_WP:	0.000	Y_WP:	0.500	X:	-0.036	Y:	0.046	Z:	0.503	yaw:	-2.300	yaw rate:	2.007	Roll:	0.615	Pitch:	0.667	Yaw:	-1.747	Thrust:	66.498
Time:	4.114	Roll Set Point:	0.071	Pitch Set Point:	-0.094	Yaw Set Point:	0.039	X_WP:	0.000	Y_WP:	0.000	Y_WP:	0.500	X:	-0.035	Y:	0.048	Z:	0.507	yaw:	-2.234	yaw rate:	6.618	Roll:	0.694	Pitch:	0.672	Yaw:	-0.569	Thrust:	67.022
Time:	4.125	Roll Set Point:	0.068	Pitch Set Point:	-0.096	Yaw Set Point:	0.038	X_WP:	0.000	Y_WP:	0.000	Y_WP:	0.500	X:	-0.033	Y:	0.049	Z:	0.511	yaw:	-2.153	yaw rate:	8.150	Roll:	0.984	Pitch:	0.544	Yaw:	-0.102	Thrust:	66.623
Time:	4.137	Roll Set Point:	0.065	Pitch Set Point:	-0.099	Yaw Set Point:	0.042	X_WP:	0.000	Y_WP:	0.000	Y_WP:	0.500	X:	-0.031	Y:	0.050	Z:	0.517	yaw:	-2.420	yaw rate:	-26.743	Roll:	1.240	Pitch:	0.897	Yaw:	-8.158	Thrust:	67.484
Time:	4.148	Roll Set Point:	0.062	Pitch Set Point:	-0.101	Yaw Set Point:	0.042	X_WP:	0.000	Y_WP:	0.000	Y_WP:	0.500	X:	-0.030	Y:	0.051	Z:	0.521	yaw:	-2.413	yaw rate:	0.709	Roll:	0.898	Pitch:	0.648	Yaw:	-2.246	Thrust:	67.095
Time:	4.159	Roll Set Point:	0.059	Pitch Set Point:	-0.103	Yaw Set Point:	0.041	X_WP:	0.000	Y_WP:	0.000	Y_WP:	0.500	X:	-0.028	Y:	0.052	Z:	0.525	yaw:	-2.363	yaw rate:	5.058	Roll:	1.112	Pitch:	0.723	Yaw:	-1.154	Thrust:	66.294
Time:	4.170	Roll Set Point:	0.056	Pitch Set Point:	-0.105	Yaw Set Point:	0.042	X_WP:	0.000	Y_WP:	0.000	Y_WP:	0.500	X:	-0.027	Y:	0.053	Z:	0.529	yaw:	-2.408	yaw rate:	-4.594	Roll:	1.143	Pitch:	0.586	Yaw:	-3.518	Thrust:	66.512
Time:	4.181	Roll Set Point:	0.052	Pitch Set Point:	-0.108	Yaw Set Point:	0.048	X_WP:	0.000	Y_WP:	0.000	Y_WP:	0.500	X:	-0.025	Y:	0.055	Z:	0.535	yaw:	-2.762	yaw rate:	-35.363	Roll:	1.529	Pitch:	0.830	Yaw:	-11.325	Thrust:	57.936
Time:	4.192	Roll Set Point:	0.048	Pitch Set Point:	-0.110	Yaw Set Point:	0.042	X_WP:	0.000	Y_WP:	0.000	Y_WP:	0.500	X:	-0.023	Y:	0.056	Z:	0.538	yaw:	-2.394	yaw rate:	36.847	Roll:	1.924	Pitch:	1.194	Yaw:	6.319	Thrust:	66.362
Time:	4.203	Roll Set Point:	0.045	Pitch Set Point:	-0.112	Yaw Set Point:	0.042	X_WP:	0.000	Y_WP:	0.000	Y_WP:	0.500	X:	-0.022	Y:	0.057	Z:	0.542	yaw:	-2.412	yaw rate:	-1.864	Roll:	1.273	Pitch:	0.695	Yaw:	-2.902	Thrust:	66.105
Time:	4.214	Roll Set Point:	0.043	Pitch Set Point:	-0.114	Yaw Set Point:	0.045	X_WP:	0.000	Y_WP:	0.000	Y_WP:	0.500	X:	-0.020	Y:	0.058	Z:	0.546	yaw:	-2.605	yaw rate:	-19.278	Roll:	1.064	Pitch:	0.594	Yaw:	-7.330	Thrust:	65.389
Time:	4.225	Roll Set Point:	0.039	Pitch Set Point:	-0.116	Yaw Set Point:	0.038	X_WP:	0.000	Y_WP:	0.000	Y_WP:	0.500	X:	-0.018	Y:	0.058	Z:	0.549	yaw:	-2.202	yaw rate:	40.308	Roll:	2.093	Pitch:	0.787	Yaw:	7.380	Thrust:	66.316
Time:	4.236	Roll Set Point:	0.034	Pitch Set Point:	-0.118	Yaw Set Point:	0.036	X_WP:	0.000	Y_WP:	0.000	Y_WP:	0.500	X:	-0.016	Y:	0.059	Z:	0.555	yaw:	-2.043	yaw rate:	15.943	Roll:	3.106	Pitch:	1.342	Yaw:	1.805	Thrust:	57.994
Time:	4.248	Roll Set Point:	0.030	Pitch Set Point:	-0.120	Yaw Set Point:	0.033	X_WP:	0.000	Y_WP:	0.000	Y_WP:	0.500	X:	-0.014	Y:	0.060	Z:	0.558	yaw:	-1.908	yaw rate:	13.483	Roll:	1.782	Pitch:	0.456	Yaw:	1.270	Thrust:	71.938
Time:	4.260	Roll Set Point:	0.024	Pitch Set Point:	-0.123	Yaw Set Point:	0.034	X_WP:	0.000	Y_WP:	0.000	Y_WP:	0.500	X:	-0.011	Y:	0.062	Z:	0.566	yaw:	-1.965	yaw rate:	52.679	Roll:	3.766	Pitch:	1.486	Yaw:	-3.057	Thrust:	59.913
Time:	4.271	Roll Set Point:	0.021	Pitch Set Point:	-0.125	Yaw Set Point:	0.035	X_WP:	0.000	Y_WP:	0.000	Y_WP:	0.500	X:	-0.009	Y:	0.062	Z:	0.569	yaw:	-2.021	yaw rate:	-5.593	Roll:	1.625	Pitch:	0.507	Yaw:	-3.294	Thrust:	65.190
Time:	4.282	Roll Set Point:	0.016	Pitch Set Point:	-0.127	Yaw Set Point:	0.037	X_WP:	0.000	Y_WP:	0.000	Y_WP:	0.500	X:	-0.007	Y:	0.063	Z:	0.574	yaw:	-2.097	yaw rate:	-7.537	Roll:	2.882	Pitch:	1.123	Yaw:	-3.869	Thrust:	57.616
Time:	4.293	Roll Set Point:	0.013	Pitch Set Point:	-0.128	Yaw Set Point:	0.037	X_WP:	0.000	Y_WP:	0.000	Y_WP:	0.500	X:	-0.005	Y:	0.064	Z:	0.578	yaw:	-2.104	yaw rate:	-0.718	Roll:	2.033	Pitch:	0.594	Yaw:	-2.268	Thrust:	64.593
Time:	4.304	Roll Set Point:	0.010	Pitch Set Point:	-0.129	Yaw Set Point:	0.037	X_WP:	0.000	Y_WP:	0.000	Y_WP:	0.500	X:	-0.004	Y:	0.065	Z:	0.581	yaw:	-2.129	yaw rate:	-2.496	Roll:	1.873	Pitch:	0.623	Yaw:	-2.733	Thrust:	64.275
Time:	4.315	Roll Set Point:	0.006	Pitch Set Point:	-0.130	Yaw Set Point:	0.035	X_WP:	0.000	Y_WP:	0.000	Y_WP:	0.500	X:	-0.002	Y:	0.065	Z:	0.585	yaw:	-2.026	yaw rate:	10.251	Roll:	2.010	Pitch:	0.279	Yaw:	0.427	Thrust:	64.407
Time:	4.326	Roll Set Point:	0.003	Pitch Set Point:	-0.131	Yaw Set Point:	0.037	X_WP:	0.000	Y_WP:	0.000	Y_WP:	0.500	X:	-0.001	Y:	0.066	Z:	0.588	yaw:	-2.111	yaw rate:	-8.512	Roll:	1.770	Pitch:	0.407	Yaw:	-4.153	Thrust:	64.121
Time:	4.337	Roll Set Point:	0.001	Pitch Set Point:	-0.132	Yaw Set Point:	0.046	X_WP:	0.000	Y_WP:	0.000	Y_WP:	0.500	X:	0.001	Y:	0.066	Z:	0.591	yaw:	-2.644	yaw rate:	-53.289	Roll:	1.009	Pitch:	0.332	Yaw:	-15.533	Thrust:	64.534
Time:	4.348	Roll Set Point:	-0.004	Pitch Set Point:	-0.134	Yaw Set Point:	0.039	X_WP:	0.000	Y_WP:	0.000	Y_WP:	0.500	X:	0.004	Y:	0.067	Z:	0.596	yaw:	-2.215	yaw rate:	42.890	Roll:	4.239	Pitch:	1.049	Yaw:	7.885	Thrust:	57.100
Time:	4.359	Roll Set Point:	-0.007	Pitch Set Point:	-0.134	Yaw Set Point:	0.041	X_WP:	0.000	Y_WP:	0.000	Y_WP:	0.500	X:	0.005	Y:	0.067	Z:	0.599	yaw:	-2.346	yaw rate:	-13.036	Roll:	1.831	Pitch:	0.231	Yaw:	-5.581	Thrust:	64.260
Time:	4.370	Roll Set Point:	-0.011	Pitch Set Point:	-0.135	Yaw Set Point:	0.043	X_WP:	0.000	Y_WP:	0.000	Y_WP:	0.500	X:	0.007	Y:	0.068	Z:	0.602	yaw:	-2.447	yaw rate:	-10.094	Roll:	2.101	Pitch:	0.514	Yaw:	-5.015	Thrust:	63.924
Time:	4.381	Roll Set Point:	-0.014	Pitch Set Point:	-0.136	Yaw Set Point:	0.040	X_WP:	0.000	Y_WP:	0.000	Y_WP:	0.500	X:	0.008	Y:	0.068	Z:	0.605	yaw:	-2.306	yaw rate:	14.061	Roll:	2.199	Pitch:	0.103	Yaw:	0.895	Thrust:	63.773
Time:	4.393	Roll Set Point:	-0.019	Pitch Set Point:	-0.137	Yaw Set Point:	0.033	X_WP:	0.000	Y_WP:	0.000	Y_WP:	0.500	X:	0.011	Y:	0.068	Z:	0.610	yaw:	-1.868	yaw rate:	43.834	Roll:	4.046	Pitch:	0.569	Yaw:	7.760	Thrust:	66.481
Time:	4.404	Roll Set Point:	-0.020	Pitch Set Point:	-0.137	Yaw Set Point:	0.039	X_WP:	0.000	Y_WP:	0.000	Y_WP:	0.500	X:	0.011	Y:	0.068	Z:	0.611	yaw:	-2.254	yaw rate:	-38.618	Roll:	0.093	Pitch:	-0.037	Yaw:	-11.559	Thrust:	69.482
Time:	4.415	Roll Set Point:	-0.025	Pitch Set Point:	-0.138	Yaw Set Point:	0.035	X_WP:	0.000	Y_WP:	0.000	Y_WP:	0.500	X:	0.014	Y:	0.069	Z:	0.616	yaw:	-2.005	yaw rate:	24.883	Roll:	4.124	Pitch:	0.503	Yaw:	3.852	Thrust:	57.455
Time:	4.427	Roll Set Point:	-0.028	Pitch Set Point:	-0.139	Yaw Set Point:	0.037	X_WP:	0.000	Y_WP:	0.000	Y_WP:	0.500	X:	0.015	Y:	0.069	Z:	0.618	yaw:	-2.093	yaw rate:	-8.797	Roll:	1.994	Pitch:	0.176	Yaw:	-4.042	Thrust:	71.777
Time:	4.438	Roll Set Point:	-0.030	Pitch Set Point:	-0.139	Yaw Set Point:	0.042	X_WP:	0.000	Y_WP:	0.000	Y_WP:	0.500	X:	0.017	Y:	0.069	Z:	0.621	yaw:	-2.392	yaw rate:	-29.915	Roll:	1.662	Pitch:	0.009	Yaw:	-9.647	Thrust:	63.846
Time:	4.449	Roll Set Point:	-0.033	Pitch Set Point:	-0.139	Yaw Set Point:	0.040	X_WP:	0.000	Y_WP:	0.000	Y_WP:	0.500	X:	0.018	Y:	0.069	Z:	0.624	yaw:	-2.308	yaw rate:	8.390	Roll:	2.658	Pitch:	0.313	Yaw:	-0.511	Thrust:	63.861
Time:	4.460	Roll Set Point:	-0.037	Pitch Set Point:	-0.140	Yaw Set Point:	0.046	X_WP:	0.000	Y_WP:	0.000	Y_WP:	0.500	X:	0.020	Y:	0.070	Z:	0.628	yaw:	-2.658	yaw rate:	-34.972	Roll:	2.635	Pitch:	0.731	Yaw:	-11.300	Thrust:	56.692
Time:	4.471	Roll Set Point:	-0.040	Pitch Set Point:	-0.140	Yaw Set Point:	0.032	X_WP:	0.000	Y_WP:	0.000	Y_WP:	0.500	X:	0.021	Y:	0.070	Z:	0.629	yaw:	-1.843	yaw rate:	81.512	Roll:	2.953	Pitch:	-0.277	Yaw:	17.475	Thrust:	68.573
Time:	4.483	Roll Set Point:	-0.043	Pitch Set Point:	-0.140	Yaw Set Point:	0.039	X_WP:	0.000	Y_WP:	0.000	Y_WP:	0.500	X:	0.023	Y:	0.070	Z:	0.633	yaw:	-2.235	yaw rate:	-39.239	Roll:	2.565	Pitch:	-0.051	Yaw:	-11.717	Thrust:	57.345
Time:	4.494	Roll Set Point:	-0.047	Pitch Set Point:	-0.141	Yaw Set Point:	0.034	X_WP:	0.000	Y_WP:	0.000	Y_WP:	0.500	X:	0.025	Y:	0.070	Z:	0.636	yaw:	-1.930	yaw rate:	30.528	Roll:	3.514	Pitch:	0.451	Yaw:	5.237	Thrust:	62.829
Time:	4.505	Roll Set Point:	-0.049	Pitch Set Point:	-0.141	Yaw Set Point:	0.033	X_WP:	0.000	Y_WP:	0.000	Y_WP:	0.500	X:	0.026	Y:	0.070	Z:	0.638	yaw:	-1.915	yaw rate:	1.456	Roll:	2.243	Pitch:	-0.157	Yaw:	-1.652	Thrust:	61.557
Time:	4.516	Roll Set Point:	-0.051	Pitch Set Point:	-0.141	Yaw Set Point:	0.043	X_WP:	0.000	Y_WP:	0.000	Y_WP:	0.500	X:	0.027	Y:	0.070	Z:	0.640	yaw:	-2.462	yaw rate:	-54.626	Roll:	1.200	Pitch:	0.328	Yaw:	-15.733	Thrust:	62.937
Time:	4.528	Roll Set Point:	-0.054	Pitch Set Point:	-0.141	Yaw Set Point:	0.037	X_WP:	0.000	Y_WP:	0.000	Y_WP:	0.500	X:	0.028	Y:	0.070	Z:	0.643	yaw:	-2.094	yaw rate:	36.787	Roll:	3.058	Pitch:	-0.340	Yaw:	5.802	Thrust:	70.420
Time:	4.539	Roll Set Point:	-0.057	Pitch Set Point:	-0.140	Yaw Set Point:	0.038	X_WP:	0.000	Y_WP:	0.000	Y_WP:	0.500	X:	0.030	Y:	0.069	Z:	0.645	yaw:	-2.189	yaw rate:	-9.552	Roll:	2.167	Pitch:	-0.295	Yaw:	-4.671	Thrust:	61.578
Time:	4.550	Roll Set Point:	-0.061	Pitch Set Point:	-0.140	Yaw Set Point:	0.030	X_WP:	0.000	Y_WP:	0.000	Y_WP:	0.500	X:	0.032	Y:	0.070	Z:	0.649	yaw:	-1.704	yaw rate:	48.530	Roll:	4.531	Pitch:	-0.162	Yaw:	9.760	Thrust:	57.931
Time:	4.561	Roll Set Point:	-0.064	Pitch Set Point:	-0.140	Yaw Set Point:	0.032	X_WP:	0.000	Y_WP:	0.000	Y_WP:	0.500	X:	0.033	Y:	0.069	Z:	0.651	yaw:	-1.848	yaw rate:	-14.421	Roll:	2.356	Pitch:	0.048	Yaw:	-5.373	Thrust:	61.806
Time:	4.572	Roll Set Point:	-0.065	Pitch Set Point:	-0.139	Yaw Set Point:	0.040	X_WP:	0.000	Y_WP:	0.000	Y_WP:	0.500	X:	0.034	Y:	0.069	Z:	0.653	yaw:	-2.290	yaw rate:	-44.151	Roll:	1.325	Pitch:	-0.023	Yaw:	-13.051	Thrust:	61.700
Time:	4.583	Roll Set Point:	-0.068	Pitch Set Point:	-0.139	Yaw Set Point:	0.032	X_WP:	0.000	Y_WP:	0.000	Y_WP:	0.500	X:	0.035	Y:	0.069	Z:	0.655	yaw:	-1.812	yaw rate:	47.735	Roll:	3.517	Pitch:	-0.325	Yaw:	9.423	Thrust:	62.110
Time:	4.594	Roll Set Point:	-0.072	Pitch Set Point:	-0.139	Yaw Set Point:	0.031	X_WP:	0.000	Y_WP:	0.000	Y_WP:	0.500	X:	0.037	Y:	0.069	Z:	0.658	yaw:	-1.764	yaw rate:	4.789	Roll:	3.630	Pitch:	-0.381	Yaw:	-0.712	Thrust:	57.621
Time:	4.605	Roll Set Point:	-0.075	Pitch Set Point:	-0.138	Yaw Set Point:	0.026	X_WP:	0.000	Y_WP:	0.000	Y_WP:	0.500	X:	0.038	Y:	0.068	Z:	0.660	yaw:	-1.509	yaw rate:	25.587	Roll:	2.981	Pitch:	-0.608	Yaw:	4.574	Thrust:	62.158
Time:	4.616	Roll Set Point:	-0.076	Pitch Set Point:	-0.137	Yaw Set Point:	0.036	X_WP:	0.000	Y_WP:	0.000	Y_WP:	0.500	X:	0.039	Y:	0.068	Z:	0.662	yaw:	-2.055	yaw rate:	-54.653	Roll:	1.391	Pitch:	0.166	Yaw:	-15.243	Thrust:	61.473
Time:	4.627	Roll Set Point:	-0.079	Pitch Set Point:	-0.137	Yaw Set Point:	0.030	X_WP:	0.000	Y_WP:	0.000	Y_WP:	0.500	X:	0.040	Y:	0.068	Z:	0.664	yaw:	-1.690	yaw rate:	36.479	Roll:	3.306	Pitch:	-0.417	Yaw:	6.877	Thrust:	61.511
Time:	4.638	Roll Set Point:	-0.081	Pitch Set Point:	-0.136	Yaw Set Point:	0.026	X_WP:	0.000	Y_WP:	0.000	Y_WP:	0.500	X:	0.041	Y:	0.067	Z:	0.665	yaw:	-1.480	yaw rate:	20.981	Roll:	3.019	Pitch:	-0.715	Yaw:	3.511	Thrust:	62.029
Time:	4.649	Roll Set Point:	-0.083	Pitch Set Point:	-0.136	Yaw Set Point:	0.029	X_WP:	0.000	Y_WP:	0.000	Y_WP:	0.500	X:	0.042	Y:	0.067	Z:	0.667	yaw:	-1.643	yaw rate:	-16.286	Roll:	2.150	Pitch:	0.002	Yaw:	-5.578	Thrust:	61.524
Time:	4.660	Roll Set Point:	-0.085	Pitch Set Point:	-0.135	Yaw Set Point:	0.037	X_WP:	0.000	Y_WP:	0.000	Y_WP:	0.500	X:	0.044	Y:	0.067	Z:	0.669	yaw:	-2.105	yaw rate:	-46.174	Roll:	2.181	Pitch:	-0.349	Yaw:	-13.324	Thrust:	58.607
Time:	4.671	Roll Set Point:	-0.088	Pitch Set Point:	-0.134	Yaw Set Point:	0.029	X_WP:	0.000	Y_WP:	0.000	Y_WP:	0.500	X:	0.045	Y:	0.066	Z:	0.671	yaw:	-1.690	yaw rate:	41.542	Roll:	3.523	Pitch:	-0.594	Yaw:	8.070	Thrust:	61.613
Time:	4.682	Roll Set Point:	-0.089	Pitch Set Point:	-0.133	Yaw Set Point:	0.032	X_WP:	0.000	Y_WP:	0.000	Y_WP:	0.500	X:	0.046	Y:	0.066	Z:	0.672	yaw:	-1.836	yaw rate:	-14.651	Roll:	1.919	Pitch:	-0.554	Yaw:	-5.480	Thrust:	61.579
Time:	4.693	Roll Set Point:	-0.092	Pitch Set Point:	-0.133	Yaw Set Point:	0.026	X_WP:	0.000	Y_WP:	0.000	Y_WP:	0.500	X:	0.047	Y:	0.066	Z:	0.674	yaw:	-1.496	yaw rate:	33.976	Roll:	3.546	Pitch:	-0.373	Yaw:	6.530	Thrust:	61.817
Time:	4.704	Roll Set Point:	-0.093	Pitch Set Point:	-0.132	Yaw Set Point:	0.033	X_WP:	0.000	Y_WP:	0.000	Y_WP:	0.500	X:	0.048	Y:	0.065	Z:	0.675	yaw:	-1.895	yaw rate:	-39.857	Roll:	1.643	Pitch:	0.015	Yaw:	-11.558	Thrust:	61.578
Time:	4.715	Roll Set Point:	-0.096	Pitch Set Point:	-0.131	Yaw Set Point:	0.025	X_WP:	0.000	Y_WP:	0.000	Y_WP:	0.500	X:	0.049	Y:	0.065	Z:	0.677	yaw:	-1.408	yaw rate:	48.734	Roll:	4.185	Pitch:	-1.374	Yaw:	10.144	Thrust:	59.209
Time:	4.726	Roll Set Point:	-0.098	Pitch Set Point:	-0.130	Yaw Set Point:	0.027	X_WP:	0.000	Y_WP:	0.000	Y_WP:	0.500	X:	0.050	Y:	0.064	Z:	0.678	yaw:	-1.528	yaw rate:	-12.079	Roll:	2.197	Pitch:	-0.459	Yaw:	-4.465	Thrust:	61.929
Time:	4.737	Roll Set Point:	-0.099	Pitch Set Point:	-0.128	Yaw Set Point:	0.027	X_WP:	0.000	Y_WP:	0.000	Y_WP:	0.500	X:	0.050	Y:	0.064	Z:	0.679	yaw:	-1.520	yaw rate:	0.874	Roll:	2.226	Pitch:	-0.750	Yaw:	-1.384	Thrust:	62.352
Time:	4.748	Roll Set Point:	-0.100	Pitch Set Point:	-0.128	Yaw Set Point:	0.034	X_WP:	0.000	Y_WP:	0.000	Y_WP:	0.500	X:	0.051	Y:	0.063	Z:	0.680	yaw:	-1.953	yaw rate:	-43.304	Roll:	1.891	Pitch:	0.215	Yaw:	-12.458	Thrust:	61.481
Time:	4.759	Roll Set Point:	-0.102	Pitch Set Point:	-0.127	Yaw Set Point:	0.026	X_WP:	0.000	Y_WP:	0.000	Y_WP:	0.500	X:	0.052	Y:	0.063	Z:	0.681	yaw:	-1.492	yaw rate:	46.060	Roll:	3.487	Pitch:	-1.104	Yaw:	9.362	Thrust:	61.697
Time:	4.770	Roll Set Point:	-0.104	Pitch Set Point:	-0.126	Yaw Set Point:	0.032	X_WP:	0.000	Y_WP:	0.000	Y_WP:	0.500	X:	0.053	Y:	0.062	Z:	0.682	yaw:	-1.850	yaw rate:	-35.764	Roll:	2.105	Pitch:	-0.388	Yaw:	-10.584	Thrust:	60.226
Time:	4.781	Roll Set Point:	-0.105	Pitch Set Point:	-0.125	Yaw Set Point:	0.031	X_WP:	0.000	Y_WP:	0.000	Y_WP:	0.500	X:	0.054	Y:	0.062	Z:	0.682	yaw:	-1.781	yaw rate:	6.914	Roll:	2.603	Pitch:	-0.754	Yaw:	-0.341	Thrust:	61.879
Time:	4.792	Roll Set Point:	-0.107	Pitch Set Point:	-0.124	Yaw Set Point:	0.027	X_WP:	0.000	Y_WP:	0.000	Y_WP:	0.500	X:	0.054	Y:	0.061	Z:	0.683	yaw:	-1.528	yaw rate:	25.308	Roll:	3.101	Pitch:	-0.883	Yaw:	4.371	Thrust:	62.273
Time:	4.803	Roll Set Point:	-0.108	Pitch Set Point:	-0.123	Yaw Set Point:	0.028	X_WP:	0.000	Y_WP:	0.000	Y_WP:	0.500	X:	0.055	Y:	0.061	Z:	0.683	yaw:	-1.615	yaw rate:	-8.718	Roll:	2.099	Pitch:	-0.569	Yaw:	-3.833	Thrust:	62.069
Time:	4.814	Roll Set Point:	-0.109	Pitch Set Point:	-0.122	Yaw Set Point:	0.031	X_WP:	0.000	Y_WP:	0.000	Y_WP:	0.500	X:	0.055	Y:	0.060	Z:	0.684	yaw:	-1.757	yaw rate:	-14.272	Roll:	1.964	Pitch:	-0.539	Yaw:	-5.347	Thrust:	62.483
Time:	4.825	Roll Set Point:	-0.109	Pitch Set Point:	-0.121	Yaw Set Point:	0.041	X_WP:	0.000	Y_WP:	0.000	Y_WP:	0.500	X:	0.056	Y:	0.059	Z:	0.684	yaw:	-2.348	yaw rate:	-59.069	Roll:	1.493	Pitch:	0.108	Yaw:	-16.858	Thrust:	61.747
Time:	4.836	Roll Set Point:	-0.112	Pitch Set Point:	-0.119	Yaw Set Point:	0.026	X_WP:	0.000	Y_WP:	0.000	Y_WP:	0.500	X:	0.057	Y:	0.059	Z:	0.685	yaw:	-1.513	yaw rate:	83.494	Roll:	4.277	Pitch:	-2.097	Yaw:	18.176	Thrust:	61.888
Time:	4.847	Roll Set Point:	-0.113	Pitch Set Point:	-0.118	Yaw Set Point:	0.032	X_WP:	0.000	Y_WP:	0.000	Y_WP:	0.500	X:	0.057	Y:	0.058	Z:	0.685	yaw:	-1.859	yaw rate:	-34.554	Roll:	1.852	Pitch:	-0.098	Yaw:	-10.334	Thrust:	61.772
Time:	4.858	Roll Set Point:	-0.113	Pitch Set Point:	-0.117	Yaw Set Point:	0.039	X_WP:	0.000	Y_WP:	0.000	Y_WP:	0.500	X:	0.058	Y:	0.057	Z:	0.685	yaw:	-2.236	yaw rate:	-37.748	Roll:	1.545	Pitch:	-0.576	Yaw:	-11.626	Thrust:	62.580
Time:	4.870	Roll Set Point:	-0.114	Pitch Set Point:	-0.116	Yaw Set Point:	0.036	X_WP:	0.000	Y_WP:	0.000	Y_WP:	0.500	X:	0.058	Y:	0.057	Z:	0.685	yaw:	-2.081	yaw rate:	15.489	Roll:	2.524	Pitch:	-0.821	Yaw:	1.218	Thrust:	61.820
Time:	4.881	Roll Set Point:	-0.116	Pitch Set Point:	-0.114	Yaw Set Point:	0.032	X_WP:	0.000	Y_WP:	0.000	Y_WP:	0.500	X:	0.059	Y:	0.056	Z:	0.685	yaw:	-1.856	yaw rate:	22.480	Roll:	3.260	Pitch:	-1.363	Yaw:	3.183	Thrust:	62.538
Time:	4.892	Roll Set Point:	-0.116	Pitch Set Point:	-0.113	Yaw Set Point:	0.033	X_WP:	0.000	Y_WP:	0.000	Y_WP:	0.500	X:	0.059	Y:	0.055	Z:	0.685	yaw:	-1.888	yaw rate:	-3.190	Roll:	2.043	Pitch:	-0.767	Yaw:	-2.961	Thrust:	62.264
Time:	4.903	Roll Set Point:	-0.117	Pitch Set Point:	-0.112	Yaw Set Point:	0.033	X_WP:	0.000	Y_WP:	0.000	Y_WP:	0.500	X:	0.060	Y:	0.055	Z:	0.685	yaw:	-1.908	yaw rate:	-1.950	Roll:	2.428	Pitch:	-0.677	Yaw:	-2.702	Thrust:	62.214
Time:	4.914	Roll Set Point:	-0.118	Pitch Set Point:	-0.111	Yaw Set Point:	0.032	X_WP:	0.000	Y_WP:	0.000	Y_WP:	0.500	X:	0.060	Y:	0.054	Z:	0.685	yaw:	-1.831	yaw rate:	7.649	Roll:	2.477	Pitch:	-0.787	Yaw:	-0.324	Thrust:	62.499
Time:	4.925	Roll Set Point:	-0.118	Pitch Set Point:	-0.110	Yaw Set Point:	0.040	X_WP:	0.000	Y_WP:	0.000	Y_WP:	0.500	X:	0.060	Y:	0.054	Z:	0.685	yaw:	-2.274	yaw rate:	-44.211	Roll:	1.178	Pitch:	-0.469	Yaw:	-13.258	Thrust:	63.212
Time:	4.936	Roll Set Point:	-0.119	Pitch Set Point:	-0.108	Yaw Set Point:	0.035	X_WP:	0.000	Y_WP:	0.000	Y_WP:	0.500	X:	0.061	Y:	0.053	Z:	0.684	yaw:	-2.001	yaw rate:	27.279	Roll:	3.209	Pitch:	-1.468	Yaw:	4.083	Thrust:	62.303
Time:	4.947	Roll Set Point:	-0.120	Pitch Set Point:	-0.106	Yaw Set Point:	0.033	X_WP:	0.000	Y_WP:	0.000	Y_WP:	0.500	X:	0.061	Y:	0.052	Z:	0.684	yaw:	-1.901	yaw rate:	10.015	Roll:	2.091	Pitch:	-1.249	Yaw:	0.118	Thrust:	62.758
Time:	4.958	Roll Set Point:	-0.121	Pitch Set Point:	-0.105	Yaw Set Point:	0.033	X_WP:	0.000	Y_WP:	0.000	Y_WP:	0.500	X:	0.061	Y:	0.052	Z:	0.683	yaw:	-1.872	yaw rate:	2.903	Roll:	2.632	Pitch:	-0.733	Yaw:	-1.537	Thrust:	62.655
Time:	4.969	Roll Set Point:	-0.122	Pitch Set Point:	-0.104	Yaw Set Point:	0.027	X_WP:	0.000	Y_WP:	0.000	Y_WP:	0.500	X:	0.061	Y:	0.051	Z:	0.683	yaw:	-1.573	yaw rate:	29.829	Roll:	2.672	Pitch:	-1.405	Yaw:	5.264	Thrust:	62.633
Time:	4.980	Roll Set Point:	-0.121	Pitch Set Point:	-0.103	Yaw Set Point:	0.039	X_WP:	0.000	Y_WP:	0.000	Y_WP:	0.500	X:	0.061	Y:	0.050	Z:	0.683	yaw:	-2.224	yaw rate:	-65.103	Roll:	0.945	Pitch:	-0.081	Yaw:	-18.185	Thrust:	62.036
Time:	4.991	Roll Set Point:	-0.122	Pitch Set Point:	-0.101	Yaw Set Point:	0.033	X_WP:	0.000	Y_WP:	0.000	Y_WP:	0.500	X:	0.062	Y:	0.049	Z:	0.682	yaw:	-1.917	yaw rate:	30.699	Roll:	2.711	Pitch:	-1.831	Yaw:	4.974	Thrust:	64.203
Time:	5.002	Roll Set Point:	-0.122	Pitch Set Point:	-0.100	Yaw Set Point:	0.042	X_WP:	0.000	Y_WP:	0.000	Y_WP:	0.500	X:	0.062	Y:	0.049	Z:	0.681	yaw:	-2.407	yaw rate:	-48.994	Roll:	1.565	Pitch:	-0.267	Yaw:	-14.633	Thrust:	62.807
