Time:	2.125	Roll Set Point:	-0.235	Pitch Set Point:	-0.114	Yaw Set Point:	-0.584	X_WP:	0.000	Y_WP:	0.000	Y_WP:	0.500	X:	0.100	Y:	0.092	Z:	0.402	yaw:	33.485	yaw rate:	-0.932	Roll:	3.902	Pitch:	0.635	Yaw:	46.754	Thrust:	5.371
Time:	2.156	Roll Set Point:	-0.235	Pitch Set Point:	-0.114	Yaw Set Point:	-0.585	X_WP:	0.000	Y_WP:	0.000	Y_WP:	0.500	X:	0.100	Y:	0.093	Z:	0.402	yaw:	33.500	yaw rate:	-4.071	Roll:	3.939	Pitch:	0.632	Yaw:	47.266	Thrust:	5.682
Time:	2.172	Roll Set Point:	-0.235	Pitch Set Point:	-0.114	Yaw Set Point:	-0.585	X_WP:	0.000	Y_WP:	0.000	Y_WP:	0.500	X:	0.100	Y:	0.093	Z:	0.402	yaw:	33.500	yaw rate:	-4.071	Roll:	3.914	Pitch:	0.636	Yaw:	47.140	Thrust:	5.735
Time:	2.188	Roll Set Point:	-0.235	Pitch Set Point:	-0.114	Yaw Set Point:	-0.585	X_WP:	0.000	Y_WP:	0.000	Y_WP:	0.500	X:	0.100	Y:	0.092	Z:	0.402	yaw:	33.501	yaw rate:	0.668	Roll:	3.887	Pitch:	0.586	Yaw:	47.339	Thrust:	6.028
Time:	2.203	Roll Set Point:	-0.235	Pitch Set Point:	-0.114	Yaw Set Point:	-0.585	X_WP:	0.000	Y_WP:	0.000	Y_WP:	0.500	X:	0.100	Y:	0.092	Z:	0.402	yaw:	33.492	yaw rate:	-0.880	Roll:	3.906	Pitch:	0.676	Yaw:	47.347	Thrust:	6.125
Time:	2.219	Roll Set Point:	-0.235	Pitch Set Point:	-0.114	Yaw Set Point:	-0.585	X_WP:	0.000	Y_WP:	0.000	Y_WP:	0.500	X:	0.100	Y:	0.093	Z:	0.402	yaw:	33.496	yaw rate:	0.392	Roll:	3.983	Pitch:	0.679	Yaw:	47.748	Thrust:	6.301
Time:	2.235	Roll Set Point:	-0.235	Pitch Set Point:	-0.115	Yaw Set Point:	-0.584	X_WP:	0.000	Y_WP:	0.000	Y_WP:	0.500	X:	0.100	Y:	0.093	Z:	0.402	yaw:	33.476	yaw rate:	-1.955	Roll:	3.948	Pitch:	0.708	Yaw:	47.511	Thrust:	6.435
Time:	2.250	Roll Set Point:	-0.235	Pitch Set Point:	-0.114	Yaw Set Point:	-0.584	X_WP:	0.000	Y_WP:	0.000	Y_WP:	0.500	X:	0.100	Y:	0.093	Z:	0.402	yaw:	33.482	yaw rate:	0.601	Roll:	3.899	Pitch:	0.588	Yaw:	48.132	Thrust:	6.616
Time:	2.266	Roll Set Point:	-0.235	Pitch Set Point:	-0.114	Yaw Set Point:	-0.585	X_WP:	0.000	Y_WP:	0.000	Y_WP:	0.500	X:	0.100	Y:	0.093	Z:	0.402	yaw:	33.516	yaw rate:	3.316	Roll:	3.946	Pitch:	0.561	Yaw:	48.812	Thrust:	7.069
Time:	2.281	Roll Set Point:	-0.235	Pitch Set Point:	-0.114	Yaw Set Point:	-0.585	X_WP:	0.000	Y_WP:	0.000	Y_WP:	0.500	X:	0.100	Y:	0.093	Z:	0.402	yaw:	33.516	yaw rate:	3.316	Roll:	3.950	Pitch:	0.641	Yaw:	48.359	Thrust:	7.023
Time:	2.297	Roll Set Point:	-0.235	Pitch Set Point:	-0.114	Yaw Set Point:	-0.584	X_WP:	0.000	Y_WP:	0.000	Y_WP:	0.500	X:	0.100	Y:	0.093	Z:	0.402	yaw:	33.484	yaw rate:	-3.150	Roll:	3.960	Pitch:	0.722	Yaw:	47.792	Thrust:	7.019
Time:	2.313	Roll Set Point:	-0.235	Pitch Set Point:	-0.114	Yaw Set Point:	-0.585	X_WP:	0.000	Y_WP:	0.000	Y_WP:	0.500	X:	0.100	Y:	0.093	Z:	0.402	yaw:	33.492	yaw rate:	0.775	Roll:	3.963	Pitch:	0.622	Yaw:	48.452	Thrust:	7.407
Time:	2.328	Roll Set Point:	-0.235	Pitch Set Point:	-0.114	Yaw Set Point:	-0.585	X_WP:	0.000	Y_WP:	0.000	Y_WP:	0.500	X:	0.100	Y:	0.092	Z:	0.402	yaw:	33.500	yaw rate:	0.832	Roll:	3.938	Pitch:	0.588	Yaw:	48.477	Thrust:	7.537
Time:	2.344	Roll Set Point:	-0.235	Pitch Set Point:	-0.115	Yaw Set Point:	-0.584	X_WP:	0.000	Y_WP:	0.000	Y_WP:	0.500	X:	0.100	Y:	0.093	Z:	0.402	yaw:	33.484	yaw rate:	-1.658	Roll:	4.033	Pitch:	0.754	Yaw:	48.041	Thrust:	7.743
Time:	2.360	Roll Set Point:	-0.235	Pitch Set Point:	-0.115	Yaw Set Point:	-0.584	X_WP:	0.000	Y_WP:	0.000	Y_WP:	0.500	X:	0.100	Y:	0.093	Z:	0.402	yaw:	33.484	yaw rate:	-1.658	Roll:	3.977	Pitch:	0.648	Yaw:	48.311	Thrust:	7.929
Time:	2.375	Roll Set Point:	-0.235	Pitch Set Point:	-0.114	Yaw Set Point:	-0.585	X_WP:	0.000	Y_WP:	0.000	Y_WP:	0.500	X:	0.100	Y:	0.093	Z:	0.402	yaw:	33.491	yaw rate:	-2.280	Roll:	3.911	Pitch:	0.589	Yaw:	48.453	Thrust:	8.194
Time:	2.391	Roll Set Point:	-0.235	Pitch Set Point:	-0.114	Yaw Set Point:	-0.585	X_WP:	0.000	Y_WP:	0.000	Y_WP:	0.500	X:	0.100	Y:	0.092	Z:	0.402	yaw:	33.511	yaw rate:	2.007	Roll:	3.986	Pitch:	0.560	Yaw:	48.689	Thrust:	8.290
Time:	2.406	Roll Set Point:	-0.235	Pitch Set Point:	-0.115	Yaw Set Point:	-0.585	X_WP:	0.000	Y_WP:	0.000	Y_WP:	0.500	X:	0.100	Y:	0.093	Z:	0.402	yaw:	33.492	yaw rate:	-1.877	Roll:	4.071	Pitch:	0.805	Yaw:	48.013	Thrust:	8.546
Time:	2.422	Roll Set Point:	-0.235	Pitch Set Point:	-0.114	Yaw Set Point:	-0.585	X_WP:	0.000	Y_WP:	0.000	Y_WP:	0.500	X:	0.100	Y:	0.093	Z:	0.402	yaw:	33.517	yaw rate:	2.473	Roll:	4.021	Pitch:	0.583	Yaw:	48.776	Thrust:	8.548
Time:	2.438	Roll Set Point:	-0.235	Pitch Set Point:	-0.114	Yaw Set Point:	-0.585	X_WP:	0.000	Y_WP:	0.000	Y_WP:	0.500	X:	0.100	Y:	0.093	Z:	0.402	yaw:	33.509	yaw rate:	-0.845	Roll:	3.929	Pitch:	0.605	Yaw:	48.208	Thrust:	8.899
Time:	2.453	Roll Set Point:	-0.235	Pitch Set Point:	-0.114	Yaw Set Point:	-0.585	X_WP:	0.000	Y_WP:	0.000	Y_WP:	0.500	X:	0.100	Y:	0.092	Z:	0.402	yaw:	33.514	yaw rate:	0.522	Roll:	3.990	Pitch:	0.617	Yaw:	48.448	Thrust:	9.144
Time:	2.469	Roll Set Point:	-0.235	Pitch Set Point:	-0.114	Yaw Set Point:	-0.585	X_WP:	0.000	Y_WP:	0.000	Y_WP:	0.500	X:	0.100	Y:	0.092	Z:	0.402	yaw:	33.514	yaw rate:	0.522	Roll:	4.013	Pitch:	0.651	Yaw:	48.357	Thrust:	9.220
Time:	2.485	Roll Set Point:	-0.235	Pitch Set Point:	-0.115	Yaw Set Point:	-0.585	X_WP:	0.000	Y_WP:	0.000	Y_WP:	0.500	X:	0.100	Y:	0.093	Z:	0.402	yaw:	33.491	yaw rate:	-0.411	Roll:	4.100	Pitch:	0.790	Yaw:	47.940	Thrust:	9.295
Time:	2.500	Roll Set Point:	-0.235	Pitch Set Point:	-0.114	Yaw Set Point:	-0.585	X_WP:	0.000	Y_WP:	0.000	Y_WP:	0.500	X:	0.100	Y:	0.093	Z:	0.402	yaw:	33.503	yaw rate:	1.141	Roll:	3.995	Pitch:	0.599	Yaw:	48.532	Thrust:	9.629
Time:	2.516	Roll Set Point:	-0.235	Pitch Set Point:	-0.114	Yaw Set Point:	-0.585	X_WP:	0.000	Y_WP:	0.000	Y_WP:	0.500	X:	0.100	Y:	0.093	Z:	0.402	yaw:	33.503	yaw rate:	1.141	Roll:	4.030	Pitch:	0.655	Yaw:	48.344	Thrust:	9.777
Time:	2.531	Roll Set Point:	-0.235	Pitch Set Point:	-0.114	Yaw Set Point:	-0.585	X_WP:	0.000	Y_WP:	0.000	Y_WP:	0.500	X:	0.100	Y:	0.092	Z:	0.402	yaw:	33.490	yaw rate:	-1.308	Roll:	3.975	Pitch:	0.629	Yaw:	48.100	Thrust:	9.922
Time:	2.547	Roll Set Point:	-0.235	Pitch Set Point:	-0.115	Yaw Set Point:	-0.584	X_WP:	0.000	Y_WP:	0.000	Y_WP:	0.500	X:	0.100	Y:	0.093	Z:	0.402	yaw:	33.475	yaw rate:	-2.935	Roll:	4.117	Pitch:	0.792	Yaw:	48.054	Thrust:	10.047
Time:	2.563	Roll Set Point:	-0.235	Pitch Set Point:	-0.115	Yaw Set Point:	-0.584	X_WP:	0.000	Y_WP:	0.000	Y_WP:	0.500	X:	0.100	Y:	0.093	Z:	0.402	yaw:	33.475	yaw rate:	-2.935	Roll:	4.046	Pitch:	0.661	Yaw:	48.302	Thrust:	10.316
Time:	2.578	Roll Set Point:	-0.235	Pitch Set Point:	-0.114	Yaw Set Point:	-0.584	X_WP:	0.000	Y_WP:	0.000	Y_WP:	0.500	X:	0.100	Y:	0.093	Z:	0.402	yaw:	33.481	yaw rate:	0.626	Roll:	4.025	Pitch:	0.590	Yaw:	48.419	Thrust:	10.427
Time:	2.594	Roll Set Point:	-0.235	Pitch Set Point:	-0.114	Yaw Set Point:	-0.585	X_WP:	0.000	Y_WP:	0.000	Y_WP:	0.500	X:	0.100	Y:	0.093	Z:	0.402	yaw:	33.496	yaw rate:	-0.983	Roll:	4.063	Pitch:	0.647	Yaw:	48.580	Thrust:	10.814
Time:	2.610	Roll Set Point:	-0.235	Pitch Set Point:	-0.115	Yaw Set Point:	-0.584	X_WP:	0.000	Y_WP:	0.000	Y_WP:	0.500	X:	0.100	Y:	0.093	Z:	0.402	yaw:	33.462	yaw rate:	-3.420	Roll:	4.067	Pitch:	0.763	Yaw:	47.711	Thrust:	10.800
Time:	2.625	Roll Set Point:	-0.235	Pitch Set Point:	-0.114	Yaw Set Point:	-0.585	X_WP:	0.000	Y_WP:	0.000	Y_WP:	0.500	X:	0.100	Y:	0.093	Z:	0.402	yaw:	33.506	yaw rate:	4.409	Roll:	4.052	Pitch:	0.515	Yaw:	49.084	Thrust:	11.127
Time:	2.641	Roll Set Point:	-0.235	Pitch Set Point:	-0.114	Yaw Set Point:	-0.585	X_WP:	0.000	Y_WP:	0.000	Y_WP:	0.500	X:	0.100	Y:	0.093	Z:	0.402	yaw:	33.511	yaw rate:	0.560	Roll:	4.054	Pitch:	0.631	Yaw:	48.447	Thrust:	11.279
Time:	2.656	Roll Set Point:	-0.235	Pitch Set Point:	-0.114	Yaw Set Point:	-0.585	X_WP:	0.000	Y_WP:	0.000	Y_WP:	0.500	X:	0.100	Y:	0.093	Z:	0.402	yaw:	33.496	yaw rate:	-1.511	Roll:	4.080	Pitch:	0.726	Yaw:	48.079	Thrust:	11.362
Time:	2.672	Roll Set Point:	-0.235	Pitch Set Point:	-0.115	Yaw Set Point:	-0.584	X_WP:	0.000	Y_WP:	0.000	Y_WP:	0.500	X:	0.100	Y:	0.093	Z:	0.402	yaw:	33.481	yaw rate:	-1.554	Roll:	4.106	Pitch:	0.719	Yaw:	48.051	Thrust:	11.626
Time:	2.688	Roll Set Point:	-0.235	Pitch Set Point:	-0.114	Yaw Set Point:	-0.584	X_WP:	0.000	Y_WP:	0.000	Y_WP:	0.500	X:	0.100	Y:	0.093	Z:	0.402	yaw:	33.479	yaw rate:	-0.149	Roll:	4.066	Pitch:	0.644	Yaw:	48.283	Thrust:	11.641
Time:	2.703	Roll Set Point:	-0.235	Pitch Set Point:	-0.114	Yaw Set Point:	-0.584	X_WP:	0.000	Y_WP:	0.000	Y_WP:	0.500	X:	0.100	Y:	0.093	Z:	0.402	yaw:	33.479	yaw rate:	-0.149	Roll:	4.092	Pitch:	0.667	Yaw:	48.308	Thrust:	11.960
Time:	2.719	Roll Set Point:	-0.235	Pitch Set Point:	-0.114	Yaw Set Point:	-0.585	X_WP:	0.000	Y_WP:	0.000	Y_WP:	0.500	X:	0.100	Y:	0.093	Z:	0.402	yaw:	33.491	yaw rate:	-1.061	Roll:	4.084	Pitch:	0.629	Yaw:	48.521	Thrust:	12.286
Time:	2.735	Roll Set Point:	-0.235	Pitch Set Point:	-0.114	Yaw Set Point:	-0.585	X_WP:	0.000	Y_WP:	0.000	Y_WP:	0.500	X:	0.100	Y:	0.093	Z:	0.402	yaw:	33.508	yaw rate:	1.709	Roll:	4.139	Pitch:	0.655	Yaw:	48.635	Thrust:	12.135
Time:	2.750	Roll Set Point:	-0.235	Pitch Set Point:	-0.114	Yaw Set Point:	-0.585	X_WP:	0.000	Y_WP:	0.000	Y_WP:	0.500	X:	0.100	Y:	0.093	Z:	0.402	yaw:	33.508	yaw rate:	1.709	Roll:	4.109	Pitch:	0.668	Yaw:	48.349	Thrust:	12.511
Time:	2.766	Roll Set Point:	-0.235	Pitch Set Point:	-0.114	Yaw Set Point:	-0.585	X_WP:	0.000	Y_WP:	0.000	Y_WP:	0.500	X:	0.100	Y:	0.092	Z:	0.402	yaw:	33.490	yaw rate:	-0.833	Roll:	4.062	Pitch:	0.663	Yaw:	48.026	Thrust:	12.867
Time:	2.781	Roll Set Point:	-0.235	Pitch Set Point:	-0.114	Yaw Set Point:	-0.585	X_WP:	0.000	Y_WP:	0.000	Y_WP:	0.500	X:	0.100	Y:	0.092	Z:	0.402	yaw:	33.503	yaw rate:	1.221	Roll:	4.122	Pitch:	0.633	Yaw:	48.546	Thrust:	12.836
Time:	2.797	Roll Set Point:	-0.235	Pitch Set Point:	-0.114	Yaw Set Point:	-0.585	X_WP:	0.000	Y_WP:	0.000	Y_WP:	0.500	X:	0.100	Y:	0.092	Z:	0.402	yaw:	33.503	yaw rate:	1.221	Roll:	4.123	Pitch:	0.669	Yaw:	48.341	Thrust:	13.063
Time:	2.813	Roll Set Point:	-0.235	Pitch Set Point:	-0.115	Yaw Set Point:	-0.584	X_WP:	0.000	Y_WP:	0.000	Y_WP:	0.500	X:	0.100	Y:	0.093	Z:	0.402	yaw:	33.484	yaw rate:	-1.743	Roll:	4.166	Pitch:	0.784	Yaw:	48.009	Thrust:	13.265
Time:	2.828	Roll Set Point:	-0.235	Pitch Set Point:	-0.114	Yaw Set Point:	-0.584	X_WP:	0.000	Y_WP:	0.000	Y_WP:	0.500	X:	0.100	Y:	0.093	Z:	0.402	yaw:	33.485	yaw rate:	0.103	Roll:	4.101	Pitch:	0.615	Yaw:	48.334	Thrust:	13.373
Time:	2.844	Roll Set Point:	-0.235	Pitch Set Point:	-0.114	Yaw Set Point:	-0.585	X_WP:	0.000	Y_WP:	0.000	Y_WP:	0.500	X:	0.100	Y:	0.093	Z:	0.402	yaw:	33.496	yaw rate:	1.062	Roll:	4.161	Pitch:	0.680	Yaw:	48.510	Thrust:	13.759
Time:	2.860	Roll Set Point:	-0.235	Pitch Set Point:	-0.114	Yaw Set Point:	-0.585	X_WP:	0.000	Y_WP:	0.000	Y_WP:	0.500	X:	0.100	Y:	0.093	Z:	0.402	yaw:	33.491	yaw rate:	-0.522	Roll:	4.151	Pitch:	0.669	Yaw:	48.237	Thrust:	13.650
Time:	2.875	Roll Set Point:	-0.235	Pitch Set Point:	-0.114	Yaw Set Point:	-0.585	X_WP:	0.000	Y_WP:	0.000	Y_WP:	0.500	X:	0.100	Y:	0.093	Z:	0.402	yaw:	33.491	yaw rate:	-0.522	Roll:	4.150	Pitch:	0.675	Yaw:	48.324	Thrust:	13.978
Time:	2.891	Roll Set Point:	-0.235	Pitch Set Point:	-0.115	Yaw Set Point:	-0.584	X_WP:	0.000	Y_WP:	0.000	Y_WP:	0.500	X:	0.100	Y:	0.093	Z:	0.402	yaw:	33.467	yaw rate:	-3.197	Roll:	4.144	Pitch:	0.766	Yaw:	47.886	Thrust:	14.295
Time:	2.906	Roll Set Point:	-0.235	Pitch Set Point:	-0.114	Yaw Set Point:	-0.584	X_WP:	0.000	Y_WP:	0.000	Y_WP:	0.500	X:	0.100	Y:	0.093	Z:	0.402	yaw:	33.481	yaw rate:	1.489	Roll:	4.162	Pitch:	0.619	Yaw:	48.561	Thrust:	14.313
Time:	2.922	Roll Set Point:	-0.235	Pitch Set Point:	-0.114	Yaw Set Point:	-0.584	X_WP:	0.000	Y_WP:	0.000	Y_WP:	0.500	X:	0.100	Y:	0.093	Z:	0.402	yaw:	33.488	yaw rate:	0.704	Roll:	4.177	Pitch:	0.671	Yaw:	48.439	Thrust:	14.449
Time:	2.938	Roll Set Point:	-0.235	Pitch Set Point:	-0.114	Yaw Set Point:	-0.584	X_WP:	0.000	Y_WP:	0.000	Y_WP:	0.500	X:	0.100	Y:	0.093	Z:	0.402	yaw:	33.488	yaw rate:	0.704	Roll:	4.171	Pitch:	0.679	Yaw:	48.321	Thrust:	14.711
Time:	2.953	Roll Set Point:	-0.235	Pitch Set Point:	-0.114	Yaw Set Point:	-0.584	X_WP:	0.000	Y_WP:	0.000	Y_WP:	0.500	X:	0.100	Y:	0.093	Z:	0.402	yaw:	33.482	yaw rate:	-1.541	Roll:	4.164	Pitch:	0.673	Yaw:	48.209	Thrust:	14.807
Time:	2.969	Roll Set Point:	-0.235	Pitch Set Point:	-0.114	Yaw Set Point:	-0.585	X_WP:	0.000	Y_WP:	0.000	Y_WP:	0.500	X:	0.100	Y:	0.093	Z:	0.402	yaw:	33.504	yaw rate:	2.207	Roll:	4.184	Pitch:	0.644	Yaw:	48.713	Thrust:	15.242
Time:	2.985	Roll Set Point:	-0.235	Pitch Set Point:	-0.114	Yaw Set Point:	-0.585	X_WP:	0.000	Y_WP:	0.000	Y_WP:	0.500	X:	0.100	Y:	0.093	Z:	0.402	yaw:	33.504	yaw rate:	2.207	Roll:	4.187	Pitch:	0.681	Yaw:	48.343	Thrust:	15.261
Time:	3.000	Roll Set Point:	-0.235	Pitch Set Point:	-0.115	Yaw Set Point:	-0.585	X_WP:	0.000	Y_WP:	0.000	Y_WP:	0.500	X:	0.100	Y:	0.093	Z:	0.402	yaw:	33.491	yaw rate:	-0.509	Roll:	4.211	Pitch:	0.757	Yaw:	48.095	Thrust:	15.371
Time:	3.016	Roll Set Point:	-0.235	Pitch Set Point:	-0.114	Yaw Set Point:	-0.585	X_WP:	0.000	Y_WP:	0.000	Y_WP:	0.500	X:	0.100	Y:	0.093	Z:	0.402	yaw:	33.497	yaw rate:	0.686	Roll:	4.188	Pitch:	0.613	Yaw:	48.449	Thrust:	15.602
Time:	3.032	Roll Set Point:	-0.235	Pitch Set Point:	-0.114	Yaw Set Point:	-0.585	X_WP:	0.000	Y_WP:	0.000	Y_WP:	0.500	X:	0.100	Y:	0.093	Z:	0.402	yaw:	33.497	yaw rate:	0.686	Roll:	4.203	Pitch:	0.683	Yaw:	48.334	Thrust:	15.809
Time:	3.047	Roll Set Point:	-0.235	Pitch Set Point:	-0.114	Yaw Set Point:	-0.585	X_WP:	0.000	Y_WP:	0.000	Y_WP:	0.500	X:	0.100	Y:	0.093	Z:	0.402	yaw:	33.504	yaw rate:	-2.189	Roll:	4.200	Pitch:	0.665	Yaw:	48.447	Thrust:	16.029
Time:	3.063	Roll Set Point:	-0.235	Pitch Set Point:	-0.114	Yaw Set Point:	-0.585	X_WP:	0.000	Y_WP:	0.000	Y_WP:	0.500	X:	0.100	Y:	0.093	Z:	0.402	yaw:	33.500	yaw rate:	-0.403	Roll:	4.219	Pitch:	0.711	Yaw:	48.271	Thrust:	16.122
Time:	3.078	Roll Set Point:	-0.235	Pitch Set Point:	-0.114	Yaw Set Point:	-0.585	X_WP:	0.000	Y_WP:	0.000	Y_WP:	0.500	X:	0.100	Y:	0.093	Z:	0.402	yaw:	33.500	yaw rate:	-0.403	Roll:	4.218	Pitch:	0.686	Yaw:	48.336	Thrust:	16.350
Time:	3.094	Roll Set Point:	-0.235	Pitch Set Point:	-0.114	Yaw Set Point:	-0.585	X_WP:	0.000	Y_WP:	0.000	Y_WP:	0.500	X:	0.100	Y:	0.093	Z:	0.402	yaw:	33.510	yaw rate:	1.808	Roll:	4.223	Pitch:	0.644	Yaw:	48.523	Thrust:	16.542
Time:	3.110	Roll Set Point:	-0.235	Pitch Set Point:	-0.114	Yaw Set Point:	-0.585	X_WP:	0.000	Y_WP:	0.000	Y_WP:	0.500	X:	0.100	Y:	0.093	Z:	0.402	yaw:	33.495	yaw rate:	-1.490	Roll:	4.232	Pitch:	0.715	Yaw:	48.084	Thrust:	16.927
Time:	3.125	Roll Set Point:	-0.235	Pitch Set Point:	-0.114	Yaw Set Point:	-0.585	X_WP:	0.000	Y_WP:	0.000	Y_WP:	0.500	X:	0.100	Y:	0.093	Z:	0.402	yaw:	33.493	yaw rate:	-0.230	Roll:	4.233	Pitch:	0.698	Yaw:	48.286	Thrust:	16.689
Time:	3.156	Roll Set Point:	-0.235	Pitch Set Point:	-0.114	Yaw Set Point:	-0.584	X_WP:	0.000	Y_WP:	0.000	Y_WP:	0.500	X:	0.100	Y:	0.093	Z:	0.402	yaw:	33.478	yaw rate:	-1.480	Roll:	4.562	Pitch:	0.777	Yaw:	49.682	Thrust:	28.364
Time:	3.172	Roll Set Point:	-0.235	Pitch Set Point:	-0.114	Yaw Set Point:	-0.584	X_WP:	0.000	Y_WP:	0.000	Y_WP:	0.500	X:	0.100	Y:	0.093	Z:	0.402	yaw:	33.484	yaw rate:	-2.967	Roll:	4.241	Pitch:	0.666	Yaw:	48.424	Thrust:	17.378
Time:	3.187	Roll Set Point:	-0.235	Pitch Set Point:	-0.114	Yaw Set Point:	-0.584	X_WP:	0.000	Y_WP:	0.000	Y_WP:	0.500	X:	0.100	Y:	0.093	Z:	0.402	yaw:	33.485	yaw rate:	0.097	Roll:	4.251	Pitch:	0.699	Yaw:	48.335	Thrust:	17.461
Time:	3.203	Roll Set Point:	-0.235	Pitch Set Point:	-0.114	Yaw Set Point:	-0.584	X_WP:	0.000	Y_WP:	0.000	Y_WP:	0.500	X:	0.100	Y:	0.093	Z:	0.402	yaw:	33.485	yaw rate:	0.097	Roll:	4.255	Pitch:	0.693	Yaw:	48.314	Thrust:	17.619
Time:	3.218	Roll Set Point:	-0.235	Pitch Set Point:	-0.114	Yaw Set Point:	-0.585	X_WP:	0.000	Y_WP:	0.000	Y_WP:	0.500	X:	0.100	Y:	0.093	Z:	0.402	yaw:	33.509	yaw rate:	2.143	Roll:	4.271	Pitch:	0.613	Yaw:	48.757	Thrust:	17.800
Time:	3.234	Roll Set Point:	-0.235	Pitch Set Point:	-0.114	Yaw Set Point:	-0.585	X_WP:	0.000	Y_WP:	0.000	Y_WP:	0.500	X:	0.100	Y:	0.093	Z:	0.402	yaw:	33.509	yaw rate:	2.143	Roll:	4.266	Pitch:	0.693	Yaw:	48.348	Thrust:	17.987
Time:	3.250	Roll Set Point:	-0.235	Pitch Set Point:	-0.114	Yaw Set Point:	-0.584	X_WP:	0.000	Y_WP:	0.000	Y_WP:	0.500	X:	0.100	Y:	0.093	Z:	0.402	yaw:	33.464	yaw rate:	-4.545	Roll:	4.252	Pitch:	0.812	Yaw:	47.530	Thrust:	18.250
Time:	3.265	Roll Set Point:	-0.235	Pitch Set Point:	-0.114	Yaw Set Point:	-0.585	X_WP:	0.000	Y_WP:	0.000	Y_WP:	0.500	X:	0.100	Y:	0.093	Z:	0.402	yaw:	33.493	yaw rate:	2.936	Roll:	4.285	Pitch:	0.646	Yaw:	48.818	Thrust:	18.383
Time:	3.281	Roll Set Point:	-0.235	Pitch Set Point:	-0.114	Yaw Set Point:	-0.585	X_WP:	0.000	Y_WP:	0.000	Y_WP:	0.500	X:	0.100	Y:	0.093	Z:	0.402	yaw:	33.494	yaw rate:	0.066	Roll:	4.300	Pitch:	0.699	Yaw:	48.343	Thrust:	18.562
Time:	3.297	Roll Set Point:	-0.235	Pitch Set Point:	-0.114	Yaw Set Point:	-0.585	X_WP:	0.000	Y_WP:	0.000	Y_WP:	0.500	X:	0.100	Y:	0.093	Z:	0.402	yaw:	33.511	yaw rate:	1.732	Roll:	4.308	Pitch:	0.642	Yaw:	48.641	Thrust:	18.823
Time:	3.312	Roll Set Point:	-0.235	Pitch Set Point:	-0.114	Yaw Set Point:	-0.585	X_WP:	0.000	Y_WP:	0.000	Y_WP:	0.500	X:	0.100	Y:	0.093	Z:	0.402	yaw:	33.507	yaw rate:	-0.450	Roll:	4.277	Pitch:	0.699	Yaw:	48.275	Thrust:	18.852
Time:	3.328	Roll Set Point:	-0.235	Pitch Set Point:	-0.114	Yaw Set Point:	-0.585	X_WP:	0.000	Y_WP:	0.000	Y_WP:	0.500	X:	0.100	Y:	0.093	Z:	0.402	yaw:	33.507	yaw rate:	-0.450	Roll:	4.298	Pitch:	0.698	Yaw:	48.347	Thrust:	19.105
Time:	3.343	Roll Set Point:	-0.235	Pitch Set Point:	-0.114	Yaw Set Point:	-0.585	X_WP:	0.000	Y_WP:	0.000	Y_WP:	0.500	X:	0.100	Y:	0.093	Z:	0.402	yaw:	33.516	yaw rate:	2.952	Roll:	4.296	Pitch:	0.690	Yaw:	48.514	Thrust:	19.260
Time:	3.362	Roll Set Point:	-0.235	Pitch Set Point:	-0.114	Yaw Set Point:	-0.585	X_WP:	0.000	Y_WP:	0.000	Y_WP:	0.500	X:	0.100	Y:	0.093	Z:	0.402	yaw:	33.503	yaw rate:	-1.263	Roll:	4.317	Pitch:	0.722	Yaw:	48.478	Thrust:	22.290
Time:	3.379	Roll Set Point:	-0.235	Pitch Set Point:	-0.114	Yaw Set Point:	-0.585	X_WP:	0.000	Y_WP:	0.000	Y_WP:	0.500	X:	0.100	Y:	0.093	Z:	0.402	yaw:	33.503	yaw rate:	-1.263	Roll:	4.435	Pitch:	0.721	Yaw:	48.497	Thrust:	21.073
Time:	3.395	Roll Set Point:	-0.235	Pitch Set Point:	-0.114	Yaw Set Point:	-0.585	X_WP:	0.000	Y_WP:	0.000	Y_WP:	0.500	X:	0.100	Y:	0.093	Z:	0.402	yaw:	33.509	yaw rate:	0.547	Roll:	4.321	Pitch:	0.683	Yaw:	48.438	Thrust:	19.945
Time:	3.411	Roll Set Point:	-0.235	Pitch Set Point:	-0.114	Yaw Set Point:	-0.584	X_WP:	0.000	Y_WP:	0.000	Y_WP:	0.500	X:	0.100	Y:	0.093	Z:	0.402	yaw:	33.477	yaw rate:	-0.587	Roll:	4.301	Pitch:	0.789	Yaw:	47.780	Thrust:	19.750
Time:	3.426	Roll Set Point:	-0.235	Pitch Set Point:	-0.114	Yaw Set Point:	-0.584	X_WP:	0.000	Y_WP:	0.000	Y_WP:	0.500	X:	0.100	Y:	0.093	Z:	0.402	yaw:	33.477	yaw rate:	-0.587	Roll:	4.329	Pitch:	0.706	Yaw:	48.306	Thrust:	20.202
Time:	3.442	Roll Set Point:	-0.235	Pitch Set Point:	-0.114	Yaw Set Point:	-0.584	X_WP:	0.000	Y_WP:	0.000	Y_WP:	0.500	X:	0.100	Y:	0.093	Z:	0.402	yaw:	33.489	yaw rate:	1.148	Roll:	4.343	Pitch:	0.673	Yaw:	48.517	Thrust:	20.639
Time:	3.457	Roll Set Point:	-0.235	Pitch Set Point:	-0.114	Yaw Set Point:	-0.584	X_WP:	0.000	Y_WP:	0.000	Y_WP:	0.500	X:	0.100	Y:	0.093	Z:	0.402	yaw:	33.487	yaw rate:	-3.130	Roll:	4.331	Pitch:	0.714	Yaw:	48.285	Thrust:	20.513
Time:	3.473	Roll Set Point:	-0.235	Pitch Set Point:	-0.115	Yaw Set Point:	-0.585	X_WP:	0.000	Y_WP:	0.000	Y_WP:	0.500	X:	0.100	Y:	0.093	Z:	0.402	yaw:	33.496	yaw rate:	0.911	Roll:	4.377	Pitch:	0.717	Yaw:	48.484	Thrust:	20.753
Time:	3.489	Roll Set Point:	-0.235	Pitch Set Point:	-0.114	Yaw Set Point:	-0.584	X_WP:	0.000	Y_WP:	0.000	Y_WP:	0.500	X:	0.100	Y:	0.093	Z:	0.402	yaw:	33.489	yaw rate:	-0.679	Roll:	4.323	Pitch:	0.703	Yaw:	48.209	Thrust:	20.887
Time:	3.504	Roll Set Point:	-0.235	Pitch Set Point:	-0.114	Yaw Set Point:	-0.585	X_WP:	0.000	Y_WP:	0.000	Y_WP:	0.500	X:	0.100	Y:	0.093	Z:	0.402	yaw:	33.532	yaw rate:	4.240	Roll:	4.365	Pitch:	0.581	Yaw:	49.092	Thrust:	21.255
Time:	3.520	Roll Set Point:	-0.235	Pitch Set Point:	-0.114	Yaw Set Point:	-0.585	X_WP:	0.000	Y_WP:	0.000	Y_WP:	0.500	X:	0.100	Y:	0.093	Z:	0.402	yaw:	33.490	yaw rate:	-4.134	Roll:	4.338	Pitch:	0.820	Yaw:	47.631	Thrust:	21.199
Time:	3.536	Roll Set Point:	-0.235	Pitch Set Point:	-0.115	Yaw Set Point:	-0.585	X_WP:	0.000	Y_WP:	0.000	Y_WP:	0.500	X:	0.100	Y:	0.093	Z:	0.402	yaw:	33.490	yaw rate:	-0.039	Roll:	4.410	Pitch:	0.757	Yaw:	48.317	Thrust:	21.482
Time:	3.551	Roll Set Point:	-0.235	Pitch Set Point:	-0.114	Yaw Set Point:	-0.585	X_WP:	0.000	Y_WP:	0.000	Y_WP:	0.500	X:	0.100	Y:	0.093	Z:	0.402	yaw:	33.492	yaw rate:	0.245	Roll:	4.361	Pitch:	0.685	Yaw:	48.368	Thrust:	21.562
Time:	3.567	Roll Set Point:	-0.235	Pitch Set Point:	-0.114	Yaw Set Point:	-0.585	X_WP:	0.000	Y_WP:	0.000	Y_WP:	0.500	X:	0.100	Y:	0.093	Z:	0.402	yaw:	33.504	yaw rate:	1.192	Roll:	4.372	Pitch:	0.640	Yaw:	48.543	Thrust:	22.023
Time:	3.583	Roll Set Point:	-0.235	Pitch Set Point:	-0.114	Yaw Set Point:	-0.585	X_WP:	0.000	Y_WP:	0.000	Y_WP:	0.500	X:	0.100	Y:	0.093	Z:	0.402	yaw:	33.516	yaw rate:	1.189	Roll:	4.366	Pitch:	0.679	Yaw:	48.560	Thrust:	22.001
Time:	3.598	Roll Set Point:	-0.235	Pitch Set Point:	-0.114	Yaw Set Point:	-0.585	X_WP:	0.000	Y_WP:	0.000	Y_WP:	0.500	X:	0.100	Y:	0.093	Z:	0.402	yaw:	33.498	yaw rate:	-1.820	Roll:	4.385	Pitch:	0.792	Yaw:	48.029	Thrust:	22.124
Time:	3.614	Roll Set Point:	-0.235	Pitch Set Point:	-0.115	Yaw Set Point:	-0.585	X_WP:	0.000	Y_WP:	0.000	Y_WP:	0.500	X:	0.100	Y:	0.093	Z:	0.402	yaw:	33.490	yaw rate:	-0.810	Roll:	4.416	Pitch:	0.753	Yaw:	48.188	Thrust:	22.470
Time:	3.629	Roll Set Point:	-0.235	Pitch Set Point:	-0.115	Yaw Set Point:	-0.585	X_WP:	0.000	Y_WP:	0.000	Y_WP:	0.500	X:	0.100	Y:	0.093	Z:	0.402	yaw:	33.490	yaw rate:	-0.810	Roll:	4.398	Pitch:	0.717	Yaw:	48.323	Thrust:	22.585
Time:	3.645	Roll Set Point:	-0.235	Pitch Set Point:	-0.114	Yaw Set Point:	-0.585	X_WP:	0.000	Y_WP:	0.000	Y_WP:	0.500	X:	0.100	Y:	0.093	Z:	0.402	yaw:	33.495	yaw rate:	0.546	Roll:	4.388	Pitch:	0.681	Yaw:	48.422	Thrust:	22.765
Time:	3.661	Roll Set Point:	-0.235	Pitch Set Point:	-0.114	Yaw Set Point:	-0.585	X_WP:	0.000	Y_WP:	0.000	Y_WP:	0.500	X:	0.100	Y:	0.093	Z:	0.402	yaw:	33.522	yaw rate:	2.641	Roll:	4.415	Pitch:	0.635	Yaw:	48.810	Thrust:	23.047
Time:	3.676	Roll Set Point:	-0.235	Pitch Set Point:	-0.114	Yaw Set Point:	-0.584	X_WP:	0.000	Y_WP:	0.000	Y_WP:	0.500	X:	0.100	Y:	0.093	Z:	0.402	yaw:	33.489	yaw rate:	0.107	Roll:	4.399	Pitch:	0.796	Yaw:	47.769	Thrust:	22.852
Time:	3.692	Roll Set Point:	-0.235	Pitch Set Point:	-0.114	Yaw Set Point:	-0.585	X_WP:	0.000	Y_WP:	0.000	Y_WP:	0.500	X:	0.100	Y:	0.093	Z:	0.402	yaw:	33.516	yaw rate:	2.685	Roll:	4.435	Pitch:	0.669	Yaw:	48.809	Thrust:	23.557
Time:	3.708	Roll Set Point:	-0.235	Pitch Set Point:	-0.114	Yaw Set Point:	-0.585	X_WP:	0.000	Y_WP:	0.000	Y_WP:	0.500	X:	0.100	Y:	0.092	Z:	0.402	yaw:	33.512	yaw rate:	-0.399	Roll:	4.388	Pitch:	0.686	Yaw:	48.287	Thrust:	23.460
Time:	3.723	Roll Set Point:	-0.235	Pitch Set Point:	-0.114	Yaw Set Point:	-0.584	X_WP:	0.000	Y_WP:	0.000	Y_WP:	0.500	X:	0.100	Y:	0.093	Z:	0.402	yaw:	33.485	yaw rate:	-2.706	Roll:	4.435	Pitch:	0.818	Yaw:	47.866	Thrust:	23.667
Time:	3.739	Roll Set Point:	-0.235	Pitch Set Point:	-0.114	Yaw Set Point:	-0.585	X_WP:	0.000	Y_WP:	0.000	Y_WP:	0.500	X:	0.100	Y:	0.093	Z:	0.402	yaw:	33.503	yaw rate:	1.867	Roll:	4.480	Pitch:	0.713	Yaw:	48.655	Thrust:	23.932
Time:	3.754	Roll Set Point:	-0.235	Pitch Set Point:	-0.114	Yaw Set Point:	-0.585	X_WP:	0.000	Y_WP:	0.000	Y_WP:	0.500	X:	0.100	Y:	0.093	Z:	0.402	yaw:	33.510	yaw rate:	0.652	Roll:	4.409	Pitch:	0.644	Yaw:	48.458	Thrust:	23.977
Time:	3.770	Roll Set Point:	-0.235	Pitch Set Point:	-0.114	Yaw Set Point:	-0.585	X_WP:	0.000	Y_WP:	0.000	Y_WP:	0.500	X:	0.100	Y:	0.092	Z:	0.402	yaw:	33.502	yaw rate:	-0.820	Roll:	4.422	Pitch:	0.731	Yaw:	48.202	Thrust:	24.312
Time:	3.786	Roll Set Point:	-0.235	Pitch Set Point:	-0.115	Yaw Set Point:	-0.584	X_WP:	0.000	Y_WP:	0.000	Y_WP:	0.500	X:	0.100	Y:	0.093	Z:	0.402	yaw:	33.477	yaw rate:	-2.425	Roll:	4.481	Pitch:	0.842	Yaw:	47.904	Thrust:	24.443
Time:	3.801	Roll Set Point:	-0.235	Pitch Set Point:	-0.114	Yaw Set Point:	-0.585	X_WP:	0.000	Y_WP:	0.000	Y_WP:	0.500	X:	0.100	Y:	0.093	Z:	0.402	yaw:	33.500	yaw rate:	2.252	Roll:	4.482	Pitch:	0.681	Yaw:	48.712	Thrust:	24.482
Time:	3.817	Roll Set Point:	-0.235	Pitch Set Point:	-0.114	Yaw Set Point:	-0.585	X_WP:	0.000	Y_WP:	0.000	Y_WP:	0.500	X:	0.100	Y:	0.093	Z:	0.402	yaw:	33.500	yaw rate:	2.252	Roll:	4.462	Pitch:	0.726	Yaw:	48.340	Thrust:	24.812
Time:	3.833	Roll Set Point:	-0.235	Pitch Set Point:	-0.114	Yaw Set Point:	-0.585	X_WP:	0.000	Y_WP:	0.000	Y_WP:	0.500	X:	0.100	Y:	0.093	Z:	0.402	yaw:	33.523	yaw rate:	2.637	Roll:	4.448	Pitch:	0.626	Yaw:	48.749	Thrust:	25.102
Time:	3.848	Roll Set Point:	-0.235	Pitch Set Point:	-0.114	Yaw Set Point:	-0.585	X_WP:	0.000	Y_WP:	0.000	Y_WP:	0.500	X:	0.100	Y:	0.093	Z:	0.402	yaw:	33.523	yaw rate:	2.637	Roll:	4.473	Pitch:	0.725	Yaw:	48.372	Thrust:	25.190
Time:	3.864	Roll Set Point:	-0.235	Pitch Set Point:	-0.114	Yaw Set Point:	-0.585	X_WP:	0.000	Y_WP:	0.000	Y_WP:	0.500	X:	0.100	Y:	0.093	Z:	0.402	yaw:	33.495	yaw rate:	-2.723	Roll:	4.441	Pitch:	0.786	Yaw:	47.871	Thrust:	25.166
Time:	3.879	Roll Set Point:	-0.235	Pitch Set Point:	-0.115	Yaw Set Point:	-0.584	X_WP:	0.000	Y_WP:	0.000	Y_WP:	0.500	X:	0.100	Y:	0.093	Z:	0.402	yaw:	33.485	yaw rate:	-1.080	Roll:	4.508	Pitch:	0.804	Yaw:	48.135	Thrust:	25.451
Time:	3.895	Roll Set Point:	-0.235	Pitch Set Point:	-0.115	Yaw Set Point:	-0.585	X_WP:	0.000	Y_WP:	0.000	Y_WP:	0.500	X:	0.100	Y:	0.093	Z:	0.402	yaw:	33.490	yaw rate:	0.537	Roll:	4.514	Pitch:	0.736	Yaw:	48.413	Thrust:	25.818
Time:	3.911	Roll Set Point:	-0.235	Pitch Set Point:	-0.114	Yaw Set Point:	-0.585	X_WP:	0.000	Y_WP:	0.000	Y_WP:	0.500	X:	0.100	Y:	0.093	Z:	0.402	yaw:	33.501	yaw rate:	2.353	Roll:	4.443	Pitch:	0.625	Yaw:	48.529	Thrust:	25.928
Time:	3.926	Roll Set Point:	-0.235	Pitch Set Point:	-0.115	Yaw Set Point:	-0.584	X_WP:	0.000	Y_WP:	0.000	Y_WP:	0.500	X:	0.100	Y:	0.093	Z:	0.402	yaw:	33.485	yaw rate:	-1.583	Roll:	4.520	Pitch:	0.851	Yaw:	48.048	Thrust:	26.046
Time:	3.942	Roll Set Point:	-0.235	Pitch Set Point:	-0.114	Yaw Set Point:	-0.585	X_WP:	0.000	Y_WP:	0.000	Y_WP:	0.500	X:	0.100	Y:	0.093	Z:	0.402	yaw:	33.496	yaw rate:	1.061	Roll:	4.477	Pitch:	0.670	Yaw:	48.510	Thrust:	26.063
Time:	3.958	Roll Set Point:	-0.235	Pitch Set Point:	-0.114	Yaw Set Point:	-0.585	X_WP:	0.000	Y_WP:	0.000	Y_WP:	0.500	X:	0.100	Y:	0.093	Z:	0.402	yaw:	33.504	yaw rate:	0.842	Roll:	4.497	Pitch:	0.704	Yaw:	48.484	Thrust:	26.590
Time:	3.973	Roll Set Point:	-0.235	Pitch Set Point:	-0.114	Yaw Set Point:	-0.585	X_WP:	0.000	Y_WP:	0.000	Y_WP:	0.500	X:	0.100	Y:	0.093	Z:	0.402	yaw:	33.505	yaw rate:	0.103	Roll:	4.474	Pitch:	0.741	Yaw:	48.362	Thrust:	26.723
Time:	3.989	Roll Set Point:	-0.235	Pitch Set Point:	-0.114	Yaw Set Point:	-0.585	X_WP:	0.000	Y_WP:	0.000	Y_WP:	0.500	X:	0.100	Y:	0.093	Z:	0.402	yaw:	33.498	yaw rate:	-0.705	Roll:	4.490	Pitch:	0.742	Yaw:	48.220	Thrust:	26.571
Time:	4.004	Roll Set Point:	-0.235	Pitch Set Point:	-0.114	Yaw Set Point:	-0.585	X_WP:	0.000	Y_WP:	0.000	Y_WP:	0.500	X:	0.100	Y:	0.093	Z:	0.402	yaw:	33.505	yaw rate:	0.626	Roll:	4.506	Pitch:	0.723	Yaw:	48.446	Thrust:	27.070
Time:	4.020	Roll Set Point:	-0.235	Pitch Set Point:	-0.114	Yaw Set Point:	-0.585	X_WP:	0.000	Y_WP:	0.000	Y_WP:	0.500	X:	0.100	Y:	0.093	Z:	0.402	yaw:	33.491	yaw rate:	-1.398	Roll:	4.461	Pitch:	0.743	Yaw:	48.090	Thrust:	27.187
Time:	4.036	Roll Set Point:	-0.235	Pitch Set Point:	-0.114	Yaw Set Point:	-0.585	X_WP:	0.000	Y_WP:	0.000	Y_WP:	0.500	X:	0.100	Y:	0.093	Z:	0.402	yaw:	33.506	yaw rate:	1.523	Roll:	4.509	Pitch:	0.725	Yaw:	48.601	Thrust:	27.329
Time:	4.051	Roll Set Point:	-0.235	Pitch Set Point:	-0.114	Yaw Set Point:	-0.585	X_WP:	0.000	Y_WP:	0.000	Y_WP:	0.500	X:	0.100	Y:	0.093	Z:	0.402	yaw:	33.496	yaw rate:	-0.940	Roll:	4.505	Pitch:	0.786	Yaw:	48.175	Thrust:	27.511
Time:	4.067	Roll Set Point:	-0.235	Pitch Set Point:	-0.114	Yaw Set Point:	-0.585	X_WP:	0.000	Y_WP:	0.000	Y_WP:	0.500	X:	0.100	Y:	0.093	Z:	0.402	yaw:	33.496	yaw rate:	-0.080	Roll:	4.469	Pitch:	0.734	Yaw:	48.318	Thrust:	27.589
Time:	4.083	Roll Set Point:	-0.235	Pitch Set Point:	-0.114	Yaw Set Point:	-0.585	X_WP:	0.000	Y_WP:	0.000	Y_WP:	0.500	X:	0.100	Y:	0.093	Z:	0.402	yaw:	33.497	yaw rate:	0.149	Roll:	4.464	Pitch:	0.707	Yaw:	48.362	Thrust:	28.063
Time:	4.098	Roll Set Point:	-0.235	Pitch Set Point:	-0.114	Yaw Set Point:	-0.585	X_WP:	0.000	Y_WP:	0.000	Y_WP:	0.500	X:	0.100	Y:	0.093	Z:	0.402	yaw:	33.497	yaw rate:	0.149	Roll:	4.487	Pitch:	0.740	Yaw:	48.330	Thrust:	28.025
Time:	4.114	Roll Set Point:	-0.235	Pitch Set Point:	-0.114	Yaw Set Point:	-0.585	X_WP:	0.000	Y_WP:	0.000	Y_WP:	0.500	X:	0.100	Y:	0.093	Z:	0.402	yaw:	33.494	yaw rate:	-1.832	Roll:	4.535	Pitch:	0.772	Yaw:	48.279	Thrust:	28.325
Time:	4.129	Roll Set Point:	-0.235	Pitch Set Point:	-0.115	Yaw Set Point:	-0.585	X_WP:	0.000	Y_WP:	0.000	Y_WP:	0.500	X:	0.100	Y:	0.093	Z:	0.402	yaw:	33.494	yaw rate:	-0.042	Roll:	4.478	Pitch:	0.782	Yaw:	48.324	Thrust:	28.398
Time:	4.157	Roll Set Point:	-0.235	Pitch Set Point:	-0.114	Yaw Set Point:	-0.584	X_WP:	0.000	Y_WP:	0.000	Y_WP:	0.500	X:	0.100	Y:	0.092	Z:	0.402	yaw:	33.487	yaw rate:	-0.442	Roll:	4.883	Pitch:	0.776	Yaw:	49.410	Thrust:	45.816
Time:	4.172	Roll Set Point:	-0.235	Pitch Set Point:	-0.114	Yaw Set Point:	-0.584	X_WP:	0.000	Y_WP:	0.000	Y_WP:	0.500	X:	0.100	Y:	0.092	Z:	0.402	yaw:	33.487	yaw rate:	-0.442	Roll:	4.488	Pitch:	0.744	Yaw:	48.320	Thrust:	28.811
Time:	4.188	Roll Set Point:	-0.235	Pitch Set Point:	-0.114	Yaw Set Point:	-0.585	X_WP:	0.000	Y_WP:	0.000	Y_WP:	0.500	X:	0.100	Y:	0.093	Z:	0.402	yaw:	33.504	yaw rate:	1.687	Roll:	4.557	Pitch:	0.773	Yaw:	48.626	Thrust:	28.990
Time:	4.203	Roll Set Point:	-0.235	Pitch Set Point:	-0.114	Yaw Set Point:	-0.585	X_WP:	0.000	Y_WP:	0.000	Y_WP:	0.500	X:	0.100	Y:	0.093	Z:	0.402	yaw:	33.504	yaw rate:	1.687	Roll:	4.490	Pitch:	0.746	Yaw:	48.343	Thrust:	29.182
Time:	4.219	Roll Set Point:	-0.235	Pitch Set Point:	-0.114	Yaw Set Point:	-0.585	X_WP:	0.000	Y_WP:	0.000	Y_WP:	0.500	X:	0.100	Y:	0.093	Z:	0.402	yaw:	33.514	yaw rate:	0.810	Roll:	4.468	Pitch:	0.683	Yaw:	48.527	Thrust:	29.396
Time:	4.235	Roll Set Point:	-0.235	Pitch Set Point:	-0.114	Yaw Set Point:	-0.585	X_WP:	0.000	Y_WP:	0.000	Y_WP:	0.500	X:	0.100	Y:	0.093	Z:	0.402	yaw:	33.499	yaw rate:	-1.557	Roll:	4.496	Pitch:	0.794	Yaw:	48.071	Thrust:	29.574
Time:	4.250	Roll Set Point:	-0.235	Pitch Set Point:	-0.114	Yaw Set Point:	-0.585	X_WP:	0.000	Y_WP:	0.000	Y_WP:	0.500	X:	0.100	Y:	0.093	Z:	0.402	yaw:	33.509	yaw rate:	1.002	Roll:	4.493	Pitch:	0.742	Yaw:	48.517	Thrust:	29.550
Time:	4.266	Roll Set Point:	-0.235	Pitch Set Point:	-0.115	Yaw Set Point:	-0.584	X_WP:	0.000	Y_WP:	0.000	Y_WP:	0.500	X:	0.100	Y:	0.093	Z:	0.402	yaw:	33.484	yaw rate:	-2.461	Roll:	4.514	Pitch:	0.848	Yaw:	47.906	Thrust:	30.084
Time:	4.282	Roll Set Point:	-0.235	Pitch Set Point:	-0.114	Yaw Set Point:	-0.584	X_WP:	0.000	Y_WP:	0.000	Y_WP:	0.500	X:	0.100	Y:	0.093	Z:	0.402	yaw:	33.489	yaw rate:	0.455	Roll:	4.458	Pitch:	0.697	Yaw:	48.395	Thrust:	29.982
Time:	4.297	Roll Set Point:	-0.235	Pitch Set Point:	-0.114	Yaw Set Point:	-0.584	X_WP:	0.000	Y_WP:	0.000	Y_WP:	0.500	X:	0.100	Y:	0.093	Z:	0.402	yaw:	33.489	yaw rate:	0.455	Roll:	4.489	Pitch:	0.752	Yaw:	48.321	Thrust:	30.276
Time:	4.313	Roll Set Point:	-0.235	Pitch Set Point:	-0.114	Yaw Set Point:	-0.585	X_WP:	0.000	Y_WP:	0.000	Y_WP:	0.500	X:	0.100	Y:	0.093	Z:	0.402	yaw:	33.495	yaw rate:	-1.437	Roll:	4.495	Pitch:	0.729	Yaw:	48.431	Thrust:	30.492
Time:	4.328	Roll Set Point:	-0.235	Pitch Set Point:	-0.115	Yaw Set Point:	-0.584	X_WP:	0.000	Y_WP:	0.000	Y_WP:	0.500	X:	0.100	Y:	0.093	Z:	0.402	yaw:	33.489	yaw rate:	-0.519	Roll:	4.506	Pitch:	0.814	Yaw:	48.236	Thrust:	30.633
Time:	4.344	Roll Set Point:	-0.235	Pitch Set Point:	-0.115	Yaw Set Point:	-0.584	X_WP:	0.000	Y_WP:	0.000	Y_WP:	0.500	X:	0.100	Y:	0.093	Z:	0.402	yaw:	33.489	yaw rate:	-0.519	Roll:	4.490	Pitch:	0.755	Yaw:	48.323	Thrust:	30.827
Time:	4.360	Roll Set Point:	-0.235	Pitch Set Point:	-0.114	Yaw Set Point:	-0.585	X_WP:	0.000	Y_WP:	0.000	Y_WP:	0.500	X:	0.100	Y:	0.093	Z:	0.402	yaw:	33.509	yaw rate:	0.467	Roll:	4.475	Pitch:	0.665	Yaw:	48.677	Thrust:	31.272
Time:	4.375	Roll Set Point:	-0.235	Pitch Set Point:	-0.114	Yaw Set Point:	-0.585	X_WP:	0.000	Y_WP:	0.000	Y_WP:	0.500	X:	0.100	Y:	0.093	Z:	0.402	yaw:	33.493	yaw rate:	-1.531	Roll:	4.493	Pitch:	0.809	Yaw:	48.067	Thrust:	30.778
Time:	4.391	Roll Set Point:	-0.235	Pitch Set Point:	-0.114	Yaw Set Point:	-0.585	X_WP:	0.000	Y_WP:	0.000	Y_WP:	0.500	X:	0.100	Y:	0.093	Z:	0.402	yaw:	33.497	yaw rate:	0.342	Roll:	4.498	Pitch:	0.751	Yaw:	48.390	Thrust:	31.447
Time:	4.407	Roll Set Point:	-0.235	Pitch Set Point:	-0.114	Yaw Set Point:	-0.585	X_WP:	0.000	Y_WP:	0.000	Y_WP:	0.500	X:	0.100	Y:	0.093	Z:	0.402	yaw:	33.521	yaw rate:	2.444	Roll:	4.469	Pitch:	0.669	Yaw:	48.777	Thrust:	31.725
Time:	4.422	Roll Set Point:	-0.235	Pitch Set Point:	-0.114	Yaw Set Point:	-0.585	X_WP:	0.000	Y_WP:	0.000	Y_WP:	0.500	X:	0.100	Y:	0.092	Z:	0.402	yaw:	33.502	yaw rate:	-1.931	Roll:	4.463	Pitch:	0.768	Yaw:	48.015	Thrust:	31.657
Time:	4.438	Roll Set Point:	-0.235	Pitch Set Point:	-0.114	Yaw Set Point:	-0.585	X_WP:	0.000	Y_WP:	0.000	Y_WP:	0.500	X:	0.100	Y:	0.093	Z:	0.402	yaw:	33.504	yaw rate:	0.208	Roll:	4.544	Pitch:	0.819	Yaw:	48.378	Thrust:	31.997
Time:	4.454	Roll Set Point:	-0.235	Pitch Set Point:	-0.115	Yaw Set Point:	-0.585	X_WP:	0.000	Y_WP:	0.000	Y_WP:	0.500	X:	0.100	Y:	0.093	Z:	0.402	yaw:	33.498	yaw rate:	-0.584	Roll:	4.516	Pitch:	0.804	Yaw:	48.237	Thrust:	32.069
Time:	4.469	Roll Set Point:	-0.235	Pitch Set Point:	-0.114	Yaw Set Point:	-0.585	X_WP:	0.000	Y_WP:	0.000	Y_WP:	0.500	X:	0.100	Y:	0.093	Z:	0.402	yaw:	33.498	yaw rate:	-0.017	Roll:	4.426	Pitch:	0.709	Yaw:	48.332	Thrust:	32.221
Time:	4.485	Roll Set Point:	-0.235	Pitch Set Point:	-0.114	Yaw Set Point:	-0.585	X_WP:	0.000	Y_WP:	0.000	Y_WP:	0.500	X:	0.100	Y:	0.093	Z:	0.402	yaw:	33.498	yaw rate:	-0.017	Roll:	4.489	Pitch:	0.761	Yaw:	48.335	Thrust:	32.474
Time:	4.500	Roll Set Point:	-0.235	Pitch Set Point:	-0.114	Yaw Set Point:	-0.585	X_WP:	0.000	Y_WP:	0.000	Y_WP:	0.500	X:	0.100	Y:	0.093	Z:	0.402	yaw:	33.519	yaw rate:	2.084	Roll:	4.508	Pitch:	0.680	Yaw:	48.713	Thrust:	32.784
Time:	4.516	Roll Set Point:	-0.235	Pitch Set Point:	-0.114	Yaw Set Point:	-0.584	X_WP:	0.000	Y_WP:	0.000	Y_WP:	0.500	X:	0.100	Y:	0.093	Z:	0.402	yaw:	33.483	yaw rate:	-3.534	Roll:	4.487	Pitch:	0.904	Yaw:	47.722	Thrust:	32.616
Time:	4.532	Roll Set Point:	-0.235	Pitch Set Point:	-0.114	Yaw Set Point:	-0.585	X_WP:	0.000	Y_WP:	0.000	Y_WP:	0.500	X:	0.100	Y:	0.093	Z:	0.402	yaw:	33.496	yaw rate:	1.213	Roll:	4.496	Pitch:	0.734	Yaw:	48.535	Thrust:	33.102
Time:	4.547	Roll Set Point:	-0.235	Pitch Set Point:	-0.114	Yaw Set Point:	-0.585	X_WP:	0.000	Y_WP:	0.000	Y_WP:	0.500	X:	0.100	Y:	0.093	Z:	0.402	yaw:	33.496	yaw rate:	1.213	Roll:	4.489	Pitch:	0.765	Yaw:	48.331	Thrust:	33.193
Time:	4.563	Roll Set Point:	-0.235	Pitch Set Point:	-0.114	Yaw Set Point:	-0.585	X_WP:	0.000	Y_WP:	0.000	Y_WP:	0.500	X:	0.100	Y:	0.092	Z:	0.402	yaw:	33.501	yaw rate:	-1.060	Roll:	4.457	Pitch:	0.696	Yaw:	48.426	Thrust:	33.415
Time:	4.579	Roll Set Point:	-0.235	Pitch Set Point:	-0.115	Yaw Set Point:	-0.585	X_WP:	0.000	Y_WP:	0.000	Y_WP:	0.500	X:	0.100	Y:	0.093	Z:	0.402	yaw:	33.494	yaw rate:	-0.654	Roll:	4.557	Pitch:	0.874	Yaw:	48.220	Thrust:	33.705
Time:	4.594	Roll Set Point:	-0.235	Pitch Set Point:	-0.114	Yaw Set Point:	-0.584	X_WP:	0.000	Y_WP:	0.000	Y_WP:	0.500	X:	0.100	Y:	0.093	Z:	0.402	yaw:	33.482	yaw rate:	-1.247	Roll:	4.418	Pitch:	0.750	Yaw:	48.103	Thrust:	33.560
Time:	4.610	Roll Set Point:	-0.235	Pitch Set Point:	-0.114	Yaw Set Point:	-0.585	X_WP:	0.000	Y_WP:	0.000	Y_WP:	0.500	X:	0.100	Y:	0.093	Z:	0.402	yaw:	33.494	yaw rate:	1.230	Roll:	4.491	Pitch:	0.718	Yaw:	48.538	Thrust:	34.108
Time:	4.625	Roll Set Point:	-0.235	Pitch Set Point:	-0.114	Yaw Set Point:	-0.585	X_WP:	0.000	Y_WP:	0.000	Y_WP:	0.500	X:	0.100	Y:	0.093	Z:	0.402	yaw:	33.521	yaw rate:	2.663	Roll:	4.528	Pitch:	0.716	Yaw:	48.813	Thrust:	34.279
Time:	4.641	Roll Set Point:	-0.235	Pitch Set Point:	-0.114	Yaw Set Point:	-0.585	X_WP:	0.000	Y_WP:	0.000	Y_WP:	0.500	X:	0.100	Y:	0.093	Z:	0.402	yaw:	33.521	yaw rate:	2.663	Roll:	4.490	Pitch:	0.768	Yaw:	48.367	Thrust:	34.311
Time:	4.657	Roll Set Point:	-0.235	Pitch Set Point:	-0.115	Yaw Set Point:	-0.584	X_WP:	0.000	Y_WP:	0.000	Y_WP:	0.500	X:	0.100	Y:	0.093	Z:	0.402	yaw:	33.486	yaw rate:	-1.248	Roll:	4.487	Pitch:	0.884	Yaw:	47.738	Thrust:	34.265
Time:	4.672	Roll Set Point:	-0.235	Pitch Set Point:	-0.114	Yaw Set Point:	-0.585	X_WP:	0.000	Y_WP:	0.000	Y_WP:	0.500	X:	0.100	Y:	0.093	Z:	0.402	yaw:	33.497	yaw rate:	1.052	Roll:	4.485	Pitch:	0.734	Yaw:	48.509	Thrust:	34.751
Time:	4.688	Roll Set Point:	-0.235	Pitch Set Point:	-0.114	Yaw Set Point:	-0.584	X_WP:	0.000	Y_WP:	0.000	Y_WP:	0.500	X:	0.100	Y:	0.093	Z:	0.402	yaw:	33.488	yaw rate:	-0.852	Roll:	4.459	Pitch:	0.750	Yaw:	48.179	Thrust:	34.729
Time:	4.704	Roll Set Point:	-0.235	Pitch Set Point:	-0.114	Yaw Set Point:	-0.585	X_WP:	0.000	Y_WP:	0.000	Y_WP:	0.500	X:	0.100	Y:	0.093	Z:	0.402	yaw:	33.492	yaw rate:	0.391	Roll:	4.498	Pitch:	0.777	Yaw:	48.392	Thrust:	35.095
Time:	4.719	Roll Set Point:	-0.235	Pitch Set Point:	-0.115	Yaw Set Point:	-0.584	X_WP:	0.000	Y_WP:	0.000	Y_WP:	0.500	X:	0.100	Y:	0.093	Z:	0.402	yaw:	33.486	yaw rate:	-0.662	Roll:	4.524	Pitch:	0.854	Yaw:	48.207	Thrust:	35.233
Time:	4.735	Roll Set Point:	-0.235	Pitch Set Point:	-0.114	Yaw Set Point:	-0.584	X_WP:	0.000	Y_WP:	0.000	Y_WP:	0.500	X:	0.100	Y:	0.093	Z:	0.402	yaw:	33.486	yaw rate:	0.038	Roll:	4.460	Pitch:	0.727	Yaw:	48.324	Thrust:	35.382
Time:	4.750	Roll Set Point:	-0.235	Pitch Set Point:	-0.114	Yaw Set Point:	-0.584	X_WP:	0.000	Y_WP:	0.000	Y_WP:	0.500	X:	0.100	Y:	0.093	Z:	0.402	yaw:	33.486	yaw rate:	0.038	Roll:	4.489	Pitch:	0.777	Yaw:	48.318	Thrust:	35.590
Time:	4.766	Roll Set Point:	-0.235	Pitch Set Point:	-0.114	Yaw Set Point:	-0.585	X_WP:	0.000	Y_WP:	0.000	Y_WP:	0.500	X:	0.100	Y:	0.093	Z:	0.402	yaw:	33.502	yaw rate:	-0.755	Roll:	4.497	Pitch:	0.741	Yaw:	48.613	Thrust:	35.782
Time:	4.782	Roll Set Point:	-0.235	Pitch Set Point:	-0.114	Yaw Set Point:	-0.585	X_WP:	0.000	Y_WP:	0.000	Y_WP:	0.500	X:	0.100	Y:	0.093	Z:	0.402	yaw:	33.490	yaw rate:	-1.270	Roll:	4.494	Pitch:	0.833	Yaw:	48.112	Thrust:	35.939
Time:	4.797	Roll Set Point:	-0.235	Pitch Set Point:	-0.114	Yaw Set Point:	-0.585	X_WP:	0.000	Y_WP:	0.000	Y_WP:	0.500	X:	0.100	Y:	0.093	Z:	0.402	yaw:	33.493	yaw rate:	0.363	Roll:	4.498	Pitch:	0.778	Yaw:	48.389	Thrust:	36.179
Time:	4.813	Roll Set Point:	-0.235	Pitch Set Point:	-0.114	Yaw Set Point:	-0.584	X_WP:	0.000	Y_WP:	0.000	Y_WP:	0.500	X:	0.100	Y:	0.093	Z:	0.402	yaw:	33.489	yaw rate:	-0.450	Roll:	4.469	Pitch:	0.766	Yaw:	48.246	Thrust:	36.404
Time:	4.829	Roll Set Point:	-0.235	Pitch Set Point:	-0.114	Yaw Set Point:	-0.585	X_WP:	0.000	Y_WP:	0.000	Y_WP:	0.500	X:	0.100	Y:	0.093	Z:	0.402	yaw:	33.506	yaw rate:	1.771	Roll:	4.483	Pitch:	0.692	Yaw:	48.646	Thrust:	36.465
Time:	4.844	Roll Set Point:	-0.235	Pitch Set Point:	-0.115	Yaw Set Point:	-0.585	X_WP:	0.000	Y_WP:	0.000	Y_WP:	0.500	X:	0.100	Y:	0.093	Z:	0.402	yaw:	33.493	yaw rate:	-1.387	Roll:	4.523	Pitch:	0.896	Yaw:	48.092	Thrust:	36.669
Time:	4.860	Roll Set Point:	-0.235	Pitch Set Point:	-0.115	Yaw Set Point:	-0.585	X_WP:	0.000	Y_WP:	0.000	Y_WP:	0.500	X:	0.100	Y:	0.093	Z:	0.402	yaw:	33.493	yaw rate:	-1.387	Roll:	4.490	Pitch:	0.783	Yaw:	48.327	Thrust:	36.860
Time:	4.875	Roll Set Point:	-0.235	Pitch Set Point:	-0.114	Yaw Set Point:	-0.585	X_WP:	0.000	Y_WP:	0.000	Y_WP:	0.500	X:	0.100	Y:	0.093	Z:	0.402	yaw:	33.505	yaw rate:	1.704	Roll:	4.448	Pitch:	0.682	Yaw:	48.546	Thrust:	37.014
Time:	4.891	Roll Set Point:	-0.235	Pitch Set Point:	-0.114	Yaw Set Point:	-0.585	X_WP:	0.000	Y_WP:	0.000	Y_WP:	0.500	X:	0.100	Y:	0.093	Z:	0.402	yaw:	33.520	yaw rate:	1.491	Roll:	4.518	Pitch:	0.784	Yaw:	48.614	Thrust:	37.462
Time:	4.907	Roll Set Point:	-0.235	Pitch Set Point:	-0.114	Yaw Set Point:	-0.585	X_WP:	0.000	Y_WP:	0.000	Y_WP:	0.500	X:	0.100	Y:	0.093	Z:	0.402	yaw:	33.493	yaw rate:	-2.649	Roll:	4.475	Pitch:	0.851	Yaw:	47.884	Thrust:	37.177
Time:	4.922	Roll Set Point:	-0.235	Pitch Set Point:	-0.115	Yaw Set Point:	-0.584	X_WP:	0.000	Y_WP:	0.000	Y_WP:	0.500	X:	0.100	Y:	0.093	Z:	0.402	yaw:	33.483	yaw rate:	-0.979	Roll:	4.510	Pitch:	0.842	Yaw:	48.151	Thrust:	37.563
Time:	4.938	Roll Set Point:	-0.235	Pitch Set Point:	-0.114	Yaw Set Point:	-0.584	X_WP:	0.000	Y_WP:	0.000	Y_WP:	0.500	X:	0.100	Y:	0.093	Z:	0.402	yaw:	33.484	yaw rate:	0.037	Roll:	4.474	Pitch:	0.756	Yaw:	48.324	Thrust:	38.061
Time:	4.954	Roll Set Point:	-0.235	Pitch Set Point:	-0.114	Yaw Set Point:	-0.585	X_WP:	0.000	Y_WP:	0.000	Y_WP:	0.500	X:	0.100	Y:	0.092	Z:	0.402	yaw:	33.491	yaw rate:	0.722	Roll:	4.451	Pitch:	0.725	Yaw:	48.443	Thrust:	37.787
Time:	4.969	Roll Set Point:	-0.235	Pitch Set Point:	-0.114	Yaw Set Point:	-0.585	X_WP:	0.000	Y_WP:	0.000	Y_WP:	0.500	X:	0.100	Y:	0.093	Z:	0.402	yaw:	33.502	yaw rate:	1.139	Roll:	4.538	Pitch:	0.789	Yaw:	48.531	Thrust:	38.144
Time:	4.985	Roll Set Point:	-0.235	Pitch Set Point:	-0.114	Yaw Set Point:	-0.585	X_WP:	0.000	Y_WP:	0.000	Y_WP:	0.500	X:	0.100	Y:	0.093	Z:	0.402	yaw:	33.497	yaw rate:	-0.552	Roll:	4.486	Pitch:	0.832	Yaw:	48.244	Thrust:	38.338
Time:	5.000	Roll Set Point:	-0.235	Pitch Set Point:	-0.114	Yaw Set Point:	-0.584	X_WP:	0.000	Y_WP:	0.000	Y_WP:	0.500	X:	0.100	Y:	0.093	Z:	0.402	yaw:	33.481	yaw rate:	-1.523	Roll:	4.481	Pitch:	0.811	Yaw:	48.053	Thrust:	38.475
Time:	5.016	Roll Set Point:	-0.235	Pitch Set Point:	-0.114	Yaw Set Point:	-0.584	X_WP:	0.000	Y_WP:	0.000	Y_WP:	0.500	X:	0.100	Y:	0.093	Z:	0.402	yaw:	33.481	yaw rate:	-1.523	Roll:	4.490	Pitch:	0.792	Yaw:	48.315	Thrust:	38.764
Time:	5.032	Roll Set Point:	-0.235	Pitch Set Point:	-0.114	Yaw Set Point:	-0.585	X_WP:	0.000	Y_WP:	0.000	Y_WP:	0.500	X:	0.100	Y:	0.093	Z:	0.402	yaw:	33.514	yaw rate:	0.130	Roll:	4.502	Pitch:	0.710	Yaw:	48.900	Thrust:	39.002
Time:	5.047	Roll Set Point:	-0.235	Pitch Set Point:	-0.115	Yaw Set Point:	-0.584	X_WP:	0.000	Y_WP:	0.000	Y_WP:	0.500	X:	0.100	Y:	0.093	Z:	0.402	yaw:	33.458	yaw rate:	-5.594	Roll:	4.480	Pitch:	0.977	Yaw:	47.342	Thrust:	38.936
Time:	5.063	Roll Set Point:	-0.235	Pitch Set Point:	-0.114	Yaw Set Point:	-0.585	X_WP:	0.000	Y_WP:	0.000	Y_WP:	0.500	X:	0.100	Y:	0.093	Z:	0.402	yaw:	33.496	yaw rate:	3.807	Roll:	4.507	Pitch:	0.681	Yaw:	48.972	Thrust:	39.351
Time:	5.079	Roll Set Point:	-0.235	Pitch Set Point:	-0.114	Yaw Set Point:	-0.585	X_WP:	0.000	Y_WP:	0.000	Y_WP:	0.500	X:	0.100	Y:	0.093	Z:	0.402	yaw:	33.496	yaw rate:	3.807	Roll:	4.489	Pitch:	0.795	Yaw:	48.329	Thrust:	39.370
Time:	5.094	Roll Set Point:	-0.235	Pitch Set Point:	-0.114	Yaw Set Point:	-0.585	X_WP:	0.000	Y_WP:	0.000	Y_WP:	0.500	X:	0.100	Y:	0.093	Z:	0.402	yaw:	33.504	yaw rate:	1.622	Roll:	4.467	Pitch:	0.746	Yaw:	48.474	Thrust:	39.631
Time:	5.110	Roll Set Point:	-0.235	Pitch Set Point:	-0.114	Yaw Set Point:	-0.585	X_WP:	0.000	Y_WP:	0.000	Y_WP:	0.500	X:	0.100	Y:	0.093	Z:	0.402	yaw:	33.504	yaw rate:	1.622	Roll:	4.489	Pitch:	0.795	Yaw:	48.343	Thrust:	39.803
Time:	5.125	Roll Set Point:	-0.235	Pitch Set Point:	-0.115	Yaw Set Point:	-0.584	X_WP:	0.000	Y_WP:	0.000	Y_WP:	0.500	X:	0.100	Y:	0.093	Z:	0.402	yaw:	33.482	yaw rate:	-2.222	Roll:	4.512	Pitch:	0.882	Yaw:	47.940	Thrust:	39.876
Time:	5.156	Roll Set Point:	-0.235	Pitch Set Point:	-0.115	Yaw Set Point:	-0.584	X_WP:	0.000	Y_WP:	0.000	Y_WP:	0.500	X:	0.100	Y:	0.093	Z:	0.402	yaw:	33.481	yaw rate:	-0.042	Roll:	5.032	Pitch:	0.945	Yaw:	49.773	Thrust:	72.797
Time:	5.171	Roll Set Point:	-0.235	Pitch Set Point:	-0.114	Yaw Set Point:	-0.584	X_WP:	0.000	Y_WP:	0.000	Y_WP:	0.500	X:	0.100	Y:	0.093	Z:	0.402	yaw:	33.488	yaw rate:	-2.504	Roll:	4.475	Pitch:	0.767	Yaw:	48.428	Thrust:	40.365
Time:	5.187	Roll Set Point:	-0.235	Pitch Set Point:	-0.115	Yaw Set Point:	-0.585	X_WP:	0.000	Y_WP:	0.000	Y_WP:	0.500	X:	0.100	Y:	0.093	Z:	0.402	yaw:	33.491	yaw rate:	0.366	Roll:	4.526	Pitch:	0.854	Yaw:	48.387	Thrust:	40.528
Time:	5.203	Roll Set Point:	-0.235	Pitch Set Point:	-0.114	Yaw Set Point:	-0.584	X_WP:	0.000	Y_WP:	0.000	Y_WP:	0.500	X:	0.100	Y:	0.093	Z:	0.402	yaw:	33.485	yaw rate:	-0.668	Roll:	4.447	Pitch:	0.748	Yaw:	48.207	Thrust:	40.752
Time:	5.218	Roll Set Point:	-0.235	Pitch Set Point:	-0.114	Yaw Set Point:	-0.585	X_WP:	0.000	Y_WP:	0.000	Y_WP:	0.500	X:	0.100	Y:	0.093	Z:	0.402	yaw:	33.518	yaw rate:	3.293	Roll:	4.513	Pitch:	0.715	Yaw:	48.914	Thrust:	41.116
Time:	5.234	Roll Set Point:	-0.235	Pitch Set Point:	-0.114	Yaw Set Point:	-0.585	X_WP:	0.000	Y_WP:	0.000	Y_WP:	0.500	X:	0.100	Y:	0.093	Z:	0.402	yaw:	33.491	yaw rate:	-2.634	Roll:	4.481	Pitch:	0.891	Yaw:	47.880	Thrust:	40.820
Time:	5.250	Roll Set Point:	-0.235	Pitch Set Point:	-0.115	Yaw Set Point:	-0.584	X_WP:	0.000	Y_WP:	0.000	Y_WP:	0.500	X:	0.100	Y:	0.093	Z:	0.402	yaw:	33.484	yaw rate:	-0.685	Roll:	4.503	Pitch:	0.861	Yaw:	48.204	Thrust:	41.358
Time:	5.265	Roll Set Point:	-0.235	Pitch Set Point:	-0.114	Yaw Set Point:	-0.584	X_WP:	0.000	Y_WP:	0.000	Y_WP:	0.500	X:	0.100	Y:	0.093	Z:	0.402	yaw:	33.485	yaw rate:	0.010	Roll:	4.457	Pitch:	0.739	Yaw:	48.317	Thrust:	41.403
Time:	5.281	Roll Set Point:	-0.235	Pitch Set Point:	-0.114	Yaw Set Point:	-0.584	X_WP:	0.000	Y_WP:	0.000	Y_WP:	0.500	X:	0.100	Y:	0.093	Z:	0.402	yaw:	33.485	yaw rate:	0.010	Roll:	4.488	Pitch:	0.804	Yaw:	48.313	Thrust:	41.561
Time:	5.296	Roll Set Point:	-0.235	Pitch Set Point:	-0.114	Yaw Set Point:	-0.585	X_WP:	0.000	Y_WP:	0.000	Y_WP:	0.500	X:	0.100	Y:	0.093	Z:	0.402	yaw:	33.513	yaw rate:	0.573	Roll:	4.525	Pitch:	0.737	Yaw:	48.837	Thrust:	42.034
Time:	5.312	Roll Set Point:	-0.235	Pitch Set Point:	-0.115	Yaw Set Point:	-0.584	X_WP:	0.000	Y_WP:	0.000	Y_WP:	0.500	X:	0.100	Y:	0.093	Z:	0.402	yaw:	33.475	yaw rate:	-3.863	Roll:	4.463	Pitch:	0.930	Yaw:	47.650	Thrust:	41.759
Time:	5.328	Roll Set Point:	-0.235	Pitch Set Point:	-0.114	Yaw Set Point:	-0.585	X_WP:	0.000	Y_WP:	0.000	Y_WP:	0.500	X:	0.100	Y:	0.093	Z:	0.402	yaw:	33.518	yaw rate:	4.342	Roll:	4.525	Pitch:	0.704	Yaw:	49.090	Thrust:	42.320
Time:	5.343	Roll Set Point:	-0.235	Pitch Set Point:	-0.114	Yaw Set Point:	-0.585	X_WP:	0.000	Y_WP:	0.000	Y_WP:	0.500	X:	0.100	Y:	0.093	Z:	0.402	yaw:	33.492	yaw rate:	-2.574	Roll:	4.445	Pitch:	0.835	Yaw:	47.906	Thrust:	42.487
Time:	5.359	Roll Set Point:	-0.235	Pitch Set Point:	-0.114	Yaw Set Point:	-0.585	X_WP:	0.000	Y_WP:	0.000	Y_WP:	0.500	X:	0.100	Y:	0.093	Z:	0.402	yaw:	33.492	yaw rate:	-2.574	Roll:	4.486	Pitch:	0.808	Yaw:	48.318	Thrust:	42.354
Time:	5.375	Roll Set Point:	-0.235	Pitch Set Point:	-0.114	Yaw Set Point:	-0.585	X_WP:	0.000	Y_WP:	0.000	Y_WP:	0.500	X:	0.100	Y:	0.093	Z:	0.402	yaw:	33.515	yaw rate:	2.301	Roll:	4.516	Pitch:	0.759	Yaw:	48.744	Thrust:	42.868
Time:	5.390	Roll Set Point:	-0.235	Pitch Set Point:	-0.115	Yaw Set Point:	-0.584	X_WP:	0.000	Y_WP:	0.000	Y_WP:	0.500	X:	0.100	Y:	0.093	Z:	0.402	yaw:	33.484	yaw rate:	-0.160	Roll:	4.491	Pitch:	0.943	Yaw:	47.790	Thrust:	42.800
Time:	5.406	Roll Set Point:	-0.235	Pitch Set Point:	-0.114	Yaw Set Point:	-0.585	X_WP:	0.000	Y_WP:	0.000	Y_WP:	0.500	X:	0.100	Y:	0.093	Z:	0.402	yaw:	33.522	yaw rate:	3.858	Roll:	4.469	Pitch:	0.636	Yaw:	49.015	Thrust:	43.110
Time:	5.421	Roll Set Point:	-0.235	Pitch Set Point:	-0.114	Yaw Set Point:	-0.585	X_WP:	0.000	Y_WP:	0.000	Y_WP:	0.500	X:	0.100	Y:	0.093	Z:	0.402	yaw:	33.517	yaw rate:	-0.495	Roll:	4.511	Pitch:	0.854	Yaw:	48.279	Thrust:	43.388
Time:	5.437	Roll Set Point:	-0.235	Pitch Set Point:	-0.114	Yaw Set Point:	-0.585	X_WP:	0.000	Y_WP:	0.000	Y_WP:	0.500	X:	0.100	Y:	0.093	Z:	0.402	yaw:	33.492	yaw rate:	-2.581	Roll:	4.489	Pitch:	0.892	Yaw:	47.897	Thrust:	43.421
Time:	5.453	Roll Set Point:	-0.235	Pitch Set Point:	-0.114	Yaw Set Point:	-0.585	X_WP:	0.000	Y_WP:	0.000	Y_WP:	0.500	X:	0.100	Y:	0.093	Z:	0.402	yaw:	33.510	yaw rate:	1.848	Roll:	4.486	Pitch:	0.761	Yaw:	48.659	Thrust:	43.584
Time:	5.468	Roll Set Point:	-0.235	Pitch Set Point:	-0.114	Yaw Set Point:	-0.585	X_WP:	0.000	Y_WP:	0.000	Y_WP:	0.500	X:	0.100	Y:	0.093	Z:	0.402	yaw:	33.496	yaw rate:	-1.406	Roll:	4.466	Pitch:	0.820	Yaw:	48.097	Thrust:	43.803
Time:	5.484	Roll Set Point:	-0.235	Pitch Set Point:	-0.114	Yaw Set Point:	-0.585	X_WP:	0.000	Y_WP:	0.000	Y_WP:	0.500	X:	0.100	Y:	0.093	Z:	0.402	yaw:	33.500	yaw rate:	0.427	Roll:	4.499	Pitch:	0.816	Yaw:	48.409	Thrust:	44.073
Time:	5.500	Roll Set Point:	-0.235	Pitch Set Point:	-0.114	Yaw Set Point:	-0.585	X_WP:	0.000	Y_WP:	0.000	Y_WP:	0.500	X:	0.100	Y:	0.093	Z:	0.402	yaw:	33.491	yaw rate:	-0.965	Roll:	4.514	Pitch:	0.860	Yaw:	48.163	Thrust:	44.116
Time:	5.515	Roll Set Point:	-0.235	Pitch Set Point:	-0.115	Yaw Set Point:	-0.584	X_WP:	0.000	Y_WP:	0.000	Y_WP:	0.500	X:	0.100	Y:	0.093	Z:	0.402	yaw:	33.479	yaw rate:	-1.199	Roll:	4.465	Pitch:	0.856	Yaw:	48.107	Thrust:	44.469
Time:	5.531	Roll Set Point:	-0.235	Pitch Set Point:	-0.114	Yaw Set Point:	-0.585	X_WP:	0.000	Y_WP:	0.000	Y_WP:	0.500	X:	0.100	Y:	0.093	Z:	0.402	yaw:	33.495	yaw rate:	1.605	Roll:	4.473	Pitch:	0.752	Yaw:	48.599	Thrust:	44.552
Time:	5.546	Roll Set Point:	-0.235	Pitch Set Point:	-0.114	Yaw Set Point:	-0.585	X_WP:	0.000	Y_WP:	0.000	Y_WP:	0.500	X:	0.100	Y:	0.093	Z:	0.402	yaw:	33.495	yaw rate:	1.605	Roll:	4.489	Pitch:	0.819	Yaw:	48.330	Thrust:	44.747
Time:	5.562	Roll Set Point:	-0.235	Pitch Set Point:	-0.114	Yaw Set Point:	-0.585	X_WP:	0.000	Y_WP:	0.000	Y_WP:	0.500	X:	0.100	Y:	0.093	Z:	0.402	yaw:	33.497	yaw rate:	-0.629	Roll:	4.534	Pitch:	0.840	Yaw:	48.366	Thrust:	44.878
Time:	5.578	Roll Set Point:	-0.235	Pitch Set Point:	-0.114	Yaw Set Point:	-0.585	X_WP:	0.000	Y_WP:	0.000	Y_WP:	0.500	X:	0.100	Y:	0.093	Z:	0.402	yaw:	33.506	yaw rate:	0.907	Roll:	4.472	Pitch:	0.810	Yaw:	48.498	Thrust:	45.090
Time:	5.593	Roll Set Point:	-0.235	Pitch Set Point:	-0.114	Yaw Set Point:	-0.585	X_WP:	0.000	Y_WP:	0.000	Y_WP:	0.500	X:	0.100	Y:	0.092	Z:	0.402	yaw:	33.498	yaw rate:	-0.795	Roll:	4.455	Pitch:	0.774	Yaw:	48.203	Thrust:	45.317
Time:	5.609	Roll Set Point:	-0.235	Pitch Set Point:	-0.114	Yaw Set Point:	-0.585	X_WP:	0.000	Y_WP:	0.000	Y_WP:	0.500	X:	0.100	Y:	0.093	Z:	0.402	yaw:	33.499	yaw rate:	0.135	Roll:	4.505	Pitch:	0.851	Yaw:	48.360	Thrust:	45.595
Time:	5.627	Roll Set Point:	-0.235	Pitch Set Point:	-0.115	Yaw Set Point:	-0.584	X_WP:	0.000	Y_WP:	0.000	Y_WP:	0.500	X:	0.100	Y:	0.093	Z:	0.402	yaw:	33.487	yaw rate:	-1.233	Roll:	4.597	Pitch:	0.907	Yaw:	48.304	Thrust:	49.998
Time:	5.644	Roll Set Point:	-0.235	Pitch Set Point:	-0.115	Yaw Set Point:	-0.584	X_WP:	0.000	Y_WP:	0.000	Y_WP:	0.500	X:	0.100	Y:	0.093	Z:	0.402	yaw:	33.487	yaw rate:	-1.233	Roll:	4.584	Pitch:	0.856	Yaw:	48.570	Thrust:	52.352
Time:	5.660	Roll Set Point:	-0.235	Pitch Set Point:	-0.114	Yaw Set Point:	-0.585	X_WP:	0.000	Y_WP:	0.000	Y_WP:	0.500	X:	0.100	Y:	0.093	Z:	0.402	yaw:	33.521	yaw rate:	3.454	Roll:	4.468	Pitch:	0.722	Yaw:	48.946	Thrust:	46.062
Time:	5.676	Roll Set Point:	-0.235	Pitch Set Point:	-0.114	Yaw Set Point:	-0.585	X_WP:	0.000	Y_WP:	0.000	Y_WP:	0.500	X:	0.100	Y:	0.093	Z:	0.402	yaw:	33.499	yaw rate:	-2.243	Roll:	4.451	Pitch:	0.852	Yaw:	47.960	Thrust:	46.190
Time:	5.691	Roll Set Point:	-0.235	Pitch Set Point:	-0.114	Yaw Set Point:	-0.585	X_WP:	0.000	Y_WP:	0.000	Y_WP:	0.500	X:	0.100	Y:	0.093	Z:	0.402	yaw:	33.501	yaw rate:	0.846	Roll:	4.527	Pitch:	0.847	Yaw:	48.381	Thrust:	46.517
Time:	5.707	Roll Set Point:	-0.235	Pitch Set Point:	-0.114	Yaw Set Point:	-0.584	X_WP:	0.000	Y_WP:	0.000	Y_WP:	0.500	X:	0.100	Y:	0.093	Z:	0.402	yaw:	33.480	yaw rate:	-2.111	Roll:	4.462	Pitch:	0.861	Yaw:	47.957	Thrust:	46.336
Time:	5.723	Roll Set Point:	-0.235	Pitch Set Point:	-0.114	Yaw Set Point:	-0.584	X_WP:	0.000	Y_WP:	0.000	Y_WP:	0.500	X:	0.100	Y:	0.093	Z:	0.402	yaw:	33.486	yaw rate:	0.549	Roll:	4.482	Pitch:	0.848	Yaw:	48.410	Thrust:	46.939
Time:	5.738	Roll Set Point:	-0.235	Pitch Set Point:	-0.114	Yaw Set Point:	-0.585	X_WP:	0.000	Y_WP:	0.000	Y_WP:	0.500	X:	0.100	Y:	0.093	Z:	0.402	yaw:	33.493	yaw rate:	0.739	Roll:	4.506	Pitch:	0.758	Yaw:	48.452	Thrust:	46.833
Time:	5.754	Roll Set Point:	-0.235	Pitch Set Point:	-0.115	Yaw Set Point:	-0.585	X_WP:	0.000	Y_WP:	0.000	Y_WP:	0.500	X:	0.100	Y:	0.093	Z:	0.402	yaw:	33.490	yaw rate:	-0.349	Roll:	4.515	Pitch:	0.894	Yaw:	48.265	Thrust:	47.332
Time:	5.769	Roll Set Point:	-0.235	Pitch Set Point:	-0.115	Yaw Set Point:	-0.585	X_WP:	0.000	Y_WP:	0.000	Y_WP:	0.500	X:	0.100	Y:	0.093	Z:	0.402	yaw:	33.490	yaw rate:	-0.349	Roll:	4.490	Pitch:	0.832	Yaw:	48.323	Thrust:	47.313
Time:	5.785	Roll Set Point:	-0.235	Pitch Set Point:	-0.114	Yaw Set Point:	-0.585	X_WP:	0.000	Y_WP:	0.000	Y_WP:	0.500	X:	0.100	Y:	0.093	Z:	0.402	yaw:	33.504	yaw rate:	1.173	Roll:	4.466	Pitch:	0.785	Yaw:	48.580	Thrust:	47.382
Time:	5.801	Roll Set Point:	-0.235	Pitch Set Point:	-0.114	Yaw Set Point:	-0.585	X_WP:	0.000	Y_WP:	0.000	Y_WP:	0.500	X:	0.100	Y:	0.093	Z:	0.402	yaw:	33.504	yaw rate:	1.173	Roll:	4.489	Pitch:	0.833	Yaw:	48.343	Thrust:	47.675
Time:	5.816	Roll Set Point:	-0.235	Pitch Set Point:	-0.114	Yaw Set Point:	-0.584	X_WP:	0.000	Y_WP:	0.000	Y_WP:	0.500	X:	0.100	Y:	0.093	Z:	0.402	yaw:	33.486	yaw rate:	-1.611	Roll:	4.501	Pitch:	0.861	Yaw:	48.020	Thrust:	47.850
Time:	5.832	Roll Set Point:	-0.235	Pitch Set Point:	-0.114	Yaw Set Point:	-0.584	X_WP:	0.000	Y_WP:	0.000	Y_WP:	0.500	X:	0.100	Y:	0.093	Z:	0.402	yaw:	33.486	yaw rate:	-1.611	Roll:	4.489	Pitch:	0.835	Yaw:	48.318	Thrust:	48.041
Time:	5.848	Roll Set Point:	-0.235	Pitch Set Point:	-0.114	Yaw Set Point:	-0.585	X_WP:	0.000	Y_WP:	0.000	Y_WP:	0.500	X:	0.100	Y:	0.093	Z:	0.402	yaw:	33.507	yaw rate:	0.282	Roll:	4.469	Pitch:	0.779	Yaw:	48.704	Thrust:	48.282
Time:	5.863	Roll Set Point:	-0.235	Pitch Set Point:	-0.114	Yaw Set Point:	-0.585	X_WP:	0.000	Y_WP:	0.000	Y_WP:	0.500	X:	0.100	Y:	0.093	Z:	0.402	yaw:	33.507	yaw rate:	0.282	Roll:	4.488	Pitch:	0.835	Yaw:	48.344	Thrust:	48.324
Time:	5.879	Roll Set Point:	-0.235	Pitch Set Point:	-0.115	Yaw Set Point:	-0.584	X_WP:	0.000	Y_WP:	0.000	Y_WP:	0.500	X:	0.100	Y:	0.093	Z:	0.402	yaw:	33.471	yaw rate:	-3.646	Roll:	4.507	Pitch:	0.949	Yaw:	47.686	Thrust:	48.558
Time:	5.894	Roll Set Point:	-0.235	Pitch Set Point:	-0.114	Yaw Set Point:	-0.585	X_WP:	0.000	Y_WP:	0.000	Y_WP:	0.500	X:	0.100	Y:	0.093	Z:	0.402	yaw:	33.499	yaw rate:	-1.534	Roll:	4.460	Pitch:	0.735	Yaw:	48.814	Thrust:	48.842
Time:	5.910	Roll Set Point:	-0.235	Pitch Set Point:	-0.114	Yaw Set Point:	-0.584	X_WP:	0.000	Y_WP:	0.000	Y_WP:	0.500	X:	0.100	Y:	0.093	Z:	0.402	yaw:	33.487	yaw rate:	-1.233	Roll:	4.491	Pitch:	0.886	Yaw:	48.116	Thrust:	49.026
Time:	5.926	Roll Set Point:	-0.235	Pitch Set Point:	-0.114	Yaw Set Point:	-0.585	X_WP:	0.000	Y_WP:	0.000	Y_WP:	0.500	X:	0.100	Y:	0.093	Z:	0.402	yaw:	33.508	yaw rate:	2.124	Roll:	4.538	Pitch:	0.801	Yaw:	48.702	Thrust:	49.157
Time:	5.941	Roll Set Point:	-0.235	Pitch Set Point:	-0.114	Yaw Set Point:	-0.585	X_WP:	0.000	Y_WP:	0.000	Y_WP:	0.500	X:	0.100	Y:	0.093	Z:	0.402	yaw:	33.508	yaw rate:	2.124	Roll:	4.490	Pitch:	0.840	Yaw:	48.349	Thrust:	49.325
Time:	5.957	Roll Set Point:	-0.235	Pitch Set Point:	-0.114	Yaw Set Point:	-0.585	X_WP:	0.000	Y_WP:	0.000	Y_WP:	0.500	X:	0.100	Y:	0.093	Z:	0.402	yaw:	33.500	yaw rate:	-1.026	Roll:	4.450	Pitch:	0.846	Yaw:	48.201	Thrust:	49.451
Time:	5.973	Roll Set Point:	-0.235	Pitch Set Point:	-0.114	Yaw Set Point:	-0.585	X_WP:	0.000	Y_WP:	0.000	Y_WP:	0.500	X:	0.100	Y:	0.093	Z:	0.402	yaw:	33.505	yaw rate:	0.543	Roll:	4.485	Pitch:	0.818	Yaw:	48.440	Thrust:	49.788
Time:	5.988	Roll Set Point:	-0.235	Pitch Set Point:	-0.114	Yaw Set Point:	-0.585	X_WP:	0.000	Y_WP:	0.000	Y_WP:	0.500	X:	0.100	Y:	0.093	Z:	0.402	yaw:	33.490	yaw rate:	-1.511	Roll:	4.514	Pitch:	0.903	Yaw:	48.070	Thrust:	49.862
Time:	6.004	Roll Set Point:	-0.081	Pitch Set Point:	-0.033	Yaw Set Point:	-0.585	X_WP:	0.084	Y_WP:	0.153	Y_WP:	0.500	X:	0.100	Y:	0.093	Z:	0.402	yaw:	33.496	yaw rate:	0.525	Roll:	-30.000	Pitch:	-30.000	Yaw:	48.416	Thrust:	50.004
Time:	6.019	Roll Set Point:	-0.081	Pitch Set Point:	-0.033	Yaw Set Point:	-0.585	X_WP:	0.084	Y_WP:	0.153	Y_WP:	0.500	X:	0.100	Y:	0.093	Z:	0.402	yaw:	33.503	yaw rate:	0.776	Roll:	0.012	Pitch:	-1.507	Yaw:	48.474	Thrust:	50.203
Time:	6.035	Roll Set Point:	-0.081	Pitch Set Point:	-0.033	Yaw Set Point:	-0.585	X_WP:	0.084	Y_WP:	0.153	Y_WP:	0.500	X:	0.100	Y:	0.093	Z:	0.402	yaw:	33.503	yaw rate:	0.776	Roll:	0.020	Pitch:	-1.515	Yaw:	48.341	Thrust:	50.393
Time:	6.051	Roll Set Point:	-0.081	Pitch Set Point:	-0.033	Yaw Set Point:	-0.584	X_WP:	0.084	Y_WP:	0.153	Y_WP:	0.500	X:	0.100	Y:	0.093	Z:	0.402	yaw:	33.489	yaw rate:	0.340	Roll:	0.030	Pitch:	-1.521	Yaw:	48.083	Thrust:	50.519
Time:	6.066	Roll Set Point:	-0.081	Pitch Set Point:	-0.033	Yaw Set Point:	-0.584	X_WP:	0.084	Y_WP:	0.153	Y_WP:	0.500	X:	0.100	Y:	0.093	Z:	0.402	yaw:	33.489	yaw rate:	0.340	Roll:	0.019	Pitch:	-1.519	Yaw:	48.322	Thrust:	50.787
Time:	6.082	Roll Set Point:	-0.081	Pitch Set Point:	-0.033	Yaw Set Point:	-0.585	X_WP:	0.084	Y_WP:	0.153	Y_WP:	0.500	X:	0.100	Y:	0.093	Z:	0.402	yaw:	33.498	yaw rate:	0.876	Roll:	0.023	Pitch:	-1.522	Yaw:	48.483	Thrust:	51.202
Time:	6.098	Roll Set Point:	-0.081	Pitch Set Point:	-0.033	Yaw Set Point:	-0.585	X_WP:	0.084	Y_WP:	0.153	Y_WP:	0.500	X:	0.100	Y:	0.093	Z:	0.402	yaw:	33.517	yaw rate:	1.455	Roll:	-0.017	Pitch:	-1.515	Yaw:	48.687	Thrust:	51.063
Time:	6.113	Roll Set Point:	-0.081	Pitch Set Point:	-0.033	Yaw Set Point:	-0.585	X_WP:	0.084	Y_WP:	0.153	Y_WP:	0.500	X:	0.100	Y:	0.093	Z:	0.402	yaw:	33.492	yaw rate:	-2.562	Roll:	0.060	Pitch:	-1.539	Yaw:	47.897	Thrust:	51.319
Time:	6.131	Roll Set Point:	-0.081	Pitch Set Point:	-0.033	Yaw Set Point:	-0.585	X_WP:	0.084	Y_WP:	0.153	Y_WP:	0.500	X:	0.100	Y:	0.093	Z:	0.402	yaw:	33.492	yaw rate:	-2.562	Roll:	0.016	Pitch:	-1.529	Yaw:	48.326	Thrust:	51.520
Time:	6.156	Roll Set Point:	-0.081	Pitch Set Point:	-0.033	Yaw Set Point:	-0.585	X_WP:	0.084	Y_WP:	0.153	Y_WP:	0.500	X:	0.100	Y:	0.093	Z:	0.402	yaw:	33.501	yaw rate:	0.941	Roll:	0.436	Pitch:	-1.378	Yaw:	49.626	Thrust:	87.124
Time:	6.172	Roll Set Point:	-0.081	Pitch Set Point:	-0.033	Yaw Set Point:	-0.584	X_WP:	0.084	Y_WP:	0.153	Y_WP:	0.500	X:	0.100	Y:	0.093	Z:	0.402	yaw:	33.489	yaw rate:	-1.282	Roll:	0.048	Pitch:	-1.546	Yaw:	48.107	Thrust:	51.814
Time:	6.188	Roll Set Point:	-0.081	Pitch Set Point:	-0.033	Yaw Set Point:	-0.584	X_WP:	0.084	Y_WP:	0.153	Y_WP:	0.500	X:	0.100	Y:	0.093	Z:	0.402	yaw:	33.489	yaw rate:	-1.282	Roll:	0.015	Pitch:	-1.536	Yaw:	48.321	Thrust:	52.068
Time:	6.203	Roll Set Point:	-0.081	Pitch Set Point:	-0.033	Yaw Set Point:	-0.585	X_WP:	0.084	Y_WP:	0.153	Y_WP:	0.500	X:	0.100	Y:	0.093	Z:	0.402	yaw:	33.505	yaw rate:	1.752	Roll:	-0.007	Pitch:	-1.534	Yaw:	48.621	Thrust:	52.317
Time:	6.219	Roll Set Point:	-0.081	Pitch Set Point:	-0.033	Yaw Set Point:	-0.585	X_WP:	0.084	Y_WP:	0.153	Y_WP:	0.500	X:	0.100	Y:	0.093	Z:	0.402	yaw:	33.505	yaw rate:	1.752	Roll:	0.012	Pitch:	-1.540	Yaw:	48.345	Thrust:	52.437
Time:	6.235	Roll Set Point:	-0.081	Pitch Set Point:	-0.033	Yaw Set Point:	-0.585	X_WP:	0.084	Y_WP:	0.153	Y_WP:	0.500	X:	0.100	Y:	0.093	Z:	0.402	yaw:	33.492	yaw rate:	-0.002	Roll:	0.020	Pitch:	-1.545	Yaw:	48.110	Thrust:	52.549
Time:	6.250	Roll Set Point:	-0.081	Pitch Set Point:	-0.033	Yaw Set Point:	-0.585	X_WP:	0.084	Y_WP:	0.153	Y_WP:	0.500	X:	0.100	Y:	0.093	Z:	0.402	yaw:	33.491	yaw rate:	-0.066	Roll:	0.021	Pitch:	-1.548	Yaw:	48.316	Thrust:	52.849
Time:	6.266	Roll Set Point:	-0.081	Pitch Set Point:	-0.033	Yaw Set Point:	-0.585	X_WP:	0.084	Y_WP:	0.153	Y_WP:	0.500	X:	0.100	Y:	0.093	Z:	0.402	yaw:	33.495	yaw rate:	0.328	Roll:	0.003	Pitch:	-1.547	Yaw:	48.384	Thrust:	53.116
Time:	6.281	Roll Set Point:	-0.081	Pitch Set Point:	-0.033	Yaw Set Point:	-0.584	X_WP:	0.084	Y_WP:	0.153	Y_WP:	0.500	X:	0.100	Y:	0.093	Z:	0.402	yaw:	33.489	yaw rate:	-0.555	Roll:	0.005	Pitch:	-1.547	Yaw:	48.229	Thrust:	53.150
Time:	6.297	Roll Set Point:	-0.081	Pitch Set Point:	-0.033	Yaw Set Point:	-0.585	X_WP:	0.084	Y_WP:	0.153	Y_WP:	0.500	X:	0.100	Y:	0.093	Z:	0.402	yaw:	33.490	yaw rate:	0.036	Roll:	0.008	Pitch:	-1.554	Yaw:	48.329	Thrust:	53.265
Time:	6.313	Roll Set Point:	-0.081	Pitch Set Point:	-0.033	Yaw Set Point:	-0.585	X_WP:	0.084	Y_WP:	0.153	Y_WP:	0.500	X:	0.100	Y:	0.093	Z:	0.402	yaw:	33.492	yaw rate:	0.229	Roll:	0.030	Pitch:	-1.557	Yaw:	48.365	Thrust:	53.610
Time:	6.328	Roll Set Point:	-0.081	Pitch Set Point:	-0.033	Yaw Set Point:	-0.584	X_WP:	0.084	Y_WP:	0.153	Y_WP:	0.500	X:	0.100	Y:	0.093	Z:	0.402	yaw:	33.484	yaw rate:	-0.811	Roll:	-0.009	Pitch:	-1.551	Yaw:	48.180	Thrust:	53.649
Time:	6.344	Roll Set Point:	-0.081	Pitch Set Point:	-0.033	Yaw Set Point:	-0.585	X_WP:	0.084	Y_WP:	0.153	Y_WP:	0.500	X:	0.100	Y:	0.093	Z:	0.402	yaw:	33.498	yaw rate:	1.443	Roll:	-0.013	Pitch:	-1.556	Yaw:	48.576	Thrust:	54.000
Time:	6.360	Roll Set Point:	-0.081	Pitch Set Point:	-0.033	Yaw Set Point:	-0.585	X_WP:	0.084	Y_WP:	0.153	Y_WP:	0.500	X:	0.100	Y:	0.093	Z:	0.402	yaw:	33.507	yaw rate:	0.915	Roll:	0.001	Pitch:	-1.560	Yaw:	48.501	Thrust:	54.001
