Time:	2.036	Roll Set Point:	-0.220	Pitch Set Point:	0.095	Yaw Set Point:	0.014	X_WP:	0.000	Y_WP:	0.000	Y_WP:	0.500	X:	0.109	Y:	-0.049	Z:	0.048	yaw:	-0.822	yaw rate:	2.744	Roll:	3.195	Pitch:	-1.362	Yaw:	-1.148	Thrust:	24.845
Time:	2.053	Roll Set Point:	-0.220	Pitch Set Point:	0.095	Yaw Set Point:	0.015	X_WP:	0.000	Y_WP:	0.000	Y_WP:	0.500	X:	0.109	Y:	-0.049	Z:	0.048	yaw:	-0.868	yaw rate:	-4.627	Roll:	3.232	Pitch:	-1.264	Yaw:	-1.949	Thrust:	25.683
Time:	2.064	Roll Set Point:	-0.220	Pitch Set Point:	0.095	Yaw Set Point:	0.016	X_WP:	0.000	Y_WP:	0.000	Y_WP:	0.500	X:	0.109	Y:	-0.049	Z:	0.048	yaw:	-0.936	yaw rate:	-6.773	Roll:	3.286	Pitch:	-1.295	Yaw:	-2.998	Thrust:	26.165
Time:	2.074	Roll Set Point:	-0.220	Pitch Set Point:	0.095	Yaw Set Point:	0.014	X_WP:	0.000	Y_WP:	0.000	Y_WP:	0.500	X:	0.109	Y:	-0.048	Z:	0.048	yaw:	-0.784	yaw rate:	15.242	Roll:	2.997	Pitch:	-1.657	Yaw:	2.646	Thrust:	26.376
Time:	2.086	Roll Set Point:	-0.220	Pitch Set Point:	0.096	Yaw Set Point:	0.017	X_WP:	0.000	Y_WP:	0.000	Y_WP:	0.500	X:	0.109	Y:	-0.049	Z:	0.048	yaw:	-0.952	yaw rate:	-16.819	Roll:	3.299	Pitch:	-1.264	Yaw:	-5.150	Thrust:	27.333
Time:	2.097	Roll Set Point:	-0.219	Pitch Set Point:	0.096	Yaw Set Point:	0.005	X_WP:	0.000	Y_WP:	0.000	Y_WP:	0.500	X:	0.109	Y:	-0.048	Z:	0.048	yaw:	-0.309	yaw rate:	64.280	Roll:	2.387	Pitch:	-2.623	Yaw:	14.146	Thrust:	27.847
Time:	2.108	Roll Set Point:	-0.219	Pitch Set Point:	0.096	Yaw Set Point:	0.005	X_WP:	0.000	Y_WP:	0.000	Y_WP:	0.500	X:	0.109	Y:	-0.048	Z:	0.048	yaw:	-0.314	yaw rate:	80.717	Roll:	3.391	Pitch:	-1.464	Yaw:	-0.573	Thrust:	29.054
Time:	2.119	Roll Set Point:	-0.220	Pitch Set Point:	0.096	Yaw Set Point:	0.012	X_WP:	0.000	Y_WP:	0.000	Y_WP:	0.500	X:	0.110	Y:	-0.049	Z:	0.049	yaw:	-0.695	yaw rate:	-38.072	Roll:	3.838	Pitch:	-0.572	Yaw:	-9.995	Thrust:	27.735
Time:	2.132	Roll Set Point:	-0.220	Pitch Set Point:	0.095	Yaw Set Point:	0.019	X_WP:	0.000	Y_WP:	0.000	Y_WP:	0.500	X:	0.109	Y:	-0.048	Z:	0.048	yaw:	-1.107	yaw rate:	-41.269	Roll:	3.478	Pitch:	-0.055	Yaw:	-10.548	Thrust:	31.303
Time:	2.142	Roll Set Point:	-0.219	Pitch Set Point:	0.096	Yaw Set Point:	0.009	X_WP:	0.000	Y_WP:	0.000	Y_WP:	0.500	X:	0.109	Y:	-0.049	Z:	0.048	yaw:	-0.504	yaw rate:	60.324	Roll:	2.352	Pitch:	-3.241	Yaw:	13.589	Thrust:	29.973
Time:	2.154	Roll Set Point:	-0.219	Pitch Set Point:	0.096	Yaw Set Point:	0.009	X_WP:	0.000	Y_WP:	0.000	Y_WP:	0.500	X:	0.110	Y:	-0.049	Z:	0.048	yaw:	-0.490	yaw rate:	1.383	Roll:	3.516	Pitch:	-1.418	Yaw:	-0.414	Thrust:	30.537
Time:	2.166	Roll Set Point:	-0.220	Pitch Set Point:	0.096	Yaw Set Point:	0.014	X_WP:	0.000	Y_WP:	0.000	Y_WP:	0.500	X:	0.109	Y:	-0.049	Z:	0.048	yaw:	-0.797	yaw rate:	-30.676	Roll:	3.475	Pitch:	-0.573	Yaw:	-8.206	Thrust:	32.116
Time:	2.177	Roll Set Point:	-0.219	Pitch Set Point:	0.096	Yaw Set Point:	0.011	X_WP:	0.000	Y_WP:	0.000	Y_WP:	0.500	X:	0.109	Y:	-0.048	Z:	0.048	yaw:	-0.623	yaw rate:	17.427	Roll:	2.902	Pitch:	-1.754	Yaw:	3.234	Thrust:	31.963
Time:	2.188	Roll Set Point:	-0.219	Pitch Set Point:	0.096	Yaw Set Point:	0.011	X_WP:	0.000	Y_WP:	0.000	Y_WP:	0.500	X:	0.109	Y:	-0.049	Z:	0.049	yaw:	-0.644	yaw rate:	-2.131	Roll:	3.365	Pitch:	-1.427	Yaw:	-1.420	Thrust:	31.746
Time:	2.200	Roll Set Point:	-0.220	Pitch Set Point:	0.095	Yaw Set Point:	0.016	X_WP:	0.000	Y_WP:	0.000	Y_WP:	0.500	X:	0.109	Y:	-0.049	Z:	0.048	yaw:	-0.919	yaw rate:	-27.492	Roll:	3.508	Pitch:	-0.602	Yaw:	-7.588	Thrust:	35.221
Time:	2.211	Roll Set Point:	-0.220	Pitch Set Point:	0.096	Yaw Set Point:	0.013	X_WP:	0.000	Y_WP:	0.000	Y_WP:	0.500	X:	0.109	Y:	-0.048	Z:	0.048	yaw:	-0.757	yaw rate:	16.229	Roll:	3.099	Pitch:	-1.817	Yaw:	2.755	Thrust:	33.369
Time:	2.223	Roll Set Point:	-0.220	Pitch Set Point:	0.095	Yaw Set Point:	0.013	X_WP:	0.000	Y_WP:	0.000	Y_WP:	0.500	X:	0.109	Y:	-0.048	Z:	0.048	yaw:	-0.720	yaw rate:	3.666	Roll:	3.219	Pitch:	-1.375	Yaw:	-0.258	Thrust:	35.355
Time:	2.233	Roll Set Point:	-0.219	Pitch Set Point:	0.096	Yaw Set Point:	0.010	X_WP:	0.000	Y_WP:	0.000	Y_WP:	0.500	X:	0.109	Y:	-0.048	Z:	0.048	yaw:	-0.578	yaw rate:	14.228	Roll:	2.932	Pitch:	-1.790	Yaw:	2.685	Thrust:	34.579
Time:	2.245	Roll Set Point:	-0.219	Pitch Set Point:	0.096	Yaw Set Point:	0.010	X_WP:	0.000	Y_WP:	0.000	Y_WP:	0.500	X:	0.109	Y:	-0.049	Z:	0.048	yaw:	-0.598	yaw rate:	-2.060	Roll:	3.283	Pitch:	-1.600	Yaw:	-1.337	Thrust:	36.004
Time:	2.256	Roll Set Point:	-0.219	Pitch Set Point:	0.096	Yaw Set Point:	0.010	X_WP:	0.000	Y_WP:	0.000	Y_WP:	0.500	X:	0.109	Y:	-0.049	Z:	0.048	yaw:	-0.554	yaw rate:	4.403	Roll:	2.929	Pitch:	-1.534	Yaw:	0.220	Thrust:	37.179
Time:	2.267	Roll Set Point:	-0.220	Pitch Set Point:	0.095	Yaw Set Point:	0.017	X_WP:	0.000	Y_WP:	0.000	Y_WP:	0.500	X:	0.109	Y:	-0.049	Z:	0.048	yaw:	-0.979	yaw rate:	-42.425	Roll:	4.055	Pitch:	-0.174	Yaw:	-11.716	Thrust:	36.649
Time:	2.279	Roll Set Point:	-0.219	Pitch Set Point:	0.095	Yaw Set Point:	0.015	X_WP:	0.000	Y_WP:	0.000	Y_WP:	0.500	X:	0.109	Y:	-0.049	Z:	0.048	yaw:	-0.861	yaw rate:	11.735	Roll:	3.058	Pitch:	-1.657	Yaw:	1.288	Thrust:	38.051
Time:	2.292	Roll Set Point:	-0.219	Pitch Set Point:	0.096	Yaw Set Point:	0.010	X_WP:	0.000	Y_WP:	0.000	Y_WP:	0.500	X:	0.109	Y:	-0.048	Z:	0.048	yaw:	-0.566	yaw rate:	-17.449	Roll:	3.056	Pitch:	-2.053	Yaw:	5.299	Thrust:	39.841
Time:	2.302	Roll Set Point:	-0.219	Pitch Set Point:	0.095	Yaw Set Point:	0.017	X_WP:	0.000	Y_WP:	0.000	Y_WP:	0.500	X:	0.109	Y:	-0.049	Z:	0.048	yaw:	-0.981	yaw rate:	-41.503	Roll:	3.577	Pitch:	-0.217	Yaw:	-11.736	Thrust:	38.412
Time:	2.318	Roll Set Point:	-0.220	Pitch Set Point:	0.095	Yaw Set Point:	0.013	X_WP:	0.000	Y_WP:	0.000	Y_WP:	0.500	X:	0.109	Y:	-0.048	Z:	0.048	yaw:	-0.763	yaw rate:	21.808	Roll:	3.200	Pitch:	-1.693	Yaw:	2.387	Thrust:	45.148
Time:	2.330	Roll Set Point:	-0.220	Pitch Set Point:	0.095	Yaw Set Point:	0.017	X_WP:	0.000	Y_WP:	0.000	Y_WP:	0.500	X:	0.109	Y:	-0.049	Z:	0.048	yaw:	-0.975	yaw rate:	-21.263	Roll:	3.514	Pitch:	-0.934	Yaw:	-6.262	Thrust:	41.200
Time:	2.341	Roll Set Point:	-0.219	Pitch Set Point:	0.096	Yaw Set Point:	0.008	X_WP:	0.000	Y_WP:	0.000	Y_WP:	0.500	X:	0.109	Y:	-0.048	Z:	0.048	yaw:	-0.477	yaw rate:	49.878	Roll:	2.557	Pitch:	-2.886	Yaw:	10.914	Thrust:	38.425
Time:	2.356	Roll Set Point:	-0.219	Pitch Set Point:	0.096	Yaw Set Point:	0.008	X_WP:	0.000	Y_WP:	0.000	Y_WP:	0.500	X:	0.109	Y:	-0.048	Z:	0.049	yaw:	-0.446	yaw rate:	3.109	Roll:	3.337	Pitch:	-1.512	Yaw:	-0.162	Thrust:	47.349
Time:	2.367	Roll Set Point:	-0.219	Pitch Set Point:	0.096	Yaw Set Point:	0.010	X_WP:	0.000	Y_WP:	0.000	Y_WP:	0.500	X:	0.109	Y:	-0.049	Z:	0.048	yaw:	-0.578	yaw rate:	21.375	Roll:	3.461	Pitch:	-1.097	Yaw:	-4.077	Thrust:	41.887
Time:	2.379	Roll Set Point:	-0.219	Pitch Set Point:	0.096	Yaw Set Point:	0.011	X_WP:	0.000	Y_WP:	0.000	Y_WP:	0.500	X:	0.109	Y:	-0.048	Z:	0.048	yaw:	-0.655	yaw rate:	-7.692	Roll:	3.314	Pitch:	-0.943	Yaw:	-2.675	Thrust:	42.459
Time:	2.390	Roll Set Point:	-0.219	Pitch Set Point:	0.096	Yaw Set Point:	0.007	X_WP:	0.000	Y_WP:	0.000	Y_WP:	0.500	X:	0.109	Y:	-0.048	Z:	0.048	yaw:	-0.382	yaw rate:	27.373	Roll:	2.952	Pitch:	-2.244	Yaw:	5.580	Thrust:	45.040
Time:	2.401	Roll Set Point:	-0.219	Pitch Set Point:	0.096	Yaw Set Point:	0.010	X_WP:	0.000	Y_WP:	0.000	Y_WP:	0.500	X:	0.109	Y:	-0.048	Z:	0.048	yaw:	-0.578	yaw rate:	-19.687	Roll:	3.522	Pitch:	-0.613	Yaw:	-5.782	Thrust:	42.335
Time:	2.419	Roll Set Point:	-0.219	Pitch Set Point:	0.096	Yaw Set Point:	0.008	X_WP:	0.000	Y_WP:	0.000	Y_WP:	0.500	X:	0.109	Y:	-0.049	Z:	0.048	yaw:	-0.459	yaw rate:	11.957	Roll:	2.917	Pitch:	-2.020	Yaw:	1.004	Thrust:	51.136
Time:	2.433	Roll Set Point:	-0.219	Pitch Set Point:	0.096	Yaw Set Point:	0.011	X_WP:	0.000	Y_WP:	0.000	Y_WP:	0.500	X:	0.109	Y:	-0.048	Z:	0.049	yaw:	-0.640	yaw rate:	-13.833	Roll:	3.653	Pitch:	-1.015	Yaw:	-4.156	Thrust:	54.054
Time:	2.444	Roll Set Point:	-0.220	Pitch Set Point:	0.095	Yaw Set Point:	0.019	X_WP:	0.000	Y_WP:	0.000	Y_WP:	0.500	X:	0.110	Y:	-0.048	Z:	0.048	yaw:	-1.078	yaw rate:	-43.807	Roll:	3.919	Pitch:	-0.176	Yaw:	-11.996	Thrust:	46.284
Time:	2.456	Roll Set Point:	-0.220	Pitch Set Point:	0.095	Yaw Set Point:	0.014	X_WP:	0.000	Y_WP:	0.000	Y_WP:	0.500	X:	0.110	Y:	-0.048	Z:	0.048	yaw:	-0.814	yaw rate:	26.326	Roll:	3.002	Pitch:	-2.175	Yaw:	5.007	Thrust:	47.096
Time:	2.467	Roll Set Point:	-0.219	Pitch Set Point:	0.096	Yaw Set Point:	0.007	X_WP:	0.000	Y_WP:	0.000	Y_WP:	0.500	X:	0.109	Y:	-0.048	Z:	0.048	yaw:	-0.423	yaw rate:	39.155	Roll:	2.679	Pitch:	-2.439	Yaw:	8.054	Thrust:	47.593
Time:	2.479	Roll Set Point:	-0.219	Pitch Set Point:	0.096	Yaw Set Point:	0.013	X_WP:	0.000	Y_WP:	0.000	Y_WP:	0.500	X:	0.109	Y:	-0.048	Z:	0.048	yaw:	-0.728	yaw rate:	-30.548	Roll:	3.734	Pitch:	-0.594	Yaw:	-7.771	Thrust:	46.954
Time:	2.494	Roll Set Point:	-0.220	Pitch Set Point:	0.096	Yaw Set Point:	0.013	X_WP:	0.000	Y_WP:	0.000	Y_WP:	0.500	X:	0.109	Y:	-0.048	Z:	0.049	yaw:	-0.771	yaw rate:	-4.254	Roll:	3.417	Pitch:	-1.355	Yaw:	-1.974	Thrust:	56.698
Time:	2.506	Roll Set Point:	-0.220	Pitch Set Point:	0.096	Yaw Set Point:	0.011	X_WP:	0.000	Y_WP:	0.000	Y_WP:	0.500	X:	0.110	Y:	-0.048	Z:	0.049	yaw:	-0.629	yaw rate:	-17.609	Roll:	3.392	Pitch:	-1.812	Yaw:	1.972	Thrust:	49.252
Time:	2.520	Roll Set Point:	-0.220	Pitch Set Point:	0.095	Yaw Set Point:	0.015	X_WP:	0.000	Y_WP:	0.000	Y_WP:	0.500	X:	0.110	Y:	-0.048	Z:	0.048	yaw:	-0.843	yaw rate:	-21.438	Roll:	3.438	Pitch:	-0.815	Yaw:	-5.301	Thrust:	58.145
Time:	2.532	Roll Set Point:	-0.220	Pitch Set Point:	0.095	Yaw Set Point:	0.016	X_WP:	0.000	Y_WP:	0.000	Y_WP:	0.500	X:	0.109	Y:	-0.048	Z:	0.048	yaw:	-0.904	yaw rate:	-6.107	Roll:	3.385	Pitch:	-1.311	Yaw:	-2.822	Thrust:	49.262
Time:	2.542	Roll Set Point:	-0.219	Pitch Set Point:	0.096	Yaw Set Point:	0.008	X_WP:	0.000	Y_WP:	0.000	Y_WP:	0.500	X:	0.109	Y:	-0.048	Z:	0.049	yaw:	-0.445	yaw rate:	45.883	Roll:	2.667	Pitch:	-2.612	Yaw:	10.146	Thrust:	48.975
Time:	2.555	Roll Set Point:	-0.220	Pitch Set Point:	0.095	Yaw Set Point:	0.013	X_WP:	0.000	Y_WP:	0.000	Y_WP:	0.500	X:	0.109	Y:	-0.048	Z:	0.048	yaw:	-0.739	yaw rate:	-29.408	Roll:	3.725	Pitch:	-0.436	Yaw:	-7.298	Thrust:	54.587
Time:	2.566	Roll Set Point:	-0.220	Pitch Set Point:	0.095	Yaw Set Point:	0.015	X_WP:	0.000	Y_WP:	0.000	Y_WP:	0.500	X:	0.109	Y:	-0.048	Z:	0.048	yaw:	-0.851	yaw rate:	-11.165	Roll:	3.435	Pitch:	-1.315	Yaw:	-3.955	Thrust:	51.077
Time:	2.577	Roll Set Point:	-0.220	Pitch Set Point:	0.095	Yaw Set Point:	0.018	X_WP:	0.000	Y_WP:	0.000	Y_WP:	0.500	X:	0.110	Y:	-0.048	Z:	0.048	yaw:	-1.057	yaw rate:	-20.646	Roll:	3.741	Pitch:	-0.750	Yaw:	-6.499	Thrust:	51.986
Time:	2.589	Roll Set Point:	-0.220	Pitch Set Point:	0.094	Yaw Set Point:	0.019	X_WP:	0.000	Y_WP:	0.000	Y_WP:	0.500	X:	0.110	Y:	-0.048	Z:	0.049	yaw:	-1.068	yaw rate:	-1.074	Roll:	3.565	Pitch:	-1.250	Yaw:	-1.866	Thrust:	53.129
Time:	2.601	Roll Set Point:	-0.220	Pitch Set Point:	0.095	Yaw Set Point:	0.012	X_WP:	0.000	Y_WP:	0.000	Y_WP:	0.500	X:	0.110	Y:	-0.048	Z:	0.049	yaw:	-0.711	yaw rate:	35.746	Roll:	2.957	Pitch:	-2.474	Yaw:	6.630	Thrust:	54.323
Time:	2.612	Roll Set Point:	-0.220	Pitch Set Point:	0.095	Yaw Set Point:	0.014	X_WP:	0.000	Y_WP:	0.000	Y_WP:	0.500	X:	0.110	Y:	-0.048	Z:	0.049	yaw:	-0.792	yaw rate:	-8.136	Roll:	3.578	Pitch:	-1.189	Yaw:	-3.170	Thrust:	53.537
Time:	2.629	Roll Set Point:	-0.220	Pitch Set Point:	0.096	Yaw Set Point:	0.010	X_WP:	0.000	Y_WP:	0.000	Y_WP:	0.500	X:	0.110	Y:	-0.048	Z:	0.049	yaw:	-0.597	yaw rate:	59.865	Roll:	3.139	Pitch:	-1.907	Yaw:	1.862	Thrust:	71.498
Time:	2.640	Roll Set Point:	-0.220	Pitch Set Point:	0.095	Yaw Set Point:	0.010	X_WP:	0.000	Y_WP:	0.000	Y_WP:	0.500	X:	0.110	Y:	-0.048	Z:	0.049	yaw:	-0.579	yaw rate:	1.821	Roll:	3.508	Pitch:	-1.302	Yaw:	-0.514	Thrust:	53.704
Time:	2.657	Roll Set Point:	-0.220	Pitch Set Point:	0.095	Yaw Set Point:	0.008	X_WP:	0.000	Y_WP:	0.000	Y_WP:	0.500	X:	0.110	Y:	-0.048	Z:	0.049	yaw:	-0.479	yaw rate:	9.970	Roll:	3.305	Pitch:	-1.543	Yaw:	0.698	Thrust:	71.144
Time:	2.670	Roll Set Point:	-0.220	Pitch Set Point:	0.094	Yaw Set Point:	0.017	X_WP:	0.000	Y_WP:	0.000	Y_WP:	0.500	X:	0.110	Y:	-0.048	Z:	0.049	yaw:	-0.946	yaw rate:	-46.752	Roll:	3.840	Pitch:	-0.083	Yaw:	-11.636	Thrust:	59.011
Time:	2.687	Roll Set Point:	-0.220	Pitch Set Point:	0.094	Yaw Set Point:	0.009	X_WP:	0.000	Y_WP:	0.000	Y_WP:	0.500	X:	0.110	Y:	-0.048	Z:	0.049	yaw:	-0.517	yaw rate:	42.920	Roll:	3.053	Pitch:	-1.894	Yaw:	5.079	Thrust:	78.078
Time:	2.699	Roll Set Point:	-0.220	Pitch Set Point:	0.094	Yaw Set Point:	0.004	X_WP:	0.000	Y_WP:	0.000	Y_WP:	0.500	X:	0.110	Y:	-0.047	Z:	0.050	yaw:	-0.238	yaw rate:	31.766	Roll:	3.149	Pitch:	-1.809	Yaw:	5.845	Thrust:	53.281
Time:	2.710	Roll Set Point:	-0.220	Pitch Set Point:	0.094	Yaw Set Point:	-0.001	X_WP:	0.000	Y_WP:	0.000	Y_WP:	0.500	X:	0.110	Y:	-0.047	Z:	0.051	yaw:	0.037	yaw rate:	27.560	Roll:	3.017	Pitch:	-1.851	Yaw:	6.446	Thrust:	55.005
Time:	2.723	Roll Set Point:	-0.220	Pitch Set Point:	0.094	Yaw Set Point:	0.000	X_WP:	0.000	Y_WP:	0.000	Y_WP:	0.500	X:	0.110	Y:	-0.047	Z:	0.051	yaw:	-0.001	yaw rate:	-3.819	Roll:	3.504	Pitch:	-1.073	Yaw:	-0.965	Thrust:	60.767
Time:	2.733	Roll Set Point:	-0.219	Pitch Set Point:	0.094	Yaw Set Point:	0.001	X_WP:	0.000	Y_WP:	0.000	Y_WP:	0.500	X:	0.110	Y:	-0.047	Z:	0.052	yaw:	-0.040	yaw rate:	-3.930	Roll:	3.119	Pitch:	-1.138	Yaw:	-1.177	Thrust:	54.556
Time:	2.745	Roll Set Point:	-0.219	Pitch Set Point:	0.094	Yaw Set Point:	-0.003	X_WP:	0.000	Y_WP:	0.000	Y_WP:	0.500	X:	0.110	Y:	-0.047	Z:	0.053	yaw:	0.167	yaw rate:	20.716	Roll:	3.062	Pitch:	-1.699	Yaw:	4.780	Thrust:	56.653
Time:	2.757	Roll Set Point:	-0.218	Pitch Set Point:	0.094	Yaw Set Point:	-0.010	X_WP:	0.000	Y_WP:	0.000	Y_WP:	0.500	X:	0.109	Y:	-0.046	Z:	0.054	yaw:	0.555	yaw rate:	38.840	Roll:	2.548	Pitch:	-2.236	Yaw:	9.065	Thrust:	59.654
Time:	2.767	Roll Set Point:	-0.218	Pitch Set Point:	0.093	Yaw Set Point:	-0.009	X_WP:	0.000	Y_WP:	0.000	Y_WP:	0.500	X:	0.109	Y:	-0.046	Z:	0.055	yaw:	0.525	yaw rate:	-3.048	Roll:	3.400	Pitch:	-0.350	Yaw:	-0.195	Thrust:	51.897
Time:	2.780	Roll Set Point:	-0.218	Pitch Set Point:	0.092	Yaw Set Point:	-0.010	X_WP:	0.000	Y_WP:	0.000	Y_WP:	0.500	X:	0.109	Y:	-0.045	Z:	0.056	yaw:	0.559	yaw rate:	3.376	Roll:	3.205	Pitch:	-0.921	Yaw:	1.358	Thrust:	58.934
Time:	2.796	Roll Set Point:	-0.217	Pitch Set Point:	0.091	Yaw Set Point:	-0.017	X_WP:	0.000	Y_WP:	0.000	Y_WP:	0.500	X:	0.109	Y:	-0.044	Z:	0.060	yaw:	0.996	yaw rate:	43.685	Roll:	2.703	Pitch:	-1.381	Yaw:	7.670	Thrust:	74.724
Time:	2.809	Roll Set Point:	-0.216	Pitch Set Point:	0.089	Yaw Set Point:	-0.027	X_WP:	0.000	Y_WP:	0.000	Y_WP:	0.500	X:	0.109	Y:	-0.043	Z:	0.063	yaw:	1.540	yaw rate:	35.749	Roll:	2.203	Pitch:	-1.174	Yaw:	13.355	Thrust:	50.069
Time:	2.819	Roll Set Point:	-0.216	Pitch Set Point:	0.088	Yaw Set Point:	-0.024	X_WP:	0.000	Y_WP:	0.000	Y_WP:	0.500	X:	0.108	Y:	-0.043	Z:	0.065	yaw:	1.358	yaw rate:	-18.172	Roll:	3.461	Pitch:	0.064	Yaw:	-2.741	Thrust:	55.637
Time:	2.830	Roll Set Point:	-0.216	Pitch Set Point:	0.087	Yaw Set Point:	-0.028	X_WP:	0.000	Y_WP:	0.000	Y_WP:	0.500	X:	0.108	Y:	-0.042	Z:	0.067	yaw:	1.613	yaw rate:	25.469	Roll:	2.897	Pitch:	-1.152	Yaw:	8.167	Thrust:	54.244
Time:	2.841	Roll Set Point:	-0.215	Pitch Set Point:	0.085	Yaw Set Point:	-0.026	X_WP:	0.000	Y_WP:	0.000	Y_WP:	0.500	X:	0.108	Y:	-0.041	Z:	0.069	yaw:	1.513	yaw rate:	-9.975	Roll:	2.762	Pitch:	0.091	Yaw:	-0.376	Thrust:	55.544
Time:	2.853	Roll Set Point:	-0.214	Pitch Set Point:	0.084	Yaw Set Point:	-0.027	X_WP:	0.000	Y_WP:	0.000	Y_WP:	0.500	X:	0.108	Y:	-0.041	Z:	0.071	yaw:	1.531	yaw rate:	1.860	Roll:	2.827	Pitch:	-0.319	Yaw:	2.441	Thrust:	56.818
Time:	2.864	Roll Set Point:	-0.213	Pitch Set Point:	0.083	Yaw Set Point:	-0.036	X_WP:	0.000	Y_WP:	0.000	Y_WP:	0.500	X:	0.107	Y:	-0.040	Z:	0.073	yaw:	2.070	yaw rate:	53.896	Roll:	2.115	Pitch:	-1.697	Yaw:	15.574	Thrust:	55.528
Time:	2.874	Roll Set Point:	-0.213	Pitch Set Point:	0.081	Yaw Set Point:	-0.030	X_WP:	0.000	Y_WP:	0.000	Y_WP:	0.500	X:	0.107	Y:	-0.039	Z:	0.076	yaw:	1.697	yaw rate:	-37.305	Roll:	3.238	Pitch:	1.138	Yaw:	-7.289	Thrust:	50.939
Time:	2.886	Roll Set Point:	-0.212	Pitch Set Point:	0.080	Yaw Set Point:	-0.032	X_WP:	0.000	Y_WP:	0.000	Y_WP:	0.500	X:	0.107	Y:	-0.038	Z:	0.078	yaw:	1.838	yaw rate:	14.046	Roll:	2.706	Pitch:	-0.405	Yaw:	5.511	Thrust:	60.867
Time:	2.897	Roll Set Point:	-0.211	Pitch Set Point:	0.078	Yaw Set Point:	-0.037	X_WP:	0.000	Y_WP:	0.000	Y_WP:	0.500	X:	0.106	Y:	-0.037	Z:	0.080	yaw:	2.096	yaw rate:	25.772	Roll:	2.242	Pitch:	-0.597	Yaw:	8.956	Thrust:	55.783
Time:	2.908	Roll Set Point:	-0.210	Pitch Set Point:	0.076	Yaw Set Point:	-0.035	X_WP:	0.000	Y_WP:	0.000	Y_WP:	0.500	X:	0.106	Y:	-0.036	Z:	0.082	yaw:	2.026	yaw rate:	-6.942	Roll:	2.823	Pitch:	0.276	Yaw:	1.028	Thrust:	53.989
Time:	2.920	Roll Set Point:	-0.208	Pitch Set Point:	0.073	Yaw Set Point:	-0.037	X_WP:	0.000	Y_WP:	0.000	Y_WP:	0.500	X:	0.105	Y:	-0.035	Z:	0.087	yaw:	2.127	yaw rate:	10.121	Roll:	1.908	Pitch:	1.164	Yaw:	5.000	Thrust:	57.083
Time:	2.931	Roll Set Point:	-0.207	Pitch Set Point:	0.071	Yaw Set Point:	-0.037	X_WP:	0.000	Y_WP:	0.000	Y_WP:	0.500	X:	0.104	Y:	-0.033	Z:	0.089	yaw:	2.142	yaw rate:	1.492	Roll:	2.541	Pitch:	0.463	Yaw:	3.302	Thrust:	55.203
Time:	2.941	Roll Set Point:	-0.206	Pitch Set Point:	0.069	Yaw Set Point:	-0.041	X_WP:	0.000	Y_WP:	0.000	Y_WP:	0.500	X:	0.104	Y:	-0.032	Z:	0.091	yaw:	2.348	yaw rate:	20.612	Roll:	2.047	Pitch:	-0.078	Yaw:	8.508	Thrust:	54.694
Time:	2.954	Roll Set Point:	-0.206	Pitch Set Point:	0.067	Yaw Set Point:	-0.043	X_WP:	0.000	Y_WP:	0.000	Y_WP:	0.500	X:	0.104	Y:	-0.031	Z:	0.093	yaw:	2.491	yaw rate:	14.230	Roll:	2.980	Pitch:	0.017	Yaw:	6.398	Thrust:	63.284
Time:	2.965	Roll Set Point:	-0.205	Pitch Set Point:	0.065	Yaw Set Point:	-0.046	X_WP:	0.000	Y_WP:	0.000	Y_WP:	0.500	X:	0.103	Y:	-0.030	Z:	0.095	yaw:	2.646	yaw rate:	15.561	Roll:	2.145	Pitch:	0.360	Yaw:	7.353	Thrust:	61.325
Time:	2.975	Roll Set Point:	-0.203	Pitch Set Point:	0.064	Yaw Set Point:	-0.055	X_WP:	0.000	Y_WP:	0.000	Y_WP:	0.500	X:	0.103	Y:	-0.029	Z:	0.097	yaw:	3.134	yaw rate:	48.737	Roll:	1.996	Pitch:	-0.928	Yaw:	17.073	Thrust:	54.806
Time:	2.987	Roll Set Point:	-0.203	Pitch Set Point:	0.061	Yaw Set Point:	-0.048	X_WP:	0.000	Y_WP:	0.000	Y_WP:	0.500	X:	0.102	Y:	-0.028	Z:	0.099	yaw:	2.759	yaw rate:	-37.508	Roll:	2.892	Pitch:	1.542	Yaw:	-4.313	Thrust:	65.810
Time:	2.999	Roll Set Point:	-0.201	Pitch Set Point:	0.057	Yaw Set Point:	-0.055	X_WP:	0.000	Y_WP:	0.000	Y_WP:	0.500	X:	0.101	Y:	-0.026	Z:	0.103	yaw:	3.164	yaw rate:	45.462	Roll:	1.700	Pitch:	1.430	Yaw:	12.874	Thrust:	60.757
Time:	3.010	Roll Set Point:	-0.201	Pitch Set Point:	0.057	Yaw Set Point:	-0.055	X_WP:	0.000	Y_WP:	0.000	Y_WP:	0.500	X:	0.101	Y:	-0.026	Z:	0.103	yaw:	3.164	yaw rate:	45.462	Roll:	3.128	Pitch:	-1.004	Yaw:	4.428	Thrust:	69.382
Time:	3.022	Roll Set Point:	-0.199	Pitch Set Point:	0.052	Yaw Set Point:	-0.053	X_WP:	0.000	Y_WP:	0.000	Y_WP:	0.500	X:	0.100	Y:	-0.023	Z:	0.107	yaw:	3.041	yaw rate:	5.351	Roll:	2.032	Pitch:	3.031	Yaw:	1.580	Thrust:	58.945
Time:	3.033	Roll Set Point:	-0.198	Pitch Set Point:	0.049	Yaw Set Point:	-0.048	X_WP:	0.000	Y_WP:	0.000	Y_WP:	0.500	X:	0.100	Y:	-0.022	Z:	0.109	yaw:	2.752	yaw rate:	-28.802	Roll:	2.492	Pitch:	1.591	Yaw:	-3.285	Thrust:	59.878
Time:	3.044	Roll Set Point:	-0.197	Pitch Set Point:	0.046	Yaw Set Point:	-0.049	X_WP:	0.000	Y_WP:	0.000	Y_WP:	0.500	X:	0.099	Y:	-0.021	Z:	0.111	yaw:	2.782	yaw rate:	2.942	Roll:	2.573	Pitch:	1.072	Yaw:	4.598	Thrust:	65.200
Time:	3.056	Roll Set Point:	-0.195	Pitch Set Point:	0.042	Yaw Set Point:	-0.056	X_WP:	0.000	Y_WP:	0.000	Y_WP:	0.500	X:	0.098	Y:	-0.018	Z:	0.115	yaw:	3.217	yaw rate:	43.461	Roll:	1.179	Pitch:	2.162	Yaw:	14.416	Thrust:	57.253
Time:	3.067	Roll Set Point:	-0.194	Pitch Set Point:	0.039	Yaw Set Point:	-0.055	X_WP:	0.000	Y_WP:	0.000	Y_WP:	0.500	X:	0.097	Y:	-0.017	Z:	0.117	yaw:	3.145	yaw rate:	-7.168	Roll:	2.304	Pitch:	1.322	Yaw:	2.673	Thrust:	60.846
Time:	3.078	Roll Set Point:	-0.192	Pitch Set Point:	0.037	Yaw Set Point:	-0.056	X_WP:	0.000	Y_WP:	0.000	Y_WP:	0.500	X:	0.097	Y:	-0.016	Z:	0.119	yaw:	3.216	yaw rate:	7.148	Roll:	2.056	Pitch:	0.996	Yaw:	6.266	Thrust:	63.242
Time:	3.089	Roll Set Point:	-0.191	Pitch Set Point:	0.034	Yaw Set Point:	-0.050	X_WP:	0.000	Y_WP:	0.000	Y_WP:	0.500	X:	0.096	Y:	-0.014	Z:	0.121	yaw:	2.850	yaw rate:	-36.611	Roll:	2.387	Pitch:	2.249	Yaw:	-4.220	Thrust:	66.470
Time:	3.100	Roll Set Point:	-0.190	Pitch Set Point:	0.031	Yaw Set Point:	-0.052	X_WP:	0.000	Y_WP:	0.000	Y_WP:	0.500	X:	0.095	Y:	-0.013	Z:	0.123	yaw:	2.965	yaw rate:	11.460	Roll:	1.796	Pitch:	1.214	Yaw:	7.086	Thrust:	62.066
Time:	3.112	Roll Set Point:	-0.189	Pitch Set Point:	0.028	Yaw Set Point:	-0.047	X_WP:	0.000	Y_WP:	0.000	Y_WP:	0.500	X:	0.095	Y:	-0.012	Z:	0.125	yaw:	2.699	yaw rate:	-26.556	Roll:	2.535	Pitch:	2.202	Yaw:	-1.884	Thrust:	64.015
Time:	3.122	Roll Set Point:	-0.188	Pitch Set Point:	0.025	Yaw Set Point:	-0.049	X_WP:	0.000	Y_WP:	0.000	Y_WP:	0.500	X:	0.094	Y:	-0.010	Z:	0.127	yaw:	2.803	yaw rate:	10.419	Roll:	2.103	Pitch:	1.303	Yaw:	6.621	Thrust:	67.971
Time:	3.133	Roll Set Point:	-0.186	Pitch Set Point:	0.023	Yaw Set Point:	-0.047	X_WP:	0.000	Y_WP:	0.000	Y_WP:	0.500	X:	0.093	Y:	-0.009	Z:	0.129	yaw:	2.719	yaw rate:	-8.432	Roll:	1.988	Pitch:	1.792	Yaw:	1.838	Thrust:	61.839
Time:	3.144	Roll Set Point:	-0.185	Pitch Set Point:	0.020	Yaw Set Point:	-0.050	X_WP:	0.000	Y_WP:	0.000	Y_WP:	0.500	X:	0.093	Y:	-0.008	Z:	0.132	yaw:	2.855	yaw rate:	13.599	Roll:	1.895	Pitch:	1.016	Yaw:	7.227	Thrust:	67.466
Time:	3.156	Roll Set Point:	-0.184	Pitch Set Point:	0.017	Yaw Set Point:	-0.046	X_WP:	0.000	Y_WP:	0.000	Y_WP:	0.500	X:	0.092	Y:	-0.006	Z:	0.134	yaw:	2.663	yaw rate:	-19.258	Roll:	2.250	Pitch:	2.416	Yaw:	-0.492	Thrust:	65.265
Time:	3.167	Roll Set Point:	-0.183	Pitch Set Point:	0.014	Yaw Set Point:	-0.046	X_WP:	0.000	Y_WP:	0.000	Y_WP:	0.500	X:	0.091	Y:	-0.005	Z:	0.136	yaw:	2.620	yaw rate:	-4.204	Roll:	1.928	Pitch:	1.594	Yaw:	2.879	Thrust:	70.829
Time:	3.186	Roll Set Point:	-0.180	Pitch Set Point:	0.009	Yaw Set Point:	-0.048	X_WP:	0.000	Y_WP:	0.000	Y_WP:	0.500	X:	0.090	Y:	-0.003	Z:	0.141	yaw:	2.777	yaw rate:	15.629	Roll:	1.996	Pitch:	1.763	Yaw:	6.329	Thrust:	100.000
Time:	3.198	Roll Set Point:	-0.177	Pitch Set Point:	0.004	Yaw Set Point:	-0.049	X_WP:	0.000	Y_WP:	0.000	Y_WP:	0.500	X:	0.089	Y:	0.000	Z:	0.146	yaw:	2.824	yaw rate:	11.861	Roll:	1.166	Pitch:	3.508	Yaw:	5.218	Thrust:	58.401
Time:	3.210	Roll Set Point:	-0.176	Pitch Set Point:	0.001	Yaw Set Point:	-0.044	X_WP:	0.000	Y_WP:	0.000	Y_WP:	0.500	X:	0.088	Y:	0.001	Z:	0.149	yaw:	2.508	yaw rate:	-31.626	Roll:	1.871	Pitch:	2.478	Yaw:	-3.161	Thrust:	70.281
Time:	3.223	Roll Set Point:	-0.175	Pitch Set Point:	-0.001	Yaw Set Point:	-0.044	X_WP:	0.000	Y_WP:	0.000	Y_WP:	0.500	X:	0.087	Y:	0.003	Z:	0.151	yaw:	2.493	yaw rate:	-1.467	Roll:	1.967	Pitch:	1.407	Yaw:	3.413	Thrust:	74.136
Time:	3.235	Roll Set Point:	-0.173	Pitch Set Point:	-0.004	Yaw Set Point:	-0.045	X_WP:	0.000	Y_WP:	0.000	Y_WP:	0.500	X:	0.087	Y:	0.004	Z:	0.155	yaw:	2.594	yaw rate:	10.110	Roll:	1.977	Pitch:	1.547	Yaw:	6.056	Thrust:	69.365
Time:	3.250	Roll Set Point:	-0.172	Pitch Set Point:	-0.006	Yaw Set Point:	-0.044	X_WP:	0.000	Y_WP:	0.000	Y_WP:	0.500	X:	0.086	Y:	0.005	Z:	0.158	yaw:	2.523	yaw rate:	-7.147	Roll:	1.691	Pitch:	1.474	Yaw:	2.589	Thrust:	88.135
Time:	3.263	Roll Set Point:	-0.169	Pitch Set Point:	-0.011	Yaw Set Point:	-0.043	X_WP:	0.000	Y_WP:	0.000	Y_WP:	0.500	X:	0.084	Y:	0.007	Z:	0.164	yaw:	2.479	yaw rate:	-8.701	Roll:	1.559	Pitch:	2.793	Yaw:	2.856	Thrust:	63.583
Time:	3.274	Roll Set Point:	-0.168	Pitch Set Point:	-0.013	Yaw Set Point:	-0.042	X_WP:	0.000	Y_WP:	0.000	Y_WP:	0.500	X:	0.084	Y:	0.008	Z:	0.168	yaw:	2.431	yaw rate:	-4.819	Roll:	1.664	Pitch:	1.763	Yaw:	2.497	Thrust:	63.155
Time:	3.292	Roll Set Point:	-0.166	Pitch Set Point:	-0.015	Yaw Set Point:	-0.043	X_WP:	0.000	Y_WP:	0.000	Y_WP:	0.500	X:	0.083	Y:	0.009	Z:	0.171	yaw:	2.446	yaw rate:	1.509	Roll:	2.324	Pitch:	1.093	Yaw:	4.053	Thrust:	100.000
Time:	3.303	Roll Set Point:	-0.165	Pitch Set Point:	-0.017	Yaw Set Point:	-0.046	X_WP:	0.000	Y_WP:	0.000	Y_WP:	0.500	X:	0.082	Y:	0.010	Z:	0.175	yaw:	2.621	yaw rate:	17.478	Roll:	1.591	Pitch:	1.143	Yaw:	8.103	Thrust:	60.137
Time:	3.319	Roll Set Point:	-0.162	Pitch Set Point:	-0.021	Yaw Set Point:	-0.040	X_WP:	0.000	Y_WP:	0.000	Y_WP:	0.500	X:	0.081	Y:	0.012	Z:	0.184	yaw:	2.286	yaw rate:	-33.473	Roll:	0.563	Pitch:	2.940	Yaw:	-2.046	Thrust:	74.045
Time:	3.331	Roll Set Point:	-0.159	Pitch Set Point:	-0.025	Yaw Set Point:	-0.040	X_WP:	0.000	Y_WP:	0.000	Y_WP:	0.500	X:	0.079	Y:	0.014	Z:	0.193	yaw:	2.309	yaw rate:	19.587	Roll:	1.339	Pitch:	2.582	Yaw:	4.030	Thrust:	56.944
Time:	3.341	Roll Set Point:	-0.158	Pitch Set Point:	-0.027	Yaw Set Point:	-0.037	X_WP:	0.000	Y_WP:	0.000	Y_WP:	0.500	X:	0.079	Y:	0.015	Z:	0.197	yaw:	2.124	yaw rate:	-18.557	Roll:	1.515	Pitch:	1.917	Yaw:	-1.606	Thrust:	54.209
Time:	3.355	Roll Set Point:	-0.156	Pitch Set Point:	-0.028	Yaw Set Point:	-0.038	X_WP:	0.000	Y_WP:	0.000	Y_WP:	0.500	X:	0.078	Y:	0.016	Z:	0.202	yaw:	2.202	yaw rate:	7.834	Roll:	1.779	Pitch:	1.198	Yaw:	4.959	Thrust:	74.989
Time:	3.366	Roll Set Point:	-0.155	Pitch Set Point:	-0.030	Yaw Set Point:	-0.039	X_WP:	0.000	Y_WP:	0.000	Y_WP:	0.500	X:	0.077	Y:	0.017	Z:	0.207	yaw:	2.223	yaw rate:	2.123	Roll:	1.700	Pitch:	1.484	Yaw:	3.911	Thrust:	59.899
Time:	3.377	Roll Set Point:	-0.153	Pitch Set Point:	-0.031	Yaw Set Point:	-0.037	X_WP:	0.000	Y_WP:	0.000	Y_WP:	0.500	X:	0.076	Y:	0.017	Z:	0.212	yaw:	2.106	yaw rate:	-11.753	Roll:	1.286	Pitch:	1.475	Yaw:	0.469	Thrust:	57.315
Time:	3.389	Roll Set Point:	-0.152	Pitch Set Point:	-0.033	Yaw Set Point:	-0.035	X_WP:	0.000	Y_WP:	0.000	Y_WP:	0.500	X:	0.076	Y:	0.018	Z:	0.218	yaw:	2.026	yaw rate:	-7.931	Roll:	1.722	Pitch:	1.764	Yaw:	1.374	Thrust:	59.217
Time:	3.400	Roll Set Point:	-0.149	Pitch Set Point:	-0.036	Yaw Set Point:	-0.034	X_WP:	0.000	Y_WP:	0.000	Y_WP:	0.500	X:	0.074	Y:	0.019	Z:	0.229	yaw:	1.956	yaw rate:	-7.050	Roll:	0.433	Pitch:	2.349	Yaw:	1.300	Thrust:	27.913
Time:	3.412	Roll Set Point:	-0.148	Pitch Set Point:	-0.037	Yaw Set Point:	-0.032	X_WP:	0.000	Y_WP:	0.000	Y_WP:	0.500	X:	0.074	Y:	0.020	Z:	0.234	yaw:	1.861	yaw rate:	-9.458	Roll:	1.560	Pitch:	1.577	Yaw:	0.695	Thrust:	55.412
Time:	3.422	Roll Set Point:	-0.147	Pitch Set Point:	-0.038	Yaw Set Point:	-0.034	X_WP:	0.000	Y_WP:	0.000	Y_WP:	0.500	X:	0.073	Y:	0.020	Z:	0.240	yaw:	1.930	yaw rate:	6.889	Roll:	1.652	Pitch:	1.222	Yaw:	4.621	Thrust:	58.200
Time:	3.433	Roll Set Point:	-0.146	Pitch Set Point:	-0.039	Yaw Set Point:	-0.037	X_WP:	0.000	Y_WP:	0.000	Y_WP:	0.500	X:	0.073	Y:	0.021	Z:	0.245	yaw:	2.114	yaw rate:	18.382	Roll:	1.682	Pitch:	0.745	Yaw:	7.671	Thrust:	54.443
Time:	3.445	Roll Set Point:	-0.145	Pitch Set Point:	-0.040	Yaw Set Point:	-0.036	X_WP:	0.000	Y_WP:	0.000	Y_WP:	0.500	X:	0.072	Y:	0.021	Z:	0.251	yaw:	2.054	yaw rate:	-5.982	Roll:	1.556	Pitch:	1.404	Yaw:	1.891	Thrust:	57.756
Time:	3.456	Roll Set Point:	-0.144	Pitch Set Point:	-0.041	Yaw Set Point:	-0.029	X_WP:	0.000	Y_WP:	0.000	Y_WP:	0.500	X:	0.072	Y:	0.022	Z:	0.257	yaw:	1.655	yaw rate:	-39.958	Roll:	1.407	Pitch:	1.769	Yaw:	-6.373	Thrust:	58.243
Time:	3.467	Roll Set Point:	-0.143	Pitch Set Point:	-0.042	Yaw Set Point:	-0.030	X_WP:	0.000	Y_WP:	0.000	Y_WP:	0.500	X:	0.071	Y:	0.022	Z:	0.262	yaw:	1.716	yaw rate:	6.169	Roll:	1.604	Pitch:	0.973	Yaw:	4.291	Thrust:	49.939
Time:	3.477	Roll Set Point:	-0.142	Pitch Set Point:	-0.043	Yaw Set Point:	-0.030	X_WP:	0.000	Y_WP:	0.000	Y_WP:	0.500	X:	0.070	Y:	0.022	Z:	0.268	yaw:	1.691	yaw rate:	-2.501	Roll:	1.545	Pitch:	1.272	Yaw:	2.059	Thrust:	45.731
Time:	3.489	Roll Set Point:	-0.141	Pitch Set Point:	-0.043	Yaw Set Point:	-0.033	X_WP:	0.000	Y_WP:	0.000	Y_WP:	0.500	X:	0.070	Y:	0.023	Z:	0.274	yaw:	1.909	yaw rate:	21.757	Roll:	1.776	Pitch:	0.588	Yaw:	8.004	Thrust:	58.205
Time:	3.500	Roll Set Point:	-0.140	Pitch Set Point:	-0.044	Yaw Set Point:	-0.034	X_WP:	0.000	Y_WP:	0.000	Y_WP:	0.500	X:	0.069	Y:	0.023	Z:	0.280	yaw:	1.953	yaw rate:	4.455	Roll:	1.657	Pitch:	0.997	Yaw:	4.170	Thrust:	56.731
Time:	3.511	Roll Set Point:	-0.139	Pitch Set Point:	-0.044	Yaw Set Point:	-0.033	X_WP:	0.000	Y_WP:	0.000	Y_WP:	0.500	X:	0.069	Y:	0.023	Z:	0.285	yaw:	1.889	yaw rate:	-6.417	Roll:	1.663	Pitch:	0.994	Yaw:	1.521	Thrust:	54.026
Time:	3.522	Roll Set Point:	-0.138	Pitch Set Point:	-0.045	Yaw Set Point:	-0.029	X_WP:	0.000	Y_WP:	0.000	Y_WP:	0.500	X:	0.069	Y:	0.024	Z:	0.291	yaw:	1.686	yaw rate:	-20.278	Roll:	1.562	Pitch:	1.175	Yaw:	-1.801	Thrust:	58.923
Time:	3.534	Roll Set Point:	-0.137	Pitch Set Point:	-0.045	Yaw Set Point:	-0.029	X_WP:	0.000	Y_WP:	0.000	Y_WP:	0.500	X:	0.068	Y:	0.024	Z:	0.296	yaw:	1.690	yaw rate:	0.336	Roll:	1.514	Pitch:	0.769	Yaw:	2.877	Thrust:	59.782
Time:	3.546	Roll Set Point:	-0.135	Pitch Set Point:	-0.046	Yaw Set Point:	-0.031	X_WP:	0.000	Y_WP:	0.000	Y_WP:	0.500	X:	0.067	Y:	0.024	Z:	0.312	yaw:	1.801	yaw rate:	30.571	Roll:	0.900	Pitch:	1.117	Yaw:	5.391	Thrust:	23.489
Time:	3.560	Roll Set Point:	-0.133	Pitch Set Point:	-0.046	Yaw Set Point:	-0.029	X_WP:	0.000	Y_WP:	0.000	Y_WP:	0.500	X:	0.066	Y:	0.024	Z:	0.317	yaw:	1.683	yaw rate:	-11.796	Roll:	1.697	Pitch:	0.601	Yaw:	0.702	Thrust:	79.317
Time:	3.570	Roll Set Point:	-0.133	Pitch Set Point:	-0.047	Yaw Set Point:	-0.032	X_WP:	0.000	Y_WP:	0.000	Y_WP:	0.500	X:	0.066	Y:	0.024	Z:	0.322	yaw:	1.809	yaw rate:	12.604	Roll:	2.006	Pitch:	0.713	Yaw:	6.078	Thrust:	52.833
Time:	3.586	Roll Set Point:	-0.132	Pitch Set Point:	-0.047	Yaw Set Point:	-0.028	X_WP:	0.000	Y_WP:	0.000	Y_WP:	0.500	X:	0.066	Y:	0.024	Z:	0.327	yaw:	1.619	yaw rate:	-18.980	Roll:	1.729	Pitch:	0.659	Yaw:	-0.300	Thrust:	91.084
Time:	3.597	Roll Set Point:	-0.132	Pitch Set Point:	-0.047	Yaw Set Point:	-0.031	X_WP:	0.000	Y_WP:	0.000	Y_WP:	0.500	X:	0.065	Y:	0.024	Z:	0.331	yaw:	1.763	yaw rate:	14.390	Roll:	2.081	Pitch:	0.509	Yaw:	6.331	Thrust:	58.060
Time:	3.608	Roll Set Point:	-0.131	Pitch Set Point:	-0.047	Yaw Set Point:	-0.024	X_WP:	0.000	Y_WP:	0.000	Y_WP:	0.500	X:	0.065	Y:	0.024	Z:	0.335	yaw:	1.383	yaw rate:	-37.984	Roll:	1.453	Pitch:	1.053	Yaw:	-6.756	Thrust:	57.960
Time:	3.620	Roll Set Point:	-0.130	Pitch Set Point:	-0.046	Yaw Set Point:	-0.038	X_WP:	0.000	Y_WP:	0.000	Y_WP:	0.500	X:	0.065	Y:	0.024	Z:	0.340	yaw:	2.201	yaw rate:	81.790	Roll:	2.265	Pitch:	-0.846	Yaw:	21.952	Thrust:	63.267
Time:	3.630	Roll Set Point:	-0.130	Pitch Set Point:	-0.047	Yaw Set Point:	-0.026	X_WP:	0.000	Y_WP:	0.000	Y_WP:	0.500	X:	0.065	Y:	0.024	Z:	0.344	yaw:	1.500	yaw rate:	-70.056	Roll:	1.484	Pitch:	1.790	Yaw:	-14.873	Thrust:	52.217
Time:	3.640	Roll Set Point:	-0.129	Pitch Set Point:	-0.046	Yaw Set Point:	-0.026	X_WP:	0.000	Y_WP:	0.000	Y_WP:	0.500	X:	0.064	Y:	0.024	Z:	0.348	yaw:	1.496	yaw rate:	-0.484	Roll:	1.700	Pitch:	0.206	Yaw:	2.398	Thrust:	55.927
Time:	3.656	Roll Set Point:	-0.129	Pitch Set Point:	-0.046	Yaw Set Point:	-0.029	X_WP:	0.000	Y_WP:	0.000	Y_WP:	0.500	X:	0.064	Y:	0.024	Z:	0.352	yaw:	1.659	yaw rate:	16.316	Roll:	2.175	Pitch:	0.207	Yaw:	5.747	Thrust:	92.749
Time:	3.666	Roll Set Point:	-0.128	Pitch Set Point:	-0.046	Yaw Set Point:	-0.028	X_WP:	0.000	Y_WP:	0.000	Y_WP:	0.500	X:	0.064	Y:	0.024	Z:	0.361	yaw:	1.607	yaw rate:	-13.955	Roll:	1.648	Pitch:	0.234	Yaw:	1.445	Thrust:	38.884
Time:	3.678	Roll Set Point:	-0.127	Pitch Set Point:	-0.045	Yaw Set Point:	-0.025	X_WP:	0.000	Y_WP:	0.000	Y_WP:	0.500	X:	0.063	Y:	0.023	Z:	0.369	yaw:	1.432	yaw rate:	-17.495	Roll:	1.605	Pitch:	0.157	Yaw:	-1.264	Thrust:	42.134
Time:	3.689	Roll Set Point:	-0.127	Pitch Set Point:	-0.044	Yaw Set Point:	-0.028	X_WP:	0.000	Y_WP:	0.000	Y_WP:	0.500	X:	0.063	Y:	0.023	Z:	0.373	yaw:	1.587	yaw rate:	15.503	Roll:	2.009	Pitch:	-0.161	Yaw:	6.540	Thrust:	62.875
Time:	3.700	Roll Set Point:	-0.127	Pitch Set Point:	-0.043	Yaw Set Point:	-0.032	X_WP:	0.000	Y_WP:	0.000	Y_WP:	0.500	X:	0.063	Y:	0.023	Z:	0.377	yaw:	1.845	yaw rate:	25.775	Roll:	2.289	Pitch:	-0.415	Yaw:	9.203	Thrust:	58.509
Time:	3.712	Roll Set Point:	-0.127	Pitch Set Point:	-0.043	Yaw Set Point:	-0.031	X_WP:	0.000	Y_WP:	0.000	Y_WP:	0.500	X:	0.063	Y:	0.022	Z:	0.382	yaw:	1.790	yaw rate:	-5.465	Roll:	1.937	Pitch:	0.093	Yaw:	1.874	Thrust:	57.783
Time:	3.724	Roll Set Point:	-0.126	Pitch Set Point:	-0.042	Yaw Set Point:	-0.028	X_WP:	0.000	Y_WP:	0.000	Y_WP:	0.500	X:	0.063	Y:	0.022	Z:	0.386	yaw:	1.602	yaw rate:	-18.807	Roll:	2.139	Pitch:	0.353	Yaw:	-1.276	Thrust:	70.687
Time:	3.735	Roll Set Point:	-0.126	Pitch Set Point:	-0.042	Yaw Set Point:	-0.025	X_WP:	0.000	Y_WP:	0.000	Y_WP:	0.500	X:	0.063	Y:	0.022	Z:	0.390	yaw:	1.422	yaw rate:	-18.027	Roll:	2.121	Pitch:	0.211	Yaw:	-1.764	Thrust:	62.187
Time:	3.750	Roll Set Point:	-0.126	Pitch Set Point:	-0.041	Yaw Set Point:	-0.027	X_WP:	0.000	Y_WP:	0.000	Y_WP:	0.500	X:	0.063	Y:	0.021	Z:	0.394	yaw:	1.570	yaw rate:	14.870	Roll:	2.354	Pitch:	-0.221	Yaw:	5.576	Thrust:	81.356
Time:	3.762	Roll Set Point:	-0.127	Pitch Set Point:	-0.039	Yaw Set Point:	-0.033	X_WP:	0.000	Y_WP:	0.000	Y_WP:	0.500	X:	0.063	Y:	0.020	Z:	0.403	yaw:	1.902	yaw rate:	-6.602	Roll:	2.409	Pitch:	-1.144	Yaw:	10.195	Thrust:	59.093
Time:	3.774	Roll Set Point:	-0.127	Pitch Set Point:	-0.038	Yaw Set Point:	-0.025	X_WP:	0.000	Y_WP:	0.000	Y_WP:	0.500	X:	0.063	Y:	0.020	Z:	0.407	yaw:	1.459	yaw rate:	-44.286	Roll:	2.193	Pitch:	0.544	Yaw:	-7.442	Thrust:	54.798
Time:	3.785	Roll Set Point:	-0.126	Pitch Set Point:	-0.037	Yaw Set Point:	-0.027	X_WP:	0.000	Y_WP:	0.000	Y_WP:	0.500	X:	0.063	Y:	0.019	Z:	0.411	yaw:	1.542	yaw rate:	8.349	Roll:	2.141	Pitch:	-0.502	Yaw:	4.685	Thrust:	66.331
Time:	3.796	Roll Set Point:	-0.127	Pitch Set Point:	-0.036	Yaw Set Point:	-0.025	X_WP:	0.000	Y_WP:	0.000	Y_WP:	0.500	X:	0.063	Y:	0.019	Z:	0.415	yaw:	1.446	yaw rate:	-9.586	Roll:	2.405	Pitch:	-0.102	Yaw:	0.429	Thrust:	62.331
Time:	3.807	Roll Set Point:	-0.127	Pitch Set Point:	-0.034	Yaw Set Point:	-0.032	X_WP:	0.000	Y_WP:	0.000	Y_WP:	0.500	X:	0.063	Y:	0.018	Z:	0.423	yaw:	1.824	yaw rate:	37.788	Roll:	2.818	Pitch:	-1.855	Yaw:	12.067	Thrust:	41.040
Time:	3.820	Roll Set Point:	-0.128	Pitch Set Point:	-0.033	Yaw Set Point:	-0.028	X_WP:	0.000	Y_WP:	0.000	Y_WP:	0.500	X:	0.064	Y:	0.017	Z:	0.427	yaw:	1.582	yaw rate:	-24.199	Roll:	2.386	Pitch:	-0.042	Yaw:	-1.957	Thrust:	73.751
Time:	3.832	Roll Set Point:	-0.128	Pitch Set Point:	-0.031	Yaw Set Point:	-0.035	X_WP:	0.000	Y_WP:	0.000	Y_WP:	0.500	X:	0.064	Y:	0.017	Z:	0.432	yaw:	1.996	yaw rate:	41.410	Roll:	2.403	Pitch:	-1.359	Yaw:	12.790	Thrust:	60.956
Time:	3.844	Roll Set Point:	-0.128	Pitch Set Point:	-0.030	Yaw Set Point:	-0.034	X_WP:	0.000	Y_WP:	0.000	Y_WP:	0.500	X:	0.064	Y:	0.016	Z:	0.436	yaw:	1.948	yaw rate:	-4.850	Roll:	2.769	Pitch:	-0.378	Yaw:	2.156	Thrust:	57.228
Time:	3.856	Roll Set Point:	-0.129	Pitch Set Point:	-0.029	Yaw Set Point:	-0.034	X_WP:	0.000	Y_WP:	0.000	Y_WP:	0.500	X:	0.064	Y:	0.016	Z:	0.440	yaw:	1.944	yaw rate:	-0.394	Roll:	2.421	Pitch:	-0.570	Yaw:	3.338	Thrust:	72.005
Time:	3.868	Roll Set Point:	-0.129	Pitch Set Point:	-0.028	Yaw Set Point:	-0.033	X_WP:	0.000	Y_WP:	0.000	Y_WP:	0.500	X:	0.064	Y:	0.015	Z:	0.444	yaw:	1.863	yaw rate:	-8.124	Roll:	2.614	Pitch:	-0.375	Yaw:	1.386	Thrust:	60.651
Time:	3.881	Roll Set Point:	-0.129	Pitch Set Point:	-0.027	Yaw Set Point:	-0.028	X_WP:	0.000	Y_WP:	0.000	Y_WP:	0.500	X:	0.064	Y:	0.014	Z:	0.449	yaw:	1.600	yaw rate:	-26.273	Roll:	2.368	Pitch:	-0.276	Yaw:	-2.818	Thrust:	63.768
Time:	3.899	Roll Set Point:	-0.131	Pitch Set Point:	-0.023	Yaw Set Point:	-0.026	X_WP:	0.000	Y_WP:	0.000	Y_WP:	0.500	X:	0.065	Y:	0.012	Z:	0.462	yaw:	1.486	yaw rate:	-13.555	Roll:	3.342	Pitch:	-1.485	Yaw:	1.501	Thrust:	89.764
Time:	3.910	Roll Set Point:	-0.131	Pitch Set Point:	-0.021	Yaw Set Point:	-0.034	X_WP:	0.000	Y_WP:	0.000	Y_WP:	0.500	X:	0.066	Y:	0.012	Z:	0.467	yaw:	1.956	yaw rate:	47.034	Roll:	2.655	Pitch:	-1.535	Yaw:	13.643	Thrust:	61.775
Time:	3.922	Roll Set Point:	-0.132	Pitch Set Point:	-0.021	Yaw Set Point:	-0.026	X_WP:	0.000	Y_WP:	0.000	Y_WP:	0.500	X:	0.066	Y:	0.011	Z:	0.471	yaw:	1.498	yaw rate:	-45.846	Roll:	2.852	Pitch:	0.074	Yaw:	-7.180	Thrust:	62.199
Time:	3.933	Roll Set Point:	-0.133	Pitch Set Point:	-0.020	Yaw Set Point:	-0.022	X_WP:	0.000	Y_WP:	0.000	Y_WP:	0.500	X:	0.066	Y:	0.011	Z:	0.476	yaw:	1.283	yaw rate:	-21.447	Roll:	2.626	Pitch:	-0.359	Yaw:	-2.663	Thrust:	52.652
Time:	3.946	Roll Set Point:	-0.133	Pitch Set Point:	-0.018	Yaw Set Point:	-0.020	X_WP:	0.000	Y_WP:	0.000	Y_WP:	0.500	X:	0.067	Y:	0.010	Z:	0.481	yaw:	1.166	yaw rate:	-11.743	Roll:	2.814	Pitch:	-0.747	Yaw:	-0.229	Thrust:	57.321
Time:	3.959	Roll Set Point:	-0.134	Pitch Set Point:	-0.017	Yaw Set Point:	-0.019	X_WP:	0.000	Y_WP:	0.000	Y_WP:	0.500	X:	0.067	Y:	0.009	Z:	0.486	yaw:	1.108	yaw rate:	-5.717	Roll:	2.913	Pitch:	-0.712	Yaw:	1.232	Thrust:	76.196
Time:	3.969	Roll Set Point:	-0.135	Pitch Set Point:	-0.015	Yaw Set Point:	-0.021	X_WP:	0.000	Y_WP:	0.000	Y_WP:	0.500	X:	0.067	Y:	0.008	Z:	0.490	yaw:	1.199	yaw rate:	9.002	Roll:	2.845	Pitch:	-1.228	Yaw:	4.530	Thrust:	47.480
Time:	3.987	Roll Set Point:	-0.135	Pitch Set Point:	-0.014	Yaw Set Point:	-0.021	X_WP:	0.000	Y_WP:	0.000	Y_WP:	0.500	X:	0.068	Y:	0.008	Z:	0.495	yaw:	1.197	yaw rate:	-0.125	Roll:	2.983	Pitch:	-0.767	Yaw:	2.662	Thrust:	94.037
Time:	3.998	Roll Set Point:	-0.138	Pitch Set Point:	-0.010	Yaw Set Point:	-0.017	X_WP:	0.000	Y_WP:	0.000	Y_WP:	0.500	X:	0.069	Y:	0.006	Z:	0.510	yaw:	0.961	yaw rate:	-26.108	Roll:	3.982	Pitch:	-2.288	Yaw:	-3.602	Thrust:	15.335
Time:	4.011	Roll Set Point:	-0.139	Pitch Set Point:	-0.008	Yaw Set Point:	-0.020	X_WP:	0.000	Y_WP:	0.000	Y_WP:	0.500	X:	0.070	Y:	0.005	Z:	0.515	yaw:	1.167	yaw rate:	20.559	Roll:	3.320	Pitch:	-1.414	Yaw:	6.787	Thrust:	59.622
Time:	4.023	Roll Set Point:	-0.140	Pitch Set Point:	-0.007	Yaw Set Point:	-0.020	X_WP:	0.000	Y_WP:	0.000	Y_WP:	0.500	X:	0.070	Y:	0.004	Z:	0.520	yaw:	1.173	yaw rate:	0.577	Roll:	2.959	Pitch:	-0.932	Yaw:	2.542	Thrust:	62.215
Time:	4.033	Roll Set Point:	-0.141	Pitch Set Point:	-0.006	Yaw Set Point:	-0.017	X_WP:	0.000	Y_WP:	0.000	Y_WP:	0.500	X:	0.070	Y:	0.003	Z:	0.525	yaw:	1.001	yaw rate:	-17.136	Roll:	3.129	Pitch:	-0.789	Yaw:	-2.220	Thrust:	49.910
Time:	4.045	Roll Set Point:	-0.142	Pitch Set Point:	-0.004	Yaw Set Point:	-0.018	X_WP:	0.000	Y_WP:	0.000	Y_WP:	0.500	X:	0.071	Y:	0.003	Z:	0.530	yaw:	1.029	yaw rate:	2.742	Roll:	3.112	Pitch:	-1.226	Yaw:	2.768	Thrust:	57.400
Time:	4.057	Roll Set Point:	-0.142	Pitch Set Point:	-0.003	Yaw Set Point:	-0.015	X_WP:	0.000	Y_WP:	0.000	Y_WP:	0.500	X:	0.071	Y:	0.002	Z:	0.535	yaw:	0.874	yaw rate:	-15.510	Roll:	3.127	Pitch:	-0.756	Yaw:	-1.593	Thrust:	53.278
Time:	4.068	Roll Set Point:	-0.143	Pitch Set Point:	-0.001	Yaw Set Point:	-0.022	X_WP:	0.000	Y_WP:	0.000	Y_WP:	0.500	X:	0.072	Y:	0.001	Z:	0.540	yaw:	1.237	yaw rate:	36.355	Roll:	3.037	Pitch:	-1.922	Yaw:	10.692	Thrust:	52.633
Time:	4.083	Roll Set Point:	-0.144	Pitch Set Point:	0.000	Yaw Set Point:	-0.016	X_WP:	0.000	Y_WP:	0.000	Y_WP:	0.500	X:	0.072	Y:	0.001	Z:	0.545	yaw:	0.911	yaw rate:	-32.589	Roll:	3.203	Pitch:	-0.516	Yaw:	-3.446	Thrust:	79.698
Time:	4.097	Roll Set Point:	-0.147	Pitch Set Point:	0.005	Yaw Set Point:	-0.027	X_WP:	0.000	Y_WP:	0.000	Y_WP:	0.500	X:	0.074	Y:	-0.001	Z:	0.560	yaw:	1.570	yaw rate:	74.009	Roll:	4.514	Pitch:	-3.525	Yaw:	16.228	Thrust:	22.815
Time:	4.107	Roll Set Point:	-0.148	Pitch Set Point:	0.005	Yaw Set Point:	-0.015	X_WP:	0.000	Y_WP:	0.000	Y_WP:	0.500	X:	0.074	Y:	-0.002	Z:	0.565	yaw:	0.836	yaw rate:	-73.385	Roll:	3.341	Pitch:	0.269	Yaw:	-16.407	Thrust:	46.185
Time:	4.120	Roll Set Point:	-0.149	Pitch Set Point:	0.007	Yaw Set Point:	-0.018	X_WP:	0.000	Y_WP:	0.000	Y_WP:	0.500	X:	0.074	Y:	-0.003	Z:	0.570	yaw:	1.054	yaw rate:	21.780	Roll:	2.910	Pitch:	-1.523	Yaw:	6.803	Thrust:	59.272
Time:	4.131	Roll Set Point:	-0.150	Pitch Set Point:	0.008	Yaw Set Point:	-0.011	X_WP:	0.000	Y_WP:	0.000	Y_WP:	0.500	X:	0.075	Y:	-0.003	Z:	0.575	yaw:	0.644	yaw rate:	-40.992	Roll:	3.445	Pitch:	-0.453	Yaw:	-8.129	Thrust:	46.418
Time:	4.141	Roll Set Point:	-0.151	Pitch Set Point:	0.010	Yaw Set Point:	-0.019	X_WP:	0.000	Y_WP:	0.000	Y_WP:	0.500	X:	0.075	Y:	-0.004	Z:	0.580	yaw:	1.077	yaw rate:	43.352	Roll:	3.382	Pitch:	-2.381	Yaw:	13.447	Thrust:	37.523
Time:	4.153	Roll Set Point:	-0.152	Pitch Set Point:	0.010	Yaw Set Point:	-0.010	X_WP:	0.000	Y_WP:	0.000	Y_WP:	0.500	X:	0.076	Y:	-0.005	Z:	0.585	yaw:	0.593	yaw rate:	-48.414	Roll:	3.366	Pitch:	-0.143	Yaw:	-8.475	Thrust:	58.195
Time:	4.164	Roll Set Point:	-0.153	Pitch Set Point:	0.012	Yaw Set Point:	-0.019	X_WP:	0.000	Y_WP:	0.000	Y_WP:	0.500	X:	0.077	Y:	-0.005	Z:	0.590	yaw:	1.083	yaw rate:	49.032	Roll:	3.560	Pitch:	-2.191	Yaw:	13.863	Thrust:	46.488
Time:	4.174	Roll Set Point:	-0.154	Pitch Set Point:	0.013	Yaw Set Point:	-0.012	X_WP:	0.000	Y_WP:	0.000	Y_WP:	0.500	X:	0.077	Y:	-0.006	Z:	0.594	yaw:	0.670	yaw rate:	-41.290	Roll:	3.168	Pitch:	-0.630	Yaw:	-9.162	Thrust:	38.655
Time:	4.187	Roll Set Point:	-0.155	Pitch Set Point:	0.016	Yaw Set Point:	-0.019	X_WP:	0.000	Y_WP:	0.000	Y_WP:	0.500	X:	0.078	Y:	-0.007	Z:	0.603	yaw:	1.063	yaw rate:	39.277	Roll:	3.881	Pitch:	-2.818	Yaw:	10.478	Thrust:	43.820
Time:	4.198	Roll Set Point:	-0.157	Pitch Set Point:	0.016	Yaw Set Point:	-0.012	X_WP:	0.000	Y_WP:	0.000	Y_WP:	0.500	X:	0.079	Y:	-0.008	Z:	0.607	yaw:	0.662	yaw rate:	-40.121	Roll:	3.847	Pitch:	-0.271	Yaw:	-7.871	Thrust:	47.685
Time:	4.209	Roll Set Point:	-0.158	Pitch Set Point:	0.018	Yaw Set Point:	-0.012	X_WP:	0.000	Y_WP:	0.000	Y_WP:	0.500	X:	0.079	Y:	-0.008	Z:	0.610	yaw:	0.686	yaw rate:	2.409	Roll:	3.402	Pitch:	-1.312	Yaw:	2.255	Thrust:	48.670
Time:	4.220	Roll Set Point:	-0.158	Pitch Set Point:	0.020	Yaw Set Point:	-0.019	X_WP:	0.000	Y_WP:	0.000	Y_WP:	0.500	X:	0.079	Y:	-0.009	Z:	0.614	yaw:	1.074	yaw rate:	38.757	Roll:	3.002	Pitch:	-2.394	Yaw:	11.805	Thrust:	46.142
Time:	4.231	Roll Set Point:	-0.159	Pitch Set Point:	0.021	Yaw Set Point:	-0.022	X_WP:	0.000	Y_WP:	0.000	Y_WP:	0.500	X:	0.080	Y:	-0.010	Z:	0.617	yaw:	1.248	yaw rate:	17.389	Roll:	3.272	Pitch:	-1.776	Yaw:	6.603	Thrust:	49.565
Time:	4.241	Roll Set Point:	-0.160	Pitch Set Point:	0.022	Yaw Set Point:	-0.018	X_WP:	0.000	Y_WP:	0.000	Y_WP:	0.500	X:	0.080	Y:	-0.010	Z:	0.620	yaw:	1.024	yaw rate:	-22.326	Roll:	3.537	Pitch:	-0.998	Yaw:	-3.712	Thrust:	43.439
Time:	4.253	Roll Set Point:	-0.161	Pitch Set Point:	0.023	Yaw Set Point:	-0.016	X_WP:	0.000	Y_WP:	0.000	Y_WP:	0.500	X:	0.080	Y:	-0.011	Z:	0.623	yaw:	0.935	yaw rate:	-8.951	Roll:	3.264	Pitch:	-1.048	Yaw:	0.278	Thrust:	62.746
Time:	4.264	Roll Set Point:	-0.162	Pitch Set Point:	0.023	Yaw Set Point:	-0.010	X_WP:	0.000	Y_WP:	0.000	Y_WP:	0.500	X:	0.081	Y:	-0.011	Z:	0.625	yaw:	0.563	yaw rate:	-37.152	Roll:	3.827	Pitch:	-0.299	Yaw:	-7.288	Thrust:	51.936
Time:	4.274	Roll Set Point:	-0.163	Pitch Set Point:	0.024	Yaw Set Point:	-0.009	X_WP:	0.000	Y_WP:	0.000	Y_WP:	0.500	X:	0.082	Y:	-0.012	Z:	0.627	yaw:	0.527	yaw rate:	-3.638	Roll:	3.522	Pitch:	-1.293	Yaw:	0.490	Thrust:	47.016
Time:	4.286	Roll Set Point:	-0.164	Pitch Set Point:	0.026	Yaw Set Point:	-0.011	X_WP:	0.000	Y_WP:	0.000	Y_WP:	0.500	X:	0.082	Y:	-0.012	Z:	0.629	yaw:	0.602	yaw rate:	7.550	Roll:	3.461	Pitch:	-1.447	Yaw:	3.297	Thrust:	60.888
Time:	4.297	Roll Set Point:	-0.166	Pitch Set Point:	0.029	Yaw Set Point:	-0.022	X_WP:	0.000	Y_WP:	0.000	Y_WP:	0.500	X:	0.083	Y:	-0.013	Z:	0.633	yaw:	1.233	yaw rate:	63.017	Roll:	4.040	Pitch:	-3.427	Yaw:	17.426	Thrust:	48.319
Time:	4.308	Roll Set Point:	-0.167	Pitch Set Point:	0.030	Yaw Set Point:	-0.020	X_WP:	0.000	Y_WP:	0.000	Y_WP:	0.500	X:	0.083	Y:	-0.014	Z:	0.634	yaw:	1.163	yaw rate:	-6.908	Roll:	3.579	Pitch:	-1.337	Yaw:	0.524	Thrust:	50.330
Time:	4.321	Roll Set Point:	-0.167	Pitch Set Point:	0.031	Yaw Set Point:	-0.024	X_WP:	0.000	Y_WP:	0.000	Y_WP:	0.500	X:	0.084	Y:	-0.015	Z:	0.635	yaw:	1.380	yaw rate:	21.656	Roll:	3.291	Pitch:	-1.665	Yaw:	7.164	Thrust:	69.866
Time:	4.333	Roll Set Point:	-0.168	Pitch Set Point:	0.032	Yaw Set Point:	-0.021	X_WP:	0.000	Y_WP:	0.000	Y_WP:	0.500	X:	0.084	Y:	-0.015	Z:	0.635	yaw:	1.226	yaw rate:	-15.390	Roll:	3.592	Pitch:	-0.882	Yaw:	-0.729	Thrust:	65.454
Time:	4.343	Roll Set Point:	-0.169	Pitch Set Point:	0.032	Yaw Set Point:	-0.013	X_WP:	0.000	Y_WP:	0.000	Y_WP:	0.500	X:	0.085	Y:	-0.015	Z:	0.636	yaw:	0.764	yaw rate:	-46.179	Roll:	3.906	Pitch:	-0.317	Yaw:	-10.291	Thrust:	51.312
Time:	4.355	Roll Set Point:	-0.170	Pitch Set Point:	0.033	Yaw Set Point:	-0.009	X_WP:	0.000	Y_WP:	0.000	Y_WP:	0.500	X:	0.085	Y:	-0.016	Z:	0.636	yaw:	0.521	yaw rate:	-24.327	Roll:	3.481	Pitch:	-0.772	Yaw:	-3.473	Thrust:	68.725
Time:	4.366	Roll Set Point:	-0.171	Pitch Set Point:	0.033	Yaw Set Point:	-0.002	X_WP:	0.000	Y_WP:	0.000	Y_WP:	0.500	X:	0.086	Y:	-0.016	Z:	0.637	yaw:	0.098	yaw rate:	-42.294	Roll:	3.623	Pitch:	-0.305	Yaw:	-9.121	Thrust:	58.867
Time:	4.378	Roll Set Point:	-0.171	Pitch Set Point:	0.035	Yaw Set Point:	-0.010	X_WP:	0.000	Y_WP:	0.000	Y_WP:	0.500	X:	0.086	Y:	-0.017	Z:	0.636	yaw:	0.560	yaw rate:	46.235	Roll:	2.934	Pitch:	-2.574	Yaw:	11.686	Thrust:	67.281
Time:	4.396	Roll Set Point:	-0.173	Pitch Set Point:	0.036	Yaw Set Point:	-0.000	X_WP:	0.000	Y_WP:	0.000	Y_WP:	0.500	X:	0.087	Y:	-0.018	Z:	0.636	yaw:	0.001	yaw rate:	-55.961	Roll:	4.312	Pitch:	-0.666	Yaw:	-7.384	Thrust:	95.020
Time:	4.408	Roll Set Point:	-0.174	Pitch Set Point:	0.039	Yaw Set Point:	-0.012	X_WP:	0.000	Y_WP:	0.000	Y_WP:	0.500	X:	0.087	Y:	-0.019	Z:	0.634	yaw:	0.700	yaw rate:	28.731	Roll:	3.167	Pitch:	-3.768	Yaw:	16.720	Thrust:	70.386
Time:	4.419	Roll Set Point:	-0.175	Pitch Set Point:	0.039	Yaw Set Point:	-0.007	X_WP:	0.000	Y_WP:	0.000	Y_WP:	0.500	X:	0.088	Y:	-0.019	Z:	0.633	yaw:	0.387	yaw rate:	-31.344	Roll:	4.155	Pitch:	-0.476	Yaw:	-5.731	Thrust:	67.787
Time:	4.430	Roll Set Point:	-0.176	Pitch Set Point:	0.040	Yaw Set Point:	-0.007	X_WP:	0.000	Y_WP:	0.000	Y_WP:	0.500	X:	0.088	Y:	-0.020	Z:	0.632	yaw:	0.386	yaw rate:	-0.066	Roll:	3.315	Pitch:	-1.388	Yaw:	1.305	Thrust:	66.374
Time:	4.441	Roll Set Point:	-0.177	Pitch Set Point:	0.041	Yaw Set Point:	-0.003	X_WP:	0.000	Y_WP:	0.000	Y_WP:	0.500	X:	0.089	Y:	-0.020	Z:	0.632	yaw:	0.184	yaw rate:	-20.248	Roll:	4.083	Pitch:	-0.682	Yaw:	-4.298	Thrust:	57.376
Time:	4.453	Roll Set Point:	-0.178	Pitch Set Point:	0.042	Yaw Set Point:	-0.008	X_WP:	0.000	Y_WP:	0.000	Y_WP:	0.500	X:	0.089	Y:	-0.021	Z:	0.631	yaw:	0.473	yaw rate:	28.909	Roll:	3.432	Pitch:	-1.895	Yaw:	7.584	Thrust:	68.924
Time:	4.464	Roll Set Point:	-0.178	Pitch Set Point:	0.042	Yaw Set Point:	-0.004	X_WP:	0.000	Y_WP:	0.000	Y_WP:	0.500	X:	0.089	Y:	-0.021	Z:	0.630	yaw:	0.223	yaw rate:	-25.022	Roll:	3.551	Pitch:	-0.737	Yaw:	-4.848	Thrust:	65.339
Time:	4.475	Roll Set Point:	-0.179	Pitch Set Point:	0.043	Yaw Set Point:	-0.001	X_WP:	0.000	Y_WP:	0.000	Y_WP:	0.500	X:	0.090	Y:	-0.021	Z:	0.629	yaw:	0.063	yaw rate:	-15.970	Roll:	3.498	Pitch:	-0.973	Yaw:	-3.347	Thrust:	56.858
Time:	4.487	Roll Set Point:	-0.180	Pitch Set Point:	0.044	Yaw Set Point:	0.002	X_WP:	0.000	Y_WP:	0.000	Y_WP:	0.500	X:	0.090	Y:	-0.022	Z:	0.628	yaw:	-0.105	yaw rate:	-16.798	Roll:	3.628	Pitch:	-1.100	Yaw:	-2.752	Thrust:	71.638
Time:	4.498	Roll Set Point:	-0.181	Pitch Set Point:	0.045	Yaw Set Point:	-0.000	X_WP:	0.000	Y_WP:	0.000	Y_WP:	0.500	X:	0.090	Y:	-0.023	Z:	0.626	yaw:	0.028	yaw rate:	13.309	Roll:	3.844	Pitch:	-2.280	Yaw:	3.984	Thrust:	64.877
Time:	4.509	Roll Set Point:	-0.182	Pitch Set Point:	0.046	Yaw Set Point:	-0.003	X_WP:	0.000	Y_WP:	0.000	Y_WP:	0.500	X:	0.091	Y:	-0.023	Z:	0.626	yaw:	0.148	yaw rate:	12.025	Roll:	3.515	Pitch:	-1.650	Yaw:	3.848	Thrust:	61.295
Time:	4.520	Roll Set Point:	-0.182	Pitch Set Point:	0.048	Yaw Set Point:	-0.008	X_WP:	0.000	Y_WP:	0.000	Y_WP:	0.500	X:	0.091	Y:	-0.023	Z:	0.625	yaw:	0.466	yaw rate:	31.758	Roll:	3.506	Pitch:	-1.985	Yaw:	8.667	Thrust:	64.222
Time:	4.532	Roll Set Point:	-0.182	Pitch Set Point:	0.048	Yaw Set Point:	-0.004	X_WP:	0.000	Y_WP:	0.000	Y_WP:	0.500	X:	0.091	Y:	-0.024	Z:	0.625	yaw:	0.223	yaw rate:	-24.300	Roll:	3.284	Pitch:	-0.764	Yaw:	-4.116	Thrust:	65.524
Time:	4.552	Roll Set Point:	-0.183	Pitch Set Point:	0.049	Yaw Set Point:	-0.003	X_WP:	0.000	Y_WP:	0.000	Y_WP:	0.500	X:	0.092	Y:	-0.024	Z:	0.624	yaw:	0.195	yaw rate:	-2.785	Roll:	3.533	Pitch:	-1.285	Yaw:	1.255	Thrust:	100.000
Time:	4.564	Roll Set Point:	-0.184	Pitch Set Point:	0.051	Yaw Set Point:	-0.011	X_WP:	0.000	Y_WP:	0.000	Y_WP:	0.500	X:	0.092	Y:	-0.025	Z:	0.623	yaw:	0.619	yaw rate:	47.750	Roll:	3.661	Pitch:	-2.209	Yaw:	10.315	Thrust:	75.874
Time:	4.576	Roll Set Point:	-0.185	Pitch Set Point:	0.051	Yaw Set Point:	-0.004	X_WP:	0.000	Y_WP:	0.000	Y_WP:	0.500	X:	0.092	Y:	-0.025	Z:	0.623	yaw:	0.247	yaw rate:	-37.167	Roll:	3.840	Pitch:	-0.348	Yaw:	-7.678	Thrust:	59.139
Time:	4.587	Roll Set Point:	-0.185	Pitch Set Point:	0.053	Yaw Set Point:	-0.010	X_WP:	0.000	Y_WP:	0.000	Y_WP:	0.500	X:	0.093	Y:	-0.026	Z:	0.622	yaw:	0.567	yaw rate:	31.994	Roll:	3.672	Pitch:	-2.721	Yaw:	9.169	Thrust:	59.893
Time:	4.598	Roll Set Point:	-0.186	Pitch Set Point:	0.053	Yaw Set Point:	-0.002	X_WP:	0.000	Y_WP:	0.000	Y_WP:	0.500	X:	0.093	Y:	-0.026	Z:	0.622	yaw:	0.101	yaw rate:	-46.632	Roll:	3.524	Pitch:	-0.456	Yaw:	-10.138	Thrust:	57.756
Time:	4.608	Roll Set Point:	-0.186	Pitch Set Point:	0.054	Yaw Set Point:	-0.006	X_WP:	0.000	Y_WP:	0.000	Y_WP:	0.500	X:	0.093	Y:	-0.027	Z:	0.622	yaw:	0.343	yaw rate:	24.218	Roll:	3.209	Pitch:	-1.866	Yaw:	7.260	Thrust:	53.719
Time:	4.619	Roll Set Point:	-0.187	Pitch Set Point:	0.054	Yaw Set Point:	-0.002	X_WP:	0.000	Y_WP:	0.000	Y_WP:	0.500	X:	0.093	Y:	-0.027	Z:	0.623	yaw:	0.113	yaw rate:	-22.988	Roll:	3.634	Pitch:	-0.770	Yaw:	-4.486	Thrust:	56.205
Time:	4.630	Roll Set Point:	-0.187	Pitch Set Point:	0.055	Yaw Set Point:	-0.002	X_WP:	0.000	Y_WP:	0.000	Y_WP:	0.500	X:	0.094	Y:	-0.027	Z:	0.623	yaw:	0.128	yaw rate:	1.501	Roll:	3.436	Pitch:	-1.374	Yaw:	1.334	Thrust:	55.229
Time:	4.641	Roll Set Point:	-0.187	Pitch Set Point:	0.056	Yaw Set Point:	-0.011	X_WP:	0.000	Y_WP:	0.000	Y_WP:	0.500	X:	0.094	Y:	-0.028	Z:	0.624	yaw:	0.651	yaw rate:	52.219	Roll:	2.895	Pitch:	-2.893	Yaw:	14.092	Thrust:	54.664
Time:	4.653	Roll Set Point:	-0.188	Pitch Set Point:	0.056	Yaw Set Point:	-0.001	X_WP:	0.000	Y_WP:	0.000	Y_WP:	0.500	X:	0.094	Y:	-0.028	Z:	0.624	yaw:	0.083	yaw rate:	-56.717	Roll:	4.014	Pitch:	0.008	Yaw:	-11.922	Thrust:	57.548
Time:	4.664	Roll Set Point:	-0.188	Pitch Set Point:	0.057	Yaw Set Point:	-0.002	X_WP:	0.000	Y_WP:	0.000	Y_WP:	0.500	X:	0.094	Y:	-0.028	Z:	0.625	yaw:	0.089	yaw rate:	0.584	Roll:	3.437	Pitch:	-1.416	Yaw:	1.064	Thrust:	53.481
Time:	4.674	Roll Set Point:	-0.189	Pitch Set Point:	0.059	Yaw Set Point:	-0.017	X_WP:	0.000	Y_WP:	0.000	Y_WP:	0.500	X:	0.095	Y:	-0.029	Z:	0.626	yaw:	0.987	yaw rate:	89.740	Roll:	3.045	Pitch:	-3.651	Yaw:	24.975	Thrust:	47.985
Time:	4.692	Roll Set Point:	-0.189	Pitch Set Point:	0.058	Yaw Set Point:	-0.005	X_WP:	0.000	Y_WP:	0.000	Y_WP:	0.500	X:	0.095	Y:	-0.029	Z:	0.627	yaw:	0.295	yaw rate:	-69.146	Roll:	3.856	Pitch:	-0.018	Yaw:	-8.293	Thrust:	91.288
Time:	4.704	Roll Set Point:	-0.189	Pitch Set Point:	0.059	Yaw Set Point:	-0.004	X_WP:	0.000	Y_WP:	0.000	Y_WP:	0.500	X:	0.095	Y:	-0.029	Z:	0.627	yaw:	0.252	yaw rate:	-4.288	Roll:	3.517	Pitch:	-1.302	Yaw:	0.303	Thrust:	61.897
Time:	4.719	Roll Set Point:	-0.190	Pitch Set Point:	0.060	Yaw Set Point:	-0.012	X_WP:	0.000	Y_WP:	0.000	Y_WP:	0.500	X:	0.095	Y:	-0.030	Z:	0.628	yaw:	0.679	yaw rate:	42.715	Roll:	3.283	Pitch:	-2.518	Yaw:	9.468	Thrust:	69.414
Time:	4.731	Roll Set Point:	-0.190	Pitch Set Point:	0.061	Yaw Set Point:	-0.007	X_WP:	0.000	Y_WP:	0.000	Y_WP:	0.500	X:	0.095	Y:	-0.030	Z:	0.630	yaw:	0.428	yaw rate:	-14.852	Roll:	3.857	Pitch:	-1.225	Yaw:	-4.276	Thrust:	52.862
Time:	4.741	Roll Set Point:	-0.191	Pitch Set Point:	0.062	Yaw Set Point:	-0.010	X_WP:	0.000	Y_WP:	0.000	Y_WP:	0.500	X:	0.096	Y:	-0.030	Z:	0.630	yaw:	0.579	yaw rate:	15.132	Roll:	3.401	Pitch:	-1.650	Yaw:	5.492	Thrust:	49.961
Time:	4.754	Roll Set Point:	-0.191	Pitch Set Point:	0.062	Yaw Set Point:	-0.008	X_WP:	0.000	Y_WP:	0.000	Y_WP:	0.500	X:	0.096	Y:	-0.031	Z:	0.631	yaw:	0.433	yaw rate:	-14.553	Roll:	3.401	Pitch:	-1.084	Yaw:	-1.506	Thrust:	61.703
Time:	4.764	Roll Set Point:	-0.191	Pitch Set Point:	0.062	Yaw Set Point:	-0.006	X_WP:	0.000	Y_WP:	0.000	Y_WP:	0.500	X:	0.096	Y:	-0.031	Z:	0.631	yaw:	0.372	yaw rate:	-6.149	Roll:	3.496	Pitch:	-1.144	Yaw:	-0.232	Thrust:	50.095
Time:	4.774	Roll Set Point:	-0.192	Pitch Set Point:	0.062	Yaw Set Point:	-0.004	X_WP:	0.000	Y_WP:	0.000	Y_WP:	0.500	X:	0.096	Y:	-0.031	Z:	0.632	yaw:	0.236	yaw rate:	-13.584	Roll:	3.678	Pitch:	-0.635	Yaw:	-2.467	Thrust:	47.149
Time:	4.786	Roll Set Point:	-0.192	Pitch Set Point:	0.063	Yaw Set Point:	-0.003	X_WP:	0.000	Y_WP:	0.000	Y_WP:	0.500	X:	0.096	Y:	-0.031	Z:	0.632	yaw:	0.193	yaw rate:	-4.352	Roll:	3.293	Pitch:	-1.414	Yaw:	0.217	Thrust:	58.302
Time:	4.797	Roll Set Point:	-0.192	Pitch Set Point:	0.063	Yaw Set Point:	-0.012	X_WP:	0.000	Y_WP:	0.000	Y_WP:	0.500	X:	0.096	Y:	-0.031	Z:	0.632	yaw:	0.693	yaw rate:	50.036	Roll:	3.253	Pitch:	-2.490	Yaw:	13.664	Thrust:	52.689
Time:	4.808	Roll Set Point:	-0.193	Pitch Set Point:	0.063	Yaw Set Point:	-0.005	X_WP:	0.000	Y_WP:	0.000	Y_WP:	0.500	X:	0.096	Y:	-0.031	Z:	0.633	yaw:	0.275	yaw rate:	-41.778	Roll:	3.764	Pitch:	-0.519	Yaw:	-8.708	Thrust:	51.348
Time:	4.821	Roll Set Point:	-0.193	Pitch Set Point:	0.063	Yaw Set Point:	-0.001	X_WP:	0.000	Y_WP:	0.000	Y_WP:	0.500	X:	0.097	Y:	-0.032	Z:	0.633	yaw:	0.056	yaw rate:	-21.919	Roll:	3.672	Pitch:	-0.739	Yaw:	-3.779	Thrust:	57.950
Time:	4.831	Roll Set Point:	-0.194	Pitch Set Point:	0.064	Yaw Set Point:	-0.002	X_WP:	0.000	Y_WP:	0.000	Y_WP:	0.500	X:	0.097	Y:	-0.032	Z:	0.633	yaw:	0.088	yaw rate:	3.242	Roll:	3.379	Pitch:	-1.424	Yaw:	1.715	Thrust:	50.440
Time:	4.841	Roll Set Point:	-0.194	Pitch Set Point:	0.063	Yaw Set Point:	0.011	X_WP:	0.000	Y_WP:	0.000	Y_WP:	0.500	X:	0.097	Y:	-0.032	Z:	0.633	yaw:	-0.623	yaw rate:	-71.158	Roll:	4.226	Pitch:	1.112	Yaw:	-18.642	Thrust:	48.066
Time:	4.853	Roll Set Point:	-0.194	Pitch Set Point:	0.064	Yaw Set Point:	0.002	X_WP:	0.000	Y_WP:	0.000	Y_WP:	0.500	X:	0.097	Y:	-0.032	Z:	0.633	yaw:	-0.109	yaw rate:	51.395	Roll:	2.780	Pitch:	-2.587	Yaw:	11.922	Thrust:	59.025
Time:	4.864	Roll Set Point:	-0.195	Pitch Set Point:	0.063	Yaw Set Point:	0.008	X_WP:	0.000	Y_WP:	0.000	Y_WP:	0.500	X:	0.097	Y:	-0.032	Z:	0.633	yaw:	-0.462	yaw rate:	-35.313	Roll:	3.861	Pitch:	0.187	Yaw:	-8.207	Thrust:	50.487
Time:	4.874	Roll Set Point:	-0.195	Pitch Set Point:	0.063	Yaw Set Point:	0.015	X_WP:	0.000	Y_WP:	0.000	Y_WP:	0.500	X:	0.097	Y:	-0.032	Z:	0.633	yaw:	-0.857	yaw rate:	-39.475	Roll:	3.629	Pitch:	-0.182	Yaw:	-10.433	Thrust:	53.496
Time:	4.886	Roll Set Point:	-0.195	Pitch Set Point:	0.064	Yaw Set Point:	-0.001	X_WP:	0.000	Y_WP:	0.000	Y_WP:	0.500	X:	0.097	Y:	-0.032	Z:	0.632	yaw:	0.056	yaw rate:	91.325	Roll:	2.703	Pitch:	-3.527	Yaw:	20.765	Thrust:	60.369
Time:	4.897	Roll Set Point:	-0.195	Pitch Set Point:	0.064	Yaw Set Point:	0.012	X_WP:	0.000	Y_WP:	0.000	Y_WP:	0.500	X:	0.097	Y:	-0.032	Z:	0.631	yaw:	-0.669	yaw rate:	-72.487	Roll:	4.141	Pitch:	0.604	Yaw:	-17.325	Thrust:	58.276
Time:	4.908	Roll Set Point:	-0.196	Pitch Set Point:	0.064	Yaw Set Point:	0.011	X_WP:	0.000	Y_WP:	0.000	Y_WP:	0.500	X:	0.098	Y:	-0.032	Z:	0.630	yaw:	-0.624	yaw rate:	4.508	Roll:	3.757	Pitch:	-1.023	Yaw:	1.026	Thrust:	53.384
Time:	4.920	Roll Set Point:	-0.196	Pitch Set Point:	0.064	Yaw Set Point:	0.013	X_WP:	0.000	Y_WP:	0.000	Y_WP:	0.500	X:	0.098	Y:	-0.033	Z:	0.629	yaw:	-0.746	yaw rate:	-12.254	Roll:	3.102	Pitch:	-1.116	Yaw:	-2.803	Thrust:	59.584
Time:	4.931	Roll Set Point:	-0.196	Pitch Set Point:	0.064	Yaw Set Point:	0.016	X_WP:	0.000	Y_WP:	0.000	Y_WP:	0.500	X:	0.098	Y:	-0.033	Z:	0.628	yaw:	-0.920	yaw rate:	-17.357	Roll:	3.404	Pitch:	-0.788	Yaw:	-4.596	Thrust:	59.545
Time:	4.941	Roll Set Point:	-0.196	Pitch Set Point:	0.064	Yaw Set Point:	0.015	X_WP:	0.000	Y_WP:	0.000	Y_WP:	0.500	X:	0.098	Y:	-0.033	Z:	0.627	yaw:	-0.866	yaw rate:	5.380	Roll:	3.466	Pitch:	-1.258	Yaw:	0.896	Thrust:	54.609
Time:	4.953	Roll Set Point:	-0.196	Pitch Set Point:	0.064	Yaw Set Point:	0.018	X_WP:	0.000	Y_WP:	0.000	Y_WP:	0.500	X:	0.098	Y:	-0.033	Z:	0.625	yaw:	-1.012	yaw rate:	-14.641	Roll:	3.253	Pitch:	-0.801	Yaw:	-3.724	Thrust:	60.359
Time:	4.964	Roll Set Point:	-0.196	Pitch Set Point:	0.064	Yaw Set Point:	0.018	X_WP:	0.000	Y_WP:	0.000	Y_WP:	0.500	X:	0.098	Y:	-0.033	Z:	0.624	yaw:	-1.026	yaw rate:	-1.385	Roll:	3.356	Pitch:	-1.266	Yaw:	-1.017	Thrust:	58.577
Time:	4.974	Roll Set Point:	-0.196	Pitch Set Point:	0.064	Yaw Set Point:	0.023	X_WP:	0.000	Y_WP:	0.000	Y_WP:	0.500	X:	0.098	Y:	-0.033	Z:	0.622	yaw:	-1.308	yaw rate:	-28.197	Roll:	3.511	Pitch:	-0.575	Yaw:	-8.193	Thrust:	56.248
Time:	4.987	Roll Set Point:	-0.196	Pitch Set Point:	0.065	Yaw Set Point:	0.016	X_WP:	0.000	Y_WP:	0.000	Y_WP:	0.500	X:	0.098	Y:	-0.033	Z:	0.620	yaw:	-0.917	yaw rate:	39.152	Roll:	3.040	Pitch:	-2.058	Yaw:	7.778	Thrust:	63.359
Time:	4.997	Roll Set Point:	-0.196	Pitch Set Point:	0.065	Yaw Set Point:	0.023	X_WP:	0.000	Y_WP:	0.000	Y_WP:	0.500	X:	0.098	Y:	-0.034	Z:	0.618	yaw:	-1.321	yaw rate:	-40.435	Roll:	3.544	Pitch:	-0.351	Yaw:	-11.151	Thrust:	60.212
Time:	5.009	Roll Set Point:	-0.196	Pitch Set Point:	0.065	Yaw Set Point:	0.018	X_WP:	0.000	Y_WP:	0.000	Y_WP:	0.500	X:	0.098	Y:	-0.034	Z:	0.614	yaw:	-1.052	yaw rate:	26.910	Roll:	2.797	Pitch:	-1.968	Yaw:	5.623	Thrust:	64.201
Time:	5.021	Roll Set Point:	-0.196	Pitch Set Point:	0.065	Yaw Set Point:	0.025	X_WP:	0.000	Y_WP:	0.000	Y_WP:	0.500	X:	0.098	Y:	-0.034	Z:	0.612	yaw:	-1.452	yaw rate:	-40.002	Roll:	3.606	Pitch:	-0.519	Yaw:	-9.865	Thrust:	68.208
Time:	5.033	Roll Set Point:	-0.196	Pitch Set Point:	0.066	Yaw Set Point:	0.026	X_WP:	0.000	Y_WP:	0.000	Y_WP:	0.500	X:	0.098	Y:	-0.034	Z:	0.610	yaw:	-1.505	yaw rate:	-5.329	Roll:	3.209	Pitch:	-1.231	Yaw:	-2.507	Thrust:	65.195
Time:	5.045	Roll Set Point:	-0.196	Pitch Set Point:	0.067	Yaw Set Point:	0.017	X_WP:	0.000	Y_WP:	0.000	Y_WP:	0.500	X:	0.098	Y:	-0.034	Z:	0.608	yaw:	-0.954	yaw rate:	55.143	Roll:	3.010	Pitch:	-2.534	Yaw:	11.046	Thrust:	65.625
Time:	5.059	Roll Set Point:	-0.195	Pitch Set Point:	0.067	Yaw Set Point:	0.017	X_WP:	0.000	Y_WP:	0.000	Y_WP:	0.500	X:	0.097	Y:	-0.034	Z:	0.605	yaw:	-0.979	yaw rate:	-2.499	Roll:	3.031	Pitch:	-1.438	Yaw:	-0.865	Thrust:	77.176
Time:	5.071	Roll Set Point:	-0.195	Pitch Set Point:	0.068	Yaw Set Point:	0.020	X_WP:	0.000	Y_WP:	0.000	Y_WP:	0.500	X:	0.097	Y:	-0.035	Z:	0.603	yaw:	-1.128	yaw rate:	-14.929	Roll:	3.151	Pitch:	-1.134	Yaw:	-3.975	Thrust:	65.878
Time:	5.089	Roll Set Point:	-0.195	Pitch Set Point:	0.067	Yaw Set Point:	0.029	X_WP:	0.000	Y_WP:	0.000	Y_WP:	0.500	X:	0.097	Y:	-0.035	Z:	0.601	yaw:	-1.654	yaw rate:	-52.632	Roll:	3.811	Pitch:	-0.390	Yaw:	-8.941	Thrust:	89.401
Time:	5.103	Roll Set Point:	-0.195	Pitch Set Point:	0.068	Yaw Set Point:	0.031	X_WP:	0.000	Y_WP:	0.000	Y_WP:	0.500	X:	0.097	Y:	-0.035	Z:	0.596	yaw:	-1.790	yaw rate:	-21.215	Roll:	3.274	Pitch:	-1.382	Yaw:	-4.053	Thrust:	84.498
Time:	5.120	Roll Set Point:	-0.195	Pitch Set Point:	0.068	Yaw Set Point:	0.032	X_WP:	0.000	Y_WP:	0.000	Y_WP:	0.500	X:	0.097	Y:	-0.036	Z:	0.594	yaw:	-1.813	yaw rate:	-2.307	Roll:	3.311	Pitch:	-1.297	Yaw:	-1.741	Thrust:	86.445
Time:	5.136	Roll Set Point:	-0.193	Pitch Set Point:	0.069	Yaw Set Point:	0.031	X_WP:	0.000	Y_WP:	0.000	Y_WP:	0.500	X:	0.096	Y:	-0.036	Z:	0.588	yaw:	-1.790	yaw rate:	-56.869	Roll:	2.727	Pitch:	-1.945	Yaw:	-1.101	Thrust:	94.470
Time:	5.154	Roll Set Point:	-0.193	Pitch Set Point:	0.070	Yaw Set Point:	0.032	X_WP:	0.000	Y_WP:	0.000	Y_WP:	0.500	X:	0.096	Y:	-0.037	Z:	0.585	yaw:	-1.818	yaw rate:	-22.546	Roll:	3.310	Pitch:	-1.562	Yaw:	-1.744	Thrust:	93.967
Time:	5.167	Roll Set Point:	-0.193	Pitch Set Point:	0.071	Yaw Set Point:	0.032	X_WP:	0.000	Y_WP:	0.000	Y_WP:	0.500	X:	0.096	Y:	-0.037	Z:	0.583	yaw:	-1.818	yaw rate:	-0.042	Roll:	3.134	Pitch:	-1.397	Yaw:	-1.631	Thrust:	69.564
Time:	5.187	Roll Set Point:	-0.192	Pitch Set Point:	0.071	Yaw Set Point:	0.029	X_WP:	0.000	Y_WP:	0.000	Y_WP:	0.500	X:	0.096	Y:	-0.037	Z:	0.582	yaw:	-1.653	yaw rate:	16.490	Roll:	3.170	Pitch:	-1.623	Yaw:	1.183	Thrust:	99.123
Time:	5.200	Roll Set Point:	-0.190	Pitch Set Point:	0.073	Yaw Set Point:	0.019	X_WP:	0.000	Y_WP:	0.000	Y_WP:	0.500	X:	0.095	Y:	-0.037	Z:	0.580	yaw:	-1.068	yaw rate:	22.393	Roll:	2.006	Pitch:	-2.772	Yaw:	11.515	Thrust:	67.726
Time:	5.212	Roll Set Point:	-0.189	Pitch Set Point:	0.075	Yaw Set Point:	-0.003	X_WP:	0.000	Y_WP:	0.000	Y_WP:	0.500	X:	0.095	Y:	-0.037	Z:	0.580	yaw:	0.174	yaw rate:	124.215	Roll:	1.952	Pitch:	-4.338	Yaw:	25.994	Thrust:	57.125
Time:	5.231	Roll Set Point:	-0.188	Pitch Set Point:	0.075	Yaw Set Point:	-0.003	X_WP:	0.000	Y_WP:	0.000	Y_WP:	0.500	X:	0.094	Y:	-0.037	Z:	0.581	yaw:	0.152	yaw rate:	15.612	Roll:	2.932	Pitch:	-1.303	Yaw:	1.086	Thrust:	88.098
Time:	5.247	Roll Set Point:	-0.188	Pitch Set Point:	0.074	Yaw Set Point:	0.006	X_WP:	0.000	Y_WP:	0.000	Y_WP:	0.500	X:	0.094	Y:	-0.037	Z:	0.582	yaw:	-0.353	yaw rate:	-50.505	Roll:	3.144	Pitch:	-0.455	Yaw:	-7.704	Thrust:	77.252
