Time:	2.054	Roll Set Point:	0.001	Pitch Set Point:	-0.042	Yaw Set Point:	-0.113	X_WP:	0.000	Y_WP:	0.000	Y_WP:	0.500	X:	-0.001	Y:	0.021	Z:	0.050	yaw:	6.474	yaw rate:	-6.965	Roll:	0.026	Pitch:	0.610	Yaw:	9.039	Thrust:	24.762
Time:	2.065	Roll Set Point:	0.001	Pitch Set Point:	-0.042	Yaw Set Point:	-0.113	X_WP:	0.000	Y_WP:	0.000	Y_WP:	0.500	X:	-0.001	Y:	0.021	Z:	0.050	yaw:	6.477	yaw rate:	0.299	Roll:	0.042	Pitch:	0.604	Yaw:	9.139	Thrust:	25.268
Time:	2.076	Roll Set Point:	0.001	Pitch Set Point:	-0.042	Yaw Set Point:	-0.114	X_WP:	0.000	Y_WP:	0.000	Y_WP:	0.500	X:	-0.002	Y:	0.021	Z:	0.050	yaw:	6.506	yaw rate:	2.941	Roll:	-0.022	Pitch:	0.514	Yaw:	9.832	Thrust:	26.167
Time:	2.088	Roll Set Point:	0.000	Pitch Set Point:	-0.042	Yaw Set Point:	-0.117	X_WP:	0.000	Y_WP:	0.000	Y_WP:	0.500	X:	-0.001	Y:	0.021	Z:	0.050	yaw:	6.685	yaw rate:	17.855	Roll:	0.262	Pitch:	0.578	Yaw:	13.309	Thrust:	26.558
Time:	2.099	Roll Set Point:	0.001	Pitch Set Point:	-0.042	Yaw Set Point:	-0.108	X_WP:	0.000	Y_WP:	0.000	Y_WP:	0.500	X:	-0.002	Y:	0.021	Z:	0.050	yaw:	6.206	yaw rate:	-47.859	Roll:	-0.444	Pitch:	0.701	Yaw:	-2.594	Thrust:	26.072
Time:	2.110	Roll Set Point:	0.001	Pitch Set Point:	-0.042	Yaw Set Point:	-0.117	X_WP:	0.000	Y_WP:	0.000	Y_WP:	0.500	X:	-0.002	Y:	0.021	Z:	0.050	yaw:	6.684	yaw rate:	47.825	Roll:	0.257	Pitch:	0.318	Yaw:	20.810	Thrust:	29.461
Time:	2.121	Roll Set Point:	0.001	Pitch Set Point:	-0.042	Yaw Set Point:	-0.109	X_WP:	0.000	Y_WP:	0.000	Y_WP:	0.500	X:	-0.001	Y:	0.021	Z:	0.050	yaw:	6.235	yaw rate:	-44.873	Roll:	-0.062	Pitch:	0.886	Yaw:	-1.794	Thrust:	27.291
Time:	2.132	Roll Set Point:	0.000	Pitch Set Point:	-0.042	Yaw Set Point:	-0.110	X_WP:	0.000	Y_WP:	0.000	Y_WP:	0.500	X:	-0.001	Y:	0.021	Z:	0.050	yaw:	6.325	yaw rate:	8.989	Roll:	0.168	Pitch:	0.682	Yaw:	11.140	Thrust:	28.815
Time:	2.143	Roll Set Point:	0.001	Pitch Set Point:	-0.042	Yaw Set Point:	-0.112	X_WP:	0.000	Y_WP:	0.000	Y_WP:	0.500	X:	-0.002	Y:	0.021	Z:	0.050	yaw:	6.412	yaw rate:	8.666	Roll:	-0.316	Pitch:	0.533	Yaw:	11.208	Thrust:	29.698
Time:	2.154	Roll Set Point:	0.000	Pitch Set Point:	-0.042	Yaw Set Point:	-0.113	X_WP:	0.000	Y_WP:	0.000	Y_WP:	0.500	X:	-0.001	Y:	0.021	Z:	0.050	yaw:	6.450	yaw rate:	3.781	Roll:	0.477	Pitch:	0.476	Yaw:	10.127	Thrust:	30.404
Time:	2.165	Roll Set Point:	0.001	Pitch Set Point:	-0.042	Yaw Set Point:	-0.103	X_WP:	0.000	Y_WP:	0.000	Y_WP:	0.500	X:	-0.002	Y:	0.021	Z:	0.050	yaw:	5.924	yaw rate:	-52.580	Roll:	-0.568	Pitch:	0.567	Yaw:	-3.959	Thrust:	30.200
Time:	2.176	Roll Set Point:	0.000	Pitch Set Point:	-0.042	Yaw Set Point:	-0.116	X_WP:	0.000	Y_WP:	0.000	Y_WP:	0.500	X:	-0.001	Y:	0.021	Z:	0.050	yaw:	6.629	yaw rate:	70.511	Roll:	0.847	Pitch:	0.858	Yaw:	26.265	Thrust:	31.096
Time:	2.187	Roll Set Point:	0.000	Pitch Set Point:	-0.042	Yaw Set Point:	-0.117	X_WP:	0.000	Y_WP:	0.000	Y_WP:	0.500	X:	-0.001	Y:	0.021	Z:	0.050	yaw:	6.699	yaw rate:	6.942	Roll:	-0.173	Pitch:	0.456	Yaw:	11.297	Thrust:	33.025
Time:	2.198	Roll Set Point:	0.001	Pitch Set Point:	-0.042	Yaw Set Point:	-0.109	X_WP:	0.000	Y_WP:	0.000	Y_WP:	0.500	X:	-0.001	Y:	0.021	Z:	0.050	yaw:	6.248	yaw rate:	-45.098	Roll:	-0.202	Pitch:	0.805	Yaw:	-1.660	Thrust:	31.052
Time:	2.209	Roll Set Point:	0.001	Pitch Set Point:	-0.042	Yaw Set Point:	-0.105	X_WP:	0.000	Y_WP:	0.000	Y_WP:	0.500	X:	-0.001	Y:	0.021	Z:	0.050	yaw:	6.005	yaw rate:	-24.303	Roll:	-0.159	Pitch:	0.422	Yaw:	2.962	Thrust:	33.866
Time:	2.220	Roll Set Point:	0.001	Pitch Set Point:	-0.042	Yaw Set Point:	-0.112	X_WP:	0.000	Y_WP:	0.000	Y_WP:	0.500	X:	-0.002	Y:	0.021	Z:	0.050	yaw:	6.412	yaw rate:	40.777	Roll:	0.038	Pitch:	0.692	Yaw:	19.003	Thrust:	33.513
Time:	2.231	Roll Set Point:	0.000	Pitch Set Point:	-0.042	Yaw Set Point:	-0.117	X_WP:	0.000	Y_WP:	0.000	Y_WP:	0.500	X:	-0.001	Y:	0.021	Z:	0.050	yaw:	6.703	yaw rate:	29.035	Roll:	0.446	Pitch:	0.669	Yaw:	16.644	Thrust:	34.947
Time:	2.242	Roll Set Point:	0.001	Pitch Set Point:	-0.042	Yaw Set Point:	-0.111	X_WP:	0.000	Y_WP:	0.000	Y_WP:	0.500	X:	-0.001	Y:	0.021	Z:	0.050	yaw:	6.386	yaw rate:	-31.709	Roll:	-0.248	Pitch:	0.409	Yaw:	1.809	Thrust:	33.653
Time:	2.253	Roll Set Point:	0.001	Pitch Set Point:	-0.042	Yaw Set Point:	-0.112	X_WP:	0.000	Y_WP:	0.000	Y_WP:	0.500	X:	-0.002	Y:	0.021	Z:	0.050	yaw:	6.427	yaw rate:	4.150	Roll:	-0.192	Pitch:	0.720	Yaw:	10.404	Thrust:	36.109
Time:	2.264	Roll Set Point:	0.001	Pitch Set Point:	-0.042	Yaw Set Point:	-0.113	X_WP:	0.000	Y_WP:	0.000	Y_WP:	0.500	X:	-0.001	Y:	0.021	Z:	0.050	yaw:	6.448	yaw rate:	2.128	Roll:	0.376	Pitch:	0.744	Yaw:	9.978	Thrust:	35.540
Time:	2.276	Roll Set Point:	0.001	Pitch Set Point:	-0.042	Yaw Set Point:	-0.112	X_WP:	0.000	Y_WP:	0.000	Y_WP:	0.500	X:	-0.002	Y:	0.021	Z:	0.050	yaw:	6.430	yaw rate:	-1.864	Roll:	-0.301	Pitch:	0.401	Yaw:	9.105	Thrust:	39.135
Time:	2.287	Roll Set Point:	0.001	Pitch Set Point:	-0.042	Yaw Set Point:	-0.110	X_WP:	0.000	Y_WP:	0.000	Y_WP:	0.500	X:	-0.001	Y:	0.021	Z:	0.050	yaw:	6.321	yaw rate:	-10.906	Roll:	0.303	Pitch:	0.870	Yaw:	6.756	Thrust:	36.253
Time:	2.299	Roll Set Point:	0.001	Pitch Set Point:	-0.042	Yaw Set Point:	-0.104	X_WP:	0.000	Y_WP:	0.000	Y_WP:	0.500	X:	-0.002	Y:	0.021	Z:	0.050	yaw:	5.983	yaw rate:	-33.775	Roll:	-0.395	Pitch:	0.385	Yaw:	1.597	Thrust:	38.856
Time:	2.311	Roll Set Point:	0.000	Pitch Set Point:	-0.042	Yaw Set Point:	-0.115	X_WP:	0.000	Y_WP:	0.000	Y_WP:	0.500	X:	-0.001	Y:	0.021	Z:	0.050	yaw:	6.604	yaw rate:	62.138	Roll:	0.765	Pitch:	0.851	Yaw:	23.360	Thrust:	39.910
Time:	2.322	Roll Set Point:	0.001	Pitch Set Point:	-0.042	Yaw Set Point:	-0.107	X_WP:	0.000	Y_WP:	0.000	Y_WP:	0.500	X:	-0.002	Y:	0.021	Z:	0.050	yaw:	6.139	yaw rate:	-46.501	Roll:	-0.628	Pitch:	0.391	Yaw:	-1.875	Thrust:	39.458
Time:	2.333	Roll Set Point:	0.001	Pitch Set Point:	-0.042	Yaw Set Point:	-0.112	X_WP:	0.000	Y_WP:	0.000	Y_WP:	0.500	X:	-0.001	Y:	0.021	Z:	0.050	yaw:	6.396	yaw rate:	25.684	Roll:	0.350	Pitch:	0.821	Yaw:	15.630	Thrust:	38.739
Time:	2.344	Roll Set Point:	0.000	Pitch Set Point:	-0.042	Yaw Set Point:	-0.111	X_WP:	0.000	Y_WP:	0.000	Y_WP:	0.500	X:	-0.001	Y:	0.021	Z:	0.050	yaw:	6.356	yaw rate:	-4.037	Roll:	0.069	Pitch:	0.707	Yaw:	8.556	Thrust:	40.227
Time:	2.355	Roll Set Point:	0.001	Pitch Set Point:	-0.042	Yaw Set Point:	-0.112	X_WP:	0.000	Y_WP:	0.000	Y_WP:	0.500	X:	-0.001	Y:	0.021	Z:	0.050	yaw:	6.395	yaw rate:	3.947	Roll:	-0.063	Pitch:	0.278	Yaw:	10.531	Thrust:	41.433
Time:	2.367	Roll Set Point:	0.000	Pitch Set Point:	-0.042	Yaw Set Point:	-0.110	X_WP:	0.000	Y_WP:	0.000	Y_WP:	0.500	X:	-0.001	Y:	0.021	Z:	0.050	yaw:	6.279	yaw rate:	-11.646	Roll:	0.129	Pitch:	0.908	Yaw:	6.693	Thrust:	40.963
Time:	2.378	Roll Set Point:	0.000	Pitch Set Point:	-0.042	Yaw Set Point:	-0.113	X_WP:	0.000	Y_WP:	0.000	Y_WP:	0.500	X:	-0.001	Y:	0.021	Z:	0.050	yaw:	6.496	yaw rate:	21.758	Roll:	0.034	Pitch:	0.484	Yaw:	14.958	Thrust:	41.923
Time:	2.389	Roll Set Point:	0.001	Pitch Set Point:	-0.042	Yaw Set Point:	-0.107	X_WP:	0.000	Y_WP:	0.000	Y_WP:	0.500	X:	-0.002	Y:	0.021	Z:	0.050	yaw:	6.128	yaw rate:	-36.880	Roll:	-0.375	Pitch:	0.614	Yaw:	0.540	Thrust:	43.306
Time:	2.400	Roll Set Point:	0.001	Pitch Set Point:	-0.042	Yaw Set Point:	-0.111	X_WP:	0.000	Y_WP:	0.000	Y_WP:	0.500	X:	-0.001	Y:	0.021	Z:	0.050	yaw:	6.377	yaw rate:	24.966	Roll:	0.344	Pitch:	0.642	Yaw:	15.580	Thrust:	42.942
Time:	2.411	Roll Set Point:	0.001	Pitch Set Point:	-0.041	Yaw Set Point:	-0.105	X_WP:	0.000	Y_WP:	0.000	Y_WP:	0.500	X:	-0.002	Y:	0.021	Z:	0.050	yaw:	6.021	yaw rate:	-35.667	Roll:	-0.453	Pitch:	0.361	Yaw:	0.704	Thrust:	43.692
Time:	2.422	Roll Set Point:	0.001	Pitch Set Point:	-0.042	Yaw Set Point:	-0.110	X_WP:	0.000	Y_WP:	0.000	Y_WP:	0.500	X:	-0.001	Y:	0.021	Z:	0.050	yaw:	6.320	yaw rate:	29.906	Roll:	0.513	Pitch:	0.761	Yaw:	16.719	Thrust:	45.026
Time:	2.433	Roll Set Point:	0.000	Pitch Set Point:	-0.042	Yaw Set Point:	-0.113	X_WP:	0.000	Y_WP:	0.000	Y_WP:	0.500	X:	-0.001	Y:	0.021	Z:	0.050	yaw:	6.447	yaw rate:	12.758	Roll:	0.224	Pitch:	0.861	Yaw:	12.869	Thrust:	44.047
Time:	2.444	Roll Set Point:	0.001	Pitch Set Point:	-0.042	Yaw Set Point:	-0.104	X_WP:	0.000	Y_WP:	0.000	Y_WP:	0.500	X:	-0.001	Y:	0.021	Z:	0.050	yaw:	5.931	yaw rate:	-51.569	Roll:	-0.517	Pitch:	0.457	Yaw:	-3.100	Thrust:	45.440
Time:	2.456	Roll Set Point:	0.000	Pitch Set Point:	-0.042	Yaw Set Point:	-0.112	X_WP:	0.000	Y_WP:	0.000	Y_WP:	0.500	X:	-0.001	Y:	0.021	Z:	0.050	yaw:	6.410	yaw rate:	47.899	Roll:	0.476	Pitch:	0.812	Yaw:	20.335	Thrust:	48.176
Time:	2.467	Roll Set Point:	0.001	Pitch Set Point:	-0.042	Yaw Set Point:	-0.110	X_WP:	0.000	Y_WP:	0.000	Y_WP:	0.500	X:	-0.002	Y:	0.021	Z:	0.050	yaw:	6.308	yaw rate:	7.123	Roll:	-0.375	Pitch:	0.447	Yaw:	7.291	Thrust:	47.788
Time:	2.478	Roll Set Point:	0.001	Pitch Set Point:	-0.042	Yaw Set Point:	-0.110	X_WP:	0.000	Y_WP:	0.000	Y_WP:	0.500	X:	-0.002	Y:	0.021	Z:	0.050	yaw:	6.308	yaw rate:	7.123	Roll:	0.022	Pitch:	0.628	Yaw:	9.739	Thrust:	47.395
Time:	2.489	Roll Set Point:	0.001	Pitch Set Point:	-0.042	Yaw Set Point:	-0.114	X_WP:	0.000	Y_WP:	0.000	Y_WP:	0.500	X:	-0.002	Y:	0.021	Z:	0.050	yaw:	6.517	yaw rate:	20.846	Roll:	0.266	Pitch:	0.923	Yaw:	15.002	Thrust:	47.132
Time:	2.500	Roll Set Point:	0.001	Pitch Set Point:	-0.042	Yaw Set Point:	-0.111	X_WP:	0.000	Y_WP:	0.000	Y_WP:	0.500	X:	-0.002	Y:	0.021	Z:	0.050	yaw:	6.360	yaw rate:	-15.646	Roll:	-0.203	Pitch:	0.566	Yaw:	6.147	Thrust:	48.577
Time:	2.511	Roll Set Point:	0.001	Pitch Set Point:	-0.042	Yaw Set Point:	-0.107	X_WP:	0.000	Y_WP:	0.000	Y_WP:	0.500	X:	-0.001	Y:	0.021	Z:	0.050	yaw:	6.105	yaw rate:	-25.546	Roll:	0.069	Pitch:	0.448	Yaw:	3.465	Thrust:	49.157
Time:	2.522	Roll Set Point:	0.000	Pitch Set Point:	-0.042	Yaw Set Point:	-0.113	X_WP:	0.000	Y_WP:	0.000	Y_WP:	0.500	X:	-0.001	Y:	0.021	Z:	0.050	yaw:	6.485	yaw rate:	38.031	Roll:	0.319	Pitch:	0.737	Yaw:	19.092	Thrust:	50.208
Time:	2.533	Roll Set Point:	0.000	Pitch Set Point:	-0.042	Yaw Set Point:	-0.113	X_WP:	0.000	Y_WP:	0.000	Y_WP:	0.500	X:	-0.001	Y:	0.021	Z:	0.050	yaw:	6.488	yaw rate:	0.306	Roll:	0.296	Pitch:	0.629	Yaw:	10.185	Thrust:	49.906
Time:	2.544	Roll Set Point:	0.000	Pitch Set Point:	-0.042	Yaw Set Point:	-0.116	X_WP:	0.000	Y_WP:	0.000	Y_WP:	0.500	X:	-0.001	Y:	0.021	Z:	0.050	yaw:	6.622	yaw rate:	13.392	Roll:	0.134	Pitch:	0.608	Yaw:	13.502	Thrust:	51.131
Time:	2.555	Roll Set Point:	0.000	Pitch Set Point:	-0.042	Yaw Set Point:	-0.110	X_WP:	0.000	Y_WP:	0.000	Y_WP:	0.500	X:	-0.001	Y:	0.021	Z:	0.050	yaw:	6.311	yaw rate:	-31.084	Roll:	-0.273	Pitch:	0.729	Yaw:	2.532	Thrust:	50.635
Time:	2.566	Roll Set Point:	0.001	Pitch Set Point:	-0.042	Yaw Set Point:	-0.100	X_WP:	0.000	Y_WP:	0.000	Y_WP:	0.500	X:	-0.001	Y:	0.021	Z:	0.050	yaw:	5.753	yaw rate:	-55.806	Roll:	-0.389	Pitch:	0.449	Yaw:	-4.110	Thrust:	53.346
Time:	2.577	Roll Set Point:	0.000	Pitch Set Point:	-0.042	Yaw Set Point:	-0.102	X_WP:	0.000	Y_WP:	0.000	Y_WP:	0.500	X:	-0.001	Y:	0.021	Z:	0.050	yaw:	5.821	yaw rate:	6.745	Roll:	0.157	Pitch:	0.677	Yaw:	10.831	Thrust:	52.115
Time:	2.588	Roll Set Point:	0.000	Pitch Set Point:	-0.042	Yaw Set Point:	-0.101	X_WP:	0.000	Y_WP:	0.000	Y_WP:	0.500	X:	-0.001	Y:	0.021	Z:	0.050	yaw:	5.767	yaw rate:	-5.423	Roll:	0.197	Pitch:	0.690	Yaw:	7.862	Thrust:	53.095
Time:	2.599	Roll Set Point:	0.000	Pitch Set Point:	-0.042	Yaw Set Point:	-0.106	X_WP:	0.000	Y_WP:	0.000	Y_WP:	0.500	X:	-0.001	Y:	0.021	Z:	0.050	yaw:	6.064	yaw rate:	29.724	Roll:	0.145	Pitch:	0.570	Yaw:	16.615	Thrust:	54.685
Time:	2.610	Roll Set Point:	-0.000	Pitch Set Point:	-0.042	Yaw Set Point:	-0.114	X_WP:	0.000	Y_WP:	0.000	Y_WP:	0.500	X:	-0.001	Y:	0.021	Z:	0.050	yaw:	6.523	yaw rate:	45.895	Roll:	0.393	Pitch:	0.904	Yaw:	21.122	Thrust:	54.874
Time:	2.621	Roll Set Point:	0.000	Pitch Set Point:	-0.042	Yaw Set Point:	-0.107	X_WP:	0.000	Y_WP:	0.000	Y_WP:	0.500	X:	-0.001	Y:	0.021	Z:	0.050	yaw:	6.147	yaw rate:	-37.587	Roll:	-0.161	Pitch:	0.812	Yaw:	0.764	Thrust:	53.877
Time:	2.632	Roll Set Point:	-0.000	Pitch Set Point:	-0.042	Yaw Set Point:	-0.113	X_WP:	0.000	Y_WP:	0.000	Y_WP:	0.500	X:	-0.001	Y:	0.021	Z:	0.050	yaw:	6.468	yaw rate:	32.095	Roll:	0.210	Pitch:	0.605	Yaw:	17.752	Thrust:	56.195
Time:	2.643	Roll Set Point:	0.000	Pitch Set Point:	-0.042	Yaw Set Point:	-0.109	X_WP:	0.000	Y_WP:	0.000	Y_WP:	0.500	X:	-0.001	Y:	0.021	Z:	0.050	yaw:	6.254	yaw rate:	-21.360	Roll:	-0.447	Pitch:	0.742	Yaw:	4.765	Thrust:	54.832
Time:	2.654	Roll Set Point:	0.001	Pitch Set Point:	-0.042	Yaw Set Point:	-0.105	X_WP:	0.000	Y_WP:	0.000	Y_WP:	0.500	X:	-0.001	Y:	0.021	Z:	0.050	yaw:	6.013	yaw rate:	-24.153	Roll:	-0.075	Pitch:	0.518	Yaw:	3.765	Thrust:	56.830
Time:	2.665	Roll Set Point:	0.001	Pitch Set Point:	-0.042	Yaw Set Point:	-0.105	X_WP:	0.000	Y_WP:	0.000	Y_WP:	0.500	X:	-0.002	Y:	0.021	Z:	0.051	yaw:	5.996	yaw rate:	-1.643	Roll:	-0.237	Pitch:	0.534	Yaw:	9.085	Thrust:	56.740
Time:	2.676	Roll Set Point:	0.000	Pitch Set Point:	-0.043	Yaw Set Point:	-0.109	X_WP:	0.000	Y_WP:	0.000	Y_WP:	0.500	X:	-0.001	Y:	0.021	Z:	0.051	yaw:	6.228	yaw rate:	23.176	Roll:	0.705	Pitch:	1.165	Yaw:	15.300	Thrust:	56.796
Time:	2.687	Roll Set Point:	0.000	Pitch Set Point:	-0.043	Yaw Set Point:	-0.104	X_WP:	0.000	Y_WP:	0.000	Y_WP:	0.500	X:	-0.001	Y:	0.021	Z:	0.051	yaw:	5.931	yaw rate:	-29.667	Roll:	-0.375	Pitch:	0.399	Yaw:	2.342	Thrust:	57.567
Time:	2.698	Roll Set Point:	0.001	Pitch Set Point:	-0.042	Yaw Set Point:	-0.097	X_WP:	0.000	Y_WP:	0.000	Y_WP:	0.500	X:	-0.001	Y:	0.021	Z:	0.052	yaw:	5.551	yaw rate:	-38.065	Roll:	-0.248	Pitch:	0.623	Yaw:	-0.178	Thrust:	57.843
Time:	2.709	Roll Set Point:	0.001	Pitch Set Point:	-0.043	Yaw Set Point:	-0.105	X_WP:	0.000	Y_WP:	0.000	Y_WP:	0.500	X:	-0.001	Y:	0.021	Z:	0.052	yaw:	6.037	yaw rate:	48.617	Roll:	0.315	Pitch:	0.894	Yaw:	21.075	Thrust:	59.324
Time:	2.720	Roll Set Point:	0.000	Pitch Set Point:	-0.043	Yaw Set Point:	-0.102	X_WP:	0.000	Y_WP:	0.000	Y_WP:	0.500	X:	-0.001	Y:	0.021	Z:	0.052	yaw:	5.855	yaw rate:	-18.202	Roll:	-0.011	Pitch:	0.519	Yaw:	4.957	Thrust:	58.708
Time:	2.731	Roll Set Point:	0.001	Pitch Set Point:	-0.043	Yaw Set Point:	-0.102	X_WP:	0.000	Y_WP:	0.000	Y_WP:	0.500	X:	-0.001	Y:	0.021	Z:	0.053	yaw:	5.833	yaw rate:	-2.183	Roll:	-0.156	Pitch:	0.699	Yaw:	8.729	Thrust:	59.038
Time:	2.743	Roll Set Point:	0.001	Pitch Set Point:	-0.042	Yaw Set Point:	-0.106	X_WP:	0.000	Y_WP:	0.000	Y_WP:	0.500	X:	-0.001	Y:	0.021	Z:	0.053	yaw:	6.063	yaw rate:	23.029	Roll:	0.097	Pitch:	0.411	Yaw:	15.025	Thrust:	59.908
Time:	2.754	Roll Set Point:	0.001	Pitch Set Point:	-0.042	Yaw Set Point:	-0.107	X_WP:	0.000	Y_WP:	0.000	Y_WP:	0.500	X:	-0.001	Y:	0.021	Z:	0.053	yaw:	6.120	yaw rate:	5.628	Roll:	0.023	Pitch:	0.567	Yaw:	10.983	Thrust:	59.891
Time:	2.765	Roll Set Point:	0.001	Pitch Set Point:	-0.042	Yaw Set Point:	-0.100	X_WP:	0.000	Y_WP:	0.000	Y_WP:	0.500	X:	-0.001	Y:	0.021	Z:	0.054	yaw:	5.727	yaw rate:	-39.232	Roll:	-0.073	Pitch:	0.247	Yaw:	-0.210	Thrust:	59.737
Time:	2.776	Roll Set Point:	0.001	Pitch Set Point:	-0.042	Yaw Set Point:	-0.104	X_WP:	0.000	Y_WP:	0.000	Y_WP:	0.500	X:	-0.001	Y:	0.021	Z:	0.055	yaw:	5.936	yaw rate:	20.883	Roll:	0.093	Pitch:	0.872	Yaw:	14.358	Thrust:	60.175
Time:	2.787	Roll Set Point:	0.001	Pitch Set Point:	-0.042	Yaw Set Point:	-0.102	X_WP:	0.000	Y_WP:	0.000	Y_WP:	0.500	X:	-0.001	Y:	0.021	Z:	0.056	yaw:	5.822	yaw rate:	-11.433	Roll:	0.058	Pitch:	0.300	Yaw:	6.518	Thrust:	60.846
Time:	2.798	Roll Set Point:	0.001	Pitch Set Point:	-0.041	Yaw Set Point:	-0.100	X_WP:	0.000	Y_WP:	0.000	Y_WP:	0.500	X:	-0.001	Y:	0.021	Z:	0.056	yaw:	5.713	yaw rate:	-10.859	Roll:	-0.301	Pitch:	0.328	Yaw:	6.502	Thrust:	61.670
Time:	2.809	Roll Set Point:	0.001	Pitch Set Point:	-0.041	Yaw Set Point:	-0.101	X_WP:	0.000	Y_WP:	0.000	Y_WP:	0.500	X:	-0.001	Y:	0.020	Z:	0.057	yaw:	5.810	yaw rate:	9.659	Roll:	0.330	Pitch:	0.342	Yaw:	11.507	Thrust:	61.418
Time:	2.820	Roll Set Point:	0.001	Pitch Set Point:	-0.040	Yaw Set Point:	-0.102	X_WP:	0.000	Y_WP:	0.000	Y_WP:	0.500	X:	-0.001	Y:	0.020	Z:	0.058	yaw:	5.825	yaw rate:	1.478	Roll:	-0.171	Pitch:	0.241	Yaw:	9.586	Thrust:	63.380
Time:	2.831	Roll Set Point:	0.001	Pitch Set Point:	-0.040	Yaw Set Point:	-0.102	X_WP:	0.000	Y_WP:	0.000	Y_WP:	0.500	X:	-0.001	Y:	0.020	Z:	0.059	yaw:	5.840	yaw rate:	1.517	Roll:	0.191	Pitch:	0.326	Yaw:	9.619	Thrust:	61.387
Time:	2.842	Roll Set Point:	0.000	Pitch Set Point:	-0.039	Yaw Set Point:	-0.102	X_WP:	0.000	Y_WP:	0.000	Y_WP:	0.500	X:	-0.001	Y:	0.020	Z:	0.060	yaw:	5.857	yaw rate:	1.760	Roll:	0.035	Pitch:	0.068	Yaw:	9.697	Thrust:	62.754
Time:	2.853	Roll Set Point:	0.000	Pitch Set Point:	-0.038	Yaw Set Point:	-0.101	X_WP:	0.000	Y_WP:	0.000	Y_WP:	0.500	X:	-0.001	Y:	0.019	Z:	0.061	yaw:	5.794	yaw rate:	-6.348	Roll:	-0.010	Pitch:	-0.069	Yaw:	7.686	Thrust:	61.889
Time:	2.864	Roll Set Point:	0.000	Pitch Set Point:	-0.038	Yaw Set Point:	-0.104	X_WP:	0.000	Y_WP:	0.000	Y_WP:	0.500	X:	-0.001	Y:	0.019	Z:	0.062	yaw:	5.973	yaw rate:	17.950	Roll:	0.343	Pitch:	0.184	Yaw:	13.697	Thrust:	62.800
Time:	2.875	Roll Set Point:	0.000	Pitch Set Point:	-0.037	Yaw Set Point:	-0.101	X_WP:	0.000	Y_WP:	0.000	Y_WP:	0.500	X:	-0.001	Y:	0.018	Z:	0.063	yaw:	5.760	yaw rate:	-21.374	Roll:	-0.181	Pitch:	-0.198	Yaw:	4.072	Thrust:	63.665
Time:	2.886	Roll Set Point:	-0.000	Pitch Set Point:	-0.036	Yaw Set Point:	-0.102	X_WP:	0.000	Y_WP:	0.000	Y_WP:	0.500	X:	-0.001	Y:	0.018	Z:	0.064	yaw:	5.842	yaw rate:	8.215	Roll:	0.313	Pitch:	0.079	Yaw:	11.209	Thrust:	62.629
Time:	2.897	Roll Set Point:	-0.000	Pitch Set Point:	-0.035	Yaw Set Point:	-0.091	X_WP:	0.000	Y_WP:	0.000	Y_WP:	0.500	X:	-0.001	Y:	0.017	Z:	0.067	yaw:	5.213	yaw rate:	-62.879	Roll:	-0.215	Pitch:	-0.639	Yaw:	-6.546	Thrust:	60.174
Time:	2.908	Roll Set Point:	-0.000	Pitch Set Point:	-0.034	Yaw Set Point:	-0.098	X_WP:	0.000	Y_WP:	0.000	Y_WP:	0.500	X:	-0.001	Y:	0.017	Z:	0.068	yaw:	5.638	yaw rate:	42.534	Roll:	0.073	Pitch:	-0.041	Yaw:	19.074	Thrust:	63.521
Time:	2.919	Roll Set Point:	-0.000	Pitch Set Point:	-0.032	Yaw Set Point:	-0.099	X_WP:	0.000	Y_WP:	0.000	Y_WP:	0.500	X:	-0.001	Y:	0.016	Z:	0.069	yaw:	5.672	yaw rate:	3.403	Roll:	0.194	Pitch:	-0.719	Yaw:	9.830	Thrust:	65.056
Time:	2.930	Roll Set Point:	-0.000	Pitch Set Point:	-0.032	Yaw Set Point:	-0.101	X_WP:	0.000	Y_WP:	0.000	Y_WP:	0.500	X:	-0.001	Y:	0.016	Z:	0.071	yaw:	5.767	yaw rate:	9.481	Roll:	-0.081	Pitch:	-0.102	Yaw:	11.403	Thrust:	62.398
Time:	2.941	Roll Set Point:	-0.000	Pitch Set Point:	-0.030	Yaw Set Point:	-0.107	X_WP:	0.000	Y_WP:	0.000	Y_WP:	0.500	X:	-0.001	Y:	0.015	Z:	0.073	yaw:	6.110	yaw rate:	34.331	Roll:	-0.096	Pitch:	-0.469	Yaw:	17.799	Thrust:	63.973
Time:	2.952	Roll Set Point:	-0.000	Pitch Set Point:	-0.028	Yaw Set Point:	-0.101	X_WP:	0.000	Y_WP:	0.000	Y_WP:	0.500	X:	-0.001	Y:	0.014	Z:	0.076	yaw:	5.790	yaw rate:	-32.040	Roll:	-0.118	Pitch:	-1.169	Yaw:	1.582	Thrust:	60.260
Time:	2.963	Roll Set Point:	-0.000	Pitch Set Point:	-0.027	Yaw Set Point:	-0.110	X_WP:	0.000	Y_WP:	0.000	Y_WP:	0.500	X:	-0.001	Y:	0.013	Z:	0.078	yaw:	6.306	yaw rate:	51.621	Roll:	0.376	Pitch:	-0.795	Yaw:	22.161	Thrust:	62.723
Time:	2.974	Roll Set Point:	-0.000	Pitch Set Point:	-0.025	Yaw Set Point:	-0.103	X_WP:	0.000	Y_WP:	0.000	Y_WP:	0.500	X:	-0.001	Y:	0.013	Z:	0.080	yaw:	5.875	yaw rate:	-43.166	Roll:	-0.454	Pitch:	-0.620	Yaw:	-0.941	Thrust:	63.668
Time:	2.985	Roll Set Point:	-0.000	Pitch Set Point:	-0.024	Yaw Set Point:	-0.104	X_WP:	0.000	Y_WP:	0.000	Y_WP:	0.500	X:	-0.001	Y:	0.012	Z:	0.082	yaw:	5.941	yaw rate:	6.648	Roll:	0.010	Pitch:	-0.744	Yaw:	10.975	Thrust:	63.662
Time:	2.996	Roll Set Point:	-0.000	Pitch Set Point:	-0.022	Yaw Set Point:	-0.103	X_WP:	0.000	Y_WP:	0.000	Y_WP:	0.500	X:	-0.000	Y:	0.011	Z:	0.084	yaw:	5.891	yaw rate:	-4.983	Roll:	0.110	Pitch:	-1.024	Yaw:	8.145	Thrust:	64.591
Time:	3.007	Roll Set Point:	-0.000	Pitch Set Point:	-0.019	Yaw Set Point:	-0.113	X_WP:	0.000	Y_WP:	0.000	Y_WP:	0.500	X:	-0.001	Y:	0.010	Z:	0.088	yaw:	6.450	yaw rate:	55.925	Roll:	-0.158	Pitch:	-1.637	Yaw:	23.383	Thrust:	59.387
Time:	3.018	Roll Set Point:	-0.000	Pitch Set Point:	-0.018	Yaw Set Point:	-0.114	X_WP:	0.000	Y_WP:	0.000	Y_WP:	0.500	X:	-0.000	Y:	0.009	Z:	0.090	yaw:	6.556	yaw rate:	10.527	Roll:	0.218	Pitch:	-1.034	Yaw:	12.758	Thrust:	63.345
Time:	3.029	Roll Set Point:	-0.000	Pitch Set Point:	-0.016	Yaw Set Point:	-0.107	X_WP:	0.000	Y_WP:	0.000	Y_WP:	0.500	X:	-0.000	Y:	0.008	Z:	0.093	yaw:	6.153	yaw rate:	-40.235	Roll:	-0.417	Pitch:	-1.381	Yaw:	0.163	Thrust:	63.952
Time:	3.040	Roll Set Point:	-0.000	Pitch Set Point:	-0.014	Yaw Set Point:	-0.106	X_WP:	0.000	Y_WP:	0.000	Y_WP:	0.500	X:	-0.000	Y:	0.007	Z:	0.096	yaw:	6.097	yaw rate:	-5.664	Roll:	0.102	Pitch:	-1.076	Yaw:	8.267	Thrust:	62.960
Time:	3.051	Roll Set Point:	-0.000	Pitch Set Point:	-0.012	Yaw Set Point:	-0.112	X_WP:	0.000	Y_WP:	0.000	Y_WP:	0.500	X:	-0.000	Y:	0.006	Z:	0.098	yaw:	6.438	yaw rate:	34.150	Roll:	-0.026	Pitch:	-1.132	Yaw:	18.185	Thrust:	63.834
Time:	3.062	Roll Set Point:	-0.000	Pitch Set Point:	-0.009	Yaw Set Point:	-0.114	X_WP:	0.000	Y_WP:	0.000	Y_WP:	0.500	X:	-0.000	Y:	0.005	Z:	0.102	yaw:	6.558	yaw rate:	12.019	Roll:	-0.226	Pitch:	-2.048	Yaw:	13.112	Thrust:	59.204
Time:	3.073	Roll Set Point:	-0.000	Pitch Set Point:	-0.007	Yaw Set Point:	-0.108	X_WP:	0.000	Y_WP:	0.000	Y_WP:	0.500	X:	-0.000	Y:	0.003	Z:	0.105	yaw:	6.217	yaw rate:	-34.193	Roll:	-0.014	Pitch:	-1.725	Yaw:	1.643	Thrust:	63.247
Time:	3.084	Roll Set Point:	-0.000	Pitch Set Point:	-0.005	Yaw Set Point:	-0.106	X_WP:	0.000	Y_WP:	0.000	Y_WP:	0.500	X:	-0.000	Y:	0.002	Z:	0.108	yaw:	6.096	yaw rate:	-12.045	Roll:	-0.164	Pitch:	-1.435	Yaw:	6.756	Thrust:	64.112
Time:	3.095	Roll Set Point:	0.000	Pitch Set Point:	-0.003	Yaw Set Point:	-0.105	X_WP:	0.000	Y_WP:	0.000	Y_WP:	0.500	X:	-0.000	Y:	0.002	Z:	0.111	yaw:	6.029	yaw rate:	-6.718	Roll:	-0.161	Pitch:	-1.216	Yaw:	7.926	Thrust:	64.126
Time:	3.106	Roll Set Point:	-0.000	Pitch Set Point:	-0.000	Yaw Set Point:	-0.114	X_WP:	0.000	Y_WP:	0.000	Y_WP:	0.500	X:	0.000	Y:	0.000	Z:	0.115	yaw:	6.541	yaw rate:	51.208	Roll:	0.060	Pitch:	-2.165	Yaw:	22.391	Thrust:	59.049
Time:	3.117	Roll Set Point:	0.000	Pitch Set Point:	0.002	Yaw Set Point:	-0.110	X_WP:	0.000	Y_WP:	0.000	Y_WP:	0.500	X:	-0.000	Y:	-0.001	Z:	0.118	yaw:	6.311	yaw rate:	-22.999	Roll:	-0.606	Pitch:	-1.475	Yaw:	4.456	Thrust:	65.154
Time:	3.129	Roll Set Point:	0.001	Pitch Set Point:	0.004	Yaw Set Point:	-0.109	X_WP:	0.000	Y_WP:	0.000	Y_WP:	0.500	X:	-0.000	Y:	-0.002	Z:	0.121	yaw:	6.231	yaw rate:	-7.992	Roll:	-0.255	Pitch:	-1.463	Yaw:	7.906	Thrust:	65.120
Time:	3.141	Roll Set Point:	0.001	Pitch Set Point:	0.006	Yaw Set Point:	-0.106	X_WP:	0.000	Y_WP:	0.000	Y_WP:	0.500	X:	-0.000	Y:	-0.003	Z:	0.125	yaw:	6.088	yaw rate:	-14.349	Roll:	-0.086	Pitch:	-1.421	Yaw:	6.587	Thrust:	70.643
Time:	3.152	Roll Set Point:	0.001	Pitch Set Point:	0.009	Yaw Set Point:	-0.108	X_WP:	0.000	Y_WP:	0.000	Y_WP:	0.500	X:	-0.000	Y:	-0.004	Z:	0.129	yaw:	6.183	yaw rate:	9.558	Roll:	-0.270	Pitch:	-2.267	Yaw:	12.007	Thrust:	58.450
Time:	3.163	Roll Set Point:	0.002	Pitch Set Point:	0.010	Yaw Set Point:	-0.107	X_WP:	0.000	Y_WP:	0.000	Y_WP:	0.500	X:	-0.001	Y:	-0.005	Z:	0.133	yaw:	6.140	yaw rate:	-4.351	Roll:	-0.729	Pitch:	-1.582	Yaw:	8.643	Thrust:	65.211
Time:	3.174	Roll Set Point:	0.002	Pitch Set Point:	0.012	Yaw Set Point:	-0.106	X_WP:	0.000	Y_WP:	0.000	Y_WP:	0.500	X:	-0.001	Y:	-0.006	Z:	0.136	yaw:	6.045	yaw rate:	-9.451	Roll:	-0.266	Pitch:	-1.456	Yaw:	7.300	Thrust:	65.956
Time:	3.185	Roll Set Point:	0.002	Pitch Set Point:	0.014	Yaw Set Point:	-0.103	X_WP:	0.000	Y_WP:	0.000	Y_WP:	0.500	X:	-0.001	Y:	-0.007	Z:	0.139	yaw:	5.920	yaw rate:	-12.540	Roll:	-0.308	Pitch:	-1.619	Yaw:	6.392	Thrust:	65.445
Time:	3.196	Roll Set Point:	0.003	Pitch Set Point:	0.016	Yaw Set Point:	-0.101	X_WP:	0.000	Y_WP:	0.000	Y_WP:	0.500	X:	-0.001	Y:	-0.008	Z:	0.142	yaw:	5.796	yaw rate:	-12.351	Roll:	-0.524	Pitch:	-1.744	Yaw:	6.264	Thrust:	65.942
Time:	3.208	Roll Set Point:	0.003	Pitch Set Point:	0.021	Yaw Set Point:	-0.094	X_WP:	0.000	Y_WP:	0.000	Y_WP:	0.500	X:	-0.001	Y:	-0.010	Z:	0.151	yaw:	5.370	yaw rate:	-5.376	Roll:	-0.736	Pitch:	-3.324	Yaw:	-0.734	Thrust:	51.827
Time:	3.219	Roll Set Point:	0.004	Pitch Set Point:	0.022	Yaw Set Point:	-0.089	X_WP:	0.000	Y_WP:	0.000	Y_WP:	0.500	X:	-0.001	Y:	-0.011	Z:	0.154	yaw:	5.118	yaw rate:	-25.192	Roll:	-0.474	Pitch:	-1.723	Yaw:	2.273	Thrust:	65.998
Time:	3.230	Roll Set Point:	0.004	Pitch Set Point:	0.022	Yaw Set Point:	-0.089	X_WP:	0.000	Y_WP:	0.000	Y_WP:	0.500	X:	-0.001	Y:	-0.011	Z:	0.154	yaw:	5.118	yaw rate:	-25.192	Roll:	-0.070	Pitch:	-0.275	Yaw:	8.247	Thrust:	79.749
Time:	3.241	Roll Set Point:	0.005	Pitch Set Point:	0.026	Yaw Set Point:	-0.087	X_WP:	0.000	Y_WP:	0.000	Y_WP:	0.500	X:	-0.002	Y:	-0.013	Z:	0.161	yaw:	4.958	yaw rate:	-7.546	Roll:	-0.949	Pitch:	-2.891	Yaw:	4.221	Thrust:	51.623
Time:	3.252	Roll Set Point:	0.005	Pitch Set Point:	0.026	Yaw Set Point:	-0.087	X_WP:	0.000	Y_WP:	0.000	Y_WP:	0.500	X:	-0.002	Y:	-0.013	Z:	0.161	yaw:	4.958	yaw rate:	-7.546	Roll:	-0.086	Pitch:	-0.324	Yaw:	8.025	Thrust:	80.414
Time:	3.263	Roll Set Point:	0.006	Pitch Set Point:	0.028	Yaw Set Point:	-0.081	X_WP:	0.000	Y_WP:	0.000	Y_WP:	0.500	X:	-0.002	Y:	-0.014	Z:	0.166	yaw:	4.651	yaw rate:	-30.730	Roll:	-0.629	Pitch:	-2.209	Yaw:	0.302	Thrust:	59.415
Time:	3.274	Roll Set Point:	0.006	Pitch Set Point:	0.030	Yaw Set Point:	-0.081	X_WP:	0.000	Y_WP:	0.000	Y_WP:	0.500	X:	-0.002	Y:	-0.015	Z:	0.170	yaw:	4.622	yaw rate:	-2.871	Roll:	-0.524	Pitch:	-1.490	Yaw:	6.875	Thrust:	66.223
Time:	3.285	Roll Set Point:	0.007	Pitch Set Point:	0.031	Yaw Set Point:	-0.080	X_WP:	0.000	Y_WP:	0.000	Y_WP:	0.500	X:	-0.003	Y:	-0.016	Z:	0.173	yaw:	4.578	yaw rate:	-4.389	Roll:	-0.511	Pitch:	-1.590	Yaw:	6.453	Thrust:	66.171
Time:	3.296	Roll Set Point:	0.007	Pitch Set Point:	0.033	Yaw Set Point:	-0.083	X_WP:	0.000	Y_WP:	0.000	Y_WP:	0.500	X:	-0.003	Y:	-0.016	Z:	0.177	yaw:	4.752	yaw rate:	17.358	Roll:	-0.476	Pitch:	-1.528	Yaw:	11.858	Thrust:	66.929
Time:	3.307	Roll Set Point:	0.008	Pitch Set Point:	0.034	Yaw Set Point:	-0.069	X_WP:	0.000	Y_WP:	0.000	Y_WP:	0.500	X:	-0.003	Y:	-0.017	Z:	0.180	yaw:	3.932	yaw rate:	-81.976	Roll:	-0.426	Pitch:	-1.696	Yaw:	-12.865	Thrust:	66.772
Time:	3.318	Roll Set Point:	0.008	Pitch Set Point:	0.036	Yaw Set Point:	-0.071	X_WP:	0.000	Y_WP:	0.000	Y_WP:	0.500	X:	-0.003	Y:	-0.018	Z:	0.186	yaw:	4.076	yaw rate:	14.455	Roll:	-0.614	Pitch:	-1.791	Yaw:	10.225	Thrust:	59.512
Time:	3.329	Roll Set Point:	0.009	Pitch Set Point:	0.037	Yaw Set Point:	-0.068	X_WP:	0.000	Y_WP:	0.000	Y_WP:	0.500	X:	-0.004	Y:	-0.019	Z:	0.190	yaw:	3.902	yaw rate:	-17.474	Roll:	-0.545	Pitch:	-1.472	Yaw:	2.413	Thrust:	66.812
Time:	3.340	Roll Set Point:	0.009	Pitch Set Point:	0.038	Yaw Set Point:	-0.068	X_WP:	0.000	Y_WP:	0.000	Y_WP:	0.500	X:	-0.004	Y:	-0.019	Z:	0.193	yaw:	3.916	yaw rate:	1.409	Roll:	-0.554	Pitch:	-1.403	Yaw:	6.903	Thrust:	66.251
Time:	3.352	Roll Set Point:	0.009	Pitch Set Point:	0.039	Yaw Set Point:	-0.072	X_WP:	0.000	Y_WP:	0.000	Y_WP:	0.500	X:	-0.004	Y:	-0.020	Z:	0.197	yaw:	4.101	yaw rate:	18.539	Roll:	-0.390	Pitch:	-1.143	Yaw:	10.963	Thrust:	74.332
Time:	3.363	Roll Set Point:	0.010	Pitch Set Point:	0.041	Yaw Set Point:	-0.065	X_WP:	0.000	Y_WP:	0.000	Y_WP:	0.500	X:	-0.004	Y:	-0.021	Z:	0.203	yaw:	3.729	yaw rate:	-37.177	Roll:	-0.812	Pitch:	-1.768	Yaw:	-2.515	Thrust:	58.026
Time:	3.374	Roll Set Point:	0.011	Pitch Set Point:	0.042	Yaw Set Point:	-0.064	X_WP:	0.000	Y_WP:	0.000	Y_WP:	0.500	X:	-0.005	Y:	-0.021	Z:	0.207	yaw:	3.665	yaw rate:	-6.388	Roll:	-0.442	Pitch:	-1.259	Yaw:	4.705	Thrust:	66.370
Time:	3.385	Roll Set Point:	0.011	Pitch Set Point:	0.043	Yaw Set Point:	-0.061	X_WP:	0.000	Y_WP:	0.000	Y_WP:	0.500	X:	-0.005	Y:	-0.022	Z:	0.211	yaw:	3.492	yaw rate:	-17.328	Roll:	-0.497	Pitch:	-1.412	Yaw:	1.866	Thrust:	67.043
Time:	3.396	Roll Set Point:	0.011	Pitch Set Point:	0.044	Yaw Set Point:	-0.063	X_WP:	0.000	Y_WP:	0.000	Y_WP:	0.500	X:	-0.005	Y:	-0.022	Z:	0.215	yaw:	3.588	yaw rate:	9.591	Roll:	-0.570	Pitch:	-1.200	Yaw:	8.389	Thrust:	66.446
Time:	3.407	Roll Set Point:	0.012	Pitch Set Point:	0.045	Yaw Set Point:	-0.063	X_WP:	0.000	Y_WP:	0.000	Y_WP:	0.500	X:	-0.005	Y:	-0.023	Z:	0.221	yaw:	3.624	yaw rate:	3.624	Roll:	-0.433	Pitch:	-1.325	Yaw:	7.024	Thrust:	57.681
Time:	3.418	Roll Set Point:	0.012	Pitch Set Point:	0.046	Yaw Set Point:	-0.049	X_WP:	0.000	Y_WP:	0.000	Y_WP:	0.500	X:	-0.005	Y:	-0.023	Z:	0.225	yaw:	2.823	yaw rate:	-80.125	Roll:	-0.228	Pitch:	-1.544	Yaw:	-14.023	Thrust:	65.270
Time:	3.429	Roll Set Point:	0.012	Pitch Set Point:	0.046	Yaw Set Point:	-0.054	X_WP:	0.000	Y_WP:	0.000	Y_WP:	0.500	X:	-0.006	Y:	-0.023	Z:	0.230	yaw:	3.080	yaw rate:	25.730	Roll:	-0.600	Pitch:	-0.704	Yaw:	11.511	Thrust:	65.707
Time:	3.440	Roll Set Point:	0.013	Pitch Set Point:	0.047	Yaw Set Point:	-0.049	X_WP:	0.000	Y_WP:	0.000	Y_WP:	0.500	X:	-0.006	Y:	-0.023	Z:	0.234	yaw:	2.836	yaw rate:	-24.450	Roll:	-0.252	Pitch:	-1.085	Yaw:	-0.741	Thrust:	66.274
Time:	3.451	Roll Set Point:	0.013	Pitch Set Point:	0.047	Yaw Set Point:	-0.052	X_WP:	0.000	Y_WP:	0.000	Y_WP:	0.500	X:	-0.006	Y:	-0.024	Z:	0.238	yaw:	2.974	yaw rate:	13.802	Roll:	-0.588	Pitch:	-1.160	Yaw:	8.531	Thrust:	65.544
Time:	3.462	Roll Set Point:	0.013	Pitch Set Point:	0.048	Yaw Set Point:	-0.041	X_WP:	0.000	Y_WP:	0.000	Y_WP:	0.500	X:	-0.006	Y:	-0.024	Z:	0.245	yaw:	2.341	yaw rate:	-63.318	Roll:	-0.204	Pitch:	-1.367	Yaw:	-10.658	Thrust:	56.135
Time:	3.473	Roll Set Point:	0.014	Pitch Set Point:	0.048	Yaw Set Point:	-0.038	X_WP:	0.000	Y_WP:	0.000	Y_WP:	0.500	X:	-0.006	Y:	-0.024	Z:	0.249	yaw:	2.199	yaw rate:	-14.172	Roll:	-0.399	Pitch:	-0.745	Yaw:	0.809	Thrust:	65.864
Time:	3.485	Roll Set Point:	0.014	Pitch Set Point:	0.048	Yaw Set Point:	-0.043	X_WP:	0.000	Y_WP:	0.000	Y_WP:	0.500	X:	-0.006	Y:	-0.024	Z:	0.254	yaw:	2.489	yaw rate:	28.969	Roll:	-0.460	Pitch:	-0.685	Yaw:	10.981	Thrust:	72.932
Time:	3.496	Roll Set Point:	0.014	Pitch Set Point:	0.048	Yaw Set Point:	-0.046	X_WP:	0.000	Y_WP:	0.000	Y_WP:	0.500	X:	-0.007	Y:	-0.024	Z:	0.261	yaw:	2.641	yaw rate:	15.202	Roll:	-0.577	Pitch:	-0.769	Yaw:	8.398	Thrust:	54.817
Time:	3.507	Roll Set Point:	0.014	Pitch Set Point:	0.048	Yaw Set Point:	-0.048	X_WP:	0.000	Y_WP:	0.000	Y_WP:	0.500	X:	-0.007	Y:	-0.024	Z:	0.265	yaw:	2.767	yaw rate:	12.641	Roll:	-0.381	Pitch:	-0.556	Yaw:	7.967	Thrust:	64.666
Time:	3.518	Roll Set Point:	0.015	Pitch Set Point:	0.049	Yaw Set Point:	-0.034	X_WP:	0.000	Y_WP:	0.000	Y_WP:	0.500	X:	-0.007	Y:	-0.025	Z:	0.270	yaw:	1.941	yaw rate:	-82.635	Roll:	-0.236	Pitch:	-1.259	Yaw:	-15.805	Thrust:	64.136
Time:	3.529	Roll Set Point:	0.015	Pitch Set Point:	0.049	Yaw Set Point:	-0.038	X_WP:	0.000	Y_WP:	0.000	Y_WP:	0.500	X:	-0.007	Y:	-0.025	Z:	0.275	yaw:	2.156	yaw rate:	21.535	Roll:	-0.255	Pitch:	-0.603	Yaw:	9.225	Thrust:	64.488
Time:	3.541	Roll Set Point:	0.015	Pitch Set Point:	0.048	Yaw Set Point:	-0.040	X_WP:	0.000	Y_WP:	0.000	Y_WP:	0.500	X:	-0.007	Y:	-0.024	Z:	0.280	yaw:	2.292	yaw rate:	13.571	Roll:	-0.359	Pitch:	-0.309	Yaw:	7.356	Thrust:	72.020
Time:	3.553	Roll Set Point:	0.015	Pitch Set Point:	0.048	Yaw Set Point:	-0.039	X_WP:	0.000	Y_WP:	0.000	Y_WP:	0.500	X:	-0.007	Y:	-0.024	Z:	0.287	yaw:	2.222	yaw rate:	-6.982	Roll:	-0.252	Pitch:	-0.674	Yaw:	2.787	Thrust:	63.807
Time:	3.565	Roll Set Point:	0.015	Pitch Set Point:	0.048	Yaw Set Point:	-0.035	X_WP:	0.000	Y_WP:	0.000	Y_WP:	0.500	X:	-0.007	Y:	-0.024	Z:	0.292	yaw:	2.001	yaw rate:	-22.059	Roll:	-0.087	Pitch:	-0.463	Yaw:	-0.802	Thrust:	72.102
Time:	3.578	Roll Set Point:	0.014	Pitch Set Point:	0.047	Yaw Set Point:	-0.038	X_WP:	0.000	Y_WP:	0.000	Y_WP:	0.500	X:	-0.007	Y:	-0.024	Z:	0.301	yaw:	2.155	yaw rate:	18.638	Roll:	-0.102	Pitch:	-0.066	Yaw:	7.565	Thrust:	53.401
Time:	3.590	Roll Set Point:	0.014	Pitch Set Point:	0.047	Yaw Set Point:	-0.033	X_WP:	0.000	Y_WP:	0.000	Y_WP:	0.500	X:	-0.007	Y:	-0.023	Z:	0.309	yaw:	1.906	yaw rate:	-24.917	Roll:	-0.066	Pitch:	-0.235	Yaw:	-1.557	Thrust:	61.901
Time:	3.601	Roll Set Point:	0.014	Pitch Set Point:	0.047	Yaw Set Point:	-0.027	X_WP:	0.000	Y_WP:	0.000	Y_WP:	0.500	X:	-0.007	Y:	-0.023	Z:	0.314	yaw:	1.564	yaw rate:	-34.246	Roll:	-0.119	Pitch:	-0.759	Yaw:	-4.842	Thrust:	63.807
Time:	3.612	Roll Set Point:	0.014	Pitch Set Point:	0.046	Yaw Set Point:	-0.028	X_WP:	0.000	Y_WP:	0.000	Y_WP:	0.500	X:	-0.007	Y:	-0.023	Z:	0.319	yaw:	1.630	yaw rate:	6.581	Roll:	-0.102	Pitch:	0.054	Yaw:	4.940	Thrust:	62.548
Time:	3.623	Roll Set Point:	0.014	Pitch Set Point:	0.045	Yaw Set Point:	-0.028	X_WP:	0.000	Y_WP:	0.000	Y_WP:	0.500	X:	-0.007	Y:	-0.023	Z:	0.324	yaw:	1.605	yaw rate:	-2.419	Roll:	-0.134	Pitch:	-0.270	Yaw:	2.771	Thrust:	62.928
Time:	3.634	Roll Set Point:	0.014	Pitch Set Point:	0.044	Yaw Set Point:	-0.026	X_WP:	0.000	Y_WP:	0.000	Y_WP:	0.500	X:	-0.007	Y:	-0.022	Z:	0.331	yaw:	1.478	yaw rate:	-12.695	Roll:	0.198	Pitch:	0.151	Yaw:	0.153	Thrust:	51.581
Time:	3.645	Roll Set Point:	0.013	Pitch Set Point:	0.044	Yaw Set Point:	-0.030	X_WP:	0.000	Y_WP:	0.000	Y_WP:	0.500	X:	-0.006	Y:	-0.022	Z:	0.336	yaw:	1.692	yaw rate:	21.326	Roll:	0.031	Pitch:	-0.060	Yaw:	8.527	Thrust:	62.500
Time:	3.656	Roll Set Point:	0.013	Pitch Set Point:	0.043	Yaw Set Point:	-0.025	X_WP:	0.000	Y_WP:	0.000	Y_WP:	0.500	X:	-0.006	Y:	-0.022	Z:	0.341	yaw:	1.447	yaw rate:	-24.486	Roll:	0.093	Pitch:	-0.158	Yaw:	-2.689	Thrust:	62.413
Time:	3.667	Roll Set Point:	0.013	Pitch Set Point:	0.043	Yaw Set Point:	-0.016	X_WP:	0.000	Y_WP:	0.000	Y_WP:	0.500	X:	-0.006	Y:	-0.022	Z:	0.346	yaw:	0.913	yaw rate:	-53.405	Roll:	0.169	Pitch:	-0.496	Yaw:	-10.299	Thrust:	61.364
Time:	3.678	Roll Set Point:	0.012	Pitch Set Point:	0.042	Yaw Set Point:	-0.023	X_WP:	0.000	Y_WP:	0.000	Y_WP:	0.500	X:	-0.006	Y:	-0.021	Z:	0.352	yaw:	1.292	yaw rate:	37.959	Roll:	0.037	Pitch:	0.403	Yaw:	11.899	Thrust:	62.130
Time:	3.689	Roll Set Point:	0.012	Pitch Set Point:	0.041	Yaw Set Point:	-0.014	X_WP:	0.000	Y_WP:	0.000	Y_WP:	0.500	X:	-0.006	Y:	-0.021	Z:	0.359	yaw:	0.815	yaw rate:	-47.776	Roll:	0.026	Pitch:	-0.113	Yaw:	-9.099	Thrust:	52.316
Time:	3.700	Roll Set Point:	0.012	Pitch Set Point:	0.040	Yaw Set Point:	-0.021	X_WP:	0.000	Y_WP:	0.000	Y_WP:	0.500	X:	-0.006	Y:	-0.020	Z:	0.364	yaw:	1.202	yaw rate:	38.705	Roll:	0.232	Pitch:	0.460	Yaw:	11.969	Thrust:	62.135
Time:	3.712	Roll Set Point:	0.011	Pitch Set Point:	0.039	Yaw Set Point:	-0.011	X_WP:	0.000	Y_WP:	0.000	Y_WP:	0.500	X:	-0.005	Y:	-0.020	Z:	0.369	yaw:	0.633	yaw rate:	-56.876	Roll:	0.245	Pitch:	-0.258	Yaw:	-10.319	Thrust:	70.286
Time:	3.723	Roll Set Point:	0.010	Pitch Set Point:	0.038	Yaw Set Point:	-0.021	X_WP:	0.000	Y_WP:	0.000	Y_WP:	0.500	X:	-0.005	Y:	-0.019	Z:	0.374	yaw:	1.187	yaw rate:	55.377	Roll:	0.310	Pitch:	0.491	Yaw:	15.904	Thrust:	62.236
Time:	3.735	Roll Set Point:	0.010	Pitch Set Point:	0.037	Yaw Set Point:	-0.010	X_WP:	0.000	Y_WP:	0.000	Y_WP:	0.500	X:	-0.005	Y:	-0.019	Z:	0.379	yaw:	0.570	yaw rate:	-61.659	Roll:	0.220	Pitch:	-0.143	Yaw:	-11.417	Thrust:	70.623
Time:	3.747	Roll Set Point:	0.010	Pitch Set Point:	0.036	Yaw Set Point:	-0.017	X_WP:	0.000	Y_WP:	0.000	Y_WP:	0.500	X:	-0.005	Y:	-0.018	Z:	0.383	yaw:	0.986	yaw rate:	41.577	Roll:	0.010	Pitch:	0.427	Yaw:	11.627	Thrust:	71.383
Time:	3.759	Roll Set Point:	0.008	Pitch Set Point:	0.035	Yaw Set Point:	-0.010	X_WP:	0.000	Y_WP:	0.000	Y_WP:	0.500	X:	-0.004	Y:	-0.017	Z:	0.390	yaw:	0.590	yaw rate:	-39.566	Roll:	0.802	Pitch:	0.595	Yaw:	-6.582	Thrust:	61.907
Time:	3.770	Roll Set Point:	0.008	Pitch Set Point:	0.034	Yaw Set Point:	-0.010	X_WP:	0.000	Y_WP:	0.000	Y_WP:	0.500	X:	-0.004	Y:	-0.017	Z:	0.395	yaw:	0.571	yaw rate:	-1.901	Roll:	0.216	Pitch:	0.139	Yaw:	1.449	Thrust:	62.277
Time:	3.781	Roll Set Point:	0.007	Pitch Set Point:	0.033	Yaw Set Point:	-0.010	X_WP:	0.000	Y_WP:	0.000	Y_WP:	0.500	X:	-0.004	Y:	-0.016	Z:	0.400	yaw:	0.566	yaw rate:	-0.478	Roll:	0.476	Pitch:	0.479	Yaw:	1.780	Thrust:	62.349
Time:	3.792	Roll Set Point:	0.007	Pitch Set Point:	0.032	Yaw Set Point:	-0.003	X_WP:	0.000	Y_WP:	0.000	Y_WP:	0.500	X:	-0.003	Y:	-0.016	Z:	0.405	yaw:	0.174	yaw rate:	-39.273	Roll:	0.195	Pitch:	0.020	Yaw:	-7.976	Thrust:	62.422
Time:	3.803	Roll Set Point:	0.006	Pitch Set Point:	0.030	Yaw Set Point:	-0.013	X_WP:	0.000	Y_WP:	0.000	Y_WP:	0.500	X:	-0.003	Y:	-0.015	Z:	0.412	yaw:	0.725	yaw rate:	55.156	Roll:	0.766	Pitch:	1.258	Yaw:	15.208	Thrust:	52.479
Time:	3.814	Roll Set Point:	0.005	Pitch Set Point:	0.029	Yaw Set Point:	-0.016	X_WP:	0.000	Y_WP:	0.000	Y_WP:	0.500	X:	-0.002	Y:	-0.014	Z:	0.416	yaw:	0.933	yaw rate:	20.757	Roll:	0.429	Pitch:	0.537	Yaw:	7.324	Thrust:	62.585
Time:	3.825	Roll Set Point:	0.005	Pitch Set Point:	0.028	Yaw Set Point:	-0.006	X_WP:	0.000	Y_WP:	0.000	Y_WP:	0.500	X:	-0.002	Y:	-0.014	Z:	0.421	yaw:	0.358	yaw rate:	-57.447	Roll:	0.244	Pitch:	-0.079	Yaw:	-11.951	Thrust:	62.708
Time:	3.836	Roll Set Point:	0.004	Pitch Set Point:	0.026	Yaw Set Point:	-0.009	X_WP:	0.000	Y_WP:	0.000	Y_WP:	0.500	X:	-0.002	Y:	-0.013	Z:	0.426	yaw:	0.542	yaw rate:	18.357	Roll:	0.739	Pitch:	1.101	Yaw:	6.217	Thrust:	60.879
Time:	3.848	Roll Set Point:	0.003	Pitch Set Point:	0.026	Yaw Set Point:	-0.000	X_WP:	0.000	Y_WP:	0.000	Y_WP:	0.500	X:	-0.002	Y:	-0.013	Z:	0.430	yaw:	0.028	yaw rate:	-51.381	Roll:	0.487	Pitch:	0.154	Yaw:	-9.966	Thrust:	69.732
Time:	3.859	Roll Set Point:	0.002	Pitch Set Point:	0.024	Yaw Set Point:	-0.005	X_WP:	0.000	Y_WP:	0.000	Y_WP:	0.500	X:	-0.001	Y:	-0.012	Z:	0.435	yaw:	0.313	yaw rate:	28.529	Roll:	0.695	Pitch:	0.927	Yaw:	8.312	Thrust:	61.240
Time:	3.870	Roll Set Point:	0.001	Pitch Set Point:	0.023	Yaw Set Point:	0.004	X_WP:	0.000	Y_WP:	0.000	Y_WP:	0.500	X:	-0.000	Y:	-0.011	Z:	0.442	yaw:	-0.209	yaw rate:	-52.254	Roll:	1.002	Pitch:	0.790	Yaw:	-11.560	Thrust:	51.272
Time:	3.881	Roll Set Point:	0.000	Pitch Set Point:	0.021	Yaw Set Point:	0.006	X_WP:	0.000	Y_WP:	0.000	Y_WP:	0.500	X:	-0.000	Y:	-0.011	Z:	0.447	yaw:	-0.317	yaw rate:	-10.773	Roll:	0.598	Pitch:	0.693	Yaw:	-1.897	Thrust:	61.152
Time:	3.892	Roll Set Point:	-0.001	Pitch Set Point:	0.020	Yaw Set Point:	-0.002	X_WP:	0.000	Y_WP:	0.000	Y_WP:	0.500	X:	0.000	Y:	-0.010	Z:	0.451	yaw:	0.128	yaw rate:	44.509	Roll:	0.603	Pitch:	0.967	Yaw:	11.868	Thrust:	60.408
Time:	3.903	Roll Set Point:	-0.002	Pitch Set Point:	0.018	Yaw Set Point:	0.001	X_WP:	0.000	Y_WP:	0.000	Y_WP:	0.500	X:	0.001	Y:	-0.009	Z:	0.458	yaw:	-0.051	yaw rate:	-17.909	Roll:	0.721	Pitch:	0.794	Yaw:	-3.208	Thrust:	52.088
Time:	3.914	Roll Set Point:	-0.003	Pitch Set Point:	0.017	Yaw Set Point:	0.004	X_WP:	0.000	Y_WP:	0.000	Y_WP:	0.500	X:	0.001	Y:	-0.008	Z:	0.463	yaw:	-0.239	yaw rate:	-18.788	Roll:	0.963	Pitch:	0.910	Yaw:	-3.706	Thrust:	60.011
Time:	3.928	Roll Set Point:	-0.004	Pitch Set Point:	0.015	Yaw Set Point:	-0.002	X_WP:	0.000	Y_WP:	0.000	Y_WP:	0.500	X:	0.002	Y:	-0.008	Z:	0.467	yaw:	0.088	yaw rate:	32.640	Roll:	0.784	Pitch:	0.827	Yaw:	7.978	Thrust:	76.912
Time:	3.939	Roll Set Point:	-0.005	Pitch Set Point:	0.014	Yaw Set Point:	-0.002	X_WP:	0.000	Y_WP:	0.000	Y_WP:	0.500	X:	0.002	Y:	-0.007	Z:	0.472	yaw:	0.096	yaw rate:	0.809	Roll:	0.744	Pitch:	0.844	Yaw:	1.426	Thrust:	60.739
Time:	3.950	Roll Set Point:	-0.006	Pitch Set Point:	0.013	Yaw Set Point:	-0.003	X_WP:	0.000	Y_WP:	0.000	Y_WP:	0.500	X:	0.003	Y:	-0.006	Z:	0.476	yaw:	0.145	yaw rate:	4.887	Roll:	0.578	Pitch:	0.687	Yaw:	2.463	Thrust:	60.953
Time:	3.961	Roll Set Point:	-0.007	Pitch Set Point:	0.011	Yaw Set Point:	0.002	X_WP:	0.000	Y_WP:	0.000	Y_WP:	0.500	X:	0.003	Y:	-0.006	Z:	0.481	yaw:	-0.109	yaw rate:	-25.324	Roll:	0.981	Pitch:	0.981	Yaw:	-5.047	Thrust:	60.783
Time:	3.972	Roll Set Point:	-0.008	Pitch Set Point:	0.009	Yaw Set Point:	0.004	X_WP:	0.000	Y_WP:	0.000	Y_WP:	0.500	X:	0.004	Y:	-0.005	Z:	0.487	yaw:	-0.253	yaw rate:	-14.444	Roll:	1.118	Pitch:	1.406	Yaw:	-2.679	Thrust:	51.465
Time:	3.984	Roll Set Point:	-0.009	Pitch Set Point:	0.008	Yaw Set Point:	0.009	X_WP:	0.000	Y_WP:	0.000	Y_WP:	0.500	X:	0.004	Y:	-0.004	Z:	0.491	yaw:	-0.521	yaw rate:	-26.799	Roll:	0.621	Pitch:	0.680	Yaw:	-5.374	Thrust:	69.445
Time:	3.995	Roll Set Point:	-0.010	Pitch Set Point:	0.007	Yaw Set Point:	0.002	X_WP:	0.000	Y_WP:	0.000	Y_WP:	0.500	X:	0.005	Y:	-0.003	Z:	0.495	yaw:	-0.136	yaw rate:	38.550	Roll:	1.189	Pitch:	1.197	Yaw:	10.060	Thrust:	60.419
Time:	4.006	Roll Set Point:	-0.011	Pitch Set Point:	0.006	Yaw Set Point:	0.014	X_WP:	0.000	Y_WP:	0.000	Y_WP:	0.500	X:	0.005	Y:	-0.003	Z:	0.500	yaw:	-0.796	yaw rate:	-66.083	Roll:	0.794	Pitch:	0.731	Yaw:	-15.653	Thrust:	60.530
Time:	4.017	Roll Set Point:	-0.012	Pitch Set Point:	0.004	Yaw Set Point:	0.001	X_WP:	0.000	Y_WP:	0.000	Y_WP:	0.500	X:	0.006	Y:	-0.002	Z:	0.503	yaw:	-0.044	yaw rate:	75.201	Roll:	1.031	Pitch:	1.139	Yaw:	18.931	Thrust:	61.038
Time:	4.028	Roll Set Point:	-0.013	Pitch Set Point:	0.002	Yaw Set Point:	0.005	X_WP:	0.000	Y_WP:	0.000	Y_WP:	0.500	X:	0.007	Y:	-0.001	Z:	0.509	yaw:	-0.304	yaw rate:	-25.937	Roll:	1.243	Pitch:	1.500	Yaw:	-5.486	Thrust:	52.542
Time:	4.039	Roll Set Point:	-0.014	Pitch Set Point:	0.001	Yaw Set Point:	0.015	X_WP:	0.000	Y_WP:	0.000	Y_WP:	0.500	X:	0.007	Y:	-0.001	Z:	0.513	yaw:	-0.835	yaw rate:	-53.143	Roll:	0.992	Pitch:	0.916	Yaw:	-12.687	Thrust:	60.267
Time:	4.050	Roll Set Point:	-0.015	Pitch Set Point:	-0.001	Yaw Set Point:	0.007	X_WP:	0.000	Y_WP:	0.000	Y_WP:	0.500	X:	0.008	Y:	0.000	Z:	0.517	yaw:	-0.418	yaw rate:	41.738	Roll:	0.862	Pitch:	1.155	Yaw:	10.414	Thrust:	60.453
Time:	4.061	Roll Set Point:	-0.016	Pitch Set Point:	-0.002	Yaw Set Point:	0.015	X_WP:	0.000	Y_WP:	0.000	Y_WP:	0.500	X:	0.008	Y:	0.001	Z:	0.521	yaw:	-0.852	yaw rate:	-43.435	Roll:	0.765	Pitch:	1.005	Yaw:	-10.412	Thrust:	61.090
Time:	4.072	Roll Set Point:	-0.017	Pitch Set Point:	-0.003	Yaw Set Point:	0.008	X_WP:	0.000	Y_WP:	0.000	Y_WP:	0.500	X:	0.009	Y:	0.001	Z:	0.525	yaw:	-0.464	yaw rate:	38.813	Roll:	1.045	Pitch:	0.992	Yaw:	9.632	Thrust:	60.277
Time:	4.083	Roll Set Point:	-0.019	Pitch Set Point:	-0.005	Yaw Set Point:	0.009	X_WP:	0.000	Y_WP:	0.000	Y_WP:	0.500	X:	0.009	Y:	0.003	Z:	0.531	yaw:	-0.492	yaw rate:	-2.785	Roll:	1.641	Pitch:	1.887	Yaw:	-0.268	Thrust:	52.135
Time:	4.094	Roll Set Point:	-0.019	Pitch Set Point:	-0.006	Yaw Set Point:	0.016	X_WP:	0.000	Y_WP:	0.000	Y_WP:	0.500	X:	0.010	Y:	0.003	Z:	0.534	yaw:	-0.899	yaw rate:	-40.664	Roll:	0.772	Pitch:	1.033	Yaw:	-9.784	Thrust:	60.891
Time:	4.105	Roll Set Point:	-0.021	Pitch Set Point:	-0.008	Yaw Set Point:	0.004	X_WP:	0.000	Y_WP:	0.000	Y_WP:	0.500	X:	0.010	Y:	0.004	Z:	0.538	yaw:	-0.216	yaw rate:	68.246	Roll:	1.178	Pitch:	0.890	Yaw:	17.035	Thrust:	59.904
Time:	4.116	Roll Set Point:	-0.021	Pitch Set Point:	-0.009	Yaw Set Point:	0.020	X_WP:	0.000	Y_WP:	0.000	Y_WP:	0.500	X:	0.011	Y:	0.004	Z:	0.541	yaw:	-1.124	yaw rate:	-90.776	Roll:	0.861	Pitch:	1.539	Yaw:	-21.999	Thrust:	60.063
Time:	4.127	Roll Set Point:	-0.023	Pitch Set Point:	-0.011	Yaw Set Point:	0.012	X_WP:	0.000	Y_WP:	0.000	Y_WP:	0.500	X:	0.012	Y:	0.006	Z:	0.547	yaw:	-0.704	yaw rate:	41.950	Roll:	1.538	Pitch:	1.726	Yaw:	10.037	Thrust:	52.664
Time:	4.138	Roll Set Point:	-0.024	Pitch Set Point:	-0.013	Yaw Set Point:	0.008	X_WP:	0.000	Y_WP:	0.000	Y_WP:	0.500	X:	0.012	Y:	0.006	Z:	0.550	yaw:	-0.465	yaw rate:	23.892	Roll:	1.460	Pitch:	1.191	Yaw:	6.091	Thrust:	60.404
Time:	4.149	Roll Set Point:	-0.025	Pitch Set Point:	-0.014	Yaw Set Point:	0.020	X_WP:	0.000	Y_WP:	0.000	Y_WP:	0.500	X:	0.013	Y:	0.007	Z:	0.554	yaw:	-1.156	yaw rate:	-69.016	Roll:	0.754	Pitch:	1.174	Yaw:	-16.936	Thrust:	59.554
Time:	4.161	Roll Set Point:	-0.027	Pitch Set Point:	-0.016	Yaw Set Point:	0.021	X_WP:	0.000	Y_WP:	0.000	Y_WP:	0.500	X:	0.013	Y:	0.008	Z:	0.560	yaw:	-1.187	yaw rate:	-57.249	Roll:	1.564	Pitch:	2.127	Yaw:	-1.182	Thrust:	55.574
Time:	4.172	Roll Set Point:	-0.027	Pitch Set Point:	-0.016	Yaw Set Point:	0.021	X_WP:	0.000	Y_WP:	0.000	Y_WP:	0.500	X:	0.013	Y:	0.008	Z:	0.560	yaw:	-1.187	yaw rate:	-57.249	Roll:	0.382	Pitch:	0.256	Yaw:	-0.598	Thrust:	73.455
Time:	4.183	Roll Set Point:	-0.029	Pitch Set Point:	-0.020	Yaw Set Point:	0.013	X_WP:	0.000	Y_WP:	0.000	Y_WP:	0.500	X:	0.015	Y:	0.010	Z:	0.568	yaw:	-0.753	yaw rate:	46.435	Roll:	2.475	Pitch:	2.853	Yaw:	10.297	Thrust:	40.847
Time:	4.194	Roll Set Point:	-0.030	Pitch Set Point:	-0.021	Yaw Set Point:	0.014	X_WP:	0.000	Y_WP:	0.000	Y_WP:	0.500	X:	0.015	Y:	0.010	Z:	0.571	yaw:	-0.818	yaw rate:	-6.495	Roll:	1.288	Pitch:	1.317	Yaw:	-1.626	Thrust:	60.347
Time:	4.205	Roll Set Point:	-0.030	Pitch Set Point:	-0.021	Yaw Set Point:	0.014	X_WP:	0.000	Y_WP:	0.000	Y_WP:	0.500	X:	0.015	Y:	0.010	Z:	0.571	yaw:	-0.818	yaw rate:	-6.495	Roll:	0.438	Pitch:	0.323	Yaw:	-0.096	Thrust:	72.399
Time:	4.216	Roll Set Point:	-0.031	Pitch Set Point:	-0.022	Yaw Set Point:	0.012	X_WP:	0.000	Y_WP:	0.000	Y_WP:	0.500	X:	0.016	Y:	0.011	Z:	0.574	yaw:	-0.675	yaw rate:	14.311	Roll:	0.869	Pitch:	1.036	Yaw:	3.495	Thrust:	61.265
Time:	4.227	Roll Set Point:	-0.032	Pitch Set Point:	-0.024	Yaw Set Point:	0.022	X_WP:	0.000	Y_WP:	0.000	Y_WP:	0.500	X:	0.016	Y:	0.012	Z:	0.578	yaw:	-1.261	yaw rate:	-58.609	Roll:	1.401	Pitch:	1.827	Yaw:	-14.631	Thrust:	53.875
Time:	4.238	Roll Set Point:	-0.034	Pitch Set Point:	-0.025	Yaw Set Point:	0.013	X_WP:	0.000	Y_WP:	0.000	Y_WP:	0.500	X:	0.017	Y:	0.012	Z:	0.581	yaw:	-0.720	yaw rate:	54.084	Roll:	1.520	Pitch:	1.412	Yaw:	12.867	Thrust:	61.285
Time:	4.249	Roll Set Point:	-0.034	Pitch Set Point:	-0.026	Yaw Set Point:	0.025	X_WP:	0.000	Y_WP:	0.000	Y_WP:	0.500	X:	0.017	Y:	0.013	Z:	0.584	yaw:	-1.410	yaw rate:	-69.002	Roll:	0.699	Pitch:	1.495	Yaw:	-17.309	Thrust:	60.491
Time:	4.260	Roll Set Point:	-0.035	Pitch Set Point:	-0.027	Yaw Set Point:	0.019	X_WP:	0.000	Y_WP:	0.000	Y_WP:	0.500	X:	0.018	Y:	0.014	Z:	0.586	yaw:	-1.099	yaw rate:	31.175	Roll:	1.421	Pitch:	1.236	Yaw:	6.899	Thrust:	60.560
Time:	4.271	Roll Set Point:	-0.036	Pitch Set Point:	-0.028	Yaw Set Point:	0.025	X_WP:	0.000	Y_WP:	0.000	Y_WP:	0.500	X:	0.018	Y:	0.014	Z:	0.589	yaw:	-1.436	yaw rate:	-33.740	Roll:	0.882	Pitch:	1.268	Yaw:	-8.985	Thrust:	61.177
Time:	4.282	Roll Set Point:	-0.037	Pitch Set Point:	-0.030	Yaw Set Point:	0.015	X_WP:	0.000	Y_WP:	0.000	Y_WP:	0.500	X:	0.019	Y:	0.015	Z:	0.592	yaw:	-0.875	yaw rate:	56.123	Roll:	1.872	Pitch:	1.756	Yaw:	13.120	Thrust:	55.927
Time:	4.293	Roll Set Point:	-0.038	Pitch Set Point:	-0.032	Yaw Set Point:	0.017	X_WP:	0.000	Y_WP:	0.000	Y_WP:	0.500	X:	0.019	Y:	0.016	Z:	0.595	yaw:	-0.980	yaw rate:	-10.511	Roll:	1.196	Pitch:	1.528	Yaw:	-2.855	Thrust:	59.792
Time:	4.305	Roll Set Point:	-0.039	Pitch Set Point:	-0.033	Yaw Set Point:	0.017	X_WP:	0.000	Y_WP:	0.000	Y_WP:	0.500	X:	0.020	Y:	0.016	Z:	0.597	yaw:	-0.947	yaw rate:	3.271	Roll:	1.027	Pitch:	1.243	Yaw:	0.468	Thrust:	61.395
Time:	4.316	Roll Set Point:	-0.039	Pitch Set Point:	-0.034	Yaw Set Point:	0.021	X_WP:	0.000	Y_WP:	0.000	Y_WP:	0.500	X:	0.020	Y:	0.017	Z:	0.599	yaw:	-1.199	yaw rate:	-25.183	Roll:	1.034	Pitch:	1.462	Yaw:	-6.641	Thrust:	60.964
Time:	4.328	Roll Set Point:	-0.041	Pitch Set Point:	-0.036	Yaw Set Point:	0.018	X_WP:	0.000	Y_WP:	0.000	Y_WP:	0.500	X:	0.021	Y:	0.018	Z:	0.605	yaw:	-1.057	yaw rate:	44.374	Roll:	2.036	Pitch:	2.301	Yaw:	2.703	Thrust:	55.829
Time:	4.340	Roll Set Point:	-0.042	Pitch Set Point:	-0.037	Yaw Set Point:	0.027	X_WP:	0.000	Y_WP:	0.000	Y_WP:	0.500	X:	0.021	Y:	0.018	Z:	0.607	yaw:	-1.521	yaw rate:	-46.330	Roll:	0.911	Pitch:	1.334	Yaw:	-11.113	Thrust:	68.906
Time:	4.351	Roll Set Point:	-0.043	Pitch Set Point:	-0.038	Yaw Set Point:	0.020	X_WP:	0.000	Y_WP:	0.000	Y_WP:	0.500	X:	0.022	Y:	0.019	Z:	0.609	yaw:	-1.137	yaw rate:	38.332	Roll:	1.494	Pitch:	1.308	Yaw:	8.505	Thrust:	60.108
Time:	4.363	Roll Set Point:	-0.044	Pitch Set Point:	-0.039	Yaw Set Point:	0.022	X_WP:	0.000	Y_WP:	0.000	Y_WP:	0.500	X:	0.022	Y:	0.019	Z:	0.611	yaw:	-1.249	yaw rate:	-11.195	Roll:	1.076	Pitch:	1.382	Yaw:	-3.100	Thrust:	68.491
Time:	4.374	Roll Set Point:	-0.044	Pitch Set Point:	-0.040	Yaw Set Point:	0.029	X_WP:	0.000	Y_WP:	0.000	Y_WP:	0.500	X:	0.022	Y:	0.020	Z:	0.613	yaw:	-1.641	yaw rate:	-39.198	Roll:	0.973	Pitch:	1.542	Yaw:	-10.600	Thrust:	58.125
Time:	4.385	Roll Set Point:	-0.046	Pitch Set Point:	-0.042	Yaw Set Point:	0.020	X_WP:	0.000	Y_WP:	0.000	Y_WP:	0.500	X:	0.023	Y:	0.021	Z:	0.615	yaw:	-1.137	yaw rate:	50.440	Roll:	1.879	Pitch:	1.448	Yaw:	11.376	Thrust:	59.871
Time:	4.396	Roll Set Point:	-0.046	Pitch Set Point:	-0.042	Yaw Set Point:	0.027	X_WP:	0.000	Y_WP:	0.000	Y_WP:	0.500	X:	0.023	Y:	0.021	Z:	0.617	yaw:	-1.549	yaw rate:	-41.189	Roll:	0.459	Pitch:	1.102	Yaw:	-10.965	Thrust:	60.884
Time:	4.407	Roll Set Point:	-0.047	Pitch Set Point:	-0.043	Yaw Set Point:	0.020	X_WP:	0.000	Y_WP:	0.000	Y_WP:	0.500	X:	0.024	Y:	0.021	Z:	0.619	yaw:	-1.163	yaw rate:	38.596	Roll:	1.944	Pitch:	1.550	Yaw:	8.506	Thrust:	60.624
Time:	4.418	Roll Set Point:	-0.048	Pitch Set Point:	-0.044	Yaw Set Point:	0.021	X_WP:	0.000	Y_WP:	0.000	Y_WP:	0.500	X:	0.024	Y:	0.022	Z:	0.620	yaw:	-1.189	yaw rate:	-2.559	Roll:	1.268	Pitch:	1.314	Yaw:	-1.303	Thrust:	60.773
Time:	4.429	Roll Set Point:	-0.049	Pitch Set Point:	-0.045	Yaw Set Point:	0.028	X_WP:	0.000	Y_WP:	0.000	Y_WP:	0.500	X:	0.025	Y:	0.022	Z:	0.623	yaw:	-1.627	yaw rate:	-43.888	Roll:	1.118	Pitch:	1.679	Yaw:	-11.730	Thrust:	56.313
Time:	4.440	Roll Set Point:	-0.049	Pitch Set Point:	-0.045	Yaw Set Point:	0.017	X_WP:	0.000	Y_WP:	0.000	Y_WP:	0.500	X:	0.025	Y:	0.022	Z:	0.624	yaw:	-0.949	yaw rate:	67.811	Roll:	1.443	Pitch:	0.641	Yaw:	15.723	Thrust:	63.031
Time:	4.451	Roll Set Point:	-0.050	Pitch Set Point:	-0.047	Yaw Set Point:	0.022	X_WP:	0.000	Y_WP:	0.000	Y_WP:	0.500	X:	0.025	Y:	0.023	Z:	0.626	yaw:	-1.283	yaw rate:	-33.401	Roll:	1.207	Pitch:	1.851	Yaw:	-8.748	Thrust:	57.266
Time:	4.462	Roll Set Point:	-0.051	Pitch Set Point:	-0.047	Yaw Set Point:	0.022	X_WP:	0.000	Y_WP:	0.000	Y_WP:	0.500	X:	0.026	Y:	0.023	Z:	0.628	yaw:	-1.283	yaw rate:	0.058	Roll:	1.182	Pitch:	1.217	Yaw:	-0.835	Thrust:	59.716
Time:	4.473	Roll Set Point:	-0.051	Pitch Set Point:	-0.048	Yaw Set Point:	0.023	X_WP:	0.000	Y_WP:	0.000	Y_WP:	0.500	X:	0.026	Y:	0.024	Z:	0.630	yaw:	-1.332	yaw rate:	-4.962	Roll:	1.248	Pitch:	1.334	Yaw:	-2.093	Thrust:	59.899
Time:	4.485	Roll Set Point:	-0.052	Pitch Set Point:	-0.049	Yaw Set Point:	0.024	X_WP:	0.000	Y_WP:	0.000	Y_WP:	0.500	X:	0.026	Y:	0.024	Z:	0.631	yaw:	-1.392	yaw rate:	-5.923	Roll:	1.028	Pitch:	1.212	Yaw:	-2.217	Thrust:	66.616
Time:	4.496	Roll Set Point:	-0.052	Pitch Set Point:	-0.050	Yaw Set Point:	0.030	X_WP:	0.000	Y_WP:	0.000	Y_WP:	0.500	X:	0.027	Y:	0.024	Z:	0.633	yaw:	-1.733	yaw rate:	-34.146	Roll:	1.100	Pitch:	1.553	Yaw:	-9.573	Thrust:	57.112
Time:	4.507	Roll Set Point:	-0.053	Pitch Set Point:	-0.050	Yaw Set Point:	0.022	X_WP:	0.000	Y_WP:	0.000	Y_WP:	0.500	X:	0.027	Y:	0.025	Z:	0.635	yaw:	-1.254	yaw rate:	47.908	Roll:	1.823	Pitch:	1.215	Yaw:	10.568	Thrust:	59.288
Time:	4.518	Roll Set Point:	-0.054	Pitch Set Point:	-0.051	Yaw Set Point:	0.019	X_WP:	0.000	Y_WP:	0.000	Y_WP:	0.500	X:	0.027	Y:	0.025	Z:	0.636	yaw:	-1.095	yaw rate:	15.937	Roll:	1.405	Pitch:	0.943	Yaw:	3.166	Thrust:	59.874
Time:	4.529	Roll Set Point:	-0.055	Pitch Set Point:	-0.051	Yaw Set Point:	0.020	X_WP:	0.000	Y_WP:	0.000	Y_WP:	0.500	X:	0.028	Y:	0.025	Z:	0.637	yaw:	-1.149	yaw rate:	-5.412	Roll:	1.037	Pitch:	1.236	Yaw:	-1.974	Thrust:	58.982
Time:	4.540	Roll Set Point:	-0.055	Pitch Set Point:	-0.052	Yaw Set Point:	0.028	X_WP:	0.000	Y_WP:	0.000	Y_WP:	0.500	X:	0.028	Y:	0.026	Z:	0.639	yaw:	-1.629	yaw rate:	-47.995	Roll:	1.072	Pitch:	1.470	Yaw:	-12.764	Thrust:	56.951
Time:	4.552	Roll Set Point:	-0.056	Pitch Set Point:	-0.052	Yaw Set Point:	0.027	X_WP:	0.000	Y_WP:	0.000	Y_WP:	0.500	X:	0.028	Y:	0.026	Z:	0.640	yaw:	-1.552	yaw rate:	7.665	Roll:	1.446	Pitch:	1.131	Yaw:	0.486	Thrust:	66.459
Time:	4.563	Roll Set Point:	-0.056	Pitch Set Point:	-0.053	Yaw Set Point:	0.030	X_WP:	0.000	Y_WP:	0.000	Y_WP:	0.500	X:	0.028	Y:	0.026	Z:	0.641	yaw:	-1.746	yaw rate:	-19.375	Roll:	0.822	Pitch:	1.320	Yaw:	-6.141	Thrust:	59.596
Time:	4.575	Roll Set Point:	-0.057	Pitch Set Point:	-0.053	Yaw Set Point:	0.023	X_WP:	0.000	Y_WP:	0.000	Y_WP:	0.500	X:	0.029	Y:	0.026	Z:	0.643	yaw:	-1.320	yaw rate:	42.610	Roll:	1.738	Pitch:	1.046	Yaw:	8.415	Thrust:	65.781
Time:	4.586	Roll Set Point:	-0.058	Pitch Set Point:	-0.054	Yaw Set Point:	0.021	X_WP:	0.000	Y_WP:	0.000	Y_WP:	0.500	X:	0.029	Y:	0.027	Z:	0.644	yaw:	-1.222	yaw rate:	9.757	Roll:	1.353	Pitch:	1.076	Yaw:	1.492	Thrust:	59.328
Time:	4.597	Roll Set Point:	-0.058	Pitch Set Point:	-0.054	Yaw Set Point:	0.029	X_WP:	0.000	Y_WP:	0.000	Y_WP:	0.500	X:	0.029	Y:	0.027	Z:	0.645	yaw:	-1.645	yaw rate:	-42.273	Roll:	0.652	Pitch:	1.204	Yaw:	-11.444	Thrust:	59.708
Time:	4.609	Roll Set Point:	-0.059	Pitch Set Point:	-0.055	Yaw Set Point:	0.031	X_WP:	0.000	Y_WP:	0.000	Y_WP:	0.500	X:	0.030	Y:	0.027	Z:	0.646	yaw:	-1.792	yaw rate:	-14.681	Roll:	1.462	Pitch:	1.473	Yaw:	-4.754	Thrust:	63.587
Time:	4.620	Roll Set Point:	-0.060	Pitch Set Point:	-0.055	Yaw Set Point:	0.024	X_WP:	0.000	Y_WP:	0.000	Y_WP:	0.500	X:	0.030	Y:	0.027	Z:	0.647	yaw:	-1.355	yaw rate:	43.636	Roll:	1.741	Pitch:	0.887	Yaw:	9.333	Thrust:	58.820
Time:	4.631	Roll Set Point:	-0.060	Pitch Set Point:	-0.055	Yaw Set Point:	0.022	X_WP:	0.000	Y_WP:	0.000	Y_WP:	0.500	X:	0.030	Y:	0.027	Z:	0.648	yaw:	-1.287	yaw rate:	6.835	Roll:	1.265	Pitch:	1.020	Yaw:	0.688	Thrust:	58.958
Time:	4.642	Roll Set Point:	-0.060	Pitch Set Point:	-0.056	Yaw Set Point:	0.028	X_WP:	0.000	Y_WP:	0.000	Y_WP:	0.500	X:	0.031	Y:	0.027	Z:	0.649	yaw:	-1.626	yaw rate:	-33.861	Roll:	0.964	Pitch:	1.219	Yaw:	-9.430	Thrust:	59.573
Time:	4.653	Roll Set Point:	-0.061	Pitch Set Point:	-0.056	Yaw Set Point:	0.030	X_WP:	0.000	Y_WP:	0.000	Y_WP:	0.500	X:	0.031	Y:	0.028	Z:	0.650	yaw:	-1.700	yaw rate:	-7.399	Roll:	1.286	Pitch:	1.112	Yaw:	-3.284	Thrust:	56.257
Time:	4.664	Roll Set Point:	-0.061	Pitch Set Point:	-0.056	Yaw Set Point:	0.029	X_WP:	0.000	Y_WP:	0.000	Y_WP:	0.500	X:	0.031	Y:	0.028	Z:	0.651	yaw:	-1.675	yaw rate:	2.476	Roll:	1.390	Pitch:	1.205	Yaw:	-0.905	Thrust:	59.218
Time:	4.676	Roll Set Point:	-0.062	Pitch Set Point:	-0.056	Yaw Set Point:	0.016	X_WP:	0.000	Y_WP:	0.000	Y_WP:	0.500	X:	0.031	Y:	0.028	Z:	0.651	yaw:	-0.941	yaw rate:	73.426	Roll:	1.922	Pitch:	0.650	Yaw:	16.956	Thrust:	58.919
Time:	4.687	Roll Set Point:	-0.063	Pitch Set Point:	-0.057	Yaw Set Point:	0.024	X_WP:	0.000	Y_WP:	0.000	Y_WP:	0.500	X:	0.032	Y:	0.028	Z:	0.652	yaw:	-1.382	yaw rate:	-44.104	Roll:	0.961	Pitch:	1.527	Yaw:	-11.564	Thrust:	58.422
Time:	4.698	Roll Set Point:	-0.063	Pitch Set Point:	-0.057	Yaw Set Point:	0.026	X_WP:	0.000	Y_WP:	0.000	Y_WP:	0.500	X:	0.032	Y:	0.028	Z:	0.653	yaw:	-1.481	yaw rate:	-9.915	Roll:	1.137	Pitch:	1.072	Yaw:	-3.591	Thrust:	58.562
Time:	4.709	Roll Set Point:	-0.064	Pitch Set Point:	-0.057	Yaw Set Point:	0.024	X_WP:	0.000	Y_WP:	0.000	Y_WP:	0.500	X:	0.032	Y:	0.028	Z:	0.654	yaw:	-1.358	yaw rate:	12.291	Roll:	1.388	Pitch:	0.909	Yaw:	1.845	Thrust:	57.490
Time:	4.721	Roll Set Point:	-0.064	Pitch Set Point:	-0.057	Yaw Set Point:	0.021	X_WP:	0.000	Y_WP:	0.000	Y_WP:	0.500	X:	0.032	Y:	0.028	Z:	0.654	yaw:	-1.231	yaw rate:	12.713	Roll:	1.417	Pitch:	0.796	Yaw:	1.945	Thrust:	64.852
Time:	4.732	Roll Set Point:	-0.064	Pitch Set Point:	-0.058	Yaw Set Point:	0.021	X_WP:	0.000	Y_WP:	0.000	Y_WP:	0.500	X:	0.033	Y:	0.028	Z:	0.655	yaw:	-1.190	yaw rate:	4.032	Roll:	1.271	Pitch:	1.123	Yaw:	0.108	Thrust:	58.244
Time:	4.743	Roll Set Point:	-0.065	Pitch Set Point:	-0.058	Yaw Set Point:	0.026	X_WP:	0.000	Y_WP:	0.000	Y_WP:	0.500	X:	0.033	Y:	0.029	Z:	0.655	yaw:	-1.504	yaw rate:	-31.408	Roll:	1.039	Pitch:	1.319	Yaw:	-8.764	Thrust:	58.765
Time:	4.754	Roll Set Point:	-0.065	Pitch Set Point:	-0.058	Yaw Set Point:	0.034	X_WP:	0.000	Y_WP:	0.000	Y_WP:	0.500	X:	0.033	Y:	0.028	Z:	0.655	yaw:	-1.933	yaw rate:	-42.821	Roll:	0.867	Pitch:	1.080	Yaw:	-12.042	Thrust:	58.848
Time:	4.765	Roll Set Point:	-0.066	Pitch Set Point:	-0.058	Yaw Set Point:	0.026	X_WP:	0.000	Y_WP:	0.000	Y_WP:	0.500	X:	0.033	Y:	0.029	Z:	0.655	yaw:	-1.501	yaw rate:	43.129	Roll:	1.657	Pitch:	0.687	Yaw:	8.952	Thrust:	58.619
Time:	4.776	Roll Set Point:	-0.066	Pitch Set Point:	-0.058	Yaw Set Point:	0.027	X_WP:	0.000	Y_WP:	0.000	Y_WP:	0.500	X:	0.033	Y:	0.029	Z:	0.655	yaw:	-1.552	yaw rate:	-5.098	Roll:	1.262	Pitch:	1.218	Yaw:	-2.584	Thrust:	59.466
Time:	4.787	Roll Set Point:	-0.066	Pitch Set Point:	-0.058	Yaw Set Point:	0.021	X_WP:	0.000	Y_WP:	0.000	Y_WP:	0.500	X:	0.034	Y:	0.029	Z:	0.656	yaw:	-1.226	yaw rate:	32.634	Roll:	1.498	Pitch:	0.821	Yaw:	6.830	Thrust:	58.177
Time:	4.798	Roll Set Point:	-0.067	Pitch Set Point:	-0.058	Yaw Set Point:	0.022	X_WP:	0.000	Y_WP:	0.000	Y_WP:	0.500	X:	0.034	Y:	0.029	Z:	0.656	yaw:	-1.265	yaw rate:	-3.889	Roll:	1.117	Pitch:	0.975	Yaw:	-1.910	Thrust:	59.107
Time:	4.809	Roll Set Point:	-0.067	Pitch Set Point:	-0.059	Yaw Set Point:	0.032	X_WP:	0.000	Y_WP:	0.000	Y_WP:	0.500	X:	0.034	Y:	0.029	Z:	0.656	yaw:	-1.848	yaw rate:	-58.363	Roll:	0.923	Pitch:	1.455	Yaw:	-15.661	Thrust:	58.715
Time:	4.820	Roll Set Point:	-0.068	Pitch Set Point:	-0.059	Yaw Set Point:	0.018	X_WP:	0.000	Y_WP:	0.000	Y_WP:	0.500	X:	0.034	Y:	0.029	Z:	0.656	yaw:	-1.053	yaw rate:	79.532	Roll:	2.031	Pitch:	0.374	Yaw:	18.174	Thrust:	58.406
Time:	4.831	Roll Set Point:	-0.068	Pitch Set Point:	-0.059	Yaw Set Point:	0.022	X_WP:	0.000	Y_WP:	0.000	Y_WP:	0.500	X:	0.034	Y:	0.029	Z:	0.656	yaw:	-1.256	yaw rate:	-20.258	Roll:	1.174	Pitch:	1.153	Yaw:	-5.799	Thrust:	59.431
Time:	4.843	Roll Set Point:	-0.068	Pitch Set Point:	-0.059	Yaw Set Point:	0.027	X_WP:	0.000	Y_WP:	0.000	Y_WP:	0.500	X:	0.035	Y:	0.029	Z:	0.656	yaw:	-1.548	yaw rate:	-29.254	Roll:	1.130	Pitch:	1.130	Yaw:	-7.700	Thrust:	58.163
Time:	4.855	Roll Set Point:	-0.068	Pitch Set Point:	-0.059	Yaw Set Point:	0.031	X_WP:	0.000	Y_WP:	0.000	Y_WP:	0.500	X:	0.034	Y:	0.029	Z:	0.655	yaw:	-1.771	yaw rate:	-22.290	Roll:	0.723	Pitch:	1.175	Yaw:	-7.012	Thrust:	66.408
Time:	4.866	Roll Set Point:	-0.069	Pitch Set Point:	-0.059	Yaw Set Point:	0.025	X_WP:	0.000	Y_WP:	0.000	Y_WP:	0.500	X:	0.035	Y:	0.029	Z:	0.655	yaw:	-1.412	yaw rate:	35.884	Roll:	1.778	Pitch:	1.034	Yaw:	6.632	Thrust:	64.944
Time:	4.878	Roll Set Point:	-0.069	Pitch Set Point:	-0.059	Yaw Set Point:	0.027	X_WP:	0.000	Y_WP:	0.000	Y_WP:	0.500	X:	0.035	Y:	0.029	Z:	0.654	yaw:	-1.538	yaw rate:	-16.830	Roll:	1.321	Pitch:	0.945	Yaw:	-4.079	Thrust:	67.313
Time:	4.889	Roll Set Point:	-0.069	Pitch Set Point:	-0.059	Yaw Set Point:	0.027	X_WP:	0.000	Y_WP:	0.000	Y_WP:	0.500	X:	0.035	Y:	0.029	Z:	0.654	yaw:	-1.538	yaw rate:	-16.830	Roll:	1.038	Pitch:	0.930	Yaw:	-1.411	Thrust:	57.717
Time:	4.900	Roll Set Point:	-0.070	Pitch Set Point:	-0.059	Yaw Set Point:	0.021	X_WP:	0.000	Y_WP:	0.000	Y_WP:	0.500	X:	0.035	Y:	0.029	Z:	0.653	yaw:	-1.216	yaw rate:	62.659	Roll:	1.758	Pitch:	0.724	Yaw:	6.697	Thrust:	61.891
Time:	4.911	Roll Set Point:	-0.070	Pitch Set Point:	-0.059	Yaw Set Point:	0.021	X_WP:	0.000	Y_WP:	0.000	Y_WP:	0.500	X:	0.035	Y:	0.029	Z:	0.653	yaw:	-1.216	yaw rate:	62.659	Roll:	1.053	Pitch:	0.928	Yaw:	-0.974	Thrust:	57.204
Time:	4.922	Roll Set Point:	-0.071	Pitch Set Point:	-0.060	Yaw Set Point:	0.019	X_WP:	0.000	Y_WP:	0.000	Y_WP:	0.500	X:	0.036	Y:	0.029	Z:	0.651	yaw:	-1.106	yaw rate:	5.168	Roll:	1.646	Pitch:	1.108	Yaw:	1.783	Thrust:	62.789
Time:	4.933	Roll Set Point:	-0.070	Pitch Set Point:	-0.059	Yaw Set Point:	0.032	X_WP:	0.000	Y_WP:	0.000	Y_WP:	0.500	X:	0.036	Y:	0.029	Z:	0.650	yaw:	-1.843	yaw rate:	-73.749	Roll:	0.308	Pitch:	1.130	Yaw:	-19.365	Thrust:	60.651
Time:	4.944	Roll Set Point:	-0.070	Pitch Set Point:	-0.059	Yaw Set Point:	0.032	X_WP:	0.000	Y_WP:	0.000	Y_WP:	0.500	X:	0.036	Y:	0.029	Z:	0.650	yaw:	-1.843	yaw rate:	-73.749	Roll:	1.052	Pitch:	0.937	Yaw:	-1.866	Thrust:	56.719
Time:	4.955	Roll Set Point:	-0.071	Pitch Set Point:	-0.059	Yaw Set Point:	0.026	X_WP:	0.000	Y_WP:	0.000	Y_WP:	0.500	X:	0.036	Y:	0.029	Z:	0.650	yaw:	-1.497	yaw rate:	34.660	Roll:	1.738	Pitch:	0.901	Yaw:	6.835	Thrust:	59.665
Time:	4.967	Roll Set Point:	-0.071	Pitch Set Point:	-0.060	Yaw Set Point:	0.026	X_WP:	0.000	Y_WP:	0.000	Y_WP:	0.500	X:	0.036	Y:	0.029	Z:	0.649	yaw:	-1.508	yaw rate:	-1.176	Roll:	1.219	Pitch:	1.104	Yaw:	-1.606	Thrust:	59.905
Time:	4.978	Roll Set Point:	-0.071	Pitch Set Point:	-0.059	Yaw Set Point:	0.027	X_WP:	0.000	Y_WP:	0.000	Y_WP:	0.500	X:	0.036	Y:	0.029	Z:	0.647	yaw:	-1.539	yaw rate:	47.526	Roll:	1.092	Pitch:	0.486	Yaw:	-2.179	Thrust:	69.103
Time:	4.990	Roll Set Point:	-0.072	Pitch Set Point:	-0.059	Yaw Set Point:	0.027	X_WP:	0.000	Y_WP:	0.000	Y_WP:	0.500	X:	0.036	Y:	0.029	Z:	0.646	yaw:	-1.573	yaw rate:	-3.429	Roll:	1.378	Pitch:	0.988	Yaw:	-2.324	Thrust:	60.194
Time:	5.000	Roll Set Point:	-0.072	Pitch Set Point:	-0.059	Yaw Set Point:	0.020	X_WP:	0.000	Y_WP:	0.000	Y_WP:	0.500	X:	0.036	Y:	0.029	Z:	0.645	yaw:	-1.139	yaw rate:	43.427	Roll:	1.574	Pitch:	0.714	Yaw:	9.415	Thrust:	59.379
Time:	5.011	Roll Set Point:	-0.072	Pitch Set Point:	-0.059	Yaw Set Point:	0.025	X_WP:	0.000	Y_WP:	0.000	Y_WP:	0.500	X:	0.036	Y:	0.029	Z:	0.644	yaw:	-1.431	yaw rate:	-29.201	Roll:	0.972	Pitch:	1.203	Yaw:	-8.247	Thrust:	58.833
Time:	5.022	Roll Set Point:	-0.072	Pitch Set Point:	-0.059	Yaw Set Point:	0.024	X_WP:	0.000	Y_WP:	0.000	Y_WP:	0.500	X:	0.036	Y:	0.029	Z:	0.643	yaw:	-1.369	yaw rate:	6.149	Roll:	1.000	Pitch:	0.838	Yaw:	0.214	Thrust:	60.332
