Time:	2.039	Roll Set Point:	0.065	Pitch Set Point:	-0.123	Yaw Set Point:	-0.101	X_WP:	0.100	Y_WP:	0.000	Y_WP:	0.500	X:	0.015	Y:	0.057	Z:	0.049	yaw:	5.778	yaw rate:	-0.272	Roll:	-2.298	Pitch:	1.903	Yaw:	8.067	Thrust:	24.810
Time:	2.051	Roll Set Point:	0.065	Pitch Set Point:	-0.123	Yaw Set Point:	-0.101	X_WP:	0.100	Y_WP:	0.000	Y_WP:	0.500	X:	0.015	Y:	0.057	Z:	0.049	yaw:	5.782	yaw rate:	0.425	Roll:	-2.275	Pitch:	1.922	Yaw:	8.193	Thrust:	25.543
Time:	2.066	Roll Set Point:	0.065	Pitch Set Point:	-0.123	Yaw Set Point:	-0.101	X_WP:	0.100	Y_WP:	0.000	Y_WP:	0.500	X:	0.015	Y:	0.057	Z:	0.049	yaw:	5.794	yaw rate:	1.234	Roll:	-2.289	Pitch:	1.936	Yaw:	8.366	Thrust:	26.483
Time:	2.077	Roll Set Point:	0.065	Pitch Set Point:	-0.123	Yaw Set Point:	-0.104	X_WP:	0.100	Y_WP:	0.000	Y_WP:	0.500	X:	0.015	Y:	0.057	Z:	0.049	yaw:	5.969	yaw rate:	17.500	Roll:	-2.088	Pitch:	2.189	Yaw:	12.554	Thrust:	26.335
Time:	2.088	Roll Set Point:	0.064	Pitch Set Point:	-0.123	Yaw Set Point:	-0.102	X_WP:	0.100	Y_WP:	0.000	Y_WP:	0.500	X:	0.015	Y:	0.057	Z:	0.049	yaw:	5.852	yaw rate:	-11.764	Roll:	-2.268	Pitch:	1.763	Yaw:	5.467	Thrust:	27.351
Time:	2.101	Roll Set Point:	0.065	Pitch Set Point:	-0.122	Yaw Set Point:	-0.097	X_WP:	0.100	Y_WP:	0.000	Y_WP:	0.500	X:	0.014	Y:	0.057	Z:	0.049	yaw:	5.558	yaw rate:	-29.399	Roll:	-3.354	Pitch:	1.185	Yaw:	1.752	Thrust:	28.203
Time:	2.111	Roll Set Point:	0.064	Pitch Set Point:	-0.124	Yaw Set Point:	-0.107	X_WP:	0.100	Y_WP:	0.000	Y_WP:	0.500	X:	0.015	Y:	0.057	Z:	0.049	yaw:	6.128	yaw rate:	57.003	Roll:	-0.872	Pitch:	3.427	Yaw:	22.771	Thrust:	27.866
Time:	2.123	Roll Set Point:	0.065	Pitch Set Point:	-0.123	Yaw Set Point:	-0.100	X_WP:	0.100	Y_WP:	0.000	Y_WP:	0.500	X:	0.014	Y:	0.057	Z:	0.049	yaw:	5.756	yaw rate:	-37.172	Roll:	-3.262	Pitch:	1.292	Yaw:	-0.653	Thrust:	28.486
Time:	2.137	Roll Set Point:	0.065	Pitch Set Point:	-0.123	Yaw Set Point:	-0.102	X_WP:	0.100	Y_WP:	0.000	Y_WP:	0.500	X:	0.014	Y:	0.057	Z:	0.049	yaw:	5.839	yaw rate:	8.275	Roll:	-2.128	Pitch:	1.958	Yaw:	9.836	Thrust:	30.589
Time:	2.148	Roll Set Point:	0.065	Pitch Set Point:	-0.122	Yaw Set Point:	-0.097	X_WP:	0.100	Y_WP:	0.000	Y_WP:	0.500	X:	0.014	Y:	0.057	Z:	0.049	yaw:	5.556	yaw rate:	-28.283	Roll:	-2.856	Pitch:	1.148	Yaw:	1.376	Thrust:	31.838
Time:	2.161	Roll Set Point:	0.065	Pitch Set Point:	-0.123	Yaw Set Point:	-0.100	X_WP:	0.100	Y_WP:	0.000	Y_WP:	0.500	X:	0.014	Y:	0.057	Z:	0.049	yaw:	5.743	yaw rate:	18.723	Roll:	-2.044	Pitch:	2.412	Yaw:	12.042	Thrust:	30.620
Time:	2.174	Roll Set Point:	0.066	Pitch Set Point:	-0.121	Yaw Set Point:	-0.091	X_WP:	0.100	Y_WP:	0.000	Y_WP:	0.500	X:	0.014	Y:	0.057	Z:	0.049	yaw:	5.198	yaw rate:	-49.213	Roll:	-3.122	Pitch:	0.421	Yaw:	-3.369	Thrust:	34.099
Time:	2.185	Roll Set Point:	0.065	Pitch Set Point:	-0.123	Yaw Set Point:	-0.100	X_WP:	0.100	Y_WP:	0.000	Y_WP:	0.500	X:	0.015	Y:	0.057	Z:	0.049	yaw:	5.754	yaw rate:	55.605	Roll:	-1.121	Pitch:	3.550	Yaw:	21.499	Thrust:	30.815
Time:	2.200	Roll Set Point:	0.066	Pitch Set Point:	-0.122	Yaw Set Point:	-0.091	X_WP:	0.100	Y_WP:	0.000	Y_WP:	0.500	X:	0.014	Y:	0.057	Z:	0.049	yaw:	5.188	yaw rate:	-56.651	Roll:	-3.396	Pitch:	0.710	Yaw:	-2.220	Thrust:	36.512
Time:	2.211	Roll Set Point:	0.065	Pitch Set Point:	-0.123	Yaw Set Point:	-0.100	X_WP:	0.100	Y_WP:	0.000	Y_WP:	0.500	X:	0.015	Y:	0.057	Z:	0.049	yaw:	5.737	yaw rate:	54.892	Roll:	-1.082	Pitch:	3.456	Yaw:	21.310	Thrust:	31.787
Time:	2.223	Roll Set Point:	0.065	Pitch Set Point:	-0.122	Yaw Set Point:	-0.092	X_WP:	0.100	Y_WP:	0.000	Y_WP:	0.500	X:	0.015	Y:	0.057	Z:	0.049	yaw:	5.273	yaw rate:	-46.341	Roll:	-3.344	Pitch:	0.684	Yaw:	-3.307	Thrust:	35.000
Time:	2.237	Roll Set Point:	0.065	Pitch Set Point:	-0.123	Yaw Set Point:	-0.100	X_WP:	0.100	Y_WP:	0.000	Y_WP:	0.500	X:	0.014	Y:	0.057	Z:	0.049	yaw:	5.704	yaw rate:	43.071	Roll:	-1.889	Pitch:	2.759	Yaw:	16.171	Thrust:	36.173
Time:	2.249	Roll Set Point:	0.065	Pitch Set Point:	-0.123	Yaw Set Point:	-0.102	X_WP:	0.100	Y_WP:	0.000	Y_WP:	0.500	X:	0.015	Y:	0.057	Z:	0.049	yaw:	5.869	yaw rate:	16.484	Roll:	-1.755	Pitch:	2.362	Yaw:	12.467	Thrust:	35.935
Time:	2.265	Roll Set Point:	0.065	Pitch Set Point:	-0.123	Yaw Set Point:	-0.102	X_WP:	0.100	Y_WP:	0.000	Y_WP:	0.500	X:	0.014	Y:	0.057	Z:	0.049	yaw:	5.817	yaw rate:	-5.211	Roll:	-2.685	Pitch:	1.677	Yaw:	7.931	Thrust:	40.992
Time:	2.277	Roll Set Point:	0.065	Pitch Set Point:	-0.122	Yaw Set Point:	-0.095	X_WP:	0.100	Y_WP:	0.000	Y_WP:	0.500	X:	0.014	Y:	0.057	Z:	0.049	yaw:	5.441	yaw rate:	-14.430	Roll:	-2.742	Pitch:	1.315	Yaw:	-0.490	Thrust:	37.292
Time:	2.289	Roll Set Point:	0.065	Pitch Set Point:	-0.123	Yaw Set Point:	-0.100	X_WP:	0.100	Y_WP:	0.000	Y_WP:	0.500	X:	0.014	Y:	0.057	Z:	0.049	yaw:	5.745	yaw rate:	30.381	Roll:	-1.847	Pitch:	2.457	Yaw:	15.104	Thrust:	37.003
Time:	2.302	Roll Set Point:	0.064	Pitch Set Point:	-0.123	Yaw Set Point:	-0.105	X_WP:	0.100	Y_WP:	0.000	Y_WP:	0.500	X:	0.015	Y:	0.057	Z:	0.049	yaw:	6.015	yaw rate:	26.948	Roll:	-1.788	Pitch:	2.649	Yaw:	14.354	Thrust:	40.044
Time:	2.312	Roll Set Point:	0.065	Pitch Set Point:	-0.123	Yaw Set Point:	-0.102	X_WP:	0.100	Y_WP:	0.000	Y_WP:	0.500	X:	0.015	Y:	0.057	Z:	0.049	yaw:	5.857	yaw rate:	-15.798	Roll:	-2.685	Pitch:	1.576	Yaw:	4.729	Thrust:	36.691
Time:	2.331	Roll Set Point:	0.065	Pitch Set Point:	-0.122	Yaw Set Point:	-0.101	X_WP:	0.100	Y_WP:	0.000	Y_WP:	0.500	X:	0.015	Y:	0.057	Z:	0.049	yaw:	5.785	yaw rate:	-7.165	Roll:	-2.377	Pitch:	1.368	Yaw:	7.920	Thrust:	43.903
Time:	2.343	Roll Set Point:	0.063	Pitch Set Point:	-0.124	Yaw Set Point:	-0.116	X_WP:	0.100	Y_WP:	0.000	Y_WP:	0.500	X:	0.015	Y:	0.057	Z:	0.049	yaw:	6.629	yaw rate:	6.658	Roll:	-1.400	Pitch:	3.352	Yaw:	28.092	Thrust:	45.329
Time:	2.355	Roll Set Point:	0.063	Pitch Set Point:	-0.124	Yaw Set Point:	-0.116	X_WP:	0.100	Y_WP:	0.000	Y_WP:	0.500	X:	0.015	Y:	0.057	Z:	0.049	yaw:	6.647	yaw rate:	1.875	Roll:	-2.157	Pitch:	1.916	Yaw:	10.286	Thrust:	40.534
Time:	2.367	Roll Set Point:	0.063	Pitch Set Point:	-0.124	Yaw Set Point:	-0.118	X_WP:	0.100	Y_WP:	0.000	Y_WP:	0.500	X:	0.015	Y:	0.057	Z:	0.049	yaw:	6.744	yaw rate:	9.696	Roll:	-1.818	Pitch:	2.449	Yaw:	12.158	Thrust:	40.465
Time:	2.377	Roll Set Point:	0.063	Pitch Set Point:	-0.124	Yaw Set Point:	-0.117	X_WP:	0.100	Y_WP:	0.000	Y_WP:	0.500	X:	0.015	Y:	0.057	Z:	0.049	yaw:	6.679	yaw rate:	-6.554	Roll:	-2.831	Pitch:	1.643	Yaw:	8.284	Thrust:	41.328
Time:	2.388	Roll Set Point:	0.063	Pitch Set Point:	-0.124	Yaw Set Point:	-0.114	X_WP:	0.100	Y_WP:	0.000	Y_WP:	0.500	X:	0.015	Y:	0.057	Z:	0.049	yaw:	6.528	yaw rate:	-15.077	Roll:	-2.257	Pitch:	1.640	Yaw:	6.168	Thrust:	40.560
Time:	2.402	Roll Set Point:	0.062	Pitch Set Point:	-0.124	Yaw Set Point:	-0.120	X_WP:	0.100	Y_WP:	0.000	Y_WP:	0.500	X:	0.015	Y:	0.057	Z:	0.049	yaw:	6.881	yaw rate:	35.334	Roll:	-1.641	Pitch:	2.558	Yaw:	17.477	Thrust:	45.376
Time:	2.413	Roll Set Point:	0.063	Pitch Set Point:	-0.123	Yaw Set Point:	-0.110	X_WP:	0.100	Y_WP:	0.000	Y_WP:	0.500	X:	0.015	Y:	0.057	Z:	0.049	yaw:	6.323	yaw rate:	-55.850	Roll:	-3.365	Pitch:	0.603	Yaw:	-2.541	Thrust:	45.386
Time:	2.432	Roll Set Point:	0.063	Pitch Set Point:	-0.124	Yaw Set Point:	-0.120	X_WP:	0.100	Y_WP:	0.000	Y_WP:	0.500	X:	0.015	Y:	0.057	Z:	0.049	yaw:	6.880	yaw rate:	55.736	Roll:	-1.856	Pitch:	2.700	Yaw:	18.650	Thrust:	54.535
Time:	2.443	Roll Set Point:	0.063	Pitch Set Point:	-0.124	Yaw Set Point:	-0.117	X_WP:	0.100	Y_WP:	0.000	Y_WP:	0.500	X:	0.015	Y:	0.057	Z:	0.049	yaw:	6.707	yaw rate:	19.212	Roll:	-2.530	Pitch:	1.694	Yaw:	6.202	Thrust:	46.252
Time:	2.458	Roll Set Point:	0.063	Pitch Set Point:	-0.123	Yaw Set Point:	-0.114	X_WP:	0.100	Y_WP:	0.000	Y_WP:	0.500	X:	0.015	Y:	0.057	Z:	0.049	yaw:	6.556	yaw rate:	-15.155	Roll:	-2.261	Pitch:	1.457	Yaw:	7.295	Thrust:	47.501
Time:	2.476	Roll Set Point:	0.063	Pitch Set Point:	-0.123	Yaw Set Point:	-0.115	X_WP:	0.100	Y_WP:	0.000	Y_WP:	0.500	X:	0.015	Y:	0.057	Z:	0.049	yaw:	6.599	yaw rate:	4.395	Roll:	-2.595	Pitch:	2.140	Yaw:	11.136	Thrust:	58.048
Time:	2.486	Roll Set Point:	0.063	Pitch Set Point:	-0.123	Yaw Set Point:	-0.116	X_WP:	0.100	Y_WP:	0.000	Y_WP:	0.500	X:	0.015	Y:	0.057	Z:	0.049	yaw:	6.660	yaw rate:	10.792	Roll:	-2.086	Pitch:	2.066	Yaw:	11.619	Thrust:	46.017
Time:	2.500	Roll Set Point:	0.063	Pitch Set Point:	-0.123	Yaw Set Point:	-0.116	X_WP:	0.100	Y_WP:	0.000	Y_WP:	0.500	X:	0.015	Y:	0.057	Z:	0.049	yaw:	6.658	yaw rate:	-0.185	Roll:	-2.231	Pitch:	2.126	Yaw:	10.326	Thrust:	52.103
Time:	2.510	Roll Set Point:	0.063	Pitch Set Point:	-0.123	Yaw Set Point:	-0.113	X_WP:	0.100	Y_WP:	0.000	Y_WP:	0.500	X:	0.015	Y:	0.057	Z:	0.049	yaw:	6.484	yaw rate:	-17.478	Roll:	-2.845	Pitch:	1.486	Yaw:	5.530	Thrust:	45.224
Time:	2.521	Roll Set Point:	0.063	Pitch Set Point:	-0.123	Yaw Set Point:	-0.111	X_WP:	0.100	Y_WP:	0.000	Y_WP:	0.500	X:	0.015	Y:	0.057	Z:	0.049	yaw:	6.338	yaw rate:	-14.568	Roll:	-2.215	Pitch:	1.572	Yaw:	6.278	Thrust:	47.379
Time:	2.534	Roll Set Point:	0.063	Pitch Set Point:	-0.122	Yaw Set Point:	-0.108	X_WP:	0.100	Y_WP:	0.000	Y_WP:	0.500	X:	0.015	Y:	0.057	Z:	0.049	yaw:	6.202	yaw rate:	-13.567	Roll:	-2.439	Pitch:	1.592	Yaw:	7.016	Thrust:	52.733
Time:	2.545	Roll Set Point:	0.062	Pitch Set Point:	-0.123	Yaw Set Point:	-0.111	X_WP:	0.100	Y_WP:	0.000	Y_WP:	0.500	X:	0.016	Y:	0.057	Z:	0.049	yaw:	6.350	yaw rate:	14.740	Roll:	-1.763	Pitch:	2.231	Yaw:	13.350	Thrust:	47.386
Time:	2.564	Roll Set Point:	0.062	Pitch Set Point:	-0.123	Yaw Set Point:	-0.112	X_WP:	0.100	Y_WP:	0.000	Y_WP:	0.500	X:	0.016	Y:	0.057	Z:	0.049	yaw:	6.404	yaw rate:	5.476	Roll:	-2.112	Pitch:	2.081	Yaw:	11.306	Thrust:	61.473
Time:	2.576	Roll Set Point:	0.061	Pitch Set Point:	-0.122	Yaw Set Point:	-0.106	X_WP:	0.100	Y_WP:	0.000	Y_WP:	0.500	X:	0.016	Y:	0.057	Z:	0.049	yaw:	6.095	yaw rate:	22.166	Roll:	-2.385	Pitch:	1.327	Yaw:	3.166	Thrust:	56.348
Time:	2.587	Roll Set Point:	0.061	Pitch Set Point:	-0.122	Yaw Set Point:	-0.104	X_WP:	0.100	Y_WP:	0.000	Y_WP:	0.500	X:	0.016	Y:	0.057	Z:	0.050	yaw:	5.974	yaw rate:	-12.172	Roll:	-2.277	Pitch:	1.489	Yaw:	6.459	Thrust:	50.064
Time:	2.600	Roll Set Point:	0.061	Pitch Set Point:	-0.121	Yaw Set Point:	-0.101	X_WP:	0.100	Y_WP:	0.000	Y_WP:	0.500	X:	0.016	Y:	0.056	Z:	0.050	yaw:	5.779	yaw rate:	-19.483	Roll:	-2.473	Pitch:	1.388	Yaw:	5.567	Thrust:	56.434
Time:	2.611	Roll Set Point:	0.060	Pitch Set Point:	-0.120	Yaw Set Point:	-0.101	X_WP:	0.100	Y_WP:	0.000	Y_WP:	0.500	X:	0.017	Y:	0.056	Z:	0.050	yaw:	5.797	yaw rate:	1.851	Roll:	-1.531	Pitch:	1.573	Yaw:	9.567	Thrust:	50.637
Time:	2.626	Roll Set Point:	0.060	Pitch Set Point:	-0.119	Yaw Set Point:	-0.089	X_WP:	0.100	Y_WP:	0.000	Y_WP:	0.500	X:	0.017	Y:	0.056	Z:	0.050	yaw:	5.118	yaw rate:	-67.951	Roll:	-3.141	Pitch:	0.006	Yaw:	-5.206	Thrust:	54.271
Time:	2.640	Roll Set Point:	0.058	Pitch Set Point:	-0.118	Yaw Set Point:	-0.089	X_WP:	0.100	Y_WP:	0.000	Y_WP:	0.500	X:	0.019	Y:	0.055	Z:	0.051	yaw:	5.109	yaw rate:	-12.025	Roll:	-1.104	Pitch:	1.402	Yaw:	8.581	Thrust:	66.042
Time:	2.651	Roll Set Point:	0.058	Pitch Set Point:	-0.117	Yaw Set Point:	-0.082	X_WP:	0.100	Y_WP:	0.000	Y_WP:	0.500	X:	0.019	Y:	0.055	Z:	0.051	yaw:	4.671	yaw rate:	-43.825	Roll:	-2.618	Pitch:	0.542	Yaw:	-2.769	Thrust:	53.752
Time:	2.665	Roll Set Point:	0.056	Pitch Set Point:	-0.117	Yaw Set Point:	-0.086	X_WP:	0.100	Y_WP:	0.000	Y_WP:	0.500	X:	0.019	Y:	0.055	Z:	0.051	yaw:	4.923	yaw rate:	25.221	Roll:	-1.319	Pitch:	2.031	Yaw:	12.981	Thrust:	60.057
Time:	2.676	Roll Set Point:	0.055	Pitch Set Point:	-0.116	Yaw Set Point:	-0.084	X_WP:	0.100	Y_WP:	0.000	Y_WP:	0.500	X:	0.020	Y:	0.055	Z:	0.051	yaw:	4.809	yaw rate:	-11.401	Roll:	-1.311	Pitch:	1.094	Yaw:	5.122	Thrust:	53.919
Time:	2.687	Roll Set Point:	0.054	Pitch Set Point:	-0.115	Yaw Set Point:	-0.079	X_WP:	0.100	Y_WP:	0.000	Y_WP:	0.500	X:	0.021	Y:	0.055	Z:	0.051	yaw:	4.503	yaw rate:	-30.549	Roll:	-1.747	Pitch:	0.797	Yaw:	0.142	Thrust:	54.511
Time:	2.701	Roll Set Point:	0.052	Pitch Set Point:	-0.115	Yaw Set Point:	-0.079	X_WP:	0.100	Y_WP:	0.000	Y_WP:	0.500	X:	0.022	Y:	0.054	Z:	0.052	yaw:	4.521	yaw rate:	1.719	Roll:	-1.338	Pitch:	1.522	Yaw:	7.998	Thrust:	61.636
Time:	2.712	Roll Set Point:	0.051	Pitch Set Point:	-0.114	Yaw Set Point:	-0.075	X_WP:	0.100	Y_WP:	0.000	Y_WP:	0.500	X:	0.022	Y:	0.054	Z:	0.052	yaw:	4.317	yaw rate:	-20.328	Roll:	-1.538	Pitch:	0.860	Yaw:	2.329	Thrust:	53.925
Time:	2.733	Roll Set Point:	0.047	Pitch Set Point:	-0.113	Yaw Set Point:	-0.077	X_WP:	0.100	Y_WP:	0.000	Y_WP:	0.500	X:	0.024	Y:	0.054	Z:	0.053	yaw:	4.422	yaw rate:	10.467	Roll:	-0.435	Pitch:	1.647	Yaw:	9.582	Thrust:	83.964
Time:	2.745	Roll Set Point:	0.043	Pitch Set Point:	-0.112	Yaw Set Point:	-0.073	X_WP:	0.100	Y_WP:	0.000	Y_WP:	0.500	X:	0.026	Y:	0.053	Z:	0.055	yaw:	4.156	yaw rate:	-48.102	Roll:	0.110	Pitch:	0.493	Yaw:	1.505	Thrust:	52.393
Time:	2.759	Roll Set Point:	0.040	Pitch Set Point:	-0.112	Yaw Set Point:	-0.078	X_WP:	0.100	Y_WP:	0.000	Y_WP:	0.500	X:	0.028	Y:	0.053	Z:	0.056	yaw:	4.453	yaw rate:	29.723	Roll:	-0.077	Pitch:	1.961	Yaw:	13.485	Thrust:	58.575
Time:	2.774	Roll Set Point:	0.038	Pitch Set Point:	-0.111	Yaw Set Point:	-0.076	X_WP:	0.100	Y_WP:	0.000	Y_WP:	0.500	X:	0.029	Y:	0.053	Z:	0.057	yaw:	4.358	yaw rate:	-9.522	Roll:	-1.176	Pitch:	1.479	Yaw:	6.040	Thrust:	73.775
Time:	2.785	Roll Set Point:	0.035	Pitch Set Point:	-0.110	Yaw Set Point:	-0.077	X_WP:	0.100	Y_WP:	0.000	Y_WP:	0.500	X:	0.030	Y:	0.053	Z:	0.058	yaw:	4.402	yaw rate:	4.394	Roll:	0.216	Pitch:	1.207	Yaw:	8.292	Thrust:	54.518
Time:	2.799	Roll Set Point:	0.033	Pitch Set Point:	-0.110	Yaw Set Point:	-0.074	X_WP:	0.100	Y_WP:	0.000	Y_WP:	0.500	X:	0.032	Y:	0.052	Z:	0.060	yaw:	4.266	yaw rate:	-13.595	Roll:	-0.286	Pitch:	1.269	Yaw:	4.538	Thrust:	59.759
Time:	2.810	Roll Set Point:	0.027	Pitch Set Point:	-0.109	Yaw Set Point:	-0.078	X_WP:	0.100	Y_WP:	0.000	Y_WP:	0.500	X:	0.034	Y:	0.052	Z:	0.063	yaw:	4.454	yaw rate:	31.156	Roll:	2.118	Pitch:	1.252	Yaw:	11.626	Thrust:	50.705
Time:	2.822	Roll Set Point:	0.021	Pitch Set Point:	-0.108	Yaw Set Point:	-0.075	X_WP:	0.100	Y_WP:	0.000	Y_WP:	0.500	X:	0.038	Y:	0.052	Z:	0.067	yaw:	4.285	yaw rate:	-16.858	Roll:	2.727	Pitch:	0.598	Yaw:	3.086	Thrust:	43.716
Time:	2.833	Roll Set Point:	0.017	Pitch Set Point:	-0.107	Yaw Set Point:	-0.073	X_WP:	0.100	Y_WP:	0.000	Y_WP:	0.500	X:	0.039	Y:	0.051	Z:	0.069	yaw:	4.194	yaw rate:	-9.070	Roll:	0.683	Pitch:	0.986	Yaw:	5.090	Thrust:	55.483
Time:	2.844	Roll Set Point:	0.014	Pitch Set Point:	-0.107	Yaw Set Point:	-0.073	X_WP:	0.100	Y_WP:	0.000	Y_WP:	0.500	X:	0.041	Y:	0.051	Z:	0.072	yaw:	4.180	yaw rate:	-1.463	Roll:	0.966	Pitch:	1.090	Yaw:	6.525	Thrust:	48.342
Time:	2.855	Roll Set Point:	0.010	Pitch Set Point:	-0.106	Yaw Set Point:	-0.072	X_WP:	0.100	Y_WP:	0.000	Y_WP:	0.500	X:	0.043	Y:	0.051	Z:	0.075	yaw:	4.103	yaw rate:	-7.676	Roll:	0.861	Pitch:	1.280	Yaw:	5.262	Thrust:	54.374
Time:	2.867	Roll Set Point:	0.006	Pitch Set Point:	-0.106	Yaw Set Point:	-0.075	X_WP:	0.100	Y_WP:	0.000	Y_WP:	0.500	X:	0.045	Y:	0.051	Z:	0.077	yaw:	4.282	yaw rate:	17.926	Roll:	1.317	Pitch:	1.497	Yaw:	11.083	Thrust:	55.062
Time:	2.878	Roll Set Point:	0.002	Pitch Set Point:	-0.106	Yaw Set Point:	-0.078	X_WP:	0.100	Y_WP:	0.000	Y_WP:	0.500	X:	0.047	Y:	0.051	Z:	0.080	yaw:	4.483	yaw rate:	20.049	Roll:	1.876	Pitch:	1.639	Yaw:	12.296	Thrust:	47.349
Time:	2.891	Roll Set Point:	-0.002	Pitch Set Point:	-0.106	Yaw Set Point:	-0.082	X_WP:	0.100	Y_WP:	0.000	Y_WP:	0.500	X:	0.049	Y:	0.051	Z:	0.083	yaw:	4.717	yaw rate:	23.447	Roll:	1.709	Pitch:	1.619	Yaw:	12.599	Thrust:	60.271
Time:	2.909	Roll Set Point:	-0.010	Pitch Set Point:	-0.104	Yaw Set Point:	-0.075	X_WP:	0.100	Y_WP:	0.000	Y_WP:	0.500	X:	0.053	Y:	0.050	Z:	0.089	yaw:	4.316	yaw rate:	-22.129	Roll:	1.904	Pitch:	0.649	Yaw:	1.958	Thrust:	68.355
Time:	2.920	Roll Set Point:	-0.019	Pitch Set Point:	-0.103	Yaw Set Point:	-0.078	X_WP:	0.100	Y_WP:	0.000	Y_WP:	0.500	X:	0.057	Y:	0.050	Z:	0.095	yaw:	4.463	yaw rate:	14.727	Roll:	4.927	Pitch:	0.970	Yaw:	10.833	Thrust:	45.187
Time:	2.931	Roll Set Point:	-0.023	Pitch Set Point:	-0.103	Yaw Set Point:	-0.081	X_WP:	0.100	Y_WP:	0.000	Y_WP:	0.500	X:	0.059	Y:	0.050	Z:	0.098	yaw:	4.613	yaw rate:	15.006	Roll:	2.333	Pitch:	1.281	Yaw:	10.992	Thrust:	54.990
Time:	2.942	Roll Set Point:	-0.027	Pitch Set Point:	-0.102	Yaw Set Point:	-0.075	X_WP:	0.100	Y_WP:	0.000	Y_WP:	0.500	X:	0.062	Y:	0.050	Z:	0.100	yaw:	4.277	yaw rate:	-33.631	Roll:	1.672	Pitch:	0.649	Yaw:	-1.220	Thrust:	50.515
Time:	2.954	Roll Set Point:	-0.032	Pitch Set Point:	-0.101	Yaw Set Point:	-0.075	X_WP:	0.100	Y_WP:	0.000	Y_WP:	0.500	X:	0.064	Y:	0.049	Z:	0.103	yaw:	4.310	yaw rate:	3.339	Roll:	2.527	Pitch:	0.939	Yaw:	7.929	Thrust:	52.818
Time:	2.966	Roll Set Point:	-0.037	Pitch Set Point:	-0.101	Yaw Set Point:	-0.081	X_WP:	0.100	Y_WP:	0.000	Y_WP:	0.500	X:	0.066	Y:	0.049	Z:	0.106	yaw:	4.632	yaw rate:	32.236	Roll:	2.660	Pitch:	1.514	Yaw:	14.941	Thrust:	56.951
Time:	2.977	Roll Set Point:	-0.041	Pitch Set Point:	-0.100	Yaw Set Point:	-0.082	X_WP:	0.100	Y_WP:	0.000	Y_WP:	0.500	X:	0.069	Y:	0.049	Z:	0.109	yaw:	4.690	yaw rate:	5.796	Roll:	2.534	Pitch:	1.107	Yaw:	9.018	Thrust:	56.269
Time:	2.988	Roll Set Point:	-0.046	Pitch Set Point:	-0.099	Yaw Set Point:	-0.074	X_WP:	0.100	Y_WP:	0.000	Y_WP:	0.500	X:	0.071	Y:	0.049	Z:	0.112	yaw:	4.247	yaw rate:	-44.280	Roll:	2.383	Pitch:	0.290	Yaw:	-3.475	Thrust:	48.308
Time:	3.001	Roll Set Point:	-0.051	Pitch Set Point:	-0.099	Yaw Set Point:	-0.077	X_WP:	0.100	Y_WP:	0.000	Y_WP:	0.500	X:	0.073	Y:	0.049	Z:	0.115	yaw:	4.427	yaw rate:	17.931	Roll:	2.482	Pitch:	1.313	Yaw:	11.172	Thrust:	66.073
Time:	3.011	Roll Set Point:	-0.055	Pitch Set Point:	-0.098	Yaw Set Point:	-0.075	X_WP:	0.100	Y_WP:	0.000	Y_WP:	0.500	X:	0.076	Y:	0.048	Z:	0.118	yaw:	4.314	yaw rate:	-11.291	Roll:	2.544	Pitch:	0.592	Yaw:	4.451	Thrust:	54.942
Time:	3.029	Roll Set Point:	-0.060	Pitch Set Point:	-0.097	Yaw Set Point:	-0.077	X_WP:	0.100	Y_WP:	0.000	Y_WP:	0.500	X:	0.078	Y:	0.048	Z:	0.120	yaw:	4.430	yaw rate:	11.624	Roll:	2.288	Pitch:	1.308	Yaw:	9.675	Thrust:	77.165
Time:	3.039	Roll Set Point:	-0.069	Pitch Set Point:	-0.095	Yaw Set Point:	-0.068	X_WP:	0.100	Y_WP:	0.000	Y_WP:	0.500	X:	0.083	Y:	0.047	Z:	0.126	yaw:	3.920	yaw rate:	-51.025	Roll:	4.883	Pitch:	-0.153	Yaw:	-5.547	Thrust:	53.161
Time:	3.051	Roll Set Point:	-0.080	Pitch Set Point:	-0.094	Yaw Set Point:	-0.072	X_WP:	0.100	Y_WP:	0.000	Y_WP:	0.500	X:	0.088	Y:	0.047	Z:	0.131	yaw:	4.137	yaw rate:	-2.349	Roll:	7.559	Pitch:	0.370	Yaw:	11.924	Thrust:	43.144
Time:	3.065	Roll Set Point:	-0.085	Pitch Set Point:	-0.093	Yaw Set Point:	-0.069	X_WP:	0.100	Y_WP:	0.000	Y_WP:	0.500	X:	0.091	Y:	0.046	Z:	0.134	yaw:	3.980	yaw rate:	-15.729	Roll:	2.626	Pitch:	0.848	Yaw:	4.027	Thrust:	73.823
Time:	3.076	Roll Set Point:	-0.090	Pitch Set Point:	-0.092	Yaw Set Point:	-0.071	X_WP:	0.100	Y_WP:	0.000	Y_WP:	0.500	X:	0.093	Y:	0.046	Z:	0.137	yaw:	4.090	yaw rate:	11.017	Roll:	3.303	Pitch:	0.756	Yaw:	9.361	Thrust:	58.901
Time:	3.088	Roll Set Point:	-0.095	Pitch Set Point:	-0.092	Yaw Set Point:	-0.078	X_WP:	0.100	Y_WP:	0.000	Y_WP:	0.500	X:	0.096	Y:	0.046	Z:	0.140	yaw:	4.457	yaw rate:	36.738	Roll:	4.035	Pitch:	0.737	Yaw:	15.420	Thrust:	61.711
Time:	3.100	Roll Set Point:	-0.100	Pitch Set Point:	-0.091	Yaw Set Point:	-0.071	X_WP:	0.100	Y_WP:	0.000	Y_WP:	0.500	X:	0.098	Y:	0.045	Z:	0.143	yaw:	4.074	yaw rate:	-38.314	Roll:	3.007	Pitch:	0.699	Yaw:	-1.439	Thrust:	60.979
Time:	3.112	Roll Set Point:	-0.105	Pitch Set Point:	-0.090	Yaw Set Point:	-0.067	X_WP:	0.100	Y_WP:	0.000	Y_WP:	0.500	X:	0.101	Y:	0.045	Z:	0.145	yaw:	3.847	yaw rate:	-22.663	Roll:	3.416	Pitch:	0.634	Yaw:	1.155	Thrust:	57.917
Time:	3.128	Roll Set Point:	-0.110	Pitch Set Point:	-0.089	Yaw Set Point:	-0.068	X_WP:	0.100	Y_WP:	0.000	Y_WP:	0.500	X:	0.103	Y:	0.045	Z:	0.148	yaw:	3.880	yaw rate:	3.222	Roll:	2.911	Pitch:	0.890	Yaw:	7.553	Thrust:	83.776
Time:	3.142	Roll Set Point:	-0.125	Pitch Set Point:	-0.086	Yaw Set Point:	-0.065	X_WP:	0.100	Y_WP:	0.000	Y_WP:	0.500	X:	0.111	Y:	0.043	Z:	0.157	yaw:	3.728	yaw rate:	-0.264	Roll:	8.826	Pitch:	-0.819	Yaw:	3.845	Thrust:	47.360
Time:	3.152	Roll Set Point:	-0.130	Pitch Set Point:	-0.084	Yaw Set Point:	-0.066	X_WP:	0.100	Y_WP:	0.000	Y_WP:	0.500	X:	0.114	Y:	0.043	Z:	0.160	yaw:	3.773	yaw rate:	4.440	Roll:	4.039	Pitch:	0.210	Yaw:	7.425	Thrust:	59.337
Time:	3.164	Roll Set Point:	-0.135	Pitch Set Point:	-0.083	Yaw Set Point:	-0.067	X_WP:	0.100	Y_WP:	0.000	Y_WP:	0.500	X:	0.116	Y:	0.042	Z:	0.164	yaw:	3.823	yaw rate:	5.052	Roll:	3.975	Pitch:	0.569	Yaw:	7.638	Thrust:	58.904
Time:	3.175	Roll Set Point:	-0.140	Pitch Set Point:	-0.082	Yaw Set Point:	-0.060	X_WP:	0.100	Y_WP:	0.000	Y_WP:	0.500	X:	0.119	Y:	0.042	Z:	0.167	yaw:	3.448	yaw rate:	-37.532	Roll:	3.789	Pitch:	0.569	Yaw:	-2.552	Thrust:	60.177
Time:	3.186	Roll Set Point:	-0.145	Pitch Set Point:	-0.081	Yaw Set Point:	-0.063	X_WP:	0.100	Y_WP:	0.000	Y_WP:	0.500	X:	0.121	Y:	0.041	Z:	0.170	yaw:	3.599	yaw rate:	15.169	Roll:	4.721	Pitch:	-0.044	Yaw:	9.989	Thrust:	50.598
Time:	3.200	Roll Set Point:	-0.149	Pitch Set Point:	-0.080	Yaw Set Point:	-0.050	X_WP:	0.100	Y_WP:	0.000	Y_WP:	0.500	X:	0.124	Y:	0.040	Z:	0.173	yaw:	2.850	yaw rate:	-74.968	Roll:	2.995	Pitch:	0.613	Yaw:	-8.594	Thrust:	70.510
Time:	3.210	Roll Set Point:	-0.154	Pitch Set Point:	-0.079	Yaw Set Point:	-0.054	X_WP:	0.100	Y_WP:	0.000	Y_WP:	0.500	X:	0.126	Y:	0.040	Z:	0.177	yaw:	3.088	yaw rate:	23.795	Roll:	4.718	Pitch:	0.333	Yaw:	11.280	Thrust:	56.498
Time:	3.222	Roll Set Point:	-0.159	Pitch Set Point:	-0.077	Yaw Set Point:	-0.057	X_WP:	0.100	Y_WP:	0.000	Y_WP:	0.500	X:	0.129	Y:	0.039	Z:	0.180	yaw:	3.273	yaw rate:	18.565	Roll:	4.846	Pitch:	-0.059	Yaw:	10.079	Thrust:	55.178
Time:	3.236	Roll Set Point:	-0.164	Pitch Set Point:	-0.076	Yaw Set Point:	-0.052	X_WP:	0.100	Y_WP:	0.000	Y_WP:	0.500	X:	0.131	Y:	0.039	Z:	0.184	yaw:	2.984	yaw rate:	-28.917	Roll:	3.254	Pitch:	0.732	Yaw:	0.647	Thrust:	79.886
Time:	3.247	Roll Set Point:	-0.173	Pitch Set Point:	-0.074	Yaw Set Point:	-0.048	X_WP:	0.100	Y_WP:	0.000	Y_WP:	0.500	X:	0.136	Y:	0.038	Z:	0.191	yaw:	2.758	yaw rate:	-22.667	Roll:	7.625	Pitch:	-0.840	Yaw:	-0.426	Thrust:	40.097
Time:	3.265	Roll Set Point:	-0.178	Pitch Set Point:	-0.072	Yaw Set Point:	-0.049	X_WP:	0.100	Y_WP:	0.000	Y_WP:	0.500	X:	0.138	Y:	0.037	Z:	0.195	yaw:	2.833	yaw rate:	7.514	Roll:	3.561	Pitch:	0.405	Yaw:	6.815	Thrust:	85.110
Time:	3.276	Roll Set Point:	-0.187	Pitch Set Point:	-0.069	Yaw Set Point:	-0.049	X_WP:	0.100	Y_WP:	0.000	Y_WP:	0.500	X:	0.143	Y:	0.036	Z:	0.203	yaw:	2.801	yaw rate:	-8.245	Roll:	6.840	Pitch:	-0.753	Yaw:	4.458	Thrust:	54.398
Time:	3.286	Roll Set Point:	-0.192	Pitch Set Point:	-0.068	Yaw Set Point:	-0.049	X_WP:	0.100	Y_WP:	0.000	Y_WP:	0.500	X:	0.145	Y:	0.035	Z:	0.207	yaw:	2.834	yaw rate:	3.221	Roll:	5.011	Pitch:	-0.217	Yaw:	5.800	Thrust:	47.926
Time:	3.300	Roll Set Point:	-0.196	Pitch Set Point:	-0.067	Yaw Set Point:	-0.050	X_WP:	0.100	Y_WP:	0.000	Y_WP:	0.500	X:	0.147	Y:	0.034	Z:	0.211	yaw:	2.883	yaw rate:	4.976	Roll:	4.257	Pitch:	0.061	Yaw:	6.342	Thrust:	70.104
Time:	3.311	Roll Set Point:	-0.201	Pitch Set Point:	-0.065	Yaw Set Point:	-0.046	X_WP:	0.100	Y_WP:	0.000	Y_WP:	0.500	X:	0.150	Y:	0.034	Z:	0.215	yaw:	2.629	yaw rate:	-25.467	Roll:	4.397	Pitch:	0.276	Yaw:	-1.449	Thrust:	52.950
Time:	3.322	Roll Set Point:	-0.205	Pitch Set Point:	-0.064	Yaw Set Point:	-0.049	X_WP:	0.100	Y_WP:	0.000	Y_WP:	0.500	X:	0.152	Y:	0.033	Z:	0.219	yaw:	2.788	yaw rate:	15.878	Roll:	4.895	Pitch:	-0.441	Yaw:	8.763	Thrust:	54.810
Time:	3.336	Roll Set Point:	-0.209	Pitch Set Point:	-0.062	Yaw Set Point:	-0.049	X_WP:	0.100	Y_WP:	0.000	Y_WP:	0.500	X:	0.154	Y:	0.032	Z:	0.224	yaw:	2.783	yaw rate:	-0.474	Roll:	3.997	Pitch:	0.013	Yaw:	5.203	Thrust:	72.994
Time:	3.346	Roll Set Point:	-0.217	Pitch Set Point:	-0.059	Yaw Set Point:	-0.039	X_WP:	0.100	Y_WP:	0.000	Y_WP:	0.500	X:	0.158	Y:	0.031	Z:	0.232	yaw:	2.211	yaw rate:	-57.136	Roll:	7.177	Pitch:	-0.869	Yaw:	-10.065	Thrust:	33.475
Time:	3.362	Roll Set Point:	-0.221	Pitch Set Point:	-0.058	Yaw Set Point:	-0.040	X_WP:	0.100	Y_WP:	0.000	Y_WP:	0.500	X:	0.160	Y:	0.030	Z:	0.236	yaw:	2.302	yaw rate:	9.080	Roll:	4.352	Pitch:	-0.016	Yaw:	6.299	Thrust:	79.928
Time:	3.374	Roll Set Point:	-0.228	Pitch Set Point:	-0.055	Yaw Set Point:	-0.039	X_WP:	0.100	Y_WP:	0.000	Y_WP:	0.500	X:	0.164	Y:	0.029	Z:	0.245	yaw:	2.216	yaw rate:	-22.360	Roll:	5.992	Pitch:	-1.003	Yaw:	2.544	Thrust:	48.943
Time:	3.385	Roll Set Point:	-0.232	Pitch Set Point:	-0.053	Yaw Set Point:	-0.040	X_WP:	0.100	Y_WP:	0.000	Y_WP:	0.500	X:	0.165	Y:	0.028	Z:	0.249	yaw:	2.275	yaw rate:	5.897	Roll:	4.527	Pitch:	-0.571	Yaw:	5.679	Thrust:	55.065
Time:	3.400	Roll Set Point:	-0.235	Pitch Set Point:	-0.052	Yaw Set Point:	-0.035	X_WP:	0.100	Y_WP:	0.000	Y_WP:	0.500	X:	0.167	Y:	0.027	Z:	0.253	yaw:	1.989	yaw rate:	-28.589	Roll:	3.878	Pitch:	0.428	Yaw:	-0.915	Thrust:	77.021
Time:	3.411	Roll Set Point:	-0.239	Pitch Set Point:	-0.051	Yaw Set Point:	-0.031	X_WP:	0.100	Y_WP:	0.000	Y_WP:	0.500	X:	0.169	Y:	0.026	Z:	0.257	yaw:	1.798	yaw rate:	-19.066	Roll:	4.283	Pitch:	-0.087	Yaw:	-0.904	Thrust:	54.541
Time:	3.425	Roll Set Point:	-0.242	Pitch Set Point:	-0.049	Yaw Set Point:	-0.037	X_WP:	0.100	Y_WP:	0.000	Y_WP:	0.500	X:	0.171	Y:	0.026	Z:	0.262	yaw:	2.096	yaw rate:	29.819	Roll:	4.728	Pitch:	-0.896	Yaw:	10.217	Thrust:	68.156
Time:	3.439	Roll Set Point:	-0.249	Pitch Set Point:	-0.046	Yaw Set Point:	-0.036	X_WP:	0.100	Y_WP:	0.000	Y_WP:	0.500	X:	0.174	Y:	0.024	Z:	0.270	yaw:	2.080	yaw rate:	-14.528	Roll:	5.130	Pitch:	-0.569	Yaw:	4.174	Thrust:	70.716
Time:	3.450	Roll Set Point:	-0.252	Pitch Set Point:	-0.044	Yaw Set Point:	-0.041	X_WP:	0.100	Y_WP:	0.000	Y_WP:	0.500	X:	0.176	Y:	0.023	Z:	0.275	yaw:	2.322	yaw rate:	24.282	Roll:	4.648	Pitch:	-1.379	Yaw:	10.106	Thrust:	49.411
Time:	3.464	Roll Set Point:	-0.258	Pitch Set Point:	-0.042	Yaw Set Point:	-0.025	X_WP:	0.100	Y_WP:	0.000	Y_WP:	0.500	X:	0.178	Y:	0.022	Z:	0.284	yaw:	1.436	yaw rate:	-88.597	Roll:	5.525	Pitch:	0.243	Yaw:	-14.483	Thrust:	53.986
Time:	3.475	Roll Set Point:	-0.260	Pitch Set Point:	-0.039	Yaw Set Point:	-0.036	X_WP:	0.100	Y_WP:	0.000	Y_WP:	0.500	X:	0.180	Y:	0.021	Z:	0.289	yaw:	2.071	yaw rate:	63.486	Roll:	4.148	Pitch:	-1.667	Yaw:	17.883	Thrust:	59.633
Time:	3.486	Roll Set Point:	-0.263	Pitch Set Point:	-0.038	Yaw Set Point:	-0.025	X_WP:	0.100	Y_WP:	0.000	Y_WP:	0.500	X:	0.181	Y:	0.020	Z:	0.294	yaw:	1.409	yaw rate:	-66.214	Roll:	4.364	Pitch:	0.739	Yaw:	-12.647	Thrust:	51.041
Time:	3.500	Roll Set Point:	-0.265	Pitch Set Point:	-0.036	Yaw Set Point:	-0.027	X_WP:	0.100	Y_WP:	0.000	Y_WP:	0.500	X:	0.182	Y:	0.019	Z:	0.300	yaw:	1.566	yaw rate:	15.650	Roll:	3.744	Pitch:	-0.608	Yaw:	6.508	Thrust:	67.378
Time:	3.512	Roll Set Point:	-0.268	Pitch Set Point:	-0.035	Yaw Set Point:	-0.024	X_WP:	0.100	Y_WP:	0.000	Y_WP:	0.500	X:	0.184	Y:	0.019	Z:	0.305	yaw:	1.385	yaw rate:	-18.087	Roll:	3.924	Pitch:	-0.055	Yaw:	-1.173	Thrust:	55.416
Time:	3.530	Roll Set Point:	-0.270	Pitch Set Point:	-0.033	Yaw Set Point:	-0.028	X_WP:	0.100	Y_WP:	0.000	Y_WP:	0.500	X:	0.185	Y:	0.018	Z:	0.310	yaw:	1.607	yaw rate:	22.279	Roll:	3.943	Pitch:	-0.517	Yaw:	7.241	Thrust:	97.203
Time:	3.544	Roll Set Point:	-0.276	Pitch Set Point:	-0.028	Yaw Set Point:	-0.028	X_WP:	0.100	Y_WP:	0.000	Y_WP:	0.500	X:	0.188	Y:	0.015	Z:	0.327	yaw:	1.576	yaw rate:	42.109	Roll:	5.039	Pitch:	-2.319	Yaw:	2.978	Thrust:	36.233
Time:	3.556	Roll Set Point:	-0.278	Pitch Set Point:	-0.028	Yaw Set Point:	-0.019	X_WP:	0.100	Y_WP:	0.000	Y_WP:	0.500	X:	0.189	Y:	0.015	Z:	0.332	yaw:	1.111	yaw rate:	-46.479	Roll:	3.723	Pitch:	0.500	Yaw:	-6.896	Thrust:	59.329
Time:	3.568	Roll Set Point:	-0.280	Pitch Set Point:	-0.026	Yaw Set Point:	-0.014	X_WP:	0.100	Y_WP:	0.000	Y_WP:	0.500	X:	0.190	Y:	0.014	Z:	0.338	yaw:	0.816	yaw rate:	-29.516	Roll:	3.677	Pitch:	0.033	Yaw:	-4.413	Thrust:	51.667
Time:	3.579	Roll Set Point:	-0.282	Pitch Set Point:	-0.024	Yaw Set Point:	-0.024	X_WP:	0.100	Y_WP:	0.000	Y_WP:	0.500	X:	0.191	Y:	0.013	Z:	0.344	yaw:	1.348	yaw rate:	53.146	Roll:	3.902	Pitch:	-2.036	Yaw:	15.563	Thrust:	47.753
Time:	3.591	Roll Set Point:	-0.283	Pitch Set Point:	-0.022	Yaw Set Point:	-0.030	X_WP:	0.100	Y_WP:	0.000	Y_WP:	0.500	X:	0.192	Y:	0.012	Z:	0.349	yaw:	1.717	yaw rate:	36.971	Roll:	4.094	Pitch:	-1.582	Yaw:	11.645	Thrust:	55.327
Time:	3.608	Roll Set Point:	-0.286	Pitch Set Point:	-0.019	Yaw Set Point:	-0.021	X_WP:	0.100	Y_WP:	0.000	Y_WP:	0.500	X:	0.193	Y:	0.011	Z:	0.360	yaw:	1.216	yaw rate:	-37.393	Roll:	3.600	Pitch:	-0.341	Yaw:	-4.564	Thrust:	71.253
Time:	3.620	Roll Set Point:	-0.287	Pitch Set Point:	-0.018	Yaw Set Point:	-0.023	X_WP:	0.100	Y_WP:	0.000	Y_WP:	0.500	X:	0.194	Y:	0.010	Z:	0.366	yaw:	1.307	yaw rate:	9.066	Roll:	3.875	Pitch:	-1.035	Yaw:	5.000	Thrust:	47.917
Time:	3.634	Roll Set Point:	-0.288	Pitch Set Point:	-0.016	Yaw Set Point:	-0.024	X_WP:	0.100	Y_WP:	0.000	Y_WP:	0.500	X:	0.194	Y:	0.009	Z:	0.371	yaw:	1.374	yaw rate:	6.706	Roll:	3.281	Pitch:	-0.510	Yaw:	4.573	Thrust:	73.513
Time:	3.646	Roll Set Point:	-0.290	Pitch Set Point:	-0.013	Yaw Set Point:	-0.022	X_WP:	0.100	Y_WP:	0.000	Y_WP:	0.500	X:	0.195	Y:	0.008	Z:	0.382	yaw:	1.251	yaw rate:	-6.468	Roll:	3.923	Pitch:	-1.585	Yaw:	0.323	Thrust:	41.247
Time:	3.658	Roll Set Point:	-0.290	Pitch Set Point:	-0.013	Yaw Set Point:	-0.022	X_WP:	0.100	Y_WP:	0.000	Y_WP:	0.500	X:	0.195	Y:	0.008	Z:	0.382	yaw:	1.251	yaw rate:	-6.468	Roll:	2.684	Pitch:	0.341	Yaw:	2.951	Thrust:	75.422
Time:	3.670	Roll Set Point:	-0.292	Pitch Set Point:	-0.010	Yaw Set Point:	-0.021	X_WP:	0.100	Y_WP:	0.000	Y_WP:	0.500	X:	0.196	Y:	0.006	Z:	0.392	yaw:	1.229	yaw rate:	-31.812	Roll:	3.958	Pitch:	-1.743	Yaw:	2.446	Thrust:	35.149
Time:	3.681	Roll Set Point:	-0.293	Pitch Set Point:	-0.009	Yaw Set Point:	-0.017	X_WP:	0.100	Y_WP:	0.000	Y_WP:	0.500	X:	0.196	Y:	0.005	Z:	0.397	yaw:	0.974	yaw rate:	-25.560	Roll:	3.194	Pitch:	-0.508	Yaw:	-3.590	Thrust:	48.849
Time:	3.692	Roll Set Point:	-0.294	Pitch Set Point:	-0.006	Yaw Set Point:	-0.013	X_WP:	0.100	Y_WP:	0.000	Y_WP:	0.500	X:	0.197	Y:	0.004	Z:	0.407	yaw:	0.765	yaw rate:	-20.870	Roll:	3.916	Pitch:	-1.413	Yaw:	-2.768	Thrust:	28.119
Time:	3.708	Roll Set Point:	-0.295	Pitch Set Point:	-0.004	Yaw Set Point:	-0.022	X_WP:	0.100	Y_WP:	0.000	Y_WP:	0.500	X:	0.198	Y:	0.003	Z:	0.412	yaw:	1.235	yaw rate:	47.011	Roll:	3.186	Pitch:	-1.334	Yaw:	11.184	Thrust:	80.630
Time:	3.719	Roll Set Point:	-0.296	Pitch Set Point:	-0.003	Yaw Set Point:	-0.011	X_WP:	0.100	Y_WP:	0.000	Y_WP:	0.500	X:	0.198	Y:	0.002	Z:	0.417	yaw:	0.619	yaw rate:	-61.596	Roll:	2.910	Pitch:	0.434	Yaw:	-12.654	Thrust:	48.902
Time:	3.731	Roll Set Point:	-0.296	Pitch Set Point:	-0.001	Yaw Set Point:	-0.018	X_WP:	0.100	Y_WP:	0.000	Y_WP:	0.500	X:	0.198	Y:	0.001	Z:	0.422	yaw:	1.058	yaw rate:	43.900	Roll:	3.204	Pitch:	-1.833	Yaw:	12.222	Thrust:	56.073
Time:	3.743	Roll Set Point:	-0.297	Pitch Set Point:	0.000	Yaw Set Point:	-0.020	X_WP:	0.100	Y_WP:	0.000	Y_WP:	0.500	X:	0.198	Y:	0.001	Z:	0.426	yaw:	1.140	yaw rate:	8.158	Roll:	3.076	Pitch:	-1.063	Yaw:	4.548	Thrust:	61.676
Time:	3.764	Roll Set Point:	-0.297	Pitch Set Point:	0.001	Yaw Set Point:	-0.014	X_WP:	0.100	Y_WP:	0.000	Y_WP:	0.500	X:	0.198	Y:	-0.000	Z:	0.430	yaw:	0.801	yaw rate:	-33.883	Roll:	2.802	Pitch:	0.083	Yaw:	-1.297	Thrust:	100.000
Time:	3.777	Roll Set Point:	-0.297	Pitch Set Point:	0.004	Yaw Set Point:	-0.016	X_WP:	0.100	Y_WP:	0.000	Y_WP:	0.500	X:	0.199	Y:	-0.001	Z:	0.438	yaw:	0.916	yaw rate:	6.267	Roll:	3.014	Pitch:	-1.841	Yaw:	4.830	Thrust:	59.673
Time:	3.791	Roll Set Point:	-0.297	Pitch Set Point:	0.007	Yaw Set Point:	-0.013	X_WP:	0.100	Y_WP:	0.000	Y_WP:	0.500	X:	0.199	Y:	-0.003	Z:	0.446	yaw:	0.730	yaw rate:	-72.011	Roll:	2.838	Pitch:	-1.386	Yaw:	-1.050	Thrust:	61.636
Time:	3.804	Roll Set Point:	-0.297	Pitch Set Point:	0.010	Yaw Set Point:	-0.012	X_WP:	0.100	Y_WP:	0.000	Y_WP:	0.500	X:	0.199	Y:	-0.005	Z:	0.452	yaw:	0.701	yaw rate:	-2.890	Roll:	2.748	Pitch:	-2.011	Yaw:	1.555	Thrust:	48.147
Time:	3.814	Roll Set Point:	-0.297	Pitch Set Point:	0.012	Yaw Set Point:	-0.021	X_WP:	0.100	Y_WP:	0.000	Y_WP:	0.500	X:	0.199	Y:	-0.005	Z:	0.456	yaw:	1.206	yaw rate:	50.545	Roll:	2.797	Pitch:	-2.211	Yaw:	15.301	Thrust:	49.555
Time:	3.830	Roll Set Point:	-0.297	Pitch Set Point:	0.013	Yaw Set Point:	-0.016	X_WP:	0.100	Y_WP:	0.000	Y_WP:	0.500	X:	0.199	Y:	-0.006	Z:	0.459	yaw:	0.940	yaw rate:	-26.594	Roll:	2.644	Pitch:	-0.235	Yaw:	-1.590	Thrust:	84.252
Time:	3.841	Roll Set Point:	-0.297	Pitch Set Point:	0.015	Yaw Set Point:	-0.015	X_WP:	0.100	Y_WP:	0.000	Y_WP:	0.500	X:	0.198	Y:	-0.007	Z:	0.462	yaw:	0.842	yaw rate:	-9.784	Roll:	2.532	Pitch:	-0.914	Yaw:	0.105	Thrust:	57.315
Time:	3.853	Roll Set Point:	-0.297	Pitch Set Point:	0.016	Yaw Set Point:	-0.013	X_WP:	0.100	Y_WP:	0.000	Y_WP:	0.500	X:	0.198	Y:	-0.007	Z:	0.465	yaw:	0.770	yaw rate:	-7.216	Roll:	2.754	Pitch:	-1.060	Yaw:	0.591	Thrust:	54.015
Time:	3.865	Roll Set Point:	-0.296	Pitch Set Point:	0.017	Yaw Set Point:	-0.016	X_WP:	0.100	Y_WP:	0.000	Y_WP:	0.500	X:	0.198	Y:	-0.008	Z:	0.468	yaw:	0.927	yaw rate:	15.690	Roll:	2.490	Pitch:	-1.248	Yaw:	5.912	Thrust:	60.341
Time:	3.876	Roll Set Point:	-0.296	Pitch Set Point:	0.018	Yaw Set Point:	-0.009	X_WP:	0.100	Y_WP:	0.000	Y_WP:	0.500	X:	0.198	Y:	-0.009	Z:	0.471	yaw:	0.507	yaw rate:	-42.005	Roll:	2.579	Pitch:	-0.061	Yaw:	-8.158	Thrust:	57.482
Time:	3.888	Roll Set Point:	-0.296	Pitch Set Point:	0.020	Yaw Set Point:	-0.016	X_WP:	0.100	Y_WP:	0.000	Y_WP:	0.500	X:	0.198	Y:	-0.009	Z:	0.474	yaw:	0.916	yaw rate:	40.912	Roll:	2.564	Pitch:	-2.086	Yaw:	11.384	Thrust:	61.071
Time:	3.900	Roll Set Point:	-0.295	Pitch Set Point:	0.022	Yaw Set Point:	-0.008	X_WP:	0.100	Y_WP:	0.000	Y_WP:	0.500	X:	0.197	Y:	-0.010	Z:	0.480	yaw:	0.466	yaw rate:	-0.759	Roll:	2.176	Pitch:	-0.800	Yaw:	-7.902	Thrust:	50.444
Time:	3.911	Roll Set Point:	-0.293	Pitch Set Point:	0.024	Yaw Set Point:	-0.006	X_WP:	0.100	Y_WP:	0.000	Y_WP:	0.500	X:	0.197	Y:	-0.012	Z:	0.486	yaw:	0.330	yaw rate:	-13.599	Roll:	1.736	Pitch:	-1.654	Yaw:	-1.662	Thrust:	42.671
Time:	3.928	Roll Set Point:	-0.293	Pitch Set Point:	0.025	Yaw Set Point:	-0.002	X_WP:	0.100	Y_WP:	0.000	Y_WP:	0.500	X:	0.196	Y:	-0.012	Z:	0.488	yaw:	0.105	yaw rate:	-22.540	Roll:	2.580	Pitch:	-0.530	Yaw:	-1.601	Thrust:	87.681
Time:	3.942	Roll Set Point:	-0.292	Pitch Set Point:	0.027	Yaw Set Point:	-0.012	X_WP:	0.100	Y_WP:	0.000	Y_WP:	0.500	X:	0.196	Y:	-0.013	Z:	0.491	yaw:	0.661	yaw rate:	55.571	Roll:	2.388	Pitch:	-1.694	Yaw:	13.278	Thrust:	75.117
Time:	3.954	Roll Set Point:	-0.291	Pitch Set Point:	0.027	Yaw Set Point:	-0.004	X_WP:	0.100	Y_WP:	0.000	Y_WP:	0.500	X:	0.196	Y:	-0.013	Z:	0.494	yaw:	0.205	yaw rate:	-45.523	Roll:	2.108	Pitch:	0.005	Yaw:	-7.965	Thrust:	64.349
Time:	3.965	Roll Set Point:	-0.290	Pitch Set Point:	0.029	Yaw Set Point:	-0.005	X_WP:	0.100	Y_WP:	0.000	Y_WP:	0.500	X:	0.195	Y:	-0.014	Z:	0.499	yaw:	0.290	yaw rate:	31.858	Roll:	1.566	Pitch:	-1.961	Yaw:	3.478	Thrust:	47.738
Time:	3.977	Roll Set Point:	-0.289	Pitch Set Point:	0.030	Yaw Set Point:	0.002	X_WP:	0.100	Y_WP:	0.000	Y_WP:	0.500	X:	0.194	Y:	-0.015	Z:	0.501	yaw:	-0.102	yaw rate:	-39.166	Roll:	2.175	Pitch:	-0.292	Yaw:	-8.070	Thrust:	56.010
Time:	3.990	Roll Set Point:	-0.288	Pitch Set Point:	0.031	Yaw Set Point:	-0.002	X_WP:	0.100	Y_WP:	0.000	Y_WP:	0.500	X:	0.194	Y:	-0.016	Z:	0.504	yaw:	0.106	yaw rate:	20.729	Roll:	1.931	Pitch:	-1.497	Yaw:	5.861	Thrust:	61.622
Time:	4.002	Roll Set Point:	-0.287	Pitch Set Point:	0.033	Yaw Set Point:	-0.008	X_WP:	0.100	Y_WP:	0.000	Y_WP:	0.500	X:	0.194	Y:	-0.016	Z:	0.506	yaw:	0.441	yaw rate:	33.495	Roll:	2.161	Pitch:	-1.554	Yaw:	8.440	Thrust:	71.258
Time:	4.014	Roll Set Point:	-0.286	Pitch Set Point:	0.033	Yaw Set Point:	-0.002	X_WP:	0.100	Y_WP:	0.000	Y_WP:	0.500	X:	0.193	Y:	-0.016	Z:	0.509	yaw:	0.093	yaw rate:	-34.718	Roll:	2.023	Pitch:	-0.196	Yaw:	-7.359	Thrust:	51.367
Time:	4.027	Roll Set Point:	-0.284	Pitch Set Point:	0.035	Yaw Set Point:	0.000	X_WP:	0.100	Y_WP:	0.000	Y_WP:	0.500	X:	0.192	Y:	-0.017	Z:	0.514	yaw:	-0.025	yaw rate:	-11.874	Roll:	1.270	Pitch:	-1.314	Yaw:	-0.836	Thrust:	66.521
Time:	4.039	Roll Set Point:	-0.283	Pitch Set Point:	0.036	Yaw Set Point:	-0.003	X_WP:	0.100	Y_WP:	0.000	Y_WP:	0.500	X:	0.191	Y:	-0.018	Z:	0.516	yaw:	0.171	yaw rate:	19.649	Roll:	1.900	Pitch:	-1.393	Yaw:	5.598	Thrust:	63.880
Time:	4.051	Roll Set Point:	-0.282	Pitch Set Point:	0.037	Yaw Set Point:	0.002	X_WP:	0.100	Y_WP:	0.000	Y_WP:	0.500	X:	0.191	Y:	-0.018	Z:	0.519	yaw:	-0.090	yaw rate:	-26.125	Roll:	2.061	Pitch:	-0.284	Yaw:	-5.093	Thrust:	55.077
Time:	4.065	Roll Set Point:	-0.281	Pitch Set Point:	0.037	Yaw Set Point:	0.003	X_WP:	0.100	Y_WP:	0.000	Y_WP:	0.500	X:	0.190	Y:	-0.019	Z:	0.521	yaw:	-0.145	yaw rate:	-5.468	Roll:	1.901	Pitch:	-0.736	Yaw:	0.181	Thrust:	73.291
Time:	4.076	Roll Set Point:	-0.278	Pitch Set Point:	0.040	Yaw Set Point:	-0.003	X_WP:	0.100	Y_WP:	0.000	Y_WP:	0.500	X:	0.189	Y:	-0.020	Z:	0.526	yaw:	0.192	yaw rate:	36.408	Roll:	0.719	Pitch:	-2.437	Yaw:	8.991	Thrust:	46.309
Time:	4.088	Roll Set Point:	-0.277	Pitch Set Point:	0.039	Yaw Set Point:	0.009	X_WP:	0.100	Y_WP:	0.000	Y_WP:	0.500	X:	0.189	Y:	-0.020	Z:	0.529	yaw:	-0.524	yaw rate:	-71.605	Roll:	2.210	Pitch:	0.825	Yaw:	-15.108	Thrust:	58.744
Time:	4.101	Roll Set Point:	-0.276	Pitch Set Point:	0.040	Yaw Set Point:	0.004	X_WP:	0.100	Y_WP:	0.000	Y_WP:	0.500	X:	0.188	Y:	-0.020	Z:	0.532	yaw:	-0.236	yaw rate:	28.815	Roll:	1.680	Pitch:	-1.382	Yaw:	6.937	Thrust:	61.364
Time:	4.112	Roll Set Point:	-0.275	Pitch Set Point:	0.040	Yaw Set Point:	0.009	X_WP:	0.100	Y_WP:	0.000	Y_WP:	0.500	X:	0.187	Y:	-0.021	Z:	0.535	yaw:	-0.527	yaw rate:	-29.110	Roll:	1.892	Pitch:	-0.207	Yaw:	-6.782	Thrust:	48.473
Time:	4.124	Roll Set Point:	-0.274	Pitch Set Point:	0.041	Yaw Set Point:	0.007	X_WP:	0.100	Y_WP:	0.000	Y_WP:	0.500	X:	0.187	Y:	-0.021	Z:	0.538	yaw:	-0.428	yaw rate:	9.932	Roll:	1.429	Pitch:	-1.236	Yaw:	2.760	Thrust:	57.085
Time:	4.139	Roll Set Point:	-0.271	Pitch Set Point:	0.042	Yaw Set Point:	0.011	X_WP:	0.100	Y_WP:	0.000	Y_WP:	0.500	X:	0.186	Y:	-0.022	Z:	0.544	yaw:	-0.642	yaw rate:	-76.546	Roll:	1.315	Pitch:	-0.671	Yaw:	-3.118	Thrust:	66.805
Time:	4.150	Roll Set Point:	-0.269	Pitch Set Point:	0.043	Yaw Set Point:	0.011	X_WP:	0.100	Y_WP:	0.000	Y_WP:	0.500	X:	0.184	Y:	-0.022	Z:	0.551	yaw:	-0.610	yaw rate:	3.125	Roll:	0.401	Pitch:	-1.474	Yaw:	0.984	Thrust:	31.921
Time:	4.161	Roll Set Point:	-0.267	Pitch Set Point:	0.044	Yaw Set Point:	0.010	X_WP:	0.100	Y_WP:	0.000	Y_WP:	0.500	X:	0.184	Y:	-0.022	Z:	0.554	yaw:	-0.570	yaw rate:	4.038	Roll:	1.466	Pitch:	-0.961	Yaw:	1.262	Thrust:	55.061
Time:	4.173	Roll Set Point:	-0.266	Pitch Set Point:	0.044	Yaw Set Point:	0.017	X_WP:	0.100	Y_WP:	0.000	Y_WP:	0.500	X:	0.183	Y:	-0.023	Z:	0.557	yaw:	-0.965	yaw rate:	-39.459	Roll:	1.798	Pitch:	-0.064	Yaw:	-8.744	Thrust:	54.434
Time:	4.185	Roll Set Point:	-0.265	Pitch Set Point:	0.045	Yaw Set Point:	0.016	X_WP:	0.100	Y_WP:	0.000	Y_WP:	0.500	X:	0.182	Y:	-0.023	Z:	0.561	yaw:	-0.903	yaw rate:	6.149	Roll:	1.521	Pitch:	-0.907	Yaw:	1.274	Thrust:	49.487
Time:	4.199	Roll Set Point:	-0.264	Pitch Set Point:	0.045	Yaw Set Point:	0.016	X_WP:	0.100	Y_WP:	0.000	Y_WP:	0.500	X:	0.182	Y:	-0.023	Z:	0.564	yaw:	-0.918	yaw rate:	-1.508	Roll:	1.701	Pitch:	-0.686	Yaw:	-0.186	Thrust:	67.592
Time:	4.210	Roll Set Point:	-0.263	Pitch Set Point:	0.046	Yaw Set Point:	0.017	X_WP:	0.100	Y_WP:	0.000	Y_WP:	0.500	X:	0.181	Y:	-0.023	Z:	0.567	yaw:	-0.995	yaw rate:	-7.709	Roll:	1.506	Pitch:	-0.774	Yaw:	-2.137	Thrust:	46.912
Time:	4.221	Roll Set Point:	-0.261	Pitch Set Point:	0.046	Yaw Set Point:	0.013	X_WP:	0.100	Y_WP:	0.000	Y_WP:	0.500	X:	0.181	Y:	-0.024	Z:	0.571	yaw:	-0.742	yaw rate:	25.286	Roll:	1.183	Pitch:	-1.259	Yaw:	6.040	Thrust:	45.169
Time:	4.232	Roll Set Point:	-0.260	Pitch Set Point:	0.046	Yaw Set Point:	0.017	X_WP:	0.100	Y_WP:	0.000	Y_WP:	0.500	X:	0.180	Y:	-0.024	Z:	0.574	yaw:	-0.952	yaw rate:	-20.952	Roll:	1.399	Pitch:	-0.310	Yaw:	-4.947	Thrust:	49.779
Time:	4.243	Roll Set Point:	-0.259	Pitch Set Point:	0.047	Yaw Set Point:	0.019	X_WP:	0.100	Y_WP:	0.000	Y_WP:	0.500	X:	0.179	Y:	-0.024	Z:	0.577	yaw:	-1.107	yaw rate:	-15.549	Roll:	1.511	Pitch:	-0.684	Yaw:	-4.384	Thrust:	43.556
Time:	4.255	Roll Set Point:	-0.257	Pitch Set Point:	0.047	Yaw Set Point:	0.018	X_WP:	0.100	Y_WP:	0.000	Y_WP:	0.500	X:	0.179	Y:	-0.024	Z:	0.581	yaw:	-1.025	yaw rate:	8.247	Roll:	1.397	Pitch:	-0.925	Yaw:	1.524	Thrust:	52.971
Time:	4.268	Roll Set Point:	-0.255	Pitch Set Point:	0.048	Yaw Set Point:	0.010	X_WP:	0.100	Y_WP:	0.000	Y_WP:	0.500	X:	0.177	Y:	-0.024	Z:	0.587	yaw:	-0.586	yaw rate:	43.884	Roll:	0.336	Pitch:	-1.502	Yaw:	8.969	Thrust:	51.864
Time:	4.279	Roll Set Point:	-0.252	Pitch Set Point:	0.048	Yaw Set Point:	0.019	X_WP:	0.100	Y_WP:	0.000	Y_WP:	0.500	X:	0.176	Y:	-0.025	Z:	0.593	yaw:	-1.089	yaw rate:	6.766	Roll:	0.869	Pitch:	-0.162	Yaw:	-12.518	Thrust:	32.645
Time:	4.290	Roll Set Point:	-0.252	Pitch Set Point:	0.048	Yaw Set Point:	0.019	X_WP:	0.100	Y_WP:	0.000	Y_WP:	0.500	X:	0.176	Y:	-0.025	Z:	0.593	yaw:	-1.089	yaw rate:	6.766	Roll:	2.266	Pitch:	-0.523	Yaw:	-0.466	Thrust:	58.261
Time:	4.304	Roll Set Point:	-0.250	Pitch Set Point:	0.049	Yaw Set Point:	0.019	X_WP:	0.100	Y_WP:	0.000	Y_WP:	0.500	X:	0.175	Y:	-0.025	Z:	0.599	yaw:	-1.066	yaw rate:	12.213	Roll:	0.598	Pitch:	-0.920	Yaw:	0.272	Thrust:	56.422
Time:	4.316	Roll Set Point:	-0.248	Pitch Set Point:	0.050	Yaw Set Point:	0.013	X_WP:	0.100	Y_WP:	0.000	Y_WP:	0.500	X:	0.174	Y:	-0.025	Z:	0.601	yaw:	-0.735	yaw rate:	33.059	Roll:	0.543	Pitch:	-1.493	Yaw:	7.815	Thrust:	47.788
Time:	4.330	Roll Set Point:	-0.247	Pitch Set Point:	0.050	Yaw Set Point:	0.011	X_WP:	0.100	Y_WP:	0.000	Y_WP:	0.500	X:	0.173	Y:	-0.025	Z:	0.604	yaw:	-0.603	yaw rate:	13.272	Roll:	1.847	Pitch:	-0.572	Yaw:	3.002	Thrust:	62.247
Time:	4.343	Roll Set Point:	-0.246	Pitch Set Point:	0.049	Yaw Set Point:	0.023	X_WP:	0.100	Y_WP:	0.000	Y_WP:	0.500	X:	0.173	Y:	-0.025	Z:	0.607	yaw:	-1.322	yaw rate:	-71.881	Roll:	1.691	Pitch:	0.320	Yaw:	-15.495	Thrust:	57.824
Time:	4.353	Roll Set Point:	-0.245	Pitch Set Point:	0.050	Yaw Set Point:	0.019	X_WP:	0.100	Y_WP:	0.000	Y_WP:	0.500	X:	0.172	Y:	-0.026	Z:	0.609	yaw:	-1.083	yaw rate:	23.815	Roll:	0.968	Pitch:	-1.146	Yaw:	4.975	Thrust:	50.329
Time:	4.365	Roll Set Point:	-0.244	Pitch Set Point:	0.050	Yaw Set Point:	0.020	X_WP:	0.100	Y_WP:	0.000	Y_WP:	0.500	X:	0.172	Y:	-0.026	Z:	0.611	yaw:	-1.121	yaw rate:	-3.796	Roll:	1.765	Pitch:	-0.598	Yaw:	-1.351	Thrust:	51.028
Time:	4.376	Roll Set Point:	-0.242	Pitch Set Point:	0.050	Yaw Set Point:	0.016	X_WP:	0.100	Y_WP:	0.000	Y_WP:	0.500	X:	0.171	Y:	-0.026	Z:	0.613	yaw:	-0.942	yaw rate:	17.888	Roll:	0.494	Pitch:	-1.116	Yaw:	3.801	Thrust:	51.424
Time:	4.388	Roll Set Point:	-0.240	Pitch Set Point:	0.050	Yaw Set Point:	0.025	X_WP:	0.100	Y_WP:	0.000	Y_WP:	0.500	X:	0.170	Y:	-0.026	Z:	0.617	yaw:	-1.457	yaw rate:	-79.679	Roll:	0.943	Pitch:	0.290	Yaw:	-13.221	Thrust:	40.469
Time:	4.400	Roll Set Point:	-0.239	Pitch Set Point:	0.050	Yaw Set Point:	0.023	X_WP:	0.100	Y_WP:	0.000	Y_WP:	0.500	X:	0.169	Y:	-0.026	Z:	0.618	yaw:	-1.296	yaw rate:	16.062	Roll:	1.080	Pitch:	-0.802	Yaw:	2.700	Thrust:	58.835
Time:	4.411	Roll Set Point:	-0.236	Pitch Set Point:	0.050	Yaw Set Point:	0.025	X_WP:	0.100	Y_WP:	0.000	Y_WP:	0.500	X:	0.168	Y:	-0.026	Z:	0.622	yaw:	-1.445	yaw rate:	-14.920	Roll:	0.362	Pitch:	-0.559	Yaw:	-4.608	Thrust:	40.904
Time:	4.428	Roll Set Point:	-0.235	Pitch Set Point:	0.051	Yaw Set Point:	0.013	X_WP:	0.100	Y_WP:	0.000	Y_WP:	0.500	X:	0.168	Y:	-0.026	Z:	0.623	yaw:	-0.726	yaw rate:	71.936	Roll:	1.182	Pitch:	-1.672	Yaw:	11.574	Thrust:	76.637
Time:	4.440	Roll Set Point:	-0.234	Pitch Set Point:	0.050	Yaw Set Point:	0.028	X_WP:	0.100	Y_WP:	0.000	Y_WP:	0.500	X:	0.167	Y:	-0.026	Z:	0.624	yaw:	-1.596	yaw rate:	-87.037	Roll:	1.737	Pitch:	0.824	Yaw:	-19.268	Thrust:	66.766
Time:	4.452	Roll Set Point:	-0.234	Pitch Set Point:	0.050	Yaw Set Point:	0.030	X_WP:	0.100	Y_WP:	0.000	Y_WP:	0.500	X:	0.167	Y:	-0.026	Z:	0.625	yaw:	-1.706	yaw rate:	-10.962	Roll:	1.755	Pitch:	-0.653	Yaw:	-3.826	Thrust:	53.187
Time:	4.466	Roll Set Point:	-0.232	Pitch Set Point:	0.050	Yaw Set Point:	0.028	X_WP:	0.100	Y_WP:	0.000	Y_WP:	0.500	X:	0.166	Y:	-0.026	Z:	0.626	yaw:	-1.594	yaw rate:	11.234	Roll:	0.965	Pitch:	-0.665	Yaw:	1.131	Thrust:	67.977
Time:	4.477	Roll Set Point:	-0.230	Pitch Set Point:	0.050	Yaw Set Point:	0.028	X_WP:	0.100	Y_WP:	0.000	Y_WP:	0.500	X:	0.165	Y:	-0.026	Z:	0.628	yaw:	-1.618	yaw rate:	-8.238	Roll:	0.465	Pitch:	-0.654	Yaw:	-1.838	Thrust:	46.984
Time:	4.490	Roll Set Point:	-0.230	Pitch Set Point:	0.051	Yaw Set Point:	0.023	X_WP:	0.100	Y_WP:	0.000	Y_WP:	0.500	X:	0.165	Y:	-0.026	Z:	0.629	yaw:	-1.327	yaw rate:	29.077	Roll:	1.503	Pitch:	-1.094	Yaw:	5.138	Thrust:	56.882
Time:	4.502	Roll Set Point:	-0.229	Pitch Set Point:	0.050	Yaw Set Point:	0.032	X_WP:	0.100	Y_WP:	0.000	Y_WP:	0.500	X:	0.164	Y:	-0.026	Z:	0.629	yaw:	-1.857	yaw rate:	-53.039	Roll:	1.453	Pitch:	0.171	Yaw:	-13.078	Thrust:	62.879
Time:	4.513	Roll Set Point:	-0.227	Pitch Set Point:	0.051	Yaw Set Point:	0.024	X_WP:	0.100	Y_WP:	0.000	Y_WP:	0.500	X:	0.163	Y:	-0.026	Z:	0.630	yaw:	-1.356	yaw rate:	50.114	Roll:	0.394	Pitch:	-1.320	Yaw:	10.968	Thrust:	49.522
Time:	4.529	Roll Set Point:	-0.226	Pitch Set Point:	0.050	Yaw Set Point:	0.032	X_WP:	0.100	Y_WP:	0.000	Y_WP:	0.500	X:	0.163	Y:	-0.026	Z:	0.631	yaw:	-1.855	yaw rate:	-49.898	Roll:	1.595	Pitch:	0.082	Yaw:	-9.318	Thrust:	77.049
Time:	4.542	Roll Set Point:	-0.224	Pitch Set Point:	0.050	Yaw Set Point:	0.036	X_WP:	0.100	Y_WP:	0.000	Y_WP:	0.500	X:	0.162	Y:	-0.026	Z:	0.631	yaw:	-2.084	yaw rate:	-12.134	Roll:	1.057	Pitch:	-0.199	Yaw:	-6.466	Thrust:	63.266
Time:	4.554	Roll Set Point:	-0.223	Pitch Set Point:	0.050	Yaw Set Point:	0.036	X_WP:	0.100	Y_WP:	0.000	Y_WP:	0.500	X:	0.161	Y:	-0.026	Z:	0.632	yaw:	-2.052	yaw rate:	3.207	Roll:	1.164	Pitch:	-0.584	Yaw:	-1.135	Thrust:	54.026
Time:	4.567	Roll Set Point:	-0.223	Pitch Set Point:	0.050	Yaw Set Point:	0.035	X_WP:	0.100	Y_WP:	0.000	Y_WP:	0.500	X:	0.161	Y:	-0.026	Z:	0.632	yaw:	-2.033	yaw rate:	1.913	Roll:	1.373	Pitch:	-0.499	Yaw:	-1.373	Thrust:	61.899
Time:	4.577	Roll Set Point:	-0.222	Pitch Set Point:	0.050	Yaw Set Point:	0.034	X_WP:	0.100	Y_WP:	0.000	Y_WP:	0.500	X:	0.160	Y:	-0.026	Z:	0.633	yaw:	-1.975	yaw rate:	5.762	Roll:	1.214	Pitch:	-0.645	Yaw:	-0.448	Thrust:	49.033
Time:	4.591	Roll Set Point:	-0.221	Pitch Set Point:	0.050	Yaw Set Point:	0.032	X_WP:	0.100	Y_WP:	0.000	Y_WP:	0.500	X:	0.160	Y:	-0.026	Z:	0.633	yaw:	-1.835	yaw rate:	14.020	Roll:	1.279	Pitch:	-0.633	Yaw:	1.344	Thrust:	61.179
Time:	4.605	Roll Set Point:	-0.220	Pitch Set Point:	0.050	Yaw Set Point:	0.029	X_WP:	0.100	Y_WP:	0.000	Y_WP:	0.500	X:	0.160	Y:	-0.026	Z:	0.634	yaw:	-1.642	yaw rate:	19.287	Roll:	1.361	Pitch:	-0.670	Yaw:	2.387	Thrust:	68.918
Time:	4.616	Roll Set Point:	-0.219	Pitch Set Point:	0.050	Yaw Set Point:	0.021	X_WP:	0.100	Y_WP:	0.000	Y_WP:	0.500	X:	0.159	Y:	-0.026	Z:	0.635	yaw:	-1.190	yaw rate:	45.185	Roll:	0.890	Pitch:	-1.103	Yaw:	10.429	Thrust:	46.414
Time:	4.629	Roll Set Point:	-0.218	Pitch Set Point:	0.049	Yaw Set Point:	0.030	X_WP:	0.100	Y_WP:	0.000	Y_WP:	0.500	X:	0.158	Y:	-0.026	Z:	0.636	yaw:	-1.733	yaw rate:	-54.234	Roll:	0.942	Pitch:	0.403	Yaw:	-12.189	Thrust:	53.178
Time:	4.643	Roll Set Point:	-0.216	Pitch Set Point:	0.050	Yaw Set Point:	0.032	X_WP:	0.100	Y_WP:	0.000	Y_WP:	0.500	X:	0.158	Y:	-0.026	Z:	0.638	yaw:	-1.819	yaw rate:	16.163	Roll:	1.063	Pitch:	-0.598	Yaw:	-3.220	Thrust:	58.418
Time:	4.653	Roll Set Point:	-0.215	Pitch Set Point:	0.050	Yaw Set Point:	0.017	X_WP:	0.100	Y_WP:	0.000	Y_WP:	0.500	X:	0.157	Y:	-0.026	Z:	0.640	yaw:	-0.954	yaw rate:	86.547	Roll:	0.481	Pitch:	-1.947	Yaw:	19.254	Thrust:	49.035
Time:	4.665	Roll Set Point:	-0.215	Pitch Set Point:	0.049	Yaw Set Point:	0.033	X_WP:	0.100	Y_WP:	0.000	Y_WP:	0.500	X:	0.157	Y:	-0.025	Z:	0.641	yaw:	-1.892	yaw rate:	-93.832	Roll:	2.251	Pitch:	1.152	Yaw:	-22.087	Thrust:	51.915
Time:	4.676	Roll Set Point:	-0.215	Pitch Set Point:	0.049	Yaw Set Point:	0.032	X_WP:	0.100	Y_WP:	0.000	Y_WP:	0.500	X:	0.157	Y:	-0.025	Z:	0.642	yaw:	-1.807	yaw rate:	8.497	Roll:	1.220	Pitch:	-0.533	Yaw:	0.372	Thrust:	45.522
Time:	4.688	Roll Set Point:	-0.214	Pitch Set Point:	0.049	Yaw Set Point:	0.029	X_WP:	0.100	Y_WP:	0.000	Y_WP:	0.500	X:	0.157	Y:	-0.025	Z:	0.643	yaw:	-1.661	yaw rate:	14.645	Roll:	1.234	Pitch:	-0.704	Yaw:	1.820	Thrust:	50.716
Time:	4.701	Roll Set Point:	-0.213	Pitch Set Point:	0.049	Yaw Set Point:	0.026	X_WP:	0.100	Y_WP:	0.000	Y_WP:	0.500	X:	0.156	Y:	-0.025	Z:	0.644	yaw:	-1.482	yaw rate:	17.918	Roll:	1.253	Pitch:	-0.675	Yaw:	2.659	Thrust:	54.206
Time:	4.712	Roll Set Point:	-0.212	Pitch Set Point:	0.048	Yaw Set Point:	0.028	X_WP:	0.100	Y_WP:	0.000	Y_WP:	0.500	X:	0.156	Y:	-0.025	Z:	0.647	yaw:	-1.618	yaw rate:	-13.662	Roll:	1.015	Pitch:	-0.026	Yaw:	-4.795	Thrust:	36.360
Time:	4.729	Roll Set Point:	-0.211	Pitch Set Point:	0.049	Yaw Set Point:	0.015	X_WP:	0.100	Y_WP:	0.000	Y_WP:	0.500	X:	0.155	Y:	-0.025	Z:	0.648	yaw:	-0.885	yaw rate:	73.357	Roll:	0.717	Pitch:	-1.239	Yaw:	11.338	Thrust:	75.462
Time:	4.743	Roll Set Point:	-0.211	Pitch Set Point:	0.048	Yaw Set Point:	0.023	X_WP:	0.100	Y_WP:	0.000	Y_WP:	0.500	X:	0.155	Y:	-0.025	Z:	0.649	yaw:	-1.311	yaw rate:	-42.687	Roll:	1.988	Pitch:	0.163	Yaw:	-8.697	Thrust:	63.573
Time:	4.753	Roll Set Point:	-0.210	Pitch Set Point:	0.048	Yaw Set Point:	0.028	X_WP:	0.100	Y_WP:	0.000	Y_WP:	0.500	X:	0.155	Y:	-0.025	Z:	0.650	yaw:	-1.631	yaw rate:	-32.004	Roll:	1.448	Pitch:	-0.033	Yaw:	-9.425	Thrust:	42.349
Time:	4.766	Roll Set Point:	-0.209	Pitch Set Point:	0.048	Yaw Set Point:	0.025	X_WP:	0.100	Y_WP:	0.000	Y_WP:	0.500	X:	0.154	Y:	-0.025	Z:	0.652	yaw:	-1.405	yaw rate:	-56.778	Roll:	0.979	Pitch:	-0.592	Yaw:	3.572	Thrust:	52.669
Time:	4.778	Roll Set Point:	-0.209	Pitch Set Point:	0.047	Yaw Set Point:	0.027	X_WP:	0.100	Y_WP:	0.000	Y_WP:	0.500	X:	0.154	Y:	-0.024	Z:	0.653	yaw:	-1.528	yaw rate:	-12.258	Roll:	1.312	Pitch:	-0.077	Yaw:	-4.043	Thrust:	47.511
Time:	4.792	Roll Set Point:	-0.208	Pitch Set Point:	0.047	Yaw Set Point:	0.033	X_WP:	0.100	Y_WP:	0.000	Y_WP:	0.500	X:	0.154	Y:	-0.025	Z:	0.653	yaw:	-1.892	yaw rate:	-36.384	Roll:	1.495	Pitch:	-0.266	Yaw:	-8.339	Thrust:	62.273
Time:	4.804	Roll Set Point:	-0.208	Pitch Set Point:	0.047	Yaw Set Point:	0.025	X_WP:	0.100	Y_WP:	0.000	Y_WP:	0.500	X:	0.154	Y:	-0.024	Z:	0.654	yaw:	-1.432	yaw rate:	46.021	Roll:	1.423	Pitch:	-0.786	Yaw:	9.323	Thrust:	46.568
Time:	4.816	Roll Set Point:	-0.207	Pitch Set Point:	0.047	Yaw Set Point:	0.027	X_WP:	0.100	Y_WP:	0.000	Y_WP:	0.500	X:	0.153	Y:	-0.024	Z:	0.656	yaw:	-1.519	yaw rate:	-8.793	Roll:	1.045	Pitch:	-0.180	Yaw:	-3.042	Thrust:	48.944
Time:	4.832	Roll Set Point:	-0.207	Pitch Set Point:	0.046	Yaw Set Point:	0.026	X_WP:	0.100	Y_WP:	0.000	Y_WP:	0.500	X:	0.153	Y:	-0.024	Z:	0.657	yaw:	-1.508	yaw rate:	1.194	Roll:	1.404	Pitch:	-0.239	Yaw:	-0.698	Thrust:	70.474
Time:	4.843	Roll Set Point:	-0.206	Pitch Set Point:	0.046	Yaw Set Point:	0.025	X_WP:	0.100	Y_WP:	0.000	Y_WP:	0.500	X:	0.153	Y:	-0.024	Z:	0.658	yaw:	-1.419	yaw rate:	-54.516	Roll:	1.240	Pitch:	-0.199	Yaw:	0.973	Thrust:	41.986
Time:	4.854	Roll Set Point:	-0.205	Pitch Set Point:	0.046	Yaw Set Point:	0.022	X_WP:	0.100	Y_WP:	0.000	Y_WP:	0.500	X:	0.152	Y:	-0.023	Z:	0.659	yaw:	-1.247	yaw rate:	17.160	Roll:	0.830	Pitch:	-0.679	Yaw:	3.287	Thrust:	41.593
Time:	4.866	Roll Set Point:	-0.205	Pitch Set Point:	0.046	Yaw Set Point:	0.021	X_WP:	0.100	Y_WP:	0.000	Y_WP:	0.500	X:	0.152	Y:	-0.023	Z:	0.659	yaw:	-1.230	yaw rate:	1.733	Roll:	1.649	Pitch:	-0.369	Yaw:	-0.453	Thrust:	52.096
Time:	4.877	Roll Set Point:	-0.205	Pitch Set Point:	0.045	Yaw Set Point:	0.020	X_WP:	0.100	Y_WP:	0.000	Y_WP:	0.500	X:	0.152	Y:	-0.023	Z:	0.660	yaw:	-1.141	yaw rate:	8.893	Roll:	1.423	Pitch:	-0.369	Yaw:	1.284	Thrust:	44.255
Time:	4.890	Roll Set Point:	-0.204	Pitch Set Point:	0.045	Yaw Set Point:	0.024	X_WP:	0.100	Y_WP:	0.000	Y_WP:	0.500	X:	0.152	Y:	-0.023	Z:	0.661	yaw:	-1.368	yaw rate:	-22.742	Roll:	1.489	Pitch:	-0.155	Yaw:	-5.548	Thrust:	54.169
Time:	4.907	Roll Set Point:	-0.204	Pitch Set Point:	0.045	Yaw Set Point:	0.023	X_WP:	0.100	Y_WP:	0.000	Y_WP:	0.500	X:	0.152	Y:	-0.023	Z:	0.661	yaw:	-1.300	yaw rate:	-36.980	Roll:	1.336	Pitch:	-0.245	Yaw:	0.438	Thrust:	68.192
Time:	4.917	Roll Set Point:	-0.203	Pitch Set Point:	0.045	Yaw Set Point:	0.010	X_WP:	0.100	Y_WP:	0.000	Y_WP:	0.500	X:	0.151	Y:	-0.023	Z:	0.662	yaw:	-0.563	yaw rate:	73.686	Roll:	0.976	Pitch:	-1.134	Yaw:	18.619	Thrust:	41.126
Time:	4.931	Roll Set Point:	-0.203	Pitch Set Point:	0.045	Yaw Set Point:	0.015	X_WP:	0.100	Y_WP:	0.000	Y_WP:	0.500	X:	0.151	Y:	-0.023	Z:	0.662	yaw:	-0.872	yaw rate:	-30.955	Roll:	1.347	Pitch:	-0.266	Yaw:	-5.975	Thrust:	57.471
Time:	4.942	Roll Set Point:	-0.202	Pitch Set Point:	0.044	Yaw Set Point:	0.018	X_WP:	0.100	Y_WP:	0.000	Y_WP:	0.500	X:	0.151	Y:	-0.022	Z:	0.662	yaw:	-1.022	yaw rate:	-14.913	Roll:	1.499	Pitch:	0.105	Yaw:	-4.008	Thrust:	50.038
Time:	4.956	Roll Set Point:	-0.202	Pitch Set Point:	0.044	Yaw Set Point:	0.016	X_WP:	0.100	Y_WP:	0.000	Y_WP:	0.500	X:	0.151	Y:	-0.022	Z:	0.662	yaw:	-0.899	yaw rate:	12.267	Roll:	1.329	Pitch:	-0.415	Yaw:	2.113	Thrust:	53.230
Time:	4.973	Roll Set Point:	-0.201	Pitch Set Point:	0.043	Yaw Set Point:	0.013	X_WP:	0.100	Y_WP:	0.000	Y_WP:	0.500	X:	0.150	Y:	-0.022	Z:	0.661	yaw:	-0.755	yaw rate:	-71.832	Roll:	1.232	Pitch:	-0.240	Yaw:	2.339	Thrust:	78.630
Time:	4.984	Roll Set Point:	-0.201	Pitch Set Point:	0.042	Yaw Set Point:	0.023	X_WP:	0.100	Y_WP:	0.000	Y_WP:	0.500	X:	0.150	Y:	-0.022	Z:	0.660	yaw:	-1.313	yaw rate:	-55.833	Roll:	2.028	Pitch:	0.742	Yaw:	-14.322	Thrust:	46.183
Time:	4.998	Roll Set Point:	-0.201	Pitch Set Point:	0.042	Yaw Set Point:	0.029	X_WP:	0.100	Y_WP:	0.000	Y_WP:	0.500	X:	0.150	Y:	-0.022	Z:	0.660	yaw:	-1.653	yaw rate:	-34.002	Roll:	1.598	Pitch:	-0.040	Yaw:	-8.241	Thrust:	54.256
Time:	5.009	Roll Set Point:	-0.201	Pitch Set Point:	0.041	Yaw Set Point:	0.023	X_WP:	0.100	Y_WP:	0.000	Y_WP:	0.500	X:	0.150	Y:	-0.021	Z:	0.659	yaw:	-1.295	yaw rate:	35.782	Roll:	1.310	Pitch:	-0.487	Yaw:	6.776	Thrust:	53.869
Time:	5.019	Roll Set Point:	-0.201	Pitch Set Point:	0.041	Yaw Set Point:	0.024	X_WP:	0.100	Y_WP:	0.000	Y_WP:	0.500	X:	0.150	Y:	-0.021	Z:	0.658	yaw:	-1.394	yaw rate:	-9.914	Roll:	1.350	Pitch:	-0.151	Yaw:	-3.860	Thrust:	42.951
Time:	5.032	Roll Set Point:	-0.200	Pitch Set Point:	0.041	Yaw Set Point:	0.016	X_WP:	0.100	Y_WP:	0.000	Y_WP:	0.500	X:	0.150	Y:	-0.021	Z:	0.657	yaw:	-0.890	yaw rate:	50.460	Roll:	1.188	Pitch:	-0.698	Yaw:	9.753	Thrust:	57.075
Time:	5.044	Roll Set Point:	-0.200	Pitch Set Point:	0.040	Yaw Set Point:	0.027	X_WP:	0.100	Y_WP:	0.000	Y_WP:	0.500	X:	0.150	Y:	-0.021	Z:	0.656	yaw:	-1.562	yaw rate:	-67.210	Roll:	1.886	Pitch:	0.527	Yaw:	-15.952	Thrust:	51.505
Time:	5.055	Roll Set Point:	-0.199	Pitch Set Point:	0.040	Yaw Set Point:	0.017	X_WP:	0.100	Y_WP:	0.000	Y_WP:	0.500	X:	0.149	Y:	-0.021	Z:	0.654	yaw:	-0.962	yaw rate:	59.948	Roll:	0.747	Pitch:	-0.983	Yaw:	13.610	Thrust:	50.447
Time:	5.066	Roll Set Point:	-0.200	Pitch Set Point:	0.040	Yaw Set Point:	0.025	X_WP:	0.100	Y_WP:	0.000	Y_WP:	0.500	X:	0.150	Y:	-0.020	Z:	0.653	yaw:	-1.449	yaw rate:	-48.680	Roll:	1.927	Pitch:	0.584	Yaw:	-12.854	Thrust:	50.630
Time:	5.077	Roll Set Point:	-0.199	Pitch Set Point:	0.039	Yaw Set Point:	0.022	X_WP:	0.100	Y_WP:	0.000	Y_WP:	0.500	X:	0.149	Y:	-0.020	Z:	0.652	yaw:	-1.283	yaw rate:	16.630	Roll:	1.177	Pitch:	-0.259	Yaw:	2.735	Thrust:	50.978
Time:	5.091	Roll Set Point:	-0.199	Pitch Set Point:	0.039	Yaw Set Point:	0.029	X_WP:	0.100	Y_WP:	0.000	Y_WP:	0.500	X:	0.149	Y:	-0.020	Z:	0.650	yaw:	-1.657	yaw rate:	-37.382	Roll:	1.869	Pitch:	-0.004	Yaw:	-8.977	Thrust:	57.199
Time:	5.105	Roll Set Point:	-0.199	Pitch Set Point:	0.039	Yaw Set Point:	0.024	X_WP:	0.100	Y_WP:	0.000	Y_WP:	0.500	X:	0.149	Y:	-0.020	Z:	0.649	yaw:	-1.357	yaw rate:	29.997	Roll:	1.148	Pitch:	-0.426	Yaw:	4.600	Thrust:	61.965
Time:	5.116	Roll Set Point:	-0.199	Pitch Set Point:	0.039	Yaw Set Point:	0.020	X_WP:	0.100	Y_WP:	0.000	Y_WP:	0.500	X:	0.149	Y:	-0.020	Z:	0.647	yaw:	-1.150	yaw rate:	20.648	Roll:	1.734	Pitch:	-0.570	Yaw:	3.990	Thrust:	49.286
Time:	5.129	Roll Set Point:	-0.198	Pitch Set Point:	0.038	Yaw Set Point:	0.030	X_WP:	0.100	Y_WP:	0.000	Y_WP:	0.500	X:	0.149	Y:	-0.020	Z:	0.645	yaw:	-1.740	yaw rate:	-58.978	Roll:	1.450	Pitch:	0.395	Yaw:	-13.412	Thrust:	58.498
Time:	5.143	Roll Set Point:	-0.197	Pitch Set Point:	0.038	Yaw Set Point:	0.020	X_WP:	0.100	Y_WP:	0.000	Y_WP:	0.500	X:	0.149	Y:	-0.020	Z:	0.642	yaw:	-1.135	yaw rate:	60.479	Roll:	0.969	Pitch:	-0.840	Yaw:	11.283	Thrust:	65.472
Time:	5.153	Roll Set Point:	-0.198	Pitch Set Point:	0.037	Yaw Set Point:	0.032	X_WP:	0.100	Y_WP:	0.000	Y_WP:	0.500	X:	0.149	Y:	-0.019	Z:	0.638	yaw:	-1.842	yaw rate:	-52.223	Roll:	2.026	Pitch:	1.008	Yaw:	-17.900	Thrust:	61.183
Time:	5.166	Roll Set Point:	-0.198	Pitch Set Point:	0.037	Yaw Set Point:	0.027	X_WP:	0.100	Y_WP:	0.000	Y_WP:	0.500	X:	0.149	Y:	-0.019	Z:	0.635	yaw:	-1.535	yaw rate:	30.753	Roll:	1.534	Pitch:	-0.488	Yaw:	5.290	Thrust:	55.627
Time:	5.177	Roll Set Point:	-0.197	Pitch Set Point:	0.036	Yaw Set Point:	0.027	X_WP:	0.100	Y_WP:	0.000	Y_WP:	0.500	X:	0.148	Y:	-0.019	Z:	0.633	yaw:	-1.531	yaw rate:	0.314	Roll:	1.116	Pitch:	-0.142	Yaw:	-1.363	Thrust:	53.545
Time:	5.190	Roll Set Point:	-0.197	Pitch Set Point:	0.036	Yaw Set Point:	0.034	X_WP:	0.100	Y_WP:	0.000	Y_WP:	0.500	X:	0.148	Y:	-0.019	Z:	0.631	yaw:	-1.949	yaw rate:	-41.803	Roll:	1.824	Pitch:	0.123	Yaw:	-11.081	Thrust:	52.022
Time:	5.202	Roll Set Point:	-0.197	Pitch Set Point:	0.036	Yaw Set Point:	0.030	X_WP:	0.100	Y_WP:	0.000	Y_WP:	0.500	X:	0.148	Y:	-0.019	Z:	0.629	yaw:	-1.730	yaw rate:	21.945	Roll:	1.425	Pitch:	-0.421	Yaw:	2.641	Thrust:	65.886
Time:	5.215	Roll Set Point:	-0.197	Pitch Set Point:	0.036	Yaw Set Point:	0.023	X_WP:	0.100	Y_WP:	0.000	Y_WP:	0.500	X:	0.148	Y:	-0.019	Z:	0.626	yaw:	-1.341	yaw rate:	38.914	Roll:	1.652	Pitch:	-0.602	Yaw:	7.266	Thrust:	55.763
Time:	5.232	Roll Set Point:	-0.197	Pitch Set Point:	0.035	Yaw Set Point:	0.034	X_WP:	0.100	Y_WP:	0.000	Y_WP:	0.500	X:	0.148	Y:	-0.018	Z:	0.622	yaw:	-1.947	yaw rate:	-60.651	Roll:	1.307	Pitch:	0.383	Yaw:	-11.029	Thrust:	80.438
Time:	5.244	Roll Set Point:	-0.196	Pitch Set Point:	0.035	Yaw Set Point:	0.029	X_WP:	0.100	Y_WP:	0.000	Y_WP:	0.500	X:	0.148	Y:	-0.018	Z:	0.617	yaw:	-1.636	yaw rate:	-13.995	Roll:	1.483	Pitch:	-0.380	Yaw:	5.055	Thrust:	67.002
Time:	5.264	Roll Set Point:	-0.196	Pitch Set Point:	0.035	Yaw Set Point:	0.030	X_WP:	0.100	Y_WP:	0.000	Y_WP:	0.500	X:	0.148	Y:	-0.018	Z:	0.615	yaw:	-1.729	yaw rate:	-9.225	Roll:	1.513	Pitch:	-0.225	Yaw:	-2.997	Thrust:	62.138
Time:	5.278	Roll Set Point:	-0.195	Pitch Set Point:	0.035	Yaw Set Point:	0.022	X_WP:	0.100	Y_WP:	0.000	Y_WP:	0.500	X:	0.147	Y:	-0.018	Z:	0.610	yaw:	-1.234	yaw rate:	59.415	Roll:	1.277	Pitch:	-0.673	Yaw:	6.838	Thrust:	91.745
Time:	5.291	Roll Set Point:	-0.196	Pitch Set Point:	0.034	Yaw Set Point:	0.032	X_WP:	0.100	Y_WP:	0.000	Y_WP:	0.500	X:	0.148	Y:	-0.018	Z:	0.608	yaw:	-1.826	yaw rate:	-59.182	Roll:	2.153	Pitch:	0.467	Yaw:	-12.797	Thrust:	59.227
Time:	5.306	Roll Set Point:	-0.196	Pitch Set Point:	0.034	Yaw Set Point:	0.030	X_WP:	0.100	Y_WP:	0.000	Y_WP:	0.500	X:	0.148	Y:	-0.018	Z:	0.606	yaw:	-1.747	yaw rate:	7.903	Roll:	1.538	Pitch:	-0.327	Yaw:	-0.204	Thrust:	67.155
Time:	5.319	Roll Set Point:	-0.196	Pitch Set Point:	0.034	Yaw Set Point:	0.024	X_WP:	0.100	Y_WP:	0.000	Y_WP:	0.500	X:	0.148	Y:	-0.018	Z:	0.602	yaw:	-1.400	yaw rate:	4.982	Roll:	1.548	Pitch:	-0.464	Yaw:	5.553	Thrust:	65.347
Time:	5.333	Roll Set Point:	-0.195	Pitch Set Point:	0.034	Yaw Set Point:	0.025	X_WP:	0.100	Y_WP:	0.000	Y_WP:	0.500	X:	0.147	Y:	-0.018	Z:	0.598	yaw:	-1.456	yaw rate:	-5.618	Roll:	1.120	Pitch:	-0.176	Yaw:	-2.445	Thrust:	68.112
Time:	5.345	Roll Set Point:	-0.195	Pitch Set Point:	0.034	Yaw Set Point:	0.022	X_WP:	0.100	Y_WP:	0.000	Y_WP:	0.500	X:	0.147	Y:	-0.018	Z:	0.597	yaw:	-1.269	yaw rate:	18.735	Roll:	1.715	Pitch:	-0.517	Yaw:	3.107	Thrust:	50.179
Time:	5.365	Roll Set Point:	-0.195	Pitch Set Point:	0.034	Yaw Set Point:	0.020	X_WP:	0.100	Y_WP:	0.000	Y_WP:	0.500	X:	0.147	Y:	-0.018	Z:	0.595	yaw:	-1.174	yaw rate:	9.545	Roll:	1.274	Pitch:	-0.492	Yaw:	0.683	Thrust:	77.179
Time:	5.377	Roll Set Point:	-0.195	Pitch Set Point:	0.033	Yaw Set Point:	0.027	X_WP:	0.100	Y_WP:	0.000	Y_WP:	0.500	X:	0.147	Y:	-0.017	Z:	0.593	yaw:	-1.575	yaw rate:	-8.882	Roll:	1.840	Pitch:	0.372	Yaw:	-9.906	Thrust:	67.011
Time:	5.391	Roll Set Point:	-0.195	Pitch Set Point:	0.033	Yaw Set Point:	0.026	X_WP:	0.100	Y_WP:	0.000	Y_WP:	0.500	X:	0.147	Y:	-0.017	Z:	0.592	yaw:	-1.496	yaw rate:	7.909	Roll:	1.465	Pitch:	-0.267	Yaw:	0.128	Thrust:	54.442
Time:	5.404	Roll Set Point:	-0.195	Pitch Set Point:	0.033	Yaw Set Point:	0.025	X_WP:	0.100	Y_WP:	0.000	Y_WP:	0.500	X:	0.147	Y:	-0.017	Z:	0.591	yaw:	-1.439	yaw rate:	5.631	Roll:	1.600	Pitch:	-0.282	Yaw:	-0.178	Thrust:	56.041
