Time:	2.458	Roll Set Point:	-0.015	Pitch Set Point:	0.029	Yaw Set Point:	-2.958	X_WP:	0.000	Y_WP:	0.000	Y_WP:	0.500	X:	0.163	Y:	0.069	Z:	0.401	yaw:	169.484	yaw rate:	1.424	Roll:	-4.280	Pitch:	-2.820	Yaw:	236.644	Thrust:	5.453
Time:	2.489	Roll Set Point:	-0.015	Pitch Set Point:	0.029	Yaw Set Point:	-2.958	X_WP:	0.000	Y_WP:	0.000	Y_WP:	0.500	X:	0.163	Y:	0.069	Z:	0.401	yaw:	169.462	yaw rate:	-2.683	Roll:	-4.278	Pitch:	-2.871	Yaw:	238.285	Thrust:	5.763
Time:	2.520	Roll Set Point:	-0.015	Pitch Set Point:	0.029	Yaw Set Point:	-2.958	X_WP:	0.000	Y_WP:	0.000	Y_WP:	0.500	X:	0.163	Y:	0.069	Z:	0.401	yaw:	169.481	yaw rate:	1.819	Roll:	-4.315	Pitch:	-2.796	Yaw:	239.918	Thrust:	6.196
Time:	2.551	Roll Set Point:	-0.015	Pitch Set Point:	0.029	Yaw Set Point:	-2.958	X_WP:	0.000	Y_WP:	0.000	Y_WP:	0.500	X:	0.163	Y:	0.069	Z:	0.401	yaw:	169.482	yaw rate:	0.100	Roll:	-4.317	Pitch:	-2.861	Yaw:	239.775	Thrust:	6.542
Time:	2.596	Roll Set Point:	-0.015	Pitch Set Point:	0.029	Yaw Set Point:	-2.958	X_WP:	0.000	Y_WP:	0.000	Y_WP:	0.500	X:	0.163	Y:	0.069	Z:	0.401	yaw:	169.468	yaw rate:	-3.002	Roll:	-4.330	Pitch:	-2.882	Yaw:	241.018	Thrust:	7.565
Time:	2.628	Roll Set Point:	-0.015	Pitch Set Point:	0.029	Yaw Set Point:	-2.958	X_WP:	0.000	Y_WP:	0.000	Y_WP:	0.500	X:	0.163	Y:	0.069	Z:	0.401	yaw:	169.492	yaw rate:	2.391	Roll:	-4.360	Pitch:	-2.817	Yaw:	239.983	Thrust:	7.399
Time:	2.659	Roll Set Point:	-0.015	Pitch Set Point:	0.029	Yaw Set Point:	-2.958	X_WP:	0.000	Y_WP:	0.000	Y_WP:	0.500	X:	0.163	Y:	0.069	Z:	0.401	yaw:	169.471	yaw rate:	-2.078	Roll:	-4.326	Pitch:	-2.892	Yaw:	239.577	Thrust:	7.625
Time:	2.690	Roll Set Point:	-0.015	Pitch Set Point:	0.029	Yaw Set Point:	-2.958	X_WP:	0.000	Y_WP:	0.000	Y_WP:	0.500	X:	0.163	Y:	0.069	Z:	0.401	yaw:	169.472	yaw rate:	0.159	Roll:	-4.347	Pitch:	-2.883	Yaw:	239.763	Thrust:	8.043
Time:	2.721	Roll Set Point:	-0.015	Pitch Set Point:	0.029	Yaw Set Point:	-2.958	X_WP:	0.000	Y_WP:	0.000	Y_WP:	0.500	X:	0.163	Y:	0.069	Z:	0.401	yaw:	169.485	yaw rate:	0.404	Roll:	-4.417	Pitch:	-2.851	Yaw:	239.883	Thrust:	8.464
Time:	2.753	Roll Set Point:	-0.015	Pitch Set Point:	0.029	Yaw Set Point:	-2.958	X_WP:	0.000	Y_WP:	0.000	Y_WP:	0.500	X:	0.163	Y:	0.069	Z:	0.401	yaw:	169.473	yaw rate:	-1.195	Roll:	-4.361	Pitch:	-2.916	Yaw:	239.652	Thrust:	8.811
Time:	2.784	Roll Set Point:	-0.015	Pitch Set Point:	0.029	Yaw Set Point:	-2.958	X_WP:	0.000	Y_WP:	0.000	Y_WP:	0.500	X:	0.163	Y:	0.069	Z:	0.401	yaw:	169.493	yaw rate:	1.951	Roll:	-4.414	Pitch:	-2.870	Yaw:	239.945	Thrust:	9.118
Time:	2.815	Roll Set Point:	-0.015	Pitch Set Point:	0.029	Yaw Set Point:	-2.958	X_WP:	0.000	Y_WP:	0.000	Y_WP:	0.500	X:	0.163	Y:	0.069	Z:	0.401	yaw:	169.483	yaw rate:	-0.946	Roll:	-4.397	Pitch:	-2.905	Yaw:	239.693	Thrust:	9.554
Time:	2.846	Roll Set Point:	-0.015	Pitch Set Point:	0.029	Yaw Set Point:	-2.958	X_WP:	0.000	Y_WP:	0.000	Y_WP:	0.500	X:	0.163	Y:	0.069	Z:	0.401	yaw:	169.471	yaw rate:	-1.200	Roll:	-4.398	Pitch:	-2.947	Yaw:	239.648	Thrust:	9.948
Time:	2.878	Roll Set Point:	-0.015	Pitch Set Point:	0.029	Yaw Set Point:	-2.958	X_WP:	0.000	Y_WP:	0.000	Y_WP:	0.500	X:	0.163	Y:	0.069	Z:	0.401	yaw:	169.484	yaw rate:	1.230	Roll:	-4.441	Pitch:	-2.890	Yaw:	239.872	Thrust:	10.200
Time:	2.909	Roll Set Point:	-0.015	Pitch Set Point:	0.029	Yaw Set Point:	-2.958	X_WP:	0.000	Y_WP:	0.000	Y_WP:	0.500	X:	0.163	Y:	0.069	Z:	0.401	yaw:	169.471	yaw rate:	-1.311	Roll:	-4.436	Pitch:	-2.947	Yaw:	239.641	Thrust:	10.699
Time:	2.940	Roll Set Point:	-0.015	Pitch Set Point:	0.029	Yaw Set Point:	-2.958	X_WP:	0.000	Y_WP:	0.000	Y_WP:	0.500	X:	0.163	Y:	0.069	Z:	0.401	yaw:	169.467	yaw rate:	-2.987	Roll:	-4.432	Pitch:	-2.945	Yaw:	239.715	Thrust:	11.032
Time:	2.971	Roll Set Point:	-0.015	Pitch Set Point:	0.029	Yaw Set Point:	-2.958	X_WP:	0.000	Y_WP:	0.000	Y_WP:	0.500	X:	0.163	Y:	0.069	Z:	0.401	yaw:	169.492	yaw rate:	2.519	Roll:	-4.518	Pitch:	-2.899	Yaw:	239.995	Thrust:	11.444
Time:	3.003	Roll Set Point:	-0.015	Pitch Set Point:	0.029	Yaw Set Point:	-2.958	X_WP:	0.000	Y_WP:	0.000	Y_WP:	0.500	X:	0.163	Y:	0.069	Z:	0.401	yaw:	169.483	yaw rate:	-0.862	Roll:	-4.442	Pitch:	-2.966	Yaw:	239.694	Thrust:	11.723
Time:	3.034	Roll Set Point:	-0.015	Pitch Set Point:	0.029	Yaw Set Point:	-2.958	X_WP:	0.000	Y_WP:	0.000	Y_WP:	0.500	X:	0.163	Y:	0.069	Z:	0.401	yaw:	169.478	yaw rate:	-2.162	Roll:	-4.502	Pitch:	-2.959	Yaw:	239.718	Thrust:	12.196
Time:	3.065	Roll Set Point:	-0.015	Pitch Set Point:	0.029	Yaw Set Point:	-2.958	X_WP:	0.000	Y_WP:	0.000	Y_WP:	0.500	X:	0.163	Y:	0.069	Z:	0.401	yaw:	169.495	yaw rate:	2.001	Roll:	-4.511	Pitch:	-2.957	Yaw:	239.925	Thrust:	12.420
Time:	3.096	Roll Set Point:	-0.015	Pitch Set Point:	0.029	Yaw Set Point:	-2.958	X_WP:	0.000	Y_WP:	0.000	Y_WP:	0.500	X:	0.163	Y:	0.069	Z:	0.401	yaw:	169.489	yaw rate:	-0.605	Roll:	-4.507	Pitch:	-2.971	Yaw:	239.729	Thrust:	12.968
Time:	3.128	Roll Set Point:	-0.015	Pitch Set Point:	0.029	Yaw Set Point:	-2.958	X_WP:	0.000	Y_WP:	0.000	Y_WP:	0.500	X:	0.163	Y:	0.069	Z:	0.401	yaw:	169.470	yaw rate:	-1.880	Roll:	-4.502	Pitch:	-3.006	Yaw:	239.590	Thrust:	13.208
Time:	3.159	Roll Set Point:	-0.015	Pitch Set Point:	0.028	Yaw Set Point:	-2.959	X_WP:	0.000	Y_WP:	0.000	Y_WP:	0.500	X:	0.163	Y:	0.069	Z:	0.401	yaw:	169.515	yaw rate:	4.531	Roll:	-4.585	Pitch:	-2.931	Yaw:	240.196	Thrust:	13.745
Time:	3.190	Roll Set Point:	-0.015	Pitch Set Point:	0.029	Yaw Set Point:	-2.958	X_WP:	0.000	Y_WP:	0.000	Y_WP:	0.500	X:	0.163	Y:	0.069	Z:	0.401	yaw:	169.491	yaw rate:	-2.392	Roll:	-4.518	Pitch:	-3.004	Yaw:	239.577	Thrust:	13.869
Time:	3.221	Roll Set Point:	-0.015	Pitch Set Point:	0.029	Yaw Set Point:	-2.958	X_WP:	0.000	Y_WP:	0.000	Y_WP:	0.500	X:	0.163	Y:	0.069	Z:	0.401	yaw:	169.476	yaw rate:	0.188	Roll:	-4.530	Pitch:	-3.054	Yaw:	239.629	Thrust:	14.405
Time:	3.253	Roll Set Point:	-0.015	Pitch Set Point:	0.029	Yaw Set Point:	-2.958	X_WP:	0.000	Y_WP:	0.000	Y_WP:	0.500	X:	0.163	Y:	0.069	Z:	0.401	yaw:	169.481	yaw rate:	0.495	Roll:	-4.587	Pitch:	-2.981	Yaw:	239.806	Thrust:	14.679
Time:	3.284	Roll Set Point:	-0.015	Pitch Set Point:	0.029	Yaw Set Point:	-2.958	X_WP:	0.000	Y_WP:	0.000	Y_WP:	0.500	X:	0.163	Y:	0.069	Z:	0.401	yaw:	169.487	yaw rate:	0.638	Roll:	-4.581	Pitch:	-3.028	Yaw:	239.831	Thrust:	15.185
Time:	3.315	Roll Set Point:	-0.015	Pitch Set Point:	0.029	Yaw Set Point:	-2.958	X_WP:	0.000	Y_WP:	0.000	Y_WP:	0.500	X:	0.163	Y:	0.069	Z:	0.401	yaw:	169.501	yaw rate:	1.295	Roll:	-4.609	Pitch:	-3.006	Yaw:	239.904	Thrust:	15.472
Time:	3.346	Roll Set Point:	-0.015	Pitch Set Point:	0.029	Yaw Set Point:	-2.958	X_WP:	0.000	Y_WP:	0.000	Y_WP:	0.500	X:	0.163	Y:	0.069	Z:	0.401	yaw:	169.486	yaw rate:	-0.561	Roll:	-4.586	Pitch:	-3.055	Yaw:	239.647	Thrust:	15.857
Time:	3.378	Roll Set Point:	-0.015	Pitch Set Point:	0.029	Yaw Set Point:	-2.958	X_WP:	0.000	Y_WP:	0.000	Y_WP:	0.500	X:	0.163	Y:	0.069	Z:	0.401	yaw:	169.486	yaw rate:	-0.031	Roll:	-4.614	Pitch:	-3.034	Yaw:	239.769	Thrust:	16.241
Time:	3.409	Roll Set Point:	-0.015	Pitch Set Point:	0.029	Yaw Set Point:	-2.958	X_WP:	0.000	Y_WP:	0.000	Y_WP:	0.500	X:	0.163	Y:	0.069	Z:	0.401	yaw:	169.471	yaw rate:	-1.482	Roll:	-4.583	Pitch:	-3.088	Yaw:	239.627	Thrust:	16.559
Time:	3.440	Roll Set Point:	-0.015	Pitch Set Point:	0.029	Yaw Set Point:	-2.958	X_WP:	0.000	Y_WP:	0.000	Y_WP:	0.500	X:	0.163	Y:	0.069	Z:	0.401	yaw:	169.509	yaw rate:	3.835	Roll:	-4.703	Pitch:	-2.970	Yaw:	240.126	Thrust:	17.049
Time:	3.471	Roll Set Point:	-0.015	Pitch Set Point:	0.029	Yaw Set Point:	-2.958	X_WP:	0.000	Y_WP:	0.000	Y_WP:	0.500	X:	0.163	Y:	0.069	Z:	0.401	yaw:	169.488	yaw rate:	2.056	Roll:	-4.613	Pitch:	-3.125	Yaw:	239.600	Thrust:	17.347
Time:	3.503	Roll Set Point:	-0.015	Pitch Set Point:	0.029	Yaw Set Point:	-2.958	X_WP:	0.000	Y_WP:	0.000	Y_WP:	0.500	X:	0.163	Y:	0.069	Z:	0.401	yaw:	169.491	yaw rate:	1.719	Roll:	-4.689	Pitch:	-3.053	Yaw:	239.808	Thrust:	17.752
Time:	3.534	Roll Set Point:	-0.015	Pitch Set Point:	0.029	Yaw Set Point:	-2.958	X_WP:	0.000	Y_WP:	0.000	Y_WP:	0.500	X:	0.163	Y:	0.069	Z:	0.401	yaw:	169.476	yaw rate:	-1.538	Roll:	-4.627	Pitch:	-3.101	Yaw:	239.629	Thrust:	17.946
Time:	3.565	Roll Set Point:	-0.015	Pitch Set Point:	0.029	Yaw Set Point:	-2.958	X_WP:	0.000	Y_WP:	0.000	Y_WP:	0.500	X:	0.163	Y:	0.069	Z:	0.401	yaw:	169.489	yaw rate:	1.362	Roll:	-4.721	Pitch:	-3.070	Yaw:	239.893	Thrust:	18.546
Time:	3.596	Roll Set Point:	-0.015	Pitch Set Point:	0.029	Yaw Set Point:	-2.958	X_WP:	0.000	Y_WP:	0.000	Y_WP:	0.500	X:	0.163	Y:	0.069	Z:	0.401	yaw:	169.458	yaw rate:	-3.366	Roll:	-4.663	Pitch:	-3.134	Yaw:	239.444	Thrust:	18.768
Time:	3.627	Roll Set Point:	-0.015	Pitch Set Point:	0.029	Yaw Set Point:	-2.958	X_WP:	0.000	Y_WP:	0.000	Y_WP:	0.500	X:	0.163	Y:	0.069	Z:	0.401	yaw:	169.471	yaw rate:	-1.923	Roll:	-4.716	Pitch:	-3.106	Yaw:	239.858	Thrust:	19.240
Time:	3.659	Roll Set Point:	-0.015	Pitch Set Point:	0.029	Yaw Set Point:	-2.958	X_WP:	0.000	Y_WP:	0.000	Y_WP:	0.500	X:	0.163	Y:	0.069	Z:	0.401	yaw:	169.470	yaw rate:	-0.012	Roll:	-4.701	Pitch:	-3.089	Yaw:	239.750	Thrust:	19.512
Time:	3.690	Roll Set Point:	-0.015	Pitch Set Point:	0.029	Yaw Set Point:	-2.958	X_WP:	0.000	Y_WP:	0.000	Y_WP:	0.500	X:	0.163	Y:	0.069	Z:	0.401	yaw:	169.490	yaw rate:	1.916	Roll:	-4.771	Pitch:	-3.099	Yaw:	239.938	Thrust:	19.980
Time:	3.721	Roll Set Point:	-0.015	Pitch Set Point:	0.029	Yaw Set Point:	-2.958	X_WP:	0.000	Y_WP:	0.000	Y_WP:	0.500	X:	0.163	Y:	0.069	Z:	0.401	yaw:	169.474	yaw rate:	0.221	Roll:	-4.705	Pitch:	-3.139	Yaw:	239.624	Thrust:	20.290
Time:	3.752	Roll Set Point:	-0.015	Pitch Set Point:	0.029	Yaw Set Point:	-2.958	X_WP:	0.000	Y_WP:	0.000	Y_WP:	0.500	X:	0.163	Y:	0.069	Z:	0.401	yaw:	169.490	yaw rate:	1.651	Roll:	-4.773	Pitch:	-3.110	Yaw:	239.917	Thrust:	20.680
Time:	3.784	Roll Set Point:	-0.015	Pitch Set Point:	0.029	Yaw Set Point:	-2.958	X_WP:	0.000	Y_WP:	0.000	Y_WP:	0.500	X:	0.163	Y:	0.069	Z:	0.401	yaw:	169.486	yaw rate:	0.337	Roll:	-4.765	Pitch:	-3.153	Yaw:	239.738	Thrust:	21.092
Time:	3.815	Roll Set Point:	-0.015	Pitch Set Point:	0.029	Yaw Set Point:	-2.958	X_WP:	0.000	Y_WP:	0.000	Y_WP:	0.500	X:	0.163	Y:	0.069	Z:	0.401	yaw:	169.505	yaw rate:	0.512	Roll:	-4.815	Pitch:	-3.115	Yaw:	239.956	Thrust:	21.420
Time:	3.846	Roll Set Point:	-0.015	Pitch Set Point:	0.029	Yaw Set Point:	-2.958	X_WP:	0.000	Y_WP:	0.000	Y_WP:	0.500	X:	0.163	Y:	0.069	Z:	0.401	yaw:	169.481	yaw rate:	-2.407	Roll:	-4.732	Pitch:	-3.197	Yaw:	239.564	Thrust:	21.826
Time:	3.878	Roll Set Point:	-0.015	Pitch Set Point:	0.029	Yaw Set Point:	-2.958	X_WP:	0.000	Y_WP:	0.000	Y_WP:	0.500	X:	0.163	Y:	0.069	Z:	0.401	yaw:	169.491	yaw rate:	1.003	Roll:	-4.832	Pitch:	-3.123	Yaw:	239.866	Thrust:	22.168
Time:	3.909	Roll Set Point:	-0.015	Pitch Set Point:	0.029	Yaw Set Point:	-2.958	X_WP:	0.000	Y_WP:	0.000	Y_WP:	0.500	X:	0.163	Y:	0.069	Z:	0.401	yaw:	169.474	yaw rate:	-1.672	Roll:	-4.791	Pitch:	-3.231	Yaw:	239.613	Thrust:	22.573
Time:	3.940	Roll Set Point:	-0.015	Pitch Set Point:	0.029	Yaw Set Point:	-2.958	X_WP:	0.000	Y_WP:	0.000	Y_WP:	0.500	X:	0.163	Y:	0.069	Z:	0.401	yaw:	169.475	yaw rate:	-0.928	Roll:	-4.811	Pitch:	-3.169	Yaw:	239.760	Thrust:	22.872
Time:	3.971	Roll Set Point:	-0.015	Pitch Set Point:	0.029	Yaw Set Point:	-2.958	X_WP:	0.000	Y_WP:	0.000	Y_WP:	0.500	X:	0.163	Y:	0.069	Z:	0.401	yaw:	169.474	yaw rate:	-2.369	Roll:	-4.845	Pitch:	-3.175	Yaw:	239.746	Thrust:	23.276
Time:	4.002	Roll Set Point:	-0.015	Pitch Set Point:	0.029	Yaw Set Point:	-2.958	X_WP:	0.000	Y_WP:	0.000	Y_WP:	0.500	X:	0.163	Y:	0.069	Z:	0.401	yaw:	169.485	yaw rate:	1.180	Roll:	-4.868	Pitch:	-3.186	Yaw:	239.870	Thrust:	23.672
Time:	4.034	Roll Set Point:	-0.015	Pitch Set Point:	0.029	Yaw Set Point:	-2.958	X_WP:	0.000	Y_WP:	0.000	Y_WP:	0.500	X:	0.163	Y:	0.069	Z:	0.401	yaw:	169.494	yaw rate:	0.840	Roll:	-4.862	Pitch:	-3.176	Yaw:	239.854	Thrust:	24.085
Time:	4.065	Roll Set Point:	-0.015	Pitch Set Point:	0.029	Yaw Set Point:	-2.958	X_WP:	0.000	Y_WP:	0.000	Y_WP:	0.500	X:	0.163	Y:	0.069	Z:	0.401	yaw:	169.476	yaw rate:	-1.810	Roll:	-4.825	Pitch:	-3.239	Yaw:	239.607	Thrust:	24.352
Time:	4.096	Roll Set Point:	-0.015	Pitch Set Point:	0.029	Yaw Set Point:	-2.958	X_WP:	0.000	Y_WP:	0.000	Y_WP:	0.500	X:	0.163	Y:	0.069	Z:	0.401	yaw:	169.489	yaw rate:	1.297	Roll:	-4.908	Pitch:	-3.192	Yaw:	239.885	Thrust:	24.838
Time:	4.128	Roll Set Point:	-0.015	Pitch Set Point:	0.029	Yaw Set Point:	-2.958	X_WP:	0.000	Y_WP:	0.000	Y_WP:	0.500	X:	0.163	Y:	0.069	Z:	0.401	yaw:	169.485	yaw rate:	-0.392	Roll:	-4.880	Pitch:	-3.235	Yaw:	239.738	Thrust:	25.143
Time:	4.159	Roll Set Point:	-0.015	Pitch Set Point:	0.029	Yaw Set Point:	-2.958	X_WP:	0.000	Y_WP:	0.000	Y_WP:	0.500	X:	0.163	Y:	0.069	Z:	0.401	yaw:	169.498	yaw rate:	1.713	Roll:	-4.910	Pitch:	-3.215	Yaw:	239.899	Thrust:	25.524
Time:	4.190	Roll Set Point:	-0.015	Pitch Set Point:	0.029	Yaw Set Point:	-2.958	X_WP:	0.000	Y_WP:	0.000	Y_WP:	0.500	X:	0.163	Y:	0.069	Z:	0.401	yaw:	169.486	yaw rate:	-1.213	Roll:	-4.907	Pitch:	-3.262	Yaw:	239.671	Thrust:	25.913
Time:	4.221	Roll Set Point:	-0.015	Pitch Set Point:	0.029	Yaw Set Point:	-2.958	X_WP:	0.000	Y_WP:	0.000	Y_WP:	0.500	X:	0.163	Y:	0.069	Z:	0.401	yaw:	169.481	yaw rate:	-1.538	Roll:	-4.923	Pitch:	-3.239	Yaw:	239.728	Thrust:	26.221
Time:	4.253	Roll Set Point:	-0.015	Pitch Set Point:	0.029	Yaw Set Point:	-2.958	X_WP:	0.000	Y_WP:	0.000	Y_WP:	0.500	X:	0.163	Y:	0.069	Z:	0.401	yaw:	169.478	yaw rate:	-1.335	Roll:	-4.918	Pitch:	-3.274	Yaw:	239.734	Thrust:	26.670
Time:	4.284	Roll Set Point:	-0.015	Pitch Set Point:	0.029	Yaw Set Point:	-2.958	X_WP:	0.000	Y_WP:	0.000	Y_WP:	0.500	X:	0.163	Y:	0.069	Z:	0.401	yaw:	169.489	yaw rate:	1.151	Roll:	-4.962	Pitch:	-3.232	Yaw:	239.869	Thrust:	26.982
Time:	4.315	Roll Set Point:	-0.015	Pitch Set Point:	0.029	Yaw Set Point:	-2.958	X_WP:	0.000	Y_WP:	0.000	Y_WP:	0.500	X:	0.163	Y:	0.069	Z:	0.401	yaw:	169.484	yaw rate:	0.567	Roll:	-4.964	Pitch:	-3.281	Yaw:	239.731	Thrust:	27.383
Time:	4.346	Roll Set Point:	-0.015	Pitch Set Point:	0.029	Yaw Set Point:	-2.958	X_WP:	0.000	Y_WP:	0.000	Y_WP:	0.500	X:	0.163	Y:	0.069	Z:	0.401	yaw:	169.489	yaw rate:	0.423	Roll:	-4.977	Pitch:	-3.258	Yaw:	239.812	Thrust:	27.756
Time:	4.378	Roll Set Point:	-0.015	Pitch Set Point:	0.029	Yaw Set Point:	-2.958	X_WP:	0.000	Y_WP:	0.000	Y_WP:	0.500	X:	0.163	Y:	0.069	Z:	0.401	yaw:	169.488	yaw rate:	-2.300	Roll:	-4.996	Pitch:	-3.310	Yaw:	239.769	Thrust:	28.111
Time:	4.409	Roll Set Point:	-0.015	Pitch Set Point:	0.029	Yaw Set Point:	-2.958	X_WP:	0.000	Y_WP:	0.000	Y_WP:	0.500	X:	0.163	Y:	0.069	Z:	0.401	yaw:	169.491	yaw rate:	0.261	Roll:	-5.005	Pitch:	-3.266	Yaw:	239.801	Thrust:	28.499
Time:	4.440	Roll Set Point:	-0.015	Pitch Set Point:	0.029	Yaw Set Point:	-2.958	X_WP:	0.000	Y_WP:	0.000	Y_WP:	0.500	X:	0.163	Y:	0.069	Z:	0.401	yaw:	169.480	yaw rate:	-1.101	Roll:	-4.990	Pitch:	-3.333	Yaw:	239.671	Thrust:	28.878
Time:	4.471	Roll Set Point:	-0.015	Pitch Set Point:	0.029	Yaw Set Point:	-2.958	X_WP:	0.000	Y_WP:	0.000	Y_WP:	0.500	X:	0.163	Y:	0.069	Z:	0.401	yaw:	169.485	yaw rate:	-0.801	Roll:	-5.017	Pitch:	-3.278	Yaw:	239.820	Thrust:	29.236
Time:	4.503	Roll Set Point:	-0.015	Pitch Set Point:	0.029	Yaw Set Point:	-2.958	X_WP:	0.000	Y_WP:	0.000	Y_WP:	0.500	X:	0.163	Y:	0.069	Z:	0.401	yaw:	169.463	yaw rate:	-2.663	Roll:	-5.008	Pitch:	-3.374	Yaw:	239.549	Thrust:	29.561
Time:	4.534	Roll Set Point:	-0.015	Pitch Set Point:	0.029	Yaw Set Point:	-2.958	X_WP:	0.000	Y_WP:	0.000	Y_WP:	0.500	X:	0.163	Y:	0.069	Z:	0.401	yaw:	169.492	yaw rate:	-0.180	Roll:	-5.079	Pitch:	-3.253	Yaw:	240.028	Thrust:	30.055
Time:	4.567	Roll Set Point:	-0.015	Pitch Set Point:	0.029	Yaw Set Point:	-2.958	X_WP:	0.000	Y_WP:	0.000	Y_WP:	0.500	X:	0.163	Y:	0.069	Z:	0.401	yaw:	169.490	yaw rate:	0.535	Roll:	-5.079	Pitch:	-3.389	Yaw:	239.916	Thrust:	31.562
Time:	4.596	Roll Set Point:	-0.015	Pitch Set Point:	0.029	Yaw Set Point:	-2.958	X_WP:	0.000	Y_WP:	0.000	Y_WP:	0.500	X:	0.163	Y:	0.069	Z:	0.401	yaw:	169.488	yaw rate:	-0.168	Roll:	-5.028	Pitch:	-3.301	Yaw:	239.609	Thrust:	29.569
Time:	4.628	Roll Set Point:	-0.015	Pitch Set Point:	0.029	Yaw Set Point:	-2.958	X_WP:	0.000	Y_WP:	0.000	Y_WP:	0.500	X:	0.163	Y:	0.069	Z:	0.401	yaw:	169.470	yaw rate:	-0.482	Roll:	-5.054	Pitch:	-3.372	Yaw:	239.602	Thrust:	31.087
Time:	4.661	Roll Set Point:	-0.015	Pitch Set Point:	0.029	Yaw Set Point:	-2.958	X_WP:	0.000	Y_WP:	0.000	Y_WP:	0.500	X:	0.163	Y:	0.069	Z:	0.401	yaw:	169.490	yaw rate:	3.497	Roll:	-5.172	Pitch:	-3.358	Yaw:	240.146	Thrust:	33.269
Time:	4.692	Roll Set Point:	-0.015	Pitch Set Point:	0.029	Yaw Set Point:	-2.958	X_WP:	0.000	Y_WP:	0.000	Y_WP:	0.500	X:	0.163	Y:	0.069	Z:	0.401	yaw:	169.485	yaw rate:	3.005	Roll:	-5.089	Pitch:	-3.364	Yaw:	239.736	Thrust:	31.809
Time:	4.724	Roll Set Point:	-0.015	Pitch Set Point:	0.029	Yaw Set Point:	-2.958	X_WP:	0.000	Y_WP:	0.000	Y_WP:	0.500	X:	0.163	Y:	0.069	Z:	0.401	yaw:	169.487	yaw rate:	0.188	Roll:	-5.121	Pitch:	-3.366	Yaw:	239.790	Thrust:	32.214
Time:	4.755	Roll Set Point:	-0.015	Pitch Set Point:	0.029	Yaw Set Point:	-2.958	X_WP:	0.000	Y_WP:	0.000	Y_WP:	0.500	X:	0.163	Y:	0.069	Z:	0.401	yaw:	169.466	yaw rate:	-2.118	Roll:	-5.097	Pitch:	-3.408	Yaw:	239.567	Thrust:	32.594
Time:	4.786	Roll Set Point:	-0.015	Pitch Set Point:	0.029	Yaw Set Point:	-2.958	X_WP:	0.000	Y_WP:	0.000	Y_WP:	0.500	X:	0.163	Y:	0.069	Z:	0.401	yaw:	169.468	yaw rate:	-0.391	Roll:	-5.136	Pitch:	-3.379	Yaw:	239.763	Thrust:	32.945
Time:	4.817	Roll Set Point:	-0.015	Pitch Set Point:	0.029	Yaw Set Point:	-2.958	X_WP:	0.000	Y_WP:	0.000	Y_WP:	0.500	X:	0.163	Y:	0.069	Z:	0.401	yaw:	169.485	yaw rate:	1.659	Roll:	-5.146	Pitch:	-3.369	Yaw:	239.910	Thrust:	33.313
Time:	4.849	Roll Set Point:	-0.015	Pitch Set Point:	0.029	Yaw Set Point:	-2.958	X_WP:	0.000	Y_WP:	0.000	Y_WP:	0.500	X:	0.163	Y:	0.069	Z:	0.401	yaw:	169.470	yaw rate:	-1.512	Roll:	-5.145	Pitch:	-3.436	Yaw:	239.623	Thrust:	33.743
Time:	4.880	Roll Set Point:	-0.015	Pitch Set Point:	0.029	Yaw Set Point:	-2.958	X_WP:	0.000	Y_WP:	0.000	Y_WP:	0.500	X:	0.163	Y:	0.069	Z:	0.401	yaw:	169.508	yaw rate:	3.820	Roll:	-5.231	Pitch:	-3.332	Yaw:	240.123	Thrust:	34.093
Time:	4.911	Roll Set Point:	-0.015	Pitch Set Point:	0.029	Yaw Set Point:	-2.958	X_WP:	0.000	Y_WP:	0.000	Y_WP:	0.500	X:	0.163	Y:	0.069	Z:	0.401	yaw:	169.476	yaw rate:	-3.128	Roll:	-5.110	Pitch:	-3.472	Yaw:	239.497	Thrust:	34.401
Time:	4.958	Roll Set Point:	-0.015	Pitch Set Point:	0.029	Yaw Set Point:	-2.958	X_WP:	0.000	Y_WP:	0.000	Y_WP:	0.500	X:	0.163	Y:	0.069	Z:	0.401	yaw:	169.471	yaw rate:	0.568	Roll:	-5.653	Pitch:	-3.723	Yaw:	241.283	Thrust:	49.526
Time:	4.989	Roll Set Point:	-0.015	Pitch Set Point:	0.029	Yaw Set Point:	-2.958	X_WP:	0.000	Y_WP:	0.000	Y_WP:	0.500	X:	0.163	Y:	0.069	Z:	0.401	yaw:	169.488	yaw rate:	1.776	Roll:	-5.205	Pitch:	-3.416	Yaw:	239.922	Thrust:	35.175
Time:	5.020	Roll Set Point:	-0.015	Pitch Set Point:	0.029	Yaw Set Point:	-2.958	X_WP:	0.000	Y_WP:	0.000	Y_WP:	0.500	X:	0.163	Y:	0.069	Z:	0.401	yaw:	169.489	yaw rate:	0.555	Roll:	-5.235	Pitch:	-3.419	Yaw:	239.786	Thrust:	35.601
Time:	5.052	Roll Set Point:	-0.015	Pitch Set Point:	0.029	Yaw Set Point:	-2.958	X_WP:	0.000	Y_WP:	0.000	Y_WP:	0.500	X:	0.163	Y:	0.069	Z:	0.401	yaw:	169.486	yaw rate:	2.563	Roll:	-5.212	Pitch:	-3.459	Yaw:	239.741	Thrust:	35.874
Time:	5.083	Roll Set Point:	-0.015	Pitch Set Point:	0.029	Yaw Set Point:	-2.958	X_WP:	0.000	Y_WP:	0.000	Y_WP:	0.500	X:	0.163	Y:	0.069	Z:	0.401	yaw:	169.483	yaw rate:	-0.313	Roll:	-5.235	Pitch:	-3.441	Yaw:	239.741	Thrust:	36.346
Time:	5.114	Roll Set Point:	-0.015	Pitch Set Point:	0.029	Yaw Set Point:	-2.958	X_WP:	0.000	Y_WP:	0.000	Y_WP:	0.500	X:	0.163	Y:	0.069	Z:	0.401	yaw:	169.482	yaw rate:	-0.021	Roll:	-5.255	Pitch:	-3.471	Yaw:	239.766	Thrust:	36.652
Time:	5.145	Roll Set Point:	-0.015	Pitch Set Point:	0.029	Yaw Set Point:	-2.958	X_WP:	0.000	Y_WP:	0.000	Y_WP:	0.500	X:	0.163	Y:	0.069	Z:	0.401	yaw:	169.471	yaw rate:	-0.213	Roll:	-5.235	Pitch:	-3.478	Yaw:	239.655	Thrust:	37.022
Time:	5.177	Roll Set Point:	-0.015	Pitch Set Point:	0.029	Yaw Set Point:	-2.958	X_WP:	0.000	Y_WP:	0.000	Y_WP:	0.500	X:	0.163	Y:	0.069	Z:	0.401	yaw:	169.454	yaw rate:	-1.689	Roll:	-5.256	Pitch:	-3.508	Yaw:	239.586	Thrust:	37.397
Time:	5.208	Roll Set Point:	-0.015	Pitch Set Point:	0.029	Yaw Set Point:	-2.958	X_WP:	0.000	Y_WP:	0.000	Y_WP:	0.500	X:	0.163	Y:	0.069	Z:	0.401	yaw:	169.480	yaw rate:	2.561	Roll:	-5.324	Pitch:	-3.452	Yaw:	239.978	Thrust:	37.834
Time:	5.239	Roll Set Point:	-0.015	Pitch Set Point:	0.029	Yaw Set Point:	-2.958	X_WP:	0.000	Y_WP:	0.000	Y_WP:	0.500	X:	0.163	Y:	0.069	Z:	0.401	yaw:	169.467	yaw rate:	-0.791	Roll:	-5.259	Pitch:	-3.520	Yaw:	239.641	Thrust:	38.160
Time:	5.270	Roll Set Point:	-0.015	Pitch Set Point:	0.029	Yaw Set Point:	-2.958	X_WP:	0.000	Y_WP:	0.000	Y_WP:	0.500	X:	0.163	Y:	0.069	Z:	0.401	yaw:	169.487	yaw rate:	2.023	Roll:	-5.325	Pitch:	-3.450	Yaw:	239.944	Thrust:	38.502
Time:	5.302	Roll Set Point:	-0.015	Pitch Set Point:	0.029	Yaw Set Point:	-2.958	X_WP:	0.000	Y_WP:	0.000	Y_WP:	0.500	X:	0.163	Y:	0.069	Z:	0.401	yaw:	169.471	yaw rate:	-3.314	Roll:	-5.291	Pitch:	-3.539	Yaw:	239.615	Thrust:	38.930
Time:	5.333	Roll Set Point:	-0.015	Pitch Set Point:	0.029	Yaw Set Point:	-2.958	X_WP:	0.000	Y_WP:	0.000	Y_WP:	0.500	X:	0.163	Y:	0.069	Z:	0.401	yaw:	169.505	yaw rate:	3.099	Roll:	-5.385	Pitch:	-3.440	Yaw:	240.083	Thrust:	39.288
Time:	5.364	Roll Set Point:	-0.015	Pitch Set Point:	0.029	Yaw Set Point:	-2.958	X_WP:	0.000	Y_WP:	0.000	Y_WP:	0.500	X:	0.163	Y:	0.069	Z:	0.401	yaw:	169.477	yaw rate:	0.274	Roll:	-5.315	Pitch:	-3.582	Yaw:	239.523	Thrust:	39.662
Time:	5.395	Roll Set Point:	-0.015	Pitch Set Point:	0.029	Yaw Set Point:	-2.958	X_WP:	0.000	Y_WP:	0.000	Y_WP:	0.500	X:	0.163	Y:	0.069	Z:	0.401	yaw:	169.475	yaw rate:	-0.131	Roll:	-5.346	Pitch:	-3.528	Yaw:	239.747	Thrust:	39.923
Time:	5.427	Roll Set Point:	-0.015	Pitch Set Point:	0.029	Yaw Set Point:	-2.958	X_WP:	0.000	Y_WP:	0.000	Y_WP:	0.500	X:	0.163	Y:	0.069	Z:	0.401	yaw:	169.483	yaw rate:	-1.584	Roll:	-5.380	Pitch:	-3.519	Yaw:	239.834	Thrust:	40.492
Time:	5.458	Roll Set Point:	-0.015	Pitch Set Point:	0.029	Yaw Set Point:	-2.958	X_WP:	0.000	Y_WP:	0.000	Y_WP:	0.500	X:	0.163	Y:	0.069	Z:	0.401	yaw:	169.488	yaw rate:	0.463	Roll:	-5.372	Pitch:	-3.554	Yaw:	239.817	Thrust:	40.792
Time:	5.489	Roll Set Point:	-0.015	Pitch Set Point:	0.029	Yaw Set Point:	-2.958	X_WP:	0.000	Y_WP:	0.000	Y_WP:	0.500	X:	0.163	Y:	0.069	Z:	0.401	yaw:	169.481	yaw rate:	0.099	Roll:	-5.388	Pitch:	-3.531	Yaw:	239.710	Thrust:	41.082
Time:	5.521	Roll Set Point:	-0.015	Pitch Set Point:	0.029	Yaw Set Point:	-2.958	X_WP:	0.000	Y_WP:	0.000	Y_WP:	0.500	X:	0.163	Y:	0.069	Z:	0.401	yaw:	169.459	yaw rate:	-2.267	Roll:	-5.361	Pitch:	-3.617	Yaw:	239.548	Thrust:	41.511
Time:	5.567	Roll Set Point:	-0.015	Pitch Set Point:	0.029	Yaw Set Point:	-2.958	X_WP:	0.000	Y_WP:	0.000	Y_WP:	0.500	X:	0.163	Y:	0.069	Z:	0.401	yaw:	169.488	yaw rate:	2.896	Roll:	-6.010	Pitch:	-3.888	Yaw:	241.496	Thrust:	60.076
Time:	5.597	Roll Set Point:	-0.015	Pitch Set Point:	0.029	Yaw Set Point:	-2.958	X_WP:	0.000	Y_WP:	0.000	Y_WP:	0.500	X:	0.163	Y:	0.069	Z:	0.401	yaw:	169.481	yaw rate:	0.314	Roll:	-5.347	Pitch:	-3.583	Yaw:	239.548	Thrust:	40.442
Time:	5.628	Roll Set Point:	-0.015	Pitch Set Point:	0.029	Yaw Set Point:	-2.959	X_WP:	0.000	Y_WP:	0.000	Y_WP:	0.500	X:	0.163	Y:	0.069	Z:	0.401	yaw:	169.510	yaw rate:	2.990	Roll:	-5.462	Pitch:	-3.491	Yaw:	240.057	Thrust:	42.632
Time:	5.660	Roll Set Point:	-0.015	Pitch Set Point:	0.029	Yaw Set Point:	-2.958	X_WP:	0.000	Y_WP:	0.000	Y_WP:	0.500	X:	0.163	Y:	0.069	Z:	0.401	yaw:	169.478	yaw rate:	-0.061	Roll:	-5.397	Pitch:	-3.675	Yaw:	239.490	Thrust:	42.938
Time:	5.691	Roll Set Point:	-0.015	Pitch Set Point:	0.029	Yaw Set Point:	-2.958	X_WP:	0.000	Y_WP:	0.000	Y_WP:	0.500	X:	0.163	Y:	0.069	Z:	0.401	yaw:	169.494	yaw rate:	1.543	Roll:	-5.488	Pitch:	-3.541	Yaw:	239.912	Thrust:	43.484
Time:	5.722	Roll Set Point:	-0.015	Pitch Set Point:	0.029	Yaw Set Point:	-2.958	X_WP:	0.000	Y_WP:	0.000	Y_WP:	0.500	X:	0.163	Y:	0.069	Z:	0.401	yaw:	169.464	yaw rate:	0.300	Roll:	-5.416	Pitch:	-3.689	Yaw:	239.494	Thrust:	43.640
Time:	5.753	Roll Set Point:	-0.015	Pitch Set Point:	0.029	Yaw Set Point:	-2.958	X_WP:	0.000	Y_WP:	0.000	Y_WP:	0.500	X:	0.163	Y:	0.069	Z:	0.401	yaw:	169.486	yaw rate:	2.245	Roll:	-5.480	Pitch:	-3.536	Yaw:	239.961	Thrust:	44.200
Time:	5.785	Roll Set Point:	-0.015	Pitch Set Point:	0.029	Yaw Set Point:	-2.958	X_WP:	0.000	Y_WP:	0.000	Y_WP:	0.500	X:	0.163	Y:	0.069	Z:	0.401	yaw:	169.472	yaw rate:	-1.470	Roll:	-5.426	Pitch:	-3.681	Yaw:	239.629	Thrust:	44.382
Time:	5.816	Roll Set Point:	-0.015	Pitch Set Point:	0.029	Yaw Set Point:	-2.958	X_WP:	0.000	Y_WP:	0.000	Y_WP:	0.500	X:	0.163	Y:	0.069	Z:	0.401	yaw:	169.488	yaw rate:	1.610	Roll:	-5.484	Pitch:	-3.562	Yaw:	239.910	Thrust:	44.941
Time:	5.847	Roll Set Point:	-0.015	Pitch Set Point:	0.029	Yaw Set Point:	-2.958	X_WP:	0.000	Y_WP:	0.000	Y_WP:	0.500	X:	0.163	Y:	0.069	Z:	0.401	yaw:	169.462	yaw rate:	-2.568	Roll:	-5.403	Pitch:	-3.728	Yaw:	239.527	Thrust:	45.115
Time:	5.878	Roll Set Point:	-0.015	Pitch Set Point:	0.029	Yaw Set Point:	-2.958	X_WP:	0.000	Y_WP:	0.000	Y_WP:	0.500	X:	0.163	Y:	0.069	Z:	0.401	yaw:	169.502	yaw rate:	4.007	Roll:	-5.526	Pitch:	-3.517	Yaw:	240.131	Thrust:	45.743
Time:	5.910	Roll Set Point:	-0.015	Pitch Set Point:	0.029	Yaw Set Point:	-2.958	X_WP:	0.000	Y_WP:	0.000	Y_WP:	0.500	X:	0.163	Y:	0.069	Z:	0.401	yaw:	169.462	yaw rate:	-1.597	Roll:	-5.397	Pitch:	-3.776	Yaw:	239.403	Thrust:	45.876
Time:	5.941	Roll Set Point:	-0.015	Pitch Set Point:	0.029	Yaw Set Point:	-2.958	X_WP:	0.000	Y_WP:	0.000	Y_WP:	0.500	X:	0.163	Y:	0.069	Z:	0.401	yaw:	169.468	yaw rate:	0.590	Roll:	-5.444	Pitch:	-3.613	Yaw:	239.798	Thrust:	46.391
Time:	5.972	Roll Set Point:	-0.015	Pitch Set Point:	0.029	Yaw Set Point:	-2.958	X_WP:	0.000	Y_WP:	0.000	Y_WP:	0.500	X:	0.163	Y:	0.069	Z:	0.401	yaw:	169.482	yaw rate:	-1.391	Roll:	-5.453	Pitch:	-3.671	Yaw:	239.884	Thrust:	46.585
Time:	6.003	Roll Set Point:	-0.223	Pitch Set Point:	-0.084	Yaw Set Point:	-2.959	X_WP:	0.225	Y_WP:	0.073	Y_WP:	0.500	X:	0.163	Y:	0.069	Z:	0.401	yaw:	169.523	yaw rate:	3.951	Roll:	30.000	Pitch:	30.000	Yaw:	240.165	Thrust:	47.174
Time:	6.035	Roll Set Point:	-0.223	Pitch Set Point:	-0.084	Yaw Set Point:	-2.958	X_WP:	0.225	Y_WP:	0.073	Y_WP:	0.500	X:	0.163	Y:	0.069	Z:	0.401	yaw:	169.493	yaw rate:	-2.965	Roll:	0.577	Pitch:	-0.379	Yaw:	239.534	Thrust:	47.435
Time:	6.066	Roll Set Point:	-0.223	Pitch Set Point:	-0.084	Yaw Set Point:	-2.958	X_WP:	0.225	Y_WP:	0.073	Y_WP:	0.500	X:	0.163	Y:	0.069	Z:	0.401	yaw:	169.499	yaw rate:	2.406	Roll:	0.592	Pitch:	-0.399	Yaw:	239.840	Thrust:	47.851
Time:	6.097	Roll Set Point:	-0.223	Pitch Set Point:	-0.084	Yaw Set Point:	-2.958	X_WP:	0.225	Y_WP:	0.073	Y_WP:	0.500	X:	0.163	Y:	0.069	Z:	0.401	yaw:	169.474	yaw rate:	-2.567	Roll:	0.588	Pitch:	-0.379	Yaw:	239.540	Thrust:	48.168
Time:	6.128	Roll Set Point:	-0.223	Pitch Set Point:	-0.084	Yaw Set Point:	-2.958	X_WP:	0.225	Y_WP:	0.073	Y_WP:	0.500	X:	0.163	Y:	0.069	Z:	0.401	yaw:	169.477	yaw rate:	0.295	Roll:	0.599	Pitch:	-0.394	Yaw:	239.784	Thrust:	48.531
Time:	6.160	Roll Set Point:	-0.223	Pitch Set Point:	-0.084	Yaw Set Point:	-2.958	X_WP:	0.225	Y_WP:	0.073	Y_WP:	0.500	X:	0.163	Y:	0.069	Z:	0.401	yaw:	169.478	yaw rate:	0.140	Roll:	0.603	Pitch:	-0.392	Yaw:	239.773	Thrust:	48.939
Time:	6.191	Roll Set Point:	-0.223	Pitch Set Point:	-0.084	Yaw Set Point:	-2.958	X_WP:	0.225	Y_WP:	0.073	Y_WP:	0.500	X:	0.163	Y:	0.069	Z:	0.401	yaw:	169.485	yaw rate:	1.414	Roll:	0.609	Pitch:	-0.394	Yaw:	239.833	Thrust:	49.387
Time:	6.222	Roll Set Point:	-0.223	Pitch Set Point:	-0.084	Yaw Set Point:	-2.958	X_WP:	0.225	Y_WP:	0.073	Y_WP:	0.500	X:	0.163	Y:	0.069	Z:	0.401	yaw:	169.480	yaw rate:	-0.529	Roll:	0.610	Pitch:	-0.385	Yaw:	239.720	Thrust:	49.640
Time:	6.253	Roll Set Point:	-0.223	Pitch Set Point:	-0.084	Yaw Set Point:	-2.958	X_WP:	0.225	Y_WP:	0.073	Y_WP:	0.500	X:	0.163	Y:	0.069	Z:	0.401	yaw:	169.477	yaw rate:	1.203	Roll:	0.617	Pitch:	-0.387	Yaw:	239.736	Thrust:	50.035
Time:	6.285	Roll Set Point:	-0.223	Pitch Set Point:	-0.084	Yaw Set Point:	-2.958	X_WP:	0.225	Y_WP:	0.073	Y_WP:	0.500	X:	0.163	Y:	0.069	Z:	0.401	yaw:	169.474	yaw rate:	-0.307	Roll:	0.621	Pitch:	-0.386	Yaw:	239.733	Thrust:	50.495
Time:	6.316	Roll Set Point:	-0.223	Pitch Set Point:	-0.084	Yaw Set Point:	-2.958	X_WP:	0.225	Y_WP:	0.073	Y_WP:	0.500	X:	0.163	Y:	0.069	Z:	0.401	yaw:	169.486	yaw rate:	0.577	Roll:	0.627	Pitch:	-0.392	Yaw:	239.872	Thrust:	50.818
Time:	6.347	Roll Set Point:	-0.223	Pitch Set Point:	-0.084	Yaw Set Point:	-2.958	X_WP:	0.225	Y_WP:	0.073	Y_WP:	0.500	X:	0.163	Y:	0.069	Z:	0.401	yaw:	169.484	yaw rate:	-0.231	Roll:	0.633	Pitch:	-0.382	Yaw:	239.746	Thrust:	51.152
Time:	6.378	Roll Set Point:	-0.223	Pitch Set Point:	-0.084	Yaw Set Point:	-2.958	X_WP:	0.225	Y_WP:	0.073	Y_WP:	0.500	X:	0.163	Y:	0.069	Z:	0.401	yaw:	169.461	yaw rate:	-2.227	Roll:	0.630	Pitch:	-0.370	Yaw:	239.551	Thrust:	51.489
Time:	6.410	Roll Set Point:	-0.223	Pitch Set Point:	-0.084	Yaw Set Point:	-2.958	X_WP:	0.225	Y_WP:	0.073	Y_WP:	0.500	X:	0.163	Y:	0.069	Z:	0.401	yaw:	169.489	yaw rate:	2.746	Roll:	0.646	Pitch:	-0.397	Yaw:	240.006	Thrust:	51.947
Time:	6.441	Roll Set Point:	-0.223	Pitch Set Point:	-0.084	Yaw Set Point:	-2.958	X_WP:	0.225	Y_WP:	0.073	Y_WP:	0.500	X:	0.163	Y:	0.069	Z:	0.401	yaw:	169.496	yaw rate:	2.810	Roll:	0.645	Pitch:	-0.386	Yaw:	239.851	Thrust:	52.344
Time:	6.472	Roll Set Point:	-0.223	Pitch Set Point:	-0.084	Yaw Set Point:	-2.958	X_WP:	0.225	Y_WP:	0.073	Y_WP:	0.500	X:	0.163	Y:	0.069	Z:	0.401	yaw:	169.481	yaw rate:	-1.482	Roll:	0.649	Pitch:	-0.369	Yaw:	239.638	Thrust:	52.618
Time:	6.503	Roll Set Point:	-0.223	Pitch Set Point:	-0.084	Yaw Set Point:	-2.958	X_WP:	0.225	Y_WP:	0.073	Y_WP:	0.500	X:	0.163	Y:	0.069	Z:	0.401	yaw:	169.470	yaw rate:	-1.241	Roll:	0.652	Pitch:	-0.371	Yaw:	239.653	Thrust:	52.990
Time:	6.535	Roll Set Point:	-0.223	Pitch Set Point:	-0.084	Yaw Set Point:	-2.958	X_WP:	0.225	Y_WP:	0.073	Y_WP:	0.500	X:	0.163	Y:	0.069	Z:	0.401	yaw:	169.476	yaw rate:	0.663	Roll:	0.661	Pitch:	-0.381	Yaw:	239.815	Thrust:	53.413
Time:	6.566	Roll Set Point:	-0.223	Pitch Set Point:	-0.084	Yaw Set Point:	-2.958	X_WP:	0.225	Y_WP:	0.073	Y_WP:	0.500	X:	0.163	Y:	0.069	Z:	0.401	yaw:	169.470	yaw rate:	-1.348	Roll:	0.662	Pitch:	-0.372	Yaw:	239.699	Thrust:	53.807
Time:	6.596	Roll Set Point:	-0.223	Pitch Set Point:	-0.084	Yaw Set Point:	-2.958	X_WP:	0.225	Y_WP:	0.073	Y_WP:	0.500	X:	0.163	Y:	0.069	Z:	0.401	yaw:	169.492	yaw rate:	2.219	Roll:	0.704	Pitch:	-0.364	Yaw:	239.880	Thrust:	52.686
Time:	6.628	Roll Set Point:	-0.223	Pitch Set Point:	-0.084	Yaw Set Point:	-2.958	X_WP:	0.225	Y_WP:	0.073	Y_WP:	0.500	X:	0.163	Y:	0.069	Z:	0.401	yaw:	169.494	yaw rate:	0.161	Roll:	0.676	Pitch:	-0.373	Yaw:	239.797	Thrust:	54.553
Time:	6.659	Roll Set Point:	-0.223	Pitch Set Point:	-0.084	Yaw Set Point:	-2.958	X_WP:	0.225	Y_WP:	0.073	Y_WP:	0.500	X:	0.163	Y:	0.069	Z:	0.401	yaw:	169.496	yaw rate:	0.227	Roll:	0.677	Pitch:	-0.374	Yaw:	239.805	Thrust:	54.857
Time:	6.690	Roll Set Point:	-0.223	Pitch Set Point:	-0.084	Yaw Set Point:	-2.958	X_WP:	0.225	Y_WP:	0.073	Y_WP:	0.500	X:	0.163	Y:	0.069	Z:	0.401	yaw:	169.467	yaw rate:	-1.420	Roll:	0.680	Pitch:	-0.353	Yaw:	239.504	Thrust:	55.289
Time:	6.721	Roll Set Point:	-0.223	Pitch Set Point:	-0.084	Yaw Set Point:	-2.958	X_WP:	0.225	Y_WP:	0.073	Y_WP:	0.500	X:	0.163	Y:	0.069	Z:	0.401	yaw:	169.468	yaw rate:	0.137	Roll:	0.687	Pitch:	-0.370	Yaw:	239.759	Thrust:	55.606
Time:	6.753	Roll Set Point:	-0.223	Pitch Set Point:	-0.084	Yaw Set Point:	-2.958	X_WP:	0.225	Y_WP:	0.073	Y_WP:	0.500	X:	0.163	Y:	0.069	Z:	0.401	yaw:	169.478	yaw rate:	1.003	Roll:	0.693	Pitch:	-0.374	Yaw:	239.849	Thrust:	56.089
Time:	6.784	Roll Set Point:	-0.223	Pitch Set Point:	-0.084	Yaw Set Point:	-2.958	X_WP:	0.225	Y_WP:	0.073	Y_WP:	0.500	X:	0.163	Y:	0.069	Z:	0.401	yaw:	169.492	yaw rate:	1.850	Roll:	0.700	Pitch:	-0.375	Yaw:	239.887	Thrust:	56.300
Time:	6.815	Roll Set Point:	-0.223	Pitch Set Point:	-0.084	Yaw Set Point:	-2.958	X_WP:	0.225	Y_WP:	0.073	Y_WP:	0.500	X:	0.163	Y:	0.069	Z:	0.401	yaw:	169.485	yaw rate:	-0.667	Roll:	0.702	Pitch:	-0.361	Yaw:	239.715	Thrust:	56.739
Time:	6.846	Roll Set Point:	-0.223	Pitch Set Point:	-0.084	Yaw Set Point:	-2.958	X_WP:	0.225	Y_WP:	0.073	Y_WP:	0.500	X:	0.163	Y:	0.069	Z:	0.401	yaw:	169.488	yaw rate:	0.052	Roll:	0.707	Pitch:	-0.366	Yaw:	239.800	Thrust:	57.143
Time:	6.878	Roll Set Point:	-0.223	Pitch Set Point:	-0.084	Yaw Set Point:	-2.958	X_WP:	0.225	Y_WP:	0.073	Y_WP:	0.500	X:	0.163	Y:	0.069	Z:	0.401	yaw:	169.476	yaw rate:	-1.232	Roll:	0.707	Pitch:	-0.357	Yaw:	239.657	Thrust:	57.552
Time:	6.909	Roll Set Point:	-0.223	Pitch Set Point:	-0.084	Yaw Set Point:	-2.958	X_WP:	0.225	Y_WP:	0.073	Y_WP:	0.500	X:	0.163	Y:	0.069	Z:	0.401	yaw:	169.492	yaw rate:	1.944	Roll:	0.721	Pitch:	-0.371	Yaw:	239.919	Thrust:	57.803
Time:	6.940	Roll Set Point:	-0.223	Pitch Set Point:	-0.084	Yaw Set Point:	-2.958	X_WP:	0.225	Y_WP:	0.073	Y_WP:	0.500	X:	0.163	Y:	0.069	Z:	0.401	yaw:	169.456	yaw rate:	-4.572	Roll:	0.714	Pitch:	-0.339	Yaw:	239.427	Thrust:	58.231
Time:	6.971	Roll Set Point:	-0.223	Pitch Set Point:	-0.084	Yaw Set Point:	-2.958	X_WP:	0.225	Y_WP:	0.073	Y_WP:	0.500	X:	0.163	Y:	0.069	Z:	0.401	yaw:	169.489	yaw rate:	3.327	Roll:	0.731	Pitch:	-0.380	Yaw:	240.056	Thrust:	58.561
Time:	7.003	Roll Set Point:	-0.223	Pitch Set Point:	-0.084	Yaw Set Point:	-2.958	X_WP:	0.225	Y_WP:	0.073	Y_WP:	0.500	X:	0.163	Y:	0.069	Z:	0.401	yaw:	169.490	yaw rate:	1.601	Roll:	0.728	Pitch:	-0.360	Yaw:	239.783	Thrust:	59.071
Time:	7.034	Roll Set Point:	-0.223	Pitch Set Point:	-0.084	Yaw Set Point:	-2.958	X_WP:	0.225	Y_WP:	0.073	Y_WP:	0.500	X:	0.163	Y:	0.069	Z:	0.401	yaw:	169.475	yaw rate:	-1.413	Roll:	0.734	Pitch:	-0.349	Yaw:	239.639	Thrust:	59.353
Time:	7.065	Roll Set Point:	-0.223	Pitch Set Point:	-0.084	Yaw Set Point:	-2.958	X_WP:	0.225	Y_WP:	0.073	Y_WP:	0.500	X:	0.163	Y:	0.069	Z:	0.401	yaw:	169.496	yaw rate:	0.418	Roll:	0.744	Pitch:	-0.367	Yaw:	239.954	Thrust:	59.688
Time:	7.096	Roll Set Point:	-0.223	Pitch Set Point:	-0.084	Yaw Set Point:	-2.958	X_WP:	0.225	Y_WP:	0.073	Y_WP:	0.500	X:	0.163	Y:	0.069	Z:	0.401	yaw:	169.477	yaw rate:	-1.915	Roll:	0.740	Pitch:	-0.345	Yaw:	239.602	Thrust:	60.107
Time:	7.128	Roll Set Point:	-0.223	Pitch Set Point:	-0.084	Yaw Set Point:	-2.958	X_WP:	0.225	Y_WP:	0.073	Y_WP:	0.500	X:	0.163	Y:	0.069	Z:	0.401	yaw:	169.471	yaw rate:	-0.557	Roll:	0.749	Pitch:	-0.350	Yaw:	239.705	Thrust:	60.469
Time:	7.159	Roll Set Point:	-0.223	Pitch Set Point:	-0.084	Yaw Set Point:	-2.958	X_WP:	0.225	Y_WP:	0.073	Y_WP:	0.500	X:	0.163	Y:	0.069	Z:	0.401	yaw:	169.494	yaw rate:	2.206	Roll:	0.757	Pitch:	-0.365	Yaw:	239.968	Thrust:	60.809
Time:	7.190	Roll Set Point:	-0.223	Pitch Set Point:	-0.084	Yaw Set Point:	-2.958	X_WP:	0.225	Y_WP:	0.073	Y_WP:	0.500	X:	0.163	Y:	0.069	Z:	0.401	yaw:	169.476	yaw rate:	-1.721	Roll:	0.757	Pitch:	-0.341	Yaw:	239.615	Thrust:	61.191
Time:	7.221	Roll Set Point:	-0.223	Pitch Set Point:	-0.084	Yaw Set Point:	-2.958	X_WP:	0.225	Y_WP:	0.073	Y_WP:	0.500	X:	0.163	Y:	0.069	Z:	0.401	yaw:	169.474	yaw rate:	-0.295	Roll:	0.762	Pitch:	-0.348	Yaw:	239.732	Thrust:	61.567
Time:	7.253	Roll Set Point:	-0.223	Pitch Set Point:	-0.084	Yaw Set Point:	-2.958	X_WP:	0.225	Y_WP:	0.073	Y_WP:	0.500	X:	0.163	Y:	0.069	Z:	0.401	yaw:	169.476	yaw rate:	-0.026	Roll:	0.769	Pitch:	-0.350	Yaw:	239.782	Thrust:	61.969
Time:	7.284	Roll Set Point:	-0.223	Pitch Set Point:	-0.084	Yaw Set Point:	-2.958	X_WP:	0.225	Y_WP:	0.073	Y_WP:	0.500	X:	0.163	Y:	0.069	Z:	0.401	yaw:	169.473	yaw rate:	-0.993	Roll:	0.772	Pitch:	-0.345	Yaw:	239.721	Thrust:	62.281
Time:	7.315	Roll Set Point:	-0.223	Pitch Set Point:	-0.084	Yaw Set Point:	-2.958	X_WP:	0.225	Y_WP:	0.073	Y_WP:	0.500	X:	0.163	Y:	0.069	Z:	0.401	yaw:	169.489	yaw rate:	1.665	Roll:	0.779	Pitch:	-0.357	Yaw:	239.916	Thrust:	62.701
Time:	7.346	Roll Set Point:	-0.223	Pitch Set Point:	-0.084	Yaw Set Point:	-2.958	X_WP:	0.225	Y_WP:	0.073	Y_WP:	0.500	X:	0.163	Y:	0.069	Z:	0.401	yaw:	169.502	yaw rate:	1.291	Roll:	0.785	Pitch:	-0.352	Yaw:	239.904	Thrust:	63.121
Time:	7.378	Roll Set Point:	-0.223	Pitch Set Point:	-0.084	Yaw Set Point:	-2.958	X_WP:	0.225	Y_WP:	0.073	Y_WP:	0.500	X:	0.163	Y:	0.069	Z:	0.401	yaw:	169.463	yaw rate:	-3.946	Roll:	0.781	Pitch:	-0.320	Yaw:	239.409	Thrust:	63.418
Time:	7.409	Roll Set Point:	-0.223	Pitch Set Point:	-0.084	Yaw Set Point:	-2.958	X_WP:	0.225	Y_WP:	0.073	Y_WP:	0.500	X:	0.163	Y:	0.069	Z:	0.401	yaw:	169.476	yaw rate:	-2.384	Roll:	0.791	Pitch:	-0.349	Yaw:	239.870	Thrust:	63.804
Time:	7.440	Roll Set Point:	-0.223	Pitch Set Point:	-0.084	Yaw Set Point:	-2.958	X_WP:	0.225	Y_WP:	0.073	Y_WP:	0.500	X:	0.163	Y:	0.069	Z:	0.401	yaw:	169.491	yaw rate:	1.520	Roll:	0.800	Pitch:	-0.352	Yaw:	239.907	Thrust:	64.191
Time:	7.471	Roll Set Point:	-0.223	Pitch Set Point:	-0.084	Yaw Set Point:	-2.958	X_WP:	0.225	Y_WP:	0.073	Y_WP:	0.500	X:	0.163	Y:	0.069	Z:	0.401	yaw:	169.471	yaw rate:	-2.047	Roll:	0.798	Pitch:	-0.328	Yaw:	239.579	Thrust:	64.589
Time:	7.503	Roll Set Point:	-0.223	Pitch Set Point:	-0.084	Yaw Set Point:	-2.958	X_WP:	0.225	Y_WP:	0.073	Y_WP:	0.500	X:	0.163	Y:	0.069	Z:	0.401	yaw:	169.473	yaw rate:	-0.988	Roll:	0.807	Pitch:	-0.341	Yaw:	239.777	Thrust:	64.848
Time:	7.534	Roll Set Point:	-0.223	Pitch Set Point:	-0.084	Yaw Set Point:	-2.958	X_WP:	0.225	Y_WP:	0.073	Y_WP:	0.500	X:	0.163	Y:	0.069	Z:	0.401	yaw:	169.495	yaw rate:	2.138	Roll:	0.812	Pitch:	-0.350	Yaw:	239.963	Thrust:	65.336
Time:	7.565	Roll Set Point:	-0.223	Pitch Set Point:	-0.084	Yaw Set Point:	-2.958	X_WP:	0.225	Y_WP:	0.073	Y_WP:	0.500	X:	0.163	Y:	0.069	Z:	0.401	yaw:	169.465	yaw rate:	-2.913	Roll:	0.810	Pitch:	-0.320	Yaw:	239.500	Thrust:	65.635
Time:	7.597	Roll Set Point:	-0.223	Pitch Set Point:	-0.084	Yaw Set Point:	-2.958	X_WP:	0.225	Y_WP:	0.073	Y_WP:	0.500	X:	0.163	Y:	0.069	Z:	0.401	yaw:	169.464	yaw rate:	-0.142	Roll:	0.812	Pitch:	-0.341	Yaw:	239.760	Thrust:	66.557
Time:	7.628	Roll Set Point:	-0.223	Pitch Set Point:	-0.084	Yaw Set Point:	-2.958	X_WP:	0.225	Y_WP:	0.073	Y_WP:	0.500	X:	0.163	Y:	0.069	Z:	0.401	yaw:	169.461	yaw rate:	-4.126	Roll:	0.822	Pitch:	-0.332	Yaw:	239.710	Thrust:	66.449
Time:	7.659	Roll Set Point:	-0.223	Pitch Set Point:	-0.084	Yaw Set Point:	-2.958	X_WP:	0.225	Y_WP:	0.073	Y_WP:	0.500	X:	0.163	Y:	0.069	Z:	0.401	yaw:	169.485	yaw rate:	2.397	Roll:	0.833	Pitch:	-0.346	Yaw:	239.972	Thrust:	66.843
Time:	7.690	Roll Set Point:	-0.223	Pitch Set Point:	-0.084	Yaw Set Point:	-2.958	X_WP:	0.225	Y_WP:	0.073	Y_WP:	0.500	X:	0.163	Y:	0.069	Z:	0.401	yaw:	169.494	yaw rate:	0.915	Roll:	0.835	Pitch:	-0.337	Yaw:	239.860	Thrust:	67.157
Time:	7.722	Roll Set Point:	-0.223	Pitch Set Point:	-0.084	Yaw Set Point:	-2.958	X_WP:	0.225	Y_WP:	0.073	Y_WP:	0.500	X:	0.163	Y:	0.069	Z:	0.401	yaw:	169.475	yaw rate:	-1.910	Roll:	0.836	Pitch:	-0.319	Yaw:	239.597	Thrust:	67.501
Time:	7.753	Roll Set Point:	-0.223	Pitch Set Point:	-0.084	Yaw Set Point:	-2.958	X_WP:	0.225	Y_WP:	0.073	Y_WP:	0.500	X:	0.163	Y:	0.069	Z:	0.401	yaw:	169.496	yaw rate:	2.153	Roll:	0.848	Pitch:	-0.342	Yaw:	239.967	Thrust:	67.872
Time:	7.784	Roll Set Point:	-0.223	Pitch Set Point:	-0.084	Yaw Set Point:	-2.958	X_WP:	0.225	Y_WP:	0.073	Y_WP:	0.500	X:	0.163	Y:	0.069	Z:	0.401	yaw:	169.474	yaw rate:	-0.955	Roll:	0.842	Pitch:	-0.315	Yaw:	239.565	Thrust:	68.301
Time:	7.815	Roll Set Point:	-0.223	Pitch Set Point:	-0.084	Yaw Set Point:	-2.958	X_WP:	0.225	Y_WP:	0.073	Y_WP:	0.500	X:	0.163	Y:	0.069	Z:	0.401	yaw:	169.493	yaw rate:	1.886	Roll:	0.856	Pitch:	-0.338	Yaw:	239.939	Thrust:	68.610
Time:	7.847	Roll Set Point:	-0.223	Pitch Set Point:	-0.084	Yaw Set Point:	-2.958	X_WP:	0.225	Y_WP:	0.073	Y_WP:	0.500	X:	0.163	Y:	0.069	Z:	0.401	yaw:	169.494	yaw rate:	0.112	Roll:	0.859	Pitch:	-0.325	Yaw:	239.793	Thrust:	69.001
Time:	7.878	Roll Set Point:	-0.223	Pitch Set Point:	-0.084	Yaw Set Point:	-2.958	X_WP:	0.225	Y_WP:	0.073	Y_WP:	0.500	X:	0.163	Y:	0.069	Z:	0.401	yaw:	169.480	yaw rate:	-1.370	Roll:	0.861	Pitch:	-0.317	Yaw:	239.649	Thrust:	69.377
Time:	7.909	Roll Set Point:	-0.223	Pitch Set Point:	-0.084	Yaw Set Point:	-2.958	X_WP:	0.225	Y_WP:	0.073	Y_WP:	0.500	X:	0.163	Y:	0.069	Z:	0.401	yaw:	169.495	yaw rate:	1.455	Roll:	0.869	Pitch:	-0.332	Yaw:	239.910	Thrust:	69.810
Time:	7.941	Roll Set Point:	-0.223	Pitch Set Point:	-0.084	Yaw Set Point:	-2.958	X_WP:	0.225	Y_WP:	0.073	Y_WP:	0.500	X:	0.163	Y:	0.069	Z:	0.401	yaw:	169.474	yaw rate:	-2.119	Roll:	0.868	Pitch:	-0.310	Yaw:	239.581	Thrust:	70.156
Time:	7.987	Roll Set Point:	-0.223	Pitch Set Point:	-0.084	Yaw Set Point:	-2.959	X_WP:	0.225	Y_WP:	0.073	Y_WP:	0.500	X:	0.163	Y:	0.069	Z:	0.401	yaw:	169.520	yaw rate:	4.893	Roll:	0.445	Pitch:	-0.727	Yaw:	241.641	Thrust:	100.000
Time:	8.019	Roll Set Point:	-0.223	Pitch Set Point:	-0.084	Yaw Set Point:	-2.958	X_WP:	0.225	Y_WP:	0.073	Y_WP:	0.500	X:	0.163	Y:	0.069	Z:	0.401	yaw:	169.457	yaw rate:	-6.368	Roll:	0.870	Pitch:	-0.282	Yaw:	239.201	Thrust:	70.858
Time:	8.050	Roll Set Point:	-0.223	Pitch Set Point:	-0.084	Yaw Set Point:	-2.958	X_WP:	0.225	Y_WP:	0.073	Y_WP:	0.500	X:	0.163	Y:	0.069	Z:	0.401	yaw:	169.496	yaw rate:	2.828	Roll:	0.892	Pitch:	-0.341	Yaw:	240.118	Thrust:	71.302
Time:	8.081	Roll Set Point:	-0.223	Pitch Set Point:	-0.084	Yaw Set Point:	-2.958	X_WP:	0.225	Y_WP:	0.073	Y_WP:	0.500	X:	0.163	Y:	0.069	Z:	0.401	yaw:	169.479	yaw rate:	-1.697	Roll:	0.889	Pitch:	-0.307	Yaw:	239.621	Thrust:	71.535
Time:	8.112	Roll Set Point:	-0.223	Pitch Set Point:	-0.084	Yaw Set Point:	-2.958	X_WP:	0.225	Y_WP:	0.073	Y_WP:	0.500	X:	0.163	Y:	0.069	Z:	0.401	yaw:	169.500	yaw rate:	2.060	Roll:	0.898	Pitch:	-0.329	Yaw:	239.967	Thrust:	72.072
Time:	8.144	Roll Set Point:	-0.223	Pitch Set Point:	-0.084	Yaw Set Point:	-2.958	X_WP:	0.225	Y_WP:	0.073	Y_WP:	0.500	X:	0.163	Y:	0.069	Z:	0.401	yaw:	169.497	yaw rate:	-0.326	Roll:	0.900	Pitch:	-0.311	Yaw:	239.758	Thrust:	72.373
Time:	8.175	Roll Set Point:	-0.223	Pitch Set Point:	-0.084	Yaw Set Point:	-2.958	X_WP:	0.225	Y_WP:	0.073	Y_WP:	0.500	X:	0.163	Y:	0.069	Z:	0.401	yaw:	169.488	yaw rate:	-0.368	Roll:	0.902	Pitch:	-0.310	Yaw:	239.704	Thrust:	72.747
Time:	8.206	Roll Set Point:	-0.223	Pitch Set Point:	-0.084	Yaw Set Point:	-2.958	X_WP:	0.225	Y_WP:	0.073	Y_WP:	0.500	X:	0.163	Y:	0.069	Z:	0.401	yaw:	169.480	yaw rate:	-0.753	Roll:	0.910	Pitch:	-0.307	Yaw:	239.698	Thrust:	73.029
Time:	8.237	Roll Set Point:	-0.223	Pitch Set Point:	-0.084	Yaw Set Point:	-2.958	X_WP:	0.225	Y_WP:	0.073	Y_WP:	0.500	X:	0.163	Y:	0.069	Z:	0.401	yaw:	169.473	yaw rate:	1.115	Roll:	0.914	Pitch:	-0.306	Yaw:	239.696	Thrust:	73.461
Time:	8.269	Roll Set Point:	-0.223	Pitch Set Point:	-0.084	Yaw Set Point:	-2.958	X_WP:	0.225	Y_WP:	0.073	Y_WP:	0.500	X:	0.163	Y:	0.069	Z:	0.401	yaw:	169.490	yaw rate:	1.636	Roll:	0.919	Pitch:	-0.319	Yaw:	239.917	Thrust:	73.948
Time:	8.300	Roll Set Point:	-0.223	Pitch Set Point:	-0.084	Yaw Set Point:	-2.958	X_WP:	0.225	Y_WP:	0.073	Y_WP:	0.500	X:	0.163	Y:	0.069	Z:	0.401	yaw:	169.478	yaw rate:	-0.931	Roll:	0.923	Pitch:	-0.302	Yaw:	239.663	Thrust:	74.110
Time:	8.331	Roll Set Point:	-0.223	Pitch Set Point:	-0.084	Yaw Set Point:	-2.958	X_WP:	0.225	Y_WP:	0.073	Y_WP:	0.500	X:	0.163	Y:	0.069	Z:	0.401	yaw:	169.483	yaw rate:	0.554	Roll:	0.930	Pitch:	-0.309	Yaw:	239.812	Thrust:	74.633
Time:	8.362	Roll Set Point:	-0.223	Pitch Set Point:	-0.084	Yaw Set Point:	-2.958	X_WP:	0.225	Y_WP:	0.073	Y_WP:	0.500	X:	0.163	Y:	0.069	Z:	0.401	yaw:	169.485	yaw rate:	0.124	Roll:	0.933	Pitch:	-0.307	Yaw:	239.781	Thrust:	74.898
Time:	8.394	Roll Set Point:	-0.223	Pitch Set Point:	-0.084	Yaw Set Point:	-2.958	X_WP:	0.225	Y_WP:	0.073	Y_WP:	0.500	X:	0.163	Y:	0.069	Z:	0.401	yaw:	169.487	yaw rate:	1.059	Roll:	0.939	Pitch:	-0.305	Yaw:	239.788	Thrust:	75.382
Time:	8.425	Roll Set Point:	-0.223	Pitch Set Point:	-0.084	Yaw Set Point:	-2.958	X_WP:	0.225	Y_WP:	0.073	Y_WP:	0.500	X:	0.163	Y:	0.069	Z:	0.401	yaw:	169.497	yaw rate:	1.011	Roll:	0.943	Pitch:	-0.310	Yaw:	239.873	Thrust:	75.650
Time:	8.456	Roll Set Point:	-0.223	Pitch Set Point:	-0.084	Yaw Set Point:	-2.958	X_WP:	0.225	Y_WP:	0.073	Y_WP:	0.500	X:	0.163	Y:	0.069	Z:	0.401	yaw:	169.484	yaw rate:	-1.231	Roll:	0.944	Pitch:	-0.295	Yaw:	239.666	Thrust:	76.145
Time:	8.487	Roll Set Point:	-0.223	Pitch Set Point:	-0.084	Yaw Set Point:	-2.958	X_WP:	0.225	Y_WP:	0.073	Y_WP:	0.500	X:	0.163	Y:	0.069	Z:	0.401	yaw:	169.477	yaw rate:	0.111	Roll:	0.953	Pitch:	-0.297	Yaw:	239.703	Thrust:	76.411
Time:	8.519	Roll Set Point:	-0.223	Pitch Set Point:	-0.084	Yaw Set Point:	-2.958	X_WP:	0.225	Y_WP:	0.073	Y_WP:	0.500	X:	0.163	Y:	0.069	Z:	0.401	yaw:	169.480	yaw rate:	0.199	Roll:	0.956	Pitch:	-0.301	Yaw:	239.781	Thrust:	76.825
Time:	8.550	Roll Set Point:	-0.223	Pitch Set Point:	-0.084	Yaw Set Point:	-2.958	X_WP:	0.225	Y_WP:	0.073	Y_WP:	0.500	X:	0.163	Y:	0.069	Z:	0.401	yaw:	169.466	yaw rate:	-1.017	Roll:	0.958	Pitch:	-0.292	Yaw:	239.637	Thrust:	77.254
Time:	8.596	Roll Set Point:	-0.223	Pitch Set Point:	-0.084	Yaw Set Point:	-2.958	X_WP:	0.225	Y_WP:	0.073	Y_WP:	0.500	X:	0.163	Y:	0.069	Z:	0.401	yaw:	169.459	yaw rate:	-0.749	Roll:	0.589	Pitch:	-0.654	Yaw:	241.191	Thrust:	100.000
Time:	8.628	Roll Set Point:	-0.223	Pitch Set Point:	-0.084	Yaw Set Point:	-2.958	X_WP:	0.225	Y_WP:	0.073	Y_WP:	0.500	X:	0.163	Y:	0.069	Z:	0.401	yaw:	169.494	yaw rate:	-0.415	Roll:	0.977	Pitch:	-0.318	Yaw:	240.082	Thrust:	78.078
Time:	8.659	Roll Set Point:	-0.223	Pitch Set Point:	-0.084	Yaw Set Point:	-2.958	X_WP:	0.225	Y_WP:	0.073	Y_WP:	0.500	X:	0.163	Y:	0.069	Z:	0.401	yaw:	169.480	yaw rate:	0.452	Roll:	0.972	Pitch:	-0.286	Yaw:	239.644	Thrust:	78.228
Time:	8.690	Roll Set Point:	-0.223	Pitch Set Point:	-0.084	Yaw Set Point:	-2.958	X_WP:	0.225	Y_WP:	0.073	Y_WP:	0.500	X:	0.163	Y:	0.069	Z:	0.401	yaw:	169.464	yaw rate:	-1.592	Roll:	0.978	Pitch:	-0.285	Yaw:	239.609	Thrust:	78.552
Time:	8.721	Roll Set Point:	-0.223	Pitch Set Point:	-0.084	Yaw Set Point:	-2.958	X_WP:	0.225	Y_WP:	0.073	Y_WP:	0.500	X:	0.163	Y:	0.069	Z:	0.401	yaw:	169.487	yaw rate:	2.268	Roll:	0.989	Pitch:	-0.305	Yaw:	239.964	Thrust:	79.158
Time:	8.752	Roll Set Point:	-0.223	Pitch Set Point:	-0.084	Yaw Set Point:	-2.958	X_WP:	0.225	Y_WP:	0.073	Y_WP:	0.500	X:	0.163	Y:	0.069	Z:	0.401	yaw:	169.487	yaw rate:	-0.012	Roll:	0.990	Pitch:	-0.291	Yaw:	239.773	Thrust:	79.397
Time:	8.784	Roll Set Point:	-0.223	Pitch Set Point:	-0.084	Yaw Set Point:	-2.958	X_WP:	0.225	Y_WP:	0.073	Y_WP:	0.500	X:	0.163	Y:	0.069	Z:	0.401	yaw:	169.479	yaw rate:	-0.824	Roll:	0.992	Pitch:	-0.285	Yaw:	239.693	Thrust:	79.786
Time:	8.815	Roll Set Point:	-0.223	Pitch Set Point:	-0.084	Yaw Set Point:	-2.958	X_WP:	0.225	Y_WP:	0.073	Y_WP:	0.500	X:	0.163	Y:	0.069	Z:	0.401	yaw:	169.487	yaw rate:	0.811	Roll:	1.001	Pitch:	-0.294	Yaw:	239.841	Thrust:	80.142
Time:	8.846	Roll Set Point:	-0.223	Pitch Set Point:	-0.084	Yaw Set Point:	-2.958	X_WP:	0.225	Y_WP:	0.073	Y_WP:	0.500	X:	0.163	Y:	0.069	Z:	0.401	yaw:	169.503	yaw rate:	1.590	Roll:	1.005	Pitch:	-0.298	Yaw:	239.929	Thrust:	80.561
Time:	8.877	Roll Set Point:	-0.223	Pitch Set Point:	-0.084	Yaw Set Point:	-2.958	X_WP:	0.225	Y_WP:	0.073	Y_WP:	0.500	X:	0.163	Y:	0.069	Z:	0.401	yaw:	169.491	yaw rate:	-1.132	Roll:	1.008	Pitch:	-0.281	Yaw:	239.685	Thrust:	80.904
Time:	8.909	Roll Set Point:	-0.223	Pitch Set Point:	-0.084	Yaw Set Point:	-2.958	X_WP:	0.225	Y_WP:	0.073	Y_WP:	0.500	X:	0.163	Y:	0.069	Z:	0.401	yaw:	169.482	yaw rate:	-0.898	Roll:	1.013	Pitch:	-0.279	Yaw:	239.693	Thrust:	81.311
Time:	8.956	Roll Set Point:	-0.223	Pitch Set Point:	-0.084	Yaw Set Point:	-2.958	X_WP:	0.225	Y_WP:	0.073	Y_WP:	0.500	X:	0.163	Y:	0.069	Z:	0.401	yaw:	169.480	yaw rate:	-0.212	Roll:	0.651	Pitch:	-0.652	Yaw:	241.314	Thrust:	100.000
Time:	8.987	Roll Set Point:	-0.223	Pitch Set Point:	-0.084	Yaw Set Point:	-2.958	X_WP:	0.225	Y_WP:	0.073	Y_WP:	0.500	X:	0.163	Y:	0.069	Z:	0.401	yaw:	169.481	yaw rate:	0.513	Roll:	1.022	Pitch:	-0.282	Yaw:	239.777	Thrust:	82.111
Time:	9.018	Roll Set Point:	-0.223	Pitch Set Point:	-0.084	Yaw Set Point:	-2.958	X_WP:	0.225	Y_WP:	0.073	Y_WP:	0.500	X:	0.163	Y:	0.069	Z:	0.401	yaw:	169.496	yaw rate:	1.412	Roll:	1.031	Pitch:	-0.292	Yaw:	239.904	Thrust:	82.350
Time:	9.049	Roll Set Point:	-0.223	Pitch Set Point:	-0.084	Yaw Set Point:	-2.958	X_WP:	0.225	Y_WP:	0.073	Y_WP:	0.500	X:	0.163	Y:	0.069	Z:	0.401	yaw:	169.482	yaw rate:	-0.512	Roll:	1.029	Pitch:	-0.272	Yaw:	239.658	Thrust:	82.789
Time:	9.081	Roll Set Point:	-0.223	Pitch Set Point:	-0.084	Yaw Set Point:	-2.958	X_WP:	0.225	Y_WP:	0.073	Y_WP:	0.500	X:	0.163	Y:	0.069	Z:	0.401	yaw:	169.490	yaw rate:	-0.781	Roll:	1.039	Pitch:	-0.284	Yaw:	239.841	Thrust:	83.053
Time:	9.112	Roll Set Point:	-0.223	Pitch Set Point:	-0.084	Yaw Set Point:	-2.958	X_WP:	0.225	Y_WP:	0.073	Y_WP:	0.500	X:	0.163	Y:	0.069	Z:	0.401	yaw:	169.505	yaw rate:	1.520	Roll:	1.044	Pitch:	-0.287	Yaw:	239.927	Thrust:	83.609
Time:	9.143	Roll Set Point:	-0.223	Pitch Set Point:	-0.084	Yaw Set Point:	-2.958	X_WP:	0.225	Y_WP:	0.073	Y_WP:	0.500	X:	0.163	Y:	0.069	Z:	0.401	yaw:	169.465	yaw rate:	-4.007	Roll:	1.040	Pitch:	-0.253	Yaw:	239.408	Thrust:	83.832
Time:	9.174	Roll Set Point:	-0.223	Pitch Set Point:	-0.084	Yaw Set Point:	-2.958	X_WP:	0.225	Y_WP:	0.073	Y_WP:	0.500	X:	0.163	Y:	0.069	Z:	0.401	yaw:	169.481	yaw rate:	1.629	Roll:	1.053	Pitch:	-0.286	Yaw:	239.905	Thrust:	84.318
Time:	9.206	Roll Set Point:	-0.223	Pitch Set Point:	-0.084	Yaw Set Point:	-2.958	X_WP:	0.225	Y_WP:	0.073	Y_WP:	0.500	X:	0.163	Y:	0.069	Z:	0.401	yaw:	169.497	yaw rate:	2.053	Roll:	1.059	Pitch:	-0.283	Yaw:	239.918	Thrust:	84.527
Time:	9.237	Roll Set Point:	-0.223	Pitch Set Point:	-0.084	Yaw Set Point:	-2.958	X_WP:	0.225	Y_WP:	0.073	Y_WP:	0.500	X:	0.163	Y:	0.069	Z:	0.401	yaw:	169.493	yaw rate:	-0.401	Roll:	1.059	Pitch:	-0.272	Yaw:	239.753	Thrust:	85.139
Time:	9.268	Roll Set Point:	-0.223	Pitch Set Point:	-0.084	Yaw Set Point:	-2.958	X_WP:	0.225	Y_WP:	0.073	Y_WP:	0.500	X:	0.163	Y:	0.069	Z:	0.401	yaw:	169.484	yaw rate:	2.104	Roll:	1.065	Pitch:	-0.266	Yaw:	239.689	Thrust:	85.296
Time:	9.299	Roll Set Point:	-0.223	Pitch Set Point:	-0.084	Yaw Set Point:	-2.958	X_WP:	0.225	Y_WP:	0.073	Y_WP:	0.500	X:	0.163	Y:	0.069	Z:	0.401	yaw:	169.465	yaw rate:	-0.797	Roll:	1.067	Pitch:	-0.258	Yaw:	239.579	Thrust:	85.723
Time:	9.331	Roll Set Point:	-0.223	Pitch Set Point:	-0.084	Yaw Set Point:	-2.958	X_WP:	0.225	Y_WP:	0.073	Y_WP:	0.500	X:	0.163	Y:	0.069	Z:	0.401	yaw:	169.479	yaw rate:	1.493	Roll:	1.076	Pitch:	-0.278	Yaw:	239.888	Thrust:	86.136
Time:	9.362	Roll Set Point:	-0.223	Pitch Set Point:	-0.084	Yaw Set Point:	-2.958	X_WP:	0.225	Y_WP:	0.073	Y_WP:	0.500	X:	0.163	Y:	0.069	Z:	0.401	yaw:	169.481	yaw rate:	-0.698	Roll:	1.080	Pitch:	-0.269	Yaw:	239.781	Thrust:	86.407
Time:	9.393	Roll Set Point:	-0.223	Pitch Set Point:	-0.084	Yaw Set Point:	-2.958	X_WP:	0.225	Y_WP:	0.073	Y_WP:	0.500	X:	0.163	Y:	0.069	Z:	0.401	yaw:	169.485	yaw rate:	1.038	Roll:	1.085	Pitch:	-0.268	Yaw:	239.799	Thrust:	86.874
Time:	9.424	Roll Set Point:	-0.223	Pitch Set Point:	-0.084	Yaw Set Point:	-2.958	X_WP:	0.225	Y_WP:	0.073	Y_WP:	0.500	X:	0.163	Y:	0.069	Z:	0.401	yaw:	169.507	yaw rate:	2.257	Roll:	1.091	Pitch:	-0.279	Yaw:	239.994	Thrust:	87.364
Time:	9.456	Roll Set Point:	-0.223	Pitch Set Point:	-0.084	Yaw Set Point:	-2.958	X_WP:	0.225	Y_WP:	0.073	Y_WP:	0.500	X:	0.163	Y:	0.069	Z:	0.401	yaw:	169.494	yaw rate:	1.979	Roll:	1.093	Pitch:	-0.256	Yaw:	239.666	Thrust:	87.543
Time:	9.487	Roll Set Point:	-0.223	Pitch Set Point:	-0.084	Yaw Set Point:	-2.958	X_WP:	0.225	Y_WP:	0.073	Y_WP:	0.500	X:	0.163	Y:	0.069	Z:	0.401	yaw:	169.460	yaw rate:	-3.305	Roll:	1.092	Pitch:	-0.244	Yaw:	239.460	Thrust:	87.881
Time:	9.518	Roll Set Point:	-0.223	Pitch Set Point:	-0.084	Yaw Set Point:	-2.958	X_WP:	0.225	Y_WP:	0.073	Y_WP:	0.500	X:	0.163	Y:	0.069	Z:	0.401	yaw:	169.485	yaw rate:	2.491	Roll:	1.107	Pitch:	-0.277	Yaw:	239.980	Thrust:	88.386
Time:	9.549	Roll Set Point:	-0.223	Pitch Set Point:	-0.084	Yaw Set Point:	-2.958	X_WP:	0.225	Y_WP:	0.073	Y_WP:	0.500	X:	0.163	Y:	0.069	Z:	0.401	yaw:	169.478	yaw rate:	-0.759	Roll:	1.106	Pitch:	-0.257	Yaw:	239.697	Thrust:	88.695
Time:	9.597	Roll Set Point:	-0.223	Pitch Set Point:	-0.084	Yaw Set Point:	-2.958	X_WP:	0.225	Y_WP:	0.073	Y_WP:	0.500	X:	0.163	Y:	0.069	Z:	0.401	yaw:	169.488	yaw rate:	1.090	Roll:	0.779	Pitch:	-0.636	Yaw:	241.466	Thrust:	100.000
Time:	9.628	Roll Set Point:	-0.223	Pitch Set Point:	-0.084	Yaw Set Point:	-2.958	X_WP:	0.225	Y_WP:	0.073	Y_WP:	0.500	X:	0.163	Y:	0.069	Z:	0.401	yaw:	169.480	yaw rate:	-0.787	Roll:	1.114	Pitch:	-0.254	Yaw:	239.698	Thrust:	89.423
Time:	9.660	Roll Set Point:	-0.223	Pitch Set Point:	-0.084	Yaw Set Point:	-2.958	X_WP:	0.225	Y_WP:	0.073	Y_WP:	0.500	X:	0.163	Y:	0.069	Z:	0.401	yaw:	169.485	yaw rate:	0.537	Roll:	1.123	Pitch:	-0.260	Yaw:	239.816	Thrust:	89.830
Time:	9.691	Roll Set Point:	-0.223	Pitch Set Point:	-0.084	Yaw Set Point:	-2.958	X_WP:	0.225	Y_WP:	0.073	Y_WP:	0.500	X:	0.163	Y:	0.069	Z:	0.401	yaw:	169.468	yaw rate:	-1.741	Roll:	1.124	Pitch:	-0.246	Yaw:	239.601	Thrust:	90.191
Time:	9.738	Roll Set Point:	-0.223	Pitch Set Point:	-0.084	Yaw Set Point:	-2.958	X_WP:	0.225	Y_WP:	0.073	Y_WP:	0.500	X:	0.163	Y:	0.069	Z:	0.401	yaw:	169.490	yaw rate:	2.229	Roll:	0.823	Pitch:	-0.617	Yaw:	241.465	Thrust:	100.000
Time:	9.769	Roll Set Point:	-0.223	Pitch Set Point:	-0.084	Yaw Set Point:	-2.958	X_WP:	0.225	Y_WP:	0.073	Y_WP:	0.500	X:	0.163	Y:	0.069	Z:	0.401	yaw:	169.474	yaw rate:	-2.345	Roll:	1.135	Pitch:	-0.245	Yaw:	239.620	Thrust:	90.876
Time:	9.800	Roll Set Point:	-0.223	Pitch Set Point:	-0.084	Yaw Set Point:	-2.958	X_WP:	0.225	Y_WP:	0.073	Y_WP:	0.500	X:	0.163	Y:	0.069	Z:	0.401	yaw:	169.474	yaw rate:	0.376	Roll:	1.142	Pitch:	-0.251	Yaw:	239.758	Thrust:	91.374
Time:	9.831	Roll Set Point:	-0.223	Pitch Set Point:	-0.084	Yaw Set Point:	-2.958	X_WP:	0.225	Y_WP:	0.073	Y_WP:	0.500	X:	0.163	Y:	0.069	Z:	0.401	yaw:	169.500	yaw rate:	0.156	Roll:	1.149	Pitch:	-0.266	Yaw:	240.011	Thrust:	91.615
Time:	9.863	Roll Set Point:	-0.223	Pitch Set Point:	-0.084	Yaw Set Point:	-2.958	X_WP:	0.225	Y_WP:	0.073	Y_WP:	0.500	X:	0.163	Y:	0.069	Z:	0.401	yaw:	169.479	yaw rate:	-2.086	Roll:	1.147	Pitch:	-0.237	Yaw:	239.588	Thrust:	92.138
Time:	9.894	Roll Set Point:	-0.223	Pitch Set Point:	-0.084	Yaw Set Point:	-2.958	X_WP:	0.225	Y_WP:	0.073	Y_WP:	0.500	X:	0.163	Y:	0.069	Z:	0.401	yaw:	169.467	yaw rate:	-1.249	Roll:	1.153	Pitch:	-0.241	Yaw:	239.641	Thrust:	92.346
Time:	9.925	Roll Set Point:	-0.223	Pitch Set Point:	-0.084	Yaw Set Point:	-2.958	X_WP:	0.225	Y_WP:	0.073	Y_WP:	0.500	X:	0.163	Y:	0.069	Z:	0.401	yaw:	169.491	yaw rate:	0.728	Roll:	1.163	Pitch:	-0.262	Yaw:	239.983	Thrust:	92.877
Time:	9.956	Roll Set Point:	-0.223	Pitch Set Point:	-0.084	Yaw Set Point:	-2.958	X_WP:	0.225	Y_WP:	0.073	Y_WP:	0.500	X:	0.163	Y:	0.069	Z:	0.401	yaw:	169.487	yaw rate:	-0.442	Roll:	1.164	Pitch:	-0.244	Yaw:	239.736	Thrust:	93.129
Time:	9.988	Roll Set Point:	-0.223	Pitch Set Point:	-0.084	Yaw Set Point:	-2.958	X_WP:	0.225	Y_WP:	0.073	Y_WP:	0.500	X:	0.163	Y:	0.069	Z:	0.401	yaw:	169.503	yaw rate:	1.927	Roll:	1.171	Pitch:	-0.254	Yaw:	239.937	Thrust:	93.618
Time:	10.019	Roll Set Point:	-0.223	Pitch Set Point:	-0.084	Yaw Set Point:	-2.958	X_WP:	0.225	Y_WP:	0.073	Y_WP:	0.500	X:	0.163	Y:	0.069	Z:	0.401	yaw:	169.479	yaw rate:	-2.446	Roll:	1.170	Pitch:	-0.229	Yaw:	239.557	Thrust:	93.813
Time:	10.050	Roll Set Point:	-0.223	Pitch Set Point:	-0.084	Yaw Set Point:	-2.958	X_WP:	0.225	Y_WP:	0.073	Y_WP:	0.500	X:	0.163	Y:	0.069	Z:	0.401	yaw:	169.474	yaw rate:	-0.481	Roll:	1.178	Pitch:	-0.240	Yaw:	239.716	Thrust:	94.350
Time:	10.081	Roll Set Point:	-0.223	Pitch Set Point:	-0.084	Yaw Set Point:	-2.958	X_WP:	0.225	Y_WP:	0.073	Y_WP:	0.500	X:	0.163	Y:	0.069	Z:	0.401	yaw:	169.477	yaw rate:	0.335	Roll:	1.183	Pitch:	-0.243	Yaw:	239.789	Thrust:	94.616
Time:	10.113	Roll Set Point:	-0.223	Pitch Set Point:	-0.084	Yaw Set Point:	-2.958	X_WP:	0.225	Y_WP:	0.073	Y_WP:	0.500	X:	0.163	Y:	0.069	Z:	0.401	yaw:	169.480	yaw rate:	0.280	Roll:	1.188	Pitch:	-0.241	Yaw:	239.788	Thrust:	95.051
Time:	10.144	Roll Set Point:	-0.223	Pitch Set Point:	-0.084	Yaw Set Point:	-2.958	X_WP:	0.225	Y_WP:	0.073	Y_WP:	0.500	X:	0.163	Y:	0.069	Z:	0.401	yaw:	169.495	yaw rate:	1.474	Roll:	1.195	Pitch:	-0.248	Yaw:	239.909	Thrust:	95.365
Time:	10.191	Roll Set Point:	-0.223	Pitch Set Point:	-0.084	Yaw Set Point:	-2.958	X_WP:	0.225	Y_WP:	0.073	Y_WP:	0.500	X:	0.163	Y:	0.069	Z:	0.401	yaw:	169.483	yaw rate:	-33.416	Roll:	0.914	Pitch:	-0.579	Yaw:	241.263	Thrust:	100.000
Time:	10.238	Roll Set Point:	-0.223	Pitch Set Point:	-0.084	Yaw Set Point:	-2.958	X_WP:	0.225	Y_WP:	0.073	Y_WP:	0.500	X:	0.163	Y:	0.069	Z:	0.401	yaw:	169.468	yaw rate:	-0.649	Roll:	0.925	Pitch:	-0.581	Yaw:	241.257	Thrust:	100.000
Time:	10.280	Roll Set Point:	-0.223	Pitch Set Point:	-0.084	Yaw Set Point:	-2.958	X_WP:	0.225	Y_WP:	0.073	Y_WP:	0.500	X:	0.163	Y:	0.069	Z:	0.401	yaw:	169.491	yaw rate:	1.366	Roll:	1.021	Pitch:	-0.482	Yaw:	240.999	Thrust:	100.000
Time:	10.327	Roll Set Point:	-0.223	Pitch Set Point:	-0.084	Yaw Set Point:	-2.958	X_WP:	0.225	Y_WP:	0.073	Y_WP:	0.500	X:	0.163	Y:	0.069	Z:	0.401	yaw:	169.479	yaw rate:	-2.240	Roll:	0.941	Pitch:	-0.573	Yaw:	241.261	Thrust:	100.000
Time:	10.374	Roll Set Point:	-0.223	Pitch Set Point:	-0.084	Yaw Set Point:	-2.958	X_WP:	0.225	Y_WP:	0.073	Y_WP:	0.500	X:	0.163	Y:	0.069	Z:	0.401	yaw:	169.457	yaw rate:	-2.258	Roll:	0.946	Pitch:	-0.566	Yaw:	241.168	Thrust:	100.000
Time:	10.421	Roll Set Point:	-0.223	Pitch Set Point:	-0.084	Yaw Set Point:	-2.958	X_WP:	0.225	Y_WP:	0.073	Y_WP:	0.500	X:	0.163	Y:	0.069	Z:	0.401	yaw:	169.478	yaw rate:	-1.452	Roll:	0.958	Pitch:	-0.581	Yaw:	241.441	Thrust:	100.000
Time:	10.452	Roll Set Point:	-0.223	Pitch Set Point:	-0.084	Yaw Set Point:	-2.958	X_WP:	0.225	Y_WP:	0.073	Y_WP:	0.500	X:	0.163	Y:	0.069	Z:	0.401	yaw:	169.508	yaw rate:	3.060	Roll:	1.231	Pitch:	-0.250	Yaw:	240.060	Thrust:	98.111
Time:	10.485	Roll Set Point:	-0.223	Pitch Set Point:	-0.084	Yaw Set Point:	-2.958	X_WP:	0.225	Y_WP:	0.073	Y_WP:	0.500	X:	0.163	Y:	0.069	Z:	0.401	yaw:	169.487	yaw rate:	-0.341	Roll:	1.228	Pitch:	-0.227	Yaw:	239.751	Thrust:	99.745
Time:	10.538	Roll Set Point:	-0.223	Pitch Set Point:	-0.084	Yaw Set Point:	-2.958	X_WP:	0.225	Y_WP:	0.073	Y_WP:	0.500	X:	0.163	Y:	0.069	Z:	0.401	yaw:	169.498	yaw rate:	1.541	Roll:	0.853	Pitch:	-0.726	Yaw:	242.012	Thrust:	100.000
Time:	10.569	Roll Set Point:	-0.223	Pitch Set Point:	-0.084	Yaw Set Point:	-2.958	X_WP:	0.225	Y_WP:	0.073	Y_WP:	0.500	X:	0.163	Y:	0.069	Z:	0.401	yaw:	169.484	yaw rate:	-1.366	Roll:	1.239	Pitch:	-0.219	Yaw:	239.656	Thrust:	99.229
Time:	10.597	Roll Set Point:	-0.223	Pitch Set Point:	-0.084	Yaw Set Point:	-2.958	X_WP:	0.225	Y_WP:	0.073	Y_WP:	0.500	X:	0.163	Y:	0.069	Z:	0.401	yaw:	169.502	yaw rate:	1.859	Roll:	1.301	Pitch:	-0.164	Yaw:	239.625	Thrust:	89.041
Time:	10.628	Roll Set Point:	-0.223	Pitch Set Point:	-0.084	Yaw Set Point:	-2.958	X_WP:	0.225	Y_WP:	0.073	Y_WP:	0.500	X:	0.163	Y:	0.069	Z:	0.401	yaw:	169.467	yaw rate:	-2.534	Roll:	1.245	Pitch:	-0.203	Yaw:	239.448	Thrust:	99.861
Time:	10.659	Roll Set Point:	-0.223	Pitch Set Point:	-0.084	Yaw Set Point:	-2.958	X_WP:	0.225	Y_WP:	0.073	Y_WP:	0.500	X:	0.163	Y:	0.069	Z:	0.401	yaw:	169.483	yaw rate:	1.653	Roll:	1.257	Pitch:	-0.231	Yaw:	239.907	Thrust:	100.000
Time:	10.690	Roll Set Point:	-0.223	Pitch Set Point:	-0.084	Yaw Set Point:	-2.958	X_WP:	0.225	Y_WP:	0.073	Y_WP:	0.500	X:	0.163	Y:	0.069	Z:	0.401	yaw:	169.464	yaw rate:	-1.942	Roll:	1.256	Pitch:	-0.210	Yaw:	239.579	Thrust:	100.000
Time:	10.722	Roll Set Point:	-0.223	Pitch Set Point:	-0.084	Yaw Set Point:	-2.958	X_WP:	0.225	Y_WP:	0.073	Y_WP:	0.500	X:	0.163	Y:	0.069	Z:	0.401	yaw:	169.487	yaw rate:	2.249	Roll:	1.266	Pitch:	-0.234	Yaw:	239.963	Thrust:	100.000
Time:	10.753	Roll Set Point:	-0.223	Pitch Set Point:	-0.084	Yaw Set Point:	-2.958	X_WP:	0.225	Y_WP:	0.073	Y_WP:	0.500	X:	0.163	Y:	0.069	Z:	0.401	yaw:	169.487	yaw rate:	0.075	Roll:	1.268	Pitch:	-0.220	Yaw:	239.780	Thrust:	100.000
Time:	10.800	Roll Set Point:	-0.223	Pitch Set Point:	-0.084	Yaw Set Point:	-2.958	X_WP:	0.225	Y_WP:	0.073	Y_WP:	0.500	X:	0.163	Y:	0.069	Z:	0.401	yaw:	169.477	yaw rate:	-1.029	Roll:	1.032	Pitch:	-0.550	Yaw:	241.265	Thrust:	100.000
Time:	10.847	Roll Set Point:	-0.223	Pitch Set Point:	-0.084	Yaw Set Point:	-2.958	X_WP:	0.225	Y_WP:	0.073	Y_WP:	0.500	X:	0.163	Y:	0.069	Z:	0.401	yaw:	169.477	yaw rate:	-1.731	Roll:	1.041	Pitch:	-0.551	Yaw:	241.322	Thrust:	100.000
Time:	10.894	Roll Set Point:	-0.223	Pitch Set Point:	-0.084	Yaw Set Point:	-2.958	X_WP:	0.225	Y_WP:	0.073	Y_WP:	0.500	X:	0.163	Y:	0.069	Z:	0.401	yaw:	169.505	yaw rate:	2.852	Roll:	1.050	Pitch:	-0.562	Yaw:	241.521	Thrust:	100.000
Time:	10.941	Roll Set Point:	-0.223	Pitch Set Point:	-0.084	Yaw Set Point:	-2.958	X_WP:	0.225	Y_WP:	0.073	Y_WP:	0.500	X:	0.163	Y:	0.069	Z:	0.401	yaw:	169.489	yaw rate:	0.957	Roll:	1.053	Pitch:	-0.543	Yaw:	241.247	Thrust:	100.000
