Time:	2.038	Roll Set Point:	0.060	Pitch Set Point:	-0.076	Yaw Set Point:	0.055	X_WP:	0.100	Y_WP:	0.000	Y_WP:	0.500	X:	0.021	Y:	0.040	Z:	0.057	yaw:	-3.133	yaw rate:	-0.564	Roll:	-2.347	Pitch:	1.032	Yaw:	-4.375	Thrust:	24.362
Time:	2.050	Roll Set Point:	0.060	Pitch Set Point:	-0.076	Yaw Set Point:	0.054	X_WP:	0.100	Y_WP:	0.000	Y_WP:	0.500	X:	0.021	Y:	0.040	Z:	0.057	yaw:	-3.117	yaw rate:	1.602	Roll:	-2.346	Pitch:	1.059	Yaw:	-4.001	Thrust:	24.982
Time:	2.064	Roll Set Point:	0.060	Pitch Set Point:	-0.076	Yaw Set Point:	0.054	X_WP:	0.100	Y_WP:	0.000	Y_WP:	0.500	X:	0.021	Y:	0.040	Z:	0.057	yaw:	-3.118	yaw rate:	-0.030	Roll:	-2.357	Pitch:	1.035	Yaw:	-4.388	Thrust:	25.802
Time:	2.077	Roll Set Point:	0.060	Pitch Set Point:	-0.076	Yaw Set Point:	0.054	X_WP:	0.100	Y_WP:	0.000	Y_WP:	0.500	X:	0.021	Y:	0.040	Z:	0.057	yaw:	-3.115	yaw rate:	0.215	Roll:	-2.348	Pitch:	1.028	Yaw:	-4.356	Thrust:	26.614
Time:	2.088	Roll Set Point:	0.060	Pitch Set Point:	-0.076	Yaw Set Point:	0.054	X_WP:	0.100	Y_WP:	0.000	Y_WP:	0.500	X:	0.021	Y:	0.040	Z:	0.057	yaw:	-3.103	yaw rate:	1.197	Roll:	-2.367	Pitch:	1.119	Yaw:	-4.082	Thrust:	26.617
Time:	2.102	Roll Set Point:	0.060	Pitch Set Point:	-0.075	Yaw Set Point:	0.056	X_WP:	0.100	Y_WP:	0.000	Y_WP:	0.500	X:	0.021	Y:	0.040	Z:	0.057	yaw:	-3.197	yaw rate:	-9.319	Roll:	-2.613	Pitch:	0.676	Yaw:	-6.263	Thrust:	28.458
Time:	2.114	Roll Set Point:	0.060	Pitch Set Point:	-0.075	Yaw Set Point:	0.056	X_WP:	0.100	Y_WP:	0.000	Y_WP:	0.500	X:	0.021	Y:	0.040	Z:	0.057	yaw:	-3.209	yaw rate:	-9.072	Roll:	-2.425	Pitch:	0.993	Yaw:	-4.828	Thrust:	28.501
Time:	2.126	Roll Set Point:	0.060	Pitch Set Point:	-0.075	Yaw Set Point:	0.055	X_WP:	0.100	Y_WP:	0.000	Y_WP:	0.500	X:	0.021	Y:	0.040	Z:	0.057	yaw:	-3.157	yaw rate:	5.155	Roll:	-2.180	Pitch:	1.108	Yaw:	-3.328	Thrust:	28.263
Time:	2.138	Roll Set Point:	0.060	Pitch Set Point:	-0.075	Yaw Set Point:	0.055	X_WP:	0.100	Y_WP:	0.000	Y_WP:	0.500	X:	0.021	Y:	0.040	Z:	0.057	yaw:	-3.139	yaw rate:	1.866	Roll:	-2.373	Pitch:	1.032	Yaw:	-4.083	Thrust:	29.318
Time:	2.149	Roll Set Point:	0.060	Pitch Set Point:	-0.075	Yaw Set Point:	0.055	X_WP:	0.100	Y_WP:	0.000	Y_WP:	0.500	X:	0.021	Y:	0.040	Z:	0.057	yaw:	-3.159	yaw rate:	-2.068	Roll:	-2.452	Pitch:	0.990	Yaw:	-5.011	Thrust:	29.952
Time:	2.161	Roll Set Point:	0.060	Pitch Set Point:	-0.075	Yaw Set Point:	0.056	X_WP:	0.100	Y_WP:	0.000	Y_WP:	0.500	X:	0.021	Y:	0.040	Z:	0.057	yaw:	-3.196	yaw rate:	-3.649	Roll:	-2.464	Pitch:	1.178	Yaw:	-5.388	Thrust:	30.507
Time:	2.173	Roll Set Point:	0.060	Pitch Set Point:	-0.075	Yaw Set Point:	0.055	X_WP:	0.100	Y_WP:	0.000	Y_WP:	0.500	X:	0.021	Y:	0.040	Z:	0.057	yaw:	-3.146	yaw rate:	4.962	Roll:	-2.351	Pitch:	1.025	Yaw:	-3.511	Thrust:	31.933
Time:	2.184	Roll Set Point:	0.060	Pitch Set Point:	-0.075	Yaw Set Point:	0.056	X_WP:	0.100	Y_WP:	0.000	Y_WP:	0.500	X:	0.021	Y:	0.040	Z:	0.057	yaw:	-3.199	yaw rate:	-5.306	Roll:	-2.341	Pitch:	0.892	Yaw:	-5.872	Thrust:	31.309
Time:	2.201	Roll Set Point:	0.060	Pitch Set Point:	-0.075	Yaw Set Point:	0.055	X_WP:	0.100	Y_WP:	0.000	Y_WP:	0.500	X:	0.021	Y:	0.040	Z:	0.057	yaw:	-3.154	yaw rate:	4.496	Roll:	-2.421	Pitch:	1.167	Yaw:	-3.969	Thrust:	35.337
Time:	2.214	Roll Set Point:	0.060	Pitch Set Point:	-0.075	Yaw Set Point:	0.055	X_WP:	0.100	Y_WP:	0.000	Y_WP:	0.500	X:	0.021	Y:	0.040	Z:	0.057	yaw:	-3.177	yaw rate:	-18.613	Roll:	-2.332	Pitch:	1.049	Yaw:	-5.102	Thrust:	34.242
Time:	2.227	Roll Set Point:	0.060	Pitch Set Point:	-0.075	Yaw Set Point:	0.055	X_WP:	0.100	Y_WP:	0.000	Y_WP:	0.500	X:	0.021	Y:	0.040	Z:	0.057	yaw:	-3.152	yaw rate:	2.507	Roll:	-2.411	Pitch:	0.976	Yaw:	-4.113	Thrust:	35.285
Time:	2.246	Roll Set Point:	0.060	Pitch Set Point:	-0.076	Yaw Set Point:	0.052	X_WP:	0.100	Y_WP:	0.000	Y_WP:	0.500	X:	0.021	Y:	0.040	Z:	0.057	yaw:	-2.959	yaw rate:	19.329	Roll:	-2.247	Pitch:	1.469	Yaw:	-1.814	Thrust:	40.539
Time:	2.259	Roll Set Point:	0.060	Pitch Set Point:	-0.075	Yaw Set Point:	0.055	X_WP:	0.100	Y_WP:	0.000	Y_WP:	0.500	X:	0.021	Y:	0.040	Z:	0.057	yaw:	-3.134	yaw rate:	-0.909	Roll:	-2.555	Pitch:	0.507	Yaw:	-8.122	Thrust:	35.272
Time:	2.271	Roll Set Point:	0.060	Pitch Set Point:	-0.075	Yaw Set Point:	0.056	X_WP:	0.100	Y_WP:	0.000	Y_WP:	0.500	X:	0.021	Y:	0.040	Z:	0.057	yaw:	-3.195	yaw rate:	-6.122	Roll:	-2.474	Pitch:	0.963	Yaw:	-6.029	Thrust:	36.893
Time:	2.282	Roll Set Point:	0.060	Pitch Set Point:	-0.076	Yaw Set Point:	0.052	X_WP:	0.100	Y_WP:	0.000	Y_WP:	0.500	X:	0.021	Y:	0.040	Z:	0.057	yaw:	-2.965	yaw rate:	23.012	Roll:	-2.040	Pitch:	1.861	Yaw:	1.094	Thrust:	35.029
Time:	2.303	Roll Set Point:	0.060	Pitch Set Point:	-0.075	Yaw Set Point:	0.055	X_WP:	0.100	Y_WP:	0.000	Y_WP:	0.500	X:	0.021	Y:	0.040	Z:	0.057	yaw:	-3.173	yaw rate:	-20.809	Roll:	-2.708	Pitch:	0.537	Yaw:	-8.084	Thrust:	40.145
Time:	2.314	Roll Set Point:	0.060	Pitch Set Point:	-0.076	Yaw Set Point:	0.051	X_WP:	0.100	Y_WP:	0.000	Y_WP:	0.500	X:	0.021	Y:	0.040	Z:	0.057	yaw:	-2.935	yaw rate:	25.572	Roll:	-2.235	Pitch:	1.621	Yaw:	-0.248	Thrust:	43.188
Time:	2.325	Roll Set Point:	0.060	Pitch Set Point:	-0.076	Yaw Set Point:	0.051	X_WP:	0.100	Y_WP:	0.000	Y_WP:	0.500	X:	0.021	Y:	0.040	Z:	0.057	yaw:	-2.935	yaw rate:	25.572	Roll:	-2.400	Pitch:	1.065	Yaw:	-4.376	Thrust:	37.865
Time:	2.337	Roll Set Point:	0.060	Pitch Set Point:	-0.075	Yaw Set Point:	0.055	X_WP:	0.100	Y_WP:	0.000	Y_WP:	0.500	X:	0.021	Y:	0.040	Z:	0.057	yaw:	-3.166	yaw rate:	20.350	Roll:	-2.730	Pitch:	0.144	Yaw:	-9.734	Thrust:	38.571
Time:	2.348	Roll Set Point:	0.060	Pitch Set Point:	-0.075	Yaw Set Point:	0.055	X_WP:	0.100	Y_WP:	0.000	Y_WP:	0.500	X:	0.021	Y:	0.040	Z:	0.057	yaw:	-3.175	yaw rate:	-0.876	Roll:	-2.495	Pitch:	1.184	Yaw:	-4.929	Thrust:	38.984
Time:	2.363	Roll Set Point:	0.060	Pitch Set Point:	-0.075	Yaw Set Point:	0.056	X_WP:	0.100	Y_WP:	0.000	Y_WP:	0.500	X:	0.021	Y:	0.040	Z:	0.057	yaw:	-3.181	yaw rate:	-0.648	Roll:	-2.359	Pitch:	0.998	Yaw:	-4.904	Thrust:	39.549
Time:	2.383	Roll Set Point:	0.061	Pitch Set Point:	-0.075	Yaw Set Point:	0.058	X_WP:	0.100	Y_WP:	0.000	Y_WP:	0.500	X:	0.021	Y:	0.040	Z:	0.057	yaw:	-3.338	yaw rate:	-15.668	Roll:	-2.646	Pitch:	0.862	Yaw:	-7.143	Thrust:	54.974
Time:	2.398	Roll Set Point:	0.060	Pitch Set Point:	-0.075	Yaw Set Point:	0.056	X_WP:	0.100	Y_WP:	0.000	Y_WP:	0.500	X:	0.021	Y:	0.040	Z:	0.057	yaw:	-3.199	yaw rate:	-0.803	Roll:	-2.263	Pitch:	1.397	Yaw:	-2.674	Thrust:	46.169
Time:	2.411	Roll Set Point:	0.061	Pitch Set Point:	-0.075	Yaw Set Point:	0.059	X_WP:	0.100	Y_WP:	0.000	Y_WP:	0.500	X:	0.021	Y:	0.040	Z:	0.057	yaw:	-3.380	yaw rate:	-18.149	Roll:	-2.664	Pitch:	0.634	Yaw:	-8.730	Thrust:	44.531
Time:	2.422	Roll Set Point:	0.060	Pitch Set Point:	-0.075	Yaw Set Point:	0.055	X_WP:	0.100	Y_WP:	0.000	Y_WP:	0.500	X:	0.021	Y:	0.040	Z:	0.057	yaw:	-3.152	yaw rate:	22.776	Roll:	-2.067	Pitch:	1.824	Yaw:	0.847	Thrust:	41.552
Time:	2.438	Roll Set Point:	0.060	Pitch Set Point:	-0.075	Yaw Set Point:	0.055	X_WP:	0.100	Y_WP:	0.000	Y_WP:	0.500	X:	0.021	Y:	0.040	Z:	0.057	yaw:	-3.170	yaw rate:	-1.743	Roll:	-2.426	Pitch:	0.912	Yaw:	-5.239	Thrust:	49.024
Time:	2.449	Roll Set Point:	0.060	Pitch Set Point:	-0.075	Yaw Set Point:	0.055	X_WP:	0.100	Y_WP:	0.000	Y_WP:	0.500	X:	0.021	Y:	0.040	Z:	0.057	yaw:	-3.159	yaw rate:	6.710	Roll:	-2.369	Pitch:	1.102	Yaw:	-4.517	Thrust:	43.240
Time:	2.468	Roll Set Point:	0.060	Pitch Set Point:	-0.076	Yaw Set Point:	0.053	X_WP:	0.100	Y_WP:	0.000	Y_WP:	0.500	X:	0.021	Y:	0.040	Z:	0.057	yaw:	-3.013	yaw rate:	14.562	Roll:	-2.313	Pitch:	1.407	Yaw:	-2.804	Thrust:	55.144
Time:	2.479	Roll Set Point:	0.060	Pitch Set Point:	-0.075	Yaw Set Point:	0.056	X_WP:	0.100	Y_WP:	0.000	Y_WP:	0.500	X:	0.021	Y:	0.040	Z:	0.057	yaw:	-3.212	yaw rate:	-19.906	Roll:	-2.735	Pitch:	0.441	Yaw:	-9.307	Thrust:	46.274
Time:	2.497	Roll Set Point:	0.060	Pitch Set Point:	-0.075	Yaw Set Point:	0.055	X_WP:	0.100	Y_WP:	0.000	Y_WP:	0.500	X:	0.021	Y:	0.040	Z:	0.057	yaw:	-3.175	yaw rate:	3.683	Roll:	-2.420	Pitch:	1.398	Yaw:	-4.469	Thrust:	50.582
Time:	2.511	Roll Set Point:	0.060	Pitch Set Point:	-0.075	Yaw Set Point:	0.056	X_WP:	0.100	Y_WP:	0.000	Y_WP:	0.500	X:	0.021	Y:	0.040	Z:	0.057	yaw:	-3.190	yaw rate:	19.034	Roll:	-2.519	Pitch:	1.078	Yaw:	-5.284	Thrust:	54.938
Time:	2.522	Roll Set Point:	0.060	Pitch Set Point:	-0.076	Yaw Set Point:	0.054	X_WP:	0.100	Y_WP:	0.000	Y_WP:	0.500	X:	0.021	Y:	0.040	Z:	0.057	yaw:	-3.104	yaw rate:	8.612	Roll:	-2.170	Pitch:	1.305	Yaw:	-2.771	Thrust:	45.797
Time:	2.536	Roll Set Point:	0.060	Pitch Set Point:	-0.076	Yaw Set Point:	0.053	X_WP:	0.100	Y_WP:	0.000	Y_WP:	0.500	X:	0.021	Y:	0.040	Z:	0.057	yaw:	-3.063	yaw rate:	4.088	Roll:	-2.440	Pitch:	1.246	Yaw:	-4.137	Thrust:	53.274
Time:	2.547	Roll Set Point:	0.060	Pitch Set Point:	-0.076	Yaw Set Point:	0.056	X_WP:	0.100	Y_WP:	0.000	Y_WP:	0.500	X:	0.021	Y:	0.040	Z:	0.057	yaw:	-3.185	yaw rate:	19.458	Roll:	-2.471	Pitch:	0.808	Yaw:	-7.805	Thrust:	46.337
Time:	2.559	Roll Set Point:	0.060	Pitch Set Point:	-0.075	Yaw Set Point:	0.060	X_WP:	0.100	Y_WP:	0.000	Y_WP:	0.500	X:	0.021	Y:	0.040	Z:	0.057	yaw:	-3.443	yaw rate:	-25.761	Roll:	-2.766	Pitch:	0.393	Yaw:	-11.025	Thrust:	48.729
Time:	2.573	Roll Set Point:	0.060	Pitch Set Point:	-0.075	Yaw Set Point:	0.061	X_WP:	0.100	Y_WP:	0.000	Y_WP:	0.500	X:	0.021	Y:	0.040	Z:	0.057	yaw:	-3.507	yaw rate:	-6.364	Roll:	-2.536	Pitch:	1.047	Yaw:	-6.711	Thrust:	52.580
Time:	2.584	Roll Set Point:	0.060	Pitch Set Point:	-0.075	Yaw Set Point:	0.063	X_WP:	0.100	Y_WP:	0.000	Y_WP:	0.500	X:	0.021	Y:	0.040	Z:	0.057	yaw:	-3.583	yaw rate:	-7.591	Roll:	-2.450	Pitch:	0.986	Yaw:	-7.303	Thrust:	49.364
Time:	2.599	Roll Set Point:	0.060	Pitch Set Point:	-0.075	Yaw Set Point:	0.065	X_WP:	0.100	Y_WP:	0.000	Y_WP:	0.500	X:	0.021	Y:	0.040	Z:	0.057	yaw:	-3.697	yaw rate:	-11.471	Roll:	-2.501	Pitch:	0.984	Yaw:	-7.900	Thrust:	54.499
Time:	2.611	Roll Set Point:	0.060	Pitch Set Point:	-0.075	Yaw Set Point:	0.065	X_WP:	0.100	Y_WP:	0.000	Y_WP:	0.500	X:	0.021	Y:	0.040	Z:	0.057	yaw:	-3.749	yaw rate:	-5.131	Roll:	-2.438	Pitch:	0.942	Yaw:	-6.899	Thrust:	55.725
Time:	2.621	Roll Set Point:	0.060	Pitch Set Point:	-0.075	Yaw Set Point:	0.066	X_WP:	0.100	Y_WP:	0.000	Y_WP:	0.500	X:	0.021	Y:	0.040	Z:	0.057	yaw:	-3.796	yaw rate:	-4.764	Roll:	-2.437	Pitch:	1.160	Yaw:	-7.036	Thrust:	47.728
Time:	2.635	Roll Set Point:	0.060	Pitch Set Point:	-0.075	Yaw Set Point:	0.068	X_WP:	0.100	Y_WP:	0.000	Y_WP:	0.500	X:	0.021	Y:	0.040	Z:	0.057	yaw:	-3.904	yaw rate:	-10.755	Roll:	-2.548	Pitch:	0.938	Yaw:	-8.163	Thrust:	55.557
Time:	2.648	Roll Set Point:	0.060	Pitch Set Point:	-0.075	Yaw Set Point:	0.072	X_WP:	0.100	Y_WP:	0.000	Y_WP:	0.500	X:	0.021	Y:	0.040	Z:	0.057	yaw:	-4.102	yaw rate:	-11.171	Roll:	-2.470	Pitch:	0.881	Yaw:	-10.373	Thrust:	57.449
Time:	2.665	Roll Set Point:	0.060	Pitch Set Point:	-0.075	Yaw Set Point:	0.073	X_WP:	0.100	Y_WP:	0.000	Y_WP:	0.500	X:	0.021	Y:	0.041	Z:	0.057	yaw:	-4.204	yaw rate:	-10.195	Roll:	-2.455	Pitch:	0.995	Yaw:	-8.409	Thrust:	62.269
Time:	2.676	Roll Set Point:	0.060	Pitch Set Point:	-0.075	Yaw Set Point:	0.076	X_WP:	0.100	Y_WP:	0.000	Y_WP:	0.500	X:	0.022	Y:	0.041	Z:	0.057	yaw:	-4.341	yaw rate:	-13.787	Roll:	-2.491	Pitch:	0.930	Yaw:	-9.665	Thrust:	58.094
Time:	2.687	Roll Set Point:	0.060	Pitch Set Point:	-0.075	Yaw Set Point:	0.077	X_WP:	0.100	Y_WP:	0.000	Y_WP:	0.500	X:	0.022	Y:	0.041	Z:	0.057	yaw:	-4.395	yaw rate:	-5.318	Roll:	-2.351	Pitch:	1.044	Yaw:	-8.050	Thrust:	51.684
Time:	2.701	Roll Set Point:	0.059	Pitch Set Point:	-0.075	Yaw Set Point:	0.079	X_WP:	0.100	Y_WP:	0.000	Y_WP:	0.500	X:	0.022	Y:	0.041	Z:	0.057	yaw:	-4.546	yaw rate:	-24.568	Roll:	-2.295	Pitch:	1.072	Yaw:	-10.028	Thrust:	60.274
Time:	2.714	Roll Set Point:	0.059	Pitch Set Point:	-0.076	Yaw Set Point:	0.081	X_WP:	0.100	Y_WP:	0.000	Y_WP:	0.500	X:	0.022	Y:	0.041	Z:	0.058	yaw:	-4.617	yaw rate:	-7.099	Roll:	-2.141	Pitch:	1.454	Yaw:	-8.670	Thrust:	57.163
Time:	2.725	Roll Set Point:	0.058	Pitch Set Point:	-0.076	Yaw Set Point:	0.084	X_WP:	0.100	Y_WP:	0.000	Y_WP:	0.500	X:	0.023	Y:	0.041	Z:	0.058	yaw:	-4.812	yaw rate:	-19.486	Roll:	-2.236	Pitch:	0.687	Yaw:	-11.835	Thrust:	55.638
Time:	2.739	Roll Set Point:	0.058	Pitch Set Point:	-0.076	Yaw Set Point:	0.085	X_WP:	0.100	Y_WP:	0.000	Y_WP:	0.500	X:	0.023	Y:	0.041	Z:	0.058	yaw:	-4.867	yaw rate:	-5.492	Roll:	-2.151	Pitch:	1.219	Yaw:	-8.698	Thrust:	61.883
Time:	2.750	Roll Set Point:	0.057	Pitch Set Point:	-0.076	Yaw Set Point:	0.086	X_WP:	0.100	Y_WP:	0.000	Y_WP:	0.500	X:	0.023	Y:	0.042	Z:	0.058	yaw:	-4.945	yaw rate:	-7.772	Roll:	-2.158	Pitch:	1.196	Yaw:	-9.514	Thrust:	54.769
Time:	2.762	Roll Set Point:	0.056	Pitch Set Point:	-0.077	Yaw Set Point:	0.088	X_WP:	0.100	Y_WP:	0.000	Y_WP:	0.500	X:	0.024	Y:	0.042	Z:	0.059	yaw:	-5.052	yaw rate:	-10.719	Roll:	-1.909	Pitch:	1.163	Yaw:	-10.246	Thrust:	57.414
Time:	2.775	Roll Set Point:	0.055	Pitch Set Point:	-0.078	Yaw Set Point:	0.086	X_WP:	0.100	Y_WP:	0.000	Y_WP:	0.500	X:	0.024	Y:	0.042	Z:	0.059	yaw:	-4.912	yaw rate:	14.030	Roll:	-1.658	Pitch:	1.887	Yaw:	-5.194	Thrust:	65.382
Time:	2.786	Roll Set Point:	0.054	Pitch Set Point:	-0.078	Yaw Set Point:	0.089	X_WP:	0.100	Y_WP:	0.000	Y_WP:	0.500	X:	0.025	Y:	0.042	Z:	0.059	yaw:	-5.092	yaw rate:	-18.065	Roll:	-1.896	Pitch:	0.899	Yaw:	-12.334	Thrust:	55.282
Time:	2.802	Roll Set Point:	0.053	Pitch Set Point:	-0.079	Yaw Set Point:	0.087	X_WP:	0.100	Y_WP:	0.000	Y_WP:	0.500	X:	0.025	Y:	0.043	Z:	0.059	yaw:	-4.962	yaw rate:	12.980	Roll:	-1.585	Pitch:	1.736	Yaw:	-5.999	Thrust:	72.399
Time:	2.813	Roll Set Point:	0.049	Pitch Set Point:	-0.079	Yaw Set Point:	0.096	X_WP:	0.100	Y_WP:	0.000	Y_WP:	0.500	X:	0.027	Y:	0.043	Z:	0.060	yaw:	-5.503	yaw rate:	-58.867	Roll:	0.029	Pitch:	1.199	Yaw:	-20.807	Thrust:	58.298
Time:	2.826	Roll Set Point:	0.048	Pitch Set Point:	-0.079	Yaw Set Point:	0.105	X_WP:	0.100	Y_WP:	0.000	Y_WP:	0.500	X:	0.028	Y:	0.043	Z:	0.060	yaw:	-5.997	yaw rate:	-49.408	Roll:	-1.467	Pitch:	0.359	Yaw:	-20.386	Thrust:	62.720
Time:	2.838	Roll Set Point:	0.046	Pitch Set Point:	-0.079	Yaw Set Point:	0.109	X_WP:	0.100	Y_WP:	0.000	Y_WP:	0.500	X:	0.029	Y:	0.043	Z:	0.060	yaw:	-6.238	yaw rate:	-24.114	Roll:	-1.580	Pitch:	0.957	Yaw:	-14.549	Thrust:	65.960
Time:	2.849	Roll Set Point:	0.045	Pitch Set Point:	-0.079	Yaw Set Point:	0.113	X_WP:	0.100	Y_WP:	0.000	Y_WP:	0.500	X:	0.030	Y:	0.044	Z:	0.060	yaw:	-6.456	yaw rate:	-21.728	Roll:	-1.150	Pitch:	1.023	Yaw:	-15.045	Thrust:	58.295
Time:	2.865	Roll Set Point:	0.042	Pitch Set Point:	-0.080	Yaw Set Point:	0.113	X_WP:	0.100	Y_WP:	0.000	Y_WP:	0.500	X:	0.031	Y:	0.044	Z:	0.060	yaw:	-6.468	yaw rate:	-1.229	Roll:	-0.941	Pitch:	1.702	Yaw:	-10.473	Thrust:	72.133
Time:	2.878	Roll Set Point:	0.041	Pitch Set Point:	-0.080	Yaw Set Point:	0.117	X_WP:	0.100	Y_WP:	0.000	Y_WP:	0.500	X:	0.032	Y:	0.044	Z:	0.061	yaw:	-6.708	yaw rate:	-23.979	Roll:	-1.509	Pitch:	0.964	Yaw:	-15.027	Thrust:	74.345
Time:	2.890	Roll Set Point:	0.033	Pitch Set Point:	-0.081	Yaw Set Point:	0.120	X_WP:	0.100	Y_WP:	0.000	Y_WP:	0.500	X:	0.036	Y:	0.044	Z:	0.061	yaw:	-6.868	yaw rate:	-27.233	Roll:	2.762	Pitch:	2.277	Yaw:	-14.171	Thrust:	62.138
Time:	2.904	Roll Set Point:	0.031	Pitch Set Point:	-0.082	Yaw Set Point:	0.118	X_WP:	0.100	Y_WP:	0.000	Y_WP:	0.500	X:	0.037	Y:	0.045	Z:	0.061	yaw:	-6.775	yaw rate:	9.210	Roll:	-0.416	Pitch:	1.809	Yaw:	-8.920	Thrust:	71.379
Time:	2.915	Roll Set Point:	0.028	Pitch Set Point:	-0.082	Yaw Set Point:	0.119	X_WP:	0.100	Y_WP:	0.000	Y_WP:	0.500	X:	0.038	Y:	0.045	Z:	0.062	yaw:	-6.822	yaw rate:	-4.655	Roll:	-0.148	Pitch:	1.674	Yaw:	-11.632	Thrust:	62.024
Time:	2.927	Roll Set Point:	0.025	Pitch Set Point:	-0.083	Yaw Set Point:	0.118	X_WP:	0.100	Y_WP:	0.000	Y_WP:	0.500	X:	0.040	Y:	0.045	Z:	0.062	yaw:	-6.771	yaw rate:	5.108	Roll:	0.272	Pitch:	1.804	Yaw:	-9.495	Thrust:	66.620
Time:	2.938	Roll Set Point:	0.022	Pitch Set Point:	-0.084	Yaw Set Point:	0.112	X_WP:	0.100	Y_WP:	0.000	Y_WP:	0.500	X:	0.042	Y:	0.046	Z:	0.063	yaw:	-6.408	yaw rate:	36.260	Roll:	0.557	Pitch:	2.598	Yaw:	-1.839	Thrust:	64.743
Time:	2.949	Roll Set Point:	0.019	Pitch Set Point:	-0.085	Yaw Set Point:	0.114	X_WP:	0.100	Y_WP:	0.000	Y_WP:	0.500	X:	0.043	Y:	0.046	Z:	0.063	yaw:	-6.508	yaw rate:	-9.944	Roll:	0.366	Pitch:	1.477	Yaw:	-12.589	Thrust:	60.146
Time:	2.962	Roll Set Point:	0.015	Pitch Set Point:	-0.085	Yaw Set Point:	0.110	X_WP:	0.100	Y_WP:	0.000	Y_WP:	0.500	X:	0.045	Y:	0.046	Z:	0.064	yaw:	-6.315	yaw rate:	19.317	Roll:	0.418	Pitch:	1.988	Yaw:	-6.056	Thrust:	64.559
Time:	2.979	Roll Set Point:	0.008	Pitch Set Point:	-0.087	Yaw Set Point:	0.099	X_WP:	0.100	Y_WP:	0.000	Y_WP:	0.500	X:	0.048	Y:	0.046	Z:	0.066	yaw:	-5.696	yaw rate:	61.867	Roll:	1.688	Pitch:	2.617	Yaw:	-0.523	Thrust:	90.449
Time:	2.991	Roll Set Point:	0.005	Pitch Set Point:	-0.087	Yaw Set Point:	0.100	X_WP:	0.100	Y_WP:	0.000	Y_WP:	0.500	X:	0.050	Y:	0.046	Z:	0.067	yaw:	-5.728	yaw rate:	-3.238	Roll:	0.826	Pitch:	1.610	Yaw:	-9.938	Thrust:	64.870
Time:	3.011	Roll Set Point:	-0.002	Pitch Set Point:	-0.089	Yaw Set Point:	0.091	X_WP:	0.100	Y_WP:	0.000	Y_WP:	0.500	X:	0.053	Y:	0.047	Z:	0.069	yaw:	-5.227	yaw rate:	32.206	Roll:	1.248	Pitch:	2.292	Yaw:	-3.151	Thrust:	97.833
Time:	3.022	Roll Set Point:	-0.006	Pitch Set Point:	-0.089	Yaw Set Point:	0.087	X_WP:	0.100	Y_WP:	0.000	Y_WP:	0.500	X:	0.055	Y:	0.047	Z:	0.070	yaw:	-5.001	yaw rate:	22.534	Roll:	1.535	Pitch:	1.863	Yaw:	-2.531	Thrust:	62.380
Time:	3.038	Roll Set Point:	-0.011	Pitch Set Point:	-0.090	Yaw Set Point:	0.084	X_WP:	0.100	Y_WP:	0.000	Y_WP:	0.500	X:	0.057	Y:	0.047	Z:	0.072	yaw:	-4.823	yaw rate:	17.850	Roll:	0.806	Pitch:	1.898	Yaw:	-5.593	Thrust:	84.649
Time:	3.049	Roll Set Point:	-0.018	Pitch Set Point:	-0.091	Yaw Set Point:	0.077	X_WP:	0.100	Y_WP:	0.000	Y_WP:	0.500	X:	0.061	Y:	0.047	Z:	0.075	yaw:	-4.411	yaw rate:	18.494	Roll:	4.531	Pitch:	2.359	Yaw:	1.908	Thrust:	56.923
Time:	3.065	Roll Set Point:	-0.023	Pitch Set Point:	-0.091	Yaw Set Point:	0.072	X_WP:	0.100	Y_WP:	0.000	Y_WP:	0.500	X:	0.063	Y:	0.047	Z:	0.077	yaw:	-4.143	yaw rate:	26.809	Roll:	1.437	Pitch:	1.963	Yaw:	-2.616	Thrust:	76.913
Time:	3.077	Roll Set Point:	-0.027	Pitch Set Point:	-0.091	Yaw Set Point:	0.071	X_WP:	0.100	Y_WP:	0.000	Y_WP:	0.500	X:	0.065	Y:	0.047	Z:	0.079	yaw:	-4.076	yaw rate:	6.664	Roll:	1.218	Pitch:	1.452	Yaw:	-5.951	Thrust:	72.114
Time:	3.089	Roll Set Point:	-0.036	Pitch Set Point:	-0.091	Yaw Set Point:	0.066	X_WP:	0.100	Y_WP:	0.000	Y_WP:	0.500	X:	0.069	Y:	0.047	Z:	0.085	yaw:	-3.788	yaw rate:	28.829	Roll:	5.641	Pitch:	1.926	Yaw:	0.253	Thrust:	48.467
Time:	3.102	Roll Set Point:	-0.040	Pitch Set Point:	-0.091	Yaw Set Point:	0.066	X_WP:	0.100	Y_WP:	0.000	Y_WP:	0.500	X:	0.071	Y:	0.047	Z:	0.088	yaw:	-3.763	yaw rate:	2.441	Roll:	1.622	Pitch:	1.365	Yaw:	-6.200	Thrust:	64.817
Time:	3.114	Roll Set Point:	-0.049	Pitch Set Point:	-0.091	Yaw Set Point:	0.059	X_WP:	0.100	Y_WP:	0.000	Y_WP:	0.500	X:	0.076	Y:	0.046	Z:	0.094	yaw:	-3.381	yaw rate:	10.002	Roll:	5.602	Pitch:	1.796	Yaw:	1.758	Thrust:	51.435
Time:	3.126	Roll Set Point:	-0.054	Pitch Set Point:	-0.091	Yaw Set Point:	0.057	X_WP:	0.100	Y_WP:	0.000	Y_WP:	0.500	X:	0.078	Y:	0.046	Z:	0.097	yaw:	-3.250	yaw rate:	13.071	Roll:	2.662	Pitch:	1.382	Yaw:	-3.315	Thrust:	62.733
Time:	3.139	Roll Set Point:	-0.058	Pitch Set Point:	-0.091	Yaw Set Point:	0.051	X_WP:	0.100	Y_WP:	0.000	Y_WP:	0.500	X:	0.080	Y:	0.046	Z:	0.101	yaw:	-2.917	yaw rate:	33.331	Roll:	2.139	Pitch:	1.564	Yaw:	1.708	Thrust:	68.208
Time:	3.150	Roll Set Point:	-0.063	Pitch Set Point:	-0.091	Yaw Set Point:	0.049	X_WP:	0.100	Y_WP:	0.000	Y_WP:	0.500	X:	0.082	Y:	0.046	Z:	0.104	yaw:	-2.805	yaw rate:	11.222	Roll:	2.702	Pitch:	1.362	Yaw:	-2.774	Thrust:	59.918
Time:	3.166	Roll Set Point:	-0.067	Pitch Set Point:	-0.091	Yaw Set Point:	0.044	X_WP:	0.100	Y_WP:	0.000	Y_WP:	0.500	X:	0.085	Y:	0.046	Z:	0.108	yaw:	-2.542	yaw rate:	26.261	Roll:	2.212	Pitch:	1.453	Yaw:	-1.241	Thrust:	78.829
Time:	3.179	Roll Set Point:	-0.076	Pitch Set Point:	-0.090	Yaw Set Point:	0.034	X_WP:	0.100	Y_WP:	0.000	Y_WP:	0.500	X:	0.089	Y:	0.045	Z:	0.115	yaw:	-1.927	yaw rate:	18.962	Roll:	4.520	Pitch:	1.390	Yaw:	8.052	Thrust:	57.868
Time:	3.191	Roll Set Point:	-0.080	Pitch Set Point:	-0.090	Yaw Set Point:	0.032	X_WP:	0.100	Y_WP:	0.000	Y_WP:	0.500	X:	0.091	Y:	0.045	Z:	0.119	yaw:	-1.845	yaw rate:	8.253	Roll:	2.947	Pitch:	1.010	Yaw:	-2.450	Thrust:	63.332
Time:	3.210	Roll Set Point:	-0.089	Pitch Set Point:	-0.089	Yaw Set Point:	0.024	X_WP:	0.100	Y_WP:	0.000	Y_WP:	0.500	X:	0.095	Y:	0.045	Z:	0.127	yaw:	-1.350	yaw rate:	49.463	Roll:	3.489	Pitch:	1.206	Yaw:	2.672	Thrust:	94.225
Time:	3.222	Roll Set Point:	-0.094	Pitch Set Point:	-0.089	Yaw Set Point:	0.021	X_WP:	0.100	Y_WP:	0.000	Y_WP:	0.500	X:	0.097	Y:	0.044	Z:	0.131	yaw:	-1.179	yaw rate:	17.163	Roll:	2.943	Pitch:	1.051	Yaw:	0.777	Thrust:	58.244
Time:	3.237	Roll Set Point:	-0.099	Pitch Set Point:	-0.088	Yaw Set Point:	0.015	X_WP:	0.100	Y_WP:	0.000	Y_WP:	0.500	X:	0.100	Y:	0.044	Z:	0.136	yaw:	-0.885	yaw rate:	29.353	Roll:	2.455	Pitch:	1.268	Yaw:	1.740	Thrust:	81.507
Time:	3.248	Roll Set Point:	-0.107	Pitch Set Point:	-0.087	Yaw Set Point:	0.011	X_WP:	0.100	Y_WP:	0.000	Y_WP:	0.500	X:	0.104	Y:	0.044	Z:	0.144	yaw:	-0.602	yaw rate:	25.476	Roll:	6.959	Pitch:	0.527	Yaw:	4.481	Thrust:	32.915
Time:	3.261	Roll Set Point:	-0.112	Pitch Set Point:	-0.087	Yaw Set Point:	0.005	X_WP:	0.100	Y_WP:	0.000	Y_WP:	0.500	X:	0.106	Y:	0.043	Z:	0.149	yaw:	-0.298	yaw rate:	30.429	Roll:	3.997	Pitch:	0.985	Yaw:	4.037	Thrust:	64.466
Time:	3.276	Roll Set Point:	-0.116	Pitch Set Point:	-0.086	Yaw Set Point:	0.005	X_WP:	0.100	Y_WP:	0.000	Y_WP:	0.500	X:	0.108	Y:	0.043	Z:	0.153	yaw:	-0.312	yaw rate:	-1.418	Roll:	1.945	Pitch:	0.917	Yaw:	-2.543	Thrust:	80.218
Time:	3.287	Roll Set Point:	-0.120	Pitch Set Point:	-0.085	Yaw Set Point:	0.003	X_WP:	0.100	Y_WP:	0.000	Y_WP:	0.500	X:	0.110	Y:	0.042	Z:	0.157	yaw:	-0.175	yaw rate:	13.658	Roll:	3.413	Pitch:	0.654	Yaw:	1.688	Thrust:	57.558
Time:	3.301	Roll Set Point:	-0.129	Pitch Set Point:	-0.083	Yaw Set Point:	-0.001	X_WP:	0.100	Y_WP:	0.000	Y_WP:	0.500	X:	0.114	Y:	0.041	Z:	0.166	yaw:	0.080	yaw rate:	25.541	Roll:	5.740	Pitch:	0.075	Yaw:	3.066	Thrust:	60.676
Time:	3.313	Roll Set Point:	-0.133	Pitch Set Point:	-0.082	Yaw Set Point:	-0.005	X_WP:	0.100	Y_WP:	0.000	Y_WP:	0.500	X:	0.116	Y:	0.041	Z:	0.170	yaw:	0.274	yaw rate:	19.365	Roll:	3.169	Pitch:	0.664	Yaw:	3.054	Thrust:	62.128
Time:	3.326	Roll Set Point:	-0.137	Pitch Set Point:	-0.081	Yaw Set Point:	-0.008	X_WP:	0.100	Y_WP:	0.000	Y_WP:	0.500	X:	0.118	Y:	0.041	Z:	0.175	yaw:	0.452	yaw rate:	17.807	Roll:	3.010	Pitch:	0.449	Yaw:	2.726	Thrust:	65.862
Time:	3.338	Roll Set Point:	-0.141	Pitch Set Point:	-0.080	Yaw Set Point:	-0.009	X_WP:	0.100	Y_WP:	0.000	Y_WP:	0.500	X:	0.120	Y:	0.040	Z:	0.179	yaw:	0.538	yaw rate:	8.613	Roll:	3.439	Pitch:	0.470	Yaw:	1.238	Thrust:	59.324
Time:	3.349	Roll Set Point:	-0.145	Pitch Set Point:	-0.079	Yaw Set Point:	-0.011	X_WP:	0.100	Y_WP:	0.000	Y_WP:	0.500	X:	0.122	Y:	0.039	Z:	0.183	yaw:	0.644	yaw rate:	10.602	Roll:	3.765	Pitch:	0.381	Yaw:	1.850	Thrust:	59.006
Time:	3.363	Roll Set Point:	-0.157	Pitch Set Point:	-0.075	Yaw Set Point:	-0.018	X_WP:	0.100	Y_WP:	0.000	Y_WP:	0.500	X:	0.128	Y:	0.038	Z:	0.198	yaw:	1.056	yaw rate:	11.567	Roll:	8.346	Pitch:	-1.402	Yaw:	7.704	Thrust:	29.451
Time:	3.377	Roll Set Point:	-0.161	Pitch Set Point:	-0.074	Yaw Set Point:	-0.021	X_WP:	0.100	Y_WP:	0.000	Y_WP:	0.500	X:	0.130	Y:	0.037	Z:	0.203	yaw:	1.205	yaw rate:	14.928	Roll:	2.940	Pitch:	0.573	Yaw:	2.539	Thrust:	83.617
Time:	3.389	Roll Set Point:	-0.165	Pitch Set Point:	-0.073	Yaw Set Point:	-0.021	X_WP:	0.100	Y_WP:	0.000	Y_WP:	0.500	X:	0.132	Y:	0.037	Z:	0.208	yaw:	1.218	yaw rate:	1.283	Roll:	3.726	Pitch:	0.372	Yaw:	0.472	Thrust:	59.729
Time:	3.401	Roll Set Point:	-0.169	Pitch Set Point:	-0.072	Yaw Set Point:	-0.027	X_WP:	0.100	Y_WP:	0.000	Y_WP:	0.500	X:	0.134	Y:	0.037	Z:	0.213	yaw:	1.544	yaw rate:	32.609	Roll:	3.478	Pitch:	0.362	Yaw:	7.555	Thrust:	61.925
Time:	3.413	Roll Set Point:	-0.172	Pitch Set Point:	-0.071	Yaw Set Point:	-0.025	X_WP:	0.100	Y_WP:	0.000	Y_WP:	0.500	X:	0.136	Y:	0.036	Z:	0.218	yaw:	1.434	yaw rate:	-11.030	Roll:	3.336	Pitch:	0.214	Yaw:	-1.889	Thrust:	60.800
Time:	3.425	Roll Set Point:	-0.176	Pitch Set Point:	-0.070	Yaw Set Point:	-0.027	X_WP:	0.100	Y_WP:	0.000	Y_WP:	0.500	X:	0.137	Y:	0.035	Z:	0.223	yaw:	1.546	yaw rate:	11.279	Roll:	3.745	Pitch:	0.094	Yaw:	3.252	Thrust:	50.491
Time:	3.438	Roll Set Point:	-0.179	Pitch Set Point:	-0.068	Yaw Set Point:	-0.031	X_WP:	0.100	Y_WP:	0.000	Y_WP:	0.500	X:	0.139	Y:	0.035	Z:	0.228	yaw:	1.777	yaw rate:	23.051	Roll:	3.311	Pitch:	0.262	Yaw:	5.491	Thrust:	73.953
Time:	3.450	Roll Set Point:	-0.186	Pitch Set Point:	-0.065	Yaw Set Point:	-0.032	X_WP:	0.100	Y_WP:	0.000	Y_WP:	0.500	X:	0.142	Y:	0.033	Z:	0.239	yaw:	1.819	yaw rate:	8.967	Roll:	5.865	Pitch:	-1.344	Yaw:	2.086	Thrust:	35.691
Time:	3.467	Roll Set Point:	-0.192	Pitch Set Point:	-0.063	Yaw Set Point:	-0.034	X_WP:	0.100	Y_WP:	0.000	Y_WP:	0.500	X:	0.146	Y:	0.032	Z:	0.249	yaw:	1.959	yaw rate:	13.998	Roll:	4.901	Pitch:	-0.271	Yaw:	2.922	Thrust:	75.111
Time:	3.479	Roll Set Point:	-0.196	Pitch Set Point:	-0.062	Yaw Set Point:	-0.035	X_WP:	0.100	Y_WP:	0.000	Y_WP:	0.500	X:	0.147	Y:	0.032	Z:	0.255	yaw:	1.980	yaw rate:	2.071	Roll:	3.211	Pitch:	0.150	Yaw:	1.677	Thrust:	62.907
Time:	3.491	Roll Set Point:	-0.198	Pitch Set Point:	-0.060	Yaw Set Point:	-0.036	X_WP:	0.100	Y_WP:	0.000	Y_WP:	0.500	X:	0.149	Y:	0.031	Z:	0.260	yaw:	2.068	yaw rate:	8.802	Roll:	3.437	Pitch:	-0.210	Yaw:	3.776	Thrust:	48.193
Time:	3.504	Roll Set Point:	-0.201	Pitch Set Point:	-0.059	Yaw Set Point:	-0.037	X_WP:	0.100	Y_WP:	0.000	Y_WP:	0.500	X:	0.150	Y:	0.030	Z:	0.266	yaw:	2.107	yaw rate:	3.946	Roll:	2.922	Pitch:	0.135	Yaw:	1.819	Thrust:	76.500
Time:	3.515	Roll Set Point:	-0.204	Pitch Set Point:	-0.058	Yaw Set Point:	-0.038	X_WP:	0.100	Y_WP:	0.000	Y_WP:	0.500	X:	0.152	Y:	0.030	Z:	0.271	yaw:	2.205	yaw rate:	9.736	Roll:	3.676	Pitch:	-0.192	Yaw:	4.076	Thrust:	54.681
Time:	3.533	Roll Set Point:	-0.207	Pitch Set Point:	-0.057	Yaw Set Point:	-0.039	X_WP:	0.100	Y_WP:	0.000	Y_WP:	0.500	X:	0.153	Y:	0.029	Z:	0.277	yaw:	2.218	yaw rate:	1.303	Roll:	2.756	Pitch:	0.343	Yaw:	1.209	Thrust:	95.999
Time:	3.545	Roll Set Point:	-0.215	Pitch Set Point:	-0.053	Yaw Set Point:	-0.042	X_WP:	0.100	Y_WP:	0.000	Y_WP:	0.500	X:	0.157	Y:	0.028	Z:	0.294	yaw:	2.384	yaw rate:	10.957	Roll:	6.947	Pitch:	-1.789	Yaw:	5.600	Thrust:	12.750
Time:	3.557	Roll Set Point:	-0.218	Pitch Set Point:	-0.052	Yaw Set Point:	-0.045	X_WP:	0.100	Y_WP:	0.000	Y_WP:	0.500	X:	0.158	Y:	0.027	Z:	0.299	yaw:	2.572	yaw rate:	18.853	Roll:	3.663	Pitch:	-0.161	Yaw:	6.280	Thrust:	57.426
Time:	3.569	Roll Set Point:	-0.220	Pitch Set Point:	-0.051	Yaw Set Point:	-0.044	X_WP:	0.100	Y_WP:	0.000	Y_WP:	0.500	X:	0.159	Y:	0.027	Z:	0.305	yaw:	2.502	yaw rate:	-7.023	Roll:	3.043	Pitch:	-0.003	Yaw:	0.572	Thrust:	57.849
Time:	3.581	Roll Set Point:	-0.222	Pitch Set Point:	-0.050	Yaw Set Point:	-0.042	X_WP:	0.100	Y_WP:	0.000	Y_WP:	0.500	X:	0.161	Y:	0.026	Z:	0.311	yaw:	2.426	yaw rate:	-7.540	Roll:	3.034	Pitch:	0.041	Yaw:	0.350	Thrust:	53.201
Time:	3.597	Roll Set Point:	-0.224	Pitch Set Point:	-0.048	Yaw Set Point:	-0.043	X_WP:	0.100	Y_WP:	0.000	Y_WP:	0.500	X:	0.162	Y:	0.026	Z:	0.317	yaw:	2.479	yaw rate:	5.226	Roll:	3.152	Pitch:	0.153	Yaw:	2.562	Thrust:	75.076
Time:	3.611	Roll Set Point:	-0.230	Pitch Set Point:	-0.045	Yaw Set Point:	-0.045	X_WP:	0.100	Y_WP:	0.000	Y_WP:	0.500	X:	0.165	Y:	0.024	Z:	0.334	yaw:	2.579	yaw rate:	-13.366	Roll:	4.570	Pitch:	-1.091	Yaw:	3.686	Thrust:	51.128
Time:	3.622	Roll Set Point:	-0.232	Pitch Set Point:	-0.044	Yaw Set Point:	-0.044	X_WP:	0.100	Y_WP:	0.000	Y_WP:	0.500	X:	0.166	Y:	0.024	Z:	0.340	yaw:	2.532	yaw rate:	-4.776	Roll:	3.167	Pitch:	0.007	Yaw:	1.161	Thrust:	48.955
Time:	3.637	Roll Set Point:	-0.234	Pitch Set Point:	-0.043	Yaw Set Point:	-0.044	X_WP:	0.100	Y_WP:	0.000	Y_WP:	0.500	X:	0.167	Y:	0.023	Z:	0.345	yaw:	2.550	yaw rate:	1.787	Roll:	2.815	Pitch:	0.175	Yaw:	2.256	Thrust:	75.041
Time:	3.648	Roll Set Point:	-0.236	Pitch Set Point:	-0.042	Yaw Set Point:	-0.044	X_WP:	0.100	Y_WP:	0.000	Y_WP:	0.500	X:	0.167	Y:	0.023	Z:	0.351	yaw:	2.525	yaw rate:	-2.479	Roll:	3.176	Pitch:	-0.053	Yaw:	1.716	Thrust:	49.149
Time:	3.663	Roll Set Point:	-0.237	Pitch Set Point:	-0.041	Yaw Set Point:	-0.044	X_WP:	0.100	Y_WP:	0.000	Y_WP:	0.500	X:	0.168	Y:	0.022	Z:	0.356	yaw:	2.543	yaw rate:	1.838	Roll:	3.204	Pitch:	-0.014	Yaw:	2.283	Thrust:	68.085
Time:	3.678	Roll Set Point:	-0.239	Pitch Set Point:	-0.041	Yaw Set Point:	-0.044	X_WP:	0.100	Y_WP:	0.000	Y_WP:	0.500	X:	0.169	Y:	0.022	Z:	0.362	yaw:	2.531	yaw rate:	-1.228	Roll:	2.509	Pitch:	0.285	Yaw:	1.629	Thrust:	89.341
Time:	3.688	Roll Set Point:	-0.243	Pitch Set Point:	-0.038	Yaw Set Point:	-0.044	X_WP:	0.100	Y_WP:	0.000	Y_WP:	0.500	X:	0.171	Y:	0.021	Z:	0.378	yaw:	2.541	yaw rate:	-2.111	Roll:	5.245	Pitch:	-1.441	Yaw:	2.656	Thrust:	0.273
Time:	3.702	Roll Set Point:	-0.245	Pitch Set Point:	-0.037	Yaw Set Point:	-0.043	X_WP:	0.100	Y_WP:	0.000	Y_WP:	0.500	X:	0.172	Y:	0.020	Z:	0.383	yaw:	2.458	yaw rate:	-8.266	Roll:	2.833	Pitch:	0.170	Yaw:	0.386	Thrust:	62.370
Time:	3.714	Roll Set Point:	-0.246	Pitch Set Point:	-0.036	Yaw Set Point:	-0.044	X_WP:	0.100	Y_WP:	0.000	Y_WP:	0.500	X:	0.173	Y:	0.020	Z:	0.388	yaw:	2.518	yaw rate:	5.984	Roll:	2.839	Pitch:	0.016	Yaw:	3.646	Thrust:	60.928
Time:	3.726	Roll Set Point:	-0.247	Pitch Set Point:	-0.036	Yaw Set Point:	-0.043	X_WP:	0.100	Y_WP:	0.000	Y_WP:	0.500	X:	0.173	Y:	0.019	Z:	0.394	yaw:	2.464	yaw rate:	-5.428	Roll:	2.791	Pitch:	0.231	Yaw:	0.988	Thrust:	59.126
Time:	3.741	Roll Set Point:	-0.248	Pitch Set Point:	-0.035	Yaw Set Point:	-0.042	X_WP:	0.100	Y_WP:	0.000	Y_WP:	0.500	X:	0.174	Y:	0.019	Z:	0.399	yaw:	2.379	yaw rate:	-8.483	Roll:	2.573	Pitch:	0.268	Yaw:	0.275	Thrust:	74.499
Time:	3.752	Roll Set Point:	-0.249	Pitch Set Point:	-0.034	Yaw Set Point:	-0.043	X_WP:	0.100	Y_WP:	0.000	Y_WP:	0.500	X:	0.174	Y:	0.019	Z:	0.404	yaw:	2.473	yaw rate:	9.398	Roll:	2.750	Pitch:	-0.103	Yaw:	4.540	Thrust:	44.406
Time:	3.772	Roll Set Point:	-0.250	Pitch Set Point:	-0.034	Yaw Set Point:	-0.041	X_WP:	0.100	Y_WP:	0.000	Y_WP:	0.500	X:	0.175	Y:	0.018	Z:	0.410	yaw:	2.326	yaw rate:	-14.665	Roll:	2.512	Pitch:	0.489	Yaw:	-0.741	Thrust:	99.162
Time:	3.783	Roll Set Point:	-0.252	Pitch Set Point:	-0.033	Yaw Set Point:	-0.039	X_WP:	0.100	Y_WP:	0.000	Y_WP:	0.500	X:	0.176	Y:	0.018	Z:	0.420	yaw:	2.241	yaw rate:	-5.468	Roll:	2.881	Pitch:	0.007	Yaw:	0.103	Thrust:	50.850
Time:	3.799	Roll Set Point:	-0.253	Pitch Set Point:	-0.032	Yaw Set Point:	-0.042	X_WP:	0.100	Y_WP:	0.000	Y_WP:	0.500	X:	0.176	Y:	0.018	Z:	0.425	yaw:	2.381	yaw rate:	14.014	Roll:	2.772	Pitch:	0.066	Yaw:	4.515	Thrust:	71.101
Time:	3.811	Roll Set Point:	-0.255	Pitch Set Point:	-0.031	Yaw Set Point:	-0.035	X_WP:	0.100	Y_WP:	0.000	Y_WP:	0.500	X:	0.177	Y:	0.017	Z:	0.439	yaw:	2.027	yaw rate:	-2.829	Roll:	3.078	Pitch:	0.053	Yaw:	-5.315	Thrust:	37.901
Time:	3.822	Roll Set Point:	-0.255	Pitch Set Point:	-0.030	Yaw Set Point:	-0.037	X_WP:	0.100	Y_WP:	0.000	Y_WP:	0.500	X:	0.177	Y:	0.017	Z:	0.444	yaw:	2.100	yaw rate:	7.299	Roll:	2.794	Pitch:	0.178	Yaw:	3.544	Thrust:	50.346
Time:	3.836	Roll Set Point:	-0.256	Pitch Set Point:	-0.030	Yaw Set Point:	-0.032	X_WP:	0.100	Y_WP:	0.000	Y_WP:	0.500	X:	0.178	Y:	0.016	Z:	0.448	yaw:	1.857	yaw rate:	-24.352	Roll:	2.371	Pitch:	0.585	Yaw:	-3.230	Thrust:	71.680
Time:	3.849	Roll Set Point:	-0.256	Pitch Set Point:	-0.030	Yaw Set Point:	-0.031	X_WP:	0.100	Y_WP:	0.000	Y_WP:	0.500	X:	0.178	Y:	0.016	Z:	0.453	yaw:	1.771	yaw rate:	-8.567	Roll:	2.519	Pitch:	0.460	Yaw:	-0.549	Thrust:	60.955
Time:	3.867	Roll Set Point:	-0.257	Pitch Set Point:	-0.030	Yaw Set Point:	-0.029	X_WP:	0.100	Y_WP:	0.000	Y_WP:	0.500	X:	0.178	Y:	0.016	Z:	0.457	yaw:	1.657	yaw rate:	-11.397	Roll:	2.404	Pitch:	0.508	Yaw:	-1.103	Thrust:	95.704
Time:	3.879	Roll Set Point:	-0.258	Pitch Set Point:	-0.029	Yaw Set Point:	-0.026	X_WP:	0.100	Y_WP:	0.000	Y_WP:	0.500	X:	0.179	Y:	0.016	Z:	0.466	yaw:	1.511	yaw rate:	-5.994	Roll:	2.751	Pitch:	0.471	Yaw:	-2.221	Thrust:	49.930
Time:	3.891	Roll Set Point:	-0.259	Pitch Set Point:	-0.029	Yaw Set Point:	-0.025	X_WP:	0.100	Y_WP:	0.000	Y_WP:	0.500	X:	0.179	Y:	0.016	Z:	0.470	yaw:	1.438	yaw rate:	-7.352	Roll:	2.572	Pitch:	0.407	Yaw:	-0.774	Thrust:	54.015
Time:	3.905	Roll Set Point:	-0.259	Pitch Set Point:	-0.029	Yaw Set Point:	-0.023	X_WP:	0.100	Y_WP:	0.000	Y_WP:	0.500	X:	0.180	Y:	0.015	Z:	0.479	yaw:	1.329	yaw rate:	-10.859	Roll:	2.624	Pitch:	0.534	Yaw:	-1.485	Thrust:	64.126
Time:	3.916	Roll Set Point:	-0.260	Pitch Set Point:	-0.029	Yaw Set Point:	-0.025	X_WP:	0.100	Y_WP:	0.000	Y_WP:	0.500	X:	0.180	Y:	0.015	Z:	0.483	yaw:	1.426	yaw rate:	9.626	Roll:	2.731	Pitch:	0.391	Yaw:	3.222	Thrust:	49.608
Time:	3.935	Roll Set Point:	-0.260	Pitch Set Point:	-0.029	Yaw Set Point:	-0.020	X_WP:	0.100	Y_WP:	0.000	Y_WP:	0.500	X:	0.180	Y:	0.015	Z:	0.487	yaw:	1.170	yaw rate:	-25.553	Roll:	2.207	Pitch:	0.795	Yaw:	-3.786	Thrust:	91.550
Time:	3.948	Roll Set Point:	-0.261	Pitch Set Point:	-0.029	Yaw Set Point:	-0.019	X_WP:	0.100	Y_WP:	0.000	Y_WP:	0.500	X:	0.180	Y:	0.015	Z:	0.496	yaw:	1.107	yaw rate:	-20.915	Roll:	2.481	Pitch:	0.594	Yaw:	-0.946	Thrust:	57.983
Time:	3.960	Roll Set Point:	-0.261	Pitch Set Point:	-0.029	Yaw Set Point:	-0.018	X_WP:	0.100	Y_WP:	0.000	Y_WP:	0.500	X:	0.180	Y:	0.015	Z:	0.500	yaw:	1.028	yaw rate:	-7.908	Roll:	2.354	Pitch:	0.728	Yaw:	-1.388	Thrust:	62.154
Time:	3.978	Roll Set Point:	-0.261	Pitch Set Point:	-0.029	Yaw Set Point:	-0.017	X_WP:	0.100	Y_WP:	0.000	Y_WP:	0.500	X:	0.180	Y:	0.015	Z:	0.508	yaw:	0.979	yaw rate:	-0.957	Roll:	2.345	Pitch:	0.758	Yaw:	-1.016	Thrust:	84.589
Time:	3.990	Roll Set Point:	-0.261	Pitch Set Point:	-0.029	Yaw Set Point:	-0.016	X_WP:	0.100	Y_WP:	0.000	Y_WP:	0.500	X:	0.181	Y:	0.015	Z:	0.512	yaw:	0.893	yaw rate:	-8.668	Roll:	2.345	Pitch:	0.864	Yaw:	-1.799	Thrust:	45.611
Time:	4.004	Roll Set Point:	-0.261	Pitch Set Point:	-0.030	Yaw Set Point:	-0.016	X_WP:	0.100	Y_WP:	0.000	Y_WP:	0.500	X:	0.181	Y:	0.016	Z:	0.519	yaw:	0.928	yaw rate:	3.583	Roll:	2.311	Pitch:	0.769	Yaw:	0.655	Thrust:	66.137
Time:	4.017	Roll Set Point:	-0.261	Pitch Set Point:	-0.030	Yaw Set Point:	-0.014	X_WP:	0.100	Y_WP:	0.000	Y_WP:	0.500	X:	0.181	Y:	0.016	Z:	0.523	yaw:	0.816	yaw rate:	-11.223	Roll:	2.254	Pitch:	0.902	Yaw:	-2.289	Thrust:	66.937
Time:	4.034	Roll Set Point:	-0.261	Pitch Set Point:	-0.031	Yaw Set Point:	-0.013	X_WP:	0.100	Y_WP:	0.000	Y_WP:	0.500	X:	0.181	Y:	0.016	Z:	0.527	yaw:	0.763	yaw rate:	-5.306	Roll:	2.205	Pitch:	0.840	Yaw:	-1.285	Thrust:	76.575
Time:	4.046	Roll Set Point:	-0.261	Pitch Set Point:	-0.031	Yaw Set Point:	-0.013	X_WP:	0.100	Y_WP:	0.000	Y_WP:	0.500	X:	0.180	Y:	0.016	Z:	0.535	yaw:	0.731	yaw rate:	5.103	Roll:	2.046	Pitch:	1.214	Yaw:	-0.782	Thrust:	48.876
Time:	4.060	Roll Set Point:	-0.261	Pitch Set Point:	-0.032	Yaw Set Point:	-0.011	X_WP:	0.100	Y_WP:	0.000	Y_WP:	0.500	X:	0.180	Y:	0.016	Z:	0.538	yaw:	0.633	yaw rate:	-9.856	Roll:	2.223	Pitch:	0.923	Yaw:	-2.231	Thrust:	65.857
Time:	4.078	Roll Set Point:	-0.261	Pitch Set Point:	-0.033	Yaw Set Point:	-0.010	X_WP:	0.100	Y_WP:	0.000	Y_WP:	0.500	X:	0.180	Y:	0.017	Z:	0.547	yaw:	0.561	yaw rate:	-8.203	Roll:	1.972	Pitch:	1.172	Yaw:	-1.928	Thrust:	93.249
Time:	4.090	Roll Set Point:	-0.260	Pitch Set Point:	-0.034	Yaw Set Point:	-0.009	X_WP:	0.100	Y_WP:	0.000	Y_WP:	0.500	X:	0.180	Y:	0.017	Z:	0.555	yaw:	0.523	yaw rate:	-3.810	Roll:	1.768	Pitch:	1.383	Yaw:	-1.203	Thrust:	38.239
Time:	4.104	Roll Set Point:	-0.260	Pitch Set Point:	-0.034	Yaw Set Point:	-0.008	X_WP:	0.100	Y_WP:	0.000	Y_WP:	0.500	X:	0.180	Y:	0.017	Z:	0.559	yaw:	0.482	yaw rate:	-4.115	Roll:	1.990	Pitch:	1.029	Yaw:	-1.378	Thrust:	66.762
Time:	4.116	Roll Set Point:	-0.259	Pitch Set Point:	-0.035	Yaw Set Point:	-0.007	X_WP:	0.100	Y_WP:	0.000	Y_WP:	0.500	X:	0.179	Y:	0.018	Z:	0.563	yaw:	0.422	yaw rate:	-5.993	Roll:	1.895	Pitch:	1.196	Yaw:	-1.826	Thrust:	49.586
Time:	4.136	Roll Set Point:	-0.259	Pitch Set Point:	-0.036	Yaw Set Point:	-0.008	X_WP:	0.100	Y_WP:	0.000	Y_WP:	0.500	X:	0.179	Y:	0.018	Z:	0.567	yaw:	0.441	yaw rate:	1.944	Roll:	1.964	Pitch:	0.987	Yaw:	-0.800	Thrust:	96.406
Time:	4.148	Roll Set Point:	-0.258	Pitch Set Point:	-0.037	Yaw Set Point:	-0.005	X_WP:	0.100	Y_WP:	0.000	Y_WP:	0.500	X:	0.179	Y:	0.019	Z:	0.575	yaw:	0.314	yaw rate:	-2.745	Roll:	1.605	Pitch:	1.673	Yaw:	-3.256	Thrust:	48.973
Time:	4.160	Roll Set Point:	-0.257	Pitch Set Point:	-0.038	Yaw Set Point:	-0.007	X_WP:	0.100	Y_WP:	0.000	Y_WP:	0.500	X:	0.179	Y:	0.019	Z:	0.579	yaw:	0.382	yaw rate:	6.858	Roll:	2.047	Pitch:	1.152	Yaw:	0.803	Thrust:	48.489
Time:	4.178	Roll Set Point:	-0.256	Pitch Set Point:	-0.039	Yaw Set Point:	-0.002	X_WP:	0.100	Y_WP:	0.000	Y_WP:	0.500	X:	0.178	Y:	0.020	Z:	0.587	yaw:	0.096	yaw rate:	-8.699	Roll:	1.426	Pitch:	1.693	Yaw:	-5.733	Thrust:	85.213
Time:	4.188	Roll Set Point:	-0.255	Pitch Set Point:	-0.040	Yaw Set Point:	-0.000	X_WP:	0.100	Y_WP:	0.000	Y_WP:	0.500	X:	0.178	Y:	0.020	Z:	0.591	yaw:	0.003	yaw rate:	-9.280	Roll:	1.676	Pitch:	1.376	Yaw:	-3.242	Thrust:	41.325
Time:	4.203	Roll Set Point:	-0.254	Pitch Set Point:	-0.041	Yaw Set Point:	-0.004	X_WP:	0.100	Y_WP:	0.000	Y_WP:	0.500	X:	0.177	Y:	0.021	Z:	0.599	yaw:	0.244	yaw rate:	24.112	Roll:	1.518	Pitch:	1.465	Yaw:	3.548	Thrust:	53.563
Time:	4.216	Roll Set Point:	-0.253	Pitch Set Point:	-0.042	Yaw Set Point:	0.001	X_WP:	0.100	Y_WP:	0.000	Y_WP:	0.500	X:	0.177	Y:	0.021	Z:	0.602	yaw:	-0.070	yaw rate:	-31.397	Roll:	1.480	Pitch:	1.552	Yaw:	-7.398	Thrust:	58.855
Time:	4.233	Roll Set Point:	-0.252	Pitch Set Point:	-0.043	Yaw Set Point:	0.002	X_WP:	0.100	Y_WP:	0.000	Y_WP:	0.500	X:	0.176	Y:	0.021	Z:	0.606	yaw:	-0.110	yaw rate:	-4.037	Roll:	1.728	Pitch:	1.280	Yaw:	-2.270	Thrust:	81.884
Time:	4.245	Roll Set Point:	-0.251	Pitch Set Point:	-0.045	Yaw Set Point:	-0.000	X_WP:	0.100	Y_WP:	0.000	Y_WP:	0.500	X:	0.176	Y:	0.022	Z:	0.612	yaw:	0.022	yaw rate:	10.954	Roll:	1.402	Pitch:	1.719	Yaw:	1.650	Thrust:	42.265
Time:	4.255	Roll Set Point:	-0.250	Pitch Set Point:	-0.045	Yaw Set Point:	0.003	X_WP:	0.100	Y_WP:	0.000	Y_WP:	0.500	X:	0.175	Y:	0.023	Z:	0.616	yaw:	-0.182	yaw rate:	-20.337	Roll:	1.248	Pitch:	1.646	Yaw:	-6.231	Thrust:	41.320
Time:	4.269	Roll Set Point:	-0.249	Pitch Set Point:	-0.046	Yaw Set Point:	0.004	X_WP:	0.100	Y_WP:	0.000	Y_WP:	0.500	X:	0.175	Y:	0.023	Z:	0.619	yaw:	-0.201	yaw rate:	-1.940	Roll:	1.586	Pitch:	1.411	Yaw:	-1.870	Thrust:	56.266
Time:	4.280	Roll Set Point:	-0.249	Pitch Set Point:	-0.047	Yaw Set Point:	0.003	X_WP:	0.100	Y_WP:	0.000	Y_WP:	0.500	X:	0.174	Y:	0.023	Z:	0.622	yaw:	-0.174	yaw rate:	2.694	Roll:	1.510	Pitch:	1.381	Yaw:	-0.608	Thrust:	47.661
Time:	4.296	Roll Set Point:	-0.248	Pitch Set Point:	-0.048	Yaw Set Point:	0.003	X_WP:	0.100	Y_WP:	0.000	Y_WP:	0.500	X:	0.174	Y:	0.024	Z:	0.626	yaw:	-0.173	yaw rate:	0.123	Roll:	1.562	Pitch:	1.362	Yaw:	-1.728	Thrust:	74.000
Time:	4.311	Roll Set Point:	-0.245	Pitch Set Point:	-0.050	Yaw Set Point:	0.003	X_WP:	0.100	Y_WP:	0.000	Y_WP:	0.500	X:	0.173	Y:	0.025	Z:	0.634	yaw:	-0.147	yaw rate:	5.149	Roll:	0.876	Pitch:	2.188	Yaw:	-1.124	Thrust:	57.505
Time:	4.323	Roll Set Point:	-0.245	Pitch Set Point:	-0.051	Yaw Set Point:	-0.003	X_WP:	0.100	Y_WP:	0.000	Y_WP:	0.500	X:	0.172	Y:	0.026	Z:	0.637	yaw:	0.166	yaw rate:	31.306	Roll:	1.697	Pitch:	1.122	Yaw:	6.173	Thrust:	53.402
Time:	4.336	Roll Set Point:	-0.244	Pitch Set Point:	-0.052	Yaw Set Point:	-0.003	X_WP:	0.100	Y_WP:	0.000	Y_WP:	0.500	X:	0.172	Y:	0.026	Z:	0.639	yaw:	0.144	yaw rate:	-2.146	Roll:	1.465	Pitch:	1.499	Yaw:	-1.446	Thrust:	62.424
Time:	4.348	Roll Set Point:	-0.242	Pitch Set Point:	-0.053	Yaw Set Point:	0.002	X_WP:	0.100	Y_WP:	0.000	Y_WP:	0.500	X:	0.171	Y:	0.026	Z:	0.641	yaw:	-0.116	yaw rate:	-26.037	Roll:	1.131	Pitch:	1.731	Yaw:	-7.123	Thrust:	49.864
Time:	4.360	Roll Set Point:	-0.242	Pitch Set Point:	-0.053	Yaw Set Point:	0.001	X_WP:	0.100	Y_WP:	0.000	Y_WP:	0.500	X:	0.171	Y:	0.027	Z:	0.643	yaw:	-0.066	yaw rate:	5.031	Roll:	1.384	Pitch:	1.405	Yaw:	-0.096	Thrust:	53.462
Time:	4.379	Roll Set Point:	-0.240	Pitch Set Point:	-0.055	Yaw Set Point:	-0.004	X_WP:	0.100	Y_WP:	0.000	Y_WP:	0.500	X:	0.170	Y:	0.028	Z:	0.647	yaw:	0.222	yaw rate:	27.596	Roll:	1.307	Pitch:	1.662	Yaw:	2.667	Thrust:	89.030
Time:	4.396	Roll Set Point:	-0.239	Pitch Set Point:	-0.056	Yaw Set Point:	-0.000	X_WP:	0.100	Y_WP:	0.000	Y_WP:	0.500	X:	0.169	Y:	0.028	Z:	0.648	yaw:	0.006	yaw rate:	-21.555	Roll:	1.080	Pitch:	1.665	Yaw:	-4.845	Thrust:	54.523
Time:	4.412	Roll Set Point:	-0.237	Pitch Set Point:	-0.057	Yaw Set Point:	-0.002	X_WP:	0.100	Y_WP:	0.000	Y_WP:	0.500	X:	0.168	Y:	0.029	Z:	0.651	yaw:	0.096	yaw rate:	8.940	Roll:	1.178	Pitch:	1.696	Yaw:	0.122	Thrust:	100.000
Time:	4.426	Roll Set Point:	-0.235	Pitch Set Point:	-0.059	Yaw Set Point:	-0.003	X_WP:	0.100	Y_WP:	0.000	Y_WP:	0.500	X:	0.167	Y:	0.030	Z:	0.654	yaw:	0.147	yaw rate:	-2.373	Roll:	0.558	Pitch:	1.992	Yaw:	-0.112	Thrust:	62.933
Time:	4.437	Roll Set Point:	-0.234	Pitch Set Point:	-0.060	Yaw Set Point:	-0.003	X_WP:	0.100	Y_WP:	0.000	Y_WP:	0.500	X:	0.167	Y:	0.030	Z:	0.655	yaw:	0.170	yaw rate:	2.248	Roll:	1.228	Pitch:	1.533	Yaw:	-0.301	Thrust:	51.665
Time:	4.448	Roll Set Point:	-0.233	Pitch Set Point:	-0.060	Yaw Set Point:	-0.002	X_WP:	0.100	Y_WP:	0.000	Y_WP:	0.500	X:	0.166	Y:	0.030	Z:	0.656	yaw:	0.107	yaw rate:	-6.287	Roll:	1.072	Pitch:	1.714	Yaw:	-2.345	Thrust:	47.983
Time:	4.465	Roll Set Point:	-0.232	Pitch Set Point:	-0.061	Yaw Set Point:	-0.002	X_WP:	0.100	Y_WP:	0.000	Y_WP:	0.500	X:	0.166	Y:	0.031	Z:	0.657	yaw:	0.125	yaw rate:	1.811	Roll:	1.251	Pitch:	1.518	Yaw:	-0.946	Thrust:	75.006
Time:	4.477	Roll Set Point:	-0.230	Pitch Set Point:	-0.062	Yaw Set Point:	-0.001	X_WP:	0.100	Y_WP:	0.000	Y_WP:	0.500	X:	0.165	Y:	0.031	Z:	0.659	yaw:	0.060	yaw rate:	-6.545	Roll:	1.195	Pitch:	1.628	Yaw:	-2.414	Thrust:	59.012
Time:	4.489	Roll Set Point:	-0.228	Pitch Set Point:	-0.064	Yaw Set Point:	-0.002	X_WP:	0.100	Y_WP:	0.000	Y_WP:	0.500	X:	0.164	Y:	0.032	Z:	0.662	yaw:	0.092	yaw rate:	3.249	Roll:	0.282	Pitch:	2.209	Yaw:	-0.105	Thrust:	38.874
Time:	4.503	Roll Set Point:	-0.226	Pitch Set Point:	-0.065	Yaw Set Point:	-0.003	X_WP:	0.100	Y_WP:	0.000	Y_WP:	0.500	X:	0.163	Y:	0.033	Z:	0.666	yaw:	0.187	yaw rate:	8.145	Roll:	0.464	Pitch:	1.986	Yaw:	0.596	Thrust:	55.199
Time:	4.514	Roll Set Point:	-0.225	Pitch Set Point:	-0.066	Yaw Set Point:	-0.001	X_WP:	0.100	Y_WP:	0.000	Y_WP:	0.500	X:	0.162	Y:	0.033	Z:	0.668	yaw:	0.060	yaw rate:	-12.681	Roll:	0.887	Pitch:	1.957	Yaw:	-4.023	Thrust:	46.974
Time:	4.527	Roll Set Point:	-0.224	Pitch Set Point:	-0.067	Yaw Set Point:	-0.003	X_WP:	0.100	Y_WP:	0.000	Y_WP:	0.500	X:	0.162	Y:	0.033	Z:	0.670	yaw:	0.151	yaw rate:	9.038	Roll:	1.032	Pitch:	1.579	Yaw:	0.961	Thrust:	52.620
Time:	4.547	Roll Set Point:	-0.223	Pitch Set Point:	-0.068	Yaw Set Point:	-0.003	X_WP:	0.100	Y_WP:	0.000	Y_WP:	0.500	X:	0.161	Y:	0.034	Z:	0.672	yaw:	0.151	yaw rate:	0.002	Roll:	1.308	Pitch:	1.608	Yaw:	-1.655	Thrust:	95.807
Time:	4.559	Roll Set Point:	-0.222	Pitch Set Point:	-0.068	Yaw Set Point:	-0.004	X_WP:	0.100	Y_WP:	0.000	Y_WP:	0.500	X:	0.161	Y:	0.034	Z:	0.674	yaw:	0.243	yaw rate:	9.250	Roll:	1.062	Pitch:	1.545	Yaw:	1.114	Thrust:	54.953
Time:	4.573	Roll Set Point:	-0.218	Pitch Set Point:	-0.071	Yaw Set Point:	-0.006	X_WP:	0.100	Y_WP:	0.000	Y_WP:	0.500	X:	0.159	Y:	0.035	Z:	0.680	yaw:	0.317	yaw rate:	5.477	Roll:	-0.283	Pitch:	2.693	Yaw:	0.644	Thrust:	43.736
Time:	4.584	Roll Set Point:	-0.217	Pitch Set Point:	-0.071	Yaw Set Point:	-0.006	X_WP:	0.100	Y_WP:	0.000	Y_WP:	0.500	X:	0.158	Y:	0.036	Z:	0.682	yaw:	0.347	yaw rate:	2.973	Roll:	0.809	Pitch:	1.769	Yaw:	0.194	Thrust:	38.692
Time:	4.600	Roll Set Point:	-0.216	Pitch Set Point:	-0.072	Yaw Set Point:	-0.007	X_WP:	0.100	Y_WP:	0.000	Y_WP:	0.500	X:	0.158	Y:	0.036	Z:	0.684	yaw:	0.403	yaw rate:	5.625	Roll:	1.110	Pitch:	1.615	Yaw:	-0.009	Thrust:	75.473
Time:	4.612	Roll Set Point:	-0.215	Pitch Set Point:	-0.073	Yaw Set Point:	-0.007	X_WP:	0.100	Y_WP:	0.000	Y_WP:	0.500	X:	0.157	Y:	0.037	Z:	0.685	yaw:	0.401	yaw rate:	-0.132	Roll:	0.809	Pitch:	1.828	Yaw:	-0.553	Thrust:	47.471
Time:	4.625	Roll Set Point:	-0.212	Pitch Set Point:	-0.074	Yaw Set Point:	-0.009	X_WP:	0.100	Y_WP:	0.000	Y_WP:	0.500	X:	0.156	Y:	0.037	Z:	0.689	yaw:	0.537	yaw rate:	-0.817	Roll:	0.098	Pitch:	2.081	Yaw:	2.420	Thrust:	44.428
Time:	4.637	Roll Set Point:	-0.211	Pitch Set Point:	-0.075	Yaw Set Point:	-0.010	X_WP:	0.100	Y_WP:	0.000	Y_WP:	0.500	X:	0.155	Y:	0.038	Z:	0.691	yaw:	0.592	yaw rate:	5.505	Roll:	0.889	Pitch:	1.790	Yaw:	0.885	Thrust:	49.283
Time:	4.648	Roll Set Point:	-0.210	Pitch Set Point:	-0.076	Yaw Set Point:	-0.016	X_WP:	0.100	Y_WP:	0.000	Y_WP:	0.500	X:	0.155	Y:	0.038	Z:	0.692	yaw:	0.917	yaw rate:	32.497	Roll:	1.205	Pitch:	1.559	Yaw:	8.008	Thrust:	41.883
Time:	4.664	Roll Set Point:	-0.209	Pitch Set Point:	-0.076	Yaw Set Point:	-0.013	X_WP:	0.100	Y_WP:	0.000	Y_WP:	0.500	X:	0.154	Y:	0.039	Z:	0.693	yaw:	0.768	yaw rate:	-14.928	Roll:	0.622	Pitch:	1.756	Yaw:	-2.912	Thrust:	62.215
Time:	4.678	Roll Set Point:	-0.208	Pitch Set Point:	-0.077	Yaw Set Point:	-0.015	X_WP:	0.100	Y_WP:	0.000	Y_WP:	0.500	X:	0.154	Y:	0.039	Z:	0.694	yaw:	0.837	yaw rate:	6.896	Roll:	1.028	Pitch:	1.703	Yaw:	1.063	Thrust:	63.839
Time:	4.690	Roll Set Point:	-0.207	Pitch Set Point:	-0.078	Yaw Set Point:	-0.016	X_WP:	0.100	Y_WP:	0.000	Y_WP:	0.500	X:	0.153	Y:	0.039	Z:	0.695	yaw:	0.902	yaw rate:	6.548	Roll:	0.786	Pitch:	1.803	Yaw:	1.617	Thrust:	43.303
Time:	4.702	Roll Set Point:	-0.203	Pitch Set Point:	-0.080	Yaw Set Point:	-0.018	X_WP:	0.100	Y_WP:	0.000	Y_WP:	0.500	X:	0.151	Y:	0.040	Z:	0.697	yaw:	1.034	yaw rate:	0.776	Roll:	-0.578	Pitch:	2.556	Yaw:	3.189	Thrust:	53.043
Time:	4.714	Roll Set Point:	-0.202	Pitch Set Point:	-0.080	Yaw Set Point:	-0.019	X_WP:	0.100	Y_WP:	0.000	Y_WP:	0.500	X:	0.151	Y:	0.041	Z:	0.697	yaw:	1.100	yaw rate:	6.678	Roll:	0.725	Pitch:	1.732	Yaw:	2.038	Thrust:	48.383
Time:	4.726	Roll Set Point:	-0.201	Pitch Set Point:	-0.081	Yaw Set Point:	-0.020	X_WP:	0.100	Y_WP:	0.000	Y_WP:	0.500	X:	0.150	Y:	0.041	Z:	0.697	yaw:	1.149	yaw rate:	4.815	Roll:	0.842	Pitch:	1.817	Yaw:	1.549	Thrust:	52.868
Time:	4.739	Roll Set Point:	-0.200	Pitch Set Point:	-0.082	Yaw Set Point:	-0.021	X_WP:	0.100	Y_WP:	0.000	Y_WP:	0.500	X:	0.150	Y:	0.041	Z:	0.696	yaw:	1.208	yaw rate:	5.899	Roll:	0.768	Pitch:	1.750	Yaw:	1.734	Thrust:	56.725
Time:	4.750	Roll Set Point:	-0.199	Pitch Set Point:	-0.082	Yaw Set Point:	-0.021	X_WP:	0.100	Y_WP:	0.000	Y_WP:	0.500	X:	0.149	Y:	0.042	Z:	0.696	yaw:	1.210	yaw rate:	0.290	Roll:	0.644	Pitch:	1.850	Yaw:	0.802	Thrust:	47.221
Time:	4.766	Roll Set Point:	-0.198	Pitch Set Point:	-0.083	Yaw Set Point:	-0.022	X_WP:	0.100	Y_WP:	0.000	Y_WP:	0.500	X:	0.149	Y:	0.042	Z:	0.696	yaw:	1.267	yaw rate:	5.627	Roll:	0.697	Pitch:	1.760	Yaw:	1.604	Thrust:	52.186
Time:	4.780	Roll Set Point:	-0.196	Pitch Set Point:	-0.084	Yaw Set Point:	-0.024	X_WP:	0.100	Y_WP:	0.000	Y_WP:	0.500	X:	0.147	Y:	0.043	Z:	0.694	yaw:	1.357	yaw rate:	7.060	Roll:	0.430	Pitch:	2.000	Yaw:	2.086	Thrust:	82.374
Time:	4.799	Roll Set Point:	-0.195	Pitch Set Point:	-0.084	Yaw Set Point:	-0.025	X_WP:	0.100	Y_WP:	0.000	Y_WP:	0.500	X:	0.147	Y:	0.043	Z:	0.693	yaw:	1.429	yaw rate:	7.172	Roll:	0.766	Pitch:	1.684	Yaw:	1.631	Thrust:	68.880
Time:	4.810	Roll Set Point:	-0.192	Pitch Set Point:	-0.085	Yaw Set Point:	-0.025	X_WP:	0.100	Y_WP:	0.000	Y_WP:	0.500	X:	0.146	Y:	0.043	Z:	0.690	yaw:	1.450	yaw rate:	2.032	Roll:	0.294	Pitch:	1.988	Yaw:	1.271	Thrust:	74.781
Time:	4.820	Roll Set Point:	-0.191	Pitch Set Point:	-0.086	Yaw Set Point:	-0.025	X_WP:	0.100	Y_WP:	0.000	Y_WP:	0.500	X:	0.145	Y:	0.044	Z:	0.689	yaw:	1.428	yaw rate:	-2.200	Roll:	0.543	Pitch:	2.005	Yaw:	0.572	Thrust:	47.168
Time:	4.836	Roll Set Point:	-0.190	Pitch Set Point:	-0.086	Yaw Set Point:	-0.026	X_WP:	0.100	Y_WP:	0.000	Y_WP:	0.500	X:	0.144	Y:	0.044	Z:	0.687	yaw:	1.490	yaw rate:	6.232	Roll:	0.666	Pitch:	1.645	Yaw:	1.752	Thrust:	74.240
Time:	4.847	Roll Set Point:	-0.188	Pitch Set Point:	-0.088	Yaw Set Point:	-0.031	X_WP:	0.100	Y_WP:	0.000	Y_WP:	0.500	X:	0.143	Y:	0.045	Z:	0.683	yaw:	1.763	yaw rate:	22.620	Roll:	0.142	Pitch:	2.261	Yaw:	8.381	Thrust:	58.969
Time:	4.858	Roll Set Point:	-0.187	Pitch Set Point:	-0.088	Yaw Set Point:	-0.027	X_WP:	0.100	Y_WP:	0.000	Y_WP:	0.500	X:	0.143	Y:	0.045	Z:	0.681	yaw:	1.546	yaw rate:	-21.697	Roll:	0.007	Pitch:	1.874	Yaw:	-3.657	Thrust:	51.271
Time:	4.871	Roll Set Point:	-0.186	Pitch Set Point:	-0.088	Yaw Set Point:	-0.028	X_WP:	0.100	Y_WP:	0.000	Y_WP:	0.500	X:	0.142	Y:	0.045	Z:	0.679	yaw:	1.605	yaw rate:	5.829	Roll:	0.525	Pitch:	1.614	Yaw:	2.434	Thrust:	62.928
Time:	4.882	Roll Set Point:	-0.184	Pitch Set Point:	-0.089	Yaw Set Point:	-0.027	X_WP:	0.100	Y_WP:	0.000	Y_WP:	0.500	X:	0.142	Y:	0.045	Z:	0.677	yaw:	1.572	yaw rate:	-3.270	Roll:	0.422	Pitch:	2.019	Yaw:	0.518	Thrust:	50.786
Time:	4.897	Roll Set Point:	-0.183	Pitch Set Point:	-0.089	Yaw Set Point:	-0.027	X_WP:	0.100	Y_WP:	0.000	Y_WP:	0.500	X:	0.141	Y:	0.045	Z:	0.675	yaw:	1.569	yaw rate:	-0.273	Roll:	0.389	Pitch:	1.616	Yaw:	0.959	Thrust:	64.964
Time:	4.912	Roll Set Point:	-0.180	Pitch Set Point:	-0.090	Yaw Set Point:	-0.032	X_WP:	0.100	Y_WP:	0.000	Y_WP:	0.500	X:	0.139	Y:	0.046	Z:	0.669	yaw:	1.849	yaw rate:	26.007	Roll:	-0.201	Pitch:	2.132	Yaw:	6.286	Thrust:	84.494
Time:	4.924	Roll Set Point:	-0.179	Pitch Set Point:	-0.091	Yaw Set Point:	-0.027	X_WP:	0.100	Y_WP:	0.000	Y_WP:	0.500	X:	0.139	Y:	0.046	Z:	0.667	yaw:	1.548	yaw rate:	-30.154	Roll:	0.034	Pitch:	1.965	Yaw:	-5.134	Thrust:	54.307
Time:	4.938	Roll Set Point:	-0.178	Pitch Set Point:	-0.091	Yaw Set Point:	-0.027	X_WP:	0.100	Y_WP:	0.000	Y_WP:	0.500	X:	0.138	Y:	0.046	Z:	0.665	yaw:	1.554	yaw rate:	0.598	Roll:	0.517	Pitch:	1.730	Yaw:	1.210	Thrust:	66.824
Time:	4.949	Roll Set Point:	-0.176	Pitch Set Point:	-0.091	Yaw Set Point:	-0.028	X_WP:	0.100	Y_WP:	0.000	Y_WP:	0.500	X:	0.137	Y:	0.046	Z:	0.663	yaw:	1.582	yaw rate:	2.820	Roll:	0.201	Pitch:	1.705	Yaw:	2.008	Thrust:	51.867
Time:	4.961	Roll Set Point:	-0.175	Pitch Set Point:	-0.092	Yaw Set Point:	-0.028	X_WP:	0.100	Y_WP:	0.000	Y_WP:	0.500	X:	0.137	Y:	0.046	Z:	0.661	yaw:	1.583	yaw rate:	0.076	Roll:	0.292	Pitch:	1.724	Yaw:	1.284	Thrust:	56.074
Time:	4.979	Roll Set Point:	-0.173	Pitch Set Point:	-0.092	Yaw Set Point:	-0.028	X_WP:	0.100	Y_WP:	0.000	Y_WP:	0.500	X:	0.136	Y:	0.046	Z:	0.657	yaw:	1.628	yaw rate:	3.943	Roll:	0.074	Pitch:	1.779	Yaw:	1.472	Thrust:	87.539
Time:	4.999	Roll Set Point:	-0.171	Pitch Set Point:	-0.092	Yaw Set Point:	-0.027	X_WP:	0.100	Y_WP:	0.000	Y_WP:	0.500	X:	0.135	Y:	0.047	Z:	0.654	yaw:	1.560	yaw rate:	-6.853	Roll:	0.382	Pitch:	1.739	Yaw:	-0.236	Thrust:	84.630
Time:	5.012	Roll Set Point:	-0.169	Pitch Set Point:	-0.092	Yaw Set Point:	-0.027	X_WP:	0.100	Y_WP:	0.000	Y_WP:	0.500	X:	0.134	Y:	0.047	Z:	0.650	yaw:	1.570	yaw rate:	1.013	Roll:	-0.041	Pitch:	1.840	Yaw:	1.334	Thrust:	73.029
Time:	5.024	Roll Set Point:	-0.167	Pitch Set Point:	-0.093	Yaw Set Point:	-0.025	X_WP:	0.100	Y_WP:	0.000	Y_WP:	0.500	X:	0.133	Y:	0.047	Z:	0.645	yaw:	1.437	yaw rate:	-7.620	Roll:	-0.605	Pitch:	2.047	Yaw:	-1.793	Thrust:	65.268
Time:	5.038	Roll Set Point:	-0.166	Pitch Set Point:	-0.093	Yaw Set Point:	-0.026	X_WP:	0.100	Y_WP:	0.000	Y_WP:	0.500	X:	0.132	Y:	0.047	Z:	0.642	yaw:	1.472	yaw rate:	3.433	Roll:	0.361	Pitch:	1.671	Yaw:	1.629	Thrust:	70.064
Time:	5.050	Roll Set Point:	-0.165	Pitch Set Point:	-0.093	Yaw Set Point:	-0.025	X_WP:	0.100	Y_WP:	0.000	Y_WP:	0.500	X:	0.132	Y:	0.047	Z:	0.640	yaw:	1.457	yaw rate:	-1.425	Roll:	0.118	Pitch:	1.668	Yaw:	0.846	Thrust:	56.052
Time:	5.066	Roll Set Point:	-0.163	Pitch Set Point:	-0.093	Yaw Set Point:	-0.025	X_WP:	0.100	Y_WP:	0.000	Y_WP:	0.500	X:	0.131	Y:	0.047	Z:	0.637	yaw:	1.443	yaw rate:	-1.483	Roll:	0.232	Pitch:	1.590	Yaw:	0.601	Thrust:	67.964
Time:	5.079	Roll Set Point:	-0.161	Pitch Set Point:	-0.093	Yaw Set Point:	-0.025	X_WP:	0.100	Y_WP:	0.000	Y_WP:	0.500	X:	0.130	Y:	0.047	Z:	0.632	yaw:	1.431	yaw rate:	0.284	Roll:	-0.226	Pitch:	1.784	Yaw:	0.767	Thrust:	76.487
Time:	5.093	Roll Set Point:	-0.160	Pitch Set Point:	-0.093	Yaw Set Point:	-0.024	X_WP:	0.100	Y_WP:	0.000	Y_WP:	0.500	X:	0.129	Y:	0.047	Z:	0.629	yaw:	1.398	yaw rate:	-3.297	Roll:	0.124	Pitch:	1.615	Yaw:	0.335	Thrust:	56.773
Time:	5.112	Roll Set Point:	-0.158	Pitch Set Point:	-0.093	Yaw Set Point:	-0.025	X_WP:	0.100	Y_WP:	0.000	Y_WP:	0.500	X:	0.128	Y:	0.047	Z:	0.625	yaw:	1.423	yaw rate:	2.478	Roll:	-0.062	Pitch:	1.665	Yaw:	0.888	Thrust:	97.785
Time:	5.124	Roll Set Point:	-0.157	Pitch Set Point:	-0.093	Yaw Set Point:	-0.028	X_WP:	0.100	Y_WP:	0.000	Y_WP:	0.500	X:	0.128	Y:	0.047	Z:	0.622	yaw:	1.586	yaw rate:	16.328	Roll:	0.466	Pitch:	1.627	Yaw:	4.684	Thrust:	59.229
Time:	5.137	Roll Set Point:	-0.154	Pitch Set Point:	-0.093	Yaw Set Point:	-0.024	X_WP:	0.100	Y_WP:	0.000	Y_WP:	0.500	X:	0.127	Y:	0.047	Z:	0.618	yaw:	1.388	yaw rate:	1.392	Roll:	-0.745	Pitch:	1.565	Yaw:	-2.877	Thrust:	67.113
Time:	5.149	Roll Set Point:	-0.153	Pitch Set Point:	-0.093	Yaw Set Point:	-0.024	X_WP:	0.100	Y_WP:	0.000	Y_WP:	0.500	X:	0.126	Y:	0.047	Z:	0.616	yaw:	1.372	yaw rate:	-1.600	Roll:	0.154	Pitch:	1.651	Yaw:	0.728	Thrust:	55.689
Time:	5.162	Roll Set Point:	-0.153	Pitch Set Point:	-0.093	Yaw Set Point:	-0.027	X_WP:	0.100	Y_WP:	0.000	Y_WP:	0.500	X:	0.126	Y:	0.047	Z:	0.614	yaw:	1.569	yaw rate:	19.671	Roll:	0.451	Pitch:	1.601	Yaw:	5.371	Thrust:	53.018
Time:	5.178	Roll Set Point:	-0.151	Pitch Set Point:	-0.093	Yaw Set Point:	-0.024	X_WP:	0.100	Y_WP:	0.000	Y_WP:	0.500	X:	0.125	Y:	0.047	Z:	0.613	yaw:	1.350	yaw rate:	-21.893	Roll:	0.027	Pitch:	1.580	Yaw:	-2.789	Thrust:	75.679
Time:	5.188	Roll Set Point:	-0.150	Pitch Set Point:	-0.093	Yaw Set Point:	-0.023	X_WP:	0.100	Y_WP:	0.000	Y_WP:	0.500	X:	0.125	Y:	0.047	Z:	0.611	yaw:	1.307	yaw rate:	-4.293	Roll:	-0.017	Pitch:	1.488	Yaw:	0.020	Thrust:	47.521
Time:	5.201	Roll Set Point:	-0.149	Pitch Set Point:	-0.093	Yaw Set Point:	-0.024	X_WP:	0.100	Y_WP:	0.000	Y_WP:	0.500	X:	0.124	Y:	0.047	Z:	0.610	yaw:	1.393	yaw rate:	8.588	Roll:	0.056	Pitch:	1.392	Yaw:	2.858	Thrust:	54.779
Time:	5.214	Roll Set Point:	-0.146	Pitch Set Point:	-0.093	Yaw Set Point:	-0.024	X_WP:	0.100	Y_WP:	0.000	Y_WP:	0.500	X:	0.123	Y:	0.047	Z:	0.607	yaw:	1.357	yaw rate:	-13.469	Roll:	-1.199	Pitch:	1.447	Yaw:	0.287	Thrust:	61.718
Time:	5.227	Roll Set Point:	-0.145	Pitch Set Point:	-0.092	Yaw Set Point:	-0.023	X_WP:	0.100	Y_WP:	0.000	Y_WP:	0.500	X:	0.122	Y:	0.046	Z:	0.606	yaw:	1.326	yaw rate:	-3.155	Roll:	0.106	Pitch:	1.471	Yaw:	0.322	Thrust:	50.809
Time:	5.244	Roll Set Point:	-0.145	Pitch Set Point:	-0.092	Yaw Set Point:	-0.024	X_WP:	0.100	Y_WP:	0.000	Y_WP:	0.500	X:	0.122	Y:	0.046	Z:	0.606	yaw:	1.353	yaw rate:	2.672	Roll:	0.344	Pitch:	1.601	Yaw:	1.184	Thrust:	73.848
Time:	5.255	Roll Set Point:	-0.144	Pitch Set Point:	-0.092	Yaw Set Point:	-0.024	X_WP:	0.100	Y_WP:	0.000	Y_WP:	0.500	X:	0.121	Y:	0.046	Z:	0.605	yaw:	1.363	yaw rate:	1.037	Roll:	0.121	Pitch:	1.398	Yaw:	1.314	Thrust:	49.810
Time:	5.269	Roll Set Point:	-0.143	Pitch Set Point:	-0.092	Yaw Set Point:	-0.024	X_WP:	0.100	Y_WP:	0.000	Y_WP:	0.500	X:	0.121	Y:	0.046	Z:	0.604	yaw:	1.363	yaw rate:	-0.016	Roll:	0.119	Pitch:	1.489	Yaw:	0.997	Thrust:	53.124
Time:	5.279	Roll Set Point:	-0.141	Pitch Set Point:	-0.091	Yaw Set Point:	-0.026	X_WP:	0.100	Y_WP:	0.000	Y_WP:	0.500	X:	0.120	Y:	0.046	Z:	0.604	yaw:	1.475	yaw rate:	9.866	Roll:	-0.583	Pitch:	1.083	Yaw:	4.112	Thrust:	46.772
Time:	5.295	Roll Set Point:	-0.140	Pitch Set Point:	-0.091	Yaw Set Point:	-0.026	X_WP:	0.100	Y_WP:	0.000	Y_WP:	0.500	X:	0.119	Y:	0.046	Z:	0.603	yaw:	1.473	yaw rate:	-0.203	Roll:	-0.334	Pitch:	1.418	Yaw:	1.007	Thrust:	60.500
Time:	5.311	Roll Set Point:	-0.138	Pitch Set Point:	-0.091	Yaw Set Point:	-0.025	X_WP:	0.100	Y_WP:	0.000	Y_WP:	0.500	X:	0.119	Y:	0.046	Z:	0.601	yaw:	1.424	yaw rate:	3.727	Roll:	0.021	Pitch:	1.520	Yaw:	0.134	Thrust:	72.517
Time:	5.323	Roll Set Point:	-0.138	Pitch Set Point:	-0.090	Yaw Set Point:	-0.025	X_WP:	0.100	Y_WP:	0.000	Y_WP:	0.500	X:	0.118	Y:	0.045	Z:	0.601	yaw:	1.449	yaw rate:	2.507	Roll:	0.163	Pitch:	1.350	Yaw:	1.866	Thrust:	46.902
Time:	5.335	Roll Set Point:	-0.137	Pitch Set Point:	-0.090	Yaw Set Point:	-0.026	X_WP:	0.100	Y_WP:	0.000	Y_WP:	0.500	X:	0.118	Y:	0.045	Z:	0.600	yaw:	1.484	yaw rate:	3.487	Roll:	0.056	Pitch:	1.262	Yaw:	1.927	Thrust:	53.698
Time:	5.347	Roll Set Point:	-0.136	Pitch Set Point:	-0.090	Yaw Set Point:	-0.026	X_WP:	0.100	Y_WP:	0.000	Y_WP:	0.500	X:	0.118	Y:	0.045	Z:	0.599	yaw:	1.474	yaw rate:	-1.008	Roll:	0.155	Pitch:	1.392	Yaw:	1.089	Thrust:	48.198
Time:	5.359	Roll Set Point:	-0.136	Pitch Set Point:	-0.090	Yaw Set Point:	-0.025	X_WP:	0.100	Y_WP:	0.000	Y_WP:	0.500	X:	0.117	Y:	0.045	Z:	0.598	yaw:	1.451	yaw rate:	-2.246	Roll:	0.310	Pitch:	1.461	Yaw:	0.769	Thrust:	51.658
Time:	5.371	Roll Set Point:	-0.135	Pitch Set Point:	-0.089	Yaw Set Point:	-0.026	X_WP:	0.100	Y_WP:	0.000	Y_WP:	0.500	X:	0.117	Y:	0.045	Z:	0.597	yaw:	1.469	yaw rate:	1.811	Roll:	0.061	Pitch:	1.263	Yaw:	1.636	Thrust:	53.110
Time:	5.383	Roll Set Point:	-0.135	Pitch Set Point:	-0.089	Yaw Set Point:	-0.026	X_WP:	0.100	Y_WP:	0.000	Y_WP:	0.500	X:	0.117	Y:	0.045	Z:	0.595	yaw:	1.467	yaw rate:	-0.254	Roll:	0.265	Pitch:	1.475	Yaw:	1.268	Thrust:	48.040
Time:	5.403	Roll Set Point:	-0.134	Pitch Set Point:	-0.089	Yaw Set Point:	-0.027	X_WP:	0.100	Y_WP:	0.000	Y_WP:	0.500	X:	0.116	Y:	0.044	Z:	0.594	yaw:	1.536	yaw rate:	6.867	Roll:	0.204	Pitch:	1.382	Yaw:	1.811	Thrust:	79.485
Time:	5.416	Roll Set Point:	-0.133	Pitch Set Point:	-0.088	Yaw Set Point:	-0.026	X_WP:	0.100	Y_WP:	0.000	Y_WP:	0.500	X:	0.116	Y:	0.044	Z:	0.588	yaw:	1.462	yaw rate:	-4.589	Roll:	0.050	Pitch:	1.279	Yaw:	-0.249	Thrust:	72.384
Time:	5.437	Roll Set Point:	-0.132	Pitch Set Point:	-0.087	Yaw Set Point:	-0.026	X_WP:	0.100	Y_WP:	0.000	Y_WP:	0.500	X:	0.116	Y:	0.044	Z:	0.586	yaw:	1.473	yaw rate:	1.084	Roll:	0.338	Pitch:	1.426	Yaw:	0.903	Thrust:	87.638
Time:	5.449	Roll Set Point:	-0.132	Pitch Set Point:	-0.087	Yaw Set Point:	-0.027	X_WP:	0.100	Y_WP:	0.000	Y_WP:	0.500	X:	0.115	Y:	0.044	Z:	0.581	yaw:	1.539	yaw rate:	5.439	Roll:	0.287	Pitch:	1.304	Yaw:	2.767	Thrust:	68.668
Time:	5.469	Roll Set Point:	-0.131	Pitch Set Point:	-0.087	Yaw Set Point:	-0.027	X_WP:	0.100	Y_WP:	0.000	Y_WP:	0.500	X:	0.115	Y:	0.044	Z:	0.578	yaw:	1.553	yaw rate:	1.396	Roll:	0.381	Pitch:	1.494	Yaw:	1.257	Thrust:	83.098
Time:	5.482	Roll Set Point:	-0.131	Pitch Set Point:	-0.086	Yaw Set Point:	-0.028	X_WP:	0.100	Y_WP:	0.000	Y_WP:	0.500	X:	0.115	Y:	0.043	Z:	0.573	yaw:	1.607	yaw rate:	2.181	Roll:	0.174	Pitch:	1.060	Yaw:	2.413	Thrust:	73.318
Time:	5.501	Roll Set Point:	-0.130	Pitch Set Point:	-0.086	Yaw Set Point:	-0.028	X_WP:	0.100	Y_WP:	0.000	Y_WP:	0.500	X:	0.115	Y:	0.043	Z:	0.569	yaw:	1.629	yaw rate:	2.191	Roll:	0.380	Pitch:	1.438	Yaw:	1.516	Thrust:	80.995
Time:	5.514	Roll Set Point:	-0.130	Pitch Set Point:	-0.084	Yaw Set Point:	-0.027	X_WP:	0.100	Y_WP:	0.000	Y_WP:	0.500	X:	0.114	Y:	0.042	Z:	0.560	yaw:	1.527	yaw rate:	-7.696	Roll:	0.081	Pitch:	0.985	Yaw:	-0.583	Thrust:	85.789
Time:	5.531	Roll Set Point:	-0.129	Pitch Set Point:	-0.084	Yaw Set Point:	-0.027	X_WP:	0.100	Y_WP:	0.000	Y_WP:	0.500	X:	0.114	Y:	0.042	Z:	0.557	yaw:	1.570	yaw rate:	4.335	Roll:	0.397	Pitch:	1.306	Yaw:	2.246	Thrust:	64.393
Time:	5.547	Roll Set Point:	-0.129	Pitch Set Point:	-0.084	Yaw Set Point:	-0.026	X_WP:	0.100	Y_WP:	0.000	Y_WP:	0.500	X:	0.114	Y:	0.042	Z:	0.554	yaw:	1.496	yaw rate:	-7.402	Roll:	0.525	Pitch:	1.632	Yaw:	-0.019	Thrust:	86.536
Time:	5.570	Roll Set Point:	-0.129	Pitch Set Point:	-0.084	Yaw Set Point:	-0.027	X_WP:	0.100	Y_WP:	0.000	Y_WP:	0.500	X:	0.114	Y:	0.042	Z:	0.551	yaw:	1.539	yaw rate:	4.263	Roll:	0.441	Pitch:	1.379	Yaw:	1.442	Thrust:	95.879
Time:	5.583	Roll Set Point:	-0.128	Pitch Set Point:	-0.082	Yaw Set Point:	-0.024	X_WP:	0.100	Y_WP:	0.000	Y_WP:	0.500	X:	0.114	Y:	0.041	Z:	0.542	yaw:	1.359	yaw rate:	-0.464	Roll:	0.179	Pitch:	1.159	Yaw:	-2.159	Thrust:	86.564
Time:	5.602	Roll Set Point:	-0.128	Pitch Set Point:	-0.082	Yaw Set Point:	-0.021	X_WP:	0.100	Y_WP:	0.000	Y_WP:	0.500	X:	0.114	Y:	0.041	Z:	0.540	yaw:	1.186	yaw rate:	-17.267	Roll:	0.237	Pitch:	1.219	Yaw:	-1.928	Thrust:	61.376
Time:	5.616	Roll Set Point:	-0.128	Pitch Set Point:	-0.081	Yaw Set Point:	-0.018	X_WP:	0.100	Y_WP:	0.000	Y_WP:	0.500	X:	0.113	Y:	0.041	Z:	0.537	yaw:	1.028	yaw rate:	-11.707	Roll:	0.341	Pitch:	1.404	Yaw:	-2.095	Thrust:	84.420
Time:	5.636	Roll Set Point:	-0.128	Pitch Set Point:	-0.081	Yaw Set Point:	-0.019	X_WP:	0.100	Y_WP:	0.000	Y_WP:	0.500	X:	0.114	Y:	0.041	Z:	0.536	yaw:	1.082	yaw rate:	5.367	Roll:	0.661	Pitch:	1.589	Yaw:	1.133	Thrust:	83.115
Time:	5.650	Roll Set Point:	-0.128	Pitch Set Point:	-0.081	Yaw Set Point:	-0.013	X_WP:	0.100	Y_WP:	0.000	Y_WP:	0.500	X:	0.114	Y:	0.041	Z:	0.535	yaw:	0.757	yaw rate:	-32.488	Roll:	0.200	Pitch:	1.350	Yaw:	-5.574	Thrust:	61.301
