Time:	2.056	Roll Set Point:	0.001	Pitch Set Point:	-0.042	Yaw Set Point:	-0.113	X_WP:	0.000	Y_WP:	0.000	Y_WP:	0.500	X:	-0.001	Y:	0.021	Z:	0.050	yaw:	6.473	yaw rate:	-1.796	Roll:	0.025	Pitch:	0.610	Yaw:	9.038	Thrust:	24.761
Time:	2.067	Roll Set Point:	0.001	Pitch Set Point:	-0.042	Yaw Set Point:	-0.113	X_WP:	0.000	Y_WP:	0.000	Y_WP:	0.500	X:	-0.001	Y:	0.021	Z:	0.050	yaw:	6.459	yaw rate:	-1.411	Roll:	0.077	Pitch:	0.596	Yaw:	8.707	Thrust:	25.513
Time:	2.078	Roll Set Point:	0.001	Pitch Set Point:	-0.042	Yaw Set Point:	-0.113	X_WP:	0.000	Y_WP:	0.000	Y_WP:	0.500	X:	-0.001	Y:	0.021	Z:	0.050	yaw:	6.459	yaw rate:	0.043	Roll:	0.022	Pitch:	0.636	Yaw:	9.079	Thrust:	25.983
Time:	2.089	Roll Set Point:	0.001	Pitch Set Point:	-0.042	Yaw Set Point:	-0.114	X_WP:	0.000	Y_WP:	0.000	Y_WP:	0.500	X:	-0.002	Y:	0.021	Z:	0.050	yaw:	6.556	yaw rate:	9.703	Roll:	0.013	Pitch:	0.489	Yaw:	11.536	Thrust:	26.527
Time:	2.100	Roll Set Point:	0.001	Pitch Set Point:	-0.042	Yaw Set Point:	-0.113	X_WP:	0.000	Y_WP:	0.000	Y_WP:	0.500	X:	-0.001	Y:	0.021	Z:	0.050	yaw:	6.488	yaw rate:	-6.812	Roll:	0.022	Pitch:	0.690	Yaw:	7.546	Thrust:	27.118
Time:	2.111	Roll Set Point:	0.001	Pitch Set Point:	-0.042	Yaw Set Point:	-0.113	X_WP:	0.000	Y_WP:	0.000	Y_WP:	0.500	X:	-0.001	Y:	0.021	Z:	0.050	yaw:	6.461	yaw rate:	-2.726	Roll:	0.017	Pitch:	0.633	Yaw:	8.499	Thrust:	27.735
Time:	2.122	Roll Set Point:	0.001	Pitch Set Point:	-0.042	Yaw Set Point:	-0.114	X_WP:	0.000	Y_WP:	0.000	Y_WP:	0.500	X:	-0.001	Y:	0.021	Z:	0.050	yaw:	6.535	yaw rate:	7.421	Roll:	0.089	Pitch:	0.533	Yaw:	11.036	Thrust:	28.633
Time:	2.133	Roll Set Point:	0.001	Pitch Set Point:	-0.042	Yaw Set Point:	-0.113	X_WP:	0.000	Y_WP:	0.000	Y_WP:	0.500	X:	-0.001	Y:	0.021	Z:	0.050	yaw:	6.487	yaw rate:	-4.820	Roll:	-0.012	Pitch:	0.675	Yaw:	8.087	Thrust:	28.591
Time:	2.144	Roll Set Point:	0.001	Pitch Set Point:	-0.042	Yaw Set Point:	-0.113	X_WP:	0.000	Y_WP:	0.000	Y_WP:	0.500	X:	-0.001	Y:	0.021	Z:	0.050	yaw:	6.457	yaw rate:	-2.985	Roll:	0.041	Pitch:	0.564	Yaw:	8.508	Thrust:	29.414
Time:	2.156	Roll Set Point:	0.001	Pitch Set Point:	-0.042	Yaw Set Point:	-0.113	X_WP:	0.000	Y_WP:	0.000	Y_WP:	0.500	X:	-0.001	Y:	0.021	Z:	0.050	yaw:	6.459	yaw rate:	0.264	Roll:	0.015	Pitch:	0.691	Yaw:	9.307	Thrust:	30.296
Time:	2.167	Roll Set Point:	0.001	Pitch Set Point:	-0.042	Yaw Set Point:	-0.113	X_WP:	0.000	Y_WP:	0.000	Y_WP:	0.500	X:	-0.001	Y:	0.021	Z:	0.050	yaw:	6.497	yaw rate:	3.729	Roll:	0.028	Pitch:	0.577	Yaw:	10.206	Thrust:	30.649
Time:	2.178	Roll Set Point:	0.001	Pitch Set Point:	-0.042	Yaw Set Point:	-0.115	X_WP:	0.000	Y_WP:	0.000	Y_WP:	0.500	X:	-0.001	Y:	0.021	Z:	0.050	yaw:	6.584	yaw rate:	8.702	Roll:	0.058	Pitch:	0.572	Yaw:	11.533	Thrust:	31.608
Time:	2.189	Roll Set Point:	0.001	Pitch Set Point:	-0.042	Yaw Set Point:	-0.113	X_WP:	0.000	Y_WP:	0.000	Y_WP:	0.500	X:	-0.001	Y:	0.021	Z:	0.050	yaw:	6.459	yaw rate:	-12.428	Roll:	-0.031	Pitch:	0.696	Yaw:	6.361	Thrust:	31.630
Time:	2.200	Roll Set Point:	0.001	Pitch Set Point:	-0.042	Yaw Set Point:	-0.113	X_WP:	0.000	Y_WP:	0.000	Y_WP:	0.500	X:	-0.001	Y:	0.021	Z:	0.050	yaw:	6.482	yaw rate:	2.214	Roll:	0.016	Pitch:	0.594	Yaw:	9.900	Thrust:	32.474
Time:	2.211	Roll Set Point:	0.001	Pitch Set Point:	-0.042	Yaw Set Point:	-0.114	X_WP:	0.000	Y_WP:	0.000	Y_WP:	0.500	X:	-0.001	Y:	0.021	Z:	0.050	yaw:	6.513	yaw rate:	3.125	Roll:	0.067	Pitch:	0.599	Yaw:	10.185	Thrust:	33.199
Time:	2.224	Roll Set Point:	0.001	Pitch Set Point:	-0.042	Yaw Set Point:	-0.114	X_WP:	0.000	Y_WP:	0.000	Y_WP:	0.500	X:	-0.001	Y:	0.021	Z:	0.050	yaw:	6.545	yaw rate:	3.186	Roll:	0.027	Pitch:	0.579	Yaw:	10.221	Thrust:	35.450
Time:	2.235	Roll Set Point:	0.001	Pitch Set Point:	-0.042	Yaw Set Point:	-0.113	X_WP:	0.000	Y_WP:	0.000	Y_WP:	0.500	X:	-0.001	Y:	0.021	Z:	0.050	yaw:	6.489	yaw rate:	-5.529	Roll:	0.036	Pitch:	0.670	Yaw:	8.149	Thrust:	33.993
Time:	2.246	Roll Set Point:	0.001	Pitch Set Point:	-0.042	Yaw Set Point:	-0.113	X_WP:	0.000	Y_WP:	0.000	Y_WP:	0.500	X:	-0.001	Y:	0.021	Z:	0.050	yaw:	6.461	yaw rate:	-2.821	Roll:	-0.020	Pitch:	0.675	Yaw:	8.777	Thrust:	35.020
Time:	2.257	Roll Set Point:	0.000	Pitch Set Point:	-0.042	Yaw Set Point:	-0.114	X_WP:	0.000	Y_WP:	0.000	Y_WP:	0.500	X:	-0.001	Y:	0.021	Z:	0.050	yaw:	6.548	yaw rate:	8.662	Roll:	0.165	Pitch:	0.446	Yaw:	11.649	Thrust:	35.572
Time:	2.268	Roll Set Point:	0.001	Pitch Set Point:	-0.042	Yaw Set Point:	-0.113	X_WP:	0.000	Y_WP:	0.000	Y_WP:	0.500	X:	-0.001	Y:	0.021	Z:	0.050	yaw:	6.461	yaw rate:	-8.728	Roll:	-0.075	Pitch:	0.775	Yaw:	7.424	Thrust:	36.002
Time:	2.279	Roll Set Point:	0.001	Pitch Set Point:	-0.042	Yaw Set Point:	-0.114	X_WP:	0.000	Y_WP:	0.000	Y_WP:	0.500	X:	-0.001	Y:	0.021	Z:	0.050	yaw:	6.528	yaw rate:	6.751	Roll:	0.042	Pitch:	0.530	Yaw:	11.220	Thrust:	36.837
Time:	2.290	Roll Set Point:	0.001	Pitch Set Point:	-0.042	Yaw Set Point:	-0.113	X_WP:	0.000	Y_WP:	0.000	Y_WP:	0.500	X:	-0.001	Y:	0.021	Z:	0.050	yaw:	6.495	yaw rate:	-3.257	Roll:	-0.000	Pitch:	0.714	Yaw:	8.821	Thrust:	37.133
Time:	2.301	Roll Set Point:	0.001	Pitch Set Point:	-0.042	Yaw Set Point:	-0.114	X_WP:	0.000	Y_WP:	0.000	Y_WP:	0.500	X:	-0.001	Y:	0.021	Z:	0.050	yaw:	6.539	yaw rate:	4.311	Roll:	0.038	Pitch:	0.496	Yaw:	10.702	Thrust:	37.963
Time:	2.312	Roll Set Point:	0.001	Pitch Set Point:	-0.042	Yaw Set Point:	-0.114	X_WP:	0.000	Y_WP:	0.000	Y_WP:	0.500	X:	-0.001	Y:	0.021	Z:	0.050	yaw:	6.540	yaw rate:	0.173	Roll:	0.041	Pitch:	0.664	Yaw:	9.749	Thrust:	38.670
Time:	2.323	Roll Set Point:	0.001	Pitch Set Point:	-0.042	Yaw Set Point:	-0.114	X_WP:	0.000	Y_WP:	0.000	Y_WP:	0.500	X:	-0.001	Y:	0.021	Z:	0.050	yaw:	6.551	yaw rate:	1.051	Roll:	0.046	Pitch:	0.597	Yaw:	9.996	Thrust:	38.864
Time:	2.334	Roll Set Point:	0.001	Pitch Set Point:	-0.042	Yaw Set Point:	-0.113	X_WP:	0.000	Y_WP:	0.000	Y_WP:	0.500	X:	-0.001	Y:	0.021	Z:	0.050	yaw:	6.494	yaw rate:	-5.725	Roll:	-0.031	Pitch:	0.689	Yaw:	8.339	Thrust:	39.527
Time:	2.346	Roll Set Point:	0.001	Pitch Set Point:	-0.042	Yaw Set Point:	-0.116	X_WP:	0.000	Y_WP:	0.000	Y_WP:	0.500	X:	-0.001	Y:	0.021	Z:	0.050	yaw:	6.640	yaw rate:	-2.884	Roll:	0.087	Pitch:	0.477	Yaw:	13.172	Thrust:	42.066
Time:	2.357	Roll Set Point:	0.001	Pitch Set Point:	-0.042	Yaw Set Point:	-0.113	X_WP:	0.000	Y_WP:	0.000	Y_WP:	0.500	X:	-0.001	Y:	0.021	Z:	0.050	yaw:	6.486	yaw rate:	-15.378	Roll:	-0.012	Pitch:	0.827	Yaw:	6.083	Thrust:	40.485
Time:	2.368	Roll Set Point:	0.001	Pitch Set Point:	-0.042	Yaw Set Point:	-0.113	X_WP:	0.000	Y_WP:	0.000	Y_WP:	0.500	X:	-0.001	Y:	0.021	Z:	0.050	yaw:	6.486	yaw rate:	-15.378	Roll:	0.027	Pitch:	0.626	Yaw:	9.756	Thrust:	41.406
Time:	2.379	Roll Set Point:	0.001	Pitch Set Point:	-0.042	Yaw Set Point:	-0.113	X_WP:	0.000	Y_WP:	0.000	Y_WP:	0.500	X:	-0.001	Y:	0.021	Z:	0.050	yaw:	6.472	yaw rate:	-1.401	Roll:	0.034	Pitch:	0.613	Yaw:	9.431	Thrust:	41.978
Time:	2.390	Roll Set Point:	0.001	Pitch Set Point:	-0.042	Yaw Set Point:	-0.115	X_WP:	0.000	Y_WP:	0.000	Y_WP:	0.500	X:	-0.001	Y:	0.021	Z:	0.050	yaw:	6.577	yaw rate:	10.438	Roll:	0.064	Pitch:	0.538	Yaw:	12.407	Thrust:	42.966
Time:	2.401	Roll Set Point:	0.001	Pitch Set Point:	-0.042	Yaw Set Point:	-0.114	X_WP:	0.000	Y_WP:	0.000	Y_WP:	0.500	X:	-0.001	Y:	0.021	Z:	0.050	yaw:	6.542	yaw rate:	-3.441	Roll:	0.003	Pitch:	0.622	Yaw:	9.094	Thrust:	43.180
Time:	2.412	Roll Set Point:	0.001	Pitch Set Point:	-0.042	Yaw Set Point:	-0.113	X_WP:	0.000	Y_WP:	0.000	Y_WP:	0.500	X:	-0.001	Y:	0.021	Z:	0.050	yaw:	6.485	yaw rate:	-5.735	Roll:	0.011	Pitch:	0.722	Yaw:	8.496	Thrust:	43.770
Time:	2.423	Roll Set Point:	0.001	Pitch Set Point:	-0.042	Yaw Set Point:	-0.114	X_WP:	0.000	Y_WP:	0.000	Y_WP:	0.500	X:	-0.001	Y:	0.021	Z:	0.050	yaw:	6.555	yaw rate:	6.968	Roll:	0.039	Pitch:	0.539	Yaw:	11.633	Thrust:	44.505
Time:	2.435	Roll Set Point:	0.001	Pitch Set Point:	-0.042	Yaw Set Point:	-0.115	X_WP:	0.000	Y_WP:	0.000	Y_WP:	0.500	X:	-0.001	Y:	0.021	Z:	0.050	yaw:	6.569	yaw rate:	7.966	Roll:	0.050	Pitch:	0.613	Yaw:	10.401	Thrust:	46.833
Time:	2.446	Roll Set Point:	0.001	Pitch Set Point:	-0.042	Yaw Set Point:	-0.115	X_WP:	0.000	Y_WP:	0.000	Y_WP:	0.500	X:	-0.001	Y:	0.021	Z:	0.050	yaw:	6.569	yaw rate:	7.966	Roll:	0.028	Pitch:	0.628	Yaw:	10.049	Thrust:	45.620
Time:	2.457	Roll Set Point:	0.001	Pitch Set Point:	-0.042	Yaw Set Point:	-0.113	X_WP:	0.000	Y_WP:	0.000	Y_WP:	0.500	X:	-0.001	Y:	0.021	Z:	0.050	yaw:	6.475	yaw rate:	0.739	Roll:	-0.015	Pitch:	0.742	Yaw:	7.727	Thrust:	45.925
Time:	2.469	Roll Set Point:	0.001	Pitch Set Point:	-0.042	Yaw Set Point:	-0.115	X_WP:	0.000	Y_WP:	0.000	Y_WP:	0.500	X:	-0.001	Y:	0.021	Z:	0.050	yaw:	6.567	yaw rate:	9.175	Roll:	0.066	Pitch:	0.551	Yaw:	12.177	Thrust:	49.168
Time:	2.480	Roll Set Point:	0.001	Pitch Set Point:	-0.042	Yaw Set Point:	-0.113	X_WP:	0.000	Y_WP:	0.000	Y_WP:	0.500	X:	-0.001	Y:	0.021	Z:	0.050	yaw:	6.464	yaw rate:	-10.312	Roll:	-0.007	Pitch:	0.719	Yaw:	7.530	Thrust:	47.125
Time:	2.491	Roll Set Point:	0.001	Pitch Set Point:	-0.042	Yaw Set Point:	-0.113	X_WP:	0.000	Y_WP:	0.000	Y_WP:	0.500	X:	-0.001	Y:	0.021	Z:	0.050	yaw:	6.483	yaw rate:	1.907	Roll:	0.011	Pitch:	0.621	Yaw:	10.483	Thrust:	48.044
Time:	2.502	Roll Set Point:	0.001	Pitch Set Point:	-0.042	Yaw Set Point:	-0.113	X_WP:	0.000	Y_WP:	0.000	Y_WP:	0.500	X:	-0.001	Y:	0.021	Z:	0.050	yaw:	6.495	yaw rate:	1.231	Roll:	0.032	Pitch:	0.630	Yaw:	10.366	Thrust:	48.693
Time:	2.514	Roll Set Point:	0.001	Pitch Set Point:	-0.042	Yaw Set Point:	-0.113	X_WP:	0.000	Y_WP:	0.000	Y_WP:	0.500	X:	-0.001	Y:	0.021	Z:	0.050	yaw:	6.480	yaw rate:	-1.476	Roll:	0.033	Pitch:	0.667	Yaw:	9.726	Thrust:	49.213
Time:	2.525	Roll Set Point:	0.001	Pitch Set Point:	-0.042	Yaw Set Point:	-0.114	X_WP:	0.000	Y_WP:	0.000	Y_WP:	0.500	X:	-0.001	Y:	0.021	Z:	0.050	yaw:	6.530	yaw rate:	4.960	Roll:	0.048	Pitch:	0.539	Yaw:	11.347	Thrust:	49.942
Time:	2.536	Roll Set Point:	0.001	Pitch Set Point:	-0.042	Yaw Set Point:	-0.115	X_WP:	0.000	Y_WP:	0.000	Y_WP:	0.500	X:	-0.001	Y:	0.021	Z:	0.050	yaw:	6.563	yaw rate:	3.343	Roll:	0.031	Pitch:	0.622	Yaw:	11.036	Thrust:	50.372
Time:	2.547	Roll Set Point:	0.001	Pitch Set Point:	-0.042	Yaw Set Point:	-0.114	X_WP:	0.000	Y_WP:	0.000	Y_WP:	0.500	X:	-0.001	Y:	0.021	Z:	0.050	yaw:	6.509	yaw rate:	-5.435	Roll:	0.002	Pitch:	0.719	Yaw:	8.901	Thrust:	50.935
Time:	2.558	Roll Set Point:	0.001	Pitch Set Point:	-0.042	Yaw Set Point:	-0.114	X_WP:	0.000	Y_WP:	0.000	Y_WP:	0.500	X:	-0.002	Y:	0.021	Z:	0.050	yaw:	6.548	yaw rate:	3.878	Roll:	0.008	Pitch:	0.552	Yaw:	11.166	Thrust:	51.591
Time:	2.569	Roll Set Point:	0.001	Pitch Set Point:	-0.042	Yaw Set Point:	-0.113	X_WP:	0.000	Y_WP:	0.000	Y_WP:	0.500	X:	-0.001	Y:	0.021	Z:	0.050	yaw:	6.452	yaw rate:	-9.620	Roll:	0.056	Pitch:	0.753	Yaw:	7.828	Thrust:	52.117
Time:	2.580	Roll Set Point:	0.001	Pitch Set Point:	-0.042	Yaw Set Point:	-0.114	X_WP:	0.000	Y_WP:	0.000	Y_WP:	0.500	X:	-0.001	Y:	0.021	Z:	0.050	yaw:	6.548	yaw rate:	9.648	Roll:	0.025	Pitch:	0.525	Yaw:	12.534	Thrust:	52.957
Time:	2.591	Roll Set Point:	0.001	Pitch Set Point:	-0.042	Yaw Set Point:	-0.115	X_WP:	0.000	Y_WP:	0.000	Y_WP:	0.500	X:	-0.001	Y:	0.021	Z:	0.050	yaw:	6.565	yaw rate:	1.699	Roll:	0.072	Pitch:	0.621	Yaw:	10.673	Thrust:	53.242
Time:	2.602	Roll Set Point:	0.001	Pitch Set Point:	-0.042	Yaw Set Point:	-0.113	X_WP:	0.000	Y_WP:	0.000	Y_WP:	0.500	X:	-0.001	Y:	0.021	Z:	0.050	yaw:	6.494	yaw rate:	-7.077	Roll:	-0.014	Pitch:	0.721	Yaw:	8.491	Thrust:	53.856
Time:	2.613	Roll Set Point:	0.000	Pitch Set Point:	-0.042	Yaw Set Point:	-0.113	X_WP:	0.000	Y_WP:	0.000	Y_WP:	0.500	X:	-0.001	Y:	0.021	Z:	0.050	yaw:	6.452	yaw rate:	-4.249	Roll:	0.075	Pitch:	0.637	Yaw:	9.099	Thrust:	54.475
Time:	2.624	Roll Set Point:	0.001	Pitch Set Point:	-0.042	Yaw Set Point:	-0.113	X_WP:	0.000	Y_WP:	0.000	Y_WP:	0.500	X:	-0.001	Y:	0.021	Z:	0.050	yaw:	6.449	yaw rate:	-0.286	Roll:	-0.043	Pitch:	0.670	Yaw:	10.043	Thrust:	55.291
Time:	2.635	Roll Set Point:	0.001	Pitch Set Point:	-0.042	Yaw Set Point:	-0.115	X_WP:	0.000	Y_WP:	0.000	Y_WP:	0.500	X:	-0.001	Y:	0.021	Z:	0.050	yaw:	6.577	yaw rate:	12.759	Roll:	0.068	Pitch:	0.514	Yaw:	13.314	Thrust:	55.983
Time:	2.646	Roll Set Point:	0.001	Pitch Set Point:	-0.042	Yaw Set Point:	-0.114	X_WP:	0.000	Y_WP:	0.000	Y_WP:	0.500	X:	-0.001	Y:	0.021	Z:	0.050	yaw:	6.540	yaw rate:	-3.683	Roll:	0.040	Pitch:	0.673	Yaw:	9.360	Thrust:	56.294
Time:	2.657	Roll Set Point:	0.001	Pitch Set Point:	-0.042	Yaw Set Point:	-0.113	X_WP:	0.000	Y_WP:	0.000	Y_WP:	0.500	X:	-0.001	Y:	0.021	Z:	0.050	yaw:	6.471	yaw rate:	-6.902	Roll:	0.005	Pitch:	0.743	Yaw:	8.500	Thrust:	56.677
Time:	2.668	Roll Set Point:	0.001	Pitch Set Point:	-0.042	Yaw Set Point:	-0.114	X_WP:	0.000	Y_WP:	0.000	Y_WP:	0.500	X:	-0.001	Y:	0.021	Z:	0.050	yaw:	6.524	yaw rate:	5.298	Roll:	0.050	Pitch:	0.539	Yaw:	11.469	Thrust:	57.675
Time:	2.680	Roll Set Point:	0.001	Pitch Set Point:	-0.042	Yaw Set Point:	-0.113	X_WP:	0.000	Y_WP:	0.000	Y_WP:	0.500	X:	-0.001	Y:	0.021	Z:	0.050	yaw:	6.470	yaw rate:	-5.410	Roll:	-0.009	Pitch:	0.737	Yaw:	9.055	Thrust:	61.029
Time:	2.691	Roll Set Point:	0.001	Pitch Set Point:	-0.042	Yaw Set Point:	-0.113	X_WP:	0.000	Y_WP:	0.000	Y_WP:	0.500	X:	-0.001	Y:	0.021	Z:	0.050	yaw:	6.472	yaw rate:	0.242	Roll:	0.045	Pitch:	0.618	Yaw:	10.197	Thrust:	58.729
Time:	2.702	Roll Set Point:	0.001	Pitch Set Point:	-0.042	Yaw Set Point:	-0.115	X_WP:	0.000	Y_WP:	0.000	Y_WP:	0.500	X:	-0.002	Y:	0.021	Z:	0.050	yaw:	6.591	yaw rate:	11.886	Roll:	0.011	Pitch:	0.544	Yaw:	13.124	Thrust:	59.524
Time:	2.713	Roll Set Point:	0.001	Pitch Set Point:	-0.042	Yaw Set Point:	-0.113	X_WP:	0.000	Y_WP:	0.000	Y_WP:	0.500	X:	-0.001	Y:	0.021	Z:	0.050	yaw:	6.497	yaw rate:	-9.436	Roll:	0.052	Pitch:	0.738	Yaw:	7.936	Thrust:	59.793
Time:	2.724	Roll Set Point:	0.001	Pitch Set Point:	-0.042	Yaw Set Point:	-0.113	X_WP:	0.000	Y_WP:	0.000	Y_WP:	0.500	X:	-0.001	Y:	0.021	Z:	0.050	yaw:	6.463	yaw rate:	-3.348	Roll:	0.019	Pitch:	0.661	Yaw:	9.332	Thrust:	60.392
Time:	2.735	Roll Set Point:	0.001	Pitch Set Point:	-0.042	Yaw Set Point:	-0.115	X_WP:	0.000	Y_WP:	0.000	Y_WP:	0.500	X:	-0.001	Y:	0.021	Z:	0.050	yaw:	6.595	yaw rate:	13.152	Roll:	0.039	Pitch:	0.520	Yaw:	13.431	Thrust:	61.476
Time:	2.746	Roll Set Point:	0.001	Pitch Set Point:	-0.042	Yaw Set Point:	-0.114	X_WP:	0.000	Y_WP:	0.000	Y_WP:	0.500	X:	-0.001	Y:	0.021	Z:	0.050	yaw:	6.528	yaw rate:	-6.714	Roll:	0.022	Pitch:	0.677	Yaw:	8.623	Thrust:	61.801
Time:	2.757	Roll Set Point:	0.001	Pitch Set Point:	-0.042	Yaw Set Point:	-0.113	X_WP:	0.000	Y_WP:	0.000	Y_WP:	0.500	X:	-0.001	Y:	0.021	Z:	0.050	yaw:	6.479	yaw rate:	-4.808	Roll:	-0.001	Pitch:	0.733	Yaw:	9.009	Thrust:	61.949
Time:	2.768	Roll Set Point:	0.001	Pitch Set Point:	-0.042	Yaw Set Point:	-0.115	X_WP:	0.000	Y_WP:	0.000	Y_WP:	0.500	X:	-0.001	Y:	0.021	Z:	0.050	yaw:	6.565	yaw rate:	8.538	Roll:	0.061	Pitch:	0.552	Yaw:	12.296	Thrust:	63.143
Time:	2.779	Roll Set Point:	0.001	Pitch Set Point:	-0.042	Yaw Set Point:	-0.113	X_WP:	0.000	Y_WP:	0.000	Y_WP:	0.500	X:	-0.001	Y:	0.021	Z:	0.050	yaw:	6.476	yaw rate:	-8.895	Roll:	-0.017	Pitch:	0.730	Yaw:	8.034	Thrust:	63.342
Time:	2.790	Roll Set Point:	0.001	Pitch Set Point:	-0.042	Yaw Set Point:	-0.113	X_WP:	0.000	Y_WP:	0.000	Y_WP:	0.500	X:	-0.001	Y:	0.021	Z:	0.050	yaw:	6.490	yaw rate:	1.430	Roll:	0.090	Pitch:	0.654	Yaw:	10.504	Thrust:	63.979
Time:	2.801	Roll Set Point:	0.001	Pitch Set Point:	-0.042	Yaw Set Point:	-0.112	X_WP:	0.000	Y_WP:	0.000	Y_WP:	0.500	X:	-0.001	Y:	0.021	Z:	0.050	yaw:	6.443	yaw rate:	-4.688	Roll:	-0.043	Pitch:	0.666	Yaw:	8.987	Thrust:	64.794
Time:	2.812	Roll Set Point:	0.001	Pitch Set Point:	-0.042	Yaw Set Point:	-0.113	X_WP:	0.000	Y_WP:	0.000	Y_WP:	0.500	X:	-0.002	Y:	0.021	Z:	0.050	yaw:	6.454	yaw rate:	1.109	Roll:	0.002	Pitch:	0.641	Yaw:	10.378	Thrust:	65.173
Time:	2.823	Roll Set Point:	0.001	Pitch Set Point:	-0.042	Yaw Set Point:	-0.114	X_WP:	0.000	Y_WP:	0.000	Y_WP:	0.500	X:	-0.001	Y:	0.021	Z:	0.050	yaw:	6.555	yaw rate:	10.056	Roll:	0.101	Pitch:	0.560	Yaw:	12.642	Thrust:	66.152
Time:	2.834	Roll Set Point:	0.001	Pitch Set Point:	-0.042	Yaw Set Point:	-0.115	X_WP:	0.000	Y_WP:	0.000	Y_WP:	0.500	X:	-0.002	Y:	0.021	Z:	0.050	yaw:	6.579	yaw rate:	2.392	Roll:	0.018	Pitch:	0.621	Yaw:	10.856	Thrust:	66.499
Time:	2.845	Roll Set Point:	0.001	Pitch Set Point:	-0.042	Yaw Set Point:	-0.113	X_WP:	0.000	Y_WP:	0.000	Y_WP:	0.500	X:	-0.001	Y:	0.021	Z:	0.050	yaw:	6.476	yaw rate:	-10.332	Roll:	0.059	Pitch:	0.678	Yaw:	7.692	Thrust:	66.787
Time:	2.856	Roll Set Point:	0.001	Pitch Set Point:	-0.042	Yaw Set Point:	-0.113	X_WP:	0.000	Y_WP:	0.000	Y_WP:	0.500	X:	-0.001	Y:	0.021	Z:	0.050	yaw:	6.492	yaw rate:	1.637	Roll:	-0.024	Pitch:	0.740	Yaw:	10.554	Thrust:	67.618
Time:	2.867	Roll Set Point:	0.001	Pitch Set Point:	-0.042	Yaw Set Point:	-0.114	X_WP:	0.000	Y_WP:	0.000	Y_WP:	0.500	X:	-0.002	Y:	0.021	Z:	0.050	yaw:	6.535	yaw rate:	4.274	Roll:	0.025	Pitch:	0.576	Yaw:	11.242	Thrust:	68.471
Time:	2.878	Roll Set Point:	0.001	Pitch Set Point:	-0.042	Yaw Set Point:	-0.115	X_WP:	0.000	Y_WP:	0.000	Y_WP:	0.500	X:	-0.002	Y:	0.021	Z:	0.050	yaw:	6.570	yaw rate:	3.560	Roll:	0.048	Pitch:	0.630	Yaw:	11.121	Thrust:	68.944
Time:	2.890	Roll Set Point:	0.001	Pitch Set Point:	-0.042	Yaw Set Point:	-0.113	X_WP:	0.000	Y_WP:	0.000	Y_WP:	0.500	X:	-0.001	Y:	0.021	Z:	0.050	yaw:	6.464	yaw rate:	-10.591	Roll:	0.020	Pitch:	0.735	Yaw:	7.615	Thrust:	69.058
Time:	2.901	Roll Set Point:	0.001	Pitch Set Point:	-0.042	Yaw Set Point:	-0.115	X_WP:	0.000	Y_WP:	0.000	Y_WP:	0.500	X:	-0.001	Y:	0.021	Z:	0.050	yaw:	6.561	yaw rate:	9.679	Roll:	0.038	Pitch:	0.565	Yaw:	12.559	Thrust:	70.425
Time:	2.913	Roll Set Point:	0.001	Pitch Set Point:	-0.042	Yaw Set Point:	-0.113	X_WP:	0.000	Y_WP:	0.000	Y_WP:	0.500	X:	-0.001	Y:	0.021	Z:	0.050	yaw:	6.458	yaw rate:	-10.329	Roll:	0.017	Pitch:	0.739	Yaw:	7.965	Thrust:	74.548
Time:	2.925	Roll Set Point:	0.001	Pitch Set Point:	-0.042	Yaw Set Point:	-0.114	X_WP:	0.000	Y_WP:	0.000	Y_WP:	0.500	X:	-0.001	Y:	0.021	Z:	0.050	yaw:	6.504	yaw rate:	4.593	Roll:	0.021	Pitch:	0.654	Yaw:	11.283	Thrust:	75.471
Time:	2.937	Roll Set Point:	0.001	Pitch Set Point:	-0.042	Yaw Set Point:	-0.115	X_WP:	0.000	Y_WP:	0.000	Y_WP:	0.500	X:	-0.001	Y:	0.021	Z:	0.050	yaw:	6.562	yaw rate:	5.799	Roll:	0.054	Pitch:	0.569	Yaw:	11.627	Thrust:	76.335
Time:	2.949	Roll Set Point:	0.001	Pitch Set Point:	-0.042	Yaw Set Point:	-0.115	X_WP:	0.000	Y_WP:	0.000	Y_WP:	0.500	X:	-0.001	Y:	0.021	Z:	0.050	yaw:	6.580	yaw rate:	1.868	Roll:	0.029	Pitch:	0.657	Yaw:	10.798	Thrust:	76.785
Time:	2.960	Roll Set Point:	0.001	Pitch Set Point:	-0.042	Yaw Set Point:	-0.113	X_WP:	0.000	Y_WP:	0.000	Y_WP:	0.500	X:	-0.001	Y:	0.021	Z:	0.050	yaw:	6.487	yaw rate:	-9.365	Roll:	-0.011	Pitch:	0.752	Yaw:	7.937	Thrust:	72.722
Time:	2.971	Roll Set Point:	0.001	Pitch Set Point:	-0.042	Yaw Set Point:	-0.113	X_WP:	0.000	Y_WP:	0.000	Y_WP:	0.500	X:	-0.001	Y:	0.021	Z:	0.050	yaw:	6.479	yaw rate:	-0.816	Roll:	0.063	Pitch:	0.671	Yaw:	9.955	Thrust:	73.729
Time:	2.982	Roll Set Point:	0.001	Pitch Set Point:	-0.042	Yaw Set Point:	-0.113	X_WP:	0.000	Y_WP:	0.000	Y_WP:	0.500	X:	-0.001	Y:	0.021	Z:	0.050	yaw:	6.472	yaw rate:	-0.628	Roll:	0.023	Pitch:	0.652	Yaw:	9.991	Thrust:	74.162
Time:	2.994	Roll Set Point:	0.001	Pitch Set Point:	-0.042	Yaw Set Point:	-0.113	X_WP:	0.000	Y_WP:	0.000	Y_WP:	0.500	X:	-0.001	Y:	0.021	Z:	0.050	yaw:	6.456	yaw rate:	-1.611	Roll:	0.001	Pitch:	0.676	Yaw:	9.867	Thrust:	79.369
Time:	3.005	Roll Set Point:	0.001	Pitch Set Point:	-0.042	Yaw Set Point:	-0.113	X_WP:	0.000	Y_WP:	0.000	Y_WP:	0.500	X:	-0.001	Y:	0.021	Z:	0.050	yaw:	6.464	yaw rate:	0.783	Roll:	0.062	Pitch:	0.653	Yaw:	10.314	Thrust:	75.323
Time:	3.016	Roll Set Point:	0.001	Pitch Set Point:	-0.042	Yaw Set Point:	-0.113	X_WP:	0.000	Y_WP:	0.000	Y_WP:	0.500	X:	-0.001	Y:	0.021	Z:	0.050	yaw:	6.482	yaw rate:	1.757	Roll:	0.049	Pitch:	0.598	Yaw:	10.570	Thrust:	76.006
Time:	3.027	Roll Set Point:	0.001	Pitch Set Point:	-0.042	Yaw Set Point:	-0.114	X_WP:	0.000	Y_WP:	0.000	Y_WP:	0.500	X:	-0.001	Y:	0.021	Z:	0.050	yaw:	6.541	yaw rate:	5.921	Roll:	0.067	Pitch:	0.627	Yaw:	11.641	Thrust:	76.820
Time:	3.038	Roll Set Point:	0.001	Pitch Set Point:	-0.042	Yaw Set Point:	-0.113	X_WP:	0.000	Y_WP:	0.000	Y_WP:	0.500	X:	-0.001	Y:	0.021	Z:	0.050	yaw:	6.463	yaw rate:	-7.808	Roll:	-0.055	Pitch:	0.778	Yaw:	8.274	Thrust:	77.020
Time:	3.049	Roll Set Point:	0.001	Pitch Set Point:	-0.042	Yaw Set Point:	-0.115	X_WP:	0.000	Y_WP:	0.000	Y_WP:	0.500	X:	-0.001	Y:	0.021	Z:	0.050	yaw:	6.562	yaw rate:	9.916	Roll:	0.055	Pitch:	0.526	Yaw:	12.619	Thrust:	77.958
Time:	3.060	Roll Set Point:	0.001	Pitch Set Point:	-0.042	Yaw Set Point:	-0.114	X_WP:	0.000	Y_WP:	0.000	Y_WP:	0.500	X:	-0.001	Y:	0.021	Z:	0.050	yaw:	6.544	yaw rate:	-1.775	Roll:	0.010	Pitch:	0.664	Yaw:	9.819	Thrust:	78.375
Time:	3.072	Roll Set Point:	0.001	Pitch Set Point:	-0.042	Yaw Set Point:	-0.113	X_WP:	0.000	Y_WP:	0.000	Y_WP:	0.500	X:	-0.001	Y:	0.021	Z:	0.050	yaw:	6.500	yaw rate:	-4.414	Roll:	0.049	Pitch:	0.756	Yaw:	9.319	Thrust:	83.860
Time:	3.084	Roll Set Point:	0.001	Pitch Set Point:	-0.042	Yaw Set Point:	-0.113	X_WP:	0.000	Y_WP:	0.000	Y_WP:	0.500	X:	-0.001	Y:	0.021	Z:	0.050	yaw:	6.489	yaw rate:	-1.146	Roll:	-0.005	Pitch:	0.667	Yaw:	10.013	Thrust:	84.609
Time:	3.095	Roll Set Point:	0.001	Pitch Set Point:	-0.042	Yaw Set Point:	-0.114	X_WP:	0.000	Y_WP:	0.000	Y_WP:	0.500	X:	-0.001	Y:	0.021	Z:	0.050	yaw:	6.541	yaw rate:	5.222	Roll:	0.098	Pitch:	0.596	Yaw:	11.475	Thrust:	80.363
Time:	3.106	Roll Set Point:	0.001	Pitch Set Point:	-0.042	Yaw Set Point:	-0.113	X_WP:	0.000	Y_WP:	0.000	Y_WP:	0.500	X:	-0.001	Y:	0.021	Z:	0.050	yaw:	6.490	yaw rate:	-5.041	Roll:	-0.027	Pitch:	0.757	Yaw:	8.969	Thrust:	80.551
Time:	3.118	Roll Set Point:	0.001	Pitch Set Point:	-0.042	Yaw Set Point:	-0.113	X_WP:	0.000	Y_WP:	0.000	Y_WP:	0.500	X:	-0.001	Y:	0.021	Z:	0.050	yaw:	6.480	yaw rate:	-1.031	Roll:	0.059	Pitch:	0.624	Yaw:	10.027	Thrust:	86.418
Time:	3.130	Roll Set Point:	0.001	Pitch Set Point:	-0.042	Yaw Set Point:	-0.113	X_WP:	0.000	Y_WP:	0.000	Y_WP:	0.500	X:	-0.001	Y:	0.021	Z:	0.050	yaw:	6.492	yaw rate:	0.605	Roll:	0.031	Pitch:	0.698	Yaw:	10.535	Thrust:	87.339
Time:	3.141	Roll Set Point:	0.001	Pitch Set Point:	-0.042	Yaw Set Point:	-0.115	X_WP:	0.000	Y_WP:	0.000	Y_WP:	0.500	X:	-0.001	Y:	0.021	Z:	0.050	yaw:	6.585	yaw rate:	9.238	Roll:	0.013	Pitch:	0.533	Yaw:	12.490	Thrust:	82.685
Time:	3.153	Roll Set Point:	0.001	Pitch Set Point:	-0.042	Yaw Set Point:	-0.114	X_WP:	0.000	Y_WP:	0.000	Y_WP:	0.500	X:	-0.001	Y:	0.021	Z:	0.050	yaw:	6.558	yaw rate:	-2.681	Roll:	0.029	Pitch:	0.705	Yaw:	9.777	Thrust:	88.431
Time:	3.164	Roll Set Point:	0.001	Pitch Set Point:	-0.042	Yaw Set Point:	-0.113	X_WP:	0.000	Y_WP:	0.000	Y_WP:	0.500	X:	-0.001	Y:	0.021	Z:	0.050	yaw:	6.457	yaw rate:	-10.124	Roll:	0.007	Pitch:	0.762	Yaw:	7.724	Thrust:	83.599
Time:	3.175	Roll Set Point:	0.001	Pitch Set Point:	-0.042	Yaw Set Point:	-0.113	X_WP:	0.000	Y_WP:	0.000	Y_WP:	0.500	X:	-0.001	Y:	0.021	Z:	0.050	yaw:	6.452	yaw rate:	-0.509	Roll:	0.017	Pitch:	0.656	Yaw:	9.990	Thrust:	84.419
Time:	3.186	Roll Set Point:	0.001	Pitch Set Point:	-0.042	Yaw Set Point:	-0.116	X_WP:	0.000	Y_WP:	0.000	Y_WP:	0.500	X:	-0.002	Y:	0.021	Z:	0.050	yaw:	6.659	yaw rate:	20.699	Roll:	0.051	Pitch:	0.458	Yaw:	15.313	Thrust:	85.539
Time:	3.197	Roll Set Point:	0.001	Pitch Set Point:	-0.042	Yaw Set Point:	-0.114	X_WP:	0.000	Y_WP:	0.000	Y_WP:	0.500	X:	-0.002	Y:	0.021	Z:	0.050	yaw:	6.544	yaw rate:	-11.481	Roll:	0.015	Pitch:	0.797	Yaw:	7.514	Thrust:	85.137
Time:	3.208	Roll Set Point:	0.001	Pitch Set Point:	-0.042	Yaw Set Point:	-0.113	X_WP:	0.000	Y_WP:	0.000	Y_WP:	0.500	X:	-0.001	Y:	0.021	Z:	0.050	yaw:	6.469	yaw rate:	-7.517	Roll:	0.016	Pitch:	0.756	Yaw:	8.351	Thrust:	86.033
Time:	3.219	Roll Set Point:	0.001	Pitch Set Point:	-0.042	Yaw Set Point:	-0.115	X_WP:	0.000	Y_WP:	0.000	Y_WP:	0.500	X:	-0.001	Y:	0.021	Z:	0.050	yaw:	6.563	yaw rate:	9.444	Roll:	0.080	Pitch:	0.575	Yaw:	12.511	Thrust:	86.756
Time:	3.230	Roll Set Point:	0.000	Pitch Set Point:	-0.042	Yaw Set Point:	-0.114	X_WP:	0.000	Y_WP:	0.000	Y_WP:	0.500	X:	-0.001	Y:	0.021	Z:	0.050	yaw:	6.553	yaw rate:	-0.963	Roll:	0.088	Pitch:	0.596	Yaw:	10.027	Thrust:	87.253
Time:	3.241	Roll Set Point:	0.001	Pitch Set Point:	-0.042	Yaw Set Point:	-0.114	X_WP:	0.000	Y_WP:	0.000	Y_WP:	0.500	X:	-0.001	Y:	0.021	Z:	0.050	yaw:	6.522	yaw rate:	-3.133	Roll:	-0.054	Pitch:	0.808	Yaw:	9.466	Thrust:	87.923
Time:	3.252	Roll Set Point:	0.001	Pitch Set Point:	-0.042	Yaw Set Point:	-0.113	X_WP:	0.000	Y_WP:	0.000	Y_WP:	0.500	X:	-0.001	Y:	0.021	Z:	0.050	yaw:	6.491	yaw rate:	-3.088	Roll:	0.005	Pitch:	0.667	Yaw:	9.434	Thrust:	88.491
Time:	3.263	Roll Set Point:	0.001	Pitch Set Point:	-0.042	Yaw Set Point:	-0.113	X_WP:	0.000	Y_WP:	0.000	Y_WP:	0.500	X:	-0.001	Y:	0.021	Z:	0.050	yaw:	6.470	yaw rate:	-2.098	Roll:	0.016	Pitch:	0.701	Yaw:	9.635	Thrust:	89.141
Time:	3.275	Roll Set Point:	0.001	Pitch Set Point:	-0.042	Yaw Set Point:	-0.116	X_WP:	0.000	Y_WP:	0.000	Y_WP:	0.500	X:	-0.002	Y:	0.021	Z:	0.050	yaw:	6.643	yaw rate:	17.304	Roll:	0.091	Pitch:	0.469	Yaw:	14.478	Thrust:	90.121
Time:	3.286	Roll Set Point:	0.001	Pitch Set Point:	-0.042	Yaw Set Point:	-0.113	X_WP:	0.000	Y_WP:	0.000	Y_WP:	0.500	X:	-0.001	Y:	0.021	Z:	0.050	yaw:	6.467	yaw rate:	-17.619	Roll:	-0.006	Pitch:	0.868	Yaw:	5.949	Thrust:	89.942
Time:	3.299	Roll Set Point:	0.001	Pitch Set Point:	-0.042	Yaw Set Point:	-0.113	X_WP:	0.000	Y_WP:	0.000	Y_WP:	0.500	X:	-0.001	Y:	0.021	Z:	0.050	yaw:	6.456	yaw rate:	-1.093	Roll:	0.053	Pitch:	0.702	Yaw:	10.098	Thrust:	100.000
Time:	3.310	Roll Set Point:	0.001	Pitch Set Point:	-0.042	Yaw Set Point:	-0.113	X_WP:	0.000	Y_WP:	0.000	Y_WP:	0.500	X:	-0.001	Y:	0.021	Z:	0.050	yaw:	6.467	yaw rate:	1.132	Roll:	0.021	Pitch:	0.631	Yaw:	10.402	Thrust:	91.498
Time:	3.321	Roll Set Point:	0.001	Pitch Set Point:	-0.042	Yaw Set Point:	-0.113	X_WP:	0.000	Y_WP:	0.000	Y_WP:	0.500	X:	-0.001	Y:	0.021	Z:	0.050	yaw:	6.481	yaw rate:	1.389	Roll:	0.004	Pitch:	0.733	Yaw:	10.482	Thrust:	92.309
Time:	3.332	Roll Set Point:	0.001	Pitch Set Point:	-0.042	Yaw Set Point:	-0.113	X_WP:	0.000	Y_WP:	0.000	Y_WP:	0.500	X:	-0.001	Y:	0.021	Z:	0.050	yaw:	6.491	yaw rate:	0.944	Roll:	0.037	Pitch:	0.659	Yaw:	10.390	Thrust:	92.660
Time:	3.343	Roll Set Point:	0.001	Pitch Set Point:	-0.042	Yaw Set Point:	-0.114	X_WP:	0.000	Y_WP:	0.000	Y_WP:	0.500	X:	-0.001	Y:	0.021	Z:	0.050	yaw:	6.551	yaw rate:	6.012	Roll:	0.048	Pitch:	0.552	Yaw:	11.677	Thrust:	93.430
Time:	3.354	Roll Set Point:	0.001	Pitch Set Point:	-0.042	Yaw Set Point:	-0.113	X_WP:	0.000	Y_WP:	0.000	Y_WP:	0.500	X:	-0.001	Y:	0.021	Z:	0.050	yaw:	6.459	yaw rate:	-9.182	Roll:	0.002	Pitch:	0.789	Yaw:	7.944	Thrust:	93.768
Time:	3.365	Roll Set Point:	0.001	Pitch Set Point:	-0.042	Yaw Set Point:	-0.113	X_WP:	0.000	Y_WP:	0.000	Y_WP:	0.500	X:	-0.001	Y:	0.021	Z:	0.050	yaw:	6.479	yaw rate:	1.982	Roll:	0.077	Pitch:	0.702	Yaw:	10.618	Thrust:	94.334
Time:	3.376	Roll Set Point:	0.001	Pitch Set Point:	-0.042	Yaw Set Point:	-0.113	X_WP:	0.000	Y_WP:	0.000	Y_WP:	0.500	X:	-0.001	Y:	0.021	Z:	0.050	yaw:	6.476	yaw rate:	-0.303	Roll:	-0.014	Pitch:	0.669	Yaw:	10.076	Thrust:	95.241
Time:	3.387	Roll Set Point:	0.001	Pitch Set Point:	-0.042	Yaw Set Point:	-0.113	X_WP:	0.000	Y_WP:	0.000	Y_WP:	0.500	X:	-0.001	Y:	0.021	Z:	0.050	yaw:	6.493	yaw rate:	1.720	Roll:	0.032	Pitch:	0.666	Yaw:	10.577	Thrust:	95.613
Time:	3.398	Roll Set Point:	0.001	Pitch Set Point:	-0.042	Yaw Set Point:	-0.113	X_WP:	0.000	Y_WP:	0.000	Y_WP:	0.500	X:	-0.001	Y:	0.021	Z:	0.050	yaw:	6.493	yaw rate:	-0.024	Roll:	0.044	Pitch:	0.662	Yaw:	10.163	Thrust:	96.386
Time:	3.409	Roll Set Point:	0.001	Pitch Set Point:	-0.042	Yaw Set Point:	-0.113	X_WP:	0.000	Y_WP:	0.000	Y_WP:	0.500	X:	-0.001	Y:	0.021	Z:	0.050	yaw:	6.484	yaw rate:	-0.860	Roll:	0.021	Pitch:	0.689	Yaw:	9.949	Thrust:	96.554
Time:	3.421	Roll Set Point:	0.000	Pitch Set Point:	-0.042	Yaw Set Point:	-0.112	X_WP:	0.000	Y_WP:	0.000	Y_WP:	0.500	X:	-0.001	Y:	0.021	Z:	0.050	yaw:	6.441	yaw rate:	-4.301	Roll:	0.132	Pitch:	0.645	Yaw:	9.242	Thrust:	100.000
Time:	3.432	Roll Set Point:	0.001	Pitch Set Point:	-0.042	Yaw Set Point:	-0.113	X_WP:	0.000	Y_WP:	0.000	Y_WP:	0.500	X:	-0.001	Y:	0.021	Z:	0.050	yaw:	6.501	yaw rate:	5.966	Roll:	-0.103	Pitch:	0.723	Yaw:	11.596	Thrust:	98.215
Time:	3.443	Roll Set Point:	0.001	Pitch Set Point:	-0.042	Yaw Set Point:	-0.113	X_WP:	0.000	Y_WP:	0.000	Y_WP:	0.500	X:	-0.001	Y:	0.021	Z:	0.050	yaw:	6.464	yaw rate:	-3.714	Roll:	0.031	Pitch:	0.694	Yaw:	9.242	Thrust:	98.489
Time:	3.454	Roll Set Point:	0.001	Pitch Set Point:	-0.042	Yaw Set Point:	-0.115	X_WP:	0.000	Y_WP:	0.000	Y_WP:	0.500	X:	-0.001	Y:	0.021	Z:	0.050	yaw:	6.571	yaw rate:	10.722	Roll:	0.104	Pitch:	0.593	Yaw:	12.819	Thrust:	99.702
Time:	3.465	Roll Set Point:	0.001	Pitch Set Point:	-0.042	Yaw Set Point:	-0.115	X_WP:	0.000	Y_WP:	0.000	Y_WP:	0.500	X:	-0.001	Y:	0.021	Z:	0.050	yaw:	6.576	yaw rate:	0.521	Roll:	-0.001	Pitch:	0.665	Yaw:	10.409	Thrust:	99.770
Time:	3.476	Roll Set Point:	0.001	Pitch Set Point:	-0.042	Yaw Set Point:	-0.113	X_WP:	0.000	Y_WP:	0.000	Y_WP:	0.500	X:	-0.001	Y:	0.021	Z:	0.050	yaw:	6.484	yaw rate:	-9.168	Roll:	-0.016	Pitch:	0.786	Yaw:	7.981	Thrust:	100.000
Time:	3.487	Roll Set Point:	0.001	Pitch Set Point:	-0.042	Yaw Set Point:	-0.115	X_WP:	0.000	Y_WP:	0.000	Y_WP:	0.500	X:	-0.001	Y:	0.021	Z:	0.050	yaw:	6.574	yaw rate:	8.955	Roll:	0.076	Pitch:	0.588	Yaw:	12.408	Thrust:	100.000
Time:	3.498	Roll Set Point:	0.001	Pitch Set Point:	-0.042	Yaw Set Point:	-0.113	X_WP:	0.000	Y_WP:	0.000	Y_WP:	0.500	X:	-0.001	Y:	0.021	Z:	0.050	yaw:	6.463	yaw rate:	-11.062	Roll:	0.001	Pitch:	0.802	Yaw:	7.503	Thrust:	100.000
Time:	3.509	Roll Set Point:	0.001	Pitch Set Point:	-0.042	Yaw Set Point:	-0.115	X_WP:	0.000	Y_WP:	0.000	Y_WP:	0.500	X:	-0.001	Y:	0.021	Z:	0.050	yaw:	6.579	yaw rate:	11.564	Roll:	0.111	Pitch:	0.558	Yaw:	13.034	Thrust:	100.000
Time:	3.520	Roll Set Point:	0.001	Pitch Set Point:	-0.042	Yaw Set Point:	-0.113	X_WP:	0.000	Y_WP:	0.000	Y_WP:	0.500	X:	-0.001	Y:	0.021	Z:	0.050	yaw:	6.473	yaw rate:	-10.588	Roll:	-0.083	Pitch:	0.793	Yaw:	7.628	Thrust:	100.000
Time:	3.531	Roll Set Point:	0.001	Pitch Set Point:	-0.042	Yaw Set Point:	-0.114	X_WP:	0.000	Y_WP:	0.000	Y_WP:	0.500	X:	-0.001	Y:	0.021	Z:	0.050	yaw:	6.554	yaw rate:	8.107	Roll:	0.115	Pitch:	0.596	Yaw:	12.179	Thrust:	100.000
Time:	3.542	Roll Set Point:	0.001	Pitch Set Point:	-0.042	Yaw Set Point:	-0.114	X_WP:	0.000	Y_WP:	0.000	Y_WP:	0.500	X:	-0.001	Y:	0.021	Z:	0.050	yaw:	6.524	yaw rate:	-3.024	Roll:	0.002	Pitch:	0.740	Yaw:	9.494	Thrust:	100.000
Time:	3.553	Roll Set Point:	0.001	Pitch Set Point:	-0.042	Yaw Set Point:	-0.113	X_WP:	0.000	Y_WP:	0.000	Y_WP:	0.500	X:	-0.001	Y:	0.021	Z:	0.050	yaw:	6.481	yaw rate:	-4.321	Roll:	0.006	Pitch:	0.724	Yaw:	9.126	Thrust:	100.000
Time:	3.564	Roll Set Point:	0.001	Pitch Set Point:	-0.042	Yaw Set Point:	-0.113	X_WP:	0.000	Y_WP:	0.000	Y_WP:	0.500	X:	-0.001	Y:	0.021	Z:	0.050	yaw:	6.451	yaw rate:	-2.981	Roll:	0.030	Pitch:	0.707	Yaw:	9.398	Thrust:	100.000
Time:	3.575	Roll Set Point:	0.001	Pitch Set Point:	-0.042	Yaw Set Point:	-0.113	X_WP:	0.000	Y_WP:	0.000	Y_WP:	0.500	X:	-0.001	Y:	0.021	Z:	0.050	yaw:	6.485	yaw rate:	3.373	Roll:	0.016	Pitch:	0.667	Yaw:	10.959	Thrust:	100.000
Time:	3.586	Roll Set Point:	0.001	Pitch Set Point:	-0.042	Yaw Set Point:	-0.114	X_WP:	0.000	Y_WP:	0.000	Y_WP:	0.500	X:	-0.001	Y:	0.021	Z:	0.050	yaw:	6.556	yaw rate:	7.112	Roll:	0.075	Pitch:	0.579	Yaw:	11.945	Thrust:	100.000
Time:	3.597	Roll Set Point:	0.001	Pitch Set Point:	-0.042	Yaw Set Point:	-0.113	X_WP:	0.000	Y_WP:	0.000	Y_WP:	0.500	X:	-0.001	Y:	0.021	Z:	0.050	yaw:	6.480	yaw rate:	-7.579	Roll:	0.018	Pitch:	0.795	Yaw:	8.346	Thrust:	100.000
Time:	3.608	Roll Set Point:	0.001	Pitch Set Point:	-0.042	Yaw Set Point:	-0.113	X_WP:	0.000	Y_WP:	0.000	Y_WP:	0.500	X:	-0.001	Y:	0.021	Z:	0.050	yaw:	6.484	yaw rate:	0.394	Roll:	0.009	Pitch:	0.675	Yaw:	10.252	Thrust:	100.000
Time:	3.619	Roll Set Point:	0.001	Pitch Set Point:	-0.042	Yaw Set Point:	-0.115	X_WP:	0.000	Y_WP:	0.000	Y_WP:	0.500	X:	-0.001	Y:	0.021	Z:	0.050	yaw:	6.563	yaw rate:	7.904	Roll:	0.074	Pitch:	0.612	Yaw:	12.142	Thrust:	100.000
Time:	3.630	Roll Set Point:	0.001	Pitch Set Point:	-0.042	Yaw Set Point:	-0.113	X_WP:	0.000	Y_WP:	0.000	Y_WP:	0.500	X:	-0.001	Y:	0.021	Z:	0.050	yaw:	6.486	yaw rate:	-7.670	Roll:	0.004	Pitch:	0.776	Yaw:	8.332	Thrust:	100.000
Time:	3.641	Roll Set Point:	0.001	Pitch Set Point:	-0.042	Yaw Set Point:	-0.113	X_WP:	0.000	Y_WP:	0.000	Y_WP:	0.500	X:	-0.001	Y:	0.021	Z:	0.050	yaw:	6.502	yaw rate:	1.616	Roll:	0.036	Pitch:	0.694	Yaw:	10.567	Thrust:	100.000
Time:	3.652	Roll Set Point:	0.001	Pitch Set Point:	-0.042	Yaw Set Point:	-0.114	X_WP:	0.000	Y_WP:	0.000	Y_WP:	0.500	X:	-0.001	Y:	0.021	Z:	0.050	yaw:	6.543	yaw rate:	4.055	Roll:	0.065	Pitch:	0.589	Yaw:	11.201	Thrust:	100.000
Time:	3.663	Roll Set Point:	0.001	Pitch Set Point:	-0.042	Yaw Set Point:	-0.114	X_WP:	0.000	Y_WP:	0.000	Y_WP:	0.500	X:	-0.002	Y:	0.021	Z:	0.050	yaw:	6.512	yaw rate:	-3.102	Roll:	-0.046	Pitch:	0.803	Yaw:	9.459	Thrust:	100.000
Time:	3.674	Roll Set Point:	0.001	Pitch Set Point:	-0.042	Yaw Set Point:	-0.114	X_WP:	0.000	Y_WP:	0.000	Y_WP:	0.500	X:	-0.001	Y:	0.021	Z:	0.050	yaw:	6.548	yaw rate:	3.637	Roll:	0.106	Pitch:	0.602	Yaw:	11.109	Thrust:	100.000
Time:	3.685	Roll Set Point:	0.001	Pitch Set Point:	-0.042	Yaw Set Point:	-0.113	X_WP:	0.000	Y_WP:	0.000	Y_WP:	0.500	X:	-0.001	Y:	0.021	Z:	0.050	yaw:	6.491	yaw rate:	-5.777	Roll:	-0.024	Pitch:	0.773	Yaw:	8.789	Thrust:	100.000
Time:	3.697	Roll Set Point:	0.000	Pitch Set Point:	-0.042	Yaw Set Point:	-0.113	X_WP:	0.000	Y_WP:	0.000	Y_WP:	0.500	X:	-0.001	Y:	0.021	Z:	0.050	yaw:	6.455	yaw rate:	-3.543	Roll:	0.097	Pitch:	0.646	Yaw:	9.280	Thrust:	100.000
Time:	3.708	Roll Set Point:	0.001	Pitch Set Point:	-0.042	Yaw Set Point:	-0.113	X_WP:	0.000	Y_WP:	0.000	Y_WP:	0.500	X:	-0.001	Y:	0.021	Z:	0.050	yaw:	6.474	yaw rate:	1.866	Roll:	-0.057	Pitch:	0.749	Yaw:	10.583	Thrust:	100.000
Time:	3.719	Roll Set Point:	0.001	Pitch Set Point:	-0.042	Yaw Set Point:	-0.113	X_WP:	0.000	Y_WP:	0.000	Y_WP:	0.500	X:	-0.001	Y:	0.021	Z:	0.050	yaw:	6.494	yaw rate:	2.000	Roll:	0.049	Pitch:	0.713	Yaw:	10.646	Thrust:	100.000
Time:	3.730	Roll Set Point:	0.000	Pitch Set Point:	-0.042	Yaw Set Point:	-0.113	X_WP:	0.000	Y_WP:	0.000	Y_WP:	0.500	X:	-0.001	Y:	0.021	Z:	0.050	yaw:	6.476	yaw rate:	-1.766	Roll:	0.109	Pitch:	0.634	Yaw:	9.727	Thrust:	100.000
Time:	3.741	Roll Set Point:	0.001	Pitch Set Point:	-0.042	Yaw Set Point:	-0.115	X_WP:	0.000	Y_WP:	0.000	Y_WP:	0.500	X:	-0.001	Y:	0.021	Z:	0.050	yaw:	6.565	yaw rate:	8.856	Roll:	0.012	Pitch:	0.654	Yaw:	12.371	Thrust:	100.000
Time:	3.752	Roll Set Point:	0.001	Pitch Set Point:	-0.042	Yaw Set Point:	-0.113	X_WP:	0.000	Y_WP:	0.000	Y_WP:	0.500	X:	-0.001	Y:	0.021	Z:	0.050	yaw:	6.479	yaw rate:	-8.531	Roll:	-0.006	Pitch:	0.788	Yaw:	8.119	Thrust:	100.000
Time:	3.764	Roll Set Point:	0.001	Pitch Set Point:	-0.042	Yaw Set Point:	-0.115	X_WP:	0.000	Y_WP:	0.000	Y_WP:	0.500	X:	-0.001	Y:	0.021	Z:	0.050	yaw:	6.569	yaw rate:	8.990	Roll:	0.048	Pitch:	0.600	Yaw:	12.330	Thrust:	100.000
Time:	3.775	Roll Set Point:	0.001	Pitch Set Point:	-0.042	Yaw Set Point:	-0.113	X_WP:	0.000	Y_WP:	0.000	Y_WP:	0.500	X:	-0.001	Y:	0.021	Z:	0.050	yaw:	6.483	yaw rate:	-8.613	Roll:	-0.024	Pitch:	0.818	Yaw:	8.109	Thrust:	100.000
Time:	3.786	Roll Set Point:	0.001	Pitch Set Point:	-0.042	Yaw Set Point:	-0.113	X_WP:	0.000	Y_WP:	0.000	Y_WP:	0.500	X:	-0.001	Y:	0.021	Z:	0.050	yaw:	6.468	yaw rate:	-1.543	Roll:	0.039	Pitch:	0.715	Yaw:	9.764	Thrust:	100.000
Time:	3.797	Roll Set Point:	0.001	Pitch Set Point:	-0.042	Yaw Set Point:	-0.113	X_WP:	0.000	Y_WP:	0.000	Y_WP:	0.500	X:	-0.001	Y:	0.021	Z:	0.050	yaw:	6.495	yaw rate:	2.747	Roll:	0.023	Pitch:	0.665	Yaw:	10.826	Thrust:	100.000
Time:	3.808	Roll Set Point:	0.001	Pitch Set Point:	-0.042	Yaw Set Point:	-0.113	X_WP:	0.000	Y_WP:	0.000	Y_WP:	0.500	X:	-0.001	Y:	0.021	Z:	0.050	yaw:	6.483	yaw rate:	-1.201	Roll:	0.072	Pitch:	0.749	Yaw:	9.866	Thrust:	100.000
Time:	3.819	Roll Set Point:	0.001	Pitch Set Point:	-0.042	Yaw Set Point:	-0.114	X_WP:	0.000	Y_WP:	0.000	Y_WP:	0.500	X:	-0.001	Y:	0.021	Z:	0.050	yaw:	6.549	yaw rate:	6.570	Roll:	0.064	Pitch:	0.592	Yaw:	11.807	Thrust:	100.000
Time:	3.830	Roll Set Point:	0.001	Pitch Set Point:	-0.042	Yaw Set Point:	-0.113	X_WP:	0.000	Y_WP:	0.000	Y_WP:	0.500	X:	-0.001	Y:	0.021	Z:	0.050	yaw:	6.476	yaw rate:	-7.254	Roll:	-0.063	Pitch:	0.793	Yaw:	8.424	Thrust:	100.000
Time:	3.841	Roll Set Point:	0.001	Pitch Set Point:	-0.042	Yaw Set Point:	-0.113	X_WP:	0.000	Y_WP:	0.000	Y_WP:	0.500	X:	-0.001	Y:	0.021	Z:	0.050	yaw:	6.450	yaw rate:	-2.679	Roll:	0.054	Pitch:	0.710	Yaw:	9.477	Thrust:	100.000
Time:	3.852	Roll Set Point:	0.001	Pitch Set Point:	-0.042	Yaw Set Point:	-0.113	X_WP:	0.000	Y_WP:	0.000	Y_WP:	0.500	X:	-0.001	Y:	0.021	Z:	0.050	yaw:	6.499	yaw rate:	4.944	Roll:	0.050	Pitch:	0.671	Yaw:	11.351	Thrust:	100.000
Time:	3.863	Roll Set Point:	0.001	Pitch Set Point:	-0.042	Yaw Set Point:	-0.113	X_WP:	0.000	Y_WP:	0.000	Y_WP:	0.500	X:	-0.001	Y:	0.021	Z:	0.050	yaw:	6.467	yaw rate:	-3.206	Roll:	0.039	Pitch:	0.721	Yaw:	9.372	Thrust:	100.000
Time:	3.874	Roll Set Point:	0.001	Pitch Set Point:	-0.042	Yaw Set Point:	-0.113	X_WP:	0.000	Y_WP:	0.000	Y_WP:	0.500	X:	-0.001	Y:	0.021	Z:	0.050	yaw:	6.449	yaw rate:	-1.848	Roll:	0.022	Pitch:	0.694	Yaw:	9.668	Thrust:	100.000
Time:	3.885	Roll Set Point:	0.001	Pitch Set Point:	-0.042	Yaw Set Point:	-0.113	X_WP:	0.000	Y_WP:	0.000	Y_WP:	0.500	X:	-0.001	Y:	0.021	Z:	0.050	yaw:	6.472	yaw rate:	2.333	Roll:	0.001	Pitch:	0.727	Yaw:	10.693	Thrust:	100.000
Time:	3.896	Roll Set Point:	0.001	Pitch Set Point:	-0.042	Yaw Set Point:	-0.113	X_WP:	0.000	Y_WP:	0.000	Y_WP:	0.500	X:	-0.001	Y:	0.021	Z:	0.050	yaw:	6.475	yaw rate:	0.310	Roll:	0.044	Pitch:	0.679	Yaw:	10.215	Thrust:	100.000
Time:	3.907	Roll Set Point:	0.001	Pitch Set Point:	-0.042	Yaw Set Point:	-0.113	X_WP:	0.000	Y_WP:	0.000	Y_WP:	0.500	X:	-0.001	Y:	0.021	Z:	0.050	yaw:	6.496	yaw rate:	2.125	Roll:	0.066	Pitch:	0.701	Yaw:	10.678	Thrust:	100.000
Time:	3.918	Roll Set Point:	0.001	Pitch Set Point:	-0.042	Yaw Set Point:	-0.113	X_WP:	0.000	Y_WP:	0.000	Y_WP:	0.500	X:	-0.001	Y:	0.021	Z:	0.050	yaw:	6.499	yaw rate:	0.287	Roll:	0.005	Pitch:	0.725	Yaw:	10.248	Thrust:	100.000
Time:	3.929	Roll Set Point:	0.001	Pitch Set Point:	-0.042	Yaw Set Point:	-0.113	X_WP:	0.000	Y_WP:	0.000	Y_WP:	0.500	X:	-0.001	Y:	0.021	Z:	0.050	yaw:	6.469	yaw rate:	-2.978	Roll:	0.022	Pitch:	0.680	Yaw:	9.429	Thrust:	100.000
Time:	3.940	Roll Set Point:	0.001	Pitch Set Point:	-0.042	Yaw Set Point:	-0.113	X_WP:	0.000	Y_WP:	0.000	Y_WP:	0.500	X:	-0.001	Y:	0.021	Z:	0.050	yaw:	6.480	yaw rate:	1.106	Roll:	0.064	Pitch:	0.745	Yaw:	10.413	Thrust:	100.000
Time:	3.951	Roll Set Point:	0.001	Pitch Set Point:	-0.042	Yaw Set Point:	-0.113	X_WP:	0.000	Y_WP:	0.000	Y_WP:	0.500	X:	-0.001	Y:	0.021	Z:	0.050	yaw:	6.468	yaw rate:	-1.270	Roll:	-0.019	Pitch:	0.717	Yaw:	9.832	Thrust:	100.000
Time:	3.962	Roll Set Point:	0.001	Pitch Set Point:	-0.042	Yaw Set Point:	-0.116	X_WP:	0.000	Y_WP:	0.000	Y_WP:	0.500	X:	-0.002	Y:	0.021	Z:	0.050	yaw:	6.632	yaw rate:	16.401	Roll:	0.047	Pitch:	0.541	Yaw:	14.255	Thrust:	100.000
Time:	3.973	Roll Set Point:	0.001	Pitch Set Point:	-0.042	Yaw Set Point:	-0.113	X_WP:	0.000	Y_WP:	0.000	Y_WP:	0.500	X:	-0.001	Y:	0.021	Z:	0.050	yaw:	6.476	yaw rate:	-15.608	Roll:	0.010	Pitch:	0.890	Yaw:	6.438	Thrust:	100.000
Time:	3.984	Roll Set Point:	0.001	Pitch Set Point:	-0.042	Yaw Set Point:	-0.113	X_WP:	0.000	Y_WP:	0.000	Y_WP:	0.500	X:	-0.002	Y:	0.021	Z:	0.050	yaw:	6.490	yaw rate:	1.414	Roll:	0.006	Pitch:	0.663	Yaw:	10.498	Thrust:	100.000
Time:	3.995	Roll Set Point:	0.001	Pitch Set Point:	-0.042	Yaw Set Point:	-0.113	X_WP:	0.000	Y_WP:	0.000	Y_WP:	0.500	X:	-0.001	Y:	0.021	Z:	0.050	yaw:	6.491	yaw rate:	0.148	Roll:	0.099	Pitch:	0.719	Yaw:	10.204	Thrust:	100.000
Time:	4.006	Roll Set Point:	0.001	Pitch Set Point:	-0.042	Yaw Set Point:	-0.114	X_WP:	0.000	Y_WP:	0.000	Y_WP:	0.500	X:	-0.001	Y:	0.021	Z:	0.050	yaw:	6.558	yaw rate:	6.696	Roll:	0.052	Pitch:	0.633	Yaw:	11.849	Thrust:	100.000
Time:	4.017	Roll Set Point:	0.001	Pitch Set Point:	-0.042	Yaw Set Point:	-0.113	X_WP:	0.000	Y_WP:	0.000	Y_WP:	0.500	X:	-0.001	Y:	0.021	Z:	0.050	yaw:	6.492	yaw rate:	-6.593	Roll:	-0.039	Pitch:	0.783	Yaw:	8.604	Thrust:	100.000
Time:	4.028	Roll Set Point:	0.001	Pitch Set Point:	-0.042	Yaw Set Point:	-0.114	X_WP:	0.000	Y_WP:	0.000	Y_WP:	0.500	X:	-0.001	Y:	0.021	Z:	0.050	yaw:	6.505	yaw rate:	1.249	Roll:	0.055	Pitch:	0.727	Yaw:	10.479	Thrust:	100.000
Time:	4.039	Roll Set Point:	0.001	Pitch Set Point:	-0.042	Yaw Set Point:	-0.115	X_WP:	0.000	Y_WP:	0.000	Y_WP:	0.500	X:	-0.001	Y:	0.021	Z:	0.050	yaw:	6.571	yaw rate:	6.669	Roll:	0.065	Pitch:	0.628	Yaw:	11.860	Thrust:	100.000
Time:	4.050	Roll Set Point:	0.001	Pitch Set Point:	-0.042	Yaw Set Point:	-0.113	X_WP:	0.000	Y_WP:	0.000	Y_WP:	0.500	X:	-0.001	Y:	0.021	Z:	0.050	yaw:	6.496	yaw rate:	-7.493	Roll:	-0.003	Pitch:	0.791	Yaw:	8.395	Thrust:	100.000
Time:	4.062	Roll Set Point:	0.001	Pitch Set Point:	-0.042	Yaw Set Point:	-0.113	X_WP:	0.000	Y_WP:	0.000	Y_WP:	0.500	X:	-0.001	Y:	0.021	Z:	0.050	yaw:	6.462	yaw rate:	-3.406	Roll:	0.026	Pitch:	0.729	Yaw:	9.318	Thrust:	100.000
Time:	4.073	Roll Set Point:	0.001	Pitch Set Point:	-0.042	Yaw Set Point:	-0.113	X_WP:	0.000	Y_WP:	0.000	Y_WP:	0.500	X:	-0.001	Y:	0.021	Z:	0.050	yaw:	6.453	yaw rate:	-0.939	Roll:	0.058	Pitch:	0.713	Yaw:	9.890	Thrust:	100.000
Time:	4.084	Roll Set Point:	0.001	Pitch Set Point:	-0.042	Yaw Set Point:	-0.113	X_WP:	0.000	Y_WP:	0.000	Y_WP:	0.500	X:	-0.001	Y:	0.021	Z:	0.050	yaw:	6.481	yaw rate:	2.797	Roll:	-0.001	Pitch:	0.708	Yaw:	10.816	Thrust:	100.000
Time:	4.095	Roll Set Point:	0.001	Pitch Set Point:	-0.042	Yaw Set Point:	-0.113	X_WP:	0.000	Y_WP:	0.000	Y_WP:	0.500	X:	-0.001	Y:	0.021	Z:	0.050	yaw:	6.452	yaw rate:	-2.943	Roll:	0.036	Pitch:	0.746	Yaw:	9.418	Thrust:	100.000
Time:	4.106	Roll Set Point:	0.001	Pitch Set Point:	-0.042	Yaw Set Point:	-0.113	X_WP:	0.000	Y_WP:	0.000	Y_WP:	0.500	X:	-0.001	Y:	0.021	Z:	0.050	yaw:	6.483	yaw rate:	3.191	Roll:	0.004	Pitch:	0.678	Yaw:	10.912	Thrust:	100.000
Time:	4.117	Roll Set Point:	0.001	Pitch Set Point:	-0.042	Yaw Set Point:	-0.115	X_WP:	0.000	Y_WP:	0.000	Y_WP:	0.500	X:	-0.001	Y:	0.021	Z:	0.050	yaw:	6.561	yaw rate:	7.716	Roll:	0.070	Pitch:	0.611	Yaw:	12.095	Thrust:	100.000
Time:	4.128	Roll Set Point:	0.001	Pitch Set Point:	-0.042	Yaw Set Point:	-0.114	X_WP:	0.000	Y_WP:	0.000	Y_WP:	0.500	X:	-0.001	Y:	0.021	Z:	0.050	yaw:	6.549	yaw rate:	-1.118	Roll:	0.048	Pitch:	0.733	Yaw:	9.983	Thrust:	100.000
Time:	4.140	Roll Set Point:	0.001	Pitch Set Point:	-0.042	Yaw Set Point:	-0.114	X_WP:	0.000	Y_WP:	0.000	Y_WP:	0.500	X:	-0.001	Y:	0.021	Z:	0.050	yaw:	6.506	yaw rate:	-4.329	Roll:	0.022	Pitch:	0.803	Yaw:	9.344	Thrust:	100.000
Time:	4.151	Roll Set Point:	0.001	Pitch Set Point:	-0.042	Yaw Set Point:	-0.115	X_WP:	0.000	Y_WP:	0.000	Y_WP:	0.500	X:	-0.001	Y:	0.021	Z:	0.050	yaw:	6.568	yaw rate:	6.206	Roll:	0.034	Pitch:	0.624	Yaw:	11.746	Thrust:	100.000
Time:	4.162	Roll Set Point:	0.001	Pitch Set Point:	-0.042	Yaw Set Point:	-0.114	X_WP:	0.000	Y_WP:	0.000	Y_WP:	0.500	X:	-0.001	Y:	0.021	Z:	0.050	yaw:	6.557	yaw rate:	-1.133	Roll:	0.026	Pitch:	0.718	Yaw:	9.986	Thrust:	100.000
Time:	4.173	Roll Set Point:	0.001	Pitch Set Point:	-0.042	Yaw Set Point:	-0.113	X_WP:	0.000	Y_WP:	0.000	Y_WP:	0.500	X:	-0.001	Y:	0.021	Z:	0.050	yaw:	6.472	yaw rate:	-8.509	Roll:	0.025	Pitch:	0.855	Yaw:	8.120	Thrust:	100.000
Time:	4.184	Roll Set Point:	0.001	Pitch Set Point:	-0.042	Yaw Set Point:	-0.115	X_WP:	0.000	Y_WP:	0.000	Y_WP:	0.500	X:	-0.001	Y:	0.021	Z:	0.050	yaw:	6.584	yaw rate:	11.226	Roll:	0.058	Pitch:	0.596	Yaw:	12.961	Thrust:	100.000
Time:	4.195	Roll Set Point:	0.001	Pitch Set Point:	-0.042	Yaw Set Point:	-0.113	X_WP:	0.000	Y_WP:	0.000	Y_WP:	0.500	X:	-0.001	Y:	0.021	Z:	0.050	yaw:	6.501	yaw rate:	-8.286	Roll:	-0.028	Pitch:	0.792	Yaw:	8.214	Thrust:	100.000
Time:	4.206	Roll Set Point:	0.000	Pitch Set Point:	-0.042	Yaw Set Point:	-0.114	X_WP:	0.000	Y_WP:	0.000	Y_WP:	0.500	X:	-0.001	Y:	0.021	Z:	0.050	yaw:	6.531	yaw rate:	2.930	Roll:	0.133	Pitch:	0.593	Yaw:	10.917	Thrust:	100.000
Time:	4.217	Roll Set Point:	0.001	Pitch Set Point:	-0.042	Yaw Set Point:	-0.113	X_WP:	0.000	Y_WP:	0.000	Y_WP:	0.500	X:	-0.001	Y:	0.021	Z:	0.050	yaw:	6.461	yaw rate:	-6.909	Roll:	-0.041	Pitch:	0.861	Yaw:	8.485	Thrust:	100.000
Time:	4.228	Roll Set Point:	0.001	Pitch Set Point:	-0.042	Yaw Set Point:	-0.114	X_WP:	0.000	Y_WP:	0.000	Y_WP:	0.500	X:	-0.001	Y:	0.021	Z:	0.050	yaw:	6.532	yaw rate:	7.062	Roll:	0.089	Pitch:	0.572	Yaw:	11.900	Thrust:	100.000
Time:	4.239	Roll Set Point:	0.001	Pitch Set Point:	-0.042	Yaw Set Point:	-0.115	X_WP:	0.000	Y_WP:	0.000	Y_WP:	0.500	X:	-0.001	Y:	0.021	Z:	0.050	yaw:	6.561	yaw rate:	2.942	Roll:	0.005	Pitch:	0.796	Yaw:	10.963	Thrust:	100.000
Time:	4.250	Roll Set Point:	0.001	Pitch Set Point:	-0.042	Yaw Set Point:	-0.113	X_WP:	0.000	Y_WP:	0.000	Y_WP:	0.500	X:	-0.001	Y:	0.021	Z:	0.050	yaw:	6.485	yaw rate:	-7.620	Roll:	-0.023	Pitch:	0.832	Yaw:	8.349	Thrust:	100.000
Time:	4.261	Roll Set Point:	0.001	Pitch Set Point:	-0.042	Yaw Set Point:	-0.114	X_WP:	0.000	Y_WP:	0.000	Y_WP:	0.500	X:	-0.001	Y:	0.021	Z:	0.050	yaw:	6.553	yaw rate:	6.743	Roll:	0.085	Pitch:	0.608	Yaw:	11.852	Thrust:	100.000
Time:	4.272	Roll Set Point:	0.001	Pitch Set Point:	-0.042	Yaw Set Point:	-0.113	X_WP:	0.000	Y_WP:	0.000	Y_WP:	0.500	X:	-0.001	Y:	0.021	Z:	0.050	yaw:	6.476	yaw rate:	-7.715	Roll:	0.004	Pitch:	0.834	Yaw:	8.314	Thrust:	100.000
Time:	4.283	Roll Set Point:	0.001	Pitch Set Point:	-0.042	Yaw Set Point:	-0.113	X_WP:	0.000	Y_WP:	0.000	Y_WP:	0.500	X:	-0.001	Y:	0.021	Z:	0.050	yaw:	6.457	yaw rate:	-1.827	Roll:	0.036	Pitch:	0.707	Yaw:	9.686	Thrust:	100.000
Time:	4.294	Roll Set Point:	0.001	Pitch Set Point:	-0.042	Yaw Set Point:	-0.115	X_WP:	0.000	Y_WP:	0.000	Y_WP:	0.500	X:	-0.001	Y:	0.021	Z:	0.050	yaw:	6.562	yaw rate:	10.489	Roll:	0.041	Pitch:	0.617	Yaw:	12.759	Thrust:	100.000
Time:	4.305	Roll Set Point:	0.001	Pitch Set Point:	-0.042	Yaw Set Point:	-0.113	X_WP:	0.000	Y_WP:	0.000	Y_WP:	0.500	X:	-0.001	Y:	0.021	Z:	0.050	yaw:	6.483	yaw rate:	-7.902	Roll:	-0.003	Pitch:	0.831	Yaw:	8.287	Thrust:	100.000
Time:	4.316	Roll Set Point:	0.001	Pitch Set Point:	-0.042	Yaw Set Point:	-0.114	X_WP:	0.000	Y_WP:	0.000	Y_WP:	0.500	X:	-0.001	Y:	0.021	Z:	0.050	yaw:	6.560	yaw rate:	7.710	Roll:	0.098	Pitch:	0.645	Yaw:	12.093	Thrust:	100.000
Time:	4.327	Roll Set Point:	0.001	Pitch Set Point:	-0.042	Yaw Set Point:	-0.113	X_WP:	0.000	Y_WP:	0.000	Y_WP:	0.500	X:	-0.001	Y:	0.021	Z:	0.050	yaw:	6.455	yaw rate:	-10.525	Roll:	-0.020	Pitch:	0.811	Yaw:	7.617	Thrust:	100.000
Time:	4.338	Roll Set Point:	0.001	Pitch Set Point:	-0.042	Yaw Set Point:	-0.113	X_WP:	0.000	Y_WP:	0.000	Y_WP:	0.500	X:	-0.001	Y:	0.021	Z:	0.050	yaw:	6.478	yaw rate:	2.291	Roll:	0.020	Pitch:	0.739	Yaw:	10.692	Thrust:	100.000
Time:	4.349	Roll Set Point:	0.001	Pitch Set Point:	-0.042	Yaw Set Point:	-0.113	X_WP:	0.000	Y_WP:	0.000	Y_WP:	0.500	X:	-0.001	Y:	0.021	Z:	0.050	yaw:	6.476	yaw rate:	-0.161	Roll:	0.060	Pitch:	0.737	Yaw:	10.107	Thrust:	100.000
Time:	4.360	Roll Set Point:	0.001	Pitch Set Point:	-0.042	Yaw Set Point:	-0.114	X_WP:	0.000	Y_WP:	0.000	Y_WP:	0.500	X:	-0.001	Y:	0.021	Z:	0.050	yaw:	6.539	yaw rate:	6.291	Roll:	0.015	Pitch:	0.616	Yaw:	11.727	Thrust:	100.000
Time:	4.371	Roll Set Point:	0.001	Pitch Set Point:	-0.042	Yaw Set Point:	-0.114	X_WP:	0.000	Y_WP:	0.000	Y_WP:	0.500	X:	-0.001	Y:	0.021	Z:	0.050	yaw:	6.523	yaw rate:	-1.596	Roll:	0.044	Pitch:	0.814	Yaw:	9.832	Thrust:	100.000
Time:	4.382	Roll Set Point:	0.001	Pitch Set Point:	-0.042	Yaw Set Point:	-0.112	X_WP:	0.000	Y_WP:	0.000	Y_WP:	0.500	X:	-0.001	Y:	0.021	Z:	0.050	yaw:	6.435	yaw rate:	-8.854	Roll:	0.021	Pitch:	0.764	Yaw:	7.986	Thrust:	100.000
Time:	4.393	Roll Set Point:	0.001	Pitch Set Point:	-0.042	Yaw Set Point:	-0.113	X_WP:	0.000	Y_WP:	0.000	Y_WP:	0.500	X:	-0.001	Y:	0.021	Z:	0.050	yaw:	6.471	yaw rate:	3.610	Roll:	0.017	Pitch:	0.729	Yaw:	10.995	Thrust:	100.000
Time:	4.404	Roll Set Point:	0.001	Pitch Set Point:	-0.042	Yaw Set Point:	-0.117	X_WP:	0.000	Y_WP:	0.000	Y_WP:	0.500	X:	-0.002	Y:	0.021	Z:	0.050	yaw:	6.708	yaw rate:	23.716	Roll:	0.076	Pitch:	0.481	Yaw:	16.101	Thrust:	100.000
Time:	4.415	Roll Set Point:	0.001	Pitch Set Point:	-0.042	Yaw Set Point:	-0.114	X_WP:	0.000	Y_WP:	0.000	Y_WP:	0.500	X:	-0.001	Y:	0.021	Z:	0.050	yaw:	6.546	yaw rate:	-16.233	Roll:	0.027	Pitch:	0.878	Yaw:	6.390	Thrust:	100.000
Time:	4.426	Roll Set Point:	0.001	Pitch Set Point:	-0.042	Yaw Set Point:	-0.113	X_WP:	0.000	Y_WP:	0.000	Y_WP:	0.500	X:	-0.001	Y:	0.021	Z:	0.050	yaw:	6.470	yaw rate:	-7.558	Roll:	-0.010	Pitch:	0.826	Yaw:	8.342	Thrust:	100.000
Time:	4.438	Roll Set Point:	0.001	Pitch Set Point:	-0.042	Yaw Set Point:	-0.113	X_WP:	0.000	Y_WP:	0.000	Y_WP:	0.500	X:	-0.001	Y:	0.021	Z:	0.050	yaw:	6.469	yaw rate:	-0.065	Roll:	0.045	Pitch:	0.741	Yaw:	10.120	Thrust:	100.000
Time:	4.449	Roll Set Point:	0.001	Pitch Set Point:	-0.042	Yaw Set Point:	-0.114	X_WP:	0.000	Y_WP:	0.000	Y_WP:	0.500	X:	-0.001	Y:	0.021	Z:	0.050	yaw:	6.553	yaw rate:	8.402	Roll:	0.072	Pitch:	0.605	Yaw:	12.250	Thrust:	100.000
Time:	4.460	Roll Set Point:	0.001	Pitch Set Point:	-0.042	Yaw Set Point:	-0.113	X_WP:	0.000	Y_WP:	0.000	Y_WP:	0.500	X:	-0.001	Y:	0.021	Z:	0.050	yaw:	6.490	yaw rate:	-6.377	Roll:	0.006	Pitch:	0.831	Yaw:	8.651	Thrust:	100.000
Time:	4.471	Roll Set Point:	0.000	Pitch Set Point:	-0.042	Yaw Set Point:	-0.114	X_WP:	0.000	Y_WP:	0.000	Y_WP:	0.500	X:	-0.001	Y:	0.021	Z:	0.050	yaw:	6.560	yaw rate:	7.010	Roll:	0.118	Pitch:	0.605	Yaw:	11.925	Thrust:	100.000
Time:	4.482	Roll Set Point:	0.001	Pitch Set Point:	-0.042	Yaw Set Point:	-0.113	X_WP:	0.000	Y_WP:	0.000	Y_WP:	0.500	X:	-0.002	Y:	0.021	Z:	0.050	yaw:	6.481	yaw rate:	-7.850	Roll:	-0.106	Pitch:	0.876	Yaw:	8.289	Thrust:	100.000
Time:	4.493	Roll Set Point:	0.001	Pitch Set Point:	-0.042	Yaw Set Point:	-0.113	X_WP:	0.000	Y_WP:	0.000	Y_WP:	0.500	X:	-0.001	Y:	0.021	Z:	0.050	yaw:	6.494	yaw rate:	1.283	Roll:	0.091	Pitch:	0.724	Yaw:	10.475	Thrust:	100.000
Time:	4.504	Roll Set Point:	0.000	Pitch Set Point:	-0.042	Yaw Set Point:	-0.113	X_WP:	0.000	Y_WP:	0.000	Y_WP:	0.500	X:	-0.001	Y:	0.021	Z:	0.050	yaw:	6.462	yaw rate:	-3.215	Roll:	0.066	Pitch:	0.691	Yaw:	9.362	Thrust:	100.000
Time:	4.515	Roll Set Point:	0.001	Pitch Set Point:	-0.042	Yaw Set Point:	-0.114	X_WP:	0.000	Y_WP:	0.000	Y_WP:	0.500	X:	-0.001	Y:	0.021	Z:	0.050	yaw:	6.536	yaw rate:	7.376	Roll:	-0.002	Pitch:	0.722	Yaw:	11.979	Thrust:	100.000
Time:	4.526	Roll Set Point:	0.001	Pitch Set Point:	-0.042	Yaw Set Point:	-0.113	X_WP:	0.000	Y_WP:	0.000	Y_WP:	0.500	X:	-0.001	Y:	0.021	Z:	0.050	yaw:	6.490	yaw rate:	-4.545	Roll:	0.015	Pitch:	0.808	Yaw:	9.086	Thrust:	100.000
Time:	4.537	Roll Set Point:	0.001	Pitch Set Point:	-0.042	Yaw Set Point:	-0.114	X_WP:	0.000	Y_WP:	0.000	Y_WP:	0.500	X:	-0.001	Y:	0.021	Z:	0.050	yaw:	6.543	yaw rate:	5.279	Roll:	0.056	Pitch:	0.659	Yaw:	11.492	Thrust:	100.000
Time:	4.548	Roll Set Point:	0.001	Pitch Set Point:	-0.042	Yaw Set Point:	-0.113	X_WP:	0.000	Y_WP:	0.000	Y_WP:	0.500	X:	-0.001	Y:	0.021	Z:	0.050	yaw:	6.449	yaw rate:	-9.441	Roll:	-0.001	Pitch:	0.848	Yaw:	7.866	Thrust:	100.000
Time:	4.559	Roll Set Point:	0.001	Pitch Set Point:	-0.042	Yaw Set Point:	-0.113	X_WP:	0.000	Y_WP:	0.000	Y_WP:	0.500	X:	-0.001	Y:	0.021	Z:	0.050	yaw:	6.483	yaw rate:	3.460	Roll:	0.024	Pitch:	0.705	Yaw:	10.976	Thrust:	100.000
Time:	4.570	Roll Set Point:	0.001	Pitch Set Point:	-0.042	Yaw Set Point:	-0.113	X_WP:	0.000	Y_WP:	0.000	Y_WP:	0.500	X:	-0.001	Y:	0.021	Z:	0.050	yaw:	6.460	yaw rate:	-2.351	Roll:	0.029	Pitch:	0.738	Yaw:	9.560	Thrust:	100.000
Time:	4.581	Roll Set Point:	0.001	Pitch Set Point:	-0.042	Yaw Set Point:	-0.113	X_WP:	0.000	Y_WP:	0.000	Y_WP:	0.500	X:	-0.001	Y:	0.021	Z:	0.050	yaw:	6.464	yaw rate:	0.442	Roll:	0.042	Pitch:	0.763	Yaw:	10.236	Thrust:	100.000
Time:	4.592	Roll Set Point:	0.001	Pitch Set Point:	-0.042	Yaw Set Point:	-0.112	X_WP:	0.000	Y_WP:	0.000	Y_WP:	0.500	X:	-0.001	Y:	0.021	Z:	0.050	yaw:	6.441	yaw rate:	-2.323	Roll:	0.010	Pitch:	0.735	Yaw:	9.545	Thrust:	100.000
Time:	4.604	Roll Set Point:	0.001	Pitch Set Point:	-0.042	Yaw Set Point:	-0.115	X_WP:	0.000	Y_WP:	0.000	Y_WP:	0.500	X:	-0.001	Y:	0.021	Z:	0.050	yaw:	6.585	yaw rate:	14.384	Roll:	0.086	Pitch:	0.674	Yaw:	13.528	Thrust:	100.000
Time:	4.615	Roll Set Point:	0.001	Pitch Set Point:	-0.042	Yaw Set Point:	-0.113	X_WP:	0.000	Y_WP:	0.000	Y_WP:	0.500	X:	-0.001	Y:	0.021	Z:	0.050	yaw:	6.474	yaw rate:	-11.117	Roll:	0.005	Pitch:	0.813	Yaw:	7.496	Thrust:	100.000
Time:	4.626	Roll Set Point:	0.001	Pitch Set Point:	-0.042	Yaw Set Point:	-0.115	X_WP:	0.000	Y_WP:	0.000	Y_WP:	0.500	X:	-0.002	Y:	0.021	Z:	0.050	yaw:	6.561	yaw rate:	8.711	Roll:	0.013	Pitch:	0.656	Yaw:	12.329	Thrust:	100.000
Time:	4.637	Roll Set Point:	0.001	Pitch Set Point:	-0.042	Yaw Set Point:	-0.113	X_WP:	0.000	Y_WP:	0.000	Y_WP:	0.500	X:	-0.001	Y:	0.021	Z:	0.050	yaw:	6.492	yaw rate:	-6.826	Roll:	0.058	Pitch:	0.837	Yaw:	8.548	Thrust:	100.000
Time:	4.648	Roll Set Point:	0.001	Pitch Set Point:	-0.042	Yaw Set Point:	-0.113	X_WP:	0.000	Y_WP:	0.000	Y_WP:	0.500	X:	-0.001	Y:	0.021	Z:	0.050	yaw:	6.456	yaw rate:	-3.624	Roll:	0.003	Pitch:	0.753	Yaw:	9.252	Thrust:	100.000
Time:	4.659	Roll Set Point:	0.000	Pitch Set Point:	-0.042	Yaw Set Point:	-0.113	X_WP:	0.000	Y_WP:	0.000	Y_WP:	0.500	X:	-0.001	Y:	0.021	Z:	0.050	yaw:	6.474	yaw rate:	1.734	Roll:	0.116	Pitch:	0.666	Yaw:	10.553	Thrust:	100.000
Time:	4.670	Roll Set Point:	0.001	Pitch Set Point:	-0.042	Yaw Set Point:	-0.114	X_WP:	0.000	Y_WP:	0.000	Y_WP:	0.500	X:	-0.001	Y:	0.021	Z:	0.050	yaw:	6.526	yaw rate:	5.252	Roll:	-0.015	Pitch:	0.732	Yaw:	11.461	Thrust:	100.000
Time:	4.681	Roll Set Point:	0.001	Pitch Set Point:	-0.042	Yaw Set Point:	-0.114	X_WP:	0.000	Y_WP:	0.000	Y_WP:	0.500	X:	-0.001	Y:	0.021	Z:	0.050	yaw:	6.540	yaw rate:	1.423	Roll:	0.052	Pitch:	0.771	Yaw:	10.573	Thrust:	100.000
Time:	4.693	Roll Set Point:	0.001	Pitch Set Point:	-0.042	Yaw Set Point:	-0.115	X_WP:	0.000	Y_WP:	0.000	Y_WP:	0.500	X:	-0.002	Y:	0.021	Z:	0.050	yaw:	6.566	yaw rate:	2.563	Roll:	-0.019	Pitch:	0.717	Yaw:	10.927	Thrust:	100.000
Time:	4.704	Roll Set Point:	0.001	Pitch Set Point:	-0.042	Yaw Set Point:	-0.114	X_WP:	0.000	Y_WP:	0.000	Y_WP:	0.500	X:	-0.002	Y:	0.021	Z:	0.050	yaw:	6.556	yaw rate:	-0.969	Roll:	0.043	Pitch:	0.758	Yaw:	10.027	Thrust:	100.000
Time:	4.716	Roll Set Point:	0.001	Pitch Set Point:	-0.042	Yaw Set Point:	-0.113	X_WP:	0.000	Y_WP:	0.000	Y_WP:	0.500	X:	-0.001	Y:	0.021	Z:	0.050	yaw:	6.494	yaw rate:	-8.986	Roll:	0.063	Pitch:	0.841	Yaw:	8.919	Thrust:	100.000
Time:	4.727	Roll Set Point:	0.001	Pitch Set Point:	-0.042	Yaw Set Point:	-0.113	X_WP:	0.000	Y_WP:	0.000	Y_WP:	0.500	X:	-0.001	Y:	0.021	Z:	0.050	yaw:	6.482	yaw rate:	-1.180	Roll:	-0.030	Pitch:	0.733	Yaw:	9.871	Thrust:	100.000
Time:	4.738	Roll Set Point:	0.001	Pitch Set Point:	-0.042	Yaw Set Point:	-0.113	X_WP:	0.000	Y_WP:	0.000	Y_WP:	0.500	X:	-0.002	Y:	0.021	Z:	0.050	yaw:	6.489	yaw rate:	0.743	Roll:	0.024	Pitch:	0.765	Yaw:	10.343	Thrust:	100.000
Time:	4.749	Roll Set Point:	0.001	Pitch Set Point:	-0.042	Yaw Set Point:	-0.113	X_WP:	0.000	Y_WP:	0.000	Y_WP:	0.500	X:	-0.001	Y:	0.021	Z:	0.050	yaw:	6.471	yaw rate:	-1.808	Roll:	0.089	Pitch:	0.777	Yaw:	9.709	Thrust:	100.000
Time:	4.760	Roll Set Point:	0.001	Pitch Set Point:	-0.042	Yaw Set Point:	-0.115	X_WP:	0.000	Y_WP:	0.000	Y_WP:	0.500	X:	-0.002	Y:	0.021	Z:	0.050	yaw:	6.564	yaw rate:	9.294	Roll:	-0.011	Pitch:	0.644	Yaw:	12.474	Thrust:	100.000
Time:	4.771	Roll Set Point:	0.001	Pitch Set Point:	-0.042	Yaw Set Point:	-0.114	X_WP:	0.000	Y_WP:	0.000	Y_WP:	0.500	X:	-0.002	Y:	0.021	Z:	0.050	yaw:	6.548	yaw rate:	-1.613	Roll:	0.026	Pitch:	0.724	Yaw:	9.863	Thrust:	100.000
Time:	4.782	Roll Set Point:	0.001	Pitch Set Point:	-0.042	Yaw Set Point:	-0.113	X_WP:	0.000	Y_WP:	0.000	Y_WP:	0.500	X:	-0.001	Y:	0.021	Z:	0.050	yaw:	6.490	yaw rate:	-5.788	Roll:	0.068	Pitch:	0.876	Yaw:	8.791	Thrust:	100.000
Time:	4.794	Roll Set Point:	0.001	Pitch Set Point:	-0.042	Yaw Set Point:	-0.115	X_WP:	0.000	Y_WP:	0.000	Y_WP:	0.500	X:	-0.001	Y:	0.021	Z:	0.050	yaw:	6.579	yaw rate:	8.819	Roll:	0.054	Pitch:	0.647	Yaw:	12.381	Thrust:	100.000
Time:	4.805	Roll Set Point:	0.001	Pitch Set Point:	-0.042	Yaw Set Point:	-0.115	X_WP:	0.000	Y_WP:	0.000	Y_WP:	0.500	X:	-0.001	Y:	0.021	Z:	0.050	yaw:	6.593	yaw rate:	1.462	Roll:	0.053	Pitch:	0.746	Yaw:	10.655	Thrust:	100.000
Time:	4.816	Roll Set Point:	0.001	Pitch Set Point:	-0.042	Yaw Set Point:	-0.113	X_WP:	0.000	Y_WP:	0.000	Y_WP:	0.500	X:	-0.001	Y:	0.021	Z:	0.050	yaw:	6.469	yaw rate:	-12.439	Roll:	-0.031	Pitch:	0.885	Yaw:	7.175	Thrust:	100.000
Time:	4.827	Roll Set Point:	0.001	Pitch Set Point:	-0.042	Yaw Set Point:	-0.115	X_WP:	0.000	Y_WP:	0.000	Y_WP:	0.500	X:	-0.002	Y:	0.021	Z:	0.050	yaw:	6.564	yaw rate:	9.500	Roll:	0.023	Pitch:	0.615	Yaw:	12.520	Thrust:	100.000
Time:	4.838	Roll Set Point:	0.001	Pitch Set Point:	-0.042	Yaw Set Point:	-0.114	X_WP:	0.000	Y_WP:	0.000	Y_WP:	0.500	X:	-0.002	Y:	0.021	Z:	0.050	yaw:	6.524	yaw rate:	-3.993	Roll:	0.029	Pitch:	0.771	Yaw:	9.263	Thrust:	100.000
Time:	4.849	Roll Set Point:	0.001	Pitch Set Point:	-0.042	Yaw Set Point:	-0.113	X_WP:	0.000	Y_WP:	0.000	Y_WP:	0.500	X:	-0.001	Y:	0.021	Z:	0.050	yaw:	6.470	yaw rate:	-5.385	Roll:	0.106	Pitch:	0.806	Yaw:	8.860	Thrust:	100.000
Time:	4.860	Roll Set Point:	0.001	Pitch Set Point:	-0.042	Yaw Set Point:	-0.115	X_WP:	0.000	Y_WP:	0.000	Y_WP:	0.500	X:	-0.001	Y:	0.021	Z:	0.050	yaw:	6.575	yaw rate:	10.467	Roll:	0.010	Pitch:	0.698	Yaw:	12.767	Thrust:	100.000
Time:	4.871	Roll Set Point:	0.001	Pitch Set Point:	-0.042	Yaw Set Point:	-0.113	X_WP:	0.000	Y_WP:	0.000	Y_WP:	0.500	X:	-0.001	Y:	0.021	Z:	0.050	yaw:	6.473	yaw rate:	-10.205	Roll:	0.009	Pitch:	0.874	Yaw:	7.716	Thrust:	100.000
Time:	4.882	Roll Set Point:	0.001	Pitch Set Point:	-0.042	Yaw Set Point:	-0.113	X_WP:	0.000	Y_WP:	0.000	Y_WP:	0.500	X:	-0.001	Y:	0.021	Z:	0.050	yaw:	6.472	yaw rate:	-0.051	Roll:	0.041	Pitch:	0.766	Yaw:	10.127	Thrust:	100.000
Time:	4.894	Roll Set Point:	0.001	Pitch Set Point:	-0.042	Yaw Set Point:	-0.114	X_WP:	0.000	Y_WP:	0.000	Y_WP:	0.500	X:	-0.001	Y:	0.021	Z:	0.050	yaw:	6.558	yaw rate:	8.606	Roll:	0.055	Pitch:	0.672	Yaw:	12.232	Thrust:	100.000
Time:	4.905	Roll Set Point:	0.001	Pitch Set Point:	-0.042	Yaw Set Point:	-0.113	X_WP:	0.000	Y_WP:	0.000	Y_WP:	0.500	X:	-0.001	Y:	0.021	Z:	0.050	yaw:	6.463	yaw rate:	-9.553	Roll:	-0.026	Pitch:	0.855	Yaw:	7.859	Thrust:	100.000
Time:	4.917	Roll Set Point:	0.001	Pitch Set Point:	-0.042	Yaw Set Point:	-0.113	X_WP:	0.000	Y_WP:	0.000	Y_WP:	0.500	X:	-0.001	Y:	0.021	Z:	0.050	yaw:	6.468	yaw rate:	0.564	Roll:	0.051	Pitch:	0.772	Yaw:	10.357	Thrust:	100.000
Time:	4.928	Roll Set Point:	0.001	Pitch Set Point:	-0.042	Yaw Set Point:	-0.113	X_WP:	0.000	Y_WP:	0.000	Y_WP:	0.500	X:	-0.001	Y:	0.021	Z:	0.050	yaw:	6.497	yaw rate:	2.826	Roll:	0.047	Pitch:	0.719	Yaw:	10.845	Thrust:	100.000
Time:	4.940	Roll Set Point:	0.001	Pitch Set Point:	-0.042	Yaw Set Point:	-0.114	X_WP:	0.000	Y_WP:	0.000	Y_WP:	0.500	X:	-0.001	Y:	0.021	Z:	0.050	yaw:	6.546	yaw rate:	4.932	Roll:	0.041	Pitch:	0.721	Yaw:	11.416	Thrust:	100.000
Time:	4.951	Roll Set Point:	0.001	Pitch Set Point:	-0.042	Yaw Set Point:	-0.113	X_WP:	0.000	Y_WP:	0.000	Y_WP:	0.500	X:	-0.001	Y:	0.021	Z:	0.050	yaw:	6.480	yaw rate:	-6.545	Roll:	0.032	Pitch:	0.836	Yaw:	8.603	Thrust:	100.000
Time:	4.962	Roll Set Point:	0.001	Pitch Set Point:	-0.042	Yaw Set Point:	-0.113	X_WP:	0.000	Y_WP:	0.000	Y_WP:	0.500	X:	-0.001	Y:	0.021	Z:	0.050	yaw:	6.448	yaw rate:	-3.278	Roll:	0.012	Pitch:	0.763	Yaw:	9.328	Thrust:	100.000
Time:	4.973	Roll Set Point:	0.001	Pitch Set Point:	-0.042	Yaw Set Point:	-0.114	X_WP:	0.000	Y_WP:	0.000	Y_WP:	0.500	X:	-0.001	Y:	0.021	Z:	0.050	yaw:	6.506	yaw rate:	5.790	Roll:	0.040	Pitch:	0.764	Yaw:	11.561	Thrust:	100.000
Time:	4.984	Roll Set Point:	0.001	Pitch Set Point:	-0.042	Yaw Set Point:	-0.113	X_WP:	0.000	Y_WP:	0.000	Y_WP:	0.500	X:	-0.001	Y:	0.021	Z:	0.050	yaw:	6.474	yaw rate:	-3.137	Roll:	0.060	Pitch:	0.774	Yaw:	9.398	Thrust:	100.000
Time:	4.995	Roll Set Point:	0.001	Pitch Set Point:	-0.042	Yaw Set Point:	-0.113	X_WP:	0.000	Y_WP:	0.000	Y_WP:	0.500	X:	-0.001	Y:	0.021	Z:	0.050	yaw:	6.462	yaw rate:	-1.170	Roll:	0.001	Pitch:	0.770	Yaw:	9.851	Thrust:	100.000
Time:	5.007	Roll Set Point:	0.001	Pitch Set Point:	-0.042	Yaw Set Point:	-0.113	X_WP:	0.000	Y_WP:	0.000	Y_WP:	0.500	X:	-0.001	Y:	0.021	Z:	0.050	yaw:	6.471	yaw rate:	0.836	Roll:	0.037	Pitch:	0.728	Yaw:	10.337	Thrust:	100.000
Time:	5.018	Roll Set Point:	0.001	Pitch Set Point:	-0.042	Yaw Set Point:	-0.115	X_WP:	0.000	Y_WP:	0.000	Y_WP:	0.500	X:	-0.001	Y:	0.021	Z:	0.050	yaw:	6.595	yaw rate:	12.455	Roll:	0.082	Pitch:	0.687	Yaw:	13.121	Thrust:	100.000
Time:	5.030	Roll Set Point:	0.001	Pitch Set Point:	-0.042	Yaw Set Point:	-0.115	X_WP:	0.000	Y_WP:	0.000	Y_WP:	0.500	X:	-0.001	Y:	0.021	Z:	0.050	yaw:	6.578	yaw rate:	-1.700	Roll:	0.004	Pitch:	0.752	Yaw:	10.014	Thrust:	100.000
