Time:	2.094	Roll Set Point:	0.568	Pitch Set Point:	0.285	Yaw Set Point:	-0.660	X_WP:	0.000	Y_WP:	0.000	Y_WP:	0.500	X:	-0.235	Y:	-0.240	Z:	0.047	yaw:	37.826	yaw rate:	0.916	Roll:	-9.658	Pitch:	-1.314	Yaw:	52.814	Thrust:	24.929
Time:	2.109	Roll Set Point:	0.568	Pitch Set Point:	0.285	Yaw Set Point:	-0.660	X_WP:	0.000	Y_WP:	0.000	Y_WP:	0.500	X:	-0.235	Y:	-0.240	Z:	0.047	yaw:	37.805	yaw rate:	-2.015	Roll:	-9.627	Pitch:	-1.429	Yaw:	52.654	Thrust:	25.977
Time:	2.125	Roll Set Point:	0.568	Pitch Set Point:	0.285	Yaw Set Point:	-0.660	X_WP:	0.000	Y_WP:	0.000	Y_WP:	0.500	X:	-0.235	Y:	-0.240	Z:	0.047	yaw:	37.808	yaw rate:	0.251	Roll:	-9.699	Pitch:	-1.292	Yaw:	53.245	Thrust:	26.467
Time:	2.140	Roll Set Point:	0.568	Pitch Set Point:	0.285	Yaw Set Point:	-0.660	X_WP:	0.000	Y_WP:	0.000	Y_WP:	0.500	X:	-0.235	Y:	-0.240	Z:	0.047	yaw:	37.808	yaw rate:	0.251	Roll:	-9.696	Pitch:	-1.321	Yaw:	53.409	Thrust:	27.479
Time:	2.156	Roll Set Point:	0.568	Pitch Set Point:	0.285	Yaw Set Point:	-0.661	X_WP:	0.000	Y_WP:	0.000	Y_WP:	0.500	X:	-0.235	Y:	-0.240	Z:	0.047	yaw:	37.858	yaw rate:	4.981	Roll:	-9.764	Pitch:	-0.996	Yaw:	54.519	Thrust:	28.261
Time:	2.172	Roll Set Point:	0.568	Pitch Set Point:	0.286	Yaw Set Point:	-0.660	X_WP:	0.000	Y_WP:	0.000	Y_WP:	0.500	X:	-0.235	Y:	-0.240	Z:	0.047	yaw:	37.788	yaw rate:	-7.013	Roll:	-9.660	Pitch:	-1.814	Yaw:	52.626	Thrust:	29.308
Time:	2.187	Roll Set Point:	0.568	Pitch Set Point:	0.285	Yaw Set Point:	-0.660	X_WP:	0.000	Y_WP:	0.000	Y_WP:	0.500	X:	-0.235	Y:	-0.240	Z:	0.047	yaw:	37.841	yaw rate:	-3.735	Roll:	-9.829	Pitch:	-0.999	Yaw:	54.972	Thrust:	29.792
Time:	2.203	Roll Set Point:	0.568	Pitch Set Point:	0.285	Yaw Set Point:	-0.660	X_WP:	0.000	Y_WP:	0.000	Y_WP:	0.500	X:	-0.235	Y:	-0.240	Z:	0.047	yaw:	37.841	yaw rate:	-3.735	Roll:	-9.751	Pitch:	-1.324	Yaw:	54.281	Thrust:	30.877
Time:	2.219	Roll Set Point:	0.568	Pitch Set Point:	0.286	Yaw Set Point:	-0.659	X_WP:	0.000	Y_WP:	0.000	Y_WP:	0.500	X:	-0.235	Y:	-0.240	Z:	0.047	yaw:	37.766	yaw rate:	-16.197	Roll:	-9.647	Pitch:	-1.816	Yaw:	53.058	Thrust:	31.868
Time:	2.233	Roll Set Point:	0.568	Pitch Set Point:	0.285	Yaw Set Point:	-0.660	X_WP:	0.000	Y_WP:	0.000	Y_WP:	0.500	X:	-0.235	Y:	-0.240	Z:	0.047	yaw:	37.823	yaw rate:	5.695	Roll:	-9.818	Pitch:	-0.905	Yaw:	55.277	Thrust:	31.932
Time:	2.252	Roll Set Point:	0.568	Pitch Set Point:	0.285	Yaw Set Point:	-0.660	X_WP:	0.000	Y_WP:	0.000	Y_WP:	0.500	X:	-0.235	Y:	-0.240	Z:	0.047	yaw:	37.823	yaw rate:	5.695	Roll:	-9.815	Pitch:	-1.336	Yaw:	54.702	Thrust:	35.214
Time:	2.267	Roll Set Point:	0.568	Pitch Set Point:	0.285	Yaw Set Point:	-0.660	X_WP:	0.000	Y_WP:	0.000	Y_WP:	0.500	X:	-0.235	Y:	-0.240	Z:	0.047	yaw:	37.819	yaw rate:	-0.423	Roll:	-9.827	Pitch:	-1.340	Yaw:	54.300	Thrust:	34.157
Time:	2.283	Roll Set Point:	0.568	Pitch Set Point:	0.285	Yaw Set Point:	-0.660	X_WP:	0.000	Y_WP:	0.000	Y_WP:	0.500	X:	-0.235	Y:	-0.240	Z:	0.047	yaw:	37.809	yaw rate:	-4.518	Roll:	-9.775	Pitch:	-1.393	Yaw:	54.188	Thrust:	35.151
Time:	2.299	Roll Set Point:	0.568	Pitch Set Point:	0.285	Yaw Set Point:	-0.660	X_WP:	0.000	Y_WP:	0.000	Y_WP:	0.500	X:	-0.235	Y:	-0.240	Z:	0.047	yaw:	37.837	yaw rate:	2.807	Roll:	-9.883	Pitch:	-1.178	Yaw:	54.864	Thrust:	36.122
Time:	2.314	Roll Set Point:	0.568	Pitch Set Point:	0.285	Yaw Set Point:	-0.660	X_WP:	0.000	Y_WP:	0.000	Y_WP:	0.500	X:	-0.235	Y:	-0.240	Z:	0.047	yaw:	37.837	yaw rate:	2.807	Roll:	-9.841	Pitch:	-1.337	Yaw:	54.393	Thrust:	36.829
Time:	2.330	Roll Set Point:	0.568	Pitch Set Point:	0.286	Yaw Set Point:	-0.660	X_WP:	0.000	Y_WP:	0.000	Y_WP:	0.500	X:	-0.235	Y:	-0.240	Z:	0.047	yaw:	37.788	yaw rate:	-4.893	Roll:	-9.820	Pitch:	-1.652	Yaw:	53.505	Thrust:	37.555
Time:	2.345	Roll Set Point:	0.568	Pitch Set Point:	0.286	Yaw Set Point:	-0.659	X_WP:	0.000	Y_WP:	0.000	Y_WP:	0.500	X:	-0.235	Y:	-0.240	Z:	0.047	yaw:	37.772	yaw rate:	-5.295	Roll:	-9.806	Pitch:	-1.464	Yaw:	54.033	Thrust:	38.549
Time:	2.361	Roll Set Point:	0.568	Pitch Set Point:	0.286	Yaw Set Point:	-0.659	X_WP:	0.000	Y_WP:	0.000	Y_WP:	0.500	X:	-0.235	Y:	-0.240	Z:	0.047	yaw:	37.776	yaw rate:	0.376	Roll:	-9.879	Pitch:	-1.334	Yaw:	54.371	Thrust:	39.448
Time:	2.377	Roll Set Point:	0.568	Pitch Set Point:	0.285	Yaw Set Point:	-0.661	X_WP:	0.000	Y_WP:	0.000	Y_WP:	0.500	X:	-0.235	Y:	-0.240	Z:	0.047	yaw:	37.845	yaw rate:	6.929	Roll:	-9.978	Pitch:	-0.856	Yaw:	55.565	Thrust:	40.260
Time:	2.392	Roll Set Point:	0.568	Pitch Set Point:	0.285	Yaw Set Point:	-0.661	X_WP:	0.000	Y_WP:	0.000	Y_WP:	0.500	X:	-0.235	Y:	-0.240	Z:	0.047	yaw:	37.857	yaw rate:	1.186	Roll:	-9.925	Pitch:	-1.271	Yaw:	54.623	Thrust:	40.870
Time:	2.408	Roll Set Point:	0.568	Pitch Set Point:	0.285	Yaw Set Point:	-0.660	X_WP:	0.000	Y_WP:	0.000	Y_WP:	0.500	X:	-0.235	Y:	-0.240	Z:	0.047	yaw:	37.841	yaw rate:	-1.599	Roll:	-9.901	Pitch:	-1.447	Yaw:	54.127	Thrust:	42.112
Time:	2.424	Roll Set Point:	0.568	Pitch Set Point:	0.285	Yaw Set Point:	-0.660	X_WP:	0.000	Y_WP:	0.000	Y_WP:	0.500	X:	-0.235	Y:	-0.240	Z:	0.047	yaw:	37.801	yaw rate:	-3.989	Roll:	-9.870	Pitch:	-1.631	Yaw:	53.708	Thrust:	43.113
Time:	2.439	Roll Set Point:	0.568	Pitch Set Point:	0.285	Yaw Set Point:	-0.660	X_WP:	0.000	Y_WP:	0.000	Y_WP:	0.500	X:	-0.235	Y:	-0.240	Z:	0.047	yaw:	37.803	yaw rate:	0.202	Roll:	-9.950	Pitch:	-1.354	Yaw:	54.325	Thrust:	42.926
Time:	2.463	Roll Set Point:	0.568	Pitch Set Point:	0.286	Yaw Set Point:	-0.659	X_WP:	0.000	Y_WP:	0.000	Y_WP:	0.500	X:	-0.235	Y:	-0.240	Z:	0.047	yaw:	37.780	yaw rate:	-13.174	Roll:	-10.074	Pitch:	-1.462	Yaw:	54.871	Thrust:	54.506
Time:	2.478	Roll Set Point:	0.568	Pitch Set Point:	0.285	Yaw Set Point:	-0.660	X_WP:	0.000	Y_WP:	0.000	Y_WP:	0.500	X:	-0.235	Y:	-0.240	Z:	0.047	yaw:	37.808	yaw rate:	2.796	Roll:	-10.027	Pitch:	-1.190	Yaw:	54.821	Thrust:	45.412
Time:	2.494	Roll Set Point:	0.568	Pitch Set Point:	0.285	Yaw Set Point:	-0.661	X_WP:	0.000	Y_WP:	0.000	Y_WP:	0.500	X:	-0.235	Y:	-0.240	Z:	0.047	yaw:	37.854	yaw rate:	4.626	Roll:	-10.018	Pitch:	-1.061	Yaw:	55.194	Thrust:	46.297
Time:	2.509	Roll Set Point:	0.568	Pitch Set Point:	0.285	Yaw Set Point:	-0.661	X_WP:	0.000	Y_WP:	0.000	Y_WP:	0.500	X:	-0.235	Y:	-0.240	Z:	0.047	yaw:	37.854	yaw rate:	4.626	Roll:	-9.996	Pitch:	-1.355	Yaw:	54.414	Thrust:	46.986
Time:	2.527	Roll Set Point:	0.568	Pitch Set Point:	0.285	Yaw Set Point:	-0.660	X_WP:	0.000	Y_WP:	0.000	Y_WP:	0.500	X:	-0.235	Y:	-0.240	Z:	0.047	yaw:	37.822	yaw rate:	0.827	Roll:	-10.048	Pitch:	-1.544	Yaw:	54.022	Thrust:	49.790
Time:	2.547	Roll Set Point:	0.568	Pitch Set Point:	0.285	Yaw Set Point:	-0.662	X_WP:	0.000	Y_WP:	0.000	Y_WP:	0.500	X:	-0.235	Y:	-0.240	Z:	0.047	yaw:	37.905	yaw rate:	8.813	Roll:	-10.200	Pitch:	-0.943	Yaw:	56.050	Thrust:	56.700
Time:	2.563	Roll Set Point:	0.568	Pitch Set Point:	0.285	Yaw Set Point:	-0.660	X_WP:	0.000	Y_WP:	0.000	Y_WP:	0.500	X:	-0.235	Y:	-0.240	Z:	0.047	yaw:	37.812	yaw rate:	-9.377	Roll:	-9.936	Pitch:	-2.001	Yaw:	52.787	Thrust:	49.452
Time:	2.579	Roll Set Point:	0.568	Pitch Set Point:	0.285	Yaw Set Point:	-0.661	X_WP:	0.000	Y_WP:	0.000	Y_WP:	0.500	X:	-0.235	Y:	-0.240	Z:	0.047	yaw:	37.854	yaw rate:	4.255	Roll:	-10.101	Pitch:	-1.049	Yaw:	55.133	Thrust:	50.520
Time:	2.595	Roll Set Point:	0.568	Pitch Set Point:	0.285	Yaw Set Point:	-0.661	X_WP:	0.000	Y_WP:	0.000	Y_WP:	0.500	X:	-0.235	Y:	-0.240	Z:	0.047	yaw:	37.885	yaw rate:	3.107	Roll:	-10.086	Pitch:	-1.187	Yaw:	55.066	Thrust:	51.577
Time:	2.612	Roll Set Point:	0.568	Pitch Set Point:	0.285	Yaw Set Point:	-0.661	X_WP:	0.000	Y_WP:	0.000	Y_WP:	0.500	X:	-0.235	Y:	-0.240	Z:	0.047	yaw:	37.885	yaw rate:	3.107	Roll:	-10.132	Pitch:	-1.367	Yaw:	54.571	Thrust:	55.791
Time:	2.628	Roll Set Point:	0.568	Pitch Set Point:	0.286	Yaw Set Point:	-0.660	X_WP:	0.000	Y_WP:	0.000	Y_WP:	0.500	X:	-0.235	Y:	-0.240	Z:	0.047	yaw:	37.799	yaw rate:	-1.789	Roll:	-9.997	Pitch:	-1.971	Yaw:	52.886	Thrust:	52.947
Time:	2.643	Roll Set Point:	0.568	Pitch Set Point:	0.285	Yaw Set Point:	-0.661	X_WP:	0.000	Y_WP:	0.000	Y_WP:	0.500	X:	-0.235	Y:	-0.240	Z:	0.047	yaw:	37.874	yaw rate:	7.490	Roll:	-10.179	Pitch:	-0.815	Yaw:	55.699	Thrust:	53.931
Time:	2.659	Roll Set Point:	0.568	Pitch Set Point:	0.285	Yaw Set Point:	-0.661	X_WP:	0.000	Y_WP:	0.000	Y_WP:	0.500	X:	-0.235	Y:	-0.240	Z:	0.047	yaw:	37.877	yaw rate:	0.326	Roll:	-10.145	Pitch:	-1.361	Yaw:	54.504	Thrust:	54.490
Time:	2.675	Roll Set Point:	0.568	Pitch Set Point:	0.285	Yaw Set Point:	-0.660	X_WP:	0.000	Y_WP:	0.000	Y_WP:	0.500	X:	-0.235	Y:	-0.240	Z:	0.047	yaw:	37.827	yaw rate:	-4.971	Roll:	-10.041	Pitch:	-1.712	Yaw:	53.547	Thrust:	55.560
Time:	2.690	Roll Set Point:	0.568	Pitch Set Point:	0.285	Yaw Set Point:	-0.661	X_WP:	0.000	Y_WP:	0.000	Y_WP:	0.500	X:	-0.235	Y:	-0.240	Z:	0.047	yaw:	37.898	yaw rate:	7.041	Roll:	-10.347	Pitch:	-1.119	Yaw:	55.657	Thrust:	55.841
Time:	2.706	Roll Set Point:	0.568	Pitch Set Point:	0.285	Yaw Set Point:	-0.660	X_WP:	0.000	Y_WP:	0.000	Y_WP:	0.500	X:	-0.235	Y:	-0.240	Z:	0.047	yaw:	37.823	yaw rate:	-7.449	Roll:	-9.948	Pitch:	-1.662	Yaw:	53.126	Thrust:	57.861
Time:	2.721	Roll Set Point:	0.568	Pitch Set Point:	0.285	Yaw Set Point:	-0.660	X_WP:	0.000	Y_WP:	0.000	Y_WP:	0.500	X:	-0.235	Y:	-0.240	Z:	0.047	yaw:	37.806	yaw rate:	-1.695	Roll:	-10.150	Pitch:	-1.459	Yaw:	54.066	Thrust:	58.051
Time:	2.737	Roll Set Point:	0.568	Pitch Set Point:	0.285	Yaw Set Point:	-0.660	X_WP:	0.000	Y_WP:	0.000	Y_WP:	0.500	X:	-0.235	Y:	-0.240	Z:	0.047	yaw:	37.806	yaw rate:	-1.695	Roll:	-10.178	Pitch:	-1.387	Yaw:	54.350	Thrust:	58.928
Time:	2.753	Roll Set Point:	0.568	Pitch Set Point:	0.285	Yaw Set Point:	-0.660	X_WP:	0.000	Y_WP:	0.000	Y_WP:	0.500	X:	-0.235	Y:	-0.240	Z:	0.047	yaw:	37.839	yaw rate:	3.261	Roll:	-10.250	Pitch:	-1.235	Yaw:	54.942	Thrust:	59.753
Time:	2.768	Roll Set Point:	0.568	Pitch Set Point:	0.285	Yaw Set Point:	-0.660	X_WP:	0.000	Y_WP:	0.000	Y_WP:	0.500	X:	-0.235	Y:	-0.240	Z:	0.047	yaw:	37.823	yaw rate:	-1.595	Roll:	-10.171	Pitch:	-1.454	Yaw:	54.110	Thrust:	60.777
Time:	2.784	Roll Set Point:	0.568	Pitch Set Point:	0.286	Yaw Set Point:	-0.659	X_WP:	0.000	Y_WP:	0.000	Y_WP:	0.500	X:	-0.235	Y:	-0.240	Z:	0.047	yaw:	37.762	yaw rate:	-6.088	Roll:	-10.136	Pitch:	-1.843	Yaw:	53.263	Thrust:	61.416
Time:	2.800	Roll Set Point:	0.568	Pitch Set Point:	0.285	Yaw Set Point:	-0.660	X_WP:	0.000	Y_WP:	0.000	Y_WP:	0.500	X:	-0.235	Y:	-0.240	Z:	0.047	yaw:	37.821	yaw rate:	-2.907	Roll:	-10.314	Pitch:	-0.965	Yaw:	55.366	Thrust:	62.213
Time:	2.815	Roll Set Point:	0.568	Pitch Set Point:	0.285	Yaw Set Point:	-0.660	X_WP:	0.000	Y_WP:	0.000	Y_WP:	0.500	X:	-0.235	Y:	-0.240	Z:	0.047	yaw:	37.821	yaw rate:	-2.907	Roll:	-10.244	Pitch:	-1.394	Yaw:	54.371	Thrust:	63.177
Time:	2.831	Roll Set Point:	0.568	Pitch Set Point:	0.286	Yaw Set Point:	-0.659	X_WP:	0.000	Y_WP:	0.000	Y_WP:	0.500	X:	-0.235	Y:	-0.240	Z:	0.047	yaw:	37.773	yaw rate:	2.637	Roll:	-10.144	Pitch:	-1.719	Yaw:	53.484	Thrust:	64.157
Time:	2.846	Roll Set Point:	0.569	Pitch Set Point:	0.285	Yaw Set Point:	-0.661	X_WP:	0.000	Y_WP:	0.000	Y_WP:	0.500	X:	-0.235	Y:	-0.240	Z:	0.047	yaw:	37.872	yaw rate:	9.928	Roll:	-10.526	Pitch:	-0.933	Yaw:	56.105	Thrust:	64.111
Time:	2.862	Roll Set Point:	0.568	Pitch Set Point:	0.285	Yaw Set Point:	-0.660	X_WP:	0.000	Y_WP:	0.000	Y_WP:	0.500	X:	-0.235	Y:	-0.240	Z:	0.047	yaw:	37.838	yaw rate:	-3.356	Roll:	-10.074	Pitch:	-1.437	Yaw:	53.833	Thrust:	66.337
Time:	2.878	Roll Set Point:	0.568	Pitch Set Point:	0.285	Yaw Set Point:	-0.660	X_WP:	0.000	Y_WP:	0.000	Y_WP:	0.500	X:	-0.235	Y:	-0.240	Z:	0.047	yaw:	37.813	yaw rate:	-2.497	Roll:	-10.253	Pitch:	-1.580	Yaw:	53.941	Thrust:	66.556
Time:	2.893	Roll Set Point:	0.568	Pitch Set Point:	0.285	Yaw Set Point:	-0.660	X_WP:	0.000	Y_WP:	0.000	Y_WP:	0.500	X:	-0.235	Y:	-0.240	Z:	0.047	yaw:	37.820	yaw rate:	0.721	Roll:	-10.174	Pitch:	-1.321	Yaw:	54.491	Thrust:	67.589
Time:	2.909	Roll Set Point:	0.568	Pitch Set Point:	0.286	Yaw Set Point:	-0.659	X_WP:	0.000	Y_WP:	0.000	Y_WP:	0.500	X:	-0.235	Y:	-0.240	Z:	0.047	yaw:	37.767	yaw rate:	-5.321	Roll:	-10.220	Pitch:	-1.791	Yaw:	53.406	Thrust:	68.112
Time:	2.925	Roll Set Point:	0.568	Pitch Set Point:	0.285	Yaw Set Point:	-0.661	X_WP:	0.000	Y_WP:	0.000	Y_WP:	0.500	X:	-0.235	Y:	-0.240	Z:	0.047	yaw:	37.848	yaw rate:	8.032	Roll:	-10.328	Pitch:	-0.853	Yaw:	55.754	Thrust:	69.292
Time:	2.940	Roll Set Point:	0.568	Pitch Set Point:	0.285	Yaw Set Point:	-0.660	X_WP:	0.000	Y_WP:	0.000	Y_WP:	0.500	X:	-0.235	Y:	-0.240	Z:	0.047	yaw:	37.808	yaw rate:	-3.956	Roll:	-10.213	Pitch:	-1.681	Yaw:	53.690	Thrust:	69.923
Time:	2.956	Roll Set Point:	0.568	Pitch Set Point:	0.285	Yaw Set Point:	-0.660	X_WP:	0.000	Y_WP:	0.000	Y_WP:	0.500	X:	-0.235	Y:	-0.240	Z:	0.047	yaw:	37.814	yaw rate:	0.619	Roll:	-10.233	Pitch:	-1.353	Yaw:	54.462	Thrust:	70.882
Time:	2.972	Roll Set Point:	0.568	Pitch Set Point:	0.285	Yaw Set Point:	-0.660	X_WP:	0.000	Y_WP:	0.000	Y_WP:	0.500	X:	-0.235	Y:	-0.240	Z:	0.047	yaw:	37.814	yaw rate:	0.619	Roll:	-10.244	Pitch:	-1.412	Yaw:	54.362	Thrust:	71.687
Time:	2.987	Roll Set Point:	0.568	Pitch Set Point:	0.285	Yaw Set Point:	-0.661	X_WP:	0.000	Y_WP:	0.000	Y_WP:	0.500	X:	-0.235	Y:	-0.240	Z:	0.047	yaw:	37.848	yaw rate:	1.570	Roll:	-10.308	Pitch:	-1.190	Yaw:	54.975	Thrust:	72.564
Time:	3.003	Roll Set Point:	0.568	Pitch Set Point:	0.285	Yaw Set Point:	-0.660	X_WP:	0.000	Y_WP:	0.000	Y_WP:	0.500	X:	-0.235	Y:	-0.240	Z:	0.047	yaw:	37.841	yaw rate:	-0.660	Roll:	-10.241	Pitch:	-1.462	Yaw:	54.285	Thrust:	73.237
Time:	3.018	Roll Set Point:	0.568	Pitch Set Point:	0.285	Yaw Set Point:	-0.660	X_WP:	0.000	Y_WP:	0.000	Y_WP:	0.500	X:	-0.235	Y:	-0.240	Z:	0.047	yaw:	37.841	yaw rate:	-0.660	Roll:	-10.247	Pitch:	-1.413	Yaw:	54.405	Thrust:	74.424
Time:	3.034	Roll Set Point:	0.568	Pitch Set Point:	0.285	Yaw Set Point:	-0.660	X_WP:	0.000	Y_WP:	0.000	Y_WP:	0.500	X:	-0.235	Y:	-0.240	Z:	0.047	yaw:	37.825	yaw rate:	-1.646	Roll:	-10.217	Pitch:	-1.508	Yaw:	54.100	Thrust:	75.122
Time:	3.050	Roll Set Point:	0.568	Pitch Set Point:	0.285	Yaw Set Point:	-0.660	X_WP:	0.000	Y_WP:	0.000	Y_WP:	0.500	X:	-0.235	Y:	-0.240	Z:	0.047	yaw:	37.813	yaw rate:	-2.750	Roll:	-10.243	Pitch:	-1.556	Yaw:	54.149	Thrust:	75.648
Time:	3.065	Roll Set Point:	0.568	Pitch Set Point:	0.285	Yaw Set Point:	-0.660	X_WP:	0.000	Y_WP:	0.000	Y_WP:	0.500	X:	-0.235	Y:	-0.240	Z:	0.047	yaw:	37.813	yaw rate:	-2.750	Roll:	-10.244	Pitch:	-1.424	Yaw:	54.359	Thrust:	76.772
Time:	3.081	Roll Set Point:	0.568	Pitch Set Point:	0.285	Yaw Set Point:	-0.660	X_WP:	0.000	Y_WP:	0.000	Y_WP:	0.500	X:	-0.235	Y:	-0.240	Z:	0.047	yaw:	37.836	yaw rate:	2.371	Roll:	-10.254	Pitch:	-1.200	Yaw:	54.789	Thrust:	77.596
Time:	3.097	Roll Set Point:	0.568	Pitch Set Point:	0.285	Yaw Set Point:	-0.660	X_WP:	0.000	Y_WP:	0.000	Y_WP:	0.500	X:	-0.235	Y:	-0.240	Z:	0.047	yaw:	37.804	yaw rate:	-4.991	Roll:	-10.204	Pitch:	-1.668	Yaw:	53.806	Thrust:	78.645
Time:	3.112	Roll Set Point:	0.568	Pitch Set Point:	0.285	Yaw Set Point:	-0.660	X_WP:	0.000	Y_WP:	0.000	Y_WP:	0.500	X:	-0.235	Y:	-0.240	Z:	0.047	yaw:	37.841	yaw rate:	3.748	Roll:	-10.308	Pitch:	-1.171	Yaw:	55.025	Thrust:	79.361
Time:	3.128	Roll Set Point:	0.569	Pitch Set Point:	0.285	Yaw Set Point:	-0.662	X_WP:	0.000	Y_WP:	0.000	Y_WP:	0.500	X:	-0.235	Y:	-0.240	Z:	0.047	yaw:	37.912	yaw rate:	7.066	Roll:	-10.423	Pitch:	-1.132	Yaw:	55.682	Thrust:	79.392
Time:	3.143	Roll Set Point:	0.569	Pitch Set Point:	0.285	Yaw Set Point:	-0.661	X_WP:	0.000	Y_WP:	0.000	Y_WP:	0.500	X:	-0.235	Y:	-0.240	Z:	0.047	yaw:	37.865	yaw rate:	-4.706	Roll:	-10.210	Pitch:	-1.734	Yaw:	53.639	Thrust:	81.023
Time:	3.159	Roll Set Point:	0.568	Pitch Set Point:	0.286	Yaw Set Point:	-0.659	X_WP:	0.000	Y_WP:	0.000	Y_WP:	0.500	X:	-0.235	Y:	-0.240	Z:	0.047	yaw:	37.742	yaw rate:	-12.257	Roll:	-9.984	Pitch:	-2.086	Yaw:	52.215	Thrust:	82.614
Time:	3.175	Roll Set Point:	0.568	Pitch Set Point:	0.285	Yaw Set Point:	-0.660	X_WP:	0.000	Y_WP:	0.000	Y_WP:	0.500	X:	-0.235	Y:	-0.240	Z:	0.047	yaw:	37.835	yaw rate:	9.242	Roll:	-10.352	Pitch:	-0.826	Yaw:	55.938	Thrust:	82.685
Time:	3.190	Roll Set Point:	0.569	Pitch Set Point:	0.285	Yaw Set Point:	-0.662	X_WP:	0.000	Y_WP:	0.000	Y_WP:	0.500	X:	-0.235	Y:	-0.240	Z:	0.047	yaw:	37.919	yaw rate:	8.441	Roll:	-10.482	Pitch:	-1.043	Yaw:	55.922	Thrust:	82.781
Time:	3.206	Roll Set Point:	0.568	Pitch Set Point:	0.285	Yaw Set Point:	-0.661	X_WP:	0.000	Y_WP:	0.000	Y_WP:	0.500	X:	-0.235	Y:	-0.240	Z:	0.047	yaw:	37.865	yaw rate:	-5.462	Roll:	-10.016	Pitch:	-1.556	Yaw:	53.516	Thrust:	85.332
Time:	3.222	Roll Set Point:	0.568	Pitch Set Point:	0.285	Yaw Set Point:	-0.661	X_WP:	0.000	Y_WP:	0.000	Y_WP:	0.500	X:	-0.235	Y:	-0.240	Z:	0.047	yaw:	37.853	yaw rate:	-1.196	Roll:	-10.268	Pitch:	-1.578	Yaw:	54.218	Thrust:	85.275
Time:	3.237	Roll Set Point:	0.568	Pitch Set Point:	0.285	Yaw Set Point:	-0.661	X_WP:	0.000	Y_WP:	0.000	Y_WP:	0.500	X:	-0.235	Y:	-0.240	Z:	0.047	yaw:	37.853	yaw rate:	-1.196	Roll:	-10.244	Pitch:	-1.436	Yaw:	54.412	Thrust:	86.003
Time:	3.253	Roll Set Point:	0.568	Pitch Set Point:	0.285	Yaw Set Point:	-0.661	X_WP:	0.000	Y_WP:	0.000	Y_WP:	0.500	X:	-0.235	Y:	-0.240	Z:	0.047	yaw:	37.845	yaw rate:	-0.732	Roll:	-10.242	Pitch:	-1.462	Yaw:	54.285	Thrust:	86.997
Time:	3.268	Roll Set Point:	0.568	Pitch Set Point:	0.285	Yaw Set Point:	-0.661	X_WP:	0.000	Y_WP:	0.000	Y_WP:	0.500	X:	-0.235	Y:	-0.240	Z:	0.047	yaw:	37.879	yaw rate:	3.253	Roll:	-10.380	Pitch:	-1.427	Yaw:	55.017	Thrust:	86.890
Time:	3.284	Roll Set Point:	0.569	Pitch Set Point:	0.285	Yaw Set Point:	-0.661	X_WP:	0.000	Y_WP:	0.000	Y_WP:	0.500	X:	-0.235	Y:	-0.240	Z:	0.047	yaw:	37.891	yaw rate:	1.198	Roll:	-10.296	Pitch:	-1.323	Yaw:	54.669	Thrust:	88.822
Time:	3.300	Roll Set Point:	0.568	Pitch Set Point:	0.285	Yaw Set Point:	-0.660	X_WP:	0.000	Y_WP:	0.000	Y_WP:	0.500	X:	-0.235	Y:	-0.240	Z:	0.047	yaw:	37.826	yaw rate:	-6.518	Roll:	-10.022	Pitch:	-1.765	Yaw:	53.286	Thrust:	90.206
Time:	3.315	Roll Set Point:	0.568	Pitch Set Point:	0.285	Yaw Set Point:	-0.660	X_WP:	0.000	Y_WP:	0.000	Y_WP:	0.500	X:	-0.235	Y:	-0.240	Z:	0.047	yaw:	37.826	yaw rate:	-6.518	Roll:	-10.244	Pitch:	-1.451	Yaw:	54.378	Thrust:	90.375
Time:	3.331	Roll Set Point:	0.568	Pitch Set Point:	0.285	Yaw Set Point:	-0.660	X_WP:	0.000	Y_WP:	0.000	Y_WP:	0.500	X:	-0.235	Y:	-0.240	Z:	0.047	yaw:	37.800	yaw rate:	-2.586	Roll:	-10.217	Pitch:	-1.551	Yaw:	53.908	Thrust:	91.110
Time:	3.347	Roll Set Point:	0.568	Pitch Set Point:	0.286	Yaw Set Point:	-0.659	X_WP:	0.000	Y_WP:	0.000	Y_WP:	0.500	X:	-0.235	Y:	-0.240	Z:	0.047	yaw:	37.786	yaw rate:	-2.673	Roll:	-10.213	Pitch:	-1.581	Yaw:	54.087	Thrust:	92.123
Time:	3.362	Roll Set Point:	0.568	Pitch Set Point:	0.285	Yaw Set Point:	-0.660	X_WP:	0.000	Y_WP:	0.000	Y_WP:	0.500	X:	-0.235	Y:	-0.240	Z:	0.047	yaw:	37.835	yaw rate:	4.861	Roll:	-10.332	Pitch:	-1.176	Yaw:	55.205	Thrust:	92.979
Time:	3.378	Roll Set Point:	0.568	Pitch Set Point:	0.285	Yaw Set Point:	-0.660	X_WP:	0.000	Y_WP:	0.000	Y_WP:	0.500	X:	-0.235	Y:	-0.240	Z:	0.047	yaw:	37.802	yaw rate:	-3.277	Roll:	-10.176	Pitch:	-1.607	Yaw:	53.794	Thrust:	93.806
Time:	3.393	Roll Set Point:	0.568	Pitch Set Point:	0.285	Yaw Set Point:	-0.660	X_WP:	0.000	Y_WP:	0.000	Y_WP:	0.500	X:	-0.235	Y:	-0.240	Z:	0.047	yaw:	37.838	yaw rate:	3.572	Roll:	-10.289	Pitch:	-1.229	Yaw:	54.993	Thrust:	94.498
Time:	3.409	Roll Set Point:	0.568	Pitch Set Point:	0.285	Yaw Set Point:	-0.661	X_WP:	0.000	Y_WP:	0.000	Y_WP:	0.500	X:	-0.235	Y:	-0.240	Z:	0.047	yaw:	37.849	yaw rate:	1.174	Roll:	-10.256	Pitch:	-1.367	Yaw:	54.611	Thrust:	95.801
Time:	3.425	Roll Set Point:	0.568	Pitch Set Point:	0.285	Yaw Set Point:	-0.661	X_WP:	0.000	Y_WP:	0.000	Y_WP:	0.500	X:	-0.235	Y:	-0.240	Z:	0.047	yaw:	37.849	yaw rate:	1.174	Roll:	-10.243	Pitch:	-1.456	Yaw:	54.406	Thrust:	96.133
Time:	3.440	Roll Set Point:	0.568	Pitch Set Point:	0.286	Yaw Set Point:	-0.661	X_WP:	0.000	Y_WP:	0.000	Y_WP:	0.500	X:	-0.235	Y:	-0.240	Z:	0.047	yaw:	37.848	yaw rate:	-0.010	Roll:	-10.397	Pitch:	-1.687	Yaw:	54.379	Thrust:	96.434
Time:	3.456	Roll Set Point:	0.568	Pitch Set Point:	0.285	Yaw Set Point:	-0.661	X_WP:	0.000	Y_WP:	0.000	Y_WP:	0.500	X:	-0.235	Y:	-0.240	Z:	0.047	yaw:	37.861	yaw rate:	1.350	Roll:	-10.130	Pitch:	-1.140	Yaw:	54.656	Thrust:	98.836
Time:	3.472	Roll Set Point:	0.568	Pitch Set Point:	0.285	Yaw Set Point:	-0.661	X_WP:	0.000	Y_WP:	0.000	Y_WP:	0.500	X:	-0.235	Y:	-0.240	Z:	0.047	yaw:	37.861	yaw rate:	1.350	Roll:	-10.245	Pitch:	-1.459	Yaw:	54.427	Thrust:	98.858
Time:	3.487	Roll Set Point:	0.568	Pitch Set Point:	0.285	Yaw Set Point:	-0.660	X_WP:	0.000	Y_WP:	0.000	Y_WP:	0.500	X:	-0.235	Y:	-0.240	Z:	0.047	yaw:	37.802	yaw rate:	-5.906	Roll:	-10.103	Pitch:	-1.869	Yaw:	53.360	Thrust:	99.855
Time:	3.503	Roll Set Point:	0.568	Pitch Set Point:	0.286	Yaw Set Point:	-0.660	X_WP:	0.000	Y_WP:	0.000	Y_WP:	0.500	X:	-0.235	Y:	-0.240	Z:	0.047	yaw:	37.843	yaw rate:	-0.330	Roll:	-10.499	Pitch:	-1.444	Yaw:	55.087	Thrust:	99.927
Time:	3.518	Roll Set Point:	0.568	Pitch Set Point:	0.285	Yaw Set Point:	-0.661	X_WP:	0.000	Y_WP:	0.000	Y_WP:	0.500	X:	-0.235	Y:	-0.240	Z:	0.047	yaw:	37.876	yaw rate:	3.304	Roll:	-10.145	Pitch:	-1.016	Yaw:	54.997	Thrust:	100.000
Time:	3.547	Roll Set Point:	0.568	Pitch Set Point:	0.285	Yaw Set Point:	-0.661	X_WP:	0.000	Y_WP:	0.000	Y_WP:	0.500	X:	-0.235	Y:	-0.240	Z:	0.047	yaw:	37.870	yaw rate:	-0.602	Roll:	-10.704	Pitch:	-1.590	Yaw:	55.643	Thrust:	100.000
Time:	3.562	Roll Set Point:	0.568	Pitch Set Point:	0.285	Yaw Set Point:	-0.661	X_WP:	0.000	Y_WP:	0.000	Y_WP:	0.500	X:	-0.235	Y:	-0.240	Z:	0.047	yaw:	37.850	yaw rate:	2.750	Roll:	-10.256	Pitch:	-1.692	Yaw:	54.068	Thrust:	100.000
Time:	3.578	Roll Set Point:	0.568	Pitch Set Point:	0.285	Yaw Set Point:	-0.661	X_WP:	0.000	Y_WP:	0.000	Y_WP:	0.500	X:	-0.235	Y:	-0.240	Z:	0.047	yaw:	37.857	yaw rate:	0.767	Roll:	-10.232	Pitch:	-1.412	Yaw:	54.550	Thrust:	100.000
Time:	3.594	Roll Set Point:	0.568	Pitch Set Point:	0.285	Yaw Set Point:	-0.661	X_WP:	0.000	Y_WP:	0.000	Y_WP:	0.500	X:	-0.235	Y:	-0.240	Z:	0.047	yaw:	37.867	yaw rate:	0.971	Roll:	-10.247	Pitch:	-1.384	Yaw:	54.597	Thrust:	100.000
Time:	3.609	Roll Set Point:	0.568	Pitch Set Point:	0.285	Yaw Set Point:	-0.661	X_WP:	0.000	Y_WP:	0.000	Y_WP:	0.500	X:	-0.235	Y:	-0.240	Z:	0.047	yaw:	37.867	yaw rate:	0.971	Roll:	-10.245	Pitch:	-1.473	Yaw:	54.435	Thrust:	100.000
Time:	3.625	Roll Set Point:	0.568	Pitch Set Point:	0.285	Yaw Set Point:	-0.660	X_WP:	0.000	Y_WP:	0.000	Y_WP:	0.500	X:	-0.235	Y:	-0.240	Z:	0.047	yaw:	37.841	yaw rate:	-4.891	Roll:	-10.265	Pitch:	-1.704	Yaw:	53.966	Thrust:	100.000
Time:	3.640	Roll Set Point:	0.568	Pitch Set Point:	0.286	Yaw Set Point:	-0.660	X_WP:	0.000	Y_WP:	0.000	Y_WP:	0.500	X:	-0.235	Y:	-0.240	Z:	0.047	yaw:	37.829	yaw rate:	-1.245	Roll:	-10.345	Pitch:	-1.702	Yaw:	54.173	Thrust:	100.000
Time:	3.656	Roll Set Point:	0.568	Pitch Set Point:	0.285	Yaw Set Point:	-0.660	X_WP:	0.000	Y_WP:	0.000	Y_WP:	0.500	X:	-0.235	Y:	-0.240	Z:	0.047	yaw:	37.832	yaw rate:	0.371	Roll:	-10.089	Pitch:	-1.266	Yaw:	54.449	Thrust:	100.000
Time:	3.672	Roll Set Point:	0.568	Pitch Set Point:	0.285	Yaw Set Point:	-0.660	X_WP:	0.000	Y_WP:	0.000	Y_WP:	0.500	X:	-0.235	Y:	-0.240	Z:	0.047	yaw:	37.832	yaw rate:	0.371	Roll:	-10.244	Pitch:	-1.486	Yaw:	54.387	Thrust:	100.000
Time:	3.687	Roll Set Point:	0.568	Pitch Set Point:	0.286	Yaw Set Point:	-0.660	X_WP:	0.000	Y_WP:	0.000	Y_WP:	0.500	X:	-0.235	Y:	-0.240	Z:	0.047	yaw:	37.787	yaw rate:	-11.249	Roll:	-10.218	Pitch:	-1.833	Yaw:	53.558	Thrust:	100.000
Time:	3.703	Roll Set Point:	0.568	Pitch Set Point:	0.285	Yaw Set Point:	-0.660	X_WP:	0.000	Y_WP:	0.000	Y_WP:	0.500	X:	-0.235	Y:	-0.240	Z:	0.047	yaw:	37.822	yaw rate:	3.483	Roll:	-10.286	Pitch:	-1.298	Yaw:	54.955	Thrust:	100.000
Time:	3.719	Roll Set Point:	0.568	Pitch Set Point:	0.285	Yaw Set Point:	-0.661	X_WP:	0.000	Y_WP:	0.000	Y_WP:	0.500	X:	-0.235	Y:	-0.240	Z:	0.047	yaw:	37.891	yaw rate:	6.907	Roll:	-10.313	Pitch:	-0.928	Yaw:	55.625	Thrust:	100.000
Time:	3.734	Roll Set Point:	0.568	Pitch Set Point:	0.285	Yaw Set Point:	-0.661	X_WP:	0.000	Y_WP:	0.000	Y_WP:	0.500	X:	-0.235	Y:	-0.240	Z:	0.047	yaw:	37.891	yaw rate:	6.907	Roll:	-10.246	Pitch:	-1.482	Yaw:	54.468	Thrust:	100.000
Time:	3.750	Roll Set Point:	0.568	Pitch Set Point:	0.285	Yaw Set Point:	-0.660	X_WP:	0.000	Y_WP:	0.000	Y_WP:	0.500	X:	-0.235	Y:	-0.240	Z:	0.047	yaw:	37.833	yaw rate:	-5.737	Roll:	-10.175	Pitch:	-1.930	Yaw:	53.427	Thrust:	100.000
Time:	3.765	Roll Set Point:	0.568	Pitch Set Point:	0.286	Yaw Set Point:	-0.660	X_WP:	0.000	Y_WP:	0.000	Y_WP:	0.500	X:	-0.235	Y:	-0.240	Z:	0.047	yaw:	37.796	yaw rate:	-2.601	Roll:	-10.213	Pitch:	-1.785	Yaw:	53.719	Thrust:	100.000
Time:	3.781	Roll Set Point:	0.568	Pitch Set Point:	0.285	Yaw Set Point:	-0.661	X_WP:	0.000	Y_WP:	0.000	Y_WP:	0.500	X:	-0.235	Y:	-0.240	Z:	0.047	yaw:	37.861	yaw rate:	6.501	Roll:	-10.314	Pitch:	-0.988	Yaw:	55.516	Thrust:	100.000
Time:	3.797	Roll Set Point:	0.568	Pitch Set Point:	0.285	Yaw Set Point:	-0.661	X_WP:	0.000	Y_WP:	0.000	Y_WP:	0.500	X:	-0.235	Y:	-0.240	Z:	0.047	yaw:	37.868	yaw rate:	0.615	Roll:	-10.239	Pitch:	-1.501	Yaw:	54.539	Thrust:	100.000
Time:	3.812	Roll Set Point:	0.568	Pitch Set Point:	0.285	Yaw Set Point:	-0.660	X_WP:	0.000	Y_WP:	0.000	Y_WP:	0.500	X:	-0.235	Y:	-0.240	Z:	0.047	yaw:	37.841	yaw rate:	-2.639	Roll:	-10.220	Pitch:	-1.694	Yaw:	53.957	Thrust:	100.000
Time:	3.828	Roll Set Point:	0.568	Pitch Set Point:	0.285	Yaw Set Point:	-0.660	X_WP:	0.000	Y_WP:	0.000	Y_WP:	0.500	X:	-0.235	Y:	-0.240	Z:	0.047	yaw:	37.842	yaw rate:	0.119	Roll:	-10.268	Pitch:	-1.490	Yaw:	54.421	Thrust:	100.000
Time:	3.844	Roll Set Point:	0.568	Pitch Set Point:	0.285	Yaw Set Point:	-0.660	X_WP:	0.000	Y_WP:	0.000	Y_WP:	0.500	X:	-0.235	Y:	-0.240	Z:	0.047	yaw:	37.842	yaw rate:	0.119	Roll:	-10.245	Pitch:	-1.505	Yaw:	54.401	Thrust:	100.000
Time:	3.859	Roll Set Point:	0.568	Pitch Set Point:	0.285	Yaw Set Point:	-0.660	X_WP:	0.000	Y_WP:	0.000	Y_WP:	0.500	X:	-0.235	Y:	-0.240	Z:	0.047	yaw:	37.789	yaw rate:	-3.601	Roll:	-10.167	Pitch:	-1.797	Yaw:	53.428	Thrust:	100.000
Time:	3.875	Roll Set Point:	0.568	Pitch Set Point:	0.285	Yaw Set Point:	-0.661	X_WP:	0.000	Y_WP:	0.000	Y_WP:	0.500	X:	-0.235	Y:	-0.240	Z:	0.047	yaw:	37.869	yaw rate:	8.004	Roll:	-10.366	Pitch:	-1.020	Yaw:	55.783	Thrust:	100.000
Time:	3.891	Roll Set Point:	0.568	Pitch Set Point:	0.286	Yaw Set Point:	-0.659	X_WP:	0.000	Y_WP:	0.000	Y_WP:	0.500	X:	-0.235	Y:	-0.240	Z:	0.047	yaw:	37.773	yaw rate:	-9.600	Roll:	-10.164	Pitch:	-2.208	Yaw:	52.779	Thrust:	100.000
Time:	3.915	Roll Set Point:	0.568	Pitch Set Point:	0.285	Yaw Set Point:	-0.660	X_WP:	0.000	Y_WP:	0.000	Y_WP:	0.500	X:	-0.235	Y:	-0.240	Z:	0.047	yaw:	37.820	yaw rate:	-3.175	Roll:	-10.561	Pitch:	-1.367	Yaw:	55.700	Thrust:	100.000
Time:	3.931	Roll Set Point:	0.568	Pitch Set Point:	0.285	Yaw Set Point:	-0.660	X_WP:	0.000	Y_WP:	0.000	Y_WP:	0.500	X:	-0.235	Y:	-0.240	Z:	0.047	yaw:	37.820	yaw rate:	-3.175	Roll:	-10.244	Pitch:	-1.517	Yaw:	54.369	Thrust:	100.000
Time:	3.946	Roll Set Point:	0.568	Pitch Set Point:	0.285	Yaw Set Point:	-0.660	X_WP:	0.000	Y_WP:	0.000	Y_WP:	0.500	X:	-0.235	Y:	-0.240	Z:	0.047	yaw:	37.824	yaw rate:	0.369	Roll:	-10.262	Pitch:	-1.506	Yaw:	54.435	Thrust:	100.000
Time:	3.962	Roll Set Point:	0.568	Pitch Set Point:	0.285	Yaw Set Point:	-0.661	X_WP:	0.000	Y_WP:	0.000	Y_WP:	0.500	X:	-0.235	Y:	-0.240	Z:	0.047	yaw:	37.880	yaw rate:	5.096	Roll:	-10.329	Pitch:	-1.174	Yaw:	55.393	Thrust:	100.000
Time:	3.977	Roll Set Point:	0.568	Pitch Set Point:	0.285	Yaw Set Point:	-0.660	X_WP:	0.000	Y_WP:	0.000	Y_WP:	0.500	X:	-0.235	Y:	-0.240	Z:	0.047	yaw:	37.804	yaw rate:	-7.577	Roll:	-10.080	Pitch:	-2.000	Yaw:	53.077	Thrust:	100.000
Time:	3.993	Roll Set Point:	0.568	Pitch Set Point:	0.285	Yaw Set Point:	-0.661	X_WP:	0.000	Y_WP:	0.000	Y_WP:	0.500	X:	-0.235	Y:	-0.240	Z:	0.047	yaw:	37.854	yaw rate:	5.034	Roll:	-10.347	Pitch:	-1.144	Yaw:	55.262	Thrust:	100.000
Time:	4.009	Roll Set Point:	0.568	Pitch Set Point:	0.286	Yaw Set Point:	-0.659	X_WP:	0.000	Y_WP:	0.000	Y_WP:	0.500	X:	-0.235	Y:	-0.240	Z:	0.047	yaw:	37.782	yaw rate:	-7.214	Roll:	-10.199	Pitch:	-2.153	Yaw:	53.102	Thrust:	100.000
Time:	4.024	Roll Set Point:	0.568	Pitch Set Point:	0.285	Yaw Set Point:	-0.660	X_WP:	0.000	Y_WP:	0.000	Y_WP:	0.500	X:	-0.235	Y:	-0.240	Z:	0.047	yaw:	37.810	yaw rate:	2.821	Roll:	-10.221	Pitch:	-1.270	Yaw:	54.829	Thrust:	100.000
Time:	4.040	Roll Set Point:	0.568	Pitch Set Point:	0.285	Yaw Set Point:	-0.661	X_WP:	0.000	Y_WP:	0.000	Y_WP:	0.500	X:	-0.235	Y:	-0.240	Z:	0.047	yaw:	37.893	yaw rate:	8.247	Roll:	-10.330	Pitch:	-0.954	Yaw:	55.853	Thrust:	100.000
Time:	4.056	Roll Set Point:	0.568	Pitch Set Point:	0.285	Yaw Set Point:	-0.661	X_WP:	0.000	Y_WP:	0.000	Y_WP:	0.500	X:	-0.235	Y:	-0.240	Z:	0.047	yaw:	37.853	yaw rate:	-3.942	Roll:	-10.256	Pitch:	-1.773	Yaw:	53.756	Thrust:	100.000
Time:	4.071	Roll Set Point:	0.568	Pitch Set Point:	0.285	Yaw Set Point:	-0.661	X_WP:	0.000	Y_WP:	0.000	Y_WP:	0.500	X:	-0.235	Y:	-0.240	Z:	0.047	yaw:	37.851	yaw rate:	-0.213	Roll:	-10.212	Pitch:	-1.585	Yaw:	54.377	Thrust:	100.000
Time:	4.087	Roll Set Point:	0.568	Pitch Set Point:	0.285	Yaw Set Point:	-0.661	X_WP:	0.000	Y_WP:	0.000	Y_WP:	0.500	X:	-0.235	Y:	-0.240	Z:	0.047	yaw:	37.851	yaw rate:	-0.213	Roll:	-10.246	Pitch:	-1.531	Yaw:	54.416	Thrust:	100.000
Time:	4.102	Roll Set Point:	0.568	Pitch Set Point:	0.286	Yaw Set Point:	-0.659	X_WP:	0.000	Y_WP:	0.000	Y_WP:	0.500	X:	-0.235	Y:	-0.240	Z:	0.047	yaw:	37.784	yaw rate:	-6.727	Roll:	-10.166	Pitch:	-1.952	Yaw:	53.187	Thrust:	100.000
Time:	4.118	Roll Set Point:	0.568	Pitch Set Point:	0.285	Yaw Set Point:	-0.661	X_WP:	0.000	Y_WP:	0.000	Y_WP:	0.500	X:	-0.235	Y:	-0.240	Z:	0.047	yaw:	37.858	yaw rate:	7.430	Roll:	-10.343	Pitch:	-1.000	Yaw:	55.668	Thrust:	100.000
Time:	4.134	Roll Set Point:	0.568	Pitch Set Point:	0.285	Yaw Set Point:	-0.660	X_WP:	0.000	Y_WP:	0.000	Y_WP:	0.500	X:	-0.235	Y:	-0.240	Z:	0.047	yaw:	37.803	yaw rate:	-9.130	Roll:	-10.169	Pitch:	-1.950	Yaw:	53.412	Thrust:	100.000
Time:	4.149	Roll Set Point:	0.568	Pitch Set Point:	0.285	Yaw Set Point:	-0.660	X_WP:	0.000	Y_WP:	0.000	Y_WP:	0.500	X:	-0.235	Y:	-0.240	Z:	0.047	yaw:	37.803	yaw rate:	-9.130	Roll:	-10.244	Pitch:	-1.545	Yaw:	54.345	Thrust:	100.000
Time:	4.165	Roll Set Point:	0.568	Pitch Set Point:	0.285	Yaw Set Point:	-0.660	X_WP:	0.000	Y_WP:	0.000	Y_WP:	0.500	X:	-0.235	Y:	-0.240	Z:	0.047	yaw:	37.827	yaw rate:	4.648	Roll:	-10.262	Pitch:	-1.416	Yaw:	54.781	Thrust:	100.000
Time:	4.181	Roll Set Point:	0.568	Pitch Set Point:	0.286	Yaw Set Point:	-0.659	X_WP:	0.000	Y_WP:	0.000	Y_WP:	0.500	X:	-0.235	Y:	-0.240	Z:	0.047	yaw:	37.778	yaw rate:	-4.894	Roll:	-10.172	Pitch:	-1.859	Yaw:	53.490	Thrust:	100.000
Time:	4.196	Roll Set Point:	0.568	Pitch Set Point:	0.285	Yaw Set Point:	-0.661	X_WP:	0.000	Y_WP:	0.000	Y_WP:	0.500	X:	-0.235	Y:	-0.240	Z:	0.047	yaw:	37.864	yaw rate:	8.620	Roll:	-10.396	Pitch:	-0.997	Yaw:	55.875	Thrust:	100.000
Time:	4.212	Roll Set Point:	0.568	Pitch Set Point:	0.285	Yaw Set Point:	-0.661	X_WP:	0.000	Y_WP:	0.000	Y_WP:	0.500	X:	-0.235	Y:	-0.240	Z:	0.047	yaw:	37.864	yaw rate:	8.620	Roll:	-10.246	Pitch:	-1.542	Yaw:	54.431	Thrust:	100.000
Time:	4.227	Roll Set Point:	0.568	Pitch Set Point:	0.285	Yaw Set Point:	-0.660	X_WP:	0.000	Y_WP:	0.000	Y_WP:	0.500	X:	-0.235	Y:	-0.240	Z:	0.047	yaw:	37.843	yaw rate:	0.955	Roll:	-10.178	Pitch:	-1.654	Yaw:	54.041	Thrust:	100.000
Time:	4.243	Roll Set Point:	0.568	Pitch Set Point:	0.285	Yaw Set Point:	-0.661	X_WP:	0.000	Y_WP:	0.000	Y_WP:	0.500	X:	-0.235	Y:	-0.240	Z:	0.047	yaw:	37.845	yaw rate:	0.211	Roll:	-10.275	Pitch:	-1.523	Yaw:	54.439	Thrust:	100.000
Time:	4.259	Roll Set Point:	0.568	Pitch Set Point:	0.285	Yaw Set Point:	-0.660	X_WP:	0.000	Y_WP:	0.000	Y_WP:	0.500	X:	-0.235	Y:	-0.240	Z:	0.047	yaw:	37.824	yaw rate:	-2.089	Roll:	-10.225	Pitch:	-1.684	Yaw:	54.024	Thrust:	100.000
Time:	4.274	Roll Set Point:	0.569	Pitch Set Point:	0.285	Yaw Set Point:	-0.661	X_WP:	0.000	Y_WP:	0.000	Y_WP:	0.500	X:	-0.235	Y:	-0.240	Z:	0.047	yaw:	37.883	yaw rate:	5.921	Roll:	-10.429	Pitch:	-1.352	Yaw:	55.449	Thrust:	100.000
Time:	4.290	Roll Set Point:	0.568	Pitch Set Point:	0.285	Yaw Set Point:	-0.661	X_WP:	0.000	Y_WP:	0.000	Y_WP:	0.500	X:	-0.235	Y:	-0.240	Z:	0.047	yaw:	37.849	yaw rate:	-3.365	Roll:	-10.102	Pitch:	-1.649	Yaw:	53.847	Thrust:	100.000
Time:	4.306	Roll Set Point:	0.568	Pitch Set Point:	0.285	Yaw Set Point:	-0.660	X_WP:	0.000	Y_WP:	0.000	Y_WP:	0.500	X:	-0.235	Y:	-0.240	Z:	0.047	yaw:	37.799	yaw rate:	-5.020	Roll:	-10.166	Pitch:	-1.833	Yaw:	53.499	Thrust:	100.000
Time:	4.321	Roll Set Point:	0.569	Pitch Set Point:	0.285	Yaw Set Point:	-0.661	X_WP:	0.000	Y_WP:	0.000	Y_WP:	0.500	X:	-0.235	Y:	-0.240	Z:	0.047	yaw:	37.899	yaw rate:	9.988	Roll:	-10.463	Pitch:	-1.091	Yaw:	56.153	Thrust:	100.000
Time:	4.337	Roll Set Point:	0.569	Pitch Set Point:	0.285	Yaw Set Point:	-0.661	X_WP:	0.000	Y_WP:	0.000	Y_WP:	0.500	X:	-0.235	Y:	-0.240	Z:	0.047	yaw:	37.899	yaw rate:	9.988	Roll:	-10.251	Pitch:	-1.555	Yaw:	54.486	Thrust:	100.000
Time:	4.352	Roll Set Point:	0.568	Pitch Set Point:	0.285	Yaw Set Point:	-0.660	X_WP:	0.000	Y_WP:	0.000	Y_WP:	0.500	X:	-0.235	Y:	-0.240	Z:	0.047	yaw:	37.828	yaw rate:	-7.139	Roll:	-10.039	Pitch:	-1.868	Yaw:	53.174	Thrust:	100.000
Time:	4.368	Roll Set Point:	0.568	Pitch Set Point:	0.285	Yaw Set Point:	-0.660	X_WP:	0.000	Y_WP:	0.000	Y_WP:	0.500	X:	-0.235	Y:	-0.240	Z:	0.047	yaw:	37.822	yaw rate:	-2.024	Roll:	-10.290	Pitch:	-1.613	Yaw:	54.274	Thrust:	100.000
Time:	4.384	Roll Set Point:	0.568	Pitch Set Point:	0.286	Yaw Set Point:	-0.659	X_WP:	0.000	Y_WP:	0.000	Y_WP:	0.500	X:	-0.235	Y:	-0.240	Z:	0.047	yaw:	37.777	yaw rate:	-4.441	Roll:	-10.155	Pitch:	-1.830	Yaw:	53.566	Thrust:	100.000
Time:	4.399	Roll Set Point:	0.568	Pitch Set Point:	0.286	Yaw Set Point:	-0.659	X_WP:	0.000	Y_WP:	0.000	Y_WP:	0.500	X:	-0.235	Y:	-0.240	Z:	0.047	yaw:	37.777	yaw rate:	-4.441	Roll:	-10.243	Pitch:	-1.577	Yaw:	54.310	Thrust:	100.000
Time:	4.415	Roll Set Point:	0.568	Pitch Set Point:	0.285	Yaw Set Point:	-0.661	X_WP:	0.000	Y_WP:	0.000	Y_WP:	0.500	X:	-0.235	Y:	-0.240	Z:	0.047	yaw:	37.858	yaw rate:	1.212	Roll:	-10.340	Pitch:	-1.088	Yaw:	55.775	Thrust:	100.000
Time:	4.431	Roll Set Point:	0.568	Pitch Set Point:	0.286	Yaw Set Point:	-0.659	X_WP:	0.000	Y_WP:	0.000	Y_WP:	0.500	X:	-0.235	Y:	-0.240	Z:	0.047	yaw:	37.767	yaw rate:	-9.101	Roll:	-10.184	Pitch:	-2.167	Yaw:	52.777	Thrust:	100.000
Time:	4.446	Roll Set Point:	0.568	Pitch Set Point:	0.285	Yaw Set Point:	-0.660	X_WP:	0.000	Y_WP:	0.000	Y_WP:	0.500	X:	-0.235	Y:	-0.240	Z:	0.047	yaw:	37.794	yaw rate:	2.673	Roll:	-10.212	Pitch:	-1.354	Yaw:	54.778	Thrust:	100.000
Time:	4.462	Roll Set Point:	0.568	Pitch Set Point:	0.286	Yaw Set Point:	-0.659	X_WP:	0.000	Y_WP:	0.000	Y_WP:	0.500	X:	-0.235	Y:	-0.240	Z:	0.047	yaw:	37.754	yaw rate:	-4.014	Roll:	-10.185	Pitch:	-1.836	Yaw:	53.608	Thrust:	100.000
Time:	4.477	Roll Set Point:	0.568	Pitch Set Point:	0.285	Yaw Set Point:	-0.660	X_WP:	0.000	Y_WP:	0.000	Y_WP:	0.500	X:	-0.235	Y:	-0.240	Z:	0.047	yaw:	37.836	yaw rate:	8.195	Roll:	-10.341	Pitch:	-1.080	Yaw:	55.764	Thrust:	100.000
Time:	4.493	Roll Set Point:	0.568	Pitch Set Point:	0.286	Yaw Set Point:	-0.659	X_WP:	0.000	Y_WP:	0.000	Y_WP:	0.500	X:	-0.235	Y:	-0.240	Z:	0.047	yaw:	37.781	yaw rate:	-5.486	Roll:	-10.204	Pitch:	-1.937	Yaw:	53.401	Thrust:	100.000
Time:	4.510	Roll Set Point:	0.568	Pitch Set Point:	0.285	Yaw Set Point:	-0.660	X_WP:	0.000	Y_WP:	0.000	Y_WP:	0.500	X:	-0.235	Y:	-0.240	Z:	0.047	yaw:	37.806	yaw rate:	2.472	Roll:	-10.252	Pitch:	-1.475	Yaw:	54.761	Thrust:	100.000
Time:	4.525	Roll Set Point:	0.568	Pitch Set Point:	0.285	Yaw Set Point:	-0.660	X_WP:	0.000	Y_WP:	0.000	Y_WP:	0.500	X:	-0.235	Y:	-0.240	Z:	0.047	yaw:	37.798	yaw rate:	-0.738	Roll:	-10.274	Pitch:	-1.587	Yaw:	54.247	Thrust:	100.000
Time:	4.546	Roll Set Point:	0.568	Pitch Set Point:	0.285	Yaw Set Point:	-0.660	X_WP:	0.000	Y_WP:	0.000	Y_WP:	0.500	X:	-0.235	Y:	-0.240	Z:	0.047	yaw:	37.834	yaw rate:	3.800	Roll:	-10.512	Pitch:	-1.553	Yaw:	55.438	Thrust:	100.000
Time:	4.562	Roll Set Point:	0.568	Pitch Set Point:	0.286	Yaw Set Point:	-0.659	X_WP:	0.000	Y_WP:	0.000	Y_WP:	0.500	X:	-0.235	Y:	-0.240	Z:	0.047	yaw:	37.777	yaw rate:	-5.663	Roll:	-10.174	Pitch:	-1.911	Yaw:	53.361	Thrust:	100.000
Time:	4.578	Roll Set Point:	0.568	Pitch Set Point:	0.285	Yaw Set Point:	-0.661	X_WP:	0.000	Y_WP:	0.000	Y_WP:	0.500	X:	-0.235	Y:	-0.240	Z:	0.047	yaw:	37.864	yaw rate:	8.631	Roll:	-10.354	Pitch:	-1.044	Yaw:	55.876	Thrust:	100.000
Time:	4.593	Roll Set Point:	0.568	Pitch Set Point:	0.285	Yaw Set Point:	-0.661	X_WP:	0.000	Y_WP:	0.000	Y_WP:	0.500	X:	-0.235	Y:	-0.240	Z:	0.047	yaw:	37.851	yaw rate:	-1.257	Roll:	-10.211	Pitch:	-1.680	Yaw:	54.217	Thrust:	100.000
Time:	4.612	Roll Set Point:	0.568	Pitch Set Point:	0.285	Yaw Set Point:	-0.661	X_WP:	0.000	Y_WP:	0.000	Y_WP:	0.500	X:	-0.235	Y:	-0.240	Z:	0.047	yaw:	37.851	yaw rate:	-1.257	Roll:	-10.359	Pitch:	-1.643	Yaw:	54.718	Thrust:	100.000
Time:	4.628	Roll Set Point:	0.568	Pitch Set Point:	0.286	Yaw Set Point:	-0.659	X_WP:	0.000	Y_WP:	0.000	Y_WP:	0.500	X:	-0.235	Y:	-0.240	Z:	0.047	yaw:	37.772	yaw rate:	-10.536	Roll:	-10.178	Pitch:	-2.078	Yaw:	52.975	Thrust:	100.000
Time:	4.643	Roll Set Point:	0.568	Pitch Set Point:	0.285	Yaw Set Point:	-0.661	X_WP:	0.000	Y_WP:	0.000	Y_WP:	0.500	X:	-0.235	Y:	-0.240	Z:	0.047	yaw:	37.885	yaw rate:	11.304	Roll:	-10.353	Pitch:	-0.871	Yaw:	56.354	Thrust:	100.000
Time:	4.659	Roll Set Point:	0.568	Pitch Set Point:	0.285	Yaw Set Point:	-0.661	X_WP:	0.000	Y_WP:	0.000	Y_WP:	0.500	X:	-0.235	Y:	-0.240	Z:	0.047	yaw:	37.885	yaw rate:	11.304	Roll:	-10.247	Pitch:	-1.588	Yaw:	54.463	Thrust:	100.000
Time:	4.675	Roll Set Point:	0.568	Pitch Set Point:	0.285	Yaw Set Point:	-0.660	X_WP:	0.000	Y_WP:	0.000	Y_WP:	0.500	X:	-0.235	Y:	-0.240	Z:	0.047	yaw:	37.819	yaw rate:	1.199	Roll:	-10.170	Pitch:	-2.049	Yaw:	53.257	Thrust:	100.000
Time:	4.690	Roll Set Point:	0.568	Pitch Set Point:	0.285	Yaw Set Point:	-0.660	X_WP:	0.000	Y_WP:	0.000	Y_WP:	0.500	X:	-0.235	Y:	-0.240	Z:	0.047	yaw:	37.833	yaw rate:	1.428	Roll:	-10.259	Pitch:	-1.522	Yaw:	54.627	Thrust:	100.000
Time:	4.706	Roll Set Point:	0.568	Pitch Set Point:	0.285	Yaw Set Point:	-0.660	X_WP:	0.000	Y_WP:	0.000	Y_WP:	0.500	X:	-0.235	Y:	-0.240	Z:	0.047	yaw:	37.812	yaw rate:	-2.117	Roll:	-10.243	Pitch:	-1.752	Yaw:	54.004	Thrust:	100.000
Time:	4.722	Roll Set Point:	0.568	Pitch Set Point:	0.285	Yaw Set Point:	-0.660	X_WP:	0.000	Y_WP:	0.000	Y_WP:	0.500	X:	-0.235	Y:	-0.240	Z:	0.047	yaw:	37.812	yaw rate:	0.023	Roll:	-10.253	Pitch:	-1.618	Yaw:	54.368	Thrust:	100.000
Time:	4.737	Roll Set Point:	0.568	Pitch Set Point:	0.285	Yaw Set Point:	-0.660	X_WP:	0.000	Y_WP:	0.000	Y_WP:	0.500	X:	-0.235	Y:	-0.240	Z:	0.047	yaw:	37.831	yaw rate:	1.878	Roll:	-10.248	Pitch:	-1.442	Yaw:	54.700	Thrust:	100.000
Time:	4.753	Roll Set Point:	0.568	Pitch Set Point:	0.285	Yaw Set Point:	-0.660	X_WP:	0.000	Y_WP:	0.000	Y_WP:	0.500	X:	-0.235	Y:	-0.240	Z:	0.047	yaw:	37.835	yaw rate:	0.382	Roll:	-10.246	Pitch:	-1.590	Yaw:	54.448	Thrust:	100.000
Time:	4.768	Roll Set Point:	0.568	Pitch Set Point:	0.285	Yaw Set Point:	-0.660	X_WP:	0.000	Y_WP:	0.000	Y_WP:	0.500	X:	-0.235	Y:	-0.240	Z:	0.047	yaw:	37.835	yaw rate:	0.382	Roll:	-10.245	Pitch:	-1.609	Yaw:	54.390	Thrust:	100.000
Time:	4.784	Roll Set Point:	0.569	Pitch Set Point:	0.285	Yaw Set Point:	-0.661	X_WP:	0.000	Y_WP:	0.000	Y_WP:	0.500	X:	-0.235	Y:	-0.240	Z:	0.047	yaw:	37.888	yaw rate:	5.306	Roll:	-10.453	Pitch:	-1.413	Yaw:	55.353	Thrust:	100.000
Time:	4.800	Roll Set Point:	0.568	Pitch Set Point:	0.285	Yaw Set Point:	-0.661	X_WP:	0.000	Y_WP:	0.000	Y_WP:	0.500	X:	-0.235	Y:	-0.240	Z:	0.047	yaw:	37.862	yaw rate:	-2.624	Roll:	-10.037	Pitch:	-1.649	Yaw:	53.988	Thrust:	100.000
Time:	4.815	Roll Set Point:	0.568	Pitch Set Point:	0.285	Yaw Set Point:	-0.661	X_WP:	0.000	Y_WP:	0.000	Y_WP:	0.500	X:	-0.235	Y:	-0.240	Z:	0.047	yaw:	37.854	yaw rate:	-8.340	Roll:	-10.267	Pitch:	-1.694	Yaw:	54.286	Thrust:	100.000
Time:	4.831	Roll Set Point:	0.568	Pitch Set Point:	0.285	Yaw Set Point:	-0.661	X_WP:	0.000	Y_WP:	0.000	Y_WP:	0.500	X:	-0.235	Y:	-0.240	Z:	0.047	yaw:	37.854	yaw rate:	-8.340	Roll:	-10.245	Pitch:	-1.614	Yaw:	54.417	Thrust:	100.000
Time:	4.847	Roll Set Point:	0.569	Pitch Set Point:	0.285	Yaw Set Point:	-0.661	X_WP:	0.000	Y_WP:	0.000	Y_WP:	0.500	X:	-0.235	Y:	-0.240	Z:	0.047	yaw:	37.893	yaw rate:	2.624	Roll:	-10.427	Pitch:	-1.488	Yaw:	55.134	Thrust:	100.000
Time:	4.862	Roll Set Point:	0.568	Pitch Set Point:	0.286	Yaw Set Point:	-0.659	X_WP:	0.000	Y_WP:	0.000	Y_WP:	0.500	X:	-0.235	Y:	-0.240	Z:	0.047	yaw:	37.765	yaw rate:	-12.841	Roll:	-9.951	Pitch:	-2.309	Yaw:	52.141	Thrust:	100.000
Time:	4.878	Roll Set Point:	0.568	Pitch Set Point:	0.285	Yaw Set Point:	-0.661	X_WP:	0.000	Y_WP:	0.000	Y_WP:	0.500	X:	-0.235	Y:	-0.240	Z:	0.047	yaw:	37.870	yaw rate:	10.475	Roll:	-10.391	Pitch:	-0.887	Yaw:	56.193	Thrust:	100.000
Time:	4.893	Roll Set Point:	0.568	Pitch Set Point:	0.285	Yaw Set Point:	-0.661	X_WP:	0.000	Y_WP:	0.000	Y_WP:	0.500	X:	-0.235	Y:	-0.240	Z:	0.047	yaw:	37.844	yaw rate:	-2.585	Roll:	-10.178	Pitch:	-1.819	Yaw:	53.965	Thrust:	100.000
Time:	4.909	Roll Set Point:	0.568	Pitch Set Point:	0.285	Yaw Set Point:	-0.660	X_WP:	0.000	Y_WP:	0.000	Y_WP:	0.500	X:	-0.235	Y:	-0.240	Z:	0.047	yaw:	37.824	yaw rate:	-1.991	Roll:	-10.208	Pitch:	-1.691	Yaw:	54.045	Thrust:	100.000
Time:	4.925	Roll Set Point:	0.568	Pitch Set Point:	0.286	Yaw Set Point:	-0.660	X_WP:	0.000	Y_WP:	0.000	Y_WP:	0.500	X:	-0.235	Y:	-0.240	Z:	0.047	yaw:	37.796	yaw rate:	-2.808	Roll:	-10.258	Pitch:	-1.926	Yaw:	53.861	Thrust:	100.000
Time:	4.940	Roll Set Point:	0.568	Pitch Set Point:	0.285	Yaw Set Point:	-0.661	X_WP:	0.000	Y_WP:	0.000	Y_WP:	0.500	X:	-0.235	Y:	-0.240	Z:	0.047	yaw:	37.867	yaw rate:	7.105	Roll:	-10.291	Pitch:	-1.087	Yaw:	55.625	Thrust:	100.000
Time:	4.956	Roll Set Point:	0.568	Pitch Set Point:	0.285	Yaw Set Point:	-0.660	X_WP:	0.000	Y_WP:	0.000	Y_WP:	0.500	X:	-0.235	Y:	-0.240	Z:	0.047	yaw:	37.835	yaw rate:	-3.178	Roll:	-10.237	Pitch:	-1.850	Yaw:	53.862	Thrust:	100.000
Time:	4.972	Roll Set Point:	0.568	Pitch Set Point:	0.285	Yaw Set Point:	-0.660	X_WP:	0.000	Y_WP:	0.000	Y_WP:	0.500	X:	-0.235	Y:	-0.240	Z:	0.047	yaw:	37.835	yaw rate:	-3.178	Roll:	-10.244	Pitch:	-1.631	Yaw:	54.388	Thrust:	100.000
Time:	4.987	Roll Set Point:	0.568	Pitch Set Point:	0.285	Yaw Set Point:	-0.660	X_WP:	0.000	Y_WP:	0.000	Y_WP:	0.500	X:	-0.235	Y:	-0.240	Z:	0.047	yaw:	37.832	yaw rate:	-0.269	Roll:	-10.247	Pitch:	-1.621	Yaw:	54.342	Thrust:	100.000
Time:	5.003	Roll Set Point:	0.569	Pitch Set Point:	0.285	Yaw Set Point:	-0.661	X_WP:	0.000	Y_WP:	0.000	Y_WP:	0.500	X:	-0.235	Y:	-0.240	Z:	0.047	yaw:	37.882	yaw rate:	4.997	Roll:	-10.433	Pitch:	-1.560	Yaw:	55.294	Thrust:	100.000
Time:	5.018	Roll Set Point:	0.568	Pitch Set Point:	0.285	Yaw Set Point:	-0.661	X_WP:	0.000	Y_WP:	0.000	Y_WP:	0.500	X:	-0.235	Y:	-0.240	Z:	0.047	yaw:	37.891	yaw rate:	8.837	Roll:	-10.125	Pitch:	-1.354	Yaw:	54.606	Thrust:	100.000
Time:	5.034	Roll Set Point:	0.568	Pitch Set Point:	0.285	Yaw Set Point:	-0.661	X_WP:	0.000	Y_WP:	0.000	Y_WP:	0.500	X:	-0.235	Y:	-0.240	Z:	0.047	yaw:	37.856	yaw rate:	-3.425	Roll:	-10.211	Pitch:	-1.855	Yaw:	53.846	Thrust:	100.000
Time:	5.050	Roll Set Point:	0.568	Pitch Set Point:	0.285	Yaw Set Point:	-0.660	X_WP:	0.000	Y_WP:	0.000	Y_WP:	0.500	X:	-0.235	Y:	-0.240	Z:	0.047	yaw:	37.823	yaw rate:	-3.362	Roll:	-10.175	Pitch:	-1.847	Yaw:	53.810	Thrust:	100.000
Time:	5.065	Roll Set Point:	0.568	Pitch Set Point:	0.285	Yaw Set Point:	-0.660	X_WP:	0.000	Y_WP:	0.000	Y_WP:	0.500	X:	-0.235	Y:	-0.240	Z:	0.047	yaw:	37.827	yaw rate:	0.419	Roll:	-10.259	Pitch:	-1.627	Yaw:	54.449	Thrust:	100.000
Time:	5.081	Roll Set Point:	0.568	Pitch Set Point:	0.285	Yaw Set Point:	-0.660	X_WP:	0.000	Y_WP:	0.000	Y_WP:	0.500	X:	-0.235	Y:	-0.240	Z:	0.047	yaw:	37.827	yaw rate:	0.419	Roll:	-10.244	Pitch:	-1.645	Yaw:	54.379	Thrust:	100.000
Time:	5.097	Roll Set Point:	0.568	Pitch Set Point:	0.285	Yaw Set Point:	-0.662	X_WP:	0.000	Y_WP:	0.000	Y_WP:	0.500	X:	-0.235	Y:	-0.240	Z:	0.047	yaw:	37.901	yaw rate:	5.461	Roll:	-10.360	Pitch:	-1.157	Yaw:	55.729	Thrust:	100.000
Time:	5.112	Roll Set Point:	0.568	Pitch Set Point:	0.285	Yaw Set Point:	-0.660	X_WP:	0.000	Y_WP:	0.000	Y_WP:	0.500	X:	-0.235	Y:	-0.240	Z:	0.047	yaw:	37.814	yaw rate:	-8.735	Roll:	-10.143	Pitch:	-2.166	Yaw:	52.898	Thrust:	100.000
Time:	5.128	Roll Set Point:	0.568	Pitch Set Point:	0.285	Yaw Set Point:	-0.660	X_WP:	0.000	Y_WP:	0.000	Y_WP:	0.500	X:	-0.235	Y:	-0.240	Z:	0.047	yaw:	37.814	yaw rate:	-8.735	Roll:	-10.246	Pitch:	-1.653	Yaw:	54.367	Thrust:	100.000
Time:	5.144	Roll Set Point:	0.568	Pitch Set Point:	0.285	Yaw Set Point:	-0.661	X_WP:	0.000	Y_WP:	0.000	Y_WP:	0.500	X:	-0.235	Y:	-0.240	Z:	0.047	yaw:	37.872	yaw rate:	11.482	Roll:	-10.303	Pitch:	-1.342	Yaw:	55.421	Thrust:	100.000
Time:	5.159	Roll Set Point:	0.568	Pitch Set Point:	0.285	Yaw Set Point:	-0.661	X_WP:	0.000	Y_WP:	0.000	Y_WP:	0.500	X:	-0.235	Y:	-0.240	Z:	0.047	yaw:	37.869	yaw rate:	-0.349	Roll:	-10.236	Pitch:	-1.639	Yaw:	54.373	Thrust:	100.000
Time:	5.175	Roll Set Point:	0.568	Pitch Set Point:	0.285	Yaw Set Point:	-0.662	X_WP:	0.000	Y_WP:	0.000	Y_WP:	0.500	X:	-0.235	Y:	-0.240	Z:	0.047	yaw:	37.910	yaw rate:	4.058	Roll:	-10.298	Pitch:	-1.339	Yaw:	55.174	Thrust:	100.000
Time:	5.190	Roll Set Point:	0.568	Pitch Set Point:	0.285	Yaw Set Point:	-0.661	X_WP:	0.000	Y_WP:	0.000	Y_WP:	0.500	X:	-0.235	Y:	-0.240	Z:	0.047	yaw:	37.887	yaw rate:	-2.210	Roll:	-10.197	Pitch:	-1.803	Yaw:	54.093	Thrust:	100.000
Time:	5.206	Roll Set Point:	0.568	Pitch Set Point:	0.285	Yaw Set Point:	-0.661	X_WP:	0.000	Y_WP:	0.000	Y_WP:	0.500	X:	-0.235	Y:	-0.240	Z:	0.047	yaw:	37.844	yaw rate:	-4.336	Roll:	-10.206	Pitch:	-1.932	Yaw:	53.677	Thrust:	100.000
Time:	5.222	Roll Set Point:	0.568	Pitch Set Point:	0.285	Yaw Set Point:	-0.661	X_WP:	0.000	Y_WP:	0.000	Y_WP:	0.500	X:	-0.235	Y:	-0.240	Z:	0.047	yaw:	37.844	yaw rate:	-4.336	Roll:	-10.246	Pitch:	-1.658	Yaw:	54.406	Thrust:	100.000
Time:	5.237	Roll Set Point:	0.568	Pitch Set Point:	0.285	Yaw Set Point:	-0.661	X_WP:	0.000	Y_WP:	0.000	Y_WP:	0.500	X:	-0.235	Y:	-0.240	Z:	0.047	yaw:	37.861	yaw rate:	1.685	Roll:	-10.277	Pitch:	-1.591	Yaw:	54.709	Thrust:	100.000
Time:	5.253	Roll Set Point:	0.568	Pitch Set Point:	0.285	Yaw Set Point:	-0.660	X_WP:	0.000	Y_WP:	0.000	Y_WP:	0.500	X:	-0.235	Y:	-0.240	Z:	0.047	yaw:	37.827	yaw rate:	0.527	Roll:	-10.189	Pitch:	-1.822	Yaw:	53.812	Thrust:	100.000
Time:	5.268	Roll Set Point:	0.568	Pitch Set Point:	0.285	Yaw Set Point:	-0.660	X_WP:	0.000	Y_WP:	0.000	Y_WP:	0.500	X:	-0.235	Y:	-0.240	Z:	0.047	yaw:	37.827	yaw rate:	0.527	Roll:	-10.245	Pitch:	-1.666	Yaw:	54.382	Thrust:	100.000
Time:	5.284	Roll Set Point:	0.568	Pitch Set Point:	0.285	Yaw Set Point:	-0.660	X_WP:	0.000	Y_WP:	0.000	Y_WP:	0.500	X:	-0.235	Y:	-0.240	Z:	0.047	yaw:	37.834	yaw rate:	-5.760	Roll:	-10.258	Pitch:	-1.642	Yaw:	54.492	Thrust:	100.000
Time:	5.300	Roll Set Point:	0.568	Pitch Set Point:	0.285	Yaw Set Point:	-0.660	X_WP:	0.000	Y_WP:	0.000	Y_WP:	0.500	X:	-0.235	Y:	-0.240	Z:	0.047	yaw:	37.834	yaw rate:	-5.760	Roll:	-10.244	Pitch:	-1.668	Yaw:	54.388	Thrust:	100.000
Time:	5.315	Roll Set Point:	0.569	Pitch Set Point:	0.285	Yaw Set Point:	-0.661	X_WP:	0.000	Y_WP:	0.000	Y_WP:	0.500	X:	-0.235	Y:	-0.240	Z:	0.047	yaw:	37.870	yaw rate:	-2.125	Roll:	-10.416	Pitch:	-1.644	Yaw:	55.044	Thrust:	100.000
Time:	5.331	Roll Set Point:	0.569	Pitch Set Point:	0.285	Yaw Set Point:	-0.661	X_WP:	0.000	Y_WP:	0.000	Y_WP:	0.500	X:	-0.235	Y:	-0.240	Z:	0.047	yaw:	37.870	yaw rate:	-2.125	Roll:	-10.249	Pitch:	-1.671	Yaw:	54.439	Thrust:	100.000
Time:	5.347	Roll Set Point:	0.568	Pitch Set Point:	0.285	Yaw Set Point:	-0.660	X_WP:	0.000	Y_WP:	0.000	Y_WP:	0.500	X:	-0.235	Y:	-0.240	Z:	0.047	yaw:	37.830	yaw rate:	0.603	Roll:	-10.057	Pitch:	-1.745	Yaw:	53.726	Thrust:	100.000
Time:	5.362	Roll Set Point:	0.568	Pitch Set Point:	0.285	Yaw Set Point:	-0.660	X_WP:	0.000	Y_WP:	0.000	Y_WP:	0.500	X:	-0.235	Y:	-0.240	Z:	0.047	yaw:	37.830	yaw rate:	0.603	Roll:	-10.244	Pitch:	-1.676	Yaw:	54.384	Thrust:	100.000
Time:	5.378	Roll Set Point:	0.568	Pitch Set Point:	0.285	Yaw Set Point:	-0.660	X_WP:	0.000	Y_WP:	0.000	Y_WP:	0.500	X:	-0.235	Y:	-0.240	Z:	0.047	yaw:	37.843	yaw rate:	-4.616	Roll:	-10.300	Pitch:	-1.624	Yaw:	54.612	Thrust:	100.000
Time:	5.393	Roll Set Point:	0.568	Pitch Set Point:	0.285	Yaw Set Point:	-0.660	X_WP:	0.000	Y_WP:	0.000	Y_WP:	0.500	X:	-0.235	Y:	-0.240	Z:	0.047	yaw:	37.787	yaw rate:	-5.591	Roll:	-10.181	Pitch:	-2.001	Yaw:	53.387	Thrust:	100.000
Time:	5.409	Roll Set Point:	0.568	Pitch Set Point:	0.285	Yaw Set Point:	-0.661	X_WP:	0.000	Y_WP:	0.000	Y_WP:	0.500	X:	-0.235	Y:	-0.240	Z:	0.047	yaw:	37.851	yaw rate:	6.371	Roll:	-10.308	Pitch:	-1.307	Yaw:	55.480	Thrust:	100.000
Time:	5.425	Roll Set Point:	0.568	Pitch Set Point:	0.285	Yaw Set Point:	-0.661	X_WP:	0.000	Y_WP:	0.000	Y_WP:	0.500	X:	-0.235	Y:	-0.240	Z:	0.047	yaw:	37.849	yaw rate:	-0.143	Roll:	-10.218	Pitch:	-1.637	Yaw:	54.387	Thrust:	100.000
Time:	5.440	Roll Set Point:	0.568	Pitch Set Point:	0.285	Yaw Set Point:	-0.660	X_WP:	0.000	Y_WP:	0.000	Y_WP:	0.500	X:	-0.235	Y:	-0.240	Z:	0.047	yaw:	37.831	yaw rate:	-1.865	Roll:	-10.231	Pitch:	-1.832	Yaw:	54.072	Thrust:	100.000
Time:	5.456	Roll Set Point:	0.568	Pitch Set Point:	0.285	Yaw Set Point:	-0.660	X_WP:	0.000	Y_WP:	0.000	Y_WP:	0.500	X:	-0.235	Y:	-0.240	Z:	0.047	yaw:	37.831	yaw rate:	-1.865	Roll:	-10.244	Pitch:	-1.687	Yaw:	54.384	Thrust:	100.000
Time:	5.472	Roll Set Point:	0.568	Pitch Set Point:	0.285	Yaw Set Point:	-0.661	X_WP:	0.000	Y_WP:	0.000	Y_WP:	0.500	X:	-0.235	Y:	-0.240	Z:	0.047	yaw:	37.859	yaw rate:	0.030	Roll:	-10.413	Pitch:	-1.698	Yaw:	54.898	Thrust:	100.000
Time:	5.487	Roll Set Point:	0.568	Pitch Set Point:	0.285	Yaw Set Point:	-0.660	X_WP:	0.000	Y_WP:	0.000	Y_WP:	0.500	X:	-0.235	Y:	-0.240	Z:	0.047	yaw:	37.805	yaw rate:	-5.425	Roll:	-10.024	Pitch:	-1.885	Yaw:	53.439	Thrust:	100.000
Time:	5.503	Roll Set Point:	0.568	Pitch Set Point:	0.285	Yaw Set Point:	-0.661	X_WP:	0.000	Y_WP:	0.000	Y_WP:	0.500	X:	-0.235	Y:	-0.240	Z:	0.047	yaw:	37.864	yaw rate:	5.900	Roll:	-10.462	Pitch:	-1.454	Yaw:	55.419	Thrust:	100.000
Time:	5.518	Roll Set Point:	0.568	Pitch Set Point:	0.285	Yaw Set Point:	-0.660	X_WP:	0.000	Y_WP:	0.000	Y_WP:	0.500	X:	-0.235	Y:	-0.240	Z:	0.047	yaw:	37.823	yaw rate:	-4.111	Roll:	-10.114	Pitch:	-1.828	Yaw:	53.684	Thrust:	100.000
Time:	5.547	Roll Set Point:	0.568	Pitch Set Point:	0.285	Yaw Set Point:	-0.661	X_WP:	0.000	Y_WP:	0.000	Y_WP:	0.500	X:	-0.235	Y:	-0.240	Z:	0.047	yaw:	37.862	yaw rate:	3.978	Roll:	-10.731	Pitch:	-1.865	Yaw:	56.069	Thrust:	100.000
Time:	5.562	Roll Set Point:	0.568	Pitch Set Point:	0.285	Yaw Set Point:	-0.660	X_WP:	0.000	Y_WP:	0.000	Y_WP:	0.500	X:	-0.235	Y:	-0.240	Z:	0.047	yaw:	37.827	yaw rate:	-10.433	Roll:	-10.169	Pitch:	-1.874	Yaw:	53.785	Thrust:	100.000
Time:	5.578	Roll Set Point:	0.568	Pitch Set Point:	0.285	Yaw Set Point:	-0.661	X_WP:	0.000	Y_WP:	0.000	Y_WP:	0.500	X:	-0.235	Y:	-0.240	Z:	0.047	yaw:	37.846	yaw rate:	1.945	Roll:	-10.336	Pitch:	-1.611	Yaw:	54.732	Thrust:	100.000
Time:	5.594	Roll Set Point:	0.568	Pitch Set Point:	0.285	Yaw Set Point:	-0.660	X_WP:	0.000	Y_WP:	0.000	Y_WP:	0.500	X:	-0.235	Y:	-0.240	Z:	0.047	yaw:	37.824	yaw rate:	-2.220	Roll:	-10.210	Pitch:	-1.847	Yaw:	54.003	Thrust:	100.000
Time:	5.609	Roll Set Point:	0.568	Pitch Set Point:	0.285	Yaw Set Point:	-0.660	X_WP:	0.000	Y_WP:	0.000	Y_WP:	0.500	X:	-0.235	Y:	-0.240	Z:	0.047	yaw:	37.831	yaw rate:	0.670	Roll:	-10.224	Pitch:	-1.586	Yaw:	54.497	Thrust:	100.000
Time:	5.625	Roll Set Point:	0.568	Pitch Set Point:	0.285	Yaw Set Point:	-0.660	X_WP:	0.000	Y_WP:	0.000	Y_WP:	0.500	X:	-0.235	Y:	-0.240	Z:	0.047	yaw:	37.792	yaw rate:	-3.872	Roll:	-10.201	Pitch:	-2.000	Yaw:	53.682	Thrust:	100.000
Time:	5.641	Roll Set Point:	0.568	Pitch Set Point:	0.285	Yaw Set Point:	-0.660	X_WP:	0.000	Y_WP:	0.000	Y_WP:	0.500	X:	-0.235	Y:	-0.240	Z:	0.047	yaw:	37.803	yaw rate:	1.107	Roll:	-10.301	Pitch:	-1.629	Yaw:	54.531	Thrust:	100.000
Time:	5.656	Roll Set Point:	0.568	Pitch Set Point:	0.285	Yaw Set Point:	-0.660	X_WP:	0.000	Y_WP:	0.000	Y_WP:	0.500	X:	-0.235	Y:	-0.240	Z:	0.047	yaw:	37.803	yaw rate:	1.107	Roll:	-10.246	Pitch:	-1.713	Yaw:	54.349	Thrust:	100.000
Time:	5.672	Roll Set Point:	0.568	Pitch Set Point:	0.285	Yaw Set Point:	-0.660	X_WP:	0.000	Y_WP:	0.000	Y_WP:	0.500	X:	-0.235	Y:	-0.240	Z:	0.047	yaw:	37.839	yaw rate:	3.539	Roll:	-10.277	Pitch:	-1.548	Yaw:	54.988	Thrust:	100.000
Time:	5.687	Roll Set Point:	0.568	Pitch Set Point:	0.285	Yaw Set Point:	-0.660	X_WP:	0.000	Y_WP:	0.000	Y_WP:	0.500	X:	-0.235	Y:	-0.240	Z:	0.047	yaw:	37.822	yaw rate:	-7.910	Roll:	-10.206	Pitch:	-1.731	Yaw:	54.082	Thrust:	100.000
Time:	5.703	Roll Set Point:	0.568	Pitch Set Point:	0.285	Yaw Set Point:	-0.661	X_WP:	0.000	Y_WP:	0.000	Y_WP:	0.500	X:	-0.235	Y:	-0.240	Z:	0.047	yaw:	37.884	yaw rate:	6.187	Roll:	-10.300	Pitch:	-1.325	Yaw:	55.495	Thrust:	100.000
Time:	5.719	Roll Set Point:	0.568	Pitch Set Point:	0.285	Yaw Set Point:	-0.661	X_WP:	0.000	Y_WP:	0.000	Y_WP:	0.500	X:	-0.235	Y:	-0.240	Z:	0.047	yaw:	37.884	yaw rate:	6.187	Roll:	-10.246	Pitch:	-1.706	Yaw:	54.458	Thrust:	100.000
Time:	5.734	Roll Set Point:	0.569	Pitch Set Point:	0.285	Yaw Set Point:	-0.661	X_WP:	0.000	Y_WP:	0.000	Y_WP:	0.500	X:	-0.235	Y:	-0.240	Z:	0.047	yaw:	37.883	yaw rate:	-0.116	Roll:	-10.380	Pitch:	-1.937	Yaw:	54.443	Thrust:	100.000
Time:	5.750	Roll Set Point:	0.568	Pitch Set Point:	0.285	Yaw Set Point:	-0.660	X_WP:	0.000	Y_WP:	0.000	Y_WP:	0.500	X:	-0.235	Y:	-0.240	Z:	0.047	yaw:	37.828	yaw rate:	-5.505	Roll:	-10.050	Pitch:	-1.808	Yaw:	53.456	Thrust:	100.000
Time:	5.766	Roll Set Point:	0.568	Pitch Set Point:	0.285	Yaw Set Point:	-0.660	X_WP:	0.000	Y_WP:	0.000	Y_WP:	0.500	X:	-0.235	Y:	-0.240	Z:	0.047	yaw:	37.828	yaw rate:	-5.505	Roll:	-10.244	Pitch:	-1.719	Yaw:	54.380	Thrust:	100.000
Time:	5.781	Roll Set Point:	0.568	Pitch Set Point:	0.286	Yaw Set Point:	-0.659	X_WP:	0.000	Y_WP:	0.000	Y_WP:	0.500	X:	-0.235	Y:	-0.240	Z:	0.047	yaw:	37.768	yaw rate:	-5.446	Roll:	-10.208	Pitch:	-2.180	Yaw:	53.310	Thrust:	100.000
Time:	5.797	Roll Set Point:	0.568	Pitch Set Point:	0.286	Yaw Set Point:	-0.659	X_WP:	0.000	Y_WP:	0.000	Y_WP:	0.500	X:	-0.235	Y:	-0.240	Z:	0.047	yaw:	37.768	yaw rate:	-5.446	Roll:	-10.243	Pitch:	-1.735	Yaw:	54.297	Thrust:	100.000
Time:	5.812	Roll Set Point:	0.568	Pitch Set Point:	0.285	Yaw Set Point:	-0.660	X_WP:	0.000	Y_WP:	0.000	Y_WP:	0.500	X:	-0.235	Y:	-0.240	Z:	0.047	yaw:	37.801	yaw rate:	3.301	Roll:	-10.244	Pitch:	-1.527	Yaw:	54.894	Thrust:	100.000
Time:	5.828	Roll Set Point:	0.568	Pitch Set Point:	0.285	Yaw Set Point:	-0.660	X_WP:	0.000	Y_WP:	0.000	Y_WP:	0.500	X:	-0.235	Y:	-0.240	Z:	0.047	yaw:	37.820	yaw rate:	2.393	Roll:	-10.274	Pitch:	-1.608	Yaw:	54.685	Thrust:	100.000
Time:	5.844	Roll Set Point:	0.568	Pitch Set Point:	0.286	Yaw Set Point:	-0.660	X_WP:	0.000	Y_WP:	0.000	Y_WP:	0.500	X:	-0.235	Y:	-0.240	Z:	0.047	yaw:	37.800	yaw rate:	-2.066	Roll:	-10.230	Pitch:	-1.909	Yaw:	53.994	Thrust:	100.000
Time:	5.859	Roll Set Point:	0.568	Pitch Set Point:	0.285	Yaw Set Point:	-0.661	X_WP:	0.000	Y_WP:	0.000	Y_WP:	0.500	X:	-0.235	Y:	-0.240	Z:	0.047	yaw:	37.864	yaw rate:	6.444	Roll:	-10.312	Pitch:	-1.216	Yaw:	55.511	Thrust:	100.000
Time:	5.875	Roll Set Point:	0.568	Pitch Set Point:	0.285	Yaw Set Point:	-0.660	X_WP:	0.000	Y_WP:	0.000	Y_WP:	0.500	X:	-0.235	Y:	-0.240	Z:	0.047	yaw:	37.831	yaw rate:	-3.307	Roll:	-10.195	Pitch:	-1.974	Yaw:	53.826	Thrust:	100.000
Time:	5.891	Roll Set Point:	0.568	Pitch Set Point:	0.285	Yaw Set Point:	-0.660	X_WP:	0.000	Y_WP:	0.000	Y_WP:	0.500	X:	-0.235	Y:	-0.240	Z:	0.047	yaw:	37.833	yaw rate:	0.220	Roll:	-10.287	Pitch:	-1.690	Yaw:	54.425	Thrust:	100.000
Time:	5.906	Roll Set Point:	0.568	Pitch Set Point:	0.285	Yaw Set Point:	-0.660	X_WP:	0.000	Y_WP:	0.000	Y_WP:	0.500	X:	-0.235	Y:	-0.240	Z:	0.047	yaw:	37.801	yaw rate:	-3.217	Roll:	-10.204	Pitch:	-2.024	Yaw:	53.804	Thrust:	100.000
Time:	5.922	Roll Set Point:	0.568	Pitch Set Point:	0.285	Yaw Set Point:	-0.660	X_WP:	0.000	Y_WP:	0.000	Y_WP:	0.500	X:	-0.235	Y:	-0.240	Z:	0.047	yaw:	37.801	yaw rate:	-3.217	Roll:	-10.244	Pitch:	-1.744	Yaw:	54.342	Thrust:	100.000
Time:	5.938	Roll Set Point:	0.568	Pitch Set Point:	0.285	Yaw Set Point:	-0.660	X_WP:	0.000	Y_WP:	0.000	Y_WP:	0.500	X:	-0.235	Y:	-0.240	Z:	0.047	yaw:	37.796	yaw rate:	-2.979	Roll:	-10.203	Pitch:	-1.719	Yaw:	54.262	Thrust:	100.000
Time:	5.953	Roll Set Point:	0.568	Pitch Set Point:	0.285	Yaw Set Point:	-0.660	X_WP:	0.000	Y_WP:	0.000	Y_WP:	0.500	X:	-0.235	Y:	-0.240	Z:	0.047	yaw:	37.796	yaw rate:	-2.979	Roll:	-10.243	Pitch:	-1.747	Yaw:	54.337	Thrust:	100.000
Time:	5.969	Roll Set Point:	0.568	Pitch Set Point:	0.285	Yaw Set Point:	-0.660	X_WP:	0.000	Y_WP:	0.000	Y_WP:	0.500	X:	-0.235	Y:	-0.240	Z:	0.047	yaw:	37.843	yaw rate:	4.878	Roll:	-10.303	Pitch:	-1.473	Yaw:	55.181	Thrust:	100.000
Time:	5.984	Roll Set Point:	0.568	Pitch Set Point:	0.285	Yaw Set Point:	-0.661	X_WP:	0.000	Y_WP:	0.000	Y_WP:	0.500	X:	-0.235	Y:	-0.240	Z:	0.047	yaw:	37.849	yaw rate:	0.642	Roll:	-10.261	Pitch:	-1.710	Yaw:	54.518	Thrust:	100.000
Time:	6.000	Roll Set Point:	0.227	Pitch Set Point:	0.178	Yaw Set Point:	-0.661	X_WP:	-0.204	Y_WP:	-0.294	Y_WP:	0.500	X:	-0.235	Y:	-0.240	Z:	0.047	yaw:	37.849	yaw rate:	0.642	Roll:	30.000	Pitch:	30.000	Yaw:	54.410	Thrust:	100.000
Time:	6.016	Roll Set Point:	0.227	Pitch Set Point:	0.178	Yaw Set Point:	-0.661	X_WP:	-0.204	Y_WP:	-0.294	Y_WP:	0.500	X:	-0.235	Y:	-0.240	Z:	0.047	yaw:	37.858	yaw rate:	0.894	Roll:	-0.325	Pitch:	1.355	Yaw:	54.573	Thrust:	100.000
Time:	6.031	Roll Set Point:	0.227	Pitch Set Point:	0.178	Yaw Set Point:	-0.661	X_WP:	-0.204	Y_WP:	-0.294	Y_WP:	0.500	X:	-0.235	Y:	-0.240	Z:	0.047	yaw:	37.861	yaw rate:	4.300	Roll:	-0.349	Pitch:	1.364	Yaw:	54.466	Thrust:	100.000
Time:	6.047	Roll Set Point:	0.227	Pitch Set Point:	0.178	Yaw Set Point:	-0.660	X_WP:	-0.204	Y_WP:	-0.294	Y_WP:	0.500	X:	-0.235	Y:	-0.240	Z:	0.047	yaw:	37.842	yaw rate:	-1.868	Roll:	-0.377	Pitch:	1.370	Yaw:	54.087	Thrust:	100.000
Time:	6.063	Roll Set Point:	0.227	Pitch Set Point:	0.178	Yaw Set Point:	-0.661	X_WP:	-0.204	Y_WP:	-0.294	Y_WP:	0.500	X:	-0.235	Y:	-0.240	Z:	0.047	yaw:	37.887	yaw rate:	4.474	Roll:	-0.275	Pitch:	1.356	Yaw:	55.212	Thrust:	100.000
Time:	6.078	Roll Set Point:	0.227	Pitch Set Point:	0.178	Yaw Set Point:	-0.659	X_WP:	-0.204	Y_WP:	-0.294	Y_WP:	0.500	X:	-0.235	Y:	-0.240	Z:	0.047	yaw:	37.753	yaw rate:	-13.362	Roll:	-0.515	Pitch:	1.394	Yaw:	52.037	Thrust:	100.000
Time:	6.094	Roll Set Point:	0.227	Pitch Set Point:	0.178	Yaw Set Point:	-0.660	X_WP:	-0.204	Y_WP:	-0.294	Y_WP:	0.500	X:	-0.235	Y:	-0.240	Z:	0.047	yaw:	37.829	yaw rate:	7.537	Roll:	-0.255	Pitch:	1.364	Yaw:	55.644	Thrust:	100.000
Time:	6.109	Roll Set Point:	0.227	Pitch Set Point:	0.178	Yaw Set Point:	-0.660	X_WP:	-0.204	Y_WP:	-0.294	Y_WP:	0.500	X:	-0.235	Y:	-0.240	Z:	0.047	yaw:	37.817	yaw rate:	-1.106	Roll:	-0.361	Pitch:	1.378	Yaw:	54.181	Thrust:	100.000
Time:	6.125	Roll Set Point:	0.227	Pitch Set Point:	0.178	Yaw Set Point:	-0.660	X_WP:	-0.204	Y_WP:	-0.294	Y_WP:	0.500	X:	-0.235	Y:	-0.240	Z:	0.047	yaw:	37.830	yaw rate:	1.301	Roll:	-0.323	Pitch:	1.373	Yaw:	54.602	Thrust:	100.000
Time:	6.141	Roll Set Point:	0.227	Pitch Set Point:	0.178	Yaw Set Point:	-0.660	X_WP:	-0.204	Y_WP:	-0.294	Y_WP:	0.500	X:	-0.235	Y:	-0.240	Z:	0.047	yaw:	37.814	yaw rate:	-1.610	Roll:	-0.365	Pitch:	1.384	Yaw:	54.095	Thrust:	100.000
Time:	6.156	Roll Set Point:	0.227	Pitch Set Point:	0.178	Yaw Set Point:	-0.660	X_WP:	-0.204	Y_WP:	-0.294	Y_WP:	0.500	X:	-0.235	Y:	-0.240	Z:	0.047	yaw:	37.836	yaw rate:	2.135	Roll:	-0.315	Pitch:	1.380	Yaw:	54.747	Thrust:	100.000
Time:	6.172	Roll Set Point:	0.227	Pitch Set Point:	0.178	Yaw Set Point:	-0.660	X_WP:	-0.204	Y_WP:	-0.294	Y_WP:	0.500	X:	-0.235	Y:	-0.240	Z:	0.047	yaw:	37.793	yaw rate:	-4.229	Roll:	-0.392	Pitch:	1.391	Yaw:	53.624	Thrust:	100.000
Time:	6.188	Roll Set Point:	0.227	Pitch Set Point:	0.178	Yaw Set Point:	-0.660	X_WP:	-0.204	Y_WP:	-0.294	Y_WP:	0.500	X:	-0.235	Y:	-0.240	Z:	0.047	yaw:	37.793	yaw rate:	-4.229	Roll:	-0.344	Pitch:	1.388	Yaw:	54.332	Thrust:	100.000
Time:	6.203	Roll Set Point:	0.227	Pitch Set Point:	0.178	Yaw Set Point:	-0.660	X_WP:	-0.204	Y_WP:	-0.294	Y_WP:	0.500	X:	-0.235	Y:	-0.240	Z:	0.047	yaw:	37.823	yaw rate:	3.976	Roll:	-0.318	Pitch:	1.387	Yaw:	54.872	Thrust:	100.000
Time:	6.219	Roll Set Point:	0.227	Pitch Set Point:	0.178	Yaw Set Point:	-0.660	X_WP:	-0.204	Y_WP:	-0.294	Y_WP:	0.500	X:	-0.235	Y:	-0.240	Z:	0.047	yaw:	37.823	yaw rate:	3.976	Roll:	-0.343	Pitch:	1.392	Yaw:	54.374	Thrust:	100.000
Time:	6.234	Roll Set Point:	0.227	Pitch Set Point:	0.178	Yaw Set Point:	-0.660	X_WP:	-0.204	Y_WP:	-0.294	Y_WP:	0.500	X:	-0.235	Y:	-0.240	Z:	0.047	yaw:	37.828	yaw rate:	0.509	Roll:	-0.335	Pitch:	1.392	Yaw:	54.466	Thrust:	100.000
Time:	6.250	Roll Set Point:	0.227	Pitch Set Point:	0.178	Yaw Set Point:	-0.660	X_WP:	-0.204	Y_WP:	-0.294	Y_WP:	0.500	X:	-0.235	Y:	-0.240	Z:	0.047	yaw:	37.804	yaw rate:	-2.431	Roll:	-0.371	Pitch:	1.401	Yaw:	53.939	Thrust:	100.000
