Time:	2.463	Roll Set Point:	-0.015	Pitch Set Point:	0.029	Yaw Set Point:	-2.958	X_WP:	0.000	Y_WP:	0.000	Y_WP:	0.500	X:	0.163	Y:	0.069	Z:	0.401	yaw:	169.487	yaw rate:	-1.082	Roll:	-4.281	Pitch:	-2.820	Yaw:	236.649	Thrust:	5.454
Time:	2.500	Roll Set Point:	-0.015	Pitch Set Point:	0.029	Yaw Set Point:	-2.958	X_WP:	0.000	Y_WP:	0.000	Y_WP:	0.500	X:	0.163	Y:	0.069	Z:	0.401	yaw:	169.501	yaw rate:	1.339	Roll:	-4.300	Pitch:	-2.812	Yaw:	238.937	Thrust:	5.805
Time:	2.531	Roll Set Point:	-0.015	Pitch Set Point:	0.029	Yaw Set Point:	-2.958	X_WP:	0.000	Y_WP:	0.000	Y_WP:	0.500	X:	0.163	Y:	0.069	Z:	0.401	yaw:	169.480	yaw rate:	-0.058	Roll:	-4.278	Pitch:	-2.867	Yaw:	239.593	Thrust:	6.225
Time:	2.568	Roll Set Point:	-0.015	Pitch Set Point:	0.029	Yaw Set Point:	-2.958	X_WP:	0.000	Y_WP:	0.000	Y_WP:	0.500	X:	0.163	Y:	0.069	Z:	0.401	yaw:	169.496	yaw rate:	1.626	Roll:	-4.329	Pitch:	-2.829	Yaw:	240.447	Thrust:	6.768
Time:	2.599	Roll Set Point:	-0.015	Pitch Set Point:	0.029	Yaw Set Point:	-2.958	X_WP:	0.000	Y_WP:	0.000	Y_WP:	0.500	X:	0.163	Y:	0.069	Z:	0.401	yaw:	169.470	yaw rate:	-2.605	Roll:	-4.316	Pitch:	-2.881	Yaw:	239.532	Thrust:	7.004
Time:	2.630	Roll Set Point:	-0.015	Pitch Set Point:	0.029	Yaw Set Point:	-2.958	X_WP:	0.000	Y_WP:	0.000	Y_WP:	0.500	X:	0.163	Y:	0.069	Z:	0.401	yaw:	169.494	yaw rate:	2.405	Roll:	-4.343	Pitch:	-2.827	Yaw:	239.986	Thrust:	7.266
Time:	2.662	Roll Set Point:	-0.015	Pitch Set Point:	0.029	Yaw Set Point:	-2.958	X_WP:	0.000	Y_WP:	0.000	Y_WP:	0.500	X:	0.163	Y:	0.069	Z:	0.401	yaw:	169.471	yaw rate:	-2.317	Roll:	-4.339	Pitch:	-2.891	Yaw:	239.558	Thrust:	7.651
Time:	2.693	Roll Set Point:	-0.015	Pitch Set Point:	0.029	Yaw Set Point:	-2.958	X_WP:	0.000	Y_WP:	0.000	Y_WP:	0.500	X:	0.163	Y:	0.069	Z:	0.401	yaw:	169.484	yaw rate:	1.233	Roll:	-4.372	Pitch:	-2.866	Yaw:	239.872	Thrust:	8.041
Time:	2.740	Roll Set Point:	-0.015	Pitch Set Point:	0.029	Yaw Set Point:	-2.958	X_WP:	0.000	Y_WP:	0.000	Y_WP:	0.500	X:	0.163	Y:	0.069	Z:	0.401	yaw:	169.488	yaw rate:	0.437	Roll:	-4.416	Pitch:	-2.906	Yaw:	241.362	Thrust:	9.967
Time:	2.787	Roll Set Point:	-0.015	Pitch Set Point:	0.029	Yaw Set Point:	-2.958	X_WP:	0.000	Y_WP:	0.000	Y_WP:	0.500	X:	0.163	Y:	0.069	Z:	0.401	yaw:	169.494	yaw rate:	1.337	Roll:	-4.446	Pitch:	-2.914	Yaw:	241.379	Thrust:	10.453
Time:	2.818	Roll Set Point:	-0.015	Pitch Set Point:	0.029	Yaw Set Point:	-2.958	X_WP:	0.000	Y_WP:	0.000	Y_WP:	0.500	X:	0.163	Y:	0.069	Z:	0.401	yaw:	169.469	yaw rate:	-2.438	Roll:	-4.376	Pitch:	-2.935	Yaw:	239.545	Thrust:	9.108
Time:	2.849	Roll Set Point:	-0.015	Pitch Set Point:	0.029	Yaw Set Point:	-2.958	X_WP:	0.000	Y_WP:	0.000	Y_WP:	0.500	X:	0.163	Y:	0.069	Z:	0.401	yaw:	169.475	yaw rate:	0.525	Roll:	-4.415	Pitch:	-2.893	Yaw:	239.801	Thrust:	9.618
Time:	2.880	Roll Set Point:	-0.015	Pitch Set Point:	0.029	Yaw Set Point:	-2.958	X_WP:	0.000	Y_WP:	0.000	Y_WP:	0.500	X:	0.163	Y:	0.069	Z:	0.401	yaw:	169.486	yaw rate:	1.110	Roll:	-4.408	Pitch:	-2.906	Yaw:	239.865	Thrust:	9.825
Time:	2.912	Roll Set Point:	-0.015	Pitch Set Point:	0.029	Yaw Set Point:	-2.958	X_WP:	0.000	Y_WP:	0.000	Y_WP:	0.500	X:	0.163	Y:	0.069	Z:	0.401	yaw:	169.489	yaw rate:	0.312	Roll:	-4.457	Pitch:	-2.906	Yaw:	239.802	Thrust:	10.306
Time:	2.943	Roll Set Point:	-0.015	Pitch Set Point:	0.029	Yaw Set Point:	-2.958	X_WP:	0.000	Y_WP:	0.000	Y_WP:	0.500	X:	0.163	Y:	0.069	Z:	0.401	yaw:	169.495	yaw rate:	0.636	Roll:	-4.446	Pitch:	-2.907	Yaw:	239.839	Thrust:	10.693
Time:	2.974	Roll Set Point:	-0.015	Pitch Set Point:	0.029	Yaw Set Point:	-2.958	X_WP:	0.000	Y_WP:	0.000	Y_WP:	0.500	X:	0.163	Y:	0.069	Z:	0.401	yaw:	169.476	yaw rate:	-0.773	Roll:	-4.419	Pitch:	-2.978	Yaw:	239.598	Thrust:	10.979
Time:	3.005	Roll Set Point:	-0.015	Pitch Set Point:	0.029	Yaw Set Point:	-2.958	X_WP:	0.000	Y_WP:	0.000	Y_WP:	0.500	X:	0.163	Y:	0.069	Z:	0.401	yaw:	169.476	yaw rate:	-2.627	Roll:	-4.482	Pitch:	-2.922	Yaw:	239.765	Thrust:	11.416
Time:	3.037	Roll Set Point:	-0.015	Pitch Set Point:	0.029	Yaw Set Point:	-2.958	X_WP:	0.000	Y_WP:	0.000	Y_WP:	0.500	X:	0.163	Y:	0.069	Z:	0.401	yaw:	169.493	yaw rate:	1.693	Roll:	-4.494	Pitch:	-2.947	Yaw:	239.922	Thrust:	11.800
Time:	3.068	Roll Set Point:	-0.015	Pitch Set Point:	0.029	Yaw Set Point:	-2.958	X_WP:	0.000	Y_WP:	0.000	Y_WP:	0.500	X:	0.163	Y:	0.069	Z:	0.401	yaw:	169.495	yaw rate:	-0.294	Roll:	-4.488	Pitch:	-2.933	Yaw:	239.805	Thrust:	12.106
Time:	3.099	Roll Set Point:	-0.015	Pitch Set Point:	0.029	Yaw Set Point:	-2.958	X_WP:	0.000	Y_WP:	0.000	Y_WP:	0.500	X:	0.163	Y:	0.069	Z:	0.401	yaw:	169.493	yaw rate:	-0.282	Roll:	-4.475	Pitch:	-2.988	Yaw:	239.758	Thrust:	12.555
Time:	3.130	Roll Set Point:	-0.015	Pitch Set Point:	0.029	Yaw Set Point:	-2.958	X_WP:	0.000	Y_WP:	0.000	Y_WP:	0.500	X:	0.163	Y:	0.069	Z:	0.401	yaw:	169.493	yaw rate:	0.080	Roll:	-4.530	Pitch:	-2.955	Yaw:	239.790	Thrust:	12.890
Time:	3.162	Roll Set Point:	-0.015	Pitch Set Point:	0.029	Yaw Set Point:	-2.958	X_WP:	0.000	Y_WP:	0.000	Y_WP:	0.500	X:	0.163	Y:	0.069	Z:	0.401	yaw:	169.478	yaw rate:	0.224	Roll:	-4.483	Pitch:	-3.024	Yaw:	239.635	Thrust:	13.249
Time:	3.193	Roll Set Point:	-0.015	Pitch Set Point:	0.029	Yaw Set Point:	-2.958	X_WP:	0.000	Y_WP:	0.000	Y_WP:	0.500	X:	0.163	Y:	0.069	Z:	0.401	yaw:	169.502	yaw rate:	2.389	Roll:	-4.592	Pitch:	-2.923	Yaw:	239.992	Thrust:	13.668
Time:	3.224	Roll Set Point:	-0.015	Pitch Set Point:	0.029	Yaw Set Point:	-2.958	X_WP:	0.000	Y_WP:	0.000	Y_WP:	0.500	X:	0.163	Y:	0.069	Z:	0.401	yaw:	169.458	yaw rate:	-4.440	Roll:	-4.461	Pitch:	-3.099	Yaw:	239.362	Thrust:	13.927
Time:	3.255	Roll Set Point:	-0.015	Pitch Set Point:	0.029	Yaw Set Point:	-2.958	X_WP:	0.000	Y_WP:	0.000	Y_WP:	0.500	X:	0.163	Y:	0.069	Z:	0.401	yaw:	169.506	yaw rate:	4.830	Roll:	-4.661	Pitch:	-2.891	Yaw:	240.205	Thrust:	14.443
Time:	3.287	Roll Set Point:	-0.015	Pitch Set Point:	0.028	Yaw Set Point:	-2.965	X_WP:	0.000	Y_WP:	0.000	Y_WP:	0.500	X:	0.163	Y:	0.069	Z:	0.401	yaw:	169.869	yaw rate:	36.288	Roll:	-4.854	Pitch:	-2.389	Yaw:	243.347	Thrust:	14.446
Time:	3.318	Roll Set Point:	-0.015	Pitch Set Point:	0.029	Yaw Set Point:	-2.958	X_WP:	0.000	Y_WP:	0.000	Y_WP:	0.500	X:	0.163	Y:	0.069	Z:	0.401	yaw:	169.482	yaw rate:	-38.726	Roll:	-4.268	Pitch:	-3.650	Yaw:	236.522	Thrust:	15.403
Time:	3.349	Roll Set Point:	-0.015	Pitch Set Point:	0.029	Yaw Set Point:	-2.958	X_WP:	0.000	Y_WP:	0.000	Y_WP:	0.500	X:	0.163	Y:	0.069	Z:	0.401	yaw:	169.467	yaw rate:	-0.649	Roll:	-4.568	Pitch:	-3.067	Yaw:	239.623	Thrust:	15.408
Time:	3.381	Roll Set Point:	-0.015	Pitch Set Point:	0.029	Yaw Set Point:	-2.958	X_WP:	0.000	Y_WP:	0.000	Y_WP:	0.500	X:	0.163	Y:	0.069	Z:	0.401	yaw:	169.498	yaw rate:	3.076	Roll:	-4.638	Pitch:	-2.969	Yaw:	240.049	Thrust:	15.922
Time:	3.412	Roll Set Point:	-0.015	Pitch Set Point:	0.029	Yaw Set Point:	-2.958	X_WP:	0.000	Y_WP:	0.000	Y_WP:	0.500	X:	0.163	Y:	0.069	Z:	0.401	yaw:	169.487	yaw rate:	-1.117	Roll:	-4.582	Pitch:	-3.079	Yaw:	239.676	Thrust:	16.220
Time:	3.443	Roll Set Point:	-0.015	Pitch Set Point:	0.029	Yaw Set Point:	-2.958	X_WP:	0.000	Y_WP:	0.000	Y_WP:	0.500	X:	0.163	Y:	0.069	Z:	0.401	yaw:	169.458	yaw rate:	-2.835	Roll:	-4.605	Pitch:	-3.078	Yaw:	239.496	Thrust:	16.593
Time:	3.482	Roll Set Point:	-0.015	Pitch Set Point:	0.029	Yaw Set Point:	-2.958	X_WP:	0.000	Y_WP:	0.000	Y_WP:	0.500	X:	0.163	Y:	0.069	Z:	0.401	yaw:	169.507	yaw rate:	0.929	Roll:	-4.792	Pitch:	-3.061	Yaw:	240.938	Thrust:	19.981
Time:	3.514	Roll Set Point:	-0.015	Pitch Set Point:	0.029	Yaw Set Point:	-2.958	X_WP:	0.000	Y_WP:	0.000	Y_WP:	0.500	X:	0.163	Y:	0.069	Z:	0.401	yaw:	169.465	yaw rate:	-0.249	Roll:	-4.577	Pitch:	-3.123	Yaw:	239.389	Thrust:	17.317
Time:	3.546	Roll Set Point:	-0.015	Pitch Set Point:	0.029	Yaw Set Point:	-2.958	X_WP:	0.000	Y_WP:	0.000	Y_WP:	0.500	X:	0.163	Y:	0.069	Z:	0.401	yaw:	169.462	yaw rate:	-3.592	Roll:	-4.678	Pitch:	-3.082	Yaw:	239.831	Thrust:	18.108
Time:	3.577	Roll Set Point:	-0.015	Pitch Set Point:	0.029	Yaw Set Point:	-2.958	X_WP:	0.000	Y_WP:	0.000	Y_WP:	0.500	X:	0.163	Y:	0.069	Z:	0.401	yaw:	169.479	yaw rate:	1.678	Roll:	-4.692	Pitch:	-3.063	Yaw:	239.903	Thrust:	18.156
Time:	3.609	Roll Set Point:	-0.015	Pitch Set Point:	0.029	Yaw Set Point:	-2.958	X_WP:	0.000	Y_WP:	0.000	Y_WP:	0.500	X:	0.163	Y:	0.069	Z:	0.401	yaw:	169.473	yaw rate:	-0.575	Roll:	-4.670	Pitch:	-3.096	Yaw:	239.710	Thrust:	18.495
Time:	3.640	Roll Set Point:	-0.015	Pitch Set Point:	0.029	Yaw Set Point:	-2.958	X_WP:	0.000	Y_WP:	0.000	Y_WP:	0.500	X:	0.163	Y:	0.069	Z:	0.401	yaw:	169.475	yaw rate:	0.184	Roll:	-4.700	Pitch:	-3.095	Yaw:	239.770	Thrust:	18.829
Time:	3.671	Roll Set Point:	-0.015	Pitch Set Point:	0.029	Yaw Set Point:	-2.958	X_WP:	0.000	Y_WP:	0.000	Y_WP:	0.500	X:	0.163	Y:	0.069	Z:	0.401	yaw:	169.464	yaw rate:	-1.076	Roll:	-4.712	Pitch:	-3.127	Yaw:	239.652	Thrust:	19.198
Time:	3.702	Roll Set Point:	-0.015	Pitch Set Point:	0.029	Yaw Set Point:	-2.958	X_WP:	0.000	Y_WP:	0.000	Y_WP:	0.500	X:	0.163	Y:	0.069	Z:	0.401	yaw:	169.497	yaw rate:	1.607	Roll:	-4.744	Pitch:	-3.025	Yaw:	240.066	Thrust:	19.478
Time:	3.733	Roll Set Point:	-0.015	Pitch Set Point:	0.029	Yaw Set Point:	-2.958	X_WP:	0.000	Y_WP:	0.000	Y_WP:	0.500	X:	0.163	Y:	0.069	Z:	0.401	yaw:	169.464	yaw rate:	-2.216	Roll:	-4.717	Pitch:	-3.186	Yaw:	239.465	Thrust:	19.968
Time:	3.765	Roll Set Point:	-0.015	Pitch Set Point:	0.029	Yaw Set Point:	-2.958	X_WP:	0.000	Y_WP:	0.000	Y_WP:	0.500	X:	0.163	Y:	0.069	Z:	0.401	yaw:	169.483	yaw rate:	0.330	Roll:	-4.747	Pitch:	-3.086	Yaw:	239.922	Thrust:	20.391
Time:	3.796	Roll Set Point:	-0.015	Pitch Set Point:	0.029	Yaw Set Point:	-2.958	X_WP:	0.000	Y_WP:	0.000	Y_WP:	0.500	X:	0.163	Y:	0.069	Z:	0.401	yaw:	169.484	yaw rate:	0.088	Roll:	-4.762	Pitch:	-3.164	Yaw:	239.780	Thrust:	20.719
Time:	3.827	Roll Set Point:	-0.015	Pitch Set Point:	0.029	Yaw Set Point:	-2.958	X_WP:	0.000	Y_WP:	0.000	Y_WP:	0.500	X:	0.163	Y:	0.069	Z:	0.401	yaw:	169.482	yaw rate:	0.185	Roll:	-4.767	Pitch:	-3.111	Yaw:	239.751	Thrust:	20.954
Time:	3.859	Roll Set Point:	-0.015	Pitch Set Point:	0.029	Yaw Set Point:	-2.958	X_WP:	0.000	Y_WP:	0.000	Y_WP:	0.500	X:	0.163	Y:	0.069	Z:	0.401	yaw:	169.486	yaw rate:	2.286	Roll:	-4.763	Pitch:	-3.152	Yaw:	239.803	Thrust:	21.472
Time:	3.890	Roll Set Point:	-0.015	Pitch Set Point:	0.029	Yaw Set Point:	-2.958	X_WP:	0.000	Y_WP:	0.000	Y_WP:	0.500	X:	0.163	Y:	0.069	Z:	0.401	yaw:	169.469	yaw rate:	-1.638	Roll:	-4.767	Pitch:	-3.177	Yaw:	239.612	Thrust:	21.849
Time:	7.968	Roll Set Point:	-0.223	Pitch Set Point:	-0.084	Yaw Set Point:	-2.958	X_WP:	0.225	Y_WP:	0.073	Y_WP:	0.500	X:	0.163	Y:	0.069	Z:	0.401	yaw:	169.469	yaw rate:	0.000	Roll:	-30.000	Pitch:	-30.000	Yaw:	644.456	Thrust:	100.000
Time:	9.467	Roll Set Point:	-0.223	Pitch Set Point:	-0.084	Yaw Set Point:	-2.958	X_WP:	0.225	Y_WP:	0.073	Y_WP:	0.500	X:	0.163	Y:	0.069	Z:	0.401	yaw:	169.469	yaw rate:	0.000	Roll:	-22.896	Pitch:	-15.872	Yaw:	386.511	Thrust:	100.000
Time:	9.498	Roll Set Point:	nan	Pitch Set Point:	nan	Yaw Set Point:	-2.958	X_WP:	nan	Y_WP:	nan	Y_WP:	0.500	X:	0.000	Y:	0.000	Z:	0.000	yaw:	169.469	yaw rate:	0.000	Roll:	nan	Pitch:	nan	Yaw:	239.749	Thrust:	100.000
Time:	9.529	Roll Set Point:	nan	Pitch Set Point:	nan	Yaw Set Point:	-2.958	X_WP:	nan	Y_WP:	nan	Y_WP:	0.500	X:	0.000	Y:	0.000	Z:	0.000	yaw:	169.469	yaw rate:	0.000	Roll:	nan	Pitch:	nan	Yaw:	239.750	Thrust:	46.850
Time:	9.561	Roll Set Point:	nan	Pitch Set Point:	nan	Yaw Set Point:	-2.958	X_WP:	nan	Y_WP:	nan	Y_WP:	0.500	X:	0.000	Y:	0.000	Z:	0.000	yaw:	169.469	yaw rate:	0.000	Roll:	nan	Pitch:	nan	Yaw:	239.749	Thrust:	48.719
Time:	9.592	Roll Set Point:	nan	Pitch Set Point:	nan	Yaw Set Point:	-2.958	X_WP:	nan	Y_WP:	nan	Y_WP:	0.500	X:	0.000	Y:	0.000	Z:	0.000	yaw:	169.469	yaw rate:	0.000	Roll:	nan	Pitch:	nan	Yaw:	239.749	Thrust:	50.596
Time:	9.623	Roll Set Point:	nan	Pitch Set Point:	nan	Yaw Set Point:	-2.958	X_WP:	nan	Y_WP:	nan	Y_WP:	0.500	X:	0.000	Y:	0.000	Z:	0.000	yaw:	169.469	yaw rate:	0.000	Roll:	nan	Pitch:	nan	Yaw:	239.749	Thrust:	52.473
Time:	9.655	Roll Set Point:	nan	Pitch Set Point:	nan	Yaw Set Point:	-2.958	X_WP:	nan	Y_WP:	nan	Y_WP:	0.500	X:	0.000	Y:	0.000	Z:	0.000	yaw:	169.469	yaw rate:	0.000	Roll:	nan	Pitch:	nan	Yaw:	239.753	Thrust:	54.375
Time:	9.686	Roll Set Point:	nan	Pitch Set Point:	nan	Yaw Set Point:	-2.958	X_WP:	nan	Y_WP:	nan	Y_WP:	0.500	X:	0.000	Y:	0.000	Z:	0.000	yaw:	169.469	yaw rate:	0.000	Roll:	nan	Pitch:	nan	Yaw:	239.746	Thrust:	56.192
Time:	9.717	Roll Set Point:	nan	Pitch Set Point:	nan	Yaw Set Point:	-2.958	X_WP:	nan	Y_WP:	nan	Y_WP:	0.500	X:	0.000	Y:	0.000	Z:	0.000	yaw:	169.469	yaw rate:	0.000	Roll:	nan	Pitch:	nan	Yaw:	239.753	Thrust:	58.130
Time:	9.748	Roll Set Point:	nan	Pitch Set Point:	nan	Yaw Set Point:	-2.958	X_WP:	nan	Y_WP:	nan	Y_WP:	0.500	X:	0.000	Y:	0.000	Z:	0.000	yaw:	169.469	yaw rate:	0.000	Roll:	nan	Pitch:	nan	Yaw:	239.746	Thrust:	59.937
Time:	9.779	Roll Set Point:	nan	Pitch Set Point:	nan	Yaw Set Point:	-2.958	X_WP:	nan	Y_WP:	nan	Y_WP:	0.500	X:	0.000	Y:	0.000	Z:	0.000	yaw:	169.469	yaw rate:	0.000	Roll:	nan	Pitch:	nan	Yaw:	239.749	Thrust:	61.848
Time:	9.811	Roll Set Point:	nan	Pitch Set Point:	nan	Yaw Set Point:	-2.958	X_WP:	nan	Y_WP:	nan	Y_WP:	0.500	X:	0.000	Y:	0.000	Z:	0.000	yaw:	169.469	yaw rate:	0.000	Roll:	nan	Pitch:	nan	Yaw:	239.749	Thrust:	63.725
Time:	9.842	Roll Set Point:	nan	Pitch Set Point:	nan	Yaw Set Point:	-2.958	X_WP:	nan	Y_WP:	nan	Y_WP:	0.500	X:	0.000	Y:	0.000	Z:	0.000	yaw:	169.469	yaw rate:	0.000	Roll:	nan	Pitch:	nan	Yaw:	239.749	Thrust:	65.596
Time:	9.873	Roll Set Point:	nan	Pitch Set Point:	nan	Yaw Set Point:	-2.958	X_WP:	nan	Y_WP:	nan	Y_WP:	0.500	X:	0.000	Y:	0.000	Z:	0.000	yaw:	169.469	yaw rate:	0.000	Roll:	nan	Pitch:	nan	Yaw:	239.749	Thrust:	67.474
Time:	9.905	Roll Set Point:	nan	Pitch Set Point:	nan	Yaw Set Point:	-2.958	X_WP:	nan	Y_WP:	nan	Y_WP:	0.500	X:	0.000	Y:	0.000	Z:	0.000	yaw:	169.469	yaw rate:	0.000	Roll:	nan	Pitch:	nan	Yaw:	239.749	Thrust:	69.350
Time:	9.936	Roll Set Point:	nan	Pitch Set Point:	nan	Yaw Set Point:	-2.958	X_WP:	nan	Y_WP:	nan	Y_WP:	0.500	X:	0.000	Y:	0.000	Z:	0.000	yaw:	169.469	yaw rate:	0.000	Roll:	nan	Pitch:	nan	Yaw:	239.749	Thrust:	71.224
Time:	9.967	Roll Set Point:	nan	Pitch Set Point:	nan	Yaw Set Point:	-2.958	X_WP:	nan	Y_WP:	nan	Y_WP:	0.500	X:	0.000	Y:	0.000	Z:	0.000	yaw:	169.469	yaw rate:	0.000	Roll:	nan	Pitch:	nan	Yaw:	239.749	Thrust:	73.099
Time:	9.998	Roll Set Point:	nan	Pitch Set Point:	nan	Yaw Set Point:	-2.958	X_WP:	nan	Y_WP:	nan	Y_WP:	0.500	X:	0.000	Y:	0.000	Z:	0.000	yaw:	169.469	yaw rate:	0.000	Roll:	nan	Pitch:	nan	Yaw:	239.749	Thrust:	74.974
Time:	10.030	Roll Set Point:	nan	Pitch Set Point:	nan	Yaw Set Point:	-2.958	X_WP:	nan	Y_WP:	nan	Y_WP:	0.500	X:	0.000	Y:	0.000	Z:	0.000	yaw:	169.469	yaw rate:	0.000	Roll:	nan	Pitch:	nan	Yaw:	239.749	Thrust:	76.849
Time:	10.061	Roll Set Point:	nan	Pitch Set Point:	nan	Yaw Set Point:	-2.958	X_WP:	nan	Y_WP:	nan	Y_WP:	0.500	X:	0.000	Y:	0.000	Z:	0.000	yaw:	169.469	yaw rate:	0.000	Roll:	nan	Pitch:	nan	Yaw:	239.749	Thrust:	78.723
Time:	10.092	Roll Set Point:	nan	Pitch Set Point:	nan	Yaw Set Point:	-2.958	X_WP:	nan	Y_WP:	nan	Y_WP:	0.500	X:	0.000	Y:	0.000	Z:	0.000	yaw:	169.469	yaw rate:	0.000	Roll:	nan	Pitch:	nan	Yaw:	239.749	Thrust:	80.601
Time:	10.123	Roll Set Point:	nan	Pitch Set Point:	nan	Yaw Set Point:	-2.958	X_WP:	nan	Y_WP:	nan	Y_WP:	0.500	X:	0.000	Y:	0.000	Z:	0.000	yaw:	169.469	yaw rate:	0.000	Roll:	nan	Pitch:	nan	Yaw:	239.749	Thrust:	82.473
Time:	10.155	Roll Set Point:	nan	Pitch Set Point:	nan	Yaw Set Point:	-2.958	X_WP:	nan	Y_WP:	nan	Y_WP:	0.500	X:	0.000	Y:	0.000	Z:	0.000	yaw:	169.469	yaw rate:	0.000	Roll:	nan	Pitch:	nan	Yaw:	239.749	Thrust:	84.353
Time:	10.186	Roll Set Point:	nan	Pitch Set Point:	nan	Yaw Set Point:	-2.958	X_WP:	nan	Y_WP:	nan	Y_WP:	0.500	X:	0.000	Y:	0.000	Z:	0.000	yaw:	169.469	yaw rate:	0.000	Roll:	nan	Pitch:	nan	Yaw:	239.749	Thrust:	86.222
Time:	10.217	Roll Set Point:	nan	Pitch Set Point:	nan	Yaw Set Point:	-2.958	X_WP:	nan	Y_WP:	nan	Y_WP:	0.500	X:	0.000	Y:	0.000	Z:	0.000	yaw:	169.469	yaw rate:	0.000	Roll:	nan	Pitch:	nan	Yaw:	239.753	Thrust:	88.167
Time:	10.248	Roll Set Point:	nan	Pitch Set Point:	nan	Yaw Set Point:	-2.958	X_WP:	nan	Y_WP:	nan	Y_WP:	0.500	X:	0.000	Y:	0.000	Z:	0.000	yaw:	169.469	yaw rate:	0.000	Roll:	nan	Pitch:	nan	Yaw:	239.746	Thrust:	89.910
Time:	10.280	Roll Set Point:	nan	Pitch Set Point:	nan	Yaw Set Point:	-2.958	X_WP:	nan	Y_WP:	nan	Y_WP:	0.500	X:	0.000	Y:	0.000	Z:	0.000	yaw:	169.469	yaw rate:	0.000	Roll:	nan	Pitch:	nan	Yaw:	239.749	Thrust:	91.853
Time:	10.311	Roll Set Point:	nan	Pitch Set Point:	nan	Yaw Set Point:	-2.958	X_WP:	nan	Y_WP:	nan	Y_WP:	0.500	X:	0.000	Y:	0.000	Z:	0.000	yaw:	169.469	yaw rate:	0.000	Roll:	nan	Pitch:	nan	Yaw:	239.752	Thrust:	93.788
Time:	10.342	Roll Set Point:	nan	Pitch Set Point:	nan	Yaw Set Point:	-2.958	X_WP:	nan	Y_WP:	nan	Y_WP:	0.500	X:	0.000	Y:	0.000	Z:	0.000	yaw:	169.469	yaw rate:	0.000	Roll:	nan	Pitch:	nan	Yaw:	239.746	Thrust:	95.534
Time:	10.373	Roll Set Point:	nan	Pitch Set Point:	nan	Yaw Set Point:	-2.958	X_WP:	nan	Y_WP:	nan	Y_WP:	0.500	X:	0.000	Y:	0.000	Z:	0.000	yaw:	169.469	yaw rate:	0.000	Roll:	nan	Pitch:	nan	Yaw:	239.749	Thrust:	97.475
Time:	10.405	Roll Set Point:	nan	Pitch Set Point:	nan	Yaw Set Point:	-2.958	X_WP:	nan	Y_WP:	nan	Y_WP:	0.500	X:	0.000	Y:	0.000	Z:	0.000	yaw:	169.469	yaw rate:	0.000	Roll:	nan	Pitch:	nan	Yaw:	239.749	Thrust:	99.353
Time:	10.436	Roll Set Point:	nan	Pitch Set Point:	nan	Yaw Set Point:	-2.958	X_WP:	nan	Y_WP:	nan	Y_WP:	0.500	X:	0.000	Y:	0.000	Z:	0.000	yaw:	169.469	yaw rate:	0.000	Roll:	nan	Pitch:	nan	Yaw:	239.749	Thrust:	100.000
Time:	10.483	Roll Set Point:	nan	Pitch Set Point:	nan	Yaw Set Point:	-2.958	X_WP:	nan	Y_WP:	nan	Y_WP:	0.500	X:	0.000	Y:	0.000	Z:	0.000	yaw:	169.469	yaw rate:	0.000	Roll:	nan	Pitch:	nan	Yaw:	241.304	Thrust:	100.000
Time:	10.514	Roll Set Point:	nan	Pitch Set Point:	nan	Yaw Set Point:	-2.958	X_WP:	nan	Y_WP:	nan	Y_WP:	0.500	X:	0.000	Y:	0.000	Z:	0.000	yaw:	169.469	yaw rate:	0.000	Roll:	nan	Pitch:	nan	Yaw:	239.749	Thrust:	100.000
Time:	10.545	Roll Set Point:	nan	Pitch Set Point:	nan	Yaw Set Point:	-2.958	X_WP:	nan	Y_WP:	nan	Y_WP:	0.500	X:	0.000	Y:	0.000	Z:	0.000	yaw:	169.469	yaw rate:	0.000	Roll:	nan	Pitch:	nan	Yaw:	239.749	Thrust:	100.000
Time:	10.576	Roll Set Point:	nan	Pitch Set Point:	nan	Yaw Set Point:	-2.958	X_WP:	nan	Y_WP:	nan	Y_WP:	0.500	X:	0.000	Y:	0.000	Z:	0.000	yaw:	169.469	yaw rate:	0.000	Roll:	nan	Pitch:	nan	Yaw:	239.749	Thrust:	100.000
Time:	10.608	Roll Set Point:	nan	Pitch Set Point:	nan	Yaw Set Point:	-2.958	X_WP:	nan	Y_WP:	nan	Y_WP:	0.500	X:	0.000	Y:	0.000	Z:	0.000	yaw:	169.469	yaw rate:	0.000	Roll:	nan	Pitch:	nan	Yaw:	239.749	Thrust:	100.000
Time:	10.639	Roll Set Point:	nan	Pitch Set Point:	nan	Yaw Set Point:	-2.958	X_WP:	nan	Y_WP:	nan	Y_WP:	0.500	X:	0.000	Y:	0.000	Z:	0.000	yaw:	169.469	yaw rate:	0.000	Roll:	nan	Pitch:	nan	Yaw:	239.749	Thrust:	100.000
Time:	10.670	Roll Set Point:	nan	Pitch Set Point:	nan	Yaw Set Point:	-2.958	X_WP:	nan	Y_WP:	nan	Y_WP:	0.500	X:	0.000	Y:	0.000	Z:	0.000	yaw:	169.469	yaw rate:	0.000	Roll:	nan	Pitch:	nan	Yaw:	239.749	Thrust:	100.000
Time:	10.701	Roll Set Point:	nan	Pitch Set Point:	nan	Yaw Set Point:	-2.958	X_WP:	nan	Y_WP:	nan	Y_WP:	0.500	X:	0.000	Y:	0.000	Z:	0.000	yaw:	169.469	yaw rate:	0.000	Roll:	nan	Pitch:	nan	Yaw:	239.749	Thrust:	100.000
Time:	10.733	Roll Set Point:	nan	Pitch Set Point:	nan	Yaw Set Point:	-2.958	X_WP:	nan	Y_WP:	nan	Y_WP:	0.500	X:	0.000	Y:	0.000	Z:	0.000	yaw:	169.469	yaw rate:	0.000	Roll:	nan	Pitch:	nan	Yaw:	239.749	Thrust:	100.000
Time:	10.764	Roll Set Point:	nan	Pitch Set Point:	nan	Yaw Set Point:	-2.958	X_WP:	nan	Y_WP:	nan	Y_WP:	0.500	X:	0.000	Y:	0.000	Z:	0.000	yaw:	169.469	yaw rate:	0.000	Roll:	nan	Pitch:	nan	Yaw:	239.749	Thrust:	100.000
Time:	10.795	Roll Set Point:	nan	Pitch Set Point:	nan	Yaw Set Point:	-2.958	X_WP:	nan	Y_WP:	nan	Y_WP:	0.500	X:	0.000	Y:	0.000	Z:	0.000	yaw:	169.469	yaw rate:	0.000	Roll:	nan	Pitch:	nan	Yaw:	239.749	Thrust:	100.000
Time:	10.826	Roll Set Point:	nan	Pitch Set Point:	nan	Yaw Set Point:	-2.958	X_WP:	nan	Y_WP:	nan	Y_WP:	0.500	X:	0.000	Y:	0.000	Z:	0.000	yaw:	169.469	yaw rate:	0.000	Roll:	nan	Pitch:	nan	Yaw:	239.749	Thrust:	100.000
Time:	10.858	Roll Set Point:	nan	Pitch Set Point:	nan	Yaw Set Point:	-2.958	X_WP:	nan	Y_WP:	nan	Y_WP:	0.500	X:	0.000	Y:	0.000	Z:	0.000	yaw:	169.469	yaw rate:	0.000	Roll:	nan	Pitch:	nan	Yaw:	239.750	Thrust:	100.000
Time:	10.889	Roll Set Point:	nan	Pitch Set Point:	nan	Yaw Set Point:	-2.958	X_WP:	nan	Y_WP:	nan	Y_WP:	0.500	X:	0.000	Y:	0.000	Z:	0.000	yaw:	169.469	yaw rate:	0.000	Roll:	nan	Pitch:	nan	Yaw:	239.748	Thrust:	100.000
Time:	10.920	Roll Set Point:	nan	Pitch Set Point:	nan	Yaw Set Point:	-2.958	X_WP:	nan	Y_WP:	nan	Y_WP:	0.500	X:	0.000	Y:	0.000	Z:	0.000	yaw:	169.469	yaw rate:	0.000	Roll:	nan	Pitch:	nan	Yaw:	239.749	Thrust:	100.000
Time:	10.951	Roll Set Point:	nan	Pitch Set Point:	nan	Yaw Set Point:	-2.958	X_WP:	nan	Y_WP:	nan	Y_WP:	0.500	X:	0.000	Y:	0.000	Z:	0.000	yaw:	169.469	yaw rate:	0.000	Roll:	nan	Pitch:	nan	Yaw:	239.749	Thrust:	100.000
Time:	10.983	Roll Set Point:	nan	Pitch Set Point:	nan	Yaw Set Point:	-2.958	X_WP:	nan	Y_WP:	nan	Y_WP:	0.500	X:	0.000	Y:	0.000	Z:	0.000	yaw:	169.469	yaw rate:	0.000	Roll:	nan	Pitch:	nan	Yaw:	239.749	Thrust:	100.000
Time:	11.014	Roll Set Point:	nan	Pitch Set Point:	nan	Yaw Set Point:	-2.958	X_WP:	nan	Y_WP:	nan	Y_WP:	0.500	X:	0.000	Y:	0.000	Z:	0.000	yaw:	169.469	yaw rate:	0.000	Roll:	nan	Pitch:	nan	Yaw:	239.749	Thrust:	100.000
Time:	11.045	Roll Set Point:	nan	Pitch Set Point:	nan	Yaw Set Point:	-2.958	X_WP:	nan	Y_WP:	nan	Y_WP:	0.500	X:	0.000	Y:	0.000	Z:	0.000	yaw:	169.469	yaw rate:	0.000	Roll:	nan	Pitch:	nan	Yaw:	239.749	Thrust:	100.000
Time:	11.076	Roll Set Point:	nan	Pitch Set Point:	nan	Yaw Set Point:	-2.958	X_WP:	nan	Y_WP:	nan	Y_WP:	0.500	X:	0.000	Y:	0.000	Z:	0.000	yaw:	169.469	yaw rate:	0.000	Roll:	nan	Pitch:	nan	Yaw:	239.749	Thrust:	100.000
Time:	11.108	Roll Set Point:	nan	Pitch Set Point:	nan	Yaw Set Point:	-2.958	X_WP:	nan	Y_WP:	nan	Y_WP:	0.500	X:	0.000	Y:	0.000	Z:	0.000	yaw:	169.469	yaw rate:	0.000	Roll:	nan	Pitch:	nan	Yaw:	239.749	Thrust:	100.000
Time:	11.139	Roll Set Point:	nan	Pitch Set Point:	nan	Yaw Set Point:	-2.958	X_WP:	nan	Y_WP:	nan	Y_WP:	0.500	X:	0.000	Y:	0.000	Z:	0.000	yaw:	169.469	yaw rate:	0.000	Roll:	nan	Pitch:	nan	Yaw:	239.749	Thrust:	100.000
Time:	11.170	Roll Set Point:	nan	Pitch Set Point:	nan	Yaw Set Point:	-2.958	X_WP:	nan	Y_WP:	nan	Y_WP:	0.500	X:	0.000	Y:	0.000	Z:	0.000	yaw:	169.469	yaw rate:	0.000	Roll:	nan	Pitch:	nan	Yaw:	239.749	Thrust:	100.000
Time:	11.201	Roll Set Point:	nan	Pitch Set Point:	nan	Yaw Set Point:	-2.958	X_WP:	nan	Y_WP:	nan	Y_WP:	0.500	X:	0.000	Y:	0.000	Z:	0.000	yaw:	169.469	yaw rate:	0.000	Roll:	nan	Pitch:	nan	Yaw:	239.749	Thrust:	100.000
Time:	11.233	Roll Set Point:	nan	Pitch Set Point:	nan	Yaw Set Point:	-2.958	X_WP:	nan	Y_WP:	nan	Y_WP:	0.500	X:	0.000	Y:	0.000	Z:	0.000	yaw:	169.469	yaw rate:	0.000	Roll:	nan	Pitch:	nan	Yaw:	239.749	Thrust:	100.000
Time:	11.264	Roll Set Point:	nan	Pitch Set Point:	nan	Yaw Set Point:	-2.958	X_WP:	nan	Y_WP:	nan	Y_WP:	0.500	X:	0.000	Y:	0.000	Z:	0.000	yaw:	169.469	yaw rate:	0.000	Roll:	nan	Pitch:	nan	Yaw:	239.749	Thrust:	100.000
Time:	11.295	Roll Set Point:	nan	Pitch Set Point:	nan	Yaw Set Point:	-2.958	X_WP:	nan	Y_WP:	nan	Y_WP:	0.500	X:	0.000	Y:	0.000	Z:	0.000	yaw:	169.469	yaw rate:	0.000	Roll:	nan	Pitch:	nan	Yaw:	239.749	Thrust:	100.000
Time:	11.326	Roll Set Point:	nan	Pitch Set Point:	nan	Yaw Set Point:	-2.958	X_WP:	nan	Y_WP:	nan	Y_WP:	0.500	X:	0.000	Y:	0.000	Z:	0.000	yaw:	169.469	yaw rate:	0.000	Roll:	nan	Pitch:	nan	Yaw:	239.750	Thrust:	100.000
Time:	11.353	Roll Set Point:	nan	Pitch Set Point:	nan	Yaw Set Point:	-2.958	X_WP:	nan	Y_WP:	nan	Y_WP:	0.500	X:	0.000	Y:	0.000	Z:	0.000	yaw:	169.469	yaw rate:	0.000	Roll:	nan	Pitch:	nan	Yaw:	239.303	Thrust:	100.000
Time:	11.387	Roll Set Point:	nan	Pitch Set Point:	nan	Yaw Set Point:	-2.958	X_WP:	nan	Y_WP:	nan	Y_WP:	0.500	X:	0.000	Y:	0.000	Z:	0.000	yaw:	169.469	yaw rate:	0.000	Roll:	nan	Pitch:	nan	Yaw:	239.999	Thrust:	100.000
Time:	11.418	Roll Set Point:	nan	Pitch Set Point:	nan	Yaw Set Point:	-2.958	X_WP:	nan	Y_WP:	nan	Y_WP:	0.500	X:	0.000	Y:	0.000	Z:	0.000	yaw:	169.469	yaw rate:	0.000	Roll:	nan	Pitch:	nan	Yaw:	239.749	Thrust:	100.000
Time:	11.449	Roll Set Point:	nan	Pitch Set Point:	nan	Yaw Set Point:	-2.958	X_WP:	nan	Y_WP:	nan	Y_WP:	0.500	X:	0.000	Y:	0.000	Z:	0.000	yaw:	169.469	yaw rate:	0.000	Roll:	nan	Pitch:	nan	Yaw:	239.749	Thrust:	100.000
Time:	11.482	Roll Set Point:	nan	Pitch Set Point:	nan	Yaw Set Point:	-2.958	X_WP:	nan	Y_WP:	nan	Y_WP:	0.500	X:	0.000	Y:	0.000	Z:	0.000	yaw:	169.469	yaw rate:	0.000	Roll:	nan	Pitch:	nan	Yaw:	239.880	Thrust:	100.000
Time:	11.513	Roll Set Point:	nan	Pitch Set Point:	nan	Yaw Set Point:	-2.958	X_WP:	nan	Y_WP:	nan	Y_WP:	0.500	X:	0.000	Y:	0.000	Z:	0.000	yaw:	169.469	yaw rate:	0.000	Roll:	nan	Pitch:	nan	Yaw:	239.749	Thrust:	100.000
Time:	11.545	Roll Set Point:	nan	Pitch Set Point:	nan	Yaw Set Point:	-2.958	X_WP:	nan	Y_WP:	nan	Y_WP:	0.500	X:	0.000	Y:	0.000	Z:	0.000	yaw:	169.469	yaw rate:	0.000	Roll:	nan	Pitch:	nan	Yaw:	239.752	Thrust:	100.000
Time:	11.576	Roll Set Point:	nan	Pitch Set Point:	nan	Yaw Set Point:	-2.958	X_WP:	nan	Y_WP:	nan	Y_WP:	0.500	X:	0.000	Y:	0.000	Z:	0.000	yaw:	169.469	yaw rate:	0.000	Roll:	nan	Pitch:	nan	Yaw:	239.749	Thrust:	100.000
Time:	11.607	Roll Set Point:	nan	Pitch Set Point:	nan	Yaw Set Point:	-2.958	X_WP:	nan	Y_WP:	nan	Y_WP:	0.500	X:	0.000	Y:	0.000	Z:	0.000	yaw:	169.469	yaw rate:	0.000	Roll:	nan	Pitch:	nan	Yaw:	239.746	Thrust:	100.000
Time:	11.638	Roll Set Point:	nan	Pitch Set Point:	nan	Yaw Set Point:	-2.958	X_WP:	nan	Y_WP:	nan	Y_WP:	0.500	X:	0.000	Y:	0.000	Z:	0.000	yaw:	169.469	yaw rate:	0.000	Roll:	nan	Pitch:	nan	Yaw:	239.752	Thrust:	100.000
Time:	11.670	Roll Set Point:	nan	Pitch Set Point:	nan	Yaw Set Point:	-2.958	X_WP:	nan	Y_WP:	nan	Y_WP:	0.500	X:	0.000	Y:	0.000	Z:	0.000	yaw:	169.469	yaw rate:	0.000	Roll:	nan	Pitch:	nan	Yaw:	239.746	Thrust:	100.000
Time:	11.701	Roll Set Point:	nan	Pitch Set Point:	nan	Yaw Set Point:	-2.958	X_WP:	nan	Y_WP:	nan	Y_WP:	0.500	X:	0.000	Y:	0.000	Z:	0.000	yaw:	169.469	yaw rate:	0.000	Roll:	nan	Pitch:	nan	Yaw:	239.749	Thrust:	100.000
Time:	11.732	Roll Set Point:	nan	Pitch Set Point:	nan	Yaw Set Point:	-2.958	X_WP:	nan	Y_WP:	nan	Y_WP:	0.500	X:	0.000	Y:	0.000	Z:	0.000	yaw:	169.469	yaw rate:	0.000	Roll:	nan	Pitch:	nan	Yaw:	239.749	Thrust:	100.000
Time:	11.763	Roll Set Point:	nan	Pitch Set Point:	nan	Yaw Set Point:	-2.958	X_WP:	nan	Y_WP:	nan	Y_WP:	0.500	X:	0.000	Y:	0.000	Z:	0.000	yaw:	169.469	yaw rate:	0.000	Roll:	nan	Pitch:	nan	Yaw:	239.749	Thrust:	100.000
Time:	11.795	Roll Set Point:	nan	Pitch Set Point:	nan	Yaw Set Point:	-2.958	X_WP:	nan	Y_WP:	nan	Y_WP:	0.500	X:	0.000	Y:	0.000	Z:	0.000	yaw:	169.469	yaw rate:	0.000	Roll:	nan	Pitch:	nan	Yaw:	239.749	Thrust:	100.000
Time:	11.826	Roll Set Point:	nan	Pitch Set Point:	nan	Yaw Set Point:	-2.958	X_WP:	nan	Y_WP:	nan	Y_WP:	0.500	X:	0.000	Y:	0.000	Z:	0.000	yaw:	169.469	yaw rate:	0.000	Roll:	nan	Pitch:	nan	Yaw:	239.749	Thrust:	100.000
Time:	11.857	Roll Set Point:	nan	Pitch Set Point:	nan	Yaw Set Point:	-2.958	X_WP:	nan	Y_WP:	nan	Y_WP:	0.500	X:	0.000	Y:	0.000	Z:	0.000	yaw:	169.469	yaw rate:	0.000	Roll:	nan	Pitch:	nan	Yaw:	239.749	Thrust:	100.000
Time:	11.888	Roll Set Point:	nan	Pitch Set Point:	nan	Yaw Set Point:	-2.958	X_WP:	nan	Y_WP:	nan	Y_WP:	0.500	X:	0.000	Y:	0.000	Z:	0.000	yaw:	169.469	yaw rate:	0.000	Roll:	nan	Pitch:	nan	Yaw:	239.752	Thrust:	100.000
Time:	11.920	Roll Set Point:	nan	Pitch Set Point:	nan	Yaw Set Point:	-2.958	X_WP:	nan	Y_WP:	nan	Y_WP:	0.500	X:	0.000	Y:	0.000	Z:	0.000	yaw:	169.469	yaw rate:	0.000	Roll:	nan	Pitch:	nan	Yaw:	239.750	Thrust:	100.000
Time:	11.951	Roll Set Point:	nan	Pitch Set Point:	nan	Yaw Set Point:	-2.958	X_WP:	nan	Y_WP:	nan	Y_WP:	0.500	X:	0.000	Y:	0.000	Z:	0.000	yaw:	169.469	yaw rate:	0.000	Roll:	nan	Pitch:	nan	Yaw:	239.746	Thrust:	100.000
Time:	11.982	Roll Set Point:	nan	Pitch Set Point:	nan	Yaw Set Point:	-2.958	X_WP:	nan	Y_WP:	nan	Y_WP:	0.500	X:	0.000	Y:	0.000	Z:	0.000	yaw:	169.469	yaw rate:	0.000	Roll:	nan	Pitch:	nan	Yaw:	239.749	Thrust:	100.000
Time:	12.013	Roll Set Point:	nan	Pitch Set Point:	nan	Yaw Set Point:	-2.958	X_WP:	nan	Y_WP:	nan	Y_WP:	0.500	X:	0.000	Y:	0.000	Z:	0.000	yaw:	169.469	yaw rate:	0.000	Roll:	nan	Pitch:	nan	Yaw:	239.752	Thrust:	100.000
Time:	12.045	Roll Set Point:	nan	Pitch Set Point:	nan	Yaw Set Point:	-2.958	X_WP:	nan	Y_WP:	nan	Y_WP:	0.500	X:	0.000	Y:	0.000	Z:	0.000	yaw:	169.469	yaw rate:	0.000	Roll:	nan	Pitch:	nan	Yaw:	239.746	Thrust:	100.000
Time:	12.076	Roll Set Point:	nan	Pitch Set Point:	nan	Yaw Set Point:	-2.958	X_WP:	nan	Y_WP:	nan	Y_WP:	0.500	X:	0.000	Y:	0.000	Z:	0.000	yaw:	169.469	yaw rate:	0.000	Roll:	nan	Pitch:	nan	Yaw:	239.752	Thrust:	100.000
Time:	12.107	Roll Set Point:	nan	Pitch Set Point:	nan	Yaw Set Point:	-2.958	X_WP:	nan	Y_WP:	nan	Y_WP:	0.500	X:	0.000	Y:	0.000	Z:	0.000	yaw:	169.469	yaw rate:	0.000	Roll:	nan	Pitch:	nan	Yaw:	239.747	Thrust:	100.000
Time:	12.138	Roll Set Point:	nan	Pitch Set Point:	nan	Yaw Set Point:	-2.958	X_WP:	nan	Y_WP:	nan	Y_WP:	0.500	X:	0.000	Y:	0.000	Z:	0.000	yaw:	169.469	yaw rate:	0.000	Roll:	nan	Pitch:	nan	Yaw:	239.749	Thrust:	100.000
Time:	12.170	Roll Set Point:	nan	Pitch Set Point:	nan	Yaw Set Point:	-2.958	X_WP:	nan	Y_WP:	nan	Y_WP:	0.500	X:	0.000	Y:	0.000	Z:	0.000	yaw:	169.469	yaw rate:	0.000	Roll:	nan	Pitch:	nan	Yaw:	239.749	Thrust:	100.000
Time:	12.201	Roll Set Point:	nan	Pitch Set Point:	nan	Yaw Set Point:	-2.958	X_WP:	nan	Y_WP:	nan	Y_WP:	0.500	X:	0.000	Y:	0.000	Z:	0.000	yaw:	169.469	yaw rate:	0.000	Roll:	nan	Pitch:	nan	Yaw:	239.749	Thrust:	100.000
Time:	12.232	Roll Set Point:	nan	Pitch Set Point:	nan	Yaw Set Point:	-2.958	X_WP:	nan	Y_WP:	nan	Y_WP:	0.500	X:	0.000	Y:	0.000	Z:	0.000	yaw:	169.469	yaw rate:	0.000	Roll:	nan	Pitch:	nan	Yaw:	239.749	Thrust:	100.000
Time:	12.263	Roll Set Point:	nan	Pitch Set Point:	nan	Yaw Set Point:	-2.958	X_WP:	nan	Y_WP:	nan	Y_WP:	0.500	X:	0.000	Y:	0.000	Z:	0.000	yaw:	169.469	yaw rate:	0.000	Roll:	nan	Pitch:	nan	Yaw:	239.752	Thrust:	100.000
Time:	12.295	Roll Set Point:	nan	Pitch Set Point:	nan	Yaw Set Point:	-2.958	X_WP:	nan	Y_WP:	nan	Y_WP:	0.500	X:	0.000	Y:	0.000	Z:	0.000	yaw:	169.469	yaw rate:	0.000	Roll:	nan	Pitch:	nan	Yaw:	239.746	Thrust:	100.000
Time:	12.326	Roll Set Point:	nan	Pitch Set Point:	nan	Yaw Set Point:	-2.958	X_WP:	nan	Y_WP:	nan	Y_WP:	0.500	X:	0.000	Y:	0.000	Z:	0.000	yaw:	169.469	yaw rate:	0.000	Roll:	nan	Pitch:	nan	Yaw:	239.749	Thrust:	100.000
Time:	12.357	Roll Set Point:	nan	Pitch Set Point:	nan	Yaw Set Point:	-2.958	X_WP:	nan	Y_WP:	nan	Y_WP:	0.500	X:	0.000	Y:	0.000	Z:	0.000	yaw:	169.469	yaw rate:	0.000	Roll:	nan	Pitch:	nan	Yaw:	239.750	Thrust:	100.000
Time:	12.388	Roll Set Point:	nan	Pitch Set Point:	nan	Yaw Set Point:	-2.958	X_WP:	nan	Y_WP:	nan	Y_WP:	0.500	X:	0.000	Y:	0.000	Z:	0.000	yaw:	169.469	yaw rate:	0.000	Roll:	nan	Pitch:	nan	Yaw:	239.749	Thrust:	100.000
Time:	12.420	Roll Set Point:	nan	Pitch Set Point:	nan	Yaw Set Point:	-2.958	X_WP:	nan	Y_WP:	nan	Y_WP:	0.500	X:	0.000	Y:	0.000	Z:	0.000	yaw:	169.469	yaw rate:	0.000	Roll:	nan	Pitch:	nan	Yaw:	239.752	Thrust:	100.000
Time:	12.451	Roll Set Point:	nan	Pitch Set Point:	nan	Yaw Set Point:	-2.958	X_WP:	nan	Y_WP:	nan	Y_WP:	0.500	X:	0.000	Y:	0.000	Z:	0.000	yaw:	169.469	yaw rate:	0.000	Roll:	nan	Pitch:	nan	Yaw:	239.749	Thrust:	100.000
Time:	12.483	Roll Set Point:	nan	Pitch Set Point:	nan	Yaw Set Point:	-2.958	X_WP:	nan	Y_WP:	nan	Y_WP:	0.500	X:	0.000	Y:	0.000	Z:	0.000	yaw:	169.469	yaw rate:	0.000	Roll:	nan	Pitch:	nan	Yaw:	239.794	Thrust:	100.000
Time:	12.514	Roll Set Point:	nan	Pitch Set Point:	nan	Yaw Set Point:	-2.958	X_WP:	nan	Y_WP:	nan	Y_WP:	0.500	X:	0.000	Y:	0.000	Z:	0.000	yaw:	169.469	yaw rate:	0.000	Roll:	nan	Pitch:	nan	Yaw:	239.749	Thrust:	100.000
Time:	12.545	Roll Set Point:	nan	Pitch Set Point:	nan	Yaw Set Point:	-2.958	X_WP:	nan	Y_WP:	nan	Y_WP:	0.500	X:	0.000	Y:	0.000	Z:	0.000	yaw:	169.469	yaw rate:	0.000	Roll:	nan	Pitch:	nan	Yaw:	239.749	Thrust:	100.000
Time:	12.576	Roll Set Point:	nan	Pitch Set Point:	nan	Yaw Set Point:	-2.958	X_WP:	nan	Y_WP:	nan	Y_WP:	0.500	X:	0.000	Y:	0.000	Z:	0.000	yaw:	169.469	yaw rate:	0.000	Roll:	nan	Pitch:	nan	Yaw:	239.749	Thrust:	100.000
Time:	12.608	Roll Set Point:	nan	Pitch Set Point:	nan	Yaw Set Point:	-2.958	X_WP:	nan	Y_WP:	nan	Y_WP:	0.500	X:	0.000	Y:	0.000	Z:	0.000	yaw:	169.469	yaw rate:	0.000	Roll:	nan	Pitch:	nan	Yaw:	239.749	Thrust:	100.000
Time:	12.639	Roll Set Point:	nan	Pitch Set Point:	nan	Yaw Set Point:	-2.958	X_WP:	nan	Y_WP:	nan	Y_WP:	0.500	X:	0.000	Y:	0.000	Z:	0.000	yaw:	169.469	yaw rate:	0.000	Roll:	nan	Pitch:	nan	Yaw:	239.752	Thrust:	100.000
Time:	12.670	Roll Set Point:	nan	Pitch Set Point:	nan	Yaw Set Point:	-2.958	X_WP:	nan	Y_WP:	nan	Y_WP:	0.500	X:	0.000	Y:	0.000	Z:	0.000	yaw:	169.469	yaw rate:	0.000	Roll:	nan	Pitch:	nan	Yaw:	239.746	Thrust:	100.000
Time:	12.701	Roll Set Point:	nan	Pitch Set Point:	nan	Yaw Set Point:	-2.958	X_WP:	nan	Y_WP:	nan	Y_WP:	0.500	X:	0.000	Y:	0.000	Z:	0.000	yaw:	169.469	yaw rate:	0.000	Roll:	nan	Pitch:	nan	Yaw:	239.750	Thrust:	100.000
Time:	12.733	Roll Set Point:	nan	Pitch Set Point:	nan	Yaw Set Point:	-2.958	X_WP:	nan	Y_WP:	nan	Y_WP:	0.500	X:	0.000	Y:	0.000	Z:	0.000	yaw:	169.469	yaw rate:	0.000	Roll:	nan	Pitch:	nan	Yaw:	239.749	Thrust:	100.000
Time:	12.764	Roll Set Point:	nan	Pitch Set Point:	nan	Yaw Set Point:	-2.958	X_WP:	nan	Y_WP:	nan	Y_WP:	0.500	X:	0.000	Y:	0.000	Z:	0.000	yaw:	169.469	yaw rate:	0.000	Roll:	nan	Pitch:	nan	Yaw:	239.749	Thrust:	100.000
Time:	12.795	Roll Set Point:	nan	Pitch Set Point:	nan	Yaw Set Point:	-2.958	X_WP:	nan	Y_WP:	nan	Y_WP:	0.500	X:	0.000	Y:	0.000	Z:	0.000	yaw:	169.469	yaw rate:	0.000	Roll:	nan	Pitch:	nan	Yaw:	239.749	Thrust:	100.000
Time:	12.826	Roll Set Point:	nan	Pitch Set Point:	nan	Yaw Set Point:	-2.958	X_WP:	nan	Y_WP:	nan	Y_WP:	0.500	X:	0.000	Y:	0.000	Z:	0.000	yaw:	169.469	yaw rate:	0.000	Roll:	nan	Pitch:	nan	Yaw:	239.749	Thrust:	100.000
Time:	12.858	Roll Set Point:	nan	Pitch Set Point:	nan	Yaw Set Point:	-2.958	X_WP:	nan	Y_WP:	nan	Y_WP:	0.500	X:	0.000	Y:	0.000	Z:	0.000	yaw:	169.469	yaw rate:	0.000	Roll:	nan	Pitch:	nan	Yaw:	239.749	Thrust:	100.000
Time:	12.889	Roll Set Point:	nan	Pitch Set Point:	nan	Yaw Set Point:	-2.958	X_WP:	nan	Y_WP:	nan	Y_WP:	0.500	X:	0.000	Y:	0.000	Z:	0.000	yaw:	169.469	yaw rate:	0.000	Roll:	nan	Pitch:	nan	Yaw:	239.749	Thrust:	100.000
Time:	12.920	Roll Set Point:	nan	Pitch Set Point:	nan	Yaw Set Point:	-2.958	X_WP:	nan	Y_WP:	nan	Y_WP:	0.500	X:	0.000	Y:	0.000	Z:	0.000	yaw:	169.469	yaw rate:	0.000	Roll:	nan	Pitch:	nan	Yaw:	239.749	Thrust:	100.000
Time:	12.951	Roll Set Point:	nan	Pitch Set Point:	nan	Yaw Set Point:	-2.958	X_WP:	nan	Y_WP:	nan	Y_WP:	0.500	X:	0.000	Y:	0.000	Z:	0.000	yaw:	169.469	yaw rate:	0.000	Roll:	nan	Pitch:	nan	Yaw:	239.752	Thrust:	100.000
Time:	12.983	Roll Set Point:	nan	Pitch Set Point:	nan	Yaw Set Point:	-2.958	X_WP:	nan	Y_WP:	nan	Y_WP:	0.500	X:	0.000	Y:	0.000	Z:	0.000	yaw:	169.469	yaw rate:	0.000	Roll:	nan	Pitch:	nan	Yaw:	239.746	Thrust:	100.000
Time:	13.014	Roll Set Point:	nan	Pitch Set Point:	nan	Yaw Set Point:	-2.958	X_WP:	nan	Y_WP:	nan	Y_WP:	0.500	X:	0.000	Y:	0.000	Z:	0.000	yaw:	169.469	yaw rate:	0.000	Roll:	nan	Pitch:	nan	Yaw:	239.749	Thrust:	100.000
Time:	13.045	Roll Set Point:	nan	Pitch Set Point:	nan	Yaw Set Point:	-2.958	X_WP:	nan	Y_WP:	nan	Y_WP:	0.500	X:	0.000	Y:	0.000	Z:	0.000	yaw:	169.469	yaw rate:	0.000	Roll:	nan	Pitch:	nan	Yaw:	239.749	Thrust:	100.000
Time:	13.076	Roll Set Point:	nan	Pitch Set Point:	nan	Yaw Set Point:	-2.958	X_WP:	nan	Y_WP:	nan	Y_WP:	0.500	X:	0.000	Y:	0.000	Z:	0.000	yaw:	169.469	yaw rate:	0.000	Roll:	nan	Pitch:	nan	Yaw:	239.749	Thrust:	100.000
Time:	13.108	Roll Set Point:	nan	Pitch Set Point:	nan	Yaw Set Point:	-2.958	X_WP:	nan	Y_WP:	nan	Y_WP:	0.500	X:	0.000	Y:	0.000	Z:	0.000	yaw:	169.469	yaw rate:	0.000	Roll:	nan	Pitch:	nan	Yaw:	239.750	Thrust:	100.000
Time:	13.139	Roll Set Point:	nan	Pitch Set Point:	nan	Yaw Set Point:	-2.958	X_WP:	nan	Y_WP:	nan	Y_WP:	0.500	X:	0.000	Y:	0.000	Z:	0.000	yaw:	169.469	yaw rate:	0.000	Roll:	nan	Pitch:	nan	Yaw:	239.749	Thrust:	100.000
Time:	13.170	Roll Set Point:	nan	Pitch Set Point:	nan	Yaw Set Point:	-2.958	X_WP:	nan	Y_WP:	nan	Y_WP:	0.500	X:	0.000	Y:	0.000	Z:	0.000	yaw:	169.469	yaw rate:	0.000	Roll:	nan	Pitch:	nan	Yaw:	239.749	Thrust:	100.000
Time:	13.201	Roll Set Point:	nan	Pitch Set Point:	nan	Yaw Set Point:	-2.958	X_WP:	nan	Y_WP:	nan	Y_WP:	0.500	X:	0.000	Y:	0.000	Z:	0.000	yaw:	169.469	yaw rate:	0.000	Roll:	nan	Pitch:	nan	Yaw:	239.749	Thrust:	100.000
Time:	13.233	Roll Set Point:	nan	Pitch Set Point:	nan	Yaw Set Point:	-2.958	X_WP:	nan	Y_WP:	nan	Y_WP:	0.500	X:	0.000	Y:	0.000	Z:	0.000	yaw:	169.469	yaw rate:	0.000	Roll:	nan	Pitch:	nan	Yaw:	239.749	Thrust:	100.000
Time:	13.264	Roll Set Point:	nan	Pitch Set Point:	nan	Yaw Set Point:	-2.958	X_WP:	nan	Y_WP:	nan	Y_WP:	0.500	X:	0.000	Y:	0.000	Z:	0.000	yaw:	169.469	yaw rate:	0.000	Roll:	nan	Pitch:	nan	Yaw:	239.749	Thrust:	100.000
Time:	13.295	Roll Set Point:	nan	Pitch Set Point:	nan	Yaw Set Point:	-2.958	X_WP:	nan	Y_WP:	nan	Y_WP:	0.500	X:	0.000	Y:	0.000	Z:	0.000	yaw:	169.469	yaw rate:	0.000	Roll:	nan	Pitch:	nan	Yaw:	239.749	Thrust:	100.000
Time:	13.326	Roll Set Point:	nan	Pitch Set Point:	nan	Yaw Set Point:	-2.958	X_WP:	nan	Y_WP:	nan	Y_WP:	0.500	X:	0.000	Y:	0.000	Z:	0.000	yaw:	169.469	yaw rate:	0.000	Roll:	nan	Pitch:	nan	Yaw:	239.749	Thrust:	100.000
Time:	13.358	Roll Set Point:	nan	Pitch Set Point:	nan	Yaw Set Point:	-2.958	X_WP:	nan	Y_WP:	nan	Y_WP:	0.500	X:	0.000	Y:	0.000	Z:	0.000	yaw:	169.469	yaw rate:	0.000	Roll:	nan	Pitch:	nan	Yaw:	239.794	Thrust:	100.000
Time:	13.405	Roll Set Point:	nan	Pitch Set Point:	nan	Yaw Set Point:	-2.958	X_WP:	nan	Y_WP:	nan	Y_WP:	0.500	X:	0.000	Y:	0.000	Z:	0.000	yaw:	169.469	yaw rate:	0.000	Roll:	nan	Pitch:	nan	Yaw:	241.350	Thrust:	100.000
Time:	13.437	Roll Set Point:	nan	Pitch Set Point:	nan	Yaw Set Point:	-2.958	X_WP:	nan	Y_WP:	nan	Y_WP:	0.500	X:	0.000	Y:	0.000	Z:	0.000	yaw:	169.469	yaw rate:	0.000	Roll:	nan	Pitch:	nan	Yaw:	239.749	Thrust:	100.000
Time:	13.482	Roll Set Point:	nan	Pitch Set Point:	nan	Yaw Set Point:	-2.958	X_WP:	nan	Y_WP:	nan	Y_WP:	0.500	X:	0.000	Y:	0.000	Z:	0.000	yaw:	169.469	yaw rate:	0.000	Roll:	nan	Pitch:	nan	Yaw:	241.174	Thrust:	100.000
Time:	13.513	Roll Set Point:	nan	Pitch Set Point:	nan	Yaw Set Point:	-2.958	X_WP:	nan	Y_WP:	nan	Y_WP:	0.500	X:	0.000	Y:	0.000	Z:	0.000	yaw:	169.469	yaw rate:	0.000	Roll:	nan	Pitch:	nan	Yaw:	239.749	Thrust:	100.000
Time:	13.545	Roll Set Point:	nan	Pitch Set Point:	nan	Yaw Set Point:	-2.958	X_WP:	nan	Y_WP:	nan	Y_WP:	0.500	X:	0.000	Y:	0.000	Z:	0.000	yaw:	169.469	yaw rate:	0.000	Roll:	nan	Pitch:	nan	Yaw:	239.749	Thrust:	100.000
Time:	13.576	Roll Set Point:	nan	Pitch Set Point:	nan	Yaw Set Point:	-2.958	X_WP:	nan	Y_WP:	nan	Y_WP:	0.500	X:	0.000	Y:	0.000	Z:	0.000	yaw:	169.469	yaw rate:	0.000	Roll:	nan	Pitch:	nan	Yaw:	239.749	Thrust:	100.000
Time:	13.607	Roll Set Point:	nan	Pitch Set Point:	nan	Yaw Set Point:	-2.958	X_WP:	nan	Y_WP:	nan	Y_WP:	0.500	X:	0.000	Y:	0.000	Z:	0.000	yaw:	169.469	yaw rate:	0.000	Roll:	nan	Pitch:	nan	Yaw:	239.749	Thrust:	100.000
Time:	13.638	Roll Set Point:	nan	Pitch Set Point:	nan	Yaw Set Point:	-2.958	X_WP:	nan	Y_WP:	nan	Y_WP:	0.500	X:	0.000	Y:	0.000	Z:	0.000	yaw:	169.469	yaw rate:	0.000	Roll:	nan	Pitch:	nan	Yaw:	239.749	Thrust:	100.000
Time:	13.670	Roll Set Point:	nan	Pitch Set Point:	nan	Yaw Set Point:	-2.958	X_WP:	nan	Y_WP:	nan	Y_WP:	0.500	X:	0.000	Y:	0.000	Z:	0.000	yaw:	169.469	yaw rate:	0.000	Roll:	nan	Pitch:	nan	Yaw:	239.749	Thrust:	100.000
Time:	13.701	Roll Set Point:	nan	Pitch Set Point:	nan	Yaw Set Point:	-2.958	X_WP:	nan	Y_WP:	nan	Y_WP:	0.500	X:	0.000	Y:	0.000	Z:	0.000	yaw:	169.469	yaw rate:	0.000	Roll:	nan	Pitch:	nan	Yaw:	239.749	Thrust:	100.000
Time:	13.732	Roll Set Point:	nan	Pitch Set Point:	nan	Yaw Set Point:	-2.958	X_WP:	nan	Y_WP:	nan	Y_WP:	0.500	X:	0.000	Y:	0.000	Z:	0.000	yaw:	169.469	yaw rate:	0.000	Roll:	nan	Pitch:	nan	Yaw:	239.749	Thrust:	100.000
Time:	13.763	Roll Set Point:	nan	Pitch Set Point:	nan	Yaw Set Point:	-2.958	X_WP:	nan	Y_WP:	nan	Y_WP:	0.500	X:	0.000	Y:	0.000	Z:	0.000	yaw:	169.469	yaw rate:	0.000	Roll:	nan	Pitch:	nan	Yaw:	239.749	Thrust:	100.000
Time:	13.795	Roll Set Point:	nan	Pitch Set Point:	nan	Yaw Set Point:	-2.958	X_WP:	nan	Y_WP:	nan	Y_WP:	0.500	X:	0.000	Y:	0.000	Z:	0.000	yaw:	169.469	yaw rate:	0.000	Roll:	nan	Pitch:	nan	Yaw:	239.749	Thrust:	100.000
Time:	13.826	Roll Set Point:	nan	Pitch Set Point:	nan	Yaw Set Point:	-2.958	X_WP:	nan	Y_WP:	nan	Y_WP:	0.500	X:	0.000	Y:	0.000	Z:	0.000	yaw:	169.469	yaw rate:	0.000	Roll:	nan	Pitch:	nan	Yaw:	239.749	Thrust:	100.000
Time:	13.857	Roll Set Point:	nan	Pitch Set Point:	nan	Yaw Set Point:	-2.958	X_WP:	nan	Y_WP:	nan	Y_WP:	0.500	X:	0.000	Y:	0.000	Z:	0.000	yaw:	169.469	yaw rate:	0.000	Roll:	nan	Pitch:	nan	Yaw:	239.749	Thrust:	100.000
Time:	13.888	Roll Set Point:	nan	Pitch Set Point:	nan	Yaw Set Point:	-2.958	X_WP:	nan	Y_WP:	nan	Y_WP:	0.500	X:	0.000	Y:	0.000	Z:	0.000	yaw:	169.469	yaw rate:	0.000	Roll:	nan	Pitch:	nan	Yaw:	239.749	Thrust:	100.000
Time:	13.920	Roll Set Point:	nan	Pitch Set Point:	nan	Yaw Set Point:	-2.958	X_WP:	nan	Y_WP:	nan	Y_WP:	0.500	X:	0.000	Y:	0.000	Z:	0.000	yaw:	169.469	yaw rate:	0.000	Roll:	nan	Pitch:	nan	Yaw:	239.749	Thrust:	100.000
Time:	13.951	Roll Set Point:	nan	Pitch Set Point:	nan	Yaw Set Point:	-2.958	X_WP:	nan	Y_WP:	nan	Y_WP:	0.500	X:	0.000	Y:	0.000	Z:	0.000	yaw:	169.469	yaw rate:	0.000	Roll:	nan	Pitch:	nan	Yaw:	239.749	Thrust:	100.000
Time:	13.982	Roll Set Point:	nan	Pitch Set Point:	nan	Yaw Set Point:	-2.958	X_WP:	nan	Y_WP:	nan	Y_WP:	0.500	X:	0.000	Y:	0.000	Z:	0.000	yaw:	169.469	yaw rate:	0.000	Roll:	nan	Pitch:	nan	Yaw:	239.749	Thrust:	100.000
Time:	14.013	Roll Set Point:	nan	Pitch Set Point:	nan	Yaw Set Point:	-2.958	X_WP:	nan	Y_WP:	nan	Y_WP:	0.500	X:	0.000	Y:	0.000	Z:	0.000	yaw:	169.469	yaw rate:	0.000	Roll:	nan	Pitch:	nan	Yaw:	239.749	Thrust:	100.000
Time:	14.045	Roll Set Point:	nan	Pitch Set Point:	nan	Yaw Set Point:	-2.958	X_WP:	nan	Y_WP:	nan	Y_WP:	0.500	X:	0.000	Y:	0.000	Z:	0.000	yaw:	169.469	yaw rate:	0.000	Roll:	nan	Pitch:	nan	Yaw:	239.749	Thrust:	100.000
Time:	14.076	Roll Set Point:	nan	Pitch Set Point:	nan	Yaw Set Point:	-2.958	X_WP:	nan	Y_WP:	nan	Y_WP:	0.500	X:	0.000	Y:	0.000	Z:	0.000	yaw:	169.469	yaw rate:	0.000	Roll:	nan	Pitch:	nan	Yaw:	239.751	Thrust:	100.000
Time:	14.107	Roll Set Point:	nan	Pitch Set Point:	nan	Yaw Set Point:	-2.958	X_WP:	nan	Y_WP:	nan	Y_WP:	0.500	X:	0.000	Y:	0.000	Z:	0.000	yaw:	169.469	yaw rate:	0.000	Roll:	nan	Pitch:	nan	Yaw:	239.747	Thrust:	100.000
Time:	14.139	Roll Set Point:	nan	Pitch Set Point:	nan	Yaw Set Point:	-2.958	X_WP:	nan	Y_WP:	nan	Y_WP:	0.500	X:	0.000	Y:	0.000	Z:	0.000	yaw:	169.469	yaw rate:	0.000	Roll:	nan	Pitch:	nan	Yaw:	239.749	Thrust:	100.000
Time:	14.170	Roll Set Point:	nan	Pitch Set Point:	nan	Yaw Set Point:	-2.958	X_WP:	nan	Y_WP:	nan	Y_WP:	0.500	X:	0.000	Y:	0.000	Z:	0.000	yaw:	169.469	yaw rate:	0.000	Roll:	nan	Pitch:	nan	Yaw:	239.749	Thrust:	100.000
Time:	14.201	Roll Set Point:	nan	Pitch Set Point:	nan	Yaw Set Point:	-2.958	X_WP:	nan	Y_WP:	nan	Y_WP:	0.500	X:	0.000	Y:	0.000	Z:	0.000	yaw:	169.469	yaw rate:	0.000	Roll:	nan	Pitch:	nan	Yaw:	239.749	Thrust:	100.000
Time:	14.232	Roll Set Point:	nan	Pitch Set Point:	nan	Yaw Set Point:	-2.958	X_WP:	nan	Y_WP:	nan	Y_WP:	0.500	X:	0.000	Y:	0.000	Z:	0.000	yaw:	169.469	yaw rate:	0.000	Roll:	nan	Pitch:	nan	Yaw:	239.749	Thrust:	100.000
Time:	14.264	Roll Set Point:	nan	Pitch Set Point:	nan	Yaw Set Point:	-2.958	X_WP:	nan	Y_WP:	nan	Y_WP:	0.500	X:	0.000	Y:	0.000	Z:	0.000	yaw:	169.469	yaw rate:	0.000	Roll:	nan	Pitch:	nan	Yaw:	239.749	Thrust:	100.000
Time:	14.295	Roll Set Point:	nan	Pitch Set Point:	nan	Yaw Set Point:	-2.958	X_WP:	nan	Y_WP:	nan	Y_WP:	0.500	X:	0.000	Y:	0.000	Z:	0.000	yaw:	169.469	yaw rate:	0.000	Roll:	nan	Pitch:	nan	Yaw:	239.749	Thrust:	100.000
Time:	14.326	Roll Set Point:	nan	Pitch Set Point:	nan	Yaw Set Point:	-2.958	X_WP:	nan	Y_WP:	nan	Y_WP:	0.500	X:	0.000	Y:	0.000	Z:	0.000	yaw:	169.469	yaw rate:	0.000	Roll:	nan	Pitch:	nan	Yaw:	239.749	Thrust:	100.000
Time:	14.357	Roll Set Point:	nan	Pitch Set Point:	nan	Yaw Set Point:	-2.958	X_WP:	nan	Y_WP:	nan	Y_WP:	0.500	X:	0.000	Y:	0.000	Z:	0.000	yaw:	169.469	yaw rate:	0.000	Roll:	nan	Pitch:	nan	Yaw:	239.749	Thrust:	100.000
Time:	14.389	Roll Set Point:	nan	Pitch Set Point:	nan	Yaw Set Point:	-2.958	X_WP:	nan	Y_WP:	nan	Y_WP:	0.500	X:	0.000	Y:	0.000	Z:	0.000	yaw:	169.469	yaw rate:	0.000	Roll:	nan	Pitch:	nan	Yaw:	239.750	Thrust:	100.000
Time:	14.420	Roll Set Point:	nan	Pitch Set Point:	nan	Yaw Set Point:	-2.958	X_WP:	nan	Y_WP:	nan	Y_WP:	0.500	X:	0.000	Y:	0.000	Z:	0.000	yaw:	169.469	yaw rate:	0.000	Roll:	nan	Pitch:	nan	Yaw:	239.749	Thrust:	100.000
Time:	14.451	Roll Set Point:	nan	Pitch Set Point:	nan	Yaw Set Point:	-2.958	X_WP:	nan	Y_WP:	nan	Y_WP:	0.500	X:	0.000	Y:	0.000	Z:	0.000	yaw:	169.469	yaw rate:	0.000	Roll:	nan	Pitch:	nan	Yaw:	239.752	Thrust:	100.000
Time:	14.483	Roll Set Point:	nan	Pitch Set Point:	nan	Yaw Set Point:	-2.958	X_WP:	nan	Y_WP:	nan	Y_WP:	0.500	X:	0.000	Y:	0.000	Z:	0.000	yaw:	169.469	yaw rate:	0.000	Roll:	nan	Pitch:	nan	Yaw:	239.769	Thrust:	100.000
Time:	14.514	Roll Set Point:	nan	Pitch Set Point:	nan	Yaw Set Point:	-2.958	X_WP:	nan	Y_WP:	nan	Y_WP:	0.500	X:	0.000	Y:	0.000	Z:	0.000	yaw:	169.469	yaw rate:	0.000	Roll:	nan	Pitch:	nan	Yaw:	239.749	Thrust:	100.000
Time:	14.545	Roll Set Point:	nan	Pitch Set Point:	nan	Yaw Set Point:	-2.958	X_WP:	nan	Y_WP:	nan	Y_WP:	0.500	X:	0.000	Y:	0.000	Z:	0.000	yaw:	169.469	yaw rate:	0.000	Roll:	nan	Pitch:	nan	Yaw:	239.752	Thrust:	100.000
Time:	14.576	Roll Set Point:	nan	Pitch Set Point:	nan	Yaw Set Point:	-2.958	X_WP:	nan	Y_WP:	nan	Y_WP:	0.500	X:	0.000	Y:	0.000	Z:	0.000	yaw:	169.469	yaw rate:	0.000	Roll:	nan	Pitch:	nan	Yaw:	239.749	Thrust:	100.000
Time:	14.608	Roll Set Point:	nan	Pitch Set Point:	nan	Yaw Set Point:	-2.958	X_WP:	nan	Y_WP:	nan	Y_WP:	0.500	X:	0.000	Y:	0.000	Z:	0.000	yaw:	169.469	yaw rate:	0.000	Roll:	nan	Pitch:	nan	Yaw:	239.746	Thrust:	100.000
Time:	14.639	Roll Set Point:	nan	Pitch Set Point:	nan	Yaw Set Point:	-2.958	X_WP:	nan	Y_WP:	nan	Y_WP:	0.500	X:	0.000	Y:	0.000	Z:	0.000	yaw:	169.469	yaw rate:	0.000	Roll:	nan	Pitch:	nan	Yaw:	239.749	Thrust:	100.000
Time:	14.670	Roll Set Point:	nan	Pitch Set Point:	nan	Yaw Set Point:	-2.958	X_WP:	nan	Y_WP:	nan	Y_WP:	0.500	X:	0.000	Y:	0.000	Z:	0.000	yaw:	169.469	yaw rate:	0.000	Roll:	nan	Pitch:	nan	Yaw:	239.749	Thrust:	100.000
Time:	14.701	Roll Set Point:	nan	Pitch Set Point:	nan	Yaw Set Point:	-2.958	X_WP:	nan	Y_WP:	nan	Y_WP:	0.500	X:	0.000	Y:	0.000	Z:	0.000	yaw:	169.469	yaw rate:	0.000	Roll:	nan	Pitch:	nan	Yaw:	239.752	Thrust:	100.000
Time:	14.733	Roll Set Point:	nan	Pitch Set Point:	nan	Yaw Set Point:	-2.958	X_WP:	nan	Y_WP:	nan	Y_WP:	0.500	X:	0.000	Y:	0.000	Z:	0.000	yaw:	169.469	yaw rate:	0.000	Roll:	nan	Pitch:	nan	Yaw:	239.746	Thrust:	100.000
Time:	14.764	Roll Set Point:	nan	Pitch Set Point:	nan	Yaw Set Point:	-2.958	X_WP:	nan	Y_WP:	nan	Y_WP:	0.500	X:	0.000	Y:	0.000	Z:	0.000	yaw:	169.469	yaw rate:	0.000	Roll:	nan	Pitch:	nan	Yaw:	239.749	Thrust:	100.000
Time:	14.795	Roll Set Point:	nan	Pitch Set Point:	nan	Yaw Set Point:	-2.958	X_WP:	nan	Y_WP:	nan	Y_WP:	0.500	X:	0.000	Y:	0.000	Z:	0.000	yaw:	169.469	yaw rate:	0.000	Roll:	nan	Pitch:	nan	Yaw:	239.749	Thrust:	100.000
Time:	14.826	Roll Set Point:	nan	Pitch Set Point:	nan	Yaw Set Point:	-2.958	X_WP:	nan	Y_WP:	nan	Y_WP:	0.500	X:	0.000	Y:	0.000	Z:	0.000	yaw:	169.469	yaw rate:	0.000	Roll:	nan	Pitch:	nan	Yaw:	239.749	Thrust:	100.000
Time:	14.858	Roll Set Point:	nan	Pitch Set Point:	nan	Yaw Set Point:	-2.958	X_WP:	nan	Y_WP:	nan	Y_WP:	0.500	X:	0.000	Y:	0.000	Z:	0.000	yaw:	169.469	yaw rate:	0.000	Roll:	nan	Pitch:	nan	Yaw:	239.752	Thrust:	100.000
Time:	14.889	Roll Set Point:	nan	Pitch Set Point:	nan	Yaw Set Point:	-2.958	X_WP:	nan	Y_WP:	nan	Y_WP:	0.500	X:	0.000	Y:	0.000	Z:	0.000	yaw:	169.469	yaw rate:	0.000	Roll:	nan	Pitch:	nan	Yaw:	239.747	Thrust:	100.000
Time:	14.920	Roll Set Point:	nan	Pitch Set Point:	nan	Yaw Set Point:	-2.958	X_WP:	nan	Y_WP:	nan	Y_WP:	0.500	X:	0.000	Y:	0.000	Z:	0.000	yaw:	169.469	yaw rate:	0.000	Roll:	nan	Pitch:	nan	Yaw:	239.749	Thrust:	100.000
Time:	14.951	Roll Set Point:	nan	Pitch Set Point:	nan	Yaw Set Point:	-2.958	X_WP:	nan	Y_WP:	nan	Y_WP:	0.500	X:	0.000	Y:	0.000	Z:	0.000	yaw:	169.469	yaw rate:	0.000	Roll:	nan	Pitch:	nan	Yaw:	239.749	Thrust:	100.000
Time:	14.983	Roll Set Point:	nan	Pitch Set Point:	nan	Yaw Set Point:	-2.958	X_WP:	nan	Y_WP:	nan	Y_WP:	0.500	X:	0.000	Y:	0.000	Z:	0.000	yaw:	169.469	yaw rate:	0.000	Roll:	nan	Pitch:	nan	Yaw:	239.749	Thrust:	100.000
Time:	15.014	Roll Set Point:	nan	Pitch Set Point:	nan	Yaw Set Point:	-2.958	X_WP:	nan	Y_WP:	nan	Y_WP:	0.500	X:	0.000	Y:	0.000	Z:	0.000	yaw:	169.469	yaw rate:	0.000	Roll:	nan	Pitch:	nan	Yaw:	239.749	Thrust:	100.000
Time:	15.045	Roll Set Point:	nan	Pitch Set Point:	nan	Yaw Set Point:	-2.958	X_WP:	nan	Y_WP:	nan	Y_WP:	0.500	X:	0.000	Y:	0.000	Z:	0.000	yaw:	169.469	yaw rate:	0.000	Roll:	nan	Pitch:	nan	Yaw:	239.752	Thrust:	100.000
Time:	15.076	Roll Set Point:	nan	Pitch Set Point:	nan	Yaw Set Point:	-2.958	X_WP:	nan	Y_WP:	nan	Y_WP:	0.500	X:	0.000	Y:	0.000	Z:	0.000	yaw:	169.469	yaw rate:	0.000	Roll:	nan	Pitch:	nan	Yaw:	239.746	Thrust:	100.000
Time:	15.108	Roll Set Point:	nan	Pitch Set Point:	nan	Yaw Set Point:	-2.958	X_WP:	nan	Y_WP:	nan	Y_WP:	0.500	X:	0.000	Y:	0.000	Z:	0.000	yaw:	169.469	yaw rate:	0.000	Roll:	nan	Pitch:	nan	Yaw:	239.749	Thrust:	100.000
Time:	15.139	Roll Set Point:	nan	Pitch Set Point:	nan	Yaw Set Point:	-2.958	X_WP:	nan	Y_WP:	nan	Y_WP:	0.500	X:	0.000	Y:	0.000	Z:	0.000	yaw:	169.469	yaw rate:	0.000	Roll:	nan	Pitch:	nan	Yaw:	239.749	Thrust:	100.000
Time:	15.170	Roll Set Point:	nan	Pitch Set Point:	nan	Yaw Set Point:	-2.958	X_WP:	nan	Y_WP:	nan	Y_WP:	0.500	X:	0.000	Y:	0.000	Z:	0.000	yaw:	169.469	yaw rate:	0.000	Roll:	nan	Pitch:	nan	Yaw:	239.749	Thrust:	100.000
Time:	15.201	Roll Set Point:	nan	Pitch Set Point:	nan	Yaw Set Point:	-2.958	X_WP:	nan	Y_WP:	nan	Y_WP:	0.500	X:	0.000	Y:	0.000	Z:	0.000	yaw:	169.469	yaw rate:	0.000	Roll:	nan	Pitch:	nan	Yaw:	239.752	Thrust:	100.000
Time:	15.233	Roll Set Point:	nan	Pitch Set Point:	nan	Yaw Set Point:	-2.958	X_WP:	nan	Y_WP:	nan	Y_WP:	0.500	X:	0.000	Y:	0.000	Z:	0.000	yaw:	169.469	yaw rate:	0.000	Roll:	nan	Pitch:	nan	Yaw:	239.746	Thrust:	100.000
Time:	15.264	Roll Set Point:	nan	Pitch Set Point:	nan	Yaw Set Point:	-2.958	X_WP:	nan	Y_WP:	nan	Y_WP:	0.500	X:	0.000	Y:	0.000	Z:	0.000	yaw:	169.469	yaw rate:	0.000	Roll:	nan	Pitch:	nan	Yaw:	239.752	Thrust:	100.000
Time:	15.295	Roll Set Point:	nan	Pitch Set Point:	nan	Yaw Set Point:	-2.958	X_WP:	nan	Y_WP:	nan	Y_WP:	0.500	X:	0.000	Y:	0.000	Z:	0.000	yaw:	169.469	yaw rate:	0.000	Roll:	nan	Pitch:	nan	Yaw:	239.749	Thrust:	100.000
Time:	15.326	Roll Set Point:	nan	Pitch Set Point:	nan	Yaw Set Point:	-2.958	X_WP:	nan	Y_WP:	nan	Y_WP:	0.500	X:	0.000	Y:	0.000	Z:	0.000	yaw:	169.469	yaw rate:	0.000	Roll:	nan	Pitch:	nan	Yaw:	239.746	Thrust:	100.000
Time:	15.358	Roll Set Point:	nan	Pitch Set Point:	nan	Yaw Set Point:	-2.958	X_WP:	nan	Y_WP:	nan	Y_WP:	0.500	X:	0.000	Y:	0.000	Z:	0.000	yaw:	169.469	yaw rate:	0.000	Roll:	nan	Pitch:	nan	Yaw:	239.749	Thrust:	100.000
Time:	15.389	Roll Set Point:	nan	Pitch Set Point:	nan	Yaw Set Point:	-2.958	X_WP:	nan	Y_WP:	nan	Y_WP:	0.500	X:	0.000	Y:	0.000	Z:	0.000	yaw:	169.469	yaw rate:	0.000	Roll:	nan	Pitch:	nan	Yaw:	239.749	Thrust:	100.000
Time:	15.420	Roll Set Point:	nan	Pitch Set Point:	nan	Yaw Set Point:	-2.958	X_WP:	nan	Y_WP:	nan	Y_WP:	0.500	X:	0.000	Y:	0.000	Z:	0.000	yaw:	169.469	yaw rate:	0.000	Roll:	nan	Pitch:	nan	Yaw:	239.749	Thrust:	100.000
Time:	15.451	Roll Set Point:	nan	Pitch Set Point:	nan	Yaw Set Point:	-2.958	X_WP:	nan	Y_WP:	nan	Y_WP:	0.500	X:	0.000	Y:	0.000	Z:	0.000	yaw:	169.469	yaw rate:	0.000	Roll:	nan	Pitch:	nan	Yaw:	239.749	Thrust:	100.000
Time:	15.483	Roll Set Point:	nan	Pitch Set Point:	nan	Yaw Set Point:	-2.958	X_WP:	nan	Y_WP:	nan	Y_WP:	0.500	X:	0.000	Y:	0.000	Z:	0.000	yaw:	169.469	yaw rate:	0.000	Roll:	nan	Pitch:	nan	Yaw:	239.768	Thrust:	100.000
Time:	15.514	Roll Set Point:	nan	Pitch Set Point:	nan	Yaw Set Point:	-2.958	X_WP:	nan	Y_WP:	nan	Y_WP:	0.500	X:	0.000	Y:	0.000	Z:	0.000	yaw:	169.469	yaw rate:	0.000	Roll:	nan	Pitch:	nan	Yaw:	239.753	Thrust:	100.000
Time:	15.545	Roll Set Point:	nan	Pitch Set Point:	nan	Yaw Set Point:	-2.958	X_WP:	nan	Y_WP:	nan	Y_WP:	0.500	X:	0.000	Y:	0.000	Z:	0.000	yaw:	169.469	yaw rate:	0.000	Roll:	nan	Pitch:	nan	Yaw:	239.746	Thrust:	100.000
Time:	15.577	Roll Set Point:	nan	Pitch Set Point:	nan	Yaw Set Point:	-2.958	X_WP:	nan	Y_WP:	nan	Y_WP:	0.500	X:	0.000	Y:	0.000	Z:	0.000	yaw:	169.469	yaw rate:	0.000	Roll:	nan	Pitch:	nan	Yaw:	239.749	Thrust:	100.000
Time:	15.608	Roll Set Point:	nan	Pitch Set Point:	nan	Yaw Set Point:	-2.958	X_WP:	nan	Y_WP:	nan	Y_WP:	0.500	X:	0.000	Y:	0.000	Z:	0.000	yaw:	169.469	yaw rate:	0.000	Roll:	nan	Pitch:	nan	Yaw:	239.749	Thrust:	100.000
Time:	15.639	Roll Set Point:	nan	Pitch Set Point:	nan	Yaw Set Point:	-2.958	X_WP:	nan	Y_WP:	nan	Y_WP:	0.500	X:	0.000	Y:	0.000	Z:	0.000	yaw:	169.469	yaw rate:	0.000	Roll:	nan	Pitch:	nan	Yaw:	239.749	Thrust:	100.000
Time:	15.670	Roll Set Point:	nan	Pitch Set Point:	nan	Yaw Set Point:	-2.958	X_WP:	nan	Y_WP:	nan	Y_WP:	0.500	X:	0.000	Y:	0.000	Z:	0.000	yaw:	169.469	yaw rate:	0.000	Roll:	nan	Pitch:	nan	Yaw:	239.749	Thrust:	100.000
Time:	15.702	Roll Set Point:	nan	Pitch Set Point:	nan	Yaw Set Point:	-2.958	X_WP:	nan	Y_WP:	nan	Y_WP:	0.500	X:	0.000	Y:	0.000	Z:	0.000	yaw:	169.469	yaw rate:	0.000	Roll:	nan	Pitch:	nan	Yaw:	239.749	Thrust:	100.000
Time:	15.733	Roll Set Point:	nan	Pitch Set Point:	nan	Yaw Set Point:	-2.958	X_WP:	nan	Y_WP:	nan	Y_WP:	0.500	X:	0.000	Y:	0.000	Z:	0.000	yaw:	169.469	yaw rate:	0.000	Roll:	nan	Pitch:	nan	Yaw:	239.750	Thrust:	100.000
Time:	15.764	Roll Set Point:	nan	Pitch Set Point:	nan	Yaw Set Point:	-2.958	X_WP:	nan	Y_WP:	nan	Y_WP:	0.500	X:	0.000	Y:	0.000	Z:	0.000	yaw:	169.469	yaw rate:	0.000	Roll:	nan	Pitch:	nan	Yaw:	239.751	Thrust:	100.000
Time:	15.807	Roll Set Point:	nan	Pitch Set Point:	nan	Yaw Set Point:	-2.958	X_WP:	nan	Y_WP:	nan	Y_WP:	0.500	X:	0.000	Y:	0.000	Z:	0.000	yaw:	169.469	yaw rate:	0.000	Roll:	nan	Pitch:	nan	Yaw:	240.879	Thrust:	100.000
Time:	15.838	Roll Set Point:	nan	Pitch Set Point:	nan	Yaw Set Point:	-2.958	X_WP:	nan	Y_WP:	nan	Y_WP:	0.500	X:	0.000	Y:	0.000	Z:	0.000	yaw:	169.469	yaw rate:	0.000	Roll:	nan	Pitch:	nan	Yaw:	239.747	Thrust:	100.000
Time:	15.869	Roll Set Point:	nan	Pitch Set Point:	nan	Yaw Set Point:	-2.958	X_WP:	nan	Y_WP:	nan	Y_WP:	0.500	X:	0.000	Y:	0.000	Z:	0.000	yaw:	169.469	yaw rate:	0.000	Roll:	nan	Pitch:	nan	Yaw:	239.749	Thrust:	100.000
Time:	15.900	Roll Set Point:	nan	Pitch Set Point:	nan	Yaw Set Point:	-2.958	X_WP:	nan	Y_WP:	nan	Y_WP:	0.500	X:	0.000	Y:	0.000	Z:	0.000	yaw:	169.469	yaw rate:	0.000	Roll:	nan	Pitch:	nan	Yaw:	239.749	Thrust:	100.000
Time:	15.932	Roll Set Point:	nan	Pitch Set Point:	nan	Yaw Set Point:	-2.958	X_WP:	nan	Y_WP:	nan	Y_WP:	0.500	X:	0.000	Y:	0.000	Z:	0.000	yaw:	169.469	yaw rate:	0.000	Roll:	nan	Pitch:	nan	Yaw:	239.749	Thrust:	100.000
Time:	15.963	Roll Set Point:	nan	Pitch Set Point:	nan	Yaw Set Point:	-2.958	X_WP:	nan	Y_WP:	nan	Y_WP:	0.500	X:	0.000	Y:	0.000	Z:	0.000	yaw:	169.469	yaw rate:	0.000	Roll:	nan	Pitch:	nan	Yaw:	239.749	Thrust:	100.000
Time:	15.994	Roll Set Point:	nan	Pitch Set Point:	nan	Yaw Set Point:	-2.958	X_WP:	nan	Y_WP:	nan	Y_WP:	0.500	X:	0.000	Y:	0.000	Z:	0.000	yaw:	169.469	yaw rate:	0.000	Roll:	nan	Pitch:	nan	Yaw:	239.749	Thrust:	100.000
Time:	16.025	Roll Set Point:	nan	Pitch Set Point:	nan	Yaw Set Point:	-2.958	X_WP:	nan	Y_WP:	nan	Y_WP:	0.500	X:	0.000	Y:	0.000	Z:	0.000	yaw:	169.469	yaw rate:	0.000	Roll:	nan	Pitch:	nan	Yaw:	239.749	Thrust:	100.000
Time:	16.057	Roll Set Point:	nan	Pitch Set Point:	nan	Yaw Set Point:	-2.958	X_WP:	nan	Y_WP:	nan	Y_WP:	0.500	X:	0.000	Y:	0.000	Z:	0.000	yaw:	169.469	yaw rate:	0.000	Roll:	nan	Pitch:	nan	Yaw:	239.749	Thrust:	100.000
Time:	16.088	Roll Set Point:	nan	Pitch Set Point:	nan	Yaw Set Point:	-2.958	X_WP:	nan	Y_WP:	nan	Y_WP:	0.500	X:	0.000	Y:	0.000	Z:	0.000	yaw:	169.469	yaw rate:	0.000	Roll:	nan	Pitch:	nan	Yaw:	239.749	Thrust:	100.000
Time:	16.119	Roll Set Point:	nan	Pitch Set Point:	nan	Yaw Set Point:	-2.958	X_WP:	nan	Y_WP:	nan	Y_WP:	0.500	X:	0.000	Y:	0.000	Z:	0.000	yaw:	169.469	yaw rate:	0.000	Roll:	nan	Pitch:	nan	Yaw:	239.749	Thrust:	100.000
Time:	16.150	Roll Set Point:	nan	Pitch Set Point:	nan	Yaw Set Point:	-2.958	X_WP:	nan	Y_WP:	nan	Y_WP:	0.500	X:	0.000	Y:	0.000	Z:	0.000	yaw:	169.469	yaw rate:	0.000	Roll:	nan	Pitch:	nan	Yaw:	239.749	Thrust:	100.000
Time:	16.182	Roll Set Point:	nan	Pitch Set Point:	nan	Yaw Set Point:	-2.958	X_WP:	nan	Y_WP:	nan	Y_WP:	0.500	X:	0.000	Y:	0.000	Z:	0.000	yaw:	169.469	yaw rate:	0.000	Roll:	nan	Pitch:	nan	Yaw:	239.749	Thrust:	100.000
Time:	16.213	Roll Set Point:	nan	Pitch Set Point:	nan	Yaw Set Point:	-2.958	X_WP:	nan	Y_WP:	nan	Y_WP:	0.500	X:	0.000	Y:	0.000	Z:	0.000	yaw:	169.469	yaw rate:	0.000	Roll:	nan	Pitch:	nan	Yaw:	239.749	Thrust:	100.000
Time:	16.244	Roll Set Point:	nan	Pitch Set Point:	nan	Yaw Set Point:	-2.958	X_WP:	nan	Y_WP:	nan	Y_WP:	0.500	X:	0.000	Y:	0.000	Z:	0.000	yaw:	169.469	yaw rate:	0.000	Roll:	nan	Pitch:	nan	Yaw:	239.749	Thrust:	100.000
Time:	16.275	Roll Set Point:	nan	Pitch Set Point:	nan	Yaw Set Point:	-2.958	X_WP:	nan	Y_WP:	nan	Y_WP:	0.500	X:	0.000	Y:	0.000	Z:	0.000	yaw:	169.469	yaw rate:	0.000	Roll:	nan	Pitch:	nan	Yaw:	239.749	Thrust:	100.000
Time:	16.307	Roll Set Point:	nan	Pitch Set Point:	nan	Yaw Set Point:	-2.958	X_WP:	nan	Y_WP:	nan	Y_WP:	0.500	X:	0.000	Y:	0.000	Z:	0.000	yaw:	169.469	yaw rate:	0.000	Roll:	nan	Pitch:	nan	Yaw:	239.749	Thrust:	100.000
Time:	16.338	Roll Set Point:	nan	Pitch Set Point:	nan	Yaw Set Point:	-2.958	X_WP:	nan	Y_WP:	nan	Y_WP:	0.500	X:	0.000	Y:	0.000	Z:	0.000	yaw:	169.469	yaw rate:	0.000	Roll:	nan	Pitch:	nan	Yaw:	239.749	Thrust:	100.000
Time:	16.369	Roll Set Point:	nan	Pitch Set Point:	nan	Yaw Set Point:	-2.958	X_WP:	nan	Y_WP:	nan	Y_WP:	0.500	X:	0.000	Y:	0.000	Z:	0.000	yaw:	169.469	yaw rate:	0.000	Roll:	nan	Pitch:	nan	Yaw:	239.749	Thrust:	100.000
Time:	16.400	Roll Set Point:	nan	Pitch Set Point:	nan	Yaw Set Point:	-2.958	X_WP:	nan	Y_WP:	nan	Y_WP:	0.500	X:	0.000	Y:	0.000	Z:	0.000	yaw:	169.469	yaw rate:	0.000	Roll:	nan	Pitch:	nan	Yaw:	239.749	Thrust:	100.000
Time:	16.432	Roll Set Point:	nan	Pitch Set Point:	nan	Yaw Set Point:	-2.958	X_WP:	nan	Y_WP:	nan	Y_WP:	0.500	X:	0.000	Y:	0.000	Z:	0.000	yaw:	169.469	yaw rate:	0.000	Roll:	nan	Pitch:	nan	Yaw:	239.749	Thrust:	100.000
Time:	16.465	Roll Set Point:	nan	Pitch Set Point:	nan	Yaw Set Point:	-2.958	X_WP:	nan	Y_WP:	nan	Y_WP:	0.500	X:	0.000	Y:	0.000	Z:	0.000	yaw:	169.469	yaw rate:	0.000	Roll:	nan	Pitch:	nan	Yaw:	239.905	Thrust:	100.000
Time:	16.498	Roll Set Point:	nan	Pitch Set Point:	nan	Yaw Set Point:	-2.958	X_WP:	nan	Y_WP:	nan	Y_WP:	0.500	X:	0.000	Y:	0.000	Z:	0.000	yaw:	169.469	yaw rate:	0.000	Roll:	nan	Pitch:	nan	Yaw:	239.957	Thrust:	100.000
Time:	16.530	Roll Set Point:	nan	Pitch Set Point:	nan	Yaw Set Point:	-2.958	X_WP:	nan	Y_WP:	nan	Y_WP:	0.500	X:	0.000	Y:	0.000	Z:	0.000	yaw:	169.469	yaw rate:	0.000	Roll:	nan	Pitch:	nan	Yaw:	239.780	Thrust:	100.000
Time:	16.562	Roll Set Point:	nan	Pitch Set Point:	nan	Yaw Set Point:	-2.958	X_WP:	nan	Y_WP:	nan	Y_WP:	0.500	X:	0.000	Y:	0.000	Z:	0.000	yaw:	169.469	yaw rate:	0.000	Roll:	nan	Pitch:	nan	Yaw:	239.852	Thrust:	100.000
Time:	16.593	Roll Set Point:	nan	Pitch Set Point:	nan	Yaw Set Point:	-2.958	X_WP:	nan	Y_WP:	nan	Y_WP:	0.500	X:	0.000	Y:	0.000	Z:	0.000	yaw:	169.469	yaw rate:	0.000	Roll:	nan	Pitch:	nan	Yaw:	239.751	Thrust:	100.000
Time:	16.624	Roll Set Point:	nan	Pitch Set Point:	nan	Yaw Set Point:	-2.958	X_WP:	nan	Y_WP:	nan	Y_WP:	0.500	X:	0.000	Y:	0.000	Z:	0.000	yaw:	169.469	yaw rate:	0.000	Roll:	nan	Pitch:	nan	Yaw:	239.747	Thrust:	100.000
Time:	16.655	Roll Set Point:	nan	Pitch Set Point:	nan	Yaw Set Point:	-2.958	X_WP:	nan	Y_WP:	nan	Y_WP:	0.500	X:	0.000	Y:	0.000	Z:	0.000	yaw:	169.469	yaw rate:	0.000	Roll:	nan	Pitch:	nan	Yaw:	239.749	Thrust:	100.000
Time:	16.687	Roll Set Point:	nan	Pitch Set Point:	nan	Yaw Set Point:	-2.958	X_WP:	nan	Y_WP:	nan	Y_WP:	0.500	X:	0.000	Y:	0.000	Z:	0.000	yaw:	169.469	yaw rate:	0.000	Roll:	nan	Pitch:	nan	Yaw:	239.749	Thrust:	100.000
Time:	16.718	Roll Set Point:	nan	Pitch Set Point:	nan	Yaw Set Point:	-2.958	X_WP:	nan	Y_WP:	nan	Y_WP:	0.500	X:	0.000	Y:	0.000	Z:	0.000	yaw:	169.469	yaw rate:	0.000	Roll:	nan	Pitch:	nan	Yaw:	239.749	Thrust:	100.000
