Time:	2.195	Roll Set Point:	0.021	Pitch Set Point:	-0.010	Yaw Set Point:	0.385	X_WP:	0.000	Y_WP:	0.000	Y_WP:	0.500	X:	-0.009	Y:	0.007	Z:	0.050	yaw:	-22.049	yaw rate:	-2.371	Roll:	-0.326	Pitch:	0.083	Yaw:	-30.786	Thrust:	24.748
Time:	2.212	Roll Set Point:	0.021	Pitch Set Point:	-0.010	Yaw Set Point:	0.385	X_WP:	0.000	Y_WP:	0.000	Y_WP:	0.500	X:	-0.009	Y:	0.007	Z:	0.050	yaw:	-22.039	yaw rate:	1.014	Roll:	-0.377	Pitch:	0.066	Yaw:	-30.748	Thrust:	25.715
Time:	2.231	Roll Set Point:	0.021	Pitch Set Point:	-0.010	Yaw Set Point:	0.385	X_WP:	0.000	Y_WP:	0.000	Y_WP:	0.500	X:	-0.009	Y:	0.007	Z:	0.050	yaw:	-22.040	yaw rate:	-0.059	Roll:	-0.336	Pitch:	0.078	Yaw:	-31.074	Thrust:	26.736
Time:	2.253	Roll Set Point:	0.020	Pitch Set Point:	-0.010	Yaw Set Point:	0.389	X_WP:	0.000	Y_WP:	0.000	Y_WP:	0.500	X:	-0.009	Y:	0.007	Z:	0.050	yaw:	-22.298	yaw rate:	-25.833	Roll:	-0.170	Pitch:	0.066	Yaw:	-34.828	Thrust:	27.748
Time:	2.270	Roll Set Point:	0.020	Pitch Set Point:	-0.010	Yaw Set Point:	0.386	X_WP:	0.000	Y_WP:	0.000	Y_WP:	0.500	X:	-0.009	Y:	0.007	Z:	0.050	yaw:	-22.088	yaw rate:	-2.121	Roll:	-0.257	Pitch:	0.165	Yaw:	-28.131	Thrust:	28.730
Time:	2.288	Roll Set Point:	0.020	Pitch Set Point:	-0.010	Yaw Set Point:	0.383	X_WP:	0.000	Y_WP:	0.000	Y_WP:	0.500	X:	-0.009	Y:	0.007	Z:	0.050	yaw:	-21.959	yaw rate:	27.082	Roll:	-0.356	Pitch:	0.158	Yaw:	-29.496	Thrust:	29.301
Time:	2.305	Roll Set Point:	0.020	Pitch Set Point:	-0.010	Yaw Set Point:	0.387	X_WP:	0.000	Y_WP:	0.000	Y_WP:	0.500	X:	-0.009	Y:	0.007	Z:	0.050	yaw:	-22.148	yaw rate:	-18.830	Roll:	-0.309	Pitch:	-0.025	Yaw:	-34.604	Thrust:	30.484
Time:	2.322	Roll Set Point:	0.020	Pitch Set Point:	-0.010	Yaw Set Point:	0.382	X_WP:	0.000	Y_WP:	0.000	Y_WP:	0.500	X:	-0.009	Y:	0.007	Z:	0.050	yaw:	-21.894	yaw rate:	25.311	Roll:	-0.400	Pitch:	0.062	Yaw:	-27.604	Thrust:	31.383
Time:	2.339	Roll Set Point:	0.020	Pitch Set Point:	-0.010	Yaw Set Point:	0.383	X_WP:	0.000	Y_WP:	0.000	Y_WP:	0.500	X:	-0.009	Y:	0.007	Z:	0.050	yaw:	-21.962	yaw rate:	-6.703	Roll:	-0.353	Pitch:	0.094	Yaw:	-32.744	Thrust:	32.030
Time:	2.356	Roll Set Point:	0.020	Pitch Set Point:	-0.010	Yaw Set Point:	0.381	X_WP:	0.000	Y_WP:	0.000	Y_WP:	0.500	X:	-0.009	Y:	0.007	Z:	0.050	yaw:	-21.828	yaw rate:	13.370	Roll:	-0.269	Pitch:	0.237	Yaw:	-29.695	Thrust:	33.132
Time:	2.373	Roll Set Point:	0.020	Pitch Set Point:	-0.010	Yaw Set Point:	0.383	X_WP:	0.000	Y_WP:	0.000	Y_WP:	0.500	X:	-0.009	Y:	0.007	Z:	0.050	yaw:	-21.950	yaw rate:	-12.252	Roll:	-0.287	Pitch:	-0.048	Yaw:	-33.839	Thrust:	34.564
Time:	2.390	Roll Set Point:	0.020	Pitch Set Point:	-0.010	Yaw Set Point:	0.386	X_WP:	0.000	Y_WP:	0.000	Y_WP:	0.500	X:	-0.009	Y:	0.007	Z:	0.050	yaw:	-22.110	yaw rate:	-15.975	Roll:	-0.304	Pitch:	0.054	Yaw:	-34.766	Thrust:	34.180
Time:	2.407	Roll Set Point:	0.020	Pitch Set Point:	-0.010	Yaw Set Point:	0.380	X_WP:	0.000	Y_WP:	0.000	Y_WP:	0.500	X:	-0.009	Y:	0.007	Z:	0.050	yaw:	-21.749	yaw rate:	3.865	Roll:	-0.101	Pitch:	0.141	Yaw:	-26.384	Thrust:	35.497
Time:	2.425	Roll Set Point:	0.020	Pitch Set Point:	-0.010	Yaw Set Point:	0.377	X_WP:	0.000	Y_WP:	0.000	Y_WP:	0.500	X:	-0.009	Y:	0.007	Z:	0.050	yaw:	-21.606	yaw rate:	14.333	Roll:	-0.252	Pitch:	0.105	Yaw:	-29.668	Thrust:	36.294
Time:	2.442	Roll Set Point:	0.019	Pitch Set Point:	-0.010	Yaw Set Point:	0.379	X_WP:	0.000	Y_WP:	0.000	Y_WP:	0.500	X:	-0.009	Y:	0.007	Z:	0.050	yaw:	-21.730	yaw rate:	-26.744	Roll:	0.025	Pitch:	0.175	Yaw:	-34.082	Thrust:	38.559
Time:	2.459	Roll Set Point:	0.019	Pitch Set Point:	-0.010	Yaw Set Point:	0.377	X_WP:	0.000	Y_WP:	0.000	Y_WP:	0.500	X:	-0.009	Y:	0.007	Z:	0.050	yaw:	-21.618	yaw rate:	11.163	Roll:	-0.337	Pitch:	0.032	Yaw:	-30.431	Thrust:	37.594
Time:	2.476	Roll Set Point:	0.019	Pitch Set Point:	-0.009	Yaw Set Point:	0.373	X_WP:	0.000	Y_WP:	0.000	Y_WP:	0.500	X:	-0.009	Y:	0.006	Z:	0.050	yaw:	-21.399	yaw rate:	21.903	Roll:	-0.153	Pitch:	-0.054	Yaw:	-28.604	Thrust:	40.462
Time:	2.493	Roll Set Point:	0.018	Pitch Set Point:	-0.009	Yaw Set Point:	0.377	X_WP:	0.000	Y_WP:	0.000	Y_WP:	0.500	X:	-0.008	Y:	0.006	Z:	0.050	yaw:	-21.599	yaw rate:	-20.003	Roll:	-0.041	Pitch:	-0.025	Yaw:	-35.446	Thrust:	40.320
Time:	2.510	Roll Set Point:	0.018	Pitch Set Point:	-0.009	Yaw Set Point:	0.365	X_WP:	0.000	Y_WP:	0.000	Y_WP:	0.500	X:	-0.008	Y:	0.006	Z:	0.050	yaw:	-20.896	yaw rate:	70.317	Roll:	-0.127	Pitch:	0.014	Yaw:	-20.707	Thrust:	41.091
Time:	2.527	Roll Set Point:	0.018	Pitch Set Point:	-0.009	Yaw Set Point:	0.364	X_WP:	0.000	Y_WP:	0.000	Y_WP:	0.500	X:	-0.008	Y:	0.006	Z:	0.050	yaw:	-20.862	yaw rate:	3.401	Roll:	-0.087	Pitch:	0.355	Yaw:	-31.076	Thrust:	41.886
Time:	2.544	Roll Set Point:	0.018	Pitch Set Point:	-0.009	Yaw Set Point:	0.356	X_WP:	0.000	Y_WP:	0.000	Y_WP:	0.500	X:	-0.008	Y:	0.006	Z:	0.050	yaw:	-20.383	yaw rate:	-7.065	Roll:	-0.277	Pitch:	0.227	Yaw:	-23.695	Thrust:	43.568
Time:	2.561	Roll Set Point:	0.018	Pitch Set Point:	-0.010	Yaw Set Point:	0.348	X_WP:	0.000	Y_WP:	0.000	Y_WP:	0.500	X:	-0.008	Y:	0.006	Z:	0.050	yaw:	-19.913	yaw rate:	46.987	Roll:	-0.271	Pitch:	0.321	Yaw:	-23.302	Thrust:	43.759
Time:	2.578	Roll Set Point:	0.018	Pitch Set Point:	-0.010	Yaw Set Point:	0.344	X_WP:	0.000	Y_WP:	0.000	Y_WP:	0.500	X:	-0.008	Y:	0.006	Z:	0.050	yaw:	-19.712	yaw rate:	13.681	Roll:	-0.350	Pitch:	0.092	Yaw:	-27.260	Thrust:	45.091
Time:	2.595	Roll Set Point:	0.018	Pitch Set Point:	-0.010	Yaw Set Point:	0.335	X_WP:	0.000	Y_WP:	0.000	Y_WP:	0.500	X:	-0.008	Y:	0.007	Z:	0.050	yaw:	-19.189	yaw rate:	52.260	Roll:	-0.327	Pitch:	0.337	Yaw:	-21.734	Thrust:	45.750
Time:	2.613	Roll Set Point:	0.018	Pitch Set Point:	-0.010	Yaw Set Point:	0.332	X_WP:	0.000	Y_WP:	0.000	Y_WP:	0.500	X:	-0.008	Y:	0.007	Z:	0.050	yaw:	-19.050	yaw rate:	24.826	Roll:	-0.395	Pitch:	0.217	Yaw:	-27.676	Thrust:	47.395
Time:	2.630	Roll Set Point:	0.018	Pitch Set Point:	-0.010	Yaw Set Point:	0.330	X_WP:	0.000	Y_WP:	0.000	Y_WP:	0.500	X:	-0.008	Y:	0.007	Z:	0.050	yaw:	-18.918	yaw rate:	13.183	Roll:	-0.467	Pitch:	0.056	Yaw:	-27.575	Thrust:	47.756
Time:	2.648	Roll Set Point:	0.019	Pitch Set Point:	-0.011	Yaw Set Point:	0.314	X_WP:	0.000	Y_WP:	0.000	Y_WP:	0.500	X:	-0.008	Y:	0.007	Z:	0.051	yaw:	-18.000	yaw rate:	49.508	Roll:	-0.485	Pitch:	0.414	Yaw:	-15.299	Thrust:	49.416
Time:	2.665	Roll Set Point:	0.019	Pitch Set Point:	-0.011	Yaw Set Point:	0.306	X_WP:	0.000	Y_WP:	0.000	Y_WP:	0.500	X:	-0.009	Y:	0.007	Z:	0.051	yaw:	-17.531	yaw rate:	46.849	Roll:	-0.387	Pitch:	0.273	Yaw:	-20.686	Thrust:	49.578
Time:	2.683	Roll Set Point:	0.019	Pitch Set Point:	-0.012	Yaw Set Point:	0.297	X_WP:	0.000	Y_WP:	0.000	Y_WP:	0.500	X:	-0.008	Y:	0.007	Z:	0.051	yaw:	-17.003	yaw rate:	52.849	Roll:	-0.308	Pitch:	0.589	Yaw:	-19.661	Thrust:	52.034
Time:	2.700	Roll Set Point:	0.019	Pitch Set Point:	-0.012	Yaw Set Point:	0.267	X_WP:	0.000	Y_WP:	0.000	Y_WP:	0.500	X:	-0.009	Y:	0.007	Z:	0.051	yaw:	-15.276	yaw rate:	85.762	Roll:	-0.518	Pitch:	0.369	Yaw:	1.790	Thrust:	51.216
Time:	2.717	Roll Set Point:	0.019	Pitch Set Point:	-0.012	Yaw Set Point:	0.268	X_WP:	0.000	Y_WP:	0.000	Y_WP:	0.500	X:	-0.009	Y:	0.007	Z:	0.051	yaw:	-15.367	yaw rate:	-9.146	Roll:	-0.340	Pitch:	0.214	Yaw:	-26.270	Thrust:	52.055
Time:	2.734	Roll Set Point:	0.020	Pitch Set Point:	-0.012	Yaw Set Point:	0.251	X_WP:	0.000	Y_WP:	0.000	Y_WP:	0.500	X:	-0.009	Y:	0.007	Z:	0.051	yaw:	-14.383	yaw rate:	35.982	Roll:	-0.433	Pitch:	0.339	Yaw:	-8.369	Thrust:	52.863
Time:	2.751	Roll Set Point:	0.020	Pitch Set Point:	-0.013	Yaw Set Point:	0.237	X_WP:	0.000	Y_WP:	0.000	Y_WP:	0.500	X:	-0.009	Y:	0.008	Z:	0.051	yaw:	-13.573	yaw rate:	80.980	Roll:	-0.300	Pitch:	0.544	Yaw:	-9.943	Thrust:	53.582
Time:	2.767	Roll Set Point:	0.020	Pitch Set Point:	-0.014	Yaw Set Point:	0.217	X_WP:	0.000	Y_WP:	0.000	Y_WP:	0.500	X:	-0.009	Y:	0.008	Z:	0.051	yaw:	-12.441	yaw rate:	113.215	Roll:	-0.269	Pitch:	0.517	Yaw:	-2.115	Thrust:	54.075
Time:	2.785	Roll Set Point:	0.020	Pitch Set Point:	-0.014	Yaw Set Point:	0.207	X_WP:	0.000	Y_WP:	0.000	Y_WP:	0.500	X:	-0.009	Y:	0.008	Z:	0.051	yaw:	-11.858	yaw rate:	58.277	Roll:	-0.386	Pitch:	0.478	Yaw:	-11.712	Thrust:	57.460
Time:	2.802	Roll Set Point:	0.019	Pitch Set Point:	-0.015	Yaw Set Point:	0.193	X_WP:	0.000	Y_WP:	0.000	Y_WP:	0.500	X:	-0.009	Y:	0.008	Z:	0.051	yaw:	-11.036	yaw rate:	82.166	Roll:	-0.077	Pitch:	0.751	Yaw:	-6.171	Thrust:	56.115
Time:	2.819	Roll Set Point:	0.019	Pitch Set Point:	-0.016	Yaw Set Point:	0.178	X_WP:	0.000	Y_WP:	0.000	Y_WP:	0.500	X:	-0.009	Y:	0.009	Z:	0.051	yaw:	-10.184	yaw rate:	85.257	Roll:	-0.327	Pitch:	0.566	Yaw:	-4.534	Thrust:	58.545
Time:	2.836	Roll Set Point:	0.019	Pitch Set Point:	-0.017	Yaw Set Point:	0.148	X_WP:	0.000	Y_WP:	0.000	Y_WP:	0.500	X:	-0.009	Y:	0.009	Z:	0.051	yaw:	-8.456	yaw rate:	50.225	Roll:	-0.006	Pitch:	1.016	Yaw:	11.278	Thrust:	57.542
Time:	2.853	Roll Set Point:	0.019	Pitch Set Point:	-0.017	Yaw Set Point:	0.135	X_WP:	0.000	Y_WP:	0.000	Y_WP:	0.500	X:	-0.009	Y:	0.009	Z:	0.051	yaw:	-7.732	yaw rate:	72.387	Roll:	-0.167	Pitch:	0.534	Yaw:	-3.087	Thrust:	59.441
Time:	2.870	Roll Set Point:	0.019	Pitch Set Point:	-0.018	Yaw Set Point:	0.120	X_WP:	0.000	Y_WP:	0.000	Y_WP:	0.500	X:	-0.009	Y:	0.009	Z:	0.052	yaw:	-6.853	yaw rate:	87.896	Roll:	-0.327	Pitch:	0.521	Yaw:	0.522	Thrust:	60.097
Time:	2.887	Roll Set Point:	0.019	Pitch Set Point:	-0.018	Yaw Set Point:	0.116	X_WP:	0.000	Y_WP:	0.000	Y_WP:	0.500	X:	-0.009	Y:	0.010	Z:	0.052	yaw:	-6.631	yaw rate:	22.220	Roll:	-0.346	Pitch:	0.392	Yaw:	-9.250	Thrust:	61.419
Time:	2.904	Roll Set Point:	0.018	Pitch Set Point:	-0.019	Yaw Set Point:	0.093	X_WP:	0.000	Y_WP:	0.000	Y_WP:	0.500	X:	-0.009	Y:	0.010	Z:	0.052	yaw:	-5.356	yaw rate:	42.640	Roll:	0.004	Pitch:	0.776	Yaw:	8.711	Thrust:	60.074
Time:	2.921	Roll Set Point:	0.018	Pitch Set Point:	-0.019	Yaw Set Point:	0.078	X_WP:	0.000	Y_WP:	0.000	Y_WP:	0.500	X:	-0.009	Y:	0.010	Z:	0.053	yaw:	-4.465	yaw rate:	89.149	Roll:	-0.157	Pitch:	0.610	Yaw:	4.048	Thrust:	61.616
Time:	2.938	Roll Set Point:	0.018	Pitch Set Point:	-0.020	Yaw Set Point:	0.075	X_WP:	0.000	Y_WP:	0.000	Y_WP:	0.500	X:	-0.009	Y:	0.010	Z:	0.053	yaw:	-4.287	yaw rate:	17.800	Roll:	-0.184	Pitch:	0.416	Yaw:	-6.668	Thrust:	62.942
Time:	2.955	Roll Set Point:	0.018	Pitch Set Point:	-0.020	Yaw Set Point:	0.063	X_WP:	0.000	Y_WP:	0.000	Y_WP:	0.500	X:	-0.009	Y:	0.010	Z:	0.055	yaw:	-3.612	yaw rate:	67.459	Roll:	-0.162	Pitch:	0.472	Yaw:	1.911	Thrust:	62.174
Time:	2.973	Roll Set Point:	0.018	Pitch Set Point:	-0.020	Yaw Set Point:	0.049	X_WP:	0.000	Y_WP:	0.000	Y_WP:	0.500	X:	-0.009	Y:	0.010	Z:	0.056	yaw:	-2.803	yaw rate:	28.522	Roll:	-0.250	Pitch:	0.396	Yaw:	5.120	Thrust:	60.746
Time:	2.990	Roll Set Point:	0.018	Pitch Set Point:	-0.020	Yaw Set Point:	0.044	X_WP:	0.000	Y_WP:	0.000	Y_WP:	0.500	X:	-0.009	Y:	0.010	Z:	0.057	yaw:	-2.512	yaw rate:	29.097	Roll:	-0.166	Pitch:	0.536	Yaw:	-2.456	Thrust:	64.678
Time:	3.007	Roll Set Point:	0.018	Pitch Set Point:	-0.020	Yaw Set Point:	0.030	X_WP:	0.000	Y_WP:	0.000	Y_WP:	0.500	X:	-0.009	Y:	0.010	Z:	0.060	yaw:	-1.705	yaw rate:	25.916	Roll:	-0.199	Pitch:	0.396	Yaw:	6.624	Thrust:	60.506
Time:	3.024	Roll Set Point:	0.018	Pitch Set Point:	-0.020	Yaw Set Point:	0.027	X_WP:	0.000	Y_WP:	0.000	Y_WP:	0.500	X:	-0.009	Y:	0.010	Z:	0.061	yaw:	-1.527	yaw rate:	17.843	Roll:	-0.354	Pitch:	0.245	Yaw:	-2.807	Thrust:	65.440
Time:	3.041	Roll Set Point:	0.018	Pitch Set Point:	-0.020	Yaw Set Point:	0.015	X_WP:	0.000	Y_WP:	0.000	Y_WP:	0.500	X:	-0.009	Y:	0.010	Z:	0.062	yaw:	-0.882	yaw rate:	64.504	Roll:	-0.301	Pitch:	0.193	Yaw:	5.267	Thrust:	65.375
Time:	3.058	Roll Set Point:	0.018	Pitch Set Point:	-0.019	Yaw Set Point:	0.002	X_WP:	0.000	Y_WP:	0.000	Y_WP:	0.500	X:	-0.009	Y:	0.010	Z:	0.065	yaw:	-0.100	yaw rate:	38.937	Roll:	-0.277	Pitch:	0.023	Yaw:	8.449	Thrust:	61.423
Time:	3.075	Roll Set Point:	0.019	Pitch Set Point:	-0.019	Yaw Set Point:	0.004	X_WP:	0.000	Y_WP:	0.000	Y_WP:	0.500	X:	-0.009	Y:	0.009	Z:	0.067	yaw:	-0.217	yaw rate:	-11.655	Roll:	-0.616	Pitch:	-0.061	Yaw:	-5.500	Thrust:	67.240
Time:	3.091	Roll Set Point:	0.019	Pitch Set Point:	-0.018	Yaw Set Point:	-0.004	X_WP:	0.000	Y_WP:	0.000	Y_WP:	0.500	X:	-0.010	Y:	0.009	Z:	0.069	yaw:	0.210	yaw rate:	42.705	Roll:	-0.479	Pitch:	-0.085	Yaw:	4.054	Thrust:	62.686
Time:	3.108	Roll Set Point:	0.020	Pitch Set Point:	-0.017	Yaw Set Point:	-0.013	X_WP:	0.000	Y_WP:	0.000	Y_WP:	0.500	X:	-0.010	Y:	0.008	Z:	0.071	yaw:	0.750	yaw rate:	53.964	Roll:	-0.380	Pitch:	-0.080	Yaw:	5.910	Thrust:	65.749
Time:	3.125	Roll Set Point:	0.020	Pitch Set Point:	-0.015	Yaw Set Point:	-0.029	X_WP:	0.000	Y_WP:	0.000	Y_WP:	0.500	X:	-0.010	Y:	0.007	Z:	0.076	yaw:	1.642	yaw rate:	83.030	Roll:	-0.715	Pitch:	-0.797	Yaw:	12.589	Thrust:	59.586
Time:	3.142	Roll Set Point:	0.021	Pitch Set Point:	-0.014	Yaw Set Point:	-0.026	X_WP:	0.000	Y_WP:	0.000	Y_WP:	0.500	X:	-0.011	Y:	0.007	Z:	0.078	yaw:	1.505	yaw rate:	-13.679	Roll:	-0.567	Pitch:	-0.379	Yaw:	-3.393	Thrust:	68.627
Time:	3.159	Roll Set Point:	0.021	Pitch Set Point:	-0.012	Yaw Set Point:	-0.039	X_WP:	0.000	Y_WP:	0.000	Y_WP:	0.500	X:	-0.011	Y:	0.006	Z:	0.082	yaw:	2.257	yaw rate:	64.018	Roll:	-0.491	Pitch:	-0.431	Yaw:	11.322	Thrust:	64.217
Time:	3.176	Roll Set Point:	0.022	Pitch Set Point:	-0.011	Yaw Set Point:	-0.046	X_WP:	0.000	Y_WP:	0.000	Y_WP:	0.500	X:	-0.011	Y:	0.005	Z:	0.085	yaw:	2.630	yaw rate:	37.221	Roll:	-0.779	Pitch:	-0.568	Yaw:	6.030	Thrust:	67.209
Time:	3.193	Roll Set Point:	0.022	Pitch Set Point:	-0.010	Yaw Set Point:	-0.046	X_WP:	0.000	Y_WP:	0.000	Y_WP:	0.500	X:	-0.011	Y:	0.005	Z:	0.086	yaw:	2.651	yaw rate:	2.179	Roll:	-0.502	Pitch:	-0.288	Yaw:	0.681	Thrust:	70.505
Time:	3.210	Roll Set Point:	0.024	Pitch Set Point:	-0.007	Yaw Set Point:	-0.045	X_WP:	0.000	Y_WP:	0.000	Y_WP:	0.500	X:	-0.012	Y:	0.003	Z:	0.091	yaw:	2.580	yaw rate:	-7.119	Roll:	-1.021	Pitch:	-1.248	Yaw:	-0.831	Thrust:	65.507
Time:	3.227	Roll Set Point:	0.025	Pitch Set Point:	-0.005	Yaw Set Point:	-0.061	X_WP:	0.000	Y_WP:	0.000	Y_WP:	0.500	X:	-0.012	Y:	0.002	Z:	0.096	yaw:	3.475	yaw rate:	19.263	Roll:	-0.961	Pitch:	-1.041	Yaw:	15.268	Thrust:	61.820
Time:	3.244	Roll Set Point:	0.025	Pitch Set Point:	-0.003	Yaw Set Point:	-0.060	X_WP:	0.000	Y_WP:	0.000	Y_WP:	0.500	X:	-0.013	Y:	0.001	Z:	0.098	yaw:	3.430	yaw rate:	-4.436	Roll:	-0.623	Pitch:	-0.652	Yaw:	0.805	Thrust:	71.411
Time:	3.261	Roll Set Point:	0.027	Pitch Set Point:	-0.000	Yaw Set Point:	-0.065	X_WP:	0.000	Y_WP:	0.000	Y_WP:	0.500	X:	-0.014	Y:	-0.000	Z:	0.105	yaw:	3.740	yaw rate:	6.200	Roll:	-1.352	Pitch:	-1.324	Yaw:	6.691	Thrust:	61.624
Time:	3.278	Roll Set Point:	0.027	Pitch Set Point:	0.001	Yaw Set Point:	-0.066	X_WP:	0.000	Y_WP:	0.000	Y_WP:	0.500	X:	-0.014	Y:	-0.001	Z:	0.107	yaw:	3.793	yaw rate:	5.321	Roll:	-0.673	Pitch:	-0.534	Yaw:	2.852	Thrust:	72.155
Time:	3.295	Roll Set Point:	0.029	Pitch Set Point:	0.003	Yaw Set Point:	-0.067	X_WP:	0.000	Y_WP:	0.000	Y_WP:	0.500	X:	-0.014	Y:	-0.002	Z:	0.111	yaw:	3.814	yaw rate:	2.069	Roll:	-1.037	Pitch:	-1.031	Yaw:	2.405	Thrust:	68.593
Time:	3.312	Roll Set Point:	0.030	Pitch Set Point:	0.005	Yaw Set Point:	-0.067	X_WP:	0.000	Y_WP:	0.000	Y_WP:	0.500	X:	-0.015	Y:	-0.003	Z:	0.115	yaw:	3.812	yaw rate:	-0.153	Roll:	-1.161	Pitch:	-1.120	Yaw:	2.083	Thrust:	70.029
Time:	3.329	Roll Set Point:	0.031	Pitch Set Point:	0.008	Yaw Set Point:	-0.065	X_WP:	0.000	Y_WP:	0.000	Y_WP:	0.500	X:	-0.015	Y:	-0.004	Z:	0.119	yaw:	3.727	yaw rate:	-8.485	Roll:	-1.043	Pitch:	-1.269	Yaw:	0.706	Thrust:	68.793
Time:	3.347	Roll Set Point:	0.032	Pitch Set Point:	0.010	Yaw Set Point:	-0.067	X_WP:	0.000	Y_WP:	0.000	Y_WP:	0.500	X:	-0.016	Y:	-0.006	Z:	0.125	yaw:	3.867	yaw rate:	13.961	Roll:	-1.239	Pitch:	-1.265	Yaw:	4.374	Thrust:	66.100
Time:	3.364	Roll Set Point:	0.034	Pitch Set Point:	0.012	Yaw Set Point:	-0.062	X_WP:	0.000	Y_WP:	0.000	Y_WP:	0.500	X:	-0.017	Y:	-0.007	Z:	0.129	yaw:	3.564	yaw rate:	-30.279	Roll:	-1.205	Pitch:	-1.226	Yaw:	-2.822	Thrust:	70.371
Time:	3.381	Roll Set Point:	0.035	Pitch Set Point:	0.015	Yaw Set Point:	-0.064	X_WP:	0.000	Y_WP:	0.000	Y_WP:	0.500	X:	-0.017	Y:	-0.008	Z:	0.135	yaw:	3.695	yaw rate:	13.067	Roll:	-1.237	Pitch:	-1.389	Yaw:	4.039	Thrust:	65.054
Time:	3.398	Roll Set Point:	0.036	Pitch Set Point:	0.018	Yaw Set Point:	-0.063	X_WP:	0.000	Y_WP:	0.000	Y_WP:	0.500	X:	-0.018	Y:	-0.010	Z:	0.143	yaw:	3.587	yaw rate:	13.691	Roll:	-1.363	Pitch:	-1.869	Yaw:	0.239	Thrust:	61.271
Time:	3.415	Roll Set Point:	0.037	Pitch Set Point:	0.019	Yaw Set Point:	-0.062	X_WP:	0.000	Y_WP:	0.000	Y_WP:	0.500	X:	-0.018	Y:	-0.010	Z:	0.146	yaw:	3.528	yaw rate:	-5.867	Roll:	-0.976	Pitch:	-0.879	Yaw:	0.942	Thrust:	73.723
Time:	3.432	Roll Set Point:	0.038	Pitch Set Point:	0.021	Yaw Set Point:	-0.062	X_WP:	0.000	Y_WP:	0.000	Y_WP:	0.500	X:	-0.019	Y:	-0.011	Z:	0.152	yaw:	3.546	yaw rate:	1.829	Roll:	-1.218	Pitch:	-1.306	Yaw:	2.171	Thrust:	69.018
Time:	3.449	Roll Set Point:	0.040	Pitch Set Point:	0.024	Yaw Set Point:	-0.052	X_WP:	0.000	Y_WP:	0.000	Y_WP:	0.500	X:	-0.020	Y:	-0.013	Z:	0.160	yaw:	2.954	yaw rate:	-7.893	Roll:	-1.415	Pitch:	-1.999	Yaw:	-8.001	Thrust:	60.533
Time:	3.466	Roll Set Point:	0.041	Pitch Set Point:	0.027	Yaw Set Point:	-0.053	X_WP:	0.000	Y_WP:	0.000	Y_WP:	0.500	X:	-0.020	Y:	-0.014	Z:	0.166	yaw:	3.033	yaw rate:	7.806	Roll:	-1.223	Pitch:	-1.384	Yaw:	2.416	Thrust:	69.209
Time:	3.483	Roll Set Point:	0.041	Pitch Set Point:	0.028	Yaw Set Point:	-0.051	X_WP:	0.000	Y_WP:	0.000	Y_WP:	0.500	X:	-0.020	Y:	-0.014	Z:	0.170	yaw:	2.912	yaw rate:	-12.038	Roll:	-0.784	Pitch:	-0.917	Yaw:	-0.790	Thrust:	73.803
Time:	3.500	Roll Set Point:	0.043	Pitch Set Point:	0.030	Yaw Set Point:	-0.043	X_WP:	0.000	Y_WP:	0.000	Y_WP:	0.500	X:	-0.021	Y:	-0.016	Z:	0.177	yaw:	2.447	yaw rate:	-46.562	Roll:	-1.280	Pitch:	-1.880	Yaw:	-6.730	Thrust:	64.490
Time:	3.517	Roll Set Point:	0.043	Pitch Set Point:	0.031	Yaw Set Point:	-0.048	X_WP:	0.000	Y_WP:	0.000	Y_WP:	0.500	X:	-0.021	Y:	-0.016	Z:	0.183	yaw:	2.743	yaw rate:	29.636	Roll:	-0.990	Pitch:	-0.859	Yaw:	5.398	Thrust:	69.360
Time:	3.534	Roll Set Point:	0.045	Pitch Set Point:	0.035	Yaw Set Point:	-0.044	X_WP:	0.000	Y_WP:	0.000	Y_WP:	0.500	X:	-0.022	Y:	-0.018	Z:	0.195	yaw:	2.499	yaw rate:	29.953	Roll:	-1.513	Pitch:	-2.294	Yaw:	-3.215	Thrust:	53.679
Time:	3.552	Roll Set Point:	0.045	Pitch Set Point:	0.036	Yaw Set Point:	-0.044	X_WP:	0.000	Y_WP:	0.000	Y_WP:	0.500	X:	-0.022	Y:	-0.019	Z:	0.199	yaw:	2.526	yaw rate:	2.655	Roll:	-1.049	Pitch:	-1.018	Yaw:	0.791	Thrust:	79.236
Time:	3.569	Roll Set Point:	0.046	Pitch Set Point:	0.038	Yaw Set Point:	-0.034	X_WP:	0.000	Y_WP:	0.000	Y_WP:	0.500	X:	-0.023	Y:	-0.020	Z:	0.207	yaw:	1.956	yaw rate:	-44.444	Roll:	-1.048	Pitch:	-1.757	Yaw:	-8.951	Thrust:	63.099
Time:	3.586	Roll Set Point:	0.046	Pitch Set Point:	0.039	Yaw Set Point:	-0.035	X_WP:	0.000	Y_WP:	0.000	Y_WP:	0.500	X:	-0.023	Y:	-0.020	Z:	0.211	yaw:	2.028	yaw rate:	7.281	Roll:	-0.830	Pitch:	-1.025	Yaw:	1.041	Thrust:	74.138
Time:	3.603	Roll Set Point:	0.047	Pitch Set Point:	0.041	Yaw Set Point:	-0.034	X_WP:	0.000	Y_WP:	0.000	Y_WP:	0.500	X:	-0.023	Y:	-0.021	Z:	0.218	yaw:	1.953	yaw rate:	-7.545	Roll:	-0.900	Pitch:	-1.220	Yaw:	-1.336	Thrust:	69.006
Time:	3.620	Roll Set Point:	0.048	Pitch Set Point:	0.043	Yaw Set Point:	-0.034	X_WP:	0.000	Y_WP:	0.000	Y_WP:	0.500	X:	-0.023	Y:	-0.022	Z:	0.231	yaw:	1.958	yaw rate:	4.861	Roll:	-1.154	Pitch:	-1.760	Yaw:	-0.081	Thrust:	51.209
Time:	3.637	Roll Set Point:	0.048	Pitch Set Point:	0.044	Yaw Set Point:	-0.027	X_WP:	0.000	Y_WP:	0.000	Y_WP:	0.500	X:	-0.024	Y:	-0.022	Z:	0.235	yaw:	1.529	yaw rate:	-42.886	Roll:	-0.741	Pitch:	-1.285	Yaw:	-7.334	Thrust:	74.467
Time:	3.654	Roll Set Point:	0.048	Pitch Set Point:	0.045	Yaw Set Point:	-0.034	X_WP:	0.000	Y_WP:	0.000	Y_WP:	0.500	X:	-0.024	Y:	-0.023	Z:	0.242	yaw:	1.925	yaw rate:	39.523	Roll:	-0.990	Pitch:	-0.917	Yaw:	5.898	Thrust:	68.311
Time:	3.672	Roll Set Point:	0.048	Pitch Set Point:	0.046	Yaw Set Point:	-0.033	X_WP:	0.000	Y_WP:	0.000	Y_WP:	0.500	X:	-0.024	Y:	-0.023	Z:	0.249	yaw:	1.911	yaw rate:	-1.363	Roll:	-0.759	Pitch:	-1.076	Yaw:	-0.446	Thrust:	70.659
Time:	3.689	Roll Set Point:	0.048	Pitch Set Point:	0.048	Yaw Set Point:	-0.021	X_WP:	0.000	Y_WP:	0.000	Y_WP:	0.500	X:	-0.024	Y:	-0.024	Z:	0.260	yaw:	1.185	yaw rate:	-39.674	Roll:	-0.665	Pitch:	-1.893	Yaw:	-12.340	Thrust:	56.592
Time:	3.706	Roll Set Point:	0.048	Pitch Set Point:	0.048	Yaw Set Point:	-0.028	X_WP:	0.000	Y_WP:	0.000	Y_WP:	0.500	X:	-0.024	Y:	-0.024	Z:	0.265	yaw:	1.582	yaw rate:	39.716	Roll:	-0.763	Pitch:	-0.588	Yaw:	5.468	Thrust:	73.773
Time:	3.723	Roll Set Point:	0.047	Pitch Set Point:	0.049	Yaw Set Point:	-0.025	X_WP:	0.000	Y_WP:	0.000	Y_WP:	0.500	X:	-0.023	Y:	-0.025	Z:	0.277	yaw:	1.454	yaw rate:	-23.910	Roll:	-0.475	Pitch:	-1.230	Yaw:	-2.776	Thrust:	55.197
Time:	3.740	Roll Set Point:	0.048	Pitch Set Point:	0.050	Yaw Set Point:	-0.021	X_WP:	0.000	Y_WP:	0.000	Y_WP:	0.500	X:	-0.024	Y:	-0.025	Z:	0.281	yaw:	1.216	yaw rate:	-23.765	Roll:	-0.772	Pitch:	-1.286	Yaw:	-4.777	Thrust:	73.627
Time:	3.757	Roll Set Point:	0.047	Pitch Set Point:	0.050	Yaw Set Point:	-0.020	X_WP:	0.000	Y_WP:	0.000	Y_WP:	0.500	X:	-0.023	Y:	-0.025	Z:	0.289	yaw:	1.135	yaw rate:	-8.087	Roll:	-0.532	Pitch:	-0.878	Yaw:	-2.473	Thrust:	67.229
Time:	3.774	Roll Set Point:	0.046	Pitch Set Point:	0.051	Yaw Set Point:	-0.013	X_WP:	0.000	Y_WP:	0.000	Y_WP:	0.500	X:	-0.023	Y:	-0.026	Z:	0.299	yaw:	0.773	yaw rate:	-36.239	Roll:	-0.268	Pitch:	-1.320	Yaw:	-7.292	Thrust:	60.379
Time:	3.791	Roll Set Point:	0.046	Pitch Set Point:	0.051	Yaw Set Point:	-0.015	X_WP:	0.000	Y_WP:	0.000	Y_WP:	0.500	X:	-0.023	Y:	-0.026	Z:	0.306	yaw:	0.842	yaw rate:	6.923	Roll:	-0.325	Pitch:	-0.787	Yaw:	-0.571	Thrust:	66.240
Time:	3.808	Roll Set Point:	0.045	Pitch Set Point:	0.052	Yaw Set Point:	-0.015	X_WP:	0.000	Y_WP:	0.000	Y_WP:	0.500	X:	-0.022	Y:	-0.026	Z:	0.314	yaw:	0.852	yaw rate:	1.013	Roll:	-0.484	Pitch:	-0.897	Yaw:	-1.449	Thrust:	65.690
Time:	3.825	Roll Set Point:	0.044	Pitch Set Point:	0.052	Yaw Set Point:	-0.020	X_WP:	0.000	Y_WP:	0.000	Y_WP:	0.500	X:	-0.022	Y:	-0.026	Z:	0.329	yaw:	1.127	yaw rate:	1.379	Roll:	0.011	Pitch:	-0.699	Yaw:	2.990	Thrust:	45.774
Time:	3.842	Roll Set Point:	0.043	Pitch Set Point:	0.051	Yaw Set Point:	-0.021	X_WP:	0.000	Y_WP:	0.000	Y_WP:	0.500	X:	-0.021	Y:	-0.026	Z:	0.334	yaw:	1.211	yaw rate:	8.365	Roll:	-0.344	Pitch:	-0.637	Yaw:	0.193	Thrust:	72.642
Time:	3.859	Roll Set Point:	0.042	Pitch Set Point:	0.052	Yaw Set Point:	-0.016	X_WP:	0.000	Y_WP:	0.000	Y_WP:	0.500	X:	-0.021	Y:	-0.026	Z:	0.347	yaw:	0.932	yaw rate:	-12.612	Roll:	-0.046	Pitch:	-0.990	Yaw:	-5.754	Thrust:	52.735
Time:	3.876	Roll Set Point:	0.041	Pitch Set Point:	0.052	Yaw Set Point:	-0.009	X_WP:	0.000	Y_WP:	0.000	Y_WP:	0.500	X:	-0.020	Y:	-0.026	Z:	0.352	yaw:	0.492	yaw rate:	-44.007	Roll:	-0.188	Pitch:	-0.910	Yaw:	-8.847	Thrust:	71.884
Time:	3.893	Roll Set Point:	0.039	Pitch Set Point:	0.051	Yaw Set Point:	-0.014	X_WP:	0.000	Y_WP:	0.000	Y_WP:	0.500	X:	-0.019	Y:	-0.026	Z:	0.362	yaw:	0.824	yaw rate:	43.449	Roll:	0.100	Pitch:	-0.434	Yaw:	3.462	Thrust:	59.396
Time:	3.910	Roll Set Point:	0.038	Pitch Set Point:	0.051	Yaw Set Point:	-0.006	X_WP:	0.000	Y_WP:	0.000	Y_WP:	0.500	X:	-0.019	Y:	-0.026	Z:	0.369	yaw:	0.354	yaw rate:	-46.983	Roll:	0.003	Pitch:	-0.796	Yaw:	-9.499	Thrust:	66.173
Time:	3.927	Roll Set Point:	0.037	Pitch Set Point:	0.051	Yaw Set Point:	-0.016	X_WP:	0.000	Y_WP:	0.000	Y_WP:	0.500	X:	-0.018	Y:	-0.025	Z:	0.374	yaw:	0.930	yaw rate:	57.584	Roll:	-0.218	Pitch:	-0.303	Yaw:	7.377	Thrust:	72.731
Time:	3.945	Roll Set Point:	0.035	Pitch Set Point:	0.050	Yaw Set Point:	-0.009	X_WP:	0.000	Y_WP:	0.000	Y_WP:	0.500	X:	-0.017	Y:	-0.025	Z:	0.388	yaw:	0.521	yaw rate:	45.137	Roll:	0.613	Pitch:	-0.406	Yaw:	-8.141	Thrust:	54.694
Time:	3.962	Roll Set Point:	0.034	Pitch Set Point:	0.050	Yaw Set Point:	0.001	X_WP:	0.000	Y_WP:	0.000	Y_WP:	0.500	X:	-0.017	Y:	-0.025	Z:	0.392	yaw:	-0.058	yaw rate:	-57.900	Roll:	0.124	Pitch:	-0.754	Yaw:	-11.741	Thrust:	73.048
Time:	3.979	Roll Set Point:	0.032	Pitch Set Point:	0.048	Yaw Set Point:	-0.004	X_WP:	0.000	Y_WP:	0.000	Y_WP:	0.500	X:	-0.016	Y:	-0.024	Z:	0.401	yaw:	0.220	yaw rate:	0.536	Roll:	0.209	Pitch:	-0.143	Yaw:	1.822	Thrust:	61.209
Time:	3.996	Roll Set Point:	0.031	Pitch Set Point:	0.048	Yaw Set Point:	-0.004	X_WP:	0.000	Y_WP:	0.000	Y_WP:	0.500	X:	-0.015	Y:	-0.024	Z:	0.408	yaw:	0.219	yaw rate:	-0.100	Roll:	0.223	Pitch:	-0.361	Yaw:	-2.465	Thrust:	66.757
Time:	4.013	Roll Set Point:	0.029	Pitch Set Point:	0.047	Yaw Set Point:	-0.003	X_WP:	0.000	Y_WP:	0.000	Y_WP:	0.500	X:	-0.015	Y:	-0.023	Z:	0.414	yaw:	0.181	yaw rate:	-3.771	Roll:	0.348	Pitch:	-0.136	Yaw:	-3.084	Thrust:	66.965
Time:	4.031	Roll Set Point:	0.028	Pitch Set Point:	0.046	Yaw Set Point:	-0.003	X_WP:	0.000	Y_WP:	0.000	Y_WP:	0.500	X:	-0.014	Y:	-0.023	Z:	0.421	yaw:	0.190	yaw rate:	0.814	Roll:	0.215	Pitch:	-0.308	Yaw:	-2.363	Thrust:	67.375
Time:	4.048	Roll Set Point:	0.025	Pitch Set Point:	0.044	Yaw Set Point:	0.006	X_WP:	0.000	Y_WP:	0.000	Y_WP:	0.500	X:	-0.013	Y:	-0.022	Z:	0.431	yaw:	-0.317	yaw rate:	-41.786	Roll:	0.936	Pitch:	0.134	Yaw:	-10.981	Thrust:	55.452
Time:	4.065	Roll Set Point:	0.024	Pitch Set Point:	0.044	Yaw Set Point:	0.003	X_WP:	0.000	Y_WP:	0.000	Y_WP:	0.500	X:	-0.012	Y:	-0.022	Z:	0.436	yaw:	-0.182	yaw rate:	13.483	Roll:	0.062	Pitch:	-0.321	Yaw:	-0.937	Thrust:	72.207
Time:	4.082	Roll Set Point:	0.023	Pitch Set Point:	0.043	Yaw Set Point:	0.004	X_WP:	0.000	Y_WP:	0.000	Y_WP:	0.500	X:	-0.011	Y:	-0.021	Z:	0.442	yaw:	-0.204	yaw rate:	-2.212	Roll:	0.304	Pitch:	-0.164	Yaw:	-3.380	Thrust:	66.665
Time:	4.098	Roll Set Point:	0.021	Pitch Set Point:	0.042	Yaw Set Point:	0.011	X_WP:	0.000	Y_WP:	0.000	Y_WP:	0.500	X:	-0.011	Y:	-0.021	Z:	0.448	yaw:	-0.636	yaw rate:	-43.223	Roll:	0.744	Pitch:	-0.126	Yaw:	-10.537	Thrust:	60.359
Time:	4.115	Roll Set Point:	0.019	Pitch Set Point:	0.040	Yaw Set Point:	0.005	X_WP:	0.000	Y_WP:	0.000	Y_WP:	0.500	X:	-0.010	Y:	-0.020	Z:	0.455	yaw:	-0.305	yaw rate:	33.106	Roll:	0.486	Pitch:	0.265	Yaw:	1.898	Thrust:	65.873
Time:	4.132	Roll Set Point:	0.016	Pitch Set Point:	0.037	Yaw Set Point:	0.001	X_WP:	0.000	Y_WP:	0.000	Y_WP:	0.500	X:	-0.008	Y:	-0.019	Z:	0.467	yaw:	-0.040	yaw rate:	16.452	Roll:	1.395	Pitch:	0.870	Yaw:	1.248	Thrust:	49.019
Time:	4.149	Roll Set Point:	0.014	Pitch Set Point:	0.036	Yaw Set Point:	0.004	X_WP:	0.000	Y_WP:	0.000	Y_WP:	0.500	X:	-0.007	Y:	-0.018	Z:	0.471	yaw:	-0.238	yaw rate:	-19.756	Roll:	0.370	Pitch:	-0.138	Yaw:	-6.129	Thrust:	71.167
Time:	4.166	Roll Set Point:	0.013	Pitch Set Point:	0.035	Yaw Set Point:	0.004	X_WP:	0.000	Y_WP:	0.000	Y_WP:	0.500	X:	-0.006	Y:	-0.018	Z:	0.478	yaw:	-0.226	yaw rate:	1.178	Roll:	0.522	Pitch:	-0.098	Yaw:	-2.899	Thrust:	65.166
Time:	4.183	Roll Set Point:	0.011	Pitch Set Point:	0.034	Yaw Set Point:	0.000	X_WP:	0.000	Y_WP:	0.000	Y_WP:	0.500	X:	-0.005	Y:	-0.017	Z:	0.484	yaw:	-0.002	yaw rate:	22.453	Roll:	0.686	Pitch:	0.365	Yaw:	0.681	Thrust:	65.111
Time:	4.200	Roll Set Point:	0.008	Pitch Set Point:	0.032	Yaw Set Point:	0.005	X_WP:	0.000	Y_WP:	0.000	Y_WP:	0.500	X:	-0.004	Y:	-0.016	Z:	0.492	yaw:	-0.290	yaw rate:	-28.862	Roll:	1.037	Pitch:	0.343	Yaw:	-7.604	Thrust:	58.761
Time:	4.217	Roll Set Point:	0.005	Pitch Set Point:	0.029	Yaw Set Point:	0.002	X_WP:	0.000	Y_WP:	0.000	Y_WP:	0.500	X:	-0.003	Y:	-0.015	Z:	0.503	yaw:	-0.139	yaw rate:	34.135	Roll:	1.325	Pitch:	0.775	Yaw:	-0.641	Thrust:	52.609
Time:	4.234	Roll Set Point:	0.004	Pitch Set Point:	0.028	Yaw Set Point:	0.001	X_WP:	0.000	Y_WP:	0.000	Y_WP:	0.500	X:	-0.002	Y:	-0.014	Z:	0.507	yaw:	-0.062	yaw rate:	7.772	Roll:	0.571	Pitch:	0.127	Yaw:	-1.660	Thrust:	68.891
Time:	4.251	Roll Set Point:	0.001	Pitch Set Point:	0.026	Yaw Set Point:	0.007	X_WP:	0.000	Y_WP:	0.000	Y_WP:	0.500	X:	-0.001	Y:	-0.013	Z:	0.518	yaw:	-0.411	yaw rate:	-1.452	Roll:	1.252	Pitch:	0.649	Yaw:	-8.706	Thrust:	51.213
Time:	4.268	Roll Set Point:	0.000	Pitch Set Point:	0.026	Yaw Set Point:	0.013	X_WP:	0.000	Y_WP:	0.000	Y_WP:	0.500	X:	-0.000	Y:	-0.013	Z:	0.522	yaw:	-0.763	yaw rate:	-35.227	Roll:	0.558	Pitch:	-0.086	Yaw:	-9.247	Thrust:	68.645
Time:	4.285	Roll Set Point:	-0.001	Pitch Set Point:	0.024	Yaw Set Point:	0.011	X_WP:	0.000	Y_WP:	0.000	Y_WP:	0.500	X:	0.001	Y:	-0.012	Z:	0.529	yaw:	-0.656	yaw rate:	10.665	Roll:	0.782	Pitch:	0.274	Yaw:	-2.054	Thrust:	62.010
Time:	4.302	Roll Set Point:	-0.003	Pitch Set Point:	0.023	Yaw Set Point:	0.005	X_WP:	0.000	Y_WP:	0.000	Y_WP:	0.500	X:	0.002	Y:	-0.011	Z:	0.535	yaw:	-0.296	yaw rate:	36.002	Roll:	0.829	Pitch:	0.268	Yaw:	2.337	Thrust:	62.451
Time:	4.319	Roll Set Point:	-0.005	Pitch Set Point:	0.022	Yaw Set Point:	0.008	X_WP:	0.000	Y_WP:	0.000	Y_WP:	0.500	X:	0.002	Y:	-0.011	Z:	0.541	yaw:	-0.448	yaw rate:	-15.157	Roll:	0.731	Pitch:	0.205	Yaw:	-5.734	Thrust:	61.788
Time:	4.336	Roll Set Point:	-0.007	Pitch Set Point:	0.019	Yaw Set Point:	0.004	X_WP:	0.000	Y_WP:	0.000	Y_WP:	0.500	X:	0.004	Y:	-0.010	Z:	0.549	yaw:	-0.230	yaw rate:	21.804	Roll:	1.395	Pitch:	0.935	Yaw:	0.244	Thrust:	57.325
Time:	4.353	Roll Set Point:	-0.009	Pitch Set Point:	0.018	Yaw Set Point:	0.009	X_WP:	0.000	Y_WP:	0.000	Y_WP:	0.500	X:	0.004	Y:	-0.009	Z:	0.555	yaw:	-0.508	yaw rate:	-27.834	Roll:	0.843	Pitch:	0.176	Yaw:	-7.769	Thrust:	61.534
Time:	4.371	Roll Set Point:	-0.012	Pitch Set Point:	0.016	Yaw Set Point:	0.005	X_WP:	0.000	Y_WP:	0.000	Y_WP:	0.500	X:	0.006	Y:	-0.008	Z:	0.566	yaw:	-0.285	yaw rate:	-8.715	Roll:	1.560	Pitch:	1.004	Yaw:	0.176	Thrust:	48.209
Time:	4.388	Roll Set Point:	-0.013	Pitch Set Point:	0.015	Yaw Set Point:	0.009	X_WP:	0.000	Y_WP:	0.000	Y_WP:	0.500	X:	0.007	Y:	-0.007	Z:	0.569	yaw:	-0.504	yaw rate:	-21.845	Roll:	0.737	Pitch:	0.248	Yaw:	-6.849	Thrust:	66.563
Time:	4.405	Roll Set Point:	-0.014	Pitch Set Point:	0.014	Yaw Set Point:	0.005	X_WP:	0.000	Y_WP:	0.000	Y_WP:	0.500	X:	0.007	Y:	-0.007	Z:	0.573	yaw:	-0.298	yaw rate:	20.561	Roll:	0.759	Pitch:	0.124	Yaw:	-0.059	Thrust:	66.381
Time:	4.422	Roll Set Point:	-0.016	Pitch Set Point:	0.013	Yaw Set Point:	0.005	X_WP:	0.000	Y_WP:	0.000	Y_WP:	0.500	X:	0.008	Y:	-0.006	Z:	0.580	yaw:	-0.262	yaw rate:	3.588	Roll:	1.167	Pitch:	0.518	Yaw:	-2.611	Thrust:	57.040
Time:	4.439	Roll Set Point:	-0.018	Pitch Set Point:	0.011	Yaw Set Point:	0.005	X_WP:	0.000	Y_WP:	0.000	Y_WP:	0.500	X:	0.009	Y:	-0.006	Z:	0.585	yaw:	-0.292	yaw rate:	-2.999	Roll:	0.861	Pitch:	0.579	Yaw:	-3.664	Thrust:	61.735
Time:	4.456	Roll Set Point:	-0.020	Pitch Set Point:	0.009	Yaw Set Point:	0.003	X_WP:	0.000	Y_WP:	0.000	Y_WP:	0.500	X:	0.010	Y:	-0.004	Z:	0.593	yaw:	-0.181	yaw rate:	30.366	Roll:	1.552	Pitch:	0.912	Yaw:	-1.338	Thrust:	53.700
Time:	4.473	Roll Set Point:	-0.021	Pitch Set Point:	0.008	Yaw Set Point:	0.016	X_WP:	0.000	Y_WP:	0.000	Y_WP:	0.500	X:	0.010	Y:	-0.004	Z:	0.596	yaw:	-0.924	yaw rate:	-74.349	Roll:	0.512	Pitch:	0.212	Yaw:	-15.509	Thrust:	66.213
Time:	4.490	Roll Set Point:	-0.022	Pitch Set Point:	0.007	Yaw Set Point:	0.007	X_WP:	0.000	Y_WP:	0.000	Y_WP:	0.500	X:	0.011	Y:	-0.003	Z:	0.600	yaw:	-0.391	yaw rate:	53.367	Roll:	0.988	Pitch:	0.580	Yaw:	4.846	Thrust:	61.793
Time:	4.507	Roll Set Point:	-0.025	Pitch Set Point:	0.005	Yaw Set Point:	0.009	X_WP:	0.000	Y_WP:	0.000	Y_WP:	0.500	X:	0.012	Y:	-0.003	Z:	0.607	yaw:	-0.511	yaw rate:	17.071	Roll:	1.310	Pitch:	0.834	Yaw:	-5.362	Thrust:	54.091
Time:	4.524	Roll Set Point:	-0.025	Pitch Set Point:	0.004	Yaw Set Point:	0.012	X_WP:	0.000	Y_WP:	0.000	Y_WP:	0.500	X:	0.013	Y:	-0.002	Z:	0.610	yaw:	-0.666	yaw rate:	-15.507	Roll:	0.616	Pitch:	0.191	Yaw:	-6.120	Thrust:	65.502
Time:	4.541	Roll Set Point:	-0.028	Pitch Set Point:	0.002	Yaw Set Point:	0.009	X_WP:	0.000	Y_WP:	0.000	Y_WP:	0.500	X:	0.014	Y:	-0.001	Z:	0.618	yaw:	-0.536	yaw rate:	1.704	Roll:	1.545	Pitch:	0.916	Yaw:	-1.586	Thrust:	51.355
Time:	4.558	Roll Set Point:	-0.028	Pitch Set Point:	0.001	Yaw Set Point:	0.010	X_WP:	0.000	Y_WP:	0.000	Y_WP:	0.500	X:	0.014	Y:	-0.001	Z:	0.620	yaw:	-0.586	yaw rate:	-4.961	Roll:	0.701	Pitch:	0.595	Yaw:	-4.393	Thrust:	65.020
Time:	4.576	Roll Set Point:	-0.029	Pitch Set Point:	0.000	Yaw Set Point:	0.015	X_WP:	0.000	Y_WP:	0.000	Y_WP:	0.500	X:	0.015	Y:	-0.000	Z:	0.624	yaw:	-0.884	yaw rate:	-29.802	Roll:	0.862	Pitch:	0.338	Yaw:	-8.567	Thrust:	65.045
Time:	4.594	Roll Set Point:	-0.030	Pitch Set Point:	-0.001	Yaw Set Point:	0.007	X_WP:	0.000	Y_WP:	0.000	Y_WP:	0.500	X:	0.015	Y:	0.000	Z:	0.627	yaw:	-0.425	yaw rate:	45.867	Roll:	0.721	Pitch:	0.433	Yaw:	3.079	Thrust:	67.404
Time:	4.611	Roll Set Point:	-0.032	Pitch Set Point:	-0.002	Yaw Set Point:	0.009	X_WP:	0.000	Y_WP:	0.000	Y_WP:	0.500	X:	0.016	Y:	0.001	Z:	0.631	yaw:	-0.493	yaw rate:	-6.776	Roll:	1.226	Pitch:	0.735	Yaw:	-4.557	Thrust:	58.885
Time:	4.628	Roll Set Point:	-0.033	Pitch Set Point:	-0.003	Yaw Set Point:	0.003	X_WP:	0.000	Y_WP:	0.000	Y_WP:	0.500	X:	0.016	Y:	0.001	Z:	0.634	yaw:	-0.155	yaw rate:	33.770	Roll:	0.842	Pitch:	0.389	Yaw:	2.128	Thrust:	62.438
Time:	4.645	Roll Set Point:	-0.034	Pitch Set Point:	-0.004	Yaw Set Point:	0.009	X_WP:	0.000	Y_WP:	0.000	Y_WP:	0.500	X:	0.017	Y:	0.002	Z:	0.638	yaw:	-0.510	yaw rate:	-35.451	Roll:	1.048	Pitch:	0.705	Yaw:	-8.992	Thrust:	59.129
Time:	4.662	Roll Set Point:	-0.035	Pitch Set Point:	-0.005	Yaw Set Point:	0.009	X_WP:	0.000	Y_WP:	0.000	Y_WP:	0.500	X:	0.017	Y:	0.002	Z:	0.640	yaw:	-0.501	yaw rate:	0.900	Roll:	0.855	Pitch:	0.453	Yaw:	-3.400	Thrust:	61.769
Time:	4.680	Roll Set Point:	-0.036	Pitch Set Point:	-0.006	Yaw Set Point:	0.002	X_WP:	0.000	Y_WP:	0.000	Y_WP:	0.500	X:	0.018	Y:	0.003	Z:	0.643	yaw:	-0.140	yaw rate:	36.072	Roll:	0.886	Pitch:	0.301	Yaw:	2.147	Thrust:	64.964
Time:	4.697	Roll Set Point:	-0.036	Pitch Set Point:	-0.007	Yaw Set Point:	0.010	X_WP:	0.000	Y_WP:	0.000	Y_WP:	0.500	X:	0.018	Y:	0.003	Z:	0.648	yaw:	-0.558	yaw rate:	-32.376	Roll:	0.734	Pitch:	0.585	Yaw:	-10.042	Thrust:	54.873
Time:	4.714	Roll Set Point:	-0.037	Pitch Set Point:	-0.008	Yaw Set Point:	0.004	X_WP:	0.000	Y_WP:	0.000	Y_WP:	0.500	X:	0.019	Y:	0.004	Z:	0.650	yaw:	-0.203	yaw rate:	35.588	Roll:	0.939	Pitch:	0.525	Yaw:	2.341	Thrust:	62.742
Time:	4.730	Roll Set Point:	-0.037	Pitch Set Point:	-0.008	Yaw Set Point:	0.011	X_WP:	0.000	Y_WP:	0.000	Y_WP:	0.500	X:	0.019	Y:	0.004	Z:	0.652	yaw:	-0.642	yaw rate:	-43.896	Roll:	0.657	Pitch:	0.445	Yaw:	-10.672	Thrust:	56.800
Time:	4.747	Roll Set Point:	-0.039	Pitch Set Point:	-0.009	Yaw Set Point:	0.002	X_WP:	0.000	Y_WP:	0.000	Y_WP:	0.500	X:	0.019	Y:	0.005	Z:	0.656	yaw:	-0.101	yaw rate:	-16.033	Roll:	1.109	Pitch:	0.640	Yaw:	5.313	Thrust:	56.457
Time:	4.764	Roll Set Point:	-0.039	Pitch Set Point:	-0.010	Yaw Set Point:	0.007	X_WP:	0.000	Y_WP:	0.000	Y_WP:	0.500	X:	0.019	Y:	0.005	Z:	0.657	yaw:	-0.422	yaw rate:	-32.136	Roll:	0.557	Pitch:	0.386	Yaw:	-8.373	Thrust:	62.124
Time:	4.781	Roll Set Point:	-0.040	Pitch Set Point:	-0.011	Yaw Set Point:	-0.002	X_WP:	0.000	Y_WP:	0.000	Y_WP:	0.500	X:	0.020	Y:	0.005	Z:	0.661	yaw:	0.090	yaw rate:	69.440	Roll:	0.906	Pitch:	0.383	Yaw:	5.144	Thrust:	56.328
Time:	4.798	Roll Set Point:	-0.039	Pitch Set Point:	-0.011	Yaw Set Point:	0.005	X_WP:	0.000	Y_WP:	0.000	Y_WP:	0.500	X:	0.020	Y:	0.005	Z:	0.662	yaw:	-0.264	yaw rate:	-35.333	Roll:	0.444	Pitch:	0.458	Yaw:	-8.644	Thrust:	61.647
Time:	4.815	Roll Set Point:	-0.040	Pitch Set Point:	-0.011	Yaw Set Point:	0.002	X_WP:	0.000	Y_WP:	0.000	Y_WP:	0.500	X:	0.020	Y:	0.006	Z:	0.664	yaw:	-0.137	yaw rate:	12.702	Roll:	0.789	Pitch:	0.286	Yaw:	-1.097	Thrust:	60.207
Time:	4.832	Roll Set Point:	-0.040	Pitch Set Point:	-0.012	Yaw Set Point:	0.012	X_WP:	0.000	Y_WP:	0.000	Y_WP:	0.500	X:	0.020	Y:	0.006	Z:	0.666	yaw:	-0.714	yaw rate:	-57.797	Roll:	0.300	Pitch:	0.426	Yaw:	-12.725	Thrust:	59.905
Time:	4.850	Roll Set Point:	-0.040	Pitch Set Point:	-0.013	Yaw Set Point:	0.004	X_WP:	0.000	Y_WP:	0.000	Y_WP:	0.500	X:	0.020	Y:	0.006	Z:	0.668	yaw:	-0.204	yaw rate:	51.051	Roll:	0.797	Pitch:	0.457	Yaw:	4.716	Thrust:	58.109
Time:	4.867	Roll Set Point:	-0.040	Pitch Set Point:	-0.013	Yaw Set Point:	0.001	X_WP:	0.000	Y_WP:	0.000	Y_WP:	0.500	X:	0.020	Y:	0.007	Z:	0.669	yaw:	-0.083	yaw rate:	12.134	Roll:	0.765	Pitch:	0.380	Yaw:	-1.109	Thrust:	60.345
Time:	4.884	Roll Set Point:	-0.041	Pitch Set Point:	-0.014	Yaw Set Point:	0.002	X_WP:	0.000	Y_WP:	0.000	Y_WP:	0.500	X:	0.020	Y:	0.007	Z:	0.670	yaw:	-0.143	yaw rate:	-5.994	Roll:	0.555	Pitch:	0.416	Yaw:	-3.978	Thrust:	59.808
Time:	4.901	Roll Set Point:	-0.040	Pitch Set Point:	-0.014	Yaw Set Point:	0.005	X_WP:	0.000	Y_WP:	0.000	Y_WP:	0.500	X:	0.020	Y:	0.007	Z:	0.671	yaw:	-0.277	yaw rate:	-13.479	Roll:	0.386	Pitch:	0.436	Yaw:	-5.316	Thrust:	59.255
Time:	4.918	Roll Set Point:	-0.040	Pitch Set Point:	-0.015	Yaw Set Point:	0.012	X_WP:	0.000	Y_WP:	0.000	Y_WP:	0.500	X:	0.020	Y:	0.007	Z:	0.672	yaw:	-0.678	yaw rate:	-43.409	Roll:	0.350	Pitch:	0.561	Yaw:	-9.954	Thrust:	59.095
Time:	4.935	Roll Set Point:	-0.040	Pitch Set Point:	-0.015	Yaw Set Point:	0.011	X_WP:	0.000	Y_WP:	0.000	Y_WP:	0.500	X:	0.020	Y:	0.007	Z:	0.673	yaw:	-0.640	yaw rate:	3.747	Roll:	0.542	Pitch:	0.334	Yaw:	-3.183	Thrust:	60.636
Time:	4.951	Roll Set Point:	-0.040	Pitch Set Point:	-0.015	Yaw Set Point:	0.008	X_WP:	0.000	Y_WP:	0.000	Y_WP:	0.500	X:	0.020	Y:	0.008	Z:	0.673	yaw:	-0.448	yaw rate:	19.240	Roll:	0.387	Pitch:	0.267	Yaw:	-0.185	Thrust:	56.336
Time:	4.967	Roll Set Point:	-0.040	Pitch Set Point:	-0.016	Yaw Set Point:	0.014	X_WP:	0.000	Y_WP:	0.000	Y_WP:	0.500	X:	0.020	Y:	0.008	Z:	0.674	yaw:	-0.810	yaw rate:	-36.238	Roll:	0.505	Pitch:	0.627	Yaw:	-9.740	Thrust:	56.267
Time:	4.984	Roll Set Point:	-0.039	Pitch Set Point:	-0.016	Yaw Set Point:	0.009	X_WP:	0.000	Y_WP:	0.000	Y_WP:	0.500	X:	0.020	Y:	0.008	Z:	0.674	yaw:	-0.503	yaw rate:	30.753	Roll:	0.349	Pitch:	0.207	Yaw:	1.137	Thrust:	60.685
Time:	5.001	Roll Set Point:	-0.039	Pitch Set Point:	-0.017	Yaw Set Point:	0.001	X_WP:	0.000	Y_WP:	0.000	Y_WP:	0.500	X:	0.020	Y:	0.008	Z:	0.673	yaw:	-0.034	yaw rate:	68.164	Roll:	0.568	Pitch:	0.483	Yaw:	4.279	Thrust:	60.523
Time:	5.018	Roll Set Point:	-0.039	Pitch Set Point:	-0.017	Yaw Set Point:	0.005	X_WP:	0.000	Y_WP:	0.000	Y_WP:	0.500	X:	0.019	Y:	0.008	Z:	0.673	yaw:	-0.266	yaw rate:	-23.167	Roll:	0.286	Pitch:	0.416	Yaw:	-6.805	Thrust:	60.895
Time:	5.035	Roll Set Point:	-0.038	Pitch Set Point:	-0.017	Yaw Set Point:	0.011	X_WP:	0.000	Y_WP:	0.000	Y_WP:	0.500	X:	0.019	Y:	0.008	Z:	0.672	yaw:	-0.623	yaw rate:	-59.474	Roll:	-0.035	Pitch:	0.317	Yaw:	-9.239	Thrust:	62.488
Time:	5.052	Roll Set Point:	-0.038	Pitch Set Point:	-0.018	Yaw Set Point:	0.005	X_WP:	0.000	Y_WP:	0.000	Y_WP:	0.500	X:	0.019	Y:	0.009	Z:	0.672	yaw:	-0.297	yaw rate:	32.667	Roll:	0.821	Pitch:	0.546	Yaw:	1.719	Thrust:	60.607
Time:	5.069	Roll Set Point:	-0.038	Pitch Set Point:	-0.018	Yaw Set Point:	0.010	X_WP:	0.000	Y_WP:	0.000	Y_WP:	0.500	X:	0.019	Y:	0.009	Z:	0.671	yaw:	-0.593	yaw rate:	-6.196	Roll:	0.035	Pitch:	0.358	Yaw:	-8.269	Thrust:	62.467
Time:	5.086	Roll Set Point:	-0.037	Pitch Set Point:	-0.018	Yaw Set Point:	0.009	X_WP:	0.000	Y_WP:	0.000	Y_WP:	0.500	X:	0.019	Y:	0.009	Z:	0.669	yaw:	-0.539	yaw rate:	5.422	Roll:	0.415	Pitch:	0.351	Yaw:	-2.802	Thrust:	61.520
Time:	5.103	Roll Set Point:	-0.037	Pitch Set Point:	-0.018	Yaw Set Point:	0.004	X_WP:	0.000	Y_WP:	0.000	Y_WP:	0.500	X:	0.018	Y:	0.009	Z:	0.668	yaw:	-0.201	yaw rate:	30.646	Roll:	0.214	Pitch:	0.314	Yaw:	2.017	Thrust:	63.057
Time:	5.120	Roll Set Point:	-0.036	Pitch Set Point:	-0.018	Yaw Set Point:	0.007	X_WP:	0.000	Y_WP:	0.000	Y_WP:	0.500	X:	0.018	Y:	0.009	Z:	0.667	yaw:	-0.388	yaw rate:	-18.653	Roll:	0.309	Pitch:	0.238	Yaw:	-6.300	Thrust:	60.577
Time:	5.137	Roll Set Point:	-0.036	Pitch Set Point:	-0.019	Yaw Set Point:	-0.002	X_WP:	0.000	Y_WP:	0.000	Y_WP:	0.500	X:	0.018	Y:	0.009	Z:	0.664	yaw:	0.100	yaw rate:	69.555	Roll:	0.273	Pitch:	0.383	Yaw:	4.745	Thrust:	64.412
Time:	5.154	Roll Set Point:	-0.036	Pitch Set Point:	-0.019	Yaw Set Point:	-0.002	X_WP:	0.000	Y_WP:	0.000	Y_WP:	0.500	X:	0.018	Y:	0.010	Z:	0.664	yaw:	0.116	yaw rate:	1.607	Roll:	0.651	Pitch:	0.524	Yaw:	-2.487	Thrust:	60.012
Time:	5.171	Roll Set Point:	-0.036	Pitch Set Point:	-0.020	Yaw Set Point:	0.005	X_WP:	0.000	Y_WP:	0.000	Y_WP:	0.500	X:	0.018	Y:	0.010	Z:	0.662	yaw:	-0.306	yaw rate:	-42.141	Roll:	0.167	Pitch:	0.428	Yaw:	-9.794	Thrust:	61.867
Time:	5.189	Roll Set Point:	-0.035	Pitch Set Point:	-0.020	Yaw Set Point:	-0.000	X_WP:	0.000	Y_WP:	0.000	Y_WP:	0.500	X:	0.018	Y:	0.010	Z:	0.659	yaw:	0.022	yaw rate:	-16.783	Roll:	0.251	Pitch:	0.319	Yaw:	2.165	Thrust:	64.382
Time:	5.206	Roll Set Point:	-0.035	Pitch Set Point:	-0.020	Yaw Set Point:	0.003	X_WP:	0.000	Y_WP:	0.000	Y_WP:	0.500	X:	0.017	Y:	0.010	Z:	0.658	yaw:	-0.144	yaw rate:	-16.579	Roll:	0.280	Pitch:	0.371	Yaw:	-5.644	Thrust:	59.994
Time:	5.223	Roll Set Point:	-0.035	Pitch Set Point:	-0.020	Yaw Set Point:	-0.008	X_WP:	0.000	Y_WP:	0.000	Y_WP:	0.500	X:	0.017	Y:	0.010	Z:	0.657	yaw:	0.440	yaw rate:	58.354	Roll:	0.508	Pitch:	0.122	Yaw:	6.678	Thrust:	61.282
Time:	5.240	Roll Set Point:	-0.034	Pitch Set Point:	-0.020	Yaw Set Point:	0.003	X_WP:	0.000	Y_WP:	0.000	Y_WP:	0.500	X:	0.017	Y:	0.010	Z:	0.654	yaw:	-0.168	yaw rate:	-60.812	Roll:	-0.077	Pitch:	0.275	Yaw:	-12.462	Thrust:	63.456
Time:	5.257	Roll Set Point:	-0.033	Pitch Set Point:	-0.020	Yaw Set Point:	0.004	X_WP:	0.000	Y_WP:	0.000	Y_WP:	0.500	X:	0.017	Y:	0.010	Z:	0.652	yaw:	-0.227	yaw rate:	-5.884	Roll:	0.201	Pitch:	0.244	Yaw:	-4.114	Thrust:	61.361
Time:	5.274	Roll Set Point:	-0.033	Pitch Set Point:	-0.020	Yaw Set Point:	0.003	X_WP:	0.000	Y_WP:	0.000	Y_WP:	0.500	X:	0.017	Y:	0.010	Z:	0.650	yaw:	-0.192	yaw rate:	3.502	Roll:	0.342	Pitch:	0.371	Yaw:	-2.628	Thrust:	61.087
Time:	5.291	Roll Set Point:	-0.033	Pitch Set Point:	-0.020	Yaw Set Point:	-0.006	X_WP:	0.000	Y_WP:	0.000	Y_WP:	0.500	X:	0.017	Y:	0.010	Z:	0.648	yaw:	0.319	yaw rate:	51.101	Roll:	0.462	Pitch:	0.212	Yaw:	5.395	Thrust:	62.956
Time:	5.308	Roll Set Point:	-0.033	Pitch Set Point:	-0.020	Yaw Set Point:	-0.011	X_WP:	0.000	Y_WP:	0.000	Y_WP:	0.500	X:	0.016	Y:	0.010	Z:	0.646	yaw:	0.626	yaw rate:	30.684	Roll:	0.376	Pitch:	0.133	Yaw:	2.679	Thrust:	61.412
Time:	5.325	Roll Set Point:	-0.032	Pitch Set Point:	-0.020	Yaw Set Point:	-0.007	X_WP:	0.000	Y_WP:	0.000	Y_WP:	0.500	X:	0.016	Y:	0.010	Z:	0.643	yaw:	0.385	yaw rate:	-24.087	Roll:	0.132	Pitch:	0.293	Yaw:	-6.056	Thrust:	63.239
Time:	5.342	Roll Set Point:	-0.032	Pitch Set Point:	-0.020	Yaw Set Point:	-0.011	X_WP:	0.000	Y_WP:	0.000	Y_WP:	0.500	X:	0.016	Y:	0.010	Z:	0.640	yaw:	0.614	yaw rate:	22.963	Roll:	0.442	Pitch:	0.104	Yaw:	1.494	Thrust:	61.679
Time:	5.359	Roll Set Point:	-0.032	Pitch Set Point:	-0.019	Yaw Set Point:	-0.009	X_WP:	0.000	Y_WP:	0.000	Y_WP:	0.500	X:	0.016	Y:	0.010	Z:	0.637	yaw:	0.523	yaw rate:	1.430	Roll:	0.245	Pitch:	0.208	Yaw:	-3.555	Thrust:	63.287
Time:	5.376	Roll Set Point:	-0.031	Pitch Set Point:	-0.019	Yaw Set Point:	-0.006	X_WP:	0.000	Y_WP:	0.000	Y_WP:	0.500	X:	0.016	Y:	0.010	Z:	0.634	yaw:	0.328	yaw rate:	-24.327	Roll:	-0.005	Pitch:	0.056	Yaw:	-5.421	Thrust:	65.863
Time:	5.393	Roll Set Point:	-0.031	Pitch Set Point:	-0.019	Yaw Set Point:	-0.014	X_WP:	0.000	Y_WP:	0.000	Y_WP:	0.500	X:	0.016	Y:	0.010	Z:	0.632	yaw:	0.821	yaw rate:	49.286	Roll:	0.549	Pitch:	0.169	Yaw:	5.847	Thrust:	59.506
Time:	5.410	Roll Set Point:	-0.031	Pitch Set Point:	-0.018	Yaw Set Point:	-0.014	X_WP:	0.000	Y_WP:	0.000	Y_WP:	0.500	X:	0.015	Y:	0.009	Z:	0.628	yaw:	0.830	yaw rate:	63.860	Roll:	0.131	Pitch:	-0.027	Yaw:	-1.590	Thrust:	65.628
Time:	5.427	Roll Set Point:	-0.030	Pitch Set Point:	-0.018	Yaw Set Point:	-0.015	X_WP:	0.000	Y_WP:	0.000	Y_WP:	0.500	X:	0.015	Y:	0.009	Z:	0.626	yaw:	0.864	yaw rate:	3.393	Roll:	0.313	Pitch:	0.247	Yaw:	-1.140	Thrust:	59.120
Time:	5.444	Roll Set Point:	-0.030	Pitch Set Point:	-0.018	Yaw Set Point:	-0.015	X_WP:	0.000	Y_WP:	0.000	Y_WP:	0.500	X:	0.015	Y:	0.009	Z:	0.622	yaw:	0.854	yaw rate:	31.573	Roll:	0.250	Pitch:	-0.019	Yaw:	-1.815	Thrust:	66.067
Time:	5.461	Roll Set Point:	-0.030	Pitch Set Point:	-0.017	Yaw Set Point:	-0.008	X_WP:	0.000	Y_WP:	0.000	Y_WP:	0.500	X:	0.015	Y:	0.009	Z:	0.620	yaw:	0.479	yaw rate:	-37.579	Roll:	0.188	Pitch:	0.060	Yaw:	-7.965	Thrust:	59.441
Time:	5.478	Roll Set Point:	-0.029	Pitch Set Point:	-0.017	Yaw Set Point:	-0.007	X_WP:	0.000	Y_WP:	0.000	Y_WP:	0.500	X:	0.015	Y:	0.009	Z:	0.619	yaw:	0.413	yaw rate:	-6.559	Roll:	0.168	Pitch:	0.071	Yaw:	-3.290	Thrust:	59.278
Time:	5.495	Roll Set Point:	-0.030	Pitch Set Point:	-0.017	Yaw Set Point:	-0.016	X_WP:	0.000	Y_WP:	0.000	Y_WP:	0.500	X:	0.015	Y:	0.009	Z:	0.616	yaw:	0.930	yaw rate:	51.666	Roll:	0.613	Pitch:	0.171	Yaw:	6.364	Thrust:	61.011
Time:	5.512	Roll Set Point:	-0.029	Pitch Set Point:	-0.017	Yaw Set Point:	-0.015	X_WP:	0.000	Y_WP:	0.000	Y_WP:	0.500	X:	0.015	Y:	0.008	Z:	0.613	yaw:	0.845	yaw rate:	-8.517	Roll:	0.223	Pitch:	0.043	Yaw:	-2.978	Thrust:	62.938
Time:	5.529	Roll Set Point:	-0.029	Pitch Set Point:	-0.016	Yaw Set Point:	-0.009	X_WP:	0.000	Y_WP:	0.000	Y_WP:	0.500	X:	0.014	Y:	0.008	Z:	0.610	yaw:	0.489	yaw rate:	12.177	Roll:	0.080	Pitch:	-0.105	Yaw:	-7.630	Thrust:	63.461
Time:	5.546	Roll Set Point:	-0.029	Pitch Set Point:	-0.016	Yaw Set Point:	-0.005	X_WP:	0.000	Y_WP:	0.000	Y_WP:	0.500	X:	0.014	Y:	0.008	Z:	0.607	yaw:	0.279	yaw rate:	-20.977	Roll:	0.279	Pitch:	0.055	Yaw:	-5.675	Thrust:	61.504
Time:	5.569	Roll Set Point:	-0.028	Pitch Set Point:	-0.015	Yaw Set Point:	-0.014	X_WP:	0.000	Y_WP:	0.000	Y_WP:	0.500	X:	0.014	Y:	0.008	Z:	0.602	yaw:	0.791	yaw rate:	-27.517	Roll:	0.341	Pitch:	-0.068	Yaw:	3.500	Thrust:	82.842
Time:	5.586	Roll Set Point:	-0.028	Pitch Set Point:	-0.015	Yaw Set Point:	-0.012	X_WP:	0.000	Y_WP:	0.000	Y_WP:	0.500	X:	0.014	Y:	0.007	Z:	0.599	yaw:	0.662	yaw rate:	-12.912	Roll:	0.370	Pitch:	-0.082	Yaw:	-3.922	Thrust:	62.940
Time:	5.603	Roll Set Point:	-0.028	Pitch Set Point:	-0.014	Yaw Set Point:	-0.011	X_WP:	0.000	Y_WP:	0.000	Y_WP:	0.500	X:	0.014	Y:	0.007	Z:	0.597	yaw:	0.619	yaw rate:	-4.301	Roll:	0.235	Pitch:	0.018	Yaw:	-2.625	Thrust:	59.173
Time:	5.620	Roll Set Point:	-0.028	Pitch Set Point:	-0.014	Yaw Set Point:	-0.021	X_WP:	0.000	Y_WP:	0.000	Y_WP:	0.500	X:	0.014	Y:	0.007	Z:	0.593	yaw:	1.202	yaw rate:	58.243	Roll:	0.580	Pitch:	-0.051	Yaw:	7.793	Thrust:	63.904
Time:	5.637	Roll Set Point:	-0.028	Pitch Set Point:	-0.013	Yaw Set Point:	-0.026	X_WP:	0.000	Y_WP:	0.000	Y_WP:	0.500	X:	0.014	Y:	0.007	Z:	0.591	yaw:	1.485	yaw rate:	28.340	Roll:	0.456	Pitch:	-0.121	Yaw:	3.604	Thrust:	61.443
Time:	5.654	Roll Set Point:	-0.028	Pitch Set Point:	-0.012	Yaw Set Point:	-0.015	X_WP:	0.000	Y_WP:	0.000	Y_WP:	0.500	X:	0.014	Y:	0.006	Z:	0.585	yaw:	0.869	yaw rate:	24.459	Roll:	0.113	Pitch:	-0.265	Yaw:	-11.062	Thrust:	68.200
Time:	5.671	Roll Set Point:	-0.028	Pitch Set Point:	-0.012	Yaw Set Point:	-0.028	X_WP:	0.000	Y_WP:	0.000	Y_WP:	0.500	X:	0.014	Y:	0.006	Z:	0.584	yaw:	1.611	yaw rate:	74.165	Roll:	0.518	Pitch:	-0.072	Yaw:	10.832	Thrust:	59.086
Time:	5.688	Roll Set Point:	-0.028	Pitch Set Point:	-0.012	Yaw Set Point:	-0.025	X_WP:	0.000	Y_WP:	0.000	Y_WP:	0.500	X:	0.014	Y:	0.006	Z:	0.582	yaw:	1.422	yaw rate:	-18.897	Roll:	0.339	Pitch:	0.012	Yaw:	-3.716	Thrust:	58.572
Time:	5.705	Roll Set Point:	-0.028	Pitch Set Point:	-0.011	Yaw Set Point:	-0.017	X_WP:	0.000	Y_WP:	0.000	Y_WP:	0.500	X:	0.014	Y:	0.006	Z:	0.579	yaw:	0.983	yaw rate:	-20.101	Roll:	0.231	Pitch:	-0.190	Yaw:	-8.151	Thrust:	63.290
Time:	5.722	Roll Set Point:	-0.028	Pitch Set Point:	-0.011	Yaw Set Point:	-0.026	X_WP:	0.000	Y_WP:	0.000	Y_WP:	0.500	X:	0.014	Y:	0.006	Z:	0.576	yaw:	1.480	yaw rate:	49.725	Roll:	0.605	Pitch:	-0.050	Yaw:	6.937	Thrust:	61.069
Time:	5.740	Roll Set Point:	-0.028	Pitch Set Point:	-0.010	Yaw Set Point:	-0.029	X_WP:	0.000	Y_WP:	0.000	Y_WP:	0.500	X:	0.014	Y:	0.005	Z:	0.572	yaw:	1.635	yaw rate:	15.437	Roll:	0.336	Pitch:	-0.333	Yaw:	1.878	Thrust:	63.696
Time:	5.757	Roll Set Point:	-0.028	Pitch Set Point:	-0.009	Yaw Set Point:	-0.025	X_WP:	0.000	Y_WP:	0.000	Y_WP:	0.500	X:	0.014	Y:	0.005	Z:	0.570	yaw:	1.409	yaw rate:	-22.522	Roll:	0.276	Pitch:	-0.032	Yaw:	-4.257	Thrust:	61.000
Time:	5.774	Roll Set Point:	-0.028	Pitch Set Point:	-0.009	Yaw Set Point:	-0.018	X_WP:	0.000	Y_WP:	0.000	Y_WP:	0.500	X:	0.014	Y:	0.004	Z:	0.566	yaw:	1.019	yaw rate:	-18.419	Roll:	0.347	Pitch:	-0.205	Yaw:	-7.327	Thrust:	63.912
Time:	5.791	Roll Set Point:	-0.028	Pitch Set Point:	-0.008	Yaw Set Point:	-0.028	X_WP:	0.000	Y_WP:	0.000	Y_WP:	0.500	X:	0.014	Y:	0.004	Z:	0.561	yaw:	1.621	yaw rate:	4.661	Roll:	0.463	Pitch:	-0.294	Yaw:	8.741	Thrust:	66.708
Time:	5.808	Roll Set Point:	-0.028	Pitch Set Point:	-0.008	Yaw Set Point:	-0.024	X_WP:	0.000	Y_WP:	0.000	Y_WP:	0.500	X:	0.014	Y:	0.004	Z:	0.559	yaw:	1.372	yaw rate:	-24.948	Roll:	0.362	Pitch:	-0.097	Yaw:	-4.659	Thrust:	59.590
Time:	5.825	Roll Set Point:	-0.028	Pitch Set Point:	-0.007	Yaw Set Point:	-0.023	X_WP:	0.000	Y_WP:	0.000	Y_WP:	0.500	X:	0.014	Y:	0.004	Z:	0.557	yaw:	1.332	yaw rate:	-3.919	Roll:	0.635	Pitch:	-0.122	Yaw:	-1.475	Thrust:	61.484
Time:	5.842	Roll Set Point:	-0.029	Pitch Set Point:	-0.007	Yaw Set Point:	-0.028	X_WP:	0.000	Y_WP:	0.000	Y_WP:	0.500	X:	0.014	Y:	0.004	Z:	0.553	yaw:	1.629	yaw rate:	16.604	Roll:	0.548	Pitch:	-0.136	Yaw:	4.095	Thrust:	65.262
Time:	5.860	Roll Set Point:	-0.029	Pitch Set Point:	-0.006	Yaw Set Point:	-0.025	X_WP:	0.000	Y_WP:	0.000	Y_WP:	0.500	X:	0.014	Y:	0.003	Z:	0.550	yaw:	1.431	yaw rate:	-19.817	Roll:	0.349	Pitch:	-0.111	Yaw:	-3.752	Thrust:	65.247
Time:	5.877	Roll Set Point:	-0.028	Pitch Set Point:	-0.006	Yaw Set Point:	-0.018	X_WP:	0.000	Y_WP:	0.000	Y_WP:	0.500	X:	0.014	Y:	0.003	Z:	0.547	yaw:	1.011	yaw rate:	-42.008	Roll:	0.347	Pitch:	-0.119	Yaw:	-7.742	Thrust:	63.018
Time:	5.894	Roll Set Point:	-0.029	Pitch Set Point:	-0.005	Yaw Set Point:	-0.026	X_WP:	0.000	Y_WP:	0.000	Y_WP:	0.500	X:	0.014	Y:	0.003	Z:	0.542	yaw:	1.499	yaw rate:	6.185	Roll:	0.567	Pitch:	-0.277	Yaw:	6.897	Thrust:	65.716
Time:	5.911	Roll Set Point:	-0.029	Pitch Set Point:	-0.005	Yaw Set Point:	-0.024	X_WP:	0.000	Y_WP:	0.000	Y_WP:	0.500	X:	0.015	Y:	0.003	Z:	0.539	yaw:	1.392	yaw rate:	-10.715	Roll:	0.597	Pitch:	0.073	Yaw:	-2.394	Thrust:	63.064
Time:	5.928	Roll Set Point:	-0.029	Pitch Set Point:	-0.005	Yaw Set Point:	-0.016	X_WP:	0.000	Y_WP:	0.000	Y_WP:	0.500	X:	0.015	Y:	0.002	Z:	0.536	yaw:	0.904	yaw rate:	-48.851	Roll:	0.460	Pitch:	-0.253	Yaw:	-8.925	Thrust:	63.453
Time:	5.945	Roll Set Point:	-0.030	Pitch Set Point:	-0.005	Yaw Set Point:	-0.024	X_WP:	0.000	Y_WP:	0.000	Y_WP:	0.500	X:	0.015	Y:	0.002	Z:	0.531	yaw:	1.356	yaw rate:	-4.022	Roll:	0.650	Pitch:	-0.061	Yaw:	6.157	Thrust:	69.207
Time:	5.962	Roll Set Point:	-0.030	Pitch Set Point:	-0.004	Yaw Set Point:	-0.022	X_WP:	0.000	Y_WP:	0.000	Y_WP:	0.500	X:	0.015	Y:	0.002	Z:	0.528	yaw:	1.259	yaw rate:	-9.682	Roll:	0.642	Pitch:	-0.018	Yaw:	-2.399	Thrust:	63.635
Time:	5.979	Roll Set Point:	-0.030	Pitch Set Point:	-0.004	Yaw Set Point:	-0.026	X_WP:	0.000	Y_WP:	0.000	Y_WP:	0.500	X:	0.015	Y:	0.002	Z:	0.526	yaw:	1.497	yaw rate:	23.830	Roll:	0.586	Pitch:	-0.141	Yaw:	3.088	Thrust:	61.092
Time:	5.996	Roll Set Point:	-0.031	Pitch Set Point:	-0.004	Yaw Set Point:	-0.022	X_WP:	0.000	Y_WP:	0.000	Y_WP:	0.500	X:	0.015	Y:	0.002	Z:	0.521	yaw:	1.276	yaw rate:	-22.103	Roll:	0.498	Pitch:	-0.135	Yaw:	-4.267	Thrust:	66.739
Time:	6.013	Roll Set Point:	0.006	Pitch Set Point:	0.056	Yaw Set Point:	-0.028	X_WP:	0.036	Y_WP:	0.061	Y_WP:	0.500	X:	0.016	Y:	0.002	Z:	0.518	yaw:	1.583	yaw rate:	30.647	Roll:	-30.000	Pitch:	-30.000	Yaw:	4.271	Thrust:	63.813
Time:	6.030	Roll Set Point:	0.007	Pitch Set Point:	0.056	Yaw Set Point:	-0.021	X_WP:	0.037	Y_WP:	0.061	Y_WP:	0.500	X:	0.016	Y:	0.002	Z:	0.514	yaw:	1.208	yaw rate:	-37.498	Roll:	-1.098	Pitch:	-1.542	Yaw:	-6.710	Thrust:	67.345
Time:	6.048	Roll Set Point:	0.008	Pitch Set Point:	0.056	Yaw Set Point:	-0.022	X_WP:	0.038	Y_WP:	0.060	Y_WP:	0.500	X:	0.016	Y:	0.001	Z:	0.509	yaw:	1.253	yaw rate:	-19.574	Roll:	-2.122	Pitch:	-1.119	Yaw:	-0.278	Thrust:	71.191
Time:	6.065	Roll Set Point:	0.008	Pitch Set Point:	0.056	Yaw Set Point:	-0.016	X_WP:	0.038	Y_WP:	0.060	Y_WP:	0.500	X:	0.016	Y:	0.001	Z:	0.507	yaw:	0.915	yaw rate:	-33.761	Roll:	-0.285	Pitch:	-1.878	Yaw:	-6.529	Thrust:	61.318
Time:	6.082	Roll Set Point:	0.007	Pitch Set Point:	0.056	Yaw Set Point:	-0.014	X_WP:	0.039	Y_WP:	0.060	Y_WP:	0.500	X:	0.016	Y:	0.002	Z:	0.504	yaw:	0.787	yaw rate:	-12.854	Roll:	-0.426	Pitch:	-1.782	Yaw:	-3.492	Thrust:	64.502
Time:	6.099	Roll Set Point:	0.007	Pitch Set Point:	0.056	Yaw Set Point:	-0.026	X_WP:	0.039	Y_WP:	0.060	Y_WP:	0.500	X:	0.017	Y:	0.002	Z:	0.498	yaw:	1.470	yaw rate:	18.533	Roll:	-1.506	Pitch:	-1.371	Yaw:	9.925	Thrust:	72.182
Time:	6.116	Roll Set Point:	0.007	Pitch Set Point:	0.056	Yaw Set Point:	-0.025	X_WP:	0.040	Y_WP:	0.060	Y_WP:	0.500	X:	0.017	Y:	0.002	Z:	0.496	yaw:	1.408	yaw rate:	-6.206	Roll:	-0.767	Pitch:	-1.690	Yaw:	-1.595	Thrust:	62.359
Time:	6.133	Roll Set Point:	0.007	Pitch Set Point:	0.056	Yaw Set Point:	-0.018	X_WP:	0.040	Y_WP:	0.060	Y_WP:	0.500	X:	0.017	Y:	0.001	Z:	0.494	yaw:	1.049	yaw rate:	-35.814	Roll:	-0.587	Pitch:	-1.748	Yaw:	-6.637	Thrust:	62.169
Time:	6.150	Roll Set Point:	0.006	Pitch Set Point:	0.056	Yaw Set Point:	-0.032	X_WP:	0.039	Y_WP:	0.060	Y_WP:	0.500	X:	0.018	Y:	0.002	Z:	0.490	yaw:	1.838	yaw rate:	78.869	Roll:	-0.455	Pitch:	-1.745	Yaw:	12.091	Thrust:	67.573
Time:	6.167	Roll Set Point:	0.005	Pitch Set Point:	0.056	Yaw Set Point:	-0.016	X_WP:	0.040	Y_WP:	0.060	Y_WP:	0.500	X:	0.018	Y:	0.002	Z:	0.487	yaw:	0.917	yaw rate:	-92.128	Roll:	0.132	Pitch:	-2.098	Yaw:	-15.432	Thrust:	65.263
Time:	6.184	Roll Set Point:	0.004	Pitch Set Point:	0.056	Yaw Set Point:	-0.020	X_WP:	0.040	Y_WP:	0.061	Y_WP:	0.500	X:	0.018	Y:	0.002	Z:	0.483	yaw:	1.147	yaw rate:	23.039	Roll:	-0.030	Pitch:	-1.914	Yaw:	2.576	Thrust:	67.180
Time:	6.201	Roll Set Point:	0.001	Pitch Set Point:	0.056	Yaw Set Point:	-0.018	X_WP:	0.039	Y_WP:	0.062	Y_WP:	0.500	X:	0.019	Y:	0.003	Z:	0.478	yaw:	1.006	yaw rate:	-25.887	Roll:	0.767	Pitch:	-2.286	Yaw:	-3.324	Thrust:	70.898
Time:	6.218	Roll Set Point:	0.000	Pitch Set Point:	0.056	Yaw Set Point:	-0.018	X_WP:	0.039	Y_WP:	0.062	Y_WP:	0.500	X:	0.020	Y:	0.003	Z:	0.476	yaw:	1.052	yaw rate:	4.588	Roll:	-0.051	Pitch:	-1.936	Yaw:	-0.385	Thrust:	63.241
Time:	6.235	Roll Set Point:	-0.001	Pitch Set Point:	0.056	Yaw Set Point:	-0.028	X_WP:	0.038	Y_WP:	0.063	Y_WP:	0.500	X:	0.021	Y:	0.004	Z:	0.474	yaw:	1.605	yaw rate:	55.256	Roll:	0.217	Pitch:	-1.980	Yaw:	8.189	Thrust:	65.017
Time:	6.252	Roll Set Point:	-0.004	Pitch Set Point:	0.056	Yaw Set Point:	-0.020	X_WP:	0.038	Y_WP:	0.064	Y_WP:	0.500	X:	0.021	Y:	0.004	Z:	0.469	yaw:	1.145	yaw rate:	-60.530	Roll:	1.340	Pitch:	-2.431	Yaw:	-7.996	Thrust:	71.022
Time:	6.269	Roll Set Point:	-0.005	Pitch Set Point:	0.055	Yaw Set Point:	-0.028	X_WP:	0.037	Y_WP:	0.065	Y_WP:	0.500	X:	0.022	Y:	0.005	Z:	0.467	yaw:	1.631	yaw rate:	48.616	Roll:	0.092	Pitch:	-1.924	Yaw:	7.210	Thrust:	63.598
Time:	6.286	Roll Set Point:	-0.007	Pitch Set Point:	0.055	Yaw Set Point:	-0.027	X_WP:	0.037	Y_WP:	0.066	Y_WP:	0.500	X:	0.023	Y:	0.005	Z:	0.464	yaw:	1.568	yaw rate:	-6.300	Roll:	0.846	Pitch:	-2.129	Yaw:	-1.303	Thrust:	65.541
Time:	6.304	Roll Set Point:	-0.009	Pitch Set Point:	0.054	Yaw Set Point:	-0.031	X_WP:	0.036	Y_WP:	0.067	Y_WP:	0.500	X:	0.024	Y:	0.006	Z:	0.462	yaw:	1.787	yaw rate:	21.893	Roll:	0.858	Pitch:	-2.101	Yaw:	3.331	Thrust:	65.731
Time:	6.321	Roll Set Point:	-0.012	Pitch Set Point:	0.054	Yaw Set Point:	-0.021	X_WP:	0.036	Y_WP:	0.069	Y_WP:	0.500	X:	0.025	Y:	0.007	Z:	0.459	yaw:	1.199	yaw rate:	-58.821	Roll:	1.796	Pitch:	-2.272	Yaw:	-9.878	Thrust:	67.968
Time:	6.338	Roll Set Point:	-0.015	Pitch Set Point:	0.053	Yaw Set Point:	-0.026	X_WP:	0.035	Y_WP:	0.070	Y_WP:	0.500	X:	0.026	Y:	0.008	Z:	0.456	yaw:	1.496	yaw rate:	29.679	Roll:	0.967	Pitch:	-2.085	Yaw:	4.138	Thrust:	66.022
Time:	6.355	Roll Set Point:	-0.018	Pitch Set Point:	0.052	Yaw Set Point:	-0.032	X_WP:	0.034	Y_WP:	0.071	Y_WP:	0.500	X:	0.027	Y:	0.010	Z:	0.453	yaw:	1.828	yaw rate:	33.171	Roll:	1.312	Pitch:	-2.017	Yaw:	5.166	Thrust:	67.397
Time:	6.372	Roll Set Point:	-0.020	Pitch Set Point:	0.051	Yaw Set Point:	-0.024	X_WP:	0.034	Y_WP:	0.073	Y_WP:	0.500	X:	0.028	Y:	0.011	Z:	0.451	yaw:	1.396	yaw rate:	-43.186	Roll:	1.513	Pitch:	-2.192	Yaw:	-7.165	Thrust:	66.063
Time:	6.389	Roll Set Point:	-0.024	Pitch Set Point:	0.049	Yaw Set Point:	-0.027	X_WP:	0.032	Y_WP:	0.075	Y_WP:	0.500	X:	0.029	Y:	0.013	Z:	0.447	yaw:	1.548	yaw rate:	-19.571	Roll:	2.395	Pitch:	-2.163	Yaw:	1.896	Thrust:	71.526
Time:	6.406	Roll Set Point:	-0.027	Pitch Set Point:	0.048	Yaw Set Point:	-0.021	X_WP:	0.032	Y_WP:	0.076	Y_WP:	0.500	X:	0.030	Y:	0.014	Z:	0.445	yaw:	1.196	yaw rate:	-35.260	Roll:	1.593	Pitch:	-1.911	Yaw:	-6.209	Thrust:	66.105
Time:	6.423	Roll Set Point:	-0.028	Pitch Set Point:	0.047	Yaw Set Point:	-0.030	X_WP:	0.031	Y_WP:	0.077	Y_WP:	0.500	X:	0.031	Y:	0.015	Z:	0.444	yaw:	1.740	yaw rate:	54.444	Roll:	0.421	Pitch:	-1.974	Yaw:	8.336	Thrust:	64.284
Time:	6.440	Roll Set Point:	-0.033	Pitch Set Point:	0.045	Yaw Set Point:	-0.018	X_WP:	0.030	Y_WP:	0.079	Y_WP:	0.500	X:	0.032	Y:	0.017	Z:	0.441	yaw:	1.007	yaw rate:	-70.194	Roll:	3.159	Pitch:	-1.890	Yaw:	-12.299	Thrust:	69.255
Time:	6.457	Roll Set Point:	-0.035	Pitch Set Point:	0.043	Yaw Set Point:	-0.026	X_WP:	0.029	Y_WP:	0.081	Y_WP:	0.500	X:	0.033	Y:	0.019	Z:	0.438	yaw:	1.503	yaw rate:	-1.656	Roll:	1.710	Pitch:	-1.873	Yaw:	7.284	Thrust:	67.535
Time:	6.474	Roll Set Point:	-0.037	Pitch Set Point:	0.042	Yaw Set Point:	-0.018	X_WP:	0.029	Y_WP:	0.082	Y_WP:	0.500	X:	0.034	Y:	0.020	Z:	0.437	yaw:	1.015	yaw rate:	-48.859	Roll:	1.369	Pitch:	-1.841	Yaw:	-8.518	Thrust:	64.380
Time:	6.491	Roll Set Point:	-0.040	Pitch Set Point:	0.040	Yaw Set Point:	-0.022	X_WP:	0.029	Y_WP:	0.084	Y_WP:	0.500	X:	0.035	Y:	0.022	Z:	0.436	yaw:	1.264	yaw rate:	24.925	Roll:	1.470	Pitch:	-1.629	Yaw:	3.169	Thrust:	65.579
Time:	6.509	Roll Set Point:	-0.042	Pitch Set Point:	0.038	Yaw Set Point:	-0.026	X_WP:	0.028	Y_WP:	0.085	Y_WP:	0.500	X:	0.036	Y:	0.024	Z:	0.434	yaw:	1.465	yaw rate:	20.152	Roll:	1.635	Pitch:	-1.735	Yaw:	2.724	Thrust:	65.715
Time:	6.526	Roll Set Point:	-0.045	Pitch Set Point:	0.035	Yaw Set Point:	-0.026	X_WP:	0.027	Y_WP:	0.087	Y_WP:	0.500	X:	0.037	Y:	0.026	Z:	0.433	yaw:	1.466	yaw rate:	0.011	Roll:	2.166	Pitch:	-1.401	Yaw:	-0.364	Thrust:	66.994
Time:	6.543	Roll Set Point:	-0.048	Pitch Set Point:	0.033	Yaw Set Point:	-0.016	X_WP:	0.026	Y_WP:	0.089	Y_WP:	0.500	X:	0.037	Y:	0.028	Z:	0.431	yaw:	0.919	yaw rate:	-54.684	Roll:	2.417	Pitch:	-1.827	Yaw:	-9.525	Thrust:	66.001
Time:	6.560	Roll Set Point:	-0.050	Pitch Set Point:	0.030	Yaw Set Point:	-0.015	X_WP:	0.025	Y_WP:	0.091	Y_WP:	0.500	X:	0.038	Y:	0.031	Z:	0.430	yaw:	0.882	yaw rate:	-3.637	Roll:	2.223	Pitch:	-1.170	Yaw:	-1.721	Thrust:	66.613
Time:	6.577	Roll Set Point:	-0.052	Pitch Set Point:	0.028	Yaw Set Point:	-0.022	X_WP:	0.024	Y_WP:	0.093	Y_WP:	0.500	X:	0.039	Y:	0.033	Z:	0.429	yaw:	1.288	yaw rate:	40.599	Roll:	1.393	Pitch:	-1.805	Yaw:	5.646	Thrust:	65.397
Time:	6.594	Roll Set Point:	-0.054	Pitch Set Point:	0.025	Yaw Set Point:	-0.022	X_WP:	0.023	Y_WP:	0.095	Y_WP:	0.500	X:	0.039	Y:	0.035	Z:	0.428	yaw:	1.275	yaw rate:	-1.352	Roll:	1.888	Pitch:	-1.581	Yaw:	-0.809	Thrust:	65.974
Time:	6.611	Roll Set Point:	-0.057	Pitch Set Point:	0.022	Yaw Set Point:	-0.018	X_WP:	0.023	Y_WP:	0.097	Y_WP:	0.500	X:	0.040	Y:	0.038	Z:	0.426	yaw:	1.024	yaw rate:	-25.060	Roll:	2.395	Pitch:	-0.967	Yaw:	-4.792	Thrust:	66.069
Time:	6.628	Roll Set Point:	-0.059	Pitch Set Point:	0.019	Yaw Set Point:	-0.010	X_WP:	0.021	Y_WP:	0.099	Y_WP:	0.500	X:	0.041	Y:	0.040	Z:	0.426	yaw:	0.589	yaw rate:	-43.569	Roll:	2.454	Pitch:	-1.626	Yaw:	-8.241	Thrust:	65.810
Time:	6.645	Roll Set Point:	-0.062	Pitch Set Point:	0.015	Yaw Set Point:	-0.011	X_WP:	0.020	Y_WP:	0.101	Y_WP:	0.500	X:	0.041	Y:	0.043	Z:	0.425	yaw:	0.633	yaw rate:	4.470	Roll:	2.167	Pitch:	-0.751	Yaw:	-0.789	Thrust:	66.186
Time:	6.662	Roll Set Point:	-0.063	Pitch Set Point:	0.013	Yaw Set Point:	-0.022	X_WP:	0.019	Y_WP:	0.103	Y_WP:	0.500	X:	0.042	Y:	0.045	Z:	0.424	yaw:	1.249	yaw rate:	61.615	Roll:	1.455	Pitch:	-1.835	Yaw:	8.505	Thrust:	67.398
Time:	6.679	Roll Set Point:	-0.065	Pitch Set Point:	0.009	Yaw Set Point:	-0.014	X_WP:	0.018	Y_WP:	0.106	Y_WP:	0.500	X:	0.042	Y:	0.049	Z:	0.423	yaw:	0.775	yaw rate:	-42.656	Roll:	2.859	Pitch:	-1.220	Yaw:	-8.561	Thrust:	66.267
Time:	6.697	Roll Set Point:	-0.067	Pitch Set Point:	0.006	Yaw Set Point:	-0.007	X_WP:	0.017	Y_WP:	0.108	Y_WP:	0.500	X:	0.042	Y:	0.051	Z:	0.422	yaw:	0.380	yaw rate:	-39.465	Roll:	2.350	Pitch:	-0.758	Yaw:	-7.877	Thrust:	65.917
Time:	6.714	Roll Set Point:	-0.069	Pitch Set Point:	0.003	Yaw Set Point:	-0.008	X_WP:	0.016	Y_WP:	0.110	Y_WP:	0.500	X:	0.043	Y:	0.054	Z:	0.422	yaw:	0.459	yaw rate:	7.883	Roll:	1.796	Pitch:	-1.305	Yaw:	-0.492	Thrust:	65.557
Time:	6.731	Roll Set Point:	-0.070	Pitch Set Point:	-0.002	Yaw Set Point:	-0.023	X_WP:	0.015	Y_WP:	0.112	Y_WP:	0.500	X:	0.043	Y:	0.057	Z:	0.421	yaw:	1.304	yaw rate:	84.472	Roll:	1.307	Pitch:	-0.823	Yaw:	12.451	Thrust:	65.839
