Time:	2.035	Roll Set Point:	0.023	Pitch Set Point:	-0.127	Yaw Set Point:	-0.065	X_WP:	0.100	Y_WP:	0.000	Y_WP:	0.500	X:	0.037	Y:	0.061	Z:	0.057	yaw:	3.742	yaw rate:	0.631	Roll:	-1.718	Pitch:	1.898	Yaw:	5.225	Thrust:	24.384
Time:	2.046	Roll Set Point:	0.023	Pitch Set Point:	-0.127	Yaw Set Point:	-0.065	X_WP:	0.100	Y_WP:	0.000	Y_WP:	0.500	X:	0.037	Y:	0.061	Z:	0.057	yaw:	3.738	yaw rate:	-0.404	Roll:	-1.677	Pitch:	1.939	Yaw:	5.133	Thrust:	24.640
Time:	2.057	Roll Set Point:	0.022	Pitch Set Point:	-0.127	Yaw Set Point:	-0.070	X_WP:	0.100	Y_WP:	0.000	Y_WP:	0.500	X:	0.037	Y:	0.061	Z:	0.057	yaw:	4.009	yaw rate:	27.036	Roll:	-1.270	Pitch:	2.061	Yaw:	12.043	Thrust:	25.658
Time:	2.069	Roll Set Point:	0.023	Pitch Set Point:	-0.127	Yaw Set Point:	-0.065	X_WP:	0.100	Y_WP:	0.000	Y_WP:	0.500	X:	0.037	Y:	0.061	Z:	0.057	yaw:	3.718	yaw rate:	-29.100	Roll:	-2.172	Pitch:	1.710	Yaw:	-1.206	Thrust:	26.053
Time:	2.081	Roll Set Point:	0.023	Pitch Set Point:	-0.126	Yaw Set Point:	-0.061	X_WP:	0.100	Y_WP:	0.000	Y_WP:	0.500	X:	0.037	Y:	0.061	Z:	0.057	yaw:	3.496	yaw rate:	-22.116	Roll:	-2.410	Pitch:	1.176	Yaw:	0.331	Thrust:	27.277
Time:	2.092	Roll Set Point:	0.023	Pitch Set Point:	-0.126	Yaw Set Point:	-0.061	X_WP:	0.100	Y_WP:	0.000	Y_WP:	0.500	X:	0.037	Y:	0.061	Z:	0.057	yaw:	3.514	yaw rate:	1.791	Roll:	-1.571	Pitch:	1.761	Yaw:	5.420	Thrust:	27.495
Time:	2.103	Roll Set Point:	0.023	Pitch Set Point:	-0.126	Yaw Set Point:	-0.061	X_WP:	0.100	Y_WP:	0.000	Y_WP:	0.500	X:	0.037	Y:	0.061	Z:	0.057	yaw:	3.498	yaw rate:	-1.596	Roll:	-2.044	Pitch:	2.085	Yaw:	4.591	Thrust:	27.933
Time:	2.114	Roll Set Point:	0.023	Pitch Set Point:	-0.126	Yaw Set Point:	-0.066	X_WP:	0.100	Y_WP:	0.000	Y_WP:	0.500	X:	0.036	Y:	0.061	Z:	0.057	yaw:	3.764	yaw rate:	25.301	Roll:	-1.163	Pitch:	2.054	Yaw:	11.385	Thrust:	28.665
Time:	2.126	Roll Set Point:	0.022	Pitch Set Point:	-0.127	Yaw Set Point:	-0.070	X_WP:	0.100	Y_WP:	0.000	Y_WP:	0.500	X:	0.037	Y:	0.061	Z:	0.057	yaw:	3.999	yaw rate:	23.495	Roll:	-1.028	Pitch:	2.720	Yaw:	10.960	Thrust:	28.990
Time:	2.139	Roll Set Point:	0.023	Pitch Set Point:	-0.126	Yaw Set Point:	-0.062	X_WP:	0.100	Y_WP:	0.000	Y_WP:	0.500	X:	0.037	Y:	0.061	Z:	0.057	yaw:	3.560	yaw rate:	-43.889	Roll:	-2.658	Pitch:	1.001	Yaw:	-4.431	Thrust:	30.152
Time:	2.153	Roll Set Point:	0.023	Pitch Set Point:	-0.127	Yaw Set Point:	-0.064	X_WP:	0.100	Y_WP:	0.000	Y_WP:	0.500	X:	0.037	Y:	0.061	Z:	0.057	yaw:	3.692	yaw rate:	13.195	Roll:	-1.495	Pitch:	2.552	Yaw:	7.645	Thrust:	32.432
Time:	2.165	Roll Set Point:	0.023	Pitch Set Point:	-0.126	Yaw Set Point:	-0.062	X_WP:	0.100	Y_WP:	0.000	Y_WP:	0.500	X:	0.037	Y:	0.061	Z:	0.057	yaw:	3.526	yaw rate:	-16.599	Roll:	-2.232	Pitch:	1.312	Yaw:	1.422	Thrust:	31.160
Time:	2.176	Roll Set Point:	0.023	Pitch Set Point:	-0.126	Yaw Set Point:	-0.060	X_WP:	0.100	Y_WP:	0.000	Y_WP:	0.500	X:	0.037	Y:	0.061	Z:	0.057	yaw:	3.446	yaw rate:	-7.936	Roll:	-2.009	Pitch:	1.692	Yaw:	3.002	Thrust:	31.453
Time:	2.187	Roll Set Point:	0.023	Pitch Set Point:	-0.126	Yaw Set Point:	-0.061	X_WP:	0.100	Y_WP:	0.000	Y_WP:	0.500	X:	0.037	Y:	0.061	Z:	0.057	yaw:	3.518	yaw rate:	7.171	Roll:	-1.668	Pitch:	2.077	Yaw:	6.798	Thrust:	31.886
Time:	2.197	Roll Set Point:	0.023	Pitch Set Point:	-0.127	Yaw Set Point:	-0.064	X_WP:	0.100	Y_WP:	0.000	Y_WP:	0.500	X:	0.037	Y:	0.061	Z:	0.057	yaw:	3.689	yaw rate:	17.056	Roll:	-1.181	Pitch:	2.616	Yaw:	9.578	Thrust:	32.313
Time:	2.212	Roll Set Point:	0.023	Pitch Set Point:	-0.126	Yaw Set Point:	-0.061	X_WP:	0.100	Y_WP:	0.000	Y_WP:	0.500	X:	0.037	Y:	0.061	Z:	0.057	yaw:	3.505	yaw rate:	-18.398	Roll:	-2.214	Pitch:	1.409	Yaw:	1.734	Thrust:	35.135
Time:	2.223	Roll Set Point:	0.023	Pitch Set Point:	-0.126	Yaw Set Point:	-0.061	X_WP:	0.100	Y_WP:	0.000	Y_WP:	0.500	X:	0.037	Y:	0.061	Z:	0.057	yaw:	3.497	yaw rate:	0.635	Roll:	-1.856	Pitch:	1.938	Yaw:	4.935	Thrust:	34.553
Time:	2.234	Roll Set Point:	0.023	Pitch Set Point:	-0.127	Yaw Set Point:	-0.064	X_WP:	0.100	Y_WP:	0.000	Y_WP:	0.500	X:	0.037	Y:	0.061	Z:	0.057	yaw:	3.675	yaw rate:	17.804	Roll:	-1.186	Pitch:	2.593	Yaw:	9.596	Thrust:	34.371
Time:	2.245	Roll Set Point:	0.023	Pitch Set Point:	-0.126	Yaw Set Point:	-0.061	X_WP:	0.100	Y_WP:	0.000	Y_WP:	0.500	X:	0.037	Y:	0.061	Z:	0.057	yaw:	3.521	yaw rate:	-15.402	Roll:	-2.373	Pitch:	1.363	Yaw:	1.684	Thrust:	35.528
Time:	2.256	Roll Set Point:	0.023	Pitch Set Point:	-0.127	Yaw Set Point:	-0.063	X_WP:	0.100	Y_WP:	0.000	Y_WP:	0.500	X:	0.037	Y:	0.061	Z:	0.057	yaw:	3.621	yaw rate:	10.041	Roll:	-1.241	Pitch:	2.542	Yaw:	7.807	Thrust:	34.691
Time:	2.266	Roll Set Point:	0.023	Pitch Set Point:	-0.127	Yaw Set Point:	-0.064	X_WP:	0.100	Y_WP:	0.000	Y_WP:	0.500	X:	0.037	Y:	0.061	Z:	0.057	yaw:	3.663	yaw rate:	4.194	Roll:	-1.725	Pitch:	2.093	Yaw:	6.424	Thrust:	35.483
Time:	2.281	Roll Set Point:	0.023	Pitch Set Point:	-0.126	Yaw Set Point:	-0.062	X_WP:	0.100	Y_WP:	0.000	Y_WP:	0.500	X:	0.037	Y:	0.061	Z:	0.057	yaw:	3.530	yaw rate:	-13.292	Roll:	-2.236	Pitch:	1.511	Yaw:	2.925	Thrust:	40.799
Time:	2.292	Roll Set Point:	0.023	Pitch Set Point:	-0.126	Yaw Set Point:	-0.066	X_WP:	0.100	Y_WP:	0.000	Y_WP:	0.500	X:	0.036	Y:	0.061	Z:	0.057	yaw:	3.762	yaw rate:	23.190	Roll:	-1.483	Pitch:	2.083	Yaw:	10.899	Thrust:	37.628
Time:	2.304	Roll Set Point:	0.023	Pitch Set Point:	-0.127	Yaw Set Point:	-0.064	X_WP:	0.100	Y_WP:	0.000	Y_WP:	0.500	X:	0.037	Y:	0.061	Z:	0.057	yaw:	3.671	yaw rate:	-9.117	Roll:	-1.569	Pitch:	2.483	Yaw:	3.493	Thrust:	39.002
Time:	2.316	Roll Set Point:	0.023	Pitch Set Point:	-0.126	Yaw Set Point:	-0.061	X_WP:	0.100	Y_WP:	0.000	Y_WP:	0.500	X:	0.037	Y:	0.061	Z:	0.057	yaw:	3.498	yaw rate:	-17.261	Roll:	-2.493	Pitch:	1.390	Yaw:	1.323	Thrust:	39.353
Time:	2.327	Roll Set Point:	0.022	Pitch Set Point:	-0.127	Yaw Set Point:	-0.069	X_WP:	0.100	Y_WP:	0.000	Y_WP:	0.500	X:	0.037	Y:	0.061	Z:	0.057	yaw:	3.927	yaw rate:	42.844	Roll:	-0.721	Pitch:	2.663	Yaw:	15.905	Thrust:	39.005
Time:	2.343	Roll Set Point:	0.023	Pitch Set Point:	-0.126	Yaw Set Point:	-0.066	X_WP:	0.100	Y_WP:	0.000	Y_WP:	0.500	X:	0.037	Y:	0.061	Z:	0.057	yaw:	3.762	yaw rate:	-16.448	Roll:	-2.363	Pitch:	1.590	Yaw:	3.005	Thrust:	45.905
Time:	2.355	Roll Set Point:	0.023	Pitch Set Point:	-0.127	Yaw Set Point:	-0.063	X_WP:	0.100	Y_WP:	0.000	Y_WP:	0.500	X:	0.037	Y:	0.061	Z:	0.057	yaw:	3.600	yaw rate:	12.277	Roll:	-1.807	Pitch:	2.313	Yaw:	2.063	Thrust:	42.518
Time:	2.366	Roll Set Point:	0.023	Pitch Set Point:	-0.127	Yaw Set Point:	-0.064	X_WP:	0.100	Y_WP:	0.000	Y_WP:	0.500	X:	0.037	Y:	0.061	Z:	0.057	yaw:	3.644	yaw rate:	4.412	Roll:	-1.711	Pitch:	2.113	Yaw:	6.516	Thrust:	40.817
Time:	2.377	Roll Set Point:	0.023	Pitch Set Point:	-0.127	Yaw Set Point:	-0.064	X_WP:	0.100	Y_WP:	0.000	Y_WP:	0.500	X:	0.037	Y:	0.061	Z:	0.057	yaw:	3.680	yaw rate:	3.606	Roll:	-1.769	Pitch:	2.099	Yaw:	6.423	Thrust:	40.735
Time:	2.388	Roll Set Point:	0.023	Pitch Set Point:	-0.126	Yaw Set Point:	-0.060	X_WP:	0.100	Y_WP:	0.000	Y_WP:	0.500	X:	0.037	Y:	0.061	Z:	0.057	yaw:	3.449	yaw rate:	-23.096	Roll:	-2.557	Pitch:	1.135	Yaw:	-0.245	Thrust:	42.024
Time:	2.398	Roll Set Point:	0.023	Pitch Set Point:	-0.126	Yaw Set Point:	-0.060	X_WP:	0.100	Y_WP:	0.000	Y_WP:	0.500	X:	0.037	Y:	0.061	Z:	0.057	yaw:	3.451	yaw rate:	0.217	Roll:	-1.803	Pitch:	2.031	Yaw:	5.288	Thrust:	41.861
Time:	2.412	Roll Set Point:	0.023	Pitch Set Point:	-0.126	Yaw Set Point:	-0.060	X_WP:	0.100	Y_WP:	0.000	Y_WP:	0.500	X:	0.037	Y:	0.061	Z:	0.057	yaw:	3.458	yaw rate:	0.659	Roll:	-1.823	Pitch:	2.048	Yaw:	5.505	Thrust:	47.270
Time:	2.423	Roll Set Point:	0.023	Pitch Set Point:	-0.126	Yaw Set Point:	-0.060	X_WP:	0.100	Y_WP:	0.000	Y_WP:	0.500	X:	0.037	Y:	0.061	Z:	0.057	yaw:	3.446	yaw rate:	-1.129	Roll:	-1.861	Pitch:	2.030	Yaw:	5.038	Thrust:	44.595
Time:	2.435	Roll Set Point:	0.023	Pitch Set Point:	-0.126	Yaw Set Point:	-0.061	X_WP:	0.100	Y_WP:	0.000	Y_WP:	0.500	X:	0.037	Y:	0.061	Z:	0.057	yaw:	3.483	yaw rate:	3.641	Roll:	-1.702	Pitch:	2.033	Yaw:	6.202	Thrust:	44.374
Time:	2.445	Roll Set Point:	0.023	Pitch Set Point:	-0.126	Yaw Set Point:	-0.060	X_WP:	0.100	Y_WP:	0.000	Y_WP:	0.500	X:	0.037	Y:	0.061	Z:	0.057	yaw:	3.462	yaw rate:	-2.055	Roll:	-1.872	Pitch:	1.986	Yaw:	4.789	Thrust:	43.992
Time:	2.456	Roll Set Point:	0.023	Pitch Set Point:	-0.126	Yaw Set Point:	-0.060	X_WP:	0.100	Y_WP:	0.000	Y_WP:	0.500	X:	0.037	Y:	0.061	Z:	0.057	yaw:	3.446	yaw rate:	-1.661	Roll:	-1.977	Pitch:	1.969	Yaw:	4.876	Thrust:	44.679
Time:	2.467	Roll Set Point:	0.023	Pitch Set Point:	-0.127	Yaw Set Point:	-0.063	X_WP:	0.100	Y_WP:	0.000	Y_WP:	0.500	X:	0.037	Y:	0.061	Z:	0.057	yaw:	3.630	yaw rate:	18.483	Roll:	-1.287	Pitch:	2.625	Yaw:	9.970	Thrust:	46.119
Time:	2.479	Roll Set Point:	0.023	Pitch Set Point:	-0.126	Yaw Set Point:	-0.060	X_WP:	0.100	Y_WP:	0.000	Y_WP:	0.500	X:	0.037	Y:	0.061	Z:	0.057	yaw:	3.452	yaw rate:	-17.828	Roll:	-2.480	Pitch:	1.529	Yaw:	1.699	Thrust:	49.513
Time:	2.490	Roll Set Point:	0.023	Pitch Set Point:	-0.127	Yaw Set Point:	-0.064	X_WP:	0.100	Y_WP:	0.000	Y_WP:	0.500	X:	0.037	Y:	0.061	Z:	0.057	yaw:	3.658	yaw rate:	20.615	Roll:	-1.025	Pitch:	2.802	Yaw:	10.542	Thrust:	47.094
Time:	2.501	Roll Set Point:	0.023	Pitch Set Point:	-0.127	Yaw Set Point:	-0.063	X_WP:	0.100	Y_WP:	0.000	Y_WP:	0.500	X:	0.037	Y:	0.061	Z:	0.057	yaw:	3.581	yaw rate:	-7.702	Roll:	-2.065	Pitch:	1.814	Yaw:	3.730	Thrust:	47.994
Time:	2.512	Roll Set Point:	0.023	Pitch Set Point:	-0.126	Yaw Set Point:	-0.060	X_WP:	0.100	Y_WP:	0.000	Y_WP:	0.500	X:	0.037	Y:	0.061	Z:	0.057	yaw:	3.462	yaw rate:	-11.906	Roll:	-2.357	Pitch:	1.561	Yaw:	2.415	Thrust:	47.185
Time:	2.523	Roll Set Point:	0.023	Pitch Set Point:	-0.126	Yaw Set Point:	-0.060	X_WP:	0.100	Y_WP:	0.000	Y_WP:	0.500	X:	0.037	Y:	0.061	Z:	0.057	yaw:	3.430	yaw rate:	-3.260	Roll:	-1.889	Pitch:	1.925	Yaw:	4.655	Thrust:	50.085
Time:	2.535	Roll Set Point:	0.023	Pitch Set Point:	-0.126	Yaw Set Point:	-0.060	X_WP:	0.100	Y_WP:	0.000	Y_WP:	0.500	X:	0.037	Y:	0.061	Z:	0.057	yaw:	3.416	yaw rate:	-1.328	Roll:	-1.893	Pitch:	2.011	Yaw:	5.131	Thrust:	51.971
Time:	2.548	Roll Set Point:	0.023	Pitch Set Point:	-0.126	Yaw Set Point:	-0.059	X_WP:	0.100	Y_WP:	0.000	Y_WP:	0.500	X:	0.037	Y:	0.061	Z:	0.057	yaw:	3.382	yaw rate:	-4.948	Roll:	-1.941	Pitch:	2.032	Yaw:	4.701	Thrust:	52.573
Time:	2.559	Roll Set Point:	0.023	Pitch Set Point:	-0.126	Yaw Set Point:	-0.060	X_WP:	0.100	Y_WP:	0.000	Y_WP:	0.500	X:	0.037	Y:	0.061	Z:	0.057	yaw:	3.412	yaw rate:	2.957	Roll:	-1.805	Pitch:	2.121	Yaw:	6.088	Thrust:	51.988
Time:	2.569	Roll Set Point:	0.023	Pitch Set Point:	-0.126	Yaw Set Point:	-0.059	X_WP:	0.100	Y_WP:	0.000	Y_WP:	0.500	X:	0.037	Y:	0.061	Z:	0.057	yaw:	3.370	yaw rate:	-4.157	Roll:	-2.008	Pitch:	1.988	Yaw:	4.294	Thrust:	50.326
Time:	2.581	Roll Set Point:	0.023	Pitch Set Point:	-0.126	Yaw Set Point:	-0.059	X_WP:	0.100	Y_WP:	0.000	Y_WP:	0.500	X:	0.037	Y:	0.061	Z:	0.057	yaw:	3.366	yaw rate:	-0.459	Roll:	-1.831	Pitch:	2.147	Yaw:	5.273	Thrust:	52.951
Time:	2.592	Roll Set Point:	0.023	Pitch Set Point:	-0.127	Yaw Set Point:	-0.058	X_WP:	0.100	Y_WP:	0.000	Y_WP:	0.500	X:	0.037	Y:	0.061	Z:	0.057	yaw:	3.341	yaw rate:	-2.458	Roll:	-1.991	Pitch:	2.059	Yaw:	4.711	Thrust:	51.921
Time:	2.603	Roll Set Point:	0.023	Pitch Set Point:	-0.127	Yaw Set Point:	-0.059	X_WP:	0.100	Y_WP:	0.000	Y_WP:	0.500	X:	0.037	Y:	0.061	Z:	0.057	yaw:	3.373	yaw rate:	3.182	Roll:	-1.663	Pitch:	2.189	Yaw:	6.153	Thrust:	50.539
Time:	2.615	Roll Set Point:	0.023	Pitch Set Point:	-0.127	Yaw Set Point:	-0.059	X_WP:	0.100	Y_WP:	0.000	Y_WP:	0.500	X:	0.037	Y:	0.062	Z:	0.057	yaw:	3.374	yaw rate:	0.120	Roll:	-1.814	Pitch:	2.159	Yaw:	5.578	Thrust:	60.318
Time:	2.626	Roll Set Point:	0.023	Pitch Set Point:	-0.127	Yaw Set Point:	-0.057	X_WP:	0.100	Y_WP:	0.000	Y_WP:	0.500	X:	0.037	Y:	0.062	Z:	0.057	yaw:	3.264	yaw rate:	-11.033	Roll:	-2.090	Pitch:	1.911	Yaw:	2.642	Thrust:	54.497
Time:	2.637	Roll Set Point:	0.023	Pitch Set Point:	-0.126	Yaw Set Point:	-0.056	X_WP:	0.100	Y_WP:	0.000	Y_WP:	0.500	X:	0.037	Y:	0.062	Z:	0.057	yaw:	3.200	yaw rate:	-6.347	Roll:	-2.040	Pitch:	1.811	Yaw:	3.675	Thrust:	55.052
Time:	2.648	Roll Set Point:	0.023	Pitch Set Point:	-0.126	Yaw Set Point:	-0.055	X_WP:	0.100	Y_WP:	0.000	Y_WP:	0.500	X:	0.037	Y:	0.062	Z:	0.057	yaw:	3.132	yaw rate:	-6.793	Roll:	-1.916	Pitch:	1.991	Yaw:	3.377	Thrust:	53.822
Time:	2.658	Roll Set Point:	0.023	Pitch Set Point:	-0.126	Yaw Set Point:	-0.053	X_WP:	0.100	Y_WP:	0.000	Y_WP:	0.500	X:	0.037	Y:	0.062	Z:	0.057	yaw:	3.052	yaw rate:	-8.003	Roll:	-1.998	Pitch:	1.889	Yaw:	2.975	Thrust:	53.060
Time:	2.671	Roll Set Point:	0.023	Pitch Set Point:	-0.126	Yaw Set Point:	-0.051	X_WP:	0.100	Y_WP:	0.000	Y_WP:	0.500	X:	0.037	Y:	0.062	Z:	0.057	yaw:	2.946	yaw rate:	-10.582	Roll:	-2.037	Pitch:	1.865	Yaw:	2.452	Thrust:	59.022
Time:	2.683	Roll Set Point:	0.023	Pitch Set Point:	-0.126	Yaw Set Point:	-0.050	X_WP:	0.100	Y_WP:	0.000	Y_WP:	0.500	X:	0.037	Y:	0.062	Z:	0.057	yaw:	2.884	yaw rate:	-6.265	Roll:	-1.937	Pitch:	2.085	Yaw:	3.666	Thrust:	61.656
Time:	2.693	Roll Set Point:	0.022	Pitch Set Point:	-0.127	Yaw Set Point:	-0.052	X_WP:	0.100	Y_WP:	0.000	Y_WP:	0.500	X:	0.037	Y:	0.062	Z:	0.057	yaw:	2.991	yaw rate:	10.673	Roll:	-1.343	Pitch:	2.684	Yaw:	7.562	Thrust:	58.018
Time:	2.705	Roll Set Point:	0.022	Pitch Set Point:	-0.127	Yaw Set Point:	-0.051	X_WP:	0.100	Y_WP:	0.000	Y_WP:	0.500	X:	0.037	Y:	0.062	Z:	0.057	yaw:	2.897	yaw rate:	-9.329	Roll:	-2.035	Pitch:	1.930	Yaw:	2.866	Thrust:	61.649
Time:	2.717	Roll Set Point:	0.023	Pitch Set Point:	-0.126	Yaw Set Point:	-0.046	X_WP:	0.100	Y_WP:	0.000	Y_WP:	0.500	X:	0.037	Y:	0.062	Z:	0.057	yaw:	2.651	yaw rate:	-24.588	Roll:	-2.544	Pitch:	1.453	Yaw:	-1.047	Thrust:	60.360
Time:	2.728	Roll Set Point:	0.023	Pitch Set Point:	-0.126	Yaw Set Point:	-0.044	X_WP:	0.100	Y_WP:	0.000	Y_WP:	0.500	X:	0.037	Y:	0.062	Z:	0.057	yaw:	2.526	yaw rate:	-12.546	Roll:	-2.094	Pitch:	1.863	Yaw:	1.177	Thrust:	57.623
Time:	2.745	Roll Set Point:	0.022	Pitch Set Point:	-0.126	Yaw Set Point:	-0.045	X_WP:	0.100	Y_WP:	0.000	Y_WP:	0.500	X:	0.037	Y:	0.062	Z:	0.057	yaw:	2.550	yaw rate:	2.447	Roll:	-1.800	Pitch:	2.271	Yaw:	5.197	Thrust:	73.032
Time:	2.756	Roll Set Point:	0.022	Pitch Set Point:	-0.126	Yaw Set Point:	-0.041	X_WP:	0.100	Y_WP:	0.000	Y_WP:	0.500	X:	0.038	Y:	0.062	Z:	0.058	yaw:	2.370	yaw rate:	-11.264	Roll:	-1.701	Pitch:	1.983	Yaw:	0.073	Thrust:	67.252
Time:	2.768	Roll Set Point:	0.021	Pitch Set Point:	-0.127	Yaw Set Point:	-0.043	X_WP:	0.100	Y_WP:	0.000	Y_WP:	0.500	X:	0.038	Y:	0.062	Z:	0.058	yaw:	2.448	yaw rate:	7.817	Roll:	-1.329	Pitch:	2.543	Yaw:	6.026	Thrust:	60.366
Time:	2.779	Roll Set Point:	0.022	Pitch Set Point:	-0.126	Yaw Set Point:	-0.037	X_WP:	0.100	Y_WP:	0.000	Y_WP:	0.500	X:	0.038	Y:	0.062	Z:	0.058	yaw:	2.134	yaw rate:	-31.401	Roll:	-2.932	Pitch:	1.051	Yaw:	-4.036	Thrust:	60.412
Time:	2.790	Roll Set Point:	0.022	Pitch Set Point:	-0.126	Yaw Set Point:	-0.036	X_WP:	0.100	Y_WP:	0.000	Y_WP:	0.500	X:	0.038	Y:	0.062	Z:	0.058	yaw:	2.076	yaw rate:	-5.857	Roll:	-1.738	Pitch:	2.082	Yaw:	2.391	Thrust:	63.653
Time:	2.802	Roll Set Point:	0.021	Pitch Set Point:	-0.126	Yaw Set Point:	-0.037	X_WP:	0.100	Y_WP:	0.000	Y_WP:	0.500	X:	0.038	Y:	0.062	Z:	0.059	yaw:	2.096	yaw rate:	2.091	Roll:	-1.252	Pitch:	2.327	Yaw:	4.319	Thrust:	65.598
Time:	2.813	Roll Set Point:	0.021	Pitch Set Point:	-0.126	Yaw Set Point:	-0.030	X_WP:	0.100	Y_WP:	0.000	Y_WP:	0.500	X:	0.039	Y:	0.062	Z:	0.059	yaw:	1.739	yaw rate:	-35.742	Roll:	-2.346	Pitch:	0.943	Yaw:	-4.777	Thrust:	63.598
Time:	2.825	Roll Set Point:	0.021	Pitch Set Point:	-0.126	Yaw Set Point:	-0.028	X_WP:	0.100	Y_WP:	0.000	Y_WP:	0.500	X:	0.039	Y:	0.062	Z:	0.060	yaw:	1.587	yaw rate:	-15.210	Roll:	-1.697	Pitch:	1.731	Yaw:	-0.221	Thrust:	64.728
Time:	2.835	Roll Set Point:	0.020	Pitch Set Point:	-0.125	Yaw Set Point:	-0.025	X_WP:	0.100	Y_WP:	0.000	Y_WP:	0.500	X:	0.039	Y:	0.062	Z:	0.060	yaw:	1.446	yaw rate:	-14.051	Roll:	-1.537	Pitch:	1.687	Yaw:	-0.850	Thrust:	57.887
Time:	2.847	Roll Set Point:	0.020	Pitch Set Point:	-0.125	Yaw Set Point:	-0.022	X_WP:	0.100	Y_WP:	0.000	Y_WP:	0.500	X:	0.040	Y:	0.062	Z:	0.061	yaw:	1.284	yaw rate:	-16.285	Roll:	-1.535	Pitch:	1.531	Yaw:	-0.979	Thrust:	63.870
Time:	2.858	Roll Set Point:	0.019	Pitch Set Point:	-0.125	Yaw Set Point:	-0.020	X_WP:	0.100	Y_WP:	0.000	Y_WP:	0.500	X:	0.040	Y:	0.062	Z:	0.062	yaw:	1.122	yaw rate:	-16.107	Roll:	-1.476	Pitch:	1.469	Yaw:	-1.366	Thrust:	61.290
Time:	2.869	Roll Set Point:	0.018	Pitch Set Point:	-0.124	Yaw Set Point:	-0.015	X_WP:	0.100	Y_WP:	0.000	Y_WP:	0.500	X:	0.040	Y:	0.062	Z:	0.063	yaw:	0.874	yaw rate:	-24.808	Roll:	-1.494	Pitch:	1.003	Yaw:	-4.103	Thrust:	59.716
Time:	2.882	Roll Set Point:	0.017	Pitch Set Point:	-0.123	Yaw Set Point:	-0.012	X_WP:	0.100	Y_WP:	0.000	Y_WP:	0.500	X:	0.041	Y:	0.061	Z:	0.065	yaw:	0.677	yaw rate:	-19.696	Roll:	-1.405	Pitch:	1.350	Yaw:	-1.760	Thrust:	72.499
Time:	2.893	Roll Set Point:	0.015	Pitch Set Point:	-0.121	Yaw Set Point:	0.000	X_WP:	0.100	Y_WP:	0.000	Y_WP:	0.500	X:	0.042	Y:	0.060	Z:	0.069	yaw:	-0.017	yaw rate:	-49.436	Roll:	-0.323	Pitch:	-1.548	Yaw:	-15.573	Thrust:	50.251
Time:	2.903	Roll Set Point:	0.014	Pitch Set Point:	-0.120	Yaw Set Point:	0.003	X_WP:	0.100	Y_WP:	0.000	Y_WP:	0.500	X:	0.043	Y:	0.060	Z:	0.070	yaw:	-0.175	yaw rate:	-15.754	Roll:	-0.912	Pitch:	0.619	Yaw:	-3.539	Thrust:	57.213
Time:	2.914	Roll Set Point:	0.014	Pitch Set Point:	-0.119	Yaw Set Point:	0.007	X_WP:	0.100	Y_WP:	0.000	Y_WP:	0.500	X:	0.043	Y:	0.060	Z:	0.072	yaw:	-0.393	yaw rate:	-21.831	Roll:	-1.234	Pitch:	0.729	Yaw:	-4.564	Thrust:	63.752
Time:	2.925	Roll Set Point:	0.012	Pitch Set Point:	-0.119	Yaw Set Point:	0.005	X_WP:	0.100	Y_WP:	0.000	Y_WP:	0.500	X:	0.044	Y:	0.059	Z:	0.073	yaw:	-0.297	yaw rate:	9.609	Roll:	-0.140	Pitch:	1.564	Yaw:	2.819	Thrust:	60.051
Time:	2.941	Roll Set Point:	0.011	Pitch Set Point:	-0.117	Yaw Set Point:	0.013	X_WP:	0.100	Y_WP:	0.000	Y_WP:	0.500	X:	0.045	Y:	0.059	Z:	0.075	yaw:	-0.740	yaw rate:	-44.315	Roll:	-1.565	Pitch:	-0.001	Yaw:	-7.498	Thrust:	71.724
Time:	2.956	Roll Set Point:	0.010	Pitch Set Point:	-0.116	Yaw Set Point:	0.016	X_WP:	0.100	Y_WP:	0.000	Y_WP:	0.500	X:	0.045	Y:	0.058	Z:	0.077	yaw:	-0.890	yaw rate:	-15.018	Roll:	-1.382	Pitch:	1.156	Yaw:	-2.513	Thrust:	92.262
Time:	2.967	Roll Set Point:	0.009	Pitch Set Point:	-0.115	Yaw Set Point:	0.019	X_WP:	0.100	Y_WP:	0.000	Y_WP:	0.500	X:	0.046	Y:	0.058	Z:	0.078	yaw:	-1.096	yaw rate:	-20.565	Roll:	-0.704	Pitch:	0.582	Yaw:	-5.266	Thrust:	65.374
Time:	2.978	Roll Set Point:	0.007	Pitch Set Point:	-0.114	Yaw Set Point:	0.021	X_WP:	0.100	Y_WP:	0.000	Y_WP:	0.500	X:	0.047	Y:	0.057	Z:	0.080	yaw:	-1.215	yaw rate:	-11.867	Roll:	-0.214	Pitch:	0.478	Yaw:	-3.801	Thrust:	60.045
Time:	2.989	Roll Set Point:	0.004	Pitch Set Point:	-0.111	Yaw Set Point:	0.025	X_WP:	0.100	Y_WP:	0.000	Y_WP:	0.500	X:	0.049	Y:	0.056	Z:	0.084	yaw:	-1.440	yaw rate:	-15.617	Roll:	1.431	Pitch:	-0.933	Yaw:	-6.196	Thrust:	57.785
Time:	2.999	Roll Set Point:	0.004	Pitch Set Point:	-0.111	Yaw Set Point:	0.025	X_WP:	0.100	Y_WP:	0.000	Y_WP:	0.500	X:	0.049	Y:	0.056	Z:	0.084	yaw:	-1.440	yaw rate:	-15.617	Roll:	-1.776	Pitch:	1.859	Yaw:	-1.213	Thrust:	66.880
Time:	3.012	Roll Set Point:	0.001	Pitch Set Point:	-0.108	Yaw Set Point:	0.031	X_WP:	0.100	Y_WP:	0.000	Y_WP:	0.500	X:	0.051	Y:	0.055	Z:	0.088	yaw:	-1.765	yaw rate:	-13.636	Roll:	1.526	Pitch:	-1.012	Yaw:	-8.267	Thrust:	63.167
Time:	3.022	Roll Set Point:	-0.002	Pitch Set Point:	-0.107	Yaw Set Point:	0.032	X_WP:	0.100	Y_WP:	0.000	Y_WP:	0.500	X:	0.052	Y:	0.054	Z:	0.090	yaw:	-1.847	yaw rate:	-8.181	Roll:	0.666	Pitch:	0.244	Yaw:	-3.782	Thrust:	61.325
Time:	3.033	Roll Set Point:	-0.005	Pitch Set Point:	-0.104	Yaw Set Point:	0.035	X_WP:	0.100	Y_WP:	0.000	Y_WP:	0.500	X:	0.054	Y:	0.053	Z:	0.095	yaw:	-1.993	yaw rate:	-14.627	Roll:	2.393	Pitch:	-1.516	Yaw:	-5.397	Thrust:	54.933
Time:	3.045	Roll Set Point:	-0.007	Pitch Set Point:	-0.103	Yaw Set Point:	0.031	X_WP:	0.100	Y_WP:	0.000	Y_WP:	0.500	X:	0.055	Y:	0.052	Z:	0.097	yaw:	-1.792	yaw rate:	20.155	Roll:	1.137	Pitch:	1.061	Yaw:	2.963	Thrust:	66.412
Time:	3.056	Roll Set Point:	-0.009	Pitch Set Point:	-0.102	Yaw Set Point:	0.036	X_WP:	0.100	Y_WP:	0.000	Y_WP:	0.500	X:	0.055	Y:	0.052	Z:	0.099	yaw:	-2.088	yaw rate:	-29.656	Roll:	-0.186	Pitch:	-0.482	Yaw:	-9.108	Thrust:	64.279
Time:	3.067	Roll Set Point:	-0.011	Pitch Set Point:	-0.101	Yaw Set Point:	0.036	X_WP:	0.100	Y_WP:	0.000	Y_WP:	0.500	X:	0.056	Y:	0.051	Z:	0.101	yaw:	-2.081	yaw rate:	0.748	Roll:	0.601	Pitch:	0.399	Yaw:	-1.923	Thrust:	62.037
Time:	3.080	Roll Set Point:	-0.013	Pitch Set Point:	-0.099	Yaw Set Point:	0.035	X_WP:	0.100	Y_WP:	0.000	Y_WP:	0.500	X:	0.057	Y:	0.050	Z:	0.103	yaw:	-2.005	yaw rate:	7.546	Roll:	0.191	Pitch:	0.767	Yaw:	-0.327	Thrust:	78.690
Time:	3.091	Roll Set Point:	-0.015	Pitch Set Point:	-0.098	Yaw Set Point:	0.035	X_WP:	0.100	Y_WP:	0.000	Y_WP:	0.500	X:	0.058	Y:	0.050	Z:	0.106	yaw:	-1.993	yaw rate:	1.260	Roll:	0.456	Pitch:	0.278	Yaw:	-1.675	Thrust:	63.890
Time:	3.102	Roll Set Point:	-0.017	Pitch Set Point:	-0.097	Yaw Set Point:	0.030	X_WP:	0.100	Y_WP:	0.000	Y_WP:	0.500	X:	0.059	Y:	0.049	Z:	0.108	yaw:	-1.697	yaw rate:	29.562	Roll:	1.637	Pitch:	1.258	Yaw:	5.458	Thrust:	65.512
Time:	3.113	Roll Set Point:	-0.018	Pitch Set Point:	-0.096	Yaw Set Point:	0.030	X_WP:	0.100	Y_WP:	0.000	Y_WP:	0.500	X:	0.060	Y:	0.049	Z:	0.110	yaw:	-1.735	yaw rate:	-3.778	Roll:	0.075	Pitch:	0.274	Yaw:	-2.439	Thrust:	69.184
Time:	3.125	Roll Set Point:	-0.020	Pitch Set Point:	-0.095	Yaw Set Point:	0.030	X_WP:	0.100	Y_WP:	0.000	Y_WP:	0.500	X:	0.061	Y:	0.048	Z:	0.112	yaw:	-1.733	yaw rate:	0.162	Roll:	0.440	Pitch:	0.348	Yaw:	-1.547	Thrust:	69.410
Time:	3.136	Roll Set Point:	-0.022	Pitch Set Point:	-0.093	Yaw Set Point:	0.032	X_WP:	0.100	Y_WP:	0.000	Y_WP:	0.500	X:	0.062	Y:	0.047	Z:	0.115	yaw:	-1.840	yaw rate:	-10.686	Roll:	0.161	Pitch:	-0.050	Yaw:	-4.640	Thrust:	60.066
Time:	3.148	Roll Set Point:	-0.024	Pitch Set Point:	-0.093	Yaw Set Point:	0.026	X_WP:	0.100	Y_WP:	0.000	Y_WP:	0.500	X:	0.062	Y:	0.047	Z:	0.117	yaw:	-1.484	yaw rate:	35.556	Roll:	1.043	Pitch:	1.274	Yaw:	6.501	Thrust:	72.542
Time:	3.158	Roll Set Point:	-0.027	Pitch Set Point:	-0.090	Yaw Set Point:	0.025	X_WP:	0.100	Y_WP:	0.000	Y_WP:	0.500	X:	0.064	Y:	0.046	Z:	0.122	yaw:	-1.409	yaw rate:	7.532	Roll:	3.157	Pitch:	-1.050	Yaw:	0.599	Thrust:	55.176
Time:	3.169	Roll Set Point:	-0.029	Pitch Set Point:	-0.089	Yaw Set Point:	0.025	X_WP:	0.100	Y_WP:	0.000	Y_WP:	0.500	X:	0.065	Y:	0.045	Z:	0.125	yaw:	-1.456	yaw rate:	-4.674	Roll:	0.417	Pitch:	0.096	Yaw:	-2.353	Thrust:	66.164
Time:	3.181	Roll Set Point:	-0.031	Pitch Set Point:	-0.088	Yaw Set Point:	0.025	X_WP:	0.100	Y_WP:	0.000	Y_WP:	0.500	X:	0.066	Y:	0.044	Z:	0.128	yaw:	-1.425	yaw rate:	3.113	Roll:	0.868	Pitch:	0.143	Yaw:	-0.481	Thrust:	65.694
Time:	3.191	Roll Set Point:	-0.033	Pitch Set Point:	-0.086	Yaw Set Point:	0.024	X_WP:	0.100	Y_WP:	0.000	Y_WP:	0.500	X:	0.067	Y:	0.044	Z:	0.131	yaw:	-1.390	yaw rate:	3.501	Roll:	0.889	Pitch:	0.104	Yaw:	-0.343	Thrust:	65.689
Time:	3.203	Roll Set Point:	-0.035	Pitch Set Point:	-0.085	Yaw Set Point:	0.022	X_WP:	0.100	Y_WP:	0.000	Y_WP:	0.500	X:	0.068	Y:	0.043	Z:	0.134	yaw:	-1.235	yaw rate:	15.424	Roll:	1.165	Pitch:	0.263	Yaw:	2.692	Thrust:	66.048
Time:	3.215	Roll Set Point:	-0.037	Pitch Set Point:	-0.084	Yaw Set Point:	0.022	X_WP:	0.100	Y_WP:	0.000	Y_WP:	0.500	X:	0.069	Y:	0.042	Z:	0.137	yaw:	-1.258	yaw rate:	-2.273	Roll:	0.736	Pitch:	0.075	Yaw:	-1.377	Thrust:	72.550
Time:	3.226	Roll Set Point:	-0.039	Pitch Set Point:	-0.082	Yaw Set Point:	0.021	X_WP:	0.100	Y_WP:	0.000	Y_WP:	0.500	X:	0.070	Y:	0.041	Z:	0.140	yaw:	-1.223	yaw rate:	3.553	Roll:	1.082	Pitch:	0.049	Yaw:	-0.120	Thrust:	72.143
Time:	3.236	Roll Set Point:	-0.041	Pitch Set Point:	-0.081	Yaw Set Point:	0.019	X_WP:	0.100	Y_WP:	0.000	Y_WP:	0.500	X:	0.071	Y:	0.041	Z:	0.143	yaw:	-1.079	yaw rate:	14.347	Roll:	1.253	Pitch:	0.022	Yaw:	2.914	Thrust:	59.794
Time:	3.248	Roll Set Point:	-0.045	Pitch Set Point:	-0.078	Yaw Set Point:	0.017	X_WP:	0.100	Y_WP:	0.000	Y_WP:	0.500	X:	0.073	Y:	0.039	Z:	0.149	yaw:	-1.001	yaw rate:	7.858	Roll:	3.504	Pitch:	-1.611	Yaw:	1.157	Thrust:	53.002
Time:	3.259	Roll Set Point:	-0.047	Pitch Set Point:	-0.077	Yaw Set Point:	0.013	X_WP:	0.100	Y_WP:	0.000	Y_WP:	0.500	X:	0.074	Y:	0.039	Z:	0.153	yaw:	-0.743	yaw rate:	25.745	Roll:	1.748	Pitch:	0.417	Yaw:	5.807	Thrust:	69.088
Time:	3.272	Roll Set Point:	-0.049	Pitch Set Point:	-0.075	Yaw Set Point:	0.016	X_WP:	0.100	Y_WP:	0.000	Y_WP:	0.500	X:	0.075	Y:	0.038	Z:	0.156	yaw:	-0.923	yaw rate:	-18.022	Roll:	0.554	Pitch:	-0.417	Yaw:	-4.222	Thrust:	75.535
Time:	3.283	Roll Set Point:	-0.051	Pitch Set Point:	-0.074	Yaw Set Point:	0.015	X_WP:	0.100	Y_WP:	0.000	Y_WP:	0.500	X:	0.076	Y:	0.037	Z:	0.160	yaw:	-0.861	yaw rate:	6.204	Roll:	1.256	Pitch:	-0.313	Yaw:	1.034	Thrust:	61.759
Time:	3.293	Roll Set Point:	-0.053	Pitch Set Point:	-0.072	Yaw Set Point:	0.014	X_WP:	0.100	Y_WP:	0.000	Y_WP:	0.500	X:	0.077	Y:	0.036	Z:	0.163	yaw:	-0.775	yaw rate:	8.628	Roll:	1.420	Pitch:	-0.254	Yaw:	1.688	Thrust:	65.349
Time:	3.304	Roll Set Point:	-0.055	Pitch Set Point:	-0.071	Yaw Set Point:	0.013	X_WP:	0.100	Y_WP:	0.000	Y_WP:	0.500	X:	0.078	Y:	0.035	Z:	0.167	yaw:	-0.723	yaw rate:	5.169	Roll:	1.559	Pitch:	-0.316	Yaw:	0.938	Thrust:	65.122
Time:	3.316	Roll Set Point:	-0.057	Pitch Set Point:	-0.069	Yaw Set Point:	0.011	X_WP:	0.100	Y_WP:	0.000	Y_WP:	0.500	X:	0.079	Y:	0.035	Z:	0.171	yaw:	-0.642	yaw rate:	8.121	Roll:	1.504	Pitch:	-0.115	Yaw:	1.698	Thrust:	68.387
Time:	3.327	Roll Set Point:	-0.060	Pitch Set Point:	-0.068	Yaw Set Point:	0.009	X_WP:	0.100	Y_WP:	0.000	Y_WP:	0.500	X:	0.080	Y:	0.034	Z:	0.175	yaw:	-0.540	yaw rate:	10.256	Roll:	1.431	Pitch:	-0.366	Yaw:	2.392	Thrust:	65.165
Time:	3.342	Roll Set Point:	-0.062	Pitch Set Point:	-0.066	Yaw Set Point:	0.008	X_WP:	0.100	Y_WP:	0.000	Y_WP:	0.500	X:	0.081	Y:	0.033	Z:	0.179	yaw:	-0.474	yaw rate:	6.530	Roll:	1.048	Pitch:	0.094	Yaw:	1.447	Thrust:	89.253
Time:	3.355	Roll Set Point:	-0.066	Pitch Set Point:	-0.063	Yaw Set Point:	0.006	X_WP:	0.100	Y_WP:	0.000	Y_WP:	0.500	X:	0.083	Y:	0.032	Z:	0.187	yaw:	-0.318	yaw rate:	11.543	Roll:	3.302	Pitch:	-1.538	Yaw:	3.637	Thrust:	64.605
Time:	3.366	Roll Set Point:	-0.068	Pitch Set Point:	-0.061	Yaw Set Point:	0.005	X_WP:	0.100	Y_WP:	0.000	Y_WP:	0.500	X:	0.084	Y:	0.031	Z:	0.191	yaw:	-0.277	yaw rate:	4.079	Roll:	1.506	Pitch:	-0.581	Yaw:	1.297	Thrust:	63.237
Time:	3.377	Roll Set Point:	-0.072	Pitch Set Point:	-0.058	Yaw Set Point:	0.003	X_WP:	0.100	Y_WP:	0.000	Y_WP:	0.500	X:	0.086	Y:	0.029	Z:	0.199	yaw:	-0.151	yaw rate:	12.627	Roll:	4.197	Pitch:	-2.362	Yaw:	3.397	Thrust:	51.402
Time:	3.387	Roll Set Point:	-0.075	Pitch Set Point:	-0.056	Yaw Set Point:	0.003	X_WP:	0.100	Y_WP:	0.000	Y_WP:	0.500	X:	0.087	Y:	0.028	Z:	0.204	yaw:	-0.146	yaw rate:	0.479	Roll:	1.866	Pitch:	-0.786	Yaw:	0.592	Thrust:	59.452
Time:	3.398	Roll Set Point:	-0.077	Pitch Set Point:	-0.055	Yaw Set Point:	-0.002	X_WP:	0.100	Y_WP:	0.000	Y_WP:	0.500	X:	0.088	Y:	0.028	Z:	0.208	yaw:	0.142	yaw rate:	28.783	Roll:	2.127	Pitch:	-0.210	Yaw:	7.954	Thrust:	60.619
Time:	3.412	Roll Set Point:	-0.079	Pitch Set Point:	-0.054	Yaw Set Point:	-0.003	X_WP:	0.100	Y_WP:	0.000	Y_WP:	0.500	X:	0.090	Y:	0.027	Z:	0.213	yaw:	0.184	yaw rate:	4.173	Roll:	1.534	Pitch:	-0.342	Yaw:	1.934	Thrust:	81.411
Time:	3.422	Roll Set Point:	-0.081	Pitch Set Point:	-0.052	Yaw Set Point:	-0.000	X_WP:	0.100	Y_WP:	0.000	Y_WP:	0.500	X:	0.090	Y:	0.026	Z:	0.217	yaw:	0.006	yaw rate:	-17.758	Roll:	1.169	Pitch:	-1.003	Yaw:	-3.539	Thrust:	62.318
Time:	3.433	Roll Set Point:	-0.083	Pitch Set Point:	-0.050	Yaw Set Point:	-0.000	X_WP:	0.100	Y_WP:	0.000	Y_WP:	0.500	X:	0.092	Y:	0.025	Z:	0.222	yaw:	0.027	yaw rate:	2.044	Roll:	1.863	Pitch:	-0.696	Yaw:	1.232	Thrust:	62.805
Time:	3.445	Roll Set Point:	-0.085	Pitch Set Point:	-0.048	Yaw Set Point:	-0.000	X_WP:	0.100	Y_WP:	0.000	Y_WP:	0.500	X:	0.093	Y:	0.024	Z:	0.226	yaw:	0.018	yaw rate:	-0.894	Roll:	1.856	Pitch:	-0.824	Yaw:	0.564	Thrust:	62.396
Time:	3.456	Roll Set Point:	-0.087	Pitch Set Point:	-0.047	Yaw Set Point:	-0.001	X_WP:	0.100	Y_WP:	0.000	Y_WP:	0.500	X:	0.094	Y:	0.023	Z:	0.231	yaw:	0.080	yaw rate:	6.195	Roll:	2.001	Pitch:	-0.761	Yaw:	2.329	Thrust:	58.609
Time:	3.468	Roll Set Point:	-0.089	Pitch Set Point:	-0.045	Yaw Set Point:	-0.002	X_WP:	0.100	Y_WP:	0.000	Y_WP:	0.500	X:	0.095	Y:	0.023	Z:	0.236	yaw:	0.127	yaw rate:	4.788	Roll:	1.705	Pitch:	-0.674	Yaw:	1.995	Thrust:	74.260
Time:	3.481	Roll Set Point:	-0.092	Pitch Set Point:	-0.044	Yaw Set Point:	-0.002	X_WP:	0.100	Y_WP:	0.000	Y_WP:	0.500	X:	0.096	Y:	0.022	Z:	0.241	yaw:	0.091	yaw rate:	-3.648	Roll:	1.429	Pitch:	-0.458	Yaw:	0.235	Thrust:	77.649
Time:	3.491	Roll Set Point:	-0.097	Pitch Set Point:	-0.039	Yaw Set Point:	-0.004	X_WP:	0.100	Y_WP:	0.000	Y_WP:	0.500	X:	0.099	Y:	0.019	Z:	0.256	yaw:	0.235	yaw rate:	8.518	Roll:	6.393	Pitch:	-4.387	Yaw:	4.583	Thrust:	14.790
Time:	3.502	Roll Set Point:	-0.100	Pitch Set Point:	-0.038	Yaw Set Point:	-0.007	X_WP:	0.100	Y_WP:	0.000	Y_WP:	0.500	X:	0.100	Y:	0.019	Z:	0.261	yaw:	0.401	yaw rate:	16.646	Roll:	2.275	Pitch:	-0.457	Yaw:	5.223	Thrust:	60.965
Time:	3.514	Roll Set Point:	-0.101	Pitch Set Point:	-0.036	Yaw Set Point:	-0.003	X_WP:	0.100	Y_WP:	0.000	Y_WP:	0.500	X:	0.101	Y:	0.018	Z:	0.266	yaw:	0.196	yaw rate:	-20.553	Roll:	1.488	Pitch:	-1.232	Yaw:	-3.891	Thrust:	60.397
Time:	3.524	Roll Set Point:	-0.103	Pitch Set Point:	-0.034	Yaw Set Point:	-0.004	X_WP:	0.100	Y_WP:	0.000	Y_WP:	0.500	X:	0.102	Y:	0.017	Z:	0.271	yaw:	0.225	yaw rate:	2.948	Roll:	1.879	Pitch:	-0.956	Yaw:	1.729	Thrust:	57.077
Time:	3.535	Roll Set Point:	-0.105	Pitch Set Point:	-0.033	Yaw Set Point:	-0.004	X_WP:	0.100	Y_WP:	0.000	Y_WP:	0.500	X:	0.103	Y:	0.016	Z:	0.277	yaw:	0.246	yaw rate:	2.048	Roll:	1.895	Pitch:	-0.887	Yaw:	1.545	Thrust:	59.594
Time:	3.548	Roll Set Point:	-0.107	Pitch Set Point:	-0.031	Yaw Set Point:	-0.006	X_WP:	0.100	Y_WP:	0.000	Y_WP:	0.500	X:	0.103	Y:	0.016	Z:	0.282	yaw:	0.343	yaw rate:	9.776	Roll:	1.624	Pitch:	-0.517	Yaw:	3.335	Thrust:	71.733
Time:	3.558	Roll Set Point:	-0.109	Pitch Set Point:	-0.030	Yaw Set Point:	-0.005	X_WP:	0.100	Y_WP:	0.000	Y_WP:	0.500	X:	0.104	Y:	0.015	Z:	0.288	yaw:	0.303	yaw rate:	-4.014	Roll:	1.852	Pitch:	-0.911	Yaw:	0.188	Thrust:	59.005
Time:	3.569	Roll Set Point:	-0.110	Pitch Set Point:	-0.028	Yaw Set Point:	-0.006	X_WP:	0.100	Y_WP:	0.000	Y_WP:	0.500	X:	0.105	Y:	0.014	Z:	0.293	yaw:	0.346	yaw rate:	4.240	Roll:	1.634	Pitch:	-0.854	Yaw:	2.208	Thrust:	58.814
Time:	3.580	Roll Set Point:	-0.112	Pitch Set Point:	-0.027	Yaw Set Point:	-0.006	X_WP:	0.100	Y_WP:	0.000	Y_WP:	0.500	X:	0.106	Y:	0.013	Z:	0.299	yaw:	0.353	yaw rate:	0.760	Roll:	2.055	Pitch:	-1.077	Yaw:	1.370	Thrust:	49.697
Time:	3.591	Roll Set Point:	-0.114	Pitch Set Point:	-0.025	Yaw Set Point:	-0.008	X_WP:	0.100	Y_WP:	0.000	Y_WP:	0.500	X:	0.107	Y:	0.013	Z:	0.305	yaw:	0.447	yaw rate:	9.335	Roll:	1.651	Pitch:	-0.780	Yaw:	3.559	Thrust:	62.823
Time:	3.604	Roll Set Point:	-0.115	Pitch Set Point:	-0.024	Yaw Set Point:	-0.007	X_WP:	0.100	Y_WP:	0.000	Y_WP:	0.500	X:	0.108	Y:	0.012	Z:	0.311	yaw:	0.403	yaw rate:	-4.338	Roll:	1.764	Pitch:	-0.921	Yaw:	0.548	Thrust:	66.457
Time:	3.616	Roll Set Point:	-0.117	Pitch Set Point:	-0.022	Yaw Set Point:	-0.008	X_WP:	0.100	Y_WP:	0.000	Y_WP:	0.500	X:	0.108	Y:	0.011	Z:	0.316	yaw:	0.482	yaw rate:	7.855	Roll:	1.383	Pitch:	-0.475	Yaw:	3.214	Thrust:	70.780
Time:	3.628	Roll Set Point:	-0.119	Pitch Set Point:	-0.021	Yaw Set Point:	-0.007	X_WP:	0.100	Y_WP:	0.000	Y_WP:	0.500	X:	0.109	Y:	0.011	Z:	0.322	yaw:	0.416	yaw rate:	-6.606	Roll:	1.678	Pitch:	-0.788	Yaw:	-0.254	Thrust:	58.246
Time:	3.638	Roll Set Point:	-0.120	Pitch Set Point:	-0.020	Yaw Set Point:	-0.009	X_WP:	0.100	Y_WP:	0.000	Y_WP:	0.500	X:	0.110	Y:	0.010	Z:	0.328	yaw:	0.543	yaw rate:	12.747	Roll:	1.753	Pitch:	-0.841	Yaw:	4.512	Thrust:	57.979
Time:	3.649	Roll Set Point:	-0.122	Pitch Set Point:	-0.018	Yaw Set Point:	-0.009	X_WP:	0.100	Y_WP:	0.000	Y_WP:	0.500	X:	0.111	Y:	0.009	Z:	0.333	yaw:	0.523	yaw rate:	-1.991	Roll:	1.657	Pitch:	-0.832	Yaw:	1.043	Thrust:	62.493
Time:	3.660	Roll Set Point:	-0.123	Pitch Set Point:	-0.017	Yaw Set Point:	-0.009	X_WP:	0.100	Y_WP:	0.000	Y_WP:	0.500	X:	0.112	Y:	0.009	Z:	0.339	yaw:	0.514	yaw rate:	-0.942	Roll:	1.627	Pitch:	-0.949	Yaw:	1.226	Thrust:	58.381
Time:	3.673	Roll Set Point:	-0.126	Pitch Set Point:	-0.015	Yaw Set Point:	-0.011	X_WP:	0.100	Y_WP:	0.000	Y_WP:	0.500	X:	0.113	Y:	0.007	Z:	0.350	yaw:	0.635	yaw rate:	12.141	Roll:	3.189	Pitch:	-1.910	Yaw:	4.260	Thrust:	45.881
Time:	3.690	Roll Set Point:	-0.129	Pitch Set Point:	-0.012	Yaw Set Point:	-0.015	X_WP:	0.100	Y_WP:	0.000	Y_WP:	0.500	X:	0.114	Y:	0.006	Z:	0.361	yaw:	0.837	yaw rate:	34.338	Roll:	2.000	Pitch:	-0.896	Yaw:	5.522	Thrust:	88.054
Time:	3.701	Roll Set Point:	-0.130	Pitch Set Point:	-0.011	Yaw Set Point:	-0.010	X_WP:	0.100	Y_WP:	0.000	Y_WP:	0.500	X:	0.115	Y:	0.006	Z:	0.366	yaw:	0.599	yaw rate:	-23.787	Roll:	1.201	Pitch:	-0.878	Yaw:	-3.533	Thrust:	66.684
Time:	3.714	Roll Set Point:	-0.132	Pitch Set Point:	-0.010	Yaw Set Point:	-0.014	X_WP:	0.100	Y_WP:	0.000	Y_WP:	0.500	X:	0.116	Y:	0.005	Z:	0.372	yaw:	0.796	yaw rate:	19.655	Roll:	1.562	Pitch:	-0.423	Yaw:	6.060	Thrust:	66.724
Time:	3.726	Roll Set Point:	-0.133	Pitch Set Point:	-0.009	Yaw Set Point:	-0.009	X_WP:	0.100	Y_WP:	0.000	Y_WP:	0.500	X:	0.116	Y:	0.004	Z:	0.377	yaw:	0.523	yaw rate:	-27.282	Roll:	1.290	Pitch:	-0.822	Yaw:	-4.391	Thrust:	62.704
Time:	3.745	Roll Set Point:	-0.135	Pitch Set Point:	-0.007	Yaw Set Point:	-0.010	X_WP:	0.100	Y_WP:	0.000	Y_WP:	0.500	X:	0.118	Y:	0.003	Z:	0.387	yaw:	0.559	yaw rate:	-5.783	Roll:	1.697	Pitch:	-0.649	Yaw:	2.545	Thrust:	100.000
Time:	3.757	Roll Set Point:	-0.136	Pitch Set Point:	-0.006	Yaw Set Point:	-0.009	X_WP:	0.100	Y_WP:	0.000	Y_WP:	0.500	X:	0.118	Y:	0.003	Z:	0.393	yaw:	0.542	yaw rate:	-1.660	Roll:	1.146	Pitch:	-0.380	Yaw:	1.261	Thrust:	70.697
Time:	3.771	Roll Set Point:	-0.137	Pitch Set Point:	-0.005	Yaw Set Point:	-0.010	X_WP:	0.100	Y_WP:	0.000	Y_WP:	0.500	X:	0.119	Y:	0.002	Z:	0.398	yaw:	0.595	yaw rate:	5.217	Roll:	1.099	Pitch:	-0.339	Yaw:	2.760	Thrust:	77.591
Time:	3.783	Roll Set Point:	-0.140	Pitch Set Point:	-0.002	Yaw Set Point:	-0.010	X_WP:	0.100	Y_WP:	0.000	Y_WP:	0.500	X:	0.120	Y:	0.001	Z:	0.414	yaw:	0.587	yaw rate:	-20.307	Roll:	3.298	Pitch:	-2.292	Yaw:	1.472	Thrust:	37.252
Time:	3.795	Roll Set Point:	-0.141	Pitch Set Point:	-0.001	Yaw Set Point:	-0.010	X_WP:	0.100	Y_WP:	0.000	Y_WP:	0.500	X:	0.121	Y:	0.001	Z:	0.419	yaw:	0.590	yaw rate:	0.318	Roll:	1.130	Pitch:	-0.403	Yaw:	1.706	Thrust:	63.542
Time:	3.807	Roll Set Point:	-0.142	Pitch Set Point:	-0.000	Yaw Set Point:	-0.010	X_WP:	0.100	Y_WP:	0.000	Y_WP:	0.500	X:	0.121	Y:	0.000	Z:	0.424	yaw:	0.564	yaw rate:	-2.600	Roll:	1.217	Pitch:	-0.389	Yaw:	1.050	Thrust:	64.762
Time:	3.822	Roll Set Point:	-0.143	Pitch Set Point:	0.000	Yaw Set Point:	-0.011	X_WP:	0.100	Y_WP:	0.000	Y_WP:	0.500	X:	0.122	Y:	-0.000	Z:	0.430	yaw:	0.659	yaw rate:	9.475	Roll:	0.960	Pitch:	-0.114	Yaw:	3.629	Thrust:	80.794
Time:	3.833	Roll Set Point:	-0.144	Pitch Set Point:	0.001	Yaw Set Point:	-0.010	X_WP:	0.100	Y_WP:	0.000	Y_WP:	0.500	X:	0.122	Y:	-0.000	Z:	0.435	yaw:	0.599	yaw rate:	-5.941	Roll:	1.111	Pitch:	-0.366	Yaw:	0.190	Thrust:	59.504
Time:	3.844	Roll Set Point:	-0.145	Pitch Set Point:	0.002	Yaw Set Point:	-0.010	X_WP:	0.100	Y_WP:	0.000	Y_WP:	0.500	X:	0.122	Y:	-0.001	Z:	0.441	yaw:	0.595	yaw rate:	-0.382	Roll:	1.163	Pitch:	-0.412	Yaw:	1.545	Thrust:	59.062
Time:	3.856	Roll Set Point:	-0.145	Pitch Set Point:	0.002	Yaw Set Point:	-0.016	X_WP:	0.100	Y_WP:	0.000	Y_WP:	0.500	X:	0.123	Y:	-0.001	Z:	0.447	yaw:	0.894	yaw rate:	29.879	Roll:	1.253	Pitch:	-0.153	Yaw:	8.835	Thrust:	59.197
Time:	3.867	Roll Set Point:	-0.146	Pitch Set Point:	0.003	Yaw Set Point:	-0.011	X_WP:	0.100	Y_WP:	0.000	Y_WP:	0.500	X:	0.123	Y:	-0.001	Z:	0.452	yaw:	0.631	yaw rate:	-26.306	Roll:	0.942	Pitch:	-0.381	Yaw:	-4.489	Thrust:	55.850
Time:	3.880	Roll Set Point:	-0.147	Pitch Set Point:	0.004	Yaw Set Point:	-0.012	X_WP:	0.100	Y_WP:	0.000	Y_WP:	0.500	X:	0.124	Y:	-0.002	Z:	0.464	yaw:	0.676	yaw rate:	8.389	Roll:	1.504	Pitch:	-0.730	Yaw:	2.762	Thrust:	46.130
Time:	3.891	Roll Set Point:	-0.148	Pitch Set Point:	0.005	Yaw Set Point:	-0.010	X_WP:	0.100	Y_WP:	0.000	Y_WP:	0.500	X:	0.124	Y:	-0.002	Z:	0.469	yaw:	0.601	yaw rate:	-7.552	Roll:	1.008	Pitch:	-0.197	Yaw:	-0.254	Thrust:	54.659
Time:	3.901	Roll Set Point:	-0.148	Pitch Set Point:	0.005	Yaw Set Point:	-0.009	X_WP:	0.100	Y_WP:	0.000	Y_WP:	0.500	X:	0.124	Y:	-0.002	Z:	0.475	yaw:	0.543	yaw rate:	-5.721	Roll:	1.136	Pitch:	-0.228	Yaw:	-0.027	Thrust:	43.517
Time:	3.913	Roll Set Point:	-0.149	Pitch Set Point:	0.005	Yaw Set Point:	-0.010	X_WP:	0.100	Y_WP:	0.000	Y_WP:	0.500	X:	0.124	Y:	-0.003	Z:	0.481	yaw:	0.601	yaw rate:	5.738	Roll:	0.943	Pitch:	-0.134	Yaw:	2.939	Thrust:	61.159
Time:	3.924	Roll Set Point:	-0.149	Pitch Set Point:	0.006	Yaw Set Point:	-0.007	X_WP:	0.100	Y_WP:	0.000	Y_WP:	0.500	X:	0.125	Y:	-0.003	Z:	0.486	yaw:	0.428	yaw rate:	-17.261	Roll:	0.902	Pitch:	0.034	Yaw:	-2.716	Thrust:	51.766
Time:	3.936	Roll Set Point:	-0.150	Pitch Set Point:	0.006	Yaw Set Point:	-0.008	X_WP:	0.100	Y_WP:	0.000	Y_WP:	0.500	X:	0.125	Y:	-0.003	Z:	0.498	yaw:	0.467	yaw rate:	3.897	Roll:	1.256	Pitch:	-0.550	Yaw:	2.356	Thrust:	28.710
Time:	3.948	Roll Set Point:	-0.150	Pitch Set Point:	0.007	Yaw Set Point:	-0.007	X_WP:	0.100	Y_WP:	0.000	Y_WP:	0.500	X:	0.125	Y:	-0.003	Z:	0.503	yaw:	0.420	yaw rate:	-4.759	Roll:	0.686	Pitch:	0.118	Yaw:	0.491	Thrust:	73.425
Time:	3.959	Roll Set Point:	-0.151	Pitch Set Point:	0.007	Yaw Set Point:	-0.007	X_WP:	0.100	Y_WP:	0.000	Y_WP:	0.500	X:	0.125	Y:	-0.003	Z:	0.509	yaw:	0.382	yaw rate:	-3.743	Roll:	0.863	Pitch:	0.040	Yaw:	0.433	Thrust:	52.155
Time:	3.970	Roll Set Point:	-0.151	Pitch Set Point:	0.007	Yaw Set Point:	-0.005	X_WP:	0.100	Y_WP:	0.000	Y_WP:	0.500	X:	0.126	Y:	-0.004	Z:	0.514	yaw:	0.304	yaw rate:	-7.766	Roll:	0.847	Pitch:	0.026	Yaw:	-0.739	Thrust:	48.813
Time:	3.981	Roll Set Point:	-0.151	Pitch Set Point:	0.008	Yaw Set Point:	-0.006	X_WP:	0.100	Y_WP:	0.000	Y_WP:	0.500	X:	0.126	Y:	-0.004	Z:	0.519	yaw:	0.346	yaw rate:	4.133	Roll:	0.682	Pitch:	-0.106	Yaw:	2.247	Thrust:	57.622
Time:	3.992	Roll Set Point:	-0.152	Pitch Set Point:	0.008	Yaw Set Point:	-0.006	X_WP:	0.100	Y_WP:	0.000	Y_WP:	0.500	X:	0.126	Y:	-0.004	Z:	0.524	yaw:	0.329	yaw rate:	-1.656	Roll:	0.773	Pitch:	0.061	Yaw:	0.757	Thrust:	45.654
Time:	4.003	Roll Set Point:	-0.152	Pitch Set Point:	0.008	Yaw Set Point:	-0.006	X_WP:	0.100	Y_WP:	0.000	Y_WP:	0.500	X:	0.126	Y:	-0.004	Z:	0.528	yaw:	0.321	yaw rate:	-0.857	Roll:	0.870	Pitch:	0.131	Yaw:	1.037	Thrust:	54.229
Time:	4.015	Roll Set Point:	-0.152	Pitch Set Point:	0.008	Yaw Set Point:	-0.005	X_WP:	0.100	Y_WP:	0.000	Y_WP:	0.500	X:	0.126	Y:	-0.004	Z:	0.533	yaw:	0.295	yaw rate:	-2.534	Roll:	0.655	Pitch:	0.006	Yaw:	0.786	Thrust:	66.884
Time:	4.027	Roll Set Point:	-0.152	Pitch Set Point:	0.008	Yaw Set Point:	-0.005	X_WP:	0.100	Y_WP:	0.000	Y_WP:	0.500	X:	0.126	Y:	-0.004	Z:	0.537	yaw:	0.262	yaw rate:	-3.282	Roll:	0.699	Pitch:	0.147	Yaw:	0.524	Thrust:	55.249
Time:	4.037	Roll Set Point:	-0.153	Pitch Set Point:	0.009	Yaw Set Point:	-0.004	X_WP:	0.100	Y_WP:	0.000	Y_WP:	0.500	X:	0.126	Y:	-0.004	Z:	0.541	yaw:	0.244	yaw rate:	-1.813	Roll:	0.802	Pitch:	0.122	Yaw:	0.592	Thrust:	55.114
Time:	4.049	Roll Set Point:	-0.153	Pitch Set Point:	0.009	Yaw Set Point:	-0.002	X_WP:	0.100	Y_WP:	0.000	Y_WP:	0.500	X:	0.127	Y:	-0.004	Z:	0.545	yaw:	0.130	yaw rate:	-11.461	Roll:	0.829	Pitch:	0.191	Yaw:	-1.586	Thrust:	60.012
Time:	4.059	Roll Set Point:	-0.153	Pitch Set Point:	0.009	Yaw Set Point:	-0.002	X_WP:	0.100	Y_WP:	0.000	Y_WP:	0.500	X:	0.127	Y:	-0.004	Z:	0.549	yaw:	0.122	yaw rate:	-0.753	Roll:	0.785	Pitch:	-0.016	Yaw:	0.745	Thrust:	51.932
Time:	4.072	Roll Set Point:	-0.154	Pitch Set Point:	0.009	Yaw Set Point:	-0.002	X_WP:	0.100	Y_WP:	0.000	Y_WP:	0.500	X:	0.127	Y:	-0.004	Z:	0.553	yaw:	0.088	yaw rate:	-3.443	Roll:	0.770	Pitch:	0.265	Yaw:	0.219	Thrust:	62.786
Time:	4.088	Roll Set Point:	-0.154	Pitch Set Point:	0.009	Yaw Set Point:	0.001	X_WP:	0.100	Y_WP:	0.000	Y_WP:	0.500	X:	0.127	Y:	-0.005	Z:	0.563	yaw:	-0.053	yaw rate:	-10.423	Roll:	0.872	Pitch:	0.411	Yaw:	-0.997	Thrust:	84.873
Time:	4.100	Roll Set Point:	-0.155	Pitch Set Point:	0.009	Yaw Set Point:	0.001	X_WP:	0.100	Y_WP:	0.000	Y_WP:	0.500	X:	0.127	Y:	-0.005	Z:	0.566	yaw:	-0.067	yaw rate:	-1.333	Roll:	0.647	Pitch:	0.297	Yaw:	0.489	Thrust:	65.441
Time:	4.113	Roll Set Point:	-0.155	Pitch Set Point:	0.009	Yaw Set Point:	0.002	X_WP:	0.100	Y_WP:	0.000	Y_WP:	0.500	X:	0.127	Y:	-0.005	Z:	0.569	yaw:	-0.110	yaw rate:	-4.362	Roll:	0.730	Pitch:	0.294	Yaw:	-0.232	Thrust:	65.693
Time:	4.123	Roll Set Point:	-0.155	Pitch Set Point:	0.009	Yaw Set Point:	-0.002	X_WP:	0.100	Y_WP:	0.000	Y_WP:	0.500	X:	0.128	Y:	-0.004	Z:	0.572	yaw:	0.103	yaw rate:	21.369	Roll:	0.903	Pitch:	0.408	Yaw:	6.212	Thrust:	54.531
Time:	4.134	Roll Set Point:	-0.155	Pitch Set Point:	0.009	Yaw Set Point:	-0.001	X_WP:	0.100	Y_WP:	0.000	Y_WP:	0.500	X:	0.128	Y:	-0.004	Z:	0.575	yaw:	0.072	yaw rate:	-3.127	Roll:	0.681	Pitch:	0.301	Yaw:	0.157	Thrust:	58.311
Time:	4.145	Roll Set Point:	-0.155	Pitch Set Point:	0.009	Yaw Set Point:	-0.001	X_WP:	0.100	Y_WP:	0.000	Y_WP:	0.500	X:	0.128	Y:	-0.004	Z:	0.578	yaw:	0.039	yaw rate:	-3.276	Roll:	0.715	Pitch:	0.332	Yaw:	0.158	Thrust:	62.768
Time:	4.157	Roll Set Point:	-0.155	Pitch Set Point:	0.009	Yaw Set Point:	0.003	X_WP:	0.100	Y_WP:	0.000	Y_WP:	0.500	X:	0.128	Y:	-0.004	Z:	0.580	yaw:	-0.159	yaw rate:	-19.864	Roll:	0.480	Pitch:	0.387	Yaw:	-4.138	Thrust:	58.151
Time:	4.167	Roll Set Point:	-0.155	Pitch Set Point:	0.009	Yaw Set Point:	0.004	X_WP:	0.100	Y_WP:	0.000	Y_WP:	0.500	X:	0.128	Y:	-0.004	Z:	0.583	yaw:	-0.237	yaw rate:	-7.732	Roll:	0.640	Pitch:	0.381	Yaw:	-1.368	Thrust:	57.942
Time:	4.179	Roll Set Point:	-0.156	Pitch Set Point:	0.009	Yaw Set Point:	0.006	X_WP:	0.100	Y_WP:	0.000	Y_WP:	0.500	X:	0.128	Y:	-0.004	Z:	0.586	yaw:	-0.318	yaw rate:	-8.115	Roll:	0.681	Pitch:	0.413	Yaw:	-1.452	Thrust:	61.473
Time:	4.190	Roll Set Point:	-0.156	Pitch Set Point:	0.009	Yaw Set Point:	0.006	X_WP:	0.100	Y_WP:	0.000	Y_WP:	0.500	X:	0.128	Y:	-0.004	Z:	0.588	yaw:	-0.322	yaw rate:	-0.378	Roll:	0.570	Pitch:	0.349	Yaw:	0.219	Thrust:	53.987
Time:	4.201	Roll Set Point:	-0.156	Pitch Set Point:	0.009	Yaw Set Point:	0.006	X_WP:	0.100	Y_WP:	0.000	Y_WP:	0.500	X:	0.128	Y:	-0.004	Z:	0.591	yaw:	-0.370	yaw rate:	-4.861	Roll:	0.640	Pitch:	0.439	Yaw:	-0.876	Thrust:	57.118
Time:	4.213	Roll Set Point:	-0.156	Pitch Set Point:	0.008	Yaw Set Point:	0.007	X_WP:	0.100	Y_WP:	0.000	Y_WP:	0.500	X:	0.128	Y:	-0.004	Z:	0.597	yaw:	-0.380	yaw rate:	-1.038	Roll:	0.565	Pitch:	0.671	Yaw:	0.109	Thrust:	54.224
Time:	4.224	Roll Set Point:	-0.156	Pitch Set Point:	0.008	Yaw Set Point:	0.007	X_WP:	0.100	Y_WP:	0.000	Y_WP:	0.500	X:	0.128	Y:	-0.004	Z:	0.599	yaw:	-0.408	yaw rate:	-2.705	Roll:	0.537	Pitch:	0.442	Yaw:	-0.416	Thrust:	56.988
Time:	4.235	Roll Set Point:	-0.156	Pitch Set Point:	0.008	Yaw Set Point:	0.008	X_WP:	0.100	Y_WP:	0.000	Y_WP:	0.500	X:	0.128	Y:	-0.004	Z:	0.602	yaw:	-0.460	yaw rate:	-5.217	Roll:	0.528	Pitch:	0.584	Yaw:	-1.090	Thrust:	56.343
Time:	4.246	Roll Set Point:	-0.156	Pitch Set Point:	0.007	Yaw Set Point:	0.005	X_WP:	0.100	Y_WP:	0.000	Y_WP:	0.500	X:	0.128	Y:	-0.004	Z:	0.605	yaw:	-0.295	yaw rate:	16.486	Roll:	0.789	Pitch:	0.677	Yaw:	4.440	Thrust:	52.451
Time:	4.256	Roll Set Point:	-0.156	Pitch Set Point:	0.007	Yaw Set Point:	0.005	X_WP:	0.100	Y_WP:	0.000	Y_WP:	0.500	X:	0.128	Y:	-0.004	Z:	0.607	yaw:	-0.301	yaw rate:	-0.582	Roll:	0.491	Pitch:	0.522	Yaw:	0.229	Thrust:	56.015
Time:	4.268	Roll Set Point:	-0.156	Pitch Set Point:	0.007	Yaw Set Point:	0.009	X_WP:	0.100	Y_WP:	0.000	Y_WP:	0.500	X:	0.128	Y:	-0.004	Z:	0.610	yaw:	-0.521	yaw rate:	-21.990	Roll:	0.237	Pitch:	0.494	Yaw:	-4.828	Thrust:	60.689
Time:	4.280	Roll Set Point:	-0.156	Pitch Set Point:	0.006	Yaw Set Point:	0.005	X_WP:	0.100	Y_WP:	0.000	Y_WP:	0.500	X:	0.128	Y:	-0.003	Z:	0.615	yaw:	-0.280	yaw rate:	28.373	Roll:	0.550	Pitch:	1.037	Yaw:	5.883	Thrust:	50.041
Time:	4.290	Roll Set Point:	-0.155	Pitch Set Point:	0.006	Yaw Set Point:	0.009	X_WP:	0.100	Y_WP:	0.000	Y_WP:	0.500	X:	0.128	Y:	-0.003	Z:	0.617	yaw:	-0.529	yaw rate:	-24.907	Roll:	0.161	Pitch:	0.526	Yaw:	-6.159	Thrust:	52.732
Time:	4.301	Roll Set Point:	-0.155	Pitch Set Point:	0.006	Yaw Set Point:	0.011	X_WP:	0.100	Y_WP:	0.000	Y_WP:	0.500	X:	0.128	Y:	-0.003	Z:	0.619	yaw:	-0.606	yaw rate:	-7.618	Roll:	0.428	Pitch:	0.626	Yaw:	-1.876	Thrust:	56.012
Time:	4.313	Roll Set Point:	-0.155	Pitch Set Point:	0.006	Yaw Set Point:	0.011	X_WP:	0.100	Y_WP:	0.000	Y_WP:	0.500	X:	0.128	Y:	-0.003	Z:	0.622	yaw:	-0.613	yaw rate:	-0.717	Roll:	0.403	Pitch:	0.584	Yaw:	-0.162	Thrust:	63.657
Time:	4.324	Roll Set Point:	-0.155	Pitch Set Point:	0.006	Yaw Set Point:	0.011	X_WP:	0.100	Y_WP:	0.000	Y_WP:	0.500	X:	0.127	Y:	-0.003	Z:	0.624	yaw:	-0.610	yaw rate:	0.256	Roll:	0.295	Pitch:	0.636	Yaw:	-0.047	Thrust:	52.916
Time:	4.334	Roll Set Point:	-0.155	Pitch Set Point:	0.005	Yaw Set Point:	0.008	X_WP:	0.100	Y_WP:	0.000	Y_WP:	0.500	X:	0.127	Y:	-0.002	Z:	0.627	yaw:	-0.444	yaw rate:	16.652	Roll:	0.385	Pitch:	1.228	Yaw:	4.432	Thrust:	41.211
Time:	4.345	Roll Set Point:	-0.154	Pitch Set Point:	0.005	Yaw Set Point:	0.012	X_WP:	0.100	Y_WP:	0.000	Y_WP:	0.500	X:	0.127	Y:	-0.002	Z:	0.629	yaw:	-0.681	yaw rate:	-23.694	Roll:	0.088	Pitch:	0.542	Yaw:	-5.503	Thrust:	61.164
Time:	4.357	Roll Set Point:	-0.154	Pitch Set Point:	0.004	Yaw Set Point:	0.013	X_WP:	0.100	Y_WP:	0.000	Y_WP:	0.500	X:	0.127	Y:	-0.002	Z:	0.631	yaw:	-0.734	yaw rate:	-5.302	Roll:	0.340	Pitch:	0.781	Yaw:	-1.513	Thrust:	57.759
Time:	4.368	Roll Set Point:	-0.154	Pitch Set Point:	0.004	Yaw Set Point:	0.012	X_WP:	0.100	Y_WP:	0.000	Y_WP:	0.500	X:	0.127	Y:	-0.002	Z:	0.632	yaw:	-0.675	yaw rate:	5.833	Roll:	0.267	Pitch:	0.595	Yaw:	1.181	Thrust:	61.774
Time:	4.380	Roll Set Point:	-0.154	Pitch Set Point:	0.004	Yaw Set Point:	0.013	X_WP:	0.100	Y_WP:	0.000	Y_WP:	0.500	X:	0.127	Y:	-0.002	Z:	0.633	yaw:	-0.742	yaw rate:	-6.721	Roll:	0.337	Pitch:	0.746	Yaw:	-1.662	Thrust:	65.465
Time:	4.391	Roll Set Point:	-0.154	Pitch Set Point:	0.003	Yaw Set Point:	0.013	X_WP:	0.100	Y_WP:	0.000	Y_WP:	0.500	X:	0.127	Y:	-0.002	Z:	0.634	yaw:	-0.770	yaw rate:	-2.724	Roll:	0.298	Pitch:	0.686	Yaw:	-0.960	Thrust:	58.609
Time:	4.404	Roll Set Point:	-0.153	Pitch Set Point:	0.003	Yaw Set Point:	0.013	X_WP:	0.100	Y_WP:	0.000	Y_WP:	0.500	X:	0.127	Y:	-0.002	Z:	0.635	yaw:	-0.764	yaw rate:	0.555	Roll:	0.280	Pitch:	0.738	Yaw:	-0.118	Thrust:	65.897
Time:	4.415	Roll Set Point:	-0.153	Pitch Set Point:	0.003	Yaw Set Point:	0.014	X_WP:	0.100	Y_WP:	0.000	Y_WP:	0.500	X:	0.127	Y:	-0.002	Z:	0.636	yaw:	-0.812	yaw rate:	-4.775	Roll:	0.280	Pitch:	0.783	Yaw:	-1.428	Thrust:	62.778
Time:	4.425	Roll Set Point:	-0.153	Pitch Set Point:	0.002	Yaw Set Point:	0.014	X_WP:	0.100	Y_WP:	0.000	Y_WP:	0.500	X:	0.126	Y:	-0.001	Z:	0.637	yaw:	-0.775	yaw rate:	3.707	Roll:	0.254	Pitch:	0.725	Yaw:	0.570	Thrust:	52.896
Time:	4.436	Roll Set Point:	-0.153	Pitch Set Point:	0.002	Yaw Set Point:	0.013	X_WP:	0.100	Y_WP:	0.000	Y_WP:	0.500	X:	0.126	Y:	-0.001	Z:	0.637	yaw:	-0.734	yaw rate:	4.107	Roll:	0.237	Pitch:	0.619	Yaw:	0.700	Thrust:	59.788
Time:	4.447	Roll Set Point:	-0.153	Pitch Set Point:	0.002	Yaw Set Point:	0.010	X_WP:	0.100	Y_WP:	0.000	Y_WP:	0.500	X:	0.126	Y:	-0.001	Z:	0.638	yaw:	-0.563	yaw rate:	17.041	Roll:	0.459	Pitch:	0.895	Yaw:	3.862	Thrust:	63.113
Time:	4.458	Roll Set Point:	-0.152	Pitch Set Point:	0.001	Yaw Set Point:	0.013	X_WP:	0.100	Y_WP:	0.000	Y_WP:	0.500	X:	0.126	Y:	-0.001	Z:	0.639	yaw:	-0.759	yaw rate:	-19.547	Roll:	-0.348	Pitch:	1.098	Yaw:	-4.955	Thrust:	58.273
Time:	4.471	Roll Set Point:	-0.152	Pitch Set Point:	0.001	Yaw Set Point:	0.014	X_WP:	0.100	Y_WP:	0.000	Y_WP:	0.500	X:	0.126	Y:	-0.001	Z:	0.639	yaw:	-0.826	yaw rate:	-6.757	Roll:	0.153	Pitch:	0.806	Yaw:	-1.897	Thrust:	63.745
Time:	4.481	Roll Set Point:	-0.151	Pitch Set Point:	0.000	Yaw Set Point:	0.014	X_WP:	0.100	Y_WP:	0.000	Y_WP:	0.500	X:	0.126	Y:	-0.000	Z:	0.640	yaw:	-0.815	yaw rate:	1.119	Roll:	0.157	Pitch:	0.727	Yaw:	-0.112	Thrust:	63.545
Time:	4.492	Roll Set Point:	-0.151	Pitch Set Point:	0.000	Yaw Set Point:	0.014	X_WP:	0.100	Y_WP:	0.000	Y_WP:	0.500	X:	0.126	Y:	-0.000	Z:	0.640	yaw:	-0.809	yaw rate:	0.619	Roll:	0.192	Pitch:	0.793	Yaw:	-0.267	Thrust:	58.016
Time:	4.503	Roll Set Point:	-0.151	Pitch Set Point:	-0.001	Yaw Set Point:	0.009	X_WP:	0.100	Y_WP:	0.000	Y_WP:	0.500	X:	0.125	Y:	0.000	Z:	0.640	yaw:	-0.540	yaw rate:	26.896	Roll:	0.380	Pitch:	0.937	Yaw:	6.363	Thrust:	60.147
Time:	4.514	Roll Set Point:	-0.151	Pitch Set Point:	-0.001	Yaw Set Point:	0.010	X_WP:	0.100	Y_WP:	0.000	Y_WP:	0.500	X:	0.125	Y:	0.000	Z:	0.640	yaw:	-0.556	yaw rate:	-1.587	Roll:	0.200	Pitch:	0.804	Yaw:	-0.422	Thrust:	57.167
Time:	4.525	Roll Set Point:	-0.150	Pitch Set Point:	-0.001	Yaw Set Point:	0.009	X_WP:	0.100	Y_WP:	0.000	Y_WP:	0.500	X:	0.125	Y:	0.001	Z:	0.640	yaw:	-0.538	yaw rate:	1.780	Roll:	0.136	Pitch:	0.875	Yaw:	0.399	Thrust:	63.296
Time:	4.538	Roll Set Point:	-0.150	Pitch Set Point:	-0.001	Yaw Set Point:	0.014	X_WP:	0.100	Y_WP:	0.000	Y_WP:	0.500	X:	0.125	Y:	0.001	Z:	0.641	yaw:	-0.805	yaw rate:	-26.667	Roll:	-0.130	Pitch:	0.695	Yaw:	-6.120	Thrust:	66.517
Time:	4.550	Roll Set Point:	-0.149	Pitch Set Point:	-0.002	Yaw Set Point:	0.014	X_WP:	0.100	Y_WP:	0.000	Y_WP:	0.500	X:	0.125	Y:	0.001	Z:	0.641	yaw:	-0.805	yaw rate:	-0.016	Roll:	0.120	Pitch:	0.827	Yaw:	-0.307	Thrust:	69.375
Time:	4.561	Roll Set Point:	-0.149	Pitch Set Point:	-0.002	Yaw Set Point:	0.013	X_WP:	0.100	Y_WP:	0.000	Y_WP:	0.500	X:	0.125	Y:	0.001	Z:	0.641	yaw:	-0.762	yaw rate:	4.320	Roll:	0.091	Pitch:	0.784	Yaw:	0.681	Thrust:	60.136
Time:	4.571	Roll Set Point:	-0.149	Pitch Set Point:	-0.003	Yaw Set Point:	0.014	X_WP:	0.100	Y_WP:	0.000	Y_WP:	0.500	X:	0.124	Y:	0.001	Z:	0.641	yaw:	-0.807	yaw rate:	-4.495	Roll:	0.026	Pitch:	0.923	Yaw:	-1.560	Thrust:	56.740
Time:	4.583	Roll Set Point:	-0.148	Pitch Set Point:	-0.004	Yaw Set Point:	0.014	X_WP:	0.100	Y_WP:	0.000	Y_WP:	0.500	X:	0.124	Y:	0.002	Z:	0.640	yaw:	-0.788	yaw rate:	-4.766	Roll:	-0.820	Pitch:	1.613	Yaw:	0.081	Thrust:	60.859
Time:	4.595	Roll Set Point:	-0.147	Pitch Set Point:	-0.004	Yaw Set Point:	0.014	X_WP:	0.100	Y_WP:	0.000	Y_WP:	0.500	X:	0.124	Y:	0.002	Z:	0.640	yaw:	-0.817	yaw rate:	-2.964	Roll:	0.040	Pitch:	0.924	Yaw:	-1.092	Thrust:	65.059
Time:	4.608	Roll Set Point:	-0.147	Pitch Set Point:	-0.004	Yaw Set Point:	0.014	X_WP:	0.100	Y_WP:	0.000	Y_WP:	0.500	X:	0.123	Y:	0.002	Z:	0.640	yaw:	-0.784	yaw rate:	3.282	Roll:	-0.013	Pitch:	0.803	Yaw:	0.400	Thrust:	66.064
Time:	4.622	Roll Set Point:	-0.147	Pitch Set Point:	-0.005	Yaw Set Point:	0.010	X_WP:	0.100	Y_WP:	0.000	Y_WP:	0.500	X:	0.123	Y:	0.002	Z:	0.640	yaw:	-0.575	yaw rate:	20.905	Roll:	0.198	Pitch:	0.968	Yaw:	3.891	Thrust:	87.146
Time:	4.633	Roll Set Point:	-0.146	Pitch Set Point:	-0.005	Yaw Set Point:	0.009	X_WP:	0.100	Y_WP:	0.000	Y_WP:	0.500	X:	0.123	Y:	0.002	Z:	0.640	yaw:	-0.506	yaw rate:	6.955	Roll:	-0.007	Pitch:	0.783	Yaw:	1.646	Thrust:	59.900
Time:	4.644	Roll Set Point:	-0.146	Pitch Set Point:	-0.005	Yaw Set Point:	0.014	X_WP:	0.100	Y_WP:	0.000	Y_WP:	0.500	X:	0.123	Y:	0.002	Z:	0.640	yaw:	-0.784	yaw rate:	-27.839	Roll:	-0.274	Pitch:	0.776	Yaw:	-6.679	Thrust:	62.447
Time:	4.655	Roll Set Point:	-0.145	Pitch Set Point:	-0.006	Yaw Set Point:	0.014	X_WP:	0.100	Y_WP:	0.000	Y_WP:	0.500	X:	0.123	Y:	0.003	Z:	0.640	yaw:	-0.788	yaw rate:	-0.393	Roll:	-0.034	Pitch:	0.779	Yaw:	-0.496	Thrust:	59.480
Time:	4.672	Roll Set Point:	-0.145	Pitch Set Point:	-0.006	Yaw Set Point:	0.009	X_WP:	0.100	Y_WP:	0.000	Y_WP:	0.500	X:	0.122	Y:	0.003	Z:	0.639	yaw:	-0.526	yaw rate:	26.196	Roll:	0.179	Pitch:	0.927	Yaw:	4.634	Thrust:	80.833
Time:	4.684	Roll Set Point:	-0.144	Pitch Set Point:	-0.007	Yaw Set Point:	0.010	X_WP:	0.100	Y_WP:	0.000	Y_WP:	0.500	X:	0.122	Y:	0.003	Z:	0.639	yaw:	-0.565	yaw rate:	25.048	Roll:	-0.365	Pitch:	1.193	Yaw:	-0.745	Thrust:	77.557
Time:	4.696	Roll Set Point:	-0.144	Pitch Set Point:	-0.007	Yaw Set Point:	0.011	X_WP:	0.100	Y_WP:	0.000	Y_WP:	0.500	X:	0.122	Y:	0.003	Z:	0.639	yaw:	-0.624	yaw rate:	-5.963	Roll:	-0.057	Pitch:	0.898	Yaw:	-1.415	Thrust:	64.771
Time:	4.707	Roll Set Point:	-0.142	Pitch Set Point:	-0.007	Yaw Set Point:	0.015	X_WP:	0.100	Y_WP:	0.000	Y_WP:	0.500	X:	0.121	Y:	0.004	Z:	0.639	yaw:	-0.831	yaw rate:	-20.698	Roll:	-0.951	Pitch:	1.044	Yaw:	-5.650	Thrust:	56.200
Time:	4.718	Roll Set Point:	-0.142	Pitch Set Point:	-0.008	Yaw Set Point:	0.015	X_WP:	0.100	Y_WP:	0.000	Y_WP:	0.500	X:	0.121	Y:	0.004	Z:	0.639	yaw:	-0.872	yaw rate:	-4.026	Roll:	-0.060	Pitch:	0.867	Yaw:	-1.489	Thrust:	58.220
Time:	4.728	Roll Set Point:	-0.142	Pitch Set Point:	-0.008	Yaw Set Point:	0.016	X_WP:	0.100	Y_WP:	0.000	Y_WP:	0.500	X:	0.121	Y:	0.004	Z:	0.639	yaw:	-0.905	yaw rate:	-3.344	Roll:	-0.098	Pitch:	0.848	Yaw:	-1.418	Thrust:	56.124
Time:	4.743	Roll Set Point:	-0.141	Pitch Set Point:	-0.008	Yaw Set Point:	0.015	X_WP:	0.100	Y_WP:	0.000	Y_WP:	0.500	X:	0.121	Y:	0.004	Z:	0.639	yaw:	-0.839	yaw rate:	6.608	Roll:	-0.059	Pitch:	0.871	Yaw:	0.911	Thrust:	75.313
Time:	4.755	Roll Set Point:	-0.141	Pitch Set Point:	-0.009	Yaw Set Point:	0.015	X_WP:	0.100	Y_WP:	0.000	Y_WP:	0.500	X:	0.120	Y:	0.004	Z:	0.639	yaw:	-0.840	yaw rate:	-0.133	Roll:	-0.119	Pitch:	0.825	Yaw:	-0.467	Thrust:	65.936
Time:	4.766	Roll Set Point:	-0.140	Pitch Set Point:	-0.009	Yaw Set Point:	0.016	X_WP:	0.100	Y_WP:	0.000	Y_WP:	0.500	X:	0.120	Y:	0.004	Z:	0.639	yaw:	-0.911	yaw rate:	-7.092	Roll:	-0.094	Pitch:	0.915	Yaw:	-2.180	Thrust:	53.646
Time:	4.778	Roll Set Point:	-0.139	Pitch Set Point:	-0.009	Yaw Set Point:	0.015	X_WP:	0.100	Y_WP:	0.000	Y_WP:	0.500	X:	0.120	Y:	0.005	Z:	0.639	yaw:	-0.838	yaw rate:	-0.426	Roll:	-0.611	Pitch:	1.127	Yaw:	1.189	Thrust:	64.533
Time:	4.790	Roll Set Point:	-0.139	Pitch Set Point:	-0.010	Yaw Set Point:	0.014	X_WP:	0.100	Y_WP:	0.000	Y_WP:	0.500	X:	0.120	Y:	0.005	Z:	0.639	yaw:	-0.819	yaw rate:	1.898	Roll:	-0.168	Pitch:	0.837	Yaw:	-0.029	Thrust:	55.809
Time:	4.804	Roll Set Point:	-0.139	Pitch Set Point:	-0.010	Yaw Set Point:	0.014	X_WP:	0.100	Y_WP:	0.000	Y_WP:	0.500	X:	0.119	Y:	0.005	Z:	0.640	yaw:	-0.824	yaw rate:	-0.529	Roll:	-0.077	Pitch:	0.914	Yaw:	-0.409	Thrust:	72.850
Time:	4.826	Roll Set Point:	-0.137	Pitch Set Point:	-0.011	Yaw Set Point:	0.013	X_WP:	0.100	Y_WP:	0.000	Y_WP:	0.500	X:	0.119	Y:	0.005	Z:	0.641	yaw:	-0.753	yaw rate:	7.322	Roll:	-0.564	Pitch:	1.411	Yaw:	1.129	Thrust:	100.000
Time:	4.838	Roll Set Point:	-0.137	Pitch Set Point:	-0.011	Yaw Set Point:	0.014	X_WP:	0.100	Y_WP:	0.000	Y_WP:	0.500	X:	0.119	Y:	0.005	Z:	0.642	yaw:	-0.776	yaw rate:	-2.319	Roll:	-0.017	Pitch:	0.898	Yaw:	-0.873	Thrust:	59.994
Time:	4.848	Roll Set Point:	-0.137	Pitch Set Point:	-0.012	Yaw Set Point:	0.009	X_WP:	0.100	Y_WP:	0.000	Y_WP:	0.500	X:	0.118	Y:	0.006	Z:	0.642	yaw:	-0.520	yaw rate:	25.585	Roll:	0.099	Pitch:	1.031	Yaw:	6.256	Thrust:	50.689
Time:	4.860	Roll Set Point:	-0.136	Pitch Set Point:	-0.012	Yaw Set Point:	0.015	X_WP:	0.100	Y_WP:	0.000	Y_WP:	0.500	X:	0.118	Y:	0.006	Z:	0.643	yaw:	-0.848	yaw rate:	-32.838	Roll:	-0.385	Pitch:	0.694	Yaw:	-7.960	Thrust:	53.448
Time:	4.873	Roll Set Point:	-0.136	Pitch Set Point:	-0.012	Yaw Set Point:	0.012	X_WP:	0.100	Y_WP:	0.000	Y_WP:	0.500	X:	0.118	Y:	0.006	Z:	0.643	yaw:	-0.702	yaw rate:	14.628	Roll:	-0.085	Pitch:	0.883	Yaw:	2.959	Thrust:	60.777
Time:	4.884	Roll Set Point:	-0.136	Pitch Set Point:	-0.012	Yaw Set Point:	0.008	X_WP:	0.100	Y_WP:	0.000	Y_WP:	0.500	X:	0.118	Y:	0.006	Z:	0.644	yaw:	-0.487	yaw rate:	21.544	Roll:	0.221	Pitch:	1.037	Yaw:	4.710	Thrust:	58.950
Time:	4.896	Roll Set Point:	-0.135	Pitch Set Point:	-0.012	Yaw Set Point:	0.012	X_WP:	0.100	Y_WP:	0.000	Y_WP:	0.500	X:	0.118	Y:	0.006	Z:	0.644	yaw:	-0.687	yaw rate:	-20.092	Roll:	-0.367	Pitch:	0.699	Yaw:	-4.426	Thrust:	61.652
Time:	4.908	Roll Set Point:	-0.135	Pitch Set Point:	-0.013	Yaw Set Point:	0.009	X_WP:	0.100	Y_WP:	0.000	Y_WP:	0.500	X:	0.117	Y:	0.006	Z:	0.645	yaw:	-0.519	yaw rate:	16.860	Roll:	0.142	Pitch:	1.125	Yaw:	3.772	Thrust:	55.527
Time:	4.919	Roll Set Point:	-0.134	Pitch Set Point:	-0.013	Yaw Set Point:	0.013	X_WP:	0.100	Y_WP:	0.000	Y_WP:	0.500	X:	0.117	Y:	0.006	Z:	0.645	yaw:	-0.749	yaw rate:	-23.020	Roll:	-0.403	Pitch:	0.697	Yaw:	-5.872	Thrust:	52.569
Time:	4.930	Roll Set Point:	-0.134	Pitch Set Point:	-0.013	Yaw Set Point:	0.012	X_WP:	0.100	Y_WP:	0.000	Y_WP:	0.500	X:	0.117	Y:	0.006	Z:	0.646	yaw:	-0.706	yaw rate:	4.297	Roll:	-0.100	Pitch:	0.802	Yaw:	0.669	Thrust:	52.554
Time:	4.945	Roll Set Point:	-0.133	Pitch Set Point:	-0.014	Yaw Set Point:	0.013	X_WP:	0.100	Y_WP:	0.000	Y_WP:	0.500	X:	0.117	Y:	0.007	Z:	0.646	yaw:	-0.721	yaw rate:	-1.493	Roll:	-0.345	Pitch:	1.053	Yaw:	-0.404	Thrust:	71.669
Time:	4.958	Roll Set Point:	-0.133	Pitch Set Point:	-0.014	Yaw Set Point:	0.012	X_WP:	0.100	Y_WP:	0.000	Y_WP:	0.500	X:	0.116	Y:	0.007	Z:	0.647	yaw:	-0.696	yaw rate:	-0.662	Roll:	-0.458	Pitch:	1.099	Yaw:	0.284	Thrust:	65.924
Time:	4.970	Roll Set Point:	-0.132	Pitch Set Point:	-0.014	Yaw Set Point:	0.012	X_WP:	0.100	Y_WP:	0.000	Y_WP:	0.500	X:	0.116	Y:	0.007	Z:	0.647	yaw:	-0.701	yaw rate:	-0.553	Roll:	-0.111	Pitch:	0.813	Yaw:	-0.416	Thrust:	52.840
Time:	4.981	Roll Set Point:	-0.132	Pitch Set Point:	-0.014	Yaw Set Point:	0.012	X_WP:	0.100	Y_WP:	0.000	Y_WP:	0.500	X:	0.116	Y:	0.007	Z:	0.647	yaw:	-0.673	yaw rate:	2.809	Roll:	-0.121	Pitch:	0.878	Yaw:	0.354	Thrust:	55.801
Time:	4.992	Roll Set Point:	-0.131	Pitch Set Point:	-0.015	Yaw Set Point:	0.012	X_WP:	0.100	Y_WP:	0.000	Y_WP:	0.500	X:	0.116	Y:	0.007	Z:	0.647	yaw:	-0.692	yaw rate:	-1.942	Roll:	-0.096	Pitch:	0.794	Yaw:	-0.711	Thrust:	53.032
Time:	5.010	Roll Set Point:	-0.131	Pitch Set Point:	-0.015	Yaw Set Point:	0.012	X_WP:	0.100	Y_WP:	0.000	Y_WP:	0.500	X:	0.116	Y:	0.007	Z:	0.647	yaw:	-0.697	yaw rate:	-0.490	Roll:	-0.078	Pitch:	0.821	Yaw:	-0.090	Thrust:	78.333
Time:	5.023	Roll Set Point:	-0.131	Pitch Set Point:	-0.015	Yaw Set Point:	0.012	X_WP:	0.100	Y_WP:	0.000	Y_WP:	0.500	X:	0.115	Y:	0.007	Z:	0.647	yaw:	-0.690	yaw rate:	1.815	Roll:	-0.304	Pitch:	1.103	Yaw:	-0.096	Thrust:	74.189
Time:	5.034	Roll Set Point:	-0.130	Pitch Set Point:	-0.015	Yaw Set Point:	0.013	X_WP:	0.100	Y_WP:	0.000	Y_WP:	0.500	X:	0.115	Y:	0.008	Z:	0.647	yaw:	-0.729	yaw rate:	-3.860	Roll:	-0.135	Pitch:	0.789	Yaw:	-1.189	Thrust:	53.338
Time:	5.045	Roll Set Point:	-0.130	Pitch Set Point:	-0.015	Yaw Set Point:	0.013	X_WP:	0.100	Y_WP:	0.000	Y_WP:	0.500	X:	0.115	Y:	0.008	Z:	0.647	yaw:	-0.732	yaw rate:	-0.331	Roll:	-0.068	Pitch:	0.860	Yaw:	-0.490	Thrust:	56.401
Time:	5.057	Roll Set Point:	-0.130	Pitch Set Point:	-0.016	Yaw Set Point:	0.012	X_WP:	0.100	Y_WP:	0.000	Y_WP:	0.500	X:	0.115	Y:	0.008	Z:	0.646	yaw:	-0.659	yaw rate:	7.236	Roll:	-0.127	Pitch:	0.791	Yaw:	1.357	Thrust:	56.537
Time:	5.072	Roll Set Point:	-0.129	Pitch Set Point:	-0.016	Yaw Set Point:	0.011	X_WP:	0.100	Y_WP:	0.000	Y_WP:	0.500	X:	0.115	Y:	0.008	Z:	0.645	yaw:	-0.626	yaw rate:	3.366	Roll:	-0.430	Pitch:	0.887	Yaw:	0.517	Thrust:	62.261
Time:	5.089	Roll Set Point:	-0.129	Pitch Set Point:	-0.016	Yaw Set Point:	0.011	X_WP:	0.100	Y_WP:	0.000	Y_WP:	0.500	X:	0.114	Y:	0.008	Z:	0.645	yaw:	-0.612	yaw rate:	1.415	Roll:	-0.068	Pitch:	1.046	Yaw:	0.406	Thrust:	100.000
Time:	5.101	Roll Set Point:	-0.128	Pitch Set Point:	-0.016	Yaw Set Point:	0.011	X_WP:	0.100	Y_WP:	0.000	Y_WP:	0.500	X:	0.114	Y:	0.008	Z:	0.643	yaw:	-0.627	yaw rate:	-1.518	Roll:	-0.369	Pitch:	0.956	Yaw:	-0.564	Thrust:	57.398
Time:	5.113	Roll Set Point:	-0.128	Pitch Set Point:	-0.017	Yaw Set Point:	0.007	X_WP:	0.100	Y_WP:	0.000	Y_WP:	0.500	X:	0.114	Y:	0.008	Z:	0.643	yaw:	-0.406	yaw rate:	22.141	Roll:	0.151	Pitch:	0.919	Yaw:	5.286	Thrust:	60.010
Time:	5.125	Roll Set Point:	-0.127	Pitch Set Point:	-0.016	Yaw Set Point:	0.010	X_WP:	0.100	Y_WP:	0.000	Y_WP:	0.500	X:	0.114	Y:	0.008	Z:	0.642	yaw:	-0.557	yaw rate:	-15.112	Roll:	-0.340	Pitch:	0.641	Yaw:	-3.246	Thrust:	62.995
Time:	5.143	Roll Set Point:	-0.127	Pitch Set Point:	-0.017	Yaw Set Point:	0.006	X_WP:	0.100	Y_WP:	0.000	Y_WP:	0.500	X:	0.114	Y:	0.008	Z:	0.641	yaw:	-0.372	yaw rate:	18.495	Roll:	0.112	Pitch:	1.027	Yaw:	3.128	Thrust:	81.228
Time:	5.157	Roll Set Point:	-0.127	Pitch Set Point:	-0.017	Yaw Set Point:	0.011	X_WP:	0.100	Y_WP:	0.000	Y_WP:	0.500	X:	0.113	Y:	0.008	Z:	0.639	yaw:	-0.620	yaw rate:	-24.807	Roll:	-0.511	Pitch:	0.822	Yaw:	-5.147	Thrust:	77.815
Time:	5.168	Roll Set Point:	-0.126	Pitch Set Point:	-0.017	Yaw Set Point:	0.010	X_WP:	0.100	Y_WP:	0.000	Y_WP:	0.500	X:	0.113	Y:	0.008	Z:	0.638	yaw:	-0.548	yaw rate:	-12.443	Roll:	-0.547	Pitch:	0.743	Yaw:	1.451	Thrust:	62.150
Time:	5.179	Roll Set Point:	-0.126	Pitch Set Point:	-0.017	Yaw Set Point:	0.010	X_WP:	0.100	Y_WP:	0.000	Y_WP:	0.500	X:	0.113	Y:	0.008	Z:	0.637	yaw:	-0.598	yaw rate:	-5.016	Roll:	-0.093	Pitch:	0.717	Yaw:	-1.437	Thrust:	51.351
