Time:	2.058	Roll Set Point:	-0.124	Pitch Set Point:	0.160	Yaw Set Point:	2.409	X_WP:	0.000	Y_WP:	0.000	Y_WP:	0.500	X:	-0.146	Y:	-0.241	Z:	0.938	yaw:	-138.041	yaw rate:	-5.338	Roll:	7.830	Pitch:	2.366	Yaw:	-192.742	Thrust:	0.000
Time:	2.069	Roll Set Point:	-0.124	Pitch Set Point:	0.160	Yaw Set Point:	2.408	X_WP:	0.000	Y_WP:	0.000	Y_WP:	0.500	X:	-0.146	Y:	-0.241	Z:	0.938	yaw:	-137.988	yaw rate:	5.336	Roll:	8.060	Pitch:	1.548	Yaw:	-191.932	Thrust:	0.000
Time:	2.080	Roll Set Point:	-0.124	Pitch Set Point:	0.161	Yaw Set Point:	2.405	X_WP:	0.000	Y_WP:	0.000	Y_WP:	0.500	X:	-0.147	Y:	-0.241	Z:	0.938	yaw:	-137.779	yaw rate:	20.935	Roll:	8.473	Pitch:	0.182	Yaw:	-188.478	Thrust:	0.000
Time:	2.091	Roll Set Point:	-0.123	Pitch Set Point:	0.161	Yaw Set Point:	2.405	X_WP:	0.000	Y_WP:	0.000	Y_WP:	0.500	X:	-0.147	Y:	-0.241	Z:	0.938	yaw:	-137.819	yaw rate:	-4.079	Roll:	7.780	Pitch:	2.155	Yaw:	-194.993	Thrust:	0.000
Time:	2.102	Roll Set Point:	-0.123	Pitch Set Point:	0.161	Yaw Set Point:	2.406	X_WP:	0.000	Y_WP:	0.000	Y_WP:	0.500	X:	-0.147	Y:	-0.240	Z:	0.938	yaw:	-137.834	yaw rate:	-1.503	Roll:	7.920	Pitch:	1.921	Yaw:	-194.934	Thrust:	0.000
Time:	2.113	Roll Set Point:	-0.123	Pitch Set Point:	0.161	Yaw Set Point:	2.405	X_WP:	0.000	Y_WP:	0.000	Y_WP:	0.500	X:	-0.147	Y:	-0.240	Z:	0.938	yaw:	-137.801	yaw rate:	3.293	Roll:	7.952	Pitch:	1.532	Yaw:	-193.832	Thrust:	0.000
Time:	2.124	Roll Set Point:	-0.123	Pitch Set Point:	0.162	Yaw Set Point:	2.404	X_WP:	0.000	Y_WP:	0.000	Y_WP:	0.500	X:	-0.148	Y:	-0.240	Z:	0.938	yaw:	-137.754	yaw rate:	4.709	Roll:	7.988	Pitch:	1.115	Yaw:	-193.429	Thrust:	0.000
Time:	2.136	Roll Set Point:	-0.123	Pitch Set Point:	0.162	Yaw Set Point:	2.404	X_WP:	0.000	Y_WP:	0.000	Y_WP:	0.500	X:	-0.148	Y:	-0.240	Z:	0.938	yaw:	-137.733	yaw rate:	2.157	Roll:	7.972	Pitch:	1.646	Yaw:	-194.242	Thrust:	0.000
Time:	2.148	Roll Set Point:	-0.122	Pitch Set Point:	0.162	Yaw Set Point:	2.403	X_WP:	0.000	Y_WP:	0.000	Y_WP:	0.500	X:	-0.148	Y:	-0.239	Z:	0.938	yaw:	-137.691	yaw rate:	4.200	Roll:	7.990	Pitch:	1.437	Yaw:	-193.517	Thrust:	0.000
Time:	2.159	Roll Set Point:	-0.122	Pitch Set Point:	0.163	Yaw Set Point:	2.402	X_WP:	0.000	Y_WP:	0.000	Y_WP:	0.500	X:	-0.149	Y:	-0.239	Z:	0.937	yaw:	-137.615	yaw rate:	7.590	Roll:	8.068	Pitch:	1.187	Yaw:	-192.561	Thrust:	0.000
Time:	2.170	Roll Set Point:	-0.122	Pitch Set Point:	0.163	Yaw Set Point:	2.402	X_WP:	0.000	Y_WP:	0.000	Y_WP:	0.500	X:	-0.149	Y:	-0.239	Z:	0.937	yaw:	-137.618	yaw rate:	-0.286	Roll:	7.898	Pitch:	1.758	Yaw:	-194.423	Thrust:	0.000
Time:	2.182	Roll Set Point:	-0.121	Pitch Set Point:	0.162	Yaw Set Point:	2.405	X_WP:	0.000	Y_WP:	0.000	Y_WP:	0.500	X:	-0.149	Y:	-0.238	Z:	0.937	yaw:	-137.775	yaw rate:	-15.711	Roll:	7.686	Pitch:	2.464	Yaw:	-198.197	Thrust:	0.000
Time:	2.193	Roll Set Point:	-0.122	Pitch Set Point:	0.163	Yaw Set Point:	2.400	X_WP:	0.000	Y_WP:	0.000	Y_WP:	0.500	X:	-0.149	Y:	-0.238	Z:	0.937	yaw:	-137.490	yaw rate:	28.507	Roll:	8.398	Pitch:	-0.457	Yaw:	-187.434	Thrust:	0.000
Time:	2.204	Roll Set Point:	-0.122	Pitch Set Point:	0.164	Yaw Set Point:	2.397	X_WP:	0.000	Y_WP:	0.000	Y_WP:	0.500	X:	-0.150	Y:	-0.238	Z:	0.937	yaw:	-137.344	yaw rate:	14.597	Roll:	8.330	Pitch:	0.498	Yaw:	-190.509	Thrust:	0.000
Time:	2.215	Roll Set Point:	-0.121	Pitch Set Point:	0.165	Yaw Set Point:	2.396	X_WP:	0.000	Y_WP:	0.000	Y_WP:	0.500	X:	-0.150	Y:	-0.237	Z:	0.937	yaw:	-137.292	yaw rate:	5.149	Roll:	8.028	Pitch:	0.896	Yaw:	-192.678	Thrust:	0.000
Time:	2.226	Roll Set Point:	-0.121	Pitch Set Point:	0.165	Yaw Set Point:	2.396	X_WP:	0.000	Y_WP:	0.000	Y_WP:	0.500	X:	-0.150	Y:	-0.237	Z:	0.937	yaw:	-137.294	yaw rate:	-0.156	Roll:	7.934	Pitch:	1.589	Yaw:	-193.954	Thrust:	0.000
Time:	2.239	Roll Set Point:	-0.121	Pitch Set Point:	0.165	Yaw Set Point:	2.397	X_WP:	0.000	Y_WP:	0.000	Y_WP:	0.500	X:	-0.150	Y:	-0.237	Z:	0.937	yaw:	-137.346	yaw rate:	-5.204	Roll:	7.867	Pitch:	1.984	Yaw:	-195.415	Thrust:	0.000
Time:	2.250	Roll Set Point:	-0.120	Pitch Set Point:	0.165	Yaw Set Point:	2.397	X_WP:	0.000	Y_WP:	0.000	Y_WP:	0.500	X:	-0.151	Y:	-0.236	Z:	0.937	yaw:	-137.332	yaw rate:	1.403	Roll:	7.967	Pitch:	1.119	Yaw:	-193.624	Thrust:	0.000
Time:	2.261	Roll Set Point:	-0.120	Pitch Set Point:	0.165	Yaw Set Point:	2.396	X_WP:	0.000	Y_WP:	0.000	Y_WP:	0.500	X:	-0.151	Y:	-0.236	Z:	0.937	yaw:	-137.270	yaw rate:	6.195	Roll:	8.168	Pitch:	1.113	Yaw:	-192.403	Thrust:	0.000
Time:	2.272	Roll Set Point:	-0.120	Pitch Set Point:	0.166	Yaw Set Point:	2.395	X_WP:	0.000	Y_WP:	0.000	Y_WP:	0.500	X:	-0.151	Y:	-0.236	Z:	0.937	yaw:	-137.214	yaw rate:	5.634	Roll:	8.109	Pitch:	1.129	Yaw:	-192.455	Thrust:	0.000
Time:	2.283	Roll Set Point:	-0.120	Pitch Set Point:	0.166	Yaw Set Point:	2.393	X_WP:	0.000	Y_WP:	0.000	Y_WP:	0.500	X:	-0.152	Y:	-0.236	Z:	0.937	yaw:	-137.082	yaw rate:	13.192	Roll:	8.342	Pitch:	0.541	Yaw:	-190.462	Thrust:	0.000
Time:	2.294	Roll Set Point:	-0.120	Pitch Set Point:	0.166	Yaw Set Point:	2.392	X_WP:	0.000	Y_WP:	0.000	Y_WP:	0.500	X:	-0.152	Y:	-0.235	Z:	0.937	yaw:	-137.056	yaw rate:	2.526	Roll:	8.075	Pitch:	1.392	Yaw:	-192.980	Thrust:	0.000
Time:	2.305	Roll Set Point:	-0.119	Pitch Set Point:	0.167	Yaw Set Point:	2.392	X_WP:	0.000	Y_WP:	0.000	Y_WP:	0.500	X:	-0.152	Y:	-0.235	Z:	0.937	yaw:	-137.031	yaw rate:	2.579	Roll:	8.058	Pitch:	1.176	Yaw:	-192.923	Thrust:	0.000
Time:	2.317	Roll Set Point:	-0.119	Pitch Set Point:	0.167	Yaw Set Point:	2.391	X_WP:	0.000	Y_WP:	0.000	Y_WP:	0.500	X:	-0.152	Y:	-0.235	Z:	0.937	yaw:	-137.021	yaw rate:	0.922	Roll:	7.979	Pitch:	1.081	Yaw:	-193.505	Thrust:	0.000
Time:	2.328	Roll Set Point:	-0.119	Pitch Set Point:	0.167	Yaw Set Point:	2.391	X_WP:	0.000	Y_WP:	0.000	Y_WP:	0.500	X:	-0.153	Y:	-0.234	Z:	0.937	yaw:	-137.014	yaw rate:	0.635	Roll:	8.111	Pitch:	1.371	Yaw:	-193.369	Thrust:	0.000
Time:	2.339	Roll Set Point:	-0.119	Pitch Set Point:	0.167	Yaw Set Point:	2.391	X_WP:	0.000	Y_WP:	0.000	Y_WP:	0.500	X:	-0.153	Y:	-0.234	Z:	0.937	yaw:	-137.014	yaw rate:	0.635	Roll:	8.059	Pitch:	2.003	Yaw:	-193.515	Thrust:	0.000
Time:	2.351	Roll Set Point:	-0.118	Pitch Set Point:	0.168	Yaw Set Point:	2.389	X_WP:	0.000	Y_WP:	0.000	Y_WP:	0.500	X:	-0.153	Y:	-0.234	Z:	0.937	yaw:	-136.871	yaw rate:	6.250	Roll:	8.575	Pitch:	-0.281	Yaw:	-190.388	Thrust:	0.000
Time:	2.362	Roll Set Point:	-0.118	Pitch Set Point:	0.168	Yaw Set Point:	2.389	X_WP:	0.000	Y_WP:	0.000	Y_WP:	0.500	X:	-0.153	Y:	-0.234	Z:	0.937	yaw:	-136.871	yaw rate:	6.250	Roll:	8.084	Pitch:	1.960	Yaw:	-193.314	Thrust:	0.000
Time:	2.373	Roll Set Point:	-0.118	Pitch Set Point:	0.169	Yaw Set Point:	2.387	X_WP:	0.000	Y_WP:	0.000	Y_WP:	0.500	X:	-0.154	Y:	-0.234	Z:	0.937	yaw:	-136.780	yaw rate:	9.146	Roll:	8.480	Pitch:	0.785	Yaw:	-191.025	Thrust:	0.000
Time:	2.384	Roll Set Point:	-0.118	Pitch Set Point:	0.169	Yaw Set Point:	2.386	X_WP:	0.000	Y_WP:	0.000	Y_WP:	0.500	X:	-0.154	Y:	-0.234	Z:	0.937	yaw:	-136.721	yaw rate:	5.910	Roll:	8.444	Pitch:	1.106	Yaw:	-191.703	Thrust:	0.000
Time:	2.395	Roll Set Point:	-0.118	Pitch Set Point:	0.170	Yaw Set Point:	2.384	X_WP:	0.000	Y_WP:	0.000	Y_WP:	0.500	X:	-0.155	Y:	-0.233	Z:	0.937	yaw:	-136.599	yaw rate:	12.186	Roll:	8.849	Pitch:	0.405	Yaw:	-190.041	Thrust:	0.000
Time:	2.406	Roll Set Point:	-0.118	Pitch Set Point:	0.170	Yaw Set Point:	2.383	X_WP:	0.000	Y_WP:	0.000	Y_WP:	0.500	X:	-0.155	Y:	-0.233	Z:	0.938	yaw:	-136.561	yaw rate:	3.766	Roll:	8.600	Pitch:	1.192	Yaw:	-191.987	Thrust:	0.000
Time:	2.417	Roll Set Point:	-0.118	Pitch Set Point:	0.172	Yaw Set Point:	2.380	X_WP:	0.000	Y_WP:	0.000	Y_WP:	0.500	X:	-0.155	Y:	-0.233	Z:	0.938	yaw:	-136.388	yaw rate:	17.337	Roll:	8.820	Pitch:	0.150	Yaw:	-188.522	Thrust:	0.000
Time:	2.429	Roll Set Point:	-0.118	Pitch Set Point:	0.173	Yaw Set Point:	2.377	X_WP:	0.000	Y_WP:	0.000	Y_WP:	0.500	X:	-0.156	Y:	-0.233	Z:	0.938	yaw:	-136.221	yaw rate:	34.932	Roll:	9.425	Pitch:	-0.066	Yaw:	-188.957	Thrust:	0.000
Time:	2.440	Roll Set Point:	-0.118	Pitch Set Point:	0.173	Yaw Set Point:	2.377	X_WP:	0.000	Y_WP:	0.000	Y_WP:	0.500	X:	-0.156	Y:	-0.233	Z:	0.938	yaw:	-136.221	yaw rate:	34.932	Roll:	8.209	Pitch:	1.823	Yaw:	-192.406	Thrust:	0.000
Time:	2.451	Roll Set Point:	-0.118	Pitch Set Point:	0.174	Yaw Set Point:	2.376	X_WP:	0.000	Y_WP:	0.000	Y_WP:	0.500	X:	-0.157	Y:	-0.234	Z:	0.938	yaw:	-136.109	yaw rate:	11.184	Roll:	9.134	Pitch:	0.465	Yaw:	-189.595	Thrust:	0.000
Time:	2.464	Roll Set Point:	-0.118	Pitch Set Point:	0.175	Yaw Set Point:	2.374	X_WP:	0.000	Y_WP:	0.000	Y_WP:	0.500	X:	-0.157	Y:	-0.234	Z:	0.938	yaw:	-135.995	yaw rate:	11.382	Roll:	8.714	Pitch:	0.785	Yaw:	-190.206	Thrust:	0.000
Time:	2.475	Roll Set Point:	-0.118	Pitch Set Point:	0.176	Yaw Set Point:	2.372	X_WP:	0.000	Y_WP:	0.000	Y_WP:	0.500	X:	-0.158	Y:	-0.234	Z:	0.938	yaw:	-135.913	yaw rate:	8.171	Roll:	9.304	Pitch:	0.637	Yaw:	-190.045	Thrust:	0.000
Time:	2.486	Roll Set Point:	-0.118	Pitch Set Point:	0.176	Yaw Set Point:	2.371	X_WP:	0.000	Y_WP:	0.000	Y_WP:	0.500	X:	-0.158	Y:	-0.234	Z:	0.938	yaw:	-135.827	yaw rate:	8.643	Roll:	8.912	Pitch:	0.745	Yaw:	-189.796	Thrust:	0.000
Time:	2.497	Roll Set Point:	-0.118	Pitch Set Point:	0.177	Yaw Set Point:	2.369	X_WP:	0.000	Y_WP:	0.000	Y_WP:	0.500	X:	-0.158	Y:	-0.234	Z:	0.938	yaw:	-135.733	yaw rate:	9.376	Roll:	8.932	Pitch:	0.674	Yaw:	-189.499	Thrust:	0.000
Time:	2.509	Roll Set Point:	-0.118	Pitch Set Point:	0.176	Yaw Set Point:	2.372	X_WP:	0.000	Y_WP:	0.000	Y_WP:	0.500	X:	-0.159	Y:	-0.234	Z:	0.939	yaw:	-135.915	yaw rate:	-18.202	Roll:	8.648	Pitch:	2.786	Yaw:	-196.299	Thrust:	0.000
Time:	2.520	Roll Set Point:	-0.118	Pitch Set Point:	0.178	Yaw Set Point:	2.368	X_WP:	0.000	Y_WP:	0.000	Y_WP:	0.500	X:	-0.159	Y:	-0.234	Z:	0.939	yaw:	-135.672	yaw rate:	24.346	Roll:	9.158	Pitch:	-0.424	Yaw:	-185.857	Thrust:	0.000
Time:	2.531	Roll Set Point:	-0.118	Pitch Set Point:	0.178	Yaw Set Point:	2.367	X_WP:	0.000	Y_WP:	0.000	Y_WP:	0.500	X:	-0.160	Y:	-0.234	Z:	0.939	yaw:	-135.624	yaw rate:	4.790	Roll:	9.199	Pitch:	0.950	Yaw:	-190.435	Thrust:	0.000
Time:	2.542	Roll Set Point:	-0.118	Pitch Set Point:	0.179	Yaw Set Point:	2.367	X_WP:	0.000	Y_WP:	0.000	Y_WP:	0.500	X:	-0.160	Y:	-0.234	Z:	0.939	yaw:	-135.611	yaw rate:	1.325	Roll:	8.835	Pitch:	1.435	Yaw:	-191.244	Thrust:	0.000
Time:	2.553	Roll Set Point:	-0.118	Pitch Set Point:	0.179	Yaw Set Point:	2.366	X_WP:	0.000	Y_WP:	0.000	Y_WP:	0.500	X:	-0.160	Y:	-0.234	Z:	0.939	yaw:	-135.551	yaw rate:	5.926	Roll:	9.015	Pitch:	1.070	Yaw:	-190.066	Thrust:	0.000
Time:	2.564	Roll Set Point:	-0.118	Pitch Set Point:	0.180	Yaw Set Point:	2.364	X_WP:	0.000	Y_WP:	0.000	Y_WP:	0.500	X:	-0.161	Y:	-0.235	Z:	0.939	yaw:	-135.450	yaw rate:	10.132	Roll:	9.132	Pitch:	0.749	Yaw:	-188.929	Thrust:	0.000
Time:	2.575	Roll Set Point:	-0.119	Pitch Set Point:	0.181	Yaw Set Point:	2.361	X_WP:	0.000	Y_WP:	0.000	Y_WP:	0.500	X:	-0.161	Y:	-0.235	Z:	0.939	yaw:	-135.260	yaw rate:	19.037	Roll:	9.478	Pitch:	-0.029	Yaw:	-186.603	Thrust:	0.000
Time:	2.586	Roll Set Point:	-0.119	Pitch Set Point:	0.182	Yaw Set Point:	2.359	X_WP:	0.000	Y_WP:	0.000	Y_WP:	0.500	X:	-0.161	Y:	-0.235	Z:	0.939	yaw:	-135.156	yaw rate:	10.324	Roll:	9.149	Pitch:	0.681	Yaw:	-188.467	Thrust:	0.000
Time:	2.597	Roll Set Point:	-0.119	Pitch Set Point:	0.184	Yaw Set Point:	2.355	X_WP:	0.000	Y_WP:	0.000	Y_WP:	0.500	X:	-0.162	Y:	-0.235	Z:	0.939	yaw:	-134.932	yaw rate:	22.482	Roll:	9.270	Pitch:	-0.350	Yaw:	-185.269	Thrust:	0.000
Time:	2.609	Roll Set Point:	-0.119	Pitch Set Point:	0.182	Yaw Set Point:	2.362	X_WP:	0.000	Y_WP:	0.000	Y_WP:	0.500	X:	-0.162	Y:	-0.235	Z:	0.940	yaw:	-135.314	yaw rate:	-38.259	Roll:	8.444	Pitch:	4.135	Yaw:	-199.676	Thrust:	0.000
Time:	2.620	Roll Set Point:	-0.119	Pitch Set Point:	0.184	Yaw Set Point:	2.356	X_WP:	0.000	Y_WP:	0.000	Y_WP:	0.500	X:	-0.162	Y:	-0.235	Z:	0.940	yaw:	-134.964	yaw rate:	35.002	Roll:	9.491	Pitch:	-1.468	Yaw:	-182.343	Thrust:	0.000
Time:	2.631	Roll Set Point:	-0.119	Pitch Set Point:	0.184	Yaw Set Point:	2.356	X_WP:	0.000	Y_WP:	0.000	Y_WP:	0.500	X:	-0.163	Y:	-0.235	Z:	0.940	yaw:	-134.961	yaw rate:	0.259	Roll:	8.857	Pitch:	1.336	Yaw:	-190.591	Thrust:	0.000
Time:	2.642	Roll Set Point:	-0.119	Pitch Set Point:	0.185	Yaw Set Point:	2.354	X_WP:	0.000	Y_WP:	0.000	Y_WP:	0.500	X:	-0.163	Y:	-0.235	Z:	0.940	yaw:	-134.877	yaw rate:	8.492	Roll:	8.769	Pitch:	0.703	Yaw:	-188.515	Thrust:	0.000
Time:	2.653	Roll Set Point:	-0.119	Pitch Set Point:	0.185	Yaw Set Point:	2.353	X_WP:	0.000	Y_WP:	0.000	Y_WP:	0.500	X:	-0.163	Y:	-0.235	Z:	0.940	yaw:	-134.844	yaw rate:	3.293	Roll:	8.905	Pitch:	1.090	Yaw:	-189.701	Thrust:	0.000
Time:	2.664	Roll Set Point:	-0.119	Pitch Set Point:	0.185	Yaw Set Point:	2.353	X_WP:	0.000	Y_WP:	0.000	Y_WP:	0.500	X:	-0.163	Y:	-0.235	Z:	0.940	yaw:	-134.814	yaw rate:	2.971	Roll:	8.925	Pitch:	1.160	Yaw:	-189.737	Thrust:	0.000
Time:	2.675	Roll Set Point:	-0.119	Pitch Set Point:	0.185	Yaw Set Point:	2.354	X_WP:	0.000	Y_WP:	0.000	Y_WP:	0.500	X:	-0.164	Y:	-0.236	Z:	0.940	yaw:	-134.888	yaw rate:	-7.397	Roll:	9.163	Pitch:	1.831	Yaw:	-192.300	Thrust:	0.000
Time:	2.686	Roll Set Point:	-0.119	Pitch Set Point:	0.185	Yaw Set Point:	2.354	X_WP:	0.000	Y_WP:	0.000	Y_WP:	0.500	X:	-0.164	Y:	-0.236	Z:	0.940	yaw:	-134.886	yaw rate:	0.159	Roll:	8.908	Pitch:	1.334	Yaw:	-190.505	Thrust:	0.000
Time:	2.697	Roll Set Point:	-0.119	Pitch Set Point:	0.186	Yaw Set Point:	2.355	X_WP:	0.000	Y_WP:	0.000	Y_WP:	0.500	X:	-0.164	Y:	-0.236	Z:	0.940	yaw:	-134.905	yaw rate:	-1.892	Roll:	8.863	Pitch:	1.562	Yaw:	-191.018	Thrust:	0.000
Time:	2.708	Roll Set Point:	-0.119	Pitch Set Point:	0.186	Yaw Set Point:	2.354	X_WP:	0.000	Y_WP:	0.000	Y_WP:	0.500	X:	-0.164	Y:	-0.236	Z:	0.940	yaw:	-134.898	yaw rate:	0.762	Roll:	8.954	Pitch:	1.336	Yaw:	-190.377	Thrust:	0.000
Time:	2.719	Roll Set Point:	-0.119	Pitch Set Point:	0.186	Yaw Set Point:	2.354	X_WP:	0.000	Y_WP:	0.000	Y_WP:	0.500	X:	-0.165	Y:	-0.236	Z:	0.940	yaw:	-134.862	yaw rate:	3.586	Roll:	9.110	Pitch:	1.141	Yaw:	-189.663	Thrust:	0.000
Time:	2.730	Roll Set Point:	-0.119	Pitch Set Point:	0.187	Yaw Set Point:	2.351	X_WP:	0.000	Y_WP:	0.000	Y_WP:	0.500	X:	-0.165	Y:	-0.236	Z:	0.940	yaw:	-134.723	yaw rate:	13.851	Roll:	8.934	Pitch:	0.450	Yaw:	-187.030	Thrust:	0.000
Time:	2.742	Roll Set Point:	-0.119	Pitch Set Point:	0.186	Yaw Set Point:	2.356	X_WP:	0.000	Y_WP:	0.000	Y_WP:	0.500	X:	-0.165	Y:	-0.236	Z:	0.940	yaw:	-134.977	yaw rate:	-25.404	Roll:	8.752	Pitch:	3.310	Yaw:	-196.405	Thrust:	0.000
Time:	2.753	Roll Set Point:	-0.119	Pitch Set Point:	0.188	Yaw Set Point:	2.350	X_WP:	0.000	Y_WP:	0.000	Y_WP:	0.500	X:	-0.165	Y:	-0.236	Z:	0.940	yaw:	-134.657	yaw rate:	32.031	Roll:	9.322	Pitch:	-0.872	Yaw:	-182.639	Thrust:	0.000
Time:	2.764	Roll Set Point:	-0.119	Pitch Set Point:	0.188	Yaw Set Point:	2.348	X_WP:	0.000	Y_WP:	0.000	Y_WP:	0.500	X:	-0.165	Y:	-0.236	Z:	0.940	yaw:	-134.550	yaw rate:	10.684	Roll:	9.185	Pitch:	0.722	Yaw:	-187.560	Thrust:	0.000
Time:	2.775	Roll Set Point:	-0.119	Pitch Set Point:	0.188	Yaw Set Point:	2.350	X_WP:	0.000	Y_WP:	0.000	Y_WP:	0.500	X:	-0.165	Y:	-0.237	Z:	0.940	yaw:	-134.629	yaw rate:	-7.916	Roll:	9.326	Pitch:	2.312	Yaw:	-192.063	Thrust:	0.000
Time:	2.786	Roll Set Point:	-0.119	Pitch Set Point:	0.188	Yaw Set Point:	2.352	X_WP:	0.000	Y_WP:	0.000	Y_WP:	0.500	X:	-0.166	Y:	-0.237	Z:	0.940	yaw:	-134.776	yaw rate:	-14.687	Roll:	8.931	Pitch:	2.762	Yaw:	-193.875	Thrust:	0.000
Time:	2.797	Roll Set Point:	-0.120	Pitch Set Point:	0.189	Yaw Set Point:	2.347	X_WP:	0.000	Y_WP:	0.000	Y_WP:	0.500	X:	-0.166	Y:	-0.237	Z:	0.940	yaw:	-134.489	yaw rate:	28.695	Roll:	9.356	Pitch:	-0.607	Yaw:	-183.176	Thrust:	0.000
Time:	2.808	Roll Set Point:	-0.120	Pitch Set Point:	0.190	Yaw Set Point:	2.346	X_WP:	0.000	Y_WP:	0.000	Y_WP:	0.500	X:	-0.166	Y:	-0.237	Z:	0.940	yaw:	-134.415	yaw rate:	7.422	Roll:	9.103	Pitch:	1.027	Yaw:	-188.123	Thrust:	0.000
Time:	2.820	Roll Set Point:	-0.120	Pitch Set Point:	0.190	Yaw Set Point:	2.346	X_WP:	0.000	Y_WP:	0.000	Y_WP:	0.500	X:	-0.166	Y:	-0.238	Z:	0.940	yaw:	-134.419	yaw rate:	-0.389	Roll:	9.111	Pitch:	1.664	Yaw:	-189.983	Thrust:	0.000
Time:	2.831	Roll Set Point:	-0.120	Pitch Set Point:	0.190	Yaw Set Point:	2.346	X_WP:	0.000	Y_WP:	0.000	Y_WP:	0.500	X:	-0.166	Y:	-0.238	Z:	0.940	yaw:	-134.389	yaw rate:	2.942	Roll:	8.981	Pitch:	1.272	Yaw:	-189.151	Thrust:	0.000
Time:	2.842	Roll Set Point:	-0.120	Pitch Set Point:	0.190	Yaw Set Point:	2.346	X_WP:	0.000	Y_WP:	0.000	Y_WP:	0.500	X:	-0.166	Y:	-0.238	Z:	0.940	yaw:	-134.398	yaw rate:	-0.903	Roll:	8.886	Pitch:	1.651	Yaw:	-190.076	Thrust:	0.000
Time:	2.853	Roll Set Point:	-0.120	Pitch Set Point:	0.191	Yaw Set Point:	2.344	X_WP:	0.000	Y_WP:	0.000	Y_WP:	0.500	X:	-0.166	Y:	-0.238	Z:	0.940	yaw:	-134.290	yaw rate:	10.854	Roll:	8.839	Pitch:	0.721	Yaw:	-187.133	Thrust:	0.000
Time:	2.864	Roll Set Point:	-0.120	Pitch Set Point:	0.190	Yaw Set Point:	2.344	X_WP:	0.000	Y_WP:	0.000	Y_WP:	0.500	X:	-0.166	Y:	-0.238	Z:	0.940	yaw:	-134.326	yaw rate:	-3.632	Roll:	8.853	Pitch:	1.803	Yaw:	-190.623	Thrust:	0.000
Time:	2.875	Roll Set Point:	-0.120	Pitch Set Point:	0.191	Yaw Set Point:	2.344	X_WP:	0.000	Y_WP:	0.000	Y_WP:	0.500	X:	-0.166	Y:	-0.238	Z:	0.940	yaw:	-134.307	yaw rate:	1.885	Roll:	8.992	Pitch:	1.357	Yaw:	-189.287	Thrust:	0.000
Time:	2.886	Roll Set Point:	-0.120	Pitch Set Point:	0.191	Yaw Set Point:	2.345	X_WP:	0.000	Y_WP:	0.000	Y_WP:	0.500	X:	-0.166	Y:	-0.238	Z:	0.940	yaw:	-134.363	yaw rate:	-5.600	Roll:	9.057	Pitch:	1.985	Yaw:	-191.144	Thrust:	0.000
Time:	2.897	Roll Set Point:	-0.120	Pitch Set Point:	0.191	Yaw Set Point:	2.345	X_WP:	0.000	Y_WP:	0.000	Y_WP:	0.500	X:	-0.166	Y:	-0.238	Z:	0.940	yaw:	-134.371	yaw rate:	-0.748	Roll:	9.082	Pitch:	1.551	Yaw:	-190.002	Thrust:	0.000
Time:	2.908	Roll Set Point:	-0.121	Pitch Set Point:	0.191	Yaw Set Point:	2.344	X_WP:	0.000	Y_WP:	0.000	Y_WP:	0.500	X:	-0.167	Y:	-0.239	Z:	0.941	yaw:	-134.286	yaw rate:	8.501	Roll:	9.283	Pitch:	0.899	Yaw:	-187.676	Thrust:	0.000
Time:	2.919	Roll Set Point:	-0.121	Pitch Set Point:	0.192	Yaw Set Point:	2.344	X_WP:	0.000	Y_WP:	0.000	Y_WP:	0.500	X:	-0.167	Y:	-0.239	Z:	0.941	yaw:	-134.290	yaw rate:	-0.439	Roll:	9.509	Pitch:	1.557	Yaw:	-189.815	Thrust:	0.000
Time:	2.930	Roll Set Point:	-0.121	Pitch Set Point:	0.194	Yaw Set Point:	2.337	X_WP:	0.000	Y_WP:	0.000	Y_WP:	0.500	X:	-0.167	Y:	-0.240	Z:	0.941	yaw:	-133.925	yaw rate:	36.478	Roll:	10.210	Pitch:	-1.149	Yaw:	-180.542	Thrust:	0.000
Time:	2.941	Roll Set Point:	-0.121	Pitch Set Point:	0.194	Yaw Set Point:	2.338	X_WP:	0.000	Y_WP:	0.000	Y_WP:	0.500	X:	-0.168	Y:	-0.240	Z:	0.941	yaw:	-133.959	yaw rate:	-3.363	Roll:	9.498	Pitch:	1.690	Yaw:	-190.046	Thrust:	0.000
Time:	2.952	Roll Set Point:	-0.122	Pitch Set Point:	0.195	Yaw Set Point:	2.334	X_WP:	0.000	Y_WP:	0.000	Y_WP:	0.500	X:	-0.168	Y:	-0.240	Z:	0.941	yaw:	-133.756	yaw rate:	20.338	Roll:	9.515	Pitch:	0.115	Yaw:	-184.136	Thrust:	0.000
Time:	2.963	Roll Set Point:	-0.122	Pitch Set Point:	0.194	Yaw Set Point:	2.339	X_WP:	0.000	Y_WP:	0.000	Y_WP:	0.500	X:	-0.168	Y:	-0.241	Z:	0.942	yaw:	-133.989	yaw rate:	-23.312	Roll:	9.098	Pitch:	3.291	Yaw:	-194.816	Thrust:	0.000
Time:	2.974	Roll Set Point:	-0.122	Pitch Set Point:	0.196	Yaw Set Point:	2.334	X_WP:	0.000	Y_WP:	0.000	Y_WP:	0.500	X:	-0.168	Y:	-0.241	Z:	0.942	yaw:	-133.727	yaw rate:	26.151	Roll:	10.100	Pitch:	-0.382	Yaw:	-182.717	Thrust:	0.000
Time:	2.986	Roll Set Point:	-0.123	Pitch Set Point:	0.197	Yaw Set Point:	2.331	X_WP:	0.000	Y_WP:	0.000	Y_WP:	0.500	X:	-0.169	Y:	-0.242	Z:	0.942	yaw:	-133.554	yaw rate:	17.369	Roll:	9.858	Pitch:	0.362	Yaw:	-185.092	Thrust:	0.000
Time:	2.997	Roll Set Point:	-0.123	Pitch Set Point:	0.198	Yaw Set Point:	2.330	X_WP:	0.000	Y_WP:	0.000	Y_WP:	0.500	X:	-0.169	Y:	-0.242	Z:	0.943	yaw:	-133.489	yaw rate:	6.499	Roll:	10.593	Pitch:	0.920	Yaw:	-187.058	Thrust:	0.000
Time:	3.008	Roll Set Point:	-0.123	Pitch Set Point:	0.199	Yaw Set Point:	2.328	X_WP:	0.000	Y_WP:	0.000	Y_WP:	0.500	X:	-0.170	Y:	-0.243	Z:	0.943	yaw:	-133.403	yaw rate:	8.578	Roll:	9.856	Pitch:	0.812	Yaw:	-186.436	Thrust:	0.000
Time:	3.019	Roll Set Point:	-0.124	Pitch Set Point:	0.200	Yaw Set Point:	2.328	X_WP:	0.000	Y_WP:	0.000	Y_WP:	0.500	X:	-0.170	Y:	-0.243	Z:	0.943	yaw:	-133.402	yaw rate:	0.130	Roll:	9.890	Pitch:	1.435	Yaw:	-188.434	Thrust:	0.000
Time:	3.030	Roll Set Point:	-0.124	Pitch Set Point:	0.200	Yaw Set Point:	2.329	X_WP:	0.000	Y_WP:	0.000	Y_WP:	0.500	X:	-0.171	Y:	-0.244	Z:	0.944	yaw:	-133.459	yaw rate:	-5.701	Roll:	9.942	Pitch:	1.911	Yaw:	-189.902	Thrust:	0.000
Time:	3.041	Roll Set Point:	-0.124	Pitch Set Point:	0.203	Yaw Set Point:	2.321	X_WP:	0.000	Y_WP:	0.000	Y_WP:	0.500	X:	-0.171	Y:	-0.244	Z:	0.944	yaw:	-133.012	yaw rate:	44.665	Roll:	11.003	Pitch:	-2.171	Yaw:	-177.324	Thrust:	0.000
Time:	3.052	Roll Set Point:	-0.125	Pitch Set Point:	0.204	Yaw Set Point:	2.321	X_WP:	0.000	Y_WP:	0.000	Y_WP:	0.500	X:	-0.172	Y:	-0.245	Z:	0.945	yaw:	-132.957	yaw rate:	5.504	Roll:	10.272	Pitch:	1.037	Yaw:	-186.542	Thrust:	0.000
Time:	3.063	Roll Set Point:	-0.125	Pitch Set Point:	0.205	Yaw Set Point:	2.320	X_WP:	0.000	Y_WP:	0.000	Y_WP:	0.500	X:	-0.172	Y:	-0.246	Z:	0.945	yaw:	-132.934	yaw rate:	2.284	Roll:	10.694	Pitch:	1.168	Yaw:	-187.275	Thrust:	0.000
Time:	3.074	Roll Set Point:	-0.126	Pitch Set Point:	0.206	Yaw Set Point:	2.316	X_WP:	0.000	Y_WP:	0.000	Y_WP:	0.500	X:	-0.173	Y:	-0.246	Z:	0.946	yaw:	-132.708	yaw rate:	22.633	Roll:	10.421	Pitch:	-0.351	Yaw:	-182.128	Thrust:	0.000
Time:	3.085	Roll Set Point:	-0.126	Pitch Set Point:	0.208	Yaw Set Point:	2.313	X_WP:	0.000	Y_WP:	0.000	Y_WP:	0.500	X:	-0.174	Y:	-0.248	Z:	0.946	yaw:	-132.522	yaw rate:	18.581	Roll:	11.704	Pitch:	0.111	Yaw:	-182.848	Thrust:	0.000
Time:	3.096	Roll Set Point:	-0.127	Pitch Set Point:	0.210	Yaw Set Point:	2.310	X_WP:	0.000	Y_WP:	0.000	Y_WP:	0.500	X:	-0.174	Y:	-0.249	Z:	0.947	yaw:	-132.348	yaw rate:	17.385	Roll:	11.121	Pitch:	0.091	Yaw:	-182.856	Thrust:	0.000
Time:	3.107	Roll Set Point:	-0.127	Pitch Set Point:	0.210	Yaw Set Point:	2.313	X_WP:	0.000	Y_WP:	0.000	Y_WP:	0.500	X:	-0.175	Y:	-0.250	Z:	0.947	yaw:	-132.517	yaw rate:	-16.882	Roll:	10.845	Pitch:	2.984	Yaw:	-191.241	Thrust:	0.000
Time:	3.118	Roll Set Point:	-0.128	Pitch Set Point:	0.212	Yaw Set Point:	2.309	X_WP:	0.000	Y_WP:	0.000	Y_WP:	0.500	X:	-0.176	Y:	-0.251	Z:	0.947	yaw:	-132.285	yaw rate:	23.216	Roll:	11.700	Pitch:	-0.296	Yaw:	-181.440	Thrust:	0.000
Time:	3.129	Roll Set Point:	-0.129	Pitch Set Point:	0.215	Yaw Set Point:	2.303	X_WP:	0.000	Y_WP:	0.000	Y_WP:	0.500	X:	-0.176	Y:	-0.252	Z:	0.948	yaw:	-131.933	yaw rate:	35.187	Roll:	11.286	Pitch:	-1.245	Yaw:	-178.060	Thrust:	0.000
Time:	3.140	Roll Set Point:	-0.130	Pitch Set Point:	0.218	Yaw Set Point:	2.296	X_WP:	0.000	Y_WP:	0.000	Y_WP:	0.500	X:	-0.177	Y:	-0.254	Z:	0.948	yaw:	-131.578	yaw rate:	35.520	Roll:	12.888	Pitch:	-0.991	Yaw:	-177.499	Thrust:	0.000
Time:	3.151	Roll Set Point:	-0.131	Pitch Set Point:	0.218	Yaw Set Point:	2.300	X_WP:	0.000	Y_WP:	0.000	Y_WP:	0.500	X:	-0.178	Y:	-0.255	Z:	0.949	yaw:	-131.794	yaw rate:	-21.678	Roll:	11.798	Pitch:	3.446	Yaw:	-191.373	Thrust:	0.000
Time:	3.162	Roll Set Point:	-0.132	Pitch Set Point:	0.222	Yaw Set Point:	2.291	X_WP:	0.000	Y_WP:	0.000	Y_WP:	0.500	X:	-0.179	Y:	-0.257	Z:	0.949	yaw:	-131.261	yaw rate:	53.393	Roll:	11.916	Pitch:	-2.522	Yaw:	-172.810	Thrust:	0.000
Time:	3.174	Roll Set Point:	-0.133	Pitch Set Point:	0.224	Yaw Set Point:	2.288	X_WP:	0.000	Y_WP:	0.000	Y_WP:	0.500	X:	-0.180	Y:	-0.258	Z:	0.949	yaw:	-131.104	yaw rate:	15.685	Roll:	12.088	Pitch:	0.555	Yaw:	-181.539	Thrust:	0.000
Time:	3.185	Roll Set Point:	-0.135	Pitch Set Point:	0.226	Yaw Set Point:	2.285	X_WP:	0.000	Y_WP:	0.000	Y_WP:	0.500	X:	-0.181	Y:	-0.261	Z:	0.950	yaw:	-130.897	yaw rate:	20.667	Roll:	13.676	Pitch:	0.713	Yaw:	-180.067	Thrust:	0.000
Time:	3.196	Roll Set Point:	-0.136	Pitch Set Point:	0.230	Yaw Set Point:	2.277	X_WP:	0.000	Y_WP:	0.000	Y_WP:	0.500	X:	-0.181	Y:	-0.262	Z:	0.950	yaw:	-130.471	yaw rate:	42.627	Roll:	12.887	Pitch:	-1.322	Yaw:	-174.259	Thrust:	0.000
Time:	3.207	Roll Set Point:	-0.138	Pitch Set Point:	0.232	Yaw Set Point:	2.274	X_WP:	0.000	Y_WP:	0.000	Y_WP:	0.500	X:	-0.182	Y:	-0.265	Z:	0.950	yaw:	-130.274	yaw rate:	19.669	Roll:	13.021	Pitch:	0.654	Yaw:	-179.435	Thrust:	0.000
Time:	3.218	Roll Set Point:	-0.139	Pitch Set Point:	0.235	Yaw Set Point:	2.268	X_WP:	0.000	Y_WP:	0.000	Y_WP:	0.500	X:	-0.183	Y:	-0.267	Z:	0.950	yaw:	-129.963	yaw rate:	31.060	Roll:	13.399	Pitch:	-0.086	Yaw:	-176.295	Thrust:	0.000
Time:	3.229	Roll Set Point:	-0.141	Pitch Set Point:	0.236	Yaw Set Point:	2.269	X_WP:	0.000	Y_WP:	0.000	Y_WP:	0.500	X:	-0.183	Y:	-0.269	Z:	0.950	yaw:	-130.017	yaw rate:	-5.331	Roll:	12.720	Pitch:	3.426	Yaw:	-185.010	Thrust:	0.000
Time:	3.240	Roll Set Point:	-0.143	Pitch Set Point:	0.241	Yaw Set Point:	2.258	X_WP:	0.000	Y_WP:	0.000	Y_WP:	0.500	X:	-0.184	Y:	-0.272	Z:	0.951	yaw:	-129.382	yaw rate:	63.461	Roll:	14.537	Pitch:	-2.670	Yaw:	-167.729	Thrust:	0.000
Time:	3.251	Roll Set Point:	-0.147	Pitch Set Point:	0.249	Yaw Set Point:	2.242	X_WP:	0.000	Y_WP:	0.000	Y_WP:	0.500	X:	-0.185	Y:	-0.276	Z:	0.951	yaw:	-128.449	yaw rate:	93.267	Roll:	17.182	Pitch:	-4.109	Yaw:	-159.475	Thrust:	0.000
Time:	3.262	Roll Set Point:	-0.148	Pitch Set Point:	0.249	Yaw Set Point:	2.248	X_WP:	0.000	Y_WP:	0.000	Y_WP:	0.500	X:	-0.185	Y:	-0.279	Z:	0.951	yaw:	-128.795	yaw rate:	-34.549	Roll:	13.257	Pitch:	5.850	Yaw:	-190.238	Thrust:	0.000
Time:	3.273	Roll Set Point:	-0.151	Pitch Set Point:	0.254	Yaw Set Point:	2.237	X_WP:	0.000	Y_WP:	0.000	Y_WP:	0.500	X:	-0.186	Y:	-0.282	Z:	0.951	yaw:	-128.155	yaw rate:	63.973	Roll:	14.930	Pitch:	-2.975	Yaw:	-165.958	Thrust:	0.000
Time:	3.284	Roll Set Point:	-0.153	Pitch Set Point:	0.258	Yaw Set Point:	2.228	X_WP:	0.000	Y_WP:	0.000	Y_WP:	0.500	X:	-0.187	Y:	-0.285	Z:	0.952	yaw:	-127.663	yaw rate:	49.229	Roll:	14.658	Pitch:	-1.689	Yaw:	-168.738	Thrust:	0.000
Time:	3.295	Roll Set Point:	-0.156	Pitch Set Point:	0.262	Yaw Set Point:	2.226	X_WP:	0.000	Y_WP:	0.000	Y_WP:	0.500	X:	-0.188	Y:	-0.289	Z:	0.952	yaw:	-127.533	yaw rate:	13.032	Roll:	16.529	Pitch:	2.506	Yaw:	-177.195	Thrust:	0.000
Time:	3.306	Roll Set Point:	-0.158	Pitch Set Point:	0.267	Yaw Set Point:	2.215	X_WP:	0.000	Y_WP:	0.000	Y_WP:	0.500	X:	-0.188	Y:	-0.292	Z:	0.952	yaw:	-126.895	yaw rate:	63.746	Roll:	15.267	Pitch:	-3.032	Yaw:	-164.253	Thrust:	0.000
Time:	3.317	Roll Set Point:	-0.160	Pitch Set Point:	0.268	Yaw Set Point:	2.218	X_WP:	0.000	Y_WP:	0.000	Y_WP:	0.500	X:	-0.189	Y:	-0.295	Z:	0.952	yaw:	-127.070	yaw rate:	-17.454	Roll:	14.652	Pitch:	4.502	Yaw:	-183.772	Thrust:	0.000
Time:	3.328	Roll Set Point:	-0.163	Pitch Set Point:	0.270	Yaw Set Point:	2.216	X_WP:	0.000	Y_WP:	0.000	Y_WP:	0.500	X:	-0.190	Y:	-0.298	Z:	0.952	yaw:	-126.966	yaw rate:	10.409	Roll:	15.225	Pitch:	2.242	Yaw:	-177.012	Thrust:	0.000
Time:	3.339	Roll Set Point:	-0.165	Pitch Set Point:	0.275	Yaw Set Point:	2.208	X_WP:	0.000	Y_WP:	0.000	Y_WP:	0.500	X:	-0.190	Y:	-0.302	Z:	0.952	yaw:	-126.489	yaw rate:	47.700	Roll:	16.103	Pitch:	-1.295	Yaw:	-167.494	Thrust:	0.000
Time:	3.350	Roll Set Point:	-0.169	Pitch Set Point:	0.278	Yaw Set Point:	2.209	X_WP:	0.000	Y_WP:	0.000	Y_WP:	0.500	X:	-0.191	Y:	-0.306	Z:	0.952	yaw:	-126.560	yaw rate:	-7.093	Roll:	17.619	Pitch:	4.761	Yaw:	-180.600	Thrust:	0.000
Time:	3.361	Roll Set Point:	-0.171	Pitch Set Point:	0.342	Yaw Set Point:	2.037	X_WP:	0.000	Y_WP:	0.000	Y_WP:	0.500	X:	-0.192	Y:	-0.310	Z:	0.952	yaw:	-116.690	yaw rate:	986.916	Roll:	16.192	Pitch:	-30.000	Yaw:	69.167	Thrust:	0.000
Time:	3.372	Roll Set Point:	-0.173	Pitch Set Point:	0.352	Yaw Set Point:	2.018	X_WP:	0.000	Y_WP:	0.000	Y_WP:	0.500	X:	-0.193	Y:	-0.314	Z:	0.952	yaw:	-115.623	yaw rate:	106.723	Roll:	14.972	Pitch:	-10.104	Yaw:	-138.313	Thrust:	0.000
Time:	3.383	Roll Set Point:	-0.176	Pitch Set Point:	0.357	Yaw Set Point:	2.012	X_WP:	0.000	Y_WP:	0.000	Y_WP:	0.500	X:	-0.194	Y:	-0.317	Z:	0.952	yaw:	-115.264	yaw rate:	35.868	Roll:	16.292	Pitch:	-3.414	Yaw:	-154.633	Thrust:	0.000
Time:	3.394	Roll Set Point:	-0.179	Pitch Set Point:	0.355	Yaw Set Point:	2.025	X_WP:	0.000	Y_WP:	0.000	Y_WP:	0.500	X:	-0.195	Y:	-0.320	Z:	0.952	yaw:	-116.017	yaw rate:	-75.237	Roll:	17.372	Pitch:	7.322	Yaw:	-182.055	Thrust:	0.000
Time:	3.405	Roll Set Point:	-0.182	Pitch Set Point:	0.373	Yaw Set Point:	1.988	X_WP:	0.000	Y_WP:	0.000	Y_WP:	0.500	X:	-0.196	Y:	-0.326	Z:	0.952	yaw:	-113.928	yaw rate:	208.868	Roll:	18.430	Pitch:	-20.057	Yaw:	-111.703	Thrust:	0.000
Time:	3.416	Roll Set Point:	-0.184	Pitch Set Point:	0.379	Yaw Set Point:	1.980	X_WP:	0.000	Y_WP:	0.000	Y_WP:	0.500	X:	-0.197	Y:	-0.330	Z:	0.953	yaw:	-113.445	yaw rate:	48.279	Roll:	16.793	Pitch:	-5.318	Yaw:	-149.112	Thrust:	0.000
Time:	3.427	Roll Set Point:	-0.187	Pitch Set Point:	0.383	Yaw Set Point:	1.980	X_WP:	0.000	Y_WP:	0.000	Y_WP:	0.500	X:	-0.198	Y:	-0.334	Z:	0.953	yaw:	-113.449	yaw rate:	-0.341	Roll:	17.463	Pitch:	-0.320	Yaw:	-160.696	Thrust:	0.000
Time:	3.438	Roll Set Point:	-0.191	Pitch Set Point:	0.374	Yaw Set Point:	2.010	X_WP:	0.000	Y_WP:	0.000	Y_WP:	0.500	X:	-0.199	Y:	-0.337	Z:	0.953	yaw:	-115.145	yaw rate:	-169.671	Roll:	18.930	Pitch:	17.011	Yaw:	-203.245	Thrust:	0.000
Time:	3.450	Roll Set Point:	-0.198	Pitch Set Point:	0.389	Yaw Set Point:	1.993	X_WP:	0.000	Y_WP:	0.000	Y_WP:	0.500	X:	-0.202	Y:	-0.347	Z:	0.954	yaw:	-114.170	yaw rate:	69.860	Roll:	25.883	Pitch:	-8.112	Yaw:	-140.579	Thrust:	0.000
Time:	3.461	Roll Set Point:	-0.201	Pitch Set Point:	0.391	Yaw Set Point:	1.996	X_WP:	0.000	Y_WP:	0.000	Y_WP:	0.500	X:	-0.203	Y:	-0.351	Z:	0.955	yaw:	-114.356	yaw rate:	-18.653	Roll:	18.261	Pitch:	2.080	Yaw:	-166.310	Thrust:	0.000
Time:	3.472	Roll Set Point:	-0.201	Pitch Set Point:	0.391	Yaw Set Point:	1.996	X_WP:	0.000	Y_WP:	0.000	Y_WP:	0.500	X:	-0.203	Y:	-0.351	Z:	0.955	yaw:	-114.356	yaw rate:	-18.653	Roll:	12.119	Pitch:	-1.003	Yaw:	-161.882	Thrust:	0.000
Time:	3.483	Roll Set Point:	-0.204	Pitch Set Point:	0.398	Yaw Set Point:	1.989	X_WP:	0.000	Y_WP:	0.000	Y_WP:	0.500	X:	-0.204	Y:	-0.355	Z:	0.955	yaw:	-113.960	yaw rate:	39.631	Roll:	18.461	Pitch:	-4.425	Yaw:	-151.916	Thrust:	0.000
Time:	3.494	Roll Set Point:	-0.206	Pitch Set Point:	0.409	Yaw Set Point:	1.971	X_WP:	0.000	Y_WP:	0.000	Y_WP:	0.500	X:	-0.205	Y:	-0.360	Z:	0.956	yaw:	-112.948	yaw rate:	101.156	Roll:	18.260	Pitch:	-11.330	Yaw:	-135.901	Thrust:	0.000
Time:	3.505	Roll Set Point:	-0.211	Pitch Set Point:	0.413	Yaw Set Point:	1.975	X_WP:	0.000	Y_WP:	0.000	Y_WP:	0.500	X:	-0.207	Y:	-0.366	Z:	0.956	yaw:	-113.131	yaw rate:	-18.261	Roll:	22.767	Pitch:	1.864	Yaw:	-164.501	Thrust:	0.000
Time:	3.516	Roll Set Point:	-0.214	Pitch Set Point:	0.420	Yaw Set Point:	1.968	X_WP:	0.000	Y_WP:	0.000	Y_WP:	0.500	X:	-0.209	Y:	-0.370	Z:	0.957	yaw:	-112.732	yaw rate:	39.927	Roll:	19.003	Pitch:	-5.102	Yaw:	-150.131	Thrust:	0.000
Time:	3.527	Roll Set Point:	-0.216	Pitch Set Point:	0.432	Yaw Set Point:	1.949	X_WP:	0.000	Y_WP:	0.000	Y_WP:	0.500	X:	-0.210	Y:	-0.375	Z:	0.957	yaw:	-111.665	yaw rate:	106.684	Roll:	18.621	Pitch:	-12.664	Yaw:	-132.800	Thrust:	0.000
Time:	3.538	Roll Set Point:	-0.219	Pitch Set Point:	0.444	Yaw Set Point:	1.930	X_WP:	0.000	Y_WP:	0.000	Y_WP:	0.500	X:	-0.211	Y:	-0.380	Z:	0.958	yaw:	-110.601	yaw rate:	106.372	Roll:	18.912	Pitch:	-13.512	Yaw:	-131.381	Thrust:	0.000
Time:	3.550	Roll Set Point:	-0.222	Pitch Set Point:	0.441	Yaw Set Point:	1.946	X_WP:	0.000	Y_WP:	0.000	Y_WP:	0.500	X:	-0.212	Y:	-0.384	Z:	0.959	yaw:	-111.511	yaw rate:	-90.981	Roll:	20.448	Pitch:	9.425	Yaw:	-179.498	Thrust:	0.000
Time:	3.561	Roll Set Point:	-0.226	Pitch Set Point:	0.455	Yaw Set Point:	1.927	X_WP:	0.000	Y_WP:	0.000	Y_WP:	0.500	X:	-0.215	Y:	-0.390	Z:	0.960	yaw:	-110.415	yaw rate:	109.561	Roll:	22.152	Pitch:	-13.913	Yaw:	-130.365	Thrust:	0.000
Time:	3.572	Roll Set Point:	-0.231	Pitch Set Point:	0.475	Yaw Set Point:	1.903	X_WP:	0.000	Y_WP:	0.000	Y_WP:	0.500	X:	-0.218	Y:	-0.399	Z:	0.961	yaw:	-109.025	yaw rate:	125.547	Roll:	24.911	Pitch:	-17.277	Yaw:	-123.533	Thrust:	0.000
Time:	3.583	Roll Set Point:	-0.231	Pitch Set Point:	0.475	Yaw Set Point:	1.903	X_WP:	0.000	Y_WP:	0.000	Y_WP:	0.500	X:	-0.218	Y:	-0.399	Z:	0.961	yaw:	-109.025	yaw rate:	125.547	Roll:	13.416	Pitch:	-2.047	Yaw:	-154.414	Thrust:	0.000
Time:	3.594	Roll Set Point:	-0.234	Pitch Set Point:	0.476	Yaw Set Point:	1.910	X_WP:	0.000	Y_WP:	0.000	Y_WP:	0.500	X:	-0.219	Y:	-0.404	Z:	0.962	yaw:	-109.413	yaw rate:	-38.850	Roll:	21.263	Pitch:	2.517	Yaw:	-164.197	Thrust:	0.000
Time:	3.605	Roll Set Point:	-0.237	Pitch Set Point:	0.497	Yaw Set Point:	1.879	X_WP:	0.000	Y_WP:	0.000	Y_WP:	0.500	X:	-0.221	Y:	-0.410	Z:	0.963	yaw:	-107.671	yaw rate:	174.235	Roll:	21.128	Pitch:	-23.489	Yaw:	-111.131	Thrust:	0.000
Time:	3.616	Roll Set Point:	-0.241	Pitch Set Point:	0.494	Yaw Set Point:	1.894	X_WP:	0.000	Y_WP:	0.000	Y_WP:	0.500	X:	-0.223	Y:	-0.414	Z:	0.964	yaw:	-108.522	yaw rate:	-85.105	Roll:	22.238	Pitch:	7.932	Yaw:	-173.917	Thrust:	0.000
Time:	3.627	Roll Set Point:	-0.244	Pitch Set Point:	0.501	Yaw Set Point:	1.888	X_WP:	0.000	Y_WP:	0.000	Y_WP:	0.500	X:	-0.224	Y:	-0.419	Z:	0.965	yaw:	-108.181	yaw rate:	34.063	Roll:	20.171	Pitch:	-6.344	Yaw:	-145.177	Thrust:	0.000
Time:	3.638	Roll Set Point:	-0.246	Pitch Set Point:	0.508	Yaw Set Point:	1.882	X_WP:	0.000	Y_WP:	0.000	Y_WP:	0.500	X:	-0.226	Y:	-0.423	Z:	0.965	yaw:	-107.851	yaw rate:	33.029	Roll:	20.414	Pitch:	-6.631	Yaw:	-144.952	Thrust:	0.000
Time:	3.649	Roll Set Point:	-0.249	Pitch Set Point:	0.514	Yaw Set Point:	1.878	X_WP:	0.000	Y_WP:	0.000	Y_WP:	0.500	X:	-0.227	Y:	-0.427	Z:	0.966	yaw:	-107.629	yaw rate:	22.209	Roll:	20.667	Pitch:	-5.318	Yaw:	-147.211	Thrust:	0.000
Time:	3.660	Roll Set Point:	-0.253	Pitch Set Point:	0.521	Yaw Set Point:	1.877	X_WP:	0.000	Y_WP:	0.000	Y_WP:	0.500	X:	-0.229	Y:	-0.433	Z:	0.967	yaw:	-107.540	yaw rate:	8.836	Roll:	23.814	Pitch:	-3.322	Yaw:	-150.263	Thrust:	0.000
Time:	3.671	Roll Set Point:	-0.256	Pitch Set Point:	0.528	Yaw Set Point:	1.871	X_WP:	0.000	Y_WP:	0.000	Y_WP:	0.500	X:	-0.230	Y:	-0.438	Z:	0.968	yaw:	-107.216	yaw rate:	32.460	Roll:	20.677	Pitch:	-6.877	Yaw:	-144.203	Thrust:	0.000
Time:	3.682	Roll Set Point:	-0.258	Pitch Set Point:	0.539	Yaw Set Point:	1.859	X_WP:	0.000	Y_WP:	0.000	Y_WP:	0.500	X:	-0.232	Y:	-0.442	Z:	0.969	yaw:	-106.503	yaw rate:	71.323	Roll:	20.481	Pitch:	-12.300	Yaw:	-133.981	Thrust:	0.000
Time:	3.694	Roll Set Point:	-0.260	Pitch Set Point:	0.547	Yaw Set Point:	1.852	X_WP:	0.000	Y_WP:	0.000	Y_WP:	0.500	X:	-0.233	Y:	-0.447	Z:	0.970	yaw:	-106.103	yaw rate:	39.932	Roll:	20.549	Pitch:	-8.410	Yaw:	-140.878	Thrust:	0.000
Time:	3.705	Roll Set Point:	-0.263	Pitch Set Point:	0.553	Yaw Set Point:	1.847	X_WP:	0.000	Y_WP:	0.000	Y_WP:	0.500	X:	-0.235	Y:	-0.451	Z:	0.970	yaw:	-105.842	yaw rate:	26.173	Roll:	20.784	Pitch:	-6.431	Yaw:	-143.774	Thrust:	0.000
Time:	3.716	Roll Set Point:	-0.268	Pitch Set Point:	0.560	Yaw Set Point:	1.848	X_WP:	0.000	Y_WP:	0.000	Y_WP:	0.500	X:	-0.237	Y:	-0.457	Z:	0.972	yaw:	-105.873	yaw rate:	-3.121	Roll:	25.639	Pitch:	-2.842	Yaw:	-150.773	Thrust:	0.000
Time:	3.727	Roll Set Point:	-0.270	Pitch Set Point:	0.566	Yaw Set Point:	1.843	X_WP:	0.000	Y_WP:	0.000	Y_WP:	0.500	X:	-0.238	Y:	-0.461	Z:	0.972	yaw:	-105.587	yaw rate:	28.584	Roll:	20.873	Pitch:	-6.983	Yaw:	-142.847	Thrust:	0.000
Time:	3.738	Roll Set Point:	-0.273	Pitch Set Point:	0.573	Yaw Set Point:	1.839	X_WP:	0.000	Y_WP:	0.000	Y_WP:	0.500	X:	-0.239	Y:	-0.465	Z:	0.973	yaw:	-105.350	yaw rate:	23.668	Roll:	21.127	Pitch:	-6.478	Yaw:	-143.684	Thrust:	0.000
Time:	3.749	Roll Set Point:	-0.275	Pitch Set Point:	0.580	Yaw Set Point:	1.833	X_WP:	0.000	Y_WP:	0.000	Y_WP:	0.500	X:	-0.240	Y:	-0.469	Z:	0.974	yaw:	-105.033	yaw rate:	31.673	Roll:	20.929	Pitch:	-7.708	Yaw:	-141.343	Thrust:	0.000
Time:	3.760	Roll Set Point:	-0.278	Pitch Set Point:	0.585	Yaw Set Point:	1.832	X_WP:	0.000	Y_WP:	0.000	Y_WP:	0.500	X:	-0.242	Y:	-0.473	Z:	0.974	yaw:	-104.954	yaw rate:	7.994	Roll:	21.701	Pitch:	-4.479	Yaw:	-146.851	Thrust:	0.000
Time:	3.771	Roll Set Point:	-0.281	Pitch Set Point:	0.596	Yaw Set Point:	1.822	X_WP:	0.000	Y_WP:	0.000	Y_WP:	0.500	X:	-0.243	Y:	-0.479	Z:	0.975	yaw:	-104.400	yaw rate:	55.386	Roll:	23.400	Pitch:	-11.327	Yaw:	-134.828	Thrust:	0.000
Time:	3.782	Roll Set Point:	-0.284	Pitch Set Point:	0.600	Yaw Set Point:	1.823	X_WP:	0.000	Y_WP:	0.000	Y_WP:	0.500	X:	-0.245	Y:	-0.483	Z:	0.976	yaw:	-104.424	yaw rate:	-2.432	Roll:	22.293	Pitch:	-3.241	Yaw:	-148.587	Thrust:	0.000
Time:	3.794	Roll Set Point:	-0.287	Pitch Set Point:	0.602	Yaw Set Point:	1.825	X_WP:	0.000	Y_WP:	0.000	Y_WP:	0.500	X:	-0.245	Y:	-0.487	Z:	0.977	yaw:	-104.549	yaw rate:	-12.505	Roll:	21.475	Pitch:	-1.507	Yaw:	-151.105	Thrust:	0.000
Time:	3.805	Roll Set Point:	-0.290	Pitch Set Point:	0.609	Yaw Set Point:	1.819	X_WP:	0.000	Y_WP:	0.000	Y_WP:	0.500	X:	-0.247	Y:	-0.491	Z:	0.977	yaw:	-104.234	yaw rate:	31.463	Roll:	21.406	Pitch:	-8.038	Yaw:	-140.277	Thrust:	0.000
Time:	3.816	Roll Set Point:	-0.294	Pitch Set Point:	0.617	Yaw Set Point:	1.817	X_WP:	0.000	Y_WP:	0.000	Y_WP:	0.500	X:	-0.248	Y:	-0.497	Z:	0.978	yaw:	-104.087	yaw rate:	14.706	Roll:	24.944	Pitch:	-5.751	Yaw:	-144.282	Thrust:	0.000
Time:	3.828	Roll Set Point:	-0.298	Pitch Set Point:	0.633	Yaw Set Point:	1.802	X_WP:	0.000	Y_WP:	0.000	Y_WP:	0.500	X:	-0.251	Y:	-0.505	Z:	0.980	yaw:	-103.246	yaw rate:	33.598	Roll:	25.834	Pitch:	-15.287	Yaw:	-128.215	Thrust:	0.000
Time:	3.839	Roll Set Point:	-0.298	Pitch Set Point:	0.633	Yaw Set Point:	1.802	X_WP:	0.000	Y_WP:	0.000	Y_WP:	0.500	X:	-0.251	Y:	-0.505	Z:	0.980	yaw:	-103.246	yaw rate:	33.598	Roll:	16.335	Pitch:	-3.639	Yaw:	-146.369	Thrust:	0.000
Time:	3.850	Roll Set Point:	-0.302	Pitch Set Point:	0.644	Yaw Set Point:	1.794	X_WP:	0.000	Y_WP:	0.000	Y_WP:	0.500	X:	-0.252	Y:	-0.511	Z:	0.980	yaw:	-102.796	yaw rate:	44.943	Roll:	24.743	Pitch:	-10.641	Yaw:	-135.043	Thrust:	0.000
Time:	3.861	Roll Set Point:	-0.304	Pitch Set Point:	0.652	Yaw Set Point:	1.787	X_WP:	0.000	Y_WP:	0.000	Y_WP:	0.500	X:	-0.253	Y:	-0.515	Z:	0.981	yaw:	-102.403	yaw rate:	39.318	Roll:	21.648	Pitch:	-10.025	Yaw:	-135.878	Thrust:	0.000
Time:	3.872	Roll Set Point:	-0.305	Pitch Set Point:	0.663	Yaw Set Point:	1.775	X_WP:	0.000	Y_WP:	0.000	Y_WP:	0.500	X:	-0.255	Y:	-0.519	Z:	0.982	yaw:	-101.705	yaw rate:	69.836	Roll:	20.078	Pitch:	-15.415	Yaw:	-127.645	Thrust:	0.000
Time:	3.883	Roll Set Point:	-0.308	Pitch Set Point:	0.667	Yaw Set Point:	1.775	X_WP:	0.000	Y_WP:	0.000	Y_WP:	0.500	X:	-0.255	Y:	-0.523	Z:	0.982	yaw:	-101.685	yaw rate:	1.964	Roll:	22.491	Pitch:	-4.275	Yaw:	-143.719	Thrust:	0.000
Time:	3.894	Roll Set Point:	-0.310	Pitch Set Point:	0.676	Yaw Set Point:	1.767	X_WP:	0.000	Y_WP:	0.000	Y_WP:	0.500	X:	-0.257	Y:	-0.527	Z:	0.983	yaw:	-101.242	yaw rate:	44.278	Roll:	22.283	Pitch:	-12.182	Yaw:	-133.057	Thrust:	0.000
Time:	3.906	Roll Set Point:	-0.313	Pitch Set Point:	0.685	Yaw Set Point:	1.762	X_WP:	0.000	Y_WP:	0.000	Y_WP:	0.500	X:	-0.259	Y:	-0.532	Z:	0.984	yaw:	-100.964	yaw rate:	27.869	Roll:	24.140	Pitch:	-9.843	Yaw:	-136.566	Thrust:	0.000
Time:	3.917	Roll Set Point:	-0.316	Pitch Set Point:	0.690	Yaw Set Point:	1.761	X_WP:	0.000	Y_WP:	0.000	Y_WP:	0.500	X:	-0.260	Y:	-0.536	Z:	0.985	yaw:	-100.881	yaw rate:	8.271	Roll:	22.981	Pitch:	-6.145	Yaw:	-141.096	Thrust:	0.000
Time:	3.929	Roll Set Point:	-0.318	Pitch Set Point:	0.695	Yaw Set Point:	1.759	X_WP:	0.000	Y_WP:	0.000	Y_WP:	0.500	X:	-0.261	Y:	-0.540	Z:	0.986	yaw:	-100.766	yaw rate:	11.457	Roll:	22.156	Pitch:	-6.680	Yaw:	-140.601	Thrust:	0.000
Time:	3.940	Roll Set Point:	-0.321	Pitch Set Point:	0.705	Yaw Set Point:	1.753	X_WP:	0.000	Y_WP:	0.000	Y_WP:	0.500	X:	-0.263	Y:	-0.545	Z:	0.987	yaw:	-100.418	yaw rate:	34.814	Roll:	24.428	Pitch:	-11.161	Yaw:	-134.174	Thrust:	0.000
Time:	3.951	Roll Set Point:	-0.321	Pitch Set Point:	0.714	Yaw Set Point:	1.743	X_WP:	0.000	Y_WP:	0.000	Y_WP:	0.500	X:	-0.264	Y:	-0.548	Z:	0.988	yaw:	-99.878	yaw rate:	53.997	Roll:	20.197	Pitch:	-14.657	Yaw:	-128.850	Thrust:	0.000
Time:	3.962	Roll Set Point:	-0.324	Pitch Set Point:	0.718	Yaw Set Point:	1.743	X_WP:	0.000	Y_WP:	0.000	Y_WP:	0.500	X:	-0.265	Y:	-0.552	Z:	0.988	yaw:	-99.862	yaw rate:	1.615	Roll:	23.257	Pitch:	-4.984	Yaw:	-141.257	Thrust:	0.000
Time:	3.973	Roll Set Point:	-0.325	Pitch Set Point:	0.729	Yaw Set Point:	1.732	X_WP:	0.000	Y_WP:	0.000	Y_WP:	0.500	X:	-0.266	Y:	-0.556	Z:	0.989	yaw:	-99.246	yaw rate:	61.648	Roll:	20.419	Pitch:	-15.795	Yaw:	-126.145	Thrust:	0.000
Time:	3.984	Roll Set Point:	-0.328	Pitch Set Point:	0.730	Yaw Set Point:	1.737	X_WP:	0.000	Y_WP:	0.000	Y_WP:	0.500	X:	-0.267	Y:	-0.559	Z:	0.990	yaw:	-99.515	yaw rate:	-26.879	Roll:	24.602	Pitch:	-1.509	Yaw:	-147.534	Thrust:	0.000
Time:	3.995	Roll Set Point:	-0.331	Pitch Set Point:	0.735	Yaw Set Point:	1.736	X_WP:	0.000	Y_WP:	0.000	Y_WP:	0.500	X:	-0.268	Y:	-0.563	Z:	0.991	yaw:	-99.439	yaw rate:	7.600	Roll:	23.283	Pitch:	-6.587	Yaw:	-139.244	Thrust:	0.000
Time:	4.006	Roll Set Point:	-0.332	Pitch Set Point:	0.749	Yaw Set Point:	1.722	X_WP:	0.000	Y_WP:	0.000	Y_WP:	0.500	X:	-0.270	Y:	-0.568	Z:	0.992	yaw:	-98.668	yaw rate:	77.010	Roll:	22.226	Pitch:	-19.471	Yaw:	-121.693	Thrust:	0.000
Time:	4.017	Roll Set Point:	-0.335	Pitch Set Point:	0.749	Yaw Set Point:	1.729	X_WP:	0.000	Y_WP:	0.000	Y_WP:	0.500	X:	-0.271	Y:	-0.571	Z:	0.993	yaw:	-99.043	yaw rate:	-37.433	Roll:	24.490	Pitch:	-0.413	Yaw:	-149.381	Thrust:	0.000
Time:	4.028	Roll Set Point:	-0.337	Pitch Set Point:	0.754	Yaw Set Point:	1.727	X_WP:	0.000	Y_WP:	0.000	Y_WP:	0.500	X:	-0.272	Y:	-0.574	Z:	0.994	yaw:	-98.943	yaw rate:	9.942	Roll:	23.134	Pitch:	-7.404	Yaw:	-137.997	Thrust:	0.000
Time:	4.039	Roll Set Point:	-0.341	Pitch Set Point:	0.755	Yaw Set Point:	1.731	X_WP:	0.000	Y_WP:	0.000	Y_WP:	0.500	X:	-0.273	Y:	-0.577	Z:	0.995	yaw:	-99.185	yaw rate:	-24.166	Roll:	24.745	Pitch:	-1.515	Yaw:	-146.430	Thrust:	0.000
Time:	4.050	Roll Set Point:	-0.342	Pitch Set Point:	0.767	Yaw Set Point:	1.721	X_WP:	0.000	Y_WP:	0.000	Y_WP:	0.500	X:	-0.275	Y:	-0.582	Z:	0.996	yaw:	-98.623	yaw rate:	56.218	Roll:	23.159	Pitch:	-16.658	Yaw:	-126.562	Thrust:	0.000
Time:	4.061	Roll Set Point:	-0.343	Pitch Set Point:	0.767	Yaw Set Point:	1.724	X_WP:	0.000	Y_WP:	0.000	Y_WP:	0.500	X:	-0.276	Y:	-0.584	Z:	0.997	yaw:	-98.799	yaw rate:	-17.618	Roll:	21.483	Pitch:	-2.840	Yaw:	-144.341	Thrust:	0.000
Time:	4.072	Roll Set Point:	-0.342	Pitch Set Point:	0.785	Yaw Set Point:	1.704	X_WP:	0.000	Y_WP:	0.000	Y_WP:	0.500	X:	-0.278	Y:	-0.588	Z:	0.998	yaw:	-97.618	yaw rate:	118.137	Roll:	20.077	Pitch:	-27.450	Yaw:	-110.528	Thrust:	0.000
Time:	4.084	Roll Set Point:	-0.346	Pitch Set Point:	0.785	Yaw Set Point:	1.711	X_WP:	0.000	Y_WP:	0.000	Y_WP:	0.500	X:	-0.278	Y:	-0.592	Z:	0.999	yaw:	-98.025	yaw rate:	-40.767	Roll:	25.202	Pitch:	0.213	Yaw:	-148.146	Thrust:	0.000
Time:	4.095	Roll Set Point:	-0.349	Pitch Set Point:	0.791	Yaw Set Point:	1.710	X_WP:	0.000	Y_WP:	0.000	Y_WP:	0.500	X:	-0.280	Y:	-0.596	Z:	1.000	yaw:	-97.951	yaw rate:	7.440	Roll:	25.538	Pitch:	-8.870	Yaw:	-137.205	Thrust:	0.000
Time:	4.106	Roll Set Point:	-0.351	Pitch Set Point:	0.794	Yaw Set Point:	1.711	X_WP:	0.000	Y_WP:	0.000	Y_WP:	0.500	X:	-0.281	Y:	-0.599	Z:	1.001	yaw:	-98.024	yaw rate:	-7.272	Roll:	24.136	Pitch:	-5.356	Yaw:	-140.799	Thrust:	0.000
Time:	4.117	Roll Set Point:	-0.353	Pitch Set Point:	0.800	Yaw Set Point:	1.708	X_WP:	0.000	Y_WP:	0.000	Y_WP:	0.500	X:	-0.283	Y:	-0.602	Z:	1.002	yaw:	-97.853	yaw rate:	17.097	Roll:	22.712	Pitch:	-9.915	Yaw:	-134.776	Thrust:	0.000
Time:	4.128	Roll Set Point:	-0.351	Pitch Set Point:	0.815	Yaw Set Point:	1.689	X_WP:	0.000	Y_WP:	0.000	Y_WP:	0.500	X:	-0.283	Y:	-0.605	Z:	1.003	yaw:	-96.780	yaw rate:	107.235	Roll:	18.166	Pitch:	-25.228	Yaw:	-111.882	Thrust:	0.000
Time:	4.139	Roll Set Point:	-0.355	Pitch Set Point:	0.813	Yaw Set Point:	1.698	X_WP:	0.000	Y_WP:	0.000	Y_WP:	0.500	X:	-0.285	Y:	-0.608	Z:	1.004	yaw:	-97.297	yaw rate:	-51.714	Roll:	26.280	Pitch:	1.760	Yaw:	-150.332	Thrust:	0.000
Time:	4.150	Roll Set Point:	-0.355	Pitch Set Point:	0.824	Yaw Set Point:	1.686	X_WP:	0.000	Y_WP:	0.000	Y_WP:	0.500	X:	-0.286	Y:	-0.611	Z:	1.004	yaw:	-96.627	yaw rate:	67.039	Roll:	20.068	Pitch:	-18.807	Yaw:	-121.197	Thrust:	0.000
Time:	4.161	Roll Set Point:	-0.358	Pitch Set Point:	0.828	Yaw Set Point:	1.689	X_WP:	0.000	Y_WP:	0.000	Y_WP:	0.500	X:	-0.287	Y:	-0.615	Z:	1.005	yaw:	-96.800	yaw rate:	-17.338	Roll:	26.675	Pitch:	-5.073	Yaw:	-141.472	Thrust:	0.000
Time:	4.172	Roll Set Point:	-0.358	Pitch Set Point:	0.836	Yaw Set Point:	1.683	X_WP:	0.000	Y_WP:	0.000	Y_WP:	0.500	X:	-0.288	Y:	-0.618	Z:	1.006	yaw:	-96.415	yaw rate:	38.498	Roll:	21.511	Pitch:	-13.919	Yaw:	-127.689	Thrust:	0.000
Time:	4.183	Roll Set Point:	-0.358	Pitch Set Point:	0.846	Yaw Set Point:	1.672	X_WP:	0.000	Y_WP:	0.000	Y_WP:	0.500	X:	-0.289	Y:	-0.621	Z:	1.006	yaw:	-95.801	yaw rate:	61.475	Roll:	20.479	Pitch:	-18.095	Yaw:	-121.376	Thrust:	0.000
Time:	4.194	Roll Set Point:	-0.358	Pitch Set Point:	0.856	Yaw Set Point:	1.663	X_WP:	0.000	Y_WP:	0.000	Y_WP:	0.500	X:	-0.290	Y:	-0.624	Z:	1.006	yaw:	-95.283	yaw rate:	51.776	Roll:	20.381	Pitch:	-17.143	Yaw:	-122.956	Thrust:	0.000
Time:	4.205	Roll Set Point:	-0.360	Pitch Set Point:	0.863	Yaw Set Point:	1.659	X_WP:	0.000	Y_WP:	0.000	Y_WP:	0.500	X:	-0.292	Y:	-0.628	Z:	1.007	yaw:	-95.068	yaw rate:	21.482	Roll:	24.049	Pitch:	-12.491	Yaw:	-129.847	Thrust:	0.000
Time:	4.216	Roll Set Point:	-0.362	Pitch Set Point:	0.866	Yaw Set Point:	1.660	X_WP:	0.000	Y_WP:	0.000	Y_WP:	0.500	X:	-0.293	Y:	-0.631	Z:	1.008	yaw:	-95.117	yaw rate:	-4.874	Roll:	24.056	Pitch:	-7.011	Yaw:	-136.171	Thrust:	0.000
Time:	4.227	Roll Set Point:	-0.362	Pitch Set Point:	0.872	Yaw Set Point:	1.656	X_WP:	0.000	Y_WP:	0.000	Y_WP:	0.500	X:	-0.294	Y:	-0.633	Z:	1.008	yaw:	-94.880	yaw rate:	23.700	Roll:	21.735	Pitch:	-12.848	Yaw:	-129.066	Thrust:	0.000
Time:	4.238	Roll Set Point:	-0.363	Pitch Set Point:	0.875	Yaw Set Point:	1.656	X_WP:	0.000	Y_WP:	0.000	Y_WP:	0.500	X:	-0.295	Y:	-0.636	Z:	1.009	yaw:	-94.868	yaw rate:	1.235	Roll:	23.408	Pitch:	-8.594	Yaw:	-134.370	Thrust:	0.000
Time:	4.249	Roll Set Point:	-0.364	Pitch Set Point:	0.881	Yaw Set Point:	1.653	X_WP:	0.000	Y_WP:	0.000	Y_WP:	0.500	X:	-0.296	Y:	-0.638	Z:	1.009	yaw:	-94.704	yaw rate:	16.370	Roll:	22.646	Pitch:	-11.366	Yaw:	-130.553	Thrust:	0.000
Time:	4.261	Roll Set Point:	-0.368	Pitch Set Point:	0.880	Yaw Set Point:	1.661	X_WP:	0.000	Y_WP:	0.000	Y_WP:	0.500	X:	-0.298	Y:	-0.642	Z:	1.010	yaw:	-95.164	yaw rate:	-46.048	Roll:	28.189	Pitch:	-0.759	Yaw:	-146.016	Thrust:	0.000
Time:	4.272	Roll Set Point:	-0.366	Pitch Set Point:	0.894	Yaw Set Point:	1.646	X_WP:	0.000	Y_WP:	0.000	Y_WP:	0.500	X:	-0.299	Y:	-0.644	Z:	1.010	yaw:	-94.322	yaw rate:	84.213	Roll:	18.695	Pitch:	-24.369	Yaw:	-113.926	Thrust:	0.000
Time:	4.283	Roll Set Point:	-0.371	Pitch Set Point:	0.887	Yaw Set Point:	1.661	X_WP:	0.000	Y_WP:	0.000	Y_WP:	0.500	X:	-0.300	Y:	-0.647	Z:	1.011	yaw:	-95.144	yaw rate:	-82.189	Roll:	28.614	Pitch:	6.217	Yaw:	-154.561	Thrust:	0.000
Time:	4.294	Roll Set Point:	-0.371	Pitch Set Point:	0.897	Yaw Set Point:	1.652	X_WP:	0.000	Y_WP:	0.000	Y_WP:	0.500	X:	-0.301	Y:	-0.649	Z:	1.011	yaw:	-94.654	yaw rate:	48.967	Roll:	21.062	Pitch:	-17.160	Yaw:	-122.745	Thrust:	0.000
Time:	4.305	Roll Set Point:	-0.372	Pitch Set Point:	0.905	Yaw Set Point:	1.647	X_WP:	0.000	Y_WP:	0.000	Y_WP:	0.500	X:	-0.303	Y:	-0.653	Z:	1.011	yaw:	-94.350	yaw rate:	30.483	Roll:	24.007	Pitch:	-14.820	Yaw:	-126.706	Thrust:	0.000
Time:	4.316	Roll Set Point:	-0.372	Pitch Set Point:	0.911	Yaw Set Point:	1.643	X_WP:	0.000	Y_WP:	0.000	Y_WP:	0.500	X:	-0.304	Y:	-0.655	Z:	1.011	yaw:	-94.145	yaw rate:	20.436	Roll:	22.265	Pitch:	-13.489	Yaw:	-128.807	Thrust:	0.000
Time:	4.327	Roll Set Point:	-0.365	Pitch Set Point:	0.937	Yaw Set Point:	1.612	X_WP:	0.000	Y_WP:	0.000	Y_WP:	0.500	X:	-0.306	Y:	-0.659	Z:	1.013	yaw:	-92.356	yaw rate:	178.910	Roll:	12.332	Pitch:	-30.000	Yaw:	-88.694	Thrust:	0.000
Time:	4.338	Roll Set Point:	-0.368	Pitch Set Point:	0.936	Yaw Set Point:	1.619	X_WP:	0.000	Y_WP:	0.000	Y_WP:	0.500	X:	-0.307	Y:	-0.661	Z:	1.013	yaw:	-92.769	yaw rate:	-41.264	Roll:	26.833	Pitch:	-2.475	Yaw:	-141.530	Thrust:	0.000
Time:	4.349	Roll Set Point:	-0.368	Pitch Set Point:	0.941	Yaw Set Point:	1.617	X_WP:	0.000	Y_WP:	0.000	Y_WP:	0.500	X:	-0.309	Y:	-0.663	Z:	1.013	yaw:	-92.672	yaw rate:	9.671	Roll:	22.983	Pitch:	-12.191	Yaw:	-129.305	Thrust:	0.000
Time:	4.360	Roll Set Point:	-0.370	Pitch Set Point:	0.944	Yaw Set Point:	1.618	X_WP:	0.000	Y_WP:	0.000	Y_WP:	0.500	X:	-0.310	Y:	-0.666	Z:	1.013	yaw:	-92.729	yaw rate:	-5.740	Roll:	24.505	Pitch:	-9.180	Yaw:	-133.041	Thrust:	0.000
Time:	4.372	Roll Set Point:	-0.369	Pitch Set Point:	0.956	Yaw Set Point:	1.610	X_WP:	0.000	Y_WP:	0.000	Y_WP:	0.500	X:	-0.313	Y:	-0.670	Z:	1.014	yaw:	-92.238	yaw rate:	49.110	Roll:	22.212	Pitch:	-19.872	Yaw:	-120.509	Thrust:	0.000
Time:	4.383	Roll Set Point:	-0.369	Pitch Set Point:	0.962	Yaw Set Point:	1.606	X_WP:	0.000	Y_WP:	0.000	Y_WP:	0.500	X:	-0.314	Y:	-0.672	Z:	1.014	yaw:	-92.032	yaw rate:	20.618	Roll:	22.364	Pitch:	-14.640	Yaw:	-125.828	Thrust:	0.000
Time:	4.394	Roll Set Point:	-0.366	Pitch Set Point:	0.974	Yaw Set Point:	1.596	X_WP:	0.000	Y_WP:	0.000	Y_WP:	0.500	X:	-0.316	Y:	-0.675	Z:	1.014	yaw:	-91.429	yaw rate:	60.299	Roll:	19.322	Pitch:	-22.646	Yaw:	-115.557	Thrust:	0.000
Time:	4.405	Roll Set Point:	-0.361	Pitch Set Point:	0.994	Yaw Set Point:	1.576	X_WP:	0.000	Y_WP:	0.000	Y_WP:	0.500	X:	-0.319	Y:	-0.678	Z:	1.014	yaw:	-90.273	yaw rate:	115.622	Roll:	16.575	Pitch:	-30.000	Yaw:	-100.731	Thrust:	0.000
Time:	4.416	Roll Set Point:	-0.362	Pitch Set Point:	0.997	Yaw Set Point:	1.577	X_WP:	0.000	Y_WP:	0.000	Y_WP:	0.500	X:	-0.320	Y:	-0.680	Z:	1.014	yaw:	-90.353	yaw rate:	-7.996	Roll:	24.130	Pitch:	-10.689	Yaw:	-130.261	Thrust:	0.000
Time:	4.428	Roll Set Point:	-0.362	Pitch Set Point:	1.002	Yaw Set Point:	1.575	X_WP:	0.000	Y_WP:	0.000	Y_WP:	0.500	X:	-0.322	Y:	-0.683	Z:	1.014	yaw:	-90.245	yaw rate:	10.826	Roll:	22.786	Pitch:	-13.570	Yaw:	-125.964	Thrust:	0.000
Time:	4.439	Roll Set Point:	-0.360	Pitch Set Point:	1.011	Yaw Set Point:	1.567	X_WP:	0.000	Y_WP:	0.000	Y_WP:	0.500	X:	-0.324	Y:	-0.685	Z:	1.014	yaw:	-89.790	yaw rate:	45.503	Roll:	19.601	Pitch:	-20.984	Yaw:	-116.776	Thrust:	0.000
Time:	4.450	Roll Set Point:	-0.360	Pitch Set Point:	1.019	Yaw Set Point:	1.565	X_WP:	0.000	Y_WP:	0.000	Y_WP:	0.500	X:	-0.326	Y:	-0.689	Z:	1.015	yaw:	-89.669	yaw rate:	12.033	Roll:	24.793	Pitch:	-15.721	Yaw:	-124.552	Thrust:	0.000
Time:	4.461	Roll Set Point:	-0.362	Pitch Set Point:	1.020	Yaw Set Point:	1.569	X_WP:	0.000	Y_WP:	0.000	Y_WP:	0.500	X:	-0.328	Y:	-0.691	Z:	1.015	yaw:	-89.897	yaw rate:	-22.810	Roll:	25.474	Pitch:	-8.265	Yaw:	-133.141	Thrust:	0.000
Time:	4.472	Roll Set Point:	-0.359	Pitch Set Point:	1.031	Yaw Set Point:	1.559	X_WP:	0.000	Y_WP:	0.000	Y_WP:	0.500	X:	-0.330	Y:	-0.692	Z:	1.015	yaw:	-89.297	yaw rate:	59.986	Roll:	18.004	Pitch:	-23.972	Yaw:	-112.683	Thrust:	0.000
Time:	4.483	Roll Set Point:	-0.358	Pitch Set Point:	1.037	Yaw Set Point:	1.555	X_WP:	0.000	Y_WP:	0.000	Y_WP:	0.500	X:	-0.331	Y:	-0.694	Z:	1.015	yaw:	-89.080	yaw rate:	21.798	Roll:	21.382	Pitch:	-16.871	Yaw:	-121.486	Thrust:	0.000
Time:	4.494	Roll Set Point:	-0.357	Pitch Set Point:	1.042	Yaw Set Point:	1.553	X_WP:	0.000	Y_WP:	0.000	Y_WP:	0.500	X:	-0.333	Y:	-0.697	Z:	1.015	yaw:	-88.999	yaw rate:	8.057	Roll:	22.862	Pitch:	-14.845	Yaw:	-124.508	Thrust:	0.000
Time:	4.507	Roll Set Point:	-0.355	Pitch Set Point:	1.056	Yaw Set Point:	1.546	X_WP:	0.000	Y_WP:	0.000	Y_WP:	0.500	X:	-0.338	Y:	-0.701	Z:	1.016	yaw:	-88.605	yaw rate:	-0.153	Roll:	23.421	Pitch:	-22.854	Yaw:	-118.412	Thrust:	0.000
Time:	4.518	Roll Set Point:	-0.354	Pitch Set Point:	1.062	Yaw Set Point:	1.544	X_WP:	0.000	Y_WP:	0.000	Y_WP:	0.500	X:	-0.340	Y:	-0.703	Z:	1.016	yaw:	-88.468	yaw rate:	13.676	Roll:	22.320	Pitch:	-16.171	Yaw:	-122.497	Thrust:	0.000
Time:	4.530	Roll Set Point:	-0.354	Pitch Set Point:	1.064	Yaw Set Point:	1.545	X_WP:	0.000	Y_WP:	0.000	Y_WP:	0.500	X:	-0.342	Y:	-0.705	Z:	1.016	yaw:	-88.540	yaw rate:	-7.181	Roll:	23.388	Pitch:	-12.144	Yaw:	-127.592	Thrust:	0.000
Time:	4.541	Roll Set Point:	-0.353	Pitch Set Point:	1.069	Yaw Set Point:	1.543	X_WP:	0.000	Y_WP:	0.000	Y_WP:	0.500	X:	-0.343	Y:	-0.707	Z:	1.016	yaw:	-88.431	yaw rate:	10.933	Roll:	22.171	Pitch:	-15.841	Yaw:	-123.083	Thrust:	0.000
Time:	4.552	Roll Set Point:	-0.351	Pitch Set Point:	1.079	Yaw Set Point:	1.537	X_WP:	0.000	Y_WP:	0.000	Y_WP:	0.500	X:	-0.346	Y:	-0.709	Z:	1.017	yaw:	-88.051	yaw rate:	37.972	Roll:	20.995	Pitch:	-22.310	Yaw:	-116.135	Thrust:	0.000
Time:	4.563	Roll Set Point:	-0.351	Pitch Set Point:	1.083	Yaw Set Point:	1.536	X_WP:	0.000	Y_WP:	0.000	Y_WP:	0.500	X:	-0.348	Y:	-0.711	Z:	1.017	yaw:	-88.003	yaw rate:	4.800	Roll:	22.538	Pitch:	-14.788	Yaw:	-123.942	Thrust:	0.000
Time:	4.574	Roll Set Point:	-0.347	Pitch Set Point:	1.092	Yaw Set Point:	1.528	X_WP:	0.000	Y_WP:	0.000	Y_WP:	0.500	X:	-0.350	Y:	-0.712	Z:	1.017	yaw:	-87.534	yaw rate:	46.887	Roll:	17.706	Pitch:	-23.197	Yaw:	-113.298	Thrust:	0.000
Time:	4.585	Roll Set Point:	-0.348	Pitch Set Point:	1.094	Yaw Set Point:	1.531	X_WP:	0.000	Y_WP:	0.000	Y_WP:	0.500	X:	-0.351	Y:	-0.714	Z:	1.017	yaw:	-87.698	yaw rate:	-16.355	Roll:	24.874	Pitch:	-10.874	Yaw:	-128.537	Thrust:	0.000
Time:	4.596	Roll Set Point:	-0.346	Pitch Set Point:	1.100	Yaw Set Point:	1.526	X_WP:	0.000	Y_WP:	0.000	Y_WP:	0.500	X:	-0.353	Y:	-0.716	Z:	1.018	yaw:	-87.428	yaw rate:	26.931	Roll:	20.549	Pitch:	-19.353	Yaw:	-117.886	Thrust:	0.000
Time:	4.607	Roll Set Point:	-0.345	Pitch Set Point:	1.106	Yaw Set Point:	1.524	X_WP:	0.000	Y_WP:	0.000	Y_WP:	0.500	X:	-0.356	Y:	-0.718	Z:	1.018	yaw:	-87.347	yaw rate:	8.165	Roll:	22.897	Pitch:	-17.676	Yaw:	-122.227	Thrust:	0.000
Time:	4.618	Roll Set Point:	-0.344	Pitch Set Point:	1.111	Yaw Set Point:	1.523	X_WP:	0.000	Y_WP:	0.000	Y_WP:	0.500	X:	-0.358	Y:	-0.719	Z:	1.018	yaw:	-87.244	yaw rate:	10.307	Roll:	21.935	Pitch:	-16.720	Yaw:	-121.574	Thrust:	0.000
Time:	4.629	Roll Set Point:	-0.342	Pitch Set Point:	1.116	Yaw Set Point:	1.520	X_WP:	0.000	Y_WP:	0.000	Y_WP:	0.500	X:	-0.359	Y:	-0.721	Z:	1.018	yaw:	-87.114	yaw rate:	12.970	Roll:	21.621	Pitch:	-17.079	Yaw:	-120.804	Thrust:	0.000
Time:	4.640	Roll Set Point:	-0.342	Pitch Set Point:	1.121	Yaw Set Point:	1.519	X_WP:	0.000	Y_WP:	0.000	Y_WP:	0.500	X:	-0.361	Y:	-0.722	Z:	1.019	yaw:	-87.024	yaw rate:	9.018	Roll:	22.233	Pitch:	-16.389	Yaw:	-121.574	Thrust:	0.000
Time:	4.651	Roll Set Point:	-0.340	Pitch Set Point:	1.126	Yaw Set Point:	1.516	X_WP:	0.000	Y_WP:	0.000	Y_WP:	0.500	X:	-0.363	Y:	-0.724	Z:	1.019	yaw:	-86.848	yaw rate:	17.608	Roll:	21.352	Pitch:	-18.465	Yaw:	-119.288	Thrust:	0.000
Time:	4.662	Roll Set Point:	-0.339	Pitch Set Point:	1.133	Yaw Set Point:	1.514	X_WP:	0.000	Y_WP:	0.000	Y_WP:	0.500	X:	-0.366	Y:	-0.726	Z:	1.019	yaw:	-86.737	yaw rate:	11.095	Roll:	22.748	Pitch:	-18.447	Yaw:	-120.682	Thrust:	0.000
Time:	4.673	Roll Set Point:	-0.338	Pitch Set Point:	1.138	Yaw Set Point:	1.511	X_WP:	0.000	Y_WP:	0.000	Y_WP:	0.500	X:	-0.367	Y:	-0.728	Z:	1.019	yaw:	-86.599	yaw rate:	13.784	Roll:	21.895	Pitch:	-17.569	Yaw:	-119.847	Thrust:	0.000
Time:	4.685	Roll Set Point:	-0.336	Pitch Set Point:	1.145	Yaw Set Point:	1.507	X_WP:	0.000	Y_WP:	0.000	Y_WP:	0.500	X:	-0.369	Y:	-0.730	Z:	1.019	yaw:	-86.342	yaw rate:	25.701	Roll:	20.700	Pitch:	-19.924	Yaw:	-116.661	Thrust:	0.000
Time:	4.696	Roll Set Point:	-0.334	Pitch Set Point:	1.152	Yaw Set Point:	1.501	X_WP:	0.000	Y_WP:	0.000	Y_WP:	0.500	X:	-0.370	Y:	-0.732	Z:	1.019	yaw:	-85.994	yaw rate:	34.837	Roll:	19.281	Pitch:	-21.644	Yaw:	-114.012	Thrust:	0.000
Time:	4.707	Roll Set Point:	-0.335	Pitch Set Point:	1.154	Yaw Set Point:	1.503	X_WP:	0.000	Y_WP:	0.000	Y_WP:	0.500	X:	-0.372	Y:	-0.733	Z:	1.019	yaw:	-86.141	yaw rate:	-14.724	Roll:	24.881	Pitch:	-12.450	Yaw:	-125.979	Thrust:	0.000
Time:	4.718	Roll Set Point:	-0.333	Pitch Set Point:	1.161	Yaw Set Point:	1.499	X_WP:	0.000	Y_WP:	0.000	Y_WP:	0.500	X:	-0.374	Y:	-0.736	Z:	1.019	yaw:	-85.911	yaw rate:	23.012	Roll:	22.145	Pitch:	-20.710	Yaw:	-116.710	Thrust:	0.000
Time:	4.729	Roll Set Point:	-0.331	Pitch Set Point:	1.169	Yaw Set Point:	1.494	X_WP:	0.000	Y_WP:	0.000	Y_WP:	0.500	X:	-0.375	Y:	-0.738	Z:	1.019	yaw:	-85.574	yaw rate:	33.657	Roll:	19.835	Pitch:	-21.640	Yaw:	-113.683	Thrust:	0.000
Time:	4.740	Roll Set Point:	-0.331	Pitch Set Point:	1.173	Yaw Set Point:	1.493	X_WP:	0.000	Y_WP:	0.000	Y_WP:	0.500	X:	-0.377	Y:	-0.740	Z:	1.018	yaw:	-85.522	yaw rate:	5.214	Roll:	22.950	Pitch:	-16.406	Yaw:	-120.379	Thrust:	0.000
Time:	4.751	Roll Set Point:	-0.330	Pitch Set Point:	1.178	Yaw Set Point:	1.490	X_WP:	0.000	Y_WP:	0.000	Y_WP:	0.500	X:	-0.378	Y:	-0.741	Z:	1.018	yaw:	-85.376	yaw rate:	14.619	Roll:	21.891	Pitch:	-18.236	Yaw:	-117.943	Thrust:	0.000
Time:	4.762	Roll Set Point:	-0.330	Pitch Set Point:	1.186	Yaw Set Point:	1.486	X_WP:	0.000	Y_WP:	0.000	Y_WP:	0.500	X:	-0.380	Y:	-0.744	Z:	1.018	yaw:	-85.170	yaw rate:	20.598	Roll:	22.930	Pitch:	-20.094	Yaw:	-116.236	Thrust:	0.000
Time:	4.773	Roll Set Point:	-0.326	Pitch Set Point:	1.196	Yaw Set Point:	1.477	X_WP:	0.000	Y_WP:	0.000	Y_WP:	0.500	X:	-0.382	Y:	-0.746	Z:	1.018	yaw:	-84.647	yaw rate:	52.321	Roll:	17.154	Pitch:	-26.186	Yaw:	-107.976	Thrust:	0.000
Time:	4.784	Roll Set Point:	-0.325	Pitch Set Point:	1.201	Yaw Set Point:	1.474	X_WP:	0.000	Y_WP:	0.000	Y_WP:	0.500	X:	-0.383	Y:	-0.748	Z:	1.018	yaw:	-84.482	yaw rate:	16.419	Roll:	21.624	Pitch:	-18.746	Yaw:	-116.268	Thrust:	0.000
Time:	4.795	Roll Set Point:	-0.323	Pitch Set Point:	1.208	Yaw Set Point:	1.469	X_WP:	0.000	Y_WP:	0.000	Y_WP:	0.500	X:	-0.384	Y:	-0.750	Z:	1.018	yaw:	-84.167	yaw rate:	31.503	Roll:	20.063	Pitch:	-21.776	Yaw:	-112.279	Thrust:	0.000
Time:	4.806	Roll Set Point:	-0.322	Pitch Set Point:	1.214	Yaw Set Point:	1.466	X_WP:	0.000	Y_WP:	0.000	Y_WP:	0.500	X:	-0.385	Y:	-0.752	Z:	1.018	yaw:	-83.977	yaw rate:	18.988	Roll:	20.998	Pitch:	-19.858	Yaw:	-114.932	Thrust:	0.000
Time:	4.817	Roll Set Point:	-0.321	Pitch Set Point:	1.220	Yaw Set Point:	1.461	X_WP:	0.000	Y_WP:	0.000	Y_WP:	0.500	X:	-0.386	Y:	-0.754	Z:	1.018	yaw:	-83.727	yaw rate:	25.087	Roll:	20.694	Pitch:	-20.706	Yaw:	-113.172	Thrust:	0.000
Time:	4.828	Roll Set Point:	-0.320	Pitch Set Point:	1.228	Yaw Set Point:	1.458	X_WP:	0.000	Y_WP:	0.000	Y_WP:	0.500	X:	-0.388	Y:	-0.757	Z:	1.018	yaw:	-83.524	yaw rate:	20.303	Roll:	22.185	Pitch:	-21.344	Yaw:	-114.011	Thrust:	0.000
Time:	4.839	Roll Set Point:	-0.317	Pitch Set Point:	1.235	Yaw Set Point:	1.452	X_WP:	0.000	Y_WP:	0.000	Y_WP:	0.500	X:	-0.390	Y:	-0.758	Z:	1.019	yaw:	-83.200	yaw rate:	32.368	Roll:	19.528	Pitch:	-22.700	Yaw:	-110.687	Thrust:	0.000
Time:	4.851	Roll Set Point:	-0.316	Pitch Set Point:	1.240	Yaw Set Point:	1.449	X_WP:	0.000	Y_WP:	0.000	Y_WP:	0.500	X:	-0.391	Y:	-0.760	Z:	1.019	yaw:	-83.049	yaw rate:	15.135	Roll:	21.452	Pitch:	-19.241	Yaw:	-115.060	Thrust:	0.000
Time:	4.862	Roll Set Point:	-0.316	Pitch Set Point:	1.244	Yaw Set Point:	1.449	X_WP:	0.000	Y_WP:	0.000	Y_WP:	0.500	X:	-0.392	Y:	-0.762	Z:	1.019	yaw:	-83.001	yaw rate:	4.706	Roll:	22.712	Pitch:	-17.572	Yaw:	-116.981	Thrust:	0.000
Time:	4.873	Roll Set Point:	-0.313	Pitch Set Point:	1.254	Yaw Set Point:	1.443	X_WP:	0.000	Y_WP:	0.000	Y_WP:	0.500	X:	-0.395	Y:	-0.765	Z:	1.020	yaw:	-82.671	yaw rate:	33.042	Roll:	20.338	Pitch:	-24.978	Yaw:	-109.818	Thrust:	0.000
Time:	4.884	Roll Set Point:	-0.312	Pitch Set Point:	1.259	Yaw Set Point:	1.440	X_WP:	0.000	Y_WP:	0.000	Y_WP:	0.500	X:	-0.396	Y:	-0.766	Z:	1.020	yaw:	-82.510	yaw rate:	16.148	Roll:	20.864	Pitch:	-20.245	Yaw:	-113.578	Thrust:	0.000
Time:	4.895	Roll Set Point:	-0.312	Pitch Set Point:	1.263	Yaw Set Point:	1.439	X_WP:	0.000	Y_WP:	0.000	Y_WP:	0.500	X:	-0.398	Y:	-0.768	Z:	1.021	yaw:	-82.461	yaw rate:	4.852	Roll:	22.692	Pitch:	-18.536	Yaw:	-116.191	Thrust:	0.000
Time:	4.906	Roll Set Point:	-0.308	Pitch Set Point:	1.270	Yaw Set Point:	1.433	X_WP:	0.000	Y_WP:	0.000	Y_WP:	0.500	X:	-0.399	Y:	-0.769	Z:	1.021	yaw:	-82.124	yaw rate:	33.689	Roll:	18.413	Pitch:	-24.133	Yaw:	-108.879	Thrust:	0.000
Time:	4.917	Roll Set Point:	-0.307	Pitch Set Point:	1.275	Yaw Set Point:	1.432	X_WP:	0.000	Y_WP:	0.000	Y_WP:	0.500	X:	-0.401	Y:	-0.771	Z:	1.021	yaw:	-82.043	yaw rate:	8.167	Roll:	21.802	Pitch:	-19.229	Yaw:	-114.819	Thrust:	0.000
Time:	4.928	Roll Set Point:	-0.305	Pitch Set Point:	1.282	Yaw Set Point:	1.429	X_WP:	0.000	Y_WP:	0.000	Y_WP:	0.500	X:	-0.403	Y:	-0.773	Z:	1.021	yaw:	-81.862	yaw rate:	18.061	Roll:	21.453	Pitch:	-22.715	Yaw:	-112.216	Thrust:	0.000
Time:	4.939	Roll Set Point:	-0.304	Pitch Set Point:	1.286	Yaw Set Point:	1.428	X_WP:	0.000	Y_WP:	0.000	Y_WP:	0.500	X:	-0.405	Y:	-0.775	Z:	1.022	yaw:	-81.791	yaw rate:	7.113	Roll:	21.771	Pitch:	-19.457	Yaw:	-114.712	Thrust:	0.000
Time:	4.950	Roll Set Point:	-0.303	Pitch Set Point:	1.290	Yaw Set Point:	1.426	X_WP:	0.000	Y_WP:	0.000	Y_WP:	0.500	X:	-0.406	Y:	-0.776	Z:	1.022	yaw:	-81.686	yaw rate:	10.497	Roll:	21.327	Pitch:	-20.105	Yaw:	-113.780	Thrust:	0.000
