Time:	2.078	Roll Set Point:	0.059	Pitch Set Point:	-0.192	Yaw Set Point:	0.510	X_WP:	0.000	Y_WP:	0.000	Y_WP:	0.500	X:	-0.005	Y:	0.104	Z:	0.045	yaw:	-29.247	yaw rate:	1.021	Roll:	-1.586	Pitch:	2.563	Yaw:	-40.836	Thrust:	25.006
Time:	2.094	Roll Set Point:	0.059	Pitch Set Point:	-0.192	Yaw Set Point:	0.511	X_WP:	0.000	Y_WP:	0.000	Y_WP:	0.500	X:	-0.005	Y:	0.104	Z:	0.045	yaw:	-29.271	yaw rate:	-2.374	Roll:	-1.631	Pitch:	2.553	Yaw:	-41.427	Thrust:	26.028
Time:	2.109	Roll Set Point:	0.059	Pitch Set Point:	-0.192	Yaw Set Point:	0.511	X_WP:	0.000	Y_WP:	0.000	Y_WP:	0.500	X:	-0.005	Y:	0.104	Z:	0.045	yaw:	-29.277	yaw rate:	-0.611	Roll:	-1.626	Pitch:	2.565	Yaw:	-41.300	Thrust:	26.650
Time:	2.125	Roll Set Point:	0.059	Pitch Set Point:	-0.192	Yaw Set Point:	0.511	X_WP:	0.000	Y_WP:	0.000	Y_WP:	0.500	X:	-0.005	Y:	0.104	Z:	0.045	yaw:	-29.277	yaw rate:	-0.611	Roll:	-1.595	Pitch:	2.573	Yaw:	-41.356	Thrust:	27.561
Time:	2.141	Roll Set Point:	0.059	Pitch Set Point:	-0.192	Yaw Set Point:	0.511	X_WP:	0.000	Y_WP:	0.000	Y_WP:	0.500	X:	-0.005	Y:	0.104	Z:	0.045	yaw:	-29.254	yaw rate:	-2.433	Roll:	-1.522	Pitch:	2.617	Yaw:	-41.097	Thrust:	28.514
Time:	2.156	Roll Set Point:	0.059	Pitch Set Point:	-0.192	Yaw Set Point:	0.510	X_WP:	0.000	Y_WP:	0.000	Y_WP:	0.500	X:	-0.005	Y:	0.104	Z:	0.045	yaw:	-29.233	yaw rate:	2.093	Roll:	-1.574	Pitch:	2.557	Yaw:	-41.264	Thrust:	29.192
Time:	2.172	Roll Set Point:	0.059	Pitch Set Point:	-0.192	Yaw Set Point:	0.510	X_WP:	0.000	Y_WP:	0.000	Y_WP:	0.500	X:	-0.005	Y:	0.104	Z:	0.045	yaw:	-29.233	yaw rate:	2.093	Roll:	-1.599	Pitch:	2.583	Yaw:	-41.774	Thrust:	30.124
Time:	2.188	Roll Set Point:	0.059	Pitch Set Point:	-0.192	Yaw Set Point:	0.510	X_WP:	0.000	Y_WP:	0.000	Y_WP:	0.500	X:	-0.005	Y:	0.104	Z:	0.045	yaw:	-29.243	yaw rate:	-1.017	Roll:	-1.642	Pitch:	2.630	Yaw:	-42.120	Thrust:	31.044
Time:	2.203	Roll Set Point:	0.059	Pitch Set Point:	-0.192	Yaw Set Point:	0.511	X_WP:	0.000	Y_WP:	0.000	Y_WP:	0.500	X:	-0.005	Y:	0.104	Z:	0.045	yaw:	-29.301	yaw rate:	-4.737	Roll:	-1.702	Pitch:	2.505	Yaw:	-43.160	Thrust:	31.727
Time:	2.219	Roll Set Point:	0.059	Pitch Set Point:	-0.192	Yaw Set Point:	0.510	X_WP:	0.000	Y_WP:	0.000	Y_WP:	0.500	X:	-0.005	Y:	0.104	Z:	0.045	yaw:	-29.248	yaw rate:	5.255	Roll:	-1.484	Pitch:	2.685	Yaw:	-41.394	Thrust:	32.753
Time:	2.234	Roll Set Point:	0.059	Pitch Set Point:	-0.192	Yaw Set Point:	0.510	X_WP:	0.000	Y_WP:	0.000	Y_WP:	0.500	X:	-0.005	Y:	0.104	Z:	0.045	yaw:	-29.223	yaw rate:	2.511	Roll:	-1.573	Pitch:	2.604	Yaw:	-41.979	Thrust:	33.513
Time:	2.250	Roll Set Point:	0.059	Pitch Set Point:	-0.192	Yaw Set Point:	0.511	X_WP:	0.000	Y_WP:	0.000	Y_WP:	0.500	X:	-0.005	Y:	0.104	Z:	0.045	yaw:	-29.271	yaw rate:	-4.811	Roll:	-1.750	Pitch:	2.555	Yaw:	-43.432	Thrust:	34.405
Time:	2.266	Roll Set Point:	0.059	Pitch Set Point:	-0.192	Yaw Set Point:	0.511	X_WP:	0.000	Y_WP:	0.000	Y_WP:	0.500	X:	-0.005	Y:	0.104	Z:	0.045	yaw:	-29.256	yaw rate:	1.507	Roll:	-1.556	Pitch:	2.601	Yaw:	-42.512	Thrust:	35.272
Time:	2.281	Roll Set Point:	0.059	Pitch Set Point:	-0.192	Yaw Set Point:	0.511	X_WP:	0.000	Y_WP:	0.000	Y_WP:	0.500	X:	-0.005	Y:	0.104	Z:	0.045	yaw:	-29.261	yaw rate:	-0.522	Roll:	-1.596	Pitch:	2.604	Yaw:	-43.023	Thrust:	36.078
Time:	2.297	Roll Set Point:	0.059	Pitch Set Point:	-0.192	Yaw Set Point:	0.511	X_WP:	0.000	Y_WP:	0.000	Y_WP:	0.500	X:	-0.005	Y:	0.104	Z:	0.045	yaw:	-29.261	yaw rate:	-0.522	Roll:	-1.617	Pitch:	2.611	Yaw:	-43.087	Thrust:	36.923
Time:	2.313	Roll Set Point:	0.059	Pitch Set Point:	-0.192	Yaw Set Point:	0.511	X_WP:	0.000	Y_WP:	0.000	Y_WP:	0.500	X:	-0.005	Y:	0.104	Z:	0.045	yaw:	-29.264	yaw rate:	1.425	Roll:	-1.609	Pitch:	2.617	Yaw:	-43.293	Thrust:	37.832
Time:	2.328	Roll Set Point:	0.059	Pitch Set Point:	-0.192	Yaw Set Point:	0.511	X_WP:	0.000	Y_WP:	0.000	Y_WP:	0.500	X:	-0.005	Y:	0.104	Z:	0.045	yaw:	-29.264	yaw rate:	1.425	Roll:	-1.621	Pitch:	2.618	Yaw:	-43.408	Thrust:	38.626
Time:	2.344	Roll Set Point:	0.059	Pitch Set Point:	-0.192	Yaw Set Point:	0.511	X_WP:	0.000	Y_WP:	0.000	Y_WP:	0.500	X:	-0.005	Y:	0.104	Z:	0.045	yaw:	-29.276	yaw rate:	-3.926	Roll:	-1.658	Pitch:	2.630	Yaw:	-43.799	Thrust:	39.553
Time:	2.360	Roll Set Point:	0.059	Pitch Set Point:	-0.192	Yaw Set Point:	0.511	X_WP:	0.000	Y_WP:	0.000	Y_WP:	0.500	X:	-0.005	Y:	0.104	Z:	0.045	yaw:	-29.254	yaw rate:	2.182	Roll:	-1.595	Pitch:	2.610	Yaw:	-43.368	Thrust:	40.397
Time:	2.375	Roll Set Point:	0.059	Pitch Set Point:	-0.192	Yaw Set Point:	0.511	X_WP:	0.000	Y_WP:	0.000	Y_WP:	0.500	X:	-0.005	Y:	0.104	Z:	0.045	yaw:	-29.256	yaw rate:	-0.208	Roll:	-1.639	Pitch:	2.622	Yaw:	-43.916	Thrust:	41.096
Time:	2.391	Roll Set Point:	0.059	Pitch Set Point:	-0.192	Yaw Set Point:	0.511	X_WP:	0.000	Y_WP:	0.000	Y_WP:	0.500	X:	-0.005	Y:	0.104	Z:	0.045	yaw:	-29.266	yaw rate:	-0.941	Roll:	-1.641	Pitch:	2.665	Yaw:	-44.129	Thrust:	42.104
Time:	2.406	Roll Set Point:	0.059	Pitch Set Point:	-0.192	Yaw Set Point:	0.510	X_WP:	0.000	Y_WP:	0.000	Y_WP:	0.500	X:	-0.005	Y:	0.104	Z:	0.045	yaw:	-29.242	yaw rate:	2.327	Roll:	-1.581	Pitch:	2.678	Yaw:	-43.566	Thrust:	42.987
Time:	2.422	Roll Set Point:	0.059	Pitch Set Point:	-0.192	Yaw Set Point:	0.511	X_WP:	0.000	Y_WP:	0.000	Y_WP:	0.500	X:	-0.005	Y:	0.104	Z:	0.045	yaw:	-29.290	yaw rate:	-4.789	Roll:	-1.667	Pitch:	2.530	Yaw:	-44.824	Thrust:	43.555
Time:	2.438	Roll Set Point:	0.059	Pitch Set Point:	-0.192	Yaw Set Point:	0.511	X_WP:	0.000	Y_WP:	0.000	Y_WP:	0.500	X:	-0.005	Y:	0.104	Z:	0.045	yaw:	-29.290	yaw rate:	-4.789	Roll:	-1.636	Pitch:	2.641	Yaw:	-44.028	Thrust:	44.658
Time:	2.453	Roll Set Point:	0.059	Pitch Set Point:	-0.192	Yaw Set Point:	0.511	X_WP:	0.000	Y_WP:	0.000	Y_WP:	0.500	X:	-0.005	Y:	0.104	Z:	0.045	yaw:	-29.251	yaw rate:	3.028	Roll:	-1.662	Pitch:	2.705	Yaw:	-43.302	Thrust:	45.502
Time:	2.469	Roll Set Point:	0.059	Pitch Set Point:	-0.192	Yaw Set Point:	0.511	X_WP:	0.000	Y_WP:	0.000	Y_WP:	0.500	X:	-0.005	Y:	0.104	Z:	0.045	yaw:	-29.277	yaw rate:	-2.641	Roll:	-1.652	Pitch:	2.664	Yaw:	-44.447	Thrust:	46.410
Time:	2.484	Roll Set Point:	0.059	Pitch Set Point:	-0.192	Yaw Set Point:	0.511	X_WP:	0.000	Y_WP:	0.000	Y_WP:	0.500	X:	-0.005	Y:	0.104	Z:	0.045	yaw:	-29.253	yaw rate:	2.436	Roll:	-1.542	Pitch:	2.613	Yaw:	-43.562	Thrust:	47.076
Time:	2.500	Roll Set Point:	0.059	Pitch Set Point:	-0.192	Yaw Set Point:	0.510	X_WP:	0.000	Y_WP:	0.000	Y_WP:	0.500	X:	-0.005	Y:	0.104	Z:	0.045	yaw:	-29.200	yaw rate:	5.277	Roll:	-1.622	Pitch:	2.762	Yaw:	-43.012	Thrust:	48.036
Time:	2.516	Roll Set Point:	0.059	Pitch Set Point:	-0.192	Yaw Set Point:	0.511	X_WP:	0.000	Y_WP:	0.000	Y_WP:	0.500	X:	-0.005	Y:	0.104	Z:	0.045	yaw:	-29.272	yaw rate:	-7.203	Roll:	-1.805	Pitch:	2.579	Yaw:	-45.204	Thrust:	48.971
Time:	2.531	Roll Set Point:	0.059	Pitch Set Point:	-0.192	Yaw Set Point:	0.511	X_WP:	0.000	Y_WP:	0.000	Y_WP:	0.500	X:	-0.005	Y:	0.104	Z:	0.045	yaw:	-29.288	yaw rate:	-1.606	Roll:	-1.587	Pitch:	2.639	Yaw:	-44.289	Thrust:	49.611
Time:	2.547	Roll Set Point:	0.059	Pitch Set Point:	-0.192	Yaw Set Point:	0.511	X_WP:	0.000	Y_WP:	0.000	Y_WP:	0.500	X:	-0.005	Y:	0.104	Z:	0.045	yaw:	-29.262	yaw rate:	2.578	Roll:	-1.686	Pitch:	2.665	Yaw:	-43.552	Thrust:	50.609
Time:	2.563	Roll Set Point:	0.059	Pitch Set Point:	-0.192	Yaw Set Point:	0.510	X_WP:	0.000	Y_WP:	0.000	Y_WP:	0.500	X:	-0.005	Y:	0.104	Z:	0.045	yaw:	-29.238	yaw rate:	2.431	Roll:	-1.611	Pitch:	2.714	Yaw:	-43.542	Thrust:	51.486
Time:	2.578	Roll Set Point:	0.059	Pitch Set Point:	-0.192	Yaw Set Point:	0.510	X_WP:	0.000	Y_WP:	0.000	Y_WP:	0.500	X:	-0.005	Y:	0.104	Z:	0.045	yaw:	-29.238	yaw rate:	0.035	Roll:	-1.688	Pitch:	2.719	Yaw:	-43.944	Thrust:	52.327
Time:	2.594	Roll Set Point:	0.059	Pitch Set Point:	-0.192	Yaw Set Point:	0.510	X_WP:	0.000	Y_WP:	0.000	Y_WP:	0.500	X:	-0.005	Y:	0.104	Z:	0.045	yaw:	-29.226	yaw rate:	1.147	Roll:	-1.584	Pitch:	2.634	Yaw:	-43.740	Thrust:	53.049
Time:	2.609	Roll Set Point:	0.059	Pitch Set Point:	-0.192	Yaw Set Point:	0.511	X_WP:	0.000	Y_WP:	0.000	Y_WP:	0.500	X:	-0.005	Y:	0.104	Z:	0.045	yaw:	-29.258	yaw rate:	-3.178	Roll:	-1.711	Pitch:	2.657	Yaw:	-44.510	Thrust:	53.950
Time:	2.625	Roll Set Point:	0.059	Pitch Set Point:	-0.192	Yaw Set Point:	0.510	X_WP:	0.000	Y_WP:	0.000	Y_WP:	0.500	X:	-0.005	Y:	0.104	Z:	0.045	yaw:	-29.248	yaw rate:	0.988	Roll:	-1.663	Pitch:	2.698	Yaw:	-43.798	Thrust:	55.067
Time:	2.641	Roll Set Point:	0.059	Pitch Set Point:	-0.192	Yaw Set Point:	0.510	X_WP:	0.000	Y_WP:	0.000	Y_WP:	0.500	X:	-0.005	Y:	0.104	Z:	0.045	yaw:	-29.248	yaw rate:	0.988	Roll:	-1.664	Pitch:	2.688	Yaw:	-43.963	Thrust:	55.702
Time:	2.656	Roll Set Point:	0.059	Pitch Set Point:	-0.192	Yaw Set Point:	0.510	X_WP:	0.000	Y_WP:	0.000	Y_WP:	0.500	X:	-0.005	Y:	0.104	Z:	0.045	yaw:	-29.231	yaw rate:	1.811	Roll:	-1.616	Pitch:	2.727	Yaw:	-43.648	Thrust:	56.239
Time:	2.672	Roll Set Point:	0.059	Pitch Set Point:	-0.192	Yaw Set Point:	0.511	X_WP:	0.000	Y_WP:	0.000	Y_WP:	0.500	X:	-0.005	Y:	0.104	Z:	0.045	yaw:	-29.252	yaw rate:	-2.092	Roll:	-1.747	Pitch:	2.643	Yaw:	-44.319	Thrust:	57.626
Time:	2.688	Roll Set Point:	0.059	Pitch Set Point:	-0.192	Yaw Set Point:	0.511	X_WP:	0.000	Y_WP:	0.000	Y_WP:	0.500	X:	-0.005	Y:	0.104	Z:	0.045	yaw:	-29.252	yaw rate:	-2.092	Roll:	-1.671	Pitch:	2.698	Yaw:	-43.968	Thrust:	58.261
Time:	2.703	Roll Set Point:	0.059	Pitch Set Point:	-0.192	Yaw Set Point:	0.511	X_WP:	0.000	Y_WP:	0.000	Y_WP:	0.500	X:	-0.005	Y:	0.104	Z:	0.045	yaw:	-29.258	yaw rate:	-2.517	Roll:	-1.719	Pitch:	2.705	Yaw:	-44.082	Thrust:	59.131
Time:	2.719	Roll Set Point:	0.059	Pitch Set Point:	-0.192	Yaw Set Point:	0.510	X_WP:	0.000	Y_WP:	0.000	Y_WP:	0.500	X:	-0.005	Y:	0.104	Z:	0.045	yaw:	-29.243	yaw rate:	1.498	Roll:	-1.553	Pitch:	2.753	Yaw:	-43.705	Thrust:	59.871
Time:	2.734	Roll Set Point:	0.059	Pitch Set Point:	-0.192	Yaw Set Point:	0.511	X_WP:	0.000	Y_WP:	0.000	Y_WP:	0.500	X:	-0.005	Y:	0.104	Z:	0.045	yaw:	-29.251	yaw rate:	-0.756	Roll:	-1.782	Pitch:	2.709	Yaw:	-44.093	Thrust:	60.985
Time:	2.750	Roll Set Point:	0.059	Pitch Set Point:	-0.192	Yaw Set Point:	0.511	X_WP:	0.000	Y_WP:	0.000	Y_WP:	0.500	X:	-0.005	Y:	0.104	Z:	0.045	yaw:	-29.251	yaw rate:	-0.756	Roll:	-1.681	Pitch:	2.713	Yaw:	-43.967	Thrust:	61.671
Time:	2.766	Roll Set Point:	0.059	Pitch Set Point:	-0.192	Yaw Set Point:	0.511	X_WP:	0.000	Y_WP:	0.000	Y_WP:	0.500	X:	-0.005	Y:	0.104	Z:	0.045	yaw:	-29.269	yaw rate:	-1.848	Roll:	-1.628	Pitch:	2.674	Yaw:	-44.312	Thrust:	62.622
Time:	2.781	Roll Set Point:	0.059	Pitch Set Point:	-0.192	Yaw Set Point:	0.511	X_WP:	0.000	Y_WP:	0.000	Y_WP:	0.500	X:	-0.005	Y:	0.104	Z:	0.045	yaw:	-29.255	yaw rate:	3.064	Roll:	-1.691	Pitch:	2.732	Yaw:	-43.730	Thrust:	63.036
Time:	2.797	Roll Set Point:	0.059	Pitch Set Point:	-0.192	Yaw Set Point:	0.511	X_WP:	0.000	Y_WP:	0.000	Y_WP:	0.500	X:	-0.005	Y:	0.104	Z:	0.045	yaw:	-29.270	yaw rate:	-1.500	Roll:	-1.748	Pitch:	2.746	Yaw:	-44.246	Thrust:	64.438
Time:	2.813	Roll Set Point:	0.059	Pitch Set Point:	-0.192	Yaw Set Point:	0.511	X_WP:	0.000	Y_WP:	0.000	Y_WP:	0.500	X:	-0.005	Y:	0.104	Z:	0.045	yaw:	-29.270	yaw rate:	-1.500	Roll:	-1.690	Pitch:	2.727	Yaw:	-44.000	Thrust:	65.159
Time:	2.828	Roll Set Point:	0.059	Pitch Set Point:	-0.192	Yaw Set Point:	0.511	X_WP:	0.000	Y_WP:	0.000	Y_WP:	0.500	X:	-0.005	Y:	0.104	Z:	0.045	yaw:	-29.264	yaw rate:	-1.965	Roll:	-1.659	Pitch:	2.657	Yaw:	-43.878	Thrust:	65.855
Time:	2.844	Roll Set Point:	0.059	Pitch Set Point:	-0.192	Yaw Set Point:	0.511	X_WP:	0.000	Y_WP:	0.000	Y_WP:	0.500	X:	-0.005	Y:	0.104	Z:	0.045	yaw:	-29.259	yaw rate:	0.469	Roll:	-1.646	Pitch:	2.780	Yaw:	-43.901	Thrust:	66.754
Time:	2.859	Roll Set Point:	0.059	Pitch Set Point:	-0.192	Yaw Set Point:	0.511	X_WP:	0.000	Y_WP:	0.000	Y_WP:	0.500	X:	-0.005	Y:	0.104	Z:	0.045	yaw:	-29.270	yaw rate:	-1.045	Roll:	-1.743	Pitch:	2.736	Yaw:	-44.169	Thrust:	67.650
Time:	2.875	Roll Set Point:	0.059	Pitch Set Point:	-0.192	Yaw Set Point:	0.511	X_WP:	0.000	Y_WP:	0.000	Y_WP:	0.500	X:	-0.005	Y:	0.104	Z:	0.045	yaw:	-29.260	yaw rate:	1.031	Roll:	-1.650	Pitch:	2.716	Yaw:	-43.806	Thrust:	68.491
Time:	2.891	Roll Set Point:	0.059	Pitch Set Point:	-0.192	Yaw Set Point:	0.510	X_WP:	0.000	Y_WP:	0.000	Y_WP:	0.500	X:	-0.005	Y:	0.104	Z:	0.045	yaw:	-29.233	yaw rate:	2.713	Roll:	-1.697	Pitch:	2.774	Yaw:	-43.472	Thrust:	69.223
Time:	2.906	Roll Set Point:	0.059	Pitch Set Point:	-0.192	Yaw Set Point:	0.510	X_WP:	0.000	Y_WP:	0.000	Y_WP:	0.500	X:	-0.005	Y:	0.104	Z:	0.045	yaw:	-29.233	yaw rate:	2.713	Roll:	-1.700	Pitch:	2.747	Yaw:	-43.942	Thrust:	70.202
Time:	2.922	Roll Set Point:	0.059	Pitch Set Point:	-0.192	Yaw Set Point:	0.511	X_WP:	0.000	Y_WP:	0.000	Y_WP:	0.500	X:	-0.005	Y:	0.104	Z:	0.045	yaw:	-29.261	yaw rate:	-2.864	Roll:	-1.730	Pitch:	2.721	Yaw:	-44.462	Thrust:	70.871
Time:	2.938	Roll Set Point:	0.059	Pitch Set Point:	-0.192	Yaw Set Point:	0.511	X_WP:	0.000	Y_WP:	0.000	Y_WP:	0.500	X:	-0.005	Y:	0.104	Z:	0.045	yaw:	-29.274	yaw rate:	-1.259	Roll:	-1.771	Pitch:	2.768	Yaw:	-44.210	Thrust:	72.070
Time:	2.953	Roll Set Point:	0.059	Pitch Set Point:	-0.192	Yaw Set Point:	0.510	X_WP:	0.000	Y_WP:	0.000	Y_WP:	0.500	X:	-0.005	Y:	0.104	Z:	0.045	yaw:	-29.230	yaw rate:	5.760	Roll:	-1.597	Pitch:	2.783	Yaw:	-43.213	Thrust:	72.602
Time:	2.969	Roll Set Point:	0.059	Pitch Set Point:	-0.192	Yaw Set Point:	0.510	X_WP:	0.000	Y_WP:	0.000	Y_WP:	0.500	X:	-0.005	Y:	0.104	Z:	0.045	yaw:	-29.231	yaw rate:	-0.031	Roll:	-1.731	Pitch:	2.762	Yaw:	-43.944	Thrust:	73.692
Time:	2.984	Roll Set Point:	0.059	Pitch Set Point:	-0.192	Yaw Set Point:	0.510	X_WP:	0.000	Y_WP:	0.000	Y_WP:	0.500	X:	-0.005	Y:	0.104	Z:	0.045	yaw:	-29.206	yaw rate:	2.453	Roll:	-1.757	Pitch:	2.829	Yaw:	-43.494	Thrust:	74.717
Time:	3.000	Roll Set Point:	0.059	Pitch Set Point:	-0.192	Yaw Set Point:	0.511	X_WP:	0.000	Y_WP:	0.000	Y_WP:	0.500	X:	-0.005	Y:	0.104	Z:	0.045	yaw:	-29.266	yaw rate:	-5.960	Roll:	-1.715	Pitch:	2.635	Yaw:	-44.987	Thrust:	75.138
Time:	3.016	Roll Set Point:	0.059	Pitch Set Point:	-0.192	Yaw Set Point:	0.511	X_WP:	0.000	Y_WP:	0.000	Y_WP:	0.500	X:	-0.005	Y:	0.104	Z:	0.045	yaw:	-29.300	yaw rate:	-3.436	Roll:	-1.760	Pitch:	2.764	Yaw:	-44.611	Thrust:	76.057
Time:	3.031	Roll Set Point:	0.059	Pitch Set Point:	-0.192	Yaw Set Point:	0.511	X_WP:	0.000	Y_WP:	0.000	Y_WP:	0.500	X:	-0.005	Y:	0.104	Z:	0.045	yaw:	-29.300	yaw rate:	-3.436	Roll:	-1.720	Pitch:	2.773	Yaw:	-44.036	Thrust:	77.023
Time:	3.047	Roll Set Point:	0.059	Pitch Set Point:	-0.192	Yaw Set Point:	0.511	X_WP:	0.000	Y_WP:	0.000	Y_WP:	0.500	X:	-0.005	Y:	0.104	Z:	0.045	yaw:	-29.271	yaw rate:	-2.170	Roll:	-1.695	Pitch:	2.811	Yaw:	-43.512	Thrust:	77.771
Time:	3.063	Roll Set Point:	0.059	Pitch Set Point:	-0.192	Yaw Set Point:	0.511	X_WP:	0.000	Y_WP:	0.000	Y_WP:	0.500	X:	-0.005	Y:	0.104	Z:	0.045	yaw:	-29.271	yaw rate:	-2.170	Roll:	-1.723	Pitch:	2.781	Yaw:	-43.996	Thrust:	78.721
Time:	3.078	Roll Set Point:	0.059	Pitch Set Point:	-0.192	Yaw Set Point:	0.511	X_WP:	0.000	Y_WP:	0.000	Y_WP:	0.500	X:	-0.005	Y:	0.104	Z:	0.045	yaw:	-29.274	yaw rate:	-1.039	Roll:	-1.703	Pitch:	2.755	Yaw:	-44.042	Thrust:	79.739
Time:	3.094	Roll Set Point:	0.059	Pitch Set Point:	-0.192	Yaw Set Point:	0.511	X_WP:	0.000	Y_WP:	0.000	Y_WP:	0.500	X:	-0.005	Y:	0.104	Z:	0.045	yaw:	-29.265	yaw rate:	0.896	Roll:	-1.740	Pitch:	2.839	Yaw:	-43.843	Thrust:	80.669
Time:	3.109	Roll Set Point:	0.059	Pitch Set Point:	-0.192	Yaw Set Point:	0.511	X_WP:	0.000	Y_WP:	0.000	Y_WP:	0.500	X:	-0.005	Y:	0.104	Z:	0.045	yaw:	-29.273	yaw rate:	-0.836	Roll:	-1.725	Pitch:	2.768	Yaw:	-44.132	Thrust:	81.020
Time:	3.125	Roll Set Point:	0.059	Pitch Set Point:	-0.192	Yaw Set Point:	0.511	X_WP:	0.000	Y_WP:	0.000	Y_WP:	0.500	X:	-0.005	Y:	0.104	Z:	0.045	yaw:	-29.273	yaw rate:	-0.836	Roll:	-1.732	Pitch:	2.795	Yaw:	-44.011	Thrust:	82.360
Time:	3.141	Roll Set Point:	0.059	Pitch Set Point:	-0.192	Yaw Set Point:	0.510	X_WP:	0.000	Y_WP:	0.000	Y_WP:	0.500	X:	-0.005	Y:	0.104	Z:	0.045	yaw:	-29.244	yaw rate:	2.865	Roll:	-1.722	Pitch:	2.843	Yaw:	-43.448	Thrust:	82.804
Time:	3.156	Roll Set Point:	0.059	Pitch Set Point:	-0.192	Yaw Set Point:	0.510	X_WP:	0.000	Y_WP:	0.000	Y_WP:	0.500	X:	-0.005	Y:	0.104	Z:	0.045	yaw:	-29.244	yaw rate:	2.865	Roll:	-1.736	Pitch:	2.803	Yaw:	-43.957	Thrust:	83.848
Time:	3.172	Roll Set Point:	0.059	Pitch Set Point:	-0.192	Yaw Set Point:	0.511	X_WP:	0.000	Y_WP:	0.000	Y_WP:	0.500	X:	-0.005	Y:	0.104	Z:	0.045	yaw:	-29.257	yaw rate:	-1.370	Roll:	-1.745	Pitch:	2.765	Yaw:	-44.205	Thrust:	84.809
Time:	3.188	Roll Set Point:	0.059	Pitch Set Point:	-0.192	Yaw Set Point:	0.511	X_WP:	0.000	Y_WP:	0.000	Y_WP:	0.500	X:	-0.005	Y:	0.104	Z:	0.045	yaw:	-29.289	yaw rate:	-0.266	Roll:	-1.743	Pitch:	2.755	Yaw:	-44.545	Thrust:	85.428
Time:	3.203	Roll Set Point:	0.059	Pitch Set Point:	-0.192	Yaw Set Point:	0.511	X_WP:	0.000	Y_WP:	0.000	Y_WP:	0.500	X:	-0.005	Y:	0.104	Z:	0.045	yaw:	-29.289	yaw rate:	-0.266	Roll:	-1.742	Pitch:	2.810	Yaw:	-44.020	Thrust:	86.402
Time:	3.219	Roll Set Point:	0.059	Pitch Set Point:	-0.192	Yaw Set Point:	0.511	X_WP:	0.000	Y_WP:	0.000	Y_WP:	0.500	X:	-0.005	Y:	0.104	Z:	0.045	yaw:	-29.272	yaw rate:	-2.155	Roll:	-1.779	Pitch:	2.879	Yaw:	-43.713	Thrust:	87.284
Time:	3.234	Roll Set Point:	0.059	Pitch Set Point:	-0.192	Yaw Set Point:	0.511	X_WP:	0.000	Y_WP:	0.000	Y_WP:	0.500	X:	-0.005	Y:	0.104	Z:	0.045	yaw:	-29.255	yaw rate:	1.669	Roll:	-1.624	Pitch:	2.786	Yaw:	-43.693	Thrust:	87.964
Time:	3.250	Roll Set Point:	0.059	Pitch Set Point:	-0.192	Yaw Set Point:	0.511	X_WP:	0.000	Y_WP:	0.000	Y_WP:	0.500	X:	-0.005	Y:	0.104	Z:	0.045	yaw:	-29.269	yaw rate:	-1.429	Roll:	-1.832	Pitch:	2.813	Yaw:	-44.233	Thrust:	89.102
Time:	3.266	Roll Set Point:	0.059	Pitch Set Point:	-0.192	Yaw Set Point:	0.511	X_WP:	0.000	Y_WP:	0.000	Y_WP:	0.500	X:	-0.005	Y:	0.104	Z:	0.045	yaw:	-29.269	yaw rate:	-1.429	Roll:	-1.751	Pitch:	2.825	Yaw:	-43.993	Thrust:	89.811
Time:	3.281	Roll Set Point:	0.059	Pitch Set Point:	-0.192	Yaw Set Point:	0.510	X_WP:	0.000	Y_WP:	0.000	Y_WP:	0.500	X:	-0.005	Y:	0.104	Z:	0.045	yaw:	-29.227	yaw rate:	0.975	Roll:	-1.704	Pitch:	2.907	Yaw:	-43.232	Thrust:	90.483
Time:	3.297	Roll Set Point:	0.059	Pitch Set Point:	-0.192	Yaw Set Point:	0.511	X_WP:	0.000	Y_WP:	0.000	Y_WP:	0.500	X:	-0.005	Y:	0.104	Z:	0.045	yaw:	-29.260	yaw rate:	-3.230	Roll:	-1.751	Pitch:	2.780	Yaw:	-44.521	Thrust:	91.446
Time:	3.313	Roll Set Point:	0.059	Pitch Set Point:	-0.192	Yaw Set Point:	0.511	X_WP:	0.000	Y_WP:	0.000	Y_WP:	0.500	X:	-0.005	Y:	0.104	Z:	0.045	yaw:	-29.256	yaw rate:	0.404	Roll:	-1.827	Pitch:	2.831	Yaw:	-43.913	Thrust:	92.804
Time:	3.328	Roll Set Point:	0.059	Pitch Set Point:	-0.192	Yaw Set Point:	0.511	X_WP:	0.000	Y_WP:	0.000	Y_WP:	0.500	X:	-0.005	Y:	0.104	Z:	0.045	yaw:	-29.256	yaw rate:	0.404	Roll:	-1.759	Pitch:	2.839	Yaw:	-43.967	Thrust:	93.077
Time:	3.344	Roll Set Point:	0.059	Pitch Set Point:	-0.192	Yaw Set Point:	0.511	X_WP:	0.000	Y_WP:	0.000	Y_WP:	0.500	X:	-0.005	Y:	0.104	Z:	0.045	yaw:	-29.261	yaw rate:	-0.506	Roll:	-1.741	Pitch:	2.848	Yaw:	-44.065	Thrust:	93.966
Time:	3.359	Roll Set Point:	0.059	Pitch Set Point:	-0.192	Yaw Set Point:	0.511	X_WP:	0.000	Y_WP:	0.000	Y_WP:	0.500	X:	-0.005	Y:	0.104	Z:	0.045	yaw:	-29.271	yaw rate:	0.861	Roll:	-1.760	Pitch:	2.800	Yaw:	-44.179	Thrust:	95.003
Time:	3.375	Roll Set Point:	0.059	Pitch Set Point:	-0.192	Yaw Set Point:	0.510	X_WP:	0.000	Y_WP:	0.000	Y_WP:	0.500	X:	-0.005	Y:	0.104	Z:	0.045	yaw:	-29.244	yaw rate:	2.743	Roll:	-1.760	Pitch:	2.918	Yaw:	-43.489	Thrust:	95.856
Time:	3.391	Roll Set Point:	0.059	Pitch Set Point:	-0.192	Yaw Set Point:	0.510	X_WP:	0.000	Y_WP:	0.000	Y_WP:	0.500	X:	-0.005	Y:	0.104	Z:	0.045	yaw:	-29.244	yaw rate:	2.743	Roll:	-1.768	Pitch:	2.854	Yaw:	-43.957	Thrust:	96.636
Time:	3.406	Roll Set Point:	0.059	Pitch Set Point:	-0.192	Yaw Set Point:	0.510	X_WP:	0.000	Y_WP:	0.000	Y_WP:	0.500	X:	-0.005	Y:	0.104	Z:	0.045	yaw:	-29.248	yaw rate:	-0.430	Roll:	-1.726	Pitch:	2.872	Yaw:	-44.036	Thrust:	97.303
Time:	3.422	Roll Set Point:	0.059	Pitch Set Point:	-0.192	Yaw Set Point:	0.511	X_WP:	0.000	Y_WP:	0.000	Y_WP:	0.500	X:	-0.005	Y:	0.104	Z:	0.045	yaw:	-29.262	yaw rate:	-1.997	Roll:	-1.777	Pitch:	2.823	Yaw:	-44.207	Thrust:	98.345
Time:	3.438	Roll Set Point:	0.059	Pitch Set Point:	-0.192	Yaw Set Point:	0.511	X_WP:	0.000	Y_WP:	0.000	Y_WP:	0.500	X:	-0.005	Y:	0.104	Z:	0.045	yaw:	-29.262	yaw rate:	-1.997	Roll:	-1.773	Pitch:	2.863	Yaw:	-43.982	Thrust:	99.192
Time:	3.453	Roll Set Point:	0.059	Pitch Set Point:	-0.192	Yaw Set Point:	0.510	X_WP:	0.000	Y_WP:	0.000	Y_WP:	0.500	X:	-0.005	Y:	0.104	Z:	0.045	yaw:	-29.249	yaw rate:	1.724	Roll:	-1.763	Pitch:	2.890	Yaw:	-43.759	Thrust:	100.000
Time:	3.469	Roll Set Point:	0.059	Pitch Set Point:	-0.192	Yaw Set Point:	0.511	X_WP:	0.000	Y_WP:	0.000	Y_WP:	0.500	X:	-0.005	Y:	0.104	Z:	0.045	yaw:	-29.253	yaw rate:	-0.393	Roll:	-1.788	Pitch:	2.862	Yaw:	-44.042	Thrust:	100.000
Time:	3.484	Roll Set Point:	0.059	Pitch Set Point:	-0.192	Yaw Set Point:	0.511	X_WP:	0.000	Y_WP:	0.000	Y_WP:	0.500	X:	-0.005	Y:	0.104	Z:	0.045	yaw:	-29.263	yaw rate:	-0.934	Roll:	-1.771	Pitch:	2.868	Yaw:	-44.139	Thrust:	100.000
Time:	3.500	Roll Set Point:	0.059	Pitch Set Point:	-0.192	Yaw Set Point:	0.510	X_WP:	0.000	Y_WP:	0.000	Y_WP:	0.500	X:	-0.005	Y:	0.104	Z:	0.045	yaw:	-29.235	yaw rate:	2.762	Roll:	-1.781	Pitch:	2.901	Yaw:	-43.484	Thrust:	100.000
Time:	3.516	Roll Set Point:	0.059	Pitch Set Point:	-0.192	Yaw Set Point:	0.511	X_WP:	0.000	Y_WP:	0.000	Y_WP:	0.500	X:	-0.005	Y:	0.104	Z:	0.045	yaw:	-29.289	yaw rate:	-5.413	Roll:	-1.836	Pitch:	2.793	Yaw:	-44.923	Thrust:	100.000
Time:	3.531	Roll Set Point:	0.059	Pitch Set Point:	-0.192	Yaw Set Point:	0.511	X_WP:	0.000	Y_WP:	0.000	Y_WP:	0.500	X:	-0.005	Y:	0.104	Z:	0.045	yaw:	-29.289	yaw rate:	-5.413	Roll:	-1.787	Pitch:	2.883	Yaw:	-44.020	Thrust:	100.000
Time:	3.547	Roll Set Point:	0.059	Pitch Set Point:	-0.192	Yaw Set Point:	0.511	X_WP:	0.000	Y_WP:	0.000	Y_WP:	0.500	X:	-0.005	Y:	0.104	Z:	0.045	yaw:	-29.250	yaw rate:	1.728	Roll:	-1.735	Pitch:	2.990	Yaw:	-43.316	Thrust:	100.000
Time:	3.563	Roll Set Point:	0.059	Pitch Set Point:	-0.192	Yaw Set Point:	0.511	X_WP:	0.000	Y_WP:	0.000	Y_WP:	0.500	X:	-0.005	Y:	0.104	Z:	0.045	yaw:	-29.255	yaw rate:	-0.491	Roll:	-1.809	Pitch:	2.838	Yaw:	-44.055	Thrust:	100.000
Time:	3.578	Roll Set Point:	0.059	Pitch Set Point:	-0.192	Yaw Set Point:	0.511	X_WP:	0.000	Y_WP:	0.000	Y_WP:	0.500	X:	-0.005	Y:	0.104	Z:	0.045	yaw:	-29.289	yaw rate:	-3.359	Roll:	-1.844	Pitch:	2.863	Yaw:	-44.583	Thrust:	100.000
Time:	3.594	Roll Set Point:	0.059	Pitch Set Point:	-0.192	Yaw Set Point:	0.511	X_WP:	0.000	Y_WP:	0.000	Y_WP:	0.500	X:	-0.005	Y:	0.104	Z:	0.045	yaw:	-29.289	yaw rate:	-3.359	Roll:	-1.796	Pitch:	2.897	Yaw:	-44.020	Thrust:	100.000
Time:	3.609	Roll Set Point:	0.059	Pitch Set Point:	-0.192	Yaw Set Point:	0.510	X_WP:	0.000	Y_WP:	0.000	Y_WP:	0.500	X:	-0.005	Y:	0.104	Z:	0.045	yaw:	-29.240	yaw rate:	1.945	Roll:	-1.712	Pitch:	2.973	Yaw:	-43.141	Thrust:	100.000
Time:	3.625	Roll Set Point:	0.059	Pitch Set Point:	-0.192	Yaw Set Point:	0.510	X_WP:	0.000	Y_WP:	0.000	Y_WP:	0.500	X:	-0.005	Y:	0.104	Z:	0.045	yaw:	-29.240	yaw rate:	1.945	Roll:	-1.798	Pitch:	2.906	Yaw:	-43.952	Thrust:	100.000
Time:	3.641	Roll Set Point:	0.059	Pitch Set Point:	-0.192	Yaw Set Point:	0.510	X_WP:	0.000	Y_WP:	0.000	Y_WP:	0.500	X:	-0.005	Y:	0.104	Z:	0.045	yaw:	-29.230	yaw rate:	1.030	Roll:	-1.803	Pitch:	2.926	Yaw:	-43.772	Thrust:	100.000
Time:	3.656	Roll Set Point:	0.059	Pitch Set Point:	-0.192	Yaw Set Point:	0.511	X_WP:	0.000	Y_WP:	0.000	Y_WP:	0.500	X:	-0.005	Y:	0.104	Z:	0.045	yaw:	-29.307	yaw rate:	-7.663	Roll:	-1.938	Pitch:	2.799	Yaw:	-45.325	Thrust:	100.000
Time:	3.672	Roll Set Point:	0.059	Pitch Set Point:	-0.192	Yaw Set Point:	0.510	X_WP:	0.000	Y_WP:	0.000	Y_WP:	0.500	X:	-0.005	Y:	0.104	Z:	0.045	yaw:	-29.225	yaw rate:	8.127	Roll:	-1.705	Pitch:	3.031	Yaw:	-42.570	Thrust:	100.000
Time:	3.688	Roll Set Point:	0.059	Pitch Set Point:	-0.192	Yaw Set Point:	0.510	X_WP:	0.000	Y_WP:	0.000	Y_WP:	0.500	X:	-0.005	Y:	0.104	Z:	0.045	yaw:	-29.241	yaw rate:	0.763	Roll:	-1.797	Pitch:	2.897	Yaw:	-44.208	Thrust:	100.000
Time:	3.703	Roll Set Point:	0.059	Pitch Set Point:	-0.192	Yaw Set Point:	0.511	X_WP:	0.000	Y_WP:	0.000	Y_WP:	0.500	X:	-0.005	Y:	0.104	Z:	0.045	yaw:	-29.252	yaw rate:	-1.137	Roll:	-1.790	Pitch:	2.867	Yaw:	-44.159	Thrust:	100.000
Time:	3.719	Roll Set Point:	0.059	Pitch Set Point:	-0.192	Yaw Set Point:	0.511	X_WP:	0.000	Y_WP:	0.000	Y_WP:	0.500	X:	-0.005	Y:	0.104	Z:	0.045	yaw:	-29.260	yaw rate:	-0.778	Roll:	-1.867	Pitch:	2.951	Yaw:	-44.116	Thrust:	100.000
Time:	3.735	Roll Set Point:	0.059	Pitch Set Point:	-0.192	Yaw Set Point:	0.511	X_WP:	0.000	Y_WP:	0.000	Y_WP:	0.500	X:	-0.005	Y:	0.104	Z:	0.045	yaw:	-29.294	yaw rate:	-3.418	Roll:	-1.837	Pitch:	2.885	Yaw:	-44.600	Thrust:	100.000
Time:	3.750	Roll Set Point:	0.059	Pitch Set Point:	-0.192	Yaw Set Point:	0.510	X_WP:	0.000	Y_WP:	0.000	Y_WP:	0.500	X:	-0.005	Y:	0.104	Z:	0.045	yaw:	-29.231	yaw rate:	6.273	Roll:	-1.675	Pitch:	2.992	Yaw:	-42.881	Thrust:	100.000
Time:	3.766	Roll Set Point:	0.059	Pitch Set Point:	-0.192	Yaw Set Point:	0.510	X_WP:	0.000	Y_WP:	0.000	Y_WP:	0.500	X:	-0.005	Y:	0.104	Z:	0.045	yaw:	-29.215	yaw rate:	1.636	Roll:	-1.836	Pitch:	2.978	Yaw:	-43.650	Thrust:	100.000
Time:	3.781	Roll Set Point:	0.059	Pitch Set Point:	-0.192	Yaw Set Point:	0.510	X_WP:	0.000	Y_WP:	0.000	Y_WP:	0.500	X:	-0.005	Y:	0.104	Z:	0.045	yaw:	-29.249	yaw rate:	-3.408	Roll:	-1.905	Pitch:	2.922	Yaw:	-44.535	Thrust:	100.000
Time:	3.797	Roll Set Point:	0.059	Pitch Set Point:	-0.192	Yaw Set Point:	0.511	X_WP:	0.000	Y_WP:	0.000	Y_WP:	0.500	X:	-0.005	Y:	0.104	Z:	0.045	yaw:	-29.261	yaw rate:	-1.251	Roll:	-1.824	Pitch:	2.908	Yaw:	-44.192	Thrust:	100.000
Time:	3.813	Roll Set Point:	0.059	Pitch Set Point:	-0.192	Yaw Set Point:	0.511	X_WP:	0.000	Y_WP:	0.000	Y_WP:	0.500	X:	-0.005	Y:	0.104	Z:	0.045	yaw:	-29.261	yaw rate:	-1.251	Roll:	-1.825	Pitch:	2.946	Yaw:	-43.979	Thrust:	100.000
Time:	3.828	Roll Set Point:	0.059	Pitch Set Point:	-0.192	Yaw Set Point:	0.511	X_WP:	0.000	Y_WP:	0.000	Y_WP:	0.500	X:	-0.005	Y:	0.104	Z:	0.045	yaw:	-29.254	yaw rate:	0.702	Roll:	-1.824	Pitch:	2.936	Yaw:	-43.864	Thrust:	100.000
Time:	3.844	Roll Set Point:	0.059	Pitch Set Point:	-0.192	Yaw Set Point:	0.511	X_WP:	0.000	Y_WP:	0.000	Y_WP:	0.500	X:	-0.005	Y:	0.104	Z:	0.045	yaw:	-29.258	yaw rate:	-0.360	Roll:	-1.834	Pitch:	2.960	Yaw:	-44.025	Thrust:	100.000
Time:	3.860	Roll Set Point:	0.059	Pitch Set Point:	-0.192	Yaw Set Point:	0.510	X_WP:	0.000	Y_WP:	0.000	Y_WP:	0.500	X:	-0.005	Y:	0.104	Z:	0.045	yaw:	-29.201	yaw rate:	5.722	Roll:	-1.811	Pitch:	3.036	Yaw:	-42.939	Thrust:	100.000
Time:	3.875	Roll Set Point:	0.059	Pitch Set Point:	-0.192	Yaw Set Point:	0.510	X_WP:	0.000	Y_WP:	0.000	Y_WP:	0.500	X:	-0.005	Y:	0.104	Z:	0.045	yaw:	-29.201	yaw rate:	5.722	Roll:	-1.834	Pitch:	2.963	Yaw:	-43.904	Thrust:	100.000
Time:	3.891	Roll Set Point:	0.059	Pitch Set Point:	-0.192	Yaw Set Point:	0.510	X_WP:	0.000	Y_WP:	0.000	Y_WP:	0.500	X:	-0.005	Y:	0.104	Z:	0.045	yaw:	-29.249	yaw rate:	1.978	Roll:	-1.895	Pitch:	2.928	Yaw:	-44.772	Thrust:	100.000
Time:	3.906	Roll Set Point:	0.059	Pitch Set Point:	-0.192	Yaw Set Point:	0.511	X_WP:	0.000	Y_WP:	0.000	Y_WP:	0.500	X:	-0.005	Y:	0.104	Z:	0.045	yaw:	-29.264	yaw rate:	-1.463	Roll:	-1.836	Pitch:	2.931	Yaw:	-44.237	Thrust:	100.000
Time:	3.922	Roll Set Point:	0.059	Pitch Set Point:	-0.192	Yaw Set Point:	0.510	X_WP:	0.000	Y_WP:	0.000	Y_WP:	0.500	X:	-0.005	Y:	0.104	Z:	0.045	yaw:	-29.247	yaw rate:	1.704	Roll:	-1.724	Pitch:	2.983	Yaw:	-43.669	Thrust:	100.000
Time:	3.938	Roll Set Point:	0.059	Pitch Set Point:	-0.192	Yaw Set Point:	0.510	X_WP:	0.000	Y_WP:	0.000	Y_WP:	0.500	X:	-0.005	Y:	0.104	Z:	0.045	yaw:	-29.247	yaw rate:	1.704	Roll:	-1.840	Pitch:	2.974	Yaw:	-43.962	Thrust:	100.000
Time:	3.948	Roll Set Point:	0.059	Pitch Set Point:	-0.192	Yaw Set Point:	0.511	X_WP:	0.000	Y_WP:	0.000	Y_WP:	0.500	X:	-0.005	Y:	0.104	Z:	0.045	yaw:	-29.253	yaw rate:	-0.580	Roll:	-1.856	Pitch:	2.800	Yaw:	-43.049	Thrust:	92.333
Time:	3.972	Roll Set Point:	0.059	Pitch Set Point:	-0.192	Yaw Set Point:	0.510	X_WP:	0.000	Y_WP:	0.000	Y_WP:	0.500	X:	-0.005	Y:	0.104	Z:	0.045	yaw:	-29.239	yaw rate:	0.039	Roll:	-1.954	Pitch:	3.207	Yaw:	-45.410	Thrust:	100.000
Time:	3.987	Roll Set Point:	0.059	Pitch Set Point:	-0.192	Yaw Set Point:	0.510	X_WP:	0.000	Y_WP:	0.000	Y_WP:	0.500	X:	-0.005	Y:	0.104	Z:	0.045	yaw:	-29.239	yaw rate:	0.039	Roll:	-1.847	Pitch:	2.985	Yaw:	-43.951	Thrust:	100.000
Time:	4.003	Roll Set Point:	0.059	Pitch Set Point:	-0.192	Yaw Set Point:	0.511	X_WP:	0.000	Y_WP:	0.000	Y_WP:	0.500	X:	-0.005	Y:	0.104	Z:	0.045	yaw:	-29.272	yaw rate:	-2.807	Roll:	-1.943	Pitch:	2.980	Yaw:	-44.547	Thrust:	100.000
Time:	4.018	Roll Set Point:	0.059	Pitch Set Point:	-0.192	Yaw Set Point:	0.511	X_WP:	0.000	Y_WP:	0.000	Y_WP:	0.500	X:	-0.005	Y:	0.104	Z:	0.045	yaw:	-29.273	yaw rate:	-0.139	Roll:	-1.890	Pitch:	3.007	Yaw:	-44.022	Thrust:	100.000
Time:	4.034	Roll Set Point:	0.059	Pitch Set Point:	-0.192	Yaw Set Point:	0.510	X_WP:	0.000	Y_WP:	0.000	Y_WP:	0.500	X:	-0.005	Y:	0.104	Z:	0.045	yaw:	-29.244	yaw rate:	2.906	Roll:	-1.777	Pitch:	2.980	Yaw:	-43.471	Thrust:	100.000
Time:	4.050	Roll Set Point:	0.059	Pitch Set Point:	-0.192	Yaw Set Point:	0.511	X_WP:	0.000	Y_WP:	0.000	Y_WP:	0.500	X:	-0.005	Y:	0.104	Z:	0.045	yaw:	-29.297	yaw rate:	-5.255	Roll:	-1.911	Pitch:	2.964	Yaw:	-44.912	Thrust:	100.000
Time:	4.065	Roll Set Point:	0.059	Pitch Set Point:	-0.192	Yaw Set Point:	0.511	X_WP:	0.000	Y_WP:	0.000	Y_WP:	0.500	X:	-0.005	Y:	0.104	Z:	0.045	yaw:	-29.280	yaw rate:	1.679	Roll:	-1.886	Pitch:	3.017	Yaw:	-43.726	Thrust:	100.000
Time:	4.081	Roll Set Point:	0.059	Pitch Set Point:	-0.192	Yaw Set Point:	0.511	X_WP:	0.000	Y_WP:	0.000	Y_WP:	0.500	X:	-0.005	Y:	0.104	Z:	0.045	yaw:	-29.264	yaw rate:	1.559	Roll:	-1.836	Pitch:	3.034	Yaw:	-43.725	Thrust:	100.000
Time:	4.097	Roll Set Point:	0.059	Pitch Set Point:	-0.192	Yaw Set Point:	0.510	X_WP:	0.000	Y_WP:	0.000	Y_WP:	0.500	X:	-0.005	Y:	0.104	Z:	0.045	yaw:	-29.235	yaw rate:	2.979	Roll:	-1.773	Pitch:	3.023	Yaw:	-43.446	Thrust:	100.000
Time:	4.112	Roll Set Point:	0.059	Pitch Set Point:	-0.192	Yaw Set Point:	0.510	X_WP:	0.000	Y_WP:	0.000	Y_WP:	0.500	X:	-0.005	Y:	0.104	Z:	0.045	yaw:	-29.235	yaw rate:	2.979	Roll:	-1.865	Pitch:	3.013	Yaw:	-43.944	Thrust:	100.000
Time:	4.128	Roll Set Point:	0.059	Pitch Set Point:	-0.192	Yaw Set Point:	0.511	X_WP:	0.000	Y_WP:	0.000	Y_WP:	0.500	X:	-0.005	Y:	0.104	Z:	0.045	yaw:	-29.275	yaw rate:	-4.006	Roll:	-1.904	Pitch:	2.980	Yaw:	-44.672	Thrust:	100.000
Time:	4.143	Roll Set Point:	0.059	Pitch Set Point:	-0.192	Yaw Set Point:	0.511	X_WP:	0.000	Y_WP:	0.000	Y_WP:	0.500	X:	-0.005	Y:	0.104	Z:	0.045	yaw:	-29.264	yaw rate:	-1.504	Roll:	-1.908	Pitch:	3.029	Yaw:	-43.812	Thrust:	100.000
Time:	4.159	Roll Set Point:	0.059	Pitch Set Point:	-0.192	Yaw Set Point:	0.510	X_WP:	0.000	Y_WP:	0.000	Y_WP:	0.500	X:	-0.005	Y:	0.104	Z:	0.045	yaw:	-29.244	yaw rate:	1.992	Roll:	-1.835	Pitch:	3.053	Yaw:	-43.624	Thrust:	100.000
Time:	4.175	Roll Set Point:	0.059	Pitch Set Point:	-0.192	Yaw Set Point:	0.510	X_WP:	0.000	Y_WP:	0.000	Y_WP:	0.500	X:	-0.005	Y:	0.104	Z:	0.045	yaw:	-29.244	yaw rate:	1.992	Roll:	-1.874	Pitch:	3.027	Yaw:	-43.958	Thrust:	100.000
Time:	4.190	Roll Set Point:	0.059	Pitch Set Point:	-0.192	Yaw Set Point:	0.511	X_WP:	0.000	Y_WP:	0.000	Y_WP:	0.500	X:	-0.005	Y:	0.104	Z:	0.045	yaw:	-29.274	yaw rate:	-2.949	Roll:	-1.905	Pitch:	3.006	Yaw:	-44.493	Thrust:	100.000
Time:	4.206	Roll Set Point:	0.059	Pitch Set Point:	-0.192	Yaw Set Point:	0.510	X_WP:	0.000	Y_WP:	0.000	Y_WP:	0.500	X:	-0.005	Y:	0.104	Z:	0.045	yaw:	-29.224	yaw rate:	5.022	Roll:	-1.799	Pitch:	3.102	Yaw:	-43.088	Thrust:	100.000
Time:	4.222	Roll Set Point:	0.059	Pitch Set Point:	-0.192	Yaw Set Point:	0.510	X_WP:	0.000	Y_WP:	0.000	Y_WP:	0.500	X:	-0.005	Y:	0.104	Z:	0.045	yaw:	-29.240	yaw rate:	-1.799	Roll:	-1.879	Pitch:	3.001	Yaw:	-44.229	Thrust:	100.000
Time:	4.237	Roll Set Point:	0.059	Pitch Set Point:	-0.192	Yaw Set Point:	0.510	X_WP:	0.000	Y_WP:	0.000	Y_WP:	0.500	X:	-0.005	Y:	0.104	Z:	0.045	yaw:	-29.245	yaw rate:	-0.514	Roll:	-1.873	Pitch:	3.039	Yaw:	-44.046	Thrust:	100.000
Time:	4.253	Roll Set Point:	0.059	Pitch Set Point:	-0.192	Yaw Set Point:	0.511	X_WP:	0.000	Y_WP:	0.000	Y_WP:	0.500	X:	-0.005	Y:	0.104	Z:	0.045	yaw:	-29.253	yaw rate:	-0.779	Roll:	-1.942	Pitch:	3.019	Yaw:	-44.101	Thrust:	100.000
Time:	4.269	Roll Set Point:	0.059	Pitch Set Point:	-0.192	Yaw Set Point:	0.511	X_WP:	0.000	Y_WP:	0.000	Y_WP:	0.500	X:	-0.005	Y:	0.104	Z:	0.045	yaw:	-29.265	yaw rate:	-1.243	Roll:	-1.888	Pitch:	3.052	Yaw:	-44.202	Thrust:	100.000
Time:	4.284	Roll Set Point:	0.059	Pitch Set Point:	-0.192	Yaw Set Point:	0.511	X_WP:	0.000	Y_WP:	0.000	Y_WP:	0.500	X:	-0.005	Y:	0.104	Z:	0.045	yaw:	-29.276	yaw rate:	-1.010	Roll:	-1.929	Pitch:	3.015	Yaw:	-44.165	Thrust:	100.000
Time:	4.300	Roll Set Point:	0.059	Pitch Set Point:	-0.192	Yaw Set Point:	0.511	X_WP:	0.000	Y_WP:	0.000	Y_WP:	0.500	X:	-0.005	Y:	0.104	Z:	0.045	yaw:	-29.260	yaw rate:	1.508	Roll:	-1.836	Pitch:	3.063	Yaw:	-43.728	Thrust:	100.000
Time:	4.315	Roll Set Point:	0.059	Pitch Set Point:	-0.192	Yaw Set Point:	0.511	X_WP:	0.000	Y_WP:	0.000	Y_WP:	0.500	X:	-0.005	Y:	0.104	Z:	0.045	yaw:	-29.260	yaw rate:	1.508	Roll:	-1.893	Pitch:	3.057	Yaw:	-43.981	Thrust:	100.000
Time:	4.331	Roll Set Point:	0.059	Pitch Set Point:	-0.192	Yaw Set Point:	0.510	X_WP:	0.000	Y_WP:	0.000	Y_WP:	0.500	X:	-0.005	Y:	0.104	Z:	0.045	yaw:	-29.247	yaw rate:	1.153	Roll:	-1.898	Pitch:	3.115	Yaw:	-43.731	Thrust:	100.000
Time:	4.347	Roll Set Point:	0.059	Pitch Set Point:	-0.192	Yaw Set Point:	0.511	X_WP:	0.000	Y_WP:	0.000	Y_WP:	0.500	X:	-0.005	Y:	0.104	Z:	0.045	yaw:	-29.275	yaw rate:	-2.807	Roll:	-1.964	Pitch:	3.038	Yaw:	-44.471	Thrust:	100.000
Time:	4.362	Roll Set Point:	0.059	Pitch Set Point:	-0.192	Yaw Set Point:	0.511	X_WP:	0.000	Y_WP:	0.000	Y_WP:	0.500	X:	-0.005	Y:	0.104	Z:	0.045	yaw:	-29.275	yaw rate:	-2.807	Roll:	-1.901	Pitch:	3.068	Yaw:	-44.000	Thrust:	100.000
Time:	4.378	Roll Set Point:	0.059	Pitch Set Point:	-0.192	Yaw Set Point:	0.509	X_WP:	0.000	Y_WP:	0.000	Y_WP:	0.500	X:	-0.005	Y:	0.104	Z:	0.045	yaw:	-29.190	yaw rate:	8.521	Roll:	-1.765	Pitch:	3.146	Yaw:	-42.454	Thrust:	100.000
Time:	4.394	Roll Set Point:	0.059	Pitch Set Point:	-0.192	Yaw Set Point:	0.509	X_WP:	0.000	Y_WP:	0.000	Y_WP:	0.500	X:	-0.005	Y:	0.104	Z:	0.045	yaw:	-29.190	yaw rate:	8.521	Roll:	-1.902	Pitch:	3.078	Yaw:	-43.888	Thrust:	100.000
Time:	4.409	Roll Set Point:	0.059	Pitch Set Point:	-0.192	Yaw Set Point:	0.511	X_WP:	0.000	Y_WP:	0.000	Y_WP:	0.500	X:	-0.005	Y:	0.104	Z:	0.045	yaw:	-29.255	yaw rate:	-0.996	Roll:	-1.999	Pitch:	3.022	Yaw:	-45.062	Thrust:	100.000
Time:	4.425	Roll Set Point:	0.059	Pitch Set Point:	-0.192	Yaw Set Point:	0.511	X_WP:	0.000	Y_WP:	0.000	Y_WP:	0.500	X:	-0.005	Y:	0.104	Z:	0.045	yaw:	-29.255	yaw rate:	-0.996	Roll:	-1.909	Pitch:	3.082	Yaw:	-43.973	Thrust:	100.000
Time:	4.440	Roll Set Point:	0.059	Pitch Set Point:	-0.192	Yaw Set Point:	0.510	X_WP:	0.000	Y_WP:	0.000	Y_WP:	0.500	X:	-0.005	Y:	0.104	Z:	0.045	yaw:	-29.234	yaw rate:	2.032	Roll:	-1.825	Pitch:	3.085	Yaw:	-43.604	Thrust:	100.000
Time:	4.456	Roll Set Point:	0.059	Pitch Set Point:	-0.192	Yaw Set Point:	0.510	X_WP:	0.000	Y_WP:	0.000	Y_WP:	0.500	X:	-0.005	Y:	0.104	Z:	0.045	yaw:	-29.227	yaw rate:	0.761	Roll:	-1.919	Pitch:	3.058	Yaw:	-43.806	Thrust:	100.000
Time:	4.472	Roll Set Point:	0.059	Pitch Set Point:	-0.192	Yaw Set Point:	0.509	X_WP:	0.000	Y_WP:	0.000	Y_WP:	0.500	X:	-0.005	Y:	0.104	Z:	0.045	yaw:	-29.183	yaw rate:	3.644	Roll:	-1.970	Pitch:	3.181	Yaw:	-43.139	Thrust:	100.000
Time:	4.487	Roll Set Point:	0.059	Pitch Set Point:	-0.192	Yaw Set Point:	0.509	X_WP:	0.000	Y_WP:	0.000	Y_WP:	0.500	X:	-0.005	Y:	0.104	Z:	0.045	yaw:	-29.183	yaw rate:	3.644	Roll:	-1.917	Pitch:	3.098	Yaw:	-43.878	Thrust:	100.000
Time:	4.503	Roll Set Point:	0.059	Pitch Set Point:	-0.192	Yaw Set Point:	0.510	X_WP:	0.000	Y_WP:	0.000	Y_WP:	0.500	X:	-0.005	Y:	0.104	Z:	0.045	yaw:	-29.229	yaw rate:	5.160	Roll:	-1.858	Pitch:	3.006	Yaw:	-44.697	Thrust:	100.000
Time:	4.519	Roll Set Point:	0.059	Pitch Set Point:	-0.192	Yaw Set Point:	0.510	X_WP:	0.000	Y_WP:	0.000	Y_WP:	0.500	X:	-0.005	Y:	0.104	Z:	0.045	yaw:	-29.248	yaw rate:	-1.892	Roll:	-1.947	Pitch:	3.116	Yaw:	-44.290	Thrust:	100.000
Time:	4.534	Roll Set Point:	0.059	Pitch Set Point:	-0.192	Yaw Set Point:	0.510	X_WP:	0.000	Y_WP:	0.000	Y_WP:	0.500	X:	-0.005	Y:	0.104	Z:	0.045	yaw:	-29.233	yaw rate:	1.442	Roll:	-1.953	Pitch:	3.119	Yaw:	-43.707	Thrust:	100.000
Time:	4.550	Roll Set Point:	0.059	Pitch Set Point:	-0.192	Yaw Set Point:	0.510	X_WP:	0.000	Y_WP:	0.000	Y_WP:	0.500	X:	-0.005	Y:	0.104	Z:	0.045	yaw:	-29.233	yaw rate:	1.442	Roll:	-1.923	Pitch:	3.106	Yaw:	-43.925	Thrust:	100.000
Time:	4.565	Roll Set Point:	0.059	Pitch Set Point:	-0.192	Yaw Set Point:	0.511	X_WP:	0.000	Y_WP:	0.000	Y_WP:	0.500	X:	-0.005	Y:	0.104	Z:	0.045	yaw:	-29.265	yaw rate:	-5.022	Roll:	-1.973	Pitch:	3.064	Yaw:	-44.517	Thrust:	100.000
Time:	4.581	Roll Set Point:	0.059	Pitch Set Point:	-0.192	Yaw Set Point:	0.511	X_WP:	0.000	Y_WP:	0.000	Y_WP:	0.500	X:	-0.005	Y:	0.104	Z:	0.045	yaw:	-29.275	yaw rate:	-0.972	Roll:	-1.850	Pitch:	3.109	Yaw:	-44.163	Thrust:	100.000
Time:	4.597	Roll Set Point:	0.059	Pitch Set Point:	-0.192	Yaw Set Point:	0.510	X_WP:	0.000	Y_WP:	0.000	Y_WP:	0.500	X:	-0.005	Y:	0.104	Z:	0.045	yaw:	-29.199	yaw rate:	7.561	Roll:	-1.870	Pitch:	3.224	Yaw:	-42.628	Thrust:	100.000
Time:	4.612	Roll Set Point:	0.059	Pitch Set Point:	-0.192	Yaw Set Point:	0.511	X_WP:	0.000	Y_WP:	0.000	Y_WP:	0.500	X:	-0.005	Y:	0.104	Z:	0.045	yaw:	-29.258	yaw rate:	-5.925	Roll:	-2.023	Pitch:	3.042	Yaw:	-44.974	Thrust:	100.000
Time:	4.628	Roll Set Point:	0.059	Pitch Set Point:	-0.192	Yaw Set Point:	0.510	X_WP:	0.000	Y_WP:	0.000	Y_WP:	0.500	X:	-0.005	Y:	0.104	Z:	0.045	yaw:	-29.244	yaw rate:	1.428	Roll:	-1.909	Pitch:	3.125	Yaw:	-43.712	Thrust:	100.000
Time:	4.644	Roll Set Point:	0.059	Pitch Set Point:	-0.192	Yaw Set Point:	0.510	X_WP:	0.000	Y_WP:	0.000	Y_WP:	0.500	X:	-0.005	Y:	0.104	Z:	0.045	yaw:	-29.244	yaw rate:	1.428	Roll:	-1.937	Pitch:	3.129	Yaw:	-43.958	Thrust:	100.000
Time:	4.659	Roll Set Point:	0.059	Pitch Set Point:	-0.192	Yaw Set Point:	0.511	X_WP:	0.000	Y_WP:	0.000	Y_WP:	0.500	X:	-0.005	Y:	0.104	Z:	0.045	yaw:	-29.280	yaw rate:	-3.571	Roll:	-2.045	Pitch:	3.104	Yaw:	-44.606	Thrust:	100.000
Time:	4.675	Roll Set Point:	0.059	Pitch Set Point:	-0.192	Yaw Set Point:	0.511	X_WP:	0.000	Y_WP:	0.000	Y_WP:	0.500	X:	-0.005	Y:	0.104	Z:	0.045	yaw:	-29.263	yaw rate:	1.695	Roll:	-1.867	Pitch:	3.183	Yaw:	-43.706	Thrust:	100.000
Time:	4.690	Roll Set Point:	0.059	Pitch Set Point:	-0.192	Yaw Set Point:	0.510	X_WP:	0.000	Y_WP:	0.000	Y_WP:	0.500	X:	-0.005	Y:	0.104	Z:	0.045	yaw:	-29.221	yaw rate:	4.205	Roll:	-1.874	Pitch:	3.177	Yaw:	-43.216	Thrust:	100.000
Time:	4.706	Roll Set Point:	0.059	Pitch Set Point:	-0.192	Yaw Set Point:	0.511	X_WP:	0.000	Y_WP:	0.000	Y_WP:	0.500	X:	-0.005	Y:	0.104	Z:	0.045	yaw:	-29.283	yaw rate:	-6.212	Roll:	-2.057	Pitch:	3.049	Yaw:	-45.055	Thrust:	100.000
Time:	4.722	Roll Set Point:	0.059	Pitch Set Point:	-0.192	Yaw Set Point:	0.510	X_WP:	0.000	Y_WP:	0.000	Y_WP:	0.500	X:	-0.005	Y:	0.104	Z:	0.045	yaw:	-29.249	yaw rate:	2.607	Roll:	-1.928	Pitch:	3.201	Yaw:	-43.389	Thrust:	100.000
Time:	4.737	Roll Set Point:	0.059	Pitch Set Point:	-0.192	Yaw Set Point:	0.511	X_WP:	0.000	Y_WP:	0.000	Y_WP:	0.500	X:	-0.005	Y:	0.104	Z:	0.045	yaw:	-29.269	yaw rate:	-2.000	Roll:	-1.996	Pitch:	3.130	Yaw:	-44.327	Thrust:	100.000
Time:	4.753	Roll Set Point:	0.059	Pitch Set Point:	-0.192	Yaw Set Point:	0.511	X_WP:	0.000	Y_WP:	0.000	Y_WP:	0.500	X:	-0.005	Y:	0.104	Z:	0.045	yaw:	-29.269	yaw rate:	-2.000	Roll:	-1.955	Pitch:	3.150	Yaw:	-43.998	Thrust:	100.000
Time:	4.769	Roll Set Point:	0.059	Pitch Set Point:	-0.192	Yaw Set Point:	0.510	X_WP:	0.000	Y_WP:	0.000	Y_WP:	0.500	X:	-0.005	Y:	0.104	Z:	0.045	yaw:	-29.248	yaw rate:	2.101	Roll:	-1.892	Pitch:	3.125	Yaw:	-43.604	Thrust:	100.000
Time:	4.784	Roll Set Point:	0.059	Pitch Set Point:	-0.192	Yaw Set Point:	0.510	X_WP:	0.000	Y_WP:	0.000	Y_WP:	0.500	X:	-0.005	Y:	0.104	Z:	0.045	yaw:	-29.236	yaw rate:	2.015	Roll:	-1.951	Pitch:	3.232	Yaw:	-43.751	Thrust:	100.000
Time:	4.800	Roll Set Point:	0.059	Pitch Set Point:	-0.192	Yaw Set Point:	0.511	X_WP:	0.000	Y_WP:	0.000	Y_WP:	0.500	X:	-0.005	Y:	0.104	Z:	0.045	yaw:	-29.265	yaw rate:	-2.868	Roll:	-2.003	Pitch:	3.118	Yaw:	-44.462	Thrust:	100.000
Time:	4.815	Roll Set Point:	0.059	Pitch Set Point:	-0.192	Yaw Set Point:	0.510	X_WP:	0.000	Y_WP:	0.000	Y_WP:	0.500	X:	-0.005	Y:	0.104	Z:	0.045	yaw:	-29.239	yaw rate:	2.577	Roll:	-1.910	Pitch:	3.122	Yaw:	-43.518	Thrust:	100.000
Time:	4.831	Roll Set Point:	0.059	Pitch Set Point:	-0.192	Yaw Set Point:	0.510	X_WP:	0.000	Y_WP:	0.000	Y_WP:	0.500	X:	-0.005	Y:	0.104	Z:	0.045	yaw:	-29.244	yaw rate:	-0.508	Roll:	-1.940	Pitch:	3.181	Yaw:	-44.043	Thrust:	100.000
Time:	4.847	Roll Set Point:	0.059	Pitch Set Point:	-0.192	Yaw Set Point:	0.511	X_WP:	0.000	Y_WP:	0.000	Y_WP:	0.500	X:	-0.005	Y:	0.104	Z:	0.045	yaw:	-29.259	yaw rate:	-1.515	Roll:	-2.053	Pitch:	3.125	Yaw:	-44.232	Thrust:	100.000
Time:	4.862	Roll Set Point:	0.059	Pitch Set Point:	-0.192	Yaw Set Point:	0.511	X_WP:	0.000	Y_WP:	0.000	Y_WP:	0.500	X:	-0.005	Y:	0.104	Z:	0.045	yaw:	-29.257	yaw rate:	0.187	Roll:	-1.933	Pitch:	3.131	Yaw:	-43.951	Thrust:	100.000
Time:	4.878	Roll Set Point:	0.059	Pitch Set Point:	-0.192	Yaw Set Point:	0.511	X_WP:	0.000	Y_WP:	0.000	Y_WP:	0.500	X:	-0.005	Y:	0.104	Z:	0.045	yaw:	-29.257	yaw rate:	0.187	Roll:	-1.969	Pitch:	3.147	Yaw:	-43.970	Thrust:	100.000
Time:	4.906	Roll Set Point:	0.059	Pitch Set Point:	-0.192	Yaw Set Point:	0.510	X_WP:	0.000	Y_WP:	0.000	Y_WP:	0.500	X:	-0.005	Y:	0.104	Z:	0.045	yaw:	-29.232	yaw rate:	0.595	Roll:	-2.270	Pitch:	3.654	Yaw:	-46.235	Thrust:	100.000
Time:	4.922	Roll Set Point:	0.059	Pitch Set Point:	-0.192	Yaw Set Point:	0.511	X_WP:	0.000	Y_WP:	0.000	Y_WP:	0.500	X:	-0.005	Y:	0.104	Z:	0.045	yaw:	-29.257	yaw rate:	2.294	Roll:	-2.001	Pitch:	3.101	Yaw:	-44.401	Thrust:	100.000
Time:	4.937	Roll Set Point:	0.059	Pitch Set Point:	-0.192	Yaw Set Point:	0.511	X_WP:	0.000	Y_WP:	0.000	Y_WP:	0.500	X:	-0.005	Y:	0.104	Z:	0.045	yaw:	-29.257	yaw rate:	2.294	Roll:	-1.977	Pitch:	3.150	Yaw:	-43.981	Thrust:	100.000
Time:	4.953	Roll Set Point:	0.059	Pitch Set Point:	-0.192	Yaw Set Point:	0.511	X_WP:	0.000	Y_WP:	0.000	Y_WP:	0.500	X:	-0.005	Y:	0.104	Z:	0.045	yaw:	-29.252	yaw rate:	0.758	Roll:	-2.043	Pitch:	3.162	Yaw:	-43.864	Thrust:	100.000
Time:	4.969	Roll Set Point:	0.059	Pitch Set Point:	-0.192	Yaw Set Point:	0.510	X_WP:	0.000	Y_WP:	0.000	Y_WP:	0.500	X:	-0.005	Y:	0.104	Z:	0.045	yaw:	-29.227	yaw rate:	2.487	Roll:	-1.845	Pitch:	3.197	Yaw:	-43.516	Thrust:	100.000
Time:	4.984	Roll Set Point:	0.059	Pitch Set Point:	-0.192	Yaw Set Point:	0.511	X_WP:	0.000	Y_WP:	0.000	Y_WP:	0.500	X:	-0.005	Y:	0.104	Z:	0.045	yaw:	-29.264	yaw rate:	-3.757	Roll:	-2.055	Pitch:	3.083	Yaw:	-44.615	Thrust:	100.000
Time:	5.000	Roll Set Point:	0.059	Pitch Set Point:	-0.192	Yaw Set Point:	0.511	X_WP:	0.000	Y_WP:	0.000	Y_WP:	0.500	X:	-0.005	Y:	0.104	Z:	0.045	yaw:	-29.251	yaw rate:	1.345	Roll:	-1.909	Pitch:	3.189	Yaw:	-43.742	Thrust:	100.000
Time:	5.016	Roll Set Point:	0.059	Pitch Set Point:	-0.192	Yaw Set Point:	0.510	X_WP:	0.000	Y_WP:	0.000	Y_WP:	0.500	X:	-0.005	Y:	0.104	Z:	0.045	yaw:	-29.245	yaw rate:	0.623	Roll:	-2.080	Pitch:	3.130	Yaw:	-43.854	Thrust:	100.000
Time:	5.031	Roll Set Point:	0.059	Pitch Set Point:	-0.192	Yaw Set Point:	0.511	X_WP:	0.000	Y_WP:	0.000	Y_WP:	0.500	X:	-0.005	Y:	0.104	Z:	0.045	yaw:	-29.260	yaw rate:	-1.593	Roll:	-1.963	Pitch:	3.156	Yaw:	-44.247	Thrust:	100.000
Time:	5.047	Roll Set Point:	0.059	Pitch Set Point:	-0.192	Yaw Set Point:	0.511	X_WP:	0.000	Y_WP:	0.000	Y_WP:	0.500	X:	-0.005	Y:	0.104	Z:	0.045	yaw:	-29.276	yaw rate:	-1.560	Roll:	-2.045	Pitch:	3.110	Yaw:	-44.264	Thrust:	100.000
Time:	5.064	Roll Set Point:	0.059	Pitch Set Point:	-0.192	Yaw Set Point:	0.511	X_WP:	0.000	Y_WP:	0.000	Y_WP:	0.500	X:	-0.005	Y:	0.104	Z:	0.045	yaw:	-29.266	yaw rate:	1.038	Roll:	-1.968	Pitch:	3.190	Yaw:	-44.088	Thrust:	100.000
Time:	5.093	Roll Set Point:	0.059	Pitch Set Point:	-0.192	Yaw Set Point:	0.511	X_WP:	0.000	Y_WP:	0.000	Y_WP:	0.500	X:	-0.005	Y:	0.104	Z:	0.045	yaw:	-29.250	yaw rate:	1.982	Roll:	-2.347	Pitch:	3.688	Yaw:	-46.449	Thrust:	100.000
Time:	5.108	Roll Set Point:	0.059	Pitch Set Point:	-0.192	Yaw Set Point:	0.511	X_WP:	0.000	Y_WP:	0.000	Y_WP:	0.500	X:	-0.005	Y:	0.104	Z:	0.045	yaw:	-29.250	yaw rate:	1.982	Roll:	-1.998	Pitch:	3.151	Yaw:	-43.972	Thrust:	100.000
Time:	5.124	Roll Set Point:	0.059	Pitch Set Point:	-0.192	Yaw Set Point:	0.511	X_WP:	0.000	Y_WP:	0.000	Y_WP:	0.500	X:	-0.005	Y:	0.104	Z:	0.045	yaw:	-29.254	yaw rate:	1.491	Roll:	-1.998	Pitch:	3.162	Yaw:	-44.022	Thrust:	100.000
Time:	5.139	Roll Set Point:	0.059	Pitch Set Point:	-0.192	Yaw Set Point:	0.511	X_WP:	0.000	Y_WP:	0.000	Y_WP:	0.500	X:	-0.005	Y:	0.104	Z:	0.045	yaw:	-29.254	yaw rate:	1.491	Roll:	-2.002	Pitch:	3.150	Yaw:	-43.971	Thrust:	100.000
Time:	5.155	Roll Set Point:	0.059	Pitch Set Point:	-0.192	Yaw Set Point:	0.511	X_WP:	0.000	Y_WP:	0.000	Y_WP:	0.500	X:	-0.005	Y:	0.104	Z:	0.045	yaw:	-29.258	yaw rate:	0.758	Roll:	-2.001	Pitch:	3.122	Yaw:	-44.049	Thrust:	100.000
Time:	5.171	Roll Set Point:	0.059	Pitch Set Point:	-0.192	Yaw Set Point:	0.511	X_WP:	0.000	Y_WP:	0.000	Y_WP:	0.500	X:	-0.005	Y:	0.104	Z:	0.045	yaw:	-29.271	yaw rate:	-1.358	Roll:	-2.049	Pitch:	3.128	Yaw:	-44.220	Thrust:	100.000
Time:	5.186	Roll Set Point:	0.059	Pitch Set Point:	-0.192	Yaw Set Point:	0.511	X_WP:	0.000	Y_WP:	0.000	Y_WP:	0.500	X:	-0.005	Y:	0.104	Z:	0.045	yaw:	-29.271	yaw rate:	-1.358	Roll:	-2.011	Pitch:	3.151	Yaw:	-44.009	Thrust:	100.000
Time:	5.202	Roll Set Point:	0.059	Pitch Set Point:	-0.192	Yaw Set Point:	0.510	X_WP:	0.000	Y_WP:	0.000	Y_WP:	0.500	X:	-0.005	Y:	0.104	Z:	0.045	yaw:	-29.224	yaw rate:	5.571	Roll:	-2.002	Pitch:	3.205	Yaw:	-43.138	Thrust:	100.000
Time:	5.218	Roll Set Point:	0.059	Pitch Set Point:	-0.192	Yaw Set Point:	0.510	X_WP:	0.000	Y_WP:	0.000	Y_WP:	0.500	X:	-0.005	Y:	0.104	Z:	0.045	yaw:	-29.219	yaw rate:	0.460	Roll:	-1.929	Pitch:	3.164	Yaw:	-43.834	Thrust:	100.000
Time:	5.233	Roll Set Point:	0.059	Pitch Set Point:	-0.192	Yaw Set Point:	0.511	X_WP:	0.000	Y_WP:	0.000	Y_WP:	0.500	X:	-0.005	Y:	0.104	Z:	0.045	yaw:	-29.270	yaw rate:	-5.021	Roll:	-2.132	Pitch:	3.069	Yaw:	-44.835	Thrust:	100.000
Time:	5.249	Roll Set Point:	0.059	Pitch Set Point:	-0.192	Yaw Set Point:	0.511	X_WP:	0.000	Y_WP:	0.000	Y_WP:	0.500	X:	-0.005	Y:	0.104	Z:	0.045	yaw:	-29.263	yaw rate:	0.647	Roll:	-1.946	Pitch:	3.176	Yaw:	-43.876	Thrust:	100.000
Time:	5.264	Roll Set Point:	0.059	Pitch Set Point:	-0.192	Yaw Set Point:	0.511	X_WP:	0.000	Y_WP:	0.000	Y_WP:	0.500	X:	-0.005	Y:	0.104	Z:	0.045	yaw:	-29.262	yaw rate:	0.104	Roll:	-2.084	Pitch:	3.118	Yaw:	-43.966	Thrust:	100.000
Time:	5.280	Roll Set Point:	0.059	Pitch Set Point:	-0.192	Yaw Set Point:	0.510	X_WP:	0.000	Y_WP:	0.000	Y_WP:	0.500	X:	-0.005	Y:	0.104	Z:	0.045	yaw:	-29.234	yaw rate:	2.812	Roll:	-1.945	Pitch:	3.198	Yaw:	-43.473	Thrust:	100.000
Time:	5.296	Roll Set Point:	0.059	Pitch Set Point:	-0.192	Yaw Set Point:	0.511	X_WP:	0.000	Y_WP:	0.000	Y_WP:	0.500	X:	-0.005	Y:	0.104	Z:	0.045	yaw:	-29.262	yaw rate:	-2.787	Roll:	-2.067	Pitch:	3.152	Yaw:	-44.450	Thrust:	100.000
Time:	5.311	Roll Set Point:	0.059	Pitch Set Point:	-0.192	Yaw Set Point:	0.511	X_WP:	0.000	Y_WP:	0.000	Y_WP:	0.500	X:	-0.005	Y:	0.104	Z:	0.045	yaw:	-29.263	yaw rate:	-0.093	Roll:	-1.989	Pitch:	3.098	Yaw:	-43.999	Thrust:	100.000
Time:	5.327	Roll Set Point:	0.059	Pitch Set Point:	-0.192	Yaw Set Point:	0.511	X_WP:	0.000	Y_WP:	0.000	Y_WP:	0.500	X:	-0.005	Y:	0.104	Z:	0.045	yaw:	-29.263	yaw rate:	-0.093	Roll:	-2.027	Pitch:	3.148	Yaw:	-43.984	Thrust:	100.000
Time:	5.343	Roll Set Point:	0.059	Pitch Set Point:	-0.192	Yaw Set Point:	0.511	X_WP:	0.000	Y_WP:	0.000	Y_WP:	0.500	X:	-0.005	Y:	0.104	Z:	0.045	yaw:	-29.259	yaw rate:	0.335	Roll:	-2.021	Pitch:	3.148	Yaw:	-43.923	Thrust:	100.000
Time:	5.358	Roll Set Point:	0.059	Pitch Set Point:	-0.192	Yaw Set Point:	0.511	X_WP:	0.000	Y_WP:	0.000	Y_WP:	0.500	X:	-0.005	Y:	0.104	Z:	0.045	yaw:	-29.268	yaw rate:	-0.860	Roll:	-2.108	Pitch:	3.189	Yaw:	-44.141	Thrust:	100.000
Time:	5.374	Roll Set Point:	0.059	Pitch Set Point:	-0.192	Yaw Set Point:	0.510	X_WP:	0.000	Y_WP:	0.000	Y_WP:	0.500	X:	-0.005	Y:	0.104	Z:	0.045	yaw:	-29.205	yaw rate:	6.260	Roll:	-1.905	Pitch:	3.220	Yaw:	-42.847	Thrust:	100.000
Time:	5.389	Roll Set Point:	0.059	Pitch Set Point:	-0.192	Yaw Set Point:	0.510	X_WP:	0.000	Y_WP:	0.000	Y_WP:	0.500	X:	-0.005	Y:	0.104	Z:	0.045	yaw:	-29.205	yaw rate:	6.260	Roll:	-2.034	Pitch:	3.151	Yaw:	-43.904	Thrust:	100.000
Time:	5.405	Roll Set Point:	0.059	Pitch Set Point:	-0.192	Yaw Set Point:	0.510	X_WP:	0.000	Y_WP:	0.000	Y_WP:	0.500	X:	-0.005	Y:	0.104	Z:	0.045	yaw:	-29.233	yaw rate:	2.119	Roll:	-2.115	Pitch:	3.088	Yaw:	-44.416	Thrust:	100.000
Time:	5.421	Roll Set Point:	0.059	Pitch Set Point:	-0.192	Yaw Set Point:	0.510	X_WP:	0.000	Y_WP:	0.000	Y_WP:	0.500	X:	-0.005	Y:	0.104	Z:	0.045	yaw:	-29.233	yaw rate:	0.002	Roll:	-2.025	Pitch:	3.188	Yaw:	-43.936	Thrust:	100.000
Time:	5.436	Roll Set Point:	0.059	Pitch Set Point:	-0.192	Yaw Set Point:	0.510	X_WP:	0.000	Y_WP:	0.000	Y_WP:	0.500	X:	-0.005	Y:	0.104	Z:	0.045	yaw:	-29.233	yaw rate:	0.002	Roll:	-2.043	Pitch:	3.152	Yaw:	-43.949	Thrust:	100.000
Time:	5.452	Roll Set Point:	0.059	Pitch Set Point:	-0.192	Yaw Set Point:	0.511	X_WP:	0.000	Y_WP:	0.000	Y_WP:	0.500	X:	-0.005	Y:	0.104	Z:	0.045	yaw:	-29.254	yaw rate:	-2.047	Roll:	-2.035	Pitch:	3.071	Yaw:	-44.309	Thrust:	100.000
Time:	5.468	Roll Set Point:	0.059	Pitch Set Point:	-0.192	Yaw Set Point:	0.510	X_WP:	0.000	Y_WP:	0.000	Y_WP:	0.500	X:	-0.005	Y:	0.104	Z:	0.045	yaw:	-29.236	yaw rate:	2.335	Roll:	-2.038	Pitch:	3.178	Yaw:	-43.647	Thrust:	100.000
Time:	5.483	Roll Set Point:	0.059	Pitch Set Point:	-0.192	Yaw Set Point:	0.511	X_WP:	0.000	Y_WP:	0.000	Y_WP:	0.500	X:	-0.005	Y:	0.104	Z:	0.045	yaw:	-29.299	yaw rate:	-6.283	Roll:	-2.202	Pitch:	3.091	Yaw:	-45.087	Thrust:	100.000
Time:	5.499	Roll Set Point:	0.059	Pitch Set Point:	-0.192	Yaw Set Point:	0.511	X_WP:	0.000	Y_WP:	0.000	Y_WP:	0.500	X:	-0.005	Y:	0.104	Z:	0.045	yaw:	-29.252	yaw rate:	4.682	Roll:	-1.962	Pitch:	3.197	Yaw:	-43.185	Thrust:	100.000
Time:	5.514	Roll Set Point:	0.059	Pitch Set Point:	-0.192	Yaw Set Point:	0.510	X_WP:	0.000	Y_WP:	0.000	Y_WP:	0.500	X:	-0.005	Y:	0.104	Z:	0.045	yaw:	-29.239	yaw rate:	1.274	Roll:	-1.951	Pitch:	3.156	Yaw:	-43.738	Thrust:	100.000
Time:	5.530	Roll Set Point:	0.059	Pitch Set Point:	-0.192	Yaw Set Point:	0.511	X_WP:	0.000	Y_WP:	0.000	Y_WP:	0.500	X:	-0.005	Y:	0.104	Z:	0.045	yaw:	-29.262	yaw rate:	-2.232	Roll:	-2.176	Pitch:	3.137	Yaw:	-44.356	Thrust:	100.000
Time:	5.546	Roll Set Point:	0.059	Pitch Set Point:	-0.192	Yaw Set Point:	0.511	X_WP:	0.000	Y_WP:	0.000	Y_WP:	0.500	X:	-0.005	Y:	0.104	Z:	0.045	yaw:	-29.262	yaw rate:	-2.232	Roll:	-2.059	Pitch:	3.149	Yaw:	-43.982	Thrust:	100.000
Time:	5.561	Roll Set Point:	0.059	Pitch Set Point:	-0.192	Yaw Set Point:	0.511	X_WP:	0.000	Y_WP:	0.000	Y_WP:	0.500	X:	-0.005	Y:	0.104	Z:	0.045	yaw:	-29.256	yaw rate:	0.537	Roll:	-2.026	Pitch:	3.156	Yaw:	-43.885	Thrust:	100.000
Time:	5.577	Roll Set Point:	0.059	Pitch Set Point:	-0.192	Yaw Set Point:	0.511	X_WP:	0.000	Y_WP:	0.000	Y_WP:	0.500	X:	-0.005	Y:	0.104	Z:	0.045	yaw:	-29.276	yaw rate:	-3.330	Roll:	-2.104	Pitch:	3.116	Yaw:	-44.332	Thrust:	100.000
Time:	5.593	Roll Set Point:	0.059	Pitch Set Point:	-0.192	Yaw Set Point:	0.511	X_WP:	0.000	Y_WP:	0.000	Y_WP:	0.500	X:	-0.005	Y:	0.104	Z:	0.045	yaw:	-29.268	yaw rate:	0.797	Roll:	-2.064	Pitch:	3.197	Yaw:	-43.857	Thrust:	100.000
Time:	5.608	Roll Set Point:	0.059	Pitch Set Point:	-0.192	Yaw Set Point:	0.511	X_WP:	0.000	Y_WP:	0.000	Y_WP:	0.500	X:	-0.005	Y:	0.104	Z:	0.045	yaw:	-29.268	yaw rate:	0.797	Roll:	-2.067	Pitch:	3.148	Yaw:	-43.985	Thrust:	100.000
Time:	5.624	Roll Set Point:	0.059	Pitch Set Point:	-0.192	Yaw Set Point:	0.511	X_WP:	0.000	Y_WP:	0.000	Y_WP:	0.500	X:	-0.005	Y:	0.104	Z:	0.045	yaw:	-29.254	yaw rate:	1.397	Roll:	-2.024	Pitch:	3.137	Yaw:	-43.737	Thrust:	100.000
Time:	5.639	Roll Set Point:	0.059	Pitch Set Point:	-0.192	Yaw Set Point:	0.511	X_WP:	0.000	Y_WP:	0.000	Y_WP:	0.500	X:	-0.005	Y:	0.104	Z:	0.045	yaw:	-29.254	yaw rate:	1.397	Roll:	-2.071	Pitch:	3.149	Yaw:	-43.971	Thrust:	100.000
Time:	5.655	Roll Set Point:	0.059	Pitch Set Point:	-0.192	Yaw Set Point:	0.510	X_WP:	0.000	Y_WP:	0.000	Y_WP:	0.500	X:	-0.005	Y:	0.104	Z:	0.045	yaw:	-29.231	yaw rate:	0.108	Roll:	-2.037	Pitch:	3.188	Yaw:	-43.586	Thrust:	100.000
Time:	5.671	Roll Set Point:	0.059	Pitch Set Point:	-0.192	Yaw Set Point:	0.510	X_WP:	0.000	Y_WP:	0.000	Y_WP:	0.500	X:	-0.005	Y:	0.104	Z:	0.045	yaw:	-29.239	yaw rate:	-0.758	Roll:	-2.128	Pitch:	3.119	Yaw:	-44.059	Thrust:	100.000
Time:	5.686	Roll Set Point:	0.059	Pitch Set Point:	-0.192	Yaw Set Point:	0.510	X_WP:	0.000	Y_WP:	0.000	Y_WP:	0.500	X:	-0.005	Y:	0.104	Z:	0.045	yaw:	-29.239	yaw rate:	-0.758	Roll:	-2.077	Pitch:	3.149	Yaw:	-43.950	Thrust:	100.000
Time:	5.702	Roll Set Point:	0.059	Pitch Set Point:	-0.192	Yaw Set Point:	0.510	X_WP:	0.000	Y_WP:	0.000	Y_WP:	0.500	X:	-0.005	Y:	0.104	Z:	0.045	yaw:	-29.248	yaw rate:	-0.872	Roll:	-2.028	Pitch:	3.123	Yaw:	-44.108	Thrust:	100.000
Time:	5.718	Roll Set Point:	0.059	Pitch Set Point:	-0.192	Yaw Set Point:	0.511	X_WP:	0.000	Y_WP:	0.000	Y_WP:	0.500	X:	-0.005	Y:	0.104	Z:	0.045	yaw:	-29.270	yaw rate:	-3.142	Roll:	-2.202	Pitch:	3.148	Yaw:	-44.363	Thrust:	100.000
Time:	5.733	Roll Set Point:	0.059	Pitch Set Point:	-0.192	Yaw Set Point:	0.511	X_WP:	0.000	Y_WP:	0.000	Y_WP:	0.500	X:	-0.005	Y:	0.104	Z:	0.045	yaw:	-29.270	yaw rate:	-3.142	Roll:	-2.087	Pitch:	3.150	Yaw:	-43.999	Thrust:	100.000
Time:	5.749	Roll Set Point:	0.059	Pitch Set Point:	-0.192	Yaw Set Point:	0.510	X_WP:	0.000	Y_WP:	0.000	Y_WP:	0.500	X:	-0.005	Y:	0.104	Z:	0.045	yaw:	-29.193	yaw rate:	3.176	Roll:	-1.987	Pitch:	3.213	Yaw:	-42.611	Thrust:	100.000
Time:	5.764	Roll Set Point:	0.059	Pitch Set Point:	-0.192	Yaw Set Point:	0.511	X_WP:	0.000	Y_WP:	0.000	Y_WP:	0.500	X:	-0.005	Y:	0.104	Z:	0.045	yaw:	-29.257	yaw rate:	-6.345	Roll:	-2.150	Pitch:	3.129	Yaw:	-45.039	Thrust:	100.000
Time:	5.780	Roll Set Point:	0.059	Pitch Set Point:	-0.192	Yaw Set Point:	0.511	X_WP:	0.000	Y_WP:	0.000	Y_WP:	0.500	X:	-0.005	Y:	0.104	Z:	0.045	yaw:	-29.288	yaw rate:	-3.074	Roll:	-2.074	Pitch:	3.087	Yaw:	-44.528	Thrust:	100.000
Time:	5.796	Roll Set Point:	0.059	Pitch Set Point:	-0.192	Yaw Set Point:	0.511	X_WP:	0.000	Y_WP:	0.000	Y_WP:	0.500	X:	-0.005	Y:	0.104	Z:	0.045	yaw:	-29.256	yaw rate:	3.141	Roll:	-2.081	Pitch:	3.154	Yaw:	-43.448	Thrust:	100.000
Time:	5.811	Roll Set Point:	0.059	Pitch Set Point:	-0.192	Yaw Set Point:	0.511	X_WP:	0.000	Y_WP:	0.000	Y_WP:	0.500	X:	-0.005	Y:	0.104	Z:	0.045	yaw:	-29.256	yaw rate:	3.141	Roll:	-2.096	Pitch:	3.149	Yaw:	-43.981	Thrust:	100.000
Time:	5.827	Roll Set Point:	0.059	Pitch Set Point:	-0.192	Yaw Set Point:	0.511	X_WP:	0.000	Y_WP:	0.000	Y_WP:	0.500	X:	-0.005	Y:	0.104	Z:	0.045	yaw:	-29.286	yaw rate:	0.338	Roll:	-2.100	Pitch:	3.141	Yaw:	-44.512	Thrust:	100.000
Time:	5.843	Roll Set Point:	0.059	Pitch Set Point:	-0.192	Yaw Set Point:	0.510	X_WP:	0.000	Y_WP:	0.000	Y_WP:	0.500	X:	-0.005	Y:	0.104	Z:	0.045	yaw:	-29.238	yaw rate:	4.769	Roll:	-2.050	Pitch:	3.200	Yaw:	-43.161	Thrust:	100.000
Time:	5.858	Roll Set Point:	0.059	Pitch Set Point:	-0.192	Yaw Set Point:	0.510	X_WP:	0.000	Y_WP:	0.000	Y_WP:	0.500	X:	-0.005	Y:	0.104	Z:	0.045	yaw:	-29.232	yaw rate:	0.594	Roll:	-2.082	Pitch:	3.157	Yaw:	-43.834	Thrust:	100.000
Time:	5.874	Roll Set Point:	0.059	Pitch Set Point:	-0.192	Yaw Set Point:	0.510	X_WP:	0.000	Y_WP:	0.000	Y_WP:	0.500	X:	-0.005	Y:	0.104	Z:	0.045	yaw:	-29.232	yaw rate:	0.594	Roll:	-2.103	Pitch:	3.151	Yaw:	-43.948	Thrust:	100.000
Time:	5.889	Roll Set Point:	0.059	Pitch Set Point:	-0.192	Yaw Set Point:	0.511	X_WP:	0.000	Y_WP:	0.000	Y_WP:	0.500	X:	-0.005	Y:	0.104	Z:	0.045	yaw:	-29.280	yaw rate:	-9.671	Roll:	-2.202	Pitch:	3.106	Yaw:	-44.729	Thrust:	100.000
Time:	5.907	Roll Set Point:	0.059	Pitch Set Point:	-0.192	Yaw Set Point:	0.511	X_WP:	0.000	Y_WP:	0.000	Y_WP:	0.500	X:	-0.005	Y:	0.104	Z:	0.045	yaw:	-29.280	yaw rate:	-9.671	Roll:	-2.179	Pitch:	3.229	Yaw:	-44.433	Thrust:	100.000
Time:	5.922	Roll Set Point:	0.059	Pitch Set Point:	-0.192	Yaw Set Point:	0.511	X_WP:	0.000	Y_WP:	0.000	Y_WP:	0.500	X:	-0.005	Y:	0.104	Z:	0.045	yaw:	-29.269	yaw rate:	1.104	Roll:	-2.038	Pitch:	3.110	Yaw:	-43.806	Thrust:	100.000
Time:	5.938	Roll Set Point:	0.059	Pitch Set Point:	-0.192	Yaw Set Point:	0.510	X_WP:	0.000	Y_WP:	0.000	Y_WP:	0.500	X:	-0.005	Y:	0.104	Z:	0.045	yaw:	-29.212	yaw rate:	5.720	Roll:	-2.074	Pitch:	3.215	Yaw:	-42.949	Thrust:	100.000
Time:	5.954	Roll Set Point:	0.059	Pitch Set Point:	-0.192	Yaw Set Point:	0.511	X_WP:	0.000	Y_WP:	0.000	Y_WP:	0.500	X:	-0.005	Y:	0.104	Z:	0.045	yaw:	-29.252	yaw rate:	2.401	Roll:	-2.125	Pitch:	3.134	Yaw:	-44.640	Thrust:	100.000
Time:	5.969	Roll Set Point:	0.059	Pitch Set Point:	-0.192	Yaw Set Point:	0.511	X_WP:	0.000	Y_WP:	0.000	Y_WP:	0.500	X:	-0.005	Y:	0.104	Z:	0.045	yaw:	-29.250	yaw rate:	0.182	Roll:	-2.117	Pitch:	3.155	Yaw:	-43.929	Thrust:	100.000
Time:	5.985	Roll Set Point:	0.059	Pitch Set Point:	-0.192	Yaw Set Point:	0.510	X_WP:	0.000	Y_WP:	0.000	Y_WP:	0.500	X:	-0.005	Y:	0.104	Z:	0.045	yaw:	-29.236	yaw rate:	1.351	Roll:	-2.154	Pitch:	3.168	Yaw:	-43.721	Thrust:	100.000
Time:	6.000	Roll Set Point:	-0.057	Pitch Set Point:	-0.111	Yaw Set Point:	0.511	X_WP:	-0.062	Y_WP:	0.128	Y_WP:	0.500	X:	-0.005	Y:	0.104	Z:	0.045	yaw:	-29.283	yaw rate:	-4.696	Roll:	30.000	Pitch:	-30.000	Yaw:	-44.799	Thrust:	100.000
Time:	6.016	Roll Set Point:	-0.057	Pitch Set Point:	-0.111	Yaw Set Point:	0.511	X_WP:	-0.062	Y_WP:	0.128	Y_WP:	0.500	X:	-0.005	Y:	0.104	Z:	0.045	yaw:	-29.275	yaw rate:	0.800	Roll:	1.272	Pitch:	0.780	Yaw:	-43.867	Thrust:	100.000
Time:	6.032	Roll Set Point:	-0.057	Pitch Set Point:	-0.111	Yaw Set Point:	0.511	X_WP:	-0.062	Y_WP:	0.128	Y_WP:	0.500	X:	-0.005	Y:	0.104	Z:	0.045	yaw:	-29.277	yaw rate:	-0.198	Roll:	1.261	Pitch:	0.821	Yaw:	-44.048	Thrust:	100.000
Time:	6.047	Roll Set Point:	-0.057	Pitch Set Point:	-0.111	Yaw Set Point:	0.511	X_WP:	-0.062	Y_WP:	0.128	Y_WP:	0.500	X:	-0.005	Y:	0.104	Z:	0.045	yaw:	-29.255	yaw rate:	2.242	Roll:	1.282	Pitch:	0.747	Yaw:	-43.585	Thrust:	100.000
Time:	6.063	Roll Set Point:	-0.057	Pitch Set Point:	-0.111	Yaw Set Point:	0.511	X_WP:	-0.062	Y_WP:	0.128	Y_WP:	0.500	X:	-0.005	Y:	0.104	Z:	0.045	yaw:	-29.260	yaw rate:	-0.463	Roll:	1.274	Pitch:	0.773	Yaw:	-44.057	Thrust:	100.000
Time:	6.079	Roll Set Point:	-0.057	Pitch Set Point:	-0.111	Yaw Set Point:	0.511	X_WP:	-0.062	Y_WP:	0.128	Y_WP:	0.500	X:	-0.005	Y:	0.104	Z:	0.045	yaw:	-29.260	yaw rate:	-0.463	Roll:	1.278	Pitch:	0.782	Yaw:	-43.979	Thrust:	100.000
Time:	6.094	Roll Set Point:	-0.057	Pitch Set Point:	-0.111	Yaw Set Point:	0.510	X_WP:	-0.062	Y_WP:	0.128	Y_WP:	0.500	X:	-0.005	Y:	0.104	Z:	0.045	yaw:	-29.197	yaw rate:	6.477	Roll:	1.289	Pitch:	0.692	Yaw:	-42.847	Thrust:	100.000
Time:	6.110	Roll Set Point:	-0.057	Pitch Set Point:	-0.111	Yaw Set Point:	0.510	X_WP:	-0.062	Y_WP:	0.128	Y_WP:	0.500	X:	-0.005	Y:	0.104	Z:	0.045	yaw:	-29.223	yaw rate:	-2.564	Roll:	1.272	Pitch:	0.865	Yaw:	-44.358	Thrust:	100.000
Time:	6.125	Roll Set Point:	-0.057	Pitch Set Point:	-0.111	Yaw Set Point:	0.510	X_WP:	-0.062	Y_WP:	0.128	Y_WP:	0.500	X:	-0.005	Y:	0.104	Z:	0.045	yaw:	-29.223	yaw rate:	-2.564	Roll:	1.285	Pitch:	0.782	Yaw:	-43.928	Thrust:	100.000
Time:	6.141	Roll Set Point:	-0.057	Pitch Set Point:	-0.111	Yaw Set Point:	0.511	X_WP:	-0.062	Y_WP:	0.128	Y_WP:	0.500	X:	-0.005	Y:	0.104	Z:	0.045	yaw:	-29.270	yaw rate:	-1.140	Roll:	1.293	Pitch:	0.784	Yaw:	-44.789	Thrust:	100.000
Time:	6.157	Roll Set Point:	-0.057	Pitch Set Point:	-0.111	Yaw Set Point:	0.511	X_WP:	-0.062	Y_WP:	0.128	Y_WP:	0.500	X:	-0.005	Y:	0.104	Z:	0.045	yaw:	-29.270	yaw rate:	-1.140	Roll:	1.290	Pitch:	0.782	Yaw:	-43.995	Thrust:	100.000
Time:	6.172	Roll Set Point:	-0.057	Pitch Set Point:	-0.111	Yaw Set Point:	0.510	X_WP:	-0.062	Y_WP:	0.128	Y_WP:	0.500	X:	-0.005	Y:	0.104	Z:	0.045	yaw:	-29.222	yaw rate:	4.797	Roll:	1.295	Pitch:	0.742	Yaw:	-43.124	Thrust:	100.000
Time:	6.188	Roll Set Point:	-0.057	Pitch Set Point:	-0.111	Yaw Set Point:	0.510	X_WP:	-0.062	Y_WP:	0.128	Y_WP:	0.500	X:	-0.005	Y:	0.104	Z:	0.045	yaw:	-29.234	yaw rate:	-1.206	Roll:	1.294	Pitch:	0.811	Yaw:	-44.146	Thrust:	100.000
Time:	6.204	Roll Set Point:	-0.057	Pitch Set Point:	-0.111	Yaw Set Point:	0.511	X_WP:	-0.062	Y_WP:	0.128	Y_WP:	0.500	X:	-0.005	Y:	0.104	Z:	0.045	yaw:	-29.300	yaw rate:	-5.155	Roll:	1.291	Pitch:	0.834	Yaw:	-45.134	Thrust:	100.000
Time:	6.219	Roll Set Point:	-0.057	Pitch Set Point:	-0.111	Yaw Set Point:	0.511	X_WP:	-0.062	Y_WP:	0.128	Y_WP:	0.500	X:	-0.005	Y:	0.104	Z:	0.045	yaw:	-29.300	yaw rate:	-5.155	Roll:	1.300	Pitch:	0.783	Yaw:	-44.036	Thrust:	100.000
