Time:	2.451	Roll Set Point:	-0.015	Pitch Set Point:	0.029	Yaw Set Point:	-2.957	X_WP:	0.000	Y_WP:	0.000	Y_WP:	0.500	X:	0.163	Y:	0.069	Z:	0.401	yaw:	169.436	yaw rate:	0.102	Roll:	-4.279	Pitch:	-2.830	Yaw:	236.577	Thrust:	5.454
Time:	2.483	Roll Set Point:	-0.015	Pitch Set Point:	0.029	Yaw Set Point:	-2.957	X_WP:	0.000	Y_WP:	0.000	Y_WP:	0.500	X:	0.163	Y:	0.069	Z:	0.401	yaw:	169.445	yaw rate:	0.964	Roll:	-4.299	Pitch:	-2.824	Yaw:	238.517	Thrust:	5.842
Time:	2.514	Roll Set Point:	-0.015	Pitch Set Point:	0.029	Yaw Set Point:	-2.957	X_WP:	0.000	Y_WP:	0.000	Y_WP:	0.500	X:	0.163	Y:	0.069	Z:	0.401	yaw:	169.414	yaw rate:	-2.805	Roll:	-4.283	Pitch:	-2.891	Yaw:	239.406	Thrust:	6.179
Time:	2.545	Roll Set Point:	-0.015	Pitch Set Point:	0.029	Yaw Set Point:	-2.957	X_WP:	0.000	Y_WP:	0.000	Y_WP:	0.500	X:	0.163	Y:	0.069	Z:	0.401	yaw:	169.440	yaw rate:	-1.620	Roll:	-4.321	Pitch:	-2.820	Yaw:	239.934	Thrust:	6.547
Time:	2.576	Roll Set Point:	-0.015	Pitch Set Point:	0.029	Yaw Set Point:	-2.957	X_WP:	0.000	Y_WP:	0.000	Y_WP:	0.500	X:	0.163	Y:	0.069	Z:	0.401	yaw:	169.447	yaw rate:	2.206	Roll:	-4.327	Pitch:	-2.850	Yaw:	239.769	Thrust:	6.954
Time:	2.608	Roll Set Point:	-0.015	Pitch Set Point:	0.029	Yaw Set Point:	-2.957	X_WP:	0.000	Y_WP:	0.000	Y_WP:	0.500	X:	0.163	Y:	0.069	Z:	0.401	yaw:	169.440	yaw rate:	-0.628	Roll:	-4.348	Pitch:	-2.871	Yaw:	239.656	Thrust:	7.296
Time:	2.639	Roll Set Point:	-0.015	Pitch Set Point:	0.029	Yaw Set Point:	-2.958	X_WP:	0.000	Y_WP:	0.000	Y_WP:	0.500	X:	0.163	Y:	0.069	Z:	0.401	yaw:	169.455	yaw rate:	1.443	Roll:	-4.336	Pitch:	-2.845	Yaw:	239.850	Thrust:	7.696
Time:	2.670	Roll Set Point:	-0.015	Pitch Set Point:	0.029	Yaw Set Point:	-2.957	X_WP:	0.000	Y_WP:	0.000	Y_WP:	0.500	X:	0.163	Y:	0.069	Z:	0.401	yaw:	169.432	yaw rate:	-2.268	Roll:	-4.378	Pitch:	-2.924	Yaw:	239.510	Thrust:	8.081
Time:	2.701	Roll Set Point:	-0.015	Pitch Set Point:	0.029	Yaw Set Point:	-2.958	X_WP:	0.000	Y_WP:	0.000	Y_WP:	0.500	X:	0.163	Y:	0.069	Z:	0.401	yaw:	169.465	yaw rate:	1.241	Roll:	-4.387	Pitch:	-2.842	Yaw:	240.015	Thrust:	8.386
Time:	2.733	Roll Set Point:	-0.015	Pitch Set Point:	0.029	Yaw Set Point:	-2.957	X_WP:	0.000	Y_WP:	0.000	Y_WP:	0.500	X:	0.163	Y:	0.069	Z:	0.401	yaw:	169.445	yaw rate:	-1.262	Roll:	-4.374	Pitch:	-2.931	Yaw:	239.549	Thrust:	8.811
Time:	2.764	Roll Set Point:	-0.015	Pitch Set Point:	0.029	Yaw Set Point:	-2.957	X_WP:	0.000	Y_WP:	0.000	Y_WP:	0.500	X:	0.163	Y:	0.069	Z:	0.401	yaw:	169.440	yaw rate:	2.866	Roll:	-4.367	Pitch:	-2.910	Yaw:	239.662	Thrust:	9.181
Time:	2.795	Roll Set Point:	-0.015	Pitch Set Point:	0.027	Yaw Set Point:	-2.966	X_WP:	0.000	Y_WP:	0.000	Y_WP:	0.500	X:	0.163	Y:	0.069	Z:	0.401	yaw:	169.917	yaw rate:	47.691	Roll:	-4.889	Pitch:	-2.141	Yaw:	244.368	Thrust:	9.413
Time:	2.826	Roll Set Point:	-0.015	Pitch Set Point:	0.029	Yaw Set Point:	-2.957	X_WP:	0.000	Y_WP:	0.000	Y_WP:	0.500	X:	0.163	Y:	0.069	Z:	0.401	yaw:	169.420	yaw rate:	-4.711	Roll:	-3.953	Pitch:	-3.697	Yaw:	235.511	Thrust:	10.022
Time:	2.858	Roll Set Point:	-0.015	Pitch Set Point:	0.029	Yaw Set Point:	-2.958	X_WP:	0.000	Y_WP:	0.000	Y_WP:	0.500	X:	0.163	Y:	0.069	Z:	0.401	yaw:	169.452	yaw rate:	0.925	Roll:	-4.464	Pitch:	-2.869	Yaw:	240.002	Thrust:	10.289
Time:	2.889	Roll Set Point:	-0.015	Pitch Set Point:	0.029	Yaw Set Point:	-2.958	X_WP:	0.000	Y_WP:	0.000	Y_WP:	0.500	X:	0.163	Y:	0.069	Z:	0.401	yaw:	169.453	yaw rate:	0.053	Roll:	-4.447	Pitch:	-2.945	Yaw:	239.728	Thrust:	10.665
Time:	2.920	Roll Set Point:	-0.015	Pitch Set Point:	0.029	Yaw Set Point:	-2.958	X_WP:	0.000	Y_WP:	0.000	Y_WP:	0.500	X:	0.163	Y:	0.069	Z:	0.401	yaw:	169.463	yaw rate:	0.986	Roll:	-4.452	Pitch:	-2.904	Yaw:	239.826	Thrust:	11.031
Time:	2.951	Roll Set Point:	-0.015	Pitch Set Point:	0.029	Yaw Set Point:	-2.957	X_WP:	0.000	Y_WP:	0.000	Y_WP:	0.500	X:	0.163	Y:	0.069	Z:	0.401	yaw:	169.452	yaw rate:	-1.122	Roll:	-4.446	Pitch:	-2.994	Yaw:	239.627	Thrust:	11.403
Time:	2.983	Roll Set Point:	-0.015	Pitch Set Point:	0.029	Yaw Set Point:	-2.957	X_WP:	0.000	Y_WP:	0.000	Y_WP:	0.500	X:	0.163	Y:	0.069	Z:	0.401	yaw:	169.450	yaw rate:	-0.114	Roll:	-4.479	Pitch:	-2.950	Yaw:	239.716	Thrust:	11.792
Time:	3.014	Roll Set Point:	-0.015	Pitch Set Point:	0.029	Yaw Set Point:	-2.958	X_WP:	0.000	Y_WP:	0.000	Y_WP:	0.500	X:	0.163	Y:	0.069	Z:	0.401	yaw:	169.454	yaw rate:	-0.886	Roll:	-4.494	Pitch:	-2.964	Yaw:	239.757	Thrust:	12.138
Time:	3.045	Roll Set Point:	-0.015	Pitch Set Point:	0.029	Yaw Set Point:	-2.958	X_WP:	0.000	Y_WP:	0.000	Y_WP:	0.500	X:	0.163	Y:	0.069	Z:	0.401	yaw:	169.454	yaw rate:	-0.044	Roll:	-4.495	Pitch:	-2.963	Yaw:	239.720	Thrust:	12.489
Time:	3.077	Roll Set Point:	-0.015	Pitch Set Point:	0.029	Yaw Set Point:	-2.958	X_WP:	0.000	Y_WP:	0.000	Y_WP:	0.500	X:	0.163	Y:	0.069	Z:	0.401	yaw:	169.463	yaw rate:	2.646	Roll:	-4.523	Pitch:	-2.979	Yaw:	239.820	Thrust:	12.963
Time:	3.108	Roll Set Point:	-0.015	Pitch Set Point:	0.029	Yaw Set Point:	-2.957	X_WP:	0.000	Y_WP:	0.000	Y_WP:	0.500	X:	0.163	Y:	0.069	Z:	0.401	yaw:	169.440	yaw rate:	-2.279	Roll:	-4.513	Pitch:	-3.051	Yaw:	239.517	Thrust:	13.248
Time:	3.139	Roll Set Point:	-0.015	Pitch Set Point:	0.029	Yaw Set Point:	-2.958	X_WP:	0.000	Y_WP:	0.000	Y_WP:	0.500	X:	0.163	Y:	0.069	Z:	0.401	yaw:	169.460	yaw rate:	2.555	Roll:	-4.544	Pitch:	-2.925	Yaw:	239.901	Thrust:	13.639
Time:	3.186	Roll Set Point:	-0.015	Pitch Set Point:	0.029	Yaw Set Point:	-2.957	X_WP:	0.000	Y_WP:	0.000	Y_WP:	0.500	X:	0.163	Y:	0.069	Z:	0.401	yaw:	169.447	yaw rate:	0.361	Roll:	-4.669	Pitch:	-3.124	Yaw:	241.237	Thrust:	18.370
Time:	3.217	Roll Set Point:	-0.015	Pitch Set Point:	0.029	Yaw Set Point:	-2.957	X_WP:	0.000	Y_WP:	0.000	Y_WP:	0.500	X:	0.163	Y:	0.069	Z:	0.401	yaw:	169.449	yaw rate:	0.789	Roll:	-4.550	Pitch:	-2.975	Yaw:	239.736	Thrust:	14.336
Time:	3.249	Roll Set Point:	-0.015	Pitch Set Point:	0.029	Yaw Set Point:	-2.957	X_WP:	0.000	Y_WP:	0.000	Y_WP:	0.500	X:	0.163	Y:	0.069	Z:	0.401	yaw:	169.418	yaw rate:	-3.040	Roll:	-4.534	Pitch:	-3.093	Yaw:	239.420	Thrust:	14.683
Time:	3.280	Roll Set Point:	-0.015	Pitch Set Point:	0.029	Yaw Set Point:	-2.957	X_WP:	0.000	Y_WP:	0.000	Y_WP:	0.500	X:	0.163	Y:	0.069	Z:	0.401	yaw:	169.444	yaw rate:	2.567	Roll:	-4.619	Pitch:	-2.980	Yaw:	239.929	Thrust:	15.220
Time:	3.311	Roll Set Point:	-0.015	Pitch Set Point:	0.029	Yaw Set Point:	-2.958	X_WP:	0.000	Y_WP:	0.000	Y_WP:	0.500	X:	0.163	Y:	0.069	Z:	0.401	yaw:	169.460	yaw rate:	1.561	Roll:	-4.593	Pitch:	-3.020	Yaw:	239.870	Thrust:	15.475
Time:	3.342	Roll Set Point:	-0.015	Pitch Set Point:	0.029	Yaw Set Point:	-2.958	X_WP:	0.000	Y_WP:	0.000	Y_WP:	0.500	X:	0.163	Y:	0.069	Z:	0.401	yaw:	169.461	yaw rate:	0.096	Roll:	-4.594	Pitch:	-3.037	Yaw:	239.742	Thrust:	15.803
Time:	3.374	Roll Set Point:	-0.015	Pitch Set Point:	0.029	Yaw Set Point:	-2.958	X_WP:	0.000	Y_WP:	0.000	Y_WP:	0.500	X:	0.163	Y:	0.069	Z:	0.401	yaw:	169.464	yaw rate:	0.304	Roll:	-4.633	Pitch:	-3.035	Yaw:	239.766	Thrust:	16.283
Time:	3.405	Roll Set Point:	-0.015	Pitch Set Point:	0.029	Yaw Set Point:	-2.957	X_WP:	0.000	Y_WP:	0.000	Y_WP:	0.500	X:	0.163	Y:	0.069	Z:	0.401	yaw:	169.431	yaw rate:	-1.135	Roll:	-4.592	Pitch:	-3.123	Yaw:	239.422	Thrust:	16.635
Time:	3.436	Roll Set Point:	-0.015	Pitch Set Point:	0.029	Yaw Set Point:	-2.957	X_WP:	0.000	Y_WP:	0.000	Y_WP:	0.500	X:	0.163	Y:	0.069	Z:	0.401	yaw:	169.446	yaw rate:	-0.671	Roll:	-4.644	Pitch:	-3.048	Yaw:	239.840	Thrust:	16.966
Time:	3.467	Roll Set Point:	-0.015	Pitch Set Point:	0.029	Yaw Set Point:	-2.957	X_WP:	0.000	Y_WP:	0.000	Y_WP:	0.500	X:	0.163	Y:	0.069	Z:	0.401	yaw:	169.437	yaw rate:	-0.901	Roll:	-4.634	Pitch:	-3.093	Yaw:	239.625	Thrust:	17.325
Time:	3.499	Roll Set Point:	-0.015	Pitch Set Point:	0.029	Yaw Set Point:	-2.958	X_WP:	0.000	Y_WP:	0.000	Y_WP:	0.500	X:	0.163	Y:	0.069	Z:	0.401	yaw:	169.469	yaw rate:	2.671	Roll:	-4.713	Pitch:	-3.005	Yaw:	240.022	Thrust:	17.744
Time:	3.530	Roll Set Point:	-0.015	Pitch Set Point:	0.029	Yaw Set Point:	-2.957	X_WP:	0.000	Y_WP:	0.000	Y_WP:	0.500	X:	0.163	Y:	0.069	Z:	0.401	yaw:	169.449	yaw rate:	2.242	Roll:	-4.653	Pitch:	-3.137	Yaw:	239.552	Thrust:	18.100
Time:	3.561	Roll Set Point:	-0.015	Pitch Set Point:	0.029	Yaw Set Point:	-2.957	X_WP:	0.000	Y_WP:	0.000	Y_WP:	0.500	X:	0.163	Y:	0.069	Z:	0.401	yaw:	169.447	yaw rate:	0.559	Roll:	-4.665	Pitch:	-3.086	Yaw:	239.696	Thrust:	18.414
Time:	3.592	Roll Set Point:	-0.015	Pitch Set Point:	0.029	Yaw Set Point:	-2.957	X_WP:	0.000	Y_WP:	0.000	Y_WP:	0.500	X:	0.163	Y:	0.069	Z:	0.401	yaw:	169.432	yaw rate:	-1.856	Roll:	-4.680	Pitch:	-3.130	Yaw:	239.579	Thrust:	18.851
Time:	3.624	Roll Set Point:	-0.015	Pitch Set Point:	0.029	Yaw Set Point:	-2.957	X_WP:	0.000	Y_WP:	0.000	Y_WP:	0.500	X:	0.163	Y:	0.069	Z:	0.401	yaw:	169.440	yaw rate:	-1.671	Roll:	-4.723	Pitch:	-3.092	Yaw:	239.768	Thrust:	19.237
Time:	3.655	Roll Set Point:	-0.015	Pitch Set Point:	0.029	Yaw Set Point:	-2.957	X_WP:	0.000	Y_WP:	0.000	Y_WP:	0.500	X:	0.163	Y:	0.069	Z:	0.401	yaw:	169.420	yaw rate:	-1.990	Roll:	-4.688	Pitch:	-3.185	Yaw:	239.513	Thrust:	19.584
Time:	3.686	Roll Set Point:	-0.015	Pitch Set Point:	0.029	Yaw Set Point:	-2.957	X_WP:	0.000	Y_WP:	0.000	Y_WP:	0.500	X:	0.163	Y:	0.069	Z:	0.401	yaw:	169.447	yaw rate:	1.952	Roll:	-4.761	Pitch:	-3.046	Yaw:	239.944	Thrust:	19.980
Time:	3.717	Roll Set Point:	-0.015	Pitch Set Point:	0.029	Yaw Set Point:	-2.957	X_WP:	0.000	Y_WP:	0.000	Y_WP:	0.500	X:	0.163	Y:	0.069	Z:	0.401	yaw:	169.428	yaw rate:	-1.905	Roll:	-4.725	Pitch:	-3.196	Yaw:	239.531	Thrust:	20.273
Time:	3.749	Roll Set Point:	-0.015	Pitch Set Point:	0.029	Yaw Set Point:	-2.957	X_WP:	0.000	Y_WP:	0.000	Y_WP:	0.500	X:	0.163	Y:	0.069	Z:	0.401	yaw:	169.439	yaw rate:	1.094	Roll:	-4.765	Pitch:	-3.106	Yaw:	239.798	Thrust:	20.736
Time:	3.780	Roll Set Point:	-0.015	Pitch Set Point:	0.029	Yaw Set Point:	-2.957	X_WP:	0.000	Y_WP:	0.000	Y_WP:	0.500	X:	0.163	Y:	0.069	Z:	0.401	yaw:	169.446	yaw rate:	-0.361	Roll:	-4.754	Pitch:	-3.161	Yaw:	239.782	Thrust:	21.063
Time:	3.811	Roll Set Point:	-0.015	Pitch Set Point:	0.029	Yaw Set Point:	-2.958	X_WP:	0.000	Y_WP:	0.000	Y_WP:	0.500	X:	0.163	Y:	0.069	Z:	0.401	yaw:	169.470	yaw rate:	2.368	Roll:	-4.818	Pitch:	-3.108	Yaw:	239.948	Thrust:	21.475
Time:	3.842	Roll Set Point:	-0.015	Pitch Set Point:	0.029	Yaw Set Point:	-2.957	X_WP:	0.000	Y_WP:	0.000	Y_WP:	0.500	X:	0.163	Y:	0.069	Z:	0.401	yaw:	169.445	yaw rate:	-2.457	Roll:	-4.755	Pitch:	-3.200	Yaw:	239.510	Thrust:	21.804
Time:	3.874	Roll Set Point:	-0.015	Pitch Set Point:	0.029	Yaw Set Point:	-2.957	X_WP:	0.000	Y_WP:	0.000	Y_WP:	0.500	X:	0.163	Y:	0.069	Z:	0.401	yaw:	169.435	yaw rate:	-1.051	Roll:	-4.771	Pitch:	-3.194	Yaw:	239.613	Thrust:	22.171
Time:	3.905	Roll Set Point:	-0.015	Pitch Set Point:	0.029	Yaw Set Point:	-2.957	X_WP:	0.000	Y_WP:	0.000	Y_WP:	0.500	X:	0.163	Y:	0.069	Z:	0.401	yaw:	169.451	yaw rate:	-0.505	Roll:	-4.829	Pitch:	-3.150	Yaw:	239.864	Thrust:	22.583
Time:	3.936	Roll Set Point:	-0.015	Pitch Set Point:	0.029	Yaw Set Point:	-2.958	X_WP:	0.000	Y_WP:	0.000	Y_WP:	0.500	X:	0.163	Y:	0.069	Z:	0.401	yaw:	169.462	yaw rate:	2.387	Roll:	-4.847	Pitch:	-3.169	Yaw:	239.830	Thrust:	22.941
Time:	3.967	Roll Set Point:	-0.015	Pitch Set Point:	0.029	Yaw Set Point:	-2.957	X_WP:	0.000	Y_WP:	0.000	Y_WP:	0.500	X:	0.163	Y:	0.069	Z:	0.401	yaw:	169.424	yaw rate:	-3.797	Roll:	-4.778	Pitch:	-3.253	Yaw:	239.368	Thrust:	23.255
Time:	3.999	Roll Set Point:	-0.015	Pitch Set Point:	0.029	Yaw Set Point:	-2.957	X_WP:	0.000	Y_WP:	0.000	Y_WP:	0.500	X:	0.163	Y:	0.069	Z:	0.401	yaw:	169.433	yaw rate:	0.866	Roll:	-4.863	Pitch:	-3.190	Yaw:	239.768	Thrust:	23.664
Time:	4.030	Roll Set Point:	-0.015	Pitch Set Point:	0.029	Yaw Set Point:	-2.957	X_WP:	0.000	Y_WP:	0.000	Y_WP:	0.500	X:	0.163	Y:	0.069	Z:	0.401	yaw:	169.436	yaw rate:	0.305	Roll:	-4.871	Pitch:	-3.211	Yaw:	239.728	Thrust:	24.091
Time:	4.061	Roll Set Point:	-0.015	Pitch Set Point:	0.029	Yaw Set Point:	-2.957	X_WP:	0.000	Y_WP:	0.000	Y_WP:	0.500	X:	0.163	Y:	0.069	Z:	0.401	yaw:	169.431	yaw rate:	0.039	Roll:	-4.850	Pitch:	-3.230	Yaw:	239.657	Thrust:	24.441
Time:	4.092	Roll Set Point:	-0.015	Pitch Set Point:	0.029	Yaw Set Point:	-2.958	X_WP:	0.000	Y_WP:	0.000	Y_WP:	0.500	X:	0.163	Y:	0.069	Z:	0.401	yaw:	169.468	yaw rate:	3.707	Roll:	-4.908	Pitch:	-3.164	Yaw:	240.055	Thrust:	24.731
Time:	4.124	Roll Set Point:	-0.015	Pitch Set Point:	0.029	Yaw Set Point:	-2.957	X_WP:	0.000	Y_WP:	0.000	Y_WP:	0.500	X:	0.163	Y:	0.069	Z:	0.401	yaw:	169.441	yaw rate:	-2.671	Roll:	-4.863	Pitch:	-3.277	Yaw:	239.490	Thrust:	25.222
Time:	4.155	Roll Set Point:	-0.015	Pitch Set Point:	0.029	Yaw Set Point:	-2.957	X_WP:	0.000	Y_WP:	0.000	Y_WP:	0.500	X:	0.163	Y:	0.069	Z:	0.401	yaw:	169.441	yaw rate:	-0.057	Roll:	-4.910	Pitch:	-3.241	Yaw:	239.702	Thrust:	25.523
Time:	4.186	Roll Set Point:	-0.015	Pitch Set Point:	0.029	Yaw Set Point:	-2.958	X_WP:	0.000	Y_WP:	0.000	Y_WP:	0.500	X:	0.163	Y:	0.069	Z:	0.401	yaw:	169.461	yaw rate:	1.970	Roll:	-4.911	Pitch:	-3.218	Yaw:	239.836	Thrust:	25.420
Time:	4.217	Roll Set Point:	-0.015	Pitch Set Point:	0.029	Yaw Set Point:	-2.958	X_WP:	0.000	Y_WP:	0.000	Y_WP:	0.500	X:	0.163	Y:	0.069	Z:	0.401	yaw:	169.458	yaw rate:	1.316	Roll:	-4.926	Pitch:	-3.259	Yaw:	239.713	Thrust:	26.274
Time:	4.248	Roll Set Point:	-0.015	Pitch Set Point:	0.029	Yaw Set Point:	-2.958	X_WP:	0.000	Y_WP:	0.000	Y_WP:	0.500	X:	0.163	Y:	0.069	Z:	0.401	yaw:	169.454	yaw rate:	-0.309	Roll:	-4.939	Pitch:	-3.257	Yaw:	239.685	Thrust:	26.625
Time:	4.279	Roll Set Point:	-0.015	Pitch Set Point:	0.029	Yaw Set Point:	-2.957	X_WP:	0.000	Y_WP:	0.000	Y_WP:	0.500	X:	0.163	Y:	0.069	Z:	0.401	yaw:	169.436	yaw rate:	-1.854	Roll:	-4.921	Pitch:	-3.300	Yaw:	239.557	Thrust:	27.001
Time:	4.311	Roll Set Point:	-0.015	Pitch Set Point:	0.029	Yaw Set Point:	-2.957	X_WP:	0.000	Y_WP:	0.000	Y_WP:	0.500	X:	0.163	Y:	0.069	Z:	0.401	yaw:	169.432	yaw rate:	-0.402	Roll:	-4.951	Pitch:	-3.297	Yaw:	239.667	Thrust:	27.418
Time:	4.342	Roll Set Point:	-0.015	Pitch Set Point:	0.029	Yaw Set Point:	-2.957	X_WP:	0.000	Y_WP:	0.000	Y_WP:	0.500	X:	0.163	Y:	0.069	Z:	0.401	yaw:	169.441	yaw rate:	0.851	Roll:	-4.993	Pitch:	-3.258	Yaw:	239.780	Thrust:	27.765
Time:	4.373	Roll Set Point:	-0.015	Pitch Set Point:	0.029	Yaw Set Point:	-2.957	X_WP:	0.000	Y_WP:	0.000	Y_WP:	0.500	X:	0.163	Y:	0.069	Z:	0.401	yaw:	169.440	yaw rate:	-0.089	Roll:	-4.965	Pitch:	-3.317	Yaw:	239.698	Thrust:	28.127
Time:	4.404	Roll Set Point:	-0.015	Pitch Set Point:	0.029	Yaw Set Point:	-2.958	X_WP:	0.000	Y_WP:	0.000	Y_WP:	0.500	X:	0.163	Y:	0.069	Z:	0.401	yaw:	169.461	yaw rate:	2.400	Roll:	-5.019	Pitch:	-3.245	Yaw:	239.916	Thrust:	28.504
Time:	4.436	Roll Set Point:	-0.015	Pitch Set Point:	0.029	Yaw Set Point:	-2.958	X_WP:	0.000	Y_WP:	0.000	Y_WP:	0.500	X:	0.163	Y:	0.069	Z:	0.401	yaw:	169.475	yaw rate:	4.890	Roll:	-5.022	Pitch:	-3.287	Yaw:	239.878	Thrust:	28.917
Time:	4.467	Roll Set Point:	-0.015	Pitch Set Point:	0.029	Yaw Set Point:	-2.958	X_WP:	0.000	Y_WP:	0.000	Y_WP:	0.500	X:	0.163	Y:	0.069	Z:	0.401	yaw:	169.469	yaw rate:	-0.602	Roll:	-5.013	Pitch:	-3.322	Yaw:	239.699	Thrust:	29.237
Time:	4.498	Roll Set Point:	-0.015	Pitch Set Point:	0.029	Yaw Set Point:	-2.957	X_WP:	0.000	Y_WP:	0.000	Y_WP:	0.500	X:	0.163	Y:	0.069	Z:	0.401	yaw:	169.423	yaw rate:	-4.608	Roll:	-4.990	Pitch:	-3.411	Yaw:	239.295	Thrust:	29.584
Time:	4.529	Roll Set Point:	-0.015	Pitch Set Point:	0.029	Yaw Set Point:	-2.957	X_WP:	0.000	Y_WP:	0.000	Y_WP:	0.500	X:	0.163	Y:	0.069	Z:	0.401	yaw:	169.451	yaw rate:	0.572	Roll:	-5.064	Pitch:	-3.281	Yaw:	239.964	Thrust:	30.066
Time:	4.561	Roll Set Point:	-0.015	Pitch Set Point:	0.029	Yaw Set Point:	-2.957	X_WP:	0.000	Y_WP:	0.000	Y_WP:	0.500	X:	0.163	Y:	0.069	Z:	0.401	yaw:	169.433	yaw rate:	-1.809	Roll:	-5.018	Pitch:	-3.387	Yaw:	239.547	Thrust:	30.341
Time:	4.592	Roll Set Point:	-0.015	Pitch Set Point:	0.029	Yaw Set Point:	-2.958	X_WP:	0.000	Y_WP:	0.000	Y_WP:	0.500	X:	0.163	Y:	0.069	Z:	0.401	yaw:	169.467	yaw rate:	3.337	Roll:	-5.118	Pitch:	-3.275	Yaw:	240.022	Thrust:	30.725
Time:	4.623	Roll Set Point:	-0.015	Pitch Set Point:	0.029	Yaw Set Point:	-2.957	X_WP:	0.000	Y_WP:	0.000	Y_WP:	0.500	X:	0.163	Y:	0.069	Z:	0.401	yaw:	169.438	yaw rate:	-2.818	Roll:	-5.038	Pitch:	-3.409	Yaw:	239.470	Thrust:	31.090
Time:	4.654	Roll Set Point:	-0.015	Pitch Set Point:	0.029	Yaw Set Point:	-2.958	X_WP:	0.000	Y_WP:	0.000	Y_WP:	0.500	X:	0.163	Y:	0.069	Z:	0.401	yaw:	169.460	yaw rate:	-1.319	Roll:	-5.121	Pitch:	-3.328	Yaw:	239.923	Thrust:	31.555
Time:	4.686	Roll Set Point:	-0.015	Pitch Set Point:	0.029	Yaw Set Point:	-2.957	X_WP:	0.000	Y_WP:	0.000	Y_WP:	0.500	X:	0.163	Y:	0.069	Z:	0.401	yaw:	169.425	yaw rate:	-3.535	Roll:	-5.047	Pitch:	-3.433	Yaw:	239.387	Thrust:	31.761
Time:	4.717	Roll Set Point:	-0.015	Pitch Set Point:	0.029	Yaw Set Point:	-2.958	X_WP:	0.000	Y_WP:	0.000	Y_WP:	0.500	X:	0.163	Y:	0.069	Z:	0.401	yaw:	169.458	yaw rate:	3.286	Roll:	-5.140	Pitch:	-3.315	Yaw:	240.011	Thrust:	32.290
Time:	4.748	Roll Set Point:	-0.015	Pitch Set Point:	0.029	Yaw Set Point:	-2.957	X_WP:	0.000	Y_WP:	0.000	Y_WP:	0.500	X:	0.163	Y:	0.069	Z:	0.401	yaw:	169.433	yaw rate:	-2.495	Roll:	-5.108	Pitch:	-3.438	Yaw:	239.486	Thrust:	32.582
Time:	4.779	Roll Set Point:	-0.015	Pitch Set Point:	0.029	Yaw Set Point:	-2.958	X_WP:	0.000	Y_WP:	0.000	Y_WP:	0.500	X:	0.163	Y:	0.069	Z:	0.401	yaw:	169.469	yaw rate:	1.055	Roll:	-5.165	Pitch:	-3.321	Yaw:	240.056	Thrust:	32.960
Time:	4.811	Roll Set Point:	-0.015	Pitch Set Point:	0.029	Yaw Set Point:	-2.957	X_WP:	0.000	Y_WP:	0.000	Y_WP:	0.500	X:	0.163	Y:	0.069	Z:	0.401	yaw:	169.427	yaw rate:	-4.271	Roll:	-5.105	Pitch:	-3.477	Yaw:	239.335	Thrust:	33.362
Time:	4.842	Roll Set Point:	-0.015	Pitch Set Point:	0.029	Yaw Set Point:	-2.958	X_WP:	0.000	Y_WP:	0.000	Y_WP:	0.500	X:	0.163	Y:	0.069	Z:	0.401	yaw:	169.467	yaw rate:	4.003	Roll:	-5.198	Pitch:	-3.347	Yaw:	240.081	Thrust:	33.734
Time:	4.873	Roll Set Point:	-0.015	Pitch Set Point:	0.029	Yaw Set Point:	-2.957	X_WP:	0.000	Y_WP:	0.000	Y_WP:	0.500	X:	0.163	Y:	0.069	Z:	0.401	yaw:	169.443	yaw rate:	-2.396	Roll:	-5.142	Pitch:	-3.455	Yaw:	239.511	Thrust:	34.090
Time:	4.904	Roll Set Point:	-0.015	Pitch Set Point:	0.029	Yaw Set Point:	-2.958	X_WP:	0.000	Y_WP:	0.000	Y_WP:	0.500	X:	0.163	Y:	0.069	Z:	0.401	yaw:	169.454	yaw rate:	1.758	Roll:	-5.183	Pitch:	-3.400	Yaw:	239.825	Thrust:	34.453
Time:	4.951	Roll Set Point:	-0.015	Pitch Set Point:	0.029	Yaw Set Point:	-2.957	X_WP:	0.000	Y_WP:	0.000	Y_WP:	0.500	X:	0.163	Y:	0.069	Z:	0.401	yaw:	169.438	yaw rate:	-1.603	Roll:	-5.636	Pitch:	-3.759	Yaw:	241.176	Thrust:	49.508
Time:	4.982	Roll Set Point:	-0.015	Pitch Set Point:	0.029	Yaw Set Point:	-2.957	X_WP:	0.000	Y_WP:	0.000	Y_WP:	0.500	X:	0.163	Y:	0.069	Z:	0.401	yaw:	169.425	yaw rate:	-1.741	Roll:	-5.188	Pitch:	-3.454	Yaw:	239.581	Thrust:	35.180
Time:	5.029	Roll Set Point:	-0.015	Pitch Set Point:	0.029	Yaw Set Point:	-2.957	X_WP:	0.000	Y_WP:	0.000	Y_WP:	0.500	X:	0.163	Y:	0.069	Z:	0.401	yaw:	169.443	yaw rate:	1.748	Roll:	-5.694	Pitch:	-3.741	Yaw:	241.369	Thrust:	50.634
Time:	5.061	Roll Set Point:	-0.015	Pitch Set Point:	0.029	Yaw Set Point:	-2.957	X_WP:	0.000	Y_WP:	0.000	Y_WP:	0.500	X:	0.163	Y:	0.069	Z:	0.401	yaw:	169.439	yaw rate:	-2.819	Roll:	-5.210	Pitch:	-3.465	Yaw:	239.678	Thrust:	35.969
Time:	5.092	Roll Set Point:	-0.015	Pitch Set Point:	0.029	Yaw Set Point:	-2.957	X_WP:	0.000	Y_WP:	0.000	Y_WP:	0.500	X:	0.163	Y:	0.069	Z:	0.401	yaw:	169.434	yaw rate:	-2.285	Roll:	-5.242	Pitch:	-3.443	Yaw:	239.653	Thrust:	36.260
Time:	5.123	Roll Set Point:	-0.015	Pitch Set Point:	0.029	Yaw Set Point:	-2.957	X_WP:	0.000	Y_WP:	0.000	Y_WP:	0.500	X:	0.163	Y:	0.069	Z:	0.401	yaw:	169.437	yaw rate:	0.304	Roll:	-5.244	Pitch:	-3.493	Yaw:	239.732	Thrust:	36.732
Time:	5.154	Roll Set Point:	-0.015	Pitch Set Point:	0.029	Yaw Set Point:	-2.958	X_WP:	0.000	Y_WP:	0.000	Y_WP:	0.500	X:	0.163	Y:	0.069	Z:	0.401	yaw:	169.460	yaw rate:	2.301	Roll:	-5.290	Pitch:	-3.418	Yaw:	239.929	Thrust:	37.091
Time:	5.185	Roll Set Point:	-0.015	Pitch Set Point:	0.029	Yaw Set Point:	-2.957	X_WP:	0.000	Y_WP:	0.000	Y_WP:	0.500	X:	0.163	Y:	0.069	Z:	0.401	yaw:	169.440	yaw rate:	-2.452	Roll:	-5.240	Pitch:	-3.531	Yaw:	239.521	Thrust:	37.184
Time:	5.217	Roll Set Point:	-0.015	Pitch Set Point:	0.029	Yaw Set Point:	-2.958	X_WP:	0.000	Y_WP:	0.000	Y_WP:	0.500	X:	0.163	Y:	0.069	Z:	0.401	yaw:	169.455	yaw rate:	-0.724	Roll:	-5.289	Pitch:	-3.461	Yaw:	239.854	Thrust:	37.854
Time:	5.248	Roll Set Point:	-0.015	Pitch Set Point:	0.029	Yaw Set Point:	-2.957	X_WP:	0.000	Y_WP:	0.000	Y_WP:	0.500	X:	0.163	Y:	0.069	Z:	0.401	yaw:	169.427	yaw rate:	-2.084	Roll:	-5.257	Pitch:	-3.570	Yaw:	239.449	Thrust:	38.089
Time:	5.279	Roll Set Point:	-0.015	Pitch Set Point:	0.029	Yaw Set Point:	-2.957	X_WP:	0.000	Y_WP:	0.000	Y_WP:	0.500	X:	0.163	Y:	0.069	Z:	0.401	yaw:	169.445	yaw rate:	1.875	Roll:	-5.353	Pitch:	-3.445	Yaw:	239.873	Thrust:	38.635
Time:	5.310	Roll Set Point:	-0.015	Pitch Set Point:	0.029	Yaw Set Point:	-2.957	X_WP:	0.000	Y_WP:	0.000	Y_WP:	0.500	X:	0.163	Y:	0.069	Z:	0.401	yaw:	169.432	yaw rate:	-1.061	Roll:	-5.269	Pitch:	-3.574	Yaw:	239.589	Thrust:	38.891
Time:	5.342	Roll Set Point:	-0.015	Pitch Set Point:	0.029	Yaw Set Point:	-2.958	X_WP:	0.000	Y_WP:	0.000	Y_WP:	0.500	X:	0.163	Y:	0.069	Z:	0.401	yaw:	169.457	yaw rate:	2.996	Roll:	-5.381	Pitch:	-3.435	Yaw:	239.940	Thrust:	39.344
Time:	5.373	Roll Set Point:	-0.015	Pitch Set Point:	0.029	Yaw Set Point:	-2.957	X_WP:	0.000	Y_WP:	0.000	Y_WP:	0.500	X:	0.163	Y:	0.069	Z:	0.401	yaw:	169.449	yaw rate:	-0.824	Roll:	-5.323	Pitch:	-3.583	Yaw:	239.651	Thrust:	39.590
Time:	5.404	Roll Set Point:	-0.015	Pitch Set Point:	0.029	Yaw Set Point:	-2.957	X_WP:	0.000	Y_WP:	0.000	Y_WP:	0.500	X:	0.163	Y:	0.069	Z:	0.401	yaw:	169.437	yaw rate:	-1.123	Roll:	-5.330	Pitch:	-3.552	Yaw:	239.610	Thrust:	40.117
Time:	5.435	Roll Set Point:	-0.015	Pitch Set Point:	0.029	Yaw Set Point:	-2.957	X_WP:	0.000	Y_WP:	0.000	Y_WP:	0.500	X:	0.163	Y:	0.069	Z:	0.401	yaw:	169.437	yaw rate:	-1.790	Roll:	-5.367	Pitch:	-3.532	Yaw:	239.699	Thrust:	40.255
Time:	5.467	Roll Set Point:	-0.015	Pitch Set Point:	0.029	Yaw Set Point:	-2.958	X_WP:	0.000	Y_WP:	0.000	Y_WP:	0.500	X:	0.163	Y:	0.069	Z:	0.401	yaw:	169.462	yaw rate:	2.443	Roll:	-5.401	Pitch:	-3.519	Yaw:	239.946	Thrust:	40.951
Time:	5.498	Roll Set Point:	-0.015	Pitch Set Point:	0.029	Yaw Set Point:	-2.957	X_WP:	0.000	Y_WP:	0.000	Y_WP:	0.500	X:	0.163	Y:	0.069	Z:	0.401	yaw:	169.411	yaw rate:	-4.911	Roll:	-5.329	Pitch:	-3.659	Yaw:	239.245	Thrust:	41.031
Time:	5.529	Roll Set Point:	-0.015	Pitch Set Point:	0.029	Yaw Set Point:	-2.957	X_WP:	0.000	Y_WP:	0.000	Y_WP:	0.500	X:	0.163	Y:	0.069	Z:	0.401	yaw:	169.449	yaw rate:	3.725	Roll:	-5.428	Pitch:	-3.510	Yaw:	240.032	Thrust:	41.563
Time:	5.560	Roll Set Point:	-0.015	Pitch Set Point:	0.029	Yaw Set Point:	-2.957	X_WP:	0.000	Y_WP:	0.000	Y_WP:	0.500	X:	0.163	Y:	0.069	Z:	0.401	yaw:	169.434	yaw rate:	-1.462	Roll:	-5.390	Pitch:	-3.596	Yaw:	239.580	Thrust:	41.844
Time:	5.592	Roll Set Point:	-0.015	Pitch Set Point:	0.029	Yaw Set Point:	-2.957	X_WP:	0.000	Y_WP:	0.000	Y_WP:	0.500	X:	0.163	Y:	0.069	Z:	0.401	yaw:	169.433	yaw rate:	-0.114	Roll:	-5.408	Pitch:	-3.599	Yaw:	239.689	Thrust:	42.365
Time:	5.623	Roll Set Point:	-0.015	Pitch Set Point:	0.029	Yaw Set Point:	-2.957	X_WP:	0.000	Y_WP:	0.000	Y_WP:	0.500	X:	0.163	Y:	0.069	Z:	0.401	yaw:	169.452	yaw rate:	-1.040	Roll:	-5.479	Pitch:	-3.531	Yaw:	239.881	Thrust:	42.597
Time:	5.670	Roll Set Point:	-0.015	Pitch Set Point:	0.029	Yaw Set Point:	-2.958	X_WP:	0.000	Y_WP:	0.000	Y_WP:	0.500	X:	0.163	Y:	0.069	Z:	0.401	yaw:	169.471	yaw rate:	3.203	Roll:	-6.049	Pitch:	-3.967	Yaw:	241.425	Thrust:	61.854
Time:	5.701	Roll Set Point:	-0.015	Pitch Set Point:	0.029	Yaw Set Point:	-2.957	X_WP:	0.000	Y_WP:	0.000	Y_WP:	0.500	X:	0.163	Y:	0.069	Z:	0.401	yaw:	169.428	yaw rate:	-4.352	Roll:	-5.388	Pitch:	-3.682	Yaw:	239.324	Thrust:	43.222
Time:	5.732	Roll Set Point:	-0.015	Pitch Set Point:	0.029	Yaw Set Point:	-2.958	X_WP:	0.000	Y_WP:	0.000	Y_WP:	0.500	X:	0.163	Y:	0.069	Z:	0.401	yaw:	169.460	yaw rate:	-0.151	Roll:	-5.499	Pitch:	-3.553	Yaw:	240.013	Thrust:	43.885
Time:	5.764	Roll Set Point:	-0.015	Pitch Set Point:	0.029	Yaw Set Point:	-2.957	X_WP:	0.000	Y_WP:	0.000	Y_WP:	0.500	X:	0.163	Y:	0.069	Z:	0.401	yaw:	169.442	yaw rate:	-1.828	Roll:	-5.427	Pitch:	-3.663	Yaw:	239.559	Thrust:	44.111
Time:	5.795	Roll Set Point:	-0.015	Pitch Set Point:	0.029	Yaw Set Point:	-2.957	X_WP:	0.000	Y_WP:	0.000	Y_WP:	0.500	X:	0.163	Y:	0.069	Z:	0.401	yaw:	169.447	yaw rate:	0.454	Roll:	-5.464	Pitch:	-3.616	Yaw:	239.752	Thrust:	44.488
Time:	5.826	Roll Set Point:	-0.015	Pitch Set Point:	0.029	Yaw Set Point:	-2.957	X_WP:	0.000	Y_WP:	0.000	Y_WP:	0.500	X:	0.163	Y:	0.069	Z:	0.401	yaw:	169.428	yaw rate:	-0.982	Roll:	-5.422	Pitch:	-3.680	Yaw:	239.535	Thrust:	44.768
Time:	5.857	Roll Set Point:	-0.015	Pitch Set Point:	0.029	Yaw Set Point:	-2.957	X_WP:	0.000	Y_WP:	0.000	Y_WP:	0.500	X:	0.163	Y:	0.069	Z:	0.401	yaw:	169.434	yaw rate:	0.634	Roll:	-5.465	Pitch:	-3.618	Yaw:	239.756	Thrust:	45.400
Time:	5.889	Roll Set Point:	-0.015	Pitch Set Point:	0.029	Yaw Set Point:	-2.957	X_WP:	0.000	Y_WP:	0.000	Y_WP:	0.500	X:	0.163	Y:	0.069	Z:	0.401	yaw:	169.428	yaw rate:	-0.147	Roll:	-5.429	Pitch:	-3.685	Yaw:	239.636	Thrust:	45.585
Time:	5.931	Roll Set Point:	-0.015	Pitch Set Point:	0.029	Yaw Set Point:	-2.957	X_WP:	0.000	Y_WP:	0.000	Y_WP:	0.500	X:	0.163	Y:	0.069	Z:	0.401	yaw:	169.443	yaw rate:	1.554	Roll:	-5.889	Pitch:	-3.948	Yaw:	240.937	Thrust:	60.608
Time:	5.962	Roll Set Point:	-0.015	Pitch Set Point:	0.029	Yaw Set Point:	-2.957	X_WP:	0.000	Y_WP:	0.000	Y_WP:	0.500	X:	0.163	Y:	0.069	Z:	0.401	yaw:	169.451	yaw rate:	0.212	Roll:	-5.456	Pitch:	-3.651	Yaw:	239.788	Thrust:	46.326
Time:	5.994	Roll Set Point:	-0.014	Pitch Set Point:	0.027	Yaw Set Point:	-2.969	X_WP:	0.000	Y_WP:	0.000	Y_WP:	0.500	X:	0.163	Y:	0.069	Z:	0.401	yaw:	170.117	yaw rate:	66.630	Roll:	-6.017	Pitch:	-2.565	Yaw:	246.235	Thrust:	46.741
Time:	6.025	Roll Set Point:	-0.167	Pitch Set Point:	-0.007	Yaw Set Point:	-2.957	X_WP:	0.155	Y_WP:	0.007	Y_WP:	0.500	X:	0.163	Y:	0.069	Z:	0.401	yaw:	169.443	yaw rate:	-2.665	Roll:	30.000	Pitch:	15.497	Yaw:	234.066	Thrust:	47.166
Time:	6.056	Roll Set Point:	-0.167	Pitch Set Point:	-0.007	Yaw Set Point:	-2.957	X_WP:	0.155	Y_WP:	0.007	Y_WP:	0.500	X:	0.163	Y:	0.069	Z:	0.401	yaw:	169.422	yaw rate:	-2.161	Roll:	-1.049	Pitch:	-2.663	Yaw:	239.502	Thrust:	47.388
Time:	6.087	Roll Set Point:	-0.167	Pitch Set Point:	-0.007	Yaw Set Point:	-2.957	X_WP:	0.155	Y_WP:	0.007	Y_WP:	0.500	X:	0.163	Y:	0.069	Z:	0.401	yaw:	169.448	yaw rate:	2.638	Roll:	-1.074	Pitch:	-2.668	Yaw:	239.940	Thrust:	47.913
Time:	6.119	Roll Set Point:	-0.167	Pitch Set Point:	-0.007	Yaw Set Point:	-2.957	X_WP:	0.155	Y_WP:	0.007	Y_WP:	0.500	X:	0.163	Y:	0.069	Z:	0.401	yaw:	169.434	yaw rate:	-1.440	Roll:	-1.054	Pitch:	-2.675	Yaw:	239.582	Thrust:	48.276
Time:	6.150	Roll Set Point:	-0.167	Pitch Set Point:	-0.007	Yaw Set Point:	-2.958	X_WP:	0.155	Y_WP:	0.007	Y_WP:	0.500	X:	0.163	Y:	0.069	Z:	0.401	yaw:	169.476	yaw rate:	4.202	Roll:	-1.084	Pitch:	-2.681	Yaw:	240.110	Thrust:	48.553
Time:	6.186	Roll Set Point:	-0.167	Pitch Set Point:	-0.007	Yaw Set Point:	-2.957	X_WP:	0.155	Y_WP:	0.007	Y_WP:	0.500	X:	0.163	Y:	0.069	Z:	0.401	yaw:	169.437	yaw rate:	-0.237	Roll:	-1.205	Pitch:	-2.809	Yaw:	239.866	Thrust:	55.142
Time:	6.217	Roll Set Point:	-0.167	Pitch Set Point:	-0.007	Yaw Set Point:	-2.958	X_WP:	0.155	Y_WP:	0.007	Y_WP:	0.500	X:	0.163	Y:	0.069	Z:	0.401	yaw:	169.459	yaw rate:	-0.140	Roll:	-1.071	Pitch:	-2.687	Yaw:	239.916	Thrust:	49.380
Time:	6.251	Roll Set Point:	-0.167	Pitch Set Point:	-0.007	Yaw Set Point:	-2.957	X_WP:	0.155	Y_WP:	0.007	Y_WP:	0.500	X:	0.163	Y:	0.069	Z:	0.401	yaw:	169.441	yaw rate:	-1.747	Roll:	-1.169	Pitch:	-2.784	Yaw:	239.893	Thrust:	54.101
Time:	6.283	Roll Set Point:	-0.167	Pitch Set Point:	-0.007	Yaw Set Point:	-2.958	X_WP:	0.155	Y_WP:	0.007	Y_WP:	0.500	X:	0.163	Y:	0.069	Z:	0.401	yaw:	169.466	yaw rate:	3.769	Roll:	-1.073	Pitch:	-2.699	Yaw:	239.947	Thrust:	50.126
Time:	6.314	Roll Set Point:	-0.167	Pitch Set Point:	-0.007	Yaw Set Point:	-2.958	X_WP:	0.155	Y_WP:	0.007	Y_WP:	0.500	X:	0.163	Y:	0.069	Z:	0.401	yaw:	169.463	yaw rate:	2.516	Roll:	-1.058	Pitch:	-2.704	Yaw:	239.717	Thrust:	50.456
Time:	6.345	Roll Set Point:	-0.167	Pitch Set Point:	-0.007	Yaw Set Point:	-2.957	X_WP:	0.155	Y_WP:	0.007	Y_WP:	0.500	X:	0.163	Y:	0.069	Z:	0.401	yaw:	169.443	yaw rate:	-1.966	Roll:	-1.045	Pitch:	-2.706	Yaw:	239.551	Thrust:	50.872
Time:	6.376	Roll Set Point:	-0.167	Pitch Set Point:	-0.007	Yaw Set Point:	-2.957	X_WP:	0.155	Y_WP:	0.007	Y_WP:	0.500	X:	0.163	Y:	0.069	Z:	0.401	yaw:	169.436	yaw rate:	-0.739	Roll:	-1.054	Pitch:	-2.712	Yaw:	239.637	Thrust:	51.101
Time:	6.408	Roll Set Point:	-0.167	Pitch Set Point:	-0.007	Yaw Set Point:	-2.958	X_WP:	0.155	Y_WP:	0.007	Y_WP:	0.500	X:	0.163	Y:	0.069	Z:	0.401	yaw:	169.461	yaw rate:	1.525	Roll:	-1.073	Pitch:	-2.720	Yaw:	239.951	Thrust:	51.624
Time:	6.439	Roll Set Point:	-0.167	Pitch Set Point:	-0.007	Yaw Set Point:	-2.957	X_WP:	0.155	Y_WP:	0.007	Y_WP:	0.500	X:	0.163	Y:	0.069	Z:	0.401	yaw:	169.437	yaw rate:	-2.348	Roll:	-1.044	Pitch:	-2.720	Yaw:	239.507	Thrust:	51.929
Time:	6.470	Roll Set Point:	-0.167	Pitch Set Point:	-0.007	Yaw Set Point:	-2.957	X_WP:	0.155	Y_WP:	0.007	Y_WP:	0.500	X:	0.163	Y:	0.069	Z:	0.401	yaw:	169.445	yaw rate:	1.822	Roll:	-1.060	Pitch:	-2.729	Yaw:	239.781	Thrust:	52.359
Time:	6.501	Roll Set Point:	-0.167	Pitch Set Point:	-0.007	Yaw Set Point:	-2.957	X_WP:	0.155	Y_WP:	0.007	Y_WP:	0.500	X:	0.163	Y:	0.069	Z:	0.401	yaw:	169.431	yaw rate:	-1.473	Roll:	-1.048	Pitch:	-2.731	Yaw:	239.568	Thrust:	52.607
Time:	6.533	Roll Set Point:	-0.167	Pitch Set Point:	-0.007	Yaw Set Point:	-2.957	X_WP:	0.155	Y_WP:	0.007	Y_WP:	0.500	X:	0.163	Y:	0.069	Z:	0.401	yaw:	169.407	yaw rate:	-2.464	Roll:	-1.042	Pitch:	-2.737	Yaw:	239.470	Thrust:	53.111
Time:	6.564	Roll Set Point:	-0.167	Pitch Set Point:	-0.007	Yaw Set Point:	-2.957	X_WP:	0.155	Y_WP:	0.007	Y_WP:	0.500	X:	0.163	Y:	0.069	Z:	0.401	yaw:	169.452	yaw rate:	4.450	Roll:	-1.080	Pitch:	-2.742	Yaw:	240.094	Thrust:	53.348
Time:	6.595	Roll Set Point:	-0.167	Pitch Set Point:	-0.007	Yaw Set Point:	-2.957	X_WP:	0.155	Y_WP:	0.007	Y_WP:	0.500	X:	0.163	Y:	0.069	Z:	0.401	yaw:	169.443	yaw rate:	0.905	Roll:	-1.052	Pitch:	-2.749	Yaw:	239.646	Thrust:	53.867
Time:	6.626	Roll Set Point:	-0.167	Pitch Set Point:	-0.007	Yaw Set Point:	-2.958	X_WP:	0.155	Y_WP:	0.007	Y_WP:	0.500	X:	0.163	Y:	0.069	Z:	0.401	yaw:	169.456	yaw rate:	1.292	Roll:	-1.060	Pitch:	-2.749	Yaw:	239.836	Thrust:	54.153
Time:	6.658	Roll Set Point:	-0.167	Pitch Set Point:	-0.007	Yaw Set Point:	-2.957	X_WP:	0.155	Y_WP:	0.007	Y_WP:	0.500	X:	0.163	Y:	0.069	Z:	0.401	yaw:	169.433	yaw rate:	-2.302	Roll:	-1.044	Pitch:	-2.757	Yaw:	239.509	Thrust:	54.525
Time:	6.689	Roll Set Point:	-0.167	Pitch Set Point:	-0.007	Yaw Set Point:	-2.958	X_WP:	0.155	Y_WP:	0.007	Y_WP:	0.500	X:	0.163	Y:	0.069	Z:	0.401	yaw:	169.463	yaw rate:	1.499	Roll:	-1.072	Pitch:	-2.764	Yaw:	239.993	Thrust:	54.931
Time:	6.720	Roll Set Point:	-0.167	Pitch Set Point:	-0.007	Yaw Set Point:	-2.957	X_WP:	0.155	Y_WP:	0.007	Y_WP:	0.500	X:	0.163	Y:	0.069	Z:	0.401	yaw:	169.429	yaw rate:	-0.446	Roll:	-1.035	Pitch:	-2.764	Yaw:	239.409	Thrust:	55.284
Time:	6.751	Roll Set Point:	-0.167	Pitch Set Point:	-0.007	Yaw Set Point:	-2.957	X_WP:	0.155	Y_WP:	0.007	Y_WP:	0.500	X:	0.163	Y:	0.069	Z:	0.401	yaw:	169.438	yaw rate:	0.811	Roll:	-1.058	Pitch:	-2.771	Yaw:	239.770	Thrust:	55.587
Time:	6.783	Roll Set Point:	-0.167	Pitch Set Point:	-0.007	Yaw Set Point:	-2.957	X_WP:	0.155	Y_WP:	0.007	Y_WP:	0.500	X:	0.163	Y:	0.069	Z:	0.401	yaw:	169.445	yaw rate:	0.777	Roll:	-1.058	Pitch:	-2.776	Yaw:	239.781	Thrust:	56.040
Time:	6.814	Roll Set Point:	-0.167	Pitch Set Point:	-0.007	Yaw Set Point:	-2.957	X_WP:	0.155	Y_WP:	0.007	Y_WP:	0.500	X:	0.163	Y:	0.069	Z:	0.401	yaw:	169.451	yaw rate:	0.598	Roll:	-1.057	Pitch:	-2.781	Yaw:	239.774	Thrust:	56.378
Time:	6.845	Roll Set Point:	-0.167	Pitch Set Point:	-0.007	Yaw Set Point:	-2.957	X_WP:	0.155	Y_WP:	0.007	Y_WP:	0.500	X:	0.163	Y:	0.069	Z:	0.401	yaw:	169.450	yaw rate:	2.506	Roll:	-1.053	Pitch:	-2.786	Yaw:	239.712	Thrust:	56.772
Time:	6.876	Roll Set Point:	-0.167	Pitch Set Point:	-0.007	Yaw Set Point:	-2.957	X_WP:	0.155	Y_WP:	0.007	Y_WP:	0.500	X:	0.163	Y:	0.069	Z:	0.401	yaw:	169.449	yaw rate:	1.742	Roll:	-1.052	Pitch:	-2.791	Yaw:	239.714	Thrust:	57.198
Time:	6.908	Roll Set Point:	-0.167	Pitch Set Point:	-0.007	Yaw Set Point:	-2.957	X_WP:	0.155	Y_WP:	0.007	Y_WP:	0.500	X:	0.163	Y:	0.069	Z:	0.401	yaw:	169.446	yaw rate:	-0.329	Roll:	-1.050	Pitch:	-2.794	Yaw:	239.685	Thrust:	57.447
Time:	6.939	Roll Set Point:	-0.167	Pitch Set Point:	-0.007	Yaw Set Point:	-2.957	X_WP:	0.155	Y_WP:	0.007	Y_WP:	0.500	X:	0.163	Y:	0.069	Z:	0.401	yaw:	169.440	yaw rate:	-1.320	Roll:	-1.049	Pitch:	-2.800	Yaw:	239.663	Thrust:	57.933
Time:	6.970	Roll Set Point:	-0.167	Pitch Set Point:	-0.007	Yaw Set Point:	-2.957	X_WP:	0.155	Y_WP:	0.007	Y_WP:	0.500	X:	0.163	Y:	0.069	Z:	0.401	yaw:	169.420	yaw rate:	-1.976	Roll:	-1.040	Pitch:	-2.804	Yaw:	239.515	Thrust:	58.234
Time:	7.017	Roll Set Point:	-0.167	Pitch Set Point:	-0.007	Yaw Set Point:	-2.957	X_WP:	0.155	Y_WP:	0.007	Y_WP:	0.500	X:	0.163	Y:	0.069	Z:	0.401	yaw:	169.417	yaw rate:	-0.363	Roll:	-1.630	Pitch:	-3.312	Yaw:	241.218	Thrust:	85.219
Time:	7.048	Roll Set Point:	-0.167	Pitch Set Point:	-0.007	Yaw Set Point:	-2.958	X_WP:	0.155	Y_WP:	0.007	Y_WP:	0.500	X:	0.163	Y:	0.069	Z:	0.401	yaw:	169.460	yaw rate:	-0.172	Roll:	-1.077	Pitch:	-2.818	Yaw:	240.094	Thrust:	59.037
Time:	7.080	Roll Set Point:	-0.167	Pitch Set Point:	-0.007	Yaw Set Point:	-2.957	X_WP:	0.155	Y_WP:	0.007	Y_WP:	0.500	X:	0.163	Y:	0.069	Z:	0.401	yaw:	169.428	yaw rate:	-3.171	Roll:	-1.034	Pitch:	-2.817	Yaw:	239.426	Thrust:	59.303
Time:	7.111	Roll Set Point:	-0.167	Pitch Set Point:	-0.007	Yaw Set Point:	-2.957	X_WP:	0.155	Y_WP:	0.007	Y_WP:	0.500	X:	0.163	Y:	0.069	Z:	0.401	yaw:	169.447	yaw rate:	1.873	Roll:	-1.062	Pitch:	-2.827	Yaw:	239.877	Thrust:	59.901
Time:	7.142	Roll Set Point:	-0.167	Pitch Set Point:	-0.007	Yaw Set Point:	-2.957	X_WP:	0.155	Y_WP:	0.007	Y_WP:	0.500	X:	0.163	Y:	0.069	Z:	0.401	yaw:	169.442	yaw rate:	-0.425	Roll:	-1.045	Pitch:	-2.826	Yaw:	239.673	Thrust:	60.069
Time:	7.186	Roll Set Point:	-0.167	Pitch Set Point:	-0.007	Yaw Set Point:	-2.957	X_WP:	0.155	Y_WP:	0.007	Y_WP:	0.500	X:	0.163	Y:	0.069	Z:	0.401	yaw:	169.444	yaw rate:	-0.357	Roll:	-1.529	Pitch:	-3.259	Yaw:	241.006	Thrust:	83.080
Time:	7.218	Roll Set Point:	-0.167	Pitch Set Point:	-0.007	Yaw Set Point:	-2.957	X_WP:	0.155	Y_WP:	0.007	Y_WP:	0.500	X:	0.163	Y:	0.069	Z:	0.401	yaw:	169.441	yaw rate:	0.314	Roll:	-1.054	Pitch:	-2.845	Yaw:	239.706	Thrust:	61.184
Time:	7.255	Roll Set Point:	-0.167	Pitch Set Point:	-0.007	Yaw Set Point:	-2.957	X_WP:	0.155	Y_WP:	0.007	Y_WP:	0.500	X:	0.163	Y:	0.069	Z:	0.401	yaw:	169.450	yaw rate:	0.829	Roll:	-1.295	Pitch:	-3.059	Yaw:	240.429	Thrust:	72.805
Time:	7.287	Roll Set Point:	-0.167	Pitch Set Point:	-0.007	Yaw Set Point:	-2.957	X_WP:	0.155	Y_WP:	0.007	Y_WP:	0.500	X:	0.163	Y:	0.069	Z:	0.401	yaw:	169.445	yaw rate:	0.257	Roll:	-1.045	Pitch:	-2.851	Yaw:	239.678	Thrust:	61.582
Time:	7.333	Roll Set Point:	-0.167	Pitch Set Point:	-0.007	Yaw Set Point:	-2.957	X_WP:	0.155	Y_WP:	0.007	Y_WP:	0.500	X:	0.163	Y:	0.069	Z:	0.401	yaw:	169.429	yaw rate:	-0.524	Roll:	-1.622	Pitch:	-3.378	Yaw:	241.167	Thrust:	90.156
Time:	7.365	Roll Set Point:	-0.167	Pitch Set Point:	-0.007	Yaw Set Point:	-2.958	X_WP:	0.155	Y_WP:	0.007	Y_WP:	0.500	X:	0.163	Y:	0.069	Z:	0.401	yaw:	169.453	yaw rate:	2.307	Roll:	-1.061	Pitch:	-2.858	Yaw:	239.919	Thrust:	62.485
Time:	7.396	Roll Set Point:	-0.167	Pitch Set Point:	-0.007	Yaw Set Point:	-2.957	X_WP:	0.155	Y_WP:	0.007	Y_WP:	0.500	X:	0.163	Y:	0.069	Z:	0.401	yaw:	169.420	yaw rate:	-2.107	Roll:	-1.030	Pitch:	-2.863	Yaw:	239.404	Thrust:	62.629
Time:	7.427	Roll Set Point:	-0.167	Pitch Set Point:	-0.007	Yaw Set Point:	-2.958	X_WP:	0.155	Y_WP:	0.007	Y_WP:	0.500	X:	0.163	Y:	0.069	Z:	0.401	yaw:	169.463	yaw rate:	4.162	Roll:	-1.073	Pitch:	-2.868	Yaw:	240.099	Thrust:	63.140
Time:	7.458	Roll Set Point:	-0.167	Pitch Set Point:	-0.007	Yaw Set Point:	-2.957	X_WP:	0.155	Y_WP:	0.007	Y_WP:	0.500	X:	0.163	Y:	0.069	Z:	0.401	yaw:	169.443	yaw rate:	-2.009	Roll:	-1.036	Pitch:	-2.875	Yaw:	239.547	Thrust:	63.500
Time:	7.490	Roll Set Point:	-0.167	Pitch Set Point:	-0.007	Yaw Set Point:	-2.957	X_WP:	0.155	Y_WP:	0.007	Y_WP:	0.500	X:	0.163	Y:	0.069	Z:	0.401	yaw:	169.442	yaw rate:	0.723	Roll:	-1.047	Pitch:	-2.876	Yaw:	239.703	Thrust:	63.829
Time:	7.521	Roll Set Point:	-0.167	Pitch Set Point:	-0.007	Yaw Set Point:	-2.957	X_WP:	0.155	Y_WP:	0.007	Y_WP:	0.500	X:	0.163	Y:	0.069	Z:	0.401	yaw:	169.416	yaw rate:	-2.550	Roll:	-1.032	Pitch:	-2.885	Yaw:	239.465	Thrust:	64.218
Time:	7.552	Roll Set Point:	-0.167	Pitch Set Point:	-0.007	Yaw Set Point:	-2.958	X_WP:	0.155	Y_WP:	0.007	Y_WP:	0.500	X:	0.163	Y:	0.069	Z:	0.401	yaw:	169.455	yaw rate:	3.813	Roll:	-1.069	Pitch:	-2.888	Yaw:	240.048	Thrust:	64.604
Time:	7.583	Roll Set Point:	-0.167	Pitch Set Point:	-0.007	Yaw Set Point:	-2.958	X_WP:	0.155	Y_WP:	0.007	Y_WP:	0.500	X:	0.163	Y:	0.069	Z:	0.401	yaw:	169.455	yaw rate:	4.259	Roll:	-1.046	Pitch:	-2.891	Yaw:	239.729	Thrust:	64.907
Time:	7.615	Roll Set Point:	-0.167	Pitch Set Point:	-0.007	Yaw Set Point:	-2.957	X_WP:	0.155	Y_WP:	0.007	Y_WP:	0.500	X:	0.163	Y:	0.069	Z:	0.401	yaw:	169.448	yaw rate:	-0.706	Roll:	-1.043	Pitch:	-2.898	Yaw:	239.660	Thrust:	65.321
Time:	7.646	Roll Set Point:	-0.167	Pitch Set Point:	-0.007	Yaw Set Point:	-2.958	X_WP:	0.155	Y_WP:	0.007	Y_WP:	0.500	X:	0.163	Y:	0.069	Z:	0.401	yaw:	169.455	yaw rate:	0.681	Roll:	-1.049	Pitch:	-2.902	Yaw:	239.786	Thrust:	65.688
Time:	7.677	Roll Set Point:	-0.167	Pitch Set Point:	-0.007	Yaw Set Point:	-2.957	X_WP:	0.155	Y_WP:	0.007	Y_WP:	0.500	X:	0.163	Y:	0.069	Z:	0.401	yaw:	169.419	yaw rate:	-3.606	Roll:	-1.026	Pitch:	-2.907	Yaw:	239.380	Thrust:	66.092
Time:	7.709	Roll Set Point:	-0.167	Pitch Set Point:	-0.007	Yaw Set Point:	-2.958	X_WP:	0.155	Y_WP:	0.007	Y_WP:	0.500	X:	0.163	Y:	0.069	Z:	0.401	yaw:	169.461	yaw rate:	4.242	Roll:	-1.069	Pitch:	-2.913	Yaw:	240.093	Thrust:	66.482
Time:	7.740	Roll Set Point:	-0.167	Pitch Set Point:	-0.007	Yaw Set Point:	-2.957	X_WP:	0.155	Y_WP:	0.007	Y_WP:	0.500	X:	0.163	Y:	0.069	Z:	0.401	yaw:	169.429	yaw rate:	-3.188	Roll:	-1.028	Pitch:	-2.915	Yaw:	239.426	Thrust:	66.732
Time:	7.771	Roll Set Point:	-0.167	Pitch Set Point:	-0.007	Yaw Set Point:	-2.958	X_WP:	0.155	Y_WP:	0.007	Y_WP:	0.500	X:	0.163	Y:	0.069	Z:	0.401	yaw:	169.461	yaw rate:	3.188	Roll:	-1.061	Pitch:	-2.922	Yaw:	240.002	Thrust:	67.217
Time:	7.802	Roll Set Point:	-0.167	Pitch Set Point:	-0.007	Yaw Set Point:	-2.957	X_WP:	0.155	Y_WP:	0.007	Y_WP:	0.500	X:	0.163	Y:	0.069	Z:	0.401	yaw:	169.422	yaw rate:	-3.931	Roll:	-1.020	Pitch:	-2.927	Yaw:	239.354	Thrust:	67.486
Time:	7.834	Roll Set Point:	-0.167	Pitch Set Point:	-0.007	Yaw Set Point:	-2.958	X_WP:	0.155	Y_WP:	0.007	Y_WP:	0.500	X:	0.163	Y:	0.069	Z:	0.401	yaw:	169.470	yaw rate:	4.819	Roll:	-1.073	Pitch:	-2.933	Yaw:	240.153	Thrust:	67.999
Time:	7.865	Roll Set Point:	-0.167	Pitch Set Point:	-0.007	Yaw Set Point:	-2.957	X_WP:	0.155	Y_WP:	0.007	Y_WP:	0.500	X:	0.163	Y:	0.069	Z:	0.401	yaw:	169.435	yaw rate:	-3.533	Roll:	-1.023	Pitch:	-2.934	Yaw:	239.405	Thrust:	68.247
Time:	7.896	Roll Set Point:	-0.167	Pitch Set Point:	-0.007	Yaw Set Point:	-2.958	X_WP:	0.155	Y_WP:	0.007	Y_WP:	0.500	X:	0.163	Y:	0.069	Z:	0.401	yaw:	169.466	yaw rate:	3.297	Roll:	-1.063	Pitch:	-2.945	Yaw:	240.009	Thrust:	68.773
Time:	7.927	Roll Set Point:	-0.167	Pitch Set Point:	-0.007	Yaw Set Point:	-2.957	X_WP:	0.155	Y_WP:	0.007	Y_WP:	0.500	X:	0.163	Y:	0.069	Z:	0.401	yaw:	169.431	yaw rate:	-0.316	Roll:	-1.023	Pitch:	-2.946	Yaw:	239.408	Thrust:	68.963
Time:	7.959	Roll Set Point:	-0.167	Pitch Set Point:	-0.007	Yaw Set Point:	-2.957	X_WP:	0.155	Y_WP:	0.007	Y_WP:	0.500	X:	0.163	Y:	0.069	Z:	0.401	yaw:	169.450	yaw rate:	1.900	Roll:	-1.053	Pitch:	-2.950	Yaw:	239.879	Thrust:	69.422
Time:	7.990	Roll Set Point:	-0.167	Pitch Set Point:	-0.007	Yaw Set Point:	-2.957	X_WP:	0.155	Y_WP:	0.007	Y_WP:	0.500	X:	0.163	Y:	0.069	Z:	0.401	yaw:	169.435	yaw rate:	-1.223	Roll:	-1.035	Pitch:	-2.957	Yaw:	239.573	Thrust:	69.823
Time:	8.021	Roll Set Point:	-0.167	Pitch Set Point:	-0.007	Yaw Set Point:	-2.957	X_WP:	0.155	Y_WP:	0.007	Y_WP:	0.500	X:	0.163	Y:	0.069	Z:	0.401	yaw:	169.452	yaw rate:	1.691	Roll:	-1.052	Pitch:	-2.962	Yaw:	239.866	Thrust:	70.121
Time:	8.052	Roll Set Point:	-0.167	Pitch Set Point:	-0.007	Yaw Set Point:	-2.957	X_WP:	0.155	Y_WP:	0.007	Y_WP:	0.500	X:	0.163	Y:	0.069	Z:	0.401	yaw:	169.437	yaw rate:	-1.437	Roll:	-1.032	Pitch:	-2.965	Yaw:	239.581	Thrust:	70.509
Time:	8.084	Roll Set Point:	-0.167	Pitch Set Point:	-0.007	Yaw Set Point:	-2.957	X_WP:	0.155	Y_WP:	0.007	Y_WP:	0.500	X:	0.163	Y:	0.069	Z:	0.401	yaw:	169.447	yaw rate:	0.931	Roll:	-1.046	Pitch:	-2.971	Yaw:	239.795	Thrust:	70.872
Time:	8.115	Roll Set Point:	-0.167	Pitch Set Point:	-0.007	Yaw Set Point:	-2.957	X_WP:	0.155	Y_WP:	0.007	Y_WP:	0.500	X:	0.163	Y:	0.069	Z:	0.401	yaw:	169.438	yaw rate:	0.619	Roll:	-1.035	Pitch:	-2.973	Yaw:	239.634	Thrust:	71.331
Time:	8.146	Roll Set Point:	-0.167	Pitch Set Point:	-0.007	Yaw Set Point:	-2.957	X_WP:	0.155	Y_WP:	0.007	Y_WP:	0.500	X:	0.163	Y:	0.069	Z:	0.401	yaw:	169.445	yaw rate:	0.692	Roll:	-1.046	Pitch:	-2.977	Yaw:	239.773	Thrust:	71.602
Time:	8.186	Roll Set Point:	-0.167	Pitch Set Point:	-0.007	Yaw Set Point:	-2.957	X_WP:	0.155	Y_WP:	0.007	Y_WP:	0.500	X:	0.163	Y:	0.069	Z:	0.401	yaw:	169.429	yaw rate:	0.422	Roll:	-1.346	Pitch:	-3.296	Yaw:	240.437	Thrust:	90.109
Time:	8.233	Roll Set Point:	-0.167	Pitch Set Point:	-0.007	Yaw Set Point:	-2.957	X_WP:	0.155	Y_WP:	0.007	Y_WP:	0.500	X:	0.163	Y:	0.069	Z:	0.401	yaw:	169.444	yaw rate:	-0.363	Roll:	-1.627	Pitch:	-3.570	Yaw:	241.376	Thrust:	100.000
Time:	8.265	Roll Set Point:	-0.167	Pitch Set Point:	-0.007	Yaw Set Point:	-2.958	X_WP:	0.155	Y_WP:	0.007	Y_WP:	0.500	X:	0.163	Y:	0.069	Z:	0.401	yaw:	169.454	yaw rate:	0.931	Roll:	-1.085	Pitch:	-3.015	Yaw:	239.905	Thrust:	74.890
Time:	8.296	Roll Set Point:	-0.167	Pitch Set Point:	-0.007	Yaw Set Point:	-2.957	X_WP:	0.155	Y_WP:	0.007	Y_WP:	0.500	X:	0.163	Y:	0.069	Z:	0.401	yaw:	169.436	yaw rate:	-1.788	Roll:	-1.030	Pitch:	-2.978	Yaw:	239.556	Thrust:	73.285
Time:	8.328	Roll Set Point:	-0.167	Pitch Set Point:	-0.007	Yaw Set Point:	-2.957	X_WP:	0.155	Y_WP:	0.007	Y_WP:	0.500	X:	0.163	Y:	0.069	Z:	0.401	yaw:	169.449	yaw rate:	-0.004	Roll:	-1.046	Pitch:	-2.979	Yaw:	239.831	Thrust:	73.426
Time:	8.359	Roll Set Point:	-0.167	Pitch Set Point:	-0.007	Yaw Set Point:	-2.957	X_WP:	0.155	Y_WP:	0.007	Y_WP:	0.500	X:	0.163	Y:	0.069	Z:	0.401	yaw:	169.439	yaw rate:	-1.005	Roll:	-1.035	Pitch:	-2.978	Yaw:	239.626	Thrust:	73.956
Time:	8.406	Roll Set Point:	-0.167	Pitch Set Point:	-0.007	Yaw Set Point:	-2.957	X_WP:	0.155	Y_WP:	0.007	Y_WP:	0.500	X:	0.163	Y:	0.069	Z:	0.401	yaw:	169.414	yaw rate:	-2.449	Roll:	-1.602	Pitch:	-3.561	Yaw:	241.093	Thrust:	100.000
Time:	8.437	Roll Set Point:	-0.167	Pitch Set Point:	-0.007	Yaw Set Point:	-2.957	X_WP:	0.155	Y_WP:	0.007	Y_WP:	0.500	X:	0.163	Y:	0.069	Z:	0.401	yaw:	169.448	yaw rate:	3.405	Roll:	-1.057	Pitch:	-2.979	Yaw:	240.005	Thrust:	74.642
Time:	8.468	Roll Set Point:	-0.167	Pitch Set Point:	-0.007	Yaw Set Point:	-2.957	X_WP:	0.155	Y_WP:	0.007	Y_WP:	0.500	X:	0.163	Y:	0.069	Z:	0.401	yaw:	169.450	yaw rate:	0.194	Roll:	-1.039	Pitch:	-2.978	Yaw:	239.739	Thrust:	74.961
Time:	8.500	Roll Set Point:	-0.167	Pitch Set Point:	-0.007	Yaw Set Point:	-2.958	X_WP:	0.155	Y_WP:	0.007	Y_WP:	0.500	X:	0.163	Y:	0.069	Z:	0.401	yaw:	169.454	yaw rate:	0.330	Roll:	-1.042	Pitch:	-2.980	Yaw:	239.757	Thrust:	75.435
Time:	8.531	Roll Set Point:	-0.167	Pitch Set Point:	-0.007	Yaw Set Point:	-2.957	X_WP:	0.155	Y_WP:	0.007	Y_WP:	0.500	X:	0.163	Y:	0.069	Z:	0.401	yaw:	169.432	yaw rate:	-1.919	Roll:	-1.024	Pitch:	-2.976	Yaw:	239.518	Thrust:	75.637
Time:	8.562	Roll Set Point:	-0.167	Pitch Set Point:	-0.007	Yaw Set Point:	-2.957	X_WP:	0.155	Y_WP:	0.007	Y_WP:	0.500	X:	0.163	Y:	0.069	Z:	0.401	yaw:	169.445	yaw rate:	1.256	Roll:	-1.058	Pitch:	-2.991	Yaw:	239.854	Thrust:	76.958
Time:	8.605	Roll Set Point:	-0.167	Pitch Set Point:	-0.007	Yaw Set Point:	-2.957	X_WP:	0.155	Y_WP:	0.007	Y_WP:	0.500	X:	0.163	Y:	0.069	Z:	0.401	yaw:	169.430	yaw rate:	-3.024	Roll:	-1.442	Pitch:	-3.398	Yaw:	240.726	Thrust:	100.000
Time:	8.636	Roll Set Point:	-0.167	Pitch Set Point:	-0.007	Yaw Set Point:	-2.957	X_WP:	0.155	Y_WP:	0.007	Y_WP:	0.500	X:	0.163	Y:	0.069	Z:	0.401	yaw:	169.452	yaw rate:	1.472	Roll:	-1.050	Pitch:	-2.978	Yaw:	239.908	Thrust:	76.839
Time:	8.667	Roll Set Point:	-0.167	Pitch Set Point:	-0.007	Yaw Set Point:	-2.957	X_WP:	0.155	Y_WP:	0.007	Y_WP:	0.500	X:	0.163	Y:	0.069	Z:	0.401	yaw:	169.442	yaw rate:	2.002	Roll:	-1.030	Pitch:	-2.977	Yaw:	239.628	Thrust:	77.106
Time:	8.699	Roll Set Point:	-0.167	Pitch Set Point:	-0.007	Yaw Set Point:	-2.957	X_WP:	0.155	Y_WP:	0.007	Y_WP:	0.500	X:	0.163	Y:	0.069	Z:	0.401	yaw:	169.447	yaw rate:	0.491	Roll:	-1.037	Pitch:	-2.977	Yaw:	239.760	Thrust:	77.674
Time:	8.730	Roll Set Point:	-0.167	Pitch Set Point:	-0.007	Yaw Set Point:	-2.957	X_WP:	0.155	Y_WP:	0.007	Y_WP:	0.500	X:	0.163	Y:	0.069	Z:	0.401	yaw:	169.444	yaw rate:	-0.366	Roll:	-1.033	Pitch:	-2.975	Yaw:	239.683	Thrust:	78.038
Time:	8.761	Roll Set Point:	-0.167	Pitch Set Point:	-0.007	Yaw Set Point:	-2.957	X_WP:	0.155	Y_WP:	0.007	Y_WP:	0.500	X:	0.163	Y:	0.069	Z:	0.401	yaw:	169.429	yaw rate:	-1.481	Roll:	-1.029	Pitch:	-2.977	Yaw:	239.569	Thrust:	78.254
Time:	8.792	Roll Set Point:	-0.167	Pitch Set Point:	-0.007	Yaw Set Point:	-2.957	X_WP:	0.155	Y_WP:	0.007	Y_WP:	0.500	X:	0.163	Y:	0.069	Z:	0.401	yaw:	169.437	yaw rate:	0.828	Roll:	-1.039	Pitch:	-2.981	Yaw:	239.774	Thrust:	78.682
Time:	8.824	Roll Set Point:	-0.167	Pitch Set Point:	-0.007	Yaw Set Point:	-2.957	X_WP:	0.155	Y_WP:	0.007	Y_WP:	0.500	X:	0.163	Y:	0.069	Z:	0.401	yaw:	169.441	yaw rate:	0.397	Roll:	-1.038	Pitch:	-2.978	Yaw:	239.746	Thrust:	79.227
Time:	8.855	Roll Set Point:	-0.167	Pitch Set Point:	-0.007	Yaw Set Point:	-2.957	X_WP:	0.155	Y_WP:	0.007	Y_WP:	0.500	X:	0.163	Y:	0.069	Z:	0.401	yaw:	169.445	yaw rate:	0.344	Roll:	-1.036	Pitch:	-2.978	Yaw:	239.744	Thrust:	79.480
Time:	8.886	Roll Set Point:	-0.167	Pitch Set Point:	-0.007	Yaw Set Point:	-2.957	X_WP:	0.155	Y_WP:	0.007	Y_WP:	0.500	X:	0.163	Y:	0.069	Z:	0.401	yaw:	169.437	yaw rate:	0.659	Roll:	-1.031	Pitch:	-2.979	Yaw:	239.642	Thrust:	79.774
Time:	8.917	Roll Set Point:	-0.167	Pitch Set Point:	-0.007	Yaw Set Point:	-2.957	X_WP:	0.155	Y_WP:	0.007	Y_WP:	0.500	X:	0.163	Y:	0.069	Z:	0.401	yaw:	169.440	yaw rate:	2.057	Roll:	-1.035	Pitch:	-2.978	Yaw:	239.732	Thrust:	80.272
Time:	8.949	Roll Set Point:	-0.167	Pitch Set Point:	-0.007	Yaw Set Point:	-2.957	X_WP:	0.155	Y_WP:	0.007	Y_WP:	0.500	X:	0.163	Y:	0.069	Z:	0.401	yaw:	169.415	yaw rate:	-2.466	Roll:	-1.019	Pitch:	-2.976	Yaw:	239.467	Thrust:	80.447
Time:	8.980	Roll Set Point:	-0.167	Pitch Set Point:	-0.007	Yaw Set Point:	-2.957	X_WP:	0.155	Y_WP:	0.007	Y_WP:	0.500	X:	0.163	Y:	0.069	Z:	0.401	yaw:	169.422	yaw rate:	-1.798	Roll:	-1.036	Pitch:	-2.978	Yaw:	239.735	Thrust:	81.007
Time:	9.027	Roll Set Point:	-0.167	Pitch Set Point:	-0.007	Yaw Set Point:	-2.957	X_WP:	0.155	Y_WP:	0.007	Y_WP:	0.500	X:	0.163	Y:	0.069	Z:	0.401	yaw:	169.437	yaw rate:	1.565	Roll:	-1.611	Pitch:	-3.563	Yaw:	241.354	Thrust:	100.000
Time:	9.058	Roll Set Point:	-0.167	Pitch Set Point:	-0.007	Yaw Set Point:	-2.957	X_WP:	0.155	Y_WP:	0.007	Y_WP:	0.500	X:	0.163	Y:	0.069	Z:	0.401	yaw:	169.431	yaw rate:	-3.427	Roll:	-1.030	Pitch:	-2.977	Yaw:	239.647	Thrust:	81.700
Time:	9.089	Roll Set Point:	-0.167	Pitch Set Point:	-0.007	Yaw Set Point:	-2.957	X_WP:	0.155	Y_WP:	0.007	Y_WP:	0.500	X:	0.163	Y:	0.069	Z:	0.401	yaw:	169.430	yaw rate:	-0.134	Roll:	-1.031	Pitch:	-2.978	Yaw:	239.683	Thrust:	82.077
Time:	9.120	Roll Set Point:	-0.167	Pitch Set Point:	-0.007	Yaw Set Point:	-2.957	X_WP:	0.155	Y_WP:	0.007	Y_WP:	0.500	X:	0.163	Y:	0.069	Z:	0.401	yaw:	169.447	yaw rate:	-0.377	Roll:	-1.041	Pitch:	-2.977	Yaw:	239.857	Thrust:	82.369
Time:	9.152	Roll Set Point:	-0.167	Pitch Set Point:	-0.007	Yaw Set Point:	-2.957	X_WP:	0.155	Y_WP:	0.007	Y_WP:	0.500	X:	0.163	Y:	0.069	Z:	0.401	yaw:	169.438	yaw rate:	-0.919	Roll:	-1.027	Pitch:	-2.978	Yaw:	239.628	Thrust:	82.785
Time:	9.186	Roll Set Point:	-0.167	Pitch Set Point:	-0.007	Yaw Set Point:	-2.957	X_WP:	0.155	Y_WP:	0.007	Y_WP:	0.500	X:	0.163	Y:	0.069	Z:	0.401	yaw:	169.452	yaw rate:	1.376	Roll:	-1.156	Pitch:	-3.097	Yaw:	240.147	Thrust:	91.115
Time:	9.217	Roll Set Point:	-0.167	Pitch Set Point:	-0.007	Yaw Set Point:	-2.958	X_WP:	0.155	Y_WP:	0.007	Y_WP:	0.500	X:	0.163	Y:	0.069	Z:	0.401	yaw:	169.457	yaw rate:	2.901	Roll:	-1.033	Pitch:	-2.975	Yaw:	239.774	Thrust:	83.401
Time:	9.250	Roll Set Point:	-0.167	Pitch Set Point:	-0.007	Yaw Set Point:	-2.957	X_WP:	0.155	Y_WP:	0.007	Y_WP:	0.500	X:	0.163	Y:	0.069	Z:	0.401	yaw:	169.432	yaw rate:	-2.483	Roll:	-1.060	Pitch:	-3.021	Yaw:	239.612	Thrust:	86.891
Time:	9.281	Roll Set Point:	-0.167	Pitch Set Point:	-0.007	Yaw Set Point:	-2.957	X_WP:	0.155	Y_WP:	0.007	Y_WP:	0.500	X:	0.163	Y:	0.069	Z:	0.401	yaw:	169.451	yaw rate:	1.801	Roll:	-1.042	Pitch:	-2.976	Yaw:	239.879	Thrust:	84.112
Time:	9.312	Roll Set Point:	-0.167	Pitch Set Point:	-0.007	Yaw Set Point:	-2.958	X_WP:	0.155	Y_WP:	0.007	Y_WP:	0.500	X:	0.163	Y:	0.069	Z:	0.401	yaw:	169.457	yaw rate:	1.496	Roll:	-1.033	Pitch:	-2.979	Yaw:	239.780	Thrust:	84.861
Time:	9.343	Roll Set Point:	-0.167	Pitch Set Point:	-0.007	Yaw Set Point:	-2.957	X_WP:	0.155	Y_WP:	0.007	Y_WP:	0.500	X:	0.163	Y:	0.069	Z:	0.401	yaw:	169.417	yaw rate:	-1.182	Roll:	-1.007	Pitch:	-2.975	Yaw:	239.339	Thrust:	84.834
Time:	9.375	Roll Set Point:	-0.167	Pitch Set Point:	-0.007	Yaw Set Point:	-2.958	X_WP:	0.155	Y_WP:	0.007	Y_WP:	0.500	X:	0.163	Y:	0.069	Z:	0.401	yaw:	169.453	yaw rate:	3.652	Roll:	-1.051	Pitch:	-2.980	Yaw:	240.033	Thrust:	85.476
Time:	9.406	Roll Set Point:	-0.167	Pitch Set Point:	-0.007	Yaw Set Point:	-2.957	X_WP:	0.155	Y_WP:	0.007	Y_WP:	0.500	X:	0.163	Y:	0.069	Z:	0.401	yaw:	169.441	yaw rate:	-1.197	Roll:	-1.022	Pitch:	-2.978	Yaw:	239.610	Thrust:	85.738
Time:	9.437	Roll Set Point:	-0.167	Pitch Set Point:	-0.007	Yaw Set Point:	-2.957	X_WP:	0.155	Y_WP:	0.007	Y_WP:	0.500	X:	0.163	Y:	0.069	Z:	0.401	yaw:	169.440	yaw rate:	-0.117	Roll:	-1.027	Pitch:	-2.976	Yaw:	239.699	Thrust:	86.168
Time:	9.469	Roll Set Point:	-0.167	Pitch Set Point:	-0.007	Yaw Set Point:	-2.957	X_WP:	0.155	Y_WP:	0.007	Y_WP:	0.500	X:	0.163	Y:	0.069	Z:	0.401	yaw:	169.416	yaw rate:	-5.464	Roll:	-0.981	Pitch:	-2.974	Yaw:	239.469	Thrust:	86.528
Time:	9.500	Roll Set Point:	-0.167	Pitch Set Point:	-0.007	Yaw Set Point:	-2.957	X_WP:	0.155	Y_WP:	0.007	Y_WP:	0.500	X:	0.163	Y:	0.069	Z:	0.401	yaw:	169.431	yaw rate:	1.542	Roll:	-1.035	Pitch:	-2.978	Yaw:	239.825	Thrust:	86.953
Time:	9.531	Roll Set Point:	-0.167	Pitch Set Point:	-0.007	Yaw Set Point:	-2.957	X_WP:	0.155	Y_WP:	0.007	Y_WP:	0.500	X:	0.163	Y:	0.069	Z:	0.401	yaw:	169.450	yaw rate:	1.880	Roll:	-1.038	Pitch:	-2.979	Yaw:	239.881	Thrust:	87.269
Time:	9.562	Roll Set Point:	-0.167	Pitch Set Point:	-0.007	Yaw Set Point:	-2.957	X_WP:	0.155	Y_WP:	0.007	Y_WP:	0.500	X:	0.163	Y:	0.069	Z:	0.401	yaw:	169.435	yaw rate:	-1.425	Roll:	-1.018	Pitch:	-2.977	Yaw:	239.579	Thrust:	87.570
Time:	9.594	Roll Set Point:	-0.167	Pitch Set Point:	-0.007	Yaw Set Point:	-2.958	X_WP:	0.155	Y_WP:	0.007	Y_WP:	0.500	X:	0.163	Y:	0.069	Z:	0.401	yaw:	169.465	yaw rate:	0.441	Roll:	-1.046	Pitch:	-2.980	Yaw:	240.002	Thrust:	88.202
Time:	9.625	Roll Set Point:	-0.167	Pitch Set Point:	-0.007	Yaw Set Point:	-2.957	X_WP:	0.155	Y_WP:	0.007	Y_WP:	0.500	X:	0.163	Y:	0.069	Z:	0.401	yaw:	169.438	yaw rate:	0.070	Roll:	-1.010	Pitch:	-2.977	Yaw:	239.475	Thrust:	88.465
Time:	9.672	Roll Set Point:	-0.167	Pitch Set Point:	-0.007	Yaw Set Point:	-2.958	X_WP:	0.155	Y_WP:	0.007	Y_WP:	0.500	X:	0.163	Y:	0.069	Z:	0.401	yaw:	169.455	yaw rate:	1.705	Roll:	-1.597	Pitch:	-3.560	Yaw:	241.378	Thrust:	100.000
Time:	9.703	Roll Set Point:	-0.167	Pitch Set Point:	-0.007	Yaw Set Point:	-2.957	X_WP:	0.155	Y_WP:	0.007	Y_WP:	0.500	X:	0.163	Y:	0.069	Z:	0.401	yaw:	169.441	yaw rate:	2.061	Roll:	-1.020	Pitch:	-2.977	Yaw:	239.597	Thrust:	89.041
Time:	9.734	Roll Set Point:	-0.167	Pitch Set Point:	-0.007	Yaw Set Point:	-2.957	X_WP:	0.155	Y_WP:	0.007	Y_WP:	0.500	X:	0.163	Y:	0.069	Z:	0.401	yaw:	169.436	yaw rate:	-0.534	Roll:	-1.022	Pitch:	-2.978	Yaw:	239.658	Thrust:	89.525
Time:	9.765	Roll Set Point:	-0.167	Pitch Set Point:	-0.007	Yaw Set Point:	-2.957	X_WP:	0.155	Y_WP:	0.007	Y_WP:	0.500	X:	0.163	Y:	0.069	Z:	0.401	yaw:	169.435	yaw rate:	-0.089	Roll:	-1.023	Pitch:	-2.977	Yaw:	239.694	Thrust:	89.922
Time:	9.797	Roll Set Point:	-0.167	Pitch Set Point:	-0.007	Yaw Set Point:	-2.958	X_WP:	0.155	Y_WP:	0.007	Y_WP:	0.500	X:	0.163	Y:	0.069	Z:	0.401	yaw:	169.471	yaw rate:	3.609	Roll:	-1.039	Pitch:	-2.977	Yaw:	240.054	Thrust:	90.184
Time:	9.828	Roll Set Point:	-0.167	Pitch Set Point:	-0.007	Yaw Set Point:	-2.957	X_WP:	0.155	Y_WP:	0.007	Y_WP:	0.500	X:	0.163	Y:	0.069	Z:	0.401	yaw:	169.448	yaw rate:	1.406	Roll:	-1.043	Pitch:	-2.980	Yaw:	239.529	Thrust:	90.616
Time:	9.859	Roll Set Point:	-0.167	Pitch Set Point:	-0.007	Yaw Set Point:	-2.958	X_WP:	0.155	Y_WP:	0.007	Y_WP:	0.500	X:	0.163	Y:	0.069	Z:	0.401	yaw:	169.461	yaw rate:	1.303	Roll:	-1.031	Pitch:	-2.977	Yaw:	239.848	Thrust:	91.090
Time:	9.890	Roll Set Point:	-0.167	Pitch Set Point:	-0.007	Yaw Set Point:	-2.957	X_WP:	0.155	Y_WP:	0.007	Y_WP:	0.500	X:	0.163	Y:	0.069	Z:	0.401	yaw:	169.430	yaw rate:	0.011	Roll:	-1.008	Pitch:	-2.977	Yaw:	239.425	Thrust:	91.254
Time:	9.922	Roll Set Point:	-0.167	Pitch Set Point:	-0.007	Yaw Set Point:	-2.958	X_WP:	0.155	Y_WP:	0.007	Y_WP:	0.500	X:	0.163	Y:	0.069	Z:	0.401	yaw:	169.454	yaw rate:	1.407	Roll:	-1.038	Pitch:	-2.980	Yaw:	239.928	Thrust:	91.710
Time:	9.953	Roll Set Point:	-0.167	Pitch Set Point:	-0.007	Yaw Set Point:	-2.957	X_WP:	0.155	Y_WP:	0.007	Y_WP:	0.500	X:	0.163	Y:	0.069	Z:	0.401	yaw:	169.421	yaw rate:	-3.245	Roll:	-1.005	Pitch:	-2.975	Yaw:	239.410	Thrust:	92.125
Time:	9.984	Roll Set Point:	-0.167	Pitch Set Point:	-0.007	Yaw Set Point:	-2.957	X_WP:	0.155	Y_WP:	0.007	Y_WP:	0.500	X:	0.163	Y:	0.069	Z:	0.401	yaw:	169.450	yaw rate:	-0.506	Roll:	-1.041	Pitch:	-2.981	Yaw:	239.966	Thrust:	92.518
Time:	10.015	Roll Set Point:	-0.167	Pitch Set Point:	-0.007	Yaw Set Point:	-2.957	X_WP:	0.155	Y_WP:	0.007	Y_WP:	0.500	X:	0.163	Y:	0.069	Z:	0.401	yaw:	169.413	yaw rate:	-3.733	Roll:	-1.002	Pitch:	-2.977	Yaw:	239.361	Thrust:	92.811
Time:	10.047	Roll Set Point:	-0.167	Pitch Set Point:	-0.007	Yaw Set Point:	-2.958	X_WP:	0.155	Y_WP:	0.007	Y_WP:	0.500	X:	0.163	Y:	0.069	Z:	0.401	yaw:	169.458	yaw rate:	4.506	Roll:	-1.044	Pitch:	-2.975	Yaw:	240.108	Thrust:	93.229
Time:	10.078	Roll Set Point:	-0.167	Pitch Set Point:	-0.007	Yaw Set Point:	-2.957	X_WP:	0.155	Y_WP:	0.007	Y_WP:	0.500	X:	0.163	Y:	0.069	Z:	0.401	yaw:	169.428	yaw rate:	-1.130	Roll:	-1.017	Pitch:	-2.980	Yaw:	239.445	Thrust:	93.564
Time:	10.109	Roll Set Point:	-0.167	Pitch Set Point:	-0.007	Yaw Set Point:	-2.958	X_WP:	0.155	Y_WP:	0.007	Y_WP:	0.500	X:	0.163	Y:	0.069	Z:	0.401	yaw:	169.452	yaw rate:	2.407	Roll:	-1.036	Pitch:	-2.977	Yaw:	239.927	Thrust:	94.004
Time:	10.140	Roll Set Point:	-0.167	Pitch Set Point:	-0.007	Yaw Set Point:	-2.957	X_WP:	0.155	Y_WP:	0.007	Y_WP:	0.500	X:	0.163	Y:	0.069	Z:	0.401	yaw:	169.425	yaw rate:	-2.764	Roll:	-1.009	Pitch:	-2.976	Yaw:	239.456	Thrust:	94.285
Time:	10.192	Roll Set Point:	-0.167	Pitch Set Point:	-0.007	Yaw Set Point:	-2.957	X_WP:	0.155	Y_WP:	0.007	Y_WP:	0.500	X:	0.163	Y:	0.069	Z:	0.401	yaw:	169.448	yaw rate:	2.352	Roll:	-1.774	Pitch:	-3.748	Yaw:	241.891	Thrust:	100.000
Time:	10.223	Roll Set Point:	-0.167	Pitch Set Point:	-0.007	Yaw Set Point:	-2.958	X_WP:	0.155	Y_WP:	0.007	Y_WP:	0.500	X:	0.163	Y:	0.069	Z:	0.401	yaw:	169.460	yaw rate:	1.754	Roll:	-1.030	Pitch:	-2.979	Yaw:	239.832	Thrust:	95.039
Time:	10.267	Roll Set Point:	-0.167	Pitch Set Point:	-0.007	Yaw Set Point:	-2.957	X_WP:	0.155	Y_WP:	0.007	Y_WP:	0.500	X:	0.163	Y:	0.069	Z:	0.401	yaw:	169.423	yaw rate:	-1.881	Roll:	-1.440	Pitch:	-3.428	Yaw:	240.660	Thrust:	100.000
Time:	10.291	Roll Set Point:	-0.167	Pitch Set Point:	-0.007	Yaw Set Point:	-2.958	X_WP:	0.155	Y_WP:	0.007	Y_WP:	0.500	X:	0.163	Y:	0.069	Z:	0.401	yaw:	169.462	yaw rate:	3.918	Roll:	-0.798	Pitch:	-2.717	Yaw:	239.471	Thrust:	75.976
Time:	10.322	Roll Set Point:	-0.167	Pitch Set Point:	-0.007	Yaw Set Point:	-2.957	X_WP:	0.155	Y_WP:	0.007	Y_WP:	0.500	X:	0.163	Y:	0.069	Z:	0.401	yaw:	169.448	yaw rate:	-1.395	Roll:	-1.016	Pitch:	-2.977	Yaw:	239.602	Thrust:	96.172
Time:	10.354	Roll Set Point:	-0.167	Pitch Set Point:	-0.007	Yaw Set Point:	-2.957	X_WP:	0.155	Y_WP:	0.007	Y_WP:	0.500	X:	0.163	Y:	0.069	Z:	0.401	yaw:	169.446	yaw rate:	-0.183	Roll:	-1.020	Pitch:	-2.980	Yaw:	239.702	Thrust:	96.562
Time:	10.385	Roll Set Point:	-0.167	Pitch Set Point:	-0.007	Yaw Set Point:	-2.957	X_WP:	0.155	Y_WP:	0.007	Y_WP:	0.500	X:	0.163	Y:	0.069	Z:	0.401	yaw:	169.444	yaw rate:	0.345	Roll:	-1.019	Pitch:	-2.977	Yaw:	239.698	Thrust:	96.957
Time:	10.416	Roll Set Point:	-0.167	Pitch Set Point:	-0.007	Yaw Set Point:	-2.957	X_WP:	0.155	Y_WP:	0.007	Y_WP:	0.500	X:	0.163	Y:	0.069	Z:	0.401	yaw:	169.440	yaw rate:	-0.461	Roll:	-1.018	Pitch:	-2.977	Yaw:	239.670	Thrust:	97.266
Time:	10.447	Roll Set Point:	-0.167	Pitch Set Point:	-0.007	Yaw Set Point:	-2.958	X_WP:	0.155	Y_WP:	0.007	Y_WP:	0.500	X:	0.163	Y:	0.069	Z:	0.401	yaw:	169.455	yaw rate:	1.508	Roll:	-1.027	Pitch:	-2.975	Yaw:	239.854	Thrust:	97.742
Time:	10.479	Roll Set Point:	-0.167	Pitch Set Point:	-0.007	Yaw Set Point:	-2.957	X_WP:	0.155	Y_WP:	0.007	Y_WP:	0.500	X:	0.163	Y:	0.069	Z:	0.401	yaw:	169.435	yaw rate:	-1.952	Roll:	-1.009	Pitch:	-2.977	Yaw:	239.538	Thrust:	97.992
Time:	10.510	Roll Set Point:	-0.167	Pitch Set Point:	-0.007	Yaw Set Point:	-2.958	X_WP:	0.155	Y_WP:	0.007	Y_WP:	0.500	X:	0.163	Y:	0.069	Z:	0.401	yaw:	169.462	yaw rate:	1.612	Roll:	-1.036	Pitch:	-2.981	Yaw:	239.967	Thrust:	98.467
Time:	10.541	Roll Set Point:	-0.167	Pitch Set Point:	-0.007	Yaw Set Point:	-2.958	X_WP:	0.155	Y_WP:	0.007	Y_WP:	0.500	X:	0.163	Y:	0.069	Z:	0.401	yaw:	169.467	yaw rate:	0.431	Roll:	-1.022	Pitch:	-2.977	Yaw:	239.782	Thrust:	98.729
