Time:	2.109	Roll Set Point:	0.568	Pitch Set Point:	0.285	Yaw Set Point:	-0.660	X_WP:	0.000	Y_WP:	0.000	Y_WP:	0.500	X:	-0.235	Y:	-0.240	Z:	0.047	yaw:	37.827	yaw rate:	3.440	Roll:	-9.658	Pitch:	-1.314	Yaw:	52.816	Thrust:	24.928
Time:	2.125	Roll Set Point:	0.568	Pitch Set Point:	0.285	Yaw Set Point:	-0.661	X_WP:	0.000	Y_WP:	0.000	Y_WP:	0.500	X:	-0.235	Y:	-0.240	Z:	0.047	yaw:	37.878	yaw rate:	5.170	Roll:	-9.859	Pitch:	-1.162	Yaw:	53.962	Thrust:	25.143
Time:	2.140	Roll Set Point:	0.569	Pitch Set Point:	0.285	Yaw Set Point:	-0.661	X_WP:	0.000	Y_WP:	0.000	Y_WP:	0.500	X:	-0.235	Y:	-0.240	Z:	0.047	yaw:	37.885	yaw rate:	0.645	Roll:	-9.730	Pitch:	-1.252	Yaw:	53.418	Thrust:	26.601
Time:	2.156	Roll Set Point:	0.568	Pitch Set Point:	0.285	Yaw Set Point:	-0.660	X_WP:	0.000	Y_WP:	0.000	Y_WP:	0.500	X:	-0.235	Y:	-0.240	Z:	0.047	yaw:	37.836	yaw rate:	-4.856	Roll:	-9.462	Pitch:	-1.414	Yaw:	52.635	Thrust:	28.159
Time:	2.172	Roll Set Point:	0.568	Pitch Set Point:	0.285	Yaw Set Point:	-0.661	X_WP:	0.000	Y_WP:	0.000	Y_WP:	0.500	X:	-0.235	Y:	-0.240	Z:	0.047	yaw:	37.866	yaw rate:	3.026	Roll:	-9.745	Pitch:	-1.123	Yaw:	54.204	Thrust:	28.208
Time:	2.187	Roll Set Point:	0.568	Pitch Set Point:	0.286	Yaw Set Point:	-0.659	X_WP:	0.000	Y_WP:	0.000	Y_WP:	0.500	X:	-0.235	Y:	-0.240	Z:	0.047	yaw:	37.777	yaw rate:	-8.916	Roll:	-9.626	Pitch:	-1.933	Yaw:	52.286	Thrust:	29.303
Time:	2.203	Roll Set Point:	0.568	Pitch Set Point:	0.285	Yaw Set Point:	-0.660	X_WP:	0.000	Y_WP:	0.000	Y_WP:	0.500	X:	-0.235	Y:	-0.240	Z:	0.047	yaw:	37.827	yaw rate:	4.960	Roll:	-9.818	Pitch:	-1.022	Yaw:	54.886	Thrust:	30.141
Time:	2.218	Roll Set Point:	0.568	Pitch Set Point:	0.285	Yaw Set Point:	-0.661	X_WP:	0.000	Y_WP:	0.000	Y_WP:	0.500	X:	-0.235	Y:	-0.240	Z:	0.047	yaw:	37.880	yaw rate:	5.323	Roll:	-9.769	Pitch:	-0.892	Yaw:	55.227	Thrust:	30.705
Time:	2.234	Roll Set Point:	0.568	Pitch Set Point:	0.285	Yaw Set Point:	-0.661	X_WP:	0.000	Y_WP:	0.000	Y_WP:	0.500	X:	-0.235	Y:	-0.240	Z:	0.047	yaw:	37.883	yaw rate:	0.262	Roll:	-9.754	Pitch:	-1.279	Yaw:	54.501	Thrust:	31.828
Time:	2.250	Roll Set Point:	0.568	Pitch Set Point:	0.285	Yaw Set Point:	-0.661	X_WP:	0.000	Y_WP:	0.000	Y_WP:	0.500	X:	-0.235	Y:	-0.240	Z:	0.047	yaw:	37.847	yaw rate:	-3.594	Roll:	-9.818	Pitch:	-1.665	Yaw:	53.810	Thrust:	32.504
Time:	2.265	Roll Set Point:	0.568	Pitch Set Point:	0.286	Yaw Set Point:	-0.661	X_WP:	0.000	Y_WP:	0.000	Y_WP:	0.500	X:	-0.235	Y:	-0.240	Z:	0.047	yaw:	37.859	yaw rate:	1.241	Roll:	-9.932	Pitch:	-1.472	Yaw:	54.628	Thrust:	32.806
Time:	2.281	Roll Set Point:	0.568	Pitch Set Point:	0.285	Yaw Set Point:	-0.660	X_WP:	0.000	Y_WP:	0.000	Y_WP:	0.500	X:	-0.235	Y:	-0.240	Z:	0.047	yaw:	37.814	yaw rate:	-4.523	Roll:	-9.584	Pitch:	-1.326	Yaw:	53.605	Thrust:	34.938
Time:	2.297	Roll Set Point:	0.568	Pitch Set Point:	0.285	Yaw Set Point:	-0.661	X_WP:	0.000	Y_WP:	0.000	Y_WP:	0.500	X:	-0.235	Y:	-0.240	Z:	0.047	yaw:	37.854	yaw rate:	3.999	Roll:	-9.817	Pitch:	-1.093	Yaw:	55.086	Thrust:	35.066
Time:	2.312	Roll Set Point:	0.568	Pitch Set Point:	0.285	Yaw Set Point:	-0.661	X_WP:	0.000	Y_WP:	0.000	Y_WP:	0.500	X:	-0.235	Y:	-0.240	Z:	0.047	yaw:	37.878	yaw rate:	2.429	Roll:	-10.039	Pitch:	-1.397	Yaw:	54.857	Thrust:	35.313
Time:	2.328	Roll Set Point:	0.568	Pitch Set Point:	0.285	Yaw Set Point:	-0.661	X_WP:	0.000	Y_WP:	0.000	Y_WP:	0.500	X:	-0.235	Y:	-0.240	Z:	0.047	yaw:	37.878	yaw rate:	2.429	Roll:	-9.845	Pitch:	-1.335	Yaw:	54.451	Thrust:	36.814
Time:	2.344	Roll Set Point:	0.568	Pitch Set Point:	0.286	Yaw Set Point:	-0.660	X_WP:	0.000	Y_WP:	0.000	Y_WP:	0.500	X:	-0.235	Y:	-0.240	Z:	0.047	yaw:	37.811	yaw rate:	-6.717	Roll:	-9.677	Pitch:	-1.649	Yaw:	53.232	Thrust:	38.242
Time:	2.359	Roll Set Point:	0.568	Pitch Set Point:	0.285	Yaw Set Point:	-0.661	X_WP:	0.000	Y_WP:	0.000	Y_WP:	0.500	X:	-0.235	Y:	-0.240	Z:	0.047	yaw:	37.864	yaw rate:	5.277	Roll:	-9.904	Pitch:	-0.932	Yaw:	55.315	Thrust:	38.611
Time:	2.375	Roll Set Point:	0.568	Pitch Set Point:	0.286	Yaw Set Point:	-0.659	X_WP:	0.000	Y_WP:	0.000	Y_WP:	0.500	X:	-0.235	Y:	-0.240	Z:	0.047	yaw:	37.778	yaw rate:	-14.946	Roll:	-9.776	Pitch:	-1.939	Yaw:	52.882	Thrust:	39.238
Time:	2.390	Roll Set Point:	0.568	Pitch Set Point:	0.285	Yaw Set Point:	-0.660	X_WP:	0.000	Y_WP:	0.000	Y_WP:	0.500	X:	-0.235	Y:	-0.240	Z:	0.047	yaw:	37.807	yaw rate:	2.877	Roll:	-9.933	Pitch:	-1.146	Yaw:	54.833	Thrust:	40.476
Time:	2.406	Roll Set Point:	0.568	Pitch Set Point:	0.286	Yaw Set Point:	-0.660	X_WP:	0.000	Y_WP:	0.000	Y_WP:	0.500	X:	-0.235	Y:	-0.240	Z:	0.047	yaw:	37.792	yaw rate:	-1.543	Roll:	-9.883	Pitch:	-1.463	Yaw:	54.072	Thrust:	40.760
Time:	2.422	Roll Set Point:	0.568	Pitch Set Point:	0.285	Yaw Set Point:	-0.660	X_WP:	0.000	Y_WP:	0.000	Y_WP:	0.500	X:	-0.235	Y:	-0.240	Z:	0.047	yaw:	37.834	yaw rate:	4.171	Roll:	-9.925	Pitch:	-0.997	Yaw:	55.087	Thrust:	42.236
Time:	2.437	Roll Set Point:	0.568	Pitch Set Point:	0.285	Yaw Set Point:	-0.660	X_WP:	0.000	Y_WP:	0.000	Y_WP:	0.500	X:	-0.235	Y:	-0.240	Z:	0.047	yaw:	37.834	yaw rate:	4.171	Roll:	-9.931	Pitch:	-1.348	Yaw:	54.388	Thrust:	42.776
Time:	2.451	Roll Set Point:	0.568	Pitch Set Point:	0.286	Yaw Set Point:	-0.659	X_WP:	0.000	Y_WP:	0.000	Y_WP:	0.500	X:	-0.235	Y:	-0.240	Z:	0.047	yaw:	37.783	yaw rate:	-3.886	Roll:	-9.888	Pitch:	-1.783	Yaw:	53.245	Thrust:	41.907
Time:	2.468	Roll Set Point:	0.568	Pitch Set Point:	0.285	Yaw Set Point:	-0.660	X_WP:	0.000	Y_WP:	0.000	Y_WP:	0.500	X:	-0.235	Y:	-0.240	Z:	0.047	yaw:	37.839	yaw rate:	5.576	Roll:	-10.040	Pitch:	-1.050	Yaw:	55.390	Thrust:	45.865
Time:	2.484	Roll Set Point:	0.568	Pitch Set Point:	0.285	Yaw Set Point:	-0.660	X_WP:	0.000	Y_WP:	0.000	Y_WP:	0.500	X:	-0.235	Y:	-0.240	Z:	0.047	yaw:	37.803	yaw rate:	-3.620	Roll:	-9.877	Pitch:	-1.492	Yaw:	53.735	Thrust:	45.515
Time:	2.500	Roll Set Point:	0.568	Pitch Set Point:	0.285	Yaw Set Point:	-0.660	X_WP:	0.000	Y_WP:	0.000	Y_WP:	0.500	X:	-0.235	Y:	-0.240	Z:	0.047	yaw:	37.803	yaw rate:	-3.620	Roll:	-9.981	Pitch:	-1.360	Yaw:	54.346	Thrust:	46.176
Time:	2.515	Roll Set Point:	0.568	Pitch Set Point:	0.286	Yaw Set Point:	-0.659	X_WP:	0.000	Y_WP:	0.000	Y_WP:	0.500	X:	-0.235	Y:	-0.240	Z:	0.047	yaw:	37.778	yaw rate:	-1.614	Roll:	-10.057	Pitch:	-1.635	Yaw:	53.891	Thrust:	47.006
Time:	2.531	Roll Set Point:	0.568	Pitch Set Point:	0.285	Yaw Set Point:	-0.660	X_WP:	0.000	Y_WP:	0.000	Y_WP:	0.500	X:	-0.235	Y:	-0.240	Z:	0.047	yaw:	37.811	yaw rate:	3.313	Roll:	-10.016	Pitch:	-1.104	Yaw:	54.912	Thrust:	47.697
Time:	2.546	Roll Set Point:	0.568	Pitch Set Point:	0.285	Yaw Set Point:	-0.660	X_WP:	0.000	Y_WP:	0.000	Y_WP:	0.500	X:	-0.235	Y:	-0.240	Z:	0.047	yaw:	37.811	yaw rate:	3.313	Roll:	-10.022	Pitch:	-1.366	Yaw:	54.357	Thrust:	48.720
Time:	2.562	Roll Set Point:	0.569	Pitch Set Point:	0.285	Yaw Set Point:	-0.661	X_WP:	0.000	Y_WP:	0.000	Y_WP:	0.500	X:	-0.235	Y:	-0.240	Z:	0.047	yaw:	37.868	yaw rate:	3.964	Roll:	-10.237	Pitch:	-1.145	Yaw:	55.399	Thrust:	49.122
Time:	2.578	Roll Set Point:	0.568	Pitch Set Point:	0.286	Yaw Set Point:	-0.659	X_WP:	0.000	Y_WP:	0.000	Y_WP:	0.500	X:	-0.235	Y:	-0.240	Z:	0.047	yaw:	37.783	yaw rate:	-8.590	Roll:	-9.837	Pitch:	-1.804	Yaw:	52.877	Thrust:	51.070
Time:	2.593	Roll Set Point:	0.568	Pitch Set Point:	0.286	Yaw Set Point:	-0.659	X_WP:	0.000	Y_WP:	0.000	Y_WP:	0.500	X:	-0.235	Y:	-0.240	Z:	0.047	yaw:	37.783	yaw rate:	0.063	Roll:	-10.035	Pitch:	-1.329	Yaw:	54.329	Thrust:	51.283
Time:	2.609	Roll Set Point:	0.568	Pitch Set Point:	0.285	Yaw Set Point:	-0.661	X_WP:	0.000	Y_WP:	0.000	Y_WP:	0.500	X:	-0.235	Y:	-0.240	Z:	0.047	yaw:	37.867	yaw rate:	8.420	Roll:	-10.153	Pitch:	-0.840	Yaw:	55.846	Thrust:	51.890
Time:	2.625	Roll Set Point:	0.568	Pitch Set Point:	0.285	Yaw Set Point:	-0.660	X_WP:	0.000	Y_WP:	0.000	Y_WP:	0.500	X:	-0.235	Y:	-0.240	Z:	0.047	yaw:	37.814	yaw rate:	-5.289	Roll:	-10.066	Pitch:	-1.709	Yaw:	53.476	Thrust:	53.004
Time:	2.640	Roll Set Point:	0.568	Pitch Set Point:	0.285	Yaw Set Point:	-0.660	X_WP:	0.000	Y_WP:	0.000	Y_WP:	0.500	X:	-0.235	Y:	-0.240	Z:	0.047	yaw:	37.814	yaw rate:	-5.289	Roll:	-10.100	Pitch:	-1.376	Yaw:	54.361	Thrust:	53.816
Time:	2.656	Roll Set Point:	0.568	Pitch Set Point:	0.285	Yaw Set Point:	-0.660	X_WP:	0.000	Y_WP:	0.000	Y_WP:	0.500	X:	-0.235	Y:	-0.240	Z:	0.047	yaw:	37.837	yaw rate:	0.113	Roll:	-10.122	Pitch:	-1.268	Yaw:	54.769	Thrust:	54.789
Time:	2.672	Roll Set Point:	0.568	Pitch Set Point:	0.285	Yaw Set Point:	-0.661	X_WP:	0.000	Y_WP:	0.000	Y_WP:	0.500	X:	-0.235	Y:	-0.240	Z:	0.047	yaw:	37.891	yaw rate:	5.380	Roll:	-10.173	Pitch:	-0.925	Yaw:	55.369	Thrust:	55.530
Time:	2.687	Roll Set Point:	0.568	Pitch Set Point:	0.285	Yaw Set Point:	-0.661	X_WP:	0.000	Y_WP:	0.000	Y_WP:	0.500	X:	-0.235	Y:	-0.240	Z:	0.047	yaw:	37.869	yaw rate:	-2.179	Roll:	-10.126	Pitch:	-1.536	Yaw:	54.073	Thrust:	56.396
Time:	2.703	Roll Set Point:	0.568	Pitch Set Point:	0.285	Yaw Set Point:	-0.661	X_WP:	0.000	Y_WP:	0.000	Y_WP:	0.500	X:	-0.235	Y:	-0.240	Z:	0.047	yaw:	37.847	yaw rate:	-2.179	Roll:	-10.157	Pitch:	-1.602	Yaw:	54.042	Thrust:	57.173
Time:	2.718	Roll Set Point:	0.568	Pitch Set Point:	0.285	Yaw Set Point:	-0.661	X_WP:	0.000	Y_WP:	0.000	Y_WP:	0.500	X:	-0.235	Y:	-0.240	Z:	0.047	yaw:	37.862	yaw rate:	1.456	Roll:	-10.140	Pitch:	-1.175	Yaw:	54.672	Thrust:	58.125
Time:	2.734	Roll Set Point:	0.568	Pitch Set Point:	0.285	Yaw Set Point:	-0.661	X_WP:	0.000	Y_WP:	0.000	Y_WP:	0.500	X:	-0.235	Y:	-0.240	Z:	0.047	yaw:	37.862	yaw rate:	1.456	Roll:	-10.179	Pitch:	-1.377	Yaw:	54.427	Thrust:	58.921
Time:	2.750	Roll Set Point:	0.568	Pitch Set Point:	0.285	Yaw Set Point:	-0.660	X_WP:	0.000	Y_WP:	0.000	Y_WP:	0.500	X:	-0.235	Y:	-0.240	Z:	0.047	yaw:	37.817	yaw rate:	-8.243	Roll:	-10.145	Pitch:	-1.727	Yaw:	53.619	Thrust:	59.724
Time:	2.765	Roll Set Point:	0.568	Pitch Set Point:	0.285	Yaw Set Point:	-0.660	X_WP:	0.000	Y_WP:	0.000	Y_WP:	0.500	X:	-0.235	Y:	-0.240	Z:	0.047	yaw:	37.817	yaw rate:	-8.243	Roll:	-10.204	Pitch:	-1.389	Yaw:	54.365	Thrust:	60.623
Time:	2.781	Roll Set Point:	0.568	Pitch Set Point:	0.285	Yaw Set Point:	-0.661	X_WP:	0.000	Y_WP:	0.000	Y_WP:	0.500	X:	-0.235	Y:	-0.240	Z:	0.047	yaw:	37.844	yaw rate:	2.825	Roll:	-10.250	Pitch:	-1.269	Yaw:	54.855	Thrust:	61.397
Time:	2.797	Roll Set Point:	0.568	Pitch Set Point:	0.285	Yaw Set Point:	-0.660	X_WP:	0.000	Y_WP:	0.000	Y_WP:	0.500	X:	-0.235	Y:	-0.240	Z:	0.047	yaw:	37.830	yaw rate:	-1.368	Roll:	-10.169	Pitch:	-1.390	Yaw:	54.155	Thrust:	62.514
Time:	2.812	Roll Set Point:	0.568	Pitch Set Point:	0.286	Yaw Set Point:	-0.660	X_WP:	0.000	Y_WP:	0.000	Y_WP:	0.500	X:	-0.235	Y:	-0.240	Z:	0.047	yaw:	37.794	yaw rate:	-3.641	Roll:	-10.246	Pitch:	-1.684	Yaw:	53.723	Thrust:	62.915
Time:	2.828	Roll Set Point:	0.568	Pitch Set Point:	0.286	Yaw Set Point:	-0.660	X_WP:	0.000	Y_WP:	0.000	Y_WP:	0.500	X:	-0.235	Y:	-0.240	Z:	0.047	yaw:	37.794	yaw rate:	-3.641	Roll:	-10.243	Pitch:	-1.401	Yaw:	54.333	Thrust:	64.019
Time:	2.843	Roll Set Point:	0.568	Pitch Set Point:	0.285	Yaw Set Point:	-0.660	X_WP:	0.000	Y_WP:	0.000	Y_WP:	0.500	X:	-0.235	Y:	-0.240	Z:	0.047	yaw:	37.806	yaw rate:	-0.912	Roll:	-10.268	Pitch:	-1.322	Yaw:	54.554	Thrust:	65.036
Time:	2.859	Roll Set Point:	0.568	Pitch Set Point:	0.285	Yaw Set Point:	-0.660	X_WP:	0.000	Y_WP:	0.000	Y_WP:	0.500	X:	-0.235	Y:	-0.240	Z:	0.047	yaw:	37.806	yaw rate:	-0.912	Roll:	-10.243	Pitch:	-1.402	Yaw:	54.350	Thrust:	65.722
Time:	2.875	Roll Set Point:	0.568	Pitch Set Point:	0.285	Yaw Set Point:	-0.661	X_WP:	0.000	Y_WP:	0.000	Y_WP:	0.500	X:	-0.235	Y:	-0.240	Z:	0.047	yaw:	37.879	yaw rate:	-2.723	Roll:	-10.331	Pitch:	-0.920	Yaw:	55.679	Thrust:	66.476
Time:	2.890	Roll Set Point:	0.568	Pitch Set Point:	0.285	Yaw Set Point:	-0.661	X_WP:	0.000	Y_WP:	0.000	Y_WP:	0.500	X:	-0.235	Y:	-0.240	Z:	0.047	yaw:	37.879	yaw rate:	-2.723	Roll:	-10.246	Pitch:	-1.393	Yaw:	54.452	Thrust:	67.419
Time:	2.906	Roll Set Point:	0.568	Pitch Set Point:	0.286	Yaw Set Point:	-0.660	X_WP:	0.000	Y_WP:	0.000	Y_WP:	0.500	X:	-0.235	Y:	-0.240	Z:	0.047	yaw:	37.803	yaw rate:	-7.665	Roll:	-10.177	Pitch:	-1.926	Yaw:	53.061	Thrust:	68.256
Time:	2.922	Roll Set Point:	0.568	Pitch Set Point:	0.285	Yaw Set Point:	-0.660	X_WP:	0.000	Y_WP:	0.000	Y_WP:	0.500	X:	-0.235	Y:	-0.240	Z:	0.047	yaw:	37.830	yaw rate:	-4.409	Roll:	-10.270	Pitch:	-1.192	Yaw:	54.843	Thrust:	69.061
Time:	2.937	Roll Set Point:	0.568	Pitch Set Point:	0.285	Yaw Set Point:	-0.660	X_WP:	0.000	Y_WP:	0.000	Y_WP:	0.500	X:	-0.235	Y:	-0.240	Z:	0.047	yaw:	37.830	yaw rate:	-4.409	Roll:	-10.245	Pitch:	-1.407	Yaw:	54.384	Thrust:	69.969
Time:	2.953	Roll Set Point:	0.568	Pitch Set Point:	0.285	Yaw Set Point:	-0.661	X_WP:	0.000	Y_WP:	0.000	Y_WP:	0.500	X:	-0.235	Y:	-0.240	Z:	0.047	yaw:	37.882	yaw rate:	0.982	Roll:	-10.317	Pitch:	-1.078	Yaw:	55.327	Thrust:	70.962
Time:	2.968	Roll Set Point:	0.568	Pitch Set Point:	0.285	Yaw Set Point:	-0.660	X_WP:	0.000	Y_WP:	0.000	Y_WP:	0.500	X:	-0.235	Y:	-0.240	Z:	0.047	yaw:	37.796	yaw rate:	-8.597	Roll:	-10.088	Pitch:	-1.966	Yaw:	52.896	Thrust:	71.684
Time:	2.984	Roll Set Point:	0.568	Pitch Set Point:	0.286	Yaw Set Point:	-0.659	X_WP:	0.000	Y_WP:	0.000	Y_WP:	0.500	X:	-0.235	Y:	-0.240	Z:	0.047	yaw:	37.765	yaw rate:	-3.119	Roll:	-10.237	Pitch:	-1.624	Yaw:	53.774	Thrust:	72.516
Time:	3.000	Roll Set Point:	0.568	Pitch Set Point:	0.286	Yaw Set Point:	-0.659	X_WP:	0.000	Y_WP:	0.000	Y_WP:	0.500	X:	-0.235	Y:	-0.240	Z:	0.047	yaw:	37.765	yaw rate:	-3.119	Roll:	-10.241	Pitch:	-1.425	Yaw:	54.290	Thrust:	73.277
Time:	3.015	Roll Set Point:	0.568	Pitch Set Point:	0.285	Yaw Set Point:	-0.660	X_WP:	0.000	Y_WP:	0.000	Y_WP:	0.500	X:	-0.235	Y:	-0.240	Z:	0.047	yaw:	37.816	yaw rate:	-2.339	Roll:	-10.287	Pitch:	-1.009	Yaw:	55.217	Thrust:	74.366
Time:	3.031	Roll Set Point:	0.568	Pitch Set Point:	0.285	Yaw Set Point:	-0.661	X_WP:	0.000	Y_WP:	0.000	Y_WP:	0.500	X:	-0.235	Y:	-0.240	Z:	0.047	yaw:	37.849	yaw rate:	3.282	Roll:	-10.273	Pitch:	-1.260	Yaw:	54.961	Thrust:	75.230
Time:	3.047	Roll Set Point:	0.568	Pitch Set Point:	0.285	Yaw Set Point:	-0.660	X_WP:	0.000	Y_WP:	0.000	Y_WP:	0.500	X:	-0.235	Y:	-0.240	Z:	0.047	yaw:	37.838	yaw rate:	-1.086	Roll:	-10.243	Pitch:	-1.503	Yaw:	54.212	Thrust:	75.694
Time:	3.062	Roll Set Point:	0.568	Pitch Set Point:	0.285	Yaw Set Point:	-0.660	X_WP:	0.000	Y_WP:	0.000	Y_WP:	0.500	X:	-0.235	Y:	-0.240	Z:	0.047	yaw:	37.803	yaw rate:	-3.491	Roll:	-10.231	Pitch:	-1.658	Yaw:	53.761	Thrust:	76.867
Time:	3.078	Roll Set Point:	0.568	Pitch Set Point:	0.285	Yaw Set Point:	-0.660	X_WP:	0.000	Y_WP:	0.000	Y_WP:	0.500	X:	-0.235	Y:	-0.240	Z:	0.047	yaw:	37.803	yaw rate:	-3.491	Roll:	-10.243	Pitch:	-1.427	Yaw:	54.343	Thrust:	77.537
Time:	3.093	Roll Set Point:	0.568	Pitch Set Point:	0.285	Yaw Set Point:	-0.660	X_WP:	0.000	Y_WP:	0.000	Y_WP:	0.500	X:	-0.235	Y:	-0.240	Z:	0.047	yaw:	37.811	yaw rate:	0.957	Roll:	-10.221	Pitch:	-1.399	Yaw:	54.494	Thrust:	78.471
Time:	3.109	Roll Set Point:	0.568	Pitch Set Point:	0.285	Yaw Set Point:	-0.660	X_WP:	0.000	Y_WP:	0.000	Y_WP:	0.500	X:	-0.235	Y:	-0.240	Z:	0.047	yaw:	37.811	yaw rate:	0.957	Roll:	-10.243	Pitch:	-1.430	Yaw:	54.357	Thrust:	79.320
Time:	3.125	Roll Set Point:	0.568	Pitch Set Point:	0.285	Yaw Set Point:	-0.660	X_WP:	0.000	Y_WP:	0.000	Y_WP:	0.500	X:	-0.235	Y:	-0.240	Z:	0.047	yaw:	37.813	yaw rate:	-7.636	Roll:	-10.236	Pitch:	-1.405	Yaw:	54.395	Thrust:	80.069
Time:	3.140	Roll Set Point:	0.568	Pitch Set Point:	0.285	Yaw Set Point:	-0.660	X_WP:	0.000	Y_WP:	0.000	Y_WP:	0.500	X:	-0.235	Y:	-0.240	Z:	0.047	yaw:	37.813	yaw rate:	-7.636	Roll:	-10.243	Pitch:	-1.433	Yaw:	54.360	Thrust:	81.018
Time:	3.156	Roll Set Point:	0.568	Pitch Set Point:	0.285	Yaw Set Point:	-0.660	X_WP:	0.000	Y_WP:	0.000	Y_WP:	0.500	X:	-0.235	Y:	-0.240	Z:	0.047	yaw:	37.831	yaw rate:	-5.210	Roll:	-10.265	Pitch:	-1.343	Yaw:	54.686	Thrust:	81.948
Time:	3.172	Roll Set Point:	0.568	Pitch Set Point:	0.285	Yaw Set Point:	-0.660	X_WP:	0.000	Y_WP:	0.000	Y_WP:	0.500	X:	-0.235	Y:	-0.240	Z:	0.047	yaw:	37.831	yaw rate:	-5.210	Roll:	-10.245	Pitch:	-1.435	Yaw:	54.388	Thrust:	82.829
Time:	3.187	Roll Set Point:	0.568	Pitch Set Point:	0.285	Yaw Set Point:	-0.660	X_WP:	0.000	Y_WP:	0.000	Y_WP:	0.500	X:	-0.235	Y:	-0.240	Z:	0.047	yaw:	37.831	yaw rate:	-4.317	Roll:	-10.258	Pitch:	-1.400	Yaw:	54.375	Thrust:	83.498
Time:	3.203	Roll Set Point:	0.568	Pitch Set Point:	0.285	Yaw Set Point:	-0.661	X_WP:	0.000	Y_WP:	0.000	Y_WP:	0.500	X:	-0.235	Y:	-0.240	Z:	0.047	yaw:	37.874	yaw rate:	4.264	Roll:	-10.318	Pitch:	-1.117	Yaw:	55.158	Thrust:	84.571
Time:	3.218	Roll Set Point:	0.568	Pitch Set Point:	0.285	Yaw Set Point:	-0.660	X_WP:	0.000	Y_WP:	0.000	Y_WP:	0.500	X:	-0.235	Y:	-0.240	Z:	0.047	yaw:	37.810	yaw rate:	-6.318	Roll:	-10.163	Pitch:	-1.901	Yaw:	53.297	Thrust:	85.055
Time:	3.234	Roll Set Point:	0.568	Pitch Set Point:	0.285	Yaw Set Point:	-0.661	X_WP:	0.000	Y_WP:	0.000	Y_WP:	0.500	X:	-0.235	Y:	-0.240	Z:	0.047	yaw:	37.889	yaw rate:	7.818	Roll:	-10.303	Pitch:	-0.854	Yaw:	55.775	Thrust:	86.411
Time:	3.250	Roll Set Point:	0.568	Pitch Set Point:	0.285	Yaw Set Point:	-0.660	X_WP:	0.000	Y_WP:	0.000	Y_WP:	0.500	X:	-0.235	Y:	-0.240	Z:	0.047	yaw:	37.797	yaw rate:	-9.121	Roll:	-10.139	Pitch:	-2.082	Yaw:	52.822	Thrust:	86.869
Time:	3.265	Roll Set Point:	0.568	Pitch Set Point:	0.285	Yaw Set Point:	-0.660	X_WP:	0.000	Y_WP:	0.000	Y_WP:	0.500	X:	-0.235	Y:	-0.240	Z:	0.047	yaw:	37.807	yaw rate:	0.968	Roll:	-10.274	Pitch:	-1.389	Yaw:	54.513	Thrust:	87.908
Time:	3.281	Roll Set Point:	0.568	Pitch Set Point:	0.285	Yaw Set Point:	-0.660	X_WP:	0.000	Y_WP:	0.000	Y_WP:	0.500	X:	-0.235	Y:	-0.240	Z:	0.047	yaw:	37.814	yaw rate:	0.701	Roll:	-10.265	Pitch:	-1.414	Yaw:	54.475	Thrust:	88.362
Time:	3.297	Roll Set Point:	0.568	Pitch Set Point:	0.285	Yaw Set Point:	-0.660	X_WP:	0.000	Y_WP:	0.000	Y_WP:	0.500	X:	-0.235	Y:	-0.240	Z:	0.047	yaw:	37.813	yaw rate:	-0.094	Roll:	-10.241	Pitch:	-1.452	Yaw:	54.343	Thrust:	89.497
Time:	3.312	Roll Set Point:	0.568	Pitch Set Point:	0.285	Yaw Set Point:	-0.660	X_WP:	0.000	Y_WP:	0.000	Y_WP:	0.500	X:	-0.235	Y:	-0.240	Z:	0.047	yaw:	37.828	yaw rate:	1.496	Roll:	-10.221	Pitch:	-1.340	Yaw:	54.631	Thrust:	90.461
Time:	3.328	Roll Set Point:	0.568	Pitch Set Point:	0.285	Yaw Set Point:	-0.660	X_WP:	0.000	Y_WP:	0.000	Y_WP:	0.500	X:	-0.235	Y:	-0.240	Z:	0.047	yaw:	37.828	yaw rate:	1.496	Roll:	-10.243	Pitch:	-1.451	Yaw:	54.381	Thrust:	91.218
Time:	3.343	Roll Set Point:	0.569	Pitch Set Point:	0.285	Yaw Set Point:	-0.662	X_WP:	0.000	Y_WP:	0.000	Y_WP:	0.500	X:	-0.235	Y:	-0.240	Z:	0.047	yaw:	37.919	yaw rate:	6.449	Roll:	-10.418	Pitch:	-0.812	Yaw:	56.040	Thrust:	92.242
Time:	3.359	Roll Set Point:	0.568	Pitch Set Point:	0.285	Yaw Set Point:	-0.660	X_WP:	0.000	Y_WP:	0.000	Y_WP:	0.500	X:	-0.235	Y:	-0.240	Z:	0.047	yaw:	37.831	yaw rate:	-8.851	Roll:	-10.085	Pitch:	-2.041	Yaw:	52.902	Thrust:	92.786
Time:	3.375	Roll Set Point:	0.568	Pitch Set Point:	0.285	Yaw Set Point:	-0.660	X_WP:	0.000	Y_WP:	0.000	Y_WP:	0.500	X:	-0.235	Y:	-0.240	Z:	0.047	yaw:	37.831	yaw rate:	-8.851	Roll:	-10.243	Pitch:	-1.456	Yaw:	54.385	Thrust:	93.766
Time:	3.390	Roll Set Point:	0.569	Pitch Set Point:	0.285	Yaw Set Point:	-0.662	X_WP:	0.000	Y_WP:	0.000	Y_WP:	0.500	X:	-0.235	Y:	-0.240	Z:	0.047	yaw:	37.917	yaw rate:	8.596	Roll:	-10.482	Pitch:	-1.043	Yaw:	55.945	Thrust:	93.987
Time:	3.406	Roll Set Point:	0.568	Pitch Set Point:	0.286	Yaw Set Point:	-0.660	X_WP:	0.000	Y_WP:	0.000	Y_WP:	0.500	X:	-0.235	Y:	-0.240	Z:	0.047	yaw:	37.788	yaw rate:	-12.870	Roll:	-9.962	Pitch:	-2.211	Yaw:	52.169	Thrust:	95.905
Time:	3.422	Roll Set Point:	0.569	Pitch Set Point:	0.285	Yaw Set Point:	-0.661	X_WP:	0.000	Y_WP:	0.000	Y_WP:	0.500	X:	-0.235	Y:	-0.240	Z:	0.047	yaw:	37.878	yaw rate:	6.276	Roll:	-10.506	Pitch:	-1.003	Yaw:	55.946	Thrust:	95.767
Time:	3.437	Roll Set Point:	0.569	Pitch Set Point:	0.285	Yaw Set Point:	-0.661	X_WP:	0.000	Y_WP:	0.000	Y_WP:	0.500	X:	-0.235	Y:	-0.240	Z:	0.047	yaw:	37.878	yaw rate:	6.276	Roll:	-10.249	Pitch:	-1.460	Yaw:	54.450	Thrust:	97.155
Time:	3.469	Roll Set Point:	0.568	Pitch Set Point:	0.285	Yaw Set Point:	-0.660	X_WP:	0.000	Y_WP:	0.000	Y_WP:	0.500	X:	-0.235	Y:	-0.240	Z:	0.047	yaw:	37.816	yaw rate:	-6.176	Roll:	-10.732	Pitch:	-1.727	Yaw:	55.435	Thrust:	100.000
Time:	3.484	Roll Set Point:	0.568	Pitch Set Point:	0.285	Yaw Set Point:	-0.660	X_WP:	0.000	Y_WP:	0.000	Y_WP:	0.500	X:	-0.235	Y:	-0.240	Z:	0.047	yaw:	37.806	yaw rate:	-0.989	Roll:	-10.225	Pitch:	-1.505	Yaw:	54.184	Thrust:	98.913
Time:	3.500	Roll Set Point:	0.568	Pitch Set Point:	0.285	Yaw Set Point:	-0.660	X_WP:	0.000	Y_WP:	0.000	Y_WP:	0.500	X:	-0.235	Y:	-0.240	Z:	0.047	yaw:	37.806	yaw rate:	-0.989	Roll:	-10.243	Pitch:	-1.471	Yaw:	54.349	Thrust:	99.711
Time:	3.516	Roll Set Point:	0.568	Pitch Set Point:	0.286	Yaw Set Point:	-0.660	X_WP:	0.000	Y_WP:	0.000	Y_WP:	0.500	X:	-0.235	Y:	-0.240	Z:	0.047	yaw:	37.803	yaw rate:	3.496	Roll:	-10.280	Pitch:	-1.584	Yaw:	54.294	Thrust:	100.000
Time:	3.531	Roll Set Point:	0.568	Pitch Set Point:	0.285	Yaw Set Point:	-0.660	X_WP:	0.000	Y_WP:	0.000	Y_WP:	0.500	X:	-0.235	Y:	-0.240	Z:	0.047	yaw:	37.816	yaw rate:	1.290	Roll:	-10.224	Pitch:	-1.304	Yaw:	54.580	Thrust:	100.000
Time:	3.547	Roll Set Point:	0.568	Pitch Set Point:	0.285	Yaw Set Point:	-0.660	X_WP:	0.000	Y_WP:	0.000	Y_WP:	0.500	X:	-0.235	Y:	-0.240	Z:	0.047	yaw:	37.816	yaw rate:	1.290	Roll:	-10.243	Pitch:	-1.475	Yaw:	54.363	Thrust:	100.000
Time:	3.562	Roll Set Point:	0.568	Pitch Set Point:	0.286	Yaw Set Point:	-0.659	X_WP:	0.000	Y_WP:	0.000	Y_WP:	0.500	X:	-0.235	Y:	-0.240	Z:	0.047	yaw:	37.745	yaw rate:	-6.506	Roll:	-10.169	Pitch:	-2.020	Yaw:	53.071	Thrust:	100.000
Time:	3.578	Roll Set Point:	0.568	Pitch Set Point:	0.286	Yaw Set Point:	-0.659	X_WP:	0.000	Y_WP:	0.000	Y_WP:	0.500	X:	-0.235	Y:	-0.240	Z:	0.047	yaw:	37.785	yaw rate:	4.065	Roll:	-10.277	Pitch:	-1.202	Yaw:	55.002	Thrust:	100.000
Time:	3.594	Roll Set Point:	0.568	Pitch Set Point:	0.286	Yaw Set Point:	-0.659	X_WP:	0.000	Y_WP:	0.000	Y_WP:	0.500	X:	-0.235	Y:	-0.240	Z:	0.047	yaw:	37.785	yaw rate:	4.065	Roll:	-10.242	Pitch:	-1.487	Yaw:	54.321	Thrust:	100.000
Time:	3.609	Roll Set Point:	0.568	Pitch Set Point:	0.286	Yaw Set Point:	-0.660	X_WP:	0.000	Y_WP:	0.000	Y_WP:	0.500	X:	-0.235	Y:	-0.240	Z:	0.047	yaw:	37.801	yaw rate:	1.622	Roll:	-10.288	Pitch:	-1.425	Yaw:	54.615	Thrust:	100.000
Time:	3.625	Roll Set Point:	0.568	Pitch Set Point:	0.285	Yaw Set Point:	-0.660	X_WP:	0.000	Y_WP:	0.000	Y_WP:	0.500	X:	-0.235	Y:	-0.240	Z:	0.047	yaw:	37.825	yaw rate:	2.330	Roll:	-10.263	Pitch:	-1.263	Yaw:	54.767	Thrust:	100.000
Time:	3.641	Roll Set Point:	0.568	Pitch Set Point:	0.285	Yaw Set Point:	-0.661	X_WP:	0.000	Y_WP:	0.000	Y_WP:	0.500	X:	-0.235	Y:	-0.240	Z:	0.047	yaw:	37.883	yaw rate:	5.881	Roll:	-10.270	Pitch:	-1.132	Yaw:	55.443	Thrust:	100.000
Time:	3.656	Roll Set Point:	0.568	Pitch Set Point:	0.285	Yaw Set Point:	-0.660	X_WP:	0.000	Y_WP:	0.000	Y_WP:	0.500	X:	-0.235	Y:	-0.240	Z:	0.047	yaw:	37.809	yaw rate:	-7.435	Roll:	-10.208	Pitch:	-1.966	Yaw:	53.110	Thrust:	100.000
Time:	3.672	Roll Set Point:	0.569	Pitch Set Point:	0.285	Yaw Set Point:	-0.662	X_WP:	0.000	Y_WP:	0.000	Y_WP:	0.500	X:	-0.235	Y:	-0.240	Z:	0.047	yaw:	37.917	yaw rate:	10.828	Roll:	-10.486	Pitch:	-0.974	Yaw:	56.314	Thrust:	100.000
Time:	3.687	Roll Set Point:	0.568	Pitch Set Point:	0.285	Yaw Set Point:	-0.661	X_WP:	0.000	Y_WP:	0.000	Y_WP:	0.500	X:	-0.235	Y:	-0.240	Z:	0.047	yaw:	37.897	yaw rate:	-2.033	Roll:	-10.118	Pitch:	-1.375	Yaw:	54.135	Thrust:	100.000
Time:	3.703	Roll Set Point:	0.568	Pitch Set Point:	0.285	Yaw Set Point:	-0.661	X_WP:	0.000	Y_WP:	0.000	Y_WP:	0.500	X:	-0.235	Y:	-0.240	Z:	0.047	yaw:	37.897	yaw rate:	-2.033	Roll:	-10.247	Pitch:	-1.479	Yaw:	54.476	Thrust:	100.000
Time:	3.719	Roll Set Point:	0.570	Pitch Set Point:	0.281	Yaw Set Point:	-0.672	X_WP:	0.000	Y_WP:	0.000	Y_WP:	0.500	X:	-0.236	Y:	-0.240	Z:	0.046	yaw:	38.475	yaw rate:	60.689	Roll:	-11.041	Pitch:	2.951	Yaw:	64.970	Thrust:	100.000
Time:	3.734	Roll Set Point:	0.568	Pitch Set Point:	0.288	Yaw Set Point:	-0.652	X_WP:	0.000	Y_WP:	0.000	Y_WP:	0.500	X:	-0.236	Y:	-0.240	Z:	0.047	yaw:	37.337	yaw rate:	-113.807	Roll:	-9.152	Pitch:	-9.275	Yaw:	34.629	Thrust:	100.000
Time:	3.750	Roll Set Point:	0.568	Pitch Set Point:	0.287	Yaw Set Point:	-0.652	X_WP:	0.000	Y_WP:	0.000	Y_WP:	0.500	X:	-0.236	Y:	-0.240	Z:	0.046	yaw:	37.379	yaw rate:	4.230	Roll:	-10.114	Pitch:	-1.132	Yaw:	54.463	Thrust:	100.000
Time:	3.766	Roll Set Point:	0.568	Pitch Set Point:	0.288	Yaw Set Point:	-0.652	X_WP:	0.000	Y_WP:	0.000	Y_WP:	0.500	X:	-0.236	Y:	-0.240	Z:	0.046	yaw:	37.336	yaw rate:	-4.315	Roll:	-10.219	Pitch:	-1.910	Yaw:	52.971	Thrust:	100.000
Time:	3.781	Roll Set Point:	0.568	Pitch Set Point:	0.287	Yaw Set Point:	-0.653	X_WP:	0.000	Y_WP:	0.000	Y_WP:	0.500	X:	-0.236	Y:	-0.240	Z:	0.046	yaw:	37.390	yaw rate:	5.391	Roll:	-10.328	Pitch:	-1.165	Yaw:	54.672	Thrust:	100.000
Time:	3.797	Roll Set Point:	0.568	Pitch Set Point:	0.288	Yaw Set Point:	-0.652	X_WP:	0.000	Y_WP:	0.000	Y_WP:	0.500	X:	-0.236	Y:	-0.240	Z:	0.046	yaw:	37.356	yaw rate:	-3.385	Roll:	-10.188	Pitch:	-1.804	Yaw:	53.155	Thrust:	100.000
Time:	3.812	Roll Set Point:	0.568	Pitch Set Point:	0.288	Yaw Set Point:	-0.652	X_WP:	0.000	Y_WP:	0.000	Y_WP:	0.500	X:	-0.236	Y:	-0.240	Z:	0.046	yaw:	37.356	yaw rate:	-3.385	Roll:	-10.236	Pitch:	-1.575	Yaw:	53.722	Thrust:	100.000
Time:	3.828	Roll Set Point:	0.568	Pitch Set Point:	0.287	Yaw Set Point:	-0.653	X_WP:	0.000	Y_WP:	0.000	Y_WP:	0.500	X:	-0.236	Y:	-0.240	Z:	0.046	yaw:	37.386	yaw rate:	3.009	Roll:	-10.239	Pitch:	-1.346	Yaw:	54.268	Thrust:	100.000
Time:	3.844	Roll Set Point:	0.568	Pitch Set Point:	0.287	Yaw Set Point:	-0.653	X_WP:	0.000	Y_WP:	0.000	Y_WP:	0.500	X:	-0.236	Y:	-0.240	Z:	0.046	yaw:	37.416	yaw rate:	2.962	Roll:	-10.273	Pitch:	-1.393	Yaw:	54.301	Thrust:	100.000
Time:	3.859	Roll Set Point:	0.568	Pitch Set Point:	0.287	Yaw Set Point:	-0.652	X_WP:	0.000	Y_WP:	0.000	Y_WP:	0.500	X:	-0.236	Y:	-0.240	Z:	0.046	yaw:	37.373	yaw rate:	-4.152	Roll:	-10.204	Pitch:	-1.857	Yaw:	53.028	Thrust:	100.000
Time:	3.875	Roll Set Point:	0.568	Pitch Set Point:	0.287	Yaw Set Point:	-0.653	X_WP:	0.000	Y_WP:	0.000	Y_WP:	0.500	X:	-0.236	Y:	-0.240	Z:	0.046	yaw:	37.402	yaw rate:	2.918	Roll:	-10.259	Pitch:	-1.406	Yaw:	54.275	Thrust:	100.000
Time:	3.891	Roll Set Point:	0.568	Pitch Set Point:	0.288	Yaw Set Point:	-0.652	X_WP:	0.000	Y_WP:	0.000	Y_WP:	0.500	X:	-0.236	Y:	-0.240	Z:	0.047	yaw:	37.350	yaw rate:	-5.168	Roll:	-10.328	Pitch:	-2.051	Yaw:	52.849	Thrust:	100.000
Time:	3.906	Roll Set Point:	0.568	Pitch Set Point:	0.288	Yaw Set Point:	-0.652	X_WP:	0.000	Y_WP:	0.000	Y_WP:	0.500	X:	-0.235	Y:	-0.240	Z:	0.046	yaw:	37.360	yaw rate:	0.946	Roll:	-10.088	Pitch:	-1.448	Yaw:	53.885	Thrust:	100.000
Time:	3.922	Roll Set Point:	0.568	Pitch Set Point:	0.287	Yaw Set Point:	-0.652	X_WP:	0.000	Y_WP:	0.000	Y_WP:	0.500	X:	-0.236	Y:	-0.240	Z:	0.046	yaw:	37.385	yaw rate:	2.474	Roll:	-10.305	Pitch:	-1.384	Yaw:	54.176	Thrust:	100.000
Time:	3.937	Roll Set Point:	0.568	Pitch Set Point:	0.288	Yaw Set Point:	-0.652	X_WP:	0.000	Y_WP:	0.000	Y_WP:	0.500	X:	-0.236	Y:	-0.240	Z:	0.046	yaw:	37.330	yaw rate:	-5.497	Roll:	-10.148	Pitch:	-1.957	Yaw:	52.763	Thrust:	100.000
Time:	3.953	Roll Set Point:	0.568	Pitch Set Point:	0.287	Yaw Set Point:	-0.653	X_WP:	0.000	Y_WP:	0.000	Y_WP:	0.500	X:	-0.236	Y:	-0.240	Z:	0.046	yaw:	37.396	yaw rate:	6.608	Roll:	-10.315	Pitch:	-1.097	Yaw:	54.884	Thrust:	100.000
Time:	3.969	Roll Set Point:	0.568	Pitch Set Point:	0.288	Yaw Set Point:	-0.652	X_WP:	0.000	Y_WP:	0.000	Y_WP:	0.500	X:	-0.236	Y:	-0.240	Z:	0.046	yaw:	37.332	yaw rate:	-6.332	Roll:	-10.168	Pitch:	-2.042	Yaw:	52.628	Thrust:	100.000
Time:	3.984	Roll Set Point:	0.568	Pitch Set Point:	0.287	Yaw Set Point:	-0.652	X_WP:	0.000	Y_WP:	0.000	Y_WP:	0.500	X:	-0.236	Y:	-0.240	Z:	0.046	yaw:	37.377	yaw rate:	4.485	Roll:	-10.281	Pitch:	-1.314	Yaw:	54.503	Thrust:	100.000
Time:	4.000	Roll Set Point:	0.568	Pitch Set Point:	0.287	Yaw Set Point:	-0.653	X_WP:	0.000	Y_WP:	0.000	Y_WP:	0.500	X:	-0.236	Y:	-0.240	Z:	0.046	yaw:	37.392	yaw rate:	1.512	Roll:	-10.272	Pitch:	-1.456	Yaw:	54.026	Thrust:	100.000
Time:	4.016	Roll Set Point:	0.568	Pitch Set Point:	0.288	Yaw Set Point:	-0.652	X_WP:	0.000	Y_WP:	0.000	Y_WP:	0.500	X:	-0.235	Y:	-0.240	Z:	0.046	yaw:	37.361	yaw rate:	-3.131	Roll:	-10.137	Pitch:	-1.845	Yaw:	53.204	Thrust:	100.000
Time:	4.031	Roll Set Point:	0.568	Pitch Set Point:	0.287	Yaw Set Point:	-0.654	X_WP:	0.000	Y_WP:	0.000	Y_WP:	0.500	X:	-0.236	Y:	-0.240	Z:	0.046	yaw:	37.444	yaw rate:	8.270	Roll:	-10.392	Pitch:	-0.979	Yaw:	55.230	Thrust:	100.000
Time:	4.047	Roll Set Point:	0.568	Pitch Set Point:	0.287	Yaw Set Point:	-0.653	X_WP:	0.000	Y_WP:	0.000	Y_WP:	0.500	X:	-0.236	Y:	-0.240	Z:	0.046	yaw:	37.398	yaw rate:	-4.623	Roll:	-10.186	Pitch:	-1.956	Yaw:	53.005	Thrust:	100.000
Time:	4.063	Roll Set Point:	0.568	Pitch Set Point:	0.287	Yaw Set Point:	-0.653	X_WP:	0.000	Y_WP:	0.000	Y_WP:	0.500	X:	-0.236	Y:	-0.240	Z:	0.046	yaw:	37.398	yaw rate:	-4.623	Roll:	-10.238	Pitch:	-1.598	Yaw:	53.781	Thrust:	100.000
Time:	4.078	Roll Set Point:	0.568	Pitch Set Point:	0.288	Yaw Set Point:	-0.652	X_WP:	0.000	Y_WP:	0.000	Y_WP:	0.500	X:	-0.236	Y:	-0.240	Z:	0.046	yaw:	37.367	yaw rate:	-4.206	Roll:	-10.170	Pitch:	-1.829	Yaw:	53.226	Thrust:	100.000
Time:	4.094	Roll Set Point:	0.568	Pitch Set Point:	0.287	Yaw Set Point:	-0.652	X_WP:	0.000	Y_WP:	0.000	Y_WP:	0.500	X:	-0.236	Y:	-0.240	Z:	0.046	yaw:	37.375	yaw rate:	0.775	Roll:	-10.252	Pitch:	-1.512	Yaw:	53.878	Thrust:	100.000
Time:	4.109	Roll Set Point:	0.568	Pitch Set Point:	0.287	Yaw Set Point:	-0.652	X_WP:	0.000	Y_WP:	0.000	Y_WP:	0.500	X:	-0.236	Y:	-0.240	Z:	0.046	yaw:	37.375	yaw rate:	0.775	Roll:	-10.236	Pitch:	-1.607	Yaw:	53.748	Thrust:	100.000
Time:	4.125	Roll Set Point:	0.568	Pitch Set Point:	0.288	Yaw Set Point:	-0.652	X_WP:	0.000	Y_WP:	0.000	Y_WP:	0.500	X:	-0.235	Y:	-0.240	Z:	0.046	yaw:	37.351	yaw rate:	-2.445	Roll:	-10.153	Pitch:	-1.783	Yaw:	53.304	Thrust:	100.000
Time:	4.141	Roll Set Point:	0.568	Pitch Set Point:	0.287	Yaw Set Point:	-0.652	X_WP:	0.000	Y_WP:	0.000	Y_WP:	0.500	X:	-0.236	Y:	-0.240	Z:	0.046	yaw:	37.379	yaw rate:	2.841	Roll:	-10.290	Pitch:	-1.365	Yaw:	54.229	Thrust:	100.000
Time:	4.156	Roll Set Point:	0.568	Pitch Set Point:	0.285	Yaw Set Point:	-0.660	X_WP:	0.000	Y_WP:	0.000	Y_WP:	0.500	X:	-0.235	Y:	-0.240	Z:	0.047	yaw:	37.840	yaw rate:	11.200	Roll:	-10.562	Pitch:	1.009	Yaw:	62.113	Thrust:	100.000
Time:	4.172	Roll Set Point:	0.568	Pitch Set Point:	0.285	Yaw Set Point:	-0.661	X_WP:	0.000	Y_WP:	0.000	Y_WP:	0.500	X:	-0.235	Y:	-0.240	Z:	0.047	yaw:	37.853	yaw rate:	1.381	Roll:	-10.319	Pitch:	-1.493	Yaw:	54.649	Thrust:	100.000
Time:	4.188	Roll Set Point:	0.568	Pitch Set Point:	0.285	Yaw Set Point:	-0.660	X_WP:	0.000	Y_WP:	0.000	Y_WP:	0.500	X:	-0.235	Y:	-0.240	Z:	0.047	yaw:	37.833	yaw rate:	-2.082	Roll:	-10.198	Pitch:	-1.658	Yaw:	54.034	Thrust:	100.000
Time:	4.203	Roll Set Point:	0.568	Pitch Set Point:	0.285	Yaw Set Point:	-0.660	X_WP:	0.000	Y_WP:	0.000	Y_WP:	0.500	X:	-0.235	Y:	-0.240	Z:	0.047	yaw:	37.833	yaw rate:	-2.082	Roll:	-10.244	Pitch:	-1.549	Yaw:	54.387	Thrust:	100.000
Time:	4.219	Roll Set Point:	0.569	Pitch Set Point:	0.285	Yaw Set Point:	-0.661	X_WP:	0.000	Y_WP:	0.000	Y_WP:	0.500	X:	-0.235	Y:	-0.240	Z:	0.047	yaw:	37.896	yaw rate:	6.303	Roll:	-10.455	Pitch:	-1.345	Yaw:	55.531	Thrust:	100.000
Time:	4.234	Roll Set Point:	0.569	Pitch Set Point:	0.285	Yaw Set Point:	-0.661	X_WP:	0.000	Y_WP:	0.000	Y_WP:	0.500	X:	-0.235	Y:	-0.240	Z:	0.047	yaw:	37.896	yaw rate:	6.303	Roll:	-10.250	Pitch:	-1.548	Yaw:	54.475	Thrust:	100.000
Time:	4.250	Roll Set Point:	0.568	Pitch Set Point:	0.285	Yaw Set Point:	-0.660	X_WP:	0.000	Y_WP:	0.000	Y_WP:	0.500	X:	-0.235	Y:	-0.240	Z:	0.047	yaw:	37.834	yaw rate:	-6.197	Roll:	-10.021	Pitch:	-1.768	Yaw:	53.350	Thrust:	100.000
Time:	4.266	Roll Set Point:	0.568	Pitch Set Point:	0.285	Yaw Set Point:	-0.660	X_WP:	0.000	Y_WP:	0.000	Y_WP:	0.500	X:	-0.235	Y:	-0.240	Z:	0.047	yaw:	37.805	yaw rate:	-2.891	Roll:	-10.229	Pitch:	-1.733	Yaw:	53.864	Thrust:	100.000
Time:	4.281	Roll Set Point:	0.568	Pitch Set Point:	0.285	Yaw Set Point:	-0.660	X_WP:	0.000	Y_WP:	0.000	Y_WP:	0.500	X:	-0.235	Y:	-0.240	Z:	0.047	yaw:	37.841	yaw rate:	3.668	Roll:	-10.274	Pitch:	-1.301	Yaw:	55.014	Thrust:	100.000
Time:	4.297	Roll Set Point:	0.569	Pitch Set Point:	0.285	Yaw Set Point:	-0.662	X_WP:	0.000	Y_WP:	0.000	Y_WP:	0.500	X:	-0.235	Y:	-0.240	Z:	0.047	yaw:	37.904	yaw rate:	6.298	Roll:	-10.450	Pitch:	-1.339	Yaw:	55.543	Thrust:	100.000
Time:	4.313	Roll Set Point:	0.568	Pitch Set Point:	0.285	Yaw Set Point:	-0.660	X_WP:	0.000	Y_WP:	0.000	Y_WP:	0.500	X:	-0.235	Y:	-0.240	Z:	0.047	yaw:	37.837	yaw rate:	-6.731	Roll:	-10.037	Pitch:	-1.842	Yaw:	53.264	Thrust:	100.000
Time:	4.328	Roll Set Point:	0.568	Pitch Set Point:	0.285	Yaw Set Point:	-0.660	X_WP:	0.000	Y_WP:	0.000	Y_WP:	0.500	X:	-0.235	Y:	-0.240	Z:	0.047	yaw:	37.837	yaw rate:	-6.731	Roll:	-10.244	Pitch:	-1.563	Yaw:	54.393	Thrust:	100.000
Time:	4.344	Roll Set Point:	0.568	Pitch Set Point:	0.285	Yaw Set Point:	-0.661	X_WP:	0.000	Y_WP:	0.000	Y_WP:	0.500	X:	-0.235	Y:	-0.240	Z:	0.047	yaw:	37.892	yaw rate:	7.351	Roll:	-10.357	Pitch:	-1.232	Yaw:	55.388	Thrust:	100.000
Time:	4.359	Roll Set Point:	0.568	Pitch Set Point:	0.285	Yaw Set Point:	-0.661	X_WP:	0.000	Y_WP:	0.000	Y_WP:	0.500	X:	-0.235	Y:	-0.240	Z:	0.047	yaw:	37.892	yaw rate:	7.351	Roll:	-10.247	Pitch:	-1.558	Yaw:	54.470	Thrust:	100.000
Time:	4.375	Roll Set Point:	0.568	Pitch Set Point:	0.285	Yaw Set Point:	-0.661	X_WP:	0.000	Y_WP:	0.000	Y_WP:	0.500	X:	-0.235	Y:	-0.240	Z:	0.047	yaw:	37.853	yaw rate:	-5.204	Roll:	-10.158	Pitch:	-1.761	Yaw:	53.760	Thrust:	100.000
Time:	4.391	Roll Set Point:	0.568	Pitch Set Point:	0.286	Yaw Set Point:	-0.660	X_WP:	0.000	Y_WP:	0.000	Y_WP:	0.500	X:	-0.235	Y:	-0.240	Z:	0.047	yaw:	37.792	yaw rate:	-6.076	Roll:	-10.199	Pitch:	-2.041	Yaw:	53.312	Thrust:	100.000
Time:	4.406	Roll Set Point:	0.568	Pitch Set Point:	0.285	Yaw Set Point:	-0.660	X_WP:	0.000	Y_WP:	0.000	Y_WP:	0.500	X:	-0.235	Y:	-0.240	Z:	0.047	yaw:	37.814	yaw rate:	2.207	Roll:	-10.243	Pitch:	-1.407	Yaw:	54.731	Thrust:	100.000
Time:	4.422	Roll Set Point:	0.568	Pitch Set Point:	0.285	Yaw Set Point:	-0.661	X_WP:	0.000	Y_WP:	0.000	Y_WP:	0.500	X:	-0.235	Y:	-0.240	Z:	0.047	yaw:	37.896	yaw rate:	8.159	Roll:	-10.321	Pitch:	-1.024	Yaw:	55.842	Thrust:	100.000
Time:	4.438	Roll Set Point:	0.568	Pitch Set Point:	0.286	Yaw Set Point:	-0.660	X_WP:	0.000	Y_WP:	0.000	Y_WP:	0.500	X:	-0.235	Y:	-0.240	Z:	0.047	yaw:	37.806	yaw rate:	-9.000	Roll:	-10.175	Pitch:	-2.204	Yaw:	52.842	Thrust:	100.000
Time:	4.468	Roll Set Point:	0.568	Pitch Set Point:	0.285	Yaw Set Point:	-0.660	X_WP:	0.000	Y_WP:	0.000	Y_WP:	0.500	X:	-0.235	Y:	-0.240	Z:	0.047	yaw:	37.819	yaw rate:	1.369	Roll:	-10.818	Pitch:	-1.779	Yaw:	56.012	Thrust:	100.000
Time:	4.484	Roll Set Point:	0.568	Pitch Set Point:	0.285	Yaw Set Point:	-0.662	X_WP:	0.000	Y_WP:	0.000	Y_WP:	0.500	X:	-0.235	Y:	-0.240	Z:	0.047	yaw:	37.902	yaw rate:	7.716	Roll:	-10.356	Pitch:	-0.998	Yaw:	55.869	Thrust:	100.000
Time:	4.500	Roll Set Point:	0.568	Pitch Set Point:	0.285	Yaw Set Point:	-0.661	X_WP:	0.000	Y_WP:	0.000	Y_WP:	0.500	X:	-0.235	Y:	-0.240	Z:	0.047	yaw:	37.846	yaw rate:	-5.655	Roll:	-10.143	Pitch:	-1.936	Yaw:	53.454	Thrust:	100.000
Time:	4.515	Roll Set Point:	0.568	Pitch Set Point:	0.286	Yaw Set Point:	-0.659	X_WP:	0.000	Y_WP:	0.000	Y_WP:	0.500	X:	-0.235	Y:	-0.240	Z:	0.047	yaw:	37.773	yaw rate:	-7.259	Roll:	-10.171	Pitch:	-2.114	Yaw:	53.086	Thrust:	100.000
Time:	4.531	Roll Set Point:	0.568	Pitch Set Point:	0.285	Yaw Set Point:	-0.661	X_WP:	0.000	Y_WP:	0.000	Y_WP:	0.500	X:	-0.235	Y:	-0.240	Z:	0.047	yaw:	37.870	yaw rate:	9.753	Roll:	-10.374	Pitch:	-0.946	Yaw:	56.074	Thrust:	100.000
Time:	4.547	Roll Set Point:	0.568	Pitch Set Point:	0.285	Yaw Set Point:	-0.661	X_WP:	0.000	Y_WP:	0.000	Y_WP:	0.500	X:	-0.235	Y:	-0.240	Z:	0.047	yaw:	37.888	yaw rate:	1.770	Roll:	-10.279	Pitch:	-1.464	Yaw:	54.761	Thrust:	100.000
Time:	4.562	Roll Set Point:	0.568	Pitch Set Point:	0.285	Yaw Set Point:	-0.661	X_WP:	0.000	Y_WP:	0.000	Y_WP:	0.500	X:	-0.235	Y:	-0.240	Z:	0.047	yaw:	37.859	yaw rate:	-2.929	Roll:	-10.176	Pitch:	-1.743	Yaw:	53.936	Thrust:	100.000
Time:	4.578	Roll Set Point:	0.568	Pitch Set Point:	0.285	Yaw Set Point:	-0.661	X_WP:	0.000	Y_WP:	0.000	Y_WP:	0.500	X:	-0.235	Y:	-0.240	Z:	0.047	yaw:	37.859	yaw rate:	-2.929	Roll:	-10.243	Pitch:	-1.585	Yaw:	54.419	Thrust:	100.000
Time:	4.593	Roll Set Point:	0.568	Pitch Set Point:	0.286	Yaw Set Point:	-0.659	X_WP:	0.000	Y_WP:	0.000	Y_WP:	0.500	X:	-0.235	Y:	-0.240	Z:	0.047	yaw:	37.786	yaw rate:	0.006	Roll:	-10.201	Pitch:	-2.175	Yaw:	53.106	Thrust:	100.000
Time:	4.609	Roll Set Point:	0.568	Pitch Set Point:	0.285	Yaw Set Point:	-0.660	X_WP:	0.000	Y_WP:	0.000	Y_WP:	0.500	X:	-0.235	Y:	-0.240	Z:	0.047	yaw:	37.819	yaw rate:	3.289	Roll:	-10.252	Pitch:	-1.269	Yaw:	54.919	Thrust:	100.000
Time:	4.625	Roll Set Point:	0.568	Pitch Set Point:	0.285	Yaw Set Point:	-0.661	X_WP:	0.000	Y_WP:	0.000	Y_WP:	0.500	X:	-0.235	Y:	-0.240	Z:	0.047	yaw:	37.871	yaw rate:	5.139	Roll:	-10.306	Pitch:	-1.259	Yaw:	55.301	Thrust:	100.000
Time:	4.640	Roll Set Point:	0.568	Pitch Set Point:	0.285	Yaw Set Point:	-0.661	X_WP:	0.000	Y_WP:	0.000	Y_WP:	0.500	X:	-0.235	Y:	-0.240	Z:	0.047	yaw:	37.871	yaw rate:	5.139	Roll:	-10.246	Pitch:	-1.591	Yaw:	54.443	Thrust:	100.000
Time:	4.656	Roll Set Point:	0.568	Pitch Set Point:	0.286	Yaw Set Point:	-0.659	X_WP:	0.000	Y_WP:	0.000	Y_WP:	0.500	X:	-0.235	Y:	-0.240	Z:	0.047	yaw:	37.783	yaw rate:	-1.317	Roll:	-10.159	Pitch:	-2.230	Yaw:	52.850	Thrust:	100.000
Time:	4.672	Roll Set Point:	0.568	Pitch Set Point:	0.286	Yaw Set Point:	-0.659	X_WP:	0.000	Y_WP:	0.000	Y_WP:	0.500	X:	-0.235	Y:	-0.240	Z:	0.047	yaw:	37.783	yaw rate:	-1.317	Roll:	-10.243	Pitch:	-1.610	Yaw:	54.317	Thrust:	100.000
Time:	4.687	Roll Set Point:	0.568	Pitch Set Point:	0.285	Yaw Set Point:	-0.661	X_WP:	0.000	Y_WP:	0.000	Y_WP:	0.500	X:	-0.235	Y:	-0.240	Z:	0.047	yaw:	37.869	yaw rate:	3.279	Roll:	-10.308	Pitch:	-0.956	Yaw:	55.882	Thrust:	100.000
Time:	4.703	Roll Set Point:	0.568	Pitch Set Point:	0.285	Yaw Set Point:	-0.660	X_WP:	0.000	Y_WP:	0.000	Y_WP:	0.500	X:	-0.235	Y:	-0.240	Z:	0.047	yaw:	37.828	yaw rate:	-4.165	Roll:	-10.183	Pitch:	-1.930	Yaw:	53.680	Thrust:	100.000
Time:	4.718	Roll Set Point:	0.568	Pitch Set Point:	0.286	Yaw Set Point:	-0.659	X_WP:	0.000	Y_WP:	0.000	Y_WP:	0.500	X:	-0.235	Y:	-0.240	Z:	0.047	yaw:	37.783	yaw rate:	-4.532	Roll:	-10.224	Pitch:	-1.948	Yaw:	53.556	Thrust:	100.000
Time:	4.734	Roll Set Point:	0.568	Pitch Set Point:	0.286	Yaw Set Point:	-0.659	X_WP:	0.000	Y_WP:	0.000	Y_WP:	0.500	X:	-0.235	Y:	-0.240	Z:	0.047	yaw:	37.783	yaw rate:	-4.532	Roll:	-10.243	Pitch:	-1.618	Yaw:	54.317	Thrust:	100.000
Time:	4.750	Roll Set Point:	0.568	Pitch Set Point:	0.285	Yaw Set Point:	-0.660	X_WP:	0.000	Y_WP:	0.000	Y_WP:	0.500	X:	-0.235	Y:	-0.240	Z:	0.047	yaw:	37.841	yaw rate:	0.797	Roll:	-10.309	Pitch:	-1.143	Yaw:	55.389	Thrust:	100.000
Time:	4.765	Roll Set Point:	0.568	Pitch Set Point:	0.285	Yaw Set Point:	-0.660	X_WP:	0.000	Y_WP:	0.000	Y_WP:	0.500	X:	-0.235	Y:	-0.240	Z:	0.047	yaw:	37.811	yaw rate:	-3.037	Roll:	-10.204	Pitch:	-1.783	Yaw:	53.844	Thrust:	100.000
Time:	4.781	Roll Set Point:	0.568	Pitch Set Point:	0.286	Yaw Set Point:	-0.659	X_WP:	0.000	Y_WP:	0.000	Y_WP:	0.500	X:	-0.235	Y:	-0.240	Z:	0.047	yaw:	37.756	yaw rate:	-5.497	Roll:	-10.220	Pitch:	-2.059	Yaw:	53.359	Thrust:	100.000
Time:	4.797	Roll Set Point:	0.568	Pitch Set Point:	0.285	Yaw Set Point:	-0.661	X_WP:	0.000	Y_WP:	0.000	Y_WP:	0.500	X:	-0.235	Y:	-0.240	Z:	0.047	yaw:	37.867	yaw rate:	11.079	Roll:	-10.475	Pitch:	-1.054	Yaw:	56.291	Thrust:	100.000
Time:	4.812	Roll Set Point:	0.568	Pitch Set Point:	0.285	Yaw Set Point:	-0.661	X_WP:	0.000	Y_WP:	0.000	Y_WP:	0.500	X:	-0.235	Y:	-0.240	Z:	0.047	yaw:	37.886	yaw rate:	1.929	Roll:	-10.134	Pitch:	-1.334	Yaw:	54.785	Thrust:	100.000
Time:	4.828	Roll Set Point:	0.568	Pitch Set Point:	0.285	Yaw Set Point:	-0.661	X_WP:	0.000	Y_WP:	0.000	Y_WP:	0.500	X:	-0.235	Y:	-0.240	Z:	0.047	yaw:	37.886	yaw rate:	1.929	Roll:	-10.246	Pitch:	-1.610	Yaw:	54.462	Thrust:	100.000
Time:	4.843	Roll Set Point:	0.568	Pitch Set Point:	0.285	Yaw Set Point:	-0.660	X_WP:	0.000	Y_WP:	0.000	Y_WP:	0.500	X:	-0.235	Y:	-0.240	Z:	0.047	yaw:	37.821	yaw rate:	-5.703	Roll:	-10.164	Pitch:	-2.067	Yaw:	53.280	Thrust:	100.000
Time:	4.859	Roll Set Point:	0.568	Pitch Set Point:	0.285	Yaw Set Point:	-0.661	X_WP:	0.000	Y_WP:	0.000	Y_WP:	0.500	X:	-0.235	Y:	-0.240	Z:	0.047	yaw:	37.853	yaw rate:	3.197	Roll:	-10.284	Pitch:	-1.407	Yaw:	54.951	Thrust:	100.000
Time:	4.875	Roll Set Point:	0.568	Pitch Set Point:	0.285	Yaw Set Point:	-0.661	X_WP:	0.000	Y_WP:	0.000	Y_WP:	0.500	X:	-0.235	Y:	-0.240	Z:	0.047	yaw:	37.853	yaw rate:	3.197	Roll:	-10.245	Pitch:	-1.621	Yaw:	54.416	Thrust:	100.000
Time:	4.890	Roll Set Point:	0.568	Pitch Set Point:	0.285	Yaw Set Point:	-0.660	X_WP:	0.000	Y_WP:	0.000	Y_WP:	0.500	X:	-0.235	Y:	-0.240	Z:	0.047	yaw:	37.839	yaw rate:	6.343	Roll:	-10.240	Pitch:	-1.698	Yaw:	54.160	Thrust:	100.000
Time:	4.906	Roll Set Point:	0.568	Pitch Set Point:	0.285	Yaw Set Point:	-0.660	X_WP:	0.000	Y_WP:	0.000	Y_WP:	0.500	X:	-0.235	Y:	-0.240	Z:	0.047	yaw:	37.839	yaw rate:	6.343	Roll:	-10.245	Pitch:	-1.627	Yaw:	54.396	Thrust:	100.000
Time:	4.922	Roll Set Point:	0.568	Pitch Set Point:	0.286	Yaw Set Point:	-0.660	X_WP:	0.000	Y_WP:	0.000	Y_WP:	0.500	X:	-0.235	Y:	-0.240	Z:	0.047	yaw:	37.792	yaw rate:	-4.725	Roll:	-10.183	Pitch:	-1.924	Yaw:	53.538	Thrust:	100.000
Time:	4.937	Roll Set Point:	0.568	Pitch Set Point:	0.285	Yaw Set Point:	-0.660	X_WP:	0.000	Y_WP:	0.000	Y_WP:	0.500	X:	-0.235	Y:	-0.240	Z:	0.047	yaw:	37.802	yaw rate:	1.006	Roll:	-10.229	Pitch:	-1.559	Yaw:	54.513	Thrust:	100.000
Time:	4.953	Roll Set Point:	0.569	Pitch Set Point:	0.285	Yaw Set Point:	-0.661	X_WP:	0.000	Y_WP:	0.000	Y_WP:	0.500	X:	-0.235	Y:	-0.240	Z:	0.047	yaw:	37.891	yaw rate:	8.951	Roll:	-10.507	Pitch:	-1.218	Yaw:	55.969	Thrust:	100.000
Time:	4.968	Roll Set Point:	0.568	Pitch Set Point:	0.285	Yaw Set Point:	-0.660	X_WP:	0.000	Y_WP:	0.000	Y_WP:	0.500	X:	-0.235	Y:	-0.240	Z:	0.047	yaw:	37.809	yaw rate:	-8.229	Roll:	-10.023	Pitch:	-2.015	Yaw:	52.974	Thrust:	100.000
Time:	4.984	Roll Set Point:	0.568	Pitch Set Point:	0.285	Yaw Set Point:	-0.660	X_WP:	0.000	Y_WP:	0.000	Y_WP:	0.500	X:	-0.235	Y:	-0.240	Z:	0.047	yaw:	37.809	yaw rate:	-8.229	Roll:	-10.247	Pitch:	-1.642	Yaw:	54.363	Thrust:	100.000
Time:	5.000	Roll Set Point:	0.568	Pitch Set Point:	0.285	Yaw Set Point:	-0.661	X_WP:	0.000	Y_WP:	0.000	Y_WP:	0.500	X:	-0.235	Y:	-0.240	Z:	0.047	yaw:	37.865	yaw rate:	6.385	Roll:	-10.272	Pitch:	-1.200	Yaw:	55.370	Thrust:	100.000
Time:	5.015	Roll Set Point:	0.568	Pitch Set Point:	0.285	Yaw Set Point:	-0.661	X_WP:	0.000	Y_WP:	0.000	Y_WP:	0.500	X:	-0.235	Y:	-0.240	Z:	0.047	yaw:	37.865	yaw rate:	0.024	Roll:	-10.273	Pitch:	-1.676	Yaw:	54.437	Thrust:	100.000
Time:	5.031	Roll Set Point:	0.568	Pitch Set Point:	0.285	Yaw Set Point:	-0.661	X_WP:	0.000	Y_WP:	0.000	Y_WP:	0.500	X:	-0.235	Y:	-0.240	Z:	0.047	yaw:	37.851	yaw rate:	-1.431	Roll:	-10.233	Pitch:	-1.734	Yaw:	54.174	Thrust:	100.000
Time:	5.047	Roll Set Point:	0.569	Pitch Set Point:	0.285	Yaw Set Point:	-0.662	X_WP:	0.000	Y_WP:	0.000	Y_WP:	0.500	X:	-0.235	Y:	-0.240	Z:	0.047	yaw:	37.945	yaw rate:	9.435	Roll:	-10.468	Pitch:	-1.208	Yaw:	56.125	Thrust:	100.000
Time:	5.062	Roll Set Point:	0.568	Pitch Set Point:	0.285	Yaw Set Point:	-0.661	X_WP:	0.000	Y_WP:	0.000	Y_WP:	0.500	X:	-0.235	Y:	-0.240	Z:	0.047	yaw:	37.851	yaw rate:	-9.436	Roll:	-10.024	Pitch:	-2.039	Yaw:	52.826	Thrust:	100.000
Time:	5.078	Roll Set Point:	0.568	Pitch Set Point:	0.285	Yaw Set Point:	-0.661	X_WP:	0.000	Y_WP:	0.000	Y_WP:	0.500	X:	-0.235	Y:	-0.240	Z:	0.047	yaw:	37.851	yaw rate:	-9.436	Roll:	-10.245	Pitch:	-1.643	Yaw:	54.413	Thrust:	100.000
Time:	5.093	Roll Set Point:	0.568	Pitch Set Point:	0.285	Yaw Set Point:	-0.660	X_WP:	0.000	Y_WP:	0.000	Y_WP:	0.500	X:	-0.235	Y:	-0.240	Z:	0.047	yaw:	37.807	yaw rate:	-5.850	Roll:	-10.172	Pitch:	-1.986	Yaw:	53.607	Thrust:	100.000
Time:	5.109	Roll Set Point:	0.568	Pitch Set Point:	0.285	Yaw Set Point:	-0.660	X_WP:	0.000	Y_WP:	0.000	Y_WP:	0.500	X:	-0.235	Y:	-0.240	Z:	0.047	yaw:	37.807	yaw rate:	-5.850	Roll:	-10.243	Pitch:	-1.655	Yaw:	54.351	Thrust:	100.000
Time:	5.125	Roll Set Point:	0.568	Pitch Set Point:	0.285	Yaw Set Point:	-0.660	X_WP:	0.000	Y_WP:	0.000	Y_WP:	0.500	X:	-0.235	Y:	-0.240	Z:	0.047	yaw:	37.821	yaw rate:	4.776	Roll:	-10.275	Pitch:	-1.524	Yaw:	54.603	Thrust:	100.000
Time:	5.140	Roll Set Point:	0.568	Pitch Set Point:	0.285	Yaw Set Point:	-0.660	X_WP:	0.000	Y_WP:	0.000	Y_WP:	0.500	X:	-0.235	Y:	-0.240	Z:	0.047	yaw:	37.821	yaw rate:	4.776	Roll:	-10.245	Pitch:	-1.656	Yaw:	54.373	Thrust:	100.000
Time:	5.156	Roll Set Point:	0.568	Pitch Set Point:	0.285	Yaw Set Point:	-0.660	X_WP:	0.000	Y_WP:	0.000	Y_WP:	0.500	X:	-0.235	Y:	-0.240	Z:	0.047	yaw:	37.808	yaw rate:	-1.217	Roll:	-10.223	Pitch:	-1.796	Yaw:	54.146	Thrust:	100.000
Time:	5.172	Roll Set Point:	0.568	Pitch Set Point:	0.285	Yaw Set Point:	-0.660	X_WP:	0.000	Y_WP:	0.000	Y_WP:	0.500	X:	-0.235	Y:	-0.240	Z:	0.047	yaw:	37.841	yaw rate:	3.208	Roll:	-10.288	Pitch:	-1.431	Yaw:	54.937	Thrust:	100.000
Time:	5.187	Roll Set Point:	0.568	Pitch Set Point:	0.285	Yaw Set Point:	-0.660	X_WP:	0.000	Y_WP:	0.000	Y_WP:	0.500	X:	-0.235	Y:	-0.240	Z:	0.047	yaw:	37.827	yaw rate:	2.701	Roll:	-10.243	Pitch:	-1.744	Yaw:	54.157	Thrust:	100.000
Time:	5.203	Roll Set Point:	0.568	Pitch Set Point:	0.285	Yaw Set Point:	-0.661	X_WP:	0.000	Y_WP:	0.000	Y_WP:	0.500	X:	-0.235	Y:	-0.240	Z:	0.047	yaw:	37.850	yaw rate:	2.245	Roll:	-10.278	Pitch:	-1.514	Yaw:	54.786	Thrust:	100.000
Time:	5.218	Roll Set Point:	0.568	Pitch Set Point:	0.285	Yaw Set Point:	-0.659	X_WP:	0.000	Y_WP:	0.000	Y_WP:	0.500	X:	-0.235	Y:	-0.240	Z:	0.047	yaw:	37.786	yaw rate:	-6.404	Roll:	-10.132	Pitch:	-2.037	Yaw:	53.249	Thrust:	100.000
Time:	5.234	Roll Set Point:	0.568	Pitch Set Point:	0.285	Yaw Set Point:	-0.660	X_WP:	0.000	Y_WP:	0.000	Y_WP:	0.500	X:	-0.235	Y:	-0.240	Z:	0.047	yaw:	37.806	yaw rate:	2.028	Roll:	-10.270	Pitch:	-1.574	Yaw:	54.690	Thrust:	100.000
Time:	5.250	Roll Set Point:	0.568	Pitch Set Point:	0.285	Yaw Set Point:	-0.660	X_WP:	0.000	Y_WP:	0.000	Y_WP:	0.500	X:	-0.235	Y:	-0.240	Z:	0.047	yaw:	37.806	yaw rate:	2.028	Roll:	-10.243	Pitch:	-1.671	Yaw:	54.350	Thrust:	100.000
Time:	5.265	Roll Set Point:	0.568	Pitch Set Point:	0.285	Yaw Set Point:	-0.660	X_WP:	0.000	Y_WP:	0.000	Y_WP:	0.500	X:	-0.235	Y:	-0.240	Z:	0.047	yaw:	37.820	yaw rate:	-5.451	Roll:	-10.268	Pitch:	-1.580	Yaw:	54.610	Thrust:	100.000
Time:	5.281	Roll Set Point:	0.568	Pitch Set Point:	0.286	Yaw Set Point:	-0.660	X_WP:	0.000	Y_WP:	0.000	Y_WP:	0.500	X:	-0.235	Y:	-0.240	Z:	0.047	yaw:	37.791	yaw rate:	-2.945	Roll:	-10.206	Pitch:	-1.888	Yaw:	53.836	Thrust:	100.000
Time:	5.297	Roll Set Point:	0.568	Pitch Set Point:	0.285	Yaw Set Point:	-0.660	X_WP:	0.000	Y_WP:	0.000	Y_WP:	0.500	X:	-0.235	Y:	-0.240	Z:	0.047	yaw:	37.824	yaw rate:	3.309	Roll:	-10.265	Pitch:	-1.434	Yaw:	54.929	Thrust:	100.000
Time:	5.312	Roll Set Point:	0.568	Pitch Set Point:	0.285	Yaw Set Point:	-0.661	X_WP:	0.000	Y_WP:	0.000	Y_WP:	0.500	X:	-0.235	Y:	-0.240	Z:	0.047	yaw:	37.858	yaw rate:	3.382	Roll:	-10.306	Pitch:	-1.436	Yaw:	54.989	Thrust:	100.000
Time:	5.328	Roll Set Point:	0.568	Pitch Set Point:	0.286	Yaw Set Point:	-0.659	X_WP:	0.000	Y_WP:	0.000	Y_WP:	0.500	X:	-0.235	Y:	-0.240	Z:	0.047	yaw:	37.781	yaw rate:	-7.707	Roll:	-10.186	Pitch:	-2.237	Yaw:	53.023	Thrust:	100.000
Time:	5.343	Roll Set Point:	0.568	Pitch Set Point:	0.286	Yaw Set Point:	-0.659	X_WP:	0.000	Y_WP:	0.000	Y_WP:	0.500	X:	-0.235	Y:	-0.240	Z:	0.047	yaw:	37.781	yaw rate:	-7.707	Roll:	-10.243	Pitch:	-1.687	Yaw:	54.315	Thrust:	100.000
Time:	5.359	Roll Set Point:	0.568	Pitch Set Point:	0.285	Yaw Set Point:	-0.659	X_WP:	0.000	Y_WP:	0.000	Y_WP:	0.500	X:	-0.235	Y:	-0.240	Z:	0.047	yaw:	37.786	yaw rate:	-4.222	Roll:	-10.167	Pitch:	-1.579	Yaw:	54.404	Thrust:	100.000
Time:	5.375	Roll Set Point:	0.568	Pitch Set Point:	0.285	Yaw Set Point:	-0.659	X_WP:	0.000	Y_WP:	0.000	Y_WP:	0.500	X:	-0.235	Y:	-0.240	Z:	0.047	yaw:	37.786	yaw rate:	-4.222	Roll:	-10.243	Pitch:	-1.688	Yaw:	54.325	Thrust:	100.000
Time:	5.390	Roll Set Point:	0.568	Pitch Set Point:	0.285	Yaw Set Point:	-0.662	X_WP:	0.000	Y_WP:	0.000	Y_WP:	0.500	X:	-0.235	Y:	-0.240	Z:	0.047	yaw:	37.910	yaw rate:	12.399	Roll:	-10.458	Pitch:	-0.899	Yaw:	56.570	Thrust:	100.000
Time:	5.406	Roll Set Point:	0.568	Pitch Set Point:	0.286	Yaw Set Point:	-0.659	X_WP:	0.000	Y_WP:	0.000	Y_WP:	0.500	X:	-0.235	Y:	-0.240	Z:	0.047	yaw:	37.745	yaw rate:	-8.448	Roll:	-10.026	Pitch:	-2.820	Yaw:	51.499	Thrust:	100.000
Time:	5.422	Roll Set Point:	0.568	Pitch Set Point:	0.286	Yaw Set Point:	-0.659	X_WP:	0.000	Y_WP:	0.000	Y_WP:	0.500	X:	-0.235	Y:	-0.240	Z:	0.047	yaw:	37.745	yaw rate:	-8.448	Roll:	-10.238	Pitch:	-1.700	Yaw:	54.255	Thrust:	100.000
Time:	5.437	Roll Set Point:	0.568	Pitch Set Point:	0.285	Yaw Set Point:	-0.660	X_WP:	0.000	Y_WP:	0.000	Y_WP:	0.500	X:	-0.235	Y:	-0.240	Z:	0.047	yaw:	37.840	yaw rate:	-0.667	Roll:	-10.358	Pitch:	-0.972	Yaw:	56.001	Thrust:	100.000
Time:	5.453	Roll Set Point:	0.568	Pitch Set Point:	0.285	Yaw Set Point:	-0.660	X_WP:	0.000	Y_WP:	0.000	Y_WP:	0.500	X:	-0.235	Y:	-0.240	Z:	0.047	yaw:	37.818	yaw rate:	-2.202	Roll:	-10.225	Pitch:	-1.913	Yaw:	54.017	Thrust:	100.000
Time:	5.469	Roll Set Point:	0.568	Pitch Set Point:	0.286	Yaw Set Point:	-0.659	X_WP:	0.000	Y_WP:	0.000	Y_WP:	0.500	X:	-0.235	Y:	-0.240	Z:	0.047	yaw:	37.774	yaw rate:	-4.416	Roll:	-10.170	Pitch:	-1.980	Yaw:	53.566	Thrust:	100.000
Time:	5.484	Roll Set Point:	0.569	Pitch Set Point:	0.285	Yaw Set Point:	-0.662	X_WP:	0.000	Y_WP:	0.000	Y_WP:	0.500	X:	-0.235	Y:	-0.240	Z:	0.047	yaw:	37.908	yaw rate:	13.395	Roll:	-10.546	Pitch:	-0.977	Yaw:	56.736	Thrust:	100.000
Time:	5.500	Roll Set Point:	0.569	Pitch Set Point:	0.285	Yaw Set Point:	-0.662	X_WP:	0.000	Y_WP:	0.000	Y_WP:	0.500	X:	-0.235	Y:	-0.240	Z:	0.047	yaw:	37.944	yaw rate:	3.591	Roll:	-10.265	Pitch:	-1.453	Yaw:	55.144	Thrust:	100.000
Time:	5.516	Roll Set Point:	0.568	Pitch Set Point:	0.285	Yaw Set Point:	-0.660	X_WP:	0.000	Y_WP:	0.000	Y_WP:	0.500	X:	-0.235	Y:	-0.240	Z:	0.047	yaw:	37.816	yaw rate:	-12.751	Roll:	-9.971	Pitch:	-2.303	Yaw:	52.228	Thrust:	100.000
Time:	5.531	Roll Set Point:	0.568	Pitch Set Point:	0.286	Yaw Set Point:	-0.660	X_WP:	0.000	Y_WP:	0.000	Y_WP:	0.500	X:	-0.235	Y:	-0.240	Z:	0.047	yaw:	37.801	yaw rate:	-1.553	Roll:	-10.251	Pitch:	-1.917	Yaw:	54.086	Thrust:	100.000
Time:	5.547	Roll Set Point:	0.568	Pitch Set Point:	0.286	Yaw Set Point:	-0.660	X_WP:	0.000	Y_WP:	0.000	Y_WP:	0.500	X:	-0.235	Y:	-0.240	Z:	0.047	yaw:	37.801	yaw rate:	-1.553	Roll:	-10.242	Pitch:	-1.706	Yaw:	54.339	Thrust:	100.000
Time:	5.562	Roll Set Point:	0.568	Pitch Set Point:	0.285	Yaw Set Point:	-0.661	X_WP:	0.000	Y_WP:	0.000	Y_WP:	0.500	X:	-0.235	Y:	-0.240	Z:	0.047	yaw:	37.855	yaw rate:	6.073	Roll:	-10.312	Pitch:	-1.292	Yaw:	55.316	Thrust:	100.000
Time:	5.578	Roll Set Point:	0.568	Pitch Set Point:	0.285	Yaw Set Point:	-0.661	X_WP:	0.000	Y_WP:	0.000	Y_WP:	0.500	X:	-0.235	Y:	-0.240	Z:	0.047	yaw:	37.856	yaw rate:	0.114	Roll:	-10.367	Pitch:	-1.859	Yaw:	54.436	Thrust:	100.000
Time:	5.594	Roll Set Point:	0.568	Pitch Set Point:	0.285	Yaw Set Point:	-0.661	X_WP:	0.000	Y_WP:	0.000	Y_WP:	0.500	X:	-0.235	Y:	-0.240	Z:	0.047	yaw:	37.856	yaw rate:	0.114	Roll:	-10.248	Pitch:	-1.706	Yaw:	54.419	Thrust:	100.000
Time:	5.609	Roll Set Point:	0.568	Pitch Set Point:	0.285	Yaw Set Point:	-0.660	X_WP:	0.000	Y_WP:	0.000	Y_WP:	0.500	X:	-0.235	Y:	-0.240	Z:	0.047	yaw:	37.843	yaw rate:	-1.299	Roll:	-10.096	Pitch:	-1.638	Yaw:	54.187	Thrust:	100.000
Time:	5.625	Roll Set Point:	0.568	Pitch Set Point:	0.285	Yaw Set Point:	-0.661	X_WP:	0.000	Y_WP:	0.000	Y_WP:	0.500	X:	-0.235	Y:	-0.240	Z:	0.047	yaw:	37.846	yaw rate:	-3.881	Roll:	-10.222	Pitch:	-1.646	Yaw:	54.459	Thrust:	100.000
Time:	5.641	Roll Set Point:	0.568	Pitch Set Point:	0.285	Yaw Set Point:	-0.661	X_WP:	0.000	Y_WP:	0.000	Y_WP:	0.500	X:	-0.235	Y:	-0.240	Z:	0.047	yaw:	37.846	yaw rate:	-3.881	Roll:	-10.243	Pitch:	-1.708	Yaw:	54.406	Thrust:	100.000
Time:	5.656	Roll Set Point:	0.568	Pitch Set Point:	0.285	Yaw Set Point:	-0.660	X_WP:	0.000	Y_WP:	0.000	Y_WP:	0.500	X:	-0.235	Y:	-0.240	Z:	0.047	yaw:	37.834	yaw rate:	5.681	Roll:	-10.286	Pitch:	-1.846	Yaw:	54.179	Thrust:	100.000
Time:	5.672	Roll Set Point:	0.568	Pitch Set Point:	0.285	Yaw Set Point:	-0.660	X_WP:	0.000	Y_WP:	0.000	Y_WP:	0.500	X:	-0.235	Y:	-0.240	Z:	0.047	yaw:	37.837	yaw rate:	0.315	Roll:	-10.243	Pitch:	-1.638	Yaw:	54.445	Thrust:	100.000
Time:	5.687	Roll Set Point:	0.568	Pitch Set Point:	0.285	Yaw Set Point:	-0.660	X_WP:	0.000	Y_WP:	0.000	Y_WP:	0.500	X:	-0.235	Y:	-0.240	Z:	0.047	yaw:	37.831	yaw rate:	-0.586	Roll:	-10.219	Pitch:	-1.756	Yaw:	54.286	Thrust:	100.000
Time:	5.703	Roll Set Point:	0.568	Pitch Set Point:	0.285	Yaw Set Point:	-0.660	X_WP:	0.000	Y_WP:	0.000	Y_WP:	0.500	X:	-0.235	Y:	-0.240	Z:	0.047	yaw:	37.832	yaw rate:	0.134	Roll:	-10.274	Pitch:	-1.728	Yaw:	54.409	Thrust:	100.000
Time:	5.719	Roll Set Point:	0.568	Pitch Set Point:	0.286	Yaw Set Point:	-0.659	X_WP:	0.000	Y_WP:	0.000	Y_WP:	0.500	X:	-0.235	Y:	-0.240	Z:	0.047	yaw:	37.775	yaw rate:	-5.664	Roll:	-10.141	Pitch:	-2.131	Yaw:	53.365	Thrust:	100.000
Time:	5.734	Roll Set Point:	0.568	Pitch Set Point:	0.285	Yaw Set Point:	-0.661	X_WP:	0.000	Y_WP:	0.000	Y_WP:	0.500	X:	-0.235	Y:	-0.240	Z:	0.047	yaw:	37.848	yaw rate:	7.231	Roll:	-10.373	Pitch:	-1.223	Yaw:	55.619	Thrust:	100.000
Time:	5.750	Roll Set Point:	0.568	Pitch Set Point:	0.285	Yaw Set Point:	-0.660	X_WP:	0.000	Y_WP:	0.000	Y_WP:	0.500	X:	-0.235	Y:	-0.240	Z:	0.047	yaw:	37.802	yaw rate:	-4.571	Roll:	-10.114	Pitch:	-2.005	Yaw:	53.578	Thrust:	100.000
Time:	5.766	Roll Set Point:	0.568	Pitch Set Point:	0.285	Yaw Set Point:	-0.660	X_WP:	0.000	Y_WP:	0.000	Y_WP:	0.500	X:	-0.235	Y:	-0.240	Z:	0.047	yaw:	37.836	yaw rate:	3.420	Roll:	-10.330	Pitch:	-1.462	Yaw:	54.967	Thrust:	100.000
Time:	5.781	Roll Set Point:	0.568	Pitch Set Point:	0.286	Yaw Set Point:	-0.660	X_WP:	0.000	Y_WP:	0.000	Y_WP:	0.500	X:	-0.235	Y:	-0.240	Z:	0.047	yaw:	37.794	yaw rate:	-4.271	Roll:	-10.186	Pitch:	-2.100	Yaw:	53.613	Thrust:	100.000
Time:	5.797	Roll Set Point:	0.568	Pitch Set Point:	0.285	Yaw Set Point:	-0.660	X_WP:	0.000	Y_WP:	0.000	Y_WP:	0.500	X:	-0.235	Y:	-0.240	Z:	0.047	yaw:	37.797	yaw rate:	0.363	Roll:	-10.260	Pitch:	-1.678	Yaw:	54.404	Thrust:	100.000
Time:	5.813	Roll Set Point:	0.568	Pitch Set Point:	0.285	Yaw Set Point:	-0.660	X_WP:	0.000	Y_WP:	0.000	Y_WP:	0.500	X:	-0.235	Y:	-0.240	Z:	0.047	yaw:	37.795	yaw rate:	-0.225	Roll:	-10.235	Pitch:	-1.751	Yaw:	54.297	Thrust:	100.000
Time:	5.828	Roll Set Point:	0.568	Pitch Set Point:	0.285	Yaw Set Point:	-0.660	X_WP:	0.000	Y_WP:	0.000	Y_WP:	0.500	X:	-0.235	Y:	-0.240	Z:	0.047	yaw:	37.795	yaw rate:	-0.225	Roll:	-10.241	Pitch:	-1.737	Yaw:	54.329	Thrust:	100.000
Time:	5.844	Roll Set Point:	0.568	Pitch Set Point:	0.285	Yaw Set Point:	-0.660	X_WP:	0.000	Y_WP:	0.000	Y_WP:	0.500	X:	-0.235	Y:	-0.240	Z:	0.047	yaw:	37.839	yaw rate:	4.368	Roll:	-10.323	Pitch:	-1.487	Yaw:	55.129	Thrust:	100.000
Time:	5.859	Roll Set Point:	0.568	Pitch Set Point:	0.286	Yaw Set Point:	-0.660	X_WP:	0.000	Y_WP:	0.000	Y_WP:	0.500	X:	-0.235	Y:	-0.240	Z:	0.047	yaw:	37.796	yaw rate:	0.045	Roll:	-10.185	Pitch:	-1.997	Yaw:	53.609	Thrust:	100.000
Time:	5.875	Roll Set Point:	0.568	Pitch Set Point:	0.285	Yaw Set Point:	-0.662	X_WP:	0.000	Y_WP:	0.000	Y_WP:	0.500	X:	-0.235	Y:	-0.240	Z:	0.047	yaw:	37.917	yaw rate:	12.182	Roll:	-10.386	Pitch:	-0.930	Yaw:	56.545	Thrust:	100.000
Time:	5.891	Roll Set Point:	0.568	Pitch Set Point:	0.285	Yaw Set Point:	-0.662	X_WP:	0.000	Y_WP:	0.000	Y_WP:	0.500	X:	-0.235	Y:	-0.240	Z:	0.047	yaw:	37.917	yaw rate:	12.182	Roll:	-10.246	Pitch:	-1.724	Yaw:	54.502	Thrust:	100.000
Time:	5.906	Roll Set Point:	0.568	Pitch Set Point:	0.286	Yaw Set Point:	-0.660	X_WP:	0.000	Y_WP:	0.000	Y_WP:	0.500	X:	-0.235	Y:	-0.240	Z:	0.047	yaw:	37.797	yaw rate:	-12.745	Roll:	-10.094	Pitch:	-2.543	Yaw:	52.315	Thrust:	100.000
Time:	5.922	Roll Set Point:	0.568	Pitch Set Point:	0.285	Yaw Set Point:	-0.661	X_WP:	0.000	Y_WP:	0.000	Y_WP:	0.500	X:	-0.235	Y:	-0.240	Z:	0.047	yaw:	37.898	yaw rate:	10.119	Roll:	-10.341	Pitch:	-1.061	Yaw:	56.173	Thrust:	100.000
Time:	5.937	Roll Set Point:	0.568	Pitch Set Point:	0.285	Yaw Set Point:	-0.661	X_WP:	0.000	Y_WP:	0.000	Y_WP:	0.500	X:	-0.235	Y:	-0.240	Z:	0.047	yaw:	37.859	yaw rate:	-3.932	Roll:	-10.242	Pitch:	-1.986	Yaw:	53.764	Thrust:	100.000
Time:	5.953	Roll Set Point:	0.568	Pitch Set Point:	0.285	Yaw Set Point:	-0.660	X_WP:	0.000	Y_WP:	0.000	Y_WP:	0.500	X:	-0.235	Y:	-0.240	Z:	0.047	yaw:	37.842	yaw rate:	-1.608	Roll:	-10.213	Pitch:	-1.863	Yaw:	54.131	Thrust:	100.000
Time:	5.969	Roll Set Point:	0.568	Pitch Set Point:	0.285	Yaw Set Point:	-0.661	X_WP:	0.000	Y_WP:	0.000	Y_WP:	0.500	X:	-0.235	Y:	-0.240	Z:	0.047	yaw:	37.875	yaw rate:	3.273	Roll:	-10.404	Pitch:	-1.715	Yaw:	54.997	Thrust:	100.000
Time:	5.984	Roll Set Point:	0.568	Pitch Set Point:	0.285	Yaw Set Point:	-0.661	X_WP:	0.000	Y_WP:	0.000	Y_WP:	0.500	X:	-0.235	Y:	-0.240	Z:	0.047	yaw:	37.851	yaw rate:	-2.446	Roll:	-10.057	Pitch:	-1.672	Yaw:	53.999	Thrust:	100.000
Time:	6.000	Roll Set Point:	0.568	Pitch Set Point:	0.285	Yaw Set Point:	-0.661	X_WP:	0.000	Y_WP:	0.000	Y_WP:	0.500	X:	-0.235	Y:	-0.240	Z:	0.047	yaw:	37.857	yaw rate:	0.641	Roll:	-10.329	Pitch:	-1.761	Yaw:	54.528	Thrust:	100.000
Time:	6.016	Roll Set Point:	0.227	Pitch Set Point:	0.178	Yaw Set Point:	-0.661	X_WP:	-0.204	Y_WP:	-0.294	Y_WP:	0.500	X:	-0.235	Y:	-0.240	Z:	0.047	yaw:	37.857	yaw rate:	0.641	Roll:	30.000	Pitch:	30.000	Yaw:	54.424	Thrust:	100.000
Time:	6.031	Roll Set Point:	0.227	Pitch Set Point:	0.178	Yaw Set Point:	-0.661	X_WP:	-0.204	Y_WP:	-0.294	Y_WP:	0.500	X:	-0.235	Y:	-0.240	Z:	0.047	yaw:	37.891	yaw rate:	0.300	Roll:	-0.301	Pitch:	1.351	Yaw:	55.034	Thrust:	100.000
Time:	6.047	Roll Set Point:	0.227	Pitch Set Point:	0.178	Yaw Set Point:	-0.661	X_WP:	-0.204	Y_WP:	-0.294	Y_WP:	0.500	X:	-0.235	Y:	-0.240	Z:	0.047	yaw:	37.860	yaw rate:	-3.113	Roll:	-0.377	Pitch:	1.364	Yaw:	53.904	Thrust:	100.000
Time:	6.062	Roll Set Point:	0.227	Pitch Set Point:	0.178	Yaw Set Point:	-0.660	X_WP:	-0.204	Y_WP:	-0.294	Y_WP:	0.500	X:	-0.235	Y:	-0.240	Z:	0.047	yaw:	37.814	yaw rate:	-4.595	Roll:	-0.407	Pitch:	1.367	Yaw:	53.591	Thrust:	100.000
