Time:	2.347	Roll Set Point:	-0.002	Pitch Set Point:	0.006	Yaw Set Point:	-2.962	X_WP:	0.000	Y_WP:	0.000	Y_WP:	0.500	X:	0.035	Y:	0.010	Z:	0.048	yaw:	169.685	yaw rate:	5.343	Roll:	-0.948	Pitch:	-0.469	Yaw:	236.925	Thrust:	24.836
Time:	2.802	Roll Set Point:	-0.002	Pitch Set Point:	0.006	Yaw Set Point:	-2.961	X_WP:	0.000	Y_WP:	0.000	Y_WP:	0.500	X:	0.035	Y:	0.010	Z:	0.048	yaw:	169.674	yaw rate:	-0.046	Roll:	-0.983	Pitch:	-0.486	Yaw:	263.866	Thrust:	49.500
Time:	2.882	Roll Set Point:	-0.002	Pitch Set Point:	0.006	Yaw Set Point:	-2.961	X_WP:	0.000	Y_WP:	0.000	Y_WP:	0.500	X:	0.035	Y:	0.010	Z:	0.048	yaw:	169.669	yaw rate:	0.183	Roll:	-0.962	Pitch:	-0.480	Yaw:	244.875	Thrust:	33.504
Time:	2.956	Roll Set Point:	-0.002	Pitch Set Point:	0.006	Yaw Set Point:	-2.960	X_WP:	0.000	Y_WP:	0.000	Y_WP:	0.500	X:	0.035	Y:	0.010	Z:	0.048	yaw:	169.624	yaw rate:	-6.092	Roll:	-0.969	Pitch:	-0.498	Yaw:	243.996	Thrust:	36.715
Time:	3.044	Roll Set Point:	-0.002	Pitch Set Point:	0.006	Yaw Set Point:	-2.961	X_WP:	0.000	Y_WP:	0.000	Y_WP:	0.500	X:	0.035	Y:	0.010	Z:	0.048	yaw:	169.673	yaw rate:	0.649	Roll:	-0.972	Pitch:	-0.461	Yaw:	245.876	Thrust:	43.956
Time:	3.222	Roll Set Point:	-0.002	Pitch Set Point:	0.006	Yaw Set Point:	-2.962	X_WP:	0.000	Y_WP:	0.000	Y_WP:	0.500	X:	0.035	Y:	0.010	Z:	0.048	yaw:	169.687	yaw rate:	2.014	Roll:	-1.019	Pitch:	-0.504	Yaw:	254.796	Thrust:	72.929
Time:	3.319	Roll Set Point:	-0.002	Pitch Set Point:	0.006	Yaw Set Point:	-2.961	X_WP:	0.000	Y_WP:	0.000	Y_WP:	0.500	X:	0.035	Y:	0.010	Z:	0.048	yaw:	169.662	yaw rate:	-0.748	Roll:	-0.998	Pitch:	-0.498	Yaw:	246.554	Thrust:	56.770
Time:	3.415	Roll Set Point:	-0.002	Pitch Set Point:	0.006	Yaw Set Point:	-2.961	X_WP:	0.000	Y_WP:	0.000	Y_WP:	0.500	X:	0.035	Y:	0.010	Z:	0.048	yaw:	169.660	yaw rate:	-2.467	Roll:	-1.001	Pitch:	-0.494	Yaw:	246.409	Thrust:	60.968
Time:	3.525	Roll Set Point:	-0.002	Pitch Set Point:	0.006	Yaw Set Point:	-2.961	X_WP:	0.000	Y_WP:	0.000	Y_WP:	0.500	X:	0.035	Y:	0.010	Z:	0.048	yaw:	169.639	yaw rate:	-4.684	Roll:	-1.025	Pitch:	-0.517	Yaw:	247.840	Thrust:	72.639
Time:	3.607	Roll Set Point:	-0.002	Pitch Set Point:	0.006	Yaw Set Point:	-2.962	X_WP:	0.000	Y_WP:	0.000	Y_WP:	0.500	X:	0.035	Y:	0.010	Z:	0.048	yaw:	169.684	yaw rate:	1.020	Roll:	-1.004	Pitch:	-0.481	Yaw:	245.291	Thrust:	64.935
Time:	4.139	Roll Set Point:	-0.002	Pitch Set Point:	0.006	Yaw Set Point:	-2.961	X_WP:	0.000	Y_WP:	0.000	Y_WP:	0.500	X:	0.035	Y:	0.010	Z:	0.048	yaw:	169.680	yaw rate:	0.646	Roll:	-1.381	Pitch:	-0.682	Yaw:	290.048	Thrust:	100.000
Time:	4.229	Roll Set Point:	-0.002	Pitch Set Point:	0.006	Yaw Set Point:	-2.961	X_WP:	0.000	Y_WP:	0.000	Y_WP:	0.500	X:	0.035	Y:	0.010	Z:	0.048	yaw:	169.634	yaw rate:	-1.512	Roll:	-1.032	Pitch:	-0.525	Yaw:	245.750	Thrust:	78.637
Time:	4.316	Roll Set Point:	-0.002	Pitch Set Point:	0.006	Yaw Set Point:	-2.961	X_WP:	0.000	Y_WP:	0.000	Y_WP:	0.500	X:	0.035	Y:	0.010	Z:	0.048	yaw:	169.640	yaw rate:	-3.700	Roll:	-1.031	Pitch:	-0.512	Yaw:	245.538	Thrust:	81.117
Time:	4.401	Roll Set Point:	-0.002	Pitch Set Point:	0.006	Yaw Set Point:	-2.961	X_WP:	0.000	Y_WP:	0.000	Y_WP:	0.500	X:	0.035	Y:	0.010	Z:	0.048	yaw:	169.662	yaw rate:	-0.708	Roll:	-1.032	Pitch:	-0.505	Yaw:	245.497	Thrust:	85.010
Time:	4.508	Roll Set Point:	-0.002	Pitch Set Point:	0.006	Yaw Set Point:	-2.961	X_WP:	0.000	Y_WP:	0.000	Y_WP:	0.500	X:	0.035	Y:	0.010	Z:	0.048	yaw:	169.640	yaw rate:	0.641	Roll:	-1.076	Pitch:	-0.537	Yaw:	247.514	Thrust:	100.000
Time:	4.622	Roll Set Point:	-0.002	Pitch Set Point:	0.006	Yaw Set Point:	-2.961	X_WP:	0.000	Y_WP:	0.000	Y_WP:	0.500	X:	0.035	Y:	0.010	Z:	0.048	yaw:	169.677	yaw rate:	4.412	Roll:	-1.086	Pitch:	-0.529	Yaw:	248.430	Thrust:	100.000
Time:	4.710	Roll Set Point:	-0.002	Pitch Set Point:	0.006	Yaw Set Point:	-2.961	X_WP:	0.000	Y_WP:	0.000	Y_WP:	0.500	X:	0.035	Y:	0.010	Z:	0.048	yaw:	169.673	yaw rate:	-0.883	Roll:	-1.057	Pitch:	-0.520	Yaw:	245.717	Thrust:	100.000
Time:	4.797	Roll Set Point:	-0.002	Pitch Set Point:	0.006	Yaw Set Point:	-2.960	X_WP:	0.000	Y_WP:	0.000	Y_WP:	0.500	X:	0.035	Y:	0.010	Z:	0.048	yaw:	169.617	yaw rate:	-6.009	Roll:	-1.077	Pitch:	-0.548	Yaw:	245.284	Thrust:	100.000
Time:	4.896	Roll Set Point:	-0.002	Pitch Set Point:	0.006	Yaw Set Point:	-2.961	X_WP:	0.000	Y_WP:	0.000	Y_WP:	0.500	X:	0.035	Y:	0.010	Z:	0.048	yaw:	169.673	yaw rate:	3.123	Roll:	-1.088	Pitch:	-0.529	Yaw:	246.981	Thrust:	100.000
Time:	4.979	Roll Set Point:	-0.002	Pitch Set Point:	0.006	Yaw Set Point:	-2.962	X_WP:	0.000	Y_WP:	0.000	Y_WP:	0.500	X:	0.035	Y:	0.010	Z:	0.048	yaw:	169.687	yaw rate:	1.983	Roll:	-1.075	Pitch:	-0.526	Yaw:	245.247	Thrust:	100.000
Time:	5.058	Roll Set Point:	-0.002	Pitch Set Point:	0.006	Yaw Set Point:	-2.961	X_WP:	0.000	Y_WP:	0.000	Y_WP:	0.500	X:	0.035	Y:	0.010	Z:	0.048	yaw:	169.667	yaw rate:	4.072	Roll:	-1.075	Pitch:	-0.539	Yaw:	244.752	Thrust:	100.000
Time:	5.156	Roll Set Point:	-0.002	Pitch Set Point:	0.006	Yaw Set Point:	-2.961	X_WP:	0.000	Y_WP:	0.000	Y_WP:	0.500	X:	0.035	Y:	0.010	Z:	0.048	yaw:	169.678	yaw rate:	0.907	Roll:	-1.118	Pitch:	-0.549	Yaw:	246.774	Thrust:	100.000
Time:	5.238	Roll Set Point:	-0.002	Pitch Set Point:	0.006	Yaw Set Point:	-2.961	X_WP:	0.000	Y_WP:	0.000	Y_WP:	0.500	X:	0.035	Y:	0.010	Z:	0.048	yaw:	169.671	yaw rate:	-0.745	Roll:	-1.094	Pitch:	-0.543	Yaw:	245.102	Thrust:	100.000
Time:	5.316	Roll Set Point:	-0.002	Pitch Set Point:	0.006	Yaw Set Point:	-2.961	X_WP:	0.000	Y_WP:	0.000	Y_WP:	0.500	X:	0.035	Y:	0.010	Z:	0.048	yaw:	169.645	yaw rate:	-3.371	Roll:	-1.100	Pitch:	-0.558	Yaw:	244.503	Thrust:	100.000
Time:	5.404	Roll Set Point:	-0.002	Pitch Set Point:	0.006	Yaw Set Point:	-2.961	X_WP:	0.000	Y_WP:	0.000	Y_WP:	0.500	X:	0.035	Y:	0.010	Z:	0.048	yaw:	169.681	yaw rate:	5.482	Roll:	-1.119	Pitch:	-0.538	Yaw:	245.851	Thrust:	100.000
Time:	5.497	Roll Set Point:	-0.002	Pitch Set Point:	0.006	Yaw Set Point:	-2.961	X_WP:	0.000	Y_WP:	0.000	Y_WP:	0.500	X:	0.035	Y:	0.010	Z:	0.048	yaw:	169.665	yaw rate:	2.942	Roll:	-1.135	Pitch:	-0.564	Yaw:	246.176	Thrust:	100.000
Time:	5.571	Roll Set Point:	-0.002	Pitch Set Point:	0.006	Yaw Set Point:	-2.961	X_WP:	0.000	Y_WP:	0.000	Y_WP:	0.500	X:	0.035	Y:	0.010	Z:	0.048	yaw:	169.679	yaw rate:	4.287	Roll:	-1.103	Pitch:	-0.549	Yaw:	244.384	Thrust:	100.000
Time:	5.665	Roll Set Point:	-0.002	Pitch Set Point:	0.006	Yaw Set Point:	-2.961	X_WP:	0.000	Y_WP:	0.000	Y_WP:	0.500	X:	0.035	Y:	0.010	Z:	0.048	yaw:	169.680	yaw rate:	2.104	Roll:	-1.150	Pitch:	-0.569	Yaw:	246.348	Thrust:	100.000
Time:	5.736	Roll Set Point:	-0.002	Pitch Set Point:	0.006	Yaw Set Point:	-2.961	X_WP:	0.000	Y_WP:	0.000	Y_WP:	0.500	X:	0.035	Y:	0.010	Z:	0.048	yaw:	169.639	yaw rate:	-3.896	Roll:	-1.118	Pitch:	-0.568	Yaw:	243.783	Thrust:	100.000
Time:	5.810	Roll Set Point:	-0.002	Pitch Set Point:	0.006	Yaw Set Point:	-2.961	X_WP:	0.000	Y_WP:	0.000	Y_WP:	0.500	X:	0.035	Y:	0.010	Z:	0.048	yaw:	169.673	yaw rate:	3.712	Roll:	-1.123	Pitch:	-0.538	Yaw:	244.392	Thrust:	100.000
Time:	5.896	Roll Set Point:	-0.002	Pitch Set Point:	0.006	Yaw Set Point:	-2.961	X_WP:	0.000	Y_WP:	0.000	Y_WP:	0.500	X:	0.035	Y:	0.010	Z:	0.048	yaw:	169.675	yaw rate:	0.221	Roll:	-1.154	Pitch:	-0.571	Yaw:	245.541	Thrust:	100.000
Time:	5.966	Roll Set Point:	-0.002	Pitch Set Point:	0.006	Yaw Set Point:	-2.961	X_WP:	0.000	Y_WP:	0.000	Y_WP:	0.500	X:	0.035	Y:	0.010	Z:	0.048	yaw:	169.665	yaw rate:	1.092	Roll:	-1.129	Pitch:	-0.557	Yaw:	243.874	Thrust:	100.000
Time:	6.055	Roll Set Point:	-0.060	Pitch Set Point:	-0.067	Yaw Set Point:	-2.961	X_WP:	0.070	Y_WP:	0.061	Y_WP:	0.500	X:	0.035	Y:	0.010	Z:	0.048	yaw:	169.671	yaw rate:	-0.197	Roll:	11.703	Pitch:	15.462	Yaw:	245.848	Thrust:	100.000
Time:	6.133	Roll Set Point:	-0.062	Pitch Set Point:	-0.066	Yaw Set Point:	-2.961	X_WP:	0.071	Y_WP:	0.061	Y_WP:	0.500	X:	0.035	Y:	0.010	Z:	0.048	yaw:	169.680	yaw rate:	0.590	Roll:	0.876	Pitch:	1.410	Yaw:	244.669	Thrust:	100.000
Time:	6.226	Roll Set Point:	-0.063	Pitch Set Point:	-0.066	Yaw Set Point:	-2.961	X_WP:	0.072	Y_WP:	0.060	Y_WP:	0.500	X:	0.035	Y:	0.010	Z:	0.048	yaw:	169.681	yaw rate:	-0.184	Roll:	0.731	Pitch:	1.449	Yaw:	246.296	Thrust:	100.000
Time:	6.309	Roll Set Point:	-0.064	Pitch Set Point:	-0.065	Yaw Set Point:	-2.961	X_WP:	0.073	Y_WP:	0.059	Y_WP:	0.500	X:	0.035	Y:	0.010	Z:	0.048	yaw:	169.638	yaw rate:	-4.642	Roll:	0.850	Pitch:	1.423	Yaw:	244.945	Thrust:	100.000
Time:	6.384	Roll Set Point:	-0.065	Pitch Set Point:	-0.065	Yaw Set Point:	-2.962	X_WP:	0.074	Y_WP:	0.059	Y_WP:	0.500	X:	0.035	Y:	0.010	Z:	0.048	yaw:	169.691	yaw rate:	4.582	Roll:	0.942	Pitch:	1.399	Yaw:	244.638	Thrust:	100.000
Time:	6.458	Roll Set Point:	-0.066	Pitch Set Point:	-0.064	Yaw Set Point:	-2.961	X_WP:	0.075	Y_WP:	0.058	Y_WP:	0.500	X:	0.035	Y:	0.010	Z:	0.048	yaw:	169.670	yaw rate:	-0.639	Roll:	0.922	Pitch:	1.422	Yaw:	244.250	Thrust:	100.000
Time:	6.543	Roll Set Point:	-0.067	Pitch Set Point:	-0.064	Yaw Set Point:	-2.961	X_WP:	0.076	Y_WP:	0.057	Y_WP:	0.500	X:	0.035	Y:	0.010	Z:	0.048	yaw:	169.630	yaw rate:	-3.450	Roll:	0.870	Pitch:	1.438	Yaw:	245.247	Thrust:	100.000
Time:	6.635	Roll Set Point:	-0.067	Pitch Set Point:	-0.063	Yaw Set Point:	-2.961	X_WP:	0.076	Y_WP:	0.057	Y_WP:	0.500	X:	0.035	Y:	0.010	Z:	0.048	yaw:	169.678	yaw rate:	-0.478	Roll:	0.913	Pitch:	1.423	Yaw:	246.254	Thrust:	100.000
Time:	6.722	Roll Set Point:	-0.068	Pitch Set Point:	-0.063	Yaw Set Point:	-2.961	X_WP:	0.077	Y_WP:	0.056	Y_WP:	0.500	X:	0.035	Y:	0.010	Z:	0.048	yaw:	169.651	yaw rate:	-1.664	Roll:	0.999	Pitch:	1.379	Yaw:	245.417	Thrust:	100.000
Time:	6.801	Roll Set Point:	-0.069	Pitch Set Point:	-0.062	Yaw Set Point:	-2.961	X_WP:	0.078	Y_WP:	0.055	Y_WP:	0.500	X:	0.035	Y:	0.010	Z:	0.048	yaw:	169.674	yaw rate:	3.551	Roll:	1.011	Pitch:	1.394	Yaw:	244.906	Thrust:	100.000
Time:	6.903	Roll Set Point:	-0.070	Pitch Set Point:	-0.061	Yaw Set Point:	-2.961	X_WP:	0.079	Y_WP:	0.054	Y_WP:	0.500	X:	0.035	Y:	0.010	Z:	0.048	yaw:	169.659	yaw rate:	-2.341	Roll:	1.018	Pitch:	1.377	Yaw:	247.079	Thrust:	100.000
Time:	6.980	Roll Set Point:	-0.071	Pitch Set Point:	-0.061	Yaw Set Point:	-2.961	X_WP:	0.080	Y_WP:	0.053	Y_WP:	0.500	X:	0.035	Y:	0.010	Z:	0.048	yaw:	169.674	yaw rate:	-0.785	Roll:	1.119	Pitch:	1.344	Yaw:	244.682	Thrust:	100.000
Time:	7.061	Roll Set Point:	-0.072	Pitch Set Point:	-0.060	Yaw Set Point:	-2.961	X_WP:	0.081	Y_WP:	0.053	Y_WP:	0.500	X:	0.035	Y:	0.010	Z:	0.048	yaw:	169.655	yaw rate:	-2.950	Roll:	1.142	Pitch:	1.334	Yaw:	244.943	Thrust:	100.000
Time:	7.165	Roll Set Point:	-0.073	Pitch Set Point:	-0.060	Yaw Set Point:	-2.961	X_WP:	0.081	Y_WP:	0.052	Y_WP:	0.500	X:	0.035	Y:	0.010	Z:	0.048	yaw:	169.669	yaw rate:	3.113	Roll:	1.050	Pitch:	1.398	Yaw:	247.265	Thrust:	100.000
Time:	7.267	Roll Set Point:	-0.074	Pitch Set Point:	-0.059	Yaw Set Point:	-2.961	X_WP:	0.082	Y_WP:	0.051	Y_WP:	0.500	X:	0.035	Y:	0.010	Z:	0.048	yaw:	169.678	yaw rate:	-1.058	Roll:	1.188	Pitch:	1.303	Yaw:	247.197	Thrust:	100.000
Time:	7.357	Roll Set Point:	-0.075	Pitch Set Point:	-0.058	Yaw Set Point:	-2.961	X_WP:	0.083	Y_WP:	0.050	Y_WP:	0.500	X:	0.035	Y:	0.010	Z:	0.048	yaw:	169.670	yaw rate:	-1.200	Roll:	1.207	Pitch:	1.308	Yaw:	245.801	Thrust:	100.000
Time:	7.478	Roll Set Point:	-0.076	Pitch Set Point:	-0.057	Yaw Set Point:	-2.961	X_WP:	0.084	Y_WP:	0.049	Y_WP:	0.500	X:	0.035	Y:	0.010	Z:	0.048	yaw:	169.674	yaw rate:	-0.944	Roll:	1.166	Pitch:	1.350	Yaw:	249.053	Thrust:	100.000
Time:	7.579	Roll Set Point:	-0.077	Pitch Set Point:	-0.056	Yaw Set Point:	-2.962	X_WP:	0.085	Y_WP:	0.048	Y_WP:	0.500	X:	0.035	Y:	0.010	Z:	0.048	yaw:	169.683	yaw rate:	1.870	Roll:	1.305	Pitch:	1.243	Yaw:	246.970	Thrust:	100.000
Time:	7.673	Roll Set Point:	-0.078	Pitch Set Point:	-0.055	Yaw Set Point:	-2.961	X_WP:	0.086	Y_WP:	0.046	Y_WP:	0.500	X:	0.035	Y:	0.010	Z:	0.048	yaw:	169.639	yaw rate:	-3.540	Roll:	1.349	Pitch:	1.218	Yaw:	246.267	Thrust:	100.000
Time:	7.770	Roll Set Point:	-0.079	Pitch Set Point:	-0.054	Yaw Set Point:	-2.961	X_WP:	0.086	Y_WP:	0.045	Y_WP:	0.500	X:	0.035	Y:	0.010	Z:	0.048	yaw:	169.666	yaw rate:	-1.955	Roll:	1.336	Pitch:	1.243	Yaw:	246.598	Thrust:	100.000
Time:	7.869	Roll Set Point:	-0.080	Pitch Set Point:	-0.053	Yaw Set Point:	-2.961	X_WP:	0.087	Y_WP:	0.045	Y_WP:	0.500	X:	0.035	Y:	0.010	Z:	0.048	yaw:	169.672	yaw rate:	0.219	Roll:	1.366	Pitch:	1.240	Yaw:	246.849	Thrust:	100.000
Time:	7.964	Roll Set Point:	-0.081	Pitch Set Point:	-0.052	Yaw Set Point:	-2.961	X_WP:	0.088	Y_WP:	0.043	Y_WP:	0.500	X:	0.035	Y:	0.010	Z:	0.048	yaw:	169.662	yaw rate:	1.755	Roll:	1.432	Pitch:	1.158	Yaw:	246.391	Thrust:	100.000
Time:	8.051	Roll Set Point:	-0.082	Pitch Set Point:	-0.051	Yaw Set Point:	-2.961	X_WP:	0.088	Y_WP:	0.042	Y_WP:	0.500	X:	0.035	Y:	0.010	Z:	0.048	yaw:	169.668	yaw rate:	3.682	Roll:	1.452	Pitch:	1.156	Yaw:	245.542	Thrust:	100.000
Time:	8.136	Roll Set Point:	-0.083	Pitch Set Point:	-0.050	Yaw Set Point:	-2.961	X_WP:	0.089	Y_WP:	0.041	Y_WP:	0.500	X:	0.035	Y:	0.010	Z:	0.048	yaw:	169.670	yaw rate:	3.412	Roll:	1.481	Pitch:	1.137	Yaw:	245.332	Thrust:	100.000
Time:	8.241	Roll Set Point:	-0.083	Pitch Set Point:	-0.050	Yaw Set Point:	-2.961	X_WP:	0.089	Y_WP:	0.041	Y_WP:	0.500	X:	0.035	Y:	0.010	Z:	0.048	yaw:	169.640	yaw rate:	-4.017	Roll:	1.431	Pitch:	1.236	Yaw:	247.443	Thrust:	100.000
Time:	8.317	Roll Set Point:	-0.084	Pitch Set Point:	-0.049	Yaw Set Point:	-2.961	X_WP:	0.090	Y_WP:	0.039	Y_WP:	0.500	X:	0.035	Y:	0.010	Z:	0.048	yaw:	169.676	yaw rate:	-1.552	Roll:	1.610	Pitch:	0.995	Yaw:	244.557	Thrust:	100.000
Time:	8.401	Roll Set Point:	-0.085	Pitch Set Point:	-0.048	Yaw Set Point:	-2.961	X_WP:	0.091	Y_WP:	0.039	Y_WP:	0.500	X:	0.035	Y:	0.010	Z:	0.048	yaw:	169.673	yaw rate:	-0.818	Roll:	1.531	Pitch:	1.121	Yaw:	245.325	Thrust:	100.000
Time:	8.501	Roll Set Point:	-0.085	Pitch Set Point:	-0.047	Yaw Set Point:	-2.962	X_WP:	0.091	Y_WP:	0.038	Y_WP:	0.500	X:	0.035	Y:	0.010	Z:	0.048	yaw:	169.682	yaw rate:	1.995	Roll:	1.565	Pitch:	1.120	Yaw:	246.970	Thrust:	100.000
Time:	8.585	Roll Set Point:	-0.086	Pitch Set Point:	-0.046	Yaw Set Point:	-2.961	X_WP:	0.092	Y_WP:	0.036	Y_WP:	0.500	X:	0.035	Y:	0.010	Z:	0.048	yaw:	169.635	yaw rate:	0.645	Roll:	1.639	Pitch:	1.007	Yaw:	245.132	Thrust:	100.000
Time:	8.679	Roll Set Point:	-0.086	Pitch Set Point:	-0.045	Yaw Set Point:	-2.961	X_WP:	0.092	Y_WP:	0.036	Y_WP:	0.500	X:	0.035	Y:	0.010	Z:	0.048	yaw:	169.671	yaw rate:	1.025	Roll:	1.593	Pitch:	1.112	Yaw:	246.429	Thrust:	100.000
Time:	8.749	Roll Set Point:	-0.087	Pitch Set Point:	-0.044	Yaw Set Point:	-2.961	X_WP:	0.092	Y_WP:	0.035	Y_WP:	0.500	X:	0.035	Y:	0.010	Z:	0.048	yaw:	169.631	yaw rate:	-4.123	Roll:	1.695	Pitch:	0.910	Yaw:	243.722	Thrust:	100.000
Time:	8.825	Roll Set Point:	-0.088	Pitch Set Point:	-0.043	Yaw Set Point:	-2.962	X_WP:	0.093	Y_WP:	0.033	Y_WP:	0.500	X:	0.035	Y:	0.010	Z:	0.048	yaw:	169.685	yaw rate:	4.242	Roll:	1.701	Pitch:	0.936	Yaw:	244.633	Thrust:	100.000
Time:	8.909	Roll Set Point:	-0.088	Pitch Set Point:	-0.043	Yaw Set Point:	-2.961	X_WP:	0.093	Y_WP:	0.033	Y_WP:	0.500	X:	0.035	Y:	0.010	Z:	0.048	yaw:	169.642	yaw rate:	-5.140	Roll:	1.673	Pitch:	1.021	Yaw:	245.151	Thrust:	100.000
Time:	8.994	Roll Set Point:	-0.089	Pitch Set Point:	-0.042	Yaw Set Point:	-2.961	X_WP:	0.094	Y_WP:	0.032	Y_WP:	0.500	X:	0.035	Y:	0.010	Z:	0.048	yaw:	169.681	yaw rate:	0.393	Roll:	1.748	Pitch:	0.923	Yaw:	245.563	Thrust:	100.000
Time:	9.069	Roll Set Point:	-0.089	Pitch Set Point:	-0.041	Yaw Set Point:	-2.961	X_WP:	0.094	Y_WP:	0.031	Y_WP:	0.500	X:	0.035	Y:	0.010	Z:	0.048	yaw:	169.676	yaw rate:	-0.664	Roll:	1.763	Pitch:	0.873	Yaw:	244.415	Thrust:	100.000
Time:	9.152	Roll Set Point:	-0.090	Pitch Set Point:	-0.040	Yaw Set Point:	-2.961	X_WP:	0.094	Y_WP:	0.030	Y_WP:	0.500	X:	0.035	Y:	0.010	Z:	0.048	yaw:	169.642	yaw rate:	-2.157	Roll:	1.752	Pitch:	0.940	Yaw:	244.980	Thrust:	100.000
Time:	9.218	Roll Set Point:	-0.090	Pitch Set Point:	-0.039	Yaw Set Point:	-2.961	X_WP:	0.095	Y_WP:	0.029	Y_WP:	0.500	X:	0.035	Y:	0.010	Z:	0.048	yaw:	169.674	yaw rate:	0.718	Roll:	1.799	Pitch:	0.794	Yaw:	243.655	Thrust:	100.000
Time:	9.308	Roll Set Point:	-0.091	Pitch Set Point:	-0.039	Yaw Set Point:	-2.961	X_WP:	0.095	Y_WP:	0.028	Y_WP:	0.500	X:	0.035	Y:	0.010	Z:	0.048	yaw:	169.643	yaw rate:	-0.401	Roll:	1.792	Pitch:	0.951	Yaw:	245.800	Thrust:	100.000
Time:	9.388	Roll Set Point:	-0.091	Pitch Set Point:	-0.038	Yaw Set Point:	-2.961	X_WP:	0.095	Y_WP:	0.027	Y_WP:	0.500	X:	0.035	Y:	0.010	Z:	0.048	yaw:	169.676	yaw rate:	-0.463	Roll:	1.835	Pitch:	0.834	Yaw:	245.034	Thrust:	100.000
Time:	9.489	Roll Set Point:	-0.091	Pitch Set Point:	-0.037	Yaw Set Point:	-2.961	X_WP:	0.095	Y_WP:	0.026	Y_WP:	0.500	X:	0.035	Y:	0.010	Z:	0.048	yaw:	169.674	yaw rate:	-1.151	Roll:	1.859	Pitch:	0.935	Yaw:	247.032	Thrust:	100.000
Time:	9.576	Roll Set Point:	-0.092	Pitch Set Point:	-0.036	Yaw Set Point:	-2.961	X_WP:	0.096	Y_WP:	0.025	Y_WP:	0.500	X:	0.035	Y:	0.010	Z:	0.048	yaw:	169.659	yaw rate:	2.999	Roll:	1.875	Pitch:	0.832	Yaw:	245.464	Thrust:	100.000
Time:	9.664	Roll Set Point:	-0.092	Pitch Set Point:	-0.035	Yaw Set Point:	-2.962	X_WP:	0.096	Y_WP:	0.024	Y_WP:	0.500	X:	0.035	Y:	0.010	Z:	0.048	yaw:	169.687	yaw rate:	0.646	Roll:	1.888	Pitch:	0.850	Yaw:	245.881	Thrust:	100.000
Time:	9.744	Roll Set Point:	-0.093	Pitch Set Point:	-0.034	Yaw Set Point:	-2.961	X_WP:	0.096	Y_WP:	0.023	Y_WP:	0.500	X:	0.035	Y:	0.010	Z:	0.048	yaw:	169.636	yaw rate:	-4.736	Roll:	1.917	Pitch:	0.734	Yaw:	244.610	Thrust:	100.000
Time:	9.815	Roll Set Point:	-0.093	Pitch Set Point:	-0.033	Yaw Set Point:	-2.961	X_WP:	0.096	Y_WP:	0.023	Y_WP:	0.500	X:	0.035	Y:	0.010	Z:	0.048	yaw:	169.641	yaw rate:	-2.716	Roll:	1.899	Pitch:	0.727	Yaw:	243.898	Thrust:	100.000
Time:	9.904	Roll Set Point:	-0.093	Pitch Set Point:	-0.033	Yaw Set Point:	-2.961	X_WP:	0.096	Y_WP:	0.022	Y_WP:	0.500	X:	0.035	Y:	0.010	Z:	0.048	yaw:	169.640	yaw rate:	-3.227	Roll:	1.950	Pitch:	0.798	Yaw:	245.895	Thrust:	100.000
Time:	9.984	Roll Set Point:	-0.094	Pitch Set Point:	-0.031	Yaw Set Point:	-2.961	X_WP:	0.096	Y_WP:	0.021	Y_WP:	0.500	X:	0.035	Y:	0.010	Z:	0.048	yaw:	169.678	yaw rate:	0.510	Roll:	1.980	Pitch:	0.659	Yaw:	245.061	Thrust:	100.000
Time:	10.063	Roll Set Point:	-0.094	Pitch Set Point:	-0.031	Yaw Set Point:	-2.961	X_WP:	0.097	Y_WP:	0.020	Y_WP:	0.500	X:	0.035	Y:	0.010	Z:	0.048	yaw:	169.667	yaw rate:	3.955	Roll:	1.981	Pitch:	0.653	Yaw:	244.682	Thrust:	100.000
Time:	10.153	Roll Set Point:	-0.094	Pitch Set Point:	-0.030	Yaw Set Point:	-2.961	X_WP:	0.097	Y_WP:	0.019	Y_WP:	0.500	X:	0.035	Y:	0.010	Z:	0.048	yaw:	169.668	yaw rate:	3.641	Roll:	2.010	Pitch:	0.731	Yaw:	245.929	Thrust:	100.000
Time:	10.259	Roll Set Point:	-0.095	Pitch Set Point:	-0.029	Yaw Set Point:	-2.961	X_WP:	0.097	Y_WP:	0.018	Y_WP:	0.500	X:	0.035	Y:	0.010	Z:	0.048	yaw:	169.681	yaw rate:	0.523	Roll:	2.074	Pitch:	0.769	Yaw:	247.580	Thrust:	100.000
Time:	10.340	Roll Set Point:	-0.095	Pitch Set Point:	-0.028	Yaw Set Point:	-2.961	X_WP:	0.097	Y_WP:	0.017	Y_WP:	0.500	X:	0.035	Y:	0.010	Z:	0.048	yaw:	169.632	yaw rate:	-4.110	Roll:	2.055	Pitch:	0.552	Yaw:	244.813	Thrust:	100.000
Time:	10.423	Roll Set Point:	-0.095	Pitch Set Point:	-0.027	Yaw Set Point:	-2.961	X_WP:	0.097	Y_WP:	0.016	Y_WP:	0.500	X:	0.035	Y:	0.010	Z:	0.048	yaw:	169.676	yaw rate:	0.379	Roll:	2.053	Pitch:	0.616	Yaw:	245.374	Thrust:	100.000
Time:	10.507	Roll Set Point:	-0.095	Pitch Set Point:	-0.026	Yaw Set Point:	-2.961	X_WP:	0.097	Y_WP:	0.015	Y_WP:	0.500	X:	0.035	Y:	0.010	Z:	0.048	yaw:	169.681	yaw rate:	0.906	Roll:	2.087	Pitch:	0.545	Yaw:	245.254	Thrust:	100.000
Time:	10.597	Roll Set Point:	-0.096	Pitch Set Point:	-0.025	Yaw Set Point:	-2.961	X_WP:	0.097	Y_WP:	0.014	Y_WP:	0.500	X:	0.035	Y:	0.010	Z:	0.048	yaw:	169.673	yaw rate:	0.768	Roll:	2.120	Pitch:	0.559	Yaw:	245.911	Thrust:	100.000
Time:	10.702	Roll Set Point:	-0.096	Pitch Set Point:	-0.024	Yaw Set Point:	-2.961	X_WP:	0.097	Y_WP:	0.012	Y_WP:	0.500	X:	0.035	Y:	0.010	Z:	0.048	yaw:	169.657	yaw rate:	-1.556	Roll:	2.185	Pitch:	0.610	Yaw:	247.396	Thrust:	100.000
Time:	10.825	Roll Set Point:	-0.096	Pitch Set Point:	-0.023	Yaw Set Point:	-2.961	X_WP:	0.097	Y_WP:	0.011	Y_WP:	0.500	X:	0.035	Y:	0.010	Z:	0.048	yaw:	169.649	yaw rate:	-2.109	Roll:	2.267	Pitch:	0.648	Yaw:	249.089	Thrust:	100.000
Time:	10.911	Roll Set Point:	-0.096	Pitch Set Point:	-0.021	Yaw Set Point:	-2.961	X_WP:	0.097	Y_WP:	0.010	Y_WP:	0.500	X:	0.035	Y:	0.010	Z:	0.048	yaw:	169.669	yaw rate:	3.252	Roll:	2.186	Pitch:	0.293	Yaw:	245.586	Thrust:	100.000
Time:	11.036	Roll Set Point:	-0.097	Pitch Set Point:	-0.020	Yaw Set Point:	-2.962	X_WP:	0.097	Y_WP:	0.009	Y_WP:	0.500	X:	0.035	Y:	0.010	Z:	0.048	yaw:	169.685	yaw rate:	2.709	Roll:	2.315	Pitch:	0.615	Yaw:	249.492	Thrust:	100.000
Time:	11.132	Roll Set Point:	-0.097	Pitch Set Point:	-0.018	Yaw Set Point:	-2.961	X_WP:	0.097	Y_WP:	0.007	Y_WP:	0.500	X:	0.035	Y:	0.010	Z:	0.048	yaw:	169.677	yaw rate:	4.929	Roll:	2.231	Pitch:	0.361	Yaw:	246.435	Thrust:	100.000
Time:	11.232	Roll Set Point:	-0.097	Pitch Set Point:	-0.017	Yaw Set Point:	-2.961	X_WP:	0.097	Y_WP:	0.006	Y_WP:	0.500	X:	0.035	Y:	0.010	Z:	0.048	yaw:	169.673	yaw rate:	3.788	Roll:	2.274	Pitch:	0.326	Yaw:	246.926	Thrust:	100.000
Time:	11.349	Roll Set Point:	-0.097	Pitch Set Point:	-0.016	Yaw Set Point:	-2.962	X_WP:	0.097	Y_WP:	0.004	Y_WP:	0.500	X:	0.035	Y:	0.010	Z:	0.048	yaw:	169.686	yaw rate:	1.221	Roll:	2.344	Pitch:	0.438	Yaw:	248.647	Thrust:	100.000
Time:	11.464	Roll Set Point:	-0.097	Pitch Set Point:	-0.014	Yaw Set Point:	-2.961	X_WP:	0.097	Y_WP:	0.003	Y_WP:	0.500	X:	0.035	Y:	0.010	Z:	0.048	yaw:	169.641	yaw rate:	1.008	Roll:	2.366	Pitch:	0.375	Yaw:	248.293	Thrust:	100.000
Time:	11.567	Roll Set Point:	-0.097	Pitch Set Point:	-0.013	Yaw Set Point:	-2.961	X_WP:	0.097	Y_WP:	0.002	Y_WP:	0.500	X:	0.035	Y:	0.010	Z:	0.048	yaw:	169.635	yaw rate:	-3.712	Roll:	2.312	Pitch:	0.215	Yaw:	246.964	Thrust:	100.000
Time:	11.665	Roll Set Point:	-0.097	Pitch Set Point:	-0.011	Yaw Set Point:	-2.962	X_WP:	0.097	Y_WP:	0.000	Y_WP:	0.500	X:	0.035	Y:	0.010	Z:	0.048	yaw:	169.684	yaw rate:	4.781	Roll:	2.308	Pitch:	0.194	Yaw:	246.882	Thrust:	100.000
Time:	11.765	Roll Set Point:	-0.097	Pitch Set Point:	-0.010	Yaw Set Point:	-2.961	X_WP:	0.096	Y_WP:	-0.001	Y_WP:	0.500	X:	0.035	Y:	0.010	Z:	0.048	yaw:	169.672	yaw rate:	-0.188	Roll:	2.329	Pitch:	0.217	Yaw:	247.002	Thrust:	100.000
Time:	11.860	Roll Set Point:	-0.097	Pitch Set Point:	-0.009	Yaw Set Point:	-2.961	X_WP:	0.096	Y_WP:	-0.002	Y_WP:	0.500	X:	0.035	Y:	0.010	Z:	0.048	yaw:	169.675	yaw rate:	-0.725	Roll:	2.320	Pitch:	0.150	Yaw:	246.446	Thrust:	100.000
Time:	11.971	Roll Set Point:	-0.097	Pitch Set Point:	-0.008	Yaw Set Point:	-2.960	X_WP:	0.096	Y_WP:	-0.003	Y_WP:	0.500	X:	0.035	Y:	0.010	Z:	0.048	yaw:	169.623	yaw rate:	-1.667	Roll:	2.408	Pitch:	0.236	Yaw:	247.745	Thrust:	100.000
Time:	12.382	Roll Set Point:	-0.097	Pitch Set Point:	-0.007	Yaw Set Point:	-2.962	X_WP:	0.096	Y_WP:	-0.004	Y_WP:	0.500	X:	0.035	Y:	0.010	Z:	0.048	yaw:	169.686	yaw rate:	3.060	Roll:	4.111	Pitch:	1.466	Yaw:	278.069	Thrust:	100.000
Time:	12.460	Roll Set Point:	-0.097	Pitch Set Point:	-0.003	Yaw Set Point:	-2.961	X_WP:	0.095	Y_WP:	-0.008	Y_WP:	0.500	X:	0.035	Y:	0.010	Z:	0.048	yaw:	169.669	yaw rate:	-0.215	Roll:	2.186	Pitch:	-0.800	Yaw:	244.663	Thrust:	100.000
Time:	12.539	Roll Set Point:	-0.097	Pitch Set Point:	-0.002	Yaw Set Point:	-2.961	X_WP:	0.095	Y_WP:	-0.009	Y_WP:	0.500	X:	0.035	Y:	0.010	Z:	0.048	yaw:	169.671	yaw rate:	3.957	Roll:	2.249	Pitch:	-0.071	Yaw:	244.866	Thrust:	100.000
Time:	12.653	Roll Set Point:	-0.097	Pitch Set Point:	-0.001	Yaw Set Point:	-2.961	X_WP:	0.094	Y_WP:	-0.009	Y_WP:	0.500	X:	0.035	Y:	0.010	Z:	0.048	yaw:	169.673	yaw rate:	2.554	Roll:	2.450	Pitch:	0.035	Yaw:	248.144	Thrust:	100.000
Time:	12.724	Roll Set Point:	-0.097	Pitch Set Point:	-0.000	Yaw Set Point:	-2.962	X_WP:	0.094	Y_WP:	-0.011	Y_WP:	0.500	X:	0.035	Y:	0.010	Z:	0.048	yaw:	169.697	yaw rate:	5.720	Roll:	2.193	Pitch:	-0.317	Yaw:	244.244	Thrust:	100.000
Time:	12.813	Roll Set Point:	-0.097	Pitch Set Point:	0.000	Yaw Set Point:	-2.961	X_WP:	0.094	Y_WP:	-0.011	Y_WP:	0.500	X:	0.035	Y:	0.010	Z:	0.048	yaw:	169.642	yaw rate:	-2.389	Roll:	2.334	Pitch:	-0.091	Yaw:	245.630	Thrust:	100.000
Time:	12.907	Roll Set Point:	-0.096	Pitch Set Point:	0.002	Yaw Set Point:	-2.961	X_WP:	0.093	Y_WP:	-0.012	Y_WP:	0.500	X:	0.035	Y:	0.010	Z:	0.048	yaw:	169.672	yaw rate:	0.585	Roll:	2.356	Pitch:	-0.194	Yaw:	246.414	Thrust:	100.000
Time:	12.999	Roll Set Point:	-0.096	Pitch Set Point:	0.003	Yaw Set Point:	-2.961	X_WP:	0.093	Y_WP:	-0.013	Y_WP:	0.500	X:	0.035	Y:	0.010	Z:	0.048	yaw:	169.680	yaw rate:	0.782	Roll:	2.346	Pitch:	-0.207	Yaw:	246.063	Thrust:	100.000
Time:	13.109	Roll Set Point:	-0.096	Pitch Set Point:	0.004	Yaw Set Point:	-2.961	X_WP:	0.092	Y_WP:	-0.014	Y_WP:	0.500	X:	0.035	Y:	0.010	Z:	0.048	yaw:	169.659	yaw rate:	-2.344	Roll:	2.484	Pitch:	-0.167	Yaw:	247.870	Thrust:	100.000
Time:	13.209	Roll Set Point:	-0.096	Pitch Set Point:	0.005	Yaw Set Point:	-2.961	X_WP:	0.092	Y_WP:	-0.016	Y_WP:	0.500	X:	0.035	Y:	0.010	Z:	0.048	yaw:	169.668	yaw rate:	0.521	Roll:	2.415	Pitch:	-0.270	Yaw:	246.890	Thrust:	100.000
Time:	13.298	Roll Set Point:	-0.095	Pitch Set Point:	0.006	Yaw Set Point:	-2.961	X_WP:	0.091	Y_WP:	-0.017	Y_WP:	0.500	X:	0.035	Y:	0.010	Z:	0.048	yaw:	169.677	yaw rate:	1.097	Roll:	2.316	Pitch:	-0.390	Yaw:	245.866	Thrust:	100.000
Time:	13.377	Roll Set Point:	-0.095	Pitch Set Point:	0.007	Yaw Set Point:	-2.962	X_WP:	0.091	Y_WP:	-0.018	Y_WP:	0.500	X:	0.035	Y:	0.010	Z:	0.048	yaw:	169.688	yaw rate:	6.258	Roll:	2.259	Pitch:	-0.453	Yaw:	244.885	Thrust:	100.000
Time:	13.466	Roll Set Point:	-0.095	Pitch Set Point:	0.008	Yaw Set Point:	-2.961	X_WP:	0.090	Y_WP:	-0.019	Y_WP:	0.500	X:	0.035	Y:	0.010	Z:	0.048	yaw:	169.666	yaw rate:	3.129	Roll:	2.340	Pitch:	-0.380	Yaw:	245.656	Thrust:	100.000
Time:	13.543	Roll Set Point:	-0.094	Pitch Set Point:	0.009	Yaw Set Point:	-2.961	X_WP:	0.090	Y_WP:	-0.019	Y_WP:	0.500	X:	0.035	Y:	0.010	Z:	0.048	yaw:	169.680	yaw rate:	0.726	Roll:	2.241	Pitch:	-0.500	Yaw:	244.686	Thrust:	100.000
Time:	13.632	Roll Set Point:	-0.094	Pitch Set Point:	0.010	Yaw Set Point:	-2.961	X_WP:	0.090	Y_WP:	-0.020	Y_WP:	0.500	X:	0.035	Y:	0.010	Z:	0.048	yaw:	169.664	yaw rate:	0.054	Roll:	2.349	Pitch:	-0.445	Yaw:	245.775	Thrust:	100.000
Time:	13.727	Roll Set Point:	-0.094	Pitch Set Point:	0.011	Yaw Set Point:	-2.961	X_WP:	0.089	Y_WP:	-0.021	Y_WP:	0.500	X:	0.035	Y:	0.010	Z:	0.048	yaw:	169.678	yaw rate:	4.547	Roll:	2.397	Pitch:	-0.440	Yaw:	246.376	Thrust:	100.000
Time:	13.839	Roll Set Point:	-0.093	Pitch Set Point:	0.012	Yaw Set Point:	-2.961	X_WP:	0.089	Y_WP:	-0.022	Y_WP:	0.500	X:	0.035	Y:	0.010	Z:	0.048	yaw:	169.639	yaw rate:	-2.317	Roll:	2.549	Pitch:	-0.412	Yaw:	248.103	Thrust:	100.000
Time:	13.944	Roll Set Point:	-0.093	Pitch Set Point:	0.013	Yaw Set Point:	-2.962	X_WP:	0.088	Y_WP:	-0.023	Y_WP:	0.500	X:	0.035	Y:	0.010	Z:	0.048	yaw:	169.682	yaw rate:	1.411	Roll:	2.458	Pitch:	-0.526	Yaw:	247.556	Thrust:	100.000
Time:	14.033	Roll Set Point:	-0.093	Pitch Set Point:	0.014	Yaw Set Point:	-2.960	X_WP:	0.087	Y_WP:	-0.024	Y_WP:	0.500	X:	0.035	Y:	0.010	Z:	0.048	yaw:	169.618	yaw rate:	-5.350	Roll:	2.337	Pitch:	-0.597	Yaw:	245.466	Thrust:	100.000
Time:	14.145	Roll Set Point:	-0.092	Pitch Set Point:	0.015	Yaw Set Point:	-2.961	X_WP:	0.087	Y_WP:	-0.025	Y_WP:	0.500	X:	0.035	Y:	0.010	Z:	0.048	yaw:	169.671	yaw rate:	3.993	Roll:	2.564	Pitch:	-0.475	Yaw:	248.245	Thrust:	100.000
Time:	14.219	Roll Set Point:	-0.092	Pitch Set Point:	0.016	Yaw Set Point:	-2.961	X_WP:	0.086	Y_WP:	-0.026	Y_WP:	0.500	X:	0.035	Y:	0.010	Z:	0.048	yaw:	169.637	yaw rate:	0.319	Roll:	2.170	Pitch:	-0.783	Yaw:	244.160	Thrust:	100.000
Time:	14.304	Roll Set Point:	-0.091	Pitch Set Point:	0.017	Yaw Set Point:	-2.961	X_WP:	0.086	Y_WP:	-0.026	Y_WP:	0.500	X:	0.035	Y:	0.010	Z:	0.048	yaw:	169.674	yaw rate:	-0.162	Roll:	2.298	Pitch:	-0.683	Yaw:	245.545	Thrust:	100.000
Time:	14.386	Roll Set Point:	-0.091	Pitch Set Point:	0.018	Yaw Set Point:	-2.961	X_WP:	0.085	Y_WP:	-0.027	Y_WP:	0.500	X:	0.035	Y:	0.010	Z:	0.048	yaw:	169.641	yaw rate:	-2.952	Roll:	2.238	Pitch:	-0.782	Yaw:	244.883	Thrust:	100.000
Time:	14.478	Roll Set Point:	-0.091	Pitch Set Point:	0.018	Yaw Set Point:	-2.961	X_WP:	0.085	Y_WP:	-0.028	Y_WP:	0.500	X:	0.035	Y:	0.010	Z:	0.048	yaw:	169.661	yaw rate:	-1.993	Roll:	2.388	Pitch:	-0.669	Yaw:	246.070	Thrust:	100.000
Time:	14.564	Roll Set Point:	-0.090	Pitch Set Point:	0.019	Yaw Set Point:	-2.961	X_WP:	0.084	Y_WP:	-0.029	Y_WP:	0.500	X:	0.035	Y:	0.010	Z:	0.048	yaw:	169.629	yaw rate:	-4.628	Roll:	2.299	Pitch:	-0.780	Yaw:	245.474	Thrust:	100.000
Time:	14.639	Roll Set Point:	-0.090	Pitch Set Point:	0.020	Yaw Set Point:	-2.961	X_WP:	0.083	Y_WP:	-0.030	Y_WP:	0.500	X:	0.035	Y:	0.010	Z:	0.048	yaw:	169.672	yaw rate:	-0.447	Roll:	2.173	Pitch:	-0.887	Yaw:	244.577	Thrust:	100.000
Time:	14.733	Roll Set Point:	-0.089	Pitch Set Point:	0.021	Yaw Set Point:	-2.962	X_WP:	0.083	Y_WP:	-0.030	Y_WP:	0.500	X:	0.035	Y:	0.010	Z:	0.048	yaw:	169.683	yaw rate:	1.219	Roll:	2.380	Pitch:	-0.792	Yaw:	246.378	Thrust:	100.000
Time:	14.808	Roll Set Point:	-0.089	Pitch Set Point:	0.022	Yaw Set Point:	-2.962	X_WP:	0.082	Y_WP:	-0.031	Y_WP:	0.500	X:	0.035	Y:	0.010	Z:	0.048	yaw:	169.683	yaw rate:	4.753	Roll:	2.150	Pitch:	-0.932	Yaw:	244.340	Thrust:	100.000
Time:	14.895	Roll Set Point:	-0.088	Pitch Set Point:	0.023	Yaw Set Point:	-2.961	X_WP:	0.081	Y_WP:	-0.032	Y_WP:	0.500	X:	0.035	Y:	0.010	Z:	0.048	yaw:	169.679	yaw rate:	4.069	Roll:	2.286	Pitch:	-0.887	Yaw:	245.629	Thrust:	100.000
Time:	14.982	Roll Set Point:	-0.088	Pitch Set Point:	0.023	Yaw Set Point:	-2.961	X_WP:	0.081	Y_WP:	-0.032	Y_WP:	0.500	X:	0.035	Y:	0.010	Z:	0.048	yaw:	169.665	yaw rate:	2.926	Roll:	2.324	Pitch:	-0.873	Yaw:	245.579	Thrust:	100.000
Time:	15.078	Roll Set Point:	-0.087	Pitch Set Point:	0.024	Yaw Set Point:	-2.961	X_WP:	0.080	Y_WP:	-0.033	Y_WP:	0.500	X:	0.035	Y:	0.010	Z:	0.048	yaw:	169.670	yaw rate:	-1.449	Roll:	2.379	Pitch:	-0.901	Yaw:	246.444	Thrust:	100.000
Time:	15.160	Roll Set Point:	-0.087	Pitch Set Point:	0.025	Yaw Set Point:	-2.962	X_WP:	0.080	Y_WP:	-0.034	Y_WP:	0.500	X:	0.035	Y:	0.010	Z:	0.048	yaw:	169.687	yaw rate:	1.413	Roll:	2.188	Pitch:	-1.022	Yaw:	245.203	Thrust:	100.000
Time:	15.243	Roll Set Point:	-0.086	Pitch Set Point:	0.026	Yaw Set Point:	-2.962	X_WP:	0.079	Y_WP:	-0.034	Y_WP:	0.500	X:	0.035	Y:	0.010	Z:	0.048	yaw:	169.694	yaw rate:	6.496	Roll:	2.264	Pitch:	-0.977	Yaw:	245.279	Thrust:	100.000
Time:	15.336	Roll Set Point:	-0.086	Pitch Set Point:	0.026	Yaw Set Point:	-2.962	X_WP:	0.078	Y_WP:	-0.035	Y_WP:	0.500	X:	0.035	Y:	0.010	Z:	0.048	yaw:	169.692	yaw rate:	5.875	Roll:	2.322	Pitch:	-1.001	Yaw:	246.211	Thrust:	100.000
Time:	15.418	Roll Set Point:	-0.085	Pitch Set Point:	0.027	Yaw Set Point:	-2.961	X_WP:	0.078	Y_WP:	-0.036	Y_WP:	0.500	X:	0.035	Y:	0.010	Z:	0.048	yaw:	169.663	yaw rate:	3.860	Roll:	2.198	Pitch:	-1.080	Yaw:	244.922	Thrust:	100.000
Time:	15.515	Roll Set Point:	-0.085	Pitch Set Point:	0.028	Yaw Set Point:	-2.961	X_WP:	0.077	Y_WP:	-0.036	Y_WP:	0.500	X:	0.035	Y:	0.010	Z:	0.048	yaw:	169.654	yaw rate:	3.122	Roll:	2.401	Pitch:	-1.019	Yaw:	246.683	Thrust:	100.000
Time:	15.591	Roll Set Point:	-0.084	Pitch Set Point:	0.029	Yaw Set Point:	-2.961	X_WP:	0.076	Y_WP:	-0.037	Y_WP:	0.500	X:	0.035	Y:	0.010	Z:	0.048	yaw:	169.680	yaw rate:	1.512	Roll:	2.091	Pitch:	-1.164	Yaw:	244.529	Thrust:	100.000
Time:	15.693	Roll Set Point:	-0.083	Pitch Set Point:	0.029	Yaw Set Point:	-2.962	X_WP:	0.076	Y_WP:	-0.037	Y_WP:	0.500	X:	0.035	Y:	0.010	Z:	0.048	yaw:	169.682	yaw rate:	1.604	Roll:	2.424	Pitch:	-1.079	Yaw:	247.152	Thrust:	100.000
Time:	15.818	Roll Set Point:	-0.083	Pitch Set Point:	0.030	Yaw Set Point:	-2.962	X_WP:	0.075	Y_WP:	-0.038	Y_WP:	0.500	X:	0.035	Y:	0.010	Z:	0.048	yaw:	169.689	yaw rate:	0.279	Roll:	2.549	Pitch:	-1.051	Yaw:	249.477	Thrust:	100.000
Time:	16.213	Roll Set Point:	-0.082	Pitch Set Point:	0.031	Yaw Set Point:	-2.961	X_WP:	0.074	Y_WP:	-0.039	Y_WP:	0.500	X:	0.035	Y:	0.010	Z:	0.048	yaw:	169.681	yaw rate:	0.027	Roll:	5.848	Pitch:	-0.629	Yaw:	276.419	Thrust:	100.000
Time:	16.301	Roll Set Point:	-0.079	Pitch Set Point:	0.034	Yaw Set Point:	-2.961	X_WP:	0.071	Y_WP:	-0.041	Y_WP:	0.500	X:	0.035	Y:	0.010	Z:	0.048	yaw:	169.677	yaw rate:	0.796	Roll:	1.782	Pitch:	-1.693	Yaw:	245.724	Thrust:	100.000
Time:	16.368	Roll Set Point:	-0.079	Pitch Set Point:	0.035	Yaw Set Point:	-2.961	X_WP:	0.070	Y_WP:	-0.042	Y_WP:	0.500	X:	0.035	Y:	0.010	Z:	0.048	yaw:	169.678	yaw rate:	0.820	Roll:	1.823	Pitch:	-1.397	Yaw:	243.640	Thrust:	100.000
Time:	16.445	Roll Set Point:	-0.078	Pitch Set Point:	0.035	Yaw Set Point:	-2.961	X_WP:	0.069	Y_WP:	-0.042	Y_WP:	0.500	X:	0.035	Y:	0.010	Z:	0.048	yaw:	169.666	yaw rate:	2.350	Roll:	2.016	Pitch:	-1.330	Yaw:	244.478	Thrust:	100.000
Time:	16.525	Roll Set Point:	-0.078	Pitch Set Point:	0.036	Yaw Set Point:	-2.961	X_WP:	0.069	Y_WP:	-0.043	Y_WP:	0.500	X:	0.035	Y:	0.010	Z:	0.048	yaw:	169.678	yaw rate:	4.272	Roll:	2.038	Pitch:	-1.354	Yaw:	244.976	Thrust:	100.000
Time:	16.607	Roll Set Point:	-0.077	Pitch Set Point:	0.036	Yaw Set Point:	-2.962	X_WP:	0.068	Y_WP:	-0.043	Y_WP:	0.500	X:	0.035	Y:	0.010	Z:	0.048	yaw:	169.683	yaw rate:	1.599	Roll:	2.023	Pitch:	-1.388	Yaw:	245.132	Thrust:	100.000
Time:	16.692	Roll Set Point:	-0.076	Pitch Set Point:	0.037	Yaw Set Point:	-2.961	X_WP:	0.067	Y_WP:	-0.043	Y_WP:	0.500	X:	0.035	Y:	0.010	Z:	0.048	yaw:	169.679	yaw rate:	0.479	Roll:	2.068	Pitch:	-1.401	Yaw:	245.327	Thrust:	100.000
Time:	16.800	Roll Set Point:	-0.075	Pitch Set Point:	0.037	Yaw Set Point:	-2.962	X_WP:	0.066	Y_WP:	-0.044	Y_WP:	0.500	X:	0.035	Y:	0.010	Z:	0.048	yaw:	169.692	yaw rate:	5.461	Roll:	2.328	Pitch:	-1.407	Yaw:	247.844	Thrust:	100.000
Time:	16.878	Roll Set Point:	-0.075	Pitch Set Point:	0.038	Yaw Set Point:	-2.961	X_WP:	0.065	Y_WP:	-0.045	Y_WP:	0.500	X:	0.035	Y:	0.010	Z:	0.048	yaw:	169.672	yaw rate:	-0.949	Roll:	1.882	Pitch:	-1.519	Yaw:	244.661	Thrust:	100.000
Time:	16.971	Roll Set Point:	-0.074	Pitch Set Point:	0.039	Yaw Set Point:	-2.962	X_WP:	0.065	Y_WP:	-0.045	Y_WP:	0.500	X:	0.035	Y:	0.010	Z:	0.048	yaw:	169.683	yaw rate:	-0.045	Roll:	2.156	Pitch:	-1.446	Yaw:	246.276	Thrust:	100.000
Time:	17.066	Roll Set Point:	-0.073	Pitch Set Point:	0.039	Yaw Set Point:	-2.961	X_WP:	0.064	Y_WP:	-0.045	Y_WP:	0.500	X:	0.035	Y:	0.010	Z:	0.048	yaw:	169.675	yaw rate:	5.909	Roll:	2.127	Pitch:	-1.501	Yaw:	246.248	Thrust:	100.000
Time:	17.182	Roll Set Point:	-0.072	Pitch Set Point:	0.040	Yaw Set Point:	-2.961	X_WP:	0.063	Y_WP:	-0.046	Y_WP:	0.500	X:	0.035	Y:	0.010	Z:	0.048	yaw:	169.634	yaw rate:	-4.401	Roll:	2.404	Pitch:	-1.510	Yaw:	248.495	Thrust:	100.000
Time:	17.271	Roll Set Point:	-0.071	Pitch Set Point:	0.041	Yaw Set Point:	-2.961	X_WP:	0.062	Y_WP:	-0.046	Y_WP:	0.500	X:	0.035	Y:	0.010	Z:	0.048	yaw:	169.665	yaw rate:	0.120	Roll:	1.965	Pitch:	-1.600	Yaw:	245.913	Thrust:	100.000
Time:	17.362	Roll Set Point:	-0.071	Pitch Set Point:	0.041	Yaw Set Point:	-2.961	X_WP:	0.061	Y_WP:	-0.047	Y_WP:	0.500	X:	0.035	Y:	0.010	Z:	0.048	yaw:	169.680	yaw rate:	0.801	Roll:	2.004	Pitch:	-1.584	Yaw:	245.982	Thrust:	100.000
Time:	17.479	Roll Set Point:	-0.070	Pitch Set Point:	0.042	Yaw Set Point:	-2.964	X_WP:	0.060	Y_WP:	-0.047	Y_WP:	0.500	X:	0.035	Y:	0.010	Z:	0.049	yaw:	169.799	yaw rate:	0.107	Roll:	2.360	Pitch:	-1.608	Yaw:	249.080	Thrust:	100.000
Time:	17.563	Roll Set Point:	-0.069	Pitch Set Point:	0.042	Yaw Set Point:	-2.963	X_WP:	0.059	Y_WP:	-0.047	Y_WP:	0.500	X:	0.035	Y:	0.010	Z:	0.049	yaw:	169.790	yaw rate:	-1.056	Roll:	1.868	Pitch:	-1.656	Yaw:	245.466	Thrust:	100.000
Time:	17.688	Roll Set Point:	-0.068	Pitch Set Point:	0.043	Yaw Set Point:	-2.964	X_WP:	0.058	Y_WP:	-0.048	Y_WP:	0.500	X:	0.035	Y:	0.010	Z:	0.049	yaw:	169.814	yaw rate:	0.664	Roll:	2.425	Pitch:	-1.654	Yaw:	249.670	Thrust:	100.000
Time:	17.804	Roll Set Point:	-0.067	Pitch Set Point:	0.043	Yaw Set Point:	-2.963	X_WP:	0.057	Y_WP:	-0.048	Y_WP:	0.500	X:	0.035	Y:	0.010	Z:	0.049	yaw:	169.761	yaw rate:	0.579	Roll:	2.249	Pitch:	-1.713	Yaw:	248.456	Thrust:	100.000
Time:	17.911	Roll Set Point:	-0.066	Pitch Set Point:	0.044	Yaw Set Point:	-2.964	X_WP:	0.056	Y_WP:	-0.049	Y_WP:	0.500	X:	0.035	Y:	0.010	Z:	0.049	yaw:	169.802	yaw rate:	-0.144	Roll:	2.114	Pitch:	-1.738	Yaw:	247.865	Thrust:	100.000
Time:	18.010	Roll Set Point:	-0.065	Pitch Set Point:	0.045	Yaw Set Point:	-2.964	X_WP:	0.055	Y_WP:	-0.049	Y_WP:	0.500	X:	0.035	Y:	0.010	Z:	0.049	yaw:	169.797	yaw rate:	0.075	Roll:	1.936	Pitch:	-1.762	Yaw:	246.995	Thrust:	100.000
Time:	18.139	Roll Set Point:	-0.064	Pitch Set Point:	0.045	Yaw Set Point:	-2.964	X_WP:	0.054	Y_WP:	-0.049	Y_WP:	0.500	X:	0.035	Y:	0.010	Z:	0.049	yaw:	169.815	yaw rate:	4.848	Roll:	2.407	Pitch:	-1.799	Yaw:	250.079	Thrust:	100.000
Time:	18.245	Roll Set Point:	-0.063	Pitch Set Point:	0.046	Yaw Set Point:	-2.964	X_WP:	0.052	Y_WP:	-0.050	Y_WP:	0.500	X:	0.035	Y:	0.010	Z:	0.049	yaw:	169.798	yaw rate:	2.809	Roll:	2.047	Pitch:	-1.807	Yaw:	247.629	Thrust:	100.000
Time:	18.386	Roll Set Point:	-0.062	Pitch Set Point:	0.046	Yaw Set Point:	-2.964	X_WP:	0.051	Y_WP:	-0.050	Y_WP:	0.500	X:	0.035	Y:	0.010	Z:	0.049	yaw:	169.802	yaw rate:	0.585	Roll:	2.524	Pitch:	-1.868	Yaw:	251.235	Thrust:	100.000
Time:	18.484	Roll Set Point:	-0.061	Pitch Set Point:	0.047	Yaw Set Point:	-2.964	X_WP:	0.050	Y_WP:	-0.050	Y_WP:	0.500	X:	0.035	Y:	0.010	Z:	0.049	yaw:	169.798	yaw rate:	-0.234	Roll:	1.824	Pitch:	-1.868	Yaw:	246.697	Thrust:	100.000
Time:	18.579	Roll Set Point:	-0.060	Pitch Set Point:	0.047	Yaw Set Point:	-2.964	X_WP:	0.049	Y_WP:	-0.051	Y_WP:	0.500	X:	0.035	Y:	0.010	Z:	0.049	yaw:	169.800	yaw rate:	-0.369	Roll:	1.843	Pitch:	-1.874	Yaw:	246.717	Thrust:	100.000
Time:	18.672	Roll Set Point:	-0.059	Pitch Set Point:	0.047	Yaw Set Point:	-2.963	X_WP:	0.048	Y_WP:	-0.051	Y_WP:	0.500	X:	0.035	Y:	0.010	Z:	0.049	yaw:	169.755	yaw rate:	-0.409	Roll:	1.759	Pitch:	-1.899	Yaw:	246.219	Thrust:	100.000
Time:	18.777	Roll Set Point:	-0.058	Pitch Set Point:	0.048	Yaw Set Point:	-2.963	X_WP:	0.047	Y_WP:	-0.051	Y_WP:	0.500	X:	0.035	Y:	0.010	Z:	0.049	yaw:	169.794	yaw rate:	0.989	Roll:	1.950	Pitch:	-1.921	Yaw:	247.705	Thrust:	100.000
Time:	18.860	Roll Set Point:	-0.057	Pitch Set Point:	0.048	Yaw Set Point:	-2.961	X_WP:	0.046	Y_WP:	-0.051	Y_WP:	0.500	X:	0.035	Y:	0.010	Z:	0.048	yaw:	169.668	yaw rate:	-0.177	Roll:	1.556	Pitch:	-1.925	Yaw:	244.722	Thrust:	100.000
Time:	18.941	Roll Set Point:	-0.056	Pitch Set Point:	0.049	Yaw Set Point:	-2.961	X_WP:	0.046	Y_WP:	-0.051	Y_WP:	0.500	X:	0.035	Y:	0.010	Z:	0.048	yaw:	169.663	yaw rate:	-1.178	Roll:	1.585	Pitch:	-1.918	Yaw:	245.001	Thrust:	100.000
Time:	19.045	Roll Set Point:	-0.056	Pitch Set Point:	0.049	Yaw Set Point:	-2.961	X_WP:	0.045	Y_WP:	-0.052	Y_WP:	0.500	X:	0.035	Y:	0.010	Z:	0.048	yaw:	169.631	yaw rate:	-4.012	Roll:	1.885	Pitch:	-1.984	Yaw:	247.194	Thrust:	100.000
Time:	19.116	Roll Set Point:	-0.055	Pitch Set Point:	0.049	Yaw Set Point:	-2.961	X_WP:	0.044	Y_WP:	-0.052	Y_WP:	0.500	X:	0.035	Y:	0.010	Z:	0.048	yaw:	169.666	yaw rate:	-2.205	Roll:	1.307	Pitch:	-1.965	Yaw:	244.150	Thrust:	100.000
Time:	19.226	Roll Set Point:	-0.054	Pitch Set Point:	0.049	Yaw Set Point:	-2.960	X_WP:	0.043	Y_WP:	-0.052	Y_WP:	0.500	X:	0.035	Y:	0.010	Z:	0.048	yaw:	169.623	yaw rate:	-5.954	Roll:	1.950	Pitch:	-2.028	Yaw:	247.662	Thrust:	100.000
Time:	19.308	Roll Set Point:	-0.053	Pitch Set Point:	0.050	Yaw Set Point:	-2.962	X_WP:	0.042	Y_WP:	-0.052	Y_WP:	0.500	X:	0.035	Y:	0.010	Z:	0.048	yaw:	169.687	yaw rate:	1.174	Roll:	1.395	Pitch:	-2.024	Yaw:	245.355	Thrust:	100.000
Time:	19.399	Roll Set Point:	-0.052	Pitch Set Point:	0.050	Yaw Set Point:	-2.961	X_WP:	0.041	Y_WP:	-0.052	Y_WP:	0.500	X:	0.035	Y:	0.010	Z:	0.048	yaw:	169.664	yaw rate:	-1.062	Roll:	1.642	Pitch:	-2.036	Yaw:	245.975	Thrust:	100.000
Time:	19.490	Roll Set Point:	-0.051	Pitch Set Point:	0.050	Yaw Set Point:	-2.961	X_WP:	0.040	Y_WP:	-0.052	Y_WP:	0.500	X:	0.035	Y:	0.010	Z:	0.048	yaw:	169.666	yaw rate:	-0.806	Roll:	1.558	Pitch:	-2.060	Yaw:	246.029	Thrust:	100.000
Time:	19.578	Roll Set Point:	-0.050	Pitch Set Point:	0.050	Yaw Set Point:	-2.962	X_WP:	0.039	Y_WP:	-0.052	Y_WP:	0.500	X:	0.035	Y:	0.010	Z:	0.048	yaw:	169.684	yaw rate:	4.841	Roll:	1.496	Pitch:	-2.070	Yaw:	245.751	Thrust:	100.000
Time:	19.693	Roll Set Point:	-0.049	Pitch Set Point:	0.051	Yaw Set Point:	-2.966	X_WP:	0.039	Y_WP:	-0.052	Y_WP:	0.500	X:	0.035	Y:	0.010	Z:	0.048	yaw:	169.940	yaw rate:	27.061	Roll:	1.838	Pitch:	-2.173	Yaw:	249.297	Thrust:	100.000
Time:	19.774	Roll Set Point:	-0.048	Pitch Set Point:	0.051	Yaw Set Point:	-2.966	X_WP:	0.038	Y_WP:	-0.052	Y_WP:	0.500	X:	0.035	Y:	0.010	Z:	0.048	yaw:	169.953	yaw rate:	7.522	Roll:	1.322	Pitch:	-2.092	Yaw:	245.516	Thrust:	100.000
Time:	19.878	Roll Set Point:	-0.047	Pitch Set Point:	0.051	Yaw Set Point:	-2.966	X_WP:	0.037	Y_WP:	-0.052	Y_WP:	0.500	X:	0.035	Y:	0.010	Z:	0.048	yaw:	169.953	yaw rate:	5.949	Roll:	1.657	Pitch:	-2.177	Yaw:	247.711	Thrust:	100.000
Time:	19.960	Roll Set Point:	-0.046	Pitch Set Point:	0.051	Yaw Set Point:	-2.966	X_WP:	0.036	Y_WP:	-0.053	Y_WP:	0.500	X:	0.035	Y:	0.010	Z:	0.048	yaw:	169.955	yaw rate:	2.891	Roll:	1.260	Pitch:	-2.118	Yaw:	245.430	Thrust:	100.000
Time:	20.055	Roll Set Point:	-0.046	Pitch Set Point:	0.052	Yaw Set Point:	-2.966	X_WP:	0.035	Y_WP:	-0.053	Y_WP:	0.500	X:	0.035	Y:	0.010	Z:	0.048	yaw:	169.943	yaw rate:	-0.841	Roll:	1.521	Pitch:	-2.173	Yaw:	246.775	Thrust:	100.000
Time:	20.147	Roll Set Point:	-0.045	Pitch Set Point:	0.052	Yaw Set Point:	-2.961	X_WP:	0.034	Y_WP:	-0.052	Y_WP:	0.500	X:	0.035	Y:	0.010	Z:	0.048	yaw:	169.671	yaw rate:	-26.736	Roll:	1.442	Pitch:	-2.185	Yaw:	245.360	Thrust:	100.000
Time:	20.251	Roll Set Point:	-0.044	Pitch Set Point:	0.052	Yaw Set Point:	-2.961	X_WP:	0.033	Y_WP:	-0.052	Y_WP:	0.500	X:	0.035	Y:	0.010	Z:	0.048	yaw:	169.667	yaw rate:	0.998	Roll:	1.580	Pitch:	-2.251	Yaw:	247.318	Thrust:	100.000
Time:	20.339	Roll Set Point:	-0.043	Pitch Set Point:	0.052	Yaw Set Point:	-2.961	X_WP:	0.032	Y_WP:	-0.052	Y_WP:	0.500	X:	0.035	Y:	0.010	Z:	0.048	yaw:	169.639	yaw rate:	-2.086	Roll:	1.277	Pitch:	-2.201	Yaw:	245.568	Thrust:	100.000
Time:	20.473	Roll Set Point:	-0.042	Pitch Set Point:	0.052	Yaw Set Point:	-2.961	X_WP:	0.031	Y_WP:	-0.052	Y_WP:	0.500	X:	0.035	Y:	0.010	Z:	0.048	yaw:	169.669	yaw rate:	-1.612	Roll:	1.941	Pitch:	-2.407	Yaw:	250.297	Thrust:	100.000
Time:	20.585	Roll Set Point:	-0.041	Pitch Set Point:	0.052	Yaw Set Point:	-2.961	X_WP:	0.030	Y_WP:	-0.052	Y_WP:	0.500	X:	0.035	Y:	0.010	Z:	0.048	yaw:	169.630	yaw rate:	-3.842	Roll:	1.583	Pitch:	-2.338	Yaw:	247.971	Thrust:	100.000
Time:	20.664	Roll Set Point:	-0.039	Pitch Set Point:	0.052	Yaw Set Point:	-2.961	X_WP:	0.028	Y_WP:	-0.052	Y_WP:	0.500	X:	0.035	Y:	0.010	Z:	0.048	yaw:	169.661	yaw rate:	0.592	Roll:	0.989	Pitch:	-2.211	Yaw:	244.913	Thrust:	100.000
Time:	20.757	Roll Set Point:	-0.039	Pitch Set Point:	0.052	Yaw Set Point:	-2.961	X_WP:	0.027	Y_WP:	-0.052	Y_WP:	0.500	X:	0.035	Y:	0.010	Z:	0.048	yaw:	169.670	yaw rate:	-0.162	Roll:	1.251	Pitch:	-2.279	Yaw:	246.254	Thrust:	100.000
Time:	20.846	Roll Set Point:	-0.038	Pitch Set Point:	0.052	Yaw Set Point:	-2.961	X_WP:	0.026	Y_WP:	-0.052	Y_WP:	0.500	X:	0.035	Y:	0.010	Z:	0.048	yaw:	169.678	yaw rate:	2.390	Roll:	1.159	Pitch:	-2.271	Yaw:	245.864	Thrust:	100.000
Time:	20.921	Roll Set Point:	-0.037	Pitch Set Point:	0.052	Yaw Set Point:	-2.961	X_WP:	0.025	Y_WP:	-0.052	Y_WP:	0.500	X:	0.035	Y:	0.010	Z:	0.048	yaw:	169.664	yaw rate:	-1.085	Roll:	0.895	Pitch:	-2.206	Yaw:	244.263	Thrust:	100.000
Time:	21.040	Roll Set Point:	-0.036	Pitch Set Point:	0.052	Yaw Set Point:	-2.961	X_WP:	0.025	Y_WP:	-0.051	Y_WP:	0.500	X:	0.035	Y:	0.010	Z:	0.048	yaw:	169.661	yaw rate:	-1.742	Roll:	1.593	Pitch:	-2.451	Yaw:	248.815	Thrust:	100.000
Time:	21.127	Roll Set Point:	-0.035	Pitch Set Point:	0.052	Yaw Set Point:	-2.961	X_WP:	0.024	Y_WP:	-0.051	Y_WP:	0.500	X:	0.035	Y:	0.010	Z:	0.048	yaw:	169.628	yaw rate:	0.577	Roll:	1.016	Pitch:	-2.302	Yaw:	245.471	Thrust:	100.000
Time:	21.227	Roll Set Point:	-0.034	Pitch Set Point:	0.052	Yaw Set Point:	-2.961	X_WP:	0.023	Y_WP:	-0.051	Y_WP:	0.500	X:	0.035	Y:	0.010	Z:	0.048	yaw:	169.669	yaw rate:	0.210	Roll:	1.238	Pitch:	-2.381	Yaw:	247.039	Thrust:	100.000
Time:	21.325	Roll Set Point:	-0.033	Pitch Set Point:	0.052	Yaw Set Point:	-2.960	X_WP:	0.022	Y_WP:	-0.051	Y_WP:	0.500	X:	0.035	Y:	0.010	Z:	0.048	yaw:	169.617	yaw rate:	-6.083	Roll:	1.106	Pitch:	-2.374	Yaw:	246.413	Thrust:	100.000
Time:	21.440	Roll Set Point:	-0.032	Pitch Set Point:	0.052	Yaw Set Point:	-2.961	X_WP:	0.021	Y_WP:	-0.051	Y_WP:	0.500	X:	0.035	Y:	0.010	Z:	0.048	yaw:	169.645	yaw rate:	-2.746	Roll:	1.412	Pitch:	-2.497	Yaw:	248.465	Thrust:	100.000
Time:	21.563	Roll Set Point:	-0.031	Pitch Set Point:	0.052	Yaw Set Point:	-2.961	X_WP:	0.020	Y_WP:	-0.050	Y_WP:	0.500	X:	0.035	Y:	0.010	Z:	0.048	yaw:	169.677	yaw rate:	1.866	Roll:	1.461	Pitch:	-2.558	Yaw:	249.315	Thrust:	100.000
Time:	21.660	Roll Set Point:	-0.029	Pitch Set Point:	0.052	Yaw Set Point:	-2.961	X_WP:	0.018	Y_WP:	-0.050	Y_WP:	0.500	X:	0.035	Y:	0.010	Z:	0.048	yaw:	169.667	yaw rate:	0.476	Roll:	0.978	Pitch:	-2.389	Yaw:	246.497	Thrust:	100.000
Time:	21.780	Roll Set Point:	-0.028	Pitch Set Point:	0.052	Yaw Set Point:	-2.961	X_WP:	0.017	Y_WP:	-0.050	Y_WP:	0.500	X:	0.035	Y:	0.010	Z:	0.048	yaw:	169.678	yaw rate:	-1.486	Roll:	1.366	Pitch:	-2.568	Yaw:	248.994	Thrust:	100.000
Time:	21.871	Roll Set Point:	-0.027	Pitch Set Point:	0.052	Yaw Set Point:	-2.961	X_WP:	0.016	Y_WP:	-0.049	Y_WP:	0.500	X:	0.035	Y:	0.010	Z:	0.048	yaw:	169.669	yaw rate:	-1.208	Roll:	0.817	Pitch:	-2.378	Yaw:	245.999	Thrust:	100.000
Time:	21.947	Roll Set Point:	-0.026	Pitch Set Point:	0.052	Yaw Set Point:	-2.961	X_WP:	0.015	Y_WP:	-0.049	Y_WP:	0.500	X:	0.035	Y:	0.010	Z:	0.048	yaw:	169.671	yaw rate:	-0.035	Roll:	0.593	Pitch:	-2.276	Yaw:	244.432	Thrust:	100.000
Time:	22.030	Roll Set Point:	-0.025	Pitch Set Point:	0.052	Yaw Set Point:	-2.961	X_WP:	0.014	Y_WP:	-0.049	Y_WP:	0.500	X:	0.035	Y:	0.010	Z:	0.048	yaw:	169.673	yaw rate:	-0.528	Roll:	0.700	Pitch:	-2.331	Yaw:	245.137	Thrust:	100.000
Time:	22.108	Roll Set Point:	-0.024	Pitch Set Point:	0.051	Yaw Set Point:	-2.961	X_WP:	0.014	Y_WP:	-0.049	Y_WP:	0.500	X:	0.035	Y:	0.010	Z:	0.048	yaw:	169.676	yaw rate:	4.362	Roll:	0.630	Pitch:	-2.320	Yaw:	244.842	Thrust:	100.000
Time:	22.209	Roll Set Point:	-0.023	Pitch Set Point:	0.051	Yaw Set Point:	-2.962	X_WP:	0.013	Y_WP:	-0.048	Y_WP:	0.500	X:	0.035	Y:	0.010	Z:	0.048	yaw:	169.682	yaw rate:	-0.278	Roll:	0.940	Pitch:	-2.484	Yaw:	247.029	Thrust:	100.000
Time:	22.282	Roll Set Point:	-0.022	Pitch Set Point:	0.051	Yaw Set Point:	-2.961	X_WP:	0.012	Y_WP:	-0.048	Y_WP:	0.500	X:	0.035	Y:	0.010	Z:	0.048	yaw:	169.667	yaw rate:	-0.699	Roll:	0.425	Pitch:	-2.269	Yaw:	244.167	Thrust:	100.000
Time:	22.360	Roll Set Point:	-0.022	Pitch Set Point:	0.051	Yaw Set Point:	-2.961	X_WP:	0.011	Y_WP:	-0.047	Y_WP:	0.500	X:	0.035	Y:	0.010	Z:	0.048	yaw:	169.634	yaw rate:	-3.288	Roll:	0.504	Pitch:	-2.312	Yaw:	244.565	Thrust:	100.000
Time:	22.441	Roll Set Point:	-0.021	Pitch Set Point:	0.051	Yaw Set Point:	-2.961	X_WP:	0.010	Y_WP:	-0.047	Y_WP:	0.500	X:	0.035	Y:	0.010	Z:	0.048	yaw:	169.626	yaw rate:	-3.973	Roll:	0.536	Pitch:	-2.347	Yaw:	244.839	Thrust:	100.000
Time:	22.525	Roll Set Point:	-0.020	Pitch Set Point:	0.050	Yaw Set Point:	-2.961	X_WP:	0.009	Y_WP:	-0.047	Y_WP:	0.500	X:	0.035	Y:	0.010	Z:	0.048	yaw:	169.655	yaw rate:	-1.809	Roll:	0.562	Pitch:	-2.377	Yaw:	245.395	Thrust:	100.000
Time:	22.625	Roll Set Point:	-0.019	Pitch Set Point:	0.050	Yaw Set Point:	-2.961	X_WP:	0.008	Y_WP:	-0.046	Y_WP:	0.500	X:	0.035	Y:	0.010	Z:	0.048	yaw:	169.671	yaw rate:	0.012	Roll:	0.746	Pitch:	-2.507	Yaw:	246.974	Thrust:	100.000
Time:	22.715	Roll Set Point:	-0.018	Pitch Set Point:	0.050	Yaw Set Point:	-2.961	X_WP:	0.007	Y_WP:	-0.046	Y_WP:	0.500	X:	0.035	Y:	0.010	Z:	0.048	yaw:	169.626	yaw rate:	-0.926	Roll:	0.516	Pitch:	-2.413	Yaw:	245.734	Thrust:	100.000
Time:	22.819	Roll Set Point:	-0.017	Pitch Set Point:	0.050	Yaw Set Point:	-2.961	X_WP:	0.006	Y_WP:	-0.045	Y_WP:	0.500	X:	0.035	Y:	0.010	Z:	0.048	yaw:	169.626	yaw rate:	-3.603	Roll:	0.718	Pitch:	-2.544	Yaw:	247.228	Thrust:	100.000
Time:	22.929	Roll Set Point:	-0.016	Pitch Set Point:	0.049	Yaw Set Point:	-2.961	X_WP:	0.005	Y_WP:	-0.045	Y_WP:	0.500	X:	0.035	Y:	0.010	Z:	0.048	yaw:	169.675	yaw rate:	1.658	Roll:	0.812	Pitch:	-2.607	Yaw:	248.056	Thrust:	100.000
Time:	23.022	Roll Set Point:	-0.014	Pitch Set Point:	0.049	Yaw Set Point:	-2.961	X_WP:	0.004	Y_WP:	-0.044	Y_WP:	0.500	X:	0.035	Y:	0.010	Z:	0.048	yaw:	169.663	yaw rate:	-0.806	Roll:	0.434	Pitch:	-2.431	Yaw:	246.086	Thrust:	100.000
Time:	23.126	Roll Set Point:	-0.013	Pitch Set Point:	0.048	Yaw Set Point:	-2.961	X_WP:	0.003	Y_WP:	-0.044	Y_WP:	0.500	X:	0.035	Y:	0.010	Z:	0.048	yaw:	169.678	yaw rate:	0.448	Roll:	0.613	Pitch:	-2.541	Yaw:	247.380	Thrust:	100.000
Time:	23.214	Roll Set Point:	-0.012	Pitch Set Point:	0.048	Yaw Set Point:	-2.961	X_WP:	0.002	Y_WP:	-0.043	Y_WP:	0.500	X:	0.035	Y:	0.010	Z:	0.048	yaw:	169.660	yaw rate:	-0.942	Roll:	0.324	Pitch:	-2.389	Yaw:	245.662	Thrust:	100.000
Time:	23.295	Roll Set Point:	-0.011	Pitch Set Point:	0.048	Yaw Set Point:	-2.961	X_WP:	0.001	Y_WP:	-0.042	Y_WP:	0.500	X:	0.035	Y:	0.010	Z:	0.048	yaw:	169.666	yaw rate:	-0.111	Roll:	0.161	Pitch:	-2.316	Yaw:	245.039	Thrust:	100.000
Time:	23.394	Roll Set Point:	-0.010	Pitch Set Point:	0.047	Yaw Set Point:	-2.961	X_WP:	0.000	Y_WP:	-0.042	Y_WP:	0.500	X:	0.035	Y:	0.010	Z:	0.048	yaw:	169.655	yaw rate:	-1.733	Roll:	0.460	Pitch:	-2.498	Yaw:	246.678	Thrust:	100.000
Time:	23.518	Roll Set Point:	-0.009	Pitch Set Point:	0.047	Yaw Set Point:	-2.961	X_WP:	-0.001	Y_WP:	-0.041	Y_WP:	0.500	X:	0.035	Y:	0.010	Z:	0.048	yaw:	169.670	yaw rate:	0.262	Roll:	0.750	Pitch:	-2.732	Yaw:	249.367	Thrust:	100.000
Time:	23.605	Roll Set Point:	-0.008	Pitch Set Point:	0.046	Yaw Set Point:	-2.961	X_WP:	-0.002	Y_WP:	-0.040	Y_WP:	0.500	X:	0.035	Y:	0.010	Z:	0.048	yaw:	169.664	yaw rate:	0.391	Roll:	0.118	Pitch:	-2.346	Yaw:	245.585	Thrust:	100.000
Time:	23.758	Roll Set Point:	-0.007	Pitch Set Point:	0.046	Yaw Set Point:	-2.961	X_WP:	-0.003	Y_WP:	-0.040	Y_WP:	0.500	X:	0.035	Y:	0.010	Z:	0.048	yaw:	169.668	yaw rate:	-0.841	Roll:	1.111	Pitch:	-3.029	Yaw:	252.145	Thrust:	100.000
Time:	23.857	Roll Set Point:	-0.005	Pitch Set Point:	0.045	Yaw Set Point:	-2.961	X_WP:	-0.004	Y_WP:	-0.038	Y_WP:	0.500	X:	0.035	Y:	0.010	Z:	0.048	yaw:	169.668	yaw rate:	-0.024	Roll:	0.152	Pitch:	-2.405	Yaw:	246.827	Thrust:	100.000
Time:	23.976	Roll Set Point:	-0.004	Pitch Set Point:	0.044	Yaw Set Point:	-2.961	X_WP:	-0.005	Y_WP:	-0.038	Y_WP:	0.500	X:	0.035	Y:	0.010	Z:	0.048	yaw:	169.671	yaw rate:	-0.223	Roll:	0.523	Pitch:	-2.672	Yaw:	248.846	Thrust:	100.000
Time:	24.081	Roll Set Point:	-0.003	Pitch Set Point:	0.043	Yaw Set Point:	-2.961	X_WP:	-0.006	Y_WP:	-0.036	Y_WP:	0.500	X:	0.035	Y:	0.010	Z:	0.048	yaw:	169.665	yaw rate:	-0.497	Roll:	0.189	Pitch:	-2.460	Yaw:	247.409	Thrust:	100.000
Time:	24.192	Roll Set Point:	-0.001	Pitch Set Point:	0.042	Yaw Set Point:	-2.961	X_WP:	-0.008	Y_WP:	-0.035	Y_WP:	0.500	X:	0.035	Y:	0.010	Z:	0.048	yaw:	169.661	yaw rate:	-0.352	Roll:	0.260	Pitch:	-2.524	Yaw:	247.913	Thrust:	100.000
Time:	24.378	Roll Set Point:	0.000	Pitch Set Point:	0.041	Yaw Set Point:	-2.960	X_WP:	-0.009	Y_WP:	-0.034	Y_WP:	0.500	X:	0.035	Y:	0.010	Z:	0.048	yaw:	169.622	yaw rate:	-5.010	Roll:	1.254	Pitch:	-3.333	Yaw:	255.433	Thrust:	100.000
Time:	24.520	Roll Set Point:	0.002	Pitch Set Point:	0.040	Yaw Set Point:	-2.961	X_WP:	-0.011	Y_WP:	-0.032	Y_WP:	0.500	X:	0.035	Y:	0.010	Z:	0.048	yaw:	169.672	yaw rate:	-2.562	Roll:	0.426	Pitch:	-2.709	Yaw:	251.037	Thrust:	100.000
Time:	24.643	Roll Set Point:	0.003	Pitch Set Point:	0.039	Yaw Set Point:	-2.961	X_WP:	-0.012	Y_WP:	-0.031	Y_WP:	0.500	X:	0.035	Y:	0.010	Z:	0.048	yaw:	169.669	yaw rate:	0.205	Roll:	0.331	Pitch:	-2.636	Yaw:	249.328	Thrust:	100.000
Time:	24.733	Roll Set Point:	0.004	Pitch Set Point:	0.039	Yaw Set Point:	-2.961	X_WP:	-0.012	Y_WP:	-0.031	Y_WP:	0.500	X:	0.035	Y:	0.010	Z:	0.048	yaw:	169.663	yaw rate:	-1.690	Roll:	-0.020	Pitch:	-2.356	Yaw:	245.904	Thrust:	100.000
Time:	24.857	Roll Set Point:	0.004	Pitch Set Point:	0.039	Yaw Set Point:	-2.961	X_WP:	-0.012	Y_WP:	-0.031	Y_WP:	0.500	X:	0.035	Y:	0.010	Z:	0.048	yaw:	169.675	yaw rate:	2.001	Roll:	0.426	Pitch:	-2.757	Yaw:	249.270	Thrust:	100.000
Time:	24.956	Roll Set Point:	0.004	Pitch Set Point:	0.039	Yaw Set Point:	-2.961	X_WP:	-0.012	Y_WP:	-0.031	Y_WP:	0.500	X:	0.035	Y:	0.010	Z:	0.048	yaw:	169.656	yaw rate:	-1.508	Roll:	0.103	Pitch:	-2.509	Yaw:	246.761	Thrust:	100.000
Time:	25.058	Roll Set Point:	0.004	Pitch Set Point:	0.039	Yaw Set Point:	-2.961	X_WP:	-0.012	Y_WP:	-0.031	Y_WP:	0.500	X:	0.035	Y:	0.010	Z:	0.048	yaw:	169.655	yaw rate:	-0.710	Roll:	0.151	Pitch:	-2.550	Yaw:	247.107	Thrust:	100.000
Time:	25.170	Roll Set Point:	0.004	Pitch Set Point:	0.039	Yaw Set Point:	-2.961	X_WP:	-0.012	Y_WP:	-0.031	Y_WP:	0.500	X:	0.035	Y:	0.010	Z:	0.048	yaw:	169.665	yaw rate:	-0.874	Roll:	0.251	Pitch:	-2.675	Yaw:	248.150	Thrust:	100.000
Time:	25.276	Roll Set Point:	0.004	Pitch Set Point:	0.039	Yaw Set Point:	-2.961	X_WP:	-0.012	Y_WP:	-0.031	Y_WP:	0.500	X:	0.035	Y:	0.010	Z:	0.048	yaw:	169.670	yaw rate:	1.408	Roll:	0.144	Pitch:	-2.599	Yaw:	247.447	Thrust:	100.000
Time:	25.385	Roll Set Point:	0.004	Pitch Set Point:	0.039	Yaw Set Point:	-2.961	X_WP:	-0.012	Y_WP:	-0.031	Y_WP:	0.500	X:	0.035	Y:	0.010	Z:	0.048	yaw:	169.666	yaw rate:	-0.099	Roll:	0.193	Pitch:	-2.668	Yaw:	247.715	Thrust:	100.000
Time:	25.500	Roll Set Point:	0.004	Pitch Set Point:	0.039	Yaw Set Point:	-2.961	X_WP:	-0.012	Y_WP:	-0.031	Y_WP:	0.500	X:	0.035	Y:	0.010	Z:	0.048	yaw:	169.673	yaw rate:	-0.792	Roll:	0.265	Pitch:	-2.760	Yaw:	248.555	Thrust:	100.000
Time:	25.596	Roll Set Point:	0.004	Pitch Set Point:	0.039	Yaw Set Point:	-2.961	X_WP:	-0.012	Y_WP:	-0.031	Y_WP:	0.500	X:	0.035	Y:	0.010	Z:	0.048	yaw:	169.629	yaw rate:	0.410	Roll:	0.017	Pitch:	-2.541	Yaw:	246.355	Thrust:	100.000
Time:	25.681	Roll Set Point:	0.004	Pitch Set Point:	0.039	Yaw Set Point:	-2.961	X_WP:	-0.012	Y_WP:	-0.031	Y_WP:	0.500	X:	0.035	Y:	0.010	Z:	0.048	yaw:	169.666	yaw rate:	-0.477	Roll:	-0.139	Pitch:	-2.407	Yaw:	245.431	Thrust:	100.000
Time:	25.769	Roll Set Point:	0.004	Pitch Set Point:	0.039	Yaw Set Point:	-2.961	X_WP:	-0.012	Y_WP:	-0.031	Y_WP:	0.500	X:	0.035	Y:	0.010	Z:	0.048	yaw:	169.677	yaw rate:	4.200	Roll:	-0.080	Pitch:	-2.485	Yaw:	245.770	Thrust:	100.000
Time:	25.874	Roll Set Point:	0.004	Pitch Set Point:	0.039	Yaw Set Point:	-2.961	X_WP:	-0.012	Y_WP:	-0.031	Y_WP:	0.500	X:	0.035	Y:	0.010	Z:	0.048	yaw:	169.673	yaw rate:	0.288	Roll:	0.092	Pitch:	-2.685	Yaw:	247.426	Thrust:	100.000
Time:	25.955	Roll Set Point:	0.004	Pitch Set Point:	0.039	Yaw Set Point:	-2.961	X_WP:	-0.012	Y_WP:	-0.031	Y_WP:	0.500	X:	0.035	Y:	0.010	Z:	0.048	yaw:	169.680	yaw rate:	5.046	Roll:	-0.208	Pitch:	-2.403	Yaw:	245.062	Thrust:	100.000
Time:	26.032	Roll Set Point:	0.004	Pitch Set Point:	0.039	Yaw Set Point:	-2.960	X_WP:	-0.012	Y_WP:	-0.031	Y_WP:	0.500	X:	0.035	Y:	0.010	Z:	0.048	yaw:	169.620	yaw rate:	-0.347	Roll:	-0.253	Pitch:	-2.349	Yaw:	244.251	Thrust:	100.000
Time:	26.144	Roll Set Point:	0.004	Pitch Set Point:	0.039	Yaw Set Point:	-2.961	X_WP:	-0.012	Y_WP:	-0.031	Y_WP:	0.500	X:	0.035	Y:	0.010	Z:	0.048	yaw:	169.669	yaw rate:	3.778	Roll:	0.142	Pitch:	-2.812	Yaw:	248.248	Thrust:	100.000
Time:	26.275	Roll Set Point:	0.004	Pitch Set Point:	0.039	Yaw Set Point:	-2.961	X_WP:	-0.012	Y_WP:	-0.031	Y_WP:	0.500	X:	0.035	Y:	0.010	Z:	0.048	yaw:	169.671	yaw rate:	-0.234	Roll:	0.360	Pitch:	-3.077	Yaw:	250.042	Thrust:	100.000
Time:	26.375	Roll Set Point:	0.004	Pitch Set Point:	0.039	Yaw Set Point:	-2.961	X_WP:	-0.012	Y_WP:	-0.031	Y_WP:	0.500	X:	0.035	Y:	0.010	Z:	0.048	yaw:	169.665	yaw rate:	-0.743	Roll:	-0.047	Pitch:	-2.656	Yaw:	246.907	Thrust:	100.000
Time:	26.483	Roll Set Point:	0.004	Pitch Set Point:	0.039	Yaw Set Point:	-2.961	X_WP:	-0.012	Y_WP:	-0.031	Y_WP:	0.500	X:	0.035	Y:	0.010	Z:	0.048	yaw:	169.664	yaw rate:	-1.980	Roll:	0.053	Pitch:	-2.788	Yaw:	247.622	Thrust:	100.000
Time:	26.578	Roll Set Point:	0.004	Pitch Set Point:	0.039	Yaw Set Point:	-2.961	X_WP:	-0.012	Y_WP:	-0.031	Y_WP:	0.500	X:	0.035	Y:	0.010	Z:	0.048	yaw:	169.664	yaw rate:	3.649	Roll:	-0.074	Pitch:	-2.662	Yaw:	246.421	Thrust:	100.000
Time:	26.680	Roll Set Point:	0.004	Pitch Set Point:	0.039	Yaw Set Point:	-2.961	X_WP:	-0.012	Y_WP:	-0.031	Y_WP:	0.500	X:	0.035	Y:	0.010	Z:	0.048	yaw:	169.669	yaw rate:	0.976	Roll:	-0.033	Pitch:	-2.736	Yaw:	247.142	Thrust:	100.000
Time:	26.765	Roll Set Point:	0.004	Pitch Set Point:	0.039	Yaw Set Point:	-2.961	X_WP:	-0.012	Y_WP:	-0.031	Y_WP:	0.500	X:	0.035	Y:	0.010	Z:	0.048	yaw:	169.663	yaw rate:	1.007	Roll:	-0.212	Pitch:	-2.552	Yaw:	245.399	Thrust:	100.000
Time:	26.847	Roll Set Point:	0.004	Pitch Set Point:	0.039	Yaw Set Point:	-2.962	X_WP:	-0.012	Y_WP:	-0.031	Y_WP:	0.500	X:	0.035	Y:	0.010	Z:	0.048	yaw:	169.684	yaw rate:	2.137	Roll:	-0.313	Pitch:	-2.477	Yaw:	245.114	Thrust:	100.000
Time:	26.946	Roll Set Point:	0.004	Pitch Set Point:	0.039	Yaw Set Point:	-2.961	X_WP:	-0.012	Y_WP:	-0.031	Y_WP:	0.500	X:	0.035	Y:	0.010	Z:	0.048	yaw:	169.671	yaw rate:	-0.305	Roll:	-0.029	Pitch:	-2.760	Yaw:	246.798	Thrust:	100.000
Time:	27.035	Roll Set Point:	0.004	Pitch Set Point:	0.039	Yaw Set Point:	-2.961	X_WP:	-0.012	Y_WP:	-0.031	Y_WP:	0.500	X:	0.035	Y:	0.010	Z:	0.048	yaw:	169.671	yaw rate:	2.866	Roll:	-0.205	Pitch:	-2.612	Yaw:	245.727	Thrust:	100.000
Time:	27.135	Roll Set Point:	0.004	Pitch Set Point:	0.039	Yaw Set Point:	-2.961	X_WP:	-0.012	Y_WP:	-0.031	Y_WP:	0.500	X:	0.035	Y:	0.010	Z:	0.048	yaw:	169.662	yaw rate:	0.419	Roll:	-0.089	Pitch:	-2.787	Yaw:	246.997	Thrust:	100.000
Time:	27.237	Roll Set Point:	0.004	Pitch Set Point:	0.039	Yaw Set Point:	-2.962	X_WP:	-0.012	Y_WP:	-0.031	Y_WP:	0.500	X:	0.035	Y:	0.010	Z:	0.048	yaw:	169.682	yaw rate:	0.410	Roll:	-0.083	Pitch:	-2.823	Yaw:	247.100	Thrust:	100.000
Time:	27.628	Roll Set Point:	0.004	Pitch Set Point:	0.039	Yaw Set Point:	-2.961	X_WP:	-0.012	Y_WP:	-0.031	Y_WP:	0.500	X:	0.035	Y:	0.010	Z:	0.048	yaw:	169.681	yaw rate:	0.456	Roll:	2.816	Pitch:	-6.844	Yaw:	276.021	Thrust:	100.000
Time:	27.711	Roll Set Point:	0.004	Pitch Set Point:	0.039	Yaw Set Point:	-2.961	X_WP:	-0.012	Y_WP:	-0.031	Y_WP:	0.500	X:	0.035	Y:	0.010	Z:	0.048	yaw:	169.680	yaw rate:	0.028	Roll:	-0.306	Pitch:	-2.566	Yaw:	245.136	Thrust:	100.000
Time:	27.797	Roll Set Point:	0.004	Pitch Set Point:	0.039	Yaw Set Point:	-2.961	X_WP:	-0.012	Y_WP:	-0.031	Y_WP:	0.500	X:	0.035	Y:	0.010	Z:	0.048	yaw:	169.633	yaw rate:	-3.562	Roll:	-0.252	Pitch:	-2.640	Yaw:	245.436	Thrust:	100.000
Time:	27.888	Roll Set Point:	0.004	Pitch Set Point:	0.039	Yaw Set Point:	-2.960	X_WP:	-0.012	Y_WP:	-0.031	Y_WP:	0.500	X:	0.035	Y:	0.010	Z:	0.048	yaw:	169.622	yaw rate:	-5.072	Roll:	-0.242	Pitch:	-2.715	Yaw:	245.828	Thrust:	100.000
Time:	27.997	Roll Set Point:	0.004	Pitch Set Point:	0.039	Yaw Set Point:	-2.961	X_WP:	-0.012	Y_WP:	-0.031	Y_WP:	0.500	X:	0.035	Y:	0.010	Z:	0.048	yaw:	169.680	yaw rate:	1.098	Roll:	-0.077	Pitch:	-2.970	Yaw:	247.887	Thrust:	100.000
Time:	28.096	Roll Set Point:	0.004	Pitch Set Point:	0.039	Yaw Set Point:	-2.961	X_WP:	-0.012	Y_WP:	-0.031	Y_WP:	0.500	X:	0.035	Y:	0.010	Z:	0.048	yaw:	169.680	yaw rate:	1.469	Roll:	-0.170	Pitch:	-2.855	Yaw:	246.943	Thrust:	100.000
Time:	28.201	Roll Set Point:	0.004	Pitch Set Point:	0.039	Yaw Set Point:	-2.962	X_WP:	-0.012	Y_WP:	-0.031	Y_WP:	0.500	X:	0.035	Y:	0.010	Z:	0.048	yaw:	169.693	yaw rate:	3.006	Roll:	-0.110	Pitch:	-2.957	Yaw:	247.496	Thrust:	100.000
Time:	28.280	Roll Set Point:	0.004	Pitch Set Point:	0.039	Yaw Set Point:	-2.961	X_WP:	-0.012	Y_WP:	-0.031	Y_WP:	0.500	X:	0.035	Y:	0.010	Z:	0.048	yaw:	169.667	yaw rate:	-0.541	Roll:	-0.406	Pitch:	-2.562	Yaw:	244.734	Thrust:	100.000
Time:	28.406	Roll Set Point:	0.004	Pitch Set Point:	0.039	Yaw Set Point:	-2.961	X_WP:	-0.012	Y_WP:	-0.031	Y_WP:	0.500	X:	0.035	Y:	0.010	Z:	0.048	yaw:	169.659	yaw rate:	-1.786	Roll:	0.038	Pitch:	-3.274	Yaw:	249.407	Thrust:	100.000
Time:	28.512	Roll Set Point:	0.004	Pitch Set Point:	0.039	Yaw Set Point:	-2.961	X_WP:	-0.012	Y_WP:	-0.031	Y_WP:	0.500	X:	0.035	Y:	0.010	Z:	0.048	yaw:	169.680	yaw rate:	0.134	Roll:	-0.153	Pitch:	-3.001	Yaw:	247.598	Thrust:	100.000
Time:	28.645	Roll Set Point:	0.004	Pitch Set Point:	0.039	Yaw Set Point:	-2.961	X_WP:	-0.012	Y_WP:	-0.031	Y_WP:	0.500	X:	0.035	Y:	0.010	Z:	0.048	yaw:	169.680	yaw rate:	4.779	Roll:	-0.021	Pitch:	-3.246	Yaw:	249.049	Thrust:	100.000
Time:	28.724	Roll Set Point:	0.004	Pitch Set Point:	0.039	Yaw Set Point:	-2.961	X_WP:	-0.012	Y_WP:	-0.031	Y_WP:	0.500	X:	0.035	Y:	0.010	Z:	0.048	yaw:	169.659	yaw rate:	-0.242	Roll:	-0.334	Pitch:	-2.778	Yaw:	245.751	Thrust:	100.000
