Time:	2.055	Roll Set Point:	0.000	Pitch Set Point:	0.000	Yaw Set Point:	0.205	X_WP:	0.000	Y_WP:	0.000	Y_WP:	0.500	X:	0.000	Y:	0.000	Z:	0.000	yaw:	-11.773	yaw rate:	37.449	Roll:	-0.000	Pitch:	-0.000	Yaw:	-16.439	Thrust:	27.500
Time:	2.066	Roll Set Point:	0.000	Pitch Set Point:	0.000	Yaw Set Point:	0.205	X_WP:	0.000	Y_WP:	0.000	Y_WP:	0.500	X:	0.000	Y:	0.000	Z:	0.000	yaw:	-11.773	yaw rate:	37.449	Roll:	-0.000	Pitch:	-0.000	Yaw:	-16.484	Thrust:	28.162
Time:	2.077	Roll Set Point:	0.000	Pitch Set Point:	0.000	Yaw Set Point:	0.205	X_WP:	0.000	Y_WP:	0.000	Y_WP:	0.500	X:	0.000	Y:	0.000	Z:	0.000	yaw:	-11.773	yaw rate:	37.449	Roll:	-0.000	Pitch:	-0.000	Yaw:	-16.529	Thrust:	28.821
Time:	2.088	Roll Set Point:	0.000	Pitch Set Point:	0.000	Yaw Set Point:	0.205	X_WP:	0.000	Y_WP:	0.000	Y_WP:	0.500	X:	0.000	Y:	0.000	Z:	0.000	yaw:	-11.773	yaw rate:	37.449	Roll:	-0.000	Pitch:	-0.000	Yaw:	-16.575	Thrust:	29.485
Time:	2.100	Roll Set Point:	0.000	Pitch Set Point:	0.000	Yaw Set Point:	0.205	X_WP:	0.000	Y_WP:	0.000	Y_WP:	0.500	X:	0.000	Y:	0.000	Z:	0.000	yaw:	-11.773	yaw rate:	37.449	Roll:	-0.000	Pitch:	-0.000	Yaw:	-16.620	Thrust:	30.153
Time:	2.111	Roll Set Point:	0.000	Pitch Set Point:	0.000	Yaw Set Point:	0.205	X_WP:	0.000	Y_WP:	0.000	Y_WP:	0.500	X:	0.000	Y:	0.000	Z:	0.000	yaw:	-11.773	yaw rate:	37.449	Roll:	-0.000	Pitch:	-0.000	Yaw:	-16.667	Thrust:	30.825
Time:	2.123	Roll Set Point:	0.000	Pitch Set Point:	0.000	Yaw Set Point:	0.205	X_WP:	0.000	Y_WP:	0.000	Y_WP:	0.500	X:	0.000	Y:	0.000	Z:	0.000	yaw:	-11.773	yaw rate:	37.449	Roll:	-0.000	Pitch:	-0.000	Yaw:	-16.735	Thrust:	31.830
Time:	2.134	Roll Set Point:	0.000	Pitch Set Point:	0.000	Yaw Set Point:	0.205	X_WP:	0.000	Y_WP:	0.000	Y_WP:	0.500	X:	0.000	Y:	0.000	Z:	0.000	yaw:	-11.773	yaw rate:	37.449	Roll:	-0.000	Pitch:	-0.000	Yaw:	-16.756	Thrust:	32.132
Time:	2.145	Roll Set Point:	0.000	Pitch Set Point:	0.000	Yaw Set Point:	0.205	X_WP:	0.000	Y_WP:	0.000	Y_WP:	0.500	X:	0.000	Y:	0.000	Z:	0.000	yaw:	-11.773	yaw rate:	37.449	Roll:	-0.000	Pitch:	-0.000	Yaw:	-16.801	Thrust:	32.794
Time:	2.156	Roll Set Point:	0.000	Pitch Set Point:	0.000	Yaw Set Point:	0.205	X_WP:	0.000	Y_WP:	0.000	Y_WP:	0.500	X:	0.000	Y:	0.000	Z:	0.000	yaw:	-11.773	yaw rate:	37.449	Roll:	-0.000	Pitch:	-0.000	Yaw:	-16.852	Thrust:	33.530
Time:	2.167	Roll Set Point:	0.000	Pitch Set Point:	0.000	Yaw Set Point:	0.205	X_WP:	0.000	Y_WP:	0.000	Y_WP:	0.500	X:	0.000	Y:	0.000	Z:	0.000	yaw:	-11.773	yaw rate:	37.449	Roll:	-0.000	Pitch:	-0.000	Yaw:	-16.899	Thrust:	34.225
Time:	2.178	Roll Set Point:	0.000	Pitch Set Point:	0.000	Yaw Set Point:	0.205	X_WP:	0.000	Y_WP:	0.000	Y_WP:	0.500	X:	0.000	Y:	0.000	Z:	0.000	yaw:	-11.773	yaw rate:	37.449	Roll:	-0.000	Pitch:	-0.000	Yaw:	-16.937	Thrust:	34.775
Time:	2.189	Roll Set Point:	0.000	Pitch Set Point:	0.000	Yaw Set Point:	0.205	X_WP:	0.000	Y_WP:	0.000	Y_WP:	0.500	X:	0.000	Y:	0.000	Z:	0.000	yaw:	-11.773	yaw rate:	37.449	Roll:	-0.000	Pitch:	-0.000	Yaw:	-16.983	Thrust:	35.441
Time:	2.200	Roll Set Point:	0.000	Pitch Set Point:	0.000	Yaw Set Point:	0.205	X_WP:	0.000	Y_WP:	0.000	Y_WP:	0.500	X:	0.000	Y:	0.000	Z:	0.000	yaw:	-11.773	yaw rate:	37.449	Roll:	-0.000	Pitch:	-0.000	Yaw:	-17.028	Thrust:	36.107
Time:	2.211	Roll Set Point:	0.000	Pitch Set Point:	0.000	Yaw Set Point:	0.205	X_WP:	0.000	Y_WP:	0.000	Y_WP:	0.500	X:	0.000	Y:	0.000	Z:	0.000	yaw:	-11.773	yaw rate:	37.449	Roll:	-0.000	Pitch:	-0.000	Yaw:	-17.073	Thrust:	36.758
Time:	2.222	Roll Set Point:	0.000	Pitch Set Point:	0.000	Yaw Set Point:	0.205	X_WP:	0.000	Y_WP:	0.000	Y_WP:	0.500	X:	0.000	Y:	0.000	Z:	0.000	yaw:	-11.773	yaw rate:	37.449	Roll:	-0.000	Pitch:	-0.000	Yaw:	-17.119	Thrust:	37.431
Time:	2.233	Roll Set Point:	0.000	Pitch Set Point:	0.000	Yaw Set Point:	0.205	X_WP:	0.000	Y_WP:	0.000	Y_WP:	0.500	X:	0.000	Y:	0.000	Z:	0.000	yaw:	-11.773	yaw rate:	37.449	Roll:	-0.000	Pitch:	-0.000	Yaw:	-17.162	Thrust:	38.065
Time:	2.244	Roll Set Point:	0.000	Pitch Set Point:	0.000	Yaw Set Point:	0.205	X_WP:	0.000	Y_WP:	0.000	Y_WP:	0.500	X:	0.000	Y:	0.000	Z:	0.000	yaw:	-11.773	yaw rate:	37.449	Roll:	-0.000	Pitch:	-0.000	Yaw:	-17.209	Thrust:	38.750
Time:	2.255	Roll Set Point:	0.000	Pitch Set Point:	0.000	Yaw Set Point:	0.205	X_WP:	0.000	Y_WP:	0.000	Y_WP:	0.500	X:	0.000	Y:	0.000	Z:	0.000	yaw:	-11.773	yaw rate:	37.449	Roll:	-0.000	Pitch:	-0.000	Yaw:	-17.257	Thrust:	39.441
Time:	2.266	Roll Set Point:	0.000	Pitch Set Point:	0.000	Yaw Set Point:	0.205	X_WP:	0.000	Y_WP:	0.000	Y_WP:	0.500	X:	0.000	Y:	0.000	Z:	0.000	yaw:	-11.773	yaw rate:	37.449	Roll:	-0.000	Pitch:	-0.000	Yaw:	-17.299	Thrust:	40.054
Time:	2.277	Roll Set Point:	0.000	Pitch Set Point:	0.000	Yaw Set Point:	0.205	X_WP:	0.000	Y_WP:	0.000	Y_WP:	0.500	X:	0.000	Y:	0.000	Z:	0.000	yaw:	-11.773	yaw rate:	37.449	Roll:	-0.000	Pitch:	-0.000	Yaw:	-17.347	Thrust:	40.755
Time:	2.288	Roll Set Point:	0.000	Pitch Set Point:	0.000	Yaw Set Point:	0.205	X_WP:	0.000	Y_WP:	0.000	Y_WP:	0.500	X:	0.000	Y:	0.000	Z:	0.000	yaw:	-11.773	yaw rate:	37.449	Roll:	-0.000	Pitch:	-0.000	Yaw:	-17.391	Thrust:	41.397
Time:	2.299	Roll Set Point:	0.000	Pitch Set Point:	0.000	Yaw Set Point:	0.205	X_WP:	0.000	Y_WP:	0.000	Y_WP:	0.500	X:	0.000	Y:	0.000	Z:	0.000	yaw:	-11.773	yaw rate:	37.449	Roll:	-0.000	Pitch:	-0.000	Yaw:	-17.434	Thrust:	42.025
Time:	2.310	Roll Set Point:	0.000	Pitch Set Point:	0.000	Yaw Set Point:	0.205	X_WP:	0.000	Y_WP:	0.000	Y_WP:	0.500	X:	0.000	Y:	0.000	Z:	0.000	yaw:	-11.773	yaw rate:	37.449	Roll:	-0.000	Pitch:	-0.000	Yaw:	-17.481	Thrust:	42.721
Time:	2.321	Roll Set Point:	0.000	Pitch Set Point:	0.000	Yaw Set Point:	0.205	X_WP:	0.000	Y_WP:	0.000	Y_WP:	0.500	X:	0.000	Y:	0.000	Z:	0.000	yaw:	-11.773	yaw rate:	37.449	Roll:	-0.000	Pitch:	-0.000	Yaw:	-17.527	Thrust:	43.382
Time:	2.333	Roll Set Point:	0.000	Pitch Set Point:	0.000	Yaw Set Point:	0.205	X_WP:	0.000	Y_WP:	0.000	Y_WP:	0.500	X:	0.000	Y:	0.000	Z:	0.000	yaw:	-11.773	yaw rate:	37.449	Roll:	-0.000	Pitch:	-0.000	Yaw:	-17.572	Thrust:	44.044
Time:	2.344	Roll Set Point:	0.000	Pitch Set Point:	0.000	Yaw Set Point:	0.205	X_WP:	0.000	Y_WP:	0.000	Y_WP:	0.500	X:	0.000	Y:	0.000	Z:	0.000	yaw:	-11.773	yaw rate:	37.449	Roll:	-0.000	Pitch:	-0.000	Yaw:	-17.617	Thrust:	44.708
Time:	2.355	Roll Set Point:	0.000	Pitch Set Point:	0.000	Yaw Set Point:	0.205	X_WP:	0.000	Y_WP:	0.000	Y_WP:	0.500	X:	0.000	Y:	0.000	Z:	0.000	yaw:	-11.773	yaw rate:	37.449	Roll:	-0.000	Pitch:	-0.000	Yaw:	-17.662	Thrust:	45.366
Time:	2.366	Roll Set Point:	0.000	Pitch Set Point:	0.000	Yaw Set Point:	0.205	X_WP:	0.000	Y_WP:	0.000	Y_WP:	0.500	X:	0.000	Y:	0.000	Z:	0.000	yaw:	-11.773	yaw rate:	37.449	Roll:	-0.000	Pitch:	-0.000	Yaw:	-17.708	Thrust:	46.027
Time:	2.377	Roll Set Point:	0.000	Pitch Set Point:	0.000	Yaw Set Point:	0.205	X_WP:	0.000	Y_WP:	0.000	Y_WP:	0.500	X:	0.000	Y:	0.000	Z:	0.000	yaw:	-11.773	yaw rate:	37.449	Roll:	-0.000	Pitch:	-0.000	Yaw:	-17.753	Thrust:	46.693
Time:	2.388	Roll Set Point:	0.000	Pitch Set Point:	0.000	Yaw Set Point:	0.205	X_WP:	0.000	Y_WP:	0.000	Y_WP:	0.500	X:	0.000	Y:	0.000	Z:	0.000	yaw:	-11.773	yaw rate:	37.449	Roll:	-0.000	Pitch:	-0.000	Yaw:	-17.798	Thrust:	47.352
Time:	2.399	Roll Set Point:	0.000	Pitch Set Point:	0.000	Yaw Set Point:	0.205	X_WP:	0.000	Y_WP:	0.000	Y_WP:	0.500	X:	0.000	Y:	0.000	Z:	0.000	yaw:	-11.773	yaw rate:	37.449	Roll:	-0.000	Pitch:	-0.000	Yaw:	-17.847	Thrust:	48.053
Time:	2.410	Roll Set Point:	0.000	Pitch Set Point:	0.000	Yaw Set Point:	0.205	X_WP:	0.000	Y_WP:	0.000	Y_WP:	0.500	X:	0.000	Y:	0.000	Z:	0.000	yaw:	-11.773	yaw rate:	37.449	Roll:	-0.000	Pitch:	-0.000	Yaw:	-17.890	Thrust:	48.691
Time:	2.421	Roll Set Point:	0.000	Pitch Set Point:	0.000	Yaw Set Point:	0.205	X_WP:	0.000	Y_WP:	0.000	Y_WP:	0.500	X:	0.000	Y:	0.000	Z:	0.000	yaw:	-11.773	yaw rate:	37.449	Roll:	-0.000	Pitch:	-0.000	Yaw:	-17.934	Thrust:	49.332
Time:	2.433	Roll Set Point:	0.000	Pitch Set Point:	0.000	Yaw Set Point:	0.205	X_WP:	0.000	Y_WP:	0.000	Y_WP:	0.500	X:	0.000	Y:	0.000	Z:	0.000	yaw:	-11.773	yaw rate:	37.449	Roll:	-0.000	Pitch:	-0.000	Yaw:	-18.108	Thrust:	51.877
Time:	2.444	Roll Set Point:	0.000	Pitch Set Point:	0.000	Yaw Set Point:	0.205	X_WP:	0.000	Y_WP:	0.000	Y_WP:	0.500	X:	0.000	Y:	0.000	Z:	0.000	yaw:	-11.773	yaw rate:	37.449	Roll:	-0.000	Pitch:	-0.000	Yaw:	-18.025	Thrust:	50.659
Time:	2.455	Roll Set Point:	0.000	Pitch Set Point:	0.000	Yaw Set Point:	0.205	X_WP:	0.000	Y_WP:	0.000	Y_WP:	0.500	X:	0.000	Y:	0.000	Z:	0.000	yaw:	-11.773	yaw rate:	37.449	Roll:	-0.000	Pitch:	-0.000	Yaw:	-18.070	Thrust:	51.321
Time:	2.466	Roll Set Point:	0.000	Pitch Set Point:	0.000	Yaw Set Point:	0.205	X_WP:	0.000	Y_WP:	0.000	Y_WP:	0.500	X:	0.000	Y:	0.000	Z:	0.000	yaw:	-11.773	yaw rate:	37.449	Roll:	-0.000	Pitch:	-0.000	Yaw:	-18.116	Thrust:	51.985
Time:	2.477	Roll Set Point:	0.000	Pitch Set Point:	0.000	Yaw Set Point:	0.205	X_WP:	0.000	Y_WP:	0.000	Y_WP:	0.500	X:	0.000	Y:	0.000	Z:	0.000	yaw:	-11.773	yaw rate:	37.449	Roll:	-0.000	Pitch:	-0.000	Yaw:	-18.165	Thrust:	52.706
Time:	2.488	Roll Set Point:	0.000	Pitch Set Point:	0.000	Yaw Set Point:	0.205	X_WP:	0.000	Y_WP:	0.000	Y_WP:	0.500	X:	0.000	Y:	0.000	Z:	0.000	yaw:	-11.773	yaw rate:	37.449	Roll:	-0.000	Pitch:	-0.000	Yaw:	-18.258	Thrust:	54.065
Time:	2.499	Roll Set Point:	0.000	Pitch Set Point:	0.000	Yaw Set Point:	0.205	X_WP:	0.000	Y_WP:	0.000	Y_WP:	0.500	X:	0.000	Y:	0.000	Z:	0.000	yaw:	-11.773	yaw rate:	37.449	Roll:	-0.000	Pitch:	-0.000	Yaw:	-18.256	Thrust:	54.035
Time:	2.510	Roll Set Point:	0.000	Pitch Set Point:	0.000	Yaw Set Point:	0.205	X_WP:	0.000	Y_WP:	0.000	Y_WP:	0.500	X:	0.000	Y:	0.000	Z:	0.000	yaw:	-11.773	yaw rate:	37.449	Roll:	-0.000	Pitch:	-0.000	Yaw:	-18.296	Thrust:	54.619
Time:	2.521	Roll Set Point:	0.000	Pitch Set Point:	0.000	Yaw Set Point:	0.205	X_WP:	0.000	Y_WP:	0.000	Y_WP:	0.500	X:	0.000	Y:	0.000	Z:	0.000	yaw:	-11.773	yaw rate:	37.449	Roll:	-0.000	Pitch:	-0.000	Yaw:	-18.343	Thrust:	55.305
Time:	2.532	Roll Set Point:	0.000	Pitch Set Point:	0.000	Yaw Set Point:	0.205	X_WP:	0.000	Y_WP:	0.000	Y_WP:	0.500	X:	0.000	Y:	0.000	Z:	0.000	yaw:	-11.773	yaw rate:	37.449	Roll:	-0.000	Pitch:	-0.000	Yaw:	-18.388	Thrust:	55.962
Time:	2.543	Roll Set Point:	0.000	Pitch Set Point:	0.000	Yaw Set Point:	0.205	X_WP:	0.000	Y_WP:	0.000	Y_WP:	0.500	X:	0.000	Y:	0.000	Z:	0.000	yaw:	-11.773	yaw rate:	37.449	Roll:	-0.000	Pitch:	-0.000	Yaw:	-18.433	Thrust:	56.615
Time:	2.554	Roll Set Point:	0.000	Pitch Set Point:	0.000	Yaw Set Point:	0.205	X_WP:	0.000	Y_WP:	0.000	Y_WP:	0.500	X:	0.000	Y:	0.000	Z:	0.000	yaw:	-11.773	yaw rate:	37.449	Roll:	-0.000	Pitch:	-0.000	Yaw:	-18.479	Thrust:	57.290
Time:	2.565	Roll Set Point:	0.000	Pitch Set Point:	0.000	Yaw Set Point:	0.205	X_WP:	0.000	Y_WP:	0.000	Y_WP:	0.500	X:	0.000	Y:	0.000	Z:	0.000	yaw:	-11.773	yaw rate:	37.449	Roll:	-0.000	Pitch:	-0.000	Yaw:	-18.523	Thrust:	57.929
Time:	2.576	Roll Set Point:	0.000	Pitch Set Point:	0.000	Yaw Set Point:	0.205	X_WP:	0.000	Y_WP:	0.000	Y_WP:	0.500	X:	0.000	Y:	0.000	Z:	0.000	yaw:	-11.773	yaw rate:	37.449	Roll:	-0.000	Pitch:	-0.000	Yaw:	-18.569	Thrust:	58.602
Time:	2.588	Roll Set Point:	0.000	Pitch Set Point:	0.000	Yaw Set Point:	0.205	X_WP:	0.000	Y_WP:	0.000	Y_WP:	0.500	X:	0.000	Y:	0.000	Z:	0.000	yaw:	-11.773	yaw rate:	37.449	Roll:	-0.000	Pitch:	-0.000	Yaw:	-18.614	Thrust:	59.264
Time:	2.599	Roll Set Point:	0.000	Pitch Set Point:	0.000	Yaw Set Point:	0.205	X_WP:	0.000	Y_WP:	0.000	Y_WP:	0.500	X:	0.000	Y:	0.000	Z:	0.000	yaw:	-11.773	yaw rate:	37.449	Roll:	-0.000	Pitch:	-0.000	Yaw:	-18.645	Thrust:	59.926
Time:	2.610	Roll Set Point:	0.000	Pitch Set Point:	0.000	Yaw Set Point:	0.205	X_WP:	0.000	Y_WP:	0.000	Y_WP:	0.500	X:	0.000	Y:	0.000	Z:	0.000	yaw:	-11.773	yaw rate:	37.449	Roll:	-0.000	Pitch:	-0.000	Yaw:	-18.645	Thrust:	60.588
Time:	2.621	Roll Set Point:	0.000	Pitch Set Point:	0.000	Yaw Set Point:	0.205	X_WP:	0.000	Y_WP:	0.000	Y_WP:	0.500	X:	0.000	Y:	0.000	Z:	0.000	yaw:	-11.773	yaw rate:	37.449	Roll:	-0.000	Pitch:	-0.000	Yaw:	-18.645	Thrust:	61.250
Time:	2.632	Roll Set Point:	0.000	Pitch Set Point:	0.000	Yaw Set Point:	0.205	X_WP:	0.000	Y_WP:	0.000	Y_WP:	0.500	X:	0.000	Y:	0.000	Z:	0.000	yaw:	-11.773	yaw rate:	37.449	Roll:	-0.000	Pitch:	-0.000	Yaw:	-18.643	Thrust:	61.894
Time:	2.643	Roll Set Point:	0.000	Pitch Set Point:	0.000	Yaw Set Point:	0.205	X_WP:	0.000	Y_WP:	0.000	Y_WP:	0.500	X:	0.000	Y:	0.000	Z:	0.000	yaw:	-11.773	yaw rate:	37.449	Roll:	-0.000	Pitch:	-0.000	Yaw:	-18.647	Thrust:	62.606
Time:	2.654	Roll Set Point:	0.000	Pitch Set Point:	0.000	Yaw Set Point:	0.205	X_WP:	0.000	Y_WP:	0.000	Y_WP:	0.500	X:	0.000	Y:	0.000	Z:	0.000	yaw:	-11.773	yaw rate:	37.449	Roll:	-0.000	Pitch:	-0.000	Yaw:	-18.644	Thrust:	63.221
Time:	2.665	Roll Set Point:	0.000	Pitch Set Point:	0.000	Yaw Set Point:	0.205	X_WP:	0.000	Y_WP:	0.000	Y_WP:	0.500	X:	0.000	Y:	0.000	Z:	0.000	yaw:	-11.773	yaw rate:	37.449	Roll:	-0.000	Pitch:	-0.000	Yaw:	-18.645	Thrust:	63.896
Time:	2.676	Roll Set Point:	0.000	Pitch Set Point:	0.000	Yaw Set Point:	0.205	X_WP:	0.000	Y_WP:	0.000	Y_WP:	0.500	X:	0.000	Y:	0.000	Z:	0.000	yaw:	-11.773	yaw rate:	37.449	Roll:	-0.000	Pitch:	-0.000	Yaw:	-18.639	Thrust:	64.470
Time:	2.687	Roll Set Point:	0.000	Pitch Set Point:	0.000	Yaw Set Point:	0.205	X_WP:	0.000	Y_WP:	0.000	Y_WP:	0.500	X:	0.000	Y:	0.000	Z:	0.000	yaw:	-11.773	yaw rate:	37.449	Roll:	-0.000	Pitch:	-0.000	Yaw:	-18.649	Thrust:	65.298
Time:	2.698	Roll Set Point:	0.000	Pitch Set Point:	0.000	Yaw Set Point:	0.205	X_WP:	0.000	Y_WP:	0.000	Y_WP:	0.500	X:	0.000	Y:	0.000	Z:	0.000	yaw:	-11.773	yaw rate:	37.449	Roll:	-0.000	Pitch:	-0.000	Yaw:	-18.644	Thrust:	65.877
Time:	2.709	Roll Set Point:	0.000	Pitch Set Point:	0.000	Yaw Set Point:	0.205	X_WP:	0.000	Y_WP:	0.000	Y_WP:	0.500	X:	0.000	Y:	0.000	Z:	0.000	yaw:	-11.773	yaw rate:	37.449	Roll:	-0.000	Pitch:	-0.000	Yaw:	-18.645	Thrust:	66.545
Time:	2.720	Roll Set Point:	0.000	Pitch Set Point:	0.000	Yaw Set Point:	0.205	X_WP:	0.000	Y_WP:	0.000	Y_WP:	0.500	X:	0.000	Y:	0.000	Z:	0.000	yaw:	-11.773	yaw rate:	37.449	Roll:	-0.000	Pitch:	-0.000	Yaw:	-18.645	Thrust:	67.221
Time:	2.731	Roll Set Point:	0.000	Pitch Set Point:	0.000	Yaw Set Point:	0.205	X_WP:	0.000	Y_WP:	0.000	Y_WP:	0.500	X:	0.000	Y:	0.000	Z:	0.000	yaw:	-11.773	yaw rate:	37.449	Roll:	-0.000	Pitch:	-0.000	Yaw:	-18.644	Thrust:	67.855
Time:	2.742	Roll Set Point:	0.000	Pitch Set Point:	0.000	Yaw Set Point:	0.205	X_WP:	0.000	Y_WP:	0.000	Y_WP:	0.500	X:	0.000	Y:	0.000	Z:	0.000	yaw:	-11.773	yaw rate:	37.449	Roll:	-0.000	Pitch:	-0.000	Yaw:	-18.640	Thrust:	68.447
Time:	2.753	Roll Set Point:	0.000	Pitch Set Point:	0.000	Yaw Set Point:	0.205	X_WP:	0.000	Y_WP:	0.000	Y_WP:	0.500	X:	0.000	Y:	0.000	Z:	0.000	yaw:	-11.773	yaw rate:	37.449	Roll:	-0.000	Pitch:	-0.000	Yaw:	-18.653	Thrust:	69.352
Time:	2.764	Roll Set Point:	0.000	Pitch Set Point:	0.000	Yaw Set Point:	0.205	X_WP:	0.000	Y_WP:	0.000	Y_WP:	0.500	X:	0.000	Y:	0.000	Z:	0.000	yaw:	-11.773	yaw rate:	37.449	Roll:	-0.000	Pitch:	-0.000	Yaw:	-18.640	Thrust:	69.766
Time:	2.776	Roll Set Point:	0.000	Pitch Set Point:	0.000	Yaw Set Point:	0.205	X_WP:	0.000	Y_WP:	0.000	Y_WP:	0.500	X:	0.000	Y:	0.000	Z:	0.000	yaw:	-11.773	yaw rate:	37.449	Roll:	-0.000	Pitch:	-0.000	Yaw:	-18.846	Thrust:	74.448
Time:	2.788	Roll Set Point:	0.000	Pitch Set Point:	0.000	Yaw Set Point:	0.205	X_WP:	0.000	Y_WP:	0.000	Y_WP:	0.500	X:	0.000	Y:	0.000	Z:	0.000	yaw:	-11.773	yaw rate:	37.449	Roll:	-0.000	Pitch:	-0.000	Yaw:	-18.846	Thrust:	75.168
Time:	2.800	Roll Set Point:	0.000	Pitch Set Point:	0.000	Yaw Set Point:	0.205	X_WP:	0.000	Y_WP:	0.000	Y_WP:	0.500	X:	0.000	Y:	0.000	Z:	0.000	yaw:	-11.773	yaw rate:	37.449	Roll:	-0.000	Pitch:	-0.000	Yaw:	-18.839	Thrust:	75.738
Time:	2.811	Roll Set Point:	0.000	Pitch Set Point:	0.000	Yaw Set Point:	0.205	X_WP:	0.000	Y_WP:	0.000	Y_WP:	0.500	X:	0.000	Y:	0.000	Z:	0.000	yaw:	-11.773	yaw rate:	37.449	Roll:	-0.000	Pitch:	-0.000	Yaw:	-18.650	Thrust:	72.616
Time:	2.822	Roll Set Point:	0.000	Pitch Set Point:	0.000	Yaw Set Point:	0.205	X_WP:	0.000	Y_WP:	0.000	Y_WP:	0.500	X:	0.000	Y:	0.000	Z:	0.000	yaw:	-11.773	yaw rate:	37.449	Roll:	-0.000	Pitch:	-0.000	Yaw:	-18.644	Thrust:	73.155
Time:	2.833	Roll Set Point:	0.000	Pitch Set Point:	0.000	Yaw Set Point:	0.205	X_WP:	0.000	Y_WP:	0.000	Y_WP:	0.500	X:	0.000	Y:	0.000	Z:	0.000	yaw:	-11.773	yaw rate:	37.449	Roll:	-0.000	Pitch:	-0.000	Yaw:	-18.645	Thrust:	73.822
Time:	2.844	Roll Set Point:	0.000	Pitch Set Point:	0.000	Yaw Set Point:	0.205	X_WP:	0.000	Y_WP:	0.000	Y_WP:	0.500	X:	0.000	Y:	0.000	Z:	0.000	yaw:	-11.773	yaw rate:	37.449	Roll:	-0.000	Pitch:	-0.000	Yaw:	-18.669	Thrust:	75.010
Time:	2.855	Roll Set Point:	0.000	Pitch Set Point:	0.000	Yaw Set Point:	0.205	X_WP:	0.000	Y_WP:	0.000	Y_WP:	0.500	X:	0.000	Y:	0.000	Z:	0.000	yaw:	-11.773	yaw rate:	37.449	Roll:	-0.000	Pitch:	-0.000	Yaw:	-18.628	Thrust:	74.783
Time:	2.866	Roll Set Point:	0.000	Pitch Set Point:	0.000	Yaw Set Point:	0.205	X_WP:	0.000	Y_WP:	0.000	Y_WP:	0.500	X:	0.000	Y:	0.000	Z:	0.000	yaw:	-11.773	yaw rate:	37.449	Roll:	-0.000	Pitch:	-0.000	Yaw:	-18.643	Thrust:	75.778
Time:	2.877	Roll Set Point:	0.000	Pitch Set Point:	0.000	Yaw Set Point:	0.205	X_WP:	0.000	Y_WP:	0.000	Y_WP:	0.500	X:	0.000	Y:	0.000	Z:	0.000	yaw:	-11.773	yaw rate:	37.449	Roll:	-0.000	Pitch:	-0.000	Yaw:	-18.645	Thrust:	76.483
Time:	2.888	Roll Set Point:	0.000	Pitch Set Point:	0.000	Yaw Set Point:	0.205	X_WP:	0.000	Y_WP:	0.000	Y_WP:	0.500	X:	0.000	Y:	0.000	Z:	0.000	yaw:	-11.773	yaw rate:	37.449	Roll:	-0.000	Pitch:	-0.000	Yaw:	-18.644	Thrust:	77.123
Time:	2.899	Roll Set Point:	0.000	Pitch Set Point:	0.000	Yaw Set Point:	0.205	X_WP:	0.000	Y_WP:	0.000	Y_WP:	0.500	X:	0.000	Y:	0.000	Z:	0.000	yaw:	-11.773	yaw rate:	37.449	Roll:	-0.000	Pitch:	-0.000	Yaw:	-18.645	Thrust:	77.793
Time:	2.910	Roll Set Point:	0.000	Pitch Set Point:	0.000	Yaw Set Point:	0.205	X_WP:	0.000	Y_WP:	0.000	Y_WP:	0.500	X:	0.000	Y:	0.000	Z:	0.000	yaw:	-11.773	yaw rate:	37.449	Roll:	-0.000	Pitch:	-0.000	Yaw:	-18.645	Thrust:	78.457
Time:	2.921	Roll Set Point:	0.000	Pitch Set Point:	0.000	Yaw Set Point:	0.205	X_WP:	0.000	Y_WP:	0.000	Y_WP:	0.500	X:	0.000	Y:	0.000	Z:	0.000	yaw:	-11.773	yaw rate:	37.449	Roll:	-0.000	Pitch:	-0.000	Yaw:	-18.644	Thrust:	79.114
Time:	2.932	Roll Set Point:	0.000	Pitch Set Point:	0.000	Yaw Set Point:	0.205	X_WP:	0.000	Y_WP:	0.000	Y_WP:	0.500	X:	0.000	Y:	0.000	Z:	0.000	yaw:	-11.773	yaw rate:	37.449	Roll:	-0.000	Pitch:	-0.000	Yaw:	-18.639	Thrust:	79.652
Time:	2.943	Roll Set Point:	0.000	Pitch Set Point:	0.000	Yaw Set Point:	0.205	X_WP:	0.000	Y_WP:	0.000	Y_WP:	0.500	X:	0.000	Y:	0.000	Z:	0.000	yaw:	-11.773	yaw rate:	37.449	Roll:	-0.000	Pitch:	-0.000	Yaw:	-18.649	Thrust:	80.554
Time:	2.954	Roll Set Point:	0.000	Pitch Set Point:	0.000	Yaw Set Point:	0.205	X_WP:	0.000	Y_WP:	0.000	Y_WP:	0.500	X:	0.000	Y:	0.000	Z:	0.000	yaw:	-11.773	yaw rate:	37.449	Roll:	-0.000	Pitch:	-0.000	Yaw:	-18.640	Thrust:	80.990
Time:	2.966	Roll Set Point:	0.000	Pitch Set Point:	0.000	Yaw Set Point:	0.205	X_WP:	0.000	Y_WP:	0.000	Y_WP:	0.500	X:	0.000	Y:	0.000	Z:	0.000	yaw:	-11.773	yaw rate:	37.449	Roll:	-0.000	Pitch:	-0.000	Yaw:	-18.650	Thrust:	81.902
Time:	2.977	Roll Set Point:	0.000	Pitch Set Point:	0.000	Yaw Set Point:	0.205	X_WP:	0.000	Y_WP:	0.000	Y_WP:	0.500	X:	0.000	Y:	0.000	Z:	0.000	yaw:	-11.773	yaw rate:	37.449	Roll:	-0.000	Pitch:	-0.000	Yaw:	-18.644	Thrust:	82.421
Time:	2.988	Roll Set Point:	0.000	Pitch Set Point:	0.000	Yaw Set Point:	0.205	X_WP:	0.000	Y_WP:	0.000	Y_WP:	0.500	X:	0.000	Y:	0.000	Z:	0.000	yaw:	-11.773	yaw rate:	37.449	Roll:	-0.000	Pitch:	-0.000	Yaw:	-18.639	Thrust:	82.953
Time:	2.999	Roll Set Point:	0.000	Pitch Set Point:	0.000	Yaw Set Point:	0.205	X_WP:	0.000	Y_WP:	0.000	Y_WP:	0.500	X:	0.000	Y:	0.000	Z:	0.000	yaw:	-11.773	yaw rate:	37.449	Roll:	-0.000	Pitch:	-0.000	Yaw:	-18.649	Thrust:	83.860
Time:	3.010	Roll Set Point:	0.000	Pitch Set Point:	0.000	Yaw Set Point:	0.205	X_WP:	0.000	Y_WP:	0.000	Y_WP:	0.500	X:	0.000	Y:	0.000	Z:	0.000	yaw:	-11.773	yaw rate:	37.449	Roll:	-0.000	Pitch:	-0.000	Yaw:	-18.645	Thrust:	84.410
Time:	3.021	Roll Set Point:	0.000	Pitch Set Point:	0.000	Yaw Set Point:	0.205	X_WP:	0.000	Y_WP:	0.000	Y_WP:	0.500	X:	0.000	Y:	0.000	Z:	0.000	yaw:	-11.773	yaw rate:	37.449	Roll:	-0.000	Pitch:	-0.000	Yaw:	-18.645	Thrust:	85.076
Time:	3.032	Roll Set Point:	0.000	Pitch Set Point:	0.000	Yaw Set Point:	0.205	X_WP:	0.000	Y_WP:	0.000	Y_WP:	0.500	X:	0.000	Y:	0.000	Z:	0.000	yaw:	-11.773	yaw rate:	37.449	Roll:	-0.000	Pitch:	-0.000	Yaw:	-18.645	Thrust:	85.742
Time:	3.043	Roll Set Point:	0.000	Pitch Set Point:	0.000	Yaw Set Point:	0.205	X_WP:	0.000	Y_WP:	0.000	Y_WP:	0.500	X:	0.000	Y:	0.000	Z:	0.000	yaw:	-11.773	yaw rate:	37.449	Roll:	-0.000	Pitch:	-0.000	Yaw:	-18.646	Thrust:	86.439
Time:	3.054	Roll Set Point:	0.000	Pitch Set Point:	0.000	Yaw Set Point:	0.205	X_WP:	0.000	Y_WP:	0.000	Y_WP:	0.500	X:	0.000	Y:	0.000	Z:	0.000	yaw:	-11.773	yaw rate:	37.449	Roll:	-0.000	Pitch:	-0.000	Yaw:	-18.640	Thrust:	86.945
Time:	3.065	Roll Set Point:	0.000	Pitch Set Point:	0.000	Yaw Set Point:	0.205	X_WP:	0.000	Y_WP:	0.000	Y_WP:	0.500	X:	0.000	Y:	0.000	Z:	0.000	yaw:	-11.773	yaw rate:	37.449	Roll:	-0.000	Pitch:	-0.000	Yaw:	-18.648	Thrust:	87.808
Time:	3.076	Roll Set Point:	0.000	Pitch Set Point:	0.000	Yaw Set Point:	0.205	X_WP:	0.000	Y_WP:	0.000	Y_WP:	0.500	X:	0.000	Y:	0.000	Z:	0.000	yaw:	-11.773	yaw rate:	37.449	Roll:	-0.000	Pitch:	-0.000	Yaw:	-18.644	Thrust:	88.363
Time:	3.087	Roll Set Point:	0.000	Pitch Set Point:	0.000	Yaw Set Point:	0.205	X_WP:	0.000	Y_WP:	0.000	Y_WP:	0.500	X:	0.000	Y:	0.000	Z:	0.000	yaw:	-11.773	yaw rate:	37.449	Roll:	-0.000	Pitch:	-0.000	Yaw:	-18.640	Thrust:	88.914
Time:	3.098	Roll Set Point:	0.000	Pitch Set Point:	0.000	Yaw Set Point:	0.205	X_WP:	0.000	Y_WP:	0.000	Y_WP:	0.500	X:	0.000	Y:	0.000	Z:	0.000	yaw:	-11.773	yaw rate:	37.449	Roll:	-0.000	Pitch:	-0.000	Yaw:	-18.649	Thrust:	89.831
Time:	3.110	Roll Set Point:	0.000	Pitch Set Point:	0.000	Yaw Set Point:	0.205	X_WP:	0.000	Y_WP:	0.000	Y_WP:	0.500	X:	0.000	Y:	0.000	Z:	0.000	yaw:	-11.773	yaw rate:	37.449	Roll:	-0.000	Pitch:	-0.000	Yaw:	-18.825	Thrust:	95.516
Time:	3.121	Roll Set Point:	0.000	Pitch Set Point:	0.000	Yaw Set Point:	0.205	X_WP:	0.000	Y_WP:	0.000	Y_WP:	0.500	X:	0.000	Y:	0.000	Z:	0.000	yaw:	-11.773	yaw rate:	37.449	Roll:	-0.000	Pitch:	-0.000	Yaw:	-18.640	Thrust:	90.899
Time:	3.132	Roll Set Point:	0.000	Pitch Set Point:	0.000	Yaw Set Point:	0.205	X_WP:	0.000	Y_WP:	0.000	Y_WP:	0.500	X:	0.000	Y:	0.000	Z:	0.000	yaw:	-11.773	yaw rate:	37.449	Roll:	-0.000	Pitch:	-0.000	Yaw:	-18.645	Thrust:	91.692
Time:	3.143	Roll Set Point:	0.000	Pitch Set Point:	0.000	Yaw Set Point:	0.205	X_WP:	0.000	Y_WP:	0.000	Y_WP:	0.500	X:	0.000	Y:	0.000	Z:	0.000	yaw:	-11.773	yaw rate:	37.449	Roll:	-0.000	Pitch:	-0.000	Yaw:	-18.649	Thrust:	92.485
Time:	3.154	Roll Set Point:	0.000	Pitch Set Point:	0.000	Yaw Set Point:	0.205	X_WP:	0.000	Y_WP:	0.000	Y_WP:	0.500	X:	0.000	Y:	0.000	Z:	0.000	yaw:	-11.773	yaw rate:	37.449	Roll:	-0.000	Pitch:	-0.000	Yaw:	-18.645	Thrust:	93.015
Time:	3.165	Roll Set Point:	0.000	Pitch Set Point:	0.000	Yaw Set Point:	0.205	X_WP:	0.000	Y_WP:	0.000	Y_WP:	0.500	X:	0.000	Y:	0.000	Z:	0.000	yaw:	-11.773	yaw rate:	37.449	Roll:	-0.000	Pitch:	-0.000	Yaw:	-18.645	Thrust:	93.701
Time:	3.176	Roll Set Point:	0.000	Pitch Set Point:	0.000	Yaw Set Point:	0.205	X_WP:	0.000	Y_WP:	0.000	Y_WP:	0.500	X:	0.000	Y:	0.000	Z:	0.000	yaw:	-11.773	yaw rate:	37.449	Roll:	-0.000	Pitch:	-0.000	Yaw:	-18.657	Thrust:	94.719
Time:	3.187	Roll Set Point:	0.000	Pitch Set Point:	0.000	Yaw Set Point:	0.205	X_WP:	0.000	Y_WP:	0.000	Y_WP:	0.500	X:	0.000	Y:	0.000	Z:	0.000	yaw:	-11.773	yaw rate:	37.449	Roll:	-0.000	Pitch:	-0.000	Yaw:	-18.642	Thrust:	94.929
Time:	3.198	Roll Set Point:	0.000	Pitch Set Point:	0.000	Yaw Set Point:	0.205	X_WP:	0.000	Y_WP:	0.000	Y_WP:	0.500	X:	0.000	Y:	0.000	Z:	0.000	yaw:	-11.773	yaw rate:	37.449	Roll:	-0.000	Pitch:	-0.000	Yaw:	-18.645	Thrust:	95.677
Time:	3.209	Roll Set Point:	0.000	Pitch Set Point:	0.000	Yaw Set Point:	0.205	X_WP:	0.000	Y_WP:	0.000	Y_WP:	0.500	X:	0.000	Y:	0.000	Z:	0.000	yaw:	-11.773	yaw rate:	37.449	Roll:	-0.000	Pitch:	-0.000	Yaw:	-18.644	Thrust:	96.309
Time:	3.220	Roll Set Point:	0.000	Pitch Set Point:	0.000	Yaw Set Point:	0.205	X_WP:	0.000	Y_WP:	0.000	Y_WP:	0.500	X:	0.000	Y:	0.000	Z:	0.000	yaw:	-11.773	yaw rate:	37.449	Roll:	-0.000	Pitch:	-0.000	Yaw:	-18.646	Thrust:	97.028
Time:	3.231	Roll Set Point:	0.000	Pitch Set Point:	0.000	Yaw Set Point:	0.205	X_WP:	0.000	Y_WP:	0.000	Y_WP:	0.500	X:	0.000	Y:	0.000	Z:	0.000	yaw:	-11.773	yaw rate:	37.449	Roll:	-0.000	Pitch:	-0.000	Yaw:	-18.643	Thrust:	97.610
Time:	3.242	Roll Set Point:	0.000	Pitch Set Point:	0.000	Yaw Set Point:	0.205	X_WP:	0.000	Y_WP:	0.000	Y_WP:	0.500	X:	0.000	Y:	0.000	Z:	0.000	yaw:	-11.773	yaw rate:	37.449	Roll:	-0.000	Pitch:	-0.000	Yaw:	-18.645	Thrust:	98.312
Time:	3.253	Roll Set Point:	0.000	Pitch Set Point:	0.000	Yaw Set Point:	0.205	X_WP:	0.000	Y_WP:	0.000	Y_WP:	0.500	X:	0.000	Y:	0.000	Z:	0.000	yaw:	-11.773	yaw rate:	37.449	Roll:	-0.000	Pitch:	-0.000	Yaw:	-18.644	Thrust:	98.960
Time:	3.264	Roll Set Point:	0.000	Pitch Set Point:	0.000	Yaw Set Point:	0.205	X_WP:	0.000	Y_WP:	0.000	Y_WP:	0.500	X:	0.000	Y:	0.000	Z:	0.000	yaw:	-11.773	yaw rate:	37.449	Roll:	-0.000	Pitch:	-0.000	Yaw:	-18.645	Thrust:	99.634
Time:	3.275	Roll Set Point:	0.000	Pitch Set Point:	0.000	Yaw Set Point:	0.205	X_WP:	0.000	Y_WP:	0.000	Y_WP:	0.500	X:	0.000	Y:	0.000	Z:	0.000	yaw:	-11.773	yaw rate:	37.449	Roll:	-0.000	Pitch:	-0.000	Yaw:	-18.644	Thrust:	100.000
Time:	3.286	Roll Set Point:	0.000	Pitch Set Point:	0.000	Yaw Set Point:	0.205	X_WP:	0.000	Y_WP:	0.000	Y_WP:	0.500	X:	0.000	Y:	0.000	Z:	0.000	yaw:	-11.773	yaw rate:	37.449	Roll:	-0.000	Pitch:	-0.000	Yaw:	-18.645	Thrust:	100.000
Time:	3.297	Roll Set Point:	0.000	Pitch Set Point:	0.000	Yaw Set Point:	0.205	X_WP:	0.000	Y_WP:	0.000	Y_WP:	0.500	X:	0.000	Y:	0.000	Z:	0.000	yaw:	-11.773	yaw rate:	37.449	Roll:	-0.000	Pitch:	-0.000	Yaw:	-18.644	Thrust:	100.000
Time:	3.308	Roll Set Point:	0.000	Pitch Set Point:	0.000	Yaw Set Point:	0.205	X_WP:	0.000	Y_WP:	0.000	Y_WP:	0.500	X:	0.000	Y:	0.000	Z:	0.000	yaw:	-11.773	yaw rate:	37.449	Roll:	-0.000	Pitch:	-0.000	Yaw:	-18.645	Thrust:	100.000
Time:	3.320	Roll Set Point:	0.000	Pitch Set Point:	0.000	Yaw Set Point:	0.205	X_WP:	0.000	Y_WP:	0.000	Y_WP:	0.500	X:	0.000	Y:	0.000	Z:	0.000	yaw:	-11.773	yaw rate:	37.449	Roll:	-0.000	Pitch:	-0.000	Yaw:	-18.845	Thrust:	100.000
Time:	3.331	Roll Set Point:	0.000	Pitch Set Point:	0.000	Yaw Set Point:	0.205	X_WP:	0.000	Y_WP:	0.000	Y_WP:	0.500	X:	0.000	Y:	0.000	Z:	0.000	yaw:	-11.773	yaw rate:	37.449	Roll:	-0.000	Pitch:	-0.000	Yaw:	-18.644	Thrust:	100.000
Time:	3.343	Roll Set Point:	0.000	Pitch Set Point:	0.000	Yaw Set Point:	0.205	X_WP:	0.000	Y_WP:	0.000	Y_WP:	0.500	X:	0.000	Y:	0.000	Z:	0.000	yaw:	-11.773	yaw rate:	37.449	Roll:	-0.000	Pitch:	-0.000	Yaw:	-18.645	Thrust:	100.000
Time:	3.354	Roll Set Point:	0.000	Pitch Set Point:	0.000	Yaw Set Point:	0.205	X_WP:	0.000	Y_WP:	0.000	Y_WP:	0.500	X:	0.000	Y:	0.000	Z:	0.000	yaw:	-11.773	yaw rate:	37.449	Roll:	-0.000	Pitch:	-0.000	Yaw:	-18.644	Thrust:	100.000
Time:	3.365	Roll Set Point:	0.000	Pitch Set Point:	0.000	Yaw Set Point:	0.205	X_WP:	0.000	Y_WP:	0.000	Y_WP:	0.500	X:	0.000	Y:	0.000	Z:	0.000	yaw:	-11.773	yaw rate:	37.449	Roll:	-0.000	Pitch:	-0.000	Yaw:	-18.645	Thrust:	100.000
Time:	3.376	Roll Set Point:	0.000	Pitch Set Point:	0.000	Yaw Set Point:	0.205	X_WP:	0.000	Y_WP:	0.000	Y_WP:	0.500	X:	0.000	Y:	0.000	Z:	0.000	yaw:	-11.773	yaw rate:	37.449	Roll:	-0.000	Pitch:	-0.000	Yaw:	-18.645	Thrust:	100.000
Time:	3.387	Roll Set Point:	0.000	Pitch Set Point:	0.000	Yaw Set Point:	0.205	X_WP:	0.000	Y_WP:	0.000	Y_WP:	0.500	X:	0.000	Y:	0.000	Z:	0.000	yaw:	-11.773	yaw rate:	37.449	Roll:	-0.000	Pitch:	-0.000	Yaw:	-18.648	Thrust:	100.000
Time:	3.398	Roll Set Point:	0.000	Pitch Set Point:	0.000	Yaw Set Point:	0.205	X_WP:	0.000	Y_WP:	0.000	Y_WP:	0.500	X:	0.000	Y:	0.000	Z:	0.000	yaw:	-11.773	yaw rate:	37.449	Roll:	-0.000	Pitch:	-0.000	Yaw:	-18.644	Thrust:	100.000
Time:	3.409	Roll Set Point:	0.000	Pitch Set Point:	0.000	Yaw Set Point:	0.205	X_WP:	0.000	Y_WP:	0.000	Y_WP:	0.500	X:	0.000	Y:	0.000	Z:	0.000	yaw:	-11.773	yaw rate:	37.449	Roll:	-0.000	Pitch:	-0.000	Yaw:	-18.644	Thrust:	100.000
Time:	3.420	Roll Set Point:	0.000	Pitch Set Point:	0.000	Yaw Set Point:	0.205	X_WP:	0.000	Y_WP:	0.000	Y_WP:	0.500	X:	0.000	Y:	0.000	Z:	0.000	yaw:	-11.773	yaw rate:	37.449	Roll:	-0.000	Pitch:	-0.000	Yaw:	-18.637	Thrust:	100.000
Time:	3.431	Roll Set Point:	0.000	Pitch Set Point:	0.000	Yaw Set Point:	0.205	X_WP:	0.000	Y_WP:	0.000	Y_WP:	0.500	X:	0.000	Y:	0.000	Z:	0.000	yaw:	-11.773	yaw rate:	37.449	Roll:	-0.000	Pitch:	-0.000	Yaw:	-18.645	Thrust:	100.000
Time:	3.442	Roll Set Point:	0.000	Pitch Set Point:	0.000	Yaw Set Point:	0.205	X_WP:	0.000	Y_WP:	0.000	Y_WP:	0.500	X:	0.000	Y:	0.000	Z:	0.000	yaw:	-11.773	yaw rate:	37.449	Roll:	-0.000	Pitch:	-0.000	Yaw:	-18.645	Thrust:	100.000
Time:	3.453	Roll Set Point:	0.000	Pitch Set Point:	0.000	Yaw Set Point:	0.205	X_WP:	0.000	Y_WP:	0.000	Y_WP:	0.500	X:	0.000	Y:	0.000	Z:	0.000	yaw:	-11.773	yaw rate:	37.449	Roll:	-0.000	Pitch:	-0.000	Yaw:	-18.644	Thrust:	100.000
Time:	3.464	Roll Set Point:	0.000	Pitch Set Point:	0.000	Yaw Set Point:	0.205	X_WP:	0.000	Y_WP:	0.000	Y_WP:	0.500	X:	0.000	Y:	0.000	Z:	0.000	yaw:	-11.773	yaw rate:	37.449	Roll:	-0.000	Pitch:	-0.000	Yaw:	-18.650	Thrust:	100.000
Time:	3.475	Roll Set Point:	0.000	Pitch Set Point:	0.000	Yaw Set Point:	0.205	X_WP:	0.000	Y_WP:	0.000	Y_WP:	0.500	X:	0.000	Y:	0.000	Z:	0.000	yaw:	-11.773	yaw rate:	37.449	Roll:	-0.000	Pitch:	-0.000	Yaw:	-18.644	Thrust:	100.000
Time:	3.486	Roll Set Point:	0.000	Pitch Set Point:	0.000	Yaw Set Point:	0.205	X_WP:	0.000	Y_WP:	0.000	Y_WP:	0.500	X:	0.000	Y:	0.000	Z:	0.000	yaw:	-11.773	yaw rate:	37.449	Roll:	-0.000	Pitch:	-0.000	Yaw:	-18.647	Thrust:	100.000
Time:	3.497	Roll Set Point:	0.000	Pitch Set Point:	0.000	Yaw Set Point:	0.205	X_WP:	0.000	Y_WP:	0.000	Y_WP:	0.500	X:	0.000	Y:	0.000	Z:	0.000	yaw:	-11.773	yaw rate:	37.449	Roll:	-0.000	Pitch:	-0.000	Yaw:	-18.642	Thrust:	100.000
Time:	3.508	Roll Set Point:	0.000	Pitch Set Point:	0.000	Yaw Set Point:	0.205	X_WP:	0.000	Y_WP:	0.000	Y_WP:	0.500	X:	0.000	Y:	0.000	Z:	0.000	yaw:	-11.773	yaw rate:	37.449	Roll:	-0.000	Pitch:	-0.000	Yaw:	-18.673	Thrust:	100.000
Time:	3.519	Roll Set Point:	0.000	Pitch Set Point:	0.000	Yaw Set Point:	0.205	X_WP:	0.000	Y_WP:	0.000	Y_WP:	0.500	X:	0.000	Y:	0.000	Z:	0.000	yaw:	-11.773	yaw rate:	37.449	Roll:	-0.000	Pitch:	-0.000	Yaw:	-18.651	Thrust:	100.000
Time:	3.530	Roll Set Point:	0.000	Pitch Set Point:	0.000	Yaw Set Point:	0.205	X_WP:	0.000	Y_WP:	0.000	Y_WP:	0.500	X:	0.000	Y:	0.000	Z:	0.000	yaw:	-11.773	yaw rate:	37.449	Roll:	-0.000	Pitch:	-0.000	Yaw:	-18.645	Thrust:	100.000
Time:	3.541	Roll Set Point:	0.000	Pitch Set Point:	0.000	Yaw Set Point:	0.205	X_WP:	0.000	Y_WP:	0.000	Y_WP:	0.500	X:	0.000	Y:	0.000	Z:	0.000	yaw:	-11.773	yaw rate:	37.449	Roll:	-0.000	Pitch:	-0.000	Yaw:	-18.645	Thrust:	100.000
Time:	3.552	Roll Set Point:	0.000	Pitch Set Point:	0.000	Yaw Set Point:	0.205	X_WP:	0.000	Y_WP:	0.000	Y_WP:	0.500	X:	0.000	Y:	0.000	Z:	0.000	yaw:	-11.773	yaw rate:	37.449	Roll:	-0.000	Pitch:	-0.000	Yaw:	-18.639	Thrust:	100.000
Time:	3.563	Roll Set Point:	0.000	Pitch Set Point:	0.000	Yaw Set Point:	0.205	X_WP:	0.000	Y_WP:	0.000	Y_WP:	0.500	X:	0.000	Y:	0.000	Z:	0.000	yaw:	-11.773	yaw rate:	37.449	Roll:	-0.000	Pitch:	-0.000	Yaw:	-18.649	Thrust:	100.000
Time:	3.574	Roll Set Point:	0.000	Pitch Set Point:	0.000	Yaw Set Point:	0.205	X_WP:	0.000	Y_WP:	0.000	Y_WP:	0.500	X:	0.000	Y:	0.000	Z:	0.000	yaw:	-11.773	yaw rate:	37.449	Roll:	-0.000	Pitch:	-0.000	Yaw:	-18.646	Thrust:	100.000
Time:	3.585	Roll Set Point:	0.000	Pitch Set Point:	0.000	Yaw Set Point:	0.205	X_WP:	0.000	Y_WP:	0.000	Y_WP:	0.500	X:	0.000	Y:	0.000	Z:	0.000	yaw:	-11.773	yaw rate:	37.449	Roll:	-0.000	Pitch:	-0.000	Yaw:	-18.644	Thrust:	100.000
Time:	3.596	Roll Set Point:	0.000	Pitch Set Point:	0.000	Yaw Set Point:	0.205	X_WP:	0.000	Y_WP:	0.000	Y_WP:	0.500	X:	0.000	Y:	0.000	Z:	0.000	yaw:	-11.773	yaw rate:	37.449	Roll:	-0.000	Pitch:	-0.000	Yaw:	-18.644	Thrust:	100.000
Time:	3.607	Roll Set Point:	0.000	Pitch Set Point:	0.000	Yaw Set Point:	0.205	X_WP:	0.000	Y_WP:	0.000	Y_WP:	0.500	X:	0.000	Y:	0.000	Z:	0.000	yaw:	-11.773	yaw rate:	37.449	Roll:	-0.000	Pitch:	-0.000	Yaw:	-18.646	Thrust:	100.000
Time:	3.618	Roll Set Point:	0.000	Pitch Set Point:	0.000	Yaw Set Point:	0.205	X_WP:	0.000	Y_WP:	0.000	Y_WP:	0.500	X:	0.000	Y:	0.000	Z:	0.000	yaw:	-11.773	yaw rate:	37.449	Roll:	-0.000	Pitch:	-0.000	Yaw:	-18.646	Thrust:	100.000
Time:	3.629	Roll Set Point:	0.000	Pitch Set Point:	0.000	Yaw Set Point:	0.205	X_WP:	0.000	Y_WP:	0.000	Y_WP:	0.500	X:	0.000	Y:	0.000	Z:	0.000	yaw:	-11.773	yaw rate:	37.449	Roll:	-0.000	Pitch:	-0.000	Yaw:	-18.644	Thrust:	100.000
Time:	3.640	Roll Set Point:	0.000	Pitch Set Point:	0.000	Yaw Set Point:	0.205	X_WP:	0.000	Y_WP:	0.000	Y_WP:	0.500	X:	0.000	Y:	0.000	Z:	0.000	yaw:	-11.773	yaw rate:	37.449	Roll:	-0.000	Pitch:	-0.000	Yaw:	-18.644	Thrust:	100.000
Time:	3.652	Roll Set Point:	0.000	Pitch Set Point:	0.000	Yaw Set Point:	0.205	X_WP:	0.000	Y_WP:	0.000	Y_WP:	0.500	X:	0.000	Y:	0.000	Z:	0.000	yaw:	-11.773	yaw rate:	37.449	Roll:	-0.000	Pitch:	-0.000	Yaw:	-18.646	Thrust:	100.000
Time:	3.663	Roll Set Point:	0.000	Pitch Set Point:	0.000	Yaw Set Point:	0.205	X_WP:	0.000	Y_WP:	0.000	Y_WP:	0.500	X:	0.000	Y:	0.000	Z:	0.000	yaw:	-11.773	yaw rate:	37.449	Roll:	-0.000	Pitch:	-0.000	Yaw:	-18.643	Thrust:	100.000
Time:	3.674	Roll Set Point:	0.000	Pitch Set Point:	0.000	Yaw Set Point:	0.205	X_WP:	0.000	Y_WP:	0.000	Y_WP:	0.500	X:	0.000	Y:	0.000	Z:	0.000	yaw:	-11.773	yaw rate:	37.449	Roll:	-0.000	Pitch:	-0.000	Yaw:	-18.645	Thrust:	100.000
Time:	3.685	Roll Set Point:	0.000	Pitch Set Point:	0.000	Yaw Set Point:	0.205	X_WP:	0.000	Y_WP:	0.000	Y_WP:	0.500	X:	0.000	Y:	0.000	Z:	0.000	yaw:	-11.773	yaw rate:	37.449	Roll:	-0.000	Pitch:	-0.000	Yaw:	-18.645	Thrust:	100.000
Time:	3.697	Roll Set Point:	0.000	Pitch Set Point:	0.000	Yaw Set Point:	0.205	X_WP:	0.000	Y_WP:	0.000	Y_WP:	0.500	X:	0.000	Y:	0.000	Z:	0.000	yaw:	-11.773	yaw rate:	37.449	Roll:	-0.000	Pitch:	-0.000	Yaw:	-18.840	Thrust:	100.000
Time:	3.708	Roll Set Point:	0.000	Pitch Set Point:	0.000	Yaw Set Point:	0.205	X_WP:	0.000	Y_WP:	0.000	Y_WP:	0.500	X:	0.000	Y:	0.000	Z:	0.000	yaw:	-11.773	yaw rate:	37.449	Roll:	-0.000	Pitch:	-0.000	Yaw:	-18.644	Thrust:	100.000
Time:	3.719	Roll Set Point:	0.000	Pitch Set Point:	0.000	Yaw Set Point:	0.205	X_WP:	0.000	Y_WP:	0.000	Y_WP:	0.500	X:	0.000	Y:	0.000	Z:	0.000	yaw:	-11.773	yaw rate:	37.449	Roll:	-0.000	Pitch:	-0.000	Yaw:	-18.745	Thrust:	100.000
Time:	3.730	Roll Set Point:	0.000	Pitch Set Point:	0.000	Yaw Set Point:	0.205	X_WP:	0.000	Y_WP:	0.000	Y_WP:	0.500	X:	0.000	Y:	0.000	Z:	0.000	yaw:	-11.773	yaw rate:	37.449	Roll:	-0.000	Pitch:	-0.000	Yaw:	-18.645	Thrust:	100.000
Time:	3.741	Roll Set Point:	0.000	Pitch Set Point:	0.000	Yaw Set Point:	0.205	X_WP:	0.000	Y_WP:	0.000	Y_WP:	0.500	X:	0.000	Y:	0.000	Z:	0.000	yaw:	-11.773	yaw rate:	37.449	Roll:	-0.000	Pitch:	-0.000	Yaw:	-18.645	Thrust:	100.000
Time:	3.752	Roll Set Point:	0.000	Pitch Set Point:	0.000	Yaw Set Point:	0.205	X_WP:	0.000	Y_WP:	0.000	Y_WP:	0.500	X:	0.000	Y:	0.000	Z:	0.000	yaw:	-11.773	yaw rate:	37.449	Roll:	-0.000	Pitch:	-0.000	Yaw:	-18.644	Thrust:	100.000
Time:	3.763	Roll Set Point:	0.000	Pitch Set Point:	0.000	Yaw Set Point:	0.205	X_WP:	0.000	Y_WP:	0.000	Y_WP:	0.500	X:	0.000	Y:	0.000	Z:	0.000	yaw:	-11.773	yaw rate:	37.449	Roll:	-0.000	Pitch:	-0.000	Yaw:	-18.650	Thrust:	100.000
Time:	3.774	Roll Set Point:	0.000	Pitch Set Point:	0.000	Yaw Set Point:	0.205	X_WP:	0.000	Y_WP:	0.000	Y_WP:	0.500	X:	0.000	Y:	0.000	Z:	0.000	yaw:	-11.773	yaw rate:	37.449	Roll:	-0.000	Pitch:	-0.000	Yaw:	-18.639	Thrust:	100.000
Time:	3.785	Roll Set Point:	0.000	Pitch Set Point:	0.000	Yaw Set Point:	0.205	X_WP:	0.000	Y_WP:	0.000	Y_WP:	0.500	X:	0.000	Y:	0.000	Z:	0.000	yaw:	-11.773	yaw rate:	37.449	Roll:	-0.000	Pitch:	-0.000	Yaw:	-18.645	Thrust:	100.000
Time:	3.796	Roll Set Point:	0.000	Pitch Set Point:	0.000	Yaw Set Point:	0.205	X_WP:	0.000	Y_WP:	0.000	Y_WP:	0.500	X:	0.000	Y:	0.000	Z:	0.000	yaw:	-11.773	yaw rate:	37.449	Roll:	-0.000	Pitch:	-0.000	Yaw:	-18.649	Thrust:	100.000
Time:	3.807	Roll Set Point:	0.000	Pitch Set Point:	0.000	Yaw Set Point:	0.205	X_WP:	0.000	Y_WP:	0.000	Y_WP:	0.500	X:	0.000	Y:	0.000	Z:	0.000	yaw:	-11.773	yaw rate:	37.449	Roll:	-0.000	Pitch:	-0.000	Yaw:	-18.645	Thrust:	100.000
Time:	3.818	Roll Set Point:	0.000	Pitch Set Point:	0.000	Yaw Set Point:	0.205	X_WP:	0.000	Y_WP:	0.000	Y_WP:	0.500	X:	0.000	Y:	0.000	Z:	0.000	yaw:	-11.773	yaw rate:	37.449	Roll:	-0.000	Pitch:	-0.000	Yaw:	-18.646	Thrust:	100.000
Time:	3.829	Roll Set Point:	0.000	Pitch Set Point:	0.000	Yaw Set Point:	0.205	X_WP:	0.000	Y_WP:	0.000	Y_WP:	0.500	X:	0.000	Y:	0.000	Z:	0.000	yaw:	-11.773	yaw rate:	37.449	Roll:	-0.000	Pitch:	-0.000	Yaw:	-18.645	Thrust:	100.000
Time:	3.841	Roll Set Point:	0.000	Pitch Set Point:	0.000	Yaw Set Point:	0.205	X_WP:	0.000	Y_WP:	0.000	Y_WP:	0.500	X:	0.000	Y:	0.000	Z:	0.000	yaw:	-11.773	yaw rate:	37.449	Roll:	-0.000	Pitch:	-0.000	Yaw:	-18.672	Thrust:	100.000
Time:	3.852	Roll Set Point:	0.000	Pitch Set Point:	0.000	Yaw Set Point:	0.205	X_WP:	0.000	Y_WP:	0.000	Y_WP:	0.500	X:	0.000	Y:	0.000	Z:	0.000	yaw:	-11.773	yaw rate:	37.449	Roll:	-0.000	Pitch:	-0.000	Yaw:	-18.645	Thrust:	100.000
Time:	3.863	Roll Set Point:	0.000	Pitch Set Point:	0.000	Yaw Set Point:	0.205	X_WP:	0.000	Y_WP:	0.000	Y_WP:	0.500	X:	0.000	Y:	0.000	Z:	0.000	yaw:	-11.773	yaw rate:	37.449	Roll:	-0.000	Pitch:	-0.000	Yaw:	-18.645	Thrust:	100.000
Time:	3.874	Roll Set Point:	0.000	Pitch Set Point:	0.000	Yaw Set Point:	0.205	X_WP:	0.000	Y_WP:	0.000	Y_WP:	0.500	X:	0.000	Y:	0.000	Z:	0.000	yaw:	-11.773	yaw rate:	37.449	Roll:	-0.000	Pitch:	-0.000	Yaw:	-18.645	Thrust:	100.000
Time:	3.885	Roll Set Point:	0.000	Pitch Set Point:	0.000	Yaw Set Point:	0.205	X_WP:	0.000	Y_WP:	0.000	Y_WP:	0.500	X:	0.000	Y:	0.000	Z:	0.000	yaw:	-11.773	yaw rate:	37.449	Roll:	-0.000	Pitch:	-0.000	Yaw:	-18.650	Thrust:	100.000
Time:	3.896	Roll Set Point:	0.000	Pitch Set Point:	0.000	Yaw Set Point:	0.205	X_WP:	0.000	Y_WP:	0.000	Y_WP:	0.500	X:	0.000	Y:	0.000	Z:	0.000	yaw:	-11.773	yaw rate:	37.449	Roll:	-0.000	Pitch:	-0.000	Yaw:	-18.645	Thrust:	100.000
Time:	3.907	Roll Set Point:	0.000	Pitch Set Point:	0.000	Yaw Set Point:	0.205	X_WP:	0.000	Y_WP:	0.000	Y_WP:	0.500	X:	0.000	Y:	0.000	Z:	0.000	yaw:	-11.773	yaw rate:	37.449	Roll:	-0.000	Pitch:	-0.000	Yaw:	-18.644	Thrust:	100.000
Time:	3.918	Roll Set Point:	0.000	Pitch Set Point:	0.000	Yaw Set Point:	0.205	X_WP:	0.000	Y_WP:	0.000	Y_WP:	0.500	X:	0.000	Y:	0.000	Z:	0.000	yaw:	-11.773	yaw rate:	37.449	Roll:	-0.000	Pitch:	-0.000	Yaw:	-18.646	Thrust:	100.000
Time:	3.929	Roll Set Point:	0.000	Pitch Set Point:	0.000	Yaw Set Point:	0.205	X_WP:	0.000	Y_WP:	0.000	Y_WP:	0.500	X:	0.000	Y:	0.000	Z:	0.000	yaw:	-11.773	yaw rate:	37.449	Roll:	-0.000	Pitch:	-0.000	Yaw:	-18.639	Thrust:	100.000
Time:	3.940	Roll Set Point:	0.000	Pitch Set Point:	0.000	Yaw Set Point:	0.205	X_WP:	0.000	Y_WP:	0.000	Y_WP:	0.500	X:	0.000	Y:	0.000	Z:	0.000	yaw:	-11.773	yaw rate:	37.449	Roll:	-0.000	Pitch:	-0.000	Yaw:	-18.650	Thrust:	100.000
Time:	3.951	Roll Set Point:	0.000	Pitch Set Point:	0.000	Yaw Set Point:	0.205	X_WP:	0.000	Y_WP:	0.000	Y_WP:	0.500	X:	0.000	Y:	0.000	Z:	0.000	yaw:	-11.773	yaw rate:	37.449	Roll:	-0.000	Pitch:	-0.000	Yaw:	-18.645	Thrust:	100.000
Time:	3.962	Roll Set Point:	0.000	Pitch Set Point:	0.000	Yaw Set Point:	0.205	X_WP:	0.000	Y_WP:	0.000	Y_WP:	0.500	X:	0.000	Y:	0.000	Z:	0.000	yaw:	-11.773	yaw rate:	37.449	Roll:	-0.000	Pitch:	-0.000	Yaw:	-18.644	Thrust:	100.000
Time:	3.973	Roll Set Point:	0.000	Pitch Set Point:	0.000	Yaw Set Point:	0.205	X_WP:	0.000	Y_WP:	0.000	Y_WP:	0.500	X:	0.000	Y:	0.000	Z:	0.000	yaw:	-11.773	yaw rate:	37.449	Roll:	-0.000	Pitch:	-0.000	Yaw:	-18.639	Thrust:	100.000
Time:	3.984	Roll Set Point:	0.000	Pitch Set Point:	0.000	Yaw Set Point:	0.205	X_WP:	0.000	Y_WP:	0.000	Y_WP:	0.500	X:	0.000	Y:	0.000	Z:	0.000	yaw:	-11.773	yaw rate:	37.449	Roll:	-0.000	Pitch:	-0.000	Yaw:	-18.645	Thrust:	100.000
Time:	3.995	Roll Set Point:	0.000	Pitch Set Point:	0.000	Yaw Set Point:	0.205	X_WP:	0.000	Y_WP:	0.000	Y_WP:	0.500	X:	0.000	Y:	0.000	Z:	0.000	yaw:	-11.773	yaw rate:	37.449	Roll:	-0.000	Pitch:	-0.000	Yaw:	-18.650	Thrust:	100.000
Time:	4.006	Roll Set Point:	0.000	Pitch Set Point:	0.000	Yaw Set Point:	0.205	X_WP:	0.000	Y_WP:	0.000	Y_WP:	0.500	X:	0.000	Y:	0.000	Z:	0.000	yaw:	-11.773	yaw rate:	37.449	Roll:	-0.000	Pitch:	-0.000	Yaw:	-18.644	Thrust:	100.000
Time:	4.017	Roll Set Point:	0.000	Pitch Set Point:	0.000	Yaw Set Point:	0.205	X_WP:	0.000	Y_WP:	0.000	Y_WP:	0.500	X:	0.000	Y:	0.000	Z:	0.000	yaw:	-11.773	yaw rate:	37.449	Roll:	-0.000	Pitch:	-0.000	Yaw:	-18.646	Thrust:	100.000
Time:	4.028	Roll Set Point:	0.000	Pitch Set Point:	0.000	Yaw Set Point:	0.205	X_WP:	0.000	Y_WP:	0.000	Y_WP:	0.500	X:	0.000	Y:	0.000	Z:	0.000	yaw:	-11.773	yaw rate:	37.449	Roll:	-0.000	Pitch:	-0.000	Yaw:	-18.644	Thrust:	100.000
Time:	4.039	Roll Set Point:	0.000	Pitch Set Point:	0.000	Yaw Set Point:	0.205	X_WP:	0.000	Y_WP:	0.000	Y_WP:	0.500	X:	0.000	Y:	0.000	Z:	0.000	yaw:	-11.773	yaw rate:	37.449	Roll:	-0.000	Pitch:	-0.000	Yaw:	-18.645	Thrust:	100.000
Time:	4.050	Roll Set Point:	0.000	Pitch Set Point:	0.000	Yaw Set Point:	0.205	X_WP:	0.000	Y_WP:	0.000	Y_WP:	0.500	X:	0.000	Y:	0.000	Z:	0.000	yaw:	-11.773	yaw rate:	37.449	Roll:	-0.000	Pitch:	-0.000	Yaw:	-18.639	Thrust:	100.000
Time:	4.061	Roll Set Point:	0.000	Pitch Set Point:	0.000	Yaw Set Point:	0.205	X_WP:	0.000	Y_WP:	0.000	Y_WP:	0.500	X:	0.000	Y:	0.000	Z:	0.000	yaw:	-11.773	yaw rate:	37.449	Roll:	-0.000	Pitch:	-0.000	Yaw:	-18.650	Thrust:	100.000
Time:	4.072	Roll Set Point:	0.000	Pitch Set Point:	0.000	Yaw Set Point:	0.205	X_WP:	0.000	Y_WP:	0.000	Y_WP:	0.500	X:	0.000	Y:	0.000	Z:	0.000	yaw:	-11.773	yaw rate:	37.449	Roll:	-0.000	Pitch:	-0.000	Yaw:	-18.639	Thrust:	100.000
Time:	4.083	Roll Set Point:	0.000	Pitch Set Point:	0.000	Yaw Set Point:	0.205	X_WP:	0.000	Y_WP:	0.000	Y_WP:	0.500	X:	0.000	Y:	0.000	Z:	0.000	yaw:	-11.773	yaw rate:	37.449	Roll:	-0.000	Pitch:	-0.000	Yaw:	-18.645	Thrust:	100.000
Time:	4.094	Roll Set Point:	0.000	Pitch Set Point:	0.000	Yaw Set Point:	0.205	X_WP:	0.000	Y_WP:	0.000	Y_WP:	0.500	X:	0.000	Y:	0.000	Z:	0.000	yaw:	-11.773	yaw rate:	37.449	Roll:	-0.000	Pitch:	-0.000	Yaw:	-18.645	Thrust:	100.000
Time:	4.105	Roll Set Point:	0.000	Pitch Set Point:	0.000	Yaw Set Point:	0.205	X_WP:	0.000	Y_WP:	0.000	Y_WP:	0.500	X:	0.000	Y:	0.000	Z:	0.000	yaw:	-11.773	yaw rate:	37.449	Roll:	-0.000	Pitch:	-0.000	Yaw:	-18.651	Thrust:	100.000
Time:	4.116	Roll Set Point:	0.000	Pitch Set Point:	0.000	Yaw Set Point:	0.205	X_WP:	0.000	Y_WP:	0.000	Y_WP:	0.500	X:	0.000	Y:	0.000	Z:	0.000	yaw:	-11.773	yaw rate:	37.449	Roll:	-0.000	Pitch:	-0.000	Yaw:	-18.638	Thrust:	100.000
Time:	4.127	Roll Set Point:	0.000	Pitch Set Point:	0.000	Yaw Set Point:	0.205	X_WP:	0.000	Y_WP:	0.000	Y_WP:	0.500	X:	0.000	Y:	0.000	Z:	0.000	yaw:	-11.773	yaw rate:	37.449	Roll:	-0.000	Pitch:	-0.000	Yaw:	-18.650	Thrust:	100.000
Time:	4.138	Roll Set Point:	0.000	Pitch Set Point:	0.000	Yaw Set Point:	0.205	X_WP:	0.000	Y_WP:	0.000	Y_WP:	0.500	X:	0.000	Y:	0.000	Z:	0.000	yaw:	-11.773	yaw rate:	37.449	Roll:	-0.000	Pitch:	-0.000	Yaw:	-18.644	Thrust:	100.000
Time:	4.149	Roll Set Point:	0.000	Pitch Set Point:	0.000	Yaw Set Point:	0.205	X_WP:	0.000	Y_WP:	0.000	Y_WP:	0.500	X:	0.000	Y:	0.000	Z:	0.000	yaw:	-11.773	yaw rate:	37.449	Roll:	-0.000	Pitch:	-0.000	Yaw:	-18.644	Thrust:	100.000
Time:	4.160	Roll Set Point:	0.000	Pitch Set Point:	0.000	Yaw Set Point:	0.205	X_WP:	0.000	Y_WP:	0.000	Y_WP:	0.500	X:	0.000	Y:	0.000	Z:	0.000	yaw:	-11.773	yaw rate:	37.449	Roll:	-0.000	Pitch:	-0.000	Yaw:	-18.640	Thrust:	100.000
Time:	4.172	Roll Set Point:	0.000	Pitch Set Point:	0.000	Yaw Set Point:	0.205	X_WP:	0.000	Y_WP:	0.000	Y_WP:	0.500	X:	0.000	Y:	0.000	Z:	0.000	yaw:	-11.773	yaw rate:	37.449	Roll:	-0.000	Pitch:	-0.000	Yaw:	-18.653	Thrust:	100.000
Time:	4.183	Roll Set Point:	0.000	Pitch Set Point:	0.000	Yaw Set Point:	0.205	X_WP:	0.000	Y_WP:	0.000	Y_WP:	0.500	X:	0.000	Y:	0.000	Z:	0.000	yaw:	-11.773	yaw rate:	37.449	Roll:	-0.000	Pitch:	-0.000	Yaw:	-18.645	Thrust:	100.000
Time:	4.194	Roll Set Point:	0.000	Pitch Set Point:	0.000	Yaw Set Point:	0.205	X_WP:	0.000	Y_WP:	0.000	Y_WP:	0.500	X:	0.000	Y:	0.000	Z:	0.000	yaw:	-11.773	yaw rate:	37.449	Roll:	-0.000	Pitch:	-0.000	Yaw:	-18.645	Thrust:	100.000
Time:	4.205	Roll Set Point:	0.000	Pitch Set Point:	0.000	Yaw Set Point:	0.205	X_WP:	0.000	Y_WP:	0.000	Y_WP:	0.500	X:	0.000	Y:	0.000	Z:	0.000	yaw:	-11.773	yaw rate:	37.449	Roll:	-0.000	Pitch:	-0.000	Yaw:	-18.644	Thrust:	100.000
Time:	4.216	Roll Set Point:	0.000	Pitch Set Point:	0.000	Yaw Set Point:	0.205	X_WP:	0.000	Y_WP:	0.000	Y_WP:	0.500	X:	0.000	Y:	0.000	Z:	0.000	yaw:	-11.773	yaw rate:	37.449	Roll:	-0.000	Pitch:	-0.000	Yaw:	-18.645	Thrust:	100.000
Time:	4.227	Roll Set Point:	0.000	Pitch Set Point:	0.000	Yaw Set Point:	0.205	X_WP:	0.000	Y_WP:	0.000	Y_WP:	0.500	X:	0.000	Y:	0.000	Z:	0.000	yaw:	-11.773	yaw rate:	37.449	Roll:	-0.000	Pitch:	-0.000	Yaw:	-18.645	Thrust:	100.000
Time:	4.238	Roll Set Point:	0.000	Pitch Set Point:	0.000	Yaw Set Point:	0.205	X_WP:	0.000	Y_WP:	0.000	Y_WP:	0.500	X:	0.000	Y:	0.000	Z:	0.000	yaw:	-11.773	yaw rate:	37.449	Roll:	-0.000	Pitch:	-0.000	Yaw:	-18.645	Thrust:	100.000
Time:	4.249	Roll Set Point:	0.000	Pitch Set Point:	0.000	Yaw Set Point:	0.205	X_WP:	0.000	Y_WP:	0.000	Y_WP:	0.500	X:	0.000	Y:	0.000	Z:	0.000	yaw:	-11.773	yaw rate:	37.449	Roll:	-0.000	Pitch:	-0.000	Yaw:	-18.644	Thrust:	100.000
Time:	4.260	Roll Set Point:	0.000	Pitch Set Point:	0.000	Yaw Set Point:	0.205	X_WP:	0.000	Y_WP:	0.000	Y_WP:	0.500	X:	0.000	Y:	0.000	Z:	0.000	yaw:	-11.773	yaw rate:	37.449	Roll:	-0.000	Pitch:	-0.000	Yaw:	-18.645	Thrust:	100.000
Time:	4.271	Roll Set Point:	0.000	Pitch Set Point:	0.000	Yaw Set Point:	0.205	X_WP:	0.000	Y_WP:	0.000	Y_WP:	0.500	X:	0.000	Y:	0.000	Z:	0.000	yaw:	-11.773	yaw rate:	37.449	Roll:	-0.000	Pitch:	-0.000	Yaw:	-18.645	Thrust:	100.000
Time:	4.282	Roll Set Point:	0.000	Pitch Set Point:	0.000	Yaw Set Point:	0.205	X_WP:	0.000	Y_WP:	0.000	Y_WP:	0.500	X:	0.000	Y:	0.000	Z:	0.000	yaw:	-11.773	yaw rate:	37.449	Roll:	-0.000	Pitch:	-0.000	Yaw:	-18.645	Thrust:	100.000
Time:	4.293	Roll Set Point:	0.000	Pitch Set Point:	0.000	Yaw Set Point:	0.205	X_WP:	0.000	Y_WP:	0.000	Y_WP:	0.500	X:	0.000	Y:	0.000	Z:	0.000	yaw:	-11.773	yaw rate:	37.449	Roll:	-0.000	Pitch:	-0.000	Yaw:	-18.645	Thrust:	100.000
Time:	4.304	Roll Set Point:	0.000	Pitch Set Point:	0.000	Yaw Set Point:	0.205	X_WP:	0.000	Y_WP:	0.000	Y_WP:	0.500	X:	0.000	Y:	0.000	Z:	0.000	yaw:	-11.773	yaw rate:	37.449	Roll:	-0.000	Pitch:	-0.000	Yaw:	-18.645	Thrust:	100.000
Time:	4.316	Roll Set Point:	0.000	Pitch Set Point:	0.000	Yaw Set Point:	0.205	X_WP:	0.000	Y_WP:	0.000	Y_WP:	0.500	X:	0.000	Y:	0.000	Z:	0.000	yaw:	-11.773	yaw rate:	37.449	Roll:	-0.000	Pitch:	-0.000	Yaw:	-18.799	Thrust:	100.000
Time:	4.327	Roll Set Point:	0.000	Pitch Set Point:	0.000	Yaw Set Point:	0.205	X_WP:	0.000	Y_WP:	0.000	Y_WP:	0.500	X:	0.000	Y:	0.000	Z:	0.000	yaw:	-11.773	yaw rate:	37.449	Roll:	-0.000	Pitch:	-0.000	Yaw:	-18.645	Thrust:	100.000
Time:	4.338	Roll Set Point:	0.000	Pitch Set Point:	0.000	Yaw Set Point:	0.205	X_WP:	0.000	Y_WP:	0.000	Y_WP:	0.500	X:	0.000	Y:	0.000	Z:	0.000	yaw:	-11.773	yaw rate:	37.449	Roll:	-0.000	Pitch:	-0.000	Yaw:	-18.650	Thrust:	100.000
Time:	4.349	Roll Set Point:	0.000	Pitch Set Point:	0.000	Yaw Set Point:	0.205	X_WP:	0.000	Y_WP:	0.000	Y_WP:	0.500	X:	0.000	Y:	0.000	Z:	0.000	yaw:	-11.773	yaw rate:	37.449	Roll:	-0.000	Pitch:	-0.000	Yaw:	-18.645	Thrust:	100.000
Time:	4.360	Roll Set Point:	0.000	Pitch Set Point:	0.000	Yaw Set Point:	0.205	X_WP:	0.000	Y_WP:	0.000	Y_WP:	0.500	X:	0.000	Y:	0.000	Z:	0.000	yaw:	-11.773	yaw rate:	37.449	Roll:	-0.000	Pitch:	-0.000	Yaw:	-18.645	Thrust:	100.000
Time:	4.371	Roll Set Point:	0.000	Pitch Set Point:	0.000	Yaw Set Point:	0.205	X_WP:	0.000	Y_WP:	0.000	Y_WP:	0.500	X:	0.000	Y:	0.000	Z:	0.000	yaw:	-11.773	yaw rate:	37.449	Roll:	-0.000	Pitch:	-0.000	Yaw:	-18.644	Thrust:	100.000
Time:	4.382	Roll Set Point:	0.000	Pitch Set Point:	0.000	Yaw Set Point:	0.205	X_WP:	0.000	Y_WP:	0.000	Y_WP:	0.500	X:	0.000	Y:	0.000	Z:	0.000	yaw:	-11.773	yaw rate:	37.449	Roll:	-0.000	Pitch:	-0.000	Yaw:	-18.639	Thrust:	100.000
Time:	4.393	Roll Set Point:	0.000	Pitch Set Point:	0.000	Yaw Set Point:	0.205	X_WP:	0.000	Y_WP:	0.000	Y_WP:	0.500	X:	0.000	Y:	0.000	Z:	0.000	yaw:	-11.773	yaw rate:	37.449	Roll:	-0.000	Pitch:	-0.000	Yaw:	-18.650	Thrust:	100.000
Time:	4.404	Roll Set Point:	0.000	Pitch Set Point:	0.000	Yaw Set Point:	0.205	X_WP:	0.000	Y_WP:	0.000	Y_WP:	0.500	X:	0.000	Y:	0.000	Z:	0.000	yaw:	-11.773	yaw rate:	37.449	Roll:	-0.000	Pitch:	-0.000	Yaw:	-18.639	Thrust:	100.000
Time:	4.415	Roll Set Point:	0.000	Pitch Set Point:	0.000	Yaw Set Point:	0.205	X_WP:	0.000	Y_WP:	0.000	Y_WP:	0.500	X:	0.000	Y:	0.000	Z:	0.000	yaw:	-11.773	yaw rate:	37.449	Roll:	-0.000	Pitch:	-0.000	Yaw:	-18.645	Thrust:	100.000
Time:	4.426	Roll Set Point:	0.000	Pitch Set Point:	0.000	Yaw Set Point:	0.205	X_WP:	0.000	Y_WP:	0.000	Y_WP:	0.500	X:	0.000	Y:	0.000	Z:	0.000	yaw:	-11.773	yaw rate:	37.449	Roll:	-0.000	Pitch:	-0.000	Yaw:	-18.645	Thrust:	100.000
Time:	4.437	Roll Set Point:	0.000	Pitch Set Point:	0.000	Yaw Set Point:	0.205	X_WP:	0.000	Y_WP:	0.000	Y_WP:	0.500	X:	0.000	Y:	0.000	Z:	0.000	yaw:	-11.773	yaw rate:	37.449	Roll:	-0.000	Pitch:	-0.000	Yaw:	-18.649	Thrust:	100.000
Time:	4.448	Roll Set Point:	0.000	Pitch Set Point:	0.000	Yaw Set Point:	0.205	X_WP:	0.000	Y_WP:	0.000	Y_WP:	0.500	X:	0.000	Y:	0.000	Z:	0.000	yaw:	-11.773	yaw rate:	37.449	Roll:	-0.000	Pitch:	-0.000	Yaw:	-18.644	Thrust:	100.000
Time:	4.459	Roll Set Point:	0.000	Pitch Set Point:	0.000	Yaw Set Point:	0.205	X_WP:	0.000	Y_WP:	0.000	Y_WP:	0.500	X:	0.000	Y:	0.000	Z:	0.000	yaw:	-11.773	yaw rate:	37.449	Roll:	-0.000	Pitch:	-0.000	Yaw:	-18.640	Thrust:	100.000
Time:	4.470	Roll Set Point:	0.000	Pitch Set Point:	0.000	Yaw Set Point:	0.205	X_WP:	0.000	Y_WP:	0.000	Y_WP:	0.500	X:	0.000	Y:	0.000	Z:	0.000	yaw:	-11.773	yaw rate:	37.449	Roll:	-0.000	Pitch:	-0.000	Yaw:	-18.645	Thrust:	100.000
Time:	4.481	Roll Set Point:	0.000	Pitch Set Point:	0.000	Yaw Set Point:	0.205	X_WP:	0.000	Y_WP:	0.000	Y_WP:	0.500	X:	0.000	Y:	0.000	Z:	0.000	yaw:	-11.773	yaw rate:	37.449	Roll:	-0.000	Pitch:	-0.000	Yaw:	-18.645	Thrust:	100.000
Time:	4.492	Roll Set Point:	0.000	Pitch Set Point:	0.000	Yaw Set Point:	0.205	X_WP:	0.000	Y_WP:	0.000	Y_WP:	0.500	X:	0.000	Y:	0.000	Z:	0.000	yaw:	-11.773	yaw rate:	37.449	Roll:	-0.000	Pitch:	-0.000	Yaw:	-18.644	Thrust:	100.000
Time:	4.504	Roll Set Point:	0.000	Pitch Set Point:	0.000	Yaw Set Point:	0.205	X_WP:	0.000	Y_WP:	0.000	Y_WP:	0.500	X:	0.000	Y:	0.000	Z:	0.000	yaw:	-11.773	yaw rate:	37.449	Roll:	-0.000	Pitch:	-0.000	Yaw:	-18.771	Thrust:	100.000
Time:	4.515	Roll Set Point:	0.000	Pitch Set Point:	0.000	Yaw Set Point:	0.205	X_WP:	0.000	Y_WP:	0.000	Y_WP:	0.500	X:	0.000	Y:	0.000	Z:	0.000	yaw:	-11.773	yaw rate:	37.449	Roll:	-0.000	Pitch:	-0.000	Yaw:	-18.644	Thrust:	100.000
Time:	4.526	Roll Set Point:	0.000	Pitch Set Point:	0.000	Yaw Set Point:	0.205	X_WP:	0.000	Y_WP:	0.000	Y_WP:	0.500	X:	0.000	Y:	0.000	Z:	0.000	yaw:	-11.773	yaw rate:	37.449	Roll:	-0.000	Pitch:	-0.000	Yaw:	-18.650	Thrust:	100.000
Time:	4.537	Roll Set Point:	0.000	Pitch Set Point:	0.000	Yaw Set Point:	0.205	X_WP:	0.000	Y_WP:	0.000	Y_WP:	0.500	X:	0.000	Y:	0.000	Z:	0.000	yaw:	-11.773	yaw rate:	37.449	Roll:	-0.000	Pitch:	-0.000	Yaw:	-18.645	Thrust:	100.000
Time:	4.548	Roll Set Point:	0.000	Pitch Set Point:	0.000	Yaw Set Point:	0.205	X_WP:	0.000	Y_WP:	0.000	Y_WP:	0.500	X:	0.000	Y:	0.000	Z:	0.000	yaw:	-11.773	yaw rate:	37.449	Roll:	-0.000	Pitch:	-0.000	Yaw:	-18.644	Thrust:	100.000
Time:	4.559	Roll Set Point:	0.000	Pitch Set Point:	0.000	Yaw Set Point:	0.205	X_WP:	0.000	Y_WP:	0.000	Y_WP:	0.500	X:	0.000	Y:	0.000	Z:	0.000	yaw:	-11.773	yaw rate:	37.449	Roll:	-0.000	Pitch:	-0.000	Yaw:	-18.645	Thrust:	100.000
Time:	4.571	Roll Set Point:	0.000	Pitch Set Point:	0.000	Yaw Set Point:	0.205	X_WP:	0.000	Y_WP:	0.000	Y_WP:	0.500	X:	0.000	Y:	0.000	Z:	0.000	yaw:	-11.773	yaw rate:	37.449	Roll:	-0.000	Pitch:	-0.000	Yaw:	-18.845	Thrust:	100.000
Time:	4.582	Roll Set Point:	0.000	Pitch Set Point:	0.000	Yaw Set Point:	0.205	X_WP:	0.000	Y_WP:	0.000	Y_WP:	0.500	X:	0.000	Y:	0.000	Z:	0.000	yaw:	-11.773	yaw rate:	37.449	Roll:	-0.000	Pitch:	-0.000	Yaw:	-18.641	Thrust:	100.000
Time:	4.593	Roll Set Point:	0.000	Pitch Set Point:	0.000	Yaw Set Point:	0.205	X_WP:	0.000	Y_WP:	0.000	Y_WP:	0.500	X:	0.000	Y:	0.000	Z:	0.000	yaw:	-11.773	yaw rate:	37.449	Roll:	-0.000	Pitch:	-0.000	Yaw:	-18.648	Thrust:	100.000
Time:	4.604	Roll Set Point:	0.000	Pitch Set Point:	0.000	Yaw Set Point:	0.205	X_WP:	0.000	Y_WP:	0.000	Y_WP:	0.500	X:	0.000	Y:	0.000	Z:	0.000	yaw:	-11.773	yaw rate:	37.449	Roll:	-0.000	Pitch:	-0.000	Yaw:	-18.645	Thrust:	100.000
Time:	4.615	Roll Set Point:	0.000	Pitch Set Point:	0.000	Yaw Set Point:	0.205	X_WP:	0.000	Y_WP:	0.000	Y_WP:	0.500	X:	0.000	Y:	0.000	Z:	0.000	yaw:	-11.773	yaw rate:	37.449	Roll:	-0.000	Pitch:	-0.000	Yaw:	-18.645	Thrust:	100.000
Time:	4.626	Roll Set Point:	0.000	Pitch Set Point:	0.000	Yaw Set Point:	0.205	X_WP:	0.000	Y_WP:	0.000	Y_WP:	0.500	X:	0.000	Y:	0.000	Z:	0.000	yaw:	-11.773	yaw rate:	37.449	Roll:	-0.000	Pitch:	-0.000	Yaw:	-18.645	Thrust:	100.000
Time:	4.637	Roll Set Point:	0.000	Pitch Set Point:	0.000	Yaw Set Point:	0.205	X_WP:	0.000	Y_WP:	0.000	Y_WP:	0.500	X:	0.000	Y:	0.000	Z:	0.000	yaw:	-11.773	yaw rate:	37.449	Roll:	-0.000	Pitch:	-0.000	Yaw:	-18.645	Thrust:	100.000
Time:	4.648	Roll Set Point:	0.000	Pitch Set Point:	0.000	Yaw Set Point:	0.205	X_WP:	0.000	Y_WP:	0.000	Y_WP:	0.500	X:	0.000	Y:	0.000	Z:	0.000	yaw:	-11.773	yaw rate:	37.449	Roll:	-0.000	Pitch:	-0.000	Yaw:	-18.645	Thrust:	100.000
Time:	4.659	Roll Set Point:	0.000	Pitch Set Point:	0.000	Yaw Set Point:	0.205	X_WP:	0.000	Y_WP:	0.000	Y_WP:	0.500	X:	0.000	Y:	0.000	Z:	0.000	yaw:	-11.773	yaw rate:	37.449	Roll:	-0.000	Pitch:	-0.000	Yaw:	-18.644	Thrust:	100.000
Time:	4.670	Roll Set Point:	0.000	Pitch Set Point:	0.000	Yaw Set Point:	0.205	X_WP:	0.000	Y_WP:	0.000	Y_WP:	0.500	X:	0.000	Y:	0.000	Z:	0.000	yaw:	-11.773	yaw rate:	37.449	Roll:	-0.000	Pitch:	-0.000	Yaw:	-18.645	Thrust:	100.000
Time:	4.681	Roll Set Point:	0.000	Pitch Set Point:	0.000	Yaw Set Point:	0.205	X_WP:	0.000	Y_WP:	0.000	Y_WP:	0.500	X:	0.000	Y:	0.000	Z:	0.000	yaw:	-11.773	yaw rate:	37.449	Roll:	-0.000	Pitch:	-0.000	Yaw:	-18.646	Thrust:	100.000
Time:	4.692	Roll Set Point:	0.000	Pitch Set Point:	0.000	Yaw Set Point:	0.205	X_WP:	0.000	Y_WP:	0.000	Y_WP:	0.500	X:	0.000	Y:	0.000	Z:	0.000	yaw:	-11.773	yaw rate:	37.449	Roll:	-0.000	Pitch:	-0.000	Yaw:	-18.644	Thrust:	100.000
Time:	4.703	Roll Set Point:	0.000	Pitch Set Point:	0.000	Yaw Set Point:	0.205	X_WP:	0.000	Y_WP:	0.000	Y_WP:	0.500	X:	0.000	Y:	0.000	Z:	0.000	yaw:	-11.773	yaw rate:	37.449	Roll:	-0.000	Pitch:	-0.000	Yaw:	-18.644	Thrust:	100.000
Time:	4.714	Roll Set Point:	0.000	Pitch Set Point:	0.000	Yaw Set Point:	0.205	X_WP:	0.000	Y_WP:	0.000	Y_WP:	0.500	X:	0.000	Y:	0.000	Z:	0.000	yaw:	-11.773	yaw rate:	37.449	Roll:	-0.000	Pitch:	-0.000	Yaw:	-18.645	Thrust:	100.000
Time:	4.725	Roll Set Point:	0.000	Pitch Set Point:	0.000	Yaw Set Point:	0.205	X_WP:	0.000	Y_WP:	0.000	Y_WP:	0.500	X:	0.000	Y:	0.000	Z:	0.000	yaw:	-11.773	yaw rate:	37.449	Roll:	-0.000	Pitch:	-0.000	Yaw:	-18.645	Thrust:	100.000
Time:	4.736	Roll Set Point:	0.000	Pitch Set Point:	0.000	Yaw Set Point:	0.205	X_WP:	0.000	Y_WP:	0.000	Y_WP:	0.500	X:	0.000	Y:	0.000	Z:	0.000	yaw:	-11.773	yaw rate:	37.449	Roll:	-0.000	Pitch:	-0.000	Yaw:	-18.645	Thrust:	100.000
Time:	4.748	Roll Set Point:	0.000	Pitch Set Point:	0.000	Yaw Set Point:	0.205	X_WP:	0.000	Y_WP:	0.000	Y_WP:	0.500	X:	0.000	Y:	0.000	Z:	0.000	yaw:	-11.773	yaw rate:	37.449	Roll:	-0.000	Pitch:	-0.000	Yaw:	-18.639	Thrust:	100.000
Time:	4.759	Roll Set Point:	0.000	Pitch Set Point:	0.000	Yaw Set Point:	0.205	X_WP:	0.000	Y_WP:	0.000	Y_WP:	0.500	X:	0.000	Y:	0.000	Z:	0.000	yaw:	-11.773	yaw rate:	37.449	Roll:	-0.000	Pitch:	-0.000	Yaw:	-18.649	Thrust:	100.000
Time:	4.770	Roll Set Point:	0.000	Pitch Set Point:	0.000	Yaw Set Point:	0.205	X_WP:	0.000	Y_WP:	0.000	Y_WP:	0.500	X:	0.000	Y:	0.000	Z:	0.000	yaw:	-11.773	yaw rate:	37.449	Roll:	-0.000	Pitch:	-0.000	Yaw:	-18.646	Thrust:	100.000
Time:	4.781	Roll Set Point:	0.000	Pitch Set Point:	0.000	Yaw Set Point:	0.205	X_WP:	0.000	Y_WP:	0.000	Y_WP:	0.500	X:	0.000	Y:	0.000	Z:	0.000	yaw:	-11.773	yaw rate:	37.449	Roll:	-0.000	Pitch:	-0.000	Yaw:	-18.645	Thrust:	100.000
Time:	4.792	Roll Set Point:	0.000	Pitch Set Point:	0.000	Yaw Set Point:	0.205	X_WP:	0.000	Y_WP:	0.000	Y_WP:	0.500	X:	0.000	Y:	0.000	Z:	0.000	yaw:	-11.773	yaw rate:	37.449	Roll:	-0.000	Pitch:	-0.000	Yaw:	-18.639	Thrust:	100.000
Time:	4.803	Roll Set Point:	0.000	Pitch Set Point:	0.000	Yaw Set Point:	0.205	X_WP:	0.000	Y_WP:	0.000	Y_WP:	0.500	X:	0.000	Y:	0.000	Z:	0.000	yaw:	-11.773	yaw rate:	37.449	Roll:	-0.000	Pitch:	-0.000	Yaw:	-18.650	Thrust:	100.000
Time:	4.814	Roll Set Point:	0.000	Pitch Set Point:	0.000	Yaw Set Point:	0.205	X_WP:	0.000	Y_WP:	0.000	Y_WP:	0.500	X:	0.000	Y:	0.000	Z:	0.000	yaw:	-11.773	yaw rate:	37.449	Roll:	-0.000	Pitch:	-0.000	Yaw:	-18.645	Thrust:	100.000
Time:	4.826	Roll Set Point:	0.000	Pitch Set Point:	0.000	Yaw Set Point:	0.205	X_WP:	0.000	Y_WP:	0.000	Y_WP:	0.500	X:	0.000	Y:	0.000	Z:	0.000	yaw:	-11.773	yaw rate:	37.449	Roll:	-0.000	Pitch:	-0.000	Yaw:	-18.663	Thrust:	100.000
Time:	4.837	Roll Set Point:	0.000	Pitch Set Point:	0.000	Yaw Set Point:	0.205	X_WP:	0.000	Y_WP:	0.000	Y_WP:	0.500	X:	0.000	Y:	0.000	Z:	0.000	yaw:	-11.773	yaw rate:	37.449	Roll:	-0.000	Pitch:	-0.000	Yaw:	-18.826	Thrust:	100.000
Time:	4.848	Roll Set Point:	0.000	Pitch Set Point:	0.000	Yaw Set Point:	0.205	X_WP:	0.000	Y_WP:	0.000	Y_WP:	0.500	X:	0.000	Y:	0.000	Z:	0.000	yaw:	-11.773	yaw rate:	37.449	Roll:	-0.000	Pitch:	-0.000	Yaw:	-18.645	Thrust:	100.000
Time:	4.859	Roll Set Point:	0.000	Pitch Set Point:	0.000	Yaw Set Point:	0.205	X_WP:	0.000	Y_WP:	0.000	Y_WP:	0.500	X:	0.000	Y:	0.000	Z:	0.000	yaw:	-11.773	yaw rate:	37.449	Roll:	-0.000	Pitch:	-0.000	Yaw:	-18.644	Thrust:	100.000
Time:	4.870	Roll Set Point:	0.000	Pitch Set Point:	0.000	Yaw Set Point:	0.205	X_WP:	0.000	Y_WP:	0.000	Y_WP:	0.500	X:	0.000	Y:	0.000	Z:	0.000	yaw:	-11.773	yaw rate:	37.449	Roll:	-0.000	Pitch:	-0.000	Yaw:	-18.645	Thrust:	100.000
Time:	4.881	Roll Set Point:	0.000	Pitch Set Point:	0.000	Yaw Set Point:	0.205	X_WP:	0.000	Y_WP:	0.000	Y_WP:	0.500	X:	0.000	Y:	0.000	Z:	0.000	yaw:	-11.773	yaw rate:	37.449	Roll:	-0.000	Pitch:	-0.000	Yaw:	-18.645	Thrust:	100.000
Time:	4.892	Roll Set Point:	0.000	Pitch Set Point:	0.000	Yaw Set Point:	0.205	X_WP:	0.000	Y_WP:	0.000	Y_WP:	0.500	X:	0.000	Y:	0.000	Z:	0.000	yaw:	-11.773	yaw rate:	37.449	Roll:	-0.000	Pitch:	-0.000	Yaw:	-18.645	Thrust:	100.000
Time:	4.903	Roll Set Point:	0.000	Pitch Set Point:	0.000	Yaw Set Point:	0.205	X_WP:	0.000	Y_WP:	0.000	Y_WP:	0.500	X:	0.000	Y:	0.000	Z:	0.000	yaw:	-11.773	yaw rate:	37.449	Roll:	-0.000	Pitch:	-0.000	Yaw:	-18.645	Thrust:	100.000
Time:	4.914	Roll Set Point:	0.000	Pitch Set Point:	0.000	Yaw Set Point:	0.205	X_WP:	0.000	Y_WP:	0.000	Y_WP:	0.500	X:	0.000	Y:	0.000	Z:	0.000	yaw:	-11.773	yaw rate:	37.449	Roll:	-0.000	Pitch:	-0.000	Yaw:	-18.639	Thrust:	100.000
Time:	4.925	Roll Set Point:	0.000	Pitch Set Point:	0.000	Yaw Set Point:	0.205	X_WP:	0.000	Y_WP:	0.000	Y_WP:	0.500	X:	0.000	Y:	0.000	Z:	0.000	yaw:	-11.773	yaw rate:	37.449	Roll:	-0.000	Pitch:	-0.000	Yaw:	-18.650	Thrust:	100.000
Time:	4.936	Roll Set Point:	0.000	Pitch Set Point:	0.000	Yaw Set Point:	0.205	X_WP:	0.000	Y_WP:	0.000	Y_WP:	0.500	X:	0.000	Y:	0.000	Z:	0.000	yaw:	-11.773	yaw rate:	37.449	Roll:	-0.000	Pitch:	-0.000	Yaw:	-18.644	Thrust:	100.000
Time:	4.947	Roll Set Point:	0.000	Pitch Set Point:	0.000	Yaw Set Point:	0.205	X_WP:	0.000	Y_WP:	0.000	Y_WP:	0.500	X:	0.000	Y:	0.000	Z:	0.000	yaw:	-11.773	yaw rate:	37.449	Roll:	-0.000	Pitch:	-0.000	Yaw:	-18.645	Thrust:	100.000
Time:	4.959	Roll Set Point:	0.000	Pitch Set Point:	0.000	Yaw Set Point:	0.205	X_WP:	0.000	Y_WP:	0.000	Y_WP:	0.500	X:	0.000	Y:	0.000	Z:	0.000	yaw:	-11.773	yaw rate:	37.449	Roll:	-0.000	Pitch:	-0.000	Yaw:	-18.846	Thrust:	100.000
Time:	4.970	Roll Set Point:	0.000	Pitch Set Point:	0.000	Yaw Set Point:	0.205	X_WP:	0.000	Y_WP:	0.000	Y_WP:	0.500	X:	0.000	Y:	0.000	Z:	0.000	yaw:	-11.773	yaw rate:	37.449	Roll:	-0.000	Pitch:	-0.000	Yaw:	-18.638	Thrust:	100.000
