Time:	2.033	Roll Set Point:	0.060	Pitch Set Point:	-0.103	Yaw Set Point:	-0.010	X_WP:	0.100	Y_WP:	0.000	Y_WP:	0.500	X:	0.020	Y:	0.051	Z:	0.049	yaw:	0.559	yaw rate:	-3.611	Roll:	-2.313	Pitch:	1.498	Yaw:	0.780	Thrust:	24.804
Time:	2.046	Roll Set Point:	0.060	Pitch Set Point:	-0.103	Yaw Set Point:	-0.010	X_WP:	0.100	Y_WP:	0.000	Y_WP:	0.500	X:	0.020	Y:	0.051	Z:	0.049	yaw:	0.582	yaw rate:	2.273	Roll:	-2.059	Pitch:	1.729	Yaw:	1.271	Thrust:	25.378
Time:	2.058	Roll Set Point:	0.060	Pitch Set Point:	-0.103	Yaw Set Point:	-0.010	X_WP:	0.100	Y_WP:	0.000	Y_WP:	0.500	X:	0.020	Y:	0.051	Z:	0.049	yaw:	0.577	yaw rate:	-0.452	Roll:	-2.412	Pitch:	1.498	Yaw:	0.708	Thrust:	26.052
Time:	2.069	Roll Set Point:	0.060	Pitch Set Point:	-0.103	Yaw Set Point:	-0.010	X_WP:	0.100	Y_WP:	0.000	Y_WP:	0.500	X:	0.020	Y:	0.051	Z:	0.049	yaw:	0.594	yaw rate:	1.649	Roll:	-2.322	Pitch:	1.611	Yaw:	1.206	Thrust:	26.902
Time:	2.083	Roll Set Point:	0.060	Pitch Set Point:	-0.102	Yaw Set Point:	-0.008	X_WP:	0.100	Y_WP:	0.000	Y_WP:	0.500	X:	0.020	Y:	0.051	Z:	0.049	yaw:	0.446	yaw rate:	-14.766	Roll:	-2.276	Pitch:	-0.084	Yaw:	-2.193	Thrust:	27.721
Time:	2.095	Roll Set Point:	0.060	Pitch Set Point:	-0.102	Yaw Set Point:	-0.010	X_WP:	0.100	Y_WP:	0.000	Y_WP:	0.500	X:	0.020	Y:	0.051	Z:	0.049	yaw:	0.551	yaw rate:	33.540	Roll:	-2.929	Pitch:	2.464	Yaw:	3.073	Thrust:	28.166
Time:	2.108	Roll Set Point:	0.060	Pitch Set Point:	-0.102	Yaw Set Point:	-0.004	X_WP:	0.100	Y_WP:	0.000	Y_WP:	0.500	X:	0.020	Y:	0.051	Z:	0.049	yaw:	0.220	yaw rate:	-33.173	Roll:	-3.071	Pitch:	-1.289	Yaw:	-6.338	Thrust:	29.390
Time:	2.124	Roll Set Point:	0.060	Pitch Set Point:	-0.102	Yaw Set Point:	-0.007	X_WP:	0.100	Y_WP:	0.000	Y_WP:	0.500	X:	0.020	Y:	0.051	Z:	0.049	yaw:	0.389	yaw rate:	16.896	Roll:	-1.451	Pitch:	2.673	Yaw:	3.407	Thrust:	30.726
Time:	2.134	Roll Set Point:	0.060	Pitch Set Point:	-0.102	Yaw Set Point:	-0.010	X_WP:	0.100	Y_WP:	0.000	Y_WP:	0.500	X:	0.020	Y:	0.051	Z:	0.049	yaw:	0.596	yaw rate:	20.771	Roll:	-1.842	Pitch:	3.396	Yaw:	5.993	Thrust:	29.089
Time:	2.147	Roll Set Point:	0.060	Pitch Set Point:	-0.102	Yaw Set Point:	-0.002	X_WP:	0.100	Y_WP:	0.000	Y_WP:	0.500	X:	0.020	Y:	0.051	Z:	0.049	yaw:	0.139	yaw rate:	-45.695	Roll:	-5.539	Pitch:	-2.987	Yaw:	-8.968	Thrust:	31.260
Time:	2.159	Roll Set Point:	0.060	Pitch Set Point:	-0.102	Yaw Set Point:	-0.008	X_WP:	0.100	Y_WP:	0.000	Y_WP:	0.500	X:	0.020	Y:	0.051	Z:	0.049	yaw:	0.462	yaw rate:	-16.544	Roll:	1.686	Pitch:	5.819	Yaw:	7.993	Thrust:	31.729
Time:	2.170	Roll Set Point:	0.060	Pitch Set Point:	-0.102	Yaw Set Point:	-0.003	X_WP:	0.100	Y_WP:	0.000	Y_WP:	0.500	X:	0.020	Y:	0.051	Z:	0.049	yaw:	0.195	yaw rate:	-26.738	Roll:	-5.369	Pitch:	-2.009	Yaw:	-6.228	Thrust:	30.959
Time:	2.184	Roll Set Point:	0.060	Pitch Set Point:	-0.102	Yaw Set Point:	-0.004	X_WP:	0.100	Y_WP:	0.000	Y_WP:	0.500	X:	0.020	Y:	0.051	Z:	0.049	yaw:	0.204	yaw rate:	0.971	Roll:	-2.203	Pitch:	1.612	Yaw:	0.487	Thrust:	33.558
Time:	2.195	Roll Set Point:	0.060	Pitch Set Point:	-0.102	Yaw Set Point:	-0.006	X_WP:	0.100	Y_WP:	0.000	Y_WP:	0.500	X:	0.020	Y:	0.051	Z:	0.049	yaw:	0.342	yaw rate:	13.787	Roll:	-0.592	Pitch:	3.635	Yaw:	3.771	Thrust:	33.515
Time:	2.207	Roll Set Point:	0.060	Pitch Set Point:	-0.102	Yaw Set Point:	-0.010	X_WP:	0.100	Y_WP:	0.000	Y_WP:	0.500	X:	0.020	Y:	0.051	Z:	0.049	yaw:	0.552	yaw rate:	21.026	Roll:	-2.384	Pitch:	2.972	Yaw:	5.366	Thrust:	32.708
Time:	2.219	Roll Set Point:	0.061	Pitch Set Point:	-0.101	Yaw Set Point:	0.008	X_WP:	0.100	Y_WP:	0.000	Y_WP:	0.500	X:	0.020	Y:	0.051	Z:	0.049	yaw:	-0.432	yaw rate:	-98.456	Roll:	-7.421	Pitch:	-8.129	Yaw:	-22.940	Thrust:	34.664
Time:	2.230	Roll Set Point:	0.060	Pitch Set Point:	-0.102	Yaw Set Point:	-0.007	X_WP:	0.100	Y_WP:	0.000	Y_WP:	0.500	X:	0.020	Y:	0.051	Z:	0.049	yaw:	0.394	yaw rate:	82.636	Roll:	2.903	Pitch:	10.049	Yaw:	20.188	Thrust:	33.946
Time:	2.246	Roll Set Point:	0.060	Pitch Set Point:	-0.101	Yaw Set Point:	0.003	X_WP:	0.100	Y_WP:	0.000	Y_WP:	0.500	X:	0.020	Y:	0.051	Z:	0.049	yaw:	-0.190	yaw rate:	-58.425	Roll:	-5.844	Pitch:	-2.618	Yaw:	-10.005	Thrust:	40.065
Time:	2.259	Roll Set Point:	0.061	Pitch Set Point:	-0.101	Yaw Set Point:	0.007	X_WP:	0.100	Y_WP:	0.000	Y_WP:	0.500	X:	0.020	Y:	0.051	Z:	0.049	yaw:	-0.390	yaw rate:	-20.001	Roll:	-3.425	Pitch:	-0.514	Yaw:	-4.441	Thrust:	37.606
Time:	2.269	Roll Set Point:	0.060	Pitch Set Point:	-0.102	Yaw Set Point:	-0.001	X_WP:	0.100	Y_WP:	0.000	Y_WP:	0.500	X:	0.020	Y:	0.051	Z:	0.049	yaw:	0.081	yaw rate:	12.737	Roll:	0.896	Pitch:	7.019	Yaw:	11.834	Thrust:	35.576
Time:	2.280	Roll Set Point:	0.060	Pitch Set Point:	-0.102	Yaw Set Point:	-0.001	X_WP:	0.100	Y_WP:	0.000	Y_WP:	0.500	X:	0.020	Y:	0.051	Z:	0.049	yaw:	0.081	yaw rate:	12.737	Roll:	-2.408	Pitch:	1.533	Yaw:	0.136	Thrust:	36.751
Time:	2.292	Roll Set Point:	0.060	Pitch Set Point:	-0.102	Yaw Set Point:	-0.008	X_WP:	0.100	Y_WP:	0.000	Y_WP:	0.500	X:	0.020	Y:	0.051	Z:	0.049	yaw:	0.443	yaw rate:	-13.958	Roll:	-0.422	Pitch:	4.494	Yaw:	9.218	Thrust:	36.403
Time:	2.302	Roll Set Point:	0.060	Pitch Set Point:	-0.101	Yaw Set Point:	0.002	X_WP:	0.100	Y_WP:	0.000	Y_WP:	0.500	X:	0.020	Y:	0.051	Z:	0.049	yaw:	-0.111	yaw rate:	-55.331	Roll:	-6.250	Pitch:	-4.780	Yaw:	-13.260	Thrust:	39.436
Time:	2.316	Roll Set Point:	0.060	Pitch Set Point:	-0.101	Yaw Set Point:	0.002	X_WP:	0.100	Y_WP:	0.000	Y_WP:	0.500	X:	0.020	Y:	0.051	Z:	0.049	yaw:	-0.111	yaw rate:	-55.331	Roll:	-2.447	Pitch:	1.545	Yaw:	-0.124	Thrust:	42.295
Time:	2.327	Roll Set Point:	0.060	Pitch Set Point:	-0.102	Yaw Set Point:	-0.003	X_WP:	0.100	Y_WP:	0.000	Y_WP:	0.500	X:	0.020	Y:	0.051	Z:	0.049	yaw:	0.198	yaw rate:	18.298	Roll:	-0.142	Pitch:	6.097	Yaw:	7.621	Thrust:	38.397
Time:	2.339	Roll Set Point:	0.060	Pitch Set Point:	-0.102	Yaw Set Point:	-0.004	X_WP:	0.100	Y_WP:	0.000	Y_WP:	0.500	X:	0.020	Y:	0.051	Z:	0.049	yaw:	0.230	yaw rate:	3.267	Roll:	-2.022	Pitch:	1.748	Yaw:	1.088	Thrust:	39.436
Time:	2.350	Roll Set Point:	0.060	Pitch Set Point:	-0.101	Yaw Set Point:	0.003	X_WP:	0.100	Y_WP:	0.000	Y_WP:	0.500	X:	0.020	Y:	0.051	Z:	0.049	yaw:	-0.182	yaw rate:	-41.233	Roll:	-5.486	Pitch:	-2.856	Yaw:	-9.839	Thrust:	42.035
Time:	2.362	Roll Set Point:	0.060	Pitch Set Point:	-0.101	Yaw Set Point:	-0.000	X_WP:	0.100	Y_WP:	0.000	Y_WP:	0.500	X:	0.020	Y:	0.051	Z:	0.049	yaw:	0.000	yaw rate:	18.217	Roll:	-1.731	Pitch:	2.312	Yaw:	4.162	Thrust:	41.568
Time:	2.376	Roll Set Point:	0.060	Pitch Set Point:	-0.101	Yaw Set Point:	0.002	X_WP:	0.100	Y_WP:	0.000	Y_WP:	0.500	X:	0.020	Y:	0.050	Z:	0.049	yaw:	-0.099	yaw rate:	-9.941	Roll:	-2.390	Pitch:	0.370	Yaw:	-2.017	Thrust:	43.446
Time:	2.391	Roll Set Point:	0.060	Pitch Set Point:	-0.101	Yaw Set Point:	0.002	X_WP:	0.100	Y_WP:	0.000	Y_WP:	0.500	X:	0.020	Y:	0.051	Z:	0.049	yaw:	-0.092	yaw rate:	0.727	Roll:	-2.620	Pitch:	1.848	Yaw:	0.029	Thrust:	50.380
Time:	2.402	Roll Set Point:	0.060	Pitch Set Point:	-0.101	Yaw Set Point:	0.002	X_WP:	0.100	Y_WP:	0.000	Y_WP:	0.500	X:	0.020	Y:	0.051	Z:	0.049	yaw:	-0.108	yaw rate:	-8.484	Roll:	-2.537	Pitch:	1.289	Yaw:	-0.483	Thrust:	43.585
Time:	2.414	Roll Set Point:	0.060	Pitch Set Point:	-0.101	Yaw Set Point:	-0.000	X_WP:	0.100	Y_WP:	0.000	Y_WP:	0.500	X:	0.020	Y:	0.051	Z:	0.049	yaw:	0.019	yaw rate:	12.623	Roll:	-1.221	Pitch:	4.017	Yaw:	3.043	Thrust:	43.855
Time:	2.426	Roll Set Point:	0.060	Pitch Set Point:	-0.102	Yaw Set Point:	-0.007	X_WP:	0.100	Y_WP:	0.000	Y_WP:	0.500	X:	0.020	Y:	0.051	Z:	0.049	yaw:	0.414	yaw rate:	39.537	Roll:	-0.598	Pitch:	4.554	Yaw:	8.867	Thrust:	45.229
Time:	2.436	Roll Set Point:	0.060	Pitch Set Point:	-0.101	Yaw Set Point:	-0.000	X_WP:	0.100	Y_WP:	0.000	Y_WP:	0.500	X:	0.020	Y:	0.051	Z:	0.049	yaw:	0.013	yaw rate:	-40.144	Roll:	-4.246	Pitch:	-2.579	Yaw:	-10.405	Thrust:	44.256
Time:	2.449	Roll Set Point:	0.060	Pitch Set Point:	-0.100	Yaw Set Point:	0.004	X_WP:	0.100	Y_WP:	0.000	Y_WP:	0.500	X:	0.020	Y:	0.050	Z:	0.049	yaw:	-0.226	yaw rate:	-23.858	Roll:	-4.415	Pitch:	-1.611	Yaw:	-5.181	Thrust:	48.185
Time:	2.460	Roll Set Point:	0.060	Pitch Set Point:	-0.101	Yaw Set Point:	-0.002	X_WP:	0.100	Y_WP:	0.000	Y_WP:	0.500	X:	0.020	Y:	0.050	Z:	0.049	yaw:	0.117	yaw rate:	34.287	Roll:	-0.479	Pitch:	5.207	Yaw:	7.970	Thrust:	45.649
Time:	2.472	Roll Set Point:	0.060	Pitch Set Point:	-0.101	Yaw Set Point:	0.002	X_WP:	0.100	Y_WP:	0.000	Y_WP:	0.500	X:	0.020	Y:	0.050	Z:	0.049	yaw:	-0.123	yaw rate:	-24.004	Roll:	-4.040	Pitch:	-1.524	Yaw:	-5.593	Thrust:	46.371
Time:	2.487	Roll Set Point:	0.060	Pitch Set Point:	-0.102	Yaw Set Point:	-0.010	X_WP:	0.100	Y_WP:	0.000	Y_WP:	0.500	X:	0.020	Y:	0.050	Z:	0.049	yaw:	0.560	yaw rate:	68.304	Roll:	0.515	Pitch:	6.030	Yaw:	12.902	Thrust:	56.113
Time:	2.498	Roll Set Point:	0.060	Pitch Set Point:	-0.101	Yaw Set Point:	-0.001	X_WP:	0.100	Y_WP:	0.000	Y_WP:	0.500	X:	0.020	Y:	0.050	Z:	0.049	yaw:	0.052	yaw rate:	-50.786	Roll:	-6.020	Pitch:	-3.421	Yaw:	-11.955	Thrust:	47.284
Time:	2.516	Roll Set Point:	0.060	Pitch Set Point:	-0.100	Yaw Set Point:	0.001	X_WP:	0.100	Y_WP:	0.000	Y_WP:	0.500	X:	0.020	Y:	0.050	Z:	0.049	yaw:	-0.055	yaw rate:	-10.729	Roll:	-2.181	Pitch:	0.380	Yaw:	-1.550	Thrust:	64.068
Time:	2.528	Roll Set Point:	0.060	Pitch Set Point:	-0.100	Yaw Set Point:	0.001	X_WP:	0.100	Y_WP:	0.000	Y_WP:	0.500	X:	0.020	Y:	0.050	Z:	0.049	yaw:	-0.065	yaw rate:	1.991	Roll:	-2.573	Pitch:	0.046	Yaw:	-0.288	Thrust:	50.064
Time:	2.542	Roll Set Point:	0.060	Pitch Set Point:	-0.100	Yaw Set Point:	-0.000	X_WP:	0.100	Y_WP:	0.000	Y_WP:	0.500	X:	0.020	Y:	0.050	Z:	0.049	yaw:	0.017	yaw rate:	8.225	Roll:	-1.644	Pitch:	1.685	Yaw:	1.705	Thrust:	53.094
Time:	2.557	Roll Set Point:	0.060	Pitch Set Point:	-0.099	Yaw Set Point:	0.000	X_WP:	0.100	Y_WP:	0.000	Y_WP:	0.500	X:	0.020	Y:	0.050	Z:	0.049	yaw:	-0.026	yaw rate:	-4.324	Roll:	-2.770	Pitch:	0.421	Yaw:	-0.698	Thrust:	61.433
Time:	2.568	Roll Set Point:	0.059	Pitch Set Point:	-0.100	Yaw Set Point:	-0.003	X_WP:	0.100	Y_WP:	0.000	Y_WP:	0.500	X:	0.020	Y:	0.050	Z:	0.049	yaw:	0.197	yaw rate:	22.320	Roll:	-0.012	Pitch:	3.592	Yaw:	5.599	Thrust:	51.217
Time:	2.582	Roll Set Point:	0.059	Pitch Set Point:	-0.100	Yaw Set Point:	-0.009	X_WP:	0.100	Y_WP:	0.000	Y_WP:	0.500	X:	0.020	Y:	0.050	Z:	0.050	yaw:	0.496	yaw rate:	41.395	Roll:	-1.320	Pitch:	3.502	Yaw:	6.523	Thrust:	55.245
Time:	2.594	Roll Set Point:	0.059	Pitch Set Point:	-0.099	Yaw Set Point:	-0.009	X_WP:	0.100	Y_WP:	0.000	Y_WP:	0.500	X:	0.020	Y:	0.049	Z:	0.050	yaw:	0.521	yaw rate:	2.431	Roll:	-1.578	Pitch:	0.356	Yaw:	1.249	Thrust:	53.963
Time:	2.606	Roll Set Point:	0.058	Pitch Set Point:	-0.100	Yaw Set Point:	-0.014	X_WP:	0.100	Y_WP:	0.000	Y_WP:	0.500	X:	0.021	Y:	0.049	Z:	0.050	yaw:	0.785	yaw rate:	26.412	Roll:	0.738	Pitch:	3.284	Yaw:	7.040	Thrust:	53.827
Time:	2.620	Roll Set Point:	0.058	Pitch Set Point:	-0.099	Yaw Set Point:	-0.009	X_WP:	0.100	Y_WP:	0.000	Y_WP:	0.500	X:	0.021	Y:	0.049	Z:	0.051	yaw:	0.533	yaw rate:	-25.130	Roll:	-2.531	Pitch:	-0.161	Yaw:	-4.071	Thrust:	57.575
Time:	2.631	Roll Set Point:	0.056	Pitch Set Point:	-0.100	Yaw Set Point:	-0.018	X_WP:	0.100	Y_WP:	0.000	Y_WP:	0.500	X:	0.021	Y:	0.049	Z:	0.052	yaw:	1.033	yaw rate:	49.950	Roll:	5.174	Pitch:	5.005	Yaw:	13.336	Thrust:	49.220
Time:	2.649	Roll Set Point:	0.055	Pitch Set Point:	-0.099	Yaw Set Point:	-0.019	X_WP:	0.100	Y_WP:	0.000	Y_WP:	0.500	X:	0.022	Y:	0.049	Z:	0.052	yaw:	1.087	yaw rate:	5.459	Roll:	-0.331	Pitch:	1.486	Yaw:	2.381	Thrust:	67.525
Time:	2.660	Roll Set Point:	0.054	Pitch Set Point:	-0.099	Yaw Set Point:	-0.018	X_WP:	0.100	Y_WP:	0.000	Y_WP:	0.500	X:	0.023	Y:	0.049	Z:	0.054	yaw:	1.023	yaw rate:	-34.240	Roll:	1.175	Pitch:	-0.096	Yaw:	0.015	Thrust:	53.694
Time:	2.671	Roll Set Point:	0.053	Pitch Set Point:	-0.098	Yaw Set Point:	-0.016	X_WP:	0.100	Y_WP:	0.000	Y_WP:	0.500	X:	0.023	Y:	0.049	Z:	0.055	yaw:	0.938	yaw rate:	-8.475	Roll:	-0.291	Pitch:	-0.545	Yaw:	-0.653	Thrust:	51.801
Time:	2.684	Roll Set Point:	0.051	Pitch Set Point:	-0.099	Yaw Set Point:	-0.024	X_WP:	0.100	Y_WP:	0.000	Y_WP:	0.500	X:	0.024	Y:	0.048	Z:	0.056	yaw:	1.362	yaw rate:	42.405	Roll:	3.681	Pitch:	4.114	Yaw:	11.083	Thrust:	54.556
Time:	2.694	Roll Set Point:	0.051	Pitch Set Point:	-0.098	Yaw Set Point:	-0.021	X_WP:	0.100	Y_WP:	0.000	Y_WP:	0.500	X:	0.024	Y:	0.048	Z:	0.057	yaw:	1.207	yaw rate:	-15.516	Roll:	0.380	Pitch:	-0.525	Yaw:	-1.941	Thrust:	51.933
Time:	2.706	Roll Set Point:	0.049	Pitch Set Point:	-0.098	Yaw Set Point:	-0.022	X_WP:	0.100	Y_WP:	0.000	Y_WP:	0.500	X:	0.025	Y:	0.048	Z:	0.057	yaw:	1.274	yaw rate:	6.659	Roll:	1.465	Pitch:	0.038	Yaw:	3.350	Thrust:	51.565
Time:	2.718	Roll Set Point:	0.048	Pitch Set Point:	-0.098	Yaw Set Point:	-0.023	X_WP:	0.100	Y_WP:	0.000	Y_WP:	0.500	X:	0.025	Y:	0.048	Z:	0.059	yaw:	1.305	yaw rate:	3.075	Roll:	1.253	Pitch:	1.063	Yaw:	2.563	Thrust:	59.102
Time:	2.729	Roll Set Point:	0.047	Pitch Set Point:	-0.097	Yaw Set Point:	-0.023	X_WP:	0.100	Y_WP:	0.000	Y_WP:	0.500	X:	0.026	Y:	0.047	Z:	0.060	yaw:	1.335	yaw rate:	3.024	Roll:	1.479	Pitch:	-1.168	Yaw:	2.653	Thrust:	53.544
Time:	2.745	Roll Set Point:	0.045	Pitch Set Point:	-0.097	Yaw Set Point:	-0.034	X_WP:	0.100	Y_WP:	0.000	Y_WP:	0.500	X:	0.027	Y:	0.047	Z:	0.061	yaw:	1.920	yaw rate:	58.516	Roll:	4.357	Pitch:	5.381	Yaw:	12.328	Thrust:	66.951
Time:	2.758	Roll Set Point:	0.041	Pitch Set Point:	-0.096	Yaw Set Point:	-0.031	X_WP:	0.100	Y_WP:	0.000	Y_WP:	0.500	X:	0.029	Y:	0.047	Z:	0.064	yaw:	1.782	yaw rate:	-1.841	Roll:	7.000	Pitch:	-3.361	Yaw:	-0.177	Thrust:	56.609
Time:	2.769	Roll Set Point:	0.040	Pitch Set Point:	-0.095	Yaw Set Point:	-0.031	X_WP:	0.100	Y_WP:	0.000	Y_WP:	0.500	X:	0.029	Y:	0.046	Z:	0.066	yaw:	1.759	yaw rate:	-2.283	Roll:	2.189	Pitch:	-1.413	Yaw:	2.006	Thrust:	53.549
Time:	2.782	Roll Set Point:	0.038	Pitch Set Point:	-0.095	Yaw Set Point:	-0.033	X_WP:	0.100	Y_WP:	0.000	Y_WP:	0.500	X:	0.030	Y:	0.046	Z:	0.067	yaw:	1.913	yaw rate:	15.345	Roll:	3.417	Pitch:	1.282	Yaw:	5.987	Thrust:	60.120
Time:	2.793	Roll Set Point:	0.036	Pitch Set Point:	-0.094	Yaw Set Point:	-0.033	X_WP:	0.100	Y_WP:	0.000	Y_WP:	0.500	X:	0.031	Y:	0.046	Z:	0.068	yaw:	1.890	yaw rate:	-2.329	Roll:	2.871	Pitch:	-1.665	Yaw:	2.220	Thrust:	56.078
Time:	2.804	Roll Set Point:	0.035	Pitch Set Point:	-0.093	Yaw Set Point:	-0.037	X_WP:	0.100	Y_WP:	0.000	Y_WP:	0.500	X:	0.032	Y:	0.045	Z:	0.070	yaw:	2.104	yaw rate:	21.421	Roll:	4.265	Pitch:	1.677	Yaw:	8.353	Thrust:	53.214
Time:	2.817	Roll Set Point:	0.033	Pitch Set Point:	-0.092	Yaw Set Point:	-0.036	X_WP:	0.100	Y_WP:	0.000	Y_WP:	0.500	X:	0.033	Y:	0.045	Z:	0.071	yaw:	2.085	yaw rate:	-1.903	Roll:	2.283	Pitch:	-2.124	Yaw:	2.671	Thrust:	62.476
Time:	2.828	Roll Set Point:	0.031	Pitch Set Point:	-0.092	Yaw Set Point:	-0.042	X_WP:	0.100	Y_WP:	0.000	Y_WP:	0.500	X:	0.033	Y:	0.045	Z:	0.073	yaw:	2.405	yaw rate:	32.063	Roll:	5.345	Pitch:	1.917	Yaw:	11.094	Thrust:	54.919
Time:	2.839	Roll Set Point:	0.029	Pitch Set Point:	-0.092	Yaw Set Point:	-0.045	X_WP:	0.100	Y_WP:	0.000	Y_WP:	0.500	X:	0.034	Y:	0.045	Z:	0.074	yaw:	2.597	yaw rate:	19.206	Roll:	4.705	Pitch:	1.759	Yaw:	8.533	Thrust:	53.282
Time:	2.856	Roll Set Point:	0.025	Pitch Set Point:	-0.090	Yaw Set Point:	-0.046	X_WP:	0.100	Y_WP:	0.000	Y_WP:	0.500	X:	0.037	Y:	0.043	Z:	0.080	yaw:	2.625	yaw rate:	14.640	Roll:	7.742	Pitch:	-3.721	Yaw:	4.302	Thrust:	73.843
Time:	2.868	Roll Set Point:	0.024	Pitch Set Point:	-0.089	Yaw Set Point:	-0.048	X_WP:	0.100	Y_WP:	0.000	Y_WP:	0.500	X:	0.037	Y:	0.043	Z:	0.081	yaw:	2.737	yaw rate:	11.226	Roll:	1.808	Pitch:	0.924	Yaw:	6.536	Thrust:	57.091
Time:	2.881	Roll Set Point:	0.023	Pitch Set Point:	-0.088	Yaw Set Point:	-0.049	X_WP:	0.100	Y_WP:	0.000	Y_WP:	0.500	X:	0.038	Y:	0.043	Z:	0.083	yaw:	2.795	yaw rate:	5.781	Roll:	1.148	Pitch:	-1.734	Yaw:	5.283	Thrust:	60.861
Time:	2.891	Roll Set Point:	0.021	Pitch Set Point:	-0.087	Yaw Set Point:	-0.044	X_WP:	0.100	Y_WP:	0.000	Y_WP:	0.500	X:	0.038	Y:	0.042	Z:	0.085	yaw:	2.544	yaw rate:	-25.083	Roll:	1.528	Pitch:	-2.671	Yaw:	-2.501	Thrust:	58.249
Time:	2.902	Roll Set Point:	0.020	Pitch Set Point:	-0.087	Yaw Set Point:	-0.047	X_WP:	0.100	Y_WP:	0.000	Y_WP:	0.500	X:	0.039	Y:	0.042	Z:	0.087	yaw:	2.699	yaw rate:	15.474	Roll:	2.617	Pitch:	0.337	Yaw:	7.630	Thrust:	55.292
Time:	2.917	Roll Set Point:	0.019	Pitch Set Point:	-0.086	Yaw Set Point:	-0.045	X_WP:	0.100	Y_WP:	0.000	Y_WP:	0.500	X:	0.040	Y:	0.042	Z:	0.089	yaw:	2.574	yaw rate:	-12.486	Roll:	0.909	Pitch:	-0.512	Yaw:	1.519	Thrust:	70.139
Time:	2.928	Roll Set Point:	0.018	Pitch Set Point:	-0.086	Yaw Set Point:	-0.049	X_WP:	0.100	Y_WP:	0.000	Y_WP:	0.500	X:	0.040	Y:	0.041	Z:	0.091	yaw:	2.792	yaw rate:	21.819	Roll:	2.200	Pitch:	0.492	Yaw:	9.069	Thrust:	58.790
Time:	2.939	Roll Set Point:	0.016	Pitch Set Point:	-0.085	Yaw Set Point:	-0.046	X_WP:	0.100	Y_WP:	0.000	Y_WP:	0.500	X:	0.041	Y:	0.041	Z:	0.093	yaw:	2.647	yaw rate:	-14.534	Roll:	2.521	Pitch:	-1.725	Yaw:	0.129	Thrust:	51.091
Time:	2.958	Roll Set Point:	0.013	Pitch Set Point:	-0.083	Yaw Set Point:	-0.043	X_WP:	0.100	Y_WP:	0.000	Y_WP:	0.500	X:	0.043	Y:	0.040	Z:	0.100	yaw:	2.464	yaw rate:	-44.641	Roll:	3.377	Pitch:	-2.444	Yaw:	1.520	Thrust:	87.732
Time:	2.969	Roll Set Point:	0.012	Pitch Set Point:	-0.082	Yaw Set Point:	-0.049	X_WP:	0.100	Y_WP:	0.000	Y_WP:	0.500	X:	0.043	Y:	0.040	Z:	0.102	yaw:	2.784	yaw rate:	32.012	Roll:	2.415	Pitch:	0.635	Yaw:	11.723	Thrust:	55.666
Time:	2.982	Roll Set Point:	0.010	Pitch Set Point:	-0.082	Yaw Set Point:	-0.052	X_WP:	0.100	Y_WP:	0.000	Y_WP:	0.500	X:	0.044	Y:	0.040	Z:	0.105	yaw:	2.961	yaw rate:	17.727	Roll:	3.522	Pitch:	0.313	Yaw:	8.101	Thrust:	63.559
Time:	2.994	Roll Set Point:	0.010	Pitch Set Point:	-0.081	Yaw Set Point:	-0.048	X_WP:	0.100	Y_WP:	0.000	Y_WP:	0.500	X:	0.044	Y:	0.039	Z:	0.107	yaw:	2.740	yaw rate:	-22.077	Roll:	-0.853	Pitch:	-1.792	Yaw:	-0.907	Thrust:	57.469
Time:	3.004	Roll Set Point:	0.009	Pitch Set Point:	-0.080	Yaw Set Point:	-0.043	X_WP:	0.100	Y_WP:	0.000	Y_WP:	0.500	X:	0.045	Y:	0.039	Z:	0.109	yaw:	2.489	yaw rate:	-25.111	Roll:	-0.351	Pitch:	-3.082	Yaw:	-2.508	Thrust:	57.241
Time:	3.018	Roll Set Point:	0.008	Pitch Set Point:	-0.080	Yaw Set Point:	-0.048	X_WP:	0.100	Y_WP:	0.000	Y_WP:	0.500	X:	0.045	Y:	0.039	Z:	0.112	yaw:	2.744	yaw rate:	25.493	Roll:	1.557	Pitch:	1.467	Yaw:	9.106	Thrust:	69.642
Time:	3.029	Roll Set Point:	0.007	Pitch Set Point:	-0.079	Yaw Set Point:	-0.043	X_WP:	0.100	Y_WP:	0.000	Y_WP:	0.500	X:	0.046	Y:	0.038	Z:	0.115	yaw:	2.468	yaw rate:	-27.615	Roll:	0.899	Pitch:	-1.884	Yaw:	-2.817	Thrust:	57.268
Time:	3.042	Roll Set Point:	0.006	Pitch Set Point:	-0.079	Yaw Set Point:	-0.046	X_WP:	0.100	Y_WP:	0.000	Y_WP:	0.500	X:	0.046	Y:	0.038	Z:	0.117	yaw:	2.607	yaw rate:	13.917	Roll:	2.223	Pitch:	0.625	Yaw:	6.877	Thrust:	54.662
Time:	3.057	Roll Set Point:	0.004	Pitch Set Point:	-0.078	Yaw Set Point:	-0.043	X_WP:	0.100	Y_WP:	0.000	Y_WP:	0.500	X:	0.047	Y:	0.038	Z:	0.122	yaw:	2.443	yaw rate:	-14.569	Roll:	1.413	Pitch:	-1.631	Yaw:	1.228	Thrust:	87.177
Time:	3.069	Roll Set Point:	0.003	Pitch Set Point:	-0.077	Yaw Set Point:	-0.042	X_WP:	0.100	Y_WP:	0.000	Y_WP:	0.500	X:	0.047	Y:	0.037	Z:	0.125	yaw:	2.394	yaw rate:	-4.980	Roll:	0.681	Pitch:	-1.011	Yaw:	2.548	Thrust:	59.926
Time:	3.080	Roll Set Point:	0.002	Pitch Set Point:	-0.076	Yaw Set Point:	-0.041	X_WP:	0.100	Y_WP:	0.000	Y_WP:	0.500	X:	0.048	Y:	0.037	Z:	0.128	yaw:	2.358	yaw rate:	-3.603	Roll:	1.179	Pitch:	-0.628	Yaw:	2.811	Thrust:	59.587
Time:	3.092	Roll Set Point:	0.001	Pitch Set Point:	-0.076	Yaw Set Point:	-0.041	X_WP:	0.100	Y_WP:	0.000	Y_WP:	0.500	X:	0.049	Y:	0.037	Z:	0.133	yaw:	2.354	yaw rate:	-0.351	Roll:	4.208	Pitch:	-1.037	Yaw:	3.562	Thrust:	50.877
Time:	3.103	Roll Set Point:	-0.000	Pitch Set Point:	-0.075	Yaw Set Point:	-0.040	X_WP:	0.100	Y_WP:	0.000	Y_WP:	0.500	X:	0.049	Y:	0.036	Z:	0.136	yaw:	2.264	yaw rate:	-8.960	Roll:	1.048	Pitch:	-1.341	Yaw:	1.384	Thrust:	57.258
Time:	3.116	Roll Set Point:	-0.001	Pitch Set Point:	-0.074	Yaw Set Point:	-0.037	X_WP:	0.100	Y_WP:	0.000	Y_WP:	0.500	X:	0.050	Y:	0.036	Z:	0.139	yaw:	2.128	yaw rate:	-13.621	Roll:	0.307	Pitch:	-1.543	Yaw:	0.660	Thrust:	69.302
Time:	3.127	Roll Set Point:	-0.002	Pitch Set Point:	-0.074	Yaw Set Point:	-0.036	X_WP:	0.100	Y_WP:	0.000	Y_WP:	0.500	X:	0.050	Y:	0.036	Z:	0.142	yaw:	2.059	yaw rate:	-6.903	Roll:	1.219	Pitch:	-0.705	Yaw:	1.507	Thrust:	55.931
Time:	3.137	Roll Set Point:	-0.003	Pitch Set Point:	-0.073	Yaw Set Point:	-0.037	X_WP:	0.100	Y_WP:	0.000	Y_WP:	0.500	X:	0.051	Y:	0.036	Z:	0.145	yaw:	2.124	yaw rate:	6.497	Roll:	1.462	Pitch:	0.226	Yaw:	4.934	Thrust:	55.692
Time:	3.149	Roll Set Point:	-0.004	Pitch Set Point:	-0.073	Yaw Set Point:	-0.036	X_WP:	0.100	Y_WP:	0.000	Y_WP:	0.500	X:	0.051	Y:	0.035	Z:	0.148	yaw:	2.035	yaw rate:	-8.923	Roll:	0.520	Pitch:	-0.969	Yaw:	1.295	Thrust:	64.017
Time:	3.162	Roll Set Point:	-0.005	Pitch Set Point:	-0.072	Yaw Set Point:	-0.035	X_WP:	0.100	Y_WP:	0.000	Y_WP:	0.500	X:	0.052	Y:	0.035	Z:	0.151	yaw:	2.033	yaw rate:	-0.150	Roll:	1.326	Pitch:	0.060	Yaw:	3.232	Thrust:	64.228
Time:	3.176	Roll Set Point:	-0.006	Pitch Set Point:	-0.071	Yaw Set Point:	-0.030	X_WP:	0.100	Y_WP:	0.000	Y_WP:	0.500	X:	0.052	Y:	0.035	Z:	0.157	yaw:	1.742	yaw rate:	0.932	Roll:	2.045	Pitch:	-3.872	Yaw:	-2.698	Thrust:	51.546
Time:	3.190	Roll Set Point:	-0.007	Pitch Set Point:	-0.071	Yaw Set Point:	-0.035	X_WP:	0.100	Y_WP:	0.000	Y_WP:	0.500	X:	0.053	Y:	0.035	Z:	0.160	yaw:	1.989	yaw rate:	24.697	Roll:	1.476	Pitch:	1.630	Yaw:	7.459	Thrust:	95.847
Time:	3.201	Roll Set Point:	-0.008	Pitch Set Point:	-0.070	Yaw Set Point:	-0.037	X_WP:	0.100	Y_WP:	0.000	Y_WP:	0.500	X:	0.054	Y:	0.034	Z:	0.163	yaw:	2.120	yaw rate:	13.140	Roll:	1.937	Pitch:	0.297	Yaw:	6.488	Thrust:	60.292
Time:	3.216	Roll Set Point:	-0.009	Pitch Set Point:	-0.070	Yaw Set Point:	-0.035	X_WP:	0.100	Y_WP:	0.000	Y_WP:	0.500	X:	0.054	Y:	0.034	Z:	0.166	yaw:	1.990	yaw rate:	-13.054	Roll:	0.475	Pitch:	-0.476	Yaw:	0.878	Thrust:	76.834
Time:	3.226	Roll Set Point:	-0.012	Pitch Set Point:	-0.069	Yaw Set Point:	-0.033	X_WP:	0.100	Y_WP:	0.000	Y_WP:	0.500	X:	0.055	Y:	0.034	Z:	0.175	yaw:	1.873	yaw rate:	2.338	Roll:	6.122	Pitch:	-3.507	Yaw:	0.123	Thrust:	30.602
Time:	3.236	Roll Set Point:	-0.012	Pitch Set Point:	-0.069	Yaw Set Point:	-0.033	X_WP:	0.100	Y_WP:	0.000	Y_WP:	0.500	X:	0.055	Y:	0.034	Z:	0.175	yaw:	1.873	yaw rate:	2.338	Roll:	-1.619	Pitch:	1.258	Yaw:	3.013	Thrust:	67.849
Time:	3.249	Roll Set Point:	-0.014	Pitch Set Point:	-0.068	Yaw Set Point:	-0.033	X_WP:	0.100	Y_WP:	0.000	Y_WP:	0.500	X:	0.056	Y:	0.033	Z:	0.181	yaw:	1.875	yaw rate:	-12.704	Roll:	4.601	Pitch:	-0.888	Yaw:	3.170	Thrust:	61.553
Time:	3.261	Roll Set Point:	-0.015	Pitch Set Point:	-0.068	Yaw Set Point:	-0.032	X_WP:	0.100	Y_WP:	0.000	Y_WP:	0.500	X:	0.057	Y:	0.033	Z:	0.184	yaw:	1.857	yaw rate:	-1.777	Roll:	1.419	Pitch:	0.192	Yaw:	2.659	Thrust:	59.485
Time:	3.272	Roll Set Point:	-0.016	Pitch Set Point:	-0.067	Yaw Set Point:	-0.039	X_WP:	0.100	Y_WP:	0.000	Y_WP:	0.500	X:	0.057	Y:	0.033	Z:	0.188	yaw:	2.207	yaw rate:	35.047	Roll:	2.802	Pitch:	1.307	Yaw:	11.474	Thrust:	66.174
Time:	3.290	Roll Set Point:	-0.017	Pitch Set Point:	-0.067	Yaw Set Point:	-0.031	X_WP:	0.100	Y_WP:	0.000	Y_WP:	0.500	X:	0.058	Y:	0.033	Z:	0.191	yaw:	1.788	yaw rate:	-41.964	Roll:	-1.147	Pitch:	-0.463	Yaw:	-3.000	Thrust:	98.772
Time:	3.300	Roll Set Point:	-0.017	Pitch Set Point:	-0.067	Yaw Set Point:	-0.032	X_WP:	0.100	Y_WP:	0.000	Y_WP:	0.500	X:	0.058	Y:	0.033	Z:	0.194	yaw:	1.837	yaw rate:	4.976	Roll:	1.004	Pitch:	0.424	Yaw:	4.253	Thrust:	56.680
Time:	3.315	Roll Set Point:	-0.018	Pitch Set Point:	-0.066	Yaw Set Point:	-0.029	X_WP:	0.100	Y_WP:	0.000	Y_WP:	0.500	X:	0.059	Y:	0.032	Z:	0.198	yaw:	1.647	yaw rate:	-19.016	Roll:	0.887	Pitch:	-0.480	Yaw:	-0.356	Thrust:	83.943
Time:	3.327	Roll Set Point:	-0.022	Pitch Set Point:	-0.065	Yaw Set Point:	-0.028	X_WP:	0.100	Y_WP:	0.000	Y_WP:	0.500	X:	0.060	Y:	0.032	Z:	0.209	yaw:	1.615	yaw rate:	3.207	Roll:	7.427	Pitch:	-0.766	Yaw:	2.075	Thrust:	37.326
Time:	3.339	Roll Set Point:	-0.023	Pitch Set Point:	-0.066	Yaw Set Point:	-0.040	X_WP:	0.100	Y_WP:	0.000	Y_WP:	0.500	X:	0.061	Y:	0.032	Z:	0.213	yaw:	2.312	yaw rate:	69.777	Roll:	4.197	Pitch:	3.139	Yaw:	21.019	Thrust:	54.659
Time:	3.349	Roll Set Point:	-0.024	Pitch Set Point:	-0.065	Yaw Set Point:	-0.036	X_WP:	0.100	Y_WP:	0.000	Y_WP:	0.500	X:	0.061	Y:	0.032	Z:	0.217	yaw:	2.066	yaw rate:	-24.691	Roll:	0.714	Pitch:	-0.900	Yaw:	-2.380	Thrust:	59.168
Time:	3.361	Roll Set Point:	-0.025	Pitch Set Point:	-0.065	Yaw Set Point:	-0.037	X_WP:	0.100	Y_WP:	0.000	Y_WP:	0.500	X:	0.062	Y:	0.032	Z:	0.221	yaw:	2.139	yaw rate:	7.378	Roll:	3.605	Pitch:	1.653	Yaw:	5.193	Thrust:	59.979
Time:	3.379	Roll Set Point:	-0.026	Pitch Set Point:	-0.065	Yaw Set Point:	-0.032	X_WP:	0.100	Y_WP:	0.000	Y_WP:	0.500	X:	0.062	Y:	0.032	Z:	0.225	yaw:	1.861	yaw rate:	-27.861	Roll:	0.012	Pitch:	-1.306	Yaw:	-0.473	Thrust:	92.879
Time:	3.391	Roll Set Point:	-0.028	Pitch Set Point:	-0.064	Yaw Set Point:	-0.032	X_WP:	0.100	Y_WP:	0.000	Y_WP:	0.500	X:	0.063	Y:	0.032	Z:	0.234	yaw:	1.814	yaw rate:	-9.856	Roll:	2.093	Pitch:	0.547	Yaw:	2.014	Thrust:	57.369
Time:	3.403	Roll Set Point:	-0.029	Pitch Set Point:	-0.064	Yaw Set Point:	-0.035	X_WP:	0.100	Y_WP:	0.000	Y_WP:	0.500	X:	0.064	Y:	0.031	Z:	0.238	yaw:	2.025	yaw rate:	21.145	Roll:	2.019	Pitch:	1.151	Yaw:	7.981	Thrust:	56.123
Time:	3.418	Roll Set Point:	-0.030	Pitch Set Point:	-0.064	Yaw Set Point:	-0.032	X_WP:	0.100	Y_WP:	0.000	Y_WP:	0.500	X:	0.064	Y:	0.031	Z:	0.243	yaw:	1.824	yaw rate:	-20.100	Roll:	0.904	Pitch:	-0.002	Yaw:	-0.211	Thrust:	88.421
Time:	3.429	Roll Set Point:	-0.031	Pitch Set Point:	-0.064	Yaw Set Point:	-0.033	X_WP:	0.100	Y_WP:	0.000	Y_WP:	0.500	X:	0.065	Y:	0.031	Z:	0.248	yaw:	1.907	yaw rate:	8.291	Roll:	1.712	Pitch:	1.320	Yaw:	5.176	Thrust:	54.927
Time:	3.453	Roll Set Point:	-0.031	Pitch Set Point:	-0.063	Yaw Set Point:	-0.034	X_WP:	0.100	Y_WP:	0.000	Y_WP:	0.500	X:	0.065	Y:	0.031	Z:	0.253	yaw:	1.940	yaw rate:	3.313	Roll:	-0.550	Pitch:	1.126	Yaw:	4.264	Thrust:	100.000
Time:	3.466	Roll Set Point:	-0.034	Pitch Set Point:	-0.063	Yaw Set Point:	-0.040	X_WP:	0.100	Y_WP:	0.000	Y_WP:	0.500	X:	0.067	Y:	0.031	Z:	0.268	yaw:	2.264	yaw rate:	46.339	Roll:	7.893	Pitch:	-0.173	Yaw:	10.331	Thrust:	28.844
Time:	3.481	Roll Set Point:	-0.035	Pitch Set Point:	-0.062	Yaw Set Point:	-0.028	X_WP:	0.100	Y_WP:	0.000	Y_WP:	0.500	X:	0.067	Y:	0.031	Z:	0.273	yaw:	1.605	yaw rate:	-65.872	Roll:	-1.803	Pitch:	-1.865	Yaw:	-8.397	Thrust:	84.257
Time:	3.493	Roll Set Point:	-0.037	Pitch Set Point:	-0.062	Yaw Set Point:	-0.033	X_WP:	0.100	Y_WP:	0.000	Y_WP:	0.500	X:	0.068	Y:	0.030	Z:	0.284	yaw:	1.880	yaw rate:	16.829	Roll:	4.484	Pitch:	0.557	Yaw:	9.204	Thrust:	39.323
Time:	3.505	Roll Set Point:	-0.037	Pitch Set Point:	-0.061	Yaw Set Point:	-0.031	X_WP:	0.100	Y_WP:	0.000	Y_WP:	0.500	X:	0.068	Y:	0.030	Z:	0.289	yaw:	1.770	yaw rate:	-11.032	Roll:	1.138	Pitch:	-0.513	Yaw:	0.707	Thrust:	59.235
Time:	3.518	Roll Set Point:	-0.038	Pitch Set Point:	-0.060	Yaw Set Point:	-0.026	X_WP:	0.100	Y_WP:	0.000	Y_WP:	0.500	X:	0.068	Y:	0.030	Z:	0.295	yaw:	1.509	yaw rate:	-26.136	Roll:	-1.175	Pitch:	-1.088	Yaw:	-2.680	Thrust:	61.710
Time:	3.529	Roll Set Point:	-0.039	Pitch Set Point:	-0.060	Yaw Set Point:	-0.028	X_WP:	0.100	Y_WP:	0.000	Y_WP:	0.500	X:	0.069	Y:	0.029	Z:	0.306	yaw:	1.624	yaw rate:	11.586	Roll:	3.437	Pitch:	-0.761	Yaw:	5.521	Thrust:	32.207
Time:	3.542	Roll Set Point:	-0.040	Pitch Set Point:	-0.059	Yaw Set Point:	-0.028	X_WP:	0.100	Y_WP:	0.000	Y_WP:	0.500	X:	0.069	Y:	0.029	Z:	0.312	yaw:	1.621	yaw rate:	-0.337	Roll:	0.733	Pitch:	-0.725	Yaw:	2.909	Thrust:	65.347
Time:	3.562	Roll Set Point:	-0.040	Pitch Set Point:	-0.057	Yaw Set Point:	-0.013	X_WP:	0.100	Y_WP:	0.000	Y_WP:	0.500	X:	0.070	Y:	0.029	Z:	0.323	yaw:	0.761	yaw rate:	-61.050	Roll:	-1.764	Pitch:	-2.825	Yaw:	-9.841	Thrust:	91.475
Time:	3.572	Roll Set Point:	-0.041	Pitch Set Point:	-0.057	Yaw Set Point:	-0.029	X_WP:	0.100	Y_WP:	0.000	Y_WP:	0.500	X:	0.070	Y:	0.028	Z:	0.328	yaw:	1.674	yaw rate:	91.274	Roll:	4.263	Pitch:	2.838	Yaw:	24.613	Thrust:	50.348
Time:	3.585	Roll Set Point:	-0.041	Pitch Set Point:	-0.057	Yaw Set Point:	-0.021	X_WP:	0.100	Y_WP:	0.000	Y_WP:	0.500	X:	0.070	Y:	0.028	Z:	0.333	yaw:	1.195	yaw rate:	-47.924	Roll:	-1.640	Pitch:	-2.036	Yaw:	-7.445	Thrust:	64.734
Time:	3.596	Roll Set Point:	-0.042	Pitch Set Point:	-0.056	Yaw Set Point:	-0.022	X_WP:	0.100	Y_WP:	0.000	Y_WP:	0.500	X:	0.071	Y:	0.028	Z:	0.339	yaw:	1.282	yaw rate:	8.704	Roll:	1.265	Pitch:	0.015	Yaw:	4.477	Thrust:	50.761
Time:	3.618	Roll Set Point:	-0.042	Pitch Set Point:	-0.055	Yaw Set Point:	-0.019	X_WP:	0.100	Y_WP:	0.000	Y_WP:	0.500	X:	0.071	Y:	0.027	Z:	0.343	yaw:	1.099	yaw rate:	-18.329	Roll:	-1.799	Pitch:	-0.539	Yaw:	0.659	Thrust:	100.000
Time:	3.630	Roll Set Point:	-0.043	Pitch Set Point:	-0.053	Yaw Set Point:	-0.013	X_WP:	0.100	Y_WP:	0.000	Y_WP:	0.500	X:	0.071	Y:	0.026	Z:	0.357	yaw:	0.759	yaw rate:	-12.000	Roll:	0.313	Pitch:	-6.811	Yaw:	-6.363	Thrust:	15.366
Time:	3.653	Roll Set Point:	-0.043	Pitch Set Point:	-0.052	Yaw Set Point:	-0.007	X_WP:	0.100	Y_WP:	0.000	Y_WP:	0.500	X:	0.071	Y:	0.026	Z:	0.362	yaw:	0.428	yaw rate:	-33.107	Roll:	-1.716	Pitch:	-0.364	Yaw:	-2.079	Thrust:	100.000
Time:	3.666	Roll Set Point:	-0.044	Pitch Set Point:	-0.051	Yaw Set Point:	-0.013	X_WP:	0.100	Y_WP:	0.000	Y_WP:	0.500	X:	0.072	Y:	0.025	Z:	0.370	yaw:	0.761	yaw rate:	38.923	Roll:	0.165	Pitch:	-0.988	Yaw:	7.887	Thrust:	69.858
Time:	3.685	Roll Set Point:	-0.044	Pitch Set Point:	-0.050	Yaw Set Point:	-0.009	X_WP:	0.100	Y_WP:	0.000	Y_WP:	0.500	X:	0.072	Y:	0.025	Z:	0.374	yaw:	0.523	yaw rate:	-23.740	Roll:	-1.912	Pitch:	-1.613	Yaw:	-1.415	Thrust:	100.000
Time:	3.696	Roll Set Point:	-0.044	Pitch Set Point:	-0.048	Yaw Set Point:	-0.005	X_WP:	0.100	Y_WP:	0.000	Y_WP:	0.500	X:	0.072	Y:	0.024	Z:	0.385	yaw:	0.312	yaw rate:	17.482	Roll:	-0.227	Pitch:	-5.490	Yaw:	-3.688	Thrust:	36.749
Time:	3.719	Roll Set Point:	-0.045	Pitch Set Point:	-0.048	Yaw Set Point:	-0.009	X_WP:	0.100	Y_WP:	0.000	Y_WP:	0.500	X:	0.072	Y:	0.024	Z:	0.388	yaw:	0.492	yaw rate:	18.011	Roll:	1.214	Pitch:	0.207	Yaw:	4.948	Thrust:	69.031
Time:	3.732	Roll Set Point:	-0.045	Pitch Set Point:	-0.046	Yaw Set Point:	-0.004	X_WP:	0.100	Y_WP:	0.000	Y_WP:	0.500	X:	0.072	Y:	0.023	Z:	0.394	yaw:	0.254	yaw rate:	0.925	Roll:	-1.933	Pitch:	-1.283	Yaw:	-1.184	Thrust:	100.000
Time:	3.750	Roll Set Point:	-0.045	Pitch Set Point:	-0.045	Yaw Set Point:	0.001	X_WP:	0.100	Y_WP:	0.000	Y_WP:	0.500	X:	0.073	Y:	0.023	Z:	0.397	yaw:	-0.069	yaw rate:	-32.318	Roll:	-0.407	Pitch:	-0.929	Yaw:	-4.268	Thrust:	95.180
Time:	3.761	Roll Set Point:	-0.046	Pitch Set Point:	-0.045	Yaw Set Point:	-0.004	X_WP:	0.100	Y_WP:	0.000	Y_WP:	0.500	X:	0.073	Y:	0.023	Z:	0.399	yaw:	0.252	yaw rate:	32.114	Roll:	0.318	Pitch:	1.340	Yaw:	7.794	Thrust:	69.494
Time:	3.773	Roll Set Point:	-0.046	Pitch Set Point:	-0.044	Yaw Set Point:	-0.000	X_WP:	0.100	Y_WP:	0.000	Y_WP:	0.500	X:	0.073	Y:	0.022	Z:	0.402	yaw:	0.025	yaw rate:	-22.646	Roll:	-1.102	Pitch:	-1.882	Yaw:	-4.864	Thrust:	61.036
Time:	3.790	Roll Set Point:	-0.047	Pitch Set Point:	-0.043	Yaw Set Point:	-0.002	X_WP:	0.100	Y_WP:	0.000	Y_WP:	0.500	X:	0.074	Y:	0.022	Z:	0.411	yaw:	0.116	yaw rate:	28.580	Roll:	1.439	Pitch:	-1.375	Yaw:	2.524	Thrust:	90.729
Time:	3.801	Roll Set Point:	-0.048	Pitch Set Point:	-0.043	Yaw Set Point:	-0.005	X_WP:	0.100	Y_WP:	0.000	Y_WP:	0.500	X:	0.074	Y:	0.021	Z:	0.414	yaw:	0.279	yaw rate:	16.339	Roll:	-0.050	Pitch:	-0.065	Yaw:	4.913	Thrust:	61.723
Time:	3.818	Roll Set Point:	-0.049	Pitch Set Point:	-0.043	Yaw Set Point:	-0.004	X_WP:	0.100	Y_WP:	0.000	Y_WP:	0.500	X:	0.074	Y:	0.021	Z:	0.417	yaw:	0.235	yaw rate:	-4.413	Roll:	0.657	Pitch:	1.212	Yaw:	0.604	Thrust:	95.351
Time:	3.829	Roll Set Point:	-0.049	Pitch Set Point:	-0.043	Yaw Set Point:	-0.002	X_WP:	0.100	Y_WP:	0.000	Y_WP:	0.500	X:	0.074	Y:	0.021	Z:	0.420	yaw:	0.118	yaw rate:	-11.674	Roll:	0.277	Pitch:	0.625	Yaw:	-1.958	Thrust:	56.607
Time:	3.843	Roll Set Point:	-0.049	Pitch Set Point:	-0.043	Yaw Set Point:	-0.002	X_WP:	0.100	Y_WP:	0.000	Y_WP:	0.500	X:	0.075	Y:	0.021	Z:	0.424	yaw:	0.130	yaw rate:	1.163	Roll:	0.268	Pitch:	0.330	Yaw:	1.188	Thrust:	71.792
Time:	3.858	Roll Set Point:	-0.052	Pitch Set Point:	-0.043	Yaw Set Point:	-0.007	X_WP:	0.100	Y_WP:	0.000	Y_WP:	0.500	X:	0.076	Y:	0.021	Z:	0.435	yaw:	0.381	yaw rate:	-3.827	Roll:	4.557	Pitch:	1.381	Yaw:	5.585	Thrust:	66.693
Time:	3.869	Roll Set Point:	-0.053	Pitch Set Point:	-0.043	Yaw Set Point:	-0.014	X_WP:	0.100	Y_WP:	0.000	Y_WP:	0.500	X:	0.077	Y:	0.021	Z:	0.440	yaw:	0.775	yaw rate:	39.344	Roll:	3.785	Pitch:	3.390	Yaw:	11.070	Thrust:	51.616
Time:	3.882	Roll Set Point:	-0.054	Pitch Set Point:	-0.043	Yaw Set Point:	-0.011	X_WP:	0.100	Y_WP:	0.000	Y_WP:	0.500	X:	0.077	Y:	0.022	Z:	0.444	yaw:	0.642	yaw rate:	-13.261	Roll:	1.652	Pitch:	1.467	Yaw:	-1.182	Thrust:	60.727
Time:	3.893	Roll Set Point:	-0.056	Pitch Set Point:	-0.044	Yaw Set Point:	-0.015	X_WP:	0.100	Y_WP:	0.000	Y_WP:	0.500	X:	0.078	Y:	0.022	Z:	0.449	yaw:	0.854	yaw rate:	21.177	Roll:	3.328	Pitch:	1.860	Yaw:	6.685	Thrust:	53.711
Time:	3.905	Roll Set Point:	-0.057	Pitch Set Point:	-0.044	Yaw Set Point:	-0.012	X_WP:	0.100	Y_WP:	0.000	Y_WP:	0.500	X:	0.078	Y:	0.022	Z:	0.454	yaw:	0.699	yaw rate:	-15.503	Roll:	2.299	Pitch:	2.293	Yaw:	-1.686	Thrust:	56.131
Time:	3.917	Roll Set Point:	-0.058	Pitch Set Point:	-0.045	Yaw Set Point:	-0.021	X_WP:	0.100	Y_WP:	0.000	Y_WP:	0.500	X:	0.079	Y:	0.022	Z:	0.459	yaw:	1.228	yaw rate:	52.923	Roll:	5.020	Pitch:	3.322	Yaw:	13.757	Thrust:	57.062
Time:	3.928	Roll Set Point:	-0.061	Pitch Set Point:	-0.046	Yaw Set Point:	-0.012	X_WP:	0.100	Y_WP:	0.000	Y_WP:	0.500	X:	0.080	Y:	0.023	Z:	0.471	yaw:	0.669	yaw rate:	-55.874	Roll:	8.095	Pitch:	3.739	Yaw:	-11.662	Thrust:	22.613
Time:	3.940	Roll Set Point:	-0.063	Pitch Set Point:	-0.046	Yaw Set Point:	-0.009	X_WP:	0.100	Y_WP:	0.000	Y_WP:	0.500	X:	0.081	Y:	0.023	Z:	0.476	yaw:	0.542	yaw rate:	-12.679	Roll:	3.850	Pitch:	0.963	Yaw:	-1.415	Thrust:	49.330
Time:	3.953	Roll Set Point:	-0.064	Pitch Set Point:	-0.046	Yaw Set Point:	-0.006	X_WP:	0.100	Y_WP:	0.000	Y_WP:	0.500	X:	0.082	Y:	0.023	Z:	0.482	yaw:	0.328	yaw rate:	-21.409	Roll:	3.051	Pitch:	2.650	Yaw:	-3.045	Thrust:	59.645
Time:	3.964	Roll Set Point:	-0.066	Pitch Set Point:	-0.047	Yaw Set Point:	-0.007	X_WP:	0.100	Y_WP:	0.000	Y_WP:	0.500	X:	0.083	Y:	0.023	Z:	0.488	yaw:	0.379	yaw rate:	5.071	Roll:	4.206	Pitch:	2.873	Yaw:	2.383	Thrust:	46.399
Time:	3.982	Roll Set Point:	-0.068	Pitch Set Point:	-0.047	Yaw Set Point:	-0.002	X_WP:	0.100	Y_WP:	0.000	Y_WP:	0.500	X:	0.084	Y:	0.024	Z:	0.494	yaw:	0.117	yaw rate:	-26.199	Roll:	2.641	Pitch:	1.993	Yaw:	-2.712	Thrust:	90.562
Time:	3.992	Roll Set Point:	-0.071	Pitch Set Point:	-0.049	Yaw Set Point:	-0.004	X_WP:	0.100	Y_WP:	0.000	Y_WP:	0.500	X:	0.086	Y:	0.024	Z:	0.506	yaw:	0.233	yaw rate:	2.483	Roll:	10.974	Pitch:	5.678	Yaw:	3.850	Thrust:	13.056
Time:	4.004	Roll Set Point:	-0.073	Pitch Set Point:	-0.049	Yaw Set Point:	0.007	X_WP:	0.100	Y_WP:	0.000	Y_WP:	0.500	X:	0.086	Y:	0.025	Z:	0.512	yaw:	-0.379	yaw rate:	-61.276	Roll:	3.154	Pitch:	1.410	Yaw:	-14.379	Thrust:	42.778
Time:	4.018	Roll Set Point:	-0.075	Pitch Set Point:	-0.050	Yaw Set Point:	-0.004	X_WP:	0.100	Y_WP:	0.000	Y_WP:	0.500	X:	0.087	Y:	0.025	Z:	0.518	yaw:	0.217	yaw rate:	59.675	Roll:	5.574	Pitch:	3.912	Yaw:	12.285	Thrust:	65.542
Time:	4.029	Roll Set Point:	-0.078	Pitch Set Point:	-0.051	Yaw Set Point:	-0.002	X_WP:	0.100	Y_WP:	0.000	Y_WP:	0.500	X:	0.089	Y:	0.025	Z:	0.529	yaw:	0.092	yaw rate:	-12.538	Roll:	10.525	Pitch:	3.475	Yaw:	-2.174	Thrust:	15.696
Time:	4.048	Roll Set Point:	-0.079	Pitch Set Point:	-0.050	Yaw Set Point:	0.010	X_WP:	0.100	Y_WP:	0.000	Y_WP:	0.500	X:	0.090	Y:	0.025	Z:	0.534	yaw:	-0.599	yaw rate:	-69.096	Roll:	0.330	Pitch:	0.840	Yaw:	-9.593	Thrust:	96.187
Time:	4.060	Roll Set Point:	-0.081	Pitch Set Point:	-0.051	Yaw Set Point:	0.010	X_WP:	0.100	Y_WP:	0.000	Y_WP:	0.500	X:	0.090	Y:	0.025	Z:	0.539	yaw:	-0.549	yaw rate:	5.022	Roll:	2.718	Pitch:	1.876	Yaw:	1.047	Thrust:	59.334
Time:	4.081	Roll Set Point:	-0.083	Pitch Set Point:	-0.051	Yaw Set Point:	0.015	X_WP:	0.100	Y_WP:	0.000	Y_WP:	0.500	X:	0.092	Y:	0.026	Z:	0.549	yaw:	-0.834	yaw rate:	-57.194	Roll:	8.115	Pitch:	3.247	Yaw:	-3.281	Thrust:	100.000
Time:	4.095	Roll Set Point:	-0.086	Pitch Set Point:	-0.052	Yaw Set Point:	0.011	X_WP:	0.100	Y_WP:	0.000	Y_WP:	0.500	X:	0.093	Y:	0.026	Z:	0.558	yaw:	-0.604	yaw rate:	-27.011	Roll:	3.926	Pitch:	2.440	Yaw:	4.432	Thrust:	51.512
Time:	4.106	Roll Set Point:	-0.088	Pitch Set Point:	-0.052	Yaw Set Point:	0.015	X_WP:	0.100	Y_WP:	0.000	Y_WP:	0.500	X:	0.094	Y:	0.026	Z:	0.562	yaw:	-0.851	yaw rate:	-24.722	Roll:	2.528	Pitch:	0.611	Yaw:	-6.104	Thrust:	44.871
Time:	4.121	Roll Set Point:	-0.090	Pitch Set Point:	-0.052	Yaw Set Point:	0.015	X_WP:	0.100	Y_WP:	0.000	Y_WP:	0.500	X:	0.095	Y:	0.026	Z:	0.571	yaw:	-0.885	yaw rate:	-3.409	Roll:	4.452	Pitch:	0.982	Yaw:	-0.924	Thrust:	67.456
Time:	4.133	Roll Set Point:	-0.091	Pitch Set Point:	-0.052	Yaw Set Point:	0.013	X_WP:	0.100	Y_WP:	0.000	Y_WP:	0.500	X:	0.096	Y:	0.026	Z:	0.576	yaw:	-0.762	yaw rate:	12.267	Roll:	2.992	Pitch:	1.071	Yaw:	2.322	Thrust:	51.060
Time:	4.153	Roll Set Point:	-0.093	Pitch Set Point:	-0.051	Yaw Set Point:	0.010	X_WP:	0.100	Y_WP:	0.000	Y_WP:	0.500	X:	0.097	Y:	0.026	Z:	0.585	yaw:	-0.569	yaw rate:	-0.685	Roll:	3.915	Pitch:	0.522	Yaw:	3.003	Thrust:	83.709
Time:	4.165	Roll Set Point:	-0.094	Pitch Set Point:	-0.051	Yaw Set Point:	0.010	X_WP:	0.100	Y_WP:	0.000	Y_WP:	0.500	X:	0.097	Y:	0.026	Z:	0.590	yaw:	-0.573	yaw rate:	-0.381	Roll:	1.090	Pitch:	0.565	Yaw:	-0.138	Thrust:	52.784
Time:	4.184	Roll Set Point:	-0.094	Pitch Set Point:	-0.050	Yaw Set Point:	0.015	X_WP:	0.100	Y_WP:	0.000	Y_WP:	0.500	X:	0.097	Y:	0.025	Z:	0.594	yaw:	-0.847	yaw rate:	-27.439	Roll:	0.134	Pitch:	-0.142	Yaw:	-3.884	Thrust:	96.880
Time:	4.197	Roll Set Point:	-0.096	Pitch Set Point:	-0.049	Yaw Set Point:	0.013	X_WP:	0.100	Y_WP:	0.000	Y_WP:	0.500	X:	0.098	Y:	0.025	Z:	0.604	yaw:	-0.729	yaw rate:	29.968	Roll:	3.978	Pitch:	-1.416	Yaw:	2.128	Thrust:	39.541
Time:	4.220	Roll Set Point:	-0.096	Pitch Set Point:	-0.048	Yaw Set Point:	0.013	X_WP:	0.100	Y_WP:	0.000	Y_WP:	0.500	X:	0.098	Y:	0.024	Z:	0.613	yaw:	-0.742	yaw rate:	-1.277	Roll:	-0.169	Pitch:	-1.435	Yaw:	0.140	Thrust:	100.000
Time:	4.232	Roll Set Point:	-0.097	Pitch Set Point:	-0.046	Yaw Set Point:	0.015	X_WP:	0.100	Y_WP:	0.000	Y_WP:	0.500	X:	0.099	Y:	0.023	Z:	0.622	yaw:	-0.867	yaw rate:	42.406	Roll:	1.623	Pitch:	-2.598	Yaw:	-2.969	Thrust:	43.469
Time:	4.253	Roll Set Point:	-0.097	Pitch Set Point:	-0.046	Yaw Set Point:	0.023	X_WP:	0.100	Y_WP:	0.000	Y_WP:	0.500	X:	0.099	Y:	0.023	Z:	0.627	yaw:	-1.301	yaw rate:	-43.371	Roll:	-1.331	Pitch:	-0.302	Yaw:	-6.142	Thrust:	100.000
Time:	4.264	Roll Set Point:	-0.098	Pitch Set Point:	-0.044	Yaw Set Point:	0.025	X_WP:	0.100	Y_WP:	0.000	Y_WP:	0.500	X:	0.099	Y:	0.022	Z:	0.635	yaw:	-1.412	yaw rate:	-3.325	Roll:	0.698	Pitch:	-4.716	Yaw:	-3.995	Thrust:	22.713
Time:	4.280	Roll Set Point:	-0.097	Pitch Set Point:	-0.043	Yaw Set Point:	0.018	X_WP:	0.100	Y_WP:	0.000	Y_WP:	0.500	X:	0.099	Y:	0.021	Z:	0.639	yaw:	-1.055	yaw rate:	35.704	Roll:	-1.217	Pitch:	-1.695	Yaw:	5.390	Thrust:	73.373
Time:	4.293	Roll Set Point:	-0.097	Pitch Set Point:	-0.041	Yaw Set Point:	0.021	X_WP:	0.100	Y_WP:	0.000	Y_WP:	0.500	X:	0.099	Y:	0.020	Z:	0.647	yaw:	-1.200	yaw rate:	-14.509	Roll:	-0.684	Pitch:	-4.299	Yaw:	-3.987	Thrust:	36.673
Time:	4.305	Roll Set Point:	-0.097	Pitch Set Point:	-0.040	Yaw Set Point:	0.022	X_WP:	0.100	Y_WP:	0.000	Y_WP:	0.500	X:	0.099	Y:	0.020	Z:	0.651	yaw:	-1.284	yaw rate:	-8.372	Roll:	-0.573	Pitch:	-3.389	Yaw:	-2.939	Thrust:	48.374
Time:	4.320	Roll Set Point:	-0.097	Pitch Set Point:	-0.038	Yaw Set Point:	0.015	X_WP:	0.100	Y_WP:	0.000	Y_WP:	0.500	X:	0.099	Y:	0.019	Z:	0.655	yaw:	-0.861	yaw rate:	42.324	Roll:	-0.481	Pitch:	-1.404	Yaw:	6.579	Thrust:	75.363
Time:	4.331	Roll Set Point:	-0.096	Pitch Set Point:	-0.036	Yaw Set Point:	0.020	X_WP:	0.100	Y_WP:	0.000	Y_WP:	0.500	X:	0.098	Y:	0.018	Z:	0.663	yaw:	-1.131	yaw rate:	-97.251	Roll:	-3.602	Pitch:	-6.262	Yaw:	-7.386	Thrust:	22.540
Time:	4.347	Roll Set Point:	-0.096	Pitch Set Point:	-0.035	Yaw Set Point:	0.013	X_WP:	0.100	Y_WP:	0.000	Y_WP:	0.500	X:	0.098	Y:	0.018	Z:	0.666	yaw:	-0.760	yaw rate:	37.082	Roll:	-1.869	Pitch:	-1.839	Yaw:	5.966	Thrust:	71.931
Time:	4.359	Roll Set Point:	-0.096	Pitch Set Point:	-0.034	Yaw Set Point:	0.010	X_WP:	0.100	Y_WP:	0.000	Y_WP:	0.500	X:	0.098	Y:	0.017	Z:	0.670	yaw:	-0.588	yaw rate:	17.187	Roll:	0.639	Pitch:	-1.678	Yaw:	3.575	Thrust:	45.941
Time:	4.370	Roll Set Point:	-0.095	Pitch Set Point:	-0.033	Yaw Set Point:	0.015	X_WP:	0.100	Y_WP:	0.000	Y_WP:	0.500	X:	0.098	Y:	0.016	Z:	0.674	yaw:	-0.866	yaw rate:	-27.799	Roll:	-4.414	Pitch:	-3.814	Yaw:	-7.548	Thrust:	36.295
Time:	4.384	Roll Set Point:	-0.095	Pitch Set Point:	-0.031	Yaw Set Point:	0.013	X_WP:	0.100	Y_WP:	0.000	Y_WP:	0.500	X:	0.097	Y:	0.016	Z:	0.681	yaw:	-0.731	yaw rate:	13.487	Roll:	-1.813	Pitch:	-4.165	Yaw:	2.228	Thrust:	49.305
Time:	4.397	Roll Set Point:	-0.094	Pitch Set Point:	-0.030	Yaw Set Point:	0.016	X_WP:	0.100	Y_WP:	0.000	Y_WP:	0.500	X:	0.097	Y:	0.015	Z:	0.684	yaw:	-0.919	yaw rate:	-18.767	Roll:	-1.805	Pitch:	-1.407	Yaw:	-4.349	Thrust:	53.529
Time:	4.415	Roll Set Point:	-0.094	Pitch Set Point:	-0.030	Yaw Set Point:	-0.001	X_WP:	0.100	Y_WP:	0.000	Y_WP:	0.500	X:	0.097	Y:	0.015	Z:	0.687	yaw:	0.034	yaw rate:	95.335	Roll:	-0.224	Pitch:	-0.688	Yaw:	15.157	Thrust:	79.183
Time:	4.427	Roll Set Point:	-0.094	Pitch Set Point:	-0.028	Yaw Set Point:	0.008	X_WP:	0.100	Y_WP:	0.000	Y_WP:	0.500	X:	0.097	Y:	0.014	Z:	0.693	yaw:	-0.450	yaw rate:	48.116	Roll:	-1.378	Pitch:	-3.566	Yaw:	-10.504	Thrust:	36.355
Time:	4.446	Roll Set Point:	-0.093	Pitch Set Point:	-0.027	Yaw Set Point:	0.016	X_WP:	0.100	Y_WP:	0.000	Y_WP:	0.500	X:	0.097	Y:	0.014	Z:	0.696	yaw:	-0.925	yaw rate:	-47.479	Roll:	-3.111	Pitch:	-2.211	Yaw:	-10.973	Thrust:	40.976
Time:	4.458	Roll Set Point:	-0.093	Pitch Set Point:	-0.025	Yaw Set Point:	0.026	X_WP:	0.100	Y_WP:	0.000	Y_WP:	0.500	X:	0.097	Y:	0.013	Z:	0.703	yaw:	-1.513	yaw rate:	-3.825	Roll:	-2.124	Pitch:	-2.423	Yaw:	-9.108	Thrust:	83.277
Time:	4.469	Roll Set Point:	-0.093	Pitch Set Point:	-0.025	Yaw Set Point:	0.022	X_WP:	0.100	Y_WP:	0.000	Y_WP:	0.500	X:	0.097	Y:	0.013	Z:	0.705	yaw:	-1.235	yaw rate:	27.850	Roll:	0.199	Pitch:	-0.286	Yaw:	5.756	Thrust:	41.610
Time:	4.482	Roll Set Point:	-0.093	Pitch Set Point:	-0.024	Yaw Set Point:	0.025	X_WP:	0.100	Y_WP:	0.000	Y_WP:	0.500	X:	0.097	Y:	0.012	Z:	0.707	yaw:	-1.422	yaw rate:	-18.773	Roll:	-0.401	Pitch:	-0.814	Yaw:	-5.045	Thrust:	54.883
Time:	4.493	Roll Set Point:	-0.093	Pitch Set Point:	-0.024	Yaw Set Point:	0.008	X_WP:	0.100	Y_WP:	0.000	Y_WP:	0.500	X:	0.096	Y:	0.012	Z:	0.709	yaw:	-0.473	yaw rate:	94.938	Roll:	-1.786	Pitch:	-0.771	Yaw:	21.463	Thrust:	42.457
Time:	4.505	Roll Set Point:	-0.093	Pitch Set Point:	-0.024	Yaw Set Point:	0.023	X_WP:	0.100	Y_WP:	0.000	Y_WP:	0.500	X:	0.097	Y:	0.012	Z:	0.711	yaw:	-1.312	yaw rate:	-83.892	Roll:	1.290	Pitch:	-0.028	Yaw:	-20.266	Thrust:	48.243
Time:	4.521	Roll Set Point:	-0.093	Pitch Set Point:	-0.023	Yaw Set Point:	0.020	X_WP:	0.100	Y_WP:	0.000	Y_WP:	0.500	X:	0.097	Y:	0.012	Z:	0.712	yaw:	-1.137	yaw rate:	17.483	Roll:	-1.018	Pitch:	0.343	Yaw:	2.020	Thrust:	75.725
Time:	4.532	Roll Set Point:	-0.094	Pitch Set Point:	-0.023	Yaw Set Point:	0.027	X_WP:	0.100	Y_WP:	0.000	Y_WP:	0.500	X:	0.097	Y:	0.012	Z:	0.714	yaw:	-1.568	yaw rate:	-43.071	Roll:	0.302	Pitch:	-1.105	Yaw:	-11.853	Thrust:	42.657
Time:	4.548	Roll Set Point:	-0.094	Pitch Set Point:	-0.022	Yaw Set Point:	0.018	X_WP:	0.100	Y_WP:	0.000	Y_WP:	0.500	X:	0.097	Y:	0.011	Z:	0.716	yaw:	-1.037	yaw rate:	53.066	Roll:	-0.127	Pitch:	-0.572	Yaw:	7.924	Thrust:	71.250
Time:	4.560	Roll Set Point:	-0.095	Pitch Set Point:	-0.022	Yaw Set Point:	0.034	X_WP:	0.100	Y_WP:	0.000	Y_WP:	0.500	X:	0.098	Y:	0.011	Z:	0.717	yaw:	-1.972	yaw rate:	-75.451	Roll:	2.908	Pitch:	0.025	Yaw:	-23.350	Thrust:	44.778
Time:	4.572	Roll Set Point:	-0.095	Pitch Set Point:	-0.022	Yaw Set Point:	0.027	X_WP:	0.100	Y_WP:	0.000	Y_WP:	0.500	X:	0.098	Y:	0.011	Z:	0.717	yaw:	-1.559	yaw rate:	41.297	Roll:	-0.676	Pitch:	0.285	Yaw:	7.268	Thrust:	53.753
Time:	4.588	Roll Set Point:	-0.095	Pitch Set Point:	-0.022	Yaw Set Point:	0.040	X_WP:	0.100	Y_WP:	0.000	Y_WP:	0.500	X:	0.098	Y:	0.011	Z:	0.718	yaw:	-2.274	yaw rate:	-71.465	Roll:	0.376	Pitch:	0.147	Yaw:	-14.423	Thrust:	70.416
Time:	4.599	Roll Set Point:	-0.096	Pitch Set Point:	-0.022	Yaw Set Point:	0.033	X_WP:	0.100	Y_WP:	0.000	Y_WP:	0.500	X:	0.098	Y:	0.011	Z:	0.718	yaw:	-1.883	yaw rate:	39.041	Roll:	1.085	Pitch:	0.808	Yaw:	6.787	Thrust:	49.354
Time:	4.620	Roll Set Point:	-0.098	Pitch Set Point:	-0.022	Yaw Set Point:	0.034	X_WP:	0.100	Y_WP:	0.000	Y_WP:	0.500	X:	0.099	Y:	0.011	Z:	0.719	yaw:	-1.941	yaw rate:	-44.353	Roll:	4.032	Pitch:	1.488	Yaw:	-2.553	Thrust:	90.612
Time:	4.632	Roll Set Point:	-0.100	Pitch Set Point:	-0.022	Yaw Set Point:	0.021	X_WP:	0.100	Y_WP:	0.000	Y_WP:	0.500	X:	0.100	Y:	0.011	Z:	0.719	yaw:	-1.182	yaw rate:	75.906	Roll:	3.367	Pitch:	1.141	Yaw:	14.203	Thrust:	54.372
Time:	4.648	Roll Set Point:	-0.100	Pitch Set Point:	-0.022	Yaw Set Point:	0.028	X_WP:	0.100	Y_WP:	0.000	Y_WP:	0.500	X:	0.100	Y:	0.011	Z:	0.719	yaw:	-1.586	yaw rate:	-40.466	Roll:	0.212	Pitch:	1.576	Yaw:	-8.108	Thrust:	75.070
Time:	4.660	Roll Set Point:	-0.101	Pitch Set Point:	-0.022	Yaw Set Point:	0.024	X_WP:	0.100	Y_WP:	0.000	Y_WP:	0.500	X:	0.101	Y:	0.011	Z:	0.719	yaw:	-1.352	yaw rate:	23.428	Roll:	1.997	Pitch:	0.199	Yaw:	3.952	Thrust:	48.873
Time:	4.671	Roll Set Point:	-0.102	Pitch Set Point:	-0.022	Yaw Set Point:	0.036	X_WP:	0.100	Y_WP:	0.000	Y_WP:	0.500	X:	0.101	Y:	0.011	Z:	0.719	yaw:	-2.079	yaw rate:	-72.679	Roll:	2.427	Pitch:	0.729	Yaw:	-19.658	Thrust:	45.846
Time:	4.687	Roll Set Point:	-0.103	Pitch Set Point:	-0.022	Yaw Set Point:	0.038	X_WP:	0.100	Y_WP:	0.000	Y_WP:	0.500	X:	0.102	Y:	0.011	Z:	0.718	yaw:	-2.152	yaw rate:	-7.307	Roll:	1.498	Pitch:	0.981	Yaw:	-3.478	Thrust:	69.433
Time:	4.699	Roll Set Point:	-0.106	Pitch Set Point:	-0.023	Yaw Set Point:	0.027	X_WP:	0.100	Y_WP:	0.000	Y_WP:	0.500	X:	0.103	Y:	0.011	Z:	0.718	yaw:	-1.549	yaw rate:	40.942	Roll:	7.643	Pitch:	2.014	Yaw:	10.985	Thrust:	56.168
Time:	4.718	Roll Set Point:	-0.107	Pitch Set Point:	-0.022	Yaw Set Point:	0.034	X_WP:	0.100	Y_WP:	0.000	Y_WP:	0.500	X:	0.103	Y:	0.011	Z:	0.718	yaw:	-1.922	yaw rate:	-37.253	Roll:	1.138	Pitch:	0.532	Yaw:	-7.125	Thrust:	81.631
Time:	4.729	Roll Set Point:	-0.109	Pitch Set Point:	-0.022	Yaw Set Point:	0.036	X_WP:	0.100	Y_WP:	0.000	Y_WP:	0.500	X:	0.105	Y:	0.011	Z:	0.718	yaw:	-2.085	yaw rate:	-15.619	Roll:	7.212	Pitch:	0.982	Yaw:	-6.325	Thrust:	46.712
Time:	4.741	Roll Set Point:	-0.110	Pitch Set Point:	-0.022	Yaw Set Point:	0.035	X_WP:	0.100	Y_WP:	0.000	Y_WP:	0.500	X:	0.105	Y:	0.011	Z:	0.718	yaw:	-1.996	yaw rate:	8.907	Roll:	2.906	Pitch:	0.615	Yaw:	-0.365	Thrust:	44.865
Time:	4.755	Roll Set Point:	-0.111	Pitch Set Point:	-0.022	Yaw Set Point:	0.035	X_WP:	0.100	Y_WP:	0.000	Y_WP:	0.500	X:	0.106	Y:	0.011	Z:	0.718	yaw:	-1.992	yaw rate:	0.418	Roll:	1.804	Pitch:	0.629	Yaw:	-2.128	Thrust:	64.267
Time:	4.766	Roll Set Point:	-0.112	Pitch Set Point:	-0.022	Yaw Set Point:	0.033	X_WP:	0.100	Y_WP:	0.000	Y_WP:	0.500	X:	0.106	Y:	0.011	Z:	0.718	yaw:	-1.916	yaw rate:	7.569	Roll:	3.267	Pitch:	0.767	Yaw:	-0.436	Thrust:	43.754
Time:	4.782	Roll Set Point:	-0.113	Pitch Set Point:	-0.022	Yaw Set Point:	0.025	X_WP:	0.100	Y_WP:	0.000	Y_WP:	0.500	X:	0.107	Y:	0.011	Z:	0.718	yaw:	-1.457	yaw rate:	45.944	Roll:	3.091	Pitch:	0.894	Yaw:	6.022	Thrust:	69.154
Time:	4.793	Roll Set Point:	-0.114	Pitch Set Point:	-0.022	Yaw Set Point:	0.032	X_WP:	0.100	Y_WP:	0.000	Y_WP:	0.500	X:	0.107	Y:	0.011	Z:	0.718	yaw:	-1.844	yaw rate:	-38.691	Roll:	1.613	Pitch:	-0.045	Yaw:	-11.327	Thrust:	39.623
Time:	4.805	Roll Set Point:	-0.115	Pitch Set Point:	-0.022	Yaw Set Point:	0.026	X_WP:	0.100	Y_WP:	0.000	Y_WP:	0.500	X:	0.107	Y:	0.011	Z:	0.718	yaw:	-1.471	yaw rate:	37.274	Roll:	2.215	Pitch:	-0.944	Yaw:	7.558	Thrust:	43.607
Time:	4.817	Roll Set Point:	-0.117	Pitch Set Point:	-0.021	Yaw Set Point:	0.022	X_WP:	0.100	Y_WP:	0.000	Y_WP:	0.500	X:	0.109	Y:	0.010	Z:	0.717	yaw:	-1.280	yaw rate:	62.005	Roll:	7.415	Pitch:	-0.896	Yaw:	2.436	Thrust:	56.780
Time:	4.829	Roll Set Point:	-0.118	Pitch Set Point:	-0.021	Yaw Set Point:	0.021	X_WP:	0.100	Y_WP:	0.000	Y_WP:	0.500	X:	0.109	Y:	0.010	Z:	0.717	yaw:	-1.195	yaw rate:	8.560	Roll:	3.087	Pitch:	-0.062	Yaw:	0.707	Thrust:	46.888
Time:	4.844	Roll Set Point:	-0.119	Pitch Set Point:	-0.021	Yaw Set Point:	0.035	X_WP:	0.100	Y_WP:	0.000	Y_WP:	0.500	X:	0.110	Y:	0.010	Z:	0.716	yaw:	-1.988	yaw rate:	-79.364	Roll:	0.943	Pitch:	0.918	Yaw:	-15.904	Thrust:	59.312
Time:	4.857	Roll Set Point:	-0.119	Pitch Set Point:	-0.020	Yaw Set Point:	0.031	X_WP:	0.100	Y_WP:	0.000	Y_WP:	0.500	X:	0.110	Y:	0.010	Z:	0.715	yaw:	-1.772	yaw rate:	21.598	Roll:	0.481	Pitch:	-0.020	Yaw:	2.425	Thrust:	58.214
Time:	4.868	Roll Set Point:	-0.120	Pitch Set Point:	-0.020	Yaw Set Point:	0.032	X_WP:	0.100	Y_WP:	0.000	Y_WP:	0.500	X:	0.110	Y:	0.010	Z:	0.715	yaw:	-1.806	yaw rate:	-3.390	Roll:	3.290	Pitch:	0.609	Yaw:	-2.880	Thrust:	46.591
Time:	4.880	Roll Set Point:	-0.121	Pitch Set Point:	-0.020	Yaw Set Point:	0.034	X_WP:	0.100	Y_WP:	0.000	Y_WP:	0.500	X:	0.110	Y:	0.010	Z:	0.713	yaw:	-1.929	yaw rate:	-12.310	Roll:	1.469	Pitch:	-1.320	Yaw:	-5.021	Thrust:	49.337
Time:	4.891	Roll Set Point:	-0.122	Pitch Set Point:	-0.019	Yaw Set Point:	0.025	X_WP:	0.100	Y_WP:	0.000	Y_WP:	0.500	X:	0.111	Y:	0.009	Z:	0.711	yaw:	-1.407	yaw rate:	-58.112	Roll:	2.940	Pitch:	-2.210	Yaw:	11.010	Thrust:	50.838
Time:	4.902	Roll Set Point:	-0.122	Pitch Set Point:	-0.019	Yaw Set Point:	0.021	X_WP:	0.100	Y_WP:	0.000	Y_WP:	0.500	X:	0.111	Y:	0.009	Z:	0.709	yaw:	-1.192	yaw rate:	21.519	Roll:	1.238	Pitch:	0.121	Yaw:	4.022	Thrust:	45.028
Time:	4.918	Roll Set Point:	-0.122	Pitch Set Point:	-0.018	Yaw Set Point:	0.030	X_WP:	0.100	Y_WP:	0.000	Y_WP:	0.500	X:	0.111	Y:	0.009	Z:	0.708	yaw:	-1.738	yaw rate:	-54.617	Roll:	0.802	Pitch:	0.469	Yaw:	-10.788	Thrust:	69.267
Time:	4.929	Roll Set Point:	-0.123	Pitch Set Point:	-0.018	Yaw Set Point:	0.013	X_WP:	0.100	Y_WP:	0.000	Y_WP:	0.500	X:	0.112	Y:	0.009	Z:	0.704	yaw:	-0.729	yaw rate:	100.892	Roll:	2.601	Pitch:	-2.393	Yaw:	22.269	Thrust:	55.479
Time:	4.949	Roll Set Point:	-0.123	Pitch Set Point:	-0.017	Yaw Set Point:	0.019	X_WP:	0.100	Y_WP:	0.000	Y_WP:	0.500	X:	0.111	Y:	0.008	Z:	0.702	yaw:	-1.077	yaw rate:	-34.784	Roll:	-1.351	Pitch:	-0.399	Yaw:	-5.352	Thrust:	90.483
Time:	4.962	Roll Set Point:	-0.124	Pitch Set Point:	-0.017	Yaw Set Point:	0.023	X_WP:	0.100	Y_WP:	0.000	Y_WP:	0.500	X:	0.112	Y:	0.008	Z:	0.697	yaw:	-1.338	yaw rate:	15.973	Roll:	2.001	Pitch:	0.050	Yaw:	-6.673	Thrust:	63.476
Time:	4.985	Roll Set Point:	-0.123	Pitch Set Point:	-0.016	Yaw Set Point:	0.027	X_WP:	0.100	Y_WP:	0.000	Y_WP:	0.500	X:	0.112	Y:	0.008	Z:	0.695	yaw:	-1.520	yaw rate:	-18.238	Roll:	-0.844	Pitch:	0.441	Yaw:	-3.532	Thrust:	98.194
Time:	4.996	Roll Set Point:	-0.124	Pitch Set Point:	-0.016	Yaw Set Point:	0.017	X_WP:	0.100	Y_WP:	0.000	Y_WP:	0.500	X:	0.112	Y:	0.008	Z:	0.690	yaw:	-0.979	yaw rate:	8.615	Roll:	1.719	Pitch:	-1.800	Yaw:	11.276	Thrust:	62.434
Time:	5.011	Roll Set Point:	-0.124	Pitch Set Point:	-0.016	Yaw Set Point:	0.040	X_WP:	0.100	Y_WP:	0.000	Y_WP:	0.500	X:	0.112	Y:	0.008	Z:	0.687	yaw:	-2.277	yaw rate:	-129.783	Roll:	-1.799	Pitch:	1.732	Yaw:	-28.841	Thrust:	56.242
Time:	5.028	Roll Set Point:	-0.123	Pitch Set Point:	-0.015	Yaw Set Point:	0.027	X_WP:	0.100	Y_WP:	0.000	Y_WP:	0.500	X:	0.112	Y:	0.007	Z:	0.682	yaw:	-1.533	yaw rate:	74.350	Roll:	-0.863	Pitch:	-1.550	Yaw:	8.858	Thrust:	91.473
Time:	5.046	Roll Set Point:	-0.123	Pitch Set Point:	-0.014	Yaw Set Point:	0.026	X_WP:	0.100	Y_WP:	0.000	Y_WP:	0.500	X:	0.112	Y:	0.007	Z:	0.677	yaw:	-1.488	yaw rate:	-42.106	Roll:	-1.225	Pitch:	-0.213	Yaw:	-0.889	Thrust:	85.210
Time:	5.059	Roll Set Point:	-0.123	Pitch Set Point:	-0.014	Yaw Set Point:	0.026	X_WP:	0.100	Y_WP:	0.000	Y_WP:	0.500	X:	0.111	Y:	0.007	Z:	0.675	yaw:	-1.497	yaw rate:	-0.899	Roll:	-0.922	Pitch:	0.904	Yaw:	-1.892	Thrust:	57.299
Time:	5.070	Roll Set Point:	-0.123	Pitch Set Point:	-0.014	Yaw Set Point:	0.029	X_WP:	0.100	Y_WP:	0.000	Y_WP:	0.500	X:	0.111	Y:	0.007	Z:	0.673	yaw:	-1.686	yaw rate:	-18.950	Roll:	-0.655	Pitch:	1.100	Yaw:	-6.767	Thrust:	46.925
Time:	5.083	Roll Set Point:	-0.121	Pitch Set Point:	-0.014	Yaw Set Point:	0.019	X_WP:	0.100	Y_WP:	0.000	Y_WP:	0.500	X:	0.111	Y:	0.007	Z:	0.669	yaw:	-1.093	yaw rate:	26.044	Roll:	-3.674	Pitch:	-1.604	Yaw:	10.762	Thrust:	61.352
Time:	5.094	Roll Set Point:	-0.122	Pitch Set Point:	-0.013	Yaw Set Point:	0.022	X_WP:	0.100	Y_WP:	0.000	Y_WP:	0.500	X:	0.111	Y:	0.007	Z:	0.668	yaw:	-1.235	yaw rate:	-14.132	Roll:	0.811	Pitch:	0.109	Yaw:	-4.773	Thrust:	45.063
Time:	5.106	Roll Set Point:	-0.121	Pitch Set Point:	-0.014	Yaw Set Point:	0.029	X_WP:	0.100	Y_WP:	0.000	Y_WP:	0.500	X:	0.111	Y:	0.007	Z:	0.667	yaw:	-1.657	yaw rate:	-42.221	Roll:	-0.695	Pitch:	1.542	Yaw:	-11.535	Thrust:	47.506
Time:	5.118	Roll Set Point:	-0.121	Pitch Set Point:	-0.014	Yaw Set Point:	0.032	X_WP:	0.100	Y_WP:	0.000	Y_WP:	0.500	X:	0.111	Y:	0.007	Z:	0.666	yaw:	-1.845	yaw rate:	-18.770	Roll:	-1.740	Pitch:	0.818	Yaw:	-6.162	Thrust:	50.279
Time:	5.130	Roll Set Point:	-0.120	Pitch Set Point:	-0.014	Yaw Set Point:	0.028	X_WP:	0.100	Y_WP:	0.000	Y_WP:	0.500	X:	0.110	Y:	0.007	Z:	0.664	yaw:	-1.604	yaw rate:	24.056	Roll:	-2.915	Pitch:	0.642	Yaw:	3.521	Thrust:	48.892
Time:	5.145	Roll Set Point:	-0.120	Pitch Set Point:	-0.014	Yaw Set Point:	0.027	X_WP:	0.100	Y_WP:	0.000	Y_WP:	0.500	X:	0.110	Y:	0.007	Z:	0.663	yaw:	-1.555	yaw rate:	4.890	Roll:	-0.768	Pitch:	0.754	Yaw:	-0.923	Thrust:	52.483
Time:	5.157	Roll Set Point:	-0.120	Pitch Set Point:	-0.013	Yaw Set Point:	0.023	X_WP:	0.100	Y_WP:	0.000	Y_WP:	0.500	X:	0.110	Y:	0.007	Z:	0.663	yaw:	-1.294	yaw rate:	26.081	Roll:	-0.948	Pitch:	-0.240	Yaw:	3.689	Thrust:	54.985
Time:	5.193	Roll Set Point:	-0.120	Pitch Set Point:	-0.014	Yaw Set Point:	0.026	X_WP:	0.100	Y_WP:	0.000	Y_WP:	0.500	X:	0.110	Y:	0.007	Z:	0.662	yaw:	-1.473	yaw rate:	-17.884	Roll:	-1.380	Pitch:	1.860	Yaw:	-2.565	Thrust:	100.000
Time:	5.205	Roll Set Point:	-0.120	Pitch Set Point:	-0.014	Yaw Set Point:	0.012	X_WP:	0.100	Y_WP:	0.000	Y_WP:	0.500	X:	0.110	Y:	0.007	Z:	0.659	yaw:	-0.680	yaw rate:	74.062	Roll:	0.125	Pitch:	-0.041	Yaw:	15.356	Thrust:	56.577
Time:	5.225	Roll Set Point:	-0.119	Pitch Set Point:	-0.014	Yaw Set Point:	0.027	X_WP:	0.100	Y_WP:	0.000	Y_WP:	0.500	X:	0.110	Y:	0.007	Z:	0.659	yaw:	-1.539	yaw rate:	-85.878	Roll:	-0.909	Pitch:	1.411	Yaw:	-13.173	Thrust:	77.371
Time:	5.237	Roll Set Point:	-0.120	Pitch Set Point:	-0.014	Yaw Set Point:	0.022	X_WP:	0.100	Y_WP:	0.000	Y_WP:	0.500	X:	0.110	Y:	0.007	Z:	0.657	yaw:	-1.284	yaw rate:	8.069	Roll:	0.191	Pitch:	1.498	Yaw:	4.055	Thrust:	49.686
Time:	5.258	Roll Set Point:	-0.120	Pitch Set Point:	-0.014	Yaw Set Point:	0.013	X_WP:	0.100	Y_WP:	0.000	Y_WP:	0.500	X:	0.110	Y:	0.007	Z:	0.654	yaw:	-0.733	yaw rate:	83.308	Roll:	-0.119	Pitch:	0.132	Yaw:	6.290	Thrust:	85.882
Time:	5.269	Roll Set Point:	-0.121	Pitch Set Point:	-0.014	Yaw Set Point:	0.021	X_WP:	0.100	Y_WP:	0.000	Y_WP:	0.500	X:	0.110	Y:	0.007	Z:	0.653	yaw:	-1.221	yaw rate:	-48.739	Roll:	2.525	Pitch:	2.069	Yaw:	-12.515	Thrust:	44.881
Time:	5.289	Roll Set Point:	-0.121	Pitch Set Point:	-0.014	Yaw Set Point:	0.023	X_WP:	0.100	Y_WP:	0.000	Y_WP:	0.500	X:	0.111	Y:	0.007	Z:	0.652	yaw:	-1.293	yaw rate:	-7.201	Roll:	0.353	Pitch:	0.511	Yaw:	-2.362	Thrust:	74.916
Time:	5.300	Roll Set Point:	-0.122	Pitch Set Point:	-0.014	Yaw Set Point:	0.026	X_WP:	0.100	Y_WP:	0.000	Y_WP:	0.500	X:	0.111	Y:	0.007	Z:	0.652	yaw:	-1.471	yaw rate:	-17.798	Roll:	1.176	Pitch:	0.659	Yaw:	-5.844	Thrust:	42.158
Time:	5.319	Roll Set Point:	-0.122	Pitch Set Point:	-0.014	Yaw Set Point:	0.022	X_WP:	0.100	Y_WP:	0.000	Y_WP:	0.500	X:	0.111	Y:	0.007	Z:	0.651	yaw:	-1.264	yaw rate:	20.711	Roll:	1.190	Pitch:	0.864	Yaw:	1.613	Thrust:	66.675
Time:	5.332	Roll Set Point:	-0.124	Pitch Set Point:	-0.014	Yaw Set Point:	0.015	X_WP:	0.100	Y_WP:	0.000	Y_WP:	0.500	X:	0.112	Y:	0.007	Z:	0.651	yaw:	-0.834	yaw rate:	43.128	Roll:	5.612	Pitch:	0.196	Yaw:	7.745	Thrust:	49.491
Time:	5.344	Roll Set Point:	-0.125	Pitch Set Point:	-0.013	Yaw Set Point:	0.021	X_WP:	0.100	Y_WP:	0.000	Y_WP:	0.500	X:	0.113	Y:	0.007	Z:	0.651	yaw:	-1.197	yaw rate:	-36.344	Roll:	2.247	Pitch:	-0.034	Yaw:	-9.685	Thrust:	38.597
Time:	5.355	Roll Set Point:	-0.126	Pitch Set Point:	-0.013	Yaw Set Point:	0.011	X_WP:	0.100	Y_WP:	0.000	Y_WP:	0.500	X:	0.113	Y:	0.007	Z:	0.652	yaw:	-0.622	yaw rate:	57.499	Roll:	3.640	Pitch:	-0.074	Yaw:	11.370	Thrust:	41.724
Time:	5.366	Roll Set Point:	-0.127	Pitch Set Point:	-0.013	Yaw Set Point:	0.016	X_WP:	0.100	Y_WP:	0.000	Y_WP:	0.500	X:	0.114	Y:	0.006	Z:	0.652	yaw:	-0.912	yaw rate:	-29.019	Roll:	2.042	Pitch:	-0.272	Yaw:	-7.947	Thrust:	34.650
Time:	5.384	Roll Set Point:	-0.128	Pitch Set Point:	-0.013	Yaw Set Point:	0.011	X_WP:	0.100	Y_WP:	0.000	Y_WP:	0.500	X:	0.114	Y:	0.006	Z:	0.653	yaw:	-0.651	yaw rate:	26.126	Roll:	2.299	Pitch:	0.493	Yaw:	3.404	Thrust:	59.240
Time:	5.396	Roll Set Point:	-0.130	Pitch Set Point:	-0.013	Yaw Set Point:	0.016	X_WP:	0.100	Y_WP:	0.000	Y_WP:	0.500	X:	0.115	Y:	0.006	Z:	0.656	yaw:	-0.898	yaw rate:	12.577	Roll:	7.199	Pitch:	-0.295	Yaw:	-6.409	Thrust:	29.421
Time:	5.416	Roll Set Point:	-0.133	Pitch Set Point:	-0.012	Yaw Set Point:	0.007	X_WP:	0.100	Y_WP:	0.000	Y_WP:	0.500	X:	0.117	Y:	0.006	Z:	0.658	yaw:	-0.388	yaw rate:	50.997	Roll:	9.009	Pitch:	-1.300	Yaw:	6.999	Thrust:	43.730
Time:	5.431	Roll Set Point:	-0.135	Pitch Set Point:	-0.011	Yaw Set Point:	0.019	X_WP:	0.100	Y_WP:	0.000	Y_WP:	0.500	X:	0.118	Y:	0.006	Z:	0.662	yaw:	-1.060	yaw rate:	-57.948	Roll:	3.035	Pitch:	0.221	Yaw:	-11.862	Thrust:	64.396
Time:	5.454	Roll Set Point:	-0.137	Pitch Set Point:	-0.011	Yaw Set Point:	0.022	X_WP:	0.100	Y_WP:	0.000	Y_WP:	0.500	X:	0.118	Y:	0.005	Z:	0.663	yaw:	-1.242	yaw rate:	-18.202	Roll:	2.151	Pitch:	1.096	Yaw:	-3.433	Thrust:	78.664
Time:	5.466	Roll Set Point:	-0.139	Pitch Set Point:	-0.010	Yaw Set Point:	0.010	X_WP:	0.100	Y_WP:	0.000	Y_WP:	0.500	X:	0.119	Y:	0.005	Z:	0.666	yaw:	-0.553	yaw rate:	-47.126	Roll:	5.446	Pitch:	-3.364	Yaw:	14.447	Thrust:	30.083
Time:	5.493	Roll Set Point:	-0.140	Pitch Set Point:	-0.010	Yaw Set Point:	0.019	X_WP:	0.100	Y_WP:	0.000	Y_WP:	0.500	X:	0.120	Y:	0.005	Z:	0.668	yaw:	-1.106	yaw rate:	-55.364	Roll:	1.705	Pitch:	1.413	Yaw:	-6.421	Thrust:	94.372
Time:	5.519	Roll Set Point:	-0.143	Pitch Set Point:	-0.009	Yaw Set Point:	0.013	X_WP:	0.100	Y_WP:	0.000	Y_WP:	0.500	X:	0.122	Y:	0.004	Z:	0.671	yaw:	-0.757	yaw rate:	9.006	Roll:	3.993	Pitch:	-1.135	Yaw:	2.826	Thrust:	90.532
Time:	5.532	Roll Set Point:	-0.146	Pitch Set Point:	-0.008	Yaw Set Point:	0.003	X_WP:	0.100	Y_WP:	0.000	Y_WP:	0.500	X:	0.123	Y:	0.004	Z:	0.673	yaw:	-0.177	yaw rate:	49.788	Roll:	5.956	Pitch:	-1.911	Yaw:	11.636	Thrust:	34.711
Time:	5.555	Roll Set Point:	-0.146	Pitch Set Point:	-0.007	Yaw Set Point:	0.001	X_WP:	0.100	Y_WP:	0.000	Y_WP:	0.500	X:	0.123	Y:	0.004	Z:	0.674	yaw:	-0.053	yaw rate:	12.389	Roll:	1.534	Pitch:	-0.263	Yaw:	1.768	Thrust:	70.758
Time:	5.567	Roll Set Point:	-0.149	Pitch Set Point:	-0.006	Yaw Set Point:	0.013	X_WP:	0.100	Y_WP:	0.000	Y_WP:	0.500	X:	0.124	Y:	0.003	Z:	0.678	yaw:	-0.765	yaw rate:	-23.826	Roll:	5.790	Pitch:	-1.605	Yaw:	-16.370	Thrust:	30.585
Time:	5.587	Roll Set Point:	-0.149	Pitch Set Point:	-0.006	Yaw Set Point:	-0.001	X_WP:	0.100	Y_WP:	0.000	Y_WP:	0.500	X:	0.125	Y:	0.003	Z:	0.680	yaw:	0.055	yaw rate:	81.994	Roll:	0.497	Pitch:	-0.969	Yaw:	10.860	Thrust:	65.999
Time:	5.600	Roll Set Point:	-0.151	Pitch Set Point:	-0.005	Yaw Set Point:	0.006	X_WP:	0.100	Y_WP:	0.000	Y_WP:	0.500	X:	0.126	Y:	0.002	Z:	0.686	yaw:	-0.319	yaw rate:	3.056	Roll:	6.253	Pitch:	-1.406	Yaw:	-8.054	Thrust:	16.173
Time:	5.622	Roll Set Point:	-0.152	Pitch Set Point:	-0.004	Yaw Set Point:	-0.004	X_WP:	0.100	Y_WP:	0.000	Y_WP:	0.500	X:	0.126	Y:	0.002	Z:	0.688	yaw:	0.201	yaw rate:	51.999	Roll:	1.021	Pitch:	-0.680	Yaw:	6.815	Thrust:	67.164
Time:	5.635	Roll Set Point:	-0.153	Pitch Set Point:	-0.004	Yaw Set Point:	-0.004	X_WP:	0.100	Y_WP:	0.000	Y_WP:	0.500	X:	0.126	Y:	0.002	Z:	0.693	yaw:	0.211	yaw rate:	38.614	Roll:	3.446	Pitch:	-0.961	Yaw:	0.724	Thrust:	26.965
Time:	5.669	Roll Set Point:	-0.155	Pitch Set Point:	-0.003	Yaw Set Point:	-0.004	X_WP:	0.100	Y_WP:	0.000	Y_WP:	0.500	X:	0.127	Y:	0.001	Z:	0.701	yaw:	0.221	yaw rate:	0.997	Roll:	1.601	Pitch:	0.247	Yaw:	0.953	Thrust:	100.000
Time:	5.686	Roll Set Point:	-0.156	Pitch Set Point:	-0.003	Yaw Set Point:	0.001	X_WP:	0.100	Y_WP:	0.000	Y_WP:	0.500	X:	0.128	Y:	0.001	Z:	0.706	yaw:	-0.053	yaw rate:	-3.613	Roll:	2.982	Pitch:	0.888	Yaw:	-3.996	Thrust:	42.534
