Time:	2.098	Roll Set Point:	0.569	Pitch Set Point:	0.285	Yaw Set Point:	-0.662	X_WP:	0.000	Y_WP:	0.000	Y_WP:	0.500	X:	-0.235	Y:	-0.240	Z:	0.047	yaw:	37.906	yaw rate:	49.807	Roll:	-9.664	Pitch:	-1.304	Yaw:	52.927	Thrust:	24.915
Time:	2.113	Roll Set Point:	0.568	Pitch Set Point:	0.286	Yaw Set Point:	-0.661	X_WP:	0.000	Y_WP:	0.000	Y_WP:	0.500	X:	-0.235	Y:	-0.240	Z:	0.047	yaw:	37.851	yaw rate:	-5.553	Roll:	-9.637	Pitch:	-1.688	Yaw:	52.126	Thrust:	25.711
Time:	2.129	Roll Set Point:	0.568	Pitch Set Point:	0.285	Yaw Set Point:	-0.661	X_WP:	0.000	Y_WP:	0.000	Y_WP:	0.500	X:	-0.235	Y:	-0.240	Z:	0.047	yaw:	37.878	yaw rate:	2.761	Roll:	-9.583	Pitch:	-0.906	Yaw:	53.764	Thrust:	27.487
Time:	2.145	Roll Set Point:	0.568	Pitch Set Point:	0.285	Yaw Set Point:	-0.660	X_WP:	0.000	Y_WP:	0.000	Y_WP:	0.500	X:	-0.235	Y:	-0.240	Z:	0.047	yaw:	37.801	yaw rate:	-0.409	Roll:	-9.604	Pitch:	-1.860	Yaw:	52.092	Thrust:	27.229
Time:	2.160	Roll Set Point:	0.568	Pitch Set Point:	0.285	Yaw Set Point:	-0.660	X_WP:	0.000	Y_WP:	0.000	Y_WP:	0.500	X:	-0.235	Y:	-0.240	Z:	0.047	yaw:	37.797	yaw rate:	-0.362	Roll:	-9.690	Pitch:	-1.336	Yaw:	53.540	Thrust:	28.383
Time:	2.176	Roll Set Point:	0.568	Pitch Set Point:	0.286	Yaw Set Point:	-0.659	X_WP:	0.000	Y_WP:	0.000	Y_WP:	0.500	X:	-0.235	Y:	-0.240	Z:	0.047	yaw:	37.786	yaw rate:	-1.081	Roll:	-9.693	Pitch:	-1.427	Yaw:	53.610	Thrust:	29.257
Time:	2.191	Roll Set Point:	0.568	Pitch Set Point:	0.286	Yaw Set Point:	-0.660	X_WP:	0.000	Y_WP:	0.000	Y_WP:	0.500	X:	-0.235	Y:	-0.240	Z:	0.047	yaw:	37.789	yaw rate:	0.267	Roll:	-9.750	Pitch:	-1.290	Yaw:	54.046	Thrust:	29.884
Time:	2.207	Roll Set Point:	0.568	Pitch Set Point:	0.285	Yaw Set Point:	-0.661	X_WP:	0.000	Y_WP:	0.000	Y_WP:	0.500	X:	-0.235	Y:	-0.240	Z:	0.047	yaw:	37.847	yaw rate:	5.835	Roll:	-9.805	Pitch:	-0.961	Yaw:	55.267	Thrust:	31.020
Time:	2.223	Roll Set Point:	0.568	Pitch Set Point:	0.285	Yaw Set Point:	-0.661	X_WP:	0.000	Y_WP:	0.000	Y_WP:	0.500	X:	-0.235	Y:	-0.240	Z:	0.047	yaw:	37.876	yaw rate:	2.872	Roll:	-9.811	Pitch:	-1.120	Yaw:	54.928	Thrust:	31.701
Time:	2.238	Roll Set Point:	0.568	Pitch Set Point:	0.285	Yaw Set Point:	-0.661	X_WP:	0.000	Y_WP:	0.000	Y_WP:	0.500	X:	-0.235	Y:	-0.240	Z:	0.047	yaw:	37.861	yaw rate:	-1.437	Roll:	-9.783	Pitch:	-1.389	Yaw:	54.190	Thrust:	32.672
Time:	2.254	Roll Set Point:	0.568	Pitch Set Point:	0.285	Yaw Set Point:	-0.660	X_WP:	0.000	Y_WP:	0.000	Y_WP:	0.500	X:	-0.235	Y:	-0.240	Z:	0.047	yaw:	37.808	yaw rate:	-5.341	Roll:	-9.714	Pitch:	-1.705	Yaw:	53.453	Thrust:	33.395
Time:	2.270	Roll Set Point:	0.568	Pitch Set Point:	0.285	Yaw Set Point:	-0.660	X_WP:	0.000	Y_WP:	0.000	Y_WP:	0.500	X:	-0.235	Y:	-0.240	Z:	0.047	yaw:	37.815	yaw rate:	0.739	Roll:	-9.816	Pitch:	-1.305	Yaw:	54.487	Thrust:	34.033
Time:	2.285	Roll Set Point:	0.568	Pitch Set Point:	0.285	Yaw Set Point:	-0.660	X_WP:	0.000	Y_WP:	0.000	Y_WP:	0.500	X:	-0.235	Y:	-0.240	Z:	0.047	yaw:	37.842	yaw rate:	2.669	Roll:	-9.859	Pitch:	-1.140	Yaw:	54.847	Thrust:	35.137
Time:	2.301	Roll Set Point:	0.568	Pitch Set Point:	0.285	Yaw Set Point:	-0.660	X_WP:	0.000	Y_WP:	0.000	Y_WP:	0.500	X:	-0.235	Y:	-0.240	Z:	0.047	yaw:	37.842	yaw rate:	2.669	Roll:	-9.828	Pitch:	-1.334	Yaw:	54.400	Thrust:	35.974
Time:	2.316	Roll Set Point:	0.568	Pitch Set Point:	0.285	Yaw Set Point:	-0.660	X_WP:	0.000	Y_WP:	0.000	Y_WP:	0.500	X:	-0.235	Y:	-0.240	Z:	0.047	yaw:	37.828	yaw rate:	-3.836	Roll:	-9.792	Pitch:	-1.421	Yaw:	54.142	Thrust:	36.918
Time:	2.332	Roll Set Point:	0.568	Pitch Set Point:	0.285	Yaw Set Point:	-0.660	X_WP:	0.000	Y_WP:	0.000	Y_WP:	0.500	X:	-0.235	Y:	-0.240	Z:	0.047	yaw:	37.828	yaw rate:	-3.836	Roll:	-9.853	Pitch:	-1.339	Yaw:	54.381	Thrust:	37.676
Time:	2.348	Roll Set Point:	0.568	Pitch Set Point:	0.285	Yaw Set Point:	-0.661	X_WP:	0.000	Y_WP:	0.000	Y_WP:	0.500	X:	-0.235	Y:	-0.240	Z:	0.047	yaw:	37.874	yaw rate:	6.262	Roll:	-9.932	Pitch:	-1.010	Yaw:	55.213	Thrust:	38.724
Time:	2.363	Roll Set Point:	0.568	Pitch Set Point:	0.285	Yaw Set Point:	-0.661	X_WP:	0.000	Y_WP:	0.000	Y_WP:	0.500	X:	-0.235	Y:	-0.240	Z:	0.047	yaw:	37.874	yaw rate:	6.262	Roll:	-9.881	Pitch:	-1.334	Yaw:	54.445	Thrust:	39.379
Time:	2.379	Roll Set Point:	0.568	Pitch Set Point:	0.286	Yaw Set Point:	-0.660	X_WP:	0.000	Y_WP:	0.000	Y_WP:	0.500	X:	-0.235	Y:	-0.240	Z:	0.047	yaw:	37.793	yaw rate:	-8.127	Roll:	-9.804	Pitch:	-1.920	Yaw:	52.970	Thrust:	40.093
Time:	2.395	Roll Set Point:	0.568	Pitch Set Point:	0.285	Yaw Set Point:	-0.661	X_WP:	0.000	Y_WP:	0.000	Y_WP:	0.500	X:	-0.235	Y:	-0.240	Z:	0.047	yaw:	37.896	yaw rate:	6.856	Roll:	-10.000	Pitch:	-0.665	Yaw:	56.203	Thrust:	41.174
Time:	2.410	Roll Set Point:	0.568	Pitch Set Point:	0.285	Yaw Set Point:	-0.662	X_WP:	0.000	Y_WP:	0.000	Y_WP:	0.500	X:	-0.235	Y:	-0.240	Z:	0.047	yaw:	37.906	yaw rate:	1.006	Roll:	-9.964	Pitch:	-1.246	Yaw:	54.658	Thrust:	41.917
Time:	2.426	Roll Set Point:	0.568	Pitch Set Point:	0.285	Yaw Set Point:	-0.661	X_WP:	0.000	Y_WP:	0.000	Y_WP:	0.500	X:	-0.235	Y:	-0.240	Z:	0.047	yaw:	37.845	yaw rate:	-6.116	Roll:	-9.844	Pitch:	-1.746	Yaw:	53.379	Thrust:	42.701
Time:	2.442	Roll Set Point:	0.568	Pitch Set Point:	0.285	Yaw Set Point:	-0.660	X_WP:	0.000	Y_WP:	0.000	Y_WP:	0.500	X:	-0.235	Y:	-0.240	Z:	0.047	yaw:	37.839	yaw rate:	-0.547	Roll:	-9.925	Pitch:	-1.423	Yaw:	54.305	Thrust:	43.613
Time:	2.457	Roll Set Point:	0.568	Pitch Set Point:	0.286	Yaw Set Point:	-0.660	X_WP:	0.000	Y_WP:	0.000	Y_WP:	0.500	X:	-0.235	Y:	-0.240	Z:	0.047	yaw:	37.787	yaw rate:	-5.213	Roll:	-9.931	Pitch:	-1.695	Yaw:	53.449	Thrust:	44.496
Time:	2.473	Roll Set Point:	0.568	Pitch Set Point:	0.286	Yaw Set Point:	-0.660	X_WP:	0.000	Y_WP:	0.000	Y_WP:	0.500	X:	-0.235	Y:	-0.240	Z:	0.047	yaw:	37.787	yaw rate:	-5.213	Roll:	-9.971	Pitch:	-1.363	Yaw:	54.329	Thrust:	45.400
Time:	2.504	Roll Set Point:	0.568	Pitch Set Point:	0.286	Yaw Set Point:	-0.659	X_WP:	0.000	Y_WP:	0.000	Y_WP:	0.500	X:	-0.235	Y:	-0.240	Z:	0.047	yaw:	37.756	yaw rate:	-16.378	Roll:	-10.292	Pitch:	-1.527	Yaw:	55.581	Thrust:	67.275
Time:	2.520	Roll Set Point:	0.568	Pitch Set Point:	0.285	Yaw Set Point:	-0.661	X_WP:	0.000	Y_WP:	0.000	Y_WP:	0.500	X:	-0.235	Y:	-0.240	Z:	0.047	yaw:	37.847	yaw rate:	9.094	Roll:	-10.046	Pitch:	-0.778	Yaw:	55.931	Thrust:	47.136
Time:	2.535	Roll Set Point:	0.568	Pitch Set Point:	0.285	Yaw Set Point:	-0.661	X_WP:	0.000	Y_WP:	0.000	Y_WP:	0.500	X:	-0.235	Y:	-0.240	Z:	0.047	yaw:	37.847	yaw rate:	9.094	Roll:	-10.009	Pitch:	-1.359	Yaw:	54.404	Thrust:	47.828
Time:	2.551	Roll Set Point:	0.568	Pitch Set Point:	0.285	Yaw Set Point:	-0.660	X_WP:	0.000	Y_WP:	0.000	Y_WP:	0.500	X:	-0.235	Y:	-0.240	Z:	0.047	yaw:	37.835	yaw rate:	-1.207	Roll:	-10.029	Pitch:	-1.415	Yaw:	54.188	Thrust:	48.865
Time:	2.567	Roll Set Point:	0.568	Pitch Set Point:	0.285	Yaw Set Point:	-0.661	X_WP:	0.000	Y_WP:	0.000	Y_WP:	0.500	X:	-0.235	Y:	-0.240	Z:	0.047	yaw:	37.873	yaw rate:	6.811	Roll:	-10.074	Pitch:	-1.052	Yaw:	55.078	Thrust:	49.644
Time:	2.582	Roll Set Point:	0.568	Pitch Set Point:	0.285	Yaw Set Point:	-0.661	X_WP:	0.000	Y_WP:	0.000	Y_WP:	0.500	X:	-0.235	Y:	-0.240	Z:	0.047	yaw:	37.868	yaw rate:	-0.534	Roll:	-10.050	Pitch:	-1.423	Yaw:	54.347	Thrust:	50.259
Time:	2.598	Roll Set Point:	0.568	Pitch Set Point:	0.285	Yaw Set Point:	-0.661	X_WP:	0.000	Y_WP:	0.000	Y_WP:	0.500	X:	-0.235	Y:	-0.240	Z:	0.047	yaw:	37.848	yaw rate:	-1.982	Roll:	-10.063	Pitch:	-1.518	Yaw:	54.076	Thrust:	51.316
Time:	2.613	Roll Set Point:	0.568	Pitch Set Point:	0.285	Yaw Set Point:	-0.661	X_WP:	0.000	Y_WP:	0.000	Y_WP:	0.500	X:	-0.235	Y:	-0.240	Z:	0.047	yaw:	37.848	yaw rate:	-1.982	Roll:	-10.076	Pitch:	-1.367	Yaw:	54.408	Thrust:	52.124
Time:	2.629	Roll Set Point:	0.568	Pitch Set Point:	0.285	Yaw Set Point:	-0.661	X_WP:	0.000	Y_WP:	0.000	Y_WP:	0.500	X:	-0.235	Y:	-0.240	Z:	0.047	yaw:	37.853	yaw rate:	-0.489	Roll:	-10.088	Pitch:	-1.284	Yaw:	54.504	Thrust:	53.014
Time:	2.645	Roll Set Point:	0.568	Pitch Set Point:	0.285	Yaw Set Point:	-0.660	X_WP:	0.000	Y_WP:	0.000	Y_WP:	0.500	X:	-0.235	Y:	-0.240	Z:	0.047	yaw:	37.824	yaw rate:	-2.930	Roll:	-10.065	Pitch:	-1.621	Yaw:	53.884	Thrust:	53.611
Time:	2.660	Roll Set Point:	0.568	Pitch Set Point:	0.285	Yaw Set Point:	-0.660	X_WP:	0.000	Y_WP:	0.000	Y_WP:	0.500	X:	-0.235	Y:	-0.240	Z:	0.047	yaw:	37.824	yaw rate:	-2.930	Roll:	-10.114	Pitch:	-1.376	Yaw:	54.375	Thrust:	54.671
Time:	2.676	Roll Set Point:	0.568	Pitch Set Point:	0.285	Yaw Set Point:	-0.660	X_WP:	0.000	Y_WP:	0.000	Y_WP:	0.500	X:	-0.235	Y:	-0.240	Z:	0.047	yaw:	37.822	yaw rate:	-4.246	Roll:	-10.122	Pitch:	-1.376	Yaw:	54.346	Thrust:	55.582
Time:	2.692	Roll Set Point:	0.568	Pitch Set Point:	0.285	Yaw Set Point:	-0.660	X_WP:	0.000	Y_WP:	0.000	Y_WP:	0.500	X:	-0.235	Y:	-0.240	Z:	0.047	yaw:	37.804	yaw rate:	-1.875	Roll:	-10.083	Pitch:	-1.453	Yaw:	54.032	Thrust:	56.599
Time:	2.707	Roll Set Point:	0.568	Pitch Set Point:	0.285	Yaw Set Point:	-0.660	X_WP:	0.000	Y_WP:	0.000	Y_WP:	0.500	X:	-0.235	Y:	-0.240	Z:	0.047	yaw:	37.804	yaw rate:	-1.875	Roll:	-10.151	Pitch:	-1.384	Yaw:	54.346	Thrust:	57.228
Time:	2.723	Roll Set Point:	0.568	Pitch Set Point:	0.285	Yaw Set Point:	-0.661	X_WP:	0.000	Y_WP:	0.000	Y_WP:	0.500	X:	-0.235	Y:	-0.240	Z:	0.047	yaw:	37.851	yaw rate:	-4.766	Roll:	-10.261	Pitch:	-1.163	Yaw:	55.203	Thrust:	57.726
Time:	2.738	Roll Set Point:	0.569	Pitch Set Point:	0.285	Yaw Set Point:	-0.662	X_WP:	0.000	Y_WP:	0.000	Y_WP:	0.500	X:	-0.235	Y:	-0.240	Z:	0.047	yaw:	37.905	yaw rate:	5.417	Roll:	-10.358	Pitch:	-1.144	Yaw:	55.395	Thrust:	58.525
Time:	2.754	Roll Set Point:	0.569	Pitch Set Point:	0.285	Yaw Set Point:	-0.662	X_WP:	0.000	Y_WP:	0.000	Y_WP:	0.500	X:	-0.235	Y:	-0.240	Z:	0.047	yaw:	37.920	yaw rate:	1.486	Roll:	-10.195	Pitch:	-1.299	Yaw:	54.758	Thrust:	59.679
Time:	2.770	Roll Set Point:	0.569	Pitch Set Point:	0.285	Yaw Set Point:	-0.661	X_WP:	0.000	Y_WP:	0.000	Y_WP:	0.500	X:	-0.235	Y:	-0.240	Z:	0.047	yaw:	37.865	yaw rate:	-5.448	Roll:	-10.193	Pitch:	-1.709	Yaw:	53.520	Thrust:	60.529
Time:	2.785	Roll Set Point:	0.569	Pitch Set Point:	0.285	Yaw Set Point:	-0.661	X_WP:	0.000	Y_WP:	0.000	Y_WP:	0.500	X:	-0.235	Y:	-0.240	Z:	0.047	yaw:	37.865	yaw rate:	-5.448	Roll:	-10.223	Pitch:	-1.387	Yaw:	54.432	Thrust:	61.454
Time:	2.801	Roll Set Point:	0.568	Pitch Set Point:	0.285	Yaw Set Point:	-0.661	X_WP:	0.000	Y_WP:	0.000	Y_WP:	0.500	X:	-0.235	Y:	-0.240	Z:	0.047	yaw:	37.874	yaw rate:	0.904	Roll:	-10.111	Pitch:	-1.218	Yaw:	54.597	Thrust:	63.037
Time:	2.817	Roll Set Point:	0.568	Pitch Set Point:	0.285	Yaw Set Point:	-0.660	X_WP:	0.000	Y_WP:	0.000	Y_WP:	0.500	X:	-0.235	Y:	-0.240	Z:	0.047	yaw:	37.800	yaw rate:	-7.396	Roll:	-10.131	Pitch:	-1.775	Yaw:	53.103	Thrust:	63.297
Time:	2.832	Roll Set Point:	0.568	Pitch Set Point:	0.285	Yaw Set Point:	-0.660	X_WP:	0.000	Y_WP:	0.000	Y_WP:	0.500	X:	-0.235	Y:	-0.240	Z:	0.047	yaw:	37.800	yaw rate:	-7.396	Roll:	-10.243	Pitch:	-1.398	Yaw:	54.342	Thrust:	64.028
Time:	2.848	Roll Set Point:	0.568	Pitch Set Point:	0.286	Yaw Set Point:	-0.659	X_WP:	0.000	Y_WP:	0.000	Y_WP:	0.500	X:	-0.235	Y:	-0.240	Z:	0.047	yaw:	37.750	yaw rate:	-8.080	Roll:	-10.149	Pitch:	-1.782	Yaw:	53.443	Thrust:	65.073
Time:	2.864	Roll Set Point:	0.568	Pitch Set Point:	0.285	Yaw Set Point:	-0.661	X_WP:	0.000	Y_WP:	0.000	Y_WP:	0.500	X:	-0.235	Y:	-0.240	Z:	0.047	yaw:	37.844	yaw rate:	9.423	Roll:	-10.414	Pitch:	-0.828	Yaw:	55.982	Thrust:	65.615
Time:	2.879	Roll Set Point:	0.568	Pitch Set Point:	0.285	Yaw Set Point:	-0.661	X_WP:	0.000	Y_WP:	0.000	Y_WP:	0.500	X:	-0.235	Y:	-0.240	Z:	0.047	yaw:	37.844	yaw rate:	9.423	Roll:	-10.243	Pitch:	-1.398	Yaw:	54.397	Thrust:	66.400
Time:	2.895	Roll Set Point:	0.568	Pitch Set Point:	0.285	Yaw Set Point:	-0.660	X_WP:	0.000	Y_WP:	0.000	Y_WP:	0.500	X:	-0.235	Y:	-0.240	Z:	0.047	yaw:	37.837	yaw rate:	-9.582	Roll:	-10.245	Pitch:	-1.401	Yaw:	54.260	Thrust:	67.252
Time:	2.910	Roll Set Point:	0.568	Pitch Set Point:	0.285	Yaw Set Point:	-0.660	X_WP:	0.000	Y_WP:	0.000	Y_WP:	0.500	X:	-0.235	Y:	-0.240	Z:	0.047	yaw:	37.802	yaw rate:	-3.439	Roll:	-10.178	Pitch:	-1.604	Yaw:	53.768	Thrust:	68.403
Time:	2.926	Roll Set Point:	0.568	Pitch Set Point:	0.285	Yaw Set Point:	-0.660	X_WP:	0.000	Y_WP:	0.000	Y_WP:	0.500	X:	-0.235	Y:	-0.240	Z:	0.047	yaw:	37.802	yaw rate:	-3.439	Roll:	-10.243	Pitch:	-1.409	Yaw:	54.345	Thrust:	69.123
Time:	2.942	Roll Set Point:	0.568	Pitch Set Point:	0.285	Yaw Set Point:	-0.661	X_WP:	0.000	Y_WP:	0.000	Y_WP:	0.500	X:	-0.235	Y:	-0.240	Z:	0.047	yaw:	37.844	yaw rate:	-8.086	Roll:	-10.285	Pitch:	-1.200	Yaw:	55.109	Thrust:	70.064
Time:	2.957	Roll Set Point:	0.568	Pitch Set Point:	0.285	Yaw Set Point:	-0.661	X_WP:	0.000	Y_WP:	0.000	Y_WP:	0.500	X:	-0.235	Y:	-0.240	Z:	0.047	yaw:	37.889	yaw rate:	4.488	Roll:	-10.281	Pitch:	-1.066	Yaw:	55.218	Thrust:	70.714
Time:	2.973	Roll Set Point:	0.568	Pitch Set Point:	0.285	Yaw Set Point:	-0.661	X_WP:	0.000	Y_WP:	0.000	Y_WP:	0.500	X:	-0.235	Y:	-0.240	Z:	0.047	yaw:	37.889	yaw rate:	4.488	Roll:	-10.245	Pitch:	-1.400	Yaw:	54.466	Thrust:	71.668
Time:	2.988	Roll Set Point:	0.568	Pitch Set Point:	0.285	Yaw Set Point:	-0.660	X_WP:	0.000	Y_WP:	0.000	Y_WP:	0.500	X:	-0.235	Y:	-0.240	Z:	0.047	yaw:	37.837	yaw rate:	-3.174	Roll:	-10.243	Pitch:	-1.777	Yaw:	53.516	Thrust:	72.692
Time:	3.004	Roll Set Point:	0.568	Pitch Set Point:	0.285	Yaw Set Point:	-0.660	X_WP:	0.000	Y_WP:	0.000	Y_WP:	0.500	X:	-0.235	Y:	-0.240	Z:	0.047	yaw:	37.804	yaw rate:	-3.258	Roll:	-10.193	Pitch:	-1.618	Yaw:	53.797	Thrust:	73.202
Time:	3.020	Roll Set Point:	0.568	Pitch Set Point:	0.285	Yaw Set Point:	-0.661	X_WP:	0.000	Y_WP:	0.000	Y_WP:	0.500	X:	-0.235	Y:	-0.240	Z:	0.047	yaw:	37.849	yaw rate:	4.456	Roll:	-10.292	Pitch:	-1.103	Yaw:	55.156	Thrust:	74.222
Time:	3.035	Roll Set Point:	0.568	Pitch Set Point:	0.285	Yaw Set Point:	-0.660	X_WP:	0.000	Y_WP:	0.000	Y_WP:	0.500	X:	-0.235	Y:	-0.240	Z:	0.047	yaw:	37.829	yaw rate:	-1.929	Roll:	-10.213	Pitch:	-1.528	Yaw:	54.059	Thrust:	75.152
Time:	3.051	Roll Set Point:	0.569	Pitch Set Point:	0.285	Yaw Set Point:	-0.661	X_WP:	0.000	Y_WP:	0.000	Y_WP:	0.500	X:	-0.235	Y:	-0.240	Z:	0.047	yaw:	37.884	yaw rate:	5.422	Roll:	-10.435	Pitch:	-1.268	Yaw:	55.368	Thrust:	75.307
Time:	3.067	Roll Set Point:	0.569	Pitch Set Point:	0.285	Yaw Set Point:	-0.661	X_WP:	0.000	Y_WP:	0.000	Y_WP:	0.500	X:	-0.235	Y:	-0.240	Z:	0.047	yaw:	37.884	yaw rate:	5.422	Roll:	-10.248	Pitch:	-1.416	Yaw:	54.455	Thrust:	76.653
Time:	3.082	Roll Set Point:	0.568	Pitch Set Point:	0.285	Yaw Set Point:	-0.660	X_WP:	0.000	Y_WP:	0.000	Y_WP:	0.500	X:	-0.235	Y:	-0.240	Z:	0.047	yaw:	37.826	yaw rate:	-1.188	Roll:	-10.053	Pitch:	-1.593	Yaw:	53.411	Thrust:	78.276
Time:	3.098	Roll Set Point:	0.568	Pitch Set Point:	0.285	Yaw Set Point:	-0.661	X_WP:	0.000	Y_WP:	0.000	Y_WP:	0.500	X:	-0.235	Y:	-0.240	Z:	0.047	yaw:	37.844	yaw rate:	1.808	Roll:	-10.222	Pitch:	-1.356	Yaw:	54.706	Thrust:	78.349
Time:	3.113	Roll Set Point:	0.568	Pitch Set Point:	0.285	Yaw Set Point:	-0.661	X_WP:	0.000	Y_WP:	0.000	Y_WP:	0.500	X:	-0.235	Y:	-0.240	Z:	0.047	yaw:	37.868	yaw rate:	2.444	Roll:	-10.318	Pitch:	-1.219	Yaw:	54.846	Thrust:	79.480
Time:	3.129	Roll Set Point:	0.568	Pitch Set Point:	0.286	Yaw Set Point:	-0.660	X_WP:	0.000	Y_WP:	0.000	Y_WP:	0.500	X:	-0.235	Y:	-0.240	Z:	0.047	yaw:	37.793	yaw rate:	-7.524	Roll:	-10.128	Pitch:	-1.940	Yaw:	53.071	Thrust:	80.147
Time:	3.145	Roll Set Point:	0.568	Pitch Set Point:	0.286	Yaw Set Point:	-0.660	X_WP:	0.000	Y_WP:	0.000	Y_WP:	0.500	X:	-0.235	Y:	-0.240	Z:	0.047	yaw:	37.793	yaw rate:	-7.524	Roll:	-10.242	Pitch:	-1.436	Yaw:	54.332	Thrust:	81.022
Time:	3.160	Roll Set Point:	0.568	Pitch Set Point:	0.285	Yaw Set Point:	-0.662	X_WP:	0.000	Y_WP:	0.000	Y_WP:	0.500	X:	-0.235	Y:	-0.240	Z:	0.047	yaw:	37.920	yaw rate:	12.712	Roll:	-10.414	Pitch:	-0.561	Yaw:	56.638	Thrust:	81.977
Time:	3.176	Roll Set Point:	0.568	Pitch Set Point:	0.285	Yaw Set Point:	-0.660	X_WP:	0.000	Y_WP:	0.000	Y_WP:	0.500	X:	-0.235	Y:	-0.240	Z:	0.047	yaw:	37.803	yaw rate:	-11.737	Roll:	-10.091	Pitch:	-2.200	Yaw:	52.379	Thrust:	82.752
Time:	3.192	Roll Set Point:	0.568	Pitch Set Point:	0.285	Yaw Set Point:	-0.661	X_WP:	0.000	Y_WP:	0.000	Y_WP:	0.500	X:	-0.235	Y:	-0.240	Z:	0.047	yaw:	37.864	yaw rate:	1.450	Roll:	-10.361	Pitch:	-1.041	Yaw:	55.460	Thrust:	83.547
Time:	3.207	Roll Set Point:	0.568	Pitch Set Point:	0.285	Yaw Set Point:	-0.661	X_WP:	0.000	Y_WP:	0.000	Y_WP:	0.500	X:	-0.235	Y:	-0.240	Z:	0.047	yaw:	37.864	yaw rate:	1.450	Roll:	-10.246	Pitch:	-1.430	Yaw:	54.431	Thrust:	84.431
Time:	3.223	Roll Set Point:	0.568	Pitch Set Point:	0.285	Yaw Set Point:	-0.661	X_WP:	0.000	Y_WP:	0.000	Y_WP:	0.500	X:	-0.235	Y:	-0.240	Z:	0.047	yaw:	37.858	yaw rate:	1.957	Roll:	-10.208	Pitch:	-1.479	Yaw:	54.328	Thrust:	85.412
Time:	3.239	Roll Set Point:	0.568	Pitch Set Point:	0.285	Yaw Set Point:	-0.661	X_WP:	0.000	Y_WP:	0.000	Y_WP:	0.500	X:	-0.235	Y:	-0.240	Z:	0.047	yaw:	37.848	yaw rate:	-1.018	Roll:	-10.249	Pitch:	-1.492	Yaw:	54.238	Thrust:	86.218
Time:	3.254	Roll Set Point:	0.568	Pitch Set Point:	0.285	Yaw Set Point:	-0.661	X_WP:	0.000	Y_WP:	0.000	Y_WP:	0.500	X:	-0.235	Y:	-0.240	Z:	0.047	yaw:	37.848	yaw rate:	-1.018	Roll:	-10.242	Pitch:	-1.438	Yaw:	54.399	Thrust:	86.617
Time:	3.270	Roll Set Point:	0.568	Pitch Set Point:	0.285	Yaw Set Point:	-0.660	X_WP:	0.000	Y_WP:	0.000	Y_WP:	0.500	X:	-0.235	Y:	-0.240	Z:	0.047	yaw:	37.825	yaw rate:	5.249	Roll:	-10.201	Pitch:	-1.585	Yaw:	53.987	Thrust:	87.824
Time:	3.285	Roll Set Point:	0.568	Pitch Set Point:	0.285	Yaw Set Point:	-0.660	X_WP:	0.000	Y_WP:	0.000	Y_WP:	0.500	X:	-0.235	Y:	-0.240	Z:	0.047	yaw:	37.807	yaw rate:	-1.733	Roll:	-10.227	Pitch:	-1.602	Yaw:	54.060	Thrust:	88.342
Time:	3.301	Roll Set Point:	0.568	Pitch Set Point:	0.285	Yaw Set Point:	-0.660	X_WP:	0.000	Y_WP:	0.000	Y_WP:	0.500	X:	-0.235	Y:	-0.240	Z:	0.047	yaw:	37.799	yaw rate:	-0.783	Roll:	-10.210	Pitch:	-1.453	Yaw:	54.209	Thrust:	89.729
Time:	3.317	Roll Set Point:	0.568	Pitch Set Point:	0.285	Yaw Set Point:	-0.660	X_WP:	0.000	Y_WP:	0.000	Y_WP:	0.500	X:	-0.235	Y:	-0.240	Z:	0.047	yaw:	37.799	yaw rate:	-0.783	Roll:	-10.244	Pitch:	-1.453	Yaw:	54.344	Thrust:	90.491
Time:	3.332	Roll Set Point:	0.569	Pitch Set Point:	0.285	Yaw Set Point:	-0.662	X_WP:	0.000	Y_WP:	0.000	Y_WP:	0.500	X:	-0.235	Y:	-0.240	Z:	0.047	yaw:	37.935	yaw rate:	13.525	Roll:	-10.529	Pitch:	-0.803	Yaw:	56.797	Thrust:	90.572
Time:	3.348	Roll Set Point:	0.568	Pitch Set Point:	0.285	Yaw Set Point:	-0.660	X_WP:	0.000	Y_WP:	0.000	Y_WP:	0.500	X:	-0.235	Y:	-0.240	Z:	0.047	yaw:	37.807	yaw rate:	-12.764	Roll:	-9.988	Pitch:	-2.102	Yaw:	52.213	Thrust:	92.616
Time:	3.364	Roll Set Point:	0.568	Pitch Set Point:	0.285	Yaw Set Point:	-0.661	X_WP:	0.000	Y_WP:	0.000	Y_WP:	0.500	X:	-0.235	Y:	-0.240	Z:	0.047	yaw:	37.851	yaw rate:	1.860	Roll:	-10.326	Pitch:	-1.141	Yaw:	55.151	Thrust:	92.989
Time:	3.379	Roll Set Point:	0.568	Pitch Set Point:	0.285	Yaw Set Point:	-0.661	X_WP:	0.000	Y_WP:	0.000	Y_WP:	0.500	X:	-0.235	Y:	-0.240	Z:	0.047	yaw:	37.851	yaw rate:	1.860	Roll:	-10.244	Pitch:	-1.452	Yaw:	54.410	Thrust:	93.635
Time:	3.395	Roll Set Point:	0.568	Pitch Set Point:	0.285	Yaw Set Point:	-0.661	X_WP:	0.000	Y_WP:	0.000	Y_WP:	0.500	X:	-0.235	Y:	-0.240	Z:	0.047	yaw:	37.854	yaw rate:	0.334	Roll:	-10.217	Pitch:	-1.430	Yaw:	54.476	Thrust:	94.942
Time:	3.410	Roll Set Point:	0.568	Pitch Set Point:	0.285	Yaw Set Point:	-0.660	X_WP:	0.000	Y_WP:	0.000	Y_WP:	0.500	X:	-0.235	Y:	-0.240	Z:	0.047	yaw:	37.824	yaw rate:	0.768	Roll:	-10.204	Pitch:	-1.631	Yaw:	53.863	Thrust:	95.350
Time:	3.426	Roll Set Point:	0.568	Pitch Set Point:	0.285	Yaw Set Point:	-0.660	X_WP:	0.000	Y_WP:	0.000	Y_WP:	0.500	X:	-0.235	Y:	-0.240	Z:	0.047	yaw:	37.842	yaw rate:	1.788	Roll:	-10.313	Pitch:	-1.412	Yaw:	54.702	Thrust:	96.123
Time:	3.442	Roll Set Point:	0.568	Pitch Set Point:	0.285	Yaw Set Point:	-0.660	X_WP:	0.000	Y_WP:	0.000	Y_WP:	0.500	X:	-0.235	Y:	-0.240	Z:	0.047	yaw:	37.842	yaw rate:	1.788	Roll:	-10.244	Pitch:	-1.462	Yaw:	54.396	Thrust:	96.999
Time:	3.457	Roll Set Point:	0.568	Pitch Set Point:	0.285	Yaw Set Point:	-0.660	X_WP:	0.000	Y_WP:	0.000	Y_WP:	0.500	X:	-0.235	Y:	-0.240	Z:	0.047	yaw:	37.830	yaw rate:	-7.261	Roll:	-10.246	Pitch:	-1.564	Yaw:	54.189	Thrust:	98.191
Time:	3.473	Roll Set Point:	0.568	Pitch Set Point:	0.285	Yaw Set Point:	-0.660	X_WP:	0.000	Y_WP:	0.000	Y_WP:	0.500	X:	-0.235	Y:	-0.240	Z:	0.047	yaw:	37.836	yaw rate:	0.633	Roll:	-10.185	Pitch:	-1.329	Yaw:	54.497	Thrust:	99.074
Time:	3.488	Roll Set Point:	0.569	Pitch Set Point:	0.285	Yaw Set Point:	-0.662	X_WP:	0.000	Y_WP:	0.000	Y_WP:	0.500	X:	-0.235	Y:	-0.240	Z:	0.047	yaw:	37.905	yaw rate:	6.847	Roll:	-10.441	Pitch:	-1.191	Yaw:	55.616	Thrust:	94.685
Time:	3.504	Roll Set Point:	0.568	Pitch Set Point:	0.285	Yaw Set Point:	-0.661	X_WP:	0.000	Y_WP:	0.000	Y_WP:	0.500	X:	-0.235	Y:	-0.240	Z:	0.047	yaw:	37.859	yaw rate:	-4.627	Roll:	-10.129	Pitch:	-1.592	Yaw:	53.820	Thrust:	100.000
Time:	3.520	Roll Set Point:	0.568	Pitch Set Point:	0.285	Yaw Set Point:	-0.661	X_WP:	0.000	Y_WP:	0.000	Y_WP:	0.500	X:	-0.235	Y:	-0.240	Z:	0.047	yaw:	37.859	yaw rate:	-4.627	Roll:	-10.245	Pitch:	-1.467	Yaw:	54.423	Thrust:	100.000
Time:	3.536	Roll Set Point:	0.568	Pitch Set Point:	0.286	Yaw Set Point:	-0.659	X_WP:	0.000	Y_WP:	0.000	Y_WP:	0.500	X:	-0.235	Y:	-0.240	Z:	0.047	yaw:	37.784	yaw rate:	-5.492	Roll:	-10.140	Pitch:	-2.011	Yaw:	53.069	Thrust:	100.000
Time:	3.551	Roll Set Point:	0.568	Pitch Set Point:	0.285	Yaw Set Point:	-0.660	X_WP:	0.000	Y_WP:	0.000	Y_WP:	0.500	X:	-0.235	Y:	-0.240	Z:	0.047	yaw:	37.815	yaw rate:	3.055	Roll:	-10.271	Pitch:	-1.227	Yaw:	54.874	Thrust:	100.000
Time:	3.567	Roll Set Point:	0.568	Pitch Set Point:	0.285	Yaw Set Point:	-0.660	X_WP:	0.000	Y_WP:	0.000	Y_WP:	0.500	X:	-0.235	Y:	-0.240	Z:	0.047	yaw:	37.835	yaw rate:	2.086	Roll:	-10.309	Pitch:	-1.363	Yaw:	54.740	Thrust:	100.000
Time:	3.583	Roll Set Point:	0.568	Pitch Set Point:	0.285	Yaw Set Point:	-0.660	X_WP:	0.000	Y_WP:	0.000	Y_WP:	0.500	X:	-0.235	Y:	-0.240	Z:	0.047	yaw:	37.835	yaw rate:	2.086	Roll:	-10.245	Pitch:	-1.478	Yaw:	54.391	Thrust:	100.000
Time:	3.598	Roll Set Point:	0.568	Pitch Set Point:	0.285	Yaw Set Point:	-0.660	X_WP:	0.000	Y_WP:	0.000	Y_WP:	0.500	X:	-0.235	Y:	-0.240	Z:	0.047	yaw:	37.821	yaw rate:	3.914	Roll:	-10.192	Pitch:	-1.572	Yaw:	54.132	Thrust:	100.000
Time:	3.614	Roll Set Point:	0.568	Pitch Set Point:	0.285	Yaw Set Point:	-0.660	X_WP:	0.000	Y_WP:	0.000	Y_WP:	0.500	X:	-0.235	Y:	-0.240	Z:	0.047	yaw:	37.821	yaw rate:	3.914	Roll:	-10.243	Pitch:	-1.484	Yaw:	54.371	Thrust:	100.000
Time:	3.629	Roll Set Point:	0.568	Pitch Set Point:	0.285	Yaw Set Point:	-0.661	X_WP:	0.000	Y_WP:	0.000	Y_WP:	0.500	X:	-0.235	Y:	-0.240	Z:	0.047	yaw:	37.864	yaw rate:	4.243	Roll:	-10.326	Pitch:	-1.152	Yaw:	55.140	Thrust:	100.000
Time:	3.645	Roll Set Point:	0.568	Pitch Set Point:	0.285	Yaw Set Point:	-0.661	X_WP:	0.000	Y_WP:	0.000	Y_WP:	0.500	X:	-0.235	Y:	-0.240	Z:	0.047	yaw:	37.876	yaw rate:	1.203	Roll:	-10.232	Pitch:	-1.459	Yaw:	54.648	Thrust:	100.000
Time:	3.661	Roll Set Point:	0.569	Pitch Set Point:	0.285	Yaw Set Point:	-0.661	X_WP:	0.000	Y_WP:	0.000	Y_WP:	0.500	X:	-0.235	Y:	-0.240	Z:	0.047	yaw:	37.895	yaw rate:	1.921	Roll:	-10.427	Pitch:	-1.548	Yaw:	54.795	Thrust:	100.000
Time:	3.676	Roll Set Point:	0.568	Pitch Set Point:	0.285	Yaw Set Point:	-0.661	X_WP:	0.000	Y_WP:	0.000	Y_WP:	0.500	X:	-0.235	Y:	-0.240	Z:	0.047	yaw:	37.847	yaw rate:	4.648	Roll:	-10.030	Pitch:	-1.600	Yaw:	53.601	Thrust:	100.000
Time:	3.692	Roll Set Point:	0.568	Pitch Set Point:	0.285	Yaw Set Point:	-0.661	X_WP:	0.000	Y_WP:	0.000	Y_WP:	0.500	X:	-0.235	Y:	-0.240	Z:	0.047	yaw:	37.851	yaw rate:	0.450	Roll:	-10.268	Pitch:	-1.498	Yaw:	54.488	Thrust:	100.000
Time:	3.708	Roll Set Point:	0.568	Pitch Set Point:	0.285	Yaw Set Point:	-0.661	X_WP:	0.000	Y_WP:	0.000	Y_WP:	0.500	X:	-0.235	Y:	-0.240	Z:	0.047	yaw:	37.851	yaw rate:	0.450	Roll:	-10.245	Pitch:	-1.490	Yaw:	54.413	Thrust:	100.000
Time:	3.723	Roll Set Point:	0.568	Pitch Set Point:	0.285	Yaw Set Point:	-0.660	X_WP:	0.000	Y_WP:	0.000	Y_WP:	0.500	X:	-0.235	Y:	-0.240	Z:	0.047	yaw:	37.831	yaw rate:	0.889	Roll:	-10.211	Pitch:	-1.600	Yaw:	54.050	Thrust:	100.000
Time:	3.739	Roll Set Point:	0.568	Pitch Set Point:	0.285	Yaw Set Point:	-0.660	X_WP:	0.000	Y_WP:	0.000	Y_WP:	0.500	X:	-0.235	Y:	-0.240	Z:	0.047	yaw:	37.795	yaw rate:	-3.653	Roll:	-10.212	Pitch:	-1.716	Yaw:	53.722	Thrust:	100.000
Time:	3.754	Roll Set Point:	0.568	Pitch Set Point:	0.285	Yaw Set Point:	-0.660	X_WP:	0.000	Y_WP:	0.000	Y_WP:	0.500	X:	-0.235	Y:	-0.240	Z:	0.047	yaw:	37.829	yaw rate:	3.481	Roll:	-10.280	Pitch:	-1.344	Yaw:	54.966	Thrust:	100.000
Time:	3.770	Roll Set Point:	0.568	Pitch Set Point:	0.285	Yaw Set Point:	-0.661	X_WP:	0.000	Y_WP:	0.000	Y_WP:	0.500	X:	-0.235	Y:	-0.240	Z:	0.047	yaw:	37.879	yaw rate:	4.980	Roll:	-10.330	Pitch:	-1.116	Yaw:	55.286	Thrust:	100.000
Time:	3.786	Roll Set Point:	0.568	Pitch Set Point:	0.285	Yaw Set Point:	-0.661	X_WP:	0.000	Y_WP:	0.000	Y_WP:	0.500	X:	-0.235	Y:	-0.240	Z:	0.047	yaw:	37.854	yaw rate:	-2.523	Roll:	-10.218	Pitch:	-1.675	Yaw:	53.994	Thrust:	100.000
Time:	3.801	Roll Set Point:	0.568	Pitch Set Point:	0.285	Yaw Set Point:	-0.660	X_WP:	0.000	Y_WP:	0.000	Y_WP:	0.500	X:	-0.235	Y:	-0.240	Z:	0.047	yaw:	37.829	yaw rate:	-2.547	Roll:	-10.172	Pitch:	-1.653	Yaw:	53.955	Thrust:	100.000
Time:	3.817	Roll Set Point:	0.568	Pitch Set Point:	0.285	Yaw Set Point:	-0.660	X_WP:	0.000	Y_WP:	0.000	Y_WP:	0.500	X:	-0.235	Y:	-0.240	Z:	0.047	yaw:	37.829	yaw rate:	-2.547	Roll:	-10.243	Pitch:	-1.506	Yaw:	54.381	Thrust:	100.000
Time:	3.833	Roll Set Point:	0.568	Pitch Set Point:	0.286	Yaw Set Point:	-0.660	X_WP:	0.000	Y_WP:	0.000	Y_WP:	0.500	X:	-0.235	Y:	-0.240	Z:	0.047	yaw:	37.799	yaw rate:	-2.991	Roll:	-10.242	Pitch:	-1.730	Yaw:	53.839	Thrust:	100.000
Time:	3.848	Roll Set Point:	0.569	Pitch Set Point:	0.285	Yaw Set Point:	-0.662	X_WP:	0.000	Y_WP:	0.000	Y_WP:	0.500	X:	-0.235	Y:	-0.240	Z:	0.047	yaw:	37.921	yaw rate:	12.195	Roll:	-10.515	Pitch:	-0.885	Yaw:	56.553	Thrust:	100.000
Time:	3.864	Roll Set Point:	0.568	Pitch Set Point:	0.285	Yaw Set Point:	-0.660	X_WP:	0.000	Y_WP:	0.000	Y_WP:	0.500	X:	-0.235	Y:	-0.240	Z:	0.047	yaw:	37.826	yaw rate:	-4.890	Roll:	-9.992	Pitch:	-1.949	Yaw:	52.790	Thrust:	100.000
Time:	3.879	Roll Set Point:	0.568	Pitch Set Point:	0.285	Yaw Set Point:	-0.660	X_WP:	0.000	Y_WP:	0.000	Y_WP:	0.500	X:	-0.235	Y:	-0.240	Z:	0.047	yaw:	37.826	yaw rate:	-4.890	Roll:	-10.244	Pitch:	-1.514	Yaw:	54.377	Thrust:	100.000
Time:	3.895	Roll Set Point:	0.568	Pitch Set Point:	0.285	Yaw Set Point:	-0.660	X_WP:	0.000	Y_WP:	0.000	Y_WP:	0.500	X:	-0.235	Y:	-0.240	Z:	0.047	yaw:	37.819	yaw rate:	-1.701	Roll:	-10.225	Pitch:	-1.541	Yaw:	54.252	Thrust:	100.000
Time:	3.911	Roll Set Point:	0.568	Pitch Set Point:	0.285	Yaw Set Point:	-0.661	X_WP:	0.000	Y_WP:	0.000	Y_WP:	0.500	X:	-0.235	Y:	-0.240	Z:	0.047	yaw:	37.891	yaw rate:	7.218	Roll:	-10.362	Pitch:	-1.039	Yaw:	55.678	Thrust:	100.000
Time:	3.926	Roll Set Point:	0.568	Pitch Set Point:	0.285	Yaw Set Point:	-0.661	X_WP:	0.000	Y_WP:	0.000	Y_WP:	0.500	X:	-0.235	Y:	-0.240	Z:	0.047	yaw:	37.897	yaw rate:	0.605	Roll:	-10.226	Pitch:	-1.444	Yaw:	54.578	Thrust:	100.000
Time:	3.942	Roll Set Point:	0.569	Pitch Set Point:	0.285	Yaw Set Point:	-0.661	X_WP:	0.000	Y_WP:	0.000	Y_WP:	0.500	X:	-0.235	Y:	-0.240	Z:	0.047	yaw:	37.890	yaw rate:	-0.758	Roll:	-10.404	Pitch:	-1.758	Yaw:	54.339	Thrust:	100.000
Time:	3.958	Roll Set Point:	0.569	Pitch Set Point:	0.285	Yaw Set Point:	-0.661	X_WP:	0.000	Y_WP:	0.000	Y_WP:	0.500	X:	-0.235	Y:	-0.240	Z:	0.047	yaw:	37.899	yaw rate:	0.957	Roll:	-10.248	Pitch:	-1.458	Yaw:	54.645	Thrust:	100.000
Time:	3.973	Roll Set Point:	0.568	Pitch Set Point:	0.285	Yaw Set Point:	-0.660	X_WP:	0.000	Y_WP:	0.000	Y_WP:	0.500	X:	-0.235	Y:	-0.240	Z:	0.047	yaw:	37.810	yaw rate:	-8.915	Roll:	-10.007	Pitch:	-1.970	Yaw:	52.851	Thrust:	100.000
Time:	3.989	Roll Set Point:	0.568	Pitch Set Point:	0.285	Yaw Set Point:	-0.661	X_WP:	0.000	Y_WP:	0.000	Y_WP:	0.500	X:	-0.235	Y:	-0.240	Z:	0.047	yaw:	37.872	yaw rate:	6.200	Roll:	-10.294	Pitch:	-1.048	Yaw:	55.480	Thrust:	100.000
Time:	4.005	Roll Set Point:	0.568	Pitch Set Point:	0.285	Yaw Set Point:	-0.661	X_WP:	0.000	Y_WP:	0.000	Y_WP:	0.500	X:	-0.235	Y:	-0.240	Z:	0.047	yaw:	37.851	yaw rate:	-2.053	Roll:	-10.268	Pitch:	-1.683	Yaw:	54.069	Thrust:	100.000
Time:	4.020	Roll Set Point:	0.568	Pitch Set Point:	0.285	Yaw Set Point:	-0.661	X_WP:	0.000	Y_WP:	0.000	Y_WP:	0.500	X:	-0.235	Y:	-0.240	Z:	0.047	yaw:	37.851	yaw rate:	-2.053	Roll:	-10.246	Pitch:	-1.525	Yaw:	54.413	Thrust:	100.000
Time:	4.036	Roll Set Point:	0.568	Pitch Set Point:	0.285	Yaw Set Point:	-0.660	X_WP:	0.000	Y_WP:	0.000	Y_WP:	0.500	X:	-0.235	Y:	-0.240	Z:	0.047	yaw:	37.837	yaw rate:	-5.279	Roll:	-10.206	Pitch:	-1.669	Yaw:	54.159	Thrust:	100.000
Time:	4.051	Roll Set Point:	0.568	Pitch Set Point:	0.285	Yaw Set Point:	-0.661	X_WP:	0.000	Y_WP:	0.000	Y_WP:	0.500	X:	-0.235	Y:	-0.240	Z:	0.047	yaw:	37.857	yaw rate:	2.019	Roll:	-10.250	Pitch:	-1.357	Yaw:	54.760	Thrust:	100.000
Time:	4.067	Roll Set Point:	0.568	Pitch Set Point:	0.285	Yaw Set Point:	-0.661	X_WP:	0.000	Y_WP:	0.000	Y_WP:	0.500	X:	-0.235	Y:	-0.240	Z:	0.047	yaw:	37.857	yaw rate:	2.019	Roll:	-10.243	Pitch:	-1.529	Yaw:	54.419	Thrust:	100.000
Time:	4.083	Roll Set Point:	0.568	Pitch Set Point:	0.285	Yaw Set Point:	-0.661	X_WP:	0.000	Y_WP:	0.000	Y_WP:	0.500	X:	-0.235	Y:	-0.240	Z:	0.047	yaw:	37.898	yaw rate:	4.092	Roll:	-10.305	Pitch:	-1.259	Yaw:	55.164	Thrust:	100.000
Time:	4.098	Roll Set Point:	0.568	Pitch Set Point:	0.285	Yaw Set Point:	-0.660	X_WP:	0.000	Y_WP:	0.000	Y_WP:	0.500	X:	-0.235	Y:	-0.240	Z:	0.047	yaw:	37.806	yaw rate:	-2.277	Roll:	-10.138	Pitch:	-2.117	Yaw:	52.806	Thrust:	100.000
Time:	4.114	Roll Set Point:	0.568	Pitch Set Point:	0.285	Yaw Set Point:	-0.660	X_WP:	0.000	Y_WP:	0.000	Y_WP:	0.500	X:	-0.235	Y:	-0.240	Z:	0.047	yaw:	37.810	yaw rate:	0.380	Roll:	-10.264	Pitch:	-1.567	Yaw:	54.416	Thrust:	100.000
Time:	4.130	Roll Set Point:	0.568	Pitch Set Point:	0.285	Yaw Set Point:	-0.661	X_WP:	0.000	Y_WP:	0.000	Y_WP:	0.500	X:	-0.235	Y:	-0.240	Z:	0.047	yaw:	37.886	yaw rate:	7.680	Roll:	-10.309	Pitch:	-1.004	Yaw:	55.749	Thrust:	100.000
Time:	4.145	Roll Set Point:	0.568	Pitch Set Point:	0.285	Yaw Set Point:	-0.661	X_WP:	0.000	Y_WP:	0.000	Y_WP:	0.500	X:	-0.235	Y:	-0.240	Z:	0.047	yaw:	37.886	yaw rate:	7.680	Roll:	-10.244	Pitch:	-1.532	Yaw:	54.459	Thrust:	100.000
Time:	4.161	Roll Set Point:	0.568	Pitch Set Point:	0.285	Yaw Set Point:	-0.660	X_WP:	0.000	Y_WP:	0.000	Y_WP:	0.500	X:	-0.235	Y:	-0.240	Z:	0.047	yaw:	37.814	yaw rate:	-2.008	Roll:	-10.150	Pitch:	-2.038	Yaw:	53.142	Thrust:	100.000
Time:	4.176	Roll Set Point:	0.568	Pitch Set Point:	0.285	Yaw Set Point:	-0.660	X_WP:	0.000	Y_WP:	0.000	Y_WP:	0.500	X:	-0.235	Y:	-0.240	Z:	0.047	yaw:	37.835	yaw rate:	2.096	Roll:	-10.284	Pitch:	-1.396	Yaw:	54.741	Thrust:	100.000
Time:	4.192	Roll Set Point:	0.568	Pitch Set Point:	0.285	Yaw Set Point:	-0.660	X_WP:	0.000	Y_WP:	0.000	Y_WP:	0.500	X:	-0.235	Y:	-0.240	Z:	0.047	yaw:	37.835	yaw rate:	2.096	Roll:	-10.244	Pitch:	-1.547	Yaw:	54.390	Thrust:	100.000
Time:	4.208	Roll Set Point:	0.569	Pitch Set Point:	0.285	Yaw Set Point:	-0.661	X_WP:	0.000	Y_WP:	0.000	Y_WP:	0.500	X:	-0.235	Y:	-0.240	Z:	0.047	yaw:	37.897	yaw rate:	5.158	Roll:	-10.459	Pitch:	-1.314	Yaw:	55.524	Thrust:	100.000
Time:	4.223	Roll Set Point:	0.568	Pitch Set Point:	0.285	Yaw Set Point:	-0.660	X_WP:	0.000	Y_WP:	0.000	Y_WP:	0.500	X:	-0.235	Y:	-0.240	Z:	0.047	yaw:	37.806	yaw rate:	-9.127	Roll:	-9.986	Pitch:	-1.945	Yaw:	52.826	Thrust:	100.000
Time:	4.239	Roll Set Point:	0.568	Pitch Set Point:	0.285	Yaw Set Point:	-0.661	X_WP:	0.000	Y_WP:	0.000	Y_WP:	0.500	X:	-0.235	Y:	-0.240	Z:	0.047	yaw:	37.878	yaw rate:	7.193	Roll:	-10.351	Pitch:	-1.071	Yaw:	55.654	Thrust:	100.000
Time:	4.255	Roll Set Point:	0.568	Pitch Set Point:	0.285	Yaw Set Point:	-0.661	X_WP:	0.000	Y_WP:	0.000	Y_WP:	0.500	X:	-0.235	Y:	-0.240	Z:	0.047	yaw:	37.878	yaw rate:	7.193	Roll:	-10.246	Pitch:	-1.546	Yaw:	54.450	Thrust:	100.000
Time:	4.270	Roll Set Point:	0.568	Pitch Set Point:	0.286	Yaw Set Point:	-0.659	X_WP:	0.000	Y_WP:	0.000	Y_WP:	0.500	X:	-0.235	Y:	-0.240	Z:	0.047	yaw:	37.782	yaw rate:	-9.533	Roll:	-10.129	Pitch:	-2.167	Yaw:	52.726	Thrust:	100.000
Time:	4.286	Roll Set Point:	0.568	Pitch Set Point:	0.286	Yaw Set Point:	-0.659	X_WP:	0.000	Y_WP:	0.000	Y_WP:	0.500	X:	-0.235	Y:	-0.240	Z:	0.047	yaw:	37.782	yaw rate:	-9.533	Roll:	-10.241	Pitch:	-1.565	Yaw:	54.314	Thrust:	100.000
Time:	4.301	Roll Set Point:	0.568	Pitch Set Point:	0.286	Yaw Set Point:	-0.659	X_WP:	0.000	Y_WP:	0.000	Y_WP:	0.500	X:	-0.235	Y:	-0.240	Z:	0.047	yaw:	37.767	yaw rate:	-13.728	Roll:	-10.234	Pitch:	-1.744	Yaw:	54.044	Thrust:	100.000
Time:	4.317	Roll Set Point:	0.568	Pitch Set Point:	0.286	Yaw Set Point:	-0.659	X_WP:	0.000	Y_WP:	0.000	Y_WP:	0.500	X:	-0.235	Y:	-0.240	Z:	0.047	yaw:	37.767	yaw rate:	-13.728	Roll:	-10.242	Pitch:	-1.574	Yaw:	54.295	Thrust:	100.000
Time:	4.333	Roll Set Point:	0.568	Pitch Set Point:	0.286	Yaw Set Point:	-0.659	X_WP:	0.000	Y_WP:	0.000	Y_WP:	0.500	X:	-0.235	Y:	-0.240	Z:	0.047	yaw:	37.772	yaw rate:	-7.178	Roll:	-10.233	Pitch:	-1.475	Yaw:	54.388	Thrust:	100.000
Time:	4.348	Roll Set Point:	0.568	Pitch Set Point:	0.285	Yaw Set Point:	-0.661	X_WP:	0.000	Y_WP:	0.000	Y_WP:	0.500	X:	-0.235	Y:	-0.240	Z:	0.047	yaw:	37.851	yaw rate:	7.854	Roll:	-10.340	Pitch:	-1.031	Yaw:	55.728	Thrust:	100.000
Time:	4.364	Roll Set Point:	0.568	Pitch Set Point:	0.285	Yaw Set Point:	-0.660	X_WP:	0.000	Y_WP:	0.000	Y_WP:	0.500	X:	-0.235	Y:	-0.240	Z:	0.047	yaw:	37.815	yaw rate:	-3.542	Roll:	-10.213	Pitch:	-1.842	Yaw:	53.769	Thrust:	100.000
Time:	4.380	Roll Set Point:	0.568	Pitch Set Point:	0.285	Yaw Set Point:	-0.660	X_WP:	0.000	Y_WP:	0.000	Y_WP:	0.500	X:	-0.235	Y:	-0.240	Z:	0.047	yaw:	37.815	yaw rate:	-3.542	Roll:	-10.244	Pitch:	-1.571	Yaw:	54.363	Thrust:	100.000
Time:	4.395	Roll Set Point:	0.568	Pitch Set Point:	0.285	Yaw Set Point:	-0.661	X_WP:	0.000	Y_WP:	0.000	Y_WP:	0.500	X:	-0.235	Y:	-0.240	Z:	0.047	yaw:	37.877	yaw rate:	7.282	Roll:	-10.298	Pitch:	-1.189	Yaw:	55.481	Thrust:	100.000
Time:	4.411	Roll Set Point:	0.568	Pitch Set Point:	0.285	Yaw Set Point:	-0.660	X_WP:	0.000	Y_WP:	0.000	Y_WP:	0.500	X:	-0.235	Y:	-0.240	Z:	0.047	yaw:	37.822	yaw rate:	-5.530	Roll:	-10.216	Pitch:	-1.893	Yaw:	53.441	Thrust:	100.000
Time:	4.426	Roll Set Point:	0.568	Pitch Set Point:	0.285	Yaw Set Point:	-0.662	X_WP:	0.000	Y_WP:	0.000	Y_WP:	0.500	X:	-0.235	Y:	-0.240	Z:	0.047	yaw:	37.910	yaw rate:	8.868	Roll:	-10.342	Pitch:	-0.994	Yaw:	55.981	Thrust:	100.000
Time:	4.442	Roll Set Point:	0.568	Pitch Set Point:	0.285	Yaw Set Point:	-0.662	X_WP:	0.000	Y_WP:	0.000	Y_WP:	0.500	X:	-0.235	Y:	-0.240	Z:	0.047	yaw:	37.910	yaw rate:	8.868	Roll:	-10.247	Pitch:	-1.562	Yaw:	54.495	Thrust:	100.000
Time:	4.458	Roll Set Point:	0.568	Pitch Set Point:	0.285	Yaw Set Point:	-0.660	X_WP:	0.000	Y_WP:	0.000	Y_WP:	0.500	X:	-0.235	Y:	-0.240	Z:	0.047	yaw:	37.804	yaw rate:	-4.664	Roll:	-10.113	Pitch:	-2.283	Yaw:	52.571	Thrust:	100.000
Time:	4.473	Roll Set Point:	0.568	Pitch Set Point:	0.285	Yaw Set Point:	-0.661	X_WP:	0.000	Y_WP:	0.000	Y_WP:	0.500	X:	-0.235	Y:	-0.240	Z:	0.047	yaw:	37.883	yaw rate:	7.895	Roll:	-10.347	Pitch:	-1.022	Yaw:	55.780	Thrust:	100.000
Time:	4.504	Roll Set Point:	0.568	Pitch Set Point:	0.285	Yaw Set Point:	-0.660	X_WP:	0.000	Y_WP:	0.000	Y_WP:	0.500	X:	-0.235	Y:	-0.240	Z:	0.047	yaw:	37.802	yaw rate:	-1.164	Roll:	-10.739	Pitch:	-2.124	Yaw:	55.123	Thrust:	100.000
Time:	4.519	Roll Set Point:	0.568	Pitch Set Point:	0.285	Yaw Set Point:	-0.660	X_WP:	0.000	Y_WP:	0.000	Y_WP:	0.500	X:	-0.235	Y:	-0.240	Z:	0.047	yaw:	37.829	yaw rate:	2.723	Roll:	-10.263	Pitch:	-1.413	Yaw:	54.838	Thrust:	100.000
Time:	4.535	Roll Set Point:	0.568	Pitch Set Point:	0.286	Yaw Set Point:	-0.660	X_WP:	0.000	Y_WP:	0.000	Y_WP:	0.500	X:	-0.235	Y:	-0.240	Z:	0.047	yaw:	37.806	yaw rate:	-2.273	Roll:	-10.245	Pitch:	-1.791	Yaw:	53.969	Thrust:	100.000
Time:	4.551	Roll Set Point:	0.568	Pitch Set Point:	0.285	Yaw Set Point:	-0.660	X_WP:	0.000	Y_WP:	0.000	Y_WP:	0.500	X:	-0.235	Y:	-0.240	Z:	0.047	yaw:	37.817	yaw rate:	1.073	Roll:	-10.272	Pitch:	-1.513	Yaw:	54.545	Thrust:	100.000
Time:	4.566	Roll Set Point:	0.568	Pitch Set Point:	0.285	Yaw Set Point:	-0.660	X_WP:	0.000	Y_WP:	0.000	Y_WP:	0.500	X:	-0.235	Y:	-0.240	Z:	0.047	yaw:	37.817	yaw rate:	1.073	Roll:	-10.245	Pitch:	-1.592	Yaw:	54.366	Thrust:	100.000
Time:	4.582	Roll Set Point:	0.568	Pitch Set Point:	0.285	Yaw Set Point:	-0.661	X_WP:	0.000	Y_WP:	0.000	Y_WP:	0.500	X:	-0.235	Y:	-0.240	Z:	0.047	yaw:	37.887	yaw rate:	-3.314	Roll:	-10.302	Pitch:	-1.075	Yaw:	55.641	Thrust:	100.000
Time:	4.597	Roll Set Point:	0.568	Pitch Set Point:	0.285	Yaw Set Point:	-0.661	X_WP:	0.000	Y_WP:	0.000	Y_WP:	0.500	X:	-0.235	Y:	-0.240	Z:	0.047	yaw:	37.846	yaw rate:	-4.105	Roll:	-10.220	Pitch:	-1.886	Yaw:	53.718	Thrust:	100.000
Time:	4.613	Roll Set Point:	0.568	Pitch Set Point:	0.285	Yaw Set Point:	-0.662	X_WP:	0.000	Y_WP:	0.000	Y_WP:	0.500	X:	-0.235	Y:	-0.240	Z:	0.047	yaw:	37.914	yaw rate:	6.762	Roll:	-10.306	Pitch:	-1.112	Yaw:	55.633	Thrust:	100.000
Time:	4.629	Roll Set Point:	0.568	Pitch Set Point:	0.285	Yaw Set Point:	-0.662	X_WP:	0.000	Y_WP:	0.000	Y_WP:	0.500	X:	-0.235	Y:	-0.240	Z:	0.047	yaw:	37.914	yaw rate:	6.762	Roll:	-10.247	Pitch:	-1.581	Yaw:	54.501	Thrust:	100.000
Time:	4.644	Roll Set Point:	0.568	Pitch Set Point:	0.285	Yaw Set Point:	-0.661	X_WP:	0.000	Y_WP:	0.000	Y_WP:	0.500	X:	-0.235	Y:	-0.240	Z:	0.047	yaw:	37.868	yaw rate:	-4.604	Roll:	-10.174	Pitch:	-1.879	Yaw:	53.665	Thrust:	100.000
Time:	4.660	Roll Set Point:	0.568	Pitch Set Point:	0.285	Yaw Set Point:	-0.661	X_WP:	0.000	Y_WP:	0.000	Y_WP:	0.500	X:	-0.235	Y:	-0.240	Z:	0.047	yaw:	37.868	yaw rate:	-4.604	Roll:	-10.247	Pitch:	-1.593	Yaw:	54.442	Thrust:	100.000
Time:	4.677	Roll Set Point:	0.568	Pitch Set Point:	0.285	Yaw Set Point:	-0.660	X_WP:	0.000	Y_WP:	0.000	Y_WP:	0.500	X:	-0.235	Y:	-0.240	Z:	0.047	yaw:	37.805	yaw rate:	-0.323	Roll:	-10.224	Pitch:	-2.009	Yaw:	53.528	Thrust:	100.000
Time:	4.693	Roll Set Point:	0.568	Pitch Set Point:	0.285	Yaw Set Point:	-0.660	X_WP:	0.000	Y_WP:	0.000	Y_WP:	0.500	X:	-0.235	Y:	-0.240	Z:	0.047	yaw:	37.805	yaw rate:	-0.323	Roll:	-10.282	Pitch:	-1.626	Yaw:	54.401	Thrust:	100.000
Time:	4.709	Roll Set Point:	0.568	Pitch Set Point:	0.285	Yaw Set Point:	-0.661	X_WP:	0.000	Y_WP:	0.000	Y_WP:	0.500	X:	-0.235	Y:	-0.240	Z:	0.047	yaw:	37.876	yaw rate:	7.181	Roll:	-10.302	Pitch:	-1.125	Yaw:	55.651	Thrust:	100.000
Time:	4.725	Roll Set Point:	0.568	Pitch Set Point:	0.285	Yaw Set Point:	-0.661	X_WP:	0.000	Y_WP:	0.000	Y_WP:	0.500	X:	-0.235	Y:	-0.240	Z:	0.047	yaw:	37.876	yaw rate:	7.181	Roll:	-10.244	Pitch:	-1.597	Yaw:	54.445	Thrust:	100.000
Time:	4.740	Roll Set Point:	0.568	Pitch Set Point:	0.285	Yaw Set Point:	-0.661	X_WP:	0.000	Y_WP:	0.000	Y_WP:	0.500	X:	-0.235	Y:	-0.240	Z:	0.047	yaw:	37.849	yaw rate:	1.598	Roll:	-10.234	Pitch:	-1.816	Yaw:	53.958	Thrust:	100.000
Time:	4.756	Roll Set Point:	0.568	Pitch Set Point:	0.285	Yaw Set Point:	-0.660	X_WP:	0.000	Y_WP:	0.000	Y_WP:	0.500	X:	-0.235	Y:	-0.240	Z:	0.047	yaw:	37.809	yaw rate:	-4.045	Roll:	-10.186	Pitch:	-1.831	Yaw:	53.680	Thrust:	100.000
Time:	4.771	Roll Set Point:	0.568	Pitch Set Point:	0.285	Yaw Set Point:	-0.661	X_WP:	0.000	Y_WP:	0.000	Y_WP:	0.500	X:	-0.235	Y:	-0.240	Z:	0.047	yaw:	37.856	yaw rate:	4.745	Roll:	-10.329	Pitch:	-1.283	Yaw:	55.214	Thrust:	100.000
Time:	4.787	Roll Set Point:	0.568	Pitch Set Point:	0.285	Yaw Set Point:	-0.660	X_WP:	0.000	Y_WP:	0.000	Y_WP:	0.500	X:	-0.235	Y:	-0.240	Z:	0.047	yaw:	37.843	yaw rate:	-1.327	Roll:	-10.221	Pitch:	-1.763	Yaw:	54.179	Thrust:	100.000
Time:	4.803	Roll Set Point:	0.568	Pitch Set Point:	0.285	Yaw Set Point:	-0.661	X_WP:	0.000	Y_WP:	0.000	Y_WP:	0.500	X:	-0.235	Y:	-0.240	Z:	0.047	yaw:	37.875	yaw rate:	3.178	Roll:	-10.271	Pitch:	-1.376	Yaw:	54.979	Thrust:	100.000
Time:	4.818	Roll Set Point:	0.568	Pitch Set Point:	0.285	Yaw Set Point:	-0.661	X_WP:	0.000	Y_WP:	0.000	Y_WP:	0.500	X:	-0.235	Y:	-0.240	Z:	0.047	yaw:	37.875	yaw rate:	3.178	Roll:	-10.245	Pitch:	-1.609	Yaw:	54.446	Thrust:	100.000
Time:	4.834	Roll Set Point:	0.568	Pitch Set Point:	0.286	Yaw Set Point:	-0.659	X_WP:	0.000	Y_WP:	0.000	Y_WP:	0.500	X:	-0.235	Y:	-0.240	Z:	0.047	yaw:	37.769	yaw rate:	-10.594	Roll:	-10.111	Pitch:	-2.336	Yaw:	52.523	Thrust:	100.000
Time:	4.850	Roll Set Point:	0.568	Pitch Set Point:	0.285	Yaw Set Point:	-0.660	X_WP:	0.000	Y_WP:	0.000	Y_WP:	0.500	X:	-0.235	Y:	-0.240	Z:	0.047	yaw:	37.819	yaw rate:	4.959	Roll:	-10.313	Pitch:	-1.264	Yaw:	55.198	Thrust:	100.000
Time:	4.865	Roll Set Point:	0.568	Pitch Set Point:	0.285	Yaw Set Point:	-0.661	X_WP:	0.000	Y_WP:	0.000	Y_WP:	0.500	X:	-0.235	Y:	-0.240	Z:	0.047	yaw:	37.851	yaw rate:	7.460	Roll:	-10.290	Pitch:	-1.390	Yaw:	54.957	Thrust:	100.000
Time:	4.881	Roll Set Point:	0.568	Pitch Set Point:	0.285	Yaw Set Point:	-0.660	X_WP:	0.000	Y_WP:	0.000	Y_WP:	0.500	X:	-0.235	Y:	-0.240	Z:	0.047	yaw:	37.842	yaw rate:	-0.919	Roll:	-10.239	Pitch:	-1.727	Yaw:	54.246	Thrust:	100.000
Time:	4.896	Roll Set Point:	0.568	Pitch Set Point:	0.285	Yaw Set Point:	-0.660	X_WP:	0.000	Y_WP:	0.000	Y_WP:	0.500	X:	-0.235	Y:	-0.240	Z:	0.047	yaw:	37.842	yaw rate:	-0.919	Roll:	-10.245	Pitch:	-1.624	Yaw:	54.400	Thrust:	100.000
Time:	4.912	Roll Set Point:	0.568	Pitch Set Point:	0.285	Yaw Set Point:	-0.661	X_WP:	0.000	Y_WP:	0.000	Y_WP:	0.500	X:	-0.235	Y:	-0.240	Z:	0.047	yaw:	37.861	yaw rate:	4.014	Roll:	-10.247	Pitch:	-1.465	Yaw:	54.752	Thrust:	100.000
Time:	4.928	Roll Set Point:	0.568	Pitch Set Point:	0.285	Yaw Set Point:	-0.661	X_WP:	0.000	Y_WP:	0.000	Y_WP:	0.500	X:	-0.235	Y:	-0.240	Z:	0.047	yaw:	37.861	yaw rate:	4.014	Roll:	-10.245	Pitch:	-1.623	Yaw:	54.427	Thrust:	100.000
Time:	4.943	Roll Set Point:	0.568	Pitch Set Point:	0.286	Yaw Set Point:	-0.660	X_WP:	0.000	Y_WP:	0.000	Y_WP:	0.500	X:	-0.235	Y:	-0.240	Z:	0.047	yaw:	37.792	yaw rate:	-3.376	Roll:	-10.179	Pitch:	-2.118	Yaw:	53.169	Thrust:	100.000
Time:	4.959	Roll Set Point:	0.568	Pitch Set Point:	0.286	Yaw Set Point:	-0.660	X_WP:	0.000	Y_WP:	0.000	Y_WP:	0.500	X:	-0.235	Y:	-0.240	Z:	0.047	yaw:	37.792	yaw rate:	-3.376	Roll:	-10.243	Pitch:	-1.639	Yaw:	54.330	Thrust:	100.000
Time:	4.975	Roll Set Point:	0.568	Pitch Set Point:	0.285	Yaw Set Point:	-0.660	X_WP:	0.000	Y_WP:	0.000	Y_WP:	0.500	X:	-0.235	Y:	-0.240	Z:	0.047	yaw:	37.817	yaw rate:	2.756	Roll:	-10.231	Pitch:	-1.443	Yaw:	54.785	Thrust:	100.000
Time:	4.990	Roll Set Point:	0.568	Pitch Set Point:	0.285	Yaw Set Point:	-0.660	X_WP:	0.000	Y_WP:	0.000	Y_WP:	0.500	X:	-0.235	Y:	-0.240	Z:	0.047	yaw:	37.817	yaw rate:	2.756	Roll:	-10.243	Pitch:	-1.638	Yaw:	54.365	Thrust:	100.000
Time:	5.006	Roll Set Point:	0.568	Pitch Set Point:	0.285	Yaw Set Point:	-0.660	X_WP:	0.000	Y_WP:	0.000	Y_WP:	0.500	X:	-0.235	Y:	-0.240	Z:	0.047	yaw:	37.831	yaw rate:	-1.746	Roll:	-10.322	Pitch:	-1.530	Yaw:	54.621	Thrust:	100.000
Time:	5.021	Roll Set Point:	0.568	Pitch Set Point:	0.285	Yaw Set Point:	-0.661	X_WP:	0.000	Y_WP:	0.000	Y_WP:	0.500	X:	-0.235	Y:	-0.240	Z:	0.047	yaw:	37.889	yaw rate:	5.736	Roll:	-10.302	Pitch:	-1.257	Yaw:	55.426	Thrust:	100.000
Time:	5.037	Roll Set Point:	0.568	Pitch Set Point:	0.285	Yaw Set Point:	-0.661	X_WP:	0.000	Y_WP:	0.000	Y_WP:	0.500	X:	-0.235	Y:	-0.240	Z:	0.047	yaw:	37.859	yaw rate:	-2.992	Roll:	-10.200	Pitch:	-1.813	Yaw:	53.922	Thrust:	100.000
Time:	5.053	Roll Set Point:	0.568	Pitch Set Point:	0.286	Yaw Set Point:	-0.659	X_WP:	0.000	Y_WP:	0.000	Y_WP:	0.500	X:	-0.235	Y:	-0.240	Z:	0.047	yaw:	37.786	yaw rate:	-7.275	Roll:	-10.143	Pitch:	-2.196	Yaw:	53.107	Thrust:	100.000
Time:	5.068	Roll Set Point:	0.568	Pitch Set Point:	0.285	Yaw Set Point:	-0.661	X_WP:	0.000	Y_WP:	0.000	Y_WP:	0.500	X:	-0.235	Y:	-0.240	Z:	0.047	yaw:	37.886	yaw rate:	9.994	Roll:	-10.386	Pitch:	-0.951	Yaw:	56.136	Thrust:	100.000
Time:	5.084	Roll Set Point:	0.568	Pitch Set Point:	0.285	Yaw Set Point:	-0.661	X_WP:	0.000	Y_WP:	0.000	Y_WP:	0.500	X:	-0.235	Y:	-0.240	Z:	0.047	yaw:	37.886	yaw rate:	9.994	Roll:	-10.246	Pitch:	-1.637	Yaw:	54.461	Thrust:	100.000
Time:	5.100	Roll Set Point:	0.568	Pitch Set Point:	0.285	Yaw Set Point:	-0.660	X_WP:	0.000	Y_WP:	0.000	Y_WP:	0.500	X:	-0.235	Y:	-0.240	Z:	0.047	yaw:	37.811	yaw rate:	-7.522	Roll:	-10.141	Pitch:	-2.095	Yaw:	53.093	Thrust:	100.000
Time:	5.115	Roll Set Point:	0.568	Pitch Set Point:	0.285	Yaw Set Point:	-0.660	X_WP:	0.000	Y_WP:	0.000	Y_WP:	0.500	X:	-0.235	Y:	-0.240	Z:	0.047	yaw:	37.830	yaw rate:	1.934	Roll:	-10.238	Pitch:	-1.570	Yaw:	54.707	Thrust:	100.000
Time:	5.131	Roll Set Point:	0.568	Pitch Set Point:	0.285	Yaw Set Point:	-0.660	X_WP:	0.000	Y_WP:	0.000	Y_WP:	0.500	X:	-0.235	Y:	-0.240	Z:	0.047	yaw:	37.834	yaw rate:	2.651	Roll:	-10.295	Pitch:	-1.652	Yaw:	54.451	Thrust:	100.000
Time:	5.146	Roll Set Point:	0.568	Pitch Set Point:	0.285	Yaw Set Point:	-0.661	X_WP:	0.000	Y_WP:	0.000	Y_WP:	0.500	X:	-0.235	Y:	-0.240	Z:	0.047	yaw:	37.845	yaw rate:	1.089	Roll:	-10.233	Pitch:	-1.589	Yaw:	54.586	Thrust:	100.000
Time:	5.162	Roll Set Point:	0.568	Pitch Set Point:	0.285	Yaw Set Point:	-0.661	X_WP:	0.000	Y_WP:	0.000	Y_WP:	0.500	X:	-0.235	Y:	-0.240	Z:	0.047	yaw:	37.845	yaw rate:	1.089	Roll:	-10.244	Pitch:	-1.654	Yaw:	54.404	Thrust:	100.000
Time:	5.178	Roll Set Point:	0.568	Pitch Set Point:	0.285	Yaw Set Point:	-0.661	X_WP:	0.000	Y_WP:	0.000	Y_WP:	0.500	X:	-0.235	Y:	-0.240	Z:	0.047	yaw:	37.887	yaw rate:	4.247	Roll:	-10.291	Pitch:	-1.350	Yaw:	55.174	Thrust:	100.000
Time:	5.193	Roll Set Point:	0.568	Pitch Set Point:	0.285	Yaw Set Point:	-0.660	X_WP:	0.000	Y_WP:	0.000	Y_WP:	0.500	X:	-0.235	Y:	-0.240	Z:	0.047	yaw:	37.803	yaw rate:	-8.391	Roll:	-10.134	Pitch:	-2.233	Yaw:	52.940	Thrust:	100.000
Time:	5.209	Roll Set Point:	0.568	Pitch Set Point:	0.286	Yaw Set Point:	-0.660	X_WP:	0.000	Y_WP:	0.000	Y_WP:	0.500	X:	-0.235	Y:	-0.240	Z:	0.047	yaw:	37.790	yaw rate:	-7.469	Roll:	-10.261	Pitch:	-1.760	Yaw:	54.107	Thrust:	100.000
Time:	5.225	Roll Set Point:	0.568	Pitch Set Point:	0.285	Yaw Set Point:	-0.661	X_WP:	0.000	Y_WP:	0.000	Y_WP:	0.500	X:	-0.235	Y:	-0.240	Z:	0.047	yaw:	37.846	yaw rate:	5.615	Roll:	-10.296	Pitch:	-1.282	Yaw:	55.346	Thrust:	100.000
Time:	5.240	Roll Set Point:	0.568	Pitch Set Point:	0.285	Yaw Set Point:	-0.661	X_WP:	0.000	Y_WP:	0.000	Y_WP:	0.500	X:	-0.235	Y:	-0.240	Z:	0.047	yaw:	37.884	yaw rate:	3.762	Roll:	-10.298	Pitch:	-1.425	Yaw:	55.089	Thrust:	100.000
Time:	5.256	Roll Set Point:	0.568	Pitch Set Point:	0.285	Yaw Set Point:	-0.660	X_WP:	0.000	Y_WP:	0.000	Y_WP:	0.500	X:	-0.235	Y:	-0.240	Z:	0.047	yaw:	37.831	yaw rate:	-5.235	Roll:	-10.190	Pitch:	-1.961	Yaw:	53.508	Thrust:	100.000
Time:	5.271	Roll Set Point:	0.568	Pitch Set Point:	0.285	Yaw Set Point:	-0.660	X_WP:	0.000	Y_WP:	0.000	Y_WP:	0.500	X:	-0.235	Y:	-0.240	Z:	0.047	yaw:	37.826	yaw rate:	-0.572	Roll:	-10.220	Pitch:	-1.687	Yaw:	54.281	Thrust:	100.000
Time:	5.287	Roll Set Point:	0.569	Pitch Set Point:	0.285	Yaw Set Point:	-0.661	X_WP:	0.000	Y_WP:	0.000	Y_WP:	0.500	X:	-0.235	Y:	-0.240	Z:	0.047	yaw:	37.897	yaw rate:	7.125	Roll:	-10.492	Pitch:	-1.411	Yaw:	55.670	Thrust:	100.000
Time:	5.303	Roll Set Point:	0.568	Pitch Set Point:	0.286	Yaw Set Point:	-0.659	X_WP:	0.000	Y_WP:	0.000	Y_WP:	0.500	X:	-0.235	Y:	-0.240	Z:	0.047	yaw:	37.776	yaw rate:	-12.044	Roll:	-9.922	Pitch:	-2.297	Yaw:	52.298	Thrust:	100.000
Time:	5.318	Roll Set Point:	0.568	Pitch Set Point:	0.285	Yaw Set Point:	-0.660	X_WP:	0.000	Y_WP:	0.000	Y_WP:	0.500	X:	-0.235	Y:	-0.240	Z:	0.047	yaw:	37.841	yaw rate:	6.481	Roll:	-10.367	Pitch:	-1.273	Yaw:	55.484	Thrust:	100.000
Time:	5.334	Roll Set Point:	0.568	Pitch Set Point:	0.285	Yaw Set Point:	-0.660	X_WP:	0.000	Y_WP:	0.000	Y_WP:	0.500	X:	-0.235	Y:	-0.240	Z:	0.047	yaw:	37.841	yaw rate:	6.481	Roll:	-10.245	Pitch:	-1.674	Yaw:	54.399	Thrust:	100.000
Time:	5.350	Roll Set Point:	0.568	Pitch Set Point:	0.285	Yaw Set Point:	-0.661	X_WP:	0.000	Y_WP:	0.000	Y_WP:	0.500	X:	-0.235	Y:	-0.240	Z:	0.047	yaw:	37.896	yaw rate:	5.462	Roll:	-10.286	Pitch:	-1.303	Yaw:	55.390	Thrust:	100.000
Time:	5.365	Roll Set Point:	0.568	Pitch Set Point:	0.285	Yaw Set Point:	-0.661	X_WP:	0.000	Y_WP:	0.000	Y_WP:	0.500	X:	-0.235	Y:	-0.240	Z:	0.047	yaw:	37.848	yaw rate:	-4.812	Roll:	-10.183	Pitch:	-1.947	Yaw:	53.602	Thrust:	100.000
Time:	5.381	Roll Set Point:	0.568	Pitch Set Point:	0.285	Yaw Set Point:	-0.660	X_WP:	0.000	Y_WP:	0.000	Y_WP:	0.500	X:	-0.235	Y:	-0.240	Z:	0.047	yaw:	37.794	yaw rate:	0.941	Roll:	-10.192	Pitch:	-2.040	Yaw:	53.438	Thrust:	100.000
Time:	5.396	Roll Set Point:	0.568	Pitch Set Point:	0.285	Yaw Set Point:	-0.661	X_WP:	0.000	Y_WP:	0.000	Y_WP:	0.500	X:	-0.235	Y:	-0.240	Z:	0.047	yaw:	37.881	yaw rate:	8.737	Roll:	-10.350	Pitch:	-1.133	Yaw:	55.919	Thrust:	100.000
Time:	5.412	Roll Set Point:	0.568	Pitch Set Point:	0.285	Yaw Set Point:	-0.661	X_WP:	0.000	Y_WP:	0.000	Y_WP:	0.500	X:	-0.235	Y:	-0.240	Z:	0.047	yaw:	37.881	yaw rate:	8.737	Roll:	-10.246	Pitch:	-1.675	Yaw:	54.455	Thrust:	100.000
Time:	5.428	Roll Set Point:	0.568	Pitch Set Point:	0.285	Yaw Set Point:	-0.661	X_WP:	0.000	Y_WP:	0.000	Y_WP:	0.500	X:	-0.235	Y:	-0.240	Z:	0.047	yaw:	37.880	yaw rate:	0.806	Roll:	-10.258	Pitch:	-1.656	Yaw:	54.430	Thrust:	100.000
Time:	5.443	Roll Set Point:	0.568	Pitch Set Point:	0.285	Yaw Set Point:	-0.661	X_WP:	0.000	Y_WP:	0.000	Y_WP:	0.500	X:	-0.235	Y:	-0.240	Z:	0.047	yaw:	37.880	yaw rate:	0.806	Roll:	-10.248	Pitch:	-1.680	Yaw:	54.459	Thrust:	100.000
Time:	5.459	Roll Set Point:	0.568	Pitch Set Point:	0.285	Yaw Set Point:	-0.661	X_WP:	0.000	Y_WP:	0.000	Y_WP:	0.500	X:	-0.235	Y:	-0.240	Z:	0.047	yaw:	37.873	yaw rate:	4.599	Roll:	-10.196	Pitch:	-1.772	Yaw:	54.322	Thrust:	100.000
Time:	5.475	Roll Set Point:	0.568	Pitch Set Point:	0.285	Yaw Set Point:	-0.661	X_WP:	0.000	Y_WP:	0.000	Y_WP:	0.500	X:	-0.235	Y:	-0.240	Z:	0.047	yaw:	37.861	yaw rate:	-1.149	Roll:	-10.250	Pitch:	-1.663	Yaw:	54.232	Thrust:	100.000
Time:	5.504	Roll Set Point:	0.568	Pitch Set Point:	0.286	Yaw Set Point:	-0.659	X_WP:	0.000	Y_WP:	0.000	Y_WP:	0.500	X:	-0.235	Y:	-0.240	Z:	0.047	yaw:	37.759	yaw rate:	-5.099	Roll:	-10.683	Pitch:	-2.440	Yaw:	54.702	Thrust:	100.000
Time:	5.519	Roll Set Point:	0.568	Pitch Set Point:	0.285	Yaw Set Point:	-0.661	X_WP:	0.000	Y_WP:	0.000	Y_WP:	0.500	X:	-0.235	Y:	-0.240	Z:	0.047	yaw:	37.846	yaw rate:	8.711	Roll:	-10.345	Pitch:	-1.116	Yaw:	55.865	Thrust:	100.000
Time:	5.535	Roll Set Point:	0.568	Pitch Set Point:	0.285	Yaw Set Point:	-0.662	X_WP:	0.000	Y_WP:	0.000	Y_WP:	0.500	X:	-0.235	Y:	-0.240	Z:	0.047	yaw:	37.904	yaw rate:	5.746	Roll:	-10.313	Pitch:	-1.257	Yaw:	55.449	Thrust:	100.000
Time:	5.551	Roll Set Point:	0.568	Pitch Set Point:	0.286	Yaw Set Point:	-0.659	X_WP:	0.000	Y_WP:	0.000	Y_WP:	0.500	X:	-0.235	Y:	-0.240	Z:	0.047	yaw:	37.781	yaw rate:	-12.289	Roll:	-10.081	Pitch:	-2.530	Yaw:	52.258	Thrust:	100.000
Time:	5.566	Roll Set Point:	0.568	Pitch Set Point:	0.285	Yaw Set Point:	-0.660	X_WP:	0.000	Y_WP:	0.000	Y_WP:	0.500	X:	-0.235	Y:	-0.240	Z:	0.047	yaw:	37.827	yaw rate:	4.658	Roll:	-10.313	Pitch:	-1.401	Yaw:	55.160	Thrust:	100.000
Time:	5.582	Roll Set Point:	0.568	Pitch Set Point:	0.285	Yaw Set Point:	-0.661	X_WP:	0.000	Y_WP:	0.000	Y_WP:	0.500	X:	-0.235	Y:	-0.240	Z:	0.047	yaw:	37.881	yaw rate:	5.374	Roll:	-10.338	Pitch:	-1.375	Yaw:	55.355	Thrust:	100.000
Time:	5.597	Roll Set Point:	0.568	Pitch Set Point:	0.285	Yaw Set Point:	-0.661	X_WP:	0.000	Y_WP:	0.000	Y_WP:	0.500	X:	-0.235	Y:	-0.240	Z:	0.047	yaw:	37.881	yaw rate:	5.374	Roll:	-10.246	Pitch:	-1.695	Yaw:	54.455	Thrust:	100.000
Time:	5.613	Roll Set Point:	0.568	Pitch Set Point:	0.285	Yaw Set Point:	-0.661	X_WP:	0.000	Y_WP:	0.000	Y_WP:	0.500	X:	-0.235	Y:	-0.240	Z:	0.047	yaw:	37.864	yaw rate:	-1.672	Roll:	-10.197	Pitch:	-1.737	Yaw:	54.151	Thrust:	100.000
Time:	5.629	Roll Set Point:	0.568	Pitch Set Point:	0.285	Yaw Set Point:	-0.660	X_WP:	0.000	Y_WP:	0.000	Y_WP:	0.500	X:	-0.235	Y:	-0.240	Z:	0.047	yaw:	37.810	yaw rate:	-5.428	Roll:	-10.204	Pitch:	-2.127	Yaw:	53.446	Thrust:	100.000
Time:	5.644	Roll Set Point:	0.568	Pitch Set Point:	0.285	Yaw Set Point:	-0.661	X_WP:	0.000	Y_WP:	0.000	Y_WP:	0.500	X:	-0.235	Y:	-0.240	Z:	0.047	yaw:	37.844	yaw rate:	-3.842	Roll:	-10.262	Pitch:	-1.483	Yaw:	54.970	Thrust:	100.000
Time:	5.660	Roll Set Point:	0.569	Pitch Set Point:	0.285	Yaw Set Point:	-0.662	X_WP:	0.000	Y_WP:	0.000	Y_WP:	0.500	X:	-0.235	Y:	-0.240	Z:	0.047	yaw:	37.930	yaw rate:	8.633	Roll:	-10.479	Pitch:	-1.302	Yaw:	55.970	Thrust:	100.000
Time:	5.676	Roll Set Point:	0.568	Pitch Set Point:	0.285	Yaw Set Point:	-0.660	X_WP:	0.000	Y_WP:	0.000	Y_WP:	0.500	X:	-0.235	Y:	-0.240	Z:	0.047	yaw:	37.832	yaw rate:	-9.855	Roll:	-10.002	Pitch:	-2.136	Yaw:	52.735	Thrust:	100.000
Time:	5.691	Roll Set Point:	0.569	Pitch Set Point:	0.285	Yaw Set Point:	-0.661	X_WP:	0.000	Y_WP:	0.000	Y_WP:	0.500	X:	-0.235	Y:	-0.240	Z:	0.047	yaw:	37.897	yaw rate:	6.495	Roll:	-10.469	Pitch:	-1.505	Yaw:	55.565	Thrust:	100.000
Time:	5.707	Roll Set Point:	0.568	Pitch Set Point:	0.285	Yaw Set Point:	-0.660	X_WP:	0.000	Y_WP:	0.000	Y_WP:	0.500	X:	-0.235	Y:	-0.240	Z:	0.047	yaw:	37.808	yaw rate:	-8.874	Roll:	-10.021	Pitch:	-2.145	Yaw:	52.866	Thrust:	100.000
Time:	5.722	Roll Set Point:	0.568	Pitch Set Point:	0.285	Yaw Set Point:	-0.660	X_WP:	0.000	Y_WP:	0.000	Y_WP:	0.500	X:	-0.235	Y:	-0.240	Z:	0.047	yaw:	37.808	yaw rate:	-8.874	Roll:	-10.244	Pitch:	-1.722	Yaw:	54.352	Thrust:	100.000
Time:	5.738	Roll Set Point:	0.568	Pitch Set Point:	0.285	Yaw Set Point:	-0.660	X_WP:	0.000	Y_WP:	0.000	Y_WP:	0.500	X:	-0.235	Y:	-0.240	Z:	0.047	yaw:	37.838	yaw rate:	4.770	Roll:	-10.268	Pitch:	-1.461	Yaw:	54.900	Thrust:	100.000
Time:	5.754	Roll Set Point:	0.568	Pitch Set Point:	0.285	Yaw Set Point:	-0.661	X_WP:	0.000	Y_WP:	0.000	Y_WP:	0.500	X:	-0.235	Y:	-0.240	Z:	0.047	yaw:	37.856	yaw rate:	1.761	Roll:	-10.279	Pitch:	-1.631	Yaw:	54.714	Thrust:	100.000
Time:	5.769	Roll Set Point:	0.568	Pitch Set Point:	0.285	Yaw Set Point:	-0.660	X_WP:	0.000	Y_WP:	0.000	Y_WP:	0.500	X:	-0.235	Y:	-0.240	Z:	0.047	yaw:	37.817	yaw rate:	-3.830	Roll:	-10.198	Pitch:	-1.972	Yaw:	53.724	Thrust:	100.000
Time:	5.785	Roll Set Point:	0.568	Pitch Set Point:	0.285	Yaw Set Point:	-0.660	X_WP:	0.000	Y_WP:	0.000	Y_WP:	0.500	X:	-0.235	Y:	-0.240	Z:	0.047	yaw:	37.817	yaw rate:	-3.830	Roll:	-10.244	Pitch:	-1.727	Yaw:	54.366	Thrust:	100.000
Time:	5.801	Roll Set Point:	0.568	Pitch Set Point:	0.285	Yaw Set Point:	-0.660	X_WP:	0.000	Y_WP:	0.000	Y_WP:	0.500	X:	-0.235	Y:	-0.240	Z:	0.047	yaw:	37.809	yaw rate:	-0.800	Roll:	-10.244	Pitch:	-1.806	Yaw:	54.220	Thrust:	100.000
Time:	5.816	Roll Set Point:	0.568	Pitch Set Point:	0.285	Yaw Set Point:	-0.660	X_WP:	0.000	Y_WP:	0.000	Y_WP:	0.500	X:	-0.235	Y:	-0.240	Z:	0.047	yaw:	37.829	yaw rate:	1.933	Roll:	-10.258	Pitch:	-1.515	Yaw:	54.705	Thrust:	100.000
Time:	5.832	Roll Set Point:	0.568	Pitch Set Point:	0.285	Yaw Set Point:	-0.661	X_WP:	0.000	Y_WP:	0.000	Y_WP:	0.500	X:	-0.235	Y:	-0.240	Z:	0.047	yaw:	37.878	yaw rate:	4.946	Roll:	-10.310	Pitch:	-1.471	Yaw:	55.280	Thrust:	100.000
Time:	5.847	Roll Set Point:	0.568	Pitch Set Point:	0.285	Yaw Set Point:	-0.660	X_WP:	0.000	Y_WP:	0.000	Y_WP:	0.500	X:	-0.235	Y:	-0.240	Z:	0.047	yaw:	37.825	yaw rate:	3.386	Roll:	-10.143	Pitch:	-2.111	Yaw:	53.487	Thrust:	100.000
Time:	5.863	Roll Set Point:	0.568	Pitch Set Point:	0.285	Yaw Set Point:	-0.660	X_WP:	0.000	Y_WP:	0.000	Y_WP:	0.500	X:	-0.235	Y:	-0.240	Z:	0.047	yaw:	37.796	yaw rate:	-2.904	Roll:	-10.214	Pitch:	-1.869	Yaw:	53.850	Thrust:	100.000
Time:	5.879	Roll Set Point:	0.568	Pitch Set Point:	0.285	Yaw Set Point:	-0.661	X_WP:	0.000	Y_WP:	0.000	Y_WP:	0.500	X:	-0.235	Y:	-0.240	Z:	0.047	yaw:	37.845	yaw rate:	4.934	Roll:	-10.309	Pitch:	-1.444	Yaw:	55.232	Thrust:	100.000
Time:	5.894	Roll Set Point:	0.568	Pitch Set Point:	0.285	Yaw Set Point:	-0.661	X_WP:	0.000	Y_WP:	0.000	Y_WP:	0.500	X:	-0.235	Y:	-0.240	Z:	0.047	yaw:	37.845	yaw rate:	4.934	Roll:	-10.245	Pitch:	-1.735	Yaw:	54.405	Thrust:	100.000
Time:	5.910	Roll Set Point:	0.568	Pitch Set Point:	0.286	Yaw Set Point:	-0.659	X_WP:	0.000	Y_WP:	0.000	Y_WP:	0.500	X:	-0.235	Y:	-0.240	Z:	0.047	yaw:	37.772	yaw rate:	-6.961	Roll:	-10.182	Pitch:	-2.208	Yaw:	53.068	Thrust:	100.000
Time:	5.926	Roll Set Point:	0.568	Pitch Set Point:	0.286	Yaw Set Point:	-0.659	X_WP:	0.000	Y_WP:	0.000	Y_WP:	0.500	X:	-0.235	Y:	-0.240	Z:	0.047	yaw:	37.772	yaw rate:	-6.961	Roll:	-10.243	Pitch:	-1.751	Yaw:	54.303	Thrust:	100.000
Time:	5.941	Roll Set Point:	0.568	Pitch Set Point:	0.285	Yaw Set Point:	-0.660	X_WP:	0.000	Y_WP:	0.000	Y_WP:	0.500	X:	-0.235	Y:	-0.240	Z:	0.047	yaw:	37.801	yaw rate:	-5.367	Roll:	-10.267	Pitch:	-1.559	Yaw:	54.834	Thrust:	100.000
Time:	5.957	Roll Set Point:	0.568	Pitch Set Point:	0.285	Yaw Set Point:	-0.661	X_WP:	0.000	Y_WP:	0.000	Y_WP:	0.500	X:	-0.235	Y:	-0.240	Z:	0.047	yaw:	37.867	yaw rate:	6.583	Roll:	-10.306	Pitch:	-1.297	Yaw:	55.538	Thrust:	100.000
Time:	5.972	Roll Set Point:	0.568	Pitch Set Point:	0.285	Yaw Set Point:	-0.662	X_WP:	0.000	Y_WP:	0.000	Y_WP:	0.500	X:	-0.235	Y:	-0.240	Z:	0.047	yaw:	37.904	yaw rate:	3.677	Roll:	-10.333	Pitch:	-1.500	Yaw:	55.102	Thrust:	100.000
Time:	5.988	Roll Set Point:	0.568	Pitch Set Point:	0.285	Yaw Set Point:	-0.661	X_WP:	0.000	Y_WP:	0.000	Y_WP:	0.500	X:	-0.235	Y:	-0.240	Z:	0.047	yaw:	37.880	yaw rate:	-2.385	Roll:	-10.150	Pitch:	-1.919	Yaw:	54.054	Thrust:	100.000
Time:	6.004	Roll Set Point:	0.227	Pitch Set Point:	0.178	Yaw Set Point:	-0.661	X_WP:	-0.204	Y_WP:	-0.294	Y_WP:	0.500	X:	-0.235	Y:	-0.240	Z:	0.047	yaw:	37.888	yaw rate:	0.790	Roll:	30.000	Pitch:	30.000	Yaw:	54.596	Thrust:	100.000
Time:	6.019	Roll Set Point:	0.227	Pitch Set Point:	0.178	Yaw Set Point:	-0.661	X_WP:	-0.204	Y_WP:	-0.294	Y_WP:	0.500	X:	-0.235	Y:	-0.240	Z:	0.047	yaw:	37.888	yaw rate:	0.790	Roll:	-0.347	Pitch:	1.358	Yaw:	54.467	Thrust:	100.000
Time:	6.035	Roll Set Point:	0.227	Pitch Set Point:	0.178	Yaw Set Point:	-0.660	X_WP:	-0.204	Y_WP:	-0.294	Y_WP:	0.500	X:	-0.235	Y:	-0.240	Z:	0.047	yaw:	37.839	yaw rate:	-4.921	Roll:	-0.377	Pitch:	1.371	Yaw:	53.566	Thrust:	100.000
Time:	6.051	Roll Set Point:	0.227	Pitch Set Point:	0.178	Yaw Set Point:	-0.661	X_WP:	-0.204	Y_WP:	-0.294	Y_WP:	0.500	X:	-0.235	Y:	-0.240	Z:	0.047	yaw:	37.887	yaw rate:	6.476	Roll:	-0.314	Pitch:	1.356	Yaw:	55.265	Thrust:	100.000
Time:	6.066	Roll Set Point:	0.227	Pitch Set Point:	0.178	Yaw Set Point:	-0.659	X_WP:	-0.204	Y_WP:	-0.294	Y_WP:	0.500	X:	-0.235	Y:	-0.240	Z:	0.047	yaw:	37.760	yaw rate:	-12.664	Roll:	-0.463	Pitch:	1.381	Yaw:	52.164	Thrust:	100.000
Time:	6.082	Roll Set Point:	0.227	Pitch Set Point:	0.178	Yaw Set Point:	-0.661	X_WP:	-0.204	Y_WP:	-0.294	Y_WP:	0.500	X:	-0.235	Y:	-0.240	Z:	0.047	yaw:	37.889	yaw rate:	12.897	Roll:	-0.187	Pitch:	1.362	Yaw:	56.626	Thrust:	100.000
Time:	6.097	Roll Set Point:	0.227	Pitch Set Point:	0.178	Yaw Set Point:	-0.660	X_WP:	-0.204	Y_WP:	-0.294	Y_WP:	0.500	X:	-0.235	Y:	-0.240	Z:	0.047	yaw:	37.796	yaw rate:	-9.323	Roll:	-0.461	Pitch:	1.389	Yaw:	52.773	Thrust:	100.000
Time:	6.113	Roll Set Point:	0.227	Pitch Set Point:	0.178	Yaw Set Point:	-0.661	X_WP:	-0.204	Y_WP:	-0.294	Y_WP:	0.500	X:	-0.235	Y:	-0.240	Z:	0.047	yaw:	37.867	yaw rate:	7.099	Roll:	-0.259	Pitch:	1.362	Yaw:	55.624	Thrust:	100.000
Time:	6.129	Roll Set Point:	0.227	Pitch Set Point:	0.178	Yaw Set Point:	-0.660	X_WP:	-0.204	Y_WP:	-0.294	Y_WP:	0.500	X:	-0.235	Y:	-0.240	Z:	0.047	yaw:	37.815	yaw rate:	-5.146	Roll:	-0.409	Pitch:	1.383	Yaw:	53.500	Thrust:	100.000
Time:	6.144	Roll Set Point:	0.227	Pitch Set Point:	0.178	Yaw Set Point:	-0.660	X_WP:	-0.204	Y_WP:	-0.294	Y_WP:	0.500	X:	-0.235	Y:	-0.240	Z:	0.047	yaw:	37.815	yaw rate:	0.011	Roll:	-0.338	Pitch:	1.379	Yaw:	54.365	Thrust:	100.000
Time:	6.160	Roll Set Point:	0.227	Pitch Set Point:	0.178	Yaw Set Point:	-0.660	X_WP:	-0.204	Y_WP:	-0.294	Y_WP:	0.500	X:	-0.235	Y:	-0.240	Z:	0.047	yaw:	37.840	yaw rate:	2.434	Roll:	-0.313	Pitch:	1.379	Yaw:	54.805	Thrust:	100.000
Time:	6.176	Roll Set Point:	0.227	Pitch Set Point:	0.178	Yaw Set Point:	-0.660	X_WP:	-0.204	Y_WP:	-0.294	Y_WP:	0.500	X:	-0.235	Y:	-0.240	Z:	0.047	yaw:	37.812	yaw rate:	-2.794	Roll:	-0.379	Pitch:	1.388	Yaw:	53.889	Thrust:	100.000
Time:	6.191	Roll Set Point:	0.227	Pitch Set Point:	0.178	Yaw Set Point:	-0.661	X_WP:	-0.204	Y_WP:	-0.294	Y_WP:	0.500	X:	-0.235	Y:	-0.240	Z:	0.047	yaw:	37.863	yaw rate:	5.167	Roll:	-0.328	Pitch:	1.366	Yaw:	55.296	Thrust:	100.000
Time:	6.207	Roll Set Point:	0.227	Pitch Set Point:	0.178	Yaw Set Point:	-0.660	X_WP:	-0.204	Y_WP:	-0.294	Y_WP:	0.500	X:	-0.235	Y:	-0.240	Z:	0.047	yaw:	37.814	yaw rate:	-4.959	Roll:	-0.366	Pitch:	1.387	Yaw:	53.544	Thrust:	100.000
Time:	6.223	Roll Set Point:	0.227	Pitch Set Point:	0.178	Yaw Set Point:	-0.660	X_WP:	-0.204	Y_WP:	-0.294	Y_WP:	0.500	X:	-0.235	Y:	-0.240	Z:	0.047	yaw:	37.814	yaw rate:	-4.959	Roll:	-0.343	Pitch:	1.390	Yaw:	54.361	Thrust:	100.000
Time:	6.238	Roll Set Point:	0.227	Pitch Set Point:	0.178	Yaw Set Point:	-0.660	X_WP:	-0.204	Y_WP:	-0.294	Y_WP:	0.500	X:	-0.235	Y:	-0.240	Z:	0.047	yaw:	37.836	yaw rate:	-1.188	Roll:	-0.322	Pitch:	1.406	Yaw:	54.749	Thrust:	100.000
