Time:	2.041	Roll Set Point:	-0.065	Pitch Set Point:	0.053	Yaw Set Point:	2.534	X_WP:	0.100	Y_WP:	0.000	Y_WP:	0.500	X:	-0.001	Y:	0.029	Z:	0.049	yaw:	-145.165	yaw rate:	4.948	Roll:	1.929	Pitch:	-2.368	Yaw:	-202.689	Thrust:	24.802
Time:	2.052	Roll Set Point:	-0.065	Pitch Set Point:	0.052	Yaw Set Point:	2.536	X_WP:	0.100	Y_WP:	0.000	Y_WP:	0.500	X:	-0.001	Y:	0.029	Z:	0.049	yaw:	-145.288	yaw rate:	-12.336	Roll:	2.101	Pitch:	-2.195	Yaw:	-206.347	Thrust:	25.315
Time:	2.063	Roll Set Point:	-0.066	Pitch Set Point:	0.052	Yaw Set Point:	2.538	X_WP:	0.100	Y_WP:	0.000	Y_WP:	0.500	X:	-0.001	Y:	0.029	Z:	0.049	yaw:	-145.401	yaw rate:	-11.314	Roll:	2.515	Pitch:	-2.120	Yaw:	-206.789	Thrust:	26.770
Time:	2.076	Roll Set Point:	-0.065	Pitch Set Point:	0.053	Yaw Set Point:	2.534	X_WP:	0.100	Y_WP:	0.000	Y_WP:	0.500	X:	-0.001	Y:	0.029	Z:	0.049	yaw:	-145.170	yaw rate:	23.125	Roll:	1.172	Pitch:	-2.778	Yaw:	-199.776	Thrust:	26.148
Time:	2.087	Roll Set Point:	-0.065	Pitch Set Point:	0.053	Yaw Set Point:	2.532	X_WP:	0.100	Y_WP:	0.000	Y_WP:	0.500	X:	-0.001	Y:	0.029	Z:	0.049	yaw:	-145.094	yaw rate:	7.651	Roll:	1.870	Pitch:	-2.408	Yaw:	-202.979	Thrust:	26.980
Time:	2.098	Roll Set Point:	-0.065	Pitch Set Point:	0.053	Yaw Set Point:	2.533	X_WP:	0.100	Y_WP:	0.000	Y_WP:	0.500	X:	-0.001	Y:	0.029	Z:	0.049	yaw:	-145.131	yaw rate:	-3.707	Roll:	1.953	Pitch:	-2.429	Yaw:	-205.727	Thrust:	27.986
Time:	2.110	Roll Set Point:	-0.065	Pitch Set Point:	0.053	Yaw Set Point:	2.534	X_WP:	0.100	Y_WP:	0.000	Y_WP:	0.500	X:	-0.001	Y:	0.029	Z:	0.049	yaw:	-145.184	yaw rate:	-5.343	Roll:	2.044	Pitch:	-2.297	Yaw:	-206.236	Thrust:	28.628
Time:	2.121	Roll Set Point:	-0.065	Pitch Set Point:	0.053	Yaw Set Point:	2.534	X_WP:	0.100	Y_WP:	0.000	Y_WP:	0.500	X:	-0.001	Y:	0.029	Z:	0.049	yaw:	-145.214	yaw rate:	19.083	Roll:	2.026	Pitch:	-2.346	Yaw:	-205.753	Thrust:	29.097
Time:	2.132	Roll Set Point:	-0.065	Pitch Set Point:	0.053	Yaw Set Point:	2.534	X_WP:	0.100	Y_WP:	0.000	Y_WP:	0.500	X:	-0.001	Y:	0.029	Z:	0.049	yaw:	-145.214	yaw rate:	19.083	Roll:	1.946	Pitch:	-2.385	Yaw:	-204.963	Thrust:	29.575
Time:	2.143	Roll Set Point:	-0.066	Pitch Set Point:	0.052	Yaw Set Point:	2.539	X_WP:	0.100	Y_WP:	0.000	Y_WP:	0.500	X:	-0.001	Y:	0.029	Z:	0.049	yaw:	-145.467	yaw rate:	-25.238	Roll:	2.881	Pitch:	-1.832	Yaw:	-211.483	Thrust:	30.774
Time:	2.153	Roll Set Point:	-0.065	Pitch Set Point:	0.053	Yaw Set Point:	2.532	X_WP:	0.100	Y_WP:	0.000	Y_WP:	0.500	X:	-0.001	Y:	0.029	Z:	0.049	yaw:	-145.090	yaw rate:	37.704	Roll:	0.790	Pitch:	-3.160	Yaw:	-195.313	Thrust:	29.653
Time:	2.164	Roll Set Point:	-0.065	Pitch Set Point:	0.053	Yaw Set Point:	2.535	X_WP:	0.100	Y_WP:	0.000	Y_WP:	0.500	X:	-0.001	Y:	0.029	Z:	0.049	yaw:	-145.231	yaw rate:	-5.911	Roll:	2.410	Pitch:	-2.136	Yaw:	-208.330	Thrust:	31.633
Time:	2.176	Roll Set Point:	-0.066	Pitch Set Point:	0.053	Yaw Set Point:	2.536	X_WP:	0.100	Y_WP:	0.000	Y_WP:	0.500	X:	-0.001	Y:	0.029	Z:	0.049	yaw:	-145.327	yaw rate:	-9.555	Roll:	2.273	Pitch:	-2.193	Yaw:	-207.400	Thrust:	33.143
Time:	2.187	Roll Set Point:	-0.065	Pitch Set Point:	0.053	Yaw Set Point:	2.534	X_WP:	0.100	Y_WP:	0.000	Y_WP:	0.500	X:	-0.001	Y:	0.029	Z:	0.049	yaw:	-145.172	yaw rate:	15.472	Roll:	1.432	Pitch:	-2.723	Yaw:	-201.262	Thrust:	31.798
Time:	2.198	Roll Set Point:	-0.065	Pitch Set Point:	0.053	Yaw Set Point:	2.534	X_WP:	0.100	Y_WP:	0.000	Y_WP:	0.500	X:	-0.001	Y:	0.029	Z:	0.049	yaw:	-145.178	yaw rate:	-0.656	Roll:	1.949	Pitch:	-2.309	Yaw:	-204.884	Thrust:	32.395
Time:	2.209	Roll Set Point:	-0.066	Pitch Set Point:	0.053	Yaw Set Point:	2.537	X_WP:	0.100	Y_WP:	0.000	Y_WP:	0.500	X:	-0.001	Y:	0.029	Z:	0.049	yaw:	-145.331	yaw rate:	-15.247	Roll:	2.542	Pitch:	-2.128	Yaw:	-208.816	Thrust:	34.136
Time:	2.219	Roll Set Point:	-0.065	Pitch Set Point:	0.053	Yaw Set Point:	2.533	X_WP:	0.100	Y_WP:	0.000	Y_WP:	0.500	X:	-0.001	Y:	0.029	Z:	0.049	yaw:	-145.142	yaw rate:	18.886	Roll:	1.306	Pitch:	-2.757	Yaw:	-200.379	Thrust:	33.715
Time:	2.230	Roll Set Point:	-0.066	Pitch Set Point:	0.052	Yaw Set Point:	2.537	X_WP:	0.100	Y_WP:	0.000	Y_WP:	0.500	X:	-0.001	Y:	0.029	Z:	0.049	yaw:	-145.370	yaw rate:	-22.749	Roll:	2.649	Pitch:	-1.957	Yaw:	-210.565	Thrust:	35.610
Time:	2.243	Roll Set Point:	-0.065	Pitch Set Point:	0.053	Yaw Set Point:	2.532	X_WP:	0.100	Y_WP:	0.000	Y_WP:	0.500	X:	-0.001	Y:	0.029	Z:	0.049	yaw:	-145.078	yaw rate:	29.111	Roll:	1.154	Pitch:	-2.842	Yaw:	-199.332	Thrust:	36.233
Time:	2.254	Roll Set Point:	-0.065	Pitch Set Point:	0.053	Yaw Set Point:	2.535	X_WP:	0.100	Y_WP:	0.000	Y_WP:	0.500	X:	-0.001	Y:	0.029	Z:	0.049	yaw:	-145.245	yaw rate:	-16.651	Roll:	2.317	Pitch:	-2.226	Yaw:	-208.948	Thrust:	36.892
Time:	2.265	Roll Set Point:	-0.065	Pitch Set Point:	0.053	Yaw Set Point:	2.532	X_WP:	0.100	Y_WP:	0.000	Y_WP:	0.500	X:	-0.001	Y:	0.029	Z:	0.049	yaw:	-145.097	yaw rate:	14.747	Roll:	1.622	Pitch:	-2.588	Yaw:	-201.299	Thrust:	36.576
Time:	2.277	Roll Set Point:	-0.065	Pitch Set Point:	0.053	Yaw Set Point:	2.536	X_WP:	0.100	Y_WP:	0.000	Y_WP:	0.500	X:	-0.001	Y:	0.029	Z:	0.049	yaw:	-145.280	yaw rate:	-18.244	Roll:	2.557	Pitch:	-2.064	Yaw:	-209.296	Thrust:	38.463
Time:	2.288	Roll Set Point:	-0.065	Pitch Set Point:	0.053	Yaw Set Point:	2.534	X_WP:	0.100	Y_WP:	0.000	Y_WP:	0.500	X:	-0.001	Y:	0.029	Z:	0.049	yaw:	-145.194	yaw rate:	8.562	Roll:	1.624	Pitch:	-2.650	Yaw:	-202.904	Thrust:	37.554
Time:	2.299	Roll Set Point:	-0.065	Pitch Set Point:	0.053	Yaw Set Point:	2.533	X_WP:	0.100	Y_WP:	0.000	Y_WP:	0.500	X:	-0.001	Y:	0.029	Z:	0.049	yaw:	-145.153	yaw rate:	4.096	Roll:	1.870	Pitch:	-2.500	Yaw:	-203.906	Thrust:	38.651
Time:	2.311	Roll Set Point:	-0.065	Pitch Set Point:	0.053	Yaw Set Point:	2.535	X_WP:	0.100	Y_WP:	0.000	Y_WP:	0.500	X:	-0.001	Y:	0.029	Z:	0.049	yaw:	-145.235	yaw rate:	-8.205	Roll:	2.134	Pitch:	-2.279	Yaw:	-206.980	Thrust:	40.495
Time:	2.322	Roll Set Point:	-0.065	Pitch Set Point:	0.053	Yaw Set Point:	2.535	X_WP:	0.100	Y_WP:	0.000	Y_WP:	0.500	X:	-0.001	Y:	0.029	Z:	0.049	yaw:	-145.218	yaw rate:	1.702	Roll:	1.968	Pitch:	-2.472	Yaw:	-204.446	Thrust:	38.844
Time:	2.332	Roll Set Point:	-0.066	Pitch Set Point:	0.052	Yaw Set Point:	2.538	X_WP:	0.100	Y_WP:	0.000	Y_WP:	0.500	X:	-0.001	Y:	0.029	Z:	0.049	yaw:	-145.425	yaw rate:	-20.679	Roll:	2.653	Pitch:	-1.950	Yaw:	-210.456	Thrust:	39.627
Time:	2.343	Roll Set Point:	-0.065	Pitch Set Point:	0.053	Yaw Set Point:	2.534	X_WP:	0.100	Y_WP:	0.000	Y_WP:	0.500	X:	-0.001	Y:	0.029	Z:	0.049	yaw:	-145.186	yaw rate:	23.955	Roll:	1.303	Pitch:	-2.904	Yaw:	-199.586	Thrust:	41.229
Time:	2.354	Roll Set Point:	-0.065	Pitch Set Point:	0.053	Yaw Set Point:	2.533	X_WP:	0.100	Y_WP:	0.000	Y_WP:	0.500	X:	-0.001	Y:	0.029	Z:	0.049	yaw:	-145.143	yaw rate:	4.229	Roll:	1.838	Pitch:	-2.484	Yaw:	-203.712	Thrust:	40.609
Time:	2.364	Roll Set Point:	-0.065	Pitch Set Point:	0.053	Yaw Set Point:	2.535	X_WP:	0.100	Y_WP:	0.000	Y_WP:	0.500	X:	-0.001	Y:	0.029	Z:	0.049	yaw:	-145.235	yaw rate:	-9.218	Roll:	2.203	Pitch:	-2.251	Yaw:	-207.199	Thrust:	40.598
Time:	2.375	Roll Set Point:	-0.065	Pitch Set Point:	0.053	Yaw Set Point:	2.532	X_WP:	0.100	Y_WP:	0.000	Y_WP:	0.500	X:	-0.001	Y:	0.029	Z:	0.049	yaw:	-145.099	yaw rate:	13.601	Roll:	1.752	Pitch:	-2.572	Yaw:	-201.816	Thrust:	43.224
Time:	2.386	Roll Set Point:	-0.065	Pitch Set Point:	0.053	Yaw Set Point:	2.533	X_WP:	0.100	Y_WP:	0.000	Y_WP:	0.500	X:	-0.001	Y:	0.029	Z:	0.049	yaw:	-145.148	yaw rate:	-4.900	Roll:	2.055	Pitch:	-2.449	Yaw:	-205.989	Thrust:	42.702
Time:	2.397	Roll Set Point:	-0.065	Pitch Set Point:	0.053	Yaw Set Point:	2.532	X_WP:	0.100	Y_WP:	0.000	Y_WP:	0.500	X:	-0.001	Y:	0.029	Z:	0.049	yaw:	-145.090	yaw rate:	5.814	Roll:	1.797	Pitch:	-2.572	Yaw:	-203.429	Thrust:	44.033
Time:	2.408	Roll Set Point:	-0.065	Pitch Set Point:	0.053	Yaw Set Point:	2.534	X_WP:	0.100	Y_WP:	0.000	Y_WP:	0.500	X:	-0.001	Y:	0.029	Z:	0.049	yaw:	-145.167	yaw rate:	-7.702	Roll:	2.277	Pitch:	-2.312	Yaw:	-206.727	Thrust:	44.572
Time:	2.419	Roll Set Point:	-0.065	Pitch Set Point:	0.053	Yaw Set Point:	2.533	X_WP:	0.100	Y_WP:	0.000	Y_WP:	0.500	X:	-0.001	Y:	0.029	Z:	0.049	yaw:	-145.141	yaw rate:	2.668	Roll:	1.933	Pitch:	-2.463	Yaw:	-204.355	Thrust:	45.960
Time:	2.430	Roll Set Point:	-0.065	Pitch Set Point:	0.053	Yaw Set Point:	2.535	X_WP:	0.100	Y_WP:	0.000	Y_WP:	0.500	X:	-0.001	Y:	0.029	Z:	0.049	yaw:	-145.235	yaw rate:	-9.481	Roll:	2.144	Pitch:	-2.281	Yaw:	-207.243	Thrust:	45.804
Time:	2.442	Roll Set Point:	-0.066	Pitch Set Point:	0.052	Yaw Set Point:	2.539	X_WP:	0.100	Y_WP:	0.000	Y_WP:	0.500	X:	-0.001	Y:	0.029	Z:	0.049	yaw:	-145.462	yaw rate:	-22.681	Roll:	2.703	Pitch:	-2.048	Yaw:	-210.441	Thrust:	47.930
Time:	2.453	Roll Set Point:	-0.065	Pitch Set Point:	0.053	Yaw Set Point:	2.533	X_WP:	0.100	Y_WP:	0.000	Y_WP:	0.500	X:	-0.001	Y:	0.029	Z:	0.049	yaw:	-145.134	yaw rate:	32.788	Roll:	1.057	Pitch:	-3.062	Yaw:	-196.594	Thrust:	46.042
Time:	2.464	Roll Set Point:	-0.066	Pitch Set Point:	0.052	Yaw Set Point:	2.537	X_WP:	0.100	Y_WP:	0.000	Y_WP:	0.500	X:	-0.001	Y:	0.029	Z:	0.049	yaw:	-145.343	yaw rate:	-20.875	Roll:	2.580	Pitch:	-2.040	Yaw:	-210.232	Thrust:	47.182
Time:	2.474	Roll Set Point:	-0.065	Pitch Set Point:	0.053	Yaw Set Point:	2.534	X_WP:	0.100	Y_WP:	0.000	Y_WP:	0.500	X:	-0.001	Y:	0.029	Z:	0.049	yaw:	-145.194	yaw rate:	14.897	Roll:	1.411	Pitch:	-2.778	Yaw:	-201.132	Thrust:	46.527
Time:	2.485	Roll Set Point:	-0.065	Pitch Set Point:	0.053	Yaw Set Point:	2.533	X_WP:	0.100	Y_WP:	0.000	Y_WP:	0.500	X:	-0.001	Y:	0.029	Z:	0.049	yaw:	-145.134	yaw rate:	6.035	Roll:	1.936	Pitch:	-2.587	Yaw:	-203.418	Thrust:	48.577
Time:	2.496	Roll Set Point:	-0.065	Pitch Set Point:	0.053	Yaw Set Point:	2.535	X_WP:	0.100	Y_WP:	0.000	Y_WP:	0.500	X:	-0.001	Y:	0.029	Z:	0.049	yaw:	-145.237	yaw rate:	-10.335	Roll:	2.228	Pitch:	-2.227	Yaw:	-207.463	Thrust:	48.316
Time:	2.509	Roll Set Point:	-0.065	Pitch Set Point:	0.053	Yaw Set Point:	2.533	X_WP:	0.100	Y_WP:	0.000	Y_WP:	0.500	X:	-0.001	Y:	0.029	Z:	0.049	yaw:	-145.141	yaw rate:	9.587	Roll:	1.793	Pitch:	-2.647	Yaw:	-203.346	Thrust:	53.249
Time:	2.520	Roll Set Point:	-0.065	Pitch Set Point:	0.053	Yaw Set Point:	2.535	X_WP:	0.100	Y_WP:	0.000	Y_WP:	0.500	X:	-0.001	Y:	0.029	Z:	0.049	yaw:	-145.257	yaw rate:	-11.602	Roll:	2.312	Pitch:	-2.250	Yaw:	-207.777	Thrust:	51.669
Time:	2.531	Roll Set Point:	-0.065	Pitch Set Point:	0.053	Yaw Set Point:	2.534	X_WP:	0.100	Y_WP:	0.000	Y_WP:	0.500	X:	-0.001	Y:	0.029	Z:	0.049	yaw:	-145.179	yaw rate:	7.873	Roll:	1.838	Pitch:	-2.610	Yaw:	-202.856	Thrust:	49.841
Time:	2.543	Roll Set Point:	-0.065	Pitch Set Point:	0.053	Yaw Set Point:	2.533	X_WP:	0.100	Y_WP:	0.000	Y_WP:	0.500	X:	-0.001	Y:	0.029	Z:	0.049	yaw:	-145.158	yaw rate:	2.098	Roll:	1.998	Pitch:	-2.518	Yaw:	-204.752	Thrust:	54.211
Time:	2.554	Roll Set Point:	-0.065	Pitch Set Point:	0.053	Yaw Set Point:	2.534	X_WP:	0.100	Y_WP:	0.000	Y_WP:	0.500	X:	-0.001	Y:	0.029	Z:	0.049	yaw:	-145.176	yaw rate:	-1.843	Roll:	2.079	Pitch:	-2.448	Yaw:	-205.347	Thrust:	53.483
Time:	2.565	Roll Set Point:	-0.065	Pitch Set Point:	0.053	Yaw Set Point:	2.533	X_WP:	0.100	Y_WP:	0.000	Y_WP:	0.500	X:	-0.001	Y:	0.029	Z:	0.049	yaw:	-145.131	yaw rate:	4.518	Roll:	1.837	Pitch:	-2.521	Yaw:	-203.776	Thrust:	52.754
Time:	2.577	Roll Set Point:	-0.065	Pitch Set Point:	0.053	Yaw Set Point:	2.533	X_WP:	0.100	Y_WP:	0.000	Y_WP:	0.500	X:	-0.001	Y:	0.029	Z:	0.049	yaw:	-145.103	yaw rate:	2.823	Roll:	1.965	Pitch:	-2.576	Yaw:	-204.395	Thrust:	54.971
Time:	2.588	Roll Set Point:	-0.065	Pitch Set Point:	0.053	Yaw Set Point:	2.533	X_WP:	0.100	Y_WP:	0.000	Y_WP:	0.500	X:	-0.001	Y:	0.029	Z:	0.049	yaw:	-145.155	yaw rate:	-5.256	Roll:	2.219	Pitch:	-2.382	Yaw:	-206.130	Thrust:	55.290
Time:	2.598	Roll Set Point:	-0.066	Pitch Set Point:	0.053	Yaw Set Point:	2.536	X_WP:	0.100	Y_WP:	0.000	Y_WP:	0.500	X:	-0.001	Y:	0.029	Z:	0.049	yaw:	-145.320	yaw rate:	-16.478	Roll:	2.629	Pitch:	-2.111	Yaw:	-209.213	Thrust:	52.594
Time:	2.609	Roll Set Point:	-0.065	Pitch Set Point:	0.053	Yaw Set Point:	2.533	X_WP:	0.100	Y_WP:	0.000	Y_WP:	0.500	X:	-0.001	Y:	0.029	Z:	0.049	yaw:	-145.110	yaw rate:	21.040	Roll:	1.172	Pitch:	-2.888	Yaw:	-199.486	Thrust:	53.311
Time:	2.620	Roll Set Point:	-0.065	Pitch Set Point:	0.053	Yaw Set Point:	2.533	X_WP:	0.100	Y_WP:	0.000	Y_WP:	0.500	X:	-0.001	Y:	0.029	Z:	0.049	yaw:	-145.124	yaw rate:	-1.481	Roll:	2.079	Pitch:	-2.382	Yaw:	-205.189	Thrust:	54.125
Time:	2.630	Roll Set Point:	-0.065	Pitch Set Point:	0.053	Yaw Set Point:	2.532	X_WP:	0.100	Y_WP:	0.000	Y_WP:	0.500	X:	-0.001	Y:	0.029	Z:	0.049	yaw:	-145.095	yaw rate:	2.960	Roll:	1.960	Pitch:	-2.560	Yaw:	-203.968	Thrust:	56.506
Time:	2.641	Roll Set Point:	-0.066	Pitch Set Point:	0.053	Yaw Set Point:	2.536	X_WP:	0.100	Y_WP:	0.000	Y_WP:	0.500	X:	-0.001	Y:	0.029	Z:	0.049	yaw:	-145.324	yaw rate:	-22.940	Roll:	2.816	Pitch:	-2.066	Yaw:	-210.711	Thrust:	56.511
Time:	2.652	Roll Set Point:	-0.066	Pitch Set Point:	0.052	Yaw Set Point:	2.537	X_WP:	0.100	Y_WP:	0.000	Y_WP:	0.500	X:	-0.001	Y:	0.029	Z:	0.049	yaw:	-145.365	yaw rate:	-4.045	Roll:	2.090	Pitch:	-2.432	Yaw:	-206.192	Thrust:	59.201
Time:	2.663	Roll Set Point:	-0.066	Pitch Set Point:	0.053	Yaw Set Point:	2.536	X_WP:	0.100	Y_WP:	0.000	Y_WP:	0.500	X:	-0.001	Y:	0.029	Z:	0.049	yaw:	-145.312	yaw rate:	5.261	Roll:	1.932	Pitch:	-2.521	Yaw:	-203.634	Thrust:	55.921
Time:	2.676	Roll Set Point:	-0.065	Pitch Set Point:	0.053	Yaw Set Point:	2.534	X_WP:	0.100	Y_WP:	0.000	Y_WP:	0.500	X:	-0.001	Y:	0.029	Z:	0.049	yaw:	-145.170	yaw rate:	14.177	Roll:	1.608	Pitch:	-2.791	Yaw:	-202.663	Thrust:	66.157
Time:	2.687	Roll Set Point:	-0.065	Pitch Set Point:	0.053	Yaw Set Point:	2.532	X_WP:	0.100	Y_WP:	0.000	Y_WP:	0.500	X:	-0.001	Y:	0.029	Z:	0.049	yaw:	-145.096	yaw rate:	5.614	Roll:	1.879	Pitch:	-2.582	Yaw:	-202.860	Thrust:	57.656
Time:	2.697	Roll Set Point:	-0.065	Pitch Set Point:	0.053	Yaw Set Point:	2.532	X_WP:	0.100	Y_WP:	0.000	Y_WP:	0.500	X:	-0.001	Y:	0.029	Z:	0.049	yaw:	-145.096	yaw rate:	5.614	Roll:	2.028	Pitch:	-2.494	Yaw:	-204.672	Thrust:	57.993
Time:	2.709	Roll Set Point:	-0.065	Pitch Set Point:	0.053	Yaw Set Point:	2.535	X_WP:	0.100	Y_WP:	0.000	Y_WP:	0.500	X:	-0.001	Y:	0.029	Z:	0.049	yaw:	-145.232	yaw rate:	14.540	Roll:	2.291	Pitch:	-2.331	Yaw:	-208.134	Thrust:	64.066
Time:	2.720	Roll Set Point:	-0.065	Pitch Set Point:	0.053	Yaw Set Point:	2.533	X_WP:	0.100	Y_WP:	0.000	Y_WP:	0.500	X:	-0.001	Y:	0.029	Z:	0.049	yaw:	-145.135	yaw rate:	9.653	Roll:	1.861	Pitch:	-2.600	Yaw:	-202.562	Thrust:	61.017
Time:	2.731	Roll Set Point:	-0.066	Pitch Set Point:	0.052	Yaw Set Point:	2.538	X_WP:	0.100	Y_WP:	0.000	Y_WP:	0.500	X:	-0.001	Y:	0.029	Z:	0.049	yaw:	-145.415	yaw rate:	-27.958	Roll:	2.939	Pitch:	-2.018	Yaw:	-212.110	Thrust:	61.063
Time:	2.743	Roll Set Point:	-0.065	Pitch Set Point:	0.053	Yaw Set Point:	2.533	X_WP:	0.100	Y_WP:	0.000	Y_WP:	0.500	X:	-0.001	Y:	0.029	Z:	0.049	yaw:	-145.152	yaw rate:	26.267	Roll:	1.274	Pitch:	-2.977	Yaw:	-199.374	Thrust:	63.595
Time:	2.753	Roll Set Point:	-0.065	Pitch Set Point:	0.053	Yaw Set Point:	2.533	X_WP:	0.100	Y_WP:	0.000	Y_WP:	0.500	X:	-0.001	Y:	0.029	Z:	0.049	yaw:	-145.121	yaw rate:	3.116	Roll:	1.920	Pitch:	-2.559	Yaw:	-203.958	Thrust:	62.634
Time:	2.764	Roll Set Point:	-0.065	Pitch Set Point:	0.053	Yaw Set Point:	2.534	X_WP:	0.100	Y_WP:	0.000	Y_WP:	0.500	X:	-0.001	Y:	0.029	Z:	0.049	yaw:	-145.164	yaw rate:	-4.283	Roll:	2.178	Pitch:	-2.481	Yaw:	-205.840	Thrust:	61.482
Time:	2.774	Roll Set Point:	-0.065	Pitch Set Point:	0.053	Yaw Set Point:	2.534	X_WP:	0.100	Y_WP:	0.000	Y_WP:	0.500	X:	-0.001	Y:	0.029	Z:	0.049	yaw:	-145.185	yaw rate:	-2.071	Roll:	2.051	Pitch:	-2.456	Yaw:	-205.337	Thrust:	62.359
Time:	2.785	Roll Set Point:	-0.065	Pitch Set Point:	0.053	Yaw Set Point:	2.535	X_WP:	0.100	Y_WP:	0.000	Y_WP:	0.500	X:	-0.001	Y:	0.029	Z:	0.049	yaw:	-145.218	yaw rate:	-3.332	Roll:	2.073	Pitch:	-2.473	Yaw:	-205.759	Thrust:	63.078
Time:	2.796	Roll Set Point:	-0.066	Pitch Set Point:	0.052	Yaw Set Point:	2.537	X_WP:	0.100	Y_WP:	0.000	Y_WP:	0.500	X:	-0.001	Y:	0.029	Z:	0.049	yaw:	-145.371	yaw rate:	-15.348	Roll:	2.779	Pitch:	-2.211	Yaw:	-208.895	Thrust:	66.132
Time:	2.810	Roll Set Point:	-0.065	Pitch Set Point:	0.053	Yaw Set Point:	2.534	X_WP:	0.100	Y_WP:	0.000	Y_WP:	0.500	X:	-0.001	Y:	0.029	Z:	0.049	yaw:	-145.159	yaw rate:	21.220	Roll:	1.441	Pitch:	-2.895	Yaw:	-201.548	Thrust:	74.914
Time:	2.821	Roll Set Point:	-0.065	Pitch Set Point:	0.053	Yaw Set Point:	2.533	X_WP:	0.100	Y_WP:	0.000	Y_WP:	0.500	X:	-0.001	Y:	0.029	Z:	0.049	yaw:	-145.126	yaw rate:	3.339	Roll:	1.988	Pitch:	-2.572	Yaw:	-204.119	Thrust:	69.458
Time:	2.831	Roll Set Point:	-0.065	Pitch Set Point:	0.053	Yaw Set Point:	2.534	X_WP:	0.100	Y_WP:	0.000	Y_WP:	0.500	X:	-0.001	Y:	0.029	Z:	0.049	yaw:	-145.169	yaw rate:	-4.371	Roll:	2.135	Pitch:	-2.423	Yaw:	-205.841	Thrust:	63.349
Time:	2.843	Roll Set Point:	-0.065	Pitch Set Point:	0.053	Yaw Set Point:	2.534	X_WP:	0.100	Y_WP:	0.000	Y_WP:	0.500	X:	-0.001	Y:	0.029	Z:	0.049	yaw:	-145.198	yaw rate:	-2.853	Roll:	2.144	Pitch:	-2.479	Yaw:	-205.689	Thrust:	69.740
Time:	2.853	Roll Set Point:	-0.066	Pitch Set Point:	0.053	Yaw Set Point:	2.536	X_WP:	0.100	Y_WP:	0.000	Y_WP:	0.500	X:	-0.001	Y:	0.029	Z:	0.049	yaw:	-145.294	yaw rate:	-9.643	Roll:	2.473	Pitch:	-2.258	Yaw:	-207.370	Thrust:	67.228
Time:	2.863	Roll Set Point:	-0.065	Pitch Set Point:	0.053	Yaw Set Point:	2.533	X_WP:	0.100	Y_WP:	0.000	Y_WP:	0.500	X:	-0.001	Y:	0.029	Z:	0.049	yaw:	-145.123	yaw rate:	17.121	Roll:	1.443	Pitch:	-2.905	Yaw:	-200.221	Thrust:	64.643
Time:	2.877	Roll Set Point:	-0.065	Pitch Set Point:	0.053	Yaw Set Point:	2.533	X_WP:	0.100	Y_WP:	0.000	Y_WP:	0.500	X:	-0.001	Y:	0.029	Z:	0.049	yaw:	-145.149	yaw rate:	-2.613	Roll:	2.114	Pitch:	-2.569	Yaw:	-205.799	Thrust:	77.929
Time:	2.888	Roll Set Point:	-0.065	Pitch Set Point:	0.053	Yaw Set Point:	2.534	X_WP:	0.100	Y_WP:	0.000	Y_WP:	0.500	X:	-0.001	Y:	0.029	Z:	0.049	yaw:	-145.203	yaw rate:	-5.374	Roll:	2.197	Pitch:	-2.465	Yaw:	-206.268	Thrust:	72.343
Time:	2.899	Roll Set Point:	-0.065	Pitch Set Point:	0.053	Yaw Set Point:	2.534	X_WP:	0.100	Y_WP:	0.000	Y_WP:	0.500	X:	-0.001	Y:	0.029	Z:	0.049	yaw:	-145.195	yaw rate:	0.813	Roll:	2.102	Pitch:	-2.542	Yaw:	-204.743	Thrust:	70.589
Time:	2.910	Roll Set Point:	-0.065	Pitch Set Point:	0.053	Yaw Set Point:	2.534	X_WP:	0.100	Y_WP:	0.000	Y_WP:	0.500	X:	-0.001	Y:	0.029	Z:	0.049	yaw:	-145.208	yaw rate:	-1.330	Roll:	2.099	Pitch:	-2.542	Yaw:	-205.358	Thrust:	73.551
Time:	2.921	Roll Set Point:	-0.066	Pitch Set Point:	0.053	Yaw Set Point:	2.537	X_WP:	0.100	Y_WP:	0.000	Y_WP:	0.500	X:	-0.001	Y:	0.029	Z:	0.049	yaw:	-145.345	yaw rate:	-13.642	Roll:	2.701	Pitch:	-2.154	Yaw:	-208.505	Thrust:	68.203
Time:	2.931	Roll Set Point:	-0.065	Pitch Set Point:	0.053	Yaw Set Point:	2.535	X_WP:	0.100	Y_WP:	0.000	Y_WP:	0.500	X:	-0.001	Y:	0.029	Z:	0.049	yaw:	-145.229	yaw rate:	11.541	Roll:	1.434	Pitch:	-2.867	Yaw:	-201.769	Thrust:	67.784
Time:	2.942	Roll Set Point:	-0.065	Pitch Set Point:	0.053	Yaw Set Point:	2.533	X_WP:	0.100	Y_WP:	0.000	Y_WP:	0.500	X:	-0.001	Y:	0.029	Z:	0.049	yaw:	-145.156	yaw rate:	7.313	Roll:	1.936	Pitch:	-2.630	Yaw:	-203.330	Thrust:	72.876
Time:	2.953	Roll Set Point:	-0.066	Pitch Set Point:	0.052	Yaw Set Point:	2.537	X_WP:	0.100	Y_WP:	0.000	Y_WP:	0.500	X:	-0.001	Y:	0.029	Z:	0.049	yaw:	-145.379	yaw rate:	-22.322	Roll:	2.775	Pitch:	-2.156	Yaw:	-210.491	Thrust:	74.559
Time:	2.964	Roll Set Point:	-0.065	Pitch Set Point:	0.053	Yaw Set Point:	2.534	X_WP:	0.100	Y_WP:	0.000	Y_WP:	0.500	X:	-0.001	Y:	0.029	Z:	0.049	yaw:	-145.162	yaw rate:	21.742	Roll:	1.399	Pitch:	-2.975	Yaw:	-199.387	Thrust:	73.804
Time:	2.975	Roll Set Point:	-0.065	Pitch Set Point:	0.053	Yaw Set Point:	2.534	X_WP:	0.100	Y_WP:	0.000	Y_WP:	0.500	X:	-0.001	Y:	0.029	Z:	0.049	yaw:	-145.212	yaw rate:	-4.977	Roll:	2.139	Pitch:	-2.478	Yaw:	-206.190	Thrust:	77.311
Time:	2.986	Roll Set Point:	-0.065	Pitch Set Point:	0.053	Yaw Set Point:	2.534	X_WP:	0.100	Y_WP:	0.000	Y_WP:	0.500	X:	-0.001	Y:	0.029	Z:	0.049	yaw:	-145.168	yaw rate:	4.370	Roll:	2.099	Pitch:	-2.624	Yaw:	-203.861	Thrust:	75.534
Time:	2.997	Roll Set Point:	-0.066	Pitch Set Point:	0.052	Yaw Set Point:	2.538	X_WP:	0.100	Y_WP:	0.000	Y_WP:	0.500	X:	-0.001	Y:	0.029	Z:	0.049	yaw:	-145.410	yaw rate:	-24.201	Roll:	2.727	Pitch:	-2.136	Yaw:	-211.078	Thrust:	75.404
Time:	3.008	Roll Set Point:	-0.066	Pitch Set Point:	0.052	Yaw Set Point:	2.538	X_WP:	0.100	Y_WP:	0.000	Y_WP:	0.500	X:	-0.001	Y:	0.029	Z:	0.049	yaw:	-145.416	yaw rate:	-0.578	Roll:	2.182	Pitch:	-2.551	Yaw:	-205.479	Thrust:	79.241
Time:	3.020	Roll Set Point:	-0.065	Pitch Set Point:	0.053	Yaw Set Point:	2.533	X_WP:	0.100	Y_WP:	0.000	Y_WP:	0.500	X:	-0.001	Y:	0.029	Z:	0.049	yaw:	-145.113	yaw rate:	30.258	Roll:	1.182	Pitch:	-3.077	Yaw:	-197.644	Thrust:	76.422
Time:	3.030	Roll Set Point:	-0.065	Pitch Set Point:	0.053	Yaw Set Point:	2.534	X_WP:	0.100	Y_WP:	0.000	Y_WP:	0.500	X:	-0.001	Y:	0.029	Z:	0.049	yaw:	-145.166	yaw rate:	-5.316	Roll:	2.224	Pitch:	-2.522	Yaw:	-206.130	Thrust:	76.460
Time:	3.042	Roll Set Point:	-0.065	Pitch Set Point:	0.053	Yaw Set Point:	2.534	X_WP:	0.100	Y_WP:	0.000	Y_WP:	0.500	X:	-0.001	Y:	0.029	Z:	0.049	yaw:	-145.195	yaw rate:	-2.847	Roll:	2.135	Pitch:	-2.525	Yaw:	-205.687	Thrust:	81.117
Time:	3.053	Roll Set Point:	-0.065	Pitch Set Point:	0.053	Yaw Set Point:	2.535	X_WP:	0.100	Y_WP:	0.000	Y_WP:	0.500	X:	-0.001	Y:	0.029	Z:	0.049	yaw:	-145.223	yaw rate:	-2.854	Roll:	2.312	Pitch:	-2.499	Yaw:	-205.654	Thrust:	79.272
Time:	3.064	Roll Set Point:	-0.066	Pitch Set Point:	0.052	Yaw Set Point:	2.538	X_WP:	0.100	Y_WP:	0.000	Y_WP:	0.500	X:	-0.001	Y:	0.029	Z:	0.049	yaw:	-145.436	yaw rate:	-5.035	Roll:	2.595	Pitch:	-2.167	Yaw:	-210.367	Thrust:	79.407
Time:	3.075	Roll Set Point:	-0.065	Pitch Set Point:	0.053	Yaw Set Point:	2.534	X_WP:	0.100	Y_WP:	0.000	Y_WP:	0.500	X:	-0.001	Y:	0.029	Z:	0.049	yaw:	-145.212	yaw rate:	22.454	Roll:	1.421	Pitch:	-2.996	Yaw:	-199.963	Thrust:	82.202
Time:	3.086	Roll Set Point:	-0.065	Pitch Set Point:	0.053	Yaw Set Point:	2.534	X_WP:	0.100	Y_WP:	0.000	Y_WP:	0.500	X:	-0.001	Y:	0.029	Z:	0.049	yaw:	-145.163	yaw rate:	4.816	Roll:	2.045	Pitch:	-2.671	Yaw:	-203.749	Thrust:	80.846
Time:	3.096	Roll Set Point:	-0.065	Pitch Set Point:	0.053	Yaw Set Point:	2.534	X_WP:	0.100	Y_WP:	0.000	Y_WP:	0.500	X:	-0.001	Y:	0.029	Z:	0.049	yaw:	-145.159	yaw rate:	0.398	Roll:	2.099	Pitch:	-2.588	Yaw:	-204.583	Thrust:	76.444
Time:	3.108	Roll Set Point:	-0.065	Pitch Set Point:	0.053	Yaw Set Point:	2.535	X_WP:	0.100	Y_WP:	0.000	Y_WP:	0.500	X:	-0.001	Y:	0.029	Z:	0.049	yaw:	-145.220	yaw rate:	-6.111	Roll:	2.235	Pitch:	-2.466	Yaw:	-206.423	Thrust:	82.131
Time:	3.118	Roll Set Point:	-0.065	Pitch Set Point:	0.053	Yaw Set Point:	2.535	X_WP:	0.100	Y_WP:	0.000	Y_WP:	0.500	X:	-0.001	Y:	0.029	Z:	0.049	yaw:	-145.227	yaw rate:	-0.613	Roll:	2.163	Pitch:	-2.567	Yaw:	-205.126	Thrust:	82.618
Time:	3.129	Roll Set Point:	-0.065	Pitch Set Point:	0.053	Yaw Set Point:	2.534	X_WP:	0.100	Y_WP:	0.000	Y_WP:	0.500	X:	-0.001	Y:	0.029	Z:	0.049	yaw:	-145.172	yaw rate:	5.494	Roll:	1.927	Pitch:	-2.695	Yaw:	-203.600	Thrust:	83.420
Time:	3.141	Roll Set Point:	-0.065	Pitch Set Point:	0.053	Yaw Set Point:	2.534	X_WP:	0.100	Y_WP:	0.000	Y_WP:	0.500	X:	-0.001	Y:	0.029	Z:	0.049	yaw:	-145.187	yaw rate:	-1.513	Roll:	2.313	Pitch:	-2.471	Yaw:	-205.292	Thrust:	83.927
Time:	3.152	Roll Set Point:	-0.065	Pitch Set Point:	0.053	Yaw Set Point:	2.534	X_WP:	0.100	Y_WP:	0.000	Y_WP:	0.500	X:	-0.001	Y:	0.029	Z:	0.049	yaw:	-145.181	yaw rate:	0.567	Roll:	1.910	Pitch:	-2.683	Yaw:	-204.782	Thrust:	84.611
Time:	3.163	Roll Set Point:	-0.065	Pitch Set Point:	0.053	Yaw Set Point:	2.532	X_WP:	0.100	Y_WP:	0.000	Y_WP:	0.500	X:	-0.001	Y:	0.029	Z:	0.049	yaw:	-145.095	yaw rate:	8.653	Roll:	1.974	Pitch:	-2.703	Yaw:	-202.946	Thrust:	87.664
Time:	3.175	Roll Set Point:	-0.065	Pitch Set Point:	0.053	Yaw Set Point:	2.533	X_WP:	0.100	Y_WP:	0.000	Y_WP:	0.500	X:	-0.001	Y:	0.029	Z:	0.049	yaw:	-145.135	yaw rate:	-4.039	Roll:	2.278	Pitch:	-2.560	Yaw:	-205.871	Thrust:	88.879
Time:	3.186	Roll Set Point:	-0.065	Pitch Set Point:	0.053	Yaw Set Point:	2.534	X_WP:	0.100	Y_WP:	0.000	Y_WP:	0.500	X:	-0.001	Y:	0.029	Z:	0.049	yaw:	-145.191	yaw rate:	-5.607	Roll:	2.090	Pitch:	-2.543	Yaw:	-206.262	Thrust:	86.290
Time:	3.196	Roll Set Point:	-0.066	Pitch Set Point:	0.052	Yaw Set Point:	2.537	X_WP:	0.100	Y_WP:	0.000	Y_WP:	0.500	X:	-0.001	Y:	0.029	Z:	0.049	yaw:	-145.386	yaw rate:	-19.469	Roll:	2.799	Pitch:	-2.148	Yaw:	-210.071	Thrust:	82.191
Time:	3.208	Roll Set Point:	-0.065	Pitch Set Point:	0.053	Yaw Set Point:	2.535	X_WP:	0.100	Y_WP:	0.000	Y_WP:	0.500	X:	-0.001	Y:	0.029	Z:	0.049	yaw:	-145.247	yaw rate:	13.901	Roll:	1.693	Pitch:	-2.919	Yaw:	-201.965	Thrust:	89.832
Time:	3.219	Roll Set Point:	-0.065	Pitch Set Point:	0.053	Yaw Set Point:	2.534	X_WP:	0.100	Y_WP:	0.000	Y_WP:	0.500	X:	-0.001	Y:	0.029	Z:	0.049	yaw:	-145.167	yaw rate:	8.000	Roll:	1.963	Pitch:	-2.736	Yaw:	-203.183	Thrust:	91.061
Time:	3.229	Roll Set Point:	-0.065	Pitch Set Point:	0.053	Yaw Set Point:	2.534	X_WP:	0.100	Y_WP:	0.000	Y_WP:	0.500	X:	-0.001	Y:	0.029	Z:	0.049	yaw:	-145.216	yaw rate:	-4.893	Roll:	2.223	Pitch:	-2.483	Yaw:	-206.082	Thrust:	85.625
Time:	3.241	Roll Set Point:	-0.065	Pitch Set Point:	0.053	Yaw Set Point:	2.533	X_WP:	0.100	Y_WP:	0.000	Y_WP:	0.500	X:	-0.001	Y:	0.029	Z:	0.049	yaw:	-145.122	yaw rate:	9.365	Roll:	1.920	Pitch:	-2.790	Yaw:	-202.815	Thrust:	92.313
Time:	3.252	Roll Set Point:	-0.065	Pitch Set Point:	0.053	Yaw Set Point:	2.533	X_WP:	0.100	Y_WP:	0.000	Y_WP:	0.500	X:	-0.001	Y:	0.029	Z:	0.049	yaw:	-145.146	yaw rate:	-2.409	Roll:	2.160	Pitch:	-2.474	Yaw:	-205.440	Thrust:	89.564
Time:	3.262	Roll Set Point:	-0.065	Pitch Set Point:	0.053	Yaw Set Point:	2.533	X_WP:	0.100	Y_WP:	0.000	Y_WP:	0.500	X:	-0.001	Y:	0.029	Z:	0.049	yaw:	-145.157	yaw rate:	-1.044	Roll:	2.191	Pitch:	-2.621	Yaw:	-205.048	Thrust:	87.660
Time:	3.276	Roll Set Point:	-0.065	Pitch Set Point:	0.053	Yaw Set Point:	2.535	X_WP:	0.100	Y_WP:	0.000	Y_WP:	0.500	X:	-0.001	Y:	0.029	Z:	0.049	yaw:	-145.228	yaw rate:	-7.162	Roll:	2.232	Pitch:	-2.608	Yaw:	-206.869	Thrust:	100.000
Time:	3.286	Roll Set Point:	-0.065	Pitch Set Point:	0.053	Yaw Set Point:	2.534	X_WP:	0.100	Y_WP:	0.000	Y_WP:	0.500	X:	-0.001	Y:	0.029	Z:	0.049	yaw:	-145.186	yaw rate:	4.234	Roll:	2.033	Pitch:	-2.687	Yaw:	-203.770	Thrust:	88.583
Time:	3.297	Roll Set Point:	-0.065	Pitch Set Point:	0.053	Yaw Set Point:	2.533	X_WP:	0.100	Y_WP:	0.000	Y_WP:	0.500	X:	-0.001	Y:	0.029	Z:	0.049	yaw:	-145.102	yaw rate:	8.424	Roll:	1.980	Pitch:	-2.697	Yaw:	-202.534	Thrust:	87.776
Time:	3.313	Roll Set Point:	-0.065	Pitch Set Point:	0.053	Yaw Set Point:	2.535	X_WP:	0.100	Y_WP:	0.000	Y_WP:	0.500	X:	-0.001	Y:	0.029	Z:	0.049	yaw:	-145.227	yaw rate:	-12.495	Roll:	2.394	Pitch:	-2.644	Yaw:	-208.062	Thrust:	100.000
Time:	3.324	Roll Set Point:	-0.066	Pitch Set Point:	0.052	Yaw Set Point:	2.539	X_WP:	0.100	Y_WP:	0.000	Y_WP:	0.500	X:	-0.001	Y:	0.029	Z:	0.049	yaw:	-145.447	yaw rate:	-22.072	Roll:	2.916	Pitch:	-2.207	Yaw:	-210.669	Thrust:	91.165
Time:	3.339	Roll Set Point:	-0.065	Pitch Set Point:	0.053	Yaw Set Point:	2.533	X_WP:	0.100	Y_WP:	0.000	Y_WP:	0.500	X:	-0.001	Y:	0.029	Z:	0.049	yaw:	-145.112	yaw rate:	33.550	Roll:	1.344	Pitch:	-3.112	Yaw:	-199.494	Thrust:	100.000
Time:	3.351	Roll Set Point:	-0.065	Pitch Set Point:	0.053	Yaw Set Point:	2.533	X_WP:	0.100	Y_WP:	0.000	Y_WP:	0.500	X:	-0.001	Y:	0.029	Z:	0.049	yaw:	-145.156	yaw rate:	1.461	Roll:	2.171	Pitch:	-2.703	Yaw:	-206.107	Thrust:	100.000
Time:	3.362	Roll Set Point:	-0.065	Pitch Set Point:	0.053	Yaw Set Point:	2.533	X_WP:	0.100	Y_WP:	0.000	Y_WP:	0.500	X:	-0.001	Y:	0.029	Z:	0.049	yaw:	-145.144	yaw rate:	1.182	Roll:	2.233	Pitch:	-2.665	Yaw:	-204.591	Thrust:	95.537
Time:	3.374	Roll Set Point:	-0.065	Pitch Set Point:	0.053	Yaw Set Point:	2.533	X_WP:	0.100	Y_WP:	0.000	Y_WP:	0.500	X:	-0.001	Y:	0.029	Z:	0.049	yaw:	-145.117	yaw rate:	2.755	Roll:	2.067	Pitch:	-2.638	Yaw:	-204.309	Thrust:	98.968
Time:	3.385	Roll Set Point:	-0.065	Pitch Set Point:	0.053	Yaw Set Point:	2.533	X_WP:	0.100	Y_WP:	0.000	Y_WP:	0.500	X:	-0.001	Y:	0.029	Z:	0.049	yaw:	-145.136	yaw rate:	-1.893	Roll:	2.197	Pitch:	-2.611	Yaw:	-205.383	Thrust:	99.729
Time:	3.396	Roll Set Point:	-0.066	Pitch Set Point:	0.052	Yaw Set Point:	2.540	X_WP:	0.100	Y_WP:	0.000	Y_WP:	0.500	X:	-0.001	Y:	0.029	Z:	0.049	yaw:	-145.519	yaw rate:	-38.335	Roll:	3.160	Pitch:	-1.950	Yaw:	-214.779	Thrust:	95.078
Time:	3.410	Roll Set Point:	-0.065	Pitch Set Point:	0.053	Yaw Set Point:	2.534	X_WP:	0.100	Y_WP:	0.000	Y_WP:	0.500	X:	-0.001	Y:	0.029	Z:	0.049	yaw:	-145.178	yaw rate:	34.131	Roll:	1.453	Pitch:	-3.215	Yaw:	-199.161	Thrust:	100.000
Time:	3.421	Roll Set Point:	-0.065	Pitch Set Point:	0.053	Yaw Set Point:	2.534	X_WP:	0.100	Y_WP:	0.000	Y_WP:	0.500	X:	-0.001	Y:	0.029	Z:	0.049	yaw:	-145.166	yaw rate:	-5.627	Roll:	2.193	Pitch:	-2.716	Yaw:	-204.744	Thrust:	100.000
Time:	3.432	Roll Set Point:	-0.065	Pitch Set Point:	0.053	Yaw Set Point:	2.534	X_WP:	0.100	Y_WP:	0.000	Y_WP:	0.500	X:	-0.001	Y:	0.029	Z:	0.049	yaw:	-145.166	yaw rate:	-5.627	Roll:	2.157	Pitch:	-2.647	Yaw:	-204.897	Thrust:	98.808
Time:	3.444	Roll Set Point:	-0.066	Pitch Set Point:	0.052	Yaw Set Point:	2.538	X_WP:	0.100	Y_WP:	0.000	Y_WP:	0.500	X:	-0.001	Y:	0.029	Z:	0.049	yaw:	-145.412	yaw rate:	-22.262	Roll:	2.862	Pitch:	-2.149	Yaw:	-210.920	Thrust:	99.956
Time:	3.454	Roll Set Point:	-0.065	Pitch Set Point:	0.053	Yaw Set Point:	2.534	X_WP:	0.100	Y_WP:	0.000	Y_WP:	0.500	X:	-0.001	Y:	0.029	Z:	0.049	yaw:	-145.194	yaw rate:	21.793	Roll:	1.480	Pitch:	-3.061	Yaw:	-199.420	Thrust:	99.579
Time:	3.465	Roll Set Point:	-0.065	Pitch Set Point:	0.053	Yaw Set Point:	2.534	X_WP:	0.100	Y_WP:	0.000	Y_WP:	0.500	X:	-0.001	Y:	0.029	Z:	0.049	yaw:	-145.194	yaw rate:	21.793	Roll:	2.162	Pitch:	-2.652	Yaw:	-204.935	Thrust:	100.000
Time:	3.477	Roll Set Point:	-0.065	Pitch Set Point:	0.053	Yaw Set Point:	2.535	X_WP:	0.100	Y_WP:	0.000	Y_WP:	0.500	X:	-0.001	Y:	0.029	Z:	0.049	yaw:	-145.235	yaw rate:	-4.038	Roll:	2.343	Pitch:	-2.558	Yaw:	-206.010	Thrust:	100.000
Time:	3.489	Roll Set Point:	-0.065	Pitch Set Point:	0.053	Yaw Set Point:	2.534	X_WP:	0.100	Y_WP:	0.000	Y_WP:	0.500	X:	-0.001	Y:	0.029	Z:	0.049	yaw:	-145.194	yaw rate:	-1.230	Roll:	2.000	Pitch:	-2.772	Yaw:	-204.151	Thrust:	100.000
Time:	3.501	Roll Set Point:	-0.065	Pitch Set Point:	0.053	Yaw Set Point:	2.533	X_WP:	0.100	Y_WP:	0.000	Y_WP:	0.500	X:	-0.001	Y:	0.029	Z:	0.049	yaw:	-145.117	yaw rate:	7.741	Roll:	2.047	Pitch:	-2.727	Yaw:	-202.990	Thrust:	100.000
Time:	3.512	Roll Set Point:	-0.065	Pitch Set Point:	0.053	Yaw Set Point:	2.534	X_WP:	0.100	Y_WP:	0.000	Y_WP:	0.500	X:	-0.001	Y:	0.029	Z:	0.049	yaw:	-145.170	yaw rate:	-5.375	Roll:	2.299	Pitch:	-2.701	Yaw:	-206.224	Thrust:	100.000
Time:	3.523	Roll Set Point:	-0.065	Pitch Set Point:	0.053	Yaw Set Point:	2.533	X_WP:	0.100	Y_WP:	0.000	Y_WP:	0.500	X:	-0.001	Y:	0.029	Z:	0.049	yaw:	-145.146	yaw rate:	2.418	Roll:	2.069	Pitch:	-2.689	Yaw:	-204.184	Thrust:	100.000
Time:	3.533	Roll Set Point:	-0.066	Pitch Set Point:	0.052	Yaw Set Point:	2.537	X_WP:	0.100	Y_WP:	0.000	Y_WP:	0.500	X:	-0.001	Y:	0.029	Z:	0.049	yaw:	-145.366	yaw rate:	-21.998	Roll:	2.959	Pitch:	-2.133	Yaw:	-210.719	Thrust:	97.612
Time:	3.544	Roll Set Point:	-0.066	Pitch Set Point:	0.053	Yaw Set Point:	2.536	X_WP:	0.100	Y_WP:	0.000	Y_WP:	0.500	X:	-0.001	Y:	0.029	Z:	0.049	yaw:	-145.306	yaw rate:	5.987	Roll:	2.034	Pitch:	-2.722	Yaw:	-203.840	Thrust:	100.000
Time:	3.554	Roll Set Point:	-0.065	Pitch Set Point:	0.053	Yaw Set Point:	2.534	X_WP:	0.100	Y_WP:	0.000	Y_WP:	0.500	X:	-0.001	Y:	0.029	Z:	0.049	yaw:	-145.205	yaw rate:	10.092	Roll:	1.870	Pitch:	-2.959	Yaw:	-202.117	Thrust:	100.000
Time:	3.565	Roll Set Point:	-0.065	Pitch Set Point:	0.053	Yaw Set Point:	2.534	X_WP:	0.100	Y_WP:	0.000	Y_WP:	0.500	X:	-0.001	Y:	0.029	Z:	0.049	yaw:	-145.190	yaw rate:	1.590	Roll:	2.023	Pitch:	-2.668	Yaw:	-204.313	Thrust:	98.401
Time:	3.576	Roll Set Point:	-0.065	Pitch Set Point:	0.053	Yaw Set Point:	2.534	X_WP:	0.100	Y_WP:	0.000	Y_WP:	0.500	X:	-0.001	Y:	0.029	Z:	0.049	yaw:	-145.205	yaw rate:	-1.530	Roll:	2.189	Pitch:	-2.661	Yaw:	-205.398	Thrust:	100.000
Time:	3.587	Roll Set Point:	-0.065	Pitch Set Point:	0.053	Yaw Set Point:	2.533	X_WP:	0.100	Y_WP:	0.000	Y_WP:	0.500	X:	-0.001	Y:	0.029	Z:	0.049	yaw:	-145.126	yaw rate:	7.923	Roll:	2.019	Pitch:	-2.830	Yaw:	-202.769	Thrust:	100.000
Time:	3.597	Roll Set Point:	-0.065	Pitch Set Point:	0.053	Yaw Set Point:	2.534	X_WP:	0.100	Y_WP:	0.000	Y_WP:	0.500	X:	-0.001	Y:	0.029	Z:	0.049	yaw:	-145.204	yaw rate:	-7.817	Roll:	2.326	Pitch:	-2.507	Yaw:	-206.789	Thrust:	100.000
Time:	3.608	Roll Set Point:	-0.065	Pitch Set Point:	0.053	Yaw Set Point:	2.535	X_WP:	0.100	Y_WP:	0.000	Y_WP:	0.500	X:	-0.001	Y:	0.029	Z:	0.049	yaw:	-145.223	yaw rate:	-1.972	Roll:	2.127	Pitch:	-2.607	Yaw:	-205.449	Thrust:	100.000
Time:	3.618	Roll Set Point:	-0.066	Pitch Set Point:	0.053	Yaw Set Point:	2.536	X_WP:	0.100	Y_WP:	0.000	Y_WP:	0.500	X:	-0.001	Y:	0.029	Z:	0.049	yaw:	-145.309	yaw rate:	-8.603	Roll:	2.756	Pitch:	-2.492	Yaw:	-207.135	Thrust:	100.000
Time:	3.629	Roll Set Point:	-0.065	Pitch Set Point:	0.053	Yaw Set Point:	2.534	X_WP:	0.100	Y_WP:	0.000	Y_WP:	0.500	X:	-0.001	Y:	0.029	Z:	0.049	yaw:	-145.213	yaw rate:	9.602	Roll:	1.764	Pitch:	-2.881	Yaw:	-202.684	Thrust:	100.000
Time:	3.641	Roll Set Point:	-0.066	Pitch Set Point:	0.053	Yaw Set Point:	2.537	X_WP:	0.100	Y_WP:	0.000	Y_WP:	0.500	X:	-0.001	Y:	0.029	Z:	0.049	yaw:	-145.335	yaw rate:	-12.112	Roll:	2.697	Pitch:	-2.489	Yaw:	-207.981	Thrust:	100.000
Time:	3.652	Roll Set Point:	-0.065	Pitch Set Point:	0.053	Yaw Set Point:	2.534	X_WP:	0.100	Y_WP:	0.000	Y_WP:	0.500	X:	-0.001	Y:	0.029	Z:	0.049	yaw:	-145.162	yaw rate:	17.263	Roll:	1.604	Pitch:	-3.008	Yaw:	-200.792	Thrust:	100.000
Time:	3.662	Roll Set Point:	-0.066	Pitch Set Point:	0.052	Yaw Set Point:	2.537	X_WP:	0.100	Y_WP:	0.000	Y_WP:	0.500	X:	-0.001	Y:	0.029	Z:	0.049	yaw:	-145.373	yaw rate:	-21.136	Roll:	2.871	Pitch:	-2.262	Yaw:	-210.502	Thrust:	100.000
Time:	3.674	Roll Set Point:	-0.065	Pitch Set Point:	0.053	Yaw Set Point:	2.535	X_WP:	0.100	Y_WP:	0.000	Y_WP:	0.500	X:	-0.001	Y:	0.029	Z:	0.049	yaw:	-145.224	yaw rate:	14.924	Roll:	1.788	Pitch:	-3.002	Yaw:	-202.162	Thrust:	100.000
Time:	3.685	Roll Set Point:	-0.065	Pitch Set Point:	0.053	Yaw Set Point:	2.534	X_WP:	0.100	Y_WP:	0.000	Y_WP:	0.500	X:	-0.001	Y:	0.029	Z:	0.049	yaw:	-145.185	yaw rate:	3.874	Roll:	2.059	Pitch:	-2.752	Yaw:	-204.003	Thrust:	100.000
Time:	3.696	Roll Set Point:	-0.065	Pitch Set Point:	0.053	Yaw Set Point:	2.534	X_WP:	0.100	Y_WP:	0.000	Y_WP:	0.500	X:	-0.001	Y:	0.029	Z:	0.049	yaw:	-145.207	yaw rate:	-2.188	Roll:	2.203	Pitch:	-2.652	Yaw:	-205.477	Thrust:	100.000
Time:	3.708	Roll Set Point:	-0.066	Pitch Set Point:	0.053	Yaw Set Point:	2.536	X_WP:	0.100	Y_WP:	0.000	Y_WP:	0.500	X:	-0.001	Y:	0.029	Z:	0.049	yaw:	-145.319	yaw rate:	-11.155	Roll:	2.717	Pitch:	-2.500	Yaw:	-207.757	Thrust:	100.000
Time:	3.719	Roll Set Point:	-0.065	Pitch Set Point:	0.053	Yaw Set Point:	2.532	X_WP:	0.100	Y_WP:	0.000	Y_WP:	0.500	X:	-0.001	Y:	0.029	Z:	0.049	yaw:	-145.101	yaw rate:	21.737	Roll:	1.497	Pitch:	-3.029	Yaw:	-199.970	Thrust:	100.000
Time:	3.730	Roll Set Point:	-0.065	Pitch Set Point:	0.053	Yaw Set Point:	2.533	X_WP:	0.100	Y_WP:	0.000	Y_WP:	0.500	X:	-0.001	Y:	0.029	Z:	0.049	yaw:	-145.129	yaw rate:	-2.773	Roll:	2.459	Pitch:	-2.722	Yaw:	-205.434	Thrust:	100.000
Time:	3.741	Roll Set Point:	-0.065	Pitch Set Point:	0.053	Yaw Set Point:	2.533	X_WP:	0.100	Y_WP:	0.000	Y_WP:	0.500	X:	-0.001	Y:	0.029	Z:	0.049	yaw:	-145.134	yaw rate:	-0.502	Roll:	2.066	Pitch:	-2.710	Yaw:	-204.975	Thrust:	100.000
Time:	3.752	Roll Set Point:	-0.066	Pitch Set Point:	0.052	Yaw Set Point:	2.537	X_WP:	0.100	Y_WP:	0.000	Y_WP:	0.500	X:	-0.001	Y:	0.029	Z:	0.049	yaw:	-145.371	yaw rate:	-23.698	Roll:	3.018	Pitch:	-2.262	Yaw:	-210.807	Thrust:	100.000
Time:	3.763	Roll Set Point:	-0.065	Pitch Set Point:	0.053	Yaw Set Point:	2.534	X_WP:	0.100	Y_WP:	0.000	Y_WP:	0.500	X:	-0.001	Y:	0.029	Z:	0.049	yaw:	-145.211	yaw rate:	15.982	Roll:	1.650	Pitch:	-3.037	Yaw:	-201.166	Thrust:	100.000
Time:	3.774	Roll Set Point:	-0.065	Pitch Set Point:	0.053	Yaw Set Point:	2.535	X_WP:	0.100	Y_WP:	0.000	Y_WP:	0.500	X:	-0.001	Y:	0.029	Z:	0.049	yaw:	-145.222	yaw rate:	-1.041	Roll:	2.253	Pitch:	-2.688	Yaw:	-205.311	Thrust:	100.000
Time:	3.785	Roll Set Point:	-0.065	Pitch Set Point:	0.053	Yaw Set Point:	2.533	X_WP:	0.100	Y_WP:	0.000	Y_WP:	0.500	X:	-0.001	Y:	0.029	Z:	0.049	yaw:	-145.140	yaw rate:	8.184	Roll:	2.050	Pitch:	-2.864	Yaw:	-202.916	Thrust:	100.000
Time:	3.796	Roll Set Point:	-0.066	Pitch Set Point:	0.052	Yaw Set Point:	2.538	X_WP:	0.100	Y_WP:	0.000	Y_WP:	0.500	X:	-0.001	Y:	0.029	Z:	0.049	yaw:	-145.406	yaw rate:	-26.640	Roll:	3.001	Pitch:	-2.223	Yaw:	-211.745	Thrust:	100.000
Time:	3.808	Roll Set Point:	-0.065	Pitch Set Point:	0.053	Yaw Set Point:	2.533	X_WP:	0.100	Y_WP:	0.000	Y_WP:	0.500	X:	-0.001	Y:	0.029	Z:	0.049	yaw:	-145.154	yaw rate:	25.268	Roll:	1.449	Pitch:	-3.174	Yaw:	-199.247	Thrust:	100.000
Time:	3.818	Roll Set Point:	-0.065	Pitch Set Point:	0.053	Yaw Set Point:	2.534	X_WP:	0.100	Y_WP:	0.000	Y_WP:	0.500	X:	-0.001	Y:	0.029	Z:	0.049	yaw:	-145.193	yaw rate:	-3.916	Roll:	2.294	Pitch:	-2.632	Yaw:	-205.863	Thrust:	100.000
Time:	3.829	Roll Set Point:	-0.065	Pitch Set Point:	0.053	Yaw Set Point:	2.533	X_WP:	0.100	Y_WP:	0.000	Y_WP:	0.500	X:	-0.001	Y:	0.029	Z:	0.049	yaw:	-145.156	yaw rate:	3.724	Roll:	2.160	Pitch:	-2.831	Yaw:	-203.866	Thrust:	100.000
Time:	3.841	Roll Set Point:	-0.065	Pitch Set Point:	0.053	Yaw Set Point:	2.535	X_WP:	0.100	Y_WP:	0.000	Y_WP:	0.500	X:	-0.001	Y:	0.029	Z:	0.049	yaw:	-145.234	yaw rate:	-7.895	Roll:	2.387	Pitch:	-2.589	Yaw:	-206.885	Thrust:	100.000
Time:	3.852	Roll Set Point:	-0.065	Pitch Set Point:	0.053	Yaw Set Point:	2.534	X_WP:	0.100	Y_WP:	0.000	Y_WP:	0.500	X:	-0.001	Y:	0.029	Z:	0.049	yaw:	-145.175	yaw rate:	5.963	Roll:	2.093	Pitch:	-2.878	Yaw:	-203.654	Thrust:	100.000
Time:	3.862	Roll Set Point:	-0.066	Pitch Set Point:	0.053	Yaw Set Point:	2.536	X_WP:	0.100	Y_WP:	0.000	Y_WP:	0.500	X:	-0.001	Y:	0.029	Z:	0.049	yaw:	-145.306	yaw rate:	-13.149	Roll:	2.762	Pitch:	-2.382	Yaw:	-208.314	Thrust:	100.000
Time:	3.876	Roll Set Point:	-0.065	Pitch Set Point:	0.053	Yaw Set Point:	2.533	X_WP:	0.100	Y_WP:	0.000	Y_WP:	0.500	X:	-0.001	Y:	0.029	Z:	0.049	yaw:	-145.154	yaw rate:	15.280	Roll:	1.861	Pitch:	-3.064	Yaw:	-202.632	Thrust:	100.000
Time:	3.888	Roll Set Point:	-0.065	Pitch Set Point:	0.053	Yaw Set Point:	2.534	X_WP:	0.100	Y_WP:	0.000	Y_WP:	0.500	X:	-0.001	Y:	0.029	Z:	0.049	yaw:	-145.165	yaw rate:	-1.178	Roll:	2.316	Pitch:	-2.740	Yaw:	-205.289	Thrust:	100.000
Time:	3.898	Roll Set Point:	-0.066	Pitch Set Point:	0.052	Yaw Set Point:	2.538	X_WP:	0.100	Y_WP:	0.000	Y_WP:	0.500	X:	-0.001	Y:	0.029	Z:	0.049	yaw:	-145.435	yaw rate:	-27.000	Roll:	3.071	Pitch:	-2.204	Yaw:	-212.121	Thrust:	100.000
Time:	3.908	Roll Set Point:	-0.065	Pitch Set Point:	0.053	Yaw Set Point:	2.533	X_WP:	0.100	Y_WP:	0.000	Y_WP:	0.500	X:	-0.001	Y:	0.029	Z:	0.049	yaw:	-145.156	yaw rate:	27.939	Roll:	1.332	Pitch:	-3.245	Yaw:	-197.858	Thrust:	100.000
Time:	3.919	Roll Set Point:	-0.066	Pitch Set Point:	0.052	Yaw Set Point:	2.536	X_WP:	0.100	Y_WP:	0.000	Y_WP:	0.500	X:	-0.001	Y:	0.029	Z:	0.049	yaw:	-145.309	yaw rate:	-15.266	Roll:	2.704	Pitch:	-2.365	Yaw:	-208.718	Thrust:	100.000
Time:	3.930	Roll Set Point:	-0.065	Pitch Set Point:	0.053	Yaw Set Point:	2.535	X_WP:	0.100	Y_WP:	0.000	Y_WP:	0.500	X:	-0.001	Y:	0.029	Z:	0.049	yaw:	-145.228	yaw rate:	8.049	Roll:	1.896	Pitch:	-2.948	Yaw:	-202.923	Thrust:	100.000
Time:	3.942	Roll Set Point:	-0.065	Pitch Set Point:	0.053	Yaw Set Point:	2.535	X_WP:	0.100	Y_WP:	0.000	Y_WP:	0.500	X:	-0.001	Y:	0.029	Z:	0.049	yaw:	-145.231	yaw rate:	-0.284	Roll:	2.323	Pitch:	-2.778	Yaw:	-205.157	Thrust:	100.000
Time:	3.953	Roll Set Point:	-0.065	Pitch Set Point:	0.053	Yaw Set Point:	2.533	X_WP:	0.100	Y_WP:	0.000	Y_WP:	0.500	X:	-0.001	Y:	0.029	Z:	0.049	yaw:	-145.144	yaw rate:	8.696	Roll:	2.026	Pitch:	-2.926	Yaw:	-202.801	Thrust:	100.000
Time:	3.964	Roll Set Point:	-0.065	Pitch Set Point:	0.053	Yaw Set Point:	2.533	X_WP:	0.100	Y_WP:	0.000	Y_WP:	0.500	X:	-0.001	Y:	0.029	Z:	0.049	yaw:	-145.105	yaw rate:	3.902	Roll:	2.072	Pitch:	-2.805	Yaw:	-203.860	Thrust:	100.000
Time:	3.975	Roll Set Point:	-0.065	Pitch Set Point:	0.053	Yaw Set Point:	2.533	X_WP:	0.100	Y_WP:	0.000	Y_WP:	0.500	X:	-0.001	Y:	0.029	Z:	0.049	yaw:	-145.150	yaw rate:	10.846	Roll:	2.459	Pitch:	-2.708	Yaw:	-205.991	Thrust:	100.000
Time:	3.987	Roll Set Point:	-0.066	Pitch Set Point:	0.052	Yaw Set Point:	2.538	X_WP:	0.100	Y_WP:	0.000	Y_WP:	0.500	X:	-0.001	Y:	0.029	Z:	0.049	yaw:	-145.394	yaw rate:	-24.408	Roll:	2.928	Pitch:	-2.301	Yaw:	-210.856	Thrust:	100.000
Time:	3.997	Roll Set Point:	-0.065	Pitch Set Point:	0.053	Yaw Set Point:	2.535	X_WP:	0.100	Y_WP:	0.000	Y_WP:	0.500	X:	-0.001	Y:	0.029	Z:	0.049	yaw:	-145.225	yaw rate:	16.901	Roll:	1.652	Pitch:	-3.068	Yaw:	-200.686	Thrust:	100.000
Time:	4.008	Roll Set Point:	-0.065	Pitch Set Point:	0.053	Yaw Set Point:	2.535	X_WP:	0.100	Y_WP:	0.000	Y_WP:	0.500	X:	-0.001	Y:	0.029	Z:	0.049	yaw:	-145.242	yaw rate:	-1.731	Roll:	2.290	Pitch:	-2.742	Yaw:	-205.415	Thrust:	100.000
Time:	4.019	Roll Set Point:	-0.065	Pitch Set Point:	0.053	Yaw Set Point:	2.534	X_WP:	0.100	Y_WP:	0.000	Y_WP:	0.500	X:	-0.001	Y:	0.029	Z:	0.049	yaw:	-145.215	yaw rate:	2.690	Roll:	2.258	Pitch:	-2.792	Yaw:	-204.326	Thrust:	100.000
Time:	4.030	Roll Set Point:	-0.065	Pitch Set Point:	0.053	Yaw Set Point:	2.531	X_WP:	0.100	Y_WP:	0.000	Y_WP:	0.500	X:	-0.001	Y:	0.029	Z:	0.049	yaw:	-145.044	yaw rate:	17.149	Roll:	1.810	Pitch:	-3.052	Yaw:	-200.560	Thrust:	100.000
Time:	4.041	Roll Set Point:	-0.066	Pitch Set Point:	0.052	Yaw Set Point:	2.538	X_WP:	0.100	Y_WP:	0.000	Y_WP:	0.500	X:	-0.001	Y:	0.029	Z:	0.049	yaw:	-145.415	yaw rate:	-37.114	Roll:	3.389	Pitch:	-2.021	Yaw:	-214.357	Thrust:	100.000
Time:	4.052	Roll Set Point:	-0.066	Pitch Set Point:	0.052	Yaw Set Point:	2.538	X_WP:	0.100	Y_WP:	0.000	Y_WP:	0.500	X:	-0.001	Y:	0.029	Z:	0.049	yaw:	-145.398	yaw rate:	1.686	Roll:	2.316	Pitch:	-2.807	Yaw:	-204.820	Thrust:	100.000
Time:	4.062	Roll Set Point:	-0.065	Pitch Set Point:	0.053	Yaw Set Point:	2.535	X_WP:	0.100	Y_WP:	0.000	Y_WP:	0.500	X:	-0.001	Y:	0.029	Z:	0.049	yaw:	-145.219	yaw rate:	17.867	Roll:	1.611	Pitch:	-3.115	Yaw:	-200.437	Thrust:	100.000
Time:	4.076	Roll Set Point:	-0.065	Pitch Set Point:	0.053	Yaw Set Point:	2.534	X_WP:	0.100	Y_WP:	0.000	Y_WP:	0.500	X:	-0.001	Y:	0.029	Z:	0.049	yaw:	-145.186	yaw rate:	3.355	Roll:	2.273	Pitch:	-2.957	Yaw:	-204.782	Thrust:	100.000
Time:	4.087	Roll Set Point:	-0.065	Pitch Set Point:	0.053	Yaw Set Point:	2.534	X_WP:	0.100	Y_WP:	0.000	Y_WP:	0.500	X:	-0.001	Y:	0.029	Z:	0.049	yaw:	-145.204	yaw rate:	-1.865	Roll:	2.304	Pitch:	-2.719	Yaw:	-205.478	Thrust:	100.000
Time:	4.098	Roll Set Point:	-0.065	Pitch Set Point:	0.053	Yaw Set Point:	2.534	X_WP:	0.100	Y_WP:	0.000	Y_WP:	0.500	X:	-0.001	Y:	0.029	Z:	0.049	yaw:	-145.178	yaw rate:	2.649	Roll:	2.216	Pitch:	-2.844	Yaw:	-204.284	Thrust:	100.000
Time:	4.109	Roll Set Point:	-0.065	Pitch Set Point:	0.053	Yaw Set Point:	2.535	X_WP:	0.100	Y_WP:	0.000	Y_WP:	0.500	X:	-0.001	Y:	0.029	Z:	0.049	yaw:	-145.223	yaw rate:	-4.493	Roll:	2.392	Pitch:	-2.663	Yaw:	-205.995	Thrust:	100.000
Time:	4.120	Roll Set Point:	-0.066	Pitch Set Point:	0.052	Yaw Set Point:	2.537	X_WP:	0.100	Y_WP:	0.000	Y_WP:	0.500	X:	-0.001	Y:	0.029	Z:	0.049	yaw:	-145.368	yaw rate:	-14.497	Roll:	2.853	Pitch:	-2.503	Yaw:	-208.619	Thrust:	100.000
Time:	4.130	Roll Set Point:	-0.066	Pitch Set Point:	0.052	Yaw Set Point:	2.537	X_WP:	0.100	Y_WP:	0.000	Y_WP:	0.500	X:	-0.001	Y:	0.029	Z:	0.049	yaw:	-145.352	yaw rate:	1.577	Roll:	2.211	Pitch:	-2.709	Yaw:	-204.625	Thrust:	100.000
Time:	4.142	Roll Set Point:	-0.065	Pitch Set Point:	0.053	Yaw Set Point:	2.535	X_WP:	0.100	Y_WP:	0.000	Y_WP:	0.500	X:	-0.001	Y:	0.029	Z:	0.049	yaw:	-145.247	yaw rate:	10.534	Roll:	1.806	Pitch:	-3.053	Yaw:	-202.517	Thrust:	100.000
Time:	4.153	Roll Set Point:	-0.065	Pitch Set Point:	0.053	Yaw Set Point:	2.535	X_WP:	0.100	Y_WP:	0.000	Y_WP:	0.500	X:	-0.001	Y:	0.029	Z:	0.049	yaw:	-145.253	yaw rate:	-0.613	Roll:	2.296	Pitch:	-2.791	Yaw:	-205.257	Thrust:	100.000
Time:	4.163	Roll Set Point:	-0.066	Pitch Set Point:	0.052	Yaw Set Point:	2.539	X_WP:	0.100	Y_WP:	0.000	Y_WP:	0.500	X:	-0.001	Y:	0.029	Z:	0.049	yaw:	-145.449	yaw rate:	-19.657	Roll:	2.971	Pitch:	-2.369	Yaw:	-210.075	Thrust:	100.000
Time:	4.175	Roll Set Point:	-0.065	Pitch Set Point:	0.053	Yaw Set Point:	2.535	X_WP:	0.100	Y_WP:	0.000	Y_WP:	0.500	X:	-0.001	Y:	0.029	Z:	0.049	yaw:	-145.234	yaw rate:	21.571	Roll:	1.531	Pitch:	-3.156	Yaw:	-200.226	Thrust:	100.000
Time:	4.186	Roll Set Point:	-0.065	Pitch Set Point:	0.053	Yaw Set Point:	2.533	X_WP:	0.100	Y_WP:	0.000	Y_WP:	0.500	X:	-0.001	Y:	0.029	Z:	0.049	yaw:	-145.128	yaw rate:	10.612	Roll:	2.113	Pitch:	-2.996	Yaw:	-202.323	Thrust:	100.000
Time:	4.197	Roll Set Point:	-0.065	Pitch Set Point:	0.053	Yaw Set Point:	2.534	X_WP:	0.100	Y_WP:	0.000	Y_WP:	0.500	X:	-0.001	Y:	0.029	Z:	0.049	yaw:	-145.189	yaw rate:	-6.184	Roll:	2.378	Pitch:	-2.697	Yaw:	-206.377	Thrust:	100.000
Time:	4.208	Roll Set Point:	-0.065	Pitch Set Point:	0.053	Yaw Set Point:	2.534	X_WP:	0.100	Y_WP:	0.000	Y_WP:	0.500	X:	-0.001	Y:	0.029	Z:	0.049	yaw:	-145.210	yaw rate:	-2.019	Roll:	2.467	Pitch:	-2.712	Yaw:	-205.362	Thrust:	100.000
Time:	4.219	Roll Set Point:	-0.065	Pitch Set Point:	0.053	Yaw Set Point:	2.534	X_WP:	0.100	Y_WP:	0.000	Y_WP:	0.500	X:	-0.001	Y:	0.029	Z:	0.049	yaw:	-145.202	yaw rate:	0.753	Roll:	2.159	Pitch:	-2.786	Yaw:	-204.876	Thrust:	100.000
Time:	4.229	Roll Set Point:	-0.065	Pitch Set Point:	0.053	Yaw Set Point:	2.535	X_WP:	0.100	Y_WP:	0.000	Y_WP:	0.500	X:	-0.001	Y:	0.029	Z:	0.049	yaw:	-145.217	yaw rate:	-1.517	Roll:	2.287	Pitch:	-2.760	Yaw:	-205.245	Thrust:	100.000
Time:	4.241	Roll Set Point:	-0.065	Pitch Set Point:	0.053	Yaw Set Point:	2.533	X_WP:	0.100	Y_WP:	0.000	Y_WP:	0.500	X:	-0.001	Y:	0.029	Z:	0.049	yaw:	-145.132	yaw rate:	8.576	Roll:	2.123	Pitch:	-2.917	Yaw:	-202.821	Thrust:	100.000
Time:	4.252	Roll Set Point:	-0.065	Pitch Set Point:	0.053	Yaw Set Point:	2.533	X_WP:	0.100	Y_WP:	0.000	Y_WP:	0.500	X:	-0.001	Y:	0.029	Z:	0.049	yaw:	-145.148	yaw rate:	-1.608	Roll:	2.293	Pitch:	-2.767	Yaw:	-205.335	Thrust:	100.000
Time:	4.263	Roll Set Point:	-0.065	Pitch Set Point:	0.053	Yaw Set Point:	2.534	X_WP:	0.100	Y_WP:	0.000	Y_WP:	0.500	X:	-0.001	Y:	0.029	Z:	0.049	yaw:	-145.203	yaw rate:	-5.526	Roll:	2.469	Pitch:	-2.681	Yaw:	-206.265	Thrust:	100.000
Time:	4.274	Roll Set Point:	-0.065	Pitch Set Point:	0.053	Yaw Set Point:	2.534	X_WP:	0.100	Y_WP:	0.000	Y_WP:	0.500	X:	-0.001	Y:	0.029	Z:	0.049	yaw:	-145.206	yaw rate:	-0.274	Roll:	2.199	Pitch:	-2.758	Yaw:	-204.926	Thrust:	100.000
Time:	4.285	Roll Set Point:	-0.066	Pitch Set Point:	0.052	Yaw Set Point:	2.538	X_WP:	0.100	Y_WP:	0.000	Y_WP:	0.500	X:	-0.001	Y:	0.029	Z:	0.049	yaw:	-145.416	yaw rate:	-21.086	Roll:	3.140	Pitch:	-2.334	Yaw:	-210.251	Thrust:	100.000
Time:	4.295	Roll Set Point:	-0.066	Pitch Set Point:	0.052	Yaw Set Point:	2.537	X_WP:	0.100	Y_WP:	0.000	Y_WP:	0.500	X:	-0.001	Y:	0.029	Z:	0.049	yaw:	-145.382	yaw rate:	3.423	Roll:	2.108	Pitch:	-2.851	Yaw:	-204.116	Thrust:	100.000
Time:	4.307	Roll Set Point:	-0.065	Pitch Set Point:	0.053	Yaw Set Point:	2.534	X_WP:	0.100	Y_WP:	0.000	Y_WP:	0.500	X:	-0.001	Y:	0.029	Z:	0.049	yaw:	-145.164	yaw rate:	21.854	Roll:	1.685	Pitch:	-3.185	Yaw:	-200.634	Thrust:	100.000
Time:	4.318	Roll Set Point:	-0.066	Pitch Set Point:	0.053	Yaw Set Point:	2.537	X_WP:	0.100	Y_WP:	0.000	Y_WP:	0.500	X:	-0.001	Y:	0.029	Z:	0.049	yaw:	-145.340	yaw rate:	-17.660	Roll:	2.986	Pitch:	-2.463	Yaw:	-209.331	Thrust:	100.000
Time:	4.329	Roll Set Point:	-0.065	Pitch Set Point:	0.053	Yaw Set Point:	2.535	X_WP:	0.100	Y_WP:	0.000	Y_WP:	0.500	X:	-0.001	Y:	0.029	Z:	0.049	yaw:	-145.236	yaw rate:	10.427	Roll:	1.901	Pitch:	-2.984	Yaw:	-202.520	Thrust:	100.000
Time:	4.341	Roll Set Point:	-0.065	Pitch Set Point:	0.053	Yaw Set Point:	2.534	X_WP:	0.100	Y_WP:	0.000	Y_WP:	0.500	X:	-0.001	Y:	0.029	Z:	0.049	yaw:	-145.196	yaw rate:	3.957	Roll:	2.189	Pitch:	-2.836	Yaw:	-204.003	Thrust:	100.000
Time:	4.352	Roll Set Point:	-0.065	Pitch Set Point:	0.053	Yaw Set Point:	2.534	X_WP:	0.100	Y_WP:	0.000	Y_WP:	0.500	X:	-0.001	Y:	0.029	Z:	0.049	yaw:	-145.174	yaw rate:	2.280	Roll:	2.186	Pitch:	-2.783	Yaw:	-204.489	Thrust:	100.000
Time:	4.362	Roll Set Point:	-0.065	Pitch Set Point:	0.053	Yaw Set Point:	2.534	X_WP:	0.100	Y_WP:	0.000	Y_WP:	0.500	X:	-0.001	Y:	0.029	Z:	0.049	yaw:	-145.172	yaw rate:	0.174	Roll:	2.368	Pitch:	-2.841	Yaw:	-204.684	Thrust:	100.000
Time:	4.374	Roll Set Point:	-0.065	Pitch Set Point:	0.053	Yaw Set Point:	2.533	X_WP:	0.100	Y_WP:	0.000	Y_WP:	0.500	X:	-0.001	Y:	0.029	Z:	0.049	yaw:	-145.157	yaw rate:	1.492	Roll:	2.281	Pitch:	-2.826	Yaw:	-204.761	Thrust:	100.000
Time:	4.385	Roll Set Point:	-0.065	Pitch Set Point:	0.053	Yaw Set Point:	2.535	X_WP:	0.100	Y_WP:	0.000	Y_WP:	0.500	X:	-0.001	Y:	0.029	Z:	0.049	yaw:	-145.243	yaw rate:	-8.557	Roll:	2.512	Pitch:	-2.610	Yaw:	-207.034	Thrust:	100.000
Time:	4.396	Roll Set Point:	-0.065	Pitch Set Point:	0.053	Yaw Set Point:	2.533	X_WP:	0.100	Y_WP:	0.000	Y_WP:	0.500	X:	-0.001	Y:	0.029	Z:	0.049	yaw:	-145.121	yaw rate:	12.132	Roll:	2.082	Pitch:	-3.006	Yaw:	-201.834	Thrust:	100.000
Time:	4.407	Roll Set Point:	-0.065	Pitch Set Point:	0.053	Yaw Set Point:	2.535	X_WP:	0.100	Y_WP:	0.000	Y_WP:	0.500	X:	-0.001	Y:	0.029	Z:	0.049	yaw:	-145.223	yaw rate:	-10.139	Roll:	2.544	Pitch:	-2.602	Yaw:	-207.377	Thrust:	100.000
Time:	4.419	Roll Set Point:	-0.065	Pitch Set Point:	0.053	Yaw Set Point:	2.534	X_WP:	0.100	Y_WP:	0.000	Y_WP:	0.500	X:	-0.001	Y:	0.029	Z:	0.049	yaw:	-145.190	yaw rate:	3.253	Roll:	2.249	Pitch:	-2.864	Yaw:	-204.157	Thrust:	100.000
Time:	4.429	Roll Set Point:	-0.066	Pitch Set Point:	0.052	Yaw Set Point:	2.538	X_WP:	0.100	Y_WP:	0.000	Y_WP:	0.500	X:	-0.001	Y:	0.029	Z:	0.049	yaw:	-145.426	yaw rate:	-23.571	Roll:	3.138	Pitch:	-2.269	Yaw:	-210.978	Thrust:	100.000
Time:	4.443	Roll Set Point:	-0.065	Pitch Set Point:	0.053	Yaw Set Point:	2.533	X_WP:	0.100	Y_WP:	0.000	Y_WP:	0.500	X:	-0.001	Y:	0.029	Z:	0.049	yaw:	-145.115	yaw rate:	31.112	Roll:	1.561	Pitch:	-3.372	Yaw:	-199.635	Thrust:	100.000
Time:	4.454	Roll Set Point:	-0.065	Pitch Set Point:	0.053	Yaw Set Point:	2.534	X_WP:	0.100	Y_WP:	0.000	Y_WP:	0.500	X:	-0.001	Y:	0.029	Z:	0.049	yaw:	-145.164	yaw rate:	-4.922	Roll:	2.498	Pitch:	-2.687	Yaw:	-206.017	Thrust:	100.000
Time:	4.465	Roll Set Point:	-0.065	Pitch Set Point:	0.053	Yaw Set Point:	2.533	X_WP:	0.100	Y_WP:	0.000	Y_WP:	0.500	X:	-0.001	Y:	0.029	Z:	0.049	yaw:	-145.139	yaw rate:	2.530	Roll:	2.247	Pitch:	-2.813	Yaw:	-204.261	Thrust:	100.000
Time:	4.476	Roll Set Point:	-0.066	Pitch Set Point:	0.052	Yaw Set Point:	2.538	X_WP:	0.100	Y_WP:	0.000	Y_WP:	0.500	X:	-0.001	Y:	0.029	Z:	0.049	yaw:	-145.412	yaw rate:	-27.343	Roll:	3.172	Pitch:	-2.289	Yaw:	-211.702	Thrust:	100.000
Time:	4.486	Roll Set Point:	-0.065	Pitch Set Point:	0.053	Yaw Set Point:	2.534	X_WP:	0.100	Y_WP:	0.000	Y_WP:	0.500	X:	-0.001	Y:	0.029	Z:	0.049	yaw:	-145.160	yaw rate:	25.184	Roll:	1.515	Pitch:	-3.241	Yaw:	-198.525	Thrust:	100.000
Time:	4.497	Roll Set Point:	-0.065	Pitch Set Point:	0.053	Yaw Set Point:	2.533	X_WP:	0.100	Y_WP:	0.000	Y_WP:	0.500	X:	-0.001	Y:	0.029	Z:	0.049	yaw:	-145.153	yaw rate:	0.741	Roll:	2.419	Pitch:	-2.809	Yaw:	-204.523	Thrust:	100.000
Time:	4.510	Roll Set Point:	-0.066	Pitch Set Point:	0.052	Yaw Set Point:	2.537	X_WP:	0.100	Y_WP:	0.000	Y_WP:	0.500	X:	-0.001	Y:	0.029	Z:	0.049	yaw:	-145.353	yaw rate:	-19.994	Roll:	2.939	Pitch:	-2.492	Yaw:	-209.571	Thrust:	100.000
Time:	4.522	Roll Set Point:	-0.065	Pitch Set Point:	0.053	Yaw Set Point:	2.534	X_WP:	0.100	Y_WP:	0.000	Y_WP:	0.500	X:	-0.001	Y:	0.029	Z:	0.049	yaw:	-145.169	yaw rate:	3.542	Roll:	1.730	Pitch:	-3.155	Yaw:	-200.833	Thrust:	100.000
Time:	4.532	Roll Set Point:	-0.065	Pitch Set Point:	0.053	Yaw Set Point:	2.533	X_WP:	0.100	Y_WP:	0.000	Y_WP:	0.500	X:	-0.001	Y:	0.029	Z:	0.049	yaw:	-145.139	yaw rate:	3.039	Roll:	2.346	Pitch:	-2.838	Yaw:	-204.137	Thrust:	100.000
Time:	4.544	Roll Set Point:	-0.065	Pitch Set Point:	0.053	Yaw Set Point:	2.533	X_WP:	0.100	Y_WP:	0.000	Y_WP:	0.500	X:	-0.001	Y:	0.029	Z:	0.049	yaw:	-145.154	yaw rate:	-1.549	Roll:	2.369	Pitch:	-2.760	Yaw:	-205.333	Thrust:	100.000
Time:	4.555	Roll Set Point:	-0.065	Pitch Set Point:	0.053	Yaw Set Point:	2.535	X_WP:	0.100	Y_WP:	0.000	Y_WP:	0.500	X:	-0.001	Y:	0.029	Z:	0.049	yaw:	-145.231	yaw rate:	-7.675	Roll:	2.468	Pitch:	-2.654	Yaw:	-206.809	Thrust:	100.000
Time:	4.566	Roll Set Point:	-0.065	Pitch Set Point:	0.053	Yaw Set Point:	2.532	X_WP:	0.100	Y_WP:	0.000	Y_WP:	0.500	X:	-0.001	Y:	0.029	Z:	0.049	yaw:	-145.097	yaw rate:	13.429	Roll:	2.166	Pitch:	-2.981	Yaw:	-201.612	Thrust:	100.000
Time:	4.578	Roll Set Point:	-0.065	Pitch Set Point:	0.053	Yaw Set Point:	2.533	X_WP:	0.100	Y_WP:	0.000	Y_WP:	0.500	X:	-0.001	Y:	0.029	Z:	0.049	yaw:	-145.116	yaw rate:	-1.937	Roll:	2.313	Pitch:	-2.729	Yaw:	-205.370	Thrust:	100.000
Time:	4.588	Roll Set Point:	-0.065	Pitch Set Point:	0.053	Yaw Set Point:	2.533	X_WP:	0.100	Y_WP:	0.000	Y_WP:	0.500	X:	-0.001	Y:	0.029	Z:	0.049	yaw:	-145.126	yaw rate:	-0.973	Roll:	2.328	Pitch:	-2.828	Yaw:	-204.982	Thrust:	100.000
Time:	4.599	Roll Set Point:	-0.065	Pitch Set Point:	0.053	Yaw Set Point:	2.533	X_WP:	0.100	Y_WP:	0.000	Y_WP:	0.500	X:	-0.001	Y:	0.029	Z:	0.049	yaw:	-145.117	yaw rate:	0.907	Roll:	2.369	Pitch:	-2.712	Yaw:	-204.612	Thrust:	100.000
Time:	4.611	Roll Set Point:	-0.065	Pitch Set Point:	0.053	Yaw Set Point:	2.534	X_WP:	0.100	Y_WP:	0.000	Y_WP:	0.500	X:	-0.001	Y:	0.029	Z:	0.049	yaw:	-145.187	yaw rate:	-7.000	Roll:	2.468	Pitch:	-2.748	Yaw:	-206.617	Thrust:	100.000
Time:	4.621	Roll Set Point:	-0.065	Pitch Set Point:	0.053	Yaw Set Point:	2.534	X_WP:	0.100	Y_WP:	0.000	Y_WP:	0.500	X:	-0.001	Y:	0.029	Z:	0.049	yaw:	-145.187	yaw rate:	0.000	Roll:	2.363	Pitch:	-2.791	Yaw:	-204.861	Thrust:	100.000
Time:	4.633	Roll Set Point:	-0.065	Pitch Set Point:	0.052	Yaw Set Point:	2.536	X_WP:	0.100	Y_WP:	0.000	Y_WP:	0.500	X:	-0.001	Y:	0.029	Z:	0.049	yaw:	-145.285	yaw rate:	-9.851	Roll:	2.544	Pitch:	-2.615	Yaw:	-207.407	Thrust:	100.000
Time:	4.645	Roll Set Point:	-0.065	Pitch Set Point:	0.053	Yaw Set Point:	2.533	X_WP:	0.100	Y_WP:	0.000	Y_WP:	0.500	X:	-0.001	Y:	0.029	Z:	0.049	yaw:	-145.133	yaw rate:	15.278	Roll:	2.109	Pitch:	-2.971	Yaw:	-201.495	Thrust:	100.000
Time:	4.656	Roll Set Point:	-0.065	Pitch Set Point:	0.053	Yaw Set Point:	2.532	X_WP:	0.100	Y_WP:	0.000	Y_WP:	0.500	X:	-0.001	Y:	0.029	Z:	0.049	yaw:	-145.084	yaw rate:	4.824	Roll:	2.254	Pitch:	-2.969	Yaw:	-203.638	Thrust:	100.000
Time:	4.668	Roll Set Point:	-0.065	Pitch Set Point:	0.053	Yaw Set Point:	2.533	X_WP:	0.100	Y_WP:	0.000	Y_WP:	0.500	X:	-0.001	Y:	0.029	Z:	0.049	yaw:	-145.117	yaw rate:	-3.239	Roll:	2.390	Pitch:	-2.789	Yaw:	-205.732	Thrust:	100.000
Time:	4.683	Roll Set Point:	-0.065	Pitch Set Point:	0.052	Yaw Set Point:	2.535	X_WP:	0.100	Y_WP:	0.000	Y_WP:	0.500	X:	-0.001	Y:	0.029	Z:	0.049	yaw:	-145.262	yaw rate:	-14.556	Roll:	2.705	Pitch:	-2.695	Yaw:	-208.354	Thrust:	100.000
Time:	4.693	Roll Set Point:	-0.065	Pitch Set Point:	0.053	Yaw Set Point:	2.533	X_WP:	0.100	Y_WP:	0.000	Y_WP:	0.500	X:	-0.001	Y:	0.029	Z:	0.049	yaw:	-145.123	yaw rate:	8.296	Roll:	2.116	Pitch:	-3.026	Yaw:	-201.280	Thrust:	100.000
Time:	4.706	Roll Set Point:	-0.065	Pitch Set Point:	0.053	Yaw Set Point:	2.533	X_WP:	0.100	Y_WP:	0.000	Y_WP:	0.500	X:	-0.001	Y:	0.029	Z:	0.049	yaw:	-145.123	yaw rate:	8.296	Roll:	2.341	Pitch:	-2.783	Yaw:	-205.241	Thrust:	100.000
Time:	4.717	Roll Set Point:	-0.065	Pitch Set Point:	0.053	Yaw Set Point:	2.535	X_WP:	0.100	Y_WP:	0.000	Y_WP:	0.500	X:	-0.001	Y:	0.029	Z:	0.049	yaw:	-145.233	yaw rate:	3.100	Roll:	2.677	Pitch:	-2.680	Yaw:	-207.585	Thrust:	100.000
Time:	4.729	Roll Set Point:	-0.065	Pitch Set Point:	0.053	Yaw Set Point:	2.532	X_WP:	0.100	Y_WP:	0.000	Y_WP:	0.500	X:	-0.001	Y:	0.029	Z:	0.049	yaw:	-145.069	yaw rate:	16.389	Roll:	1.965	Pitch:	-3.102	Yaw:	-201.140	Thrust:	100.000
Time:	4.745	Roll Set Point:	-0.065	Pitch Set Point:	0.053	Yaw Set Point:	2.535	X_WP:	0.100	Y_WP:	0.000	Y_WP:	0.500	X:	-0.001	Y:	0.029	Z:	0.049	yaw:	-145.242	yaw rate:	-17.290	Roll:	2.711	Pitch:	-2.730	Yaw:	-208.826	Thrust:	100.000
Time:	4.756	Roll Set Point:	-0.065	Pitch Set Point:	0.053	Yaw Set Point:	2.535	X_WP:	0.100	Y_WP:	0.000	Y_WP:	0.500	X:	-0.001	Y:	0.029	Z:	0.049	yaw:	-145.229	yaw rate:	1.226	Roll:	2.420	Pitch:	-2.812	Yaw:	-204.694	Thrust:	100.000
Time:	4.766	Roll Set Point:	-0.066	Pitch Set Point:	0.052	Yaw Set Point:	2.537	X_WP:	0.100	Y_WP:	0.000	Y_WP:	0.500	X:	-0.001	Y:	0.029	Z:	0.049	yaw:	-145.341	yaw rate:	-11.111	Roll:	2.824	Pitch:	-2.458	Yaw:	-207.840	Thrust:	100.000
Time:	4.778	Roll Set Point:	-0.065	Pitch Set Point:	0.053	Yaw Set Point:	2.534	X_WP:	0.100	Y_WP:	0.000	Y_WP:	0.500	X:	-0.001	Y:	0.029	Z:	0.049	yaw:	-145.216	yaw rate:	12.453	Roll:	1.897	Pitch:	-3.079	Yaw:	-202.461	Thrust:	100.000
Time:	4.789	Roll Set Point:	-0.066	Pitch Set Point:	0.052	Yaw Set Point:	2.537	X_WP:	0.100	Y_WP:	0.000	Y_WP:	0.500	X:	-0.001	Y:	0.029	Z:	0.049	yaw:	-145.382	yaw rate:	-16.614	Roll:	2.971	Pitch:	-2.453	Yaw:	-209.140	Thrust:	100.000
Time:	4.801	Roll Set Point:	-0.065	Pitch Set Point:	0.053	Yaw Set Point:	2.535	X_WP:	0.100	Y_WP:	0.000	Y_WP:	0.500	X:	-0.001	Y:	0.029	Z:	0.049	yaw:	-145.251	yaw rate:	13.131	Roll:	1.841	Pitch:	-3.030	Yaw:	-202.358	Thrust:	100.000
Time:	4.816	Roll Set Point:	-0.065	Pitch Set Point:	0.053	Yaw Set Point:	2.534	X_WP:	0.100	Y_WP:	0.000	Y_WP:	0.500	X:	-0.001	Y:	0.029	Z:	0.049	yaw:	-145.170	yaw rate:	25.956	Roll:	2.342	Pitch:	-3.054	Yaw:	-204.292	Thrust:	100.000
Time:	4.826	Roll Set Point:	-0.066	Pitch Set Point:	0.052	Yaw Set Point:	2.537	X_WP:	0.100	Y_WP:	0.000	Y_WP:	0.500	X:	-0.001	Y:	0.029	Z:	0.049	yaw:	-145.365	yaw rate:	-19.504	Roll:	3.003	Pitch:	-2.387	Yaw:	-209.922	Thrust:	100.000
Time:	4.839	Roll Set Point:	-0.065	Pitch Set Point:	0.053	Yaw Set Point:	2.534	X_WP:	0.100	Y_WP:	0.000	Y_WP:	0.500	X:	-0.001	Y:	0.029	Z:	0.049	yaw:	-145.212	yaw rate:	15.254	Roll:	1.847	Pitch:	-3.105	Yaw:	-202.089	Thrust:	100.000
Time:	4.853	Roll Set Point:	-0.065	Pitch Set Point:	0.053	Yaw Set Point:	2.534	X_WP:	0.100	Y_WP:	0.000	Y_WP:	0.500	X:	-0.001	Y:	0.029	Z:	0.049	yaw:	-145.181	yaw rate:	3.139	Roll:	2.296	Pitch:	-2.904	Yaw:	-204.686	Thrust:	100.000
Time:	4.864	Roll Set Point:	-0.065	Pitch Set Point:	0.053	Yaw Set Point:	2.534	X_WP:	0.100	Y_WP:	0.000	Y_WP:	0.500	X:	-0.001	Y:	0.029	Z:	0.049	yaw:	-145.208	yaw rate:	-2.730	Roll:	2.496	Pitch:	-2.764	Yaw:	-205.790	Thrust:	100.000
Time:	4.876	Roll Set Point:	-0.065	Pitch Set Point:	0.053	Yaw Set Point:	2.534	X_WP:	0.100	Y_WP:	0.000	Y_WP:	0.500	X:	-0.001	Y:	0.029	Z:	0.049	yaw:	-145.214	yaw rate:	-0.570	Roll:	2.376	Pitch:	-2.821	Yaw:	-205.291	Thrust:	100.000
Time:	4.888	Roll Set Point:	-0.065	Pitch Set Point:	0.053	Yaw Set Point:	2.534	X_WP:	0.100	Y_WP:	0.000	Y_WP:	0.500	X:	-0.001	Y:	0.029	Z:	0.049	yaw:	-145.185	yaw rate:	2.905	Roll:	2.370	Pitch:	-2.843	Yaw:	-204.363	Thrust:	100.000
Time:	4.899	Roll Set Point:	-0.065	Pitch Set Point:	0.053	Yaw Set Point:	2.533	X_WP:	0.100	Y_WP:	0.000	Y_WP:	0.500	X:	-0.001	Y:	0.029	Z:	0.049	yaw:	-145.150	yaw rate:	3.439	Roll:	2.160	Pitch:	-2.846	Yaw:	-204.058	Thrust:	100.000
Time:	4.910	Roll Set Point:	-0.065	Pitch Set Point:	0.053	Yaw Set Point:	2.534	X_WP:	0.100	Y_WP:	0.000	Y_WP:	0.500	X:	-0.001	Y:	0.029	Z:	0.049	yaw:	-145.179	yaw rate:	-2.851	Roll:	2.431	Pitch:	-2.739	Yaw:	-205.524	Thrust:	100.000
Time:	4.922	Roll Set Point:	-0.065	Pitch Set Point:	0.053	Yaw Set Point:	2.534	X_WP:	0.100	Y_WP:	0.000	Y_WP:	0.500	X:	-0.001	Y:	0.029	Z:	0.049	yaw:	-145.181	yaw rate:	-0.180	Roll:	2.452	Pitch:	-2.826	Yaw:	-205.084	Thrust:	100.000
Time:	4.933	Roll Set Point:	-0.066	Pitch Set Point:	0.052	Yaw Set Point:	2.538	X_WP:	0.100	Y_WP:	0.000	Y_WP:	0.500	X:	-0.001	Y:	0.029	Z:	0.049	yaw:	-145.414	yaw rate:	-23.343	Roll:	3.046	Pitch:	-2.316	Yaw:	-210.522	Thrust:	100.000
Time:	4.946	Roll Set Point:	-0.065	Pitch Set Point:	0.053	Yaw Set Point:	2.535	X_WP:	0.100	Y_WP:	0.000	Y_WP:	0.500	X:	-0.001	Y:	0.029	Z:	0.049	yaw:	-145.220	yaw rate:	-2.837	Roll:	1.825	Pitch:	-3.173	Yaw:	-201.218	Thrust:	100.000
Time:	4.958	Roll Set Point:	-0.065	Pitch Set Point:	0.053	Yaw Set Point:	2.535	X_WP:	0.100	Y_WP:	0.000	Y_WP:	0.500	X:	-0.001	Y:	0.029	Z:	0.049	yaw:	-145.248	yaw rate:	-2.790	Roll:	2.521	Pitch:	-2.712	Yaw:	-205.818	Thrust:	100.000
Time:	4.974	Roll Set Point:	-0.065	Pitch Set Point:	0.053	Yaw Set Point:	2.533	X_WP:	0.100	Y_WP:	0.000	Y_WP:	0.500	X:	-0.001	Y:	0.029	Z:	0.049	yaw:	-145.133	yaw rate:	11.446	Roll:	2.150	Pitch:	-3.114	Yaw:	-203.996	Thrust:	100.000
