Time:	2.035	Roll Set Point:	-0.065	Pitch Set Point:	0.053	Yaw Set Point:	2.533	X_WP:	0.100	Y_WP:	0.000	Y_WP:	0.500	X:	-0.001	Y:	0.029	Z:	0.049	yaw:	-145.106	yaw rate:	14.034	Roll:	1.926	Pitch:	-2.368	Yaw:	-202.606	Thrust:	24.797
Time:	2.046	Roll Set Point:	-0.065	Pitch Set Point:	0.053	Yaw Set Point:	2.533	X_WP:	0.100	Y_WP:	0.000	Y_WP:	0.500	X:	-0.001	Y:	0.029	Z:	0.049	yaw:	-145.138	yaw rate:	-3.272	Roll:	2.026	Pitch:	-2.315	Yaw:	-203.994	Thrust:	25.399
Time:	2.060	Roll Set Point:	-0.065	Pitch Set Point:	0.053	Yaw Set Point:	2.535	X_WP:	0.100	Y_WP:	0.000	Y_WP:	0.500	X:	-0.001	Y:	0.029	Z:	0.049	yaw:	-145.223	yaw rate:	-8.406	Roll:	2.094	Pitch:	-2.331	Yaw:	-205.777	Thrust:	26.440
Time:	2.071	Roll Set Point:	-0.065	Pitch Set Point:	0.053	Yaw Set Point:	2.534	X_WP:	0.100	Y_WP:	0.000	Y_WP:	0.500	X:	-0.001	Y:	0.029	Z:	0.049	yaw:	-145.188	yaw rate:	23.400	Roll:	1.870	Pitch:	-2.413	Yaw:	-203.807	Thrust:	26.746
Time:	2.081	Roll Set Point:	-0.065	Pitch Set Point:	0.053	Yaw Set Point:	2.534	X_WP:	0.100	Y_WP:	0.000	Y_WP:	0.500	X:	-0.001	Y:	0.029	Z:	0.049	yaw:	-145.188	yaw rate:	23.400	Roll:	1.937	Pitch:	-2.375	Yaw:	-204.726	Thrust:	26.970
Time:	2.093	Roll Set Point:	-0.066	Pitch Set Point:	0.052	Yaw Set Point:	2.539	X_WP:	0.100	Y_WP:	0.000	Y_WP:	0.500	X:	-0.001	Y:	0.029	Z:	0.049	yaw:	-145.471	yaw rate:	-28.338	Roll:	2.822	Pitch:	-1.882	Yaw:	-211.677	Thrust:	28.828
Time:	2.104	Roll Set Point:	-0.065	Pitch Set Point:	0.053	Yaw Set Point:	2.533	X_WP:	0.100	Y_WP:	0.000	Y_WP:	0.500	X:	-0.001	Y:	0.029	Z:	0.049	yaw:	-145.144	yaw rate:	16.789	Roll:	0.909	Pitch:	-2.930	Yaw:	-196.628	Thrust:	27.019
Time:	2.114	Roll Set Point:	-0.065	Pitch Set Point:	0.053	Yaw Set Point:	2.533	X_WP:	0.100	Y_WP:	0.000	Y_WP:	0.500	X:	-0.001	Y:	0.029	Z:	0.049	yaw:	-145.156	yaw rate:	-1.218	Roll:	1.951	Pitch:	-2.442	Yaw:	-205.028	Thrust:	28.960
Time:	2.126	Roll Set Point:	-0.065	Pitch Set Point:	0.053	Yaw Set Point:	2.533	X_WP:	0.100	Y_WP:	0.000	Y_WP:	0.500	X:	-0.001	Y:	0.029	Z:	0.049	yaw:	-145.156	yaw rate:	-1.218	Roll:	1.944	Pitch:	-2.389	Yaw:	-205.191	Thrust:	30.243
Time:	2.137	Roll Set Point:	-0.066	Pitch Set Point:	0.052	Yaw Set Point:	2.539	X_WP:	0.100	Y_WP:	0.000	Y_WP:	0.500	X:	-0.001	Y:	0.029	Z:	0.049	yaw:	-145.477	yaw rate:	-11.020	Roll:	2.888	Pitch:	-1.750	Yaw:	-213.218	Thrust:	30.756
Time:	2.147	Roll Set Point:	-0.066	Pitch Set Point:	0.052	Yaw Set Point:	2.539	X_WP:	0.100	Y_WP:	0.000	Y_WP:	0.500	X:	-0.001	Y:	0.029	Z:	0.049	yaw:	-145.477	yaw rate:	-11.020	Roll:	1.963	Pitch:	-2.378	Yaw:	-205.215	Thrust:	30.467
Time:	2.159	Roll Set Point:	-0.065	Pitch Set Point:	0.053	Yaw Set Point:	2.533	X_WP:	0.100	Y_WP:	0.000	Y_WP:	0.500	X:	-0.001	Y:	0.029	Z:	0.049	yaw:	-145.129	yaw rate:	12.032	Roll:	1.018	Pitch:	-3.020	Yaw:	-197.492	Thrust:	30.996
Time:	2.171	Roll Set Point:	-0.065	Pitch Set Point:	0.053	Yaw Set Point:	2.532	X_WP:	0.100	Y_WP:	0.000	Y_WP:	0.500	X:	-0.001	Y:	0.029	Z:	0.049	yaw:	-145.069	yaw rate:	6.077	Roll:	1.776	Pitch:	-2.439	Yaw:	-203.318	Thrust:	31.925
Time:	2.181	Roll Set Point:	-0.066	Pitch Set Point:	0.052	Yaw Set Point:	2.538	X_WP:	0.100	Y_WP:	0.000	Y_WP:	0.500	X:	-0.001	Y:	0.029	Z:	0.049	yaw:	-145.417	yaw rate:	-34.883	Roll:	2.938	Pitch:	-1.826	Yaw:	-213.525	Thrust:	33.623
Time:	2.193	Roll Set Point:	-0.065	Pitch Set Point:	0.053	Yaw Set Point:	2.535	X_WP:	0.100	Y_WP:	0.000	Y_WP:	0.500	X:	-0.001	Y:	0.029	Z:	0.049	yaw:	-145.221	yaw rate:	19.594	Roll:	1.409	Pitch:	-2.722	Yaw:	-200.925	Thrust:	33.268
Time:	2.205	Roll Set Point:	-0.065	Pitch Set Point:	0.053	Yaw Set Point:	2.534	X_WP:	0.100	Y_WP:	0.000	Y_WP:	0.500	X:	-0.001	Y:	0.029	Z:	0.049	yaw:	-145.214	yaw rate:	0.757	Roll:	1.981	Pitch:	-2.396	Yaw:	-204.803	Thrust:	33.756
Time:	2.216	Roll Set Point:	-0.065	Pitch Set Point:	0.053	Yaw Set Point:	2.534	X_WP:	0.100	Y_WP:	0.000	Y_WP:	0.500	X:	-0.001	Y:	0.029	Z:	0.049	yaw:	-145.179	yaw rate:	3.441	Roll:	1.847	Pitch:	-2.499	Yaw:	-204.099	Thrust:	34.473
Time:	2.226	Roll Set Point:	-0.065	Pitch Set Point:	0.053	Yaw Set Point:	2.534	X_WP:	0.100	Y_WP:	0.000	Y_WP:	0.500	X:	-0.001	Y:	0.029	Z:	0.049	yaw:	-145.183	yaw rate:	-0.306	Roll:	1.966	Pitch:	-2.395	Yaw:	-204.895	Thrust:	33.984
Time:	2.237	Roll Set Point:	-0.065	Pitch Set Point:	0.053	Yaw Set Point:	2.533	X_WP:	0.100	Y_WP:	0.000	Y_WP:	0.500	X:	-0.001	Y:	0.029	Z:	0.049	yaw:	-145.139	yaw rate:	4.312	Roll:	1.902	Pitch:	-2.409	Yaw:	-203.686	Thrust:	35.317
Time:	2.247	Roll Set Point:	-0.065	Pitch Set Point:	0.053	Yaw Set Point:	2.532	X_WP:	0.100	Y_WP:	0.000	Y_WP:	0.500	X:	-0.001	Y:	0.029	Z:	0.049	yaw:	-145.082	yaw rate:	5.774	Roll:	1.810	Pitch:	-2.586	Yaw:	-203.088	Thrust:	35.221
Time:	2.261	Roll Set Point:	-0.065	Pitch Set Point:	0.053	Yaw Set Point:	2.533	X_WP:	0.100	Y_WP:	0.000	Y_WP:	0.500	X:	-0.001	Y:	0.029	Z:	0.049	yaw:	-145.154	yaw rate:	-7.212	Roll:	2.102	Pitch:	-2.311	Yaw:	-206.826	Thrust:	40.138
Time:	2.272	Roll Set Point:	-0.065	Pitch Set Point:	0.053	Yaw Set Point:	2.534	X_WP:	0.100	Y_WP:	0.000	Y_WP:	0.500	X:	-0.001	Y:	0.029	Z:	0.049	yaw:	-145.165	yaw rate:	-1.118	Roll:	2.053	Pitch:	-2.425	Yaw:	-205.248	Thrust:	37.855
Time:	2.282	Roll Set Point:	-0.065	Pitch Set Point:	0.053	Yaw Set Point:	2.533	X_WP:	0.100	Y_WP:	0.000	Y_WP:	0.500	X:	-0.001	Y:	0.029	Z:	0.049	yaw:	-145.115	yaw rate:	5.000	Roll:	1.735	Pitch:	-2.409	Yaw:	-203.319	Thrust:	36.504
Time:	2.293	Roll Set Point:	-0.066	Pitch Set Point:	0.053	Yaw Set Point:	2.536	X_WP:	0.100	Y_WP:	0.000	Y_WP:	0.500	X:	-0.001	Y:	0.029	Z:	0.049	yaw:	-145.329	yaw rate:	-21.406	Roll:	2.772	Pitch:	-1.996	Yaw:	-210.338	Thrust:	38.597
Time:	2.304	Roll Set Point:	-0.065	Pitch Set Point:	0.053	Yaw Set Point:	2.535	X_WP:	0.100	Y_WP:	0.000	Y_WP:	0.500	X:	-0.001	Y:	0.029	Z:	0.049	yaw:	-145.226	yaw rate:	10.333	Roll:	1.596	Pitch:	-2.686	Yaw:	-202.745	Thrust:	39.474
Time:	2.315	Roll Set Point:	-0.065	Pitch Set Point:	0.053	Yaw Set Point:	2.533	X_WP:	0.100	Y_WP:	0.000	Y_WP:	0.500	X:	-0.001	Y:	0.029	Z:	0.049	yaw:	-145.149	yaw rate:	7.629	Roll:	1.756	Pitch:	-2.567	Yaw:	-203.062	Thrust:	39.687
Time:	2.327	Roll Set Point:	-0.066	Pitch Set Point:	0.052	Yaw Set Point:	2.537	X_WP:	0.100	Y_WP:	0.000	Y_WP:	0.500	X:	-0.001	Y:	0.029	Z:	0.049	yaw:	-145.365	yaw rate:	-21.579	Roll:	2.695	Pitch:	-2.020	Yaw:	-210.169	Thrust:	41.703
Time:	2.338	Roll Set Point:	-0.065	Pitch Set Point:	0.053	Yaw Set Point:	2.533	X_WP:	0.100	Y_WP:	0.000	Y_WP:	0.500	X:	-0.001	Y:	0.029	Z:	0.049	yaw:	-145.155	yaw rate:	21.065	Roll:	1.315	Pitch:	-2.857	Yaw:	-199.565	Thrust:	39.566
Time:	2.348	Roll Set Point:	-0.065	Pitch Set Point:	0.053	Yaw Set Point:	2.535	X_WP:	0.100	Y_WP:	0.000	Y_WP:	0.500	X:	-0.001	Y:	0.029	Z:	0.049	yaw:	-145.230	yaw rate:	-7.572	Roll:	2.145	Pitch:	-2.244	Yaw:	-206.762	Thrust:	39.937
Time:	2.359	Roll Set Point:	-0.065	Pitch Set Point:	0.053	Yaw Set Point:	2.533	X_WP:	0.100	Y_WP:	0.000	Y_WP:	0.500	X:	-0.001	Y:	0.029	Z:	0.049	yaw:	-145.130	yaw rate:	10.079	Roll:	1.746	Pitch:	-2.616	Yaw:	-202.663	Thrust:	42.860
Time:	2.370	Roll Set Point:	-0.065	Pitch Set Point:	0.053	Yaw Set Point:	2.533	X_WP:	0.100	Y_WP:	0.000	Y_WP:	0.500	X:	-0.001	Y:	0.029	Z:	0.049	yaw:	-145.136	yaw rate:	-0.634	Roll:	2.027	Pitch:	-2.457	Yaw:	-205.004	Thrust:	42.819
Time:	2.380	Roll Set Point:	-0.065	Pitch Set Point:	0.053	Yaw Set Point:	2.533	X_WP:	0.100	Y_WP:	0.000	Y_WP:	0.500	X:	-0.001	Y:	0.029	Z:	0.049	yaw:	-145.139	yaw rate:	-0.355	Roll:	1.961	Pitch:	-2.415	Yaw:	-204.770	Thrust:	41.748
Time:	2.392	Roll Set Point:	-0.065	Pitch Set Point:	0.053	Yaw Set Point:	2.533	X_WP:	0.100	Y_WP:	0.000	Y_WP:	0.500	X:	-0.001	Y:	0.029	Z:	0.049	yaw:	-145.138	yaw rate:	0.160	Roll:	2.051	Pitch:	-2.395	Yaw:	-204.921	Thrust:	44.885
Time:	2.403	Roll Set Point:	-0.065	Pitch Set Point:	0.053	Yaw Set Point:	2.535	X_WP:	0.100	Y_WP:	0.000	Y_WP:	0.500	X:	-0.001	Y:	0.029	Z:	0.049	yaw:	-145.229	yaw rate:	-9.097	Roll:	2.127	Pitch:	-2.336	Yaw:	-207.143	Thrust:	44.515
Time:	2.414	Roll Set Point:	-0.065	Pitch Set Point:	0.053	Yaw Set Point:	2.535	X_WP:	0.100	Y_WP:	0.000	Y_WP:	0.500	X:	-0.001	Y:	0.029	Z:	0.049	yaw:	-145.226	yaw rate:	0.315	Roll:	1.972	Pitch:	-2.417	Yaw:	-204.905	Thrust:	44.921
Time:	2.426	Roll Set Point:	-0.065	Pitch Set Point:	0.053	Yaw Set Point:	2.535	X_WP:	0.100	Y_WP:	0.000	Y_WP:	0.500	X:	-0.001	Y:	0.029	Z:	0.049	yaw:	-145.227	yaw rate:	-0.130	Roll:	2.063	Pitch:	-2.474	Yaw:	-205.117	Thrust:	46.830
Time:	2.437	Roll Set Point:	-0.065	Pitch Set Point:	0.053	Yaw Set Point:	2.534	X_WP:	0.100	Y_WP:	0.000	Y_WP:	0.500	X:	-0.001	Y:	0.029	Z:	0.049	yaw:	-145.188	yaw rate:	3.931	Roll:	1.834	Pitch:	-2.533	Yaw:	-204.134	Thrust:	47.254
Time:	2.447	Roll Set Point:	-0.065	Pitch Set Point:	0.053	Yaw Set Point:	2.532	X_WP:	0.100	Y_WP:	0.000	Y_WP:	0.500	X:	-0.001	Y:	0.029	Z:	0.049	yaw:	-145.097	yaw rate:	9.062	Roll:	1.805	Pitch:	-2.548	Yaw:	-202.233	Thrust:	44.447
Time:	2.459	Roll Set Point:	-0.065	Pitch Set Point:	0.053	Yaw Set Point:	2.533	X_WP:	0.100	Y_WP:	0.000	Y_WP:	0.500	X:	-0.001	Y:	0.029	Z:	0.049	yaw:	-145.132	yaw rate:	-3.487	Roll:	2.121	Pitch:	-2.432	Yaw:	-205.743	Thrust:	48.854
Time:	2.470	Roll Set Point:	-0.065	Pitch Set Point:	0.053	Yaw Set Point:	2.533	X_WP:	0.100	Y_WP:	0.000	Y_WP:	0.500	X:	-0.001	Y:	0.029	Z:	0.049	yaw:	-145.143	yaw rate:	-1.071	Roll:	2.068	Pitch:	-2.465	Yaw:	-205.117	Thrust:	47.041
Time:	2.480	Roll Set Point:	-0.065	Pitch Set Point:	0.053	Yaw Set Point:	2.535	X_WP:	0.100	Y_WP:	0.000	Y_WP:	0.500	X:	-0.001	Y:	0.029	Z:	0.049	yaw:	-145.219	yaw rate:	-7.652	Roll:	2.104	Pitch:	-2.291	Yaw:	-206.767	Thrust:	47.537
Time:	2.492	Roll Set Point:	-0.065	Pitch Set Point:	0.053	Yaw Set Point:	2.535	X_WP:	0.100	Y_WP:	0.000	Y_WP:	0.500	X:	-0.001	Y:	0.029	Z:	0.049	yaw:	-145.220	yaw rate:	-0.107	Roll:	1.992	Pitch:	-2.449	Yaw:	-205.202	Thrust:	51.640
Time:	2.503	Roll Set Point:	-0.066	Pitch Set Point:	0.052	Yaw Set Point:	2.537	X_WP:	0.100	Y_WP:	0.000	Y_WP:	0.500	X:	-0.001	Y:	0.029	Z:	0.049	yaw:	-145.365	yaw rate:	-14.482	Roll:	2.625	Pitch:	-2.181	Yaw:	-208.611	Thrust:	49.375
Time:	2.513	Roll Set Point:	-0.066	Pitch Set Point:	0.052	Yaw Set Point:	2.538	X_WP:	0.100	Y_WP:	0.000	Y_WP:	0.500	X:	-0.001	Y:	0.029	Z:	0.049	yaw:	-145.441	yaw rate:	-7.601	Roll:	2.163	Pitch:	-2.307	Yaw:	-207.071	Thrust:	50.571
Time:	2.525	Roll Set Point:	-0.065	Pitch Set Point:	0.053	Yaw Set Point:	2.533	X_WP:	0.100	Y_WP:	0.000	Y_WP:	0.500	X:	-0.001	Y:	0.029	Z:	0.049	yaw:	-145.142	yaw rate:	29.878	Roll:	1.194	Pitch:	-2.926	Yaw:	-198.580	Thrust:	52.671
Time:	2.536	Roll Set Point:	-0.065	Pitch Set Point:	0.053	Yaw Set Point:	2.533	X_WP:	0.100	Y_WP:	0.000	Y_WP:	0.500	X:	-0.001	Y:	0.029	Z:	0.049	yaw:	-145.105	yaw rate:	3.752	Roll:	1.927	Pitch:	-2.626	Yaw:	-203.777	Thrust:	50.819
Time:	2.547	Roll Set Point:	-0.066	Pitch Set Point:	0.052	Yaw Set Point:	2.537	X_WP:	0.100	Y_WP:	0.000	Y_WP:	0.500	X:	-0.001	Y:	0.029	Z:	0.049	yaw:	-145.366	yaw rate:	-26.110	Roll:	2.736	Pitch:	-1.977	Yaw:	-211.352	Thrust:	53.011
Time:	2.559	Roll Set Point:	-0.065	Pitch Set Point:	0.053	Yaw Set Point:	2.535	X_WP:	0.100	Y_WP:	0.000	Y_WP:	0.500	X:	-0.001	Y:	0.029	Z:	0.049	yaw:	-145.229	yaw rate:	13.694	Roll:	1.539	Pitch:	-2.726	Yaw:	-201.987	Thrust:	53.541
Time:	2.570	Roll Set Point:	-0.065	Pitch Set Point:	0.052	Yaw Set Point:	2.535	X_WP:	0.100	Y_WP:	0.000	Y_WP:	0.500	X:	-0.001	Y:	0.029	Z:	0.049	yaw:	-145.260	yaw rate:	-3.136	Roll:	2.027	Pitch:	-2.428	Yaw:	-205.772	Thrust:	52.184
Time:	2.580	Roll Set Point:	-0.065	Pitch Set Point:	0.053	Yaw Set Point:	2.532	X_WP:	0.100	Y_WP:	0.000	Y_WP:	0.500	X:	-0.001	Y:	0.029	Z:	0.049	yaw:	-145.080	yaw rate:	18.067	Roll:	1.621	Pitch:	-2.733	Yaw:	-199.859	Thrust:	52.387
Time:	2.592	Roll Set Point:	-0.065	Pitch Set Point:	0.053	Yaw Set Point:	2.534	X_WP:	0.100	Y_WP:	0.000	Y_WP:	0.500	X:	-0.001	Y:	0.029	Z:	0.049	yaw:	-145.178	yaw rate:	-9.827	Roll:	2.377	Pitch:	-2.374	Yaw:	-207.252	Thrust:	57.793
Time:	2.603	Roll Set Point:	-0.065	Pitch Set Point:	0.053	Yaw Set Point:	2.533	X_WP:	0.100	Y_WP:	0.000	Y_WP:	0.500	X:	-0.001	Y:	0.029	Z:	0.049	yaw:	-145.124	yaw rate:	5.402	Roll:	1.785	Pitch:	-2.514	Yaw:	-203.554	Thrust:	54.836
Time:	2.613	Roll Set Point:	-0.066	Pitch Set Point:	0.052	Yaw Set Point:	2.539	X_WP:	0.100	Y_WP:	0.000	Y_WP:	0.500	X:	-0.001	Y:	0.029	Z:	0.049	yaw:	-145.460	yaw rate:	-33.586	Roll:	2.965	Pitch:	-1.945	Yaw:	-213.477	Thrust:	55.859
Time:	2.627	Roll Set Point:	-0.065	Pitch Set Point:	0.053	Yaw Set Point:	2.533	X_WP:	0.100	Y_WP:	0.000	Y_WP:	0.500	X:	-0.001	Y:	0.029	Z:	0.049	yaw:	-145.103	yaw rate:	35.701	Roll:	1.212	Pitch:	-3.051	Yaw:	-198.452	Thrust:	63.207
Time:	2.638	Roll Set Point:	-0.065	Pitch Set Point:	0.053	Yaw Set Point:	2.533	X_WP:	0.100	Y_WP:	0.000	Y_WP:	0.500	X:	-0.001	Y:	0.029	Z:	0.049	yaw:	-145.152	yaw rate:	9.726	Roll:	2.207	Pitch:	-2.425	Yaw:	-206.037	Thrust:	57.124
Time:	2.648	Roll Set Point:	-0.066	Pitch Set Point:	0.052	Yaw Set Point:	2.538	X_WP:	0.100	Y_WP:	0.000	Y_WP:	0.500	X:	-0.001	Y:	0.029	Z:	0.049	yaw:	-145.393	yaw rate:	-24.111	Roll:	2.779	Pitch:	-1.913	Yaw:	-211.309	Thrust:	55.268
Time:	2.660	Roll Set Point:	-0.066	Pitch Set Point:	0.052	Yaw Set Point:	2.538	X_WP:	0.100	Y_WP:	0.000	Y_WP:	0.500	X:	-0.001	Y:	0.029	Z:	0.049	yaw:	-145.393	yaw rate:	-24.111	Roll:	2.045	Pitch:	-2.486	Yaw:	-205.315	Thrust:	59.792
Time:	2.671	Roll Set Point:	-0.065	Pitch Set Point:	0.053	Yaw Set Point:	2.533	X_WP:	0.100	Y_WP:	0.000	Y_WP:	0.500	X:	-0.001	Y:	0.029	Z:	0.049	yaw:	-145.140	yaw rate:	30.750	Roll:	1.262	Pitch:	-2.918	Yaw:	-198.873	Thrust:	57.993
Time:	2.681	Roll Set Point:	-0.065	Pitch Set Point:	0.053	Yaw Set Point:	2.533	X_WP:	0.100	Y_WP:	0.000	Y_WP:	0.500	X:	-0.001	Y:	0.029	Z:	0.049	yaw:	-145.140	yaw rate:	30.750	Roll:	2.029	Pitch:	-2.486	Yaw:	-204.660	Thrust:	56.279
Time:	2.693	Roll Set Point:	-0.065	Pitch Set Point:	0.053	Yaw Set Point:	2.533	X_WP:	0.100	Y_WP:	0.000	Y_WP:	0.500	X:	-0.001	Y:	0.029	Z:	0.049	yaw:	-145.139	yaw rate:	0.179	Roll:	2.026	Pitch:	-2.577	Yaw:	-205.024	Thrust:	63.492
Time:	2.704	Roll Set Point:	-0.065	Pitch Set Point:	0.053	Yaw Set Point:	2.534	X_WP:	0.100	Y_WP:	0.000	Y_WP:	0.500	X:	-0.001	Y:	0.029	Z:	0.049	yaw:	-145.190	yaw rate:	-7.039	Roll:	2.156	Pitch:	-2.401	Yaw:	-206.156	Thrust:	58.953
Time:	2.714	Roll Set Point:	-0.065	Pitch Set Point:	0.053	Yaw Set Point:	2.533	X_WP:	0.100	Y_WP:	0.000	Y_WP:	0.500	X:	-0.001	Y:	0.029	Z:	0.049	yaw:	-145.107	yaw rate:	8.284	Roll:	1.834	Pitch:	-2.671	Yaw:	-202.452	Thrust:	59.617
Time:	2.725	Roll Set Point:	-0.065	Pitch Set Point:	0.053	Yaw Set Point:	2.533	X_WP:	0.100	Y_WP:	0.000	Y_WP:	0.500	X:	-0.001	Y:	0.029	Z:	0.049	yaw:	-145.126	yaw rate:	-1.829	Roll:	2.077	Pitch:	-2.441	Yaw:	-205.357	Thrust:	63.506
Time:	2.736	Roll Set Point:	-0.065	Pitch Set Point:	0.053	Yaw Set Point:	2.532	X_WP:	0.100	Y_WP:	0.000	Y_WP:	0.500	X:	-0.001	Y:	0.029	Z:	0.049	yaw:	-145.079	yaw rate:	4.697	Roll:	1.922	Pitch:	-2.562	Yaw:	-203.506	Thrust:	60.298
Time:	2.747	Roll Set Point:	-0.065	Pitch Set Point:	0.053	Yaw Set Point:	2.534	X_WP:	0.100	Y_WP:	0.000	Y_WP:	0.500	X:	-0.001	Y:	0.029	Z:	0.049	yaw:	-145.165	yaw rate:	-8.598	Roll:	2.310	Pitch:	-2.417	Yaw:	-206.939	Thrust:	64.053
Time:	2.761	Roll Set Point:	-0.065	Pitch Set Point:	0.053	Yaw Set Point:	2.533	X_WP:	0.100	Y_WP:	0.000	Y_WP:	0.500	X:	-0.001	Y:	0.029	Z:	0.049	yaw:	-145.115	yaw rate:	4.934	Roll:	1.898	Pitch:	-2.620	Yaw:	-204.375	Thrust:	72.489
Time:	2.772	Roll Set Point:	-0.065	Pitch Set Point:	0.053	Yaw Set Point:	2.535	X_WP:	0.100	Y_WP:	0.000	Y_WP:	0.500	X:	-0.001	Y:	0.029	Z:	0.049	yaw:	-145.222	yaw rate:	-10.635	Roll:	2.297	Pitch:	-2.330	Yaw:	-207.498	Thrust:	64.128
Time:	2.783	Roll Set Point:	-0.065	Pitch Set Point:	0.053	Yaw Set Point:	2.534	X_WP:	0.100	Y_WP:	0.000	Y_WP:	0.500	X:	-0.001	Y:	0.029	Z:	0.049	yaw:	-145.192	yaw rate:	2.989	Roll:	1.966	Pitch:	-2.542	Yaw:	-204.222	Thrust:	64.751
Time:	2.794	Roll Set Point:	-0.065	Pitch Set Point:	0.053	Yaw Set Point:	2.533	X_WP:	0.100	Y_WP:	0.000	Y_WP:	0.500	X:	-0.001	Y:	0.029	Z:	0.049	yaw:	-145.149	yaw rate:	4.306	Roll:	1.996	Pitch:	-2.636	Yaw:	-204.009	Thrust:	65.641
Time:	2.804	Roll Set Point:	-0.065	Pitch Set Point:	0.053	Yaw Set Point:	2.534	X_WP:	0.100	Y_WP:	0.000	Y_WP:	0.500	X:	-0.001	Y:	0.029	Z:	0.049	yaw:	-145.192	yaw rate:	-4.340	Roll:	2.112	Pitch:	-2.415	Yaw:	-205.868	Thrust:	64.243
Time:	2.814	Roll Set Point:	-0.065	Pitch Set Point:	0.053	Yaw Set Point:	2.534	X_WP:	0.100	Y_WP:	0.000	Y_WP:	0.500	X:	-0.001	Y:	0.029	Z:	0.049	yaw:	-145.184	yaw rate:	0.861	Roll:	2.027	Pitch:	-2.548	Yaw:	-204.493	Thrust:	62.731
Time:	2.828	Roll Set Point:	-0.065	Pitch Set Point:	0.053	Yaw Set Point:	2.532	X_WP:	0.100	Y_WP:	0.000	Y_WP:	0.500	X:	-0.001	Y:	0.029	Z:	0.049	yaw:	-145.054	yaw rate:	12.933	Roll:	1.834	Pitch:	-2.684	Yaw:	-202.934	Thrust:	78.581
Time:	2.839	Roll Set Point:	-0.066	Pitch Set Point:	0.052	Yaw Set Point:	2.538	X_WP:	0.100	Y_WP:	0.000	Y_WP:	0.500	X:	-0.001	Y:	0.029	Z:	0.049	yaw:	-145.399	yaw rate:	-34.516	Roll:	3.088	Pitch:	-1.990	Yaw:	-213.424	Thrust:	68.580
Time:	2.849	Roll Set Point:	-0.065	Pitch Set Point:	0.053	Yaw Set Point:	2.533	X_WP:	0.100	Y_WP:	0.000	Y_WP:	0.500	X:	-0.001	Y:	0.029	Z:	0.049	yaw:	-145.129	yaw rate:	27.077	Roll:	1.154	Pitch:	-2.999	Yaw:	-197.573	Thrust:	63.468
Time:	2.860	Roll Set Point:	-0.065	Pitch Set Point:	0.053	Yaw Set Point:	2.534	X_WP:	0.100	Y_WP:	0.000	Y_WP:	0.500	X:	-0.001	Y:	0.029	Z:	0.049	yaw:	-145.199	yaw rate:	-6.994	Roll:	2.298	Pitch:	-2.433	Yaw:	-206.582	Thrust:	67.440
Time:	2.871	Roll Set Point:	-0.065	Pitch Set Point:	0.053	Yaw Set Point:	2.534	X_WP:	0.100	Y_WP:	0.000	Y_WP:	0.500	X:	-0.001	Y:	0.029	Z:	0.049	yaw:	-145.176	yaw rate:	2.301	Roll:	1.903	Pitch:	-2.579	Yaw:	-204.237	Thrust:	65.506
Time:	2.881	Roll Set Point:	-0.065	Pitch Set Point:	0.053	Yaw Set Point:	2.532	X_WP:	0.100	Y_WP:	0.000	Y_WP:	0.500	X:	-0.001	Y:	0.029	Z:	0.049	yaw:	-145.098	yaw rate:	7.769	Roll:	1.896	Pitch:	-2.619	Yaw:	-202.573	Thrust:	67.766
Time:	2.893	Roll Set Point:	-0.065	Pitch Set Point:	0.053	Yaw Set Point:	2.535	X_WP:	0.100	Y_WP:	0.000	Y_WP:	0.500	X:	-0.001	Y:	0.029	Z:	0.049	yaw:	-145.250	yaw rate:	-15.234	Roll:	2.343	Pitch:	-2.386	Yaw:	-208.495	Thrust:	75.225
Time:	2.904	Roll Set Point:	-0.065	Pitch Set Point:	0.053	Yaw Set Point:	2.535	X_WP:	0.100	Y_WP:	0.000	Y_WP:	0.500	X:	-0.001	Y:	0.029	Z:	0.049	yaw:	-145.255	yaw rate:	-0.491	Roll:	2.120	Pitch:	-2.532	Yaw:	-205.144	Thrust:	73.738
Time:	2.914	Roll Set Point:	-0.065	Pitch Set Point:	0.053	Yaw Set Point:	2.534	X_WP:	0.100	Y_WP:	0.000	Y_WP:	0.500	X:	-0.001	Y:	0.029	Z:	0.049	yaw:	-145.191	yaw rate:	6.448	Roll:	1.858	Pitch:	-2.642	Yaw:	-203.046	Thrust:	67.466
Time:	2.926	Roll Set Point:	-0.065	Pitch Set Point:	0.053	Yaw Set Point:	2.535	X_WP:	0.100	Y_WP:	0.000	Y_WP:	0.500	X:	-0.001	Y:	0.029	Z:	0.049	yaw:	-145.239	yaw rate:	-4.818	Roll:	2.251	Pitch:	-2.475	Yaw:	-206.194	Thrust:	74.870
Time:	2.937	Roll Set Point:	-0.065	Pitch Set Point:	0.053	Yaw Set Point:	2.533	X_WP:	0.100	Y_WP:	0.000	Y_WP:	0.500	X:	-0.001	Y:	0.029	Z:	0.049	yaw:	-145.116	yaw rate:	12.313	Roll:	1.782	Pitch:	-2.702	Yaw:	-201.903	Thrust:	70.660
Time:	2.947	Roll Set Point:	-0.065	Pitch Set Point:	0.053	Yaw Set Point:	2.534	X_WP:	0.100	Y_WP:	0.000	Y_WP:	0.500	X:	-0.001	Y:	0.029	Z:	0.049	yaw:	-145.182	yaw rate:	-6.628	Roll:	2.251	Pitch:	-2.525	Yaw:	-206.466	Thrust:	74.128
Time:	2.959	Roll Set Point:	-0.066	Pitch Set Point:	0.052	Yaw Set Point:	2.538	X_WP:	0.100	Y_WP:	0.000	Y_WP:	0.500	X:	-0.001	Y:	0.029	Z:	0.049	yaw:	-145.436	yaw rate:	-25.409	Roll:	2.915	Pitch:	-2.043	Yaw:	-211.136	Thrust:	74.973
Time:	2.970	Roll Set Point:	-0.065	Pitch Set Point:	0.053	Yaw Set Point:	2.534	X_WP:	0.100	Y_WP:	0.000	Y_WP:	0.500	X:	-0.001	Y:	0.029	Z:	0.049	yaw:	-145.168	yaw rate:	26.836	Roll:	1.247	Pitch:	-3.029	Yaw:	-198.528	Thrust:	76.547
Time:	2.980	Roll Set Point:	-0.065	Pitch Set Point:	0.053	Yaw Set Point:	2.534	X_WP:	0.100	Y_WP:	0.000	Y_WP:	0.500	X:	-0.001	Y:	0.029	Z:	0.049	yaw:	-145.206	yaw rate:	-3.825	Roll:	2.131	Pitch:	-2.523	Yaw:	-205.803	Thrust:	73.327
Time:	2.991	Roll Set Point:	-0.065	Pitch Set Point:	0.053	Yaw Set Point:	2.533	X_WP:	0.100	Y_WP:	0.000	Y_WP:	0.500	X:	-0.001	Y:	0.029	Z:	0.049	yaw:	-145.120	yaw rate:	8.552	Roll:	1.890	Pitch:	-2.640	Yaw:	-202.813	Thrust:	75.993
Time:	3.002	Roll Set Point:	-0.066	Pitch Set Point:	0.052	Yaw Set Point:	2.538	X_WP:	0.100	Y_WP:	0.000	Y_WP:	0.500	X:	-0.001	Y:	0.029	Z:	0.049	yaw:	-145.415	yaw rate:	-29.484	Roll:	2.937	Pitch:	-2.065	Yaw:	-212.243	Thrust:	77.523
Time:	3.014	Roll Set Point:	-0.065	Pitch Set Point:	0.053	Yaw Set Point:	2.533	X_WP:	0.100	Y_WP:	0.000	Y_WP:	0.500	X:	-0.001	Y:	0.029	Z:	0.049	yaw:	-145.155	yaw rate:	26.058	Roll:	1.430	Pitch:	-3.072	Yaw:	-198.748	Thrust:	77.030
Time:	3.025	Roll Set Point:	-0.065	Pitch Set Point:	0.053	Yaw Set Point:	2.533	X_WP:	0.100	Y_WP:	0.000	Y_WP:	0.500	X:	-0.001	Y:	0.029	Z:	0.049	yaw:	-145.150	yaw rate:	0.428	Roll:	2.029	Pitch:	-2.576	Yaw:	-204.776	Thrust:	78.086
Time:	3.036	Roll Set Point:	-0.065	Pitch Set Point:	0.053	Yaw Set Point:	2.534	X_WP:	0.100	Y_WP:	0.000	Y_WP:	0.500	X:	-0.001	Y:	0.029	Z:	0.049	yaw:	-145.214	yaw rate:	-6.363	Roll:	2.295	Pitch:	-2.438	Yaw:	-206.473	Thrust:	78.528
Time:	3.047	Roll Set Point:	-0.065	Pitch Set Point:	0.053	Yaw Set Point:	2.535	X_WP:	0.100	Y_WP:	0.000	Y_WP:	0.500	X:	-0.001	Y:	0.029	Z:	0.049	yaw:	-145.246	yaw rate:	-3.217	Roll:	2.108	Pitch:	-2.521	Yaw:	-205.775	Thrust:	79.218
Time:	3.059	Roll Set Point:	-0.065	Pitch Set Point:	0.053	Yaw Set Point:	2.534	X_WP:	0.100	Y_WP:	0.000	Y_WP:	0.500	X:	-0.001	Y:	0.029	Z:	0.049	yaw:	-145.174	yaw rate:	7.241	Roll:	1.944	Pitch:	-2.737	Yaw:	-203.540	Thrust:	84.787
Time:	3.070	Roll Set Point:	-0.065	Pitch Set Point:	0.053	Yaw Set Point:	2.534	X_WP:	0.100	Y_WP:	0.000	Y_WP:	0.500	X:	-0.001	Y:	0.029	Z:	0.049	yaw:	-145.195	yaw rate:	-2.153	Roll:	2.158	Pitch:	-2.507	Yaw:	-205.501	Thrust:	82.023
Time:	3.080	Roll Set Point:	-0.065	Pitch Set Point:	0.053	Yaw Set Point:	2.534	X_WP:	0.100	Y_WP:	0.000	Y_WP:	0.500	X:	-0.001	Y:	0.029	Z:	0.049	yaw:	-145.178	yaw rate:	1.701	Roll:	2.099	Pitch:	-2.618	Yaw:	-204.346	Thrust:	77.515
Time:	3.093	Roll Set Point:	-0.065	Pitch Set Point:	0.053	Yaw Set Point:	2.533	X_WP:	0.100	Y_WP:	0.000	Y_WP:	0.500	X:	-0.001	Y:	0.029	Z:	0.049	yaw:	-145.132	yaw rate:	4.658	Roll:	2.012	Pitch:	-2.664	Yaw:	-203.899	Thrust:	84.098
Time:	3.104	Roll Set Point:	-0.065	Pitch Set Point:	0.053	Yaw Set Point:	2.534	X_WP:	0.100	Y_WP:	0.000	Y_WP:	0.500	X:	-0.001	Y:	0.029	Z:	0.049	yaw:	-145.180	yaw rate:	-4.799	Roll:	2.170	Pitch:	-2.472	Yaw:	-206.105	Thrust:	84.731
Time:	3.114	Roll Set Point:	-0.065	Pitch Set Point:	0.053	Yaw Set Point:	2.535	X_WP:	0.100	Y_WP:	0.000	Y_WP:	0.500	X:	-0.001	Y:	0.029	Z:	0.049	yaw:	-145.232	yaw rate:	-5.181	Roll:	2.277	Pitch:	-2.484	Yaw:	-206.167	Thrust:	79.612
Time:	3.125	Roll Set Point:	-0.065	Pitch Set Point:	0.053	Yaw Set Point:	2.533	X_WP:	0.100	Y_WP:	0.000	Y_WP:	0.500	X:	-0.001	Y:	0.029	Z:	0.049	yaw:	-145.116	yaw rate:	11.582	Roll:	1.735	Pitch:	-2.782	Yaw:	-202.087	Thrust:	80.323
Time:	3.136	Roll Set Point:	-0.065	Pitch Set Point:	0.053	Yaw Set Point:	2.534	X_WP:	0.100	Y_WP:	0.000	Y_WP:	0.500	X:	-0.001	Y:	0.029	Z:	0.049	yaw:	-145.194	yaw rate:	-7.866	Roll:	2.397	Pitch:	-2.506	Yaw:	-206.803	Thrust:	84.351
Time:	3.147	Roll Set Point:	-0.065	Pitch Set Point:	0.053	Yaw Set Point:	2.535	X_WP:	0.100	Y_WP:	0.000	Y_WP:	0.500	X:	-0.001	Y:	0.029	Z:	0.049	yaw:	-145.217	yaw rate:	-2.254	Roll:	2.085	Pitch:	-2.539	Yaw:	-205.442	Thrust:	84.777
Time:	3.159	Roll Set Point:	-0.065	Pitch Set Point:	0.053	Yaw Set Point:	2.535	X_WP:	0.100	Y_WP:	0.000	Y_WP:	0.500	X:	-0.001	Y:	0.029	Z:	0.049	yaw:	-145.221	yaw rate:	-0.444	Roll:	2.138	Pitch:	-2.616	Yaw:	-205.278	Thrust:	90.942
Time:	3.170	Roll Set Point:	-0.066	Pitch Set Point:	0.052	Yaw Set Point:	2.538	X_WP:	0.100	Y_WP:	0.000	Y_WP:	0.500	X:	-0.001	Y:	0.029	Z:	0.049	yaw:	-145.408	yaw rate:	-18.651	Roll:	2.750	Pitch:	-2.194	Yaw:	-209.660	Thrust:	86.356
Time:	3.180	Roll Set Point:	-0.065	Pitch Set Point:	0.052	Yaw Set Point:	2.535	X_WP:	0.100	Y_WP:	0.000	Y_WP:	0.500	X:	-0.001	Y:	0.029	Z:	0.049	yaw:	-145.266	yaw rate:	14.203	Roll:	1.616	Pitch:	-2.869	Yaw:	-201.405	Thrust:	82.728
Time:	3.192	Roll Set Point:	-0.065	Pitch Set Point:	0.053	Yaw Set Point:	2.533	X_WP:	0.100	Y_WP:	0.000	Y_WP:	0.500	X:	-0.001	Y:	0.029	Z:	0.049	yaw:	-145.158	yaw rate:	10.831	Roll:	1.894	Pitch:	-2.812	Yaw:	-202.739	Thrust:	92.590
Time:	3.203	Roll Set Point:	-0.065	Pitch Set Point:	0.053	Yaw Set Point:	2.533	X_WP:	0.100	Y_WP:	0.000	Y_WP:	0.500	X:	-0.001	Y:	0.029	Z:	0.049	yaw:	-145.137	yaw rate:	2.089	Roll:	2.053	Pitch:	-2.626	Yaw:	-204.360	Thrust:	84.704
Time:	3.214	Roll Set Point:	-0.066	Pitch Set Point:	0.052	Yaw Set Point:	2.539	X_WP:	0.100	Y_WP:	0.000	Y_WP:	0.500	X:	-0.001	Y:	0.029	Z:	0.049	yaw:	-145.458	yaw rate:	-32.166	Roll:	3.039	Pitch:	-1.993	Yaw:	-213.197	Thrust:	88.756
Time:	3.227	Roll Set Point:	-0.065	Pitch Set Point:	0.053	Yaw Set Point:	2.535	X_WP:	0.100	Y_WP:	0.000	Y_WP:	0.500	X:	-0.001	Y:	0.029	Z:	0.049	yaw:	-145.234	yaw rate:	22.459	Roll:	1.542	Pitch:	-3.021	Yaw:	-200.904	Thrust:	100.000
Time:	3.239	Roll Set Point:	-0.065	Pitch Set Point:	0.053	Yaw Set Point:	2.534	X_WP:	0.100	Y_WP:	0.000	Y_WP:	0.500	X:	-0.001	Y:	0.029	Z:	0.049	yaw:	-145.169	yaw rate:	-5.076	Roll:	2.028	Pitch:	-2.734	Yaw:	-203.617	Thrust:	93.743
Time:	3.249	Roll Set Point:	-0.065	Pitch Set Point:	0.053	Yaw Set Point:	2.534	X_WP:	0.100	Y_WP:	0.000	Y_WP:	0.500	X:	-0.001	Y:	0.029	Z:	0.049	yaw:	-145.169	yaw rate:	-5.076	Roll:	2.110	Pitch:	-2.591	Yaw:	-204.699	Thrust:	83.940
Time:	3.259	Roll Set Point:	-0.065	Pitch Set Point:	0.053	Yaw Set Point:	2.533	X_WP:	0.100	Y_WP:	0.000	Y_WP:	0.500	X:	-0.001	Y:	0.029	Z:	0.049	yaw:	-145.149	yaw rate:	2.002	Roll:	2.107	Pitch:	-2.623	Yaw:	-204.279	Thrust:	87.607
Time:	3.270	Roll Set Point:	-0.065	Pitch Set Point:	0.053	Yaw Set Point:	2.533	X_WP:	0.100	Y_WP:	0.000	Y_WP:	0.500	X:	-0.001	Y:	0.029	Z:	0.049	yaw:	-145.155	yaw rate:	-0.645	Roll:	2.120	Pitch:	-2.626	Yaw:	-205.035	Thrust:	91.088
Time:	3.280	Roll Set Point:	-0.065	Pitch Set Point:	0.053	Yaw Set Point:	2.533	X_WP:	0.100	Y_WP:	0.000	Y_WP:	0.500	X:	-0.001	Y:	0.029	Z:	0.049	yaw:	-145.146	yaw rate:	0.931	Roll:	2.154	Pitch:	-2.529	Yaw:	-204.427	Thrust:	85.295
Time:	3.293	Roll Set Point:	-0.065	Pitch Set Point:	0.052	Yaw Set Point:	2.535	X_WP:	0.100	Y_WP:	0.000	Y_WP:	0.500	X:	-0.001	Y:	0.029	Z:	0.049	yaw:	-145.242	yaw rate:	5.931	Roll:	2.234	Pitch:	-2.568	Yaw:	-207.317	Thrust:	98.826
Time:	3.304	Roll Set Point:	-0.066	Pitch Set Point:	0.052	Yaw Set Point:	2.537	X_WP:	0.100	Y_WP:	0.000	Y_WP:	0.500	X:	-0.001	Y:	0.029	Z:	0.049	yaw:	-145.352	yaw rate:	-10.989	Roll:	2.677	Pitch:	-2.413	Yaw:	-207.764	Thrust:	96.742
Time:	3.315	Roll Set Point:	-0.065	Pitch Set Point:	0.053	Yaw Set Point:	2.533	X_WP:	0.100	Y_WP:	0.000	Y_WP:	0.500	X:	-0.001	Y:	0.029	Z:	0.049	yaw:	-145.153	yaw rate:	19.907	Roll:	1.498	Pitch:	-2.994	Yaw:	-200.153	Thrust:	92.691
Time:	3.326	Roll Set Point:	-0.065	Pitch Set Point:	0.053	Yaw Set Point:	2.534	X_WP:	0.100	Y_WP:	0.000	Y_WP:	0.500	X:	-0.001	Y:	0.029	Z:	0.049	yaw:	-145.184	yaw rate:	-3.106	Roll:	2.208	Pitch:	-2.551	Yaw:	-205.597	Thrust:	91.068
Time:	3.337	Roll Set Point:	-0.065	Pitch Set Point:	0.053	Yaw Set Point:	2.534	X_WP:	0.100	Y_WP:	0.000	Y_WP:	0.500	X:	-0.001	Y:	0.029	Z:	0.049	yaw:	-145.213	yaw rate:	-2.867	Roll:	2.194	Pitch:	-2.567	Yaw:	-205.642	Thrust:	91.421
Time:	3.347	Roll Set Point:	-0.065	Pitch Set Point:	0.053	Yaw Set Point:	2.533	X_WP:	0.100	Y_WP:	0.000	Y_WP:	0.500	X:	-0.001	Y:	0.029	Z:	0.049	yaw:	-145.117	yaw rate:	9.553	Roll:	1.925	Pitch:	-2.801	Yaw:	-202.314	Thrust:	94.690
Time:	3.359	Roll Set Point:	-0.065	Pitch Set Point:	0.053	Yaw Set Point:	2.533	X_WP:	0.100	Y_WP:	0.000	Y_WP:	0.500	X:	-0.001	Y:	0.029	Z:	0.049	yaw:	-145.117	yaw rate:	0.070	Roll:	2.088	Pitch:	-2.645	Yaw:	-204.919	Thrust:	99.199
Time:	3.370	Roll Set Point:	-0.065	Pitch Set Point:	0.053	Yaw Set Point:	2.534	X_WP:	0.100	Y_WP:	0.000	Y_WP:	0.500	X:	-0.001	Y:	0.029	Z:	0.049	yaw:	-145.202	yaw rate:	-8.485	Roll:	2.432	Pitch:	-2.498	Yaw:	-206.960	Thrust:	96.566
Time:	3.380	Roll Set Point:	-0.065	Pitch Set Point:	0.053	Yaw Set Point:	2.533	X_WP:	0.100	Y_WP:	0.000	Y_WP:	0.500	X:	-0.001	Y:	0.029	Z:	0.049	yaw:	-145.131	yaw rate:	7.049	Roll:	2.002	Pitch:	-2.731	Yaw:	-202.997	Thrust:	93.685
Time:	3.391	Roll Set Point:	-0.065	Pitch Set Point:	0.053	Yaw Set Point:	2.534	X_WP:	0.100	Y_WP:	0.000	Y_WP:	0.500	X:	-0.001	Y:	0.029	Z:	0.049	yaw:	-145.215	yaw rate:	-8.422	Roll:	2.263	Pitch:	-2.499	Yaw:	-206.964	Thrust:	97.787
Time:	3.402	Roll Set Point:	-0.065	Pitch Set Point:	0.053	Yaw Set Point:	2.535	X_WP:	0.100	Y_WP:	0.000	Y_WP:	0.500	X:	-0.001	Y:	0.029	Z:	0.049	yaw:	-145.220	yaw rate:	-0.485	Roll:	2.208	Pitch:	-2.624	Yaw:	-205.087	Thrust:	94.844
Time:	3.414	Roll Set Point:	-0.065	Pitch Set Point:	0.053	Yaw Set Point:	2.534	X_WP:	0.100	Y_WP:	0.000	Y_WP:	0.500	X:	-0.001	Y:	0.029	Z:	0.049	yaw:	-145.167	yaw rate:	5.352	Roll:	2.015	Pitch:	-2.799	Yaw:	-203.741	Thrust:	100.000
Time:	3.428	Roll Set Point:	-0.065	Pitch Set Point:	0.053	Yaw Set Point:	2.532	X_WP:	0.100	Y_WP:	0.000	Y_WP:	0.500	X:	-0.001	Y:	0.029	Z:	0.049	yaw:	-145.096	yaw rate:	7.036	Roll:	2.107	Pitch:	-2.783	Yaw:	-204.239	Thrust:	100.000
Time:	3.439	Roll Set Point:	-0.066	Pitch Set Point:	0.052	Yaw Set Point:	2.538	X_WP:	0.100	Y_WP:	0.000	Y_WP:	0.500	X:	-0.001	Y:	0.029	Z:	0.049	yaw:	-145.426	yaw rate:	-33.016	Roll:	3.223	Pitch:	-2.028	Yaw:	-213.358	Thrust:	97.654
Time:	3.449	Roll Set Point:	-0.065	Pitch Set Point:	0.053	Yaw Set Point:	2.534	X_WP:	0.100	Y_WP:	0.000	Y_WP:	0.500	X:	-0.001	Y:	0.029	Z:	0.049	yaw:	-145.196	yaw rate:	23.054	Roll:	1.222	Pitch:	-3.137	Yaw:	-198.716	Thrust:	92.951
Time:	3.460	Roll Set Point:	-0.065	Pitch Set Point:	0.053	Yaw Set Point:	2.535	X_WP:	0.100	Y_WP:	0.000	Y_WP:	0.500	X:	-0.001	Y:	0.029	Z:	0.049	yaw:	-145.255	yaw rate:	-5.888	Roll:	2.317	Pitch:	-2.553	Yaw:	-206.457	Thrust:	100.000
Time:	3.471	Roll Set Point:	-0.065	Pitch Set Point:	0.053	Yaw Set Point:	2.533	X_WP:	0.100	Y_WP:	0.000	Y_WP:	0.500	X:	-0.001	Y:	0.029	Z:	0.049	yaw:	-145.159	yaw rate:	9.626	Roll:	1.838	Pitch:	-2.828	Yaw:	-202.448	Thrust:	99.150
Time:	3.481	Roll Set Point:	-0.065	Pitch Set Point:	0.053	Yaw Set Point:	2.534	X_WP:	0.100	Y_WP:	0.000	Y_WP:	0.500	X:	-0.001	Y:	0.029	Z:	0.049	yaw:	-145.179	yaw rate:	-2.039	Roll:	2.228	Pitch:	-2.606	Yaw:	-205.246	Thrust:	95.410
Time:	3.493	Roll Set Point:	-0.065	Pitch Set Point:	0.053	Yaw Set Point:	2.533	X_WP:	0.100	Y_WP:	0.000	Y_WP:	0.500	X:	-0.001	Y:	0.029	Z:	0.049	yaw:	-145.137	yaw rate:	4.201	Roll:	2.168	Pitch:	-2.715	Yaw:	-204.011	Thrust:	100.000
Time:	3.503	Roll Set Point:	-0.065	Pitch Set Point:	0.053	Yaw Set Point:	2.534	X_WP:	0.100	Y_WP:	0.000	Y_WP:	0.500	X:	-0.001	Y:	0.029	Z:	0.049	yaw:	-145.213	yaw rate:	-7.566	Roll:	2.431	Pitch:	-2.527	Yaw:	-206.742	Thrust:	100.000
Time:	3.515	Roll Set Point:	-0.065	Pitch Set Point:	0.053	Yaw Set Point:	2.534	X_WP:	0.100	Y_WP:	0.000	Y_WP:	0.500	X:	-0.001	Y:	0.029	Z:	0.049	yaw:	-145.198	yaw rate:	1.507	Roll:	2.095	Pitch:	-2.666	Yaw:	-204.435	Thrust:	99.652
Time:	3.526	Roll Set Point:	-0.065	Pitch Set Point:	0.053	Yaw Set Point:	2.535	X_WP:	0.100	Y_WP:	0.000	Y_WP:	0.500	X:	-0.001	Y:	0.029	Z:	0.049	yaw:	-145.233	yaw rate:	-3.507	Roll:	2.202	Pitch:	-2.664	Yaw:	-205.887	Thrust:	100.000
Time:	3.537	Roll Set Point:	-0.065	Pitch Set Point:	0.052	Yaw Set Point:	2.535	X_WP:	0.100	Y_WP:	0.000	Y_WP:	0.500	X:	-0.001	Y:	0.029	Z:	0.049	yaw:	-145.269	yaw rate:	-3.594	Roll:	2.165	Pitch:	-2.591	Yaw:	-205.955	Thrust:	100.000
Time:	3.547	Roll Set Point:	-0.065	Pitch Set Point:	0.053	Yaw Set Point:	2.534	X_WP:	0.100	Y_WP:	0.000	Y_WP:	0.500	X:	-0.001	Y:	0.029	Z:	0.049	yaw:	-145.174	yaw rate:	9.497	Roll:	2.023	Pitch:	-2.850	Yaw:	-202.447	Thrust:	100.000
Time:	3.558	Roll Set Point:	-0.066	Pitch Set Point:	0.052	Yaw Set Point:	2.537	X_WP:	0.100	Y_WP:	0.000	Y_WP:	0.500	X:	-0.001	Y:	0.029	Z:	0.049	yaw:	-145.370	yaw rate:	-19.614	Roll:	2.838	Pitch:	-2.258	Yaw:	-209.829	Thrust:	100.000
Time:	3.569	Roll Set Point:	-0.065	Pitch Set Point:	0.053	Yaw Set Point:	2.534	X_WP:	0.100	Y_WP:	0.000	Y_WP:	0.500	X:	-0.001	Y:	0.029	Z:	0.049	yaw:	-145.201	yaw rate:	16.866	Roll:	1.671	Pitch:	-2.986	Yaw:	-200.941	Thrust:	100.000
Time:	3.580	Roll Set Point:	-0.065	Pitch Set Point:	0.053	Yaw Set Point:	2.533	X_WP:	0.100	Y_WP:	0.000	Y_WP:	0.500	X:	-0.001	Y:	0.029	Z:	0.049	yaw:	-145.123	yaw rate:	7.840	Roll:	1.959	Pitch:	-2.773	Yaw:	-202.801	Thrust:	100.000
Time:	3.591	Roll Set Point:	-0.066	Pitch Set Point:	0.053	Yaw Set Point:	2.537	X_WP:	0.100	Y_WP:	0.000	Y_WP:	0.500	X:	-0.001	Y:	0.029	Z:	0.049	yaw:	-145.360	yaw rate:	-23.700	Roll:	3.050	Pitch:	-2.294	Yaw:	-210.632	Thrust:	100.000
Time:	3.602	Roll Set Point:	-0.065	Pitch Set Point:	0.053	Yaw Set Point:	2.534	X_WP:	0.100	Y_WP:	0.000	Y_WP:	0.500	X:	-0.001	Y:	0.029	Z:	0.049	yaw:	-145.194	yaw rate:	16.536	Roll:	1.419	Pitch:	-3.033	Yaw:	-201.009	Thrust:	100.000
Time:	3.613	Roll Set Point:	-0.065	Pitch Set Point:	0.053	Yaw Set Point:	2.534	X_WP:	0.100	Y_WP:	0.000	Y_WP:	0.500	X:	-0.001	Y:	0.029	Z:	0.049	yaw:	-145.201	yaw rate:	-0.658	Roll:	2.291	Pitch:	-2.664	Yaw:	-205.008	Thrust:	100.000
Time:	3.625	Roll Set Point:	-0.065	Pitch Set Point:	0.053	Yaw Set Point:	2.533	X_WP:	0.100	Y_WP:	0.000	Y_WP:	0.500	X:	-0.001	Y:	0.029	Z:	0.049	yaw:	-145.136	yaw rate:	6.477	Roll:	2.087	Pitch:	-2.826	Yaw:	-203.495	Thrust:	100.000
Time:	3.636	Roll Set Point:	-0.065	Pitch Set Point:	0.053	Yaw Set Point:	2.533	X_WP:	0.100	Y_WP:	0.000	Y_WP:	0.500	X:	-0.001	Y:	0.029	Z:	0.049	yaw:	-145.151	yaw rate:	-1.447	Roll:	2.152	Pitch:	-2.655	Yaw:	-205.303	Thrust:	100.000
Time:	3.646	Roll Set Point:	-0.065	Pitch Set Point:	0.053	Yaw Set Point:	2.534	X_WP:	0.100	Y_WP:	0.000	Y_WP:	0.500	X:	-0.001	Y:	0.029	Z:	0.049	yaw:	-145.159	yaw rate:	-0.864	Roll:	2.193	Pitch:	-2.672	Yaw:	-204.913	Thrust:	100.000
Time:	3.658	Roll Set Point:	-0.065	Pitch Set Point:	0.053	Yaw Set Point:	2.533	X_WP:	0.100	Y_WP:	0.000	Y_WP:	0.500	X:	-0.001	Y:	0.029	Z:	0.049	yaw:	-145.121	yaw rate:	3.806	Roll:	2.178	Pitch:	-2.803	Yaw:	-204.216	Thrust:	100.000
Time:	3.669	Roll Set Point:	-0.065	Pitch Set Point:	0.053	Yaw Set Point:	2.533	X_WP:	0.100	Y_WP:	0.000	Y_WP:	0.500	X:	-0.001	Y:	0.029	Z:	0.049	yaw:	-145.112	yaw rate:	9.332	Roll:	2.170	Pitch:	-2.666	Yaw:	-204.609	Thrust:	100.000
Time:	3.680	Roll Set Point:	-0.065	Pitch Set Point:	0.053	Yaw Set Point:	2.534	X_WP:	0.100	Y_WP:	0.000	Y_WP:	0.500	X:	-0.001	Y:	0.029	Z:	0.049	yaw:	-145.204	yaw rate:	-9.142	Roll:	2.408	Pitch:	-2.573	Yaw:	-207.119	Thrust:	100.000
Time:	3.692	Roll Set Point:	-0.066	Pitch Set Point:	0.052	Yaw Set Point:	2.539	X_WP:	0.100	Y_WP:	0.000	Y_WP:	0.500	X:	-0.001	Y:	0.029	Z:	0.049	yaw:	-145.468	yaw rate:	-26.438	Roll:	2.916	Pitch:	-2.219	Yaw:	-211.402	Thrust:	100.000
Time:	3.703	Roll Set Point:	-0.065	Pitch Set Point:	0.053	Yaw Set Point:	2.533	X_WP:	0.100	Y_WP:	0.000	Y_WP:	0.500	X:	-0.001	Y:	0.029	Z:	0.049	yaw:	-145.108	yaw rate:	36.013	Roll:	1.259	Pitch:	-3.294	Yaw:	-196.740	Thrust:	100.000
Time:	3.714	Roll Set Point:	-0.065	Pitch Set Point:	0.053	Yaw Set Point:	2.533	X_WP:	0.100	Y_WP:	0.000	Y_WP:	0.500	X:	-0.001	Y:	0.029	Z:	0.049	yaw:	-145.120	yaw rate:	-1.199	Roll:	2.233	Pitch:	-2.780	Yaw:	-205.029	Thrust:	100.000
Time:	3.725	Roll Set Point:	-0.065	Pitch Set Point:	0.053	Yaw Set Point:	2.533	X_WP:	0.100	Y_WP:	0.000	Y_WP:	0.500	X:	-0.001	Y:	0.029	Z:	0.049	yaw:	-145.118	yaw rate:	0.130	Roll:	2.190	Pitch:	-2.699	Yaw:	-204.800	Thrust:	100.000
Time:	3.736	Roll Set Point:	-0.065	Pitch Set Point:	0.053	Yaw Set Point:	2.534	X_WP:	0.100	Y_WP:	0.000	Y_WP:	0.500	X:	-0.001	Y:	0.029	Z:	0.049	yaw:	-145.170	yaw rate:	-5.136	Roll:	2.342	Pitch:	-2.622	Yaw:	-206.120	Thrust:	100.000
Time:	3.747	Roll Set Point:	-0.065	Pitch Set Point:	0.053	Yaw Set Point:	2.534	X_WP:	0.100	Y_WP:	0.000	Y_WP:	0.500	X:	-0.001	Y:	0.029	Z:	0.049	yaw:	-145.194	yaw rate:	-2.370	Roll:	2.261	Pitch:	-2.670	Yaw:	-205.500	Thrust:	100.000
Time:	3.758	Roll Set Point:	-0.065	Pitch Set Point:	0.053	Yaw Set Point:	2.534	X_WP:	0.100	Y_WP:	0.000	Y_WP:	0.500	X:	-0.001	Y:	0.029	Z:	0.049	yaw:	-145.191	yaw rate:	0.256	Roll:	2.206	Pitch:	-2.765	Yaw:	-204.978	Thrust:	100.000
Time:	3.769	Roll Set Point:	-0.065	Pitch Set Point:	0.053	Yaw Set Point:	2.534	X_WP:	0.100	Y_WP:	0.000	Y_WP:	0.500	X:	-0.001	Y:	0.029	Z:	0.049	yaw:	-145.204	yaw rate:	-1.314	Roll:	2.204	Pitch:	-2.633	Yaw:	-205.261	Thrust:	100.000
Time:	3.780	Roll Set Point:	-0.066	Pitch Set Point:	0.052	Yaw Set Point:	2.538	X_WP:	0.100	Y_WP:	0.000	Y_WP:	0.500	X:	-0.001	Y:	0.029	Z:	0.049	yaw:	-145.423	yaw rate:	-21.899	Roll:	2.985	Pitch:	-2.323	Yaw:	-210.583	Thrust:	100.000
Time:	3.794	Roll Set Point:	-0.065	Pitch Set Point:	0.053	Yaw Set Point:	2.536	X_WP:	0.100	Y_WP:	0.000	Y_WP:	0.500	X:	-0.001	Y:	0.029	Z:	0.049	yaw:	-145.290	yaw rate:	13.295	Roll:	1.993	Pitch:	-2.952	Yaw:	-203.207	Thrust:	100.000
Time:	3.805	Roll Set Point:	-0.066	Pitch Set Point:	0.052	Yaw Set Point:	2.538	X_WP:	0.100	Y_WP:	0.000	Y_WP:	0.500	X:	-0.001	Y:	0.029	Z:	0.049	yaw:	-145.406	yaw rate:	-11.628	Roll:	2.603	Pitch:	-2.568	Yaw:	-207.992	Thrust:	100.000
Time:	3.816	Roll Set Point:	-0.066	Pitch Set Point:	0.053	Yaw Set Point:	2.536	X_WP:	0.100	Y_WP:	0.000	Y_WP:	0.500	X:	-0.001	Y:	0.029	Z:	0.049	yaw:	-145.304	yaw rate:	10.278	Roll:	1.968	Pitch:	-2.914	Yaw:	-202.649	Thrust:	100.000
Time:	3.827	Roll Set Point:	-0.066	Pitch Set Point:	0.052	Yaw Set Point:	2.537	X_WP:	0.100	Y_WP:	0.000	Y_WP:	0.500	X:	-0.001	Y:	0.029	Z:	0.049	yaw:	-145.366	yaw rate:	-6.235	Roll:	2.349	Pitch:	-2.559	Yaw:	-206.627	Thrust:	100.000
Time:	3.838	Roll Set Point:	-0.065	Pitch Set Point:	0.053	Yaw Set Point:	2.533	X_WP:	0.100	Y_WP:	0.000	Y_WP:	0.500	X:	-0.001	Y:	0.029	Z:	0.049	yaw:	-145.154	yaw rate:	21.232	Roll:	1.633	Pitch:	-3.166	Yaw:	-199.850	Thrust:	100.000
Time:	3.848	Roll Set Point:	-0.065	Pitch Set Point:	0.053	Yaw Set Point:	2.532	X_WP:	0.100	Y_WP:	0.000	Y_WP:	0.500	X:	-0.001	Y:	0.029	Z:	0.049	yaw:	-145.075	yaw rate:	7.909	Roll:	1.966	Pitch:	-2.847	Yaw:	-202.503	Thrust:	100.000
Time:	3.860	Roll Set Point:	-0.065	Pitch Set Point:	0.053	Yaw Set Point:	2.533	X_WP:	0.100	Y_WP:	0.000	Y_WP:	0.500	X:	-0.001	Y:	0.029	Z:	0.049	yaw:	-145.138	yaw rate:	-6.325	Roll:	2.359	Pitch:	-2.647	Yaw:	-206.395	Thrust:	100.000
Time:	3.870	Roll Set Point:	-0.065	Pitch Set Point:	0.053	Yaw Set Point:	2.534	X_WP:	0.100	Y_WP:	0.000	Y_WP:	0.500	X:	-0.001	Y:	0.029	Z:	0.049	yaw:	-145.169	yaw rate:	-3.144	Roll:	2.268	Pitch:	-2.644	Yaw:	-205.521	Thrust:	100.000
Time:	3.880	Roll Set Point:	-0.065	Pitch Set Point:	0.053	Yaw Set Point:	2.533	X_WP:	0.100	Y_WP:	0.000	Y_WP:	0.500	X:	-0.001	Y:	0.029	Z:	0.049	yaw:	-145.113	yaw rate:	5.608	Roll:	2.067	Pitch:	-2.809	Yaw:	-203.265	Thrust:	100.000
Time:	3.892	Roll Set Point:	-0.066	Pitch Set Point:	0.053	Yaw Set Point:	2.537	X_WP:	0.100	Y_WP:	0.000	Y_WP:	0.500	X:	-0.001	Y:	0.029	Z:	0.049	yaw:	-145.333	yaw rate:	-22.021	Roll:	3.101	Pitch:	-2.305	Yaw:	-210.225	Thrust:	100.000
Time:	3.903	Roll Set Point:	-0.065	Pitch Set Point:	0.053	Yaw Set Point:	2.532	X_WP:	0.100	Y_WP:	0.000	Y_WP:	0.500	X:	-0.001	Y:	0.029	Z:	0.049	yaw:	-145.087	yaw rate:	24.692	Roll:	1.419	Pitch:	-3.283	Yaw:	-199.278	Thrust:	100.000
Time:	3.914	Roll Set Point:	-0.066	Pitch Set Point:	0.052	Yaw Set Point:	2.537	X_WP:	0.100	Y_WP:	0.000	Y_WP:	0.500	X:	-0.001	Y:	0.029	Z:	0.049	yaw:	-145.336	yaw rate:	-24.962	Roll:	3.033	Pitch:	-2.154	Yaw:	-210.999	Thrust:	100.000
Time:	3.926	Roll Set Point:	-0.065	Pitch Set Point:	0.053	Yaw Set Point:	2.533	X_WP:	0.100	Y_WP:	0.000	Y_WP:	0.500	X:	-0.001	Y:	0.029	Z:	0.049	yaw:	-145.118	yaw rate:	21.813	Roll:	1.606	Pitch:	-3.145	Yaw:	-199.988	Thrust:	100.000
Time:	3.937	Roll Set Point:	-0.065	Pitch Set Point:	0.053	Yaw Set Point:	2.534	X_WP:	0.100	Y_WP:	0.000	Y_WP:	0.500	X:	-0.001	Y:	0.029	Z:	0.049	yaw:	-145.179	yaw rate:	-6.050	Roll:	2.414	Pitch:	-2.724	Yaw:	-206.318	Thrust:	100.000
Time:	3.947	Roll Set Point:	-0.065	Pitch Set Point:	0.053	Yaw Set Point:	2.534	X_WP:	0.100	Y_WP:	0.000	Y_WP:	0.500	X:	-0.001	Y:	0.029	Z:	0.049	yaw:	-145.181	yaw rate:	-0.225	Roll:	2.199	Pitch:	-2.709	Yaw:	-204.841	Thrust:	100.000
Time:	3.958	Roll Set Point:	-0.065	Pitch Set Point:	0.052	Yaw Set Point:	2.536	X_WP:	0.100	Y_WP:	0.000	Y_WP:	0.500	X:	-0.001	Y:	0.029	Z:	0.049	yaw:	-145.289	yaw rate:	-10.796	Roll:	2.425	Pitch:	-2.556	Yaw:	-207.618	Thrust:	100.000
Time:	3.969	Roll Set Point:	-0.065	Pitch Set Point:	0.053	Yaw Set Point:	2.535	X_WP:	0.100	Y_WP:	0.000	Y_WP:	0.500	X:	-0.001	Y:	0.029	Z:	0.049	yaw:	-145.244	yaw rate:	4.458	Roll:	2.178	Pitch:	-2.818	Yaw:	-203.796	Thrust:	100.000
Time:	3.979	Roll Set Point:	-0.065	Pitch Set Point:	0.053	Yaw Set Point:	2.533	X_WP:	0.100	Y_WP:	0.000	Y_WP:	0.500	X:	-0.001	Y:	0.029	Z:	0.049	yaw:	-145.125	yaw rate:	11.935	Roll:	2.089	Pitch:	-2.965	Yaw:	-201.530	Thrust:	100.000
Time:	3.994	Roll Set Point:	-0.065	Pitch Set Point:	0.053	Yaw Set Point:	2.533	X_WP:	0.100	Y_WP:	0.000	Y_WP:	0.500	X:	-0.001	Y:	0.029	Z:	0.049	yaw:	-145.150	yaw rate:	-2.526	Roll:	2.301	Pitch:	-2.863	Yaw:	-206.117	Thrust:	100.000
Time:	4.007	Roll Set Point:	-0.065	Pitch Set Point:	0.053	Yaw Set Point:	2.532	X_WP:	0.100	Y_WP:	0.000	Y_WP:	0.500	X:	-0.001	Y:	0.029	Z:	0.049	yaw:	-145.101	yaw rate:	4.934	Roll:	2.233	Pitch:	-2.920	Yaw:	-204.093	Thrust:	100.000
Time:	4.019	Roll Set Point:	-0.065	Pitch Set Point:	0.053	Yaw Set Point:	2.534	X_WP:	0.100	Y_WP:	0.000	Y_WP:	0.500	X:	-0.001	Y:	0.029	Z:	0.049	yaw:	-145.182	yaw rate:	5.460	Roll:	2.392	Pitch:	-2.602	Yaw:	-206.892	Thrust:	100.000
Time:	4.030	Roll Set Point:	-0.065	Pitch Set Point:	0.053	Yaw Set Point:	2.534	X_WP:	0.100	Y_WP:	0.000	Y_WP:	0.500	X:	-0.001	Y:	0.029	Z:	0.049	yaw:	-145.205	yaw rate:	-2.321	Roll:	2.403	Pitch:	-2.810	Yaw:	-205.584	Thrust:	100.000
Time:	4.041	Roll Set Point:	-0.065	Pitch Set Point:	0.053	Yaw Set Point:	2.535	X_WP:	0.100	Y_WP:	0.000	Y_WP:	0.500	X:	-0.001	Y:	0.029	Z:	0.049	yaw:	-145.223	yaw rate:	-1.734	Roll:	2.274	Pitch:	-2.733	Yaw:	-205.387	Thrust:	100.000
Time:	4.052	Roll Set Point:	-0.065	Pitch Set Point:	0.053	Yaw Set Point:	2.534	X_WP:	0.100	Y_WP:	0.000	Y_WP:	0.500	X:	-0.001	Y:	0.029	Z:	0.049	yaw:	-145.206	yaw rate:	1.684	Roll:	2.206	Pitch:	-2.743	Yaw:	-204.312	Thrust:	100.000
Time:	4.066	Roll Set Point:	-0.065	Pitch Set Point:	0.053	Yaw Set Point:	2.535	X_WP:	0.100	Y_WP:	0.000	Y_WP:	0.500	X:	-0.001	Y:	0.029	Z:	0.049	yaw:	-145.257	yaw rate:	-5.131	Roll:	2.476	Pitch:	-2.864	Yaw:	-206.719	Thrust:	100.000
Time:	4.077	Roll Set Point:	-0.065	Pitch Set Point:	0.053	Yaw Set Point:	2.533	X_WP:	0.100	Y_WP:	0.000	Y_WP:	0.500	X:	-0.001	Y:	0.029	Z:	0.049	yaw:	-145.110	yaw rate:	14.774	Roll:	1.991	Pitch:	-2.946	Yaw:	-201.085	Thrust:	100.000
Time:	4.090	Roll Set Point:	-0.065	Pitch Set Point:	0.053	Yaw Set Point:	2.534	X_WP:	0.100	Y_WP:	0.000	Y_WP:	0.500	X:	-0.001	Y:	0.029	Z:	0.049	yaw:	-145.214	yaw rate:	-10.425	Roll:	2.478	Pitch:	-2.726	Yaw:	-207.443	Thrust:	100.000
Time:	4.101	Roll Set Point:	-0.066	Pitch Set Point:	0.052	Yaw Set Point:	2.538	X_WP:	0.100	Y_WP:	0.000	Y_WP:	0.500	X:	-0.001	Y:	0.029	Z:	0.049	yaw:	-145.388	yaw rate:	-17.450	Roll:	2.788	Pitch:	-2.479	Yaw:	-209.352	Thrust:	100.000
Time:	4.111	Roll Set Point:	-0.066	Pitch Set Point:	0.052	Yaw Set Point:	2.538	X_WP:	0.100	Y_WP:	0.000	Y_WP:	0.500	X:	-0.001	Y:	0.029	Z:	0.049	yaw:	-145.393	yaw rate:	-0.486	Roll:	2.289	Pitch:	-2.759	Yaw:	-205.234	Thrust:	100.000
Time:	4.124	Roll Set Point:	-0.066	Pitch Set Point:	0.053	Yaw Set Point:	2.536	X_WP:	0.100	Y_WP:	0.000	Y_WP:	0.500	X:	-0.001	Y:	0.029	Z:	0.049	yaw:	-145.317	yaw rate:	7.654	Roll:	2.186	Pitch:	-2.856	Yaw:	-203.650	Thrust:	100.000
Time:	4.135	Roll Set Point:	-0.065	Pitch Set Point:	0.053	Yaw Set Point:	2.535	X_WP:	0.100	Y_WP:	0.000	Y_WP:	0.500	X:	-0.001	Y:	0.029	Z:	0.049	yaw:	-145.254	yaw rate:	6.227	Roll:	1.981	Pitch:	-3.024	Yaw:	-203.862	Thrust:	100.000
Time:	4.146	Roll Set Point:	-0.065	Pitch Set Point:	0.053	Yaw Set Point:	2.534	X_WP:	0.100	Y_WP:	0.000	Y_WP:	0.500	X:	-0.001	Y:	0.029	Z:	0.049	yaw:	-145.164	yaw rate:	28.197	Roll:	2.046	Pitch:	-2.907	Yaw:	-202.577	Thrust:	100.000
Time:	4.159	Roll Set Point:	-0.065	Pitch Set Point:	0.053	Yaw Set Point:	2.533	X_WP:	0.100	Y_WP:	0.000	Y_WP:	0.500	X:	-0.001	Y:	0.029	Z:	0.049	yaw:	-145.145	yaw rate:	1.904	Roll:	2.368	Pitch:	-2.897	Yaw:	-204.894	Thrust:	100.000
Time:	4.170	Roll Set Point:	-0.065	Pitch Set Point:	0.053	Yaw Set Point:	2.533	X_WP:	0.100	Y_WP:	0.000	Y_WP:	0.500	X:	-0.001	Y:	0.029	Z:	0.049	yaw:	-145.134	yaw rate:	1.066	Roll:	2.197	Pitch:	-2.791	Yaw:	-204.598	Thrust:	100.000
Time:	4.180	Roll Set Point:	-0.065	Pitch Set Point:	0.053	Yaw Set Point:	2.534	X_WP:	0.100	Y_WP:	0.000	Y_WP:	0.500	X:	-0.001	Y:	0.029	Z:	0.049	yaw:	-145.215	yaw rate:	-8.092	Roll:	2.473	Pitch:	-2.626	Yaw:	-206.876	Thrust:	100.000
Time:	4.192	Roll Set Point:	-0.065	Pitch Set Point:	0.053	Yaw Set Point:	2.534	X_WP:	0.100	Y_WP:	0.000	Y_WP:	0.500	X:	-0.001	Y:	0.029	Z:	0.049	yaw:	-145.187	yaw rate:	2.825	Roll:	2.245	Pitch:	-2.838	Yaw:	-204.391	Thrust:	100.000
Time:	4.203	Roll Set Point:	-0.065	Pitch Set Point:	0.053	Yaw Set Point:	2.535	X_WP:	0.100	Y_WP:	0.000	Y_WP:	0.500	X:	-0.001	Y:	0.029	Z:	0.049	yaw:	-145.246	yaw rate:	-5.884	Roll:	2.383	Pitch:	-2.698	Yaw:	-206.443	Thrust:	100.000
Time:	4.214	Roll Set Point:	-0.065	Pitch Set Point:	0.053	Yaw Set Point:	2.534	X_WP:	0.100	Y_WP:	0.000	Y_WP:	0.500	X:	-0.001	Y:	0.029	Z:	0.049	yaw:	-145.201	yaw rate:	4.473	Roll:	2.226	Pitch:	-2.849	Yaw:	-203.692	Thrust:	100.000
Time:	4.226	Roll Set Point:	-0.065	Pitch Set Point:	0.053	Yaw Set Point:	2.533	X_WP:	0.100	Y_WP:	0.000	Y_WP:	0.500	X:	-0.001	Y:	0.029	Z:	0.049	yaw:	-145.131	yaw rate:	6.992	Roll:	2.139	Pitch:	-2.944	Yaw:	-203.531	Thrust:	100.000
Time:	4.237	Roll Set Point:	-0.065	Pitch Set Point:	0.053	Yaw Set Point:	2.534	X_WP:	0.100	Y_WP:	0.000	Y_WP:	0.500	X:	-0.001	Y:	0.029	Z:	0.049	yaw:	-145.183	yaw rate:	-5.178	Roll:	2.396	Pitch:	-2.674	Yaw:	-206.151	Thrust:	100.000
Time:	4.247	Roll Set Point:	-0.065	Pitch Set Point:	0.053	Yaw Set Point:	2.533	X_WP:	0.100	Y_WP:	0.000	Y_WP:	0.500	X:	-0.001	Y:	0.029	Z:	0.049	yaw:	-145.103	yaw rate:	7.940	Roll:	2.119	Pitch:	-2.906	Yaw:	-202.536	Thrust:	100.000
Time:	4.259	Roll Set Point:	-0.065	Pitch Set Point:	0.053	Yaw Set Point:	2.536	X_WP:	0.100	Y_WP:	0.000	Y_WP:	0.500	X:	-0.001	Y:	0.029	Z:	0.049	yaw:	-145.283	yaw rate:	-17.998	Roll:	2.736	Pitch:	-2.475	Yaw:	-209.246	Thrust:	100.000
Time:	4.270	Roll Set Point:	-0.065	Pitch Set Point:	0.053	Yaw Set Point:	2.534	X_WP:	0.100	Y_WP:	0.000	Y_WP:	0.500	X:	-0.001	Y:	0.029	Z:	0.049	yaw:	-145.183	yaw rate:	10.004	Roll:	2.009	Pitch:	-2.985	Yaw:	-202.749	Thrust:	100.000
Time:	4.280	Roll Set Point:	-0.065	Pitch Set Point:	0.053	Yaw Set Point:	2.534	X_WP:	0.100	Y_WP:	0.000	Y_WP:	0.500	X:	-0.001	Y:	0.029	Z:	0.049	yaw:	-145.208	yaw rate:	-2.419	Roll:	2.309	Pitch:	-2.705	Yaw:	-205.417	Thrust:	100.000
Time:	4.292	Roll Set Point:	-0.065	Pitch Set Point:	0.053	Yaw Set Point:	2.535	X_WP:	0.100	Y_WP:	0.000	Y_WP:	0.500	X:	-0.001	Y:	0.029	Z:	0.049	yaw:	-145.234	yaw rate:	-2.604	Roll:	2.400	Pitch:	-2.745	Yaw:	-205.611	Thrust:	100.000
Time:	4.302	Roll Set Point:	-0.065	Pitch Set Point:	0.053	Yaw Set Point:	2.533	X_WP:	0.100	Y_WP:	0.000	Y_WP:	0.500	X:	-0.001	Y:	0.029	Z:	0.049	yaw:	-145.112	yaw rate:	12.198	Roll:	2.046	Pitch:	-3.012	Yaw:	-201.924	Thrust:	100.000
Time:	4.314	Roll Set Point:	-0.066	Pitch Set Point:	0.052	Yaw Set Point:	2.537	X_WP:	0.100	Y_WP:	0.000	Y_WP:	0.500	X:	-0.001	Y:	0.029	Z:	0.049	yaw:	-145.377	yaw rate:	-26.568	Roll:	3.099	Pitch:	-2.284	Yaw:	-211.478	Thrust:	100.000
Time:	4.325	Roll Set Point:	-0.065	Pitch Set Point:	0.053	Yaw Set Point:	2.534	X_WP:	0.100	Y_WP:	0.000	Y_WP:	0.500	X:	-0.001	Y:	0.029	Z:	0.049	yaw:	-145.194	yaw rate:	18.367	Roll:	1.682	Pitch:	-3.111	Yaw:	-200.890	Thrust:	100.000
Time:	4.336	Roll Set Point:	-0.066	Pitch Set Point:	0.052	Yaw Set Point:	2.537	X_WP:	0.100	Y_WP:	0.000	Y_WP:	0.500	X:	-0.001	Y:	0.029	Z:	0.049	yaw:	-145.371	yaw rate:	-17.787	Roll:	2.900	Pitch:	-2.437	Yaw:	-209.405	Thrust:	100.000
Time:	4.348	Roll Set Point:	-0.065	Pitch Set Point:	0.053	Yaw Set Point:	2.533	X_WP:	0.100	Y_WP:	0.000	Y_WP:	0.500	X:	-0.001	Y:	0.029	Z:	0.049	yaw:	-145.143	yaw rate:	22.795	Roll:	1.661	Pitch:	-3.169	Yaw:	-199.458	Thrust:	100.000
Time:	4.361	Roll Set Point:	-0.065	Pitch Set Point:	0.053	Yaw Set Point:	2.535	X_WP:	0.100	Y_WP:	0.000	Y_WP:	0.500	X:	-0.001	Y:	0.029	Z:	0.049	yaw:	-145.248	yaw rate:	-10.489	Roll:	2.553	Pitch:	-2.750	Yaw:	-207.570	Thrust:	100.000
Time:	4.373	Roll Set Point:	-0.066	Pitch Set Point:	0.052	Yaw Set Point:	2.537	X_WP:	0.100	Y_WP:	0.000	Y_WP:	0.500	X:	-0.001	Y:	0.029	Z:	0.049	yaw:	-145.379	yaw rate:	-22.169	Roll:	2.795	Pitch:	-2.565	Yaw:	-208.259	Thrust:	100.000
Time:	4.383	Roll Set Point:	-0.066	Pitch Set Point:	0.052	Yaw Set Point:	2.537	X_WP:	0.100	Y_WP:	0.000	Y_WP:	0.500	X:	-0.001	Y:	0.029	Z:	0.049	yaw:	-145.379	yaw rate:	-22.169	Roll:	2.291	Pitch:	-2.736	Yaw:	-204.992	Thrust:	100.000
Time:	4.393	Roll Set Point:	-0.066	Pitch Set Point:	0.052	Yaw Set Point:	2.538	X_WP:	0.100	Y_WP:	0.000	Y_WP:	0.500	X:	-0.001	Y:	0.029	Z:	0.049	yaw:	-145.401	yaw rate:	-2.167	Roll:	2.448	Pitch:	-2.747	Yaw:	-205.665	Thrust:	100.000
Time:	4.405	Roll Set Point:	-0.065	Pitch Set Point:	0.053	Yaw Set Point:	2.534	X_WP:	0.100	Y_WP:	0.000	Y_WP:	0.500	X:	-0.001	Y:	0.029	Z:	0.049	yaw:	-145.161	yaw rate:	23.952	Roll:	1.643	Pitch:	-3.203	Yaw:	-199.554	Thrust:	100.000
Time:	4.415	Roll Set Point:	-0.065	Pitch Set Point:	0.053	Yaw Set Point:	2.535	X_WP:	0.100	Y_WP:	0.000	Y_WP:	0.500	X:	-0.001	Y:	0.029	Z:	0.049	yaw:	-145.223	yaw rate:	-6.230	Roll:	2.386	Pitch:	-2.643	Yaw:	-206.402	Thrust:	100.000
Time:	4.426	Roll Set Point:	-0.066	Pitch Set Point:	0.053	Yaw Set Point:	2.536	X_WP:	0.100	Y_WP:	0.000	Y_WP:	0.500	X:	-0.001	Y:	0.029	Z:	0.049	yaw:	-145.307	yaw rate:	-8.334	Roll:	2.762	Pitch:	-2.543	Yaw:	-207.071	Thrust:	100.000
Time:	4.437	Roll Set Point:	-0.065	Pitch Set Point:	0.053	Yaw Set Point:	2.534	X_WP:	0.100	Y_WP:	0.000	Y_WP:	0.500	X:	-0.001	Y:	0.029	Z:	0.049	yaw:	-145.186	yaw rate:	12.110	Roll:	1.960	Pitch:	-3.081	Yaw:	-202.281	Thrust:	100.000
Time:	4.448	Roll Set Point:	-0.065	Pitch Set Point:	0.053	Yaw Set Point:	2.534	X_WP:	0.100	Y_WP:	0.000	Y_WP:	0.500	X:	-0.001	Y:	0.029	Z:	0.049	yaw:	-145.160	yaw rate:	-1.809	Roll:	2.305	Pitch:	-2.839	Yaw:	-204.292	Thrust:	100.000
Time:	4.460	Roll Set Point:	-0.065	Pitch Set Point:	0.053	Yaw Set Point:	2.534	X_WP:	0.100	Y_WP:	0.000	Y_WP:	0.500	X:	-0.001	Y:	0.029	Z:	0.049	yaw:	-145.160	yaw rate:	-1.809	Roll:	2.329	Pitch:	-2.802	Yaw:	-204.994	Thrust:	100.000
Time:	4.471	Roll Set Point:	-0.065	Pitch Set Point:	0.053	Yaw Set Point:	2.534	X_WP:	0.100	Y_WP:	0.000	Y_WP:	0.500	X:	-0.001	Y:	0.029	Z:	0.049	yaw:	-145.185	yaw rate:	0.841	Roll:	2.344	Pitch:	-2.720	Yaw:	-205.440	Thrust:	100.000
Time:	4.481	Roll Set Point:	-0.065	Pitch Set Point:	0.053	Yaw Set Point:	2.534	X_WP:	0.100	Y_WP:	0.000	Y_WP:	0.500	X:	-0.001	Y:	0.029	Z:	0.049	yaw:	-145.185	yaw rate:	0.841	Roll:	2.295	Pitch:	-2.743	Yaw:	-204.723	Thrust:	100.000
Time:	4.493	Roll Set Point:	-0.065	Pitch Set Point:	0.053	Yaw Set Point:	2.533	X_WP:	0.100	Y_WP:	0.000	Y_WP:	0.500	X:	-0.001	Y:	0.029	Z:	0.049	yaw:	-145.108	yaw rate:	8.653	Roll:	2.173	Pitch:	-2.871	Yaw:	-203.511	Thrust:	100.000
Time:	4.505	Roll Set Point:	-0.065	Pitch Set Point:	0.053	Yaw Set Point:	2.533	X_WP:	0.100	Y_WP:	0.000	Y_WP:	0.500	X:	-0.001	Y:	0.029	Z:	0.049	yaw:	-145.112	yaw rate:	-0.396	Roll:	2.398	Pitch:	-2.823	Yaw:	-205.010	Thrust:	100.000
Time:	4.516	Roll Set Point:	-0.065	Pitch Set Point:	0.053	Yaw Set Point:	2.535	X_WP:	0.100	Y_WP:	0.000	Y_WP:	0.500	X:	-0.001	Y:	0.029	Z:	0.049	yaw:	-145.247	yaw rate:	-13.534	Roll:	2.618	Pitch:	-2.597	Yaw:	-208.222	Thrust:	100.000
Time:	4.526	Roll Set Point:	-0.065	Pitch Set Point:	0.053	Yaw Set Point:	2.533	X_WP:	0.100	Y_WP:	0.000	Y_WP:	0.500	X:	-0.001	Y:	0.029	Z:	0.049	yaw:	-145.129	yaw rate:	11.773	Roll:	2.047	Pitch:	-2.966	Yaw:	-201.820	Thrust:	100.000
Time:	4.537	Roll Set Point:	-0.065	Pitch Set Point:	0.053	Yaw Set Point:	2.534	X_WP:	0.100	Y_WP:	0.000	Y_WP:	0.500	X:	-0.001	Y:	0.029	Z:	0.049	yaw:	-145.184	yaw rate:	-5.503	Roll:	2.439	Pitch:	-2.684	Yaw:	-206.191	Thrust:	100.000
Time:	4.547	Roll Set Point:	-0.066	Pitch Set Point:	0.052	Yaw Set Point:	2.537	X_WP:	0.100	Y_WP:	0.000	Y_WP:	0.500	X:	-0.001	Y:	0.029	Z:	0.049	yaw:	-145.374	yaw rate:	-18.907	Roll:	2.969	Pitch:	-2.357	Yaw:	-209.850	Thrust:	100.000
Time:	4.562	Roll Set Point:	-0.065	Pitch Set Point:	0.053	Yaw Set Point:	2.535	X_WP:	0.100	Y_WP:	0.000	Y_WP:	0.500	X:	-0.001	Y:	0.029	Z:	0.049	yaw:	-145.217	yaw rate:	15.666	Roll:	2.065	Pitch:	-3.149	Yaw:	-203.045	Thrust:	100.000
Time:	4.573	Roll Set Point:	-0.066	Pitch Set Point:	0.052	Yaw Set Point:	2.537	X_WP:	0.100	Y_WP:	0.000	Y_WP:	0.500	X:	-0.001	Y:	0.029	Z:	0.049	yaw:	-145.364	yaw rate:	-14.693	Roll:	2.920	Pitch:	-2.516	Yaw:	-208.650	Thrust:	100.000
Time:	4.583	Roll Set Point:	-0.066	Pitch Set Point:	0.052	Yaw Set Point:	2.537	X_WP:	0.100	Y_WP:	0.000	Y_WP:	0.500	X:	-0.001	Y:	0.029	Z:	0.049	yaw:	-145.383	yaw rate:	-1.899	Roll:	2.304	Pitch:	-2.709	Yaw:	-205.494	Thrust:	100.000
Time:	4.595	Roll Set Point:	-0.065	Pitch Set Point:	0.053	Yaw Set Point:	2.534	X_WP:	0.100	Y_WP:	0.000	Y_WP:	0.500	X:	-0.001	Y:	0.029	Z:	0.049	yaw:	-145.164	yaw rate:	21.915	Roll:	1.581	Pitch:	-3.216	Yaw:	-200.024	Thrust:	100.000
Time:	4.606	Roll Set Point:	-0.065	Pitch Set Point:	0.053	Yaw Set Point:	2.533	X_WP:	0.100	Y_WP:	0.000	Y_WP:	0.500	X:	-0.001	Y:	0.029	Z:	0.049	yaw:	-145.132	yaw rate:	3.117	Roll:	2.305	Pitch:	-2.830	Yaw:	-204.032	Thrust:	100.000
Time:	4.616	Roll Set Point:	-0.065	Pitch Set Point:	0.053	Yaw Set Point:	2.533	X_WP:	0.100	Y_WP:	0.000	Y_WP:	0.500	X:	-0.001	Y:	0.029	Z:	0.049	yaw:	-145.141	yaw rate:	-0.821	Roll:	2.410	Pitch:	-2.721	Yaw:	-204.875	Thrust:	100.000
Time:	4.627	Roll Set Point:	-0.065	Pitch Set Point:	0.053	Yaw Set Point:	2.533	X_WP:	0.100	Y_WP:	0.000	Y_WP:	0.500	X:	-0.001	Y:	0.029	Z:	0.049	yaw:	-145.121	yaw rate:	2.000	Roll:	2.284	Pitch:	-2.777	Yaw:	-204.483	Thrust:	100.000
Time:	4.638	Roll Set Point:	-0.065	Pitch Set Point:	0.053	Yaw Set Point:	2.533	X_WP:	0.100	Y_WP:	0.000	Y_WP:	0.500	X:	-0.001	Y:	0.029	Z:	0.049	yaw:	-145.144	yaw rate:	-2.302	Roll:	2.392	Pitch:	-2.820	Yaw:	-205.394	Thrust:	100.000
Time:	4.648	Roll Set Point:	-0.065	Pitch Set Point:	0.053	Yaw Set Point:	2.533	X_WP:	0.100	Y_WP:	0.000	Y_WP:	0.500	X:	-0.001	Y:	0.029	Z:	0.049	yaw:	-145.134	yaw rate:	0.988	Roll:	2.258	Pitch:	-2.744	Yaw:	-204.392	Thrust:	100.000
Time:	4.659	Roll Set Point:	-0.065	Pitch Set Point:	0.053	Yaw Set Point:	2.534	X_WP:	0.100	Y_WP:	0.000	Y_WP:	0.500	X:	-0.001	Y:	0.029	Z:	0.049	yaw:	-145.171	yaw rate:	-3.695	Roll:	2.420	Pitch:	-2.716	Yaw:	-205.780	Thrust:	100.000
Time:	4.670	Roll Set Point:	-0.066	Pitch Set Point:	0.052	Yaw Set Point:	2.538	X_WP:	0.100	Y_WP:	0.000	Y_WP:	0.500	X:	-0.001	Y:	0.029	Z:	0.049	yaw:	-145.396	yaw rate:	-22.540	Roll:	3.044	Pitch:	-2.344	Yaw:	-210.567	Thrust:	100.000
Time:	4.680	Roll Set Point:	-0.065	Pitch Set Point:	0.053	Yaw Set Point:	2.534	X_WP:	0.100	Y_WP:	0.000	Y_WP:	0.500	X:	-0.001	Y:	0.029	Z:	0.049	yaw:	-145.188	yaw rate:	20.849	Roll:	1.616	Pitch:	-3.163	Yaw:	-199.453	Thrust:	100.000
Time:	4.692	Roll Set Point:	-0.065	Pitch Set Point:	0.053	Yaw Set Point:	2.535	X_WP:	0.100	Y_WP:	0.000	Y_WP:	0.500	X:	-0.001	Y:	0.029	Z:	0.049	yaw:	-145.221	yaw rate:	-3.362	Roll:	2.444	Pitch:	-2.741	Yaw:	-205.841	Thrust:	100.000
Time:	4.703	Roll Set Point:	-0.066	Pitch Set Point:	0.052	Yaw Set Point:	2.538	X_WP:	0.100	Y_WP:	0.000	Y_WP:	0.500	X:	-0.001	Y:	0.029	Z:	0.049	yaw:	-145.406	yaw rate:	-18.471	Roll:	2.920	Pitch:	-2.423	Yaw:	-209.616	Thrust:	100.000
Time:	4.714	Roll Set Point:	-0.065	Pitch Set Point:	0.053	Yaw Set Point:	2.535	X_WP:	0.100	Y_WP:	0.000	Y_WP:	0.500	X:	-0.001	Y:	0.029	Z:	0.049	yaw:	-145.230	yaw rate:	17.556	Roll:	1.775	Pitch:	-3.109	Yaw:	-200.558	Thrust:	100.000
Time:	4.725	Roll Set Point:	-0.065	Pitch Set Point:	0.053	Yaw Set Point:	2.534	X_WP:	0.100	Y_WP:	0.000	Y_WP:	0.500	X:	-0.001	Y:	0.029	Z:	0.049	yaw:	-145.175	yaw rate:	5.562	Roll:	2.258	Pitch:	-2.872	Yaw:	-203.753	Thrust:	100.000
Time:	4.736	Roll Set Point:	-0.065	Pitch Set Point:	0.053	Yaw Set Point:	2.533	X_WP:	0.100	Y_WP:	0.000	Y_WP:	0.500	X:	-0.001	Y:	0.029	Z:	0.049	yaw:	-145.117	yaw rate:	5.776	Roll:	2.212	Pitch:	-2.799	Yaw:	-203.457	Thrust:	100.000
Time:	4.746	Roll Set Point:	-0.065	Pitch Set Point:	0.053	Yaw Set Point:	2.535	X_WP:	0.100	Y_WP:	0.000	Y_WP:	0.500	X:	-0.001	Y:	0.029	Z:	0.049	yaw:	-145.244	yaw rate:	-12.676	Roll:	2.506	Pitch:	-2.630	Yaw:	-208.112	Thrust:	100.000
Time:	4.760	Roll Set Point:	-0.065	Pitch Set Point:	0.053	Yaw Set Point:	2.533	X_WP:	0.100	Y_WP:	0.000	Y_WP:	0.500	X:	-0.001	Y:	0.029	Z:	0.049	yaw:	-145.109	yaw rate:	13.507	Roll:	2.210	Pitch:	-2.985	Yaw:	-202.714	Thrust:	100.000
Time:	4.771	Roll Set Point:	-0.065	Pitch Set Point:	0.053	Yaw Set Point:	2.534	X_WP:	0.100	Y_WP:	0.000	Y_WP:	0.500	X:	-0.001	Y:	0.029	Z:	0.049	yaw:	-145.194	yaw rate:	-8.496	Roll:	2.522	Pitch:	-2.745	Yaw:	-206.952	Thrust:	100.000
Time:	4.781	Roll Set Point:	-0.065	Pitch Set Point:	0.053	Yaw Set Point:	2.533	X_WP:	0.100	Y_WP:	0.000	Y_WP:	0.500	X:	-0.001	Y:	0.029	Z:	0.049	yaw:	-145.119	yaw rate:	7.431	Roll:	2.094	Pitch:	-2.796	Yaw:	-202.691	Thrust:	100.000
Time:	4.792	Roll Set Point:	-0.065	Pitch Set Point:	0.053	Yaw Set Point:	2.533	X_WP:	0.100	Y_WP:	0.000	Y_WP:	0.500	X:	-0.001	Y:	0.029	Z:	0.049	yaw:	-145.152	yaw rate:	-3.303	Roll:	2.465	Pitch:	-2.807	Yaw:	-205.666	Thrust:	100.000
Time:	4.803	Roll Set Point:	-0.065	Pitch Set Point:	0.053	Yaw Set Point:	2.533	X_WP:	0.100	Y_WP:	0.000	Y_WP:	0.500	X:	-0.001	Y:	0.029	Z:	0.049	yaw:	-145.155	yaw rate:	-0.212	Roll:	2.381	Pitch:	-2.778	Yaw:	-204.930	Thrust:	100.000
Time:	4.814	Roll Set Point:	-0.066	Pitch Set Point:	0.052	Yaw Set Point:	2.537	X_WP:	0.100	Y_WP:	0.000	Y_WP:	0.500	X:	-0.001	Y:	0.029	Z:	0.049	yaw:	-145.377	yaw rate:	-22.198	Roll:	2.960	Pitch:	-2.318	Yaw:	-210.503	Thrust:	100.000
Time:	4.826	Roll Set Point:	-0.065	Pitch Set Point:	0.053	Yaw Set Point:	2.533	X_WP:	0.100	Y_WP:	0.000	Y_WP:	0.500	X:	-0.001	Y:	0.029	Z:	0.049	yaw:	-145.142	yaw rate:	23.440	Roll:	1.595	Pitch:	-3.230	Yaw:	-199.650	Thrust:	100.000
Time:	4.837	Roll Set Point:	-0.065	Pitch Set Point:	0.053	Yaw Set Point:	2.534	X_WP:	0.100	Y_WP:	0.000	Y_WP:	0.500	X:	-0.001	Y:	0.029	Z:	0.049	yaw:	-145.195	yaw rate:	-5.288	Roll:	2.452	Pitch:	-2.704	Yaw:	-206.237	Thrust:	100.000
Time:	4.848	Roll Set Point:	-0.065	Pitch Set Point:	0.053	Yaw Set Point:	2.534	X_WP:	0.100	Y_WP:	0.000	Y_WP:	0.500	X:	-0.001	Y:	0.029	Z:	0.049	yaw:	-145.161	yaw rate:	3.430	Roll:	2.249	Pitch:	-2.842	Yaw:	-204.211	Thrust:	100.000
Time:	4.859	Roll Set Point:	-0.066	Pitch Set Point:	0.052	Yaw Set Point:	2.538	X_WP:	0.100	Y_WP:	0.000	Y_WP:	0.500	X:	-0.001	Y:	0.029	Z:	0.049	yaw:	-145.423	yaw rate:	-26.221	Roll:	3.168	Pitch:	-2.340	Yaw:	-211.468	Thrust:	100.000
Time:	4.871	Roll Set Point:	-0.065	Pitch Set Point:	0.053	Yaw Set Point:	2.533	X_WP:	0.100	Y_WP:	0.000	Y_WP:	0.500	X:	-0.001	Y:	0.029	Z:	0.049	yaw:	-145.130	yaw rate:	29.339	Roll:	1.565	Pitch:	-3.243	Yaw:	-198.305	Thrust:	100.000
Time:	4.882	Roll Set Point:	-0.065	Pitch Set Point:	0.053	Yaw Set Point:	2.534	X_WP:	0.100	Y_WP:	0.000	Y_WP:	0.500	X:	-0.001	Y:	0.029	Z:	0.049	yaw:	-145.198	yaw rate:	-6.895	Roll:	2.568	Pitch:	-2.724	Yaw:	-206.578	Thrust:	100.000
Time:	4.893	Roll Set Point:	-0.065	Pitch Set Point:	0.053	Yaw Set Point:	2.535	X_WP:	0.100	Y_WP:	0.000	Y_WP:	0.500	X:	-0.001	Y:	0.029	Z:	0.049	yaw:	-145.222	yaw rate:	-2.309	Roll:	2.520	Pitch:	-2.754	Yaw:	-205.527	Thrust:	100.000
Time:	4.905	Roll Set Point:	-0.065	Pitch Set Point:	0.053	Yaw Set Point:	2.533	X_WP:	0.100	Y_WP:	0.000	Y_WP:	0.500	X:	-0.001	Y:	0.029	Z:	0.049	yaw:	-145.116	yaw rate:	10.532	Roll:	2.013	Pitch:	-2.998	Yaw:	-202.108	Thrust:	100.000
Time:	4.916	Roll Set Point:	-0.065	Pitch Set Point:	0.053	Yaw Set Point:	2.533	X_WP:	0.100	Y_WP:	0.000	Y_WP:	0.500	X:	-0.001	Y:	0.029	Z:	0.049	yaw:	-145.121	yaw rate:	-0.463	Roll:	2.271	Pitch:	-2.759	Yaw:	-204.943	Thrust:	100.000
Time:	4.927	Roll Set Point:	-0.066	Pitch Set Point:	0.052	Yaw Set Point:	2.537	X_WP:	0.100	Y_WP:	0.000	Y_WP:	0.500	X:	-0.001	Y:	0.029	Z:	0.049	yaw:	-145.367	yaw rate:	-24.599	Roll:	3.119	Pitch:	-2.348	Yaw:	-210.727	Thrust:	100.000
Time:	4.938	Roll Set Point:	-0.066	Pitch Set Point:	0.053	Yaw Set Point:	2.537	X_WP:	0.100	Y_WP:	0.000	Y_WP:	0.500	X:	-0.001	Y:	0.029	Z:	0.049	yaw:	-145.336	yaw rate:	3.103	Roll:	2.332	Pitch:	-2.870	Yaw:	-204.534	Thrust:	100.000
