Time:	2.033	Roll Set Point:	0.127	Pitch Set Point:	0.065	Yaw Set Point:	0.016	X_WP:	0.100	Y_WP:	0.000	Y_WP:	0.500	X:	-0.014	Y:	-0.032	Z:	0.050	yaw:	-0.894	yaw rate:	64.289	Roll:	-3.279	Pitch:	-0.974	Yaw:	-1.248	Thrust:	24.772
Time:	2.044	Roll Set Point:	0.127	Pitch Set Point:	0.065	Yaw Set Point:	0.012	X_WP:	0.100	Y_WP:	0.000	Y_WP:	0.500	X:	-0.014	Y:	-0.032	Z:	0.050	yaw:	-0.663	yaw rate:	23.061	Roll:	-3.715	Pitch:	-0.330	Yaw:	4.543	Thrust:	25.035
Time:	2.057	Roll Set Point:	0.126	Pitch Set Point:	0.068	Yaw Set Point:	0.031	X_WP:	0.100	Y_WP:	0.000	Y_WP:	0.500	X:	-0.014	Y:	-0.032	Z:	0.049	yaw:	-1.756	yaw rate:	-112.345	Roll:	-2.291	Pitch:	-4.773	Yaw:	-25.401	Thrust:	27.647
Time:	2.067	Roll Set Point:	0.126	Pitch Set Point:	0.068	Yaw Set Point:	0.031	X_WP:	0.100	Y_WP:	0.000	Y_WP:	0.500	X:	-0.014	Y:	-0.032	Z:	0.049	yaw:	-1.756	yaw rate:	-112.345	Roll:	-3.277	Pitch:	-1.037	Yaw:	-2.465	Thrust:	26.661
Time:	2.078	Roll Set Point:	0.126	Pitch Set Point:	0.067	Yaw Set Point:	0.028	X_WP:	0.100	Y_WP:	0.000	Y_WP:	0.500	X:	-0.013	Y:	-0.032	Z:	0.049	yaw:	-1.627	yaw rate:	-102.125	Roll:	-2.873	Pitch:	-0.104	Yaw:	0.786	Thrust:	27.643
Time:	2.090	Roll Set Point:	0.126	Pitch Set Point:	0.067	Yaw Set Point:	0.028	X_WP:	0.100	Y_WP:	0.000	Y_WP:	0.500	X:	-0.013	Y:	-0.032	Z:	0.049	yaw:	-1.627	yaw rate:	-102.125	Roll:	-3.275	Pitch:	-1.022	Yaw:	-2.296	Thrust:	27.666
Time:	2.102	Roll Set Point:	0.126	Pitch Set Point:	0.066	Yaw Set Point:	0.019	X_WP:	0.100	Y_WP:	0.000	Y_WP:	0.500	X:	-0.014	Y:	-0.032	Z:	0.049	yaw:	-1.070	yaw rate:	-25.687	Roll:	-3.993	Pitch:	0.476	Yaw:	9.632	Thrust:	27.961
Time:	2.113	Roll Set Point:	0.126	Pitch Set Point:	0.067	Yaw Set Point:	0.029	X_WP:	0.100	Y_WP:	0.000	Y_WP:	0.500	X:	-0.013	Y:	-0.032	Z:	0.049	yaw:	-1.654	yaw rate:	-58.418	Roll:	-2.622	Pitch:	-3.042	Yaw:	-16.212	Thrust:	31.108
Time:	2.124	Roll Set Point:	0.127	Pitch Set Point:	0.066	Yaw Set Point:	0.018	X_WP:	0.100	Y_WP:	0.000	Y_WP:	0.500	X:	-0.014	Y:	-0.032	Z:	0.049	yaw:	-1.039	yaw rate:	61.524	Roll:	-3.966	Pitch:	1.068	Yaw:	12.470	Thrust:	27.680
Time:	2.136	Roll Set Point:	0.127	Pitch Set Point:	0.065	Yaw Set Point:	0.015	X_WP:	0.100	Y_WP:	0.000	Y_WP:	0.500	X:	-0.014	Y:	-0.032	Z:	0.050	yaw:	-0.840	yaw rate:	19.873	Roll:	-3.485	Pitch:	-0.356	Yaw:	3.289	Thrust:	29.931
Time:	2.147	Roll Set Point:	0.126	Pitch Set Point:	0.068	Yaw Set Point:	0.030	X_WP:	0.100	Y_WP:	0.000	Y_WP:	0.500	X:	-0.014	Y:	-0.032	Z:	0.049	yaw:	-1.745	yaw rate:	-90.530	Roll:	-2.639	Pitch:	-4.590	Yaw:	-23.975	Thrust:	32.166
Time:	2.159	Roll Set Point:	0.127	Pitch Set Point:	0.065	Yaw Set Point:	0.015	X_WP:	0.100	Y_WP:	0.000	Y_WP:	0.500	X:	-0.014	Y:	-0.032	Z:	0.050	yaw:	-0.844	yaw rate:	90.175	Roll:	-3.989	Pitch:	2.336	Yaw:	20.772	Thrust:	29.940
Time:	2.170	Roll Set Point:	0.127	Pitch Set Point:	0.066	Yaw Set Point:	0.018	X_WP:	0.100	Y_WP:	0.000	Y_WP:	0.500	X:	-0.014	Y:	-0.032	Z:	0.050	yaw:	-1.014	yaw rate:	-17.074	Roll:	-3.144	Pitch:	-1.549	Yaw:	-5.195	Thrust:	32.694
Time:	2.181	Roll Set Point:	0.126	Pitch Set Point:	0.066	Yaw Set Point:	0.018	X_WP:	0.100	Y_WP:	0.000	Y_WP:	0.500	X:	-0.014	Y:	-0.032	Z:	0.049	yaw:	-1.048	yaw rate:	-3.407	Roll:	-3.229	Pitch:	-1.081	Yaw:	-2.336	Thrust:	32.669
Time:	2.193	Roll Set Point:	0.127	Pitch Set Point:	0.065	Yaw Set Point:	0.012	X_WP:	0.100	Y_WP:	0.000	Y_WP:	0.500	X:	-0.014	Y:	-0.032	Z:	0.049	yaw:	-0.665	yaw rate:	38.374	Roll:	-3.750	Pitch:	-0.011	Yaw:	7.869	Thrust:	33.429
Time:	2.203	Roll Set Point:	0.127	Pitch Set Point:	0.065	Yaw Set Point:	0.015	X_WP:	0.100	Y_WP:	0.000	Y_WP:	0.500	X:	-0.014	Y:	-0.032	Z:	0.050	yaw:	-0.858	yaw rate:	-19.335	Roll:	-3.111	Pitch:	-1.399	Yaw:	-6.072	Thrust:	32.794
Time:	2.214	Roll Set Point:	0.127	Pitch Set Point:	0.065	Yaw Set Point:	0.015	X_WP:	0.100	Y_WP:	0.000	Y_WP:	0.500	X:	-0.014	Y:	-0.032	Z:	0.050	yaw:	-0.866	yaw rate:	-0.744	Roll:	-3.329	Pitch:	-1.078	Yaw:	-1.454	Thrust:	34.495
Time:	2.226	Roll Set Point:	0.126	Pitch Set Point:	0.065	Yaw Set Point:	0.016	X_WP:	0.100	Y_WP:	0.000	Y_WP:	0.500	X:	-0.013	Y:	-0.032	Z:	0.049	yaw:	-0.909	yaw rate:	-4.303	Roll:	-3.144	Pitch:	-0.891	Yaw:	-2.411	Thrust:	35.612
Time:	2.236	Roll Set Point:	0.127	Pitch Set Point:	0.065	Yaw Set Point:	0.013	X_WP:	0.100	Y_WP:	0.000	Y_WP:	0.500	X:	-0.014	Y:	-0.032	Z:	0.050	yaw:	-0.739	yaw rate:	16.962	Roll:	-3.775	Pitch:	-0.763	Yaw:	2.737	Thrust:	34.466
Time:	2.247	Roll Set Point:	0.127	Pitch Set Point:	0.067	Yaw Set Point:	0.026	X_WP:	0.100	Y_WP:	0.000	Y_WP:	0.500	X:	-0.014	Y:	-0.032	Z:	0.049	yaw:	-1.508	yaw rate:	-76.889	Roll:	-2.653	Pitch:	-3.894	Yaw:	-22.258	Thrust:	37.477
Time:	2.257	Roll Set Point:	0.127	Pitch Set Point:	0.065	Yaw Set Point:	0.014	X_WP:	0.100	Y_WP:	0.000	Y_WP:	0.500	X:	-0.014	Y:	-0.032	Z:	0.050	yaw:	-0.798	yaw rate:	70.942	Roll:	-3.843	Pitch:	1.650	Yaw:	15.374	Thrust:	35.444
Time:	2.268	Roll Set Point:	0.127	Pitch Set Point:	0.065	Yaw Set Point:	0.012	X_WP:	0.100	Y_WP:	0.000	Y_WP:	0.500	X:	-0.014	Y:	-0.032	Z:	0.050	yaw:	-0.687	yaw rate:	11.090	Roll:	-3.478	Pitch:	-0.606	Yaw:	1.709	Thrust:	36.321
Time:	2.279	Roll Set Point:	0.126	Pitch Set Point:	0.066	Yaw Set Point:	0.020	X_WP:	0.100	Y_WP:	0.000	Y_WP:	0.500	X:	-0.013	Y:	-0.032	Z:	0.049	yaw:	-1.171	yaw rate:	-48.384	Roll:	-2.667	Pitch:	-2.478	Yaw:	-12.721	Thrust:	38.853
Time:	2.291	Roll Set Point:	0.126	Pitch Set Point:	0.066	Yaw Set Point:	0.022	X_WP:	0.100	Y_WP:	0.000	Y_WP:	0.500	X:	-0.014	Y:	-0.032	Z:	0.049	yaw:	-1.281	yaw rate:	-10.959	Roll:	-3.366	Pitch:	-1.545	Yaw:	-4.449	Thrust:	39.693
Time:	2.302	Roll Set Point:	0.126	Pitch Set Point:	0.066	Yaw Set Point:	0.021	X_WP:	0.100	Y_WP:	0.000	Y_WP:	0.500	X:	-0.014	Y:	-0.032	Z:	0.049	yaw:	-1.223	yaw rate:	5.783	Roll:	-3.446	Pitch:	-0.775	Yaw:	-0.507	Thrust:	39.692
Time:	2.313	Roll Set Point:	0.126	Pitch Set Point:	0.065	Yaw Set Point:	0.018	X_WP:	0.100	Y_WP:	0.000	Y_WP:	0.500	X:	-0.013	Y:	-0.032	Z:	0.049	yaw:	-1.011	yaw rate:	21.235	Roll:	-3.359	Pitch:	-0.090	Yaw:	3.520	Thrust:	39.819
Time:	2.324	Roll Set Point:	0.127	Pitch Set Point:	0.065	Yaw Set Point:	0.015	X_WP:	0.100	Y_WP:	0.000	Y_WP:	0.500	X:	-0.014	Y:	-0.032	Z:	0.050	yaw:	-0.834	yaw rate:	17.699	Roll:	-3.694	Pitch:	-0.558	Yaw:	2.926	Thrust:	39.444
Time:	2.336	Roll Set Point:	0.126	Pitch Set Point:	0.066	Yaw Set Point:	0.019	X_WP:	0.100	Y_WP:	0.000	Y_WP:	0.500	X:	-0.014	Y:	-0.032	Z:	0.049	yaw:	-1.083	yaw rate:	-24.960	Roll:	-3.103	Pitch:	-1.813	Yaw:	-7.299	Thrust:	42.075
Time:	2.347	Roll Set Point:	0.127	Pitch Set Point:	0.065	Yaw Set Point:	0.015	X_WP:	0.100	Y_WP:	0.000	Y_WP:	0.500	X:	-0.014	Y:	-0.032	Z:	0.050	yaw:	-0.852	yaw rate:	23.159	Roll:	-3.655	Pitch:	-0.275	Yaw:	4.188	Thrust:	40.748
Time:	2.359	Roll Set Point:	0.127	Pitch Set Point:	0.065	Yaw Set Point:	0.015	X_WP:	0.100	Y_WP:	0.000	Y_WP:	0.500	X:	-0.014	Y:	-0.032	Z:	0.050	yaw:	-0.852	yaw rate:	-5.516	Roll:	-3.312	Pitch:	-0.947	Yaw:	-1.336	Thrust:	43.624
Time:	2.370	Roll Set Point:	0.127	Pitch Set Point:	0.065	Yaw Set Point:	0.015	X_WP:	0.100	Y_WP:	0.000	Y_WP:	0.500	X:	-0.014	Y:	-0.032	Z:	0.050	yaw:	-0.863	yaw rate:	-1.059	Roll:	-3.380	Pitch:	-1.036	Yaw:	-1.578	Thrust:	42.610
Time:	2.381	Roll Set Point:	0.127	Pitch Set Point:	0.065	Yaw Set Point:	0.015	X_WP:	0.100	Y_WP:	0.000	Y_WP:	0.500	X:	-0.014	Y:	-0.032	Z:	0.050	yaw:	-0.848	yaw rate:	1.476	Roll:	-3.405	Pitch:	-0.957	Yaw:	-0.941	Thrust:	43.228
Time:	2.391	Roll Set Point:	0.126	Pitch Set Point:	0.066	Yaw Set Point:	0.021	X_WP:	0.100	Y_WP:	0.000	Y_WP:	0.500	X:	-0.014	Y:	-0.032	Z:	0.049	yaw:	-1.182	yaw rate:	-33.405	Roll:	-3.071	Pitch:	-2.246	Yaw:	-10.079	Thrust:	43.637
Time:	2.402	Roll Set Point:	0.127	Pitch Set Point:	0.065	Yaw Set Point:	0.012	X_WP:	0.100	Y_WP:	0.000	Y_WP:	0.500	X:	-0.014	Y:	-0.032	Z:	0.050	yaw:	-0.688	yaw rate:	49.406	Roll:	-3.979	Pitch:	0.784	Yaw:	10.627	Thrust:	43.212
Time:	2.413	Roll Set Point:	0.126	Pitch Set Point:	0.065	Yaw Set Point:	0.017	X_WP:	0.100	Y_WP:	0.000	Y_WP:	0.500	X:	-0.013	Y:	-0.032	Z:	0.049	yaw:	-0.992	yaw rate:	-30.386	Roll:	-2.873	Pitch:	-1.833	Yaw:	-8.738	Thrust:	46.207
Time:	2.425	Roll Set Point:	0.126	Pitch Set Point:	0.067	Yaw Set Point:	0.028	X_WP:	0.100	Y_WP:	0.000	Y_WP:	0.500	X:	-0.014	Y:	-0.032	Z:	0.049	yaw:	-1.581	yaw rate:	-58.929	Roll:	-3.144	Pitch:	-3.506	Yaw:	-16.872	Thrust:	45.890
Time:	2.436	Roll Set Point:	0.127	Pitch Set Point:	0.065	Yaw Set Point:	0.015	X_WP:	0.100	Y_WP:	0.000	Y_WP:	0.500	X:	-0.014	Y:	-0.032	Z:	0.050	yaw:	-0.843	yaw rate:	73.792	Roll:	-3.846	Pitch:	1.630	Yaw:	14.713	Thrust:	46.819
Time:	2.447	Roll Set Point:	0.126	Pitch Set Point:	0.066	Yaw Set Point:	0.020	X_WP:	0.100	Y_WP:	0.000	Y_WP:	0.500	X:	-0.013	Y:	-0.032	Z:	0.049	yaw:	-1.124	yaw rate:	-28.042	Roll:	-2.993	Pitch:	-1.876	Yaw:	-8.379	Thrust:	47.331
Time:	2.458	Roll Set Point:	0.127	Pitch Set Point:	0.065	Yaw Set Point:	0.015	X_WP:	0.100	Y_WP:	0.000	Y_WP:	0.500	X:	-0.014	Y:	-0.032	Z:	0.050	yaw:	-0.883	yaw rate:	24.124	Roll:	-3.736	Pitch:	-0.235	Yaw:	4.329	Thrust:	46.913
Time:	2.469	Roll Set Point:	0.127	Pitch Set Point:	0.065	Yaw Set Point:	0.013	X_WP:	0.100	Y_WP:	0.000	Y_WP:	0.500	X:	-0.014	Y:	-0.032	Z:	0.050	yaw:	-0.757	yaw rate:	12.514	Roll:	-3.787	Pitch:	-0.782	Yaw:	1.899	Thrust:	46.911
Time:	2.480	Roll Set Point:	0.127	Pitch Set Point:	0.065	Yaw Set Point:	0.015	X_WP:	0.100	Y_WP:	0.000	Y_WP:	0.500	X:	-0.014	Y:	-0.032	Z:	0.050	yaw:	-0.871	yaw rate:	-11.363	Roll:	-3.123	Pitch:	-1.185	Yaw:	-3.968	Thrust:	49.734
Time:	2.492	Roll Set Point:	0.127	Pitch Set Point:	0.065	Yaw Set Point:	0.014	X_WP:	0.100	Y_WP:	0.000	Y_WP:	0.500	X:	-0.014	Y:	-0.032	Z:	0.050	yaw:	-0.814	yaw rate:	5.751	Roll:	-3.477	Pitch:	-0.882	Yaw:	-0.023	Thrust:	48.188
Time:	2.504	Roll Set Point:	0.127	Pitch Set Point:	0.067	Yaw Set Point:	0.026	X_WP:	0.100	Y_WP:	0.000	Y_WP:	0.500	X:	-0.014	Y:	-0.032	Z:	0.049	yaw:	-1.498	yaw rate:	-68.478	Roll:	-3.060	Pitch:	-3.232	Yaw:	-16.580	Thrust:	56.812
Time:	2.515	Roll Set Point:	0.127	Pitch Set Point:	0.065	Yaw Set Point:	0.015	X_WP:	0.100	Y_WP:	0.000	Y_WP:	0.500	X:	-0.014	Y:	-0.032	Z:	0.050	yaw:	-0.847	yaw rate:	65.134	Roll:	-3.924	Pitch:	1.435	Yaw:	14.101	Thrust:	49.278
Time:	2.525	Roll Set Point:	0.127	Pitch Set Point:	0.065	Yaw Set Point:	0.013	X_WP:	0.100	Y_WP:	0.000	Y_WP:	0.500	X:	-0.014	Y:	-0.032	Z:	0.050	yaw:	-0.728	yaw rate:	11.864	Roll:	-3.506	Pitch:	-0.639	Yaw:	1.916	Thrust:	48.022
Time:	2.537	Roll Set Point:	0.127	Pitch Set Point:	0.065	Yaw Set Point:	0.011	X_WP:	0.100	Y_WP:	0.000	Y_WP:	0.500	X:	-0.014	Y:	-0.032	Z:	0.050	yaw:	-0.635	yaw rate:	9.363	Roll:	-3.483	Pitch:	-0.670	Yaw:	1.048	Thrust:	52.756
Time:	2.548	Roll Set Point:	0.127	Pitch Set Point:	0.065	Yaw Set Point:	0.011	X_WP:	0.100	Y_WP:	0.000	Y_WP:	0.500	X:	-0.014	Y:	-0.032	Z:	0.050	yaw:	-0.629	yaw rate:	0.622	Roll:	-3.413	Pitch:	-0.989	Yaw:	-0.915	Thrust:	52.417
Time:	2.560	Roll Set Point:	0.127	Pitch Set Point:	0.065	Yaw Set Point:	0.011	X_WP:	0.100	Y_WP:	0.000	Y_WP:	0.500	X:	-0.014	Y:	-0.032	Z:	0.050	yaw:	-0.621	yaw rate:	0.753	Roll:	-3.451	Pitch:	-1.033	Yaw:	-0.908	Thrust:	55.128
Time:	2.572	Roll Set Point:	0.127	Pitch Set Point:	0.065	Yaw Set Point:	0.010	X_WP:	0.100	Y_WP:	0.000	Y_WP:	0.500	X:	-0.014	Y:	-0.032	Z:	0.050	yaw:	-0.550	yaw rate:	7.049	Roll:	-3.524	Pitch:	-0.913	Yaw:	0.633	Thrust:	53.261
Time:	2.582	Roll Set Point:	0.127	Pitch Set Point:	0.065	Yaw Set Point:	0.011	X_WP:	0.100	Y_WP:	0.000	Y_WP:	0.500	X:	-0.014	Y:	-0.032	Z:	0.050	yaw:	-0.642	yaw rate:	-9.154	Roll:	-3.208	Pitch:	-1.311	Yaw:	-3.356	Thrust:	53.957
Time:	2.592	Roll Set Point:	0.127	Pitch Set Point:	0.065	Yaw Set Point:	0.004	X_WP:	0.100	Y_WP:	0.000	Y_WP:	0.500	X:	-0.013	Y:	-0.032	Z:	0.050	yaw:	-0.219	yaw rate:	42.262	Roll:	-3.772	Pitch:	0.241	Yaw:	10.552	Thrust:	51.518
Time:	2.604	Roll Set Point:	0.127	Pitch Set Point:	0.066	Yaw Set Point:	0.018	X_WP:	0.100	Y_WP:	0.000	Y_WP:	0.500	X:	-0.014	Y:	-0.032	Z:	0.050	yaw:	-1.019	yaw rate:	-79.990	Roll:	-2.963	Pitch:	-3.707	Yaw:	-20.597	Thrust:	55.478
Time:	2.615	Roll Set Point:	0.126	Pitch Set Point:	0.066	Yaw Set Point:	0.016	X_WP:	0.100	Y_WP:	0.000	Y_WP:	0.500	X:	-0.013	Y:	-0.032	Z:	0.050	yaw:	-0.928	yaw rate:	-72.517	Roll:	-3.175	Pitch:	-0.862	Yaw:	0.573	Thrust:	56.008
Time:	2.626	Roll Set Point:	0.126	Pitch Set Point:	0.064	Yaw Set Point:	-0.000	X_WP:	0.100	Y_WP:	0.000	Y_WP:	0.500	X:	-0.013	Y:	-0.032	Z:	0.051	yaw:	0.010	yaw rate:	93.746	Roll:	-3.863	Pitch:	2.522	Yaw:	22.393	Thrust:	52.718
Time:	2.637	Roll Set Point:	0.126	Pitch Set Point:	0.065	Yaw Set Point:	0.011	X_WP:	0.100	Y_WP:	0.000	Y_WP:	0.500	X:	-0.013	Y:	-0.032	Z:	0.051	yaw:	-0.658	yaw rate:	-66.811	Roll:	-2.851	Pitch:	-3.023	Yaw:	-16.297	Thrust:	58.363
Time:	2.648	Roll Set Point:	0.126	Pitch Set Point:	0.066	Yaw Set Point:	0.013	X_WP:	0.100	Y_WP:	0.000	Y_WP:	0.500	X:	-0.013	Y:	-0.032	Z:	0.051	yaw:	-0.727	yaw rate:	-6.865	Roll:	-3.672	Pitch:	-1.923	Yaw:	-2.850	Thrust:	57.073
Time:	2.659	Roll Set Point:	0.125	Pitch Set Point:	0.064	Yaw Set Point:	0.006	X_WP:	0.100	Y_WP:	0.000	Y_WP:	0.500	X:	-0.013	Y:	-0.032	Z:	0.052	yaw:	-0.351	yaw rate:	37.649	Roll:	-2.797	Pitch:	1.026	Yaw:	8.671	Thrust:	53.525
Time:	2.672	Roll Set Point:	0.125	Pitch Set Point:	0.065	Yaw Set Point:	0.005	X_WP:	0.100	Y_WP:	0.000	Y_WP:	0.500	X:	-0.013	Y:	-0.032	Z:	0.052	yaw:	-0.278	yaw rate:	7.308	Roll:	-3.395	Pitch:	-1.093	Yaw:	0.900	Thrust:	61.783
Time:	2.683	Roll Set Point:	0.124	Pitch Set Point:	0.064	Yaw Set Point:	0.001	X_WP:	0.100	Y_WP:	0.000	Y_WP:	0.500	X:	-0.012	Y:	-0.032	Z:	0.053	yaw:	-0.055	yaw rate:	22.290	Roll:	-3.034	Pitch:	0.036	Yaw:	4.756	Thrust:	58.334
Time:	2.695	Roll Set Point:	0.123	Pitch Set Point:	0.064	Yaw Set Point:	0.002	X_WP:	0.100	Y_WP:	0.000	Y_WP:	0.500	X:	-0.011	Y:	-0.032	Z:	0.053	yaw:	-0.101	yaw rate:	-4.585	Roll:	-2.288	Pitch:	-1.190	Yaw:	-1.335	Thrust:	62.445
Time:	2.711	Roll Set Point:	0.121	Pitch Set Point:	0.064	Yaw Set Point:	-0.000	X_WP:	0.100	Y_WP:	0.000	Y_WP:	0.500	X:	-0.010	Y:	-0.032	Z:	0.054	yaw:	0.008	yaw rate:	38.577	Roll:	-2.569	Pitch:	-0.760	Yaw:	1.542	Thrust:	73.505
Time:	2.722	Roll Set Point:	0.120	Pitch Set Point:	0.065	Yaw Set Point:	0.012	X_WP:	0.100	Y_WP:	0.000	Y_WP:	0.500	X:	-0.010	Y:	-0.032	Z:	0.054	yaw:	-0.674	yaw rate:	-68.175	Roll:	-1.990	Pitch:	-2.880	Yaw:	-16.635	Thrust:	60.947
Time:	2.734	Roll Set Point:	0.119	Pitch Set Point:	0.063	Yaw Set Point:	0.000	X_WP:	0.100	Y_WP:	0.000	Y_WP:	0.500	X:	-0.009	Y:	-0.032	Z:	0.055	yaw:	-0.007	yaw rate:	66.685	Roll:	-3.025	Pitch:	1.133	Yaw:	14.902	Thrust:	61.558
Time:	2.745	Roll Set Point:	0.117	Pitch Set Point:	0.064	Yaw Set Point:	-0.000	X_WP:	0.100	Y_WP:	0.000	Y_WP:	0.500	X:	-0.009	Y:	-0.032	Z:	0.055	yaw:	0.028	yaw rate:	3.528	Roll:	-2.417	Pitch:	-1.208	Yaw:	0.663	Thrust:	58.789
Time:	2.755	Roll Set Point:	0.116	Pitch Set Point:	0.063	Yaw Set Point:	-0.001	X_WP:	0.100	Y_WP:	0.000	Y_WP:	0.500	X:	-0.008	Y:	-0.032	Z:	0.056	yaw:	0.080	yaw rate:	5.196	Roll:	-2.084	Pitch:	-0.521	Yaw:	1.196	Thrust:	58.619
Time:	2.765	Roll Set Point:	0.114	Pitch Set Point:	0.063	Yaw Set Point:	0.007	X_WP:	0.100	Y_WP:	0.000	Y_WP:	0.500	X:	-0.007	Y:	-0.031	Z:	0.056	yaw:	-0.426	yaw rate:	-50.677	Roll:	-1.419	Pitch:	-1.826	Yaw:	-14.017	Thrust:	57.251
Time:	2.777	Roll Set Point:	0.112	Pitch Set Point:	0.062	Yaw Set Point:	0.005	X_WP:	0.100	Y_WP:	0.000	Y_WP:	0.500	X:	-0.006	Y:	-0.031	Z:	0.057	yaw:	-0.273	yaw rate:	15.366	Roll:	-1.888	Pitch:	-0.103	Yaw:	2.883	Thrust:	62.044
Time:	2.788	Roll Set Point:	0.110	Pitch Set Point:	0.062	Yaw Set Point:	0.002	X_WP:	0.100	Y_WP:	0.000	Y_WP:	0.500	X:	-0.005	Y:	-0.031	Z:	0.058	yaw:	-0.099	yaw rate:	17.371	Roll:	-1.829	Pitch:	-0.401	Yaw:	3.966	Thrust:	59.931
Time:	2.798	Roll Set Point:	0.108	Pitch Set Point:	0.062	Yaw Set Point:	0.008	X_WP:	0.100	Y_WP:	0.000	Y_WP:	0.500	X:	-0.004	Y:	-0.030	Z:	0.059	yaw:	-0.480	yaw rate:	-38.135	Roll:	-0.888	Pitch:	-1.373	Yaw:	-10.359	Thrust:	57.559
Time:	2.809	Roll Set Point:	0.106	Pitch Set Point:	0.061	Yaw Set Point:	0.001	X_WP:	0.100	Y_WP:	0.000	Y_WP:	0.500	X:	-0.003	Y:	-0.030	Z:	0.061	yaw:	-0.066	yaw rate:	41.473	Roll:	-1.932	Pitch:	0.504	Yaw:	10.011	Thrust:	57.335
Time:	2.821	Roll Set Point:	0.100	Pitch Set Point:	0.059	Yaw Set Point:	0.001	X_WP:	0.100	Y_WP:	0.000	Y_WP:	0.500	X:	-0.000	Y:	-0.029	Z:	0.063	yaw:	-0.083	yaw rate:	-1.695	Roll:	0.818	Pitch:	0.495	Yaw:	-0.736	Thrust:	55.273
Time:	2.831	Roll Set Point:	0.097	Pitch Set Point:	0.058	Yaw Set Point:	0.008	X_WP:	0.100	Y_WP:	0.000	Y_WP:	0.500	X:	0.001	Y:	-0.029	Z:	0.064	yaw:	-0.475	yaw rate:	-39.217	Roll:	-0.438	Pitch:	-0.660	Yaw:	-10.187	Thrust:	60.625
Time:	2.844	Roll Set Point:	0.094	Pitch Set Point:	0.056	Yaw Set Point:	0.002	X_WP:	0.100	Y_WP:	0.000	Y_WP:	0.500	X:	0.003	Y:	-0.028	Z:	0.066	yaw:	-0.091	yaw rate:	38.335	Roll:	-1.279	Pitch:	0.701	Yaw:	7.307	Thrust:	69.319
Time:	2.855	Roll Set Point:	0.091	Pitch Set Point:	0.056	Yaw Set Point:	0.011	X_WP:	0.100	Y_WP:	0.000	Y_WP:	0.500	X:	0.004	Y:	-0.027	Z:	0.067	yaw:	-0.652	yaw rate:	-56.104	Roll:	-0.170	Pitch:	-1.413	Yaw:	-14.447	Thrust:	61.262
Time:	2.865	Roll Set Point:	0.088	Pitch Set Point:	0.055	Yaw Set Point:	0.013	X_WP:	0.100	Y_WP:	0.000	Y_WP:	0.500	X:	0.006	Y:	-0.027	Z:	0.069	yaw:	-0.759	yaw rate:	-10.682	Roll:	-0.506	Pitch:	-0.131	Yaw:	-4.052	Thrust:	56.020
Time:	2.875	Roll Set Point:	0.084	Pitch Set Point:	0.052	Yaw Set Point:	0.005	X_WP:	0.100	Y_WP:	0.000	Y_WP:	0.500	X:	0.008	Y:	-0.026	Z:	0.071	yaw:	-0.305	yaw rate:	45.460	Roll:	0.008	Pitch:	2.137	Yaw:	11.231	Thrust:	55.369
Time:	2.885	Roll Set Point:	0.081	Pitch Set Point:	0.051	Yaw Set Point:	0.006	X_WP:	0.100	Y_WP:	0.000	Y_WP:	0.500	X:	0.009	Y:	-0.025	Z:	0.073	yaw:	-0.319	yaw rate:	-1.379	Roll:	-0.248	Pitch:	0.267	Yaw:	-1.005	Thrust:	58.122
Time:	2.897	Roll Set Point:	0.077	Pitch Set Point:	0.049	Yaw Set Point:	0.004	X_WP:	0.100	Y_WP:	0.000	Y_WP:	0.500	X:	0.011	Y:	-0.024	Z:	0.075	yaw:	-0.213	yaw rate:	10.509	Roll:	-0.015	Pitch:	0.844	Yaw:	1.844	Thrust:	63.907
Time:	2.911	Roll Set Point:	0.073	Pitch Set Point:	0.048	Yaw Set Point:	0.010	X_WP:	0.100	Y_WP:	0.000	Y_WP:	0.500	X:	0.013	Y:	-0.023	Z:	0.077	yaw:	-0.556	yaw rate:	-34.225	Roll:	-0.327	Pitch:	-0.569	Yaw:	-7.242	Thrust:	75.028
Time:	2.922	Roll Set Point:	0.069	Pitch Set Point:	0.045	Yaw Set Point:	0.011	X_WP:	0.100	Y_WP:	0.000	Y_WP:	0.500	X:	0.015	Y:	-0.022	Z:	0.079	yaw:	-0.633	yaw rate:	-7.711	Roll:	0.504	Pitch:	1.075	Yaw:	-3.014	Thrust:	63.000
Time:	2.934	Roll Set Point:	0.065	Pitch Set Point:	0.044	Yaw Set Point:	0.022	X_WP:	0.100	Y_WP:	0.000	Y_WP:	0.500	X:	0.017	Y:	-0.021	Z:	0.081	yaw:	-1.246	yaw rate:	-61.316	Roll:	0.953	Pitch:	-0.703	Yaw:	-16.529	Thrust:	62.599
Time:	2.944	Roll Set Point:	0.056	Pitch Set Point:	0.040	Yaw Set Point:	0.022	X_WP:	0.100	Y_WP:	0.000	Y_WP:	0.500	X:	0.022	Y:	-0.019	Z:	0.085	yaw:	-1.264	yaw rate:	-1.821	Roll:	4.456	Pitch:	2.849	Yaw:	-2.446	Thrust:	50.012
Time:	2.956	Roll Set Point:	0.052	Pitch Set Point:	0.037	Yaw Set Point:	0.012	X_WP:	0.100	Y_WP:	0.000	Y_WP:	0.500	X:	0.024	Y:	-0.018	Z:	0.088	yaw:	-0.705	yaw rate:	55.961	Roll:	0.114	Pitch:	2.159	Yaw:	11.462	Thrust:	65.901
Time:	2.966	Roll Set Point:	0.047	Pitch Set Point:	0.035	Yaw Set Point:	0.022	X_WP:	0.100	Y_WP:	0.000	Y_WP:	0.500	X:	0.026	Y:	-0.017	Z:	0.090	yaw:	-1.260	yaw rate:	-55.548	Roll:	1.968	Pitch:	0.334	Yaw:	-16.489	Thrust:	57.011
Time:	2.978	Roll Set Point:	0.043	Pitch Set Point:	0.033	Yaw Set Point:	0.021	X_WP:	0.100	Y_WP:	0.000	Y_WP:	0.500	X:	0.028	Y:	-0.016	Z:	0.092	yaw:	-1.216	yaw rate:	4.399	Roll:	0.705	Pitch:	1.143	Yaw:	-1.016	Thrust:	66.875
Time:	2.989	Roll Set Point:	0.039	Pitch Set Point:	0.030	Yaw Set Point:	0.015	X_WP:	0.100	Y_WP:	0.000	Y_WP:	0.500	X:	0.031	Y:	-0.014	Z:	0.095	yaw:	-0.856	yaw rate:	36.016	Roll:	0.898	Pitch:	1.981	Yaw:	6.713	Thrust:	64.494
Time:	3.000	Roll Set Point:	0.033	Pitch Set Point:	0.028	Yaw Set Point:	0.025	X_WP:	0.100	Y_WP:	0.000	Y_WP:	0.500	X:	0.033	Y:	-0.013	Z:	0.098	yaw:	-1.440	yaw rate:	-58.413	Roll:	2.566	Pitch:	0.779	Yaw:	-16.770	Thrust:	59.009
Time:	3.011	Roll Set Point:	0.028	Pitch Set Point:	0.026	Yaw Set Point:	0.027	X_WP:	0.100	Y_WP:	0.000	Y_WP:	0.500	X:	0.036	Y:	-0.012	Z:	0.100	yaw:	-1.537	yaw rate:	-9.678	Roll:	1.685	Pitch:	1.025	Yaw:	-4.620	Thrust:	63.621
Time:	3.023	Roll Set Point:	0.023	Pitch Set Point:	0.023	Yaw Set Point:	0.025	X_WP:	0.100	Y_WP:	0.000	Y_WP:	0.500	X:	0.038	Y:	-0.011	Z:	0.103	yaw:	-1.460	yaw rate:	7.674	Roll:	1.578	Pitch:	1.627	Yaw:	-0.390	Thrust:	61.373
Time:	3.034	Roll Set Point:	0.013	Pitch Set Point:	0.018	Yaw Set Point:	0.036	X_WP:	0.100	Y_WP:	0.000	Y_WP:	0.500	X:	0.043	Y:	-0.008	Z:	0.109	yaw:	-2.072	yaw rate:	-43.137	Roll:	5.403	Pitch:	2.708	Yaw:	-15.993	Thrust:	59.687
Time:	3.045	Roll Set Point:	0.013	Pitch Set Point:	0.018	Yaw Set Point:	0.036	X_WP:	0.100	Y_WP:	0.000	Y_WP:	0.500	X:	0.043	Y:	-0.008	Z:	0.109	yaw:	-2.072	yaw rate:	-43.137	Roll:	-1.893	Pitch:	-0.371	Yaw:	-3.165	Thrust:	71.802
Time:	3.056	Roll Set Point:	0.008	Pitch Set Point:	0.015	Yaw Set Point:	0.031	X_WP:	0.100	Y_WP:	0.000	Y_WP:	0.500	X:	0.046	Y:	-0.007	Z:	0.112	yaw:	-1.785	yaw rate:	28.758	Roll:	2.096	Pitch:	2.547	Yaw:	4.317	Thrust:	59.181
Time:	3.067	Roll Set Point:	-0.003	Pitch Set Point:	0.011	Yaw Set Point:	0.036	X_WP:	0.100	Y_WP:	0.000	Y_WP:	0.500	X:	0.051	Y:	-0.004	Z:	0.118	yaw:	-2.041	yaw rate:	-52.688	Roll:	6.738	Pitch:	2.927	Yaw:	-8.973	Thrust:	54.843
Time:	3.079	Roll Set Point:	-0.008	Pitch Set Point:	0.007	Yaw Set Point:	0.030	X_WP:	0.100	Y_WP:	0.000	Y_WP:	0.500	X:	0.054	Y:	-0.003	Z:	0.121	yaw:	-1.713	yaw rate:	32.783	Roll:	1.863	Pitch:	2.742	Yaw:	4.728	Thrust:	62.919
Time:	3.089	Roll Set Point:	-0.013	Pitch Set Point:	0.005	Yaw Set Point:	0.035	X_WP:	0.100	Y_WP:	0.000	Y_WP:	0.500	X:	0.057	Y:	-0.002	Z:	0.124	yaw:	-2.031	yaw rate:	-31.801	Roll:	2.890	Pitch:	1.527	Yaw:	-11.413	Thrust:	56.898
Time:	3.101	Roll Set Point:	-0.019	Pitch Set Point:	0.002	Yaw Set Point:	0.026	X_WP:	0.100	Y_WP:	0.000	Y_WP:	0.500	X:	0.059	Y:	-0.000	Z:	0.128	yaw:	-1.462	yaw rate:	56.909	Roll:	2.326	Pitch:	2.443	Yaw:	9.989	Thrust:	68.034
Time:	3.113	Roll Set Point:	-0.030	Pitch Set Point:	-0.004	Yaw Set Point:	0.025	X_WP:	0.100	Y_WP:	0.000	Y_WP:	0.500	X:	0.065	Y:	0.002	Z:	0.135	yaw:	-1.436	yaw rate:	2.586	Roll:	6.737	Pitch:	4.250	Yaw:	-1.760	Thrust:	51.565
Time:	3.123	Roll Set Point:	-0.035	Pitch Set Point:	-0.006	Yaw Set Point:	0.025	X_WP:	0.100	Y_WP:	0.000	Y_WP:	0.500	X:	0.068	Y:	0.004	Z:	0.138	yaw:	-1.445	yaw rate:	-0.947	Roll:	3.049	Pitch:	2.042	Yaw:	-2.571	Thrust:	59.514
Time:	3.134	Roll Set Point:	-0.041	Pitch Set Point:	-0.007	Yaw Set Point:	0.035	X_WP:	0.100	Y_WP:	0.000	Y_WP:	0.500	X:	0.070	Y:	0.004	Z:	0.141	yaw:	-1.978	yaw rate:	-53.261	Roll:	2.980	Pitch:	0.688	Yaw:	-15.204	Thrust:	68.522
Time:	3.145	Roll Set Point:	-0.046	Pitch Set Point:	-0.011	Yaw Set Point:	0.024	X_WP:	0.100	Y_WP:	0.000	Y_WP:	0.500	X:	0.073	Y:	0.006	Z:	0.145	yaw:	-1.383	yaw rate:	59.494	Roll:	3.115	Pitch:	3.253	Yaw:	11.845	Thrust:	61.058
Time:	3.156	Roll Set Point:	-0.052	Pitch Set Point:	-0.014	Yaw Set Point:	0.033	X_WP:	0.100	Y_WP:	0.000	Y_WP:	0.500	X:	0.076	Y:	0.007	Z:	0.148	yaw:	-1.904	yaw rate:	-52.089	Roll:	3.493	Pitch:	1.808	Yaw:	-15.945	Thrust:	60.215
Time:	3.167	Roll Set Point:	-0.057	Pitch Set Point:	-0.016	Yaw Set Point:	0.026	X_WP:	0.100	Y_WP:	0.000	Y_WP:	0.500	X:	0.078	Y:	0.008	Z:	0.151	yaw:	-1.479	yaw rate:	42.445	Roll:	2.766	Pitch:	2.207	Yaw:	7.193	Thrust:	62.551
Time:	3.178	Roll Set Point:	-0.063	Pitch Set Point:	-0.018	Yaw Set Point:	0.031	X_WP:	0.100	Y_WP:	0.000	Y_WP:	0.500	X:	0.081	Y:	0.009	Z:	0.154	yaw:	-1.784	yaw rate:	-30.449	Roll:	3.843	Pitch:	1.746	Yaw:	-10.083	Thrust:	68.706
Time:	3.189	Roll Set Point:	-0.067	Pitch Set Point:	-0.021	Yaw Set Point:	0.024	X_WP:	0.100	Y_WP:	0.000	Y_WP:	0.500	X:	0.084	Y:	0.010	Z:	0.158	yaw:	-1.389	yaw rate:	39.466	Roll:	2.642	Pitch:	2.226	Yaw:	7.055	Thrust:	62.852
Time:	3.201	Roll Set Point:	-0.073	Pitch Set Point:	-0.023	Yaw Set Point:	0.026	X_WP:	0.100	Y_WP:	0.000	Y_WP:	0.500	X:	0.086	Y:	0.011	Z:	0.161	yaw:	-1.500	yaw rate:	-11.095	Roll:	3.460	Pitch:	1.802	Yaw:	-5.007	Thrust:	68.546
Time:	3.212	Roll Set Point:	-0.077	Pitch Set Point:	-0.024	Yaw Set Point:	0.038	X_WP:	0.100	Y_WP:	0.000	Y_WP:	0.500	X:	0.089	Y:	0.012	Z:	0.165	yaw:	-2.167	yaw rate:	-66.642	Roll:	2.777	Pitch:	1.342	Yaw:	-18.555	Thrust:	67.740
Time:	3.224	Roll Set Point:	-0.083	Pitch Set Point:	-0.027	Yaw Set Point:	0.027	X_WP:	0.100	Y_WP:	0.000	Y_WP:	0.500	X:	0.092	Y:	0.014	Z:	0.168	yaw:	-1.524	yaw rate:	64.255	Roll:	3.531	Pitch:	2.783	Yaw:	12.013	Thrust:	67.209
Time:	3.236	Roll Set Point:	-0.088	Pitch Set Point:	-0.029	Yaw Set Point:	0.030	X_WP:	0.100	Y_WP:	0.000	Y_WP:	0.500	X:	0.094	Y:	0.015	Z:	0.172	yaw:	-1.736	yaw rate:	-21.193	Roll:	3.469	Pitch:	1.980	Yaw:	-7.650	Thrust:	67.745
Time:	3.247	Roll Set Point:	-0.098	Pitch Set Point:	-0.034	Yaw Set Point:	0.025	X_WP:	0.100	Y_WP:	0.000	Y_WP:	0.500	X:	0.099	Y:	0.017	Z:	0.180	yaw:	-1.430	yaw rate:	30.581	Roll:	7.256	Pitch:	3.920	Yaw:	4.859	Thrust:	47.570
Time:	3.258	Roll Set Point:	-0.103	Pitch Set Point:	-0.035	Yaw Set Point:	0.032	X_WP:	0.100	Y_WP:	0.000	Y_WP:	0.500	X:	0.102	Y:	0.017	Z:	0.183	yaw:	-1.818	yaw rate:	-38.753	Roll:	3.130	Pitch:	1.139	Yaw:	-12.118	Thrust:	65.497
Time:	3.269	Roll Set Point:	-0.108	Pitch Set Point:	-0.037	Yaw Set Point:	0.015	X_WP:	0.100	Y_WP:	0.000	Y_WP:	0.500	X:	0.104	Y:	0.018	Z:	0.187	yaw:	-0.877	yaw rate:	94.088	Roll:	4.289	Pitch:	2.342	Yaw:	20.683	Thrust:	62.001
Time:	3.281	Roll Set Point:	-0.118	Pitch Set Point:	-0.040	Yaw Set Point:	0.022	X_WP:	0.100	Y_WP:	0.000	Y_WP:	0.500	X:	0.109	Y:	0.020	Z:	0.195	yaw:	-1.250	yaw rate:	80.595	Roll:	6.527	Pitch:	3.046	Yaw:	-10.021	Thrust:	60.319
Time:	3.295	Roll Set Point:	-0.121	Pitch Set Point:	-0.041	Yaw Set Point:	0.030	X_WP:	0.100	Y_WP:	0.000	Y_WP:	0.500	X:	0.111	Y:	0.020	Z:	0.199	yaw:	-1.721	yaw rate:	-47.096	Roll:	2.557	Pitch:	1.164	Yaw:	-11.923	Thrust:	75.546
Time:	3.306	Roll Set Point:	-0.127	Pitch Set Point:	-0.043	Yaw Set Point:	0.026	X_WP:	0.100	Y_WP:	0.000	Y_WP:	0.500	X:	0.114	Y:	0.021	Z:	0.203	yaw:	-1.492	yaw rate:	22.932	Roll:	3.410	Pitch:	2.001	Yaw:	3.197	Thrust:	66.528
Time:	3.317	Roll Set Point:	-0.131	Pitch Set Point:	-0.044	Yaw Set Point:	0.043	X_WP:	0.100	Y_WP:	0.000	Y_WP:	0.500	X:	0.116	Y:	0.022	Z:	0.207	yaw:	-2.449	yaw rate:	-95.765	Roll:	3.072	Pitch:	1.500	Yaw:	-26.554	Thrust:	64.488
Time:	3.328	Roll Set Point:	-0.136	Pitch Set Point:	-0.046	Yaw Set Point:	0.023	X_WP:	0.100	Y_WP:	0.000	Y_WP:	0.500	X:	0.118	Y:	0.023	Z:	0.211	yaw:	-1.309	yaw rate:	114.097	Roll:	4.072	Pitch:	1.792	Yaw:	24.812	Thrust:	60.449
Time:	3.340	Roll Set Point:	-0.140	Pitch Set Point:	-0.047	Yaw Set Point:	0.030	X_WP:	0.100	Y_WP:	0.000	Y_WP:	0.500	X:	0.120	Y:	0.023	Z:	0.215	yaw:	-1.706	yaw rate:	-39.725	Roll:	3.087	Pitch:	1.221	Yaw:	-11.511	Thrust:	71.870
Time:	3.350	Roll Set Point:	-0.144	Pitch Set Point:	-0.048	Yaw Set Point:	0.039	X_WP:	0.100	Y_WP:	0.000	Y_WP:	0.500	X:	0.122	Y:	0.024	Z:	0.220	yaw:	-2.211	yaw rate:	-50.494	Roll:	3.607	Pitch:	2.284	Yaw:	-16.040	Thrust:	57.990
Time:	3.361	Roll Set Point:	-0.148	Pitch Set Point:	-0.049	Yaw Set Point:	0.023	X_WP:	0.100	Y_WP:	0.000	Y_WP:	0.500	X:	0.124	Y:	0.024	Z:	0.224	yaw:	-1.306	yaw rate:	90.516	Roll:	3.859	Pitch:	1.307	Yaw:	19.195	Thrust:	60.903
Time:	3.373	Roll Set Point:	-0.152	Pitch Set Point:	-0.050	Yaw Set Point:	0.019	X_WP:	0.100	Y_WP:	0.000	Y_WP:	0.500	X:	0.126	Y:	0.025	Z:	0.229	yaw:	-1.070	yaw rate:	23.526	Roll:	3.755	Pitch:	1.161	Yaw:	3.618	Thrust:	63.909
Time:	3.386	Roll Set Point:	-0.156	Pitch Set Point:	-0.051	Yaw Set Point:	0.016	X_WP:	0.100	Y_WP:	0.000	Y_WP:	0.500	X:	0.128	Y:	0.025	Z:	0.233	yaw:	-0.890	yaw rate:	18.072	Roll:	3.132	Pitch:	1.104	Yaw:	1.644	Thrust:	80.201
Time:	3.396	Roll Set Point:	-0.160	Pitch Set Point:	-0.052	Yaw Set Point:	0.020	X_WP:	0.100	Y_WP:	0.000	Y_WP:	0.500	X:	0.130	Y:	0.026	Z:	0.238	yaw:	-1.135	yaw rate:	-24.506	Roll:	3.268	Pitch:	1.797	Yaw:	-8.134	Thrust:	57.256
Time:	3.408	Roll Set Point:	-0.167	Pitch Set Point:	-0.053	Yaw Set Point:	0.015	X_WP:	0.100	Y_WP:	0.000	Y_WP:	0.500	X:	0.134	Y:	0.026	Z:	0.248	yaw:	-0.843	yaw rate:	29.160	Roll:	6.571	Pitch:	1.264	Yaw:	4.939	Thrust:	46.670
Time:	3.419	Roll Set Point:	-0.174	Pitch Set Point:	-0.054	Yaw Set Point:	0.003	X_WP:	0.100	Y_WP:	0.000	Y_WP:	0.500	X:	0.137	Y:	0.027	Z:	0.258	yaw:	-0.163	yaw rate:	46.090	Roll:	5.573	Pitch:	1.209	Yaw:	14.690	Thrust:	42.832
Time:	3.430	Roll Set Point:	-0.174	Pitch Set Point:	-0.054	Yaw Set Point:	0.003	X_WP:	0.100	Y_WP:	0.000	Y_WP:	0.500	X:	0.137	Y:	0.027	Z:	0.258	yaw:	-0.163	yaw rate:	46.090	Roll:	0.803	Pitch:	0.720	Yaw:	-0.714	Thrust:	80.575
Time:	3.444	Roll Set Point:	-0.177	Pitch Set Point:	-0.054	Yaw Set Point:	0.003	X_WP:	0.100	Y_WP:	0.000	Y_WP:	0.500	X:	0.139	Y:	0.027	Z:	0.263	yaw:	-0.196	yaw rate:	-3.277	Roll:	3.265	Pitch:	1.001	Yaw:	-1.512	Thrust:	71.499
Time:	3.454	Roll Set Point:	-0.183	Pitch Set Point:	-0.054	Yaw Set Point:	0.027	X_WP:	0.100	Y_WP:	0.000	Y_WP:	0.500	X:	0.142	Y:	0.027	Z:	0.273	yaw:	-1.528	yaw rate:	-78.401	Roll:	4.448	Pitch:	1.283	Yaw:	-35.560	Thrust:	35.291
Time:	3.464	Roll Set Point:	-0.183	Pitch Set Point:	-0.054	Yaw Set Point:	0.027	X_WP:	0.100	Y_WP:	0.000	Y_WP:	0.500	X:	0.142	Y:	0.027	Z:	0.273	yaw:	-1.528	yaw rate:	-78.401	Roll:	0.948	Pitch:	0.744	Yaw:	-2.583	Thrust:	74.492
Time:	3.475	Roll Set Point:	-0.189	Pitch Set Point:	-0.054	Yaw Set Point:	0.023	X_WP:	0.100	Y_WP:	0.000	Y_WP:	0.500	X:	0.145	Y:	0.027	Z:	0.284	yaw:	-1.308	yaw rate:	-71.711	Roll:	5.627	Pitch:	0.876	Yaw:	2.651	Thrust:	42.629
Time:	3.486	Roll Set Point:	-0.192	Pitch Set Point:	-0.055	Yaw Set Point:	0.002	X_WP:	0.100	Y_WP:	0.000	Y_WP:	0.500	X:	0.146	Y:	0.027	Z:	0.289	yaw:	-0.094	yaw rate:	121.427	Roll:	4.242	Pitch:	0.443	Yaw:	29.533	Thrust:	51.966
Time:	3.498	Roll Set Point:	-0.194	Pitch Set Point:	-0.054	Yaw Set Point:	0.006	X_WP:	0.100	Y_WP:	0.000	Y_WP:	0.500	X:	0.147	Y:	0.027	Z:	0.295	yaw:	-0.332	yaw rate:	-23.832	Roll:	2.738	Pitch:	0.414	Yaw:	-6.180	Thrust:	62.611
Time:	3.511	Roll Set Point:	-0.197	Pitch Set Point:	-0.054	Yaw Set Point:	-0.001	X_WP:	0.100	Y_WP:	0.000	Y_WP:	0.500	X:	0.149	Y:	0.027	Z:	0.300	yaw:	0.077	yaw rate:	40.848	Roll:	3.132	Pitch:	0.234	Yaw:	7.712	Thrust:	77.984
Time:	3.522	Roll Set Point:	-0.200	Pitch Set Point:	-0.054	Yaw Set Point:	-0.003	X_WP:	0.100	Y_WP:	0.000	Y_WP:	0.500	X:	0.150	Y:	0.027	Z:	0.306	yaw:	0.185	yaw rate:	10.793	Roll:	2.915	Pitch:	0.503	Yaw:	2.304	Thrust:	56.916
Time:	3.533	Roll Set Point:	-0.203	Pitch Set Point:	-0.053	Yaw Set Point:	0.010	X_WP:	0.100	Y_WP:	0.000	Y_WP:	0.500	X:	0.152	Y:	0.026	Z:	0.317	yaw:	-0.578	yaw rate:	-76.248	Roll:	3.807	Pitch:	0.981	Yaw:	-18.608	Thrust:	42.137
Time:	3.544	Roll Set Point:	-0.206	Pitch Set Point:	-0.053	Yaw Set Point:	-0.002	X_WP:	0.100	Y_WP:	0.000	Y_WP:	0.500	X:	0.153	Y:	0.027	Z:	0.322	yaw:	0.139	yaw rate:	71.720	Roll:	3.906	Pitch:	-0.091	Yaw:	16.711	Thrust:	56.444
Time:	3.556	Roll Set Point:	-0.209	Pitch Set Point:	-0.052	Yaw Set Point:	-0.001	X_WP:	0.100	Y_WP:	0.000	Y_WP:	0.500	X:	0.154	Y:	0.026	Z:	0.328	yaw:	0.059	yaw rate:	-8.063	Roll:	2.762	Pitch:	0.355	Yaw:	-2.308	Thrust:	60.602
Time:	3.567	Roll Set Point:	-0.210	Pitch Set Point:	-0.052	Yaw Set Point:	-0.002	X_WP:	0.100	Y_WP:	0.000	Y_WP:	0.500	X:	0.155	Y:	0.026	Z:	0.333	yaw:	0.119	yaw rate:	6.002	Roll:	2.789	Pitch:	0.413	Yaw:	0.998	Thrust:	60.337
Time:	3.578	Roll Set Point:	-0.212	Pitch Set Point:	-0.051	Yaw Set Point:	-0.004	X_WP:	0.100	Y_WP:	0.000	Y_WP:	0.500	X:	0.156	Y:	0.026	Z:	0.339	yaw:	0.249	yaw rate:	13.087	Roll:	3.130	Pitch:	-0.155	Yaw:	3.120	Thrust:	49.056
Time:	3.588	Roll Set Point:	-0.214	Pitch Set Point:	-0.051	Yaw Set Point:	-0.002	X_WP:	0.100	Y_WP:	0.000	Y_WP:	0.500	X:	0.157	Y:	0.026	Z:	0.344	yaw:	0.105	yaw rate:	-14.411	Roll:	2.721	Pitch:	0.689	Yaw:	-3.977	Thrust:	55.598
Time:	3.599	Roll Set Point:	-0.215	Pitch Set Point:	-0.050	Yaw Set Point:	0.011	X_WP:	0.100	Y_WP:	0.000	Y_WP:	0.500	X:	0.158	Y:	0.025	Z:	0.349	yaw:	-0.622	yaw rate:	-72.771	Roll:	2.202	Pitch:	0.456	Yaw:	-19.442	Thrust:	56.175
Time:	3.609	Roll Set Point:	-0.218	Pitch Set Point:	-0.049	Yaw Set Point:	-0.009	X_WP:	0.100	Y_WP:	0.000	Y_WP:	0.500	X:	0.159	Y:	0.025	Z:	0.355	yaw:	0.500	yaw rate:	112.208	Roll:	3.914	Pitch:	-1.031	Yaw:	28.117	Thrust:	50.968
Time:	3.619	Roll Set Point:	-0.219	Pitch Set Point:	-0.049	Yaw Set Point:	0.004	X_WP:	0.100	Y_WP:	0.000	Y_WP:	0.500	X:	0.160	Y:	0.024	Z:	0.360	yaw:	-0.236	yaw rate:	-73.592	Roll:	2.081	Pitch:	0.763	Yaw:	-19.926	Thrust:	48.916
Time:	3.630	Roll Set Point:	-0.221	Pitch Set Point:	-0.047	Yaw Set Point:	-0.008	X_WP:	0.100	Y_WP:	0.000	Y_WP:	0.500	X:	0.160	Y:	0.024	Z:	0.365	yaw:	0.462	yaw rate:	69.835	Roll:	3.353	Pitch:	-1.166	Yaw:	16.716	Thrust:	58.846
Time:	3.643	Roll Set Point:	-0.222	Pitch Set Point:	-0.047	Yaw Set Point:	0.006	X_WP:	0.100	Y_WP:	0.000	Y_WP:	0.500	X:	0.161	Y:	0.023	Z:	0.371	yaw:	-0.367	yaw rate:	-82.887	Roll:	1.871	Pitch:	1.119	Yaw:	-19.075	Thrust:	66.169
Time:	3.654	Roll Set Point:	-0.223	Pitch Set Point:	-0.046	Yaw Set Point:	-0.007	X_WP:	0.100	Y_WP:	0.000	Y_WP:	0.500	X:	0.162	Y:	0.023	Z:	0.376	yaw:	0.413	yaw rate:	77.970	Roll:	2.766	Pitch:	-0.743	Yaw:	17.759	Thrust:	61.710
Time:	3.664	Roll Set Point:	-0.225	Pitch Set Point:	-0.044	Yaw Set Point:	-0.013	X_WP:	0.100	Y_WP:	0.000	Y_WP:	0.500	X:	0.162	Y:	0.022	Z:	0.381	yaw:	0.772	yaw rate:	35.857	Roll:	2.831	Pitch:	-1.133	Yaw:	9.983	Thrust:	50.506
Time:	3.674	Roll Set Point:	-0.226	Pitch Set Point:	-0.043	Yaw Set Point:	-0.010	X_WP:	0.100	Y_WP:	0.000	Y_WP:	0.500	X:	0.163	Y:	0.022	Z:	0.386	yaw:	0.568	yaw rate:	-20.336	Roll:	2.757	Pitch:	0.173	Yaw:	-4.739	Thrust:	54.568
Time:	3.685	Roll Set Point:	-0.227	Pitch Set Point:	-0.042	Yaw Set Point:	-0.015	X_WP:	0.100	Y_WP:	0.000	Y_WP:	0.500	X:	0.163	Y:	0.021	Z:	0.390	yaw:	0.858	yaw rate:	29.001	Roll:	2.469	Pitch:	-1.024	Yaw:	7.930	Thrust:	55.825
Time:	3.696	Roll Set Point:	-0.228	Pitch Set Point:	-0.041	Yaw Set Point:	-0.010	X_WP:	0.100	Y_WP:	0.000	Y_WP:	0.500	X:	0.164	Y:	0.021	Z:	0.395	yaw:	0.571	yaw rate:	-28.725	Roll:	2.137	Pitch:	0.600	Yaw:	-6.242	Thrust:	58.382
Time:	3.709	Roll Set Point:	-0.230	Pitch Set Point:	-0.039	Yaw Set Point:	-0.013	X_WP:	0.100	Y_WP:	0.000	Y_WP:	0.500	X:	0.165	Y:	0.020	Z:	0.404	yaw:	0.766	yaw rate:	19.519	Roll:	3.295	Pitch:	-1.786	Yaw:	4.775	Thrust:	46.723
Time:	3.720	Roll Set Point:	-0.231	Pitch Set Point:	-0.038	Yaw Set Point:	-0.007	X_WP:	0.100	Y_WP:	0.000	Y_WP:	0.500	X:	0.165	Y:	0.019	Z:	0.408	yaw:	0.388	yaw rate:	-37.838	Roll:	2.235	Pitch:	0.553	Yaw:	-8.554	Thrust:	73.335
Time:	3.731	Roll Set Point:	-0.231	Pitch Set Point:	-0.037	Yaw Set Point:	0.001	X_WP:	0.100	Y_WP:	0.000	Y_WP:	0.500	X:	0.165	Y:	0.019	Z:	0.412	yaw:	-0.050	yaw rate:	-43.804	Roll:	1.475	Pitch:	0.061	Yaw:	-10.958	Thrust:	60.207
Time:	3.743	Roll Set Point:	-0.232	Pitch Set Point:	-0.036	Yaw Set Point:	-0.010	X_WP:	0.100	Y_WP:	0.000	Y_WP:	0.500	X:	0.166	Y:	0.018	Z:	0.417	yaw:	0.551	yaw rate:	60.083	Roll:	2.761	Pitch:	-0.863	Yaw:	13.872	Thrust:	62.751
Time:	3.753	Roll Set Point:	-0.233	Pitch Set Point:	-0.035	Yaw Set Point:	-0.008	X_WP:	0.100	Y_WP:	0.000	Y_WP:	0.500	X:	0.166	Y:	0.018	Z:	0.421	yaw:	0.460	yaw rate:	-9.045	Roll:	2.295	Pitch:	-0.587	Yaw:	-2.027	Thrust:	60.355
Time:	3.764	Roll Set Point:	-0.233	Pitch Set Point:	-0.033	Yaw Set Point:	-0.002	X_WP:	0.100	Y_WP:	0.000	Y_WP:	0.500	X:	0.167	Y:	0.017	Z:	0.425	yaw:	0.105	yaw rate:	-35.503	Roll:	1.891	Pitch:	-0.577	Yaw:	-8.767	Thrust:	60.683
Time:	3.777	Roll Set Point:	-0.234	Pitch Set Point:	-0.030	Yaw Set Point:	-0.014	X_WP:	0.100	Y_WP:	0.000	Y_WP:	0.500	X:	0.167	Y:	0.016	Z:	0.433	yaw:	0.824	yaw rate:	8.225	Roll:	2.337	Pitch:	-2.116	Yaw:	16.251	Thrust:	54.618
Time:	3.787	Roll Set Point:	-0.234	Pitch Set Point:	-0.029	Yaw Set Point:	-0.009	X_WP:	0.100	Y_WP:	0.000	Y_WP:	0.500	X:	0.167	Y:	0.015	Z:	0.437	yaw:	0.516	yaw rate:	-30.739	Roll:	1.854	Pitch:	-0.139	Yaw:	-7.381	Thrust:	57.498
Time:	3.798	Roll Set Point:	-0.234	Pitch Set Point:	-0.027	Yaw Set Point:	-0.011	X_WP:	0.100	Y_WP:	0.000	Y_WP:	0.500	X:	0.167	Y:	0.014	Z:	0.440	yaw:	0.606	yaw rate:	8.989	Roll:	1.929	Pitch:	-1.728	Yaw:	2.623	Thrust:	58.335
Time:	3.809	Roll Set Point:	-0.234	Pitch Set Point:	-0.026	Yaw Set Point:	-0.011	X_WP:	0.100	Y_WP:	0.000	Y_WP:	0.500	X:	0.167	Y:	0.013	Z:	0.444	yaw:	0.643	yaw rate:	3.627	Roll:	1.720	Pitch:	-0.593	Yaw:	1.280	Thrust:	57.324
Time:	3.820	Roll Set Point:	-0.234	Pitch Set Point:	-0.023	Yaw Set Point:	-0.014	X_WP:	0.100	Y_WP:	0.000	Y_WP:	0.500	X:	0.167	Y:	0.012	Z:	0.451	yaw:	0.811	yaw rate:	16.860	Roll:	1.733	Pitch:	-2.302	Yaw:	4.659	Thrust:	53.030
Time:	3.830	Roll Set Point:	-0.234	Pitch Set Point:	-0.021	Yaw Set Point:	-0.013	X_WP:	0.100	Y_WP:	0.000	Y_WP:	0.500	X:	0.167	Y:	0.011	Z:	0.455	yaw:	0.753	yaw rate:	-5.862	Roll:	1.542	Pitch:	-1.065	Yaw:	-0.909	Thrust:	54.428
Time:	3.844	Roll Set Point:	-0.234	Pitch Set Point:	-0.019	Yaw Set Point:	-0.014	X_WP:	0.100	Y_WP:	0.000	Y_WP:	0.500	X:	0.167	Y:	0.010	Z:	0.458	yaw:	0.778	yaw rate:	2.547	Roll:	1.668	Pitch:	-0.835	Yaw:	1.002	Thrust:	82.272
Time:	3.855	Roll Set Point:	-0.234	Pitch Set Point:	-0.018	Yaw Set Point:	-0.012	X_WP:	0.100	Y_WP:	0.000	Y_WP:	0.500	X:	0.167	Y:	0.009	Z:	0.461	yaw:	0.672	yaw rate:	-10.578	Roll:	1.652	Pitch:	-0.643	Yaw:	-1.869	Thrust:	71.111
Time:	3.865	Roll Set Point:	-0.234	Pitch Set Point:	-0.016	Yaw Set Point:	-0.015	X_WP:	0.100	Y_WP:	0.000	Y_WP:	0.500	X:	0.167	Y:	0.009	Z:	0.464	yaw:	0.850	yaw rate:	17.821	Roll:	1.477	Pitch:	-1.244	Yaw:	5.422	Thrust:	55.069
Time:	3.877	Roll Set Point:	-0.233	Pitch Set Point:	-0.015	Yaw Set Point:	-0.013	X_WP:	0.100	Y_WP:	0.000	Y_WP:	0.500	X:	0.167	Y:	0.008	Z:	0.467	yaw:	0.745	yaw rate:	-10.528	Roll:	1.328	Pitch:	-0.998	Yaw:	-1.917	Thrust:	63.249
Time:	3.887	Roll Set Point:	-0.233	Pitch Set Point:	-0.013	Yaw Set Point:	-0.013	X_WP:	0.100	Y_WP:	0.000	Y_WP:	0.500	X:	0.166	Y:	0.007	Z:	0.470	yaw:	0.753	yaw rate:	0.804	Roll:	1.413	Pitch:	-1.077	Yaw:	0.785	Thrust:	63.273
Time:	3.898	Roll Set Point:	-0.232	Pitch Set Point:	-0.012	Yaw Set Point:	-0.011	X_WP:	0.100	Y_WP:	0.000	Y_WP:	0.500	X:	0.166	Y:	0.006	Z:	0.473	yaw:	0.612	yaw rate:	-14.093	Roll:	1.404	Pitch:	-0.904	Yaw:	-3.078	Thrust:	59.982
Time:	3.910	Roll Set Point:	-0.232	Pitch Set Point:	-0.010	Yaw Set Point:	-0.013	X_WP:	0.100	Y_WP:	0.000	Y_WP:	0.500	X:	0.166	Y:	0.005	Z:	0.476	yaw:	0.770	yaw rate:	15.743	Roll:	1.124	Pitch:	-1.475	Yaw:	3.849	Thrust:	74.834
Time:	3.921	Roll Set Point:	-0.231	Pitch Set Point:	-0.009	Yaw Set Point:	-0.005	X_WP:	0.100	Y_WP:	0.000	Y_WP:	0.500	X:	0.166	Y:	0.004	Z:	0.479	yaw:	0.300	yaw rate:	-46.970	Roll:	1.407	Pitch:	-0.354	Yaw:	-11.258	Thrust:	63.725
Time:	3.933	Roll Set Point:	-0.230	Pitch Set Point:	-0.007	Yaw Set Point:	-0.008	X_WP:	0.100	Y_WP:	0.000	Y_WP:	0.500	X:	0.165	Y:	0.004	Z:	0.482	yaw:	0.472	yaw rate:	17.204	Roll:	1.126	Pitch:	-1.563	Yaw:	4.295	Thrust:	63.134
Time:	3.944	Roll Set Point:	-0.230	Pitch Set Point:	-0.005	Yaw Set Point:	-0.008	X_WP:	0.100	Y_WP:	0.000	Y_WP:	0.500	X:	0.165	Y:	0.003	Z:	0.485	yaw:	0.480	yaw rate:	0.818	Roll:	1.090	Pitch:	-1.241	Yaw:	0.361	Thrust:	70.843
Time:	3.956	Roll Set Point:	-0.229	Pitch Set Point:	-0.004	Yaw Set Point:	-0.005	X_WP:	0.100	Y_WP:	0.000	Y_WP:	0.500	X:	0.164	Y:	0.002	Z:	0.488	yaw:	0.304	yaw rate:	-17.599	Roll:	1.060	Pitch:	-0.982	Yaw:	-4.375	Thrust:	59.312
Time:	3.967	Roll Set Point:	-0.227	Pitch Set Point:	-0.000	Yaw Set Point:	-0.003	X_WP:	0.100	Y_WP:	0.000	Y_WP:	0.500	X:	0.164	Y:	0.000	Z:	0.494	yaw:	0.190	yaw rate:	-11.422	Roll:	0.350	Pitch:	-2.218	Yaw:	-2.703	Thrust:	59.137
Time:	3.978	Roll Set Point:	-0.226	Pitch Set Point:	0.002	Yaw Set Point:	-0.011	X_WP:	0.100	Y_WP:	0.000	Y_WP:	0.500	X:	0.163	Y:	-0.001	Z:	0.497	yaw:	0.648	yaw rate:	45.829	Roll:	0.705	Pitch:	-2.063	Yaw:	11.339	Thrust:	61.284
Time:	3.990	Roll Set Point:	-0.225	Pitch Set Point:	0.003	Yaw Set Point:	-0.010	X_WP:	0.100	Y_WP:	0.000	Y_WP:	0.500	X:	0.162	Y:	-0.001	Z:	0.500	yaw:	0.551	yaw rate:	-9.692	Roll:	0.708	Pitch:	-0.972	Yaw:	-2.056	Thrust:	58.432
Time:	4.000	Roll Set Point:	-0.223	Pitch Set Point:	0.005	Yaw Set Point:	-0.009	X_WP:	0.100	Y_WP:	0.000	Y_WP:	0.500	X:	0.162	Y:	-0.002	Z:	0.503	yaw:	0.526	yaw rate:	-2.566	Roll:	0.365	Pitch:	-1.945	Yaw:	-0.306	Thrust:	61.641
Time:	4.011	Roll Set Point:	-0.222	Pitch Set Point:	0.007	Yaw Set Point:	-0.012	X_WP:	0.100	Y_WP:	0.000	Y_WP:	0.500	X:	0.161	Y:	-0.003	Z:	0.507	yaw:	0.676	yaw rate:	14.993	Roll:	0.964	Pitch:	-1.490	Yaw:	4.066	Thrust:	64.271
Time:	4.022	Roll Set Point:	-0.221	Pitch Set Point:	0.009	Yaw Set Point:	-0.012	X_WP:	0.100	Y_WP:	0.000	Y_WP:	0.500	X:	0.161	Y:	-0.004	Z:	0.510	yaw:	0.697	yaw rate:	2.100	Roll:	0.765	Pitch:	-1.549	Yaw:	1.081	Thrust:	57.192
Time:	4.034	Roll Set Point:	-0.220	Pitch Set Point:	0.010	Yaw Set Point:	-0.001	X_WP:	0.100	Y_WP:	0.000	Y_WP:	0.500	X:	0.160	Y:	-0.005	Z:	0.513	yaw:	0.056	yaw rate:	-64.100	Roll:	0.632	Pitch:	-0.368	Yaw:	-14.927	Thrust:	63.979
Time:	4.045	Roll Set Point:	-0.219	Pitch Set Point:	0.012	Yaw Set Point:	0.004	X_WP:	0.100	Y_WP:	0.000	Y_WP:	0.500	X:	0.159	Y:	-0.006	Z:	0.516	yaw:	-0.205	yaw rate:	-26.073	Roll:	0.577	Pitch:	-1.474	Yaw:	-6.429	Thrust:	68.075
Time:	4.057	Roll Set Point:	-0.216	Pitch Set Point:	0.015	Yaw Set Point:	-0.003	X_WP:	0.100	Y_WP:	0.000	Y_WP:	0.500	X:	0.158	Y:	-0.007	Z:	0.523	yaw:	0.175	yaw rate:	-16.398	Roll:	-0.767	Pitch:	-3.065	Yaw:	8.597	Thrust:	47.672
Time:	4.068	Roll Set Point:	-0.214	Pitch Set Point:	0.017	Yaw Set Point:	-0.013	X_WP:	0.100	Y_WP:	0.000	Y_WP:	0.500	X:	0.157	Y:	-0.008	Z:	0.527	yaw:	0.769	yaw rate:	59.386	Roll:	-0.039	Pitch:	-2.170	Yaw:	14.102	Thrust:	61.581
Time:	4.080	Roll Set Point:	-0.213	Pitch Set Point:	0.019	Yaw Set Point:	-0.013	X_WP:	0.100	Y_WP:	0.000	Y_WP:	0.500	X:	0.156	Y:	-0.009	Z:	0.531	yaw:	0.742	yaw rate:	-2.700	Roll:	0.692	Pitch:	-1.465	Yaw:	-0.024	Thrust:	57.696
Time:	4.090	Roll Set Point:	-0.210	Pitch Set Point:	0.021	Yaw Set Point:	0.001	X_WP:	0.100	Y_WP:	0.000	Y_WP:	0.500	X:	0.155	Y:	-0.011	Z:	0.538	yaw:	-0.066	yaw rate:	-80.805	Roll:	-0.715	Pitch:	-1.796	Yaw:	-20.590	Thrust:	43.019
Time:	4.102	Roll Set Point:	-0.208	Pitch Set Point:	0.023	Yaw Set Point:	-0.011	X_WP:	0.100	Y_WP:	0.000	Y_WP:	0.500	X:	0.154	Y:	-0.011	Z:	0.542	yaw:	0.604	yaw rate:	67.006	Roll:	-0.229	Pitch:	-2.261	Yaw:	15.605	Thrust:	57.102
Time:	4.113	Roll Set Point:	-0.206	Pitch Set Point:	0.025	Yaw Set Point:	-0.008	X_WP:	0.100	Y_WP:	0.000	Y_WP:	0.500	X:	0.153	Y:	-0.012	Z:	0.545	yaw:	0.434	yaw rate:	-17.003	Roll:	0.131	Pitch:	-1.449	Yaw:	-3.853	Thrust:	61.479
Time:	4.124	Roll Set Point:	-0.204	Pitch Set Point:	0.027	Yaw Set Point:	-0.016	X_WP:	0.100	Y_WP:	0.000	Y_WP:	0.500	X:	0.152	Y:	-0.013	Z:	0.549	yaw:	0.918	yaw rate:	48.446	Roll:	-0.206	Pitch:	-2.301	Yaw:	12.246	Thrust:	57.845
Time:	4.135	Roll Set Point:	-0.202	Pitch Set Point:	0.028	Yaw Set Point:	-0.014	X_WP:	0.100	Y_WP:	0.000	Y_WP:	0.500	X:	0.151	Y:	-0.014	Z:	0.552	yaw:	0.778	yaw rate:	-14.048	Roll:	-0.031	Pitch:	-1.332	Yaw:	-2.540	Thrust:	61.101
Time:	4.146	Roll Set Point:	-0.201	Pitch Set Point:	0.029	Yaw Set Point:	-0.007	X_WP:	0.100	Y_WP:	0.000	Y_WP:	0.500	X:	0.151	Y:	-0.014	Z:	0.555	yaw:	0.374	yaw rate:	-40.398	Roll:	0.260	Pitch:	-1.256	Yaw:	-9.480	Thrust:	54.246
Time:	4.158	Roll Set Point:	-0.199	Pitch Set Point:	0.031	Yaw Set Point:	-0.006	X_WP:	0.100	Y_WP:	0.000	Y_WP:	0.500	X:	0.150	Y:	-0.015	Z:	0.558	yaw:	0.362	yaw rate:	-1.242	Roll:	0.026	Pitch:	-1.428	Yaw:	-0.208	Thrust:	64.596
Time:	4.170	Roll Set Point:	-0.198	Pitch Set Point:	0.032	Yaw Set Point:	-0.007	X_WP:	0.100	Y_WP:	0.000	Y_WP:	0.500	X:	0.149	Y:	-0.016	Z:	0.561	yaw:	0.421	yaw rate:	5.902	Roll:	0.007	Pitch:	-1.456	Yaw:	1.352	Thrust:	69.086
Time:	4.181	Roll Set Point:	-0.195	Pitch Set Point:	0.034	Yaw Set Point:	-0.021	X_WP:	0.100	Y_WP:	0.000	Y_WP:	0.500	X:	0.148	Y:	-0.017	Z:	0.565	yaw:	1.202	yaw rate:	78.143	Roll:	-0.761	Pitch:	-2.795	Yaw:	19.814	Thrust:	57.788
Time:	4.192	Roll Set Point:	-0.194	Pitch Set Point:	0.035	Yaw Set Point:	-0.016	X_WP:	0.100	Y_WP:	0.000	Y_WP:	0.500	X:	0.147	Y:	-0.017	Z:	0.568	yaw:	0.895	yaw rate:	-30.741	Roll:	0.134	Pitch:	-1.191	Yaw:	-6.772	Thrust:	53.790
Time:	4.204	Roll Set Point:	-0.192	Pitch Set Point:	0.037	Yaw Set Point:	-0.010	X_WP:	0.100	Y_WP:	0.000	Y_WP:	0.500	X:	0.146	Y:	-0.018	Z:	0.570	yaw:	0.559	yaw rate:	-33.543	Roll:	-0.128	Pitch:	-1.319	Yaw:	-7.252	Thrust:	62.250
Time:	4.215	Roll Set Point:	-0.190	Pitch Set Point:	0.038	Yaw Set Point:	-0.004	X_WP:	0.100	Y_WP:	0.000	Y_WP:	0.500	X:	0.145	Y:	-0.019	Z:	0.573	yaw:	0.254	yaw rate:	-30.547	Roll:	-0.018	Pitch:	-1.327	Yaw:	-7.296	Thrust:	58.129
Time:	4.225	Roll Set Point:	-0.188	Pitch Set Point:	0.039	Yaw Set Point:	-0.014	X_WP:	0.100	Y_WP:	0.000	Y_WP:	0.500	X:	0.144	Y:	-0.019	Z:	0.576	yaw:	0.809	yaw rate:	55.538	Roll:	-0.672	Pitch:	-2.124	Yaw:	14.320	Thrust:	54.115
Time:	4.237	Roll Set Point:	-0.187	Pitch Set Point:	0.040	Yaw Set Point:	-0.008	X_WP:	0.100	Y_WP:	0.000	Y_WP:	0.500	X:	0.143	Y:	-0.020	Z:	0.579	yaw:	0.468	yaw rate:	-34.063	Roll:	0.016	Pitch:	-1.213	Yaw:	-7.491	Thrust:	62.047
Time:	4.248	Roll Set Point:	-0.183	Pitch Set Point:	0.043	Yaw Set Point:	-0.012	X_WP:	0.100	Y_WP:	0.000	Y_WP:	0.500	X:	0.142	Y:	-0.021	Z:	0.584	yaw:	0.701	yaw rate:	23.283	Roll:	-1.975	Pitch:	-3.092	Yaw:	6.112	Thrust:	46.327
Time:	4.259	Roll Set Point:	-0.181	Pitch Set Point:	0.045	Yaw Set Point:	-0.011	X_WP:	0.100	Y_WP:	0.000	Y_WP:	0.500	X:	0.141	Y:	-0.022	Z:	0.587	yaw:	0.648	yaw rate:	-5.331	Roll:	-0.361	Pitch:	-1.672	Yaw:	-0.779	Thrust:	54.958
Time:	4.270	Roll Set Point:	-0.179	Pitch Set Point:	0.046	Yaw Set Point:	-0.017	X_WP:	0.100	Y_WP:	0.000	Y_WP:	0.500	X:	0.140	Y:	-0.022	Z:	0.590	yaw:	0.973	yaw rate:	32.482	Roll:	-0.789	Pitch:	-1.692	Yaw:	8.677	Thrust:	55.998
Time:	4.281	Roll Set Point:	-0.178	Pitch Set Point:	0.047	Yaw Set Point:	-0.001	X_WP:	0.100	Y_WP:	0.000	Y_WP:	0.500	X:	0.139	Y:	-0.023	Z:	0.592	yaw:	0.066	yaw rate:	-90.689	Roll:	0.403	Pitch:	-1.244	Yaw:	-21.817	Thrust:	58.133
Time:	4.294	Roll Set Point:	-0.176	Pitch Set Point:	0.048	Yaw Set Point:	-0.008	X_WP:	0.100	Y_WP:	0.000	Y_WP:	0.500	X:	0.138	Y:	-0.024	Z:	0.595	yaw:	0.452	yaw rate:	38.611	Roll:	-0.559	Pitch:	-1.671	Yaw:	7.906	Thrust:	64.774
Time:	4.304	Roll Set Point:	-0.172	Pitch Set Point:	0.051	Yaw Set Point:	-0.015	X_WP:	0.100	Y_WP:	0.000	Y_WP:	0.500	X:	0.136	Y:	-0.025	Z:	0.600	yaw:	0.854	yaw rate:	-22.445	Roll:	-2.190	Pitch:	-2.888	Yaw:	10.815	Thrust:	50.902
Time:	4.315	Roll Set Point:	-0.170	Pitch Set Point:	0.052	Yaw Set Point:	-0.015	X_WP:	0.100	Y_WP:	0.000	Y_WP:	0.500	X:	0.135	Y:	-0.026	Z:	0.602	yaw:	0.862	yaw rate:	0.835	Roll:	-0.584	Pitch:	-1.714	Yaw:	1.022	Thrust:	57.063
Time:	4.325	Roll Set Point:	-0.169	Pitch Set Point:	0.053	Yaw Set Point:	-0.005	X_WP:	0.100	Y_WP:	0.000	Y_WP:	0.500	X:	0.134	Y:	-0.026	Z:	0.604	yaw:	0.259	yaw rate:	-60.366	Roll:	0.012	Pitch:	-1.409	Yaw:	-15.737	Thrust:	49.900
Time:	4.337	Roll Set Point:	-0.167	Pitch Set Point:	0.054	Yaw Set Point:	-0.012	X_WP:	0.100	Y_WP:	0.000	Y_WP:	0.500	X:	0.134	Y:	-0.027	Z:	0.607	yaw:	0.691	yaw rate:	43.224	Roll:	-0.863	Pitch:	-1.796	Yaw:	10.382	Thrust:	60.638
Time:	4.348	Roll Set Point:	-0.165	Pitch Set Point:	0.055	Yaw Set Point:	-0.019	X_WP:	0.100	Y_WP:	0.000	Y_WP:	0.500	X:	0.133	Y:	-0.027	Z:	0.609	yaw:	1.093	yaw rate:	40.196	Roll:	-0.874	Pitch:	-1.779	Yaw:	10.695	Thrust:	56.187
Time:	4.360	Roll Set Point:	-0.163	Pitch Set Point:	0.057	Yaw Set Point:	-0.030	X_WP:	0.100	Y_WP:	0.000	Y_WP:	0.500	X:	0.132	Y:	-0.028	Z:	0.611	yaw:	1.728	yaw rate:	63.558	Roll:	-1.141	Pitch:	-2.340	Yaw:	16.064	Thrust:	63.610
Time:	4.372	Roll Set Point:	-0.161	Pitch Set Point:	0.057	Yaw Set Point:	-0.023	X_WP:	0.100	Y_WP:	0.000	Y_WP:	0.500	X:	0.131	Y:	-0.028	Z:	0.613	yaw:	1.324	yaw rate:	-40.379	Roll:	-0.025	Pitch:	-1.168	Yaw:	-7.338	Thrust:	60.801
Time:	4.384	Roll Set Point:	-0.158	Pitch Set Point:	0.059	Yaw Set Point:	-0.016	X_WP:	0.100	Y_WP:	0.000	Y_WP:	0.500	X:	0.129	Y:	-0.029	Z:	0.617	yaw:	0.896	yaw rate:	-42.871	Roll:	-1.309	Pitch:	-2.110	Yaw:	-8.450	Thrust:	53.708
Time:	4.394	Roll Set Point:	-0.157	Pitch Set Point:	0.060	Yaw Set Point:	-0.011	X_WP:	0.100	Y_WP:	0.000	Y_WP:	0.500	X:	0.129	Y:	-0.030	Z:	0.619	yaw:	0.639	yaw rate:	-25.646	Roll:	-0.229	Pitch:	-1.435	Yaw:	-6.127	Thrust:	57.709
Time:	4.405	Roll Set Point:	-0.155	Pitch Set Point:	0.061	Yaw Set Point:	-0.019	X_WP:	0.100	Y_WP:	0.000	Y_WP:	0.500	X:	0.128	Y:	-0.030	Z:	0.621	yaw:	1.099	yaw rate:	46.003	Roll:	-1.060	Pitch:	-1.796	Yaw:	11.608	Thrust:	60.124
Time:	4.417	Roll Set Point:	-0.154	Pitch Set Point:	0.062	Yaw Set Point:	-0.013	X_WP:	0.100	Y_WP:	0.000	Y_WP:	0.500	X:	0.127	Y:	-0.031	Z:	0.622	yaw:	0.742	yaw rate:	-35.761	Roll:	-0.077	Pitch:	-1.417	Yaw:	-7.792	Thrust:	57.975
Time:	4.427	Roll Set Point:	-0.152	Pitch Set Point:	0.062	Yaw Set Point:	-0.019	X_WP:	0.100	Y_WP:	0.000	Y_WP:	0.500	X:	0.126	Y:	-0.031	Z:	0.624	yaw:	1.076	yaw rate:	33.427	Roll:	-0.950	Pitch:	-1.729	Yaw:	9.094	Thrust:	56.498
Time:	4.439	Roll Set Point:	-0.151	Pitch Set Point:	0.063	Yaw Set Point:	-0.016	X_WP:	0.100	Y_WP:	0.000	Y_WP:	0.500	X:	0.126	Y:	-0.032	Z:	0.625	yaw:	0.924	yaw rate:	-15.163	Roll:	-0.340	Pitch:	-1.760	Yaw:	-2.506	Thrust:	61.722
Time:	4.450	Roll Set Point:	-0.149	Pitch Set Point:	0.064	Yaw Set Point:	-0.022	X_WP:	0.100	Y_WP:	0.000	Y_WP:	0.500	X:	0.125	Y:	-0.032	Z:	0.627	yaw:	1.280	yaw rate:	35.559	Roll:	-0.907	Pitch:	-1.814	Yaw:	9.888	Thrust:	56.739
Time:	4.461	Roll Set Point:	-0.148	Pitch Set Point:	0.065	Yaw Set Point:	-0.013	X_WP:	0.100	Y_WP:	0.000	Y_WP:	0.500	X:	0.124	Y:	-0.032	Z:	0.628	yaw:	0.717	yaw rate:	-56.284	Roll:	0.121	Pitch:	-1.335	Yaw:	-12.691	Thrust:	58.011
Time:	4.473	Roll Set Point:	-0.147	Pitch Set Point:	0.066	Yaw Set Point:	-0.012	X_WP:	0.100	Y_WP:	0.000	Y_WP:	0.500	X:	0.123	Y:	-0.033	Z:	0.630	yaw:	0.665	yaw rate:	-5.191	Roll:	-0.698	Pitch:	-1.672	Yaw:	-0.593	Thrust:	61.058
Time:	4.483	Roll Set Point:	-0.145	Pitch Set Point:	0.066	Yaw Set Point:	-0.020	X_WP:	0.100	Y_WP:	0.000	Y_WP:	0.500	X:	0.123	Y:	-0.033	Z:	0.632	yaw:	1.138	yaw rate:	47.282	Roll:	-0.754	Pitch:	-1.524	Yaw:	13.032	Thrust:	52.293
Time:	4.494	Roll Set Point:	-0.144	Pitch Set Point:	0.067	Yaw Set Point:	-0.009	X_WP:	0.100	Y_WP:	0.000	Y_WP:	0.500	X:	0.122	Y:	-0.033	Z:	0.633	yaw:	0.520	yaw rate:	-61.765	Roll:	0.173	Pitch:	-1.367	Yaw:	-14.239	Thrust:	58.166
Time:	4.505	Roll Set Point:	-0.143	Pitch Set Point:	0.068	Yaw Set Point:	-0.013	X_WP:	0.100	Y_WP:	0.000	Y_WP:	0.500	X:	0.122	Y:	-0.034	Z:	0.634	yaw:	0.773	yaw rate:	25.299	Roll:	-0.974	Pitch:	-1.823	Yaw:	7.071	Thrust:	53.412
Time:	4.515	Roll Set Point:	-0.141	Pitch Set Point:	0.069	Yaw Set Point:	-0.022	X_WP:	0.100	Y_WP:	0.000	Y_WP:	0.500	X:	0.121	Y:	-0.034	Z:	0.635	yaw:	1.278	yaw rate:	50.457	Roll:	-1.148	Pitch:	-1.849	Yaw:	14.030	Thrust:	53.197
Time:	4.526	Roll Set Point:	-0.140	Pitch Set Point:	0.070	Yaw Set Point:	-0.016	X_WP:	0.100	Y_WP:	0.000	Y_WP:	0.500	X:	0.120	Y:	-0.035	Z:	0.636	yaw:	0.904	yaw rate:	-37.441	Roll:	-0.097	Pitch:	-1.608	Yaw:	-8.562	Thrust:	52.449
Time:	4.537	Roll Set Point:	-0.138	Pitch Set Point:	0.071	Yaw Set Point:	-0.000	X_WP:	0.100	Y_WP:	0.000	Y_WP:	0.500	X:	0.119	Y:	-0.035	Z:	0.638	yaw:	0.022	yaw rate:	-88.107	Roll:	-0.739	Pitch:	-1.808	Yaw:	-20.295	Thrust:	57.025
Time:	4.548	Roll Set Point:	-0.137	Pitch Set Point:	0.071	Yaw Set Point:	-0.016	X_WP:	0.100	Y_WP:	0.000	Y_WP:	0.500	X:	0.119	Y:	-0.035	Z:	0.640	yaw:	0.889	yaw rate:	86.603	Roll:	-1.064	Pitch:	-1.640	Yaw:	21.489	Thrust:	56.539
Time:	4.560	Roll Set Point:	-0.135	Pitch Set Point:	0.072	Yaw Set Point:	-0.021	X_WP:	0.100	Y_WP:	0.000	Y_WP:	0.500	X:	0.118	Y:	-0.036	Z:	0.641	yaw:	1.218	yaw rate:	32.963	Roll:	-0.643	Pitch:	-1.477	Yaw:	8.533	Thrust:	63.470
Time:	4.572	Roll Set Point:	-0.135	Pitch Set Point:	0.072	Yaw Set Point:	-0.013	X_WP:	0.100	Y_WP:	0.000	Y_WP:	0.500	X:	0.118	Y:	-0.036	Z:	0.641	yaw:	0.728	yaw rate:	-49.063	Roll:	0.095	Pitch:	-1.489	Yaw:	-10.442	Thrust:	61.564
Time:	4.582	Roll Set Point:	-0.134	Pitch Set Point:	0.073	Yaw Set Point:	-0.012	X_WP:	0.100	Y_WP:	0.000	Y_WP:	0.500	X:	0.117	Y:	-0.036	Z:	0.642	yaw:	0.686	yaw rate:	-4.111	Roll:	-0.482	Pitch:	-1.517	Yaw:	-0.347	Thrust:	54.457
Time:	4.594	Roll Set Point:	-0.132	Pitch Set Point:	0.073	Yaw Set Point:	-0.025	X_WP:	0.100	Y_WP:	0.000	Y_WP:	0.500	X:	0.117	Y:	-0.037	Z:	0.643	yaw:	1.443	yaw rate:	75.689	Roll:	-1.303	Pitch:	-1.832	Yaw:	18.155	Thrust:	64.193
Time:	4.605	Roll Set Point:	-0.131	Pitch Set Point:	0.074	Yaw Set Point:	-0.025	X_WP:	0.100	Y_WP:	0.000	Y_WP:	0.500	X:	0.116	Y:	-0.037	Z:	0.643	yaw:	1.404	yaw rate:	-3.909	Roll:	-0.434	Pitch:	-1.541	Yaw:	0.713	Thrust:	54.802
Time:	4.617	Roll Set Point:	-0.130	Pitch Set Point:	0.076	Yaw Set Point:	0.010	X_WP:	0.100	Y_WP:	0.000	Y_WP:	0.500	X:	0.115	Y:	-0.038	Z:	0.643	yaw:	-0.551	yaw rate:	-156.817	Roll:	0.749	Pitch:	-1.996	Yaw:	-43.591	Thrust:	65.908
Time:	4.627	Roll Set Point:	-0.130	Pitch Set Point:	0.076	Yaw Set Point:	0.010	X_WP:	0.100	Y_WP:	0.000	Y_WP:	0.500	X:	0.115	Y:	-0.038	Z:	0.643	yaw:	-0.551	yaw rate:	-156.817	Roll:	0.319	Pitch:	-1.171	Yaw:	-1.028	Thrust:	53.660
Time:	4.638	Roll Set Point:	-0.128	Pitch Set Point:	0.076	Yaw Set Point:	-0.021	X_WP:	0.100	Y_WP:	0.000	Y_WP:	0.500	X:	0.114	Y:	-0.038	Z:	0.645	yaw:	1.215	yaw rate:	176.582	Roll:	-2.644	Pitch:	-1.525	Yaw:	41.461	Thrust:	57.843
Time:	4.650	Roll Set Point:	-0.126	Pitch Set Point:	0.077	Yaw Set Point:	-0.030	X_WP:	0.100	Y_WP:	0.000	Y_WP:	0.500	X:	0.113	Y:	-0.038	Z:	0.645	yaw:	1.695	yaw rate:	44.774	Roll:	-1.566	Pitch:	-2.273	Yaw:	12.351	Thrust:	65.383
Time:	4.661	Roll Set Point:	-0.126	Pitch Set Point:	0.077	Yaw Set Point:	-0.030	X_WP:	0.100	Y_WP:	0.000	Y_WP:	0.500	X:	0.113	Y:	-0.038	Z:	0.645	yaw:	1.695	yaw rate:	44.774	Roll:	0.230	Pitch:	-1.201	Yaw:	2.091	Thrust:	53.076
Time:	4.672	Roll Set Point:	-0.125	Pitch Set Point:	0.078	Yaw Set Point:	-0.017	X_WP:	0.100	Y_WP:	0.000	Y_WP:	0.500	X:	0.113	Y:	-0.039	Z:	0.645	yaw:	0.946	yaw rate:	-36.184	Roll:	-0.109	Pitch:	-1.517	Yaw:	-17.565	Thrust:	63.203
Time:	4.683	Roll Set Point:	-0.124	Pitch Set Point:	0.078	Yaw Set Point:	-0.003	X_WP:	0.100	Y_WP:	0.000	Y_WP:	0.500	X:	0.112	Y:	-0.039	Z:	0.644	yaw:	0.199	yaw rate:	-74.749	Roll:	0.330	Pitch:	-1.559	Yaw:	-17.760	Thrust:	59.887
Time:	4.696	Roll Set Point:	-0.124	Pitch Set Point:	0.078	Yaw Set Point:	-0.011	X_WP:	0.100	Y_WP:	0.000	Y_WP:	0.500	X:	0.112	Y:	-0.039	Z:	0.644	yaw:	0.629	yaw rate:	43.048	Roll:	-0.253	Pitch:	-1.182	Yaw:	9.212	Thrust:	64.085
Time:	4.710	Roll Set Point:	-0.123	Pitch Set Point:	0.078	Yaw Set Point:	-0.010	X_WP:	0.100	Y_WP:	0.000	Y_WP:	0.500	X:	0.112	Y:	-0.039	Z:	0.644	yaw:	0.582	yaw rate:	-4.704	Roll:	-0.181	Pitch:	-1.392	Yaw:	-0.399	Thrust:	80.151
Time:	4.721	Roll Set Point:	-0.123	Pitch Set Point:	0.078	Yaw Set Point:	-0.011	X_WP:	0.100	Y_WP:	0.000	Y_WP:	0.500	X:	0.112	Y:	-0.039	Z:	0.644	yaw:	0.626	yaw rate:	4.362	Roll:	-0.229	Pitch:	-1.395	Yaw:	1.709	Thrust:	59.162
Time:	4.732	Roll Set Point:	-0.122	Pitch Set Point:	0.079	Yaw Set Point:	-0.010	X_WP:	0.100	Y_WP:	0.000	Y_WP:	0.500	X:	0.111	Y:	-0.039	Z:	0.644	yaw:	0.600	yaw rate:	-2.609	Roll:	-0.189	Pitch:	-1.407	Yaw:	-0.041	Thrust:	59.480
Time:	4.743	Roll Set Point:	-0.121	Pitch Set Point:	0.079	Yaw Set Point:	-0.013	X_WP:	0.100	Y_WP:	0.000	Y_WP:	0.500	X:	0.111	Y:	-0.039	Z:	0.644	yaw:	0.764	yaw rate:	16.457	Roll:	-0.620	Pitch:	-1.355	Yaw:	4.534	Thrust:	61.330
Time:	4.754	Roll Set Point:	-0.121	Pitch Set Point:	0.079	Yaw Set Point:	-0.018	X_WP:	0.100	Y_WP:	0.000	Y_WP:	0.500	X:	0.111	Y:	-0.039	Z:	0.643	yaw:	1.031	yaw rate:	26.692	Roll:	-0.404	Pitch:	-1.470	Yaw:	7.504	Thrust:	61.177
Time:	4.764	Roll Set Point:	-0.121	Pitch Set Point:	0.080	Yaw Set Point:	-0.013	X_WP:	0.100	Y_WP:	0.000	Y_WP:	0.500	X:	0.111	Y:	-0.040	Z:	0.642	yaw:	0.760	yaw rate:	-27.104	Roll:	0.045	Pitch:	-1.591	Yaw:	-6.237	Thrust:	54.832
Time:	4.778	Roll Set Point:	-0.120	Pitch Set Point:	0.080	Yaw Set Point:	-0.017	X_WP:	0.100	Y_WP:	0.000	Y_WP:	0.500	X:	0.110	Y:	-0.040	Z:	0.642	yaw:	0.963	yaw rate:	20.249	Roll:	-0.392	Pitch:	-1.476	Yaw:	4.960	Thrust:	73.437
Time:	4.788	Roll Set Point:	-0.119	Pitch Set Point:	0.080	Yaw Set Point:	-0.012	X_WP:	0.100	Y_WP:	0.000	Y_WP:	0.500	X:	0.110	Y:	-0.040	Z:	0.640	yaw:	0.668	yaw rate:	-29.415	Roll:	-0.109	Pitch:	-1.328	Yaw:	-6.611	Thrust:	59.951
Time:	4.800	Roll Set Point:	-0.119	Pitch Set Point:	0.080	Yaw Set Point:	-0.010	X_WP:	0.100	Y_WP:	0.000	Y_WP:	0.500	X:	0.110	Y:	-0.040	Z:	0.639	yaw:	0.550	yaw rate:	9.098	Roll:	-0.307	Pitch:	-1.401	Yaw:	-2.175	Thrust:	64.387
Time:	4.811	Roll Set Point:	-0.118	Pitch Set Point:	0.080	Yaw Set Point:	-0.015	X_WP:	0.100	Y_WP:	0.000	Y_WP:	0.500	X:	0.109	Y:	-0.040	Z:	0.639	yaw:	0.860	yaw rate:	30.969	Roll:	-0.470	Pitch:	-1.192	Yaw:	7.983	Thrust:	61.941
Time:	4.822	Roll Set Point:	-0.118	Pitch Set Point:	0.080	Yaw Set Point:	-0.015	X_WP:	0.100	Y_WP:	0.000	Y_WP:	0.500	X:	0.109	Y:	-0.040	Z:	0.638	yaw:	0.863	yaw rate:	0.393	Roll:	-0.142	Pitch:	-1.282	Yaw:	1.079	Thrust:	56.159
Time:	4.833	Roll Set Point:	-0.118	Pitch Set Point:	0.081	Yaw Set Point:	-0.001	X_WP:	0.100	Y_WP:	0.000	Y_WP:	0.500	X:	0.109	Y:	-0.040	Z:	0.638	yaw:	0.040	yaw rate:	-82.393	Roll:	0.960	Pitch:	-1.472	Yaw:	-18.888	Thrust:	62.440
Time:	4.846	Roll Set Point:	-0.117	Pitch Set Point:	0.080	Yaw Set Point:	-0.014	X_WP:	0.100	Y_WP:	0.000	Y_WP:	0.500	X:	0.109	Y:	-0.040	Z:	0.637	yaw:	0.779	yaw rate:	73.940	Roll:	-1.146	Pitch:	-1.220	Yaw:	17.601	Thrust:	61.108
Time:	4.858	Roll Set Point:	-0.118	Pitch Set Point:	0.081	Yaw Set Point:	-0.002	X_WP:	0.100	Y_WP:	0.000	Y_WP:	0.500	X:	0.109	Y:	-0.040	Z:	0.637	yaw:	0.090	yaw rate:	-68.924	Roll:	0.752	Pitch:	-1.455	Yaw:	-14.258	Thrust:	69.147
Time:	4.869	Roll Set Point:	-0.116	Pitch Set Point:	0.081	Yaw Set Point:	-0.018	X_WP:	0.100	Y_WP:	0.000	Y_WP:	0.500	X:	0.109	Y:	-0.040	Z:	0.636	yaw:	1.013	yaw rate:	92.337	Roll:	-1.312	Pitch:	-1.475	Yaw:	23.110	Thrust:	55.549
Time:	4.880	Roll Set Point:	-0.117	Pitch Set Point:	0.082	Yaw Set Point:	0.009	X_WP:	0.100	Y_WP:	0.000	Y_WP:	0.500	X:	0.108	Y:	-0.041	Z:	0.635	yaw:	-0.503	yaw rate:	-151.566	Roll:	1.409	Pitch:	-1.755	Yaw:	-38.607	Thrust:	60.551
Time:	4.893	Roll Set Point:	-0.116	Pitch Set Point:	0.081	Yaw Set Point:	-0.018	X_WP:	0.100	Y_WP:	0.000	Y_WP:	0.500	X:	0.108	Y:	-0.040	Z:	0.635	yaw:	1.038	yaw rate:	154.050	Roll:	-1.610	Pitch:	-0.630	Yaw:	32.074	Thrust:	61.815
Time:	4.904	Roll Set Point:	-0.116	Pitch Set Point:	0.081	Yaw Set Point:	-0.017	X_WP:	0.100	Y_WP:	0.000	Y_WP:	0.500	X:	0.108	Y:	-0.040	Z:	0.635	yaw:	1.003	yaw rate:	-3.542	Roll:	0.167	Pitch:	-1.274	Yaw:	0.386	Thrust:	62.744
Time:	4.917	Roll Set Point:	-0.116	Pitch Set Point:	0.080	Yaw Set Point:	-0.012	X_WP:	0.100	Y_WP:	0.000	Y_WP:	0.500	X:	0.108	Y:	-0.040	Z:	0.633	yaw:	0.662	yaw rate:	-34.023	Roll:	0.185	Pitch:	-1.143	Yaw:	-7.366	Thrust:	60.339
Time:	4.928	Roll Set Point:	-0.116	Pitch Set Point:	0.080	Yaw Set Point:	-0.010	X_WP:	0.100	Y_WP:	0.000	Y_WP:	0.500	X:	0.108	Y:	-0.040	Z:	0.633	yaw:	0.556	yaw rate:	-10.656	Roll:	0.104	Pitch:	-1.188	Yaw:	-1.775	Thrust:	58.029
Time:	4.939	Roll Set Point:	-0.115	Pitch Set Point:	0.080	Yaw Set Point:	-0.011	X_WP:	0.100	Y_WP:	0.000	Y_WP:	0.500	X:	0.108	Y:	-0.040	Z:	0.633	yaw:	0.636	yaw rate:	8.051	Roll:	-0.083	Pitch:	-1.208	Yaw:	2.586	Thrust:	59.815
Time:	4.950	Roll Set Point:	-0.115	Pitch Set Point:	0.080	Yaw Set Point:	-0.017	X_WP:	0.100	Y_WP:	0.000	Y_WP:	0.500	X:	0.108	Y:	-0.040	Z:	0.632	yaw:	0.953	yaw rate:	31.687	Roll:	-0.348	Pitch:	-1.042	Yaw:	8.291	Thrust:	62.460
Time:	4.963	Roll Set Point:	-0.115	Pitch Set Point:	0.080	Yaw Set Point:	-0.016	X_WP:	0.100	Y_WP:	0.000	Y_WP:	0.500	X:	0.108	Y:	-0.040	Z:	0.632	yaw:	0.927	yaw rate:	-2.632	Roll:	-0.155	Pitch:	-1.352	Yaw:	0.495	Thrust:	63.101
Time:	4.978	Roll Set Point:	-0.116	Pitch Set Point:	0.080	Yaw Set Point:	-0.001	X_WP:	0.100	Y_WP:	0.000	Y_WP:	0.500	X:	0.108	Y:	-0.040	Z:	0.631	yaw:	0.031	yaw rate:	-41.138	Roll:	0.874	Pitch:	-1.135	Yaw:	-15.330	Thrust:	83.018
Time:	4.990	Roll Set Point:	-0.115	Pitch Set Point:	0.079	Yaw Set Point:	-0.006	X_WP:	0.100	Y_WP:	0.000	Y_WP:	0.500	X:	0.108	Y:	-0.040	Z:	0.630	yaw:	0.351	yaw rate:	31.986	Roll:	-0.269	Pitch:	-0.958	Yaw:	7.062	Thrust:	64.015
Time:	5.002	Roll Set Point:	-0.115	Pitch Set Point:	0.079	Yaw Set Point:	-0.007	X_WP:	0.100	Y_WP:	0.000	Y_WP:	0.500	X:	0.108	Y:	-0.040	Z:	0.630	yaw:	0.398	yaw rate:	4.704	Roll:	0.016	Pitch:	-1.126	Yaw:	1.358	Thrust:	59.222
Time:	5.014	Roll Set Point:	-0.115	Pitch Set Point:	0.079	Yaw Set Point:	-0.014	X_WP:	0.100	Y_WP:	0.000	Y_WP:	0.500	X:	0.108	Y:	-0.039	Z:	0.629	yaw:	0.783	yaw rate:	38.550	Roll:	-0.317	Pitch:	-1.044	Yaw:	9.637	Thrust:	58.689
Time:	5.026	Roll Set Point:	-0.115	Pitch Set Point:	0.078	Yaw Set Point:	-0.013	X_WP:	0.100	Y_WP:	0.000	Y_WP:	0.500	X:	0.108	Y:	-0.039	Z:	0.629	yaw:	0.756	yaw rate:	-2.721	Roll:	-0.189	Pitch:	-1.071	Yaw:	0.249	Thrust:	65.001
