Time:	2.155	Roll Set Point:	-0.234	Pitch Set Point:	-0.123	Yaw Set Point:	-0.567	X_WP:	0.000	Y_WP:	0.000	Y_WP:	0.500	X:	0.099	Y:	0.096	Z:	0.399	yaw:	32.497	yaw rate:	-0.146	Roll:	3.917	Pitch:	0.797	Yaw:	45.374	Thrust:	5.550
Time:	2.171	Roll Set Point:	-0.235	Pitch Set Point:	-0.122	Yaw Set Point:	-0.578	X_WP:	0.000	Y_WP:	0.000	Y_WP:	0.500	X:	0.099	Y:	0.096	Z:	0.399	yaw:	33.135	yaw rate:	63.782	Roll:	4.376	Pitch:	-0.585	Yaw:	57.109	Thrust:	6.792
Time:	2.187	Roll Set Point:	-0.234	Pitch Set Point:	-0.123	Yaw Set Point:	-0.568	X_WP:	0.000	Y_WP:	0.000	Y_WP:	0.500	X:	0.099	Y:	0.096	Z:	0.399	yaw:	32.525	yaw rate:	3.445	Roll:	3.497	Pitch:	2.034	Yaw:	35.545	Thrust:	4.984
Time:	2.202	Roll Set Point:	-0.234	Pitch Set Point:	-0.123	Yaw Set Point:	-0.568	X_WP:	0.000	Y_WP:	0.000	Y_WP:	0.500	X:	0.099	Y:	0.096	Z:	0.399	yaw:	32.524	yaw rate:	-0.161	Roll:	3.951	Pitch:	0.825	Yaw:	45.921	Thrust:	6.088
Time:	2.218	Roll Set Point:	-0.234	Pitch Set Point:	-0.123	Yaw Set Point:	-0.568	X_WP:	0.000	Y_WP:	0.000	Y_WP:	0.500	X:	0.099	Y:	0.096	Z:	0.399	yaw:	32.534	yaw rate:	1.051	Roll:	3.933	Pitch:	0.832	Yaw:	46.315	Thrust:	6.348
Time:	2.234	Roll Set Point:	-0.234	Pitch Set Point:	-0.123	Yaw Set Point:	-0.568	X_WP:	0.000	Y_WP:	0.000	Y_WP:	0.500	X:	0.099	Y:	0.096	Z:	0.399	yaw:	32.531	yaw rate:	-0.344	Roll:	3.946	Pitch:	0.764	Yaw:	46.254	Thrust:	6.477
Time:	2.249	Roll Set Point:	-0.234	Pitch Set Point:	-0.125	Yaw Set Point:	-0.543	X_WP:	0.000	Y_WP:	0.000	Y_WP:	0.500	X:	0.099	Y:	0.095	Z:	0.400	yaw:	31.125	yaw rate:	-140.585	Roll:	2.953	Pitch:	3.819	Yaw:	20.924	Thrust:	5.286
Time:	2.265	Roll Set Point:	-0.234	Pitch Set Point:	-0.125	Yaw Set Point:	-0.545	X_WP:	0.000	Y_WP:	0.000	Y_WP:	0.500	X:	0.099	Y:	0.095	Z:	0.400	yaw:	31.225	yaw rate:	9.982	Roll:	4.010	Pitch:	0.647	Yaw:	46.508	Thrust:	6.871
Time:	2.290	Roll Set Point:	-0.235	Pitch Set Point:	-0.121	Yaw Set Point:	-0.586	X_WP:	0.000	Y_WP:	0.000	Y_WP:	0.500	X:	0.099	Y:	0.096	Z:	0.399	yaw:	33.559	yaw rate:	233.448	Roll:	4.993	Pitch:	-2.317	Yaw:	73.311	Thrust:	9.447
Time:	2.306	Roll Set Point:	-0.235	Pitch Set Point:	-0.121	Yaw Set Point:	-0.586	X_WP:	0.000	Y_WP:	0.000	Y_WP:	0.500	X:	0.099	Y:	0.096	Z:	0.399	yaw:	33.559	yaw rate:	233.448	Roll:	3.984	Pitch:	0.744	Yaw:	48.420	Thrust:	7.273
Time:	2.321	Roll Set Point:	-0.234	Pitch Set Point:	-0.125	Yaw Set Point:	-0.545	X_WP:	0.000	Y_WP:	0.000	Y_WP:	0.500	X:	0.099	Y:	0.095	Z:	0.400	yaw:	31.226	yaw rate:	-1.985	Roll:	2.341	Pitch:	5.838	Yaw:	6.072	Thrust:	5.087
Time:	2.337	Roll Set Point:	-0.234	Pitch Set Point:	-0.124	Yaw Set Point:	-0.551	X_WP:	0.000	Y_WP:	0.000	Y_WP:	0.500	X:	0.099	Y:	0.095	Z:	0.399	yaw:	31.593	yaw rate:	36.659	Roll:	4.298	Pitch:	-0.099	Yaw:	51.825	Thrust:	8.050
Time:	2.352	Roll Set Point:	-0.234	Pitch Set Point:	-0.125	Yaw Set Point:	-0.544	X_WP:	0.000	Y_WP:	0.000	Y_WP:	0.500	X:	0.099	Y:	0.095	Z:	0.400	yaw:	31.181	yaw rate:	-41.128	Roll:	3.594	Pitch:	1.947	Yaw:	38.209	Thrust:	7.359
Time:	2.368	Roll Set Point:	-0.234	Pitch Set Point:	-0.125	Yaw Set Point:	-0.544	X_WP:	0.000	Y_WP:	0.000	Y_WP:	0.500	X:	0.099	Y:	0.095	Z:	0.400	yaw:	31.165	yaw rate:	-1.667	Roll:	3.951	Pitch:	0.919	Yaw:	44.798	Thrust:	7.989
Time:	2.384	Roll Set Point:	-0.234	Pitch Set Point:	-0.125	Yaw Set Point:	-0.545	X_WP:	0.000	Y_WP:	0.000	Y_WP:	0.500	X:	0.099	Y:	0.095	Z:	0.400	yaw:	31.233	yaw rate:	6.874	Roll:	4.007	Pitch:	0.706	Yaw:	46.325	Thrust:	8.207
Time:	2.399	Roll Set Point:	-0.234	Pitch Set Point:	-0.124	Yaw Set Point:	-0.551	X_WP:	0.000	Y_WP:	0.000	Y_WP:	0.500	X:	0.099	Y:	0.095	Z:	0.399	yaw:	31.585	yaw rate:	35.142	Roll:	4.326	Pitch:	-0.059	Yaw:	51.559	Thrust:	8.862
Time:	2.415	Roll Set Point:	-0.234	Pitch Set Point:	-0.124	Yaw Set Point:	-0.552	X_WP:	0.000	Y_WP:	0.000	Y_WP:	0.500	X:	0.099	Y:	0.095	Z:	0.399	yaw:	31.606	yaw rate:	2.148	Roll:	3.974	Pitch:	0.865	Yaw:	46.053	Thrust:	8.596
Time:	2.431	Roll Set Point:	-0.234	Pitch Set Point:	-0.125	Yaw Set Point:	-0.546	X_WP:	0.000	Y_WP:	0.000	Y_WP:	0.500	X:	0.099	Y:	0.095	Z:	0.400	yaw:	31.289	yaw rate:	-31.748	Roll:	3.700	Pitch:	1.681	Yaw:	39.931	Thrust:	8.204
Time:	2.446	Roll Set Point:	-0.234	Pitch Set Point:	-0.125	Yaw Set Point:	-0.545	X_WP:	0.000	Y_WP:	0.000	Y_WP:	0.500	X:	0.099	Y:	0.095	Z:	0.400	yaw:	31.211	yaw rate:	-7.804	Roll:	3.925	Pitch:	1.072	Yaw:	43.834	Thrust:	8.958
Time:	2.462	Roll Set Point:	-0.234	Pitch Set Point:	-0.125	Yaw Set Point:	-0.545	X_WP:	0.000	Y_WP:	0.000	Y_WP:	0.500	X:	0.099	Y:	0.095	Z:	0.400	yaw:	31.211	yaw rate:	-7.804	Roll:	3.994	Pitch:	0.889	Yaw:	45.141	Thrust:	9.115
Time:	2.481	Roll Set Point:	-0.234	Pitch Set Point:	-0.125	Yaw Set Point:	-0.544	X_WP:	0.000	Y_WP:	0.000	Y_WP:	0.500	X:	0.099	Y:	0.095	Z:	0.400	yaw:	31.173	yaw rate:	-1.335	Roll:	3.980	Pitch:	0.975	Yaw:	44.839	Thrust:	9.956
Time:	2.497	Roll Set Point:	-0.234	Pitch Set Point:	-0.125	Yaw Set Point:	-0.545	X_WP:	0.000	Y_WP:	0.000	Y_WP:	0.500	X:	0.099	Y:	0.095	Z:	0.400	yaw:	31.253	yaw rate:	8.023	Roll:	4.083	Pitch:	0.717	Yaw:	46.578	Thrust:	9.893
Time:	2.513	Roll Set Point:	-0.234	Pitch Set Point:	-0.125	Yaw Set Point:	-0.544	X_WP:	0.000	Y_WP:	0.000	Y_WP:	0.500	X:	0.099	Y:	0.095	Z:	0.400	yaw:	31.195	yaw rate:	-5.878	Roll:	3.976	Pitch:	1.017	Yaw:	44.134	Thrust:	9.579
Time:	2.529	Roll Set Point:	-0.234	Pitch Set Point:	-0.125	Yaw Set Point:	-0.544	X_WP:	0.000	Y_WP:	0.000	Y_WP:	0.500	X:	0.099	Y:	0.095	Z:	0.400	yaw:	31.195	yaw rate:	-5.878	Roll:	4.015	Pitch:	0.894	Yaw:	45.119	Thrust:	9.867
Time:	2.544	Roll Set Point:	-0.234	Pitch Set Point:	-0.125	Yaw Set Point:	-0.545	X_WP:	0.000	Y_WP:	0.000	Y_WP:	0.500	X:	0.099	Y:	0.095	Z:	0.400	yaw:	31.232	yaw rate:	0.979	Roll:	4.031	Pitch:	0.804	Yaw:	45.804	Thrust:	10.057
Time:	2.560	Roll Set Point:	-0.234	Pitch Set Point:	-0.125	Yaw Set Point:	-0.544	X_WP:	0.000	Y_WP:	0.000	Y_WP:	0.500	X:	0.099	Y:	0.095	Z:	0.400	yaw:	31.193	yaw rate:	-3.959	Roll:	4.013	Pitch:	1.016	Yaw:	44.453	Thrust:	10.374
Time:	2.576	Roll Set Point:	-0.234	Pitch Set Point:	-0.125	Yaw Set Point:	-0.545	X_WP:	0.000	Y_WP:	0.000	Y_WP:	0.500	X:	0.099	Y:	0.095	Z:	0.400	yaw:	31.223	yaw rate:	2.987	Roll:	4.043	Pitch:	0.819	Yaw:	45.658	Thrust:	10.382
Time:	2.591	Roll Set Point:	-0.234	Pitch Set Point:	-0.125	Yaw Set Point:	-0.544	X_WP:	0.000	Y_WP:	0.000	Y_WP:	0.500	X:	0.099	Y:	0.095	Z:	0.400	yaw:	31.194	yaw rate:	-2.857	Roll:	4.016	Pitch:	0.960	Yaw:	44.639	Thrust:	10.551
Time:	2.607	Roll Set Point:	-0.234	Pitch Set Point:	-0.125	Yaw Set Point:	-0.544	X_WP:	0.000	Y_WP:	0.000	Y_WP:	0.500	X:	0.099	Y:	0.095	Z:	0.400	yaw:	31.194	yaw rate:	-2.857	Roll:	4.041	Pitch:	0.901	Yaw:	45.118	Thrust:	10.809
Time:	2.622	Roll Set Point:	-0.234	Pitch Set Point:	-0.124	Yaw Set Point:	-0.551	X_WP:	0.000	Y_WP:	0.000	Y_WP:	0.500	X:	0.099	Y:	0.095	Z:	0.399	yaw:	31.570	yaw rate:	37.615	Roll:	4.399	Pitch:	-0.122	Yaw:	51.945	Thrust:	11.535
Time:	2.638	Roll Set Point:	-0.234	Pitch Set Point:	-0.125	Yaw Set Point:	-0.544	X_WP:	0.000	Y_WP:	0.000	Y_WP:	0.500	X:	0.099	Y:	0.095	Z:	0.400	yaw:	31.174	yaw rate:	-5.836	Roll:	3.699	Pitch:	1.895	Yaw:	38.456	Thrust:	10.619
Time:	2.654	Roll Set Point:	-0.234	Pitch Set Point:	-0.125	Yaw Set Point:	-0.544	X_WP:	0.000	Y_WP:	0.000	Y_WP:	0.500	X:	0.099	Y:	0.095	Z:	0.400	yaw:	31.174	yaw rate:	-5.836	Roll:	4.056	Pitch:	0.904	Yaw:	45.090	Thrust:	11.373
Time:	2.669	Roll Set Point:	-0.234	Pitch Set Point:	-0.125	Yaw Set Point:	-0.545	X_WP:	0.000	Y_WP:	0.000	Y_WP:	0.500	X:	0.099	Y:	0.095	Z:	0.400	yaw:	31.225	yaw rate:	-3.822	Roll:	4.085	Pitch:	0.870	Yaw:	46.006	Thrust:	11.651
Time:	2.685	Roll Set Point:	-0.234	Pitch Set Point:	-0.124	Yaw Set Point:	-0.552	X_WP:	0.000	Y_WP:	0.000	Y_WP:	0.500	X:	0.099	Y:	0.095	Z:	0.399	yaw:	31.630	yaw rate:	40.499	Roll:	4.435	Pitch:	-0.216	Yaw:	52.509	Thrust:	12.204
Time:	2.701	Roll Set Point:	-0.234	Pitch Set Point:	-0.125	Yaw Set Point:	-0.545	X_WP:	0.000	Y_WP:	0.000	Y_WP:	0.500	X:	0.099	Y:	0.095	Z:	0.400	yaw:	31.239	yaw rate:	-39.037	Roll:	3.744	Pitch:	1.915	Yaw:	38.639	Thrust:	11.524
Time:	2.716	Roll Set Point:	-0.234	Pitch Set Point:	-0.125	Yaw Set Point:	-0.545	X_WP:	0.000	Y_WP:	0.000	Y_WP:	0.500	X:	0.099	Y:	0.095	Z:	0.400	yaw:	31.233	yaw rate:	-0.687	Roll:	4.055	Pitch:	0.944	Yaw:	45.056	Thrust:	12.178
Time:	2.732	Roll Set Point:	-0.234	Pitch Set Point:	-0.124	Yaw Set Point:	-0.552	X_WP:	0.000	Y_WP:	0.000	Y_WP:	0.500	X:	0.099	Y:	0.095	Z:	0.399	yaw:	31.639	yaw rate:	40.661	Roll:	4.444	Pitch:	-0.193	Yaw:	52.550	Thrust:	12.785
Time:	2.748	Roll Set Point:	-0.233	Pitch Set Point:	-0.124	Yaw Set Point:	-0.551	X_WP:	0.000	Y_WP:	0.000	Y_WP:	0.500	X:	0.099	Y:	0.095	Z:	0.401	yaw:	31.561	yaw rate:	-7.863	Roll:	3.538	Pitch:	1.019	Yaw:	44.311	Thrust:	6.771
Time:	2.763	Roll Set Point:	-0.233	Pitch Set Point:	-0.125	Yaw Set Point:	-0.532	X_WP:	0.000	Y_WP:	0.000	Y_WP:	0.500	X:	0.099	Y:	0.094	Z:	0.401	yaw:	30.457	yaw rate:	-110.327	Roll:	3.353	Pitch:	3.040	Yaw:	25.606	Thrust:	13.849
Time:	2.779	Roll Set Point:	-0.233	Pitch Set Point:	-0.125	Yaw Set Point:	-0.532	X_WP:	0.000	Y_WP:	0.000	Y_WP:	0.500	X:	0.099	Y:	0.094	Z:	0.401	yaw:	30.457	yaw rate:	-110.327	Roll:	4.075	Pitch:	0.942	Yaw:	44.089	Thrust:	12.804
Time:	2.794	Roll Set Point:	-0.234	Pitch Set Point:	-0.123	Yaw Set Point:	-0.568	X_WP:	0.000	Y_WP:	0.000	Y_WP:	0.500	X:	0.099	Y:	0.096	Z:	0.399	yaw:	32.554	yaw rate:	209.685	Roll:	5.948	Pitch:	-3.088	Yaw:	82.153	Thrust:	18.389
Time:	2.810	Roll Set Point:	-0.234	Pitch Set Point:	-0.123	Yaw Set Point:	-0.568	X_WP:	0.000	Y_WP:	0.000	Y_WP:	0.500	X:	0.099	Y:	0.096	Z:	0.399	yaw:	32.519	yaw rate:	-3.552	Roll:	4.104	Pitch:	0.898	Yaw:	46.372	Thrust:	13.205
Time:	2.826	Roll Set Point:	-0.234	Pitch Set Point:	-0.123	Yaw Set Point:	-0.568	X_WP:	0.000	Y_WP:	0.000	Y_WP:	0.500	X:	0.099	Y:	0.096	Z:	0.399	yaw:	32.519	yaw rate:	-3.552	Roll:	4.138	Pitch:	0.842	Yaw:	46.967	Thrust:	13.468
Time:	2.841	Roll Set Point:	-0.234	Pitch Set Point:	-0.123	Yaw Set Point:	-0.569	X_WP:	0.000	Y_WP:	0.000	Y_WP:	0.500	X:	0.099	Y:	0.096	Z:	0.399	yaw:	32.580	yaw rate:	9.129	Roll:	4.196	Pitch:	0.751	Yaw:	48.089	Thrust:	13.782
Time:	2.857	Roll Set Point:	-0.235	Pitch Set Point:	-0.121	Yaw Set Point:	-0.586	X_WP:	0.000	Y_WP:	0.000	Y_WP:	0.500	X:	0.099	Y:	0.096	Z:	0.399	yaw:	33.561	yaw rate:	98.039	Roll:	4.844	Pitch:	-1.415	Yaw:	64.850	Thrust:	14.740
Time:	2.873	Roll Set Point:	-0.235	Pitch Set Point:	-0.121	Yaw Set Point:	-0.586	X_WP:	0.000	Y_WP:	0.000	Y_WP:	0.500	X:	0.099	Y:	0.096	Z:	0.399	yaw:	33.561	yaw rate:	98.039	Roll:	4.174	Pitch:	0.784	Yaw:	48.422	Thrust:	14.055
Time:	2.888	Roll Set Point:	-0.234	Pitch Set Point:	-0.125	Yaw Set Point:	-0.544	X_WP:	0.000	Y_WP:	0.000	Y_WP:	0.500	X:	0.099	Y:	0.095	Z:	0.400	yaw:	31.162	yaw rate:	-42.216	Roll:	2.487	Pitch:	6.087	Yaw:	4.805	Thrust:	11.848
Time:	2.904	Roll Set Point:	-0.235	Pitch Set Point:	-0.121	Yaw Set Point:	-0.586	X_WP:	0.000	Y_WP:	0.000	Y_WP:	0.500	X:	0.099	Y:	0.096	Z:	0.399	yaw:	33.558	yaw rate:	239.569	Roll:	5.831	Pitch:	-4.393	Yaw:	88.550	Thrust:	16.678
Time:	2.919	Roll Set Point:	-0.235	Pitch Set Point:	-0.121	Yaw Set Point:	-0.586	X_WP:	0.000	Y_WP:	0.000	Y_WP:	0.500	X:	0.099	Y:	0.096	Z:	0.399	yaw:	33.558	yaw rate:	239.569	Roll:	4.189	Pitch:	0.787	Yaw:	48.418	Thrust:	14.620
Time:	2.935	Roll Set Point:	-0.234	Pitch Set Point:	-0.125	Yaw Set Point:	-0.545	X_WP:	0.000	Y_WP:	0.000	Y_WP:	0.500	X:	0.099	Y:	0.095	Z:	0.400	yaw:	31.219	yaw rate:	0.477	Roll:	2.538	Pitch:	5.948	Yaw:	5.975	Thrust:	12.468
Time:	2.951	Roll Set Point:	-0.234	Pitch Set Point:	-0.125	Yaw Set Point:	-0.546	X_WP:	0.000	Y_WP:	0.000	Y_WP:	0.500	X:	0.099	Y:	0.095	Z:	0.400	yaw:	31.267	yaw rate:	4.765	Roll:	4.196	Pitch:	0.870	Yaw:	46.020	Thrust:	15.134
Time:	2.966	Roll Set Point:	-0.234	Pitch Set Point:	-0.125	Yaw Set Point:	-0.546	X_WP:	0.000	Y_WP:	0.000	Y_WP:	0.500	X:	0.099	Y:	0.095	Z:	0.400	yaw:	31.267	yaw rate:	4.765	Roll:	4.162	Pitch:	0.923	Yaw:	45.214	Thrust:	15.118
Time:	2.982	Roll Set Point:	-0.234	Pitch Set Point:	-0.125	Yaw Set Point:	-0.546	X_WP:	0.000	Y_WP:	0.000	Y_WP:	0.500	X:	0.099	Y:	0.095	Z:	0.400	yaw:	31.255	yaw rate:	0.569	Roll:	4.152	Pitch:	0.915	Yaw:	45.013	Thrust:	15.336
Time:	2.998	Roll Set Point:	-0.234	Pitch Set Point:	-0.125	Yaw Set Point:	-0.545	X_WP:	0.000	Y_WP:	0.000	Y_WP:	0.500	X:	0.099	Y:	0.095	Z:	0.400	yaw:	31.217	yaw rate:	-3.804	Roll:	4.149	Pitch:	1.011	Yaw:	44.512	Thrust:	15.383
Time:	3.013	Roll Set Point:	-0.234	Pitch Set Point:	-0.125	Yaw Set Point:	-0.546	X_WP:	0.000	Y_WP:	0.000	Y_WP:	0.500	X:	0.099	Y:	0.095	Z:	0.400	yaw:	31.265	yaw rate:	4.782	Roll:	4.226	Pitch:	0.855	Yaw:	46.018	Thrust:	15.811
Time:	3.029	Roll Set Point:	-0.234	Pitch Set Point:	-0.125	Yaw Set Point:	-0.546	X_WP:	0.000	Y_WP:	0.000	Y_WP:	0.500	X:	0.099	Y:	0.095	Z:	0.400	yaw:	31.257	yaw rate:	-0.765	Roll:	4.161	Pitch:	0.915	Yaw:	45.078	Thrust:	15.900
Time:	3.044	Roll Set Point:	-0.234	Pitch Set Point:	-0.125	Yaw Set Point:	-0.546	X_WP:	0.000	Y_WP:	0.000	Y_WP:	0.500	X:	0.099	Y:	0.095	Z:	0.399	yaw:	31.277	yaw rate:	1.995	Roll:	4.209	Pitch:	0.903	Yaw:	45.568	Thrust:	16.197
Time:	3.060	Roll Set Point:	-0.234	Pitch Set Point:	-0.125	Yaw Set Point:	-0.545	X_WP:	0.000	Y_WP:	0.000	Y_WP:	0.500	X:	0.099	Y:	0.095	Z:	0.400	yaw:	31.254	yaw rate:	-2.334	Roll:	4.180	Pitch:	0.935	Yaw:	44.810	Thrust:	16.137
Time:	3.076	Roll Set Point:	-0.234	Pitch Set Point:	-0.125	Yaw Set Point:	-0.545	X_WP:	0.000	Y_WP:	0.000	Y_WP:	0.500	X:	0.099	Y:	0.095	Z:	0.400	yaw:	31.224	yaw rate:	-2.967	Roll:	4.183	Pitch:	1.010	Yaw:	44.663	Thrust:	16.417
Time:	3.091	Roll Set Point:	-0.234	Pitch Set Point:	-0.125	Yaw Set Point:	-0.545	X_WP:	0.000	Y_WP:	0.000	Y_WP:	0.500	X:	0.099	Y:	0.095	Z:	0.400	yaw:	31.224	yaw rate:	-2.967	Roll:	4.205	Pitch:	0.933	Yaw:	45.160	Thrust:	16.652
Time:	3.107	Roll Set Point:	-0.234	Pitch Set Point:	-0.125	Yaw Set Point:	-0.545	X_WP:	0.000	Y_WP:	0.000	Y_WP:	0.500	X:	0.099	Y:	0.095	Z:	0.400	yaw:	31.204	yaw rate:	-2.008	Roll:	4.189	Pitch:	1.001	Yaw:	44.796	Thrust:	16.817
Time:	3.123	Roll Set Point:	-0.235	Pitch Set Point:	-0.121	Yaw Set Point:	-0.585	X_WP:	0.000	Y_WP:	0.000	Y_WP:	0.500	X:	0.099	Y:	0.096	Z:	0.399	yaw:	33.523	yaw rate:	227.378	Roll:	5.851	Pitch:	-4.204	Yaw:	87.218	Thrust:	19.405
Time:	3.138	Roll Set Point:	-0.234	Pitch Set Point:	-0.125	Yaw Set Point:	-0.546	X_WP:	0.000	Y_WP:	0.000	Y_WP:	0.500	X:	0.099	Y:	0.095	Z:	0.400	yaw:	31.290	yaw rate:	-223.244	Roll:	2.698	Pitch:	5.734	Yaw:	7.846	Thrust:	14.947
Time:	3.154	Roll Set Point:	-0.234	Pitch Set Point:	-0.125	Yaw Set Point:	-0.546	X_WP:	0.000	Y_WP:	0.000	Y_WP:	0.500	X:	0.099	Y:	0.095	Z:	0.400	yaw:	31.290	yaw rate:	-223.244	Roll:	4.228	Pitch:	0.934	Yaw:	45.256	Thrust:	17.432
Time:	3.169	Roll Set Point:	-0.234	Pitch Set Point:	-0.125	Yaw Set Point:	-0.544	X_WP:	0.000	Y_WP:	0.000	Y_WP:	0.500	X:	0.099	Y:	0.095	Z:	0.400	yaw:	31.194	yaw rate:	-9.644	Roll:	4.152	Pitch:	1.154	Yaw:	43.495	Thrust:	17.467
Time:	3.185	Roll Set Point:	-0.234	Pitch Set Point:	-0.125	Yaw Set Point:	-0.545	X_WP:	0.000	Y_WP:	0.000	Y_WP:	0.500	X:	0.099	Y:	0.095	Z:	0.400	yaw:	31.236	yaw rate:	4.191	Roll:	4.271	Pitch:	0.872	Yaw:	45.879	Thrust:	17.904
Time:	3.201	Roll Set Point:	-0.234	Pitch Set Point:	-0.125	Yaw Set Point:	-0.544	X_WP:	0.000	Y_WP:	0.000	Y_WP:	0.500	X:	0.099	Y:	0.095	Z:	0.400	yaw:	31.148	yaw rate:	-239.230	Roll:	4.184	Pitch:	1.118	Yaw:	43.583	Thrust:	17.946
Time:	3.216	Roll Set Point:	-0.234	Pitch Set Point:	-0.125	Yaw Set Point:	-0.544	X_WP:	0.000	Y_WP:	0.000	Y_WP:	0.500	X:	0.099	Y:	0.095	Z:	0.400	yaw:	31.148	yaw rate:	-239.230	Roll:	4.245	Pitch:	0.947	Yaw:	45.050	Thrust:	18.134
Time:	3.232	Roll Set Point:	-0.234	Pitch Set Point:	-0.124	Yaw Set Point:	-0.552	X_WP:	0.000	Y_WP:	0.000	Y_WP:	0.500	X:	0.099	Y:	0.095	Z:	0.399	yaw:	31.617	yaw rate:	46.888	Roll:	4.661	Pitch:	-0.276	Yaw:	53.563	Thrust:	18.920
Time:	3.248	Roll Set Point:	-0.234	Pitch Set Point:	-0.124	Yaw Set Point:	-0.552	X_WP:	0.000	Y_WP:	0.000	Y_WP:	0.500	X:	0.099	Y:	0.095	Z:	0.399	yaw:	31.617	yaw rate:	46.888	Roll:	4.266	Pitch:	0.918	Yaw:	45.708	Thrust:	18.547
Time:	3.263	Roll Set Point:	-0.234	Pitch Set Point:	-0.125	Yaw Set Point:	-0.546	X_WP:	0.000	Y_WP:	0.000	Y_WP:	0.500	X:	0.099	Y:	0.095	Z:	0.400	yaw:	31.287	yaw rate:	-32.993	Roll:	3.953	Pitch:	1.830	Yaw:	39.735	Thrust:	18.234
Time:	3.291	Roll Set Point:	-0.234	Pitch Set Point:	-0.125	Yaw Set Point:	-0.544	X_WP:	0.000	Y_WP:	0.000	Y_WP:	0.500	X:	0.099	Y:	0.095	Z:	0.400	yaw:	31.194	yaw rate:	-2.276	Roll:	4.529	Pitch:	1.131	Yaw:	45.487	Thrust:	29.520
Time:	3.307	Roll Set Point:	-0.234	Pitch Set Point:	-0.125	Yaw Set Point:	-0.545	X_WP:	0.000	Y_WP:	0.000	Y_WP:	0.500	X:	0.099	Y:	0.095	Z:	0.400	yaw:	31.240	yaw rate:	4.614	Roll:	4.302	Pitch:	0.841	Yaw:	45.955	Thrust:	19.166
Time:	3.323	Roll Set Point:	-0.234	Pitch Set Point:	-0.125	Yaw Set Point:	-0.545	X_WP:	0.000	Y_WP:	0.000	Y_WP:	0.500	X:	0.099	Y:	0.095	Z:	0.400	yaw:	31.223	yaw rate:	-1.651	Roll:	4.284	Pitch:	0.973	Yaw:	44.886	Thrust:	19.238
Time:	3.338	Roll Set Point:	-0.234	Pitch Set Point:	-0.125	Yaw Set Point:	-0.546	X_WP:	0.000	Y_WP:	0.000	Y_WP:	0.500	X:	0.099	Y:	0.095	Z:	0.400	yaw:	31.268	yaw rate:	4.452	Roll:	4.287	Pitch:	0.902	Yaw:	45.966	Thrust:	19.614
Time:	3.354	Roll Set Point:	-0.234	Pitch Set Point:	-0.124	Yaw Set Point:	-0.553	X_WP:	0.000	Y_WP:	0.000	Y_WP:	0.500	X:	0.099	Y:	0.095	Z:	0.399	yaw:	31.669	yaw rate:	40.070	Roll:	4.655	Pitch:	-0.177	Yaw:	52.493	Thrust:	20.164
Time:	3.369	Roll Set Point:	-0.234	Pitch Set Point:	-0.125	Yaw Set Point:	-0.546	X_WP:	0.000	Y_WP:	0.000	Y_WP:	0.500	X:	0.099	Y:	0.095	Z:	0.400	yaw:	31.259	yaw rate:	-40.988	Roll:	3.938	Pitch:	2.039	Yaw:	38.330	Thrust:	19.329
Time:	3.385	Roll Set Point:	-0.234	Pitch Set Point:	-0.125	Yaw Set Point:	-0.545	X_WP:	0.000	Y_WP:	0.000	Y_WP:	0.500	X:	0.099	Y:	0.095	Z:	0.400	yaw:	31.219	yaw rate:	-3.962	Roll:	4.280	Pitch:	1.007	Yaw:	44.493	Thrust:	19.956
Time:	3.401	Roll Set Point:	-0.234	Pitch Set Point:	-0.125	Yaw Set Point:	-0.545	X_WP:	0.000	Y_WP:	0.000	Y_WP:	0.500	X:	0.099	Y:	0.095	Z:	0.400	yaw:	31.219	yaw rate:	-3.962	Roll:	4.304	Pitch:	0.955	Yaw:	45.152	Thrust:	20.229
Time:	3.416	Roll Set Point:	-0.235	Pitch Set Point:	-0.121	Yaw Set Point:	-0.586	X_WP:	0.000	Y_WP:	0.000	Y_WP:	0.500	X:	0.099	Y:	0.096	Z:	0.399	yaw:	33.570	yaw rate:	233.372	Roll:	5.970	Pitch:	-4.192	Yaw:	87.899	Thrust:	22.811
Time:	3.432	Roll Set Point:	-0.234	Pitch Set Point:	-0.125	Yaw Set Point:	-0.543	X_WP:	0.000	Y_WP:	0.000	Y_WP:	0.500	X:	0.099	Y:	0.095	Z:	0.400	yaw:	31.102	yaw rate:	-246.816	Roll:	2.618	Pitch:	6.250	Yaw:	3.648	Thrust:	18.201
Time:	3.448	Roll Set Point:	-0.234	Pitch Set Point:	-0.125	Yaw Set Point:	-0.543	X_WP:	0.000	Y_WP:	0.000	Y_WP:	0.500	X:	0.099	Y:	0.095	Z:	0.400	yaw:	31.102	yaw rate:	-246.816	Roll:	4.318	Pitch:	0.966	Yaw:	44.989	Thrust:	20.796
Time:	3.463	Roll Set Point:	-0.234	Pitch Set Point:	-0.125	Yaw Set Point:	-0.545	X_WP:	0.000	Y_WP:	0.000	Y_WP:	0.500	X:	0.099	Y:	0.095	Z:	0.400	yaw:	31.240	yaw rate:	13.815	Roll:	4.424	Pitch:	0.652	Yaw:	47.497	Thrust:	21.052
Time:	3.479	Roll Set Point:	-0.234	Pitch Set Point:	-0.125	Yaw Set Point:	-0.545	X_WP:	0.000	Y_WP:	0.000	Y_WP:	0.500	X:	0.099	Y:	0.095	Z:	0.400	yaw:	31.240	yaw rate:	0.312	Roll:	4.313	Pitch:	0.979	Yaw:	45.179	Thrust:	21.240
Time:	3.494	Roll Set Point:	-0.234	Pitch Set Point:	-0.125	Yaw Set Point:	-0.545	X_WP:	0.000	Y_WP:	0.000	Y_WP:	0.500	X:	0.099	Y:	0.095	Z:	0.400	yaw:	31.242	yaw rate:	0.242	Roll:	4.336	Pitch:	0.970	Yaw:	45.223	Thrust:	21.311
Time:	3.510	Roll Set Point:	-0.234	Pitch Set Point:	-0.125	Yaw Set Point:	-0.545	X_WP:	0.000	Y_WP:	0.000	Y_WP:	0.500	X:	0.099	Y:	0.095	Z:	0.400	yaw:	31.217	yaw rate:	-2.512	Roll:	4.338	Pitch:	0.993	Yaw:	44.729	Thrust:	21.585
Time:	3.526	Roll Set Point:	-0.234	Pitch Set Point:	-0.124	Yaw Set Point:	-0.552	X_WP:	0.000	Y_WP:	0.000	Y_WP:	0.500	X:	0.099	Y:	0.095	Z:	0.399	yaw:	31.630	yaw rate:	41.297	Roll:	4.708	Pitch:	-0.165	Yaw:	52.645	Thrust:	22.223
Time:	3.541	Roll Set Point:	-0.234	Pitch Set Point:	-0.124	Yaw Set Point:	-0.552	X_WP:	0.000	Y_WP:	0.000	Y_WP:	0.500	X:	0.099	Y:	0.095	Z:	0.399	yaw:	31.620	yaw rate:	-1.003	Roll:	4.350	Pitch:	0.994	Yaw:	45.545	Thrust:	22.072
Time:	3.557	Roll Set Point:	-0.234	Pitch Set Point:	-0.125	Yaw Set Point:	-0.545	X_WP:	0.000	Y_WP:	0.000	Y_WP:	0.500	X:	0.099	Y:	0.095	Z:	0.400	yaw:	31.226	yaw rate:	-39.403	Roll:	4.026	Pitch:	2.000	Yaw:	38.561	Thrust:	21.453
Time:	3.573	Roll Set Point:	-0.234	Pitch Set Point:	-0.125	Yaw Set Point:	-0.545	X_WP:	0.000	Y_WP:	0.000	Y_WP:	0.500	X:	0.099	Y:	0.095	Z:	0.400	yaw:	31.226	yaw rate:	-39.403	Roll:	4.362	Pitch:	0.968	Yaw:	45.162	Thrust:	22.307
Time:	3.588	Roll Set Point:	-0.235	Pitch Set Point:	-0.121	Yaw Set Point:	-0.586	X_WP:	0.000	Y_WP:	0.000	Y_WP:	0.500	X:	0.099	Y:	0.096	Z:	0.399	yaw:	33.553	yaw rate:	233.387	Roll:	6.014	Pitch:	-4.203	Yaw:	87.396	Thrust:	24.830
Time:	3.604	Roll Set Point:	-0.235	Pitch Set Point:	-0.122	Yaw Set Point:	-0.577	X_WP:	0.000	Y_WP:	0.000	Y_WP:	0.500	X:	0.099	Y:	0.096	Z:	0.399	yaw:	33.061	yaw rate:	-49.235	Roll:	4.058	Pitch:	1.993	Yaw:	39.477	Thrust:	22.723
Time:	3.619	Roll Set Point:	-0.235	Pitch Set Point:	-0.122	Yaw Set Point:	-0.577	X_WP:	0.000	Y_WP:	0.000	Y_WP:	0.500	X:	0.099	Y:	0.096	Z:	0.399	yaw:	33.061	yaw rate:	-49.235	Roll:	4.412	Pitch:	0.867	Yaw:	47.724	Thrust:	22.919
Time:	3.635	Roll Set Point:	-0.234	Pitch Set Point:	-0.123	Yaw Set Point:	-0.568	X_WP:	0.000	Y_WP:	0.000	Y_WP:	0.500	X:	0.099	Y:	0.096	Z:	0.399	yaw:	32.524	yaw rate:	3.317	Roll:	4.043	Pitch:	2.089	Yaw:	37.978	Thrust:	22.222
Time:	3.651	Roll Set Point:	-0.234	Pitch Set Point:	-0.123	Yaw Set Point:	-0.567	X_WP:	0.000	Y_WP:	0.000	Y_WP:	0.500	X:	0.099	Y:	0.096	Z:	0.399	yaw:	32.486	yaw rate:	-3.803	Roll:	4.380	Pitch:	0.975	Yaw:	46.284	Thrust:	23.217
Time:	3.666	Roll Set Point:	-0.234	Pitch Set Point:	-0.123	Yaw Set Point:	-0.567	X_WP:	0.000	Y_WP:	0.000	Y_WP:	0.500	X:	0.099	Y:	0.096	Z:	0.399	yaw:	32.511	yaw rate:	2.572	Roll:	4.424	Pitch:	0.810	Yaw:	47.388	Thrust:	23.878
Time:	3.682	Roll Set Point:	-0.234	Pitch Set Point:	-0.123	Yaw Set Point:	-0.567	X_WP:	0.000	Y_WP:	0.000	Y_WP:	0.500	X:	0.099	Y:	0.096	Z:	0.399	yaw:	32.488	yaw rate:	-2.317	Roll:	4.405	Pitch:	1.019	Yaw:	46.537	Thrust:	23.300
Time:	3.698	Roll Set Point:	-0.235	Pitch Set Point:	-0.121	Yaw Set Point:	-0.586	X_WP:	0.000	Y_WP:	0.000	Y_WP:	0.500	X:	0.099	Y:	0.096	Z:	0.399	yaw:	33.571	yaw rate:	108.265	Roll:	5.222	Pitch:	-1.572	Yaw:	66.578	Thrust:	24.821
Time:	3.713	Roll Set Point:	-0.235	Pitch Set Point:	-0.121	Yaw Set Point:	-0.586	X_WP:	0.000	Y_WP:	0.000	Y_WP:	0.500	X:	0.099	Y:	0.096	Z:	0.399	yaw:	33.571	yaw rate:	108.265	Roll:	4.453	Pitch:	0.843	Yaw:	48.436	Thrust:	24.057
Time:	3.729	Roll Set Point:	-0.234	Pitch Set Point:	-0.125	Yaw Set Point:	-0.545	X_WP:	0.000	Y_WP:	0.000	Y_WP:	0.500	X:	0.099	Y:	0.095	Z:	0.400	yaw:	31.227	yaw rate:	11.551	Roll:	2.771	Pitch:	5.998	Yaw:	5.899	Thrust:	21.935
Time:	3.744	Roll Set Point:	-0.234	Pitch Set Point:	-0.125	Yaw Set Point:	-0.545	X_WP:	0.000	Y_WP:	0.000	Y_WP:	0.500	X:	0.099	Y:	0.095	Z:	0.400	yaw:	31.227	yaw rate:	11.551	Roll:	4.420	Pitch:	0.979	Yaw:	45.164	Thrust:	24.394
Time:	3.760	Roll Set Point:	-0.234	Pitch Set Point:	-0.124	Yaw Set Point:	-0.552	X_WP:	0.000	Y_WP:	0.000	Y_WP:	0.500	X:	0.099	Y:	0.095	Z:	0.399	yaw:	31.651	yaw rate:	42.442	Roll:	4.811	Pitch:	-0.143	Yaw:	52.867	Thrust:	25.093
Time:	3.776	Roll Set Point:	-0.234	Pitch Set Point:	-0.125	Yaw Set Point:	-0.544	X_WP:	0.000	Y_WP:	0.000	Y_WP:	0.500	X:	0.099	Y:	0.095	Z:	0.400	yaw:	31.147	yaw rate:	-12.491	Roll:	4.011	Pitch:	2.284	Yaw:	36.612	Thrust:	24.269
Time:	3.791	Roll Set Point:	-0.234	Pitch Set Point:	-0.124	Yaw Set Point:	-0.552	X_WP:	0.000	Y_WP:	0.000	Y_WP:	0.500	X:	0.099	Y:	0.095	Z:	0.399	yaw:	31.631	yaw rate:	48.346	Roll:	4.852	Pitch:	-0.345	Yaw:	53.828	Thrust:	25.399
Time:	3.807	Roll Set Point:	-0.234	Pitch Set Point:	-0.124	Yaw Set Point:	-0.552	X_WP:	0.000	Y_WP:	0.000	Y_WP:	0.500	X:	0.099	Y:	0.095	Z:	0.399	yaw:	31.631	yaw rate:	48.346	Roll:	4.451	Pitch:	0.955	Yaw:	45.728	Thrust:	25.155
Time:	3.823	Roll Set Point:	-0.234	Pitch Set Point:	-0.125	Yaw Set Point:	-0.544	X_WP:	0.000	Y_WP:	0.000	Y_WP:	0.500	X:	0.099	Y:	0.095	Z:	0.400	yaw:	31.194	yaw rate:	-4.407	Roll:	4.080	Pitch:	2.195	Yaw:	37.797	Thrust:	24.823
Time:	3.838	Roll Set Point:	-0.234	Pitch Set Point:	-0.125	Yaw Set Point:	-0.544	X_WP:	0.000	Y_WP:	0.000	Y_WP:	0.500	X:	0.099	Y:	0.095	Z:	0.400	yaw:	31.194	yaw rate:	-4.407	Roll:	4.451	Pitch:	0.989	Yaw:	45.118	Thrust:	25.521
Time:	3.854	Roll Set Point:	-0.234	Pitch Set Point:	-0.125	Yaw Set Point:	-0.546	X_WP:	0.000	Y_WP:	0.000	Y_WP:	0.500	X:	0.099	Y:	0.095	Z:	0.400	yaw:	31.255	yaw rate:	0.742	Roll:	4.471	Pitch:	0.801	Yaw:	46.226	Thrust:	25.829
Time:	3.869	Roll Set Point:	-0.234	Pitch Set Point:	-0.124	Yaw Set Point:	-0.552	X_WP:	0.000	Y_WP:	0.000	Y_WP:	0.500	X:	0.099	Y:	0.095	Z:	0.399	yaw:	31.605	yaw rate:	34.984	Roll:	4.819	Pitch:	0.024	Yaw:	51.552	Thrust:	26.229
Time:	3.885	Roll Set Point:	-0.234	Pitch Set Point:	-0.125	Yaw Set Point:	-0.545	X_WP:	0.000	Y_WP:	0.000	Y_WP:	0.500	X:	0.099	Y:	0.095	Z:	0.400	yaw:	31.219	yaw rate:	-38.547	Roll:	4.120	Pitch:	2.060	Yaw:	38.695	Thrust:	25.722
Time:	3.901	Roll Set Point:	-0.234	Pitch Set Point:	-0.125	Yaw Set Point:	-0.545	X_WP:	0.000	Y_WP:	0.000	Y_WP:	0.500	X:	0.099	Y:	0.095	Z:	0.400	yaw:	31.219	yaw rate:	-38.547	Roll:	4.473	Pitch:	0.992	Yaw:	45.153	Thrust:	26.277
Time:	3.916	Roll Set Point:	-0.234	Pitch Set Point:	-0.125	Yaw Set Point:	-0.545	X_WP:	0.000	Y_WP:	0.000	Y_WP:	0.500	X:	0.099	Y:	0.095	Z:	0.400	yaw:	31.235	yaw rate:	-1.467	Roll:	4.468	Pitch:	0.875	Yaw:	45.432	Thrust:	26.433
Time:	3.932	Roll Set Point:	-0.234	Pitch Set Point:	-0.125	Yaw Set Point:	-0.545	X_WP:	0.000	Y_WP:	0.000	Y_WP:	0.500	X:	0.099	Y:	0.095	Z:	0.400	yaw:	31.251	yaw rate:	1.645	Roll:	4.500	Pitch:	0.990	Yaw:	45.473	Thrust:	26.637
Time:	3.948	Roll Set Point:	-0.234	Pitch Set Point:	-0.125	Yaw Set Point:	-0.546	X_WP:	0.000	Y_WP:	0.000	Y_WP:	0.500	X:	0.099	Y:	0.095	Z:	0.400	yaw:	31.286	yaw rate:	3.440	Roll:	4.525	Pitch:	0.997	Yaw:	45.822	Thrust:	26.940
Time:	3.963	Roll Set Point:	-0.234	Pitch Set Point:	-0.125	Yaw Set Point:	-0.545	X_WP:	0.000	Y_WP:	0.000	Y_WP:	0.500	X:	0.099	Y:	0.095	Z:	0.400	yaw:	31.209	yaw rate:	-7.654	Roll:	4.428	Pitch:	1.091	Yaw:	43.856	Thrust:	26.904
Time:	3.979	Roll Set Point:	-0.234	Pitch Set Point:	-0.125	Yaw Set Point:	-0.545	X_WP:	0.000	Y_WP:	0.000	Y_WP:	0.500	X:	0.099	Y:	0.095	Z:	0.400	yaw:	31.209	yaw rate:	-7.654	Roll:	4.480	Pitch:	0.998	Yaw:	45.139	Thrust:	27.222
Time:	3.994	Roll Set Point:	-0.234	Pitch Set Point:	-0.125	Yaw Set Point:	-0.545	X_WP:	0.000	Y_WP:	0.000	Y_WP:	0.500	X:	0.099	Y:	0.095	Z:	0.400	yaw:	31.246	yaw rate:	-2.115	Roll:	4.494	Pitch:	0.889	Yaw:	45.813	Thrust:	27.487
Time:	4.010	Roll Set Point:	-0.234	Pitch Set Point:	-0.125	Yaw Set Point:	-0.545	X_WP:	0.000	Y_WP:	0.000	Y_WP:	0.500	X:	0.099	Y:	0.095	Z:	0.400	yaw:	31.246	yaw rate:	-2.115	Roll:	4.482	Pitch:	0.998	Yaw:	45.194	Thrust:	27.647
Time:	4.026	Roll Set Point:	-0.234	Pitch Set Point:	-0.125	Yaw Set Point:	-0.545	X_WP:	0.000	Y_WP:	0.000	Y_WP:	0.500	X:	0.099	Y:	0.095	Z:	0.400	yaw:	31.200	yaw rate:	-235.380	Roll:	4.445	Pitch:	1.113	Yaw:	44.346	Thrust:	27.626
Time:	4.041	Roll Set Point:	-0.234	Pitch Set Point:	-0.125	Yaw Set Point:	-0.546	X_WP:	0.000	Y_WP:	0.000	Y_WP:	0.500	X:	0.099	Y:	0.095	Z:	0.400	yaw:	31.271	yaw rate:	7.072	Roll:	4.514	Pitch:	0.861	Yaw:	46.410	Thrust:	28.158
Time:	4.057	Roll Set Point:	-0.234	Pitch Set Point:	-0.125	Yaw Set Point:	-0.546	X_WP:	0.000	Y_WP:	0.000	Y_WP:	0.500	X:	0.099	Y:	0.095	Z:	0.400	yaw:	31.256	yaw rate:	-1.505	Roll:	4.486	Pitch:	1.036	Yaw:	44.952	Thrust:	28.055
Time:	4.073	Roll Set Point:	-0.234	Pitch Set Point:	-0.125	Yaw Set Point:	-0.546	X_WP:	0.000	Y_WP:	0.000	Y_WP:	0.500	X:	0.099	Y:	0.095	Z:	0.400	yaw:	31.258	yaw rate:	0.279	Roll:	4.486	Pitch:	1.030	Yaw:	45.254	Thrust:	28.362
Time:	4.088	Roll Set Point:	-0.234	Pitch Set Point:	-0.125	Yaw Set Point:	-0.545	X_WP:	0.000	Y_WP:	0.000	Y_WP:	0.500	X:	0.099	Y:	0.095	Z:	0.400	yaw:	31.210	yaw rate:	-4.822	Roll:	4.444	Pitch:	1.065	Yaw:	44.332	Thrust:	28.426
Time:	4.104	Roll Set Point:	-0.234	Pitch Set Point:	-0.125	Yaw Set Point:	-0.544	X_WP:	0.000	Y_WP:	0.000	Y_WP:	0.500	X:	0.099	Y:	0.095	Z:	0.400	yaw:	31.185	yaw rate:	-2.548	Roll:	4.461	Pitch:	1.070	Yaw:	44.678	Thrust:	28.759
Time:	4.119	Roll Set Point:	-0.234	Pitch Set Point:	-0.125	Yaw Set Point:	-0.544	X_WP:	0.000	Y_WP:	0.000	Y_WP:	0.500	X:	0.099	Y:	0.095	Z:	0.400	yaw:	31.185	yaw rate:	-2.548	Roll:	4.479	Pitch:	1.010	Yaw:	45.105	Thrust:	28.914
Time:	4.135	Roll Set Point:	-0.234	Pitch Set Point:	-0.125	Yaw Set Point:	-0.545	X_WP:	0.000	Y_WP:	0.000	Y_WP:	0.500	X:	0.099	Y:	0.095	Z:	0.400	yaw:	31.248	yaw rate:	2.062	Roll:	4.540	Pitch:	0.878	Yaw:	46.253	Thrust:	29.141
Time:	4.151	Roll Set Point:	-0.234	Pitch Set Point:	-0.124	Yaw Set Point:	-0.552	X_WP:	0.000	Y_WP:	0.000	Y_WP:	0.500	X:	0.099	Y:	0.095	Z:	0.399	yaw:	31.652	yaw rate:	40.349	Roll:	4.844	Pitch:	-0.036	Yaw:	52.517	Thrust:	29.823
Time:	4.166	Roll Set Point:	-0.234	Pitch Set Point:	-0.124	Yaw Set Point:	-0.552	X_WP:	0.000	Y_WP:	0.000	Y_WP:	0.500	X:	0.099	Y:	0.095	Z:	0.399	yaw:	31.652	yaw rate:	40.349	Roll:	4.490	Pitch:	0.982	Yaw:	45.757	Thrust:	29.489
Time:	4.182	Roll Set Point:	-0.234	Pitch Set Point:	-0.125	Yaw Set Point:	-0.545	X_WP:	0.000	Y_WP:	0.000	Y_WP:	0.500	X:	0.099	Y:	0.095	Z:	0.400	yaw:	31.217	yaw rate:	0.618	Roll:	4.073	Pitch:	2.101	Yaw:	37.864	Thrust:	29.174
Time:	4.198	Roll Set Point:	-0.234	Pitch Set Point:	-0.125	Yaw Set Point:	-0.546	X_WP:	0.000	Y_WP:	0.000	Y_WP:	0.500	X:	0.099	Y:	0.095	Z:	0.400	yaw:	31.258	yaw rate:	4.144	Roll:	4.522	Pitch:	0.921	Yaw:	45.902	Thrust:	29.857
Time:	4.213	Roll Set Point:	-0.234	Pitch Set Point:	-0.125	Yaw Set Point:	-0.546	X_WP:	0.000	Y_WP:	0.000	Y_WP:	0.500	X:	0.099	Y:	0.095	Z:	0.400	yaw:	31.258	yaw rate:	4.144	Roll:	4.481	Pitch:	1.013	Yaw:	45.207	Thrust:	30.045
Time:	4.229	Roll Set Point:	-0.234	Pitch Set Point:	-0.125	Yaw Set Point:	-0.545	X_WP:	0.000	Y_WP:	0.000	Y_WP:	0.500	X:	0.099	Y:	0.095	Z:	0.400	yaw:	31.200	yaw rate:	-2.498	Roll:	4.446	Pitch:	1.134	Yaw:	44.161	Thrust:	30.225
Time:	4.244	Roll Set Point:	-0.234	Pitch Set Point:	-0.125	Yaw Set Point:	-0.545	X_WP:	0.000	Y_WP:	0.000	Y_WP:	0.500	X:	0.099	Y:	0.095	Z:	0.400	yaw:	31.200	yaw rate:	-2.498	Roll:	4.480	Pitch:	1.018	Yaw:	45.127	Thrust:	30.430
Time:	4.260	Roll Set Point:	-0.234	Pitch Set Point:	-0.125	Yaw Set Point:	-0.546	X_WP:	0.000	Y_WP:	0.000	Y_WP:	0.500	X:	0.099	Y:	0.095	Z:	0.400	yaw:	31.257	yaw rate:	-0.099	Roll:	4.522	Pitch:	0.887	Yaw:	46.153	Thrust:	30.602
Time:	4.290	Roll Set Point:	-0.234	Pitch Set Point:	-0.125	Yaw Set Point:	-0.545	X_WP:	0.000	Y_WP:	0.000	Y_WP:	0.500	X:	0.099	Y:	0.095	Z:	0.400	yaw:	31.205	yaw rate:	-3.876	Roll:	4.996	Pitch:	1.231	Yaw:	46.128	Thrust:	54.207
Time:	4.306	Roll Set Point:	-0.234	Pitch Set Point:	-0.125	Yaw Set Point:	-0.545	X_WP:	0.000	Y_WP:	0.000	Y_WP:	0.500	X:	0.099	Y:	0.095	Z:	0.400	yaw:	31.205	yaw rate:	-3.876	Roll:	4.480	Pitch:	1.022	Yaw:	45.133	Thrust:	30.987
Time:	4.321	Roll Set Point:	-0.234	Pitch Set Point:	-0.125	Yaw Set Point:	-0.545	X_WP:	0.000	Y_WP:	0.000	Y_WP:	0.500	X:	0.099	Y:	0.095	Z:	0.400	yaw:	31.234	yaw rate:	2.858	Roll:	4.510	Pitch:	0.922	Yaw:	45.652	Thrust:	31.190
Time:	4.337	Roll Set Point:	-0.235	Pitch Set Point:	-0.121	Yaw Set Point:	-0.586	X_WP:	0.000	Y_WP:	0.000	Y_WP:	0.500	X:	0.099	Y:	0.096	Z:	0.399	yaw:	33.549	yaw rate:	227.804	Roll:	6.121	Pitch:	-4.061	Yaw:	87.186	Thrust:	33.600
Time:	4.353	Roll Set Point:	-0.235	Pitch Set Point:	-0.121	Yaw Set Point:	-0.586	X_WP:	0.000	Y_WP:	0.000	Y_WP:	0.500	X:	0.099	Y:	0.096	Z:	0.399	yaw:	33.549	yaw rate:	227.804	Roll:	4.523	Pitch:	0.890	Yaw:	48.405	Thrust:	31.597
Time:	4.368	Roll Set Point:	-0.234	Pitch Set Point:	-0.125	Yaw Set Point:	-0.544	X_WP:	0.000	Y_WP:	0.000	Y_WP:	0.500	X:	0.099	Y:	0.095	Z:	0.400	yaw:	31.177	yaw rate:	-237.175	Roll:	2.829	Pitch:	6.167	Yaw:	5.357	Thrust:	29.635
Time:	4.384	Roll Set Point:	-0.234	Pitch Set Point:	-0.125	Yaw Set Point:	-0.545	X_WP:	0.000	Y_WP:	0.000	Y_WP:	0.500	X:	0.099	Y:	0.095	Z:	0.400	yaw:	31.237	yaw rate:	1.493	Roll:	4.537	Pitch:	0.850	Yaw:	46.181	Thrust:	31.821
Time:	4.400	Roll Set Point:	-0.234	Pitch Set Point:	-0.125	Yaw Set Point:	-0.545	X_WP:	0.000	Y_WP:	0.000	Y_WP:	0.500	X:	0.099	Y:	0.095	Z:	0.400	yaw:	31.240	yaw rate:	0.365	Roll:	4.478	Pitch:	1.045	Yaw:	45.243	Thrust:	32.165
Time:	4.415	Roll Set Point:	-0.234	Pitch Set Point:	-0.124	Yaw Set Point:	-0.553	X_WP:	0.000	Y_WP:	0.000	Y_WP:	0.500	X:	0.099	Y:	0.095	Z:	0.399	yaw:	31.664	yaw rate:	42.405	Roll:	4.850	Pitch:	-0.109	Yaw:	52.879	Thrust:	32.810
Time:	4.431	Roll Set Point:	-0.234	Pitch Set Point:	-0.125	Yaw Set Point:	-0.545	X_WP:	0.000	Y_WP:	0.000	Y_WP:	0.500	X:	0.099	Y:	0.095	Z:	0.400	yaw:	31.227	yaw rate:	-43.774	Roll:	4.119	Pitch:	2.135	Yaw:	37.830	Thrust:	31.966
Time:	4.446	Roll Set Point:	-0.234	Pitch Set Point:	-0.125	Yaw Set Point:	-0.545	X_WP:	0.000	Y_WP:	0.000	Y_WP:	0.500	X:	0.099	Y:	0.095	Z:	0.400	yaw:	31.245	yaw rate:	1.814	Roll:	4.483	Pitch:	1.002	Yaw:	45.492	Thrust:	32.664
Time:	4.462	Roll Set Point:	-0.234	Pitch Set Point:	-0.124	Yaw Set Point:	-0.552	X_WP:	0.000	Y_WP:	0.000	Y_WP:	0.500	X:	0.099	Y:	0.095	Z:	0.399	yaw:	31.622	yaw rate:	37.698	Roll:	4.847	Pitch:	-0.016	Yaw:	52.031	Thrust:	33.337
Time:	4.478	Roll Set Point:	-0.234	Pitch Set Point:	-0.125	Yaw Set Point:	-0.545	X_WP:	0.000	Y_WP:	0.000	Y_WP:	0.500	X:	0.099	Y:	0.095	Z:	0.400	yaw:	31.214	yaw rate:	-40.777	Roll:	4.099	Pitch:	2.142	Yaw:	38.314	Thrust:	32.712
Time:	4.493	Roll Set Point:	-0.234	Pitch Set Point:	-0.125	Yaw Set Point:	-0.545	X_WP:	0.000	Y_WP:	0.000	Y_WP:	0.500	X:	0.099	Y:	0.095	Z:	0.400	yaw:	31.250	yaw rate:	3.551	Roll:	4.509	Pitch:	0.935	Yaw:	45.790	Thrust:	33.236
Time:	4.509	Roll Set Point:	-0.234	Pitch Set Point:	-0.125	Yaw Set Point:	-0.545	X_WP:	0.000	Y_WP:	0.000	Y_WP:	0.500	X:	0.099	Y:	0.095	Z:	0.400	yaw:	31.246	yaw rate:	-0.326	Roll:	4.490	Pitch:	1.041	Yaw:	45.136	Thrust:	33.412
Time:	4.525	Roll Set Point:	-0.234	Pitch Set Point:	-0.125	Yaw Set Point:	-0.545	X_WP:	0.000	Y_WP:	0.000	Y_WP:	0.500	X:	0.099	Y:	0.095	Z:	0.400	yaw:	31.246	yaw rate:	-0.326	Roll:	4.481	Pitch:	1.035	Yaw:	45.191	Thrust:	33.630
Time:	4.540	Roll Set Point:	-0.234	Pitch Set Point:	-0.124	Yaw Set Point:	-0.551	X_WP:	0.000	Y_WP:	0.000	Y_WP:	0.500	X:	0.099	Y:	0.095	Z:	0.399	yaw:	31.583	yaw rate:	38.947	Roll:	4.791	Pitch:	0.090	Yaw:	51.302	Thrust:	34.318
Time:	4.556	Roll Set Point:	-0.234	Pitch Set Point:	-0.124	Yaw Set Point:	-0.551	X_WP:	0.000	Y_WP:	0.000	Y_WP:	0.500	X:	0.099	Y:	0.095	Z:	0.399	yaw:	31.565	yaw rate:	-1.746	Roll:	4.483	Pitch:	1.027	Yaw:	45.344	Thrust:	33.910
Time:	4.571	Roll Set Point:	-0.234	Pitch Set Point:	-0.125	Yaw Set Point:	-0.545	X_WP:	0.000	Y_WP:	0.000	Y_WP:	0.500	X:	0.099	Y:	0.095	Z:	0.400	yaw:	31.235	yaw rate:	-33.037	Roll:	4.170	Pitch:	2.003	Yaw:	39.640	Thrust:	33.845
Time:	4.587	Roll Set Point:	-0.234	Pitch Set Point:	-0.125	Yaw Set Point:	-0.546	X_WP:	0.000	Y_WP:	0.000	Y_WP:	0.500	X:	0.099	Y:	0.095	Z:	0.400	yaw:	31.275	yaw rate:	3.994	Roll:	4.517	Pitch:	0.972	Yaw:	45.900	Thrust:	34.398
Time:	4.603	Roll Set Point:	-0.234	Pitch Set Point:	-0.124	Yaw Set Point:	-0.552	X_WP:	0.000	Y_WP:	0.000	Y_WP:	0.500	X:	0.099	Y:	0.095	Z:	0.399	yaw:	31.636	yaw rate:	36.108	Roll:	4.808	Pitch:	-0.010	Yaw:	51.784	Thrust:	34.987
Time:	4.618	Roll Set Point:	-0.234	Pitch Set Point:	-0.125	Yaw Set Point:	-0.544	X_WP:	0.000	Y_WP:	0.000	Y_WP:	0.500	X:	0.099	Y:	0.095	Z:	0.400	yaw:	31.164	yaw rate:	-47.171	Roll:	4.089	Pitch:	2.246	Yaw:	37.175	Thrust:	34.278
Time:	4.634	Roll Set Point:	-0.234	Pitch Set Point:	-0.125	Yaw Set Point:	-0.545	X_WP:	0.000	Y_WP:	0.000	Y_WP:	0.500	X:	0.099	Y:	0.095	Z:	0.400	yaw:	31.245	yaw rate:	8.036	Roll:	4.532	Pitch:	0.871	Yaw:	46.535	Thrust:	34.970
Time:	4.650	Roll Set Point:	-0.234	Pitch Set Point:	-0.125	Yaw Set Point:	-0.545	X_WP:	0.000	Y_WP:	0.000	Y_WP:	0.500	X:	0.099	Y:	0.095	Z:	0.400	yaw:	31.245	yaw rate:	0.055	Roll:	4.475	Pitch:	1.092	Yaw:	45.198	Thrust:	35.062
Time:	4.665	Roll Set Point:	-0.234	Pitch Set Point:	-0.125	Yaw Set Point:	-0.546	X_WP:	0.000	Y_WP:	0.000	Y_WP:	0.500	X:	0.099	Y:	0.095	Z:	0.400	yaw:	31.286	yaw rate:	4.061	Roll:	4.497	Pitch:	0.946	Yaw:	45.926	Thrust:	35.462
Time:	4.681	Roll Set Point:	-0.234	Pitch Set Point:	-0.125	Yaw Set Point:	-0.545	X_WP:	0.000	Y_WP:	0.000	Y_WP:	0.500	X:	0.099	Y:	0.095	Z:	0.400	yaw:	31.222	yaw rate:	-6.420	Roll:	4.437	Pitch:	1.136	Yaw:	44.081	Thrust:	35.392
Time:	4.696	Roll Set Point:	-0.234	Pitch Set Point:	-0.125	Yaw Set Point:	-0.545	X_WP:	0.000	Y_WP:	0.000	Y_WP:	0.500	X:	0.099	Y:	0.095	Z:	0.400	yaw:	31.222	yaw rate:	-6.420	Roll:	4.480	Pitch:	1.049	Yaw:	45.156	Thrust:	35.698
Time:	4.712	Roll Set Point:	-0.234	Pitch Set Point:	-0.125	Yaw Set Point:	-0.545	X_WP:	0.000	Y_WP:	0.000	Y_WP:	0.500	X:	0.099	Y:	0.095	Z:	0.400	yaw:	31.217	yaw rate:	-3.498	Roll:	4.492	Pitch:	1.111	Yaw:	45.062	Thrust:	35.933
Time:	4.728	Roll Set Point:	-0.234	Pitch Set Point:	-0.124	Yaw Set Point:	-0.552	X_WP:	0.000	Y_WP:	0.000	Y_WP:	0.500	X:	0.099	Y:	0.095	Z:	0.399	yaw:	31.613	yaw rate:	39.620	Roll:	4.826	Pitch:	-0.040	Yaw:	52.340	Thrust:	36.584
Time:	4.743	Roll Set Point:	-0.234	Pitch Set Point:	-0.124	Yaw Set Point:	-0.552	X_WP:	0.000	Y_WP:	0.000	Y_WP:	0.500	X:	0.099	Y:	0.095	Z:	0.399	yaw:	31.613	yaw rate:	39.620	Roll:	4.489	Pitch:	1.025	Yaw:	45.702	Thrust:	36.278
Time:	4.759	Roll Set Point:	-0.234	Pitch Set Point:	-0.125	Yaw Set Point:	-0.545	X_WP:	0.000	Y_WP:	0.000	Y_WP:	0.500	X:	0.099	Y:	0.095	Z:	0.400	yaw:	31.238	yaw rate:	8.677	Roll:	4.162	Pitch:	2.067	Yaw:	38.908	Thrust:	35.999
Time:	4.775	Roll Set Point:	-0.234	Pitch Set Point:	-0.125	Yaw Set Point:	-0.545	X_WP:	0.000	Y_WP:	0.000	Y_WP:	0.500	X:	0.099	Y:	0.095	Z:	0.400	yaw:	31.242	yaw rate:	0.376	Roll:	4.491	Pitch:	1.048	Yaw:	45.248	Thrust:	36.623
Time:	4.790	Roll Set Point:	-0.234	Pitch Set Point:	-0.125	Yaw Set Point:	-0.545	X_WP:	0.000	Y_WP:	0.000	Y_WP:	0.500	X:	0.099	Y:	0.095	Z:	0.400	yaw:	31.225	yaw rate:	-1.752	Roll:	4.442	Pitch:	1.077	Yaw:	44.867	Thrust:	36.750
Time:	4.806	Roll Set Point:	-0.234	Pitch Set Point:	-0.125	Yaw Set Point:	-0.546	X_WP:	0.000	Y_WP:	0.000	Y_WP:	0.500	X:	0.099	Y:	0.095	Z:	0.400	yaw:	31.263	yaw rate:	3.884	Roll:	4.511	Pitch:	0.961	Yaw:	45.866	Thrust:	37.099
Time:	4.822	Roll Set Point:	-0.234	Pitch Set Point:	-0.125	Yaw Set Point:	-0.546	X_WP:	0.000	Y_WP:	0.000	Y_WP:	0.500	X:	0.099	Y:	0.095	Z:	0.400	yaw:	31.259	yaw rate:	-0.417	Roll:	4.482	Pitch:	1.054	Yaw:	45.139	Thrust:	37.138
Time:	4.837	Roll Set Point:	-0.234	Pitch Set Point:	-0.125	Yaw Set Point:	-0.546	X_WP:	0.000	Y_WP:	0.000	Y_WP:	0.500	X:	0.099	Y:	0.095	Z:	0.399	yaw:	31.257	yaw rate:	-0.204	Roll:	4.485	Pitch:	1.118	Yaw:	45.172	Thrust:	37.590
Time:	4.853	Roll Set Point:	-0.234	Pitch Set Point:	-0.125	Yaw Set Point:	-0.545	X_WP:	0.000	Y_WP:	0.000	Y_WP:	0.500	X:	0.099	Y:	0.095	Z:	0.400	yaw:	31.214	yaw rate:	-4.315	Roll:	4.446	Pitch:	1.119	Yaw:	44.423	Thrust:	37.440
Time:	4.868	Roll Set Point:	-0.234	Pitch Set Point:	-0.125	Yaw Set Point:	-0.545	X_WP:	0.000	Y_WP:	0.000	Y_WP:	0.500	X:	0.099	Y:	0.095	Z:	0.400	yaw:	31.214	yaw rate:	-4.315	Roll:	4.480	Pitch:	1.062	Yaw:	45.146	Thrust:	37.776
Time:	4.884	Roll Set Point:	-0.234	Pitch Set Point:	-0.125	Yaw Set Point:	-0.545	X_WP:	0.000	Y_WP:	0.000	Y_WP:	0.500	X:	0.099	Y:	0.095	Z:	0.400	yaw:	31.230	yaw rate:	1.628	Roll:	4.481	Pitch:	1.020	Yaw:	45.441	Thrust:	38.008
Time:	4.900	Roll Set Point:	-0.234	Pitch Set Point:	-0.125	Yaw Set Point:	-0.546	X_WP:	0.000	Y_WP:	0.000	Y_WP:	0.500	X:	0.099	Y:	0.095	Z:	0.400	yaw:	31.271	yaw rate:	4.351	Roll:	4.527	Pitch:	1.007	Yaw:	45.911	Thrust:	38.161
Time:	4.915	Roll Set Point:	-0.234	Pitch Set Point:	-0.125	Yaw Set Point:	-0.546	X_WP:	0.000	Y_WP:	0.000	Y_WP:	0.500	X:	0.099	Y:	0.095	Z:	0.400	yaw:	31.271	yaw rate:	4.351	Roll:	4.481	Pitch:	1.063	Yaw:	45.226	Thrust:	38.341
Time:	4.931	Roll Set Point:	-0.234	Pitch Set Point:	-0.124	Yaw Set Point:	-0.552	X_WP:	0.000	Y_WP:	0.000	Y_WP:	0.500	X:	0.099	Y:	0.095	Z:	0.399	yaw:	31.626	yaw rate:	41.197	Roll:	4.803	Pitch:	0.025	Yaw:	51.667	Thrust:	38.929
Time:	4.947	Roll Set Point:	-0.234	Pitch Set Point:	-0.125	Yaw Set Point:	-0.545	X_WP:	0.000	Y_WP:	0.000	Y_WP:	0.500	X:	0.099	Y:	0.095	Z:	0.400	yaw:	31.238	yaw rate:	-38.861	Roll:	4.140	Pitch:	2.095	Yaw:	38.668	Thrust:	38.168
Time:	4.962	Roll Set Point:	-0.234	Pitch Set Point:	-0.125	Yaw Set Point:	-0.545	X_WP:	0.000	Y_WP:	0.000	Y_WP:	0.500	X:	0.099	Y:	0.095	Z:	0.400	yaw:	31.254	yaw rate:	1.629	Roll:	4.502	Pitch:	1.064	Yaw:	45.474	Thrust:	39.016
Time:	4.978	Roll Set Point:	-0.234	Pitch Set Point:	-0.125	Yaw Set Point:	-0.544	X_WP:	0.000	Y_WP:	0.000	Y_WP:	0.500	X:	0.099	Y:	0.095	Z:	0.400	yaw:	31.182	yaw rate:	-7.197	Roll:	4.428	Pitch:	1.219	Yaw:	43.897	Thrust:	39.056
Time:	4.993	Roll Set Point:	-0.234	Pitch Set Point:	-0.125	Yaw Set Point:	-0.545	X_WP:	0.000	Y_WP:	0.000	Y_WP:	0.500	X:	0.099	Y:	0.095	Z:	0.400	yaw:	31.237	yaw rate:	5.464	Roll:	4.493	Pitch:	0.956	Yaw:	46.092	Thrust:	39.339
Time:	5.009	Roll Set Point:	-0.234	Pitch Set Point:	-0.125	Yaw Set Point:	-0.543	X_WP:	0.000	Y_WP:	0.000	Y_WP:	0.500	X:	0.099	Y:	0.095	Z:	0.400	yaw:	31.137	yaw rate:	-10.006	Roll:	4.419	Pitch:	1.257	Yaw:	43.361	Thrust:	39.308
Time:	5.025	Roll Set Point:	-0.234	Pitch Set Point:	-0.125	Yaw Set Point:	-0.545	X_WP:	0.000	Y_WP:	0.000	Y_WP:	0.500	X:	0.099	Y:	0.095	Z:	0.400	yaw:	31.248	yaw rate:	11.106	Roll:	4.572	Pitch:	0.855	Yaw:	47.053	Thrust:	39.738
Time:	5.040	Roll Set Point:	-0.234	Pitch Set Point:	-0.125	Yaw Set Point:	-0.545	X_WP:	0.000	Y_WP:	0.000	Y_WP:	0.500	X:	0.099	Y:	0.095	Z:	0.400	yaw:	31.229	yaw rate:	-1.871	Roll:	4.469	Pitch:	1.190	Yaw:	44.853	Thrust:	39.951
Time:	5.056	Roll Set Point:	-0.234	Pitch Set Point:	-0.125	Yaw Set Point:	-0.546	X_WP:	0.000	Y_WP:	0.000	Y_WP:	0.500	X:	0.099	Y:	0.095	Z:	0.400	yaw:	31.271	yaw rate:	4.220	Roll:	4.493	Pitch:	0.880	Yaw:	45.932	Thrust:	39.997
Time:	5.072	Roll Set Point:	-0.234	Pitch Set Point:	-0.125	Yaw Set Point:	-0.546	X_WP:	0.000	Y_WP:	0.000	Y_WP:	0.500	X:	0.099	Y:	0.095	Z:	0.400	yaw:	31.271	yaw rate:	4.220	Roll:	4.481	Pitch:	1.073	Yaw:	45.225	Thrust:	40.223
Time:	5.087	Roll Set Point:	-0.234	Pitch Set Point:	-0.124	Yaw Set Point:	-0.552	X_WP:	0.000	Y_WP:	0.000	Y_WP:	0.500	X:	0.099	Y:	0.095	Z:	0.399	yaw:	31.612	yaw rate:	34.088	Roll:	4.796	Pitch:	0.118	Yaw:	51.412	Thrust:	40.762
Time:	5.103	Roll Set Point:	-0.234	Pitch Set Point:	-0.125	Yaw Set Point:	-0.545	X_WP:	0.000	Y_WP:	0.000	Y_WP:	0.500	X:	0.099	Y:	0.095	Z:	0.400	yaw:	31.249	yaw rate:	2.878	Roll:	4.166	Pitch:	2.153	Yaw:	39.113	Thrust:	40.273
Time:	5.118	Roll Set Point:	-0.234	Pitch Set Point:	-0.125	Yaw Set Point:	-0.545	X_WP:	0.000	Y_WP:	0.000	Y_WP:	0.500	X:	0.099	Y:	0.095	Z:	0.400	yaw:	31.249	yaw rate:	2.878	Roll:	4.481	Pitch:	1.080	Yaw:	45.194	Thrust:	40.789
Time:	5.134	Roll Set Point:	-0.234	Pitch Set Point:	-0.124	Yaw Set Point:	-0.552	X_WP:	0.000	Y_WP:	0.000	Y_WP:	0.500	X:	0.099	Y:	0.095	Z:	0.399	yaw:	31.619	yaw rate:	36.434	Roll:	4.809	Pitch:	-0.031	Yaw:	51.907	Thrust:	41.412
Time:	5.150	Roll Set Point:	-0.234	Pitch Set Point:	-0.124	Yaw Set Point:	-0.552	X_WP:	0.000	Y_WP:	0.000	Y_WP:	0.500	X:	0.099	Y:	0.095	Z:	0.399	yaw:	31.619	yaw rate:	36.434	Roll:	4.489	Pitch:	1.054	Yaw:	45.711	Thrust:	41.174
Time:	5.165	Roll Set Point:	-0.234	Pitch Set Point:	-0.125	Yaw Set Point:	-0.545	X_WP:	0.000	Y_WP:	0.000	Y_WP:	0.500	X:	0.099	Y:	0.095	Z:	0.400	yaw:	31.221	yaw rate:	-0.186	Roll:	4.144	Pitch:	2.192	Yaw:	38.502	Thrust:	40.948
Time:	5.181	Roll Set Point:	-0.234	Pitch Set Point:	-0.125	Yaw Set Point:	-0.545	X_WP:	0.000	Y_WP:	0.000	Y_WP:	0.500	X:	0.099	Y:	0.095	Z:	0.400	yaw:	31.218	yaw rate:	-0.368	Roll:	4.457	Pitch:	1.089	Yaw:	45.089	Thrust:	41.524
Time:	5.197	Roll Set Point:	-0.234	Pitch Set Point:	-0.125	Yaw Set Point:	-0.545	X_WP:	0.000	Y_WP:	0.000	Y_WP:	0.500	X:	0.099	Y:	0.095	Z:	0.400	yaw:	31.218	yaw rate:	-0.368	Roll:	4.479	Pitch:	1.087	Yaw:	45.150	Thrust:	41.711
Time:	5.212	Roll Set Point:	-0.234	Pitch Set Point:	-0.125	Yaw Set Point:	-0.545	X_WP:	0.000	Y_WP:	0.000	Y_WP:	0.500	X:	0.099	Y:	0.095	Z:	0.400	yaw:	31.219	yaw rate:	0.117	Roll:	4.483	Pitch:	1.048	Yaw:	45.172	Thrust:	41.910
Time:	5.228	Roll Set Point:	-0.234	Pitch Set Point:	-0.125	Yaw Set Point:	-0.545	X_WP:	0.000	Y_WP:	0.000	Y_WP:	0.500	X:	0.099	Y:	0.095	Z:	0.400	yaw:	31.219	yaw rate:	0.117	Roll:	4.480	Pitch:	1.088	Yaw:	45.152	Thrust:	42.110
Time:	5.243	Roll Set Point:	-0.234	Pitch Set Point:	-0.125	Yaw Set Point:	-0.545	X_WP:	0.000	Y_WP:	0.000	Y_WP:	0.500	X:	0.099	Y:	0.095	Z:	0.400	yaw:	31.242	yaw rate:	-1.731	Roll:	4.523	Pitch:	1.074	Yaw:	45.580	Thrust:	42.350
Time:	5.259	Roll Set Point:	-0.235	Pitch Set Point:	-0.121	Yaw Set Point:	-0.586	X_WP:	0.000	Y_WP:	0.000	Y_WP:	0.500	X:	0.099	Y:	0.096	Z:	0.399	yaw:	33.581	yaw rate:	233.815	Roll:	6.109	Pitch:	-4.114	Yaw:	87.622	Thrust:	44.746
Time:	5.290	Roll Set Point:	-0.234	Pitch Set Point:	-0.124	Yaw Set Point:	-0.551	X_WP:	0.000	Y_WP:	0.000	Y_WP:	0.500	X:	0.099	Y:	0.095	Z:	0.399	yaw:	31.581	yaw rate:	-199.964	Roll:	4.394	Pitch:	3.383	Yaw:	30.105	Thrust:	77.615
Time:	5.305	Roll Set Point:	-0.234	Pitch Set Point:	-0.125	Yaw Set Point:	-0.545	X_WP:	0.000	Y_WP:	0.000	Y_WP:	0.500	X:	0.099	Y:	0.095	Z:	0.400	yaw:	31.211	yaw rate:	-36.967	Roll:	4.166	Pitch:	2.088	Yaw:	38.948	Thrust:	42.287
Time:	5.321	Roll Set Point:	-0.234	Pitch Set Point:	-0.125	Yaw Set Point:	-0.545	X_WP:	0.000	Y_WP:	0.000	Y_WP:	0.500	X:	0.099	Y:	0.095	Z:	0.400	yaw:	31.245	yaw rate:	-229.479	Roll:	4.482	Pitch:	0.996	Yaw:	45.746	Thrust:	43.131
Time:	5.337	Roll Set Point:	-0.234	Pitch Set Point:	-0.125	Yaw Set Point:	-0.545	X_WP:	0.000	Y_WP:	0.000	Y_WP:	0.500	X:	0.099	Y:	0.095	Z:	0.400	yaw:	31.245	yaw rate:	-229.479	Roll:	4.480	Pitch:	1.093	Yaw:	45.188	Thrust:	43.240
Time:	5.352	Roll Set Point:	-0.234	Pitch Set Point:	-0.125	Yaw Set Point:	-0.545	X_WP:	0.000	Y_WP:	0.000	Y_WP:	0.500	X:	0.099	Y:	0.095	Z:	0.400	yaw:	31.216	yaw rate:	-41.047	Roll:	4.476	Pitch:	1.181	Yaw:	44.669	Thrust:	43.353
Time:	5.368	Roll Set Point:	-0.234	Pitch Set Point:	-0.125	Yaw Set Point:	-0.545	X_WP:	0.000	Y_WP:	0.000	Y_WP:	0.500	X:	0.099	Y:	0.095	Z:	0.400	yaw:	31.244	yaw rate:	2.779	Roll:	4.499	Pitch:	1.089	Yaw:	45.653	Thrust:	43.711
Time:	5.383	Roll Set Point:	-0.234	Pitch Set Point:	-0.125	Yaw Set Point:	-0.545	X_WP:	0.000	Y_WP:	0.000	Y_WP:	0.500	X:	0.099	Y:	0.095	Z:	0.400	yaw:	31.211	yaw rate:	-3.247	Roll:	4.452	Pitch:	1.127	Yaw:	44.598	Thrust:	43.782
Time:	5.399	Roll Set Point:	-0.234	Pitch Set Point:	-0.124	Yaw Set Point:	-0.552	X_WP:	0.000	Y_WP:	0.000	Y_WP:	0.500	X:	0.099	Y:	0.095	Z:	0.399	yaw:	31.647	yaw rate:	43.539	Roll:	4.851	Pitch:	-0.112	Yaw:	53.044	Thrust:	44.442
Time:	5.415	Roll Set Point:	-0.234	Pitch Set Point:	-0.125	Yaw Set Point:	-0.544	X_WP:	0.000	Y_WP:	0.000	Y_WP:	0.500	X:	0.099	Y:	0.095	Z:	0.400	yaw:	31.190	yaw rate:	-45.629	Roll:	4.108	Pitch:	2.319	Yaw:	37.468	Thrust:	43.713
Time:	5.430	Roll Set Point:	-0.235	Pitch Set Point:	-0.122	Yaw Set Point:	-0.585	X_WP:	0.000	Y_WP:	0.000	Y_WP:	0.500	X:	0.099	Y:	0.096	Z:	0.399	yaw:	33.535	yaw rate:	234.442	Roll:	6.153	Pitch:	-4.017	Yaw:	87.661	Thrust:	46.661
Time:	5.446	Roll Set Point:	-0.234	Pitch Set Point:	-0.125	Yaw Set Point:	-0.545	X_WP:	0.000	Y_WP:	0.000	Y_WP:	0.500	X:	0.099	Y:	0.095	Z:	0.400	yaw:	31.221	yaw rate:	-231.362	Roll:	2.853	Pitch:	6.003	Yaw:	6.393	Thrust:	42.273
Time:	5.462	Roll Set Point:	-0.234	Pitch Set Point:	-0.125	Yaw Set Point:	-0.545	X_WP:	0.000	Y_WP:	0.000	Y_WP:	0.500	X:	0.099	Y:	0.095	Z:	0.400	yaw:	31.246	yaw rate:	2.505	Roll:	4.494	Pitch:	1.008	Yaw:	45.610	Thrust:	44.756
Time:	5.477	Roll Set Point:	-0.234	Pitch Set Point:	-0.125	Yaw Set Point:	-0.545	X_WP:	0.000	Y_WP:	0.000	Y_WP:	0.500	X:	0.099	Y:	0.095	Z:	0.400	yaw:	31.227	yaw rate:	-1.902	Roll:	4.497	Pitch:	1.225	Yaw:	44.845	Thrust:	44.898
Time:	5.493	Roll Set Point:	-0.235	Pitch Set Point:	-0.121	Yaw Set Point:	-0.586	X_WP:	0.000	Y_WP:	0.000	Y_WP:	0.500	X:	0.099	Y:	0.096	Z:	0.399	yaw:	33.576	yaw rate:	234.907	Roll:	6.133	Pitch:	-4.032	Yaw:	87.800	Thrust:	47.527
Time:	5.509	Roll Set Point:	-0.234	Pitch Set Point:	-0.125	Yaw Set Point:	-0.546	X_WP:	0.000	Y_WP:	0.000	Y_WP:	0.500	X:	0.099	Y:	0.095	Z:	0.400	yaw:	31.266	yaw rate:	-231.007	Roll:	2.888	Pitch:	6.001	Yaw:	6.514	Thrust:	43.049
Time:	5.524	Roll Set Point:	-0.234	Pitch Set Point:	-0.124	Yaw Set Point:	-0.552	X_WP:	0.000	Y_WP:	0.000	Y_WP:	0.500	X:	0.099	Y:	0.095	Z:	0.399	yaw:	31.612	yaw rate:	34.581	Roll:	4.793	Pitch:	0.089	Yaw:	51.495	Thrust:	45.904
Time:	5.540	Roll Set Point:	-0.234	Pitch Set Point:	-0.125	Yaw Set Point:	-0.544	X_WP:	0.000	Y_WP:	0.000	Y_WP:	0.500	X:	0.099	Y:	0.095	Z:	0.400	yaw:	31.186	yaw rate:	-42.622	Roll:	4.118	Pitch:	2.317	Yaw:	37.966	Thrust:	45.240
Time:	5.555	Roll Set Point:	-0.235	Pitch Set Point:	-0.121	Yaw Set Point:	-0.586	X_WP:	0.000	Y_WP:	0.000	Y_WP:	0.500	X:	0.099	Y:	0.096	Z:	0.399	yaw:	33.570	yaw rate:	238.417	Roll:	6.176	Pitch:	-4.127	Yaw:	88.376	Thrust:	48.262
Time:	5.571	Roll Set Point:	-0.234	Pitch Set Point:	-0.125	Yaw Set Point:	-0.544	X_WP:	0.000	Y_WP:	0.000	Y_WP:	0.500	X:	0.099	Y:	0.095	Z:	0.400	yaw:	31.151	yaw rate:	-241.841	Roll:	2.814	Pitch:	6.307	Yaw:	4.541	Thrust:	43.783
Time:	5.587	Roll Set Point:	-0.234	Pitch Set Point:	-0.125	Yaw Set Point:	-0.544	X_WP:	0.000	Y_WP:	0.000	Y_WP:	0.500	X:	0.099	Y:	0.095	Z:	0.400	yaw:	31.151	yaw rate:	-241.841	Roll:	4.480	Pitch:	1.119	Yaw:	45.059	Thrust:	46.286
Time:	5.602	Roll Set Point:	-0.234	Pitch Set Point:	-0.125	Yaw Set Point:	-0.546	X_WP:	0.000	Y_WP:	0.000	Y_WP:	0.500	X:	0.099	Y:	0.095	Z:	0.400	yaw:	31.277	yaw rate:	2.322	Roll:	4.565	Pitch:	0.804	Yaw:	47.342	Thrust:	46.514
Time:	5.618	Roll Set Point:	-0.234	Pitch Set Point:	-0.125	Yaw Set Point:	-0.545	X_WP:	0.000	Y_WP:	0.000	Y_WP:	0.500	X:	0.099	Y:	0.095	Z:	0.400	yaw:	31.225	yaw rate:	-5.222	Roll:	4.436	Pitch:	1.257	Yaw:	44.286	Thrust:	46.505
Time:	5.634	Roll Set Point:	-0.234	Pitch Set Point:	-0.125	Yaw Set Point:	-0.545	X_WP:	0.000	Y_WP:	0.000	Y_WP:	0.500	X:	0.099	Y:	0.095	Z:	0.400	yaw:	31.211	yaw rate:	-1.419	Roll:	4.475	Pitch:	1.115	Yaw:	44.904	Thrust:	46.836
Time:	5.649	Roll Set Point:	-0.234	Pitch Set Point:	-0.125	Yaw Set Point:	-0.545	X_WP:	0.000	Y_WP:	0.000	Y_WP:	0.500	X:	0.099	Y:	0.095	Z:	0.400	yaw:	31.223	yaw rate:	1.254	Roll:	4.476	Pitch:	1.058	Yaw:	45.369	Thrust:	47.007
Time:	5.665	Roll Set Point:	-0.234	Pitch Set Point:	-0.125	Yaw Set Point:	-0.545	X_WP:	0.000	Y_WP:	0.000	Y_WP:	0.500	X:	0.099	Y:	0.095	Z:	0.400	yaw:	31.242	yaw rate:	1.846	Roll:	4.512	Pitch:	1.086	Yaw:	45.494	Thrust:	47.157
Time:	5.680	Roll Set Point:	-0.234	Pitch Set Point:	-0.125	Yaw Set Point:	-0.545	X_WP:	0.000	Y_WP:	0.000	Y_WP:	0.500	X:	0.099	Y:	0.095	Z:	0.400	yaw:	31.249	yaw rate:	0.746	Roll:	4.496	Pitch:	1.158	Yaw:	45.320	Thrust:	47.519
Time:	5.696	Roll Set Point:	-0.235	Pitch Set Point:	-0.122	Yaw Set Point:	-0.578	X_WP:	0.000	Y_WP:	0.000	Y_WP:	0.500	X:	0.099	Y:	0.096	Z:	0.399	yaw:	33.122	yaw rate:	187.215	Roll:	5.788	Pitch:	-3.030	Yaw:	79.176	Thrust:	49.782
Time:	5.712	Roll Set Point:	-0.234	Pitch Set Point:	-0.123	Yaw Set Point:	-0.566	X_WP:	0.000	Y_WP:	0.000	Y_WP:	0.500	X:	0.099	Y:	0.096	Z:	0.399	yaw:	32.443	yaw rate:	-67.812	Roll:	4.047	Pitch:	2.534	Yaw:	35.501	Thrust:	47.288
Time:	5.727	Roll Set Point:	-0.234	Pitch Set Point:	-0.123	Yaw Set Point:	-0.568	X_WP:	0.000	Y_WP:	0.000	Y_WP:	0.500	X:	0.099	Y:	0.096	Z:	0.399	yaw:	32.536	yaw rate:	9.240	Roll:	4.553	Pitch:	0.880	Yaw:	48.539	Thrust:	47.635
Time:	5.743	Roll Set Point:	-0.234	Pitch Set Point:	-0.123	Yaw Set Point:	-0.568	X_WP:	0.000	Y_WP:	0.000	Y_WP:	0.500	X:	0.099	Y:	0.096	Z:	0.399	yaw:	32.530	yaw rate:	-0.547	Roll:	4.510	Pitch:	1.072	Yaw:	46.890	Thrust:	48.117
Time:	5.759	Roll Set Point:	-0.234	Pitch Set Point:	-0.123	Yaw Set Point:	-0.567	X_WP:	0.000	Y_WP:	0.000	Y_WP:	0.500	X:	0.099	Y:	0.096	Z:	0.399	yaw:	32.505	yaw rate:	-2.520	Roll:	4.470	Pitch:	1.131	Yaw:	46.526	Thrust:	48.396
Time:	5.774	Roll Set Point:	-0.234	Pitch Set Point:	-0.123	Yaw Set Point:	-0.567	X_WP:	0.000	Y_WP:	0.000	Y_WP:	0.500	X:	0.099	Y:	0.096	Z:	0.399	yaw:	32.469	yaw rate:	-3.617	Roll:	4.496	Pitch:	1.069	Yaw:	46.292	Thrust:	48.532
Time:	5.790	Roll Set Point:	-0.234	Pitch Set Point:	-0.123	Yaw Set Point:	-0.568	X_WP:	0.000	Y_WP:	0.000	Y_WP:	0.500	X:	0.099	Y:	0.096	Z:	0.399	yaw:	32.541	yaw rate:	7.168	Roll:	4.532	Pitch:	0.952	Yaw:	48.199	Thrust:	48.826
Time:	5.805	Roll Set Point:	-0.234	Pitch Set Point:	-0.123	Yaw Set Point:	-0.569	X_WP:	0.000	Y_WP:	0.000	Y_WP:	0.500	X:	0.099	Y:	0.096	Z:	0.399	yaw:	32.587	yaw rate:	4.648	Roll:	4.538	Pitch:	0.955	Yaw:	47.842	Thrust:	48.905
Time:	5.821	Roll Set Point:	-0.234	Pitch Set Point:	-0.123	Yaw Set Point:	-0.569	X_WP:	0.000	Y_WP:	0.000	Y_WP:	0.500	X:	0.099	Y:	0.096	Z:	0.399	yaw:	32.587	yaw rate:	4.648	Roll:	4.505	Pitch:	1.054	Yaw:	47.063	Thrust:	49.121
Time:	5.837	Roll Set Point:	-0.234	Pitch Set Point:	-0.124	Yaw Set Point:	-0.551	X_WP:	0.000	Y_WP:	0.000	Y_WP:	0.500	X:	0.099	Y:	0.095	Z:	0.399	yaw:	31.547	yaw rate:	-104.026	Roll:	3.883	Pitch:	3.110	Yaw:	28.182	Thrust:	48.365
Time:	5.852	Roll Set Point:	-0.234	Pitch Set Point:	-0.123	Yaw Set Point:	-0.567	X_WP:	0.000	Y_WP:	0.000	Y_WP:	0.500	X:	0.099	Y:	0.096	Z:	0.399	yaw:	32.494	yaw rate:	10.021	Roll:	5.059	Pitch:	-0.790	Yaw:	62.807	Thrust:	50.370
Time:	5.868	Roll Set Point:	-0.235	Pitch Set Point:	-0.121	Yaw Set Point:	-0.586	X_WP:	0.000	Y_WP:	0.000	Y_WP:	0.500	X:	0.099	Y:	0.096	Z:	0.399	yaw:	33.560	yaw rate:	106.514	Roll:	5.267	Pitch:	-1.342	Yaw:	66.266	Thrust:	50.640
Time:	5.884	Roll Set Point:	-0.235	Pitch Set Point:	-0.122	Yaw Set Point:	-0.584	X_WP:	0.000	Y_WP:	0.000	Y_WP:	0.500	X:	0.099	Y:	0.096	Z:	0.399	yaw:	33.458	yaw rate:	-10.125	Roll:	4.459	Pitch:	1.297	Yaw:	46.583	Thrust:	49.833
Time:	5.899	Roll Set Point:	-0.235	Pitch Set Point:	-0.121	Yaw Set Point:	-0.585	X_WP:	0.000	Y_WP:	0.000	Y_WP:	0.500	X:	0.099	Y:	0.096	Z:	0.399	yaw:	33.541	yaw rate:	8.323	Roll:	4.552	Pitch:	0.759	Yaw:	49.790	Thrust:	50.127
Time:	5.915	Roll Set Point:	-0.234	Pitch Set Point:	-0.125	Yaw Set Point:	-0.543	X_WP:	0.000	Y_WP:	0.000	Y_WP:	0.500	X:	0.099	Y:	0.095	Z:	0.400	yaw:	31.134	yaw rate:	-240.719	Roll:	2.840	Pitch:	6.302	Yaw:	4.706	Thrust:	47.887
Time:	5.930	Roll Set Point:	-0.234	Pitch Set Point:	-0.125	Yaw Set Point:	-0.543	X_WP:	0.000	Y_WP:	0.000	Y_WP:	0.500	X:	0.099	Y:	0.095	Z:	0.400	yaw:	31.134	yaw rate:	-240.719	Roll:	4.479	Pitch:	1.142	Yaw:	45.034	Thrust:	50.418
Time:	5.946	Roll Set Point:	-0.234	Pitch Set Point:	-0.125	Yaw Set Point:	-0.544	X_WP:	0.000	Y_WP:	0.000	Y_WP:	0.500	X:	0.099	Y:	0.095	Z:	0.400	yaw:	31.167	yaw rate:	-1.159	Roll:	4.497	Pitch:	1.137	Yaw:	45.631	Thrust:	50.776
Time:	5.962	Roll Set Point:	-0.234	Pitch Set Point:	-0.125	Yaw Set Point:	-0.546	X_WP:	0.000	Y_WP:	0.000	Y_WP:	0.500	X:	0.099	Y:	0.095	Z:	0.400	yaw:	31.256	yaw rate:	8.921	Roll:	4.521	Pitch:	0.897	Yaw:	46.699	Thrust:	50.717
Time:	5.977	Roll Set Point:	-0.234	Pitch Set Point:	-0.125	Yaw Set Point:	-0.545	X_WP:	0.000	Y_WP:	0.000	Y_WP:	0.500	X:	0.099	Y:	0.095	Z:	0.400	yaw:	31.231	yaw rate:	-2.585	Roll:	4.480	Pitch:	1.170	Yaw:	44.736	Thrust:	50.921
Time:	5.993	Roll Set Point:	-0.234	Pitch Set Point:	-0.125	Yaw Set Point:	-0.545	X_WP:	0.000	Y_WP:	0.000	Y_WP:	0.500	X:	0.099	Y:	0.095	Z:	0.400	yaw:	31.231	yaw rate:	-2.585	Roll:	4.481	Pitch:	1.141	Yaw:	45.170	Thrust:	51.211
Time:	6.009	Roll Set Point:	-0.081	Pitch Set Point:	-0.037	Yaw Set Point:	-0.585	X_WP:	0.082	Y_WP:	0.156	Y_WP:	0.500	X:	0.099	Y:	0.096	Z:	0.399	yaw:	33.518	yaw rate:	226.221	Roll:	-30.000	Pitch:	-30.000	Yaw:	86.735	Thrust:	53.672
Time:	6.024	Roll Set Point:	-0.081	Pitch Set Point:	-0.037	Yaw Set Point:	-0.585	X_WP:	0.082	Y_WP:	0.156	Y_WP:	0.500	X:	0.099	Y:	0.096	Z:	0.399	yaw:	33.518	yaw rate:	226.221	Roll:	0.056	Pitch:	-1.453	Yaw:	48.363	Thrust:	51.594
Time:	6.040	Roll Set Point:	-0.081	Pitch Set Point:	-0.036	Yaw Set Point:	-0.585	X_WP:	0.082	Y_WP:	0.156	Y_WP:	0.500	X:	0.099	Y:	0.096	Z:	0.399	yaw:	33.521	yaw rate:	192.631	Roll:	0.023	Pitch:	-1.448	Yaw:	48.412	Thrust:	51.672
Time:	6.055	Roll Set Point:	-0.081	Pitch Set Point:	-0.036	Yaw Set Point:	-0.584	X_WP:	0.081	Y_WP:	0.156	Y_WP:	0.500	X:	0.099	Y:	0.096	Z:	0.399	yaw:	33.460	yaw rate:	-6.138	Roll:	0.130	Pitch:	-1.576	Yaw:	47.252	Thrust:	52.019
Time:	6.071	Roll Set Point:	-0.083	Pitch Set Point:	-0.035	Yaw Set Point:	-0.543	X_WP:	0.082	Y_WP:	0.155	Y_WP:	0.500	X:	0.099	Y:	0.095	Z:	0.400	yaw:	31.131	yaw rate:	-232.863	Roll:	2.399	Pitch:	-2.026	Yaw:	6.020	Thrust:	49.849
Time:	6.087	Roll Set Point:	-0.083	Pitch Set Point:	-0.035	Yaw Set Point:	-0.552	X_WP:	0.082	Y_WP:	0.155	Y_WP:	0.500	X:	0.099	Y:	0.095	Z:	0.399	yaw:	31.651	yaw rate:	51.987	Roll:	-0.528	Pitch:	-1.409	Yaw:	54.465	Thrust:	52.950
Time:	6.102	Roll Set Point:	-0.081	Pitch Set Point:	-0.037	Yaw Set Point:	-0.585	X_WP:	0.082	Y_WP:	0.156	Y_WP:	0.500	X:	0.099	Y:	0.096	Z:	0.399	yaw:	33.533	yaw rate:	188.183	Roll:	-1.675	Pitch:	-0.869	Yaw:	79.910	Thrust:	54.164
Time:	6.118	Roll Set Point:	-0.083	Pitch Set Point:	-0.035	Yaw Set Point:	-0.544	X_WP:	0.082	Y_WP:	0.155	Y_WP:	0.500	X:	0.099	Y:	0.095	Z:	0.400	yaw:	31.173	yaw rate:	-235.944	Roll:	2.438	Pitch:	-2.153	Yaw:	5.563	Thrust:	50.570
Time:	6.134	Roll Set Point:	-0.083	Pitch Set Point:	-0.035	Yaw Set Point:	-0.545	X_WP:	0.082	Y_WP:	0.155	Y_WP:	0.500	X:	0.099	Y:	0.095	Z:	0.400	yaw:	31.244	yaw rate:	7.080	Roll:	0.006	Pitch:	-1.561	Yaw:	46.374	Thrust:	52.786
Time:	6.149	Roll Set Point:	-0.083	Pitch Set Point:	-0.035	Yaw Set Point:	-0.544	X_WP:	0.082	Y_WP:	0.155	Y_WP:	0.500	X:	0.099	Y:	0.095	Z:	0.400	yaw:	31.145	yaw rate:	-9.919	Roll:	0.207	Pitch:	-1.515	Yaw:	43.387	Thrust:	53.059
Time:	6.165	Roll Set Point:	-0.083	Pitch Set Point:	-0.035	Yaw Set Point:	-0.544	X_WP:	0.082	Y_WP:	0.155	Y_WP:	0.500	X:	0.099	Y:	0.095	Z:	0.400	yaw:	31.145	yaw rate:	-9.919	Roll:	0.111	Pitch:	-1.494	Yaw:	45.049	Thrust:	53.249
Time:	6.180	Roll Set Point:	-0.081	Pitch Set Point:	-0.037	Yaw Set Point:	-0.585	X_WP:	0.082	Y_WP:	0.156	Y_WP:	0.500	X:	0.099	Y:	0.096	Z:	0.399	yaw:	33.520	yaw rate:	187.515	Roll:	-2.252	Pitch:	-0.718	Yaw:	88.156	Thrust:	55.801
Time:	6.196	Roll Set Point:	-0.083	Pitch Set Point:	-0.035	Yaw Set Point:	-0.552	X_WP:	0.082	Y_WP:	0.155	Y_WP:	0.500	X:	0.099	Y:	0.095	Z:	0.399	yaw:	31.655	yaw rate:	-186.492	Roll:	1.825	Pitch:	-1.999	Yaw:	14.521	Thrust:	51.894
Time:	6.212	Roll Set Point:	-0.083	Pitch Set Point:	-0.035	Yaw Set Point:	-0.544	X_WP:	0.082	Y_WP:	0.155	Y_WP:	0.500	X:	0.099	Y:	0.095	Z:	0.400	yaw:	31.175	yaw rate:	-48.002	Roll:	0.662	Pitch:	-1.742	Yaw:	37.048	Thrust:	53.283
Time:	6.227	Roll Set Point:	-0.083	Pitch Set Point:	-0.035	Yaw Set Point:	-0.552	X_WP:	0.082	Y_WP:	0.155	Y_WP:	0.500	X:	0.099	Y:	0.095	Z:	0.399	yaw:	31.639	yaw rate:	46.428	Roll:	-0.485	Pitch:	-1.340	Yaw:	53.517	Thrust:	54.520
Time:	6.243	Roll Set Point:	-0.083	Pitch Set Point:	-0.035	Yaw Set Point:	-0.544	X_WP:	0.082	Y_WP:	0.155	Y_WP:	0.500	X:	0.099	Y:	0.095	Z:	0.400	yaw:	31.150	yaw rate:	-48.890	Roll:	0.685	Pitch:	-1.664	Yaw:	36.866	Thrust:	53.579
Time:	6.260	Roll Set Point:	-0.083	Pitch Set Point:	-0.035	Yaw Set Point:	-0.546	X_WP:	0.082	Y_WP:	0.155	Y_WP:	0.500	X:	0.099	Y:	0.095	Z:	0.399	yaw:	31.279	yaw rate:	12.864	Roll:	-0.016	Pitch:	-1.480	Yaw:	47.352	Thrust:	54.623
Time:	6.274	Roll Set Point:	-0.083	Pitch Set Point:	-0.035	Yaw Set Point:	-0.545	X_WP:	0.082	Y_WP:	0.155	Y_WP:	0.500	X:	0.099	Y:	0.095	Z:	0.400	yaw:	31.219	yaw rate:	-5.935	Roll:	0.174	Pitch:	-1.533	Yaw:	43.897	Thrust:	54.603
Time:	6.290	Roll Set Point:	-0.083	Pitch Set Point:	-0.035	Yaw Set Point:	-0.545	X_WP:	0.082	Y_WP:	0.155	Y_WP:	0.500	X:	0.099	Y:	0.095	Z:	0.400	yaw:	31.219	yaw rate:	-5.935	Roll:	0.104	Pitch:	-1.513	Yaw:	45.153	Thrust:	54.762
Time:	6.306	Roll Set Point:	-0.083	Pitch Set Point:	-0.035	Yaw Set Point:	-0.546	X_WP:	0.082	Y_WP:	0.155	Y_WP:	0.500	X:	0.099	Y:	0.095	Z:	0.400	yaw:	31.259	yaw rate:	3.657	Roll:	0.046	Pitch:	-1.499	Yaw:	45.877	Thrust:	54.919
Time:	6.321	Roll Set Point:	-0.081	Pitch Set Point:	-0.037	Yaw Set Point:	-0.585	X_WP:	0.082	Y_WP:	0.156	Y_WP:	0.500	X:	0.099	Y:	0.096	Z:	0.399	yaw:	33.519	yaw rate:	225.995	Roll:	-2.128	Pitch:	-0.768	Yaw:	86.230	Thrust:	57.393
Time:	6.337	Roll Set Point:	-0.081	Pitch Set Point:	-0.037	Yaw Set Point:	-0.585	X_WP:	0.082	Y_WP:	0.156	Y_WP:	0.500	X:	0.099	Y:	0.096	Z:	0.399	yaw:	33.519	yaw rate:	225.995	Roll:	0.043	Pitch:	-1.500	Yaw:	48.365	Thrust:	55.371
Time:	6.352	Roll Set Point:	-0.083	Pitch Set Point:	-0.035	Yaw Set Point:	-0.545	X_WP:	0.082	Y_WP:	0.155	Y_WP:	0.500	X:	0.099	Y:	0.095	Z:	0.400	yaw:	31.217	yaw rate:	2.088	Roll:	2.312	Pitch:	-2.263	Yaw:	6.583	Thrust:	53.273
