Time:	2.035	Roll Set Point:	-0.065	Pitch Set Point:	0.053	Yaw Set Point:	2.533	X_WP:	0.100	Y_WP:	0.000	Y_WP:	0.500	X:	-0.001	Y:	0.029	Z:	0.049	yaw:	-145.156	yaw rate:	-2.522	Roll:	1.927	Pitch:	-2.369	Yaw:	-202.676	Thrust:	24.798
Time:	2.048	Roll Set Point:	-0.066	Pitch Set Point:	0.052	Yaw Set Point:	2.538	X_WP:	0.100	Y_WP:	0.000	Y_WP:	0.500	X:	-0.001	Y:	0.029	Z:	0.049	yaw:	-145.389	yaw rate:	-23.363	Roll:	2.797	Pitch:	-1.981	Yaw:	-208.624	Thrust:	26.174
Time:	2.058	Roll Set Point:	-0.065	Pitch Set Point:	0.053	Yaw Set Point:	2.533	X_WP:	0.100	Y_WP:	0.000	Y_WP:	0.500	X:	-0.001	Y:	0.029	Z:	0.049	yaw:	-145.157	yaw rate:	23.213	Roll:	0.982	Pitch:	-2.858	Yaw:	-197.633	Thrust:	25.034
Time:	2.068	Roll Set Point:	-0.065	Pitch Set Point:	0.053	Yaw Set Point:	2.535	X_WP:	0.100	Y_WP:	0.000	Y_WP:	0.500	X:	-0.001	Y:	0.029	Z:	0.049	yaw:	-145.250	yaw rate:	-9.301	Roll:	2.438	Pitch:	-2.097	Yaw:	-206.721	Thrust:	26.911
Time:	2.079	Roll Set Point:	-0.065	Pitch Set Point:	0.053	Yaw Set Point:	2.532	X_WP:	0.100	Y_WP:	0.000	Y_WP:	0.500	X:	-0.001	Y:	0.029	Z:	0.049	yaw:	-145.076	yaw rate:	17.372	Roll:	1.376	Pitch:	-2.791	Yaw:	-200.351	Thrust:	26.777
Time:	2.089	Roll Set Point:	-0.065	Pitch Set Point:	0.053	Yaw Set Point:	2.532	X_WP:	0.100	Y_WP:	0.000	Y_WP:	0.500	X:	-0.001	Y:	0.029	Z:	0.049	yaw:	-145.077	yaw rate:	-0.021	Roll:	1.833	Pitch:	-2.362	Yaw:	-204.704	Thrust:	27.754
Time:	2.100	Roll Set Point:	-0.065	Pitch Set Point:	0.053	Yaw Set Point:	2.533	X_WP:	0.100	Y_WP:	0.000	Y_WP:	0.500	X:	-0.001	Y:	0.029	Z:	0.049	yaw:	-145.126	yaw rate:	-4.942	Roll:	2.093	Pitch:	-2.296	Yaw:	-205.969	Thrust:	28.202
Time:	2.111	Roll Set Point:	-0.065	Pitch Set Point:	0.053	Yaw Set Point:	2.534	X_WP:	0.100	Y_WP:	0.000	Y_WP:	0.500	X:	-0.001	Y:	0.029	Z:	0.049	yaw:	-145.161	yaw rate:	-3.512	Roll:	2.012	Pitch:	-2.317	Yaw:	-205.787	Thrust:	29.210
Time:	2.123	Roll Set Point:	-0.065	Pitch Set Point:	0.053	Yaw Set Point:	2.532	X_WP:	0.100	Y_WP:	0.000	Y_WP:	0.500	X:	-0.001	Y:	0.029	Z:	0.049	yaw:	-145.092	yaw rate:	6.938	Roll:	1.807	Pitch:	-2.513	Yaw:	-203.251	Thrust:	29.612
Time:	2.134	Roll Set Point:	-0.065	Pitch Set Point:	0.053	Yaw Set Point:	2.531	X_WP:	0.100	Y_WP:	0.000	Y_WP:	0.500	X:	-0.001	Y:	0.029	Z:	0.049	yaw:	-145.015	yaw rate:	7.721	Roll:	1.706	Pitch:	-2.473	Yaw:	-203.033	Thrust:	30.676
Time:	2.145	Roll Set Point:	-0.065	Pitch Set Point:	0.053	Yaw Set Point:	2.531	X_WP:	0.100	Y_WP:	0.000	Y_WP:	0.500	X:	-0.001	Y:	0.029	Z:	0.049	yaw:	-145.028	yaw rate:	-1.303	Roll:	1.961	Pitch:	-2.372	Yaw:	-205.012	Thrust:	30.756
Time:	2.156	Roll Set Point:	-0.065	Pitch Set Point:	0.053	Yaw Set Point:	2.533	X_WP:	0.100	Y_WP:	0.000	Y_WP:	0.500	X:	-0.001	Y:	0.029	Z:	0.049	yaw:	-145.137	yaw rate:	-10.948	Roll:	2.266	Pitch:	-2.287	Yaw:	-207.457	Thrust:	31.075
Time:	2.168	Roll Set Point:	-0.066	Pitch Set Point:	0.053	Yaw Set Point:	2.536	X_WP:	0.100	Y_WP:	0.000	Y_WP:	0.500	X:	-0.001	Y:	0.029	Z:	0.049	yaw:	-145.311	yaw rate:	-17.356	Roll:	2.546	Pitch:	-2.044	Yaw:	-209.138	Thrust:	32.624
Time:	2.179	Roll Set Point:	-0.065	Pitch Set Point:	0.053	Yaw Set Point:	2.533	X_WP:	0.100	Y_WP:	0.000	Y_WP:	0.500	X:	-0.001	Y:	0.029	Z:	0.049	yaw:	-145.103	yaw rate:	20.770	Roll:	1.315	Pitch:	-2.685	Yaw:	-199.876	Thrust:	32.037
Time:	2.190	Roll Set Point:	-0.065	Pitch Set Point:	0.053	Yaw Set Point:	2.535	X_WP:	0.100	Y_WP:	0.000	Y_WP:	0.500	X:	-0.001	Y:	0.029	Z:	0.049	yaw:	-145.219	yaw rate:	-11.597	Roll:	2.113	Pitch:	-2.269	Yaw:	-207.721	Thrust:	33.385
Time:	2.200	Roll Set Point:	-0.065	Pitch Set Point:	0.053	Yaw Set Point:	2.535	X_WP:	0.100	Y_WP:	0.000	Y_WP:	0.500	X:	-0.001	Y:	0.029	Z:	0.049	yaw:	-145.223	yaw rate:	-0.411	Roll:	1.961	Pitch:	-2.399	Yaw:	-204.975	Thrust:	33.425
Time:	2.211	Roll Set Point:	-0.065	Pitch Set Point:	0.053	Yaw Set Point:	2.533	X_WP:	0.100	Y_WP:	0.000	Y_WP:	0.500	X:	-0.001	Y:	0.029	Z:	0.049	yaw:	-145.139	yaw rate:	8.370	Roll:	1.824	Pitch:	-2.578	Yaw:	-202.720	Thrust:	33.953
Time:	2.222	Roll Set Point:	-0.065	Pitch Set Point:	0.053	Yaw Set Point:	2.536	X_WP:	0.100	Y_WP:	0.000	Y_WP:	0.500	X:	-0.001	Y:	0.029	Z:	0.049	yaw:	-145.301	yaw rate:	-16.169	Roll:	2.514	Pitch:	-2.081	Yaw:	-208.995	Thrust:	35.209
Time:	2.233	Roll Set Point:	-0.065	Pitch Set Point:	0.053	Yaw Set Point:	2.531	X_WP:	0.100	Y_WP:	0.000	Y_WP:	0.500	X:	-0.001	Y:	0.029	Z:	0.049	yaw:	-145.030	yaw rate:	27.111	Roll:	1.133	Pitch:	-2.822	Yaw:	-198.631	Thrust:	35.203
Time:	2.245	Roll Set Point:	-0.065	Pitch Set Point:	0.053	Yaw Set Point:	2.533	X_WP:	0.100	Y_WP:	0.000	Y_WP:	0.500	X:	-0.001	Y:	0.029	Z:	0.049	yaw:	-145.110	yaw rate:	-8.005	Roll:	2.156	Pitch:	-2.336	Yaw:	-206.736	Thrust:	36.889
Time:	2.255	Roll Set Point:	-0.065	Pitch Set Point:	0.053	Yaw Set Point:	2.531	X_WP:	0.100	Y_WP:	0.000	Y_WP:	0.500	X:	-0.001	Y:	0.029	Z:	0.049	yaw:	-145.034	yaw rate:	7.620	Roll:	1.805	Pitch:	-2.497	Yaw:	-202.727	Thrust:	35.868
Time:	2.267	Roll Set Point:	-0.065	Pitch Set Point:	0.053	Yaw Set Point:	2.532	X_WP:	0.100	Y_WP:	0.000	Y_WP:	0.500	X:	-0.001	Y:	0.029	Z:	0.049	yaw:	-145.072	yaw rate:	-3.830	Roll:	1.987	Pitch:	-2.415	Yaw:	-205.735	Thrust:	38.119
Time:	2.278	Roll Set Point:	-0.065	Pitch Set Point:	0.053	Yaw Set Point:	2.531	X_WP:	0.100	Y_WP:	0.000	Y_WP:	0.500	X:	-0.001	Y:	0.029	Z:	0.049	yaw:	-145.034	yaw rate:	3.792	Roll:	1.887	Pitch:	-2.428	Yaw:	-203.811	Thrust:	37.072
Time:	2.289	Roll Set Point:	-0.065	Pitch Set Point:	0.053	Yaw Set Point:	2.531	X_WP:	0.100	Y_WP:	0.000	Y_WP:	0.500	X:	-0.001	Y:	0.029	Z:	0.049	yaw:	-145.024	yaw rate:	0.994	Roll:	1.969	Pitch:	-2.453	Yaw:	-204.463	Thrust:	39.595
Time:	2.299	Roll Set Point:	-0.065	Pitch Set Point:	0.053	Yaw Set Point:	2.533	X_WP:	0.100	Y_WP:	0.000	Y_WP:	0.500	X:	-0.001	Y:	0.029	Z:	0.049	yaw:	-145.115	yaw rate:	-9.046	Roll:	2.201	Pitch:	-2.310	Yaw:	-206.973	Thrust:	37.750
Time:	2.310	Roll Set Point:	-0.065	Pitch Set Point:	0.053	Yaw Set Point:	2.533	X_WP:	0.100	Y_WP:	0.000	Y_WP:	0.500	X:	-0.001	Y:	0.029	Z:	0.049	yaw:	-145.106	yaw rate:	0.874	Roll:	1.958	Pitch:	-2.421	Yaw:	-204.495	Thrust:	39.623
Time:	2.320	Roll Set Point:	-0.065	Pitch Set Point:	0.053	Yaw Set Point:	2.534	X_WP:	0.100	Y_WP:	0.000	Y_WP:	0.500	X:	-0.001	Y:	0.029	Z:	0.049	yaw:	-145.188	yaw rate:	-8.167	Roll:	2.160	Pitch:	-2.267	Yaw:	-206.857	Thrust:	39.760
Time:	2.332	Roll Set Point:	-0.066	Pitch Set Point:	0.052	Yaw Set Point:	2.536	X_WP:	0.100	Y_WP:	0.000	Y_WP:	0.500	X:	-0.001	Y:	0.029	Z:	0.049	yaw:	-145.322	yaw rate:	-13.407	Roll:	2.425	Pitch:	-2.209	Yaw:	-208.259	Thrust:	41.565
Time:	2.343	Roll Set Point:	-0.065	Pitch Set Point:	0.053	Yaw Set Point:	2.532	X_WP:	0.100	Y_WP:	0.000	Y_WP:	0.500	X:	-0.001	Y:	0.029	Z:	0.049	yaw:	-145.091	yaw rate:	23.041	Roll:	1.328	Pitch:	-2.875	Yaw:	-199.322	Thrust:	41.720
Time:	2.354	Roll Set Point:	-0.065	Pitch Set Point:	0.053	Yaw Set Point:	2.533	X_WP:	0.100	Y_WP:	0.000	Y_WP:	0.500	X:	-0.001	Y:	0.029	Z:	0.049	yaw:	-145.158	yaw rate:	-6.701	Roll:	2.112	Pitch:	-2.282	Yaw:	-206.477	Thrust:	42.011
Time:	2.366	Roll Set Point:	-0.065	Pitch Set Point:	0.053	Yaw Set Point:	2.531	X_WP:	0.100	Y_WP:	0.000	Y_WP:	0.500	X:	-0.001	Y:	0.029	Z:	0.049	yaw:	-145.019	yaw rate:	13.951	Roll:	1.616	Pitch:	-2.620	Yaw:	-201.626	Thrust:	43.319
Time:	2.377	Roll Set Point:	-0.065	Pitch Set Point:	0.053	Yaw Set Point:	2.532	X_WP:	0.100	Y_WP:	0.000	Y_WP:	0.500	X:	-0.001	Y:	0.029	Z:	0.049	yaw:	-145.059	yaw rate:	-4.031	Roll:	2.084	Pitch:	-2.357	Yaw:	-205.762	Thrust:	44.164
Time:	2.388	Roll Set Point:	-0.065	Pitch Set Point:	0.053	Yaw Set Point:	2.533	X_WP:	0.100	Y_WP:	0.000	Y_WP:	0.500	X:	-0.001	Y:	0.029	Z:	0.049	yaw:	-145.145	yaw rate:	-8.602	Roll:	2.204	Pitch:	-2.377	Yaw:	-206.905	Thrust:	43.334
Time:	2.399	Roll Set Point:	-0.065	Pitch Set Point:	0.053	Yaw Set Point:	2.529	X_WP:	0.100	Y_WP:	0.000	Y_WP:	0.500	X:	-0.001	Y:	0.029	Z:	0.049	yaw:	-144.923	yaw rate:	22.245	Roll:	1.370	Pitch:	-2.713	Yaw:	-199.256	Thrust:	44.448
Time:	2.410	Roll Set Point:	-0.065	Pitch Set Point:	0.053	Yaw Set Point:	2.533	X_WP:	0.100	Y_WP:	0.000	Y_WP:	0.500	X:	-0.001	Y:	0.029	Z:	0.049	yaw:	-145.127	yaw rate:	-16.247	Roll:	2.444	Pitch:	-2.231	Yaw:	-209.575	Thrust:	46.021
Time:	2.424	Roll Set Point:	-0.065	Pitch Set Point:	0.053	Yaw Set Point:	2.533	X_WP:	0.100	Y_WP:	0.000	Y_WP:	0.500	X:	-0.001	Y:	0.029	Z:	0.049	yaw:	-145.127	yaw rate:	-16.247	Roll:	2.007	Pitch:	-2.466	Yaw:	-205.343	Thrust:	50.443
Time:	2.435	Roll Set Point:	-0.065	Pitch Set Point:	0.053	Yaw Set Point:	2.532	X_WP:	0.100	Y_WP:	0.000	Y_WP:	0.500	X:	-0.001	Y:	0.029	Z:	0.049	yaw:	-145.094	yaw rate:	-3.278	Roll:	1.942	Pitch:	-2.525	Yaw:	-204.142	Thrust:	46.261
Time:	2.446	Roll Set Point:	-0.065	Pitch Set Point:	0.053	Yaw Set Point:	2.533	X_WP:	0.100	Y_WP:	0.000	Y_WP:	0.500	X:	-0.001	Y:	0.029	Z:	0.049	yaw:	-145.153	yaw rate:	-5.914	Roll:	2.208	Pitch:	-2.304	Yaw:	-206.248	Thrust:	46.862
Time:	2.457	Roll Set Point:	-0.066	Pitch Set Point:	0.052	Yaw Set Point:	2.538	X_WP:	0.100	Y_WP:	0.000	Y_WP:	0.500	X:	-0.001	Y:	0.029	Z:	0.049	yaw:	-145.400	yaw rate:	-24.680	Roll:	2.844	Pitch:	-1.998	Yaw:	-211.072	Thrust:	48.373
Time:	2.467	Roll Set Point:	-0.066	Pitch Set Point:	0.053	Yaw Set Point:	2.536	X_WP:	0.100	Y_WP:	0.000	Y_WP:	0.500	X:	-0.001	Y:	0.029	Z:	0.049	yaw:	-145.327	yaw rate:	7.255	Roll:	1.826	Pitch:	-2.496	Yaw:	-203.218	Thrust:	45.651
Time:	2.478	Roll Set Point:	-0.065	Pitch Set Point:	0.053	Yaw Set Point:	2.531	X_WP:	0.100	Y_WP:	0.000	Y_WP:	0.500	X:	-0.001	Y:	0.029	Z:	0.049	yaw:	-145.022	yaw rate:	30.540	Roll:	0.911	Pitch:	-3.057	Yaw:	-197.001	Thrust:	48.483
Time:	2.488	Roll Set Point:	-0.065	Pitch Set Point:	0.053	Yaw Set Point:	2.532	X_WP:	0.100	Y_WP:	0.000	Y_WP:	0.500	X:	-0.001	Y:	0.029	Z:	0.049	yaw:	-145.099	yaw rate:	-7.749	Roll:	2.175	Pitch:	-2.387	Yaw:	-206.629	Thrust:	47.744
Time:	2.499	Roll Set Point:	-0.065	Pitch Set Point:	0.053	Yaw Set Point:	2.534	X_WP:	0.100	Y_WP:	0.000	Y_WP:	0.500	X:	-0.001	Y:	0.029	Z:	0.049	yaw:	-145.175	yaw rate:	-7.610	Roll:	2.176	Pitch:	-2.292	Yaw:	-206.701	Thrust:	48.856
Time:	2.510	Roll Set Point:	-0.065	Pitch Set Point:	0.053	Yaw Set Point:	2.533	X_WP:	0.100	Y_WP:	0.000	Y_WP:	0.500	X:	-0.001	Y:	0.029	Z:	0.049	yaw:	-145.103	yaw rate:	7.214	Roll:	1.864	Pitch:	-2.584	Yaw:	-203.106	Thrust:	50.407
Time:	2.521	Roll Set Point:	-0.065	Pitch Set Point:	0.053	Yaw Set Point:	2.530	X_WP:	0.100	Y_WP:	0.000	Y_WP:	0.500	X:	-0.001	Y:	0.029	Z:	0.049	yaw:	-144.962	yaw rate:	14.063	Roll:	1.637	Pitch:	-2.618	Yaw:	-201.069	Thrust:	50.119
Time:	2.532	Roll Set Point:	-0.065	Pitch Set Point:	0.053	Yaw Set Point:	2.533	X_WP:	0.100	Y_WP:	0.000	Y_WP:	0.500	X:	-0.001	Y:	0.029	Z:	0.049	yaw:	-145.110	yaw rate:	-14.798	Roll:	2.397	Pitch:	-2.324	Yaw:	-208.278	Thrust:	51.720
Time:	2.543	Roll Set Point:	-0.065	Pitch Set Point:	0.053	Yaw Set Point:	2.532	X_WP:	0.100	Y_WP:	0.000	Y_WP:	0.500	X:	-0.001	Y:	0.029	Z:	0.049	yaw:	-145.067	yaw rate:	4.335	Roll:	1.924	Pitch:	-2.552	Yaw:	-203.729	Thrust:	53.439
Time:	2.554	Roll Set Point:	-0.065	Pitch Set Point:	0.053	Yaw Set Point:	2.531	X_WP:	0.100	Y_WP:	0.000	Y_WP:	0.500	X:	-0.001	Y:	0.029	Z:	0.049	yaw:	-145.005	yaw rate:	6.240	Roll:	1.792	Pitch:	-2.528	Yaw:	-203.029	Thrust:	52.042
Time:	2.565	Roll Set Point:	-0.065	Pitch Set Point:	0.053	Yaw Set Point:	2.533	X_WP:	0.100	Y_WP:	0.000	Y_WP:	0.500	X:	-0.001	Y:	0.029	Z:	0.049	yaw:	-145.122	yaw rate:	-11.777	Roll:	2.377	Pitch:	-2.332	Yaw:	-207.609	Thrust:	53.238
Time:	2.576	Roll Set Point:	-0.065	Pitch Set Point:	0.053	Yaw Set Point:	2.533	X_WP:	0.100	Y_WP:	0.000	Y_WP:	0.500	X:	-0.001	Y:	0.029	Z:	0.049	yaw:	-145.103	yaw rate:	1.954	Roll:	1.918	Pitch:	-2.521	Yaw:	-204.221	Thrust:	54.054
Time:	2.592	Roll Set Point:	-0.065	Pitch Set Point:	0.053	Yaw Set Point:	2.531	X_WP:	0.100	Y_WP:	0.000	Y_WP:	0.500	X:	-0.001	Y:	0.029	Z:	0.049	yaw:	-145.041	yaw rate:	6.136	Roll:	2.003	Pitch:	-2.557	Yaw:	-204.858	Thrust:	69.318
Time:	2.604	Roll Set Point:	-0.065	Pitch Set Point:	0.053	Yaw Set Point:	2.535	X_WP:	0.100	Y_WP:	0.000	Y_WP:	0.500	X:	-0.001	Y:	0.029	Z:	0.049	yaw:	-145.245	yaw rate:	-20.352	Roll:	2.628	Pitch:	-2.147	Yaw:	-209.729	Thrust:	57.275
Time:	2.618	Roll Set Point:	-0.065	Pitch Set Point:	0.053	Yaw Set Point:	2.531	X_WP:	0.100	Y_WP:	0.000	Y_WP:	0.500	X:	-0.001	Y:	0.029	Z:	0.049	yaw:	-144.992	yaw rate:	0.288	Roll:	1.462	Pitch:	-2.959	Yaw:	-200.537	Thrust:	64.022
Time:	2.628	Roll Set Point:	-0.065	Pitch Set Point:	0.053	Yaw Set Point:	2.535	X_WP:	0.100	Y_WP:	0.000	Y_WP:	0.500	X:	-0.001	Y:	0.029	Z:	0.049	yaw:	-145.221	yaw rate:	-22.941	Roll:	2.497	Pitch:	-2.050	Yaw:	-210.762	Thrust:	53.577
Time:	2.640	Roll Set Point:	-0.065	Pitch Set Point:	0.053	Yaw Set Point:	2.533	X_WP:	0.100	Y_WP:	0.000	Y_WP:	0.500	X:	-0.001	Y:	0.029	Z:	0.049	yaw:	-145.156	yaw rate:	6.527	Roll:	1.930	Pitch:	-2.633	Yaw:	-203.501	Thrust:	57.055
Time:	2.651	Roll Set Point:	-0.065	Pitch Set Point:	0.053	Yaw Set Point:	2.535	X_WP:	0.100	Y_WP:	0.000	Y_WP:	0.500	X:	-0.001	Y:	0.029	Z:	0.049	yaw:	-145.254	yaw rate:	-9.804	Roll:	2.217	Pitch:	-2.324	Yaw:	-207.345	Thrust:	59.329
Time:	2.661	Roll Set Point:	-0.065	Pitch Set Point:	0.053	Yaw Set Point:	2.534	X_WP:	0.100	Y_WP:	0.000	Y_WP:	0.500	X:	-0.001	Y:	0.029	Z:	0.049	yaw:	-145.203	yaw rate:	5.107	Roll:	1.922	Pitch:	-2.615	Yaw:	-203.414	Thrust:	54.966
Time:	2.676	Roll Set Point:	-0.065	Pitch Set Point:	0.053	Yaw Set Point:	2.532	X_WP:	0.100	Y_WP:	0.000	Y_WP:	0.500	X:	-0.001	Y:	0.029	Z:	0.049	yaw:	-145.101	yaw rate:	10.194	Roll:	1.859	Pitch:	-2.583	Yaw:	-203.673	Thrust:	70.038
Time:	2.688	Roll Set Point:	-0.065	Pitch Set Point:	0.053	Yaw Set Point:	2.530	X_WP:	0.100	Y_WP:	0.000	Y_WP:	0.500	X:	-0.001	Y:	0.029	Z:	0.049	yaw:	-144.963	yaw rate:	13.853	Roll:	1.757	Pitch:	-2.702	Yaw:	-202.020	Thrust:	63.778
Time:	2.700	Roll Set Point:	-0.065	Pitch Set Point:	0.053	Yaw Set Point:	2.532	X_WP:	0.100	Y_WP:	0.000	Y_WP:	0.500	X:	-0.001	Y:	0.029	Z:	0.049	yaw:	-145.089	yaw rate:	-12.616	Roll:	2.385	Pitch:	-2.363	Yaw:	-207.733	Thrust:	63.037
Time:	2.710	Roll Set Point:	-0.066	Pitch Set Point:	0.053	Yaw Set Point:	2.536	X_WP:	0.100	Y_WP:	0.000	Y_WP:	0.500	X:	-0.001	Y:	0.029	Z:	0.049	yaw:	-145.312	yaw rate:	-22.341	Roll:	2.691	Pitch:	-2.127	Yaw:	-210.556	Thrust:	59.859
Time:	2.721	Roll Set Point:	-0.065	Pitch Set Point:	0.053	Yaw Set Point:	2.532	X_WP:	0.100	Y_WP:	0.000	Y_WP:	0.500	X:	-0.001	Y:	0.029	Z:	0.049	yaw:	-145.086	yaw rate:	22.648	Roll:	1.375	Pitch:	-2.927	Yaw:	-199.432	Thrust:	60.652
Time:	2.733	Roll Set Point:	-0.066	Pitch Set Point:	0.053	Yaw Set Point:	2.536	X_WP:	0.100	Y_WP:	0.000	Y_WP:	0.500	X:	-0.001	Y:	0.029	Z:	0.049	yaw:	-145.318	yaw rate:	-23.246	Roll:	2.786	Pitch:	-2.054	Yaw:	-210.486	Thrust:	64.137
Time:	2.744	Roll Set Point:	-0.066	Pitch Set Point:	0.052	Yaw Set Point:	2.537	X_WP:	0.100	Y_WP:	0.000	Y_WP:	0.500	X:	-0.001	Y:	0.029	Z:	0.049	yaw:	-145.371	yaw rate:	-5.314	Roll:	2.322	Pitch:	-2.436	Yaw:	-206.444	Thrust:	62.562
Time:	2.754	Roll Set Point:	-0.065	Pitch Set Point:	0.053	Yaw Set Point:	2.533	X_WP:	0.100	Y_WP:	0.000	Y_WP:	0.500	X:	-0.001	Y:	0.029	Z:	0.049	yaw:	-145.135	yaw rate:	23.637	Roll:	1.090	Pitch:	-2.965	Yaw:	-198.496	Thrust:	58.689
Time:	2.765	Roll Set Point:	-0.065	Pitch Set Point:	0.053	Yaw Set Point:	2.533	X_WP:	0.100	Y_WP:	0.000	Y_WP:	0.500	X:	-0.001	Y:	0.029	Z:	0.049	yaw:	-145.134	yaw rate:	0.127	Roll:	2.072	Pitch:	-2.517	Yaw:	-204.923	Thrust:	65.382
Time:	2.777	Roll Set Point:	-0.066	Pitch Set Point:	0.052	Yaw Set Point:	2.538	X_WP:	0.100	Y_WP:	0.000	Y_WP:	0.500	X:	-0.001	Y:	0.029	Z:	0.049	yaw:	-145.443	yaw rate:	-30.948	Roll:	3.000	Pitch:	-1.972	Yaw:	-212.629	Thrust:	64.863
Time:	2.788	Roll Set Point:	-0.065	Pitch Set Point:	0.053	Yaw Set Point:	2.531	X_WP:	0.100	Y_WP:	0.000	Y_WP:	0.500	X:	-0.001	Y:	0.029	Z:	0.049	yaw:	-145.035	yaw rate:	40.855	Roll:	0.944	Pitch:	-3.220	Yaw:	-195.038	Thrust:	63.877
Time:	2.799	Roll Set Point:	-0.065	Pitch Set Point:	0.053	Yaw Set Point:	2.534	X_WP:	0.100	Y_WP:	0.000	Y_WP:	0.500	X:	-0.001	Y:	0.029	Z:	0.049	yaw:	-145.198	yaw rate:	-16.346	Roll:	2.456	Pitch:	-2.283	Yaw:	-208.752	Thrust:	65.807
Time:	2.810	Roll Set Point:	-0.065	Pitch Set Point:	0.053	Yaw Set Point:	2.533	X_WP:	0.100	Y_WP:	0.000	Y_WP:	0.500	X:	-0.001	Y:	0.029	Z:	0.049	yaw:	-145.120	yaw rate:	7.783	Roll:	1.935	Pitch:	-2.567	Yaw:	-202.985	Thrust:	68.161
Time:	2.821	Roll Set Point:	-0.065	Pitch Set Point:	0.053	Yaw Set Point:	2.530	X_WP:	0.100	Y_WP:	0.000	Y_WP:	0.500	X:	-0.001	Y:	0.029	Z:	0.049	yaw:	-144.977	yaw rate:	14.306	Roll:	1.598	Pitch:	-2.722	Yaw:	-201.245	Thrust:	66.227
Time:	2.832	Roll Set Point:	-0.065	Pitch Set Point:	0.053	Yaw Set Point:	2.533	X_WP:	0.100	Y_WP:	0.000	Y_WP:	0.500	X:	-0.001	Y:	0.029	Z:	0.049	yaw:	-145.145	yaw rate:	-16.774	Roll:	2.551	Pitch:	-2.370	Yaw:	-208.935	Thrust:	65.279
Time:	2.843	Roll Set Point:	-0.065	Pitch Set Point:	0.053	Yaw Set Point:	2.533	X_WP:	0.100	Y_WP:	0.000	Y_WP:	0.500	X:	-0.001	Y:	0.029	Z:	0.049	yaw:	-145.119	yaw rate:	2.570	Roll:	1.982	Pitch:	-2.580	Yaw:	-204.220	Thrust:	67.802
Time:	2.853	Roll Set Point:	-0.065	Pitch Set Point:	0.053	Yaw Set Point:	2.533	X_WP:	0.100	Y_WP:	0.000	Y_WP:	0.500	X:	-0.001	Y:	0.029	Z:	0.049	yaw:	-145.127	yaw rate:	-0.742	Roll:	2.169	Pitch:	-2.499	Yaw:	-204.926	Thrust:	66.440
Time:	2.865	Roll Set Point:	-0.065	Pitch Set Point:	0.053	Yaw Set Point:	2.533	X_WP:	0.100	Y_WP:	0.000	Y_WP:	0.500	X:	-0.001	Y:	0.029	Z:	0.049	yaw:	-145.139	yaw rate:	-1.222	Roll:	2.018	Pitch:	-2.515	Yaw:	-205.236	Thrust:	70.891
Time:	2.876	Roll Set Point:	-0.065	Pitch Set Point:	0.053	Yaw Set Point:	2.533	X_WP:	0.100	Y_WP:	0.000	Y_WP:	0.500	X:	-0.001	Y:	0.029	Z:	0.049	yaw:	-145.109	yaw rate:	2.940	Roll:	2.008	Pitch:	-2.592	Yaw:	-204.119	Thrust:	69.520
Time:	2.887	Roll Set Point:	-0.065	Pitch Set Point:	0.053	Yaw Set Point:	2.534	X_WP:	0.100	Y_WP:	0.000	Y_WP:	0.500	X:	-0.001	Y:	0.029	Z:	0.049	yaw:	-145.200	yaw rate:	-3.716	Roll:	2.418	Pitch:	-2.344	Yaw:	-207.093	Thrust:	71.475
Time:	2.897	Roll Set Point:	-0.065	Pitch Set Point:	0.053	Yaw Set Point:	2.535	X_WP:	0.100	Y_WP:	0.000	Y_WP:	0.500	X:	-0.001	Y:	0.029	Z:	0.049	yaw:	-145.271	yaw rate:	-7.148	Roll:	2.150	Pitch:	-2.448	Yaw:	-206.720	Thrust:	65.655
Time:	2.908	Roll Set Point:	-0.065	Pitch Set Point:	0.053	Yaw Set Point:	2.533	X_WP:	0.100	Y_WP:	0.000	Y_WP:	0.500	X:	-0.001	Y:	0.029	Z:	0.049	yaw:	-145.150	yaw rate:	12.128	Roll:	1.797	Pitch:	-2.744	Yaw:	-201.758	Thrust:	71.379
Time:	2.918	Roll Set Point:	-0.065	Pitch Set Point:	0.053	Yaw Set Point:	2.533	X_WP:	0.100	Y_WP:	0.000	Y_WP:	0.500	X:	-0.001	Y:	0.029	Z:	0.049	yaw:	-145.150	yaw rate:	12.128	Roll:	2.068	Pitch:	-2.538	Yaw:	-204.677	Thrust:	67.745
Time:	2.929	Roll Set Point:	-0.065	Pitch Set Point:	0.053	Yaw Set Point:	2.532	X_WP:	0.100	Y_WP:	0.000	Y_WP:	0.500	X:	-0.001	Y:	0.029	Z:	0.049	yaw:	-145.062	yaw rate:	8.802	Roll:	1.749	Pitch:	-2.743	Yaw:	-202.661	Thrust:	72.320
Time:	2.941	Roll Set Point:	-0.065	Pitch Set Point:	0.053	Yaw Set Point:	2.530	X_WP:	0.100	Y_WP:	0.000	Y_WP:	0.500	X:	-0.001	Y:	0.029	Z:	0.049	yaw:	-144.986	yaw rate:	7.632	Roll:	1.825	Pitch:	-2.629	Yaw:	-203.014	Thrust:	75.552
Time:	2.951	Roll Set Point:	-0.065	Pitch Set Point:	0.053	Yaw Set Point:	2.532	X_WP:	0.100	Y_WP:	0.000	Y_WP:	0.500	X:	-0.001	Y:	0.029	Z:	0.049	yaw:	-145.098	yaw rate:	-11.177	Roll:	2.372	Pitch:	-2.367	Yaw:	-207.516	Thrust:	69.195
Time:	2.961	Roll Set Point:	-0.065	Pitch Set Point:	0.053	Yaw Set Point:	2.533	X_WP:	0.100	Y_WP:	0.000	Y_WP:	0.500	X:	-0.001	Y:	0.029	Z:	0.049	yaw:	-145.132	yaw rate:	-3.454	Roll:	2.214	Pitch:	-2.509	Yaw:	-205.552	Thrust:	70.065
Time:	2.971	Roll Set Point:	-0.065	Pitch Set Point:	0.053	Yaw Set Point:	2.535	X_WP:	0.100	Y_WP:	0.000	Y_WP:	0.500	X:	-0.001	Y:	0.029	Z:	0.049	yaw:	-145.242	yaw rate:	-10.940	Roll:	2.313	Pitch:	-2.285	Yaw:	-207.621	Thrust:	72.571
Time:	2.981	Roll Set Point:	-0.065	Pitch Set Point:	0.053	Yaw Set Point:	2.534	X_WP:	0.100	Y_WP:	0.000	Y_WP:	0.500	X:	-0.001	Y:	0.029	Z:	0.049	yaw:	-145.168	yaw rate:	7.391	Roll:	1.868	Pitch:	-2.692	Yaw:	-202.779	Thrust:	71.092
Time:	2.992	Roll Set Point:	-0.065	Pitch Set Point:	0.053	Yaw Set Point:	2.531	X_WP:	0.100	Y_WP:	0.000	Y_WP:	0.500	X:	-0.001	Y:	0.029	Z:	0.049	yaw:	-145.030	yaw rate:	13.785	Roll:	1.795	Pitch:	-2.833	Yaw:	-201.431	Thrust:	76.068
Time:	3.003	Roll Set Point:	-0.065	Pitch Set Point:	0.053	Yaw Set Point:	2.533	X_WP:	0.100	Y_WP:	0.000	Y_WP:	0.500	X:	-0.001	Y:	0.029	Z:	0.049	yaw:	-145.135	yaw rate:	-10.527	Roll:	2.564	Pitch:	-2.245	Yaw:	-207.370	Thrust:	75.317
Time:	3.016	Roll Set Point:	-0.065	Pitch Set Point:	0.053	Yaw Set Point:	2.532	X_WP:	0.100	Y_WP:	0.000	Y_WP:	0.500	X:	-0.001	Y:	0.029	Z:	0.049	yaw:	-145.050	yaw rate:	8.461	Roll:	1.774	Pitch:	-2.831	Yaw:	-203.608	Thrust:	88.620
Time:	3.027	Roll Set Point:	-0.065	Pitch Set Point:	0.053	Yaw Set Point:	2.532	X_WP:	0.100	Y_WP:	0.000	Y_WP:	0.500	X:	-0.001	Y:	0.029	Z:	0.049	yaw:	-145.097	yaw rate:	4.717	Roll:	2.181	Pitch:	-2.480	Yaw:	-205.897	Thrust:	77.935
Time:	3.039	Roll Set Point:	-0.065	Pitch Set Point:	0.053	Yaw Set Point:	2.534	X_WP:	0.100	Y_WP:	0.000	Y_WP:	0.500	X:	-0.001	Y:	0.029	Z:	0.049	yaw:	-145.186	yaw rate:	-8.960	Roll:	2.236	Pitch:	-2.396	Yaw:	-207.059	Thrust:	80.998
Time:	3.050	Roll Set Point:	-0.065	Pitch Set Point:	0.053	Yaw Set Point:	2.531	X_WP:	0.100	Y_WP:	0.000	Y_WP:	0.500	X:	-0.001	Y:	0.029	Z:	0.049	yaw:	-145.029	yaw rate:	15.741	Roll:	1.749	Pitch:	-2.895	Yaw:	-200.986	Thrust:	74.461
Time:	3.060	Roll Set Point:	-0.065	Pitch Set Point:	0.053	Yaw Set Point:	2.531	X_WP:	0.100	Y_WP:	0.000	Y_WP:	0.500	X:	-0.001	Y:	0.029	Z:	0.049	yaw:	-145.029	yaw rate:	15.741	Roll:	2.090	Pitch:	-2.580	Yaw:	-204.504	Thrust:	79.632
Time:	3.072	Roll Set Point:	-0.065	Pitch Set Point:	0.053	Yaw Set Point:	2.534	X_WP:	0.100	Y_WP:	0.000	Y_WP:	0.500	X:	-0.001	Y:	0.029	Z:	0.049	yaw:	-145.167	yaw rate:	-18.352	Roll:	2.442	Pitch:	-2.331	Yaw:	-208.124	Thrust:	82.739
Time:	3.083	Roll Set Point:	-0.065	Pitch Set Point:	0.053	Yaw Set Point:	2.530	X_WP:	0.100	Y_WP:	0.000	Y_WP:	0.500	X:	-0.001	Y:	0.029	Z:	0.049	yaw:	-144.979	yaw rate:	18.810	Roll:	1.567	Pitch:	-2.866	Yaw:	-200.610	Thrust:	84.943
Time:	3.093	Roll Set Point:	-0.065	Pitch Set Point:	0.053	Yaw Set Point:	2.533	X_WP:	0.100	Y_WP:	0.000	Y_WP:	0.500	X:	-0.001	Y:	0.029	Z:	0.049	yaw:	-145.143	yaw rate:	-16.488	Roll:	2.534	Pitch:	-2.280	Yaw:	-208.969	Thrust:	76.244
Time:	3.104	Roll Set Point:	-0.066	Pitch Set Point:	0.052	Yaw Set Point:	2.537	X_WP:	0.100	Y_WP:	0.000	Y_WP:	0.500	X:	-0.001	Y:	0.029	Z:	0.049	yaw:	-145.355	yaw rate:	-21.156	Roll:	2.913	Pitch:	-2.152	Yaw:	-210.319	Thrust:	80.098
Time:	3.116	Roll Set Point:	-0.065	Pitch Set Point:	0.053	Yaw Set Point:	2.532	X_WP:	0.100	Y_WP:	0.000	Y_WP:	0.500	X:	-0.001	Y:	0.029	Z:	0.049	yaw:	-145.070	yaw rate:	28.527	Roll:	1.268	Pitch:	-3.170	Yaw:	-198.442	Thrust:	79.824
Time:	3.127	Roll Set Point:	-0.065	Pitch Set Point:	0.053	Yaw Set Point:	2.531	X_WP:	0.100	Y_WP:	0.000	Y_WP:	0.500	X:	-0.001	Y:	0.029	Z:	0.049	yaw:	-145.002	yaw rate:	6.771	Roll:	1.878	Pitch:	-2.654	Yaw:	-203.053	Thrust:	88.784
Time:	3.138	Roll Set Point:	-0.065	Pitch Set Point:	0.053	Yaw Set Point:	2.533	X_WP:	0.100	Y_WP:	0.000	Y_WP:	0.500	X:	-0.001	Y:	0.029	Z:	0.049	yaw:	-145.133	yaw rate:	-13.085	Roll:	2.532	Pitch:	-2.326	Yaw:	-207.919	Thrust:	84.167
Time:	3.149	Roll Set Point:	-0.065	Pitch Set Point:	0.053	Yaw Set Point:	2.532	X_WP:	0.100	Y_WP:	0.000	Y_WP:	0.500	X:	-0.001	Y:	0.029	Z:	0.049	yaw:	-145.050	yaw rate:	8.252	Roll:	1.833	Pitch:	-2.771	Yaw:	-202.650	Thrust:	85.319
Time:	3.159	Roll Set Point:	-0.065	Pitch Set Point:	0.053	Yaw Set Point:	2.533	X_WP:	0.100	Y_WP:	0.000	Y_WP:	0.500	X:	-0.001	Y:	0.029	Z:	0.049	yaw:	-145.110	yaw rate:	-5.962	Roll:	2.265	Pitch:	-2.506	Yaw:	-206.175	Thrust:	79.386
Time:	3.170	Roll Set Point:	-0.065	Pitch Set Point:	0.053	Yaw Set Point:	2.531	X_WP:	0.100	Y_WP:	0.000	Y_WP:	0.500	X:	-0.001	Y:	0.029	Z:	0.049	yaw:	-145.031	yaw rate:	7.854	Roll:	1.936	Pitch:	-2.685	Yaw:	-202.644	Thrust:	82.510
Time:	3.180	Roll Set Point:	-0.065	Pitch Set Point:	0.053	Yaw Set Point:	2.533	X_WP:	0.100	Y_WP:	0.000	Y_WP:	0.500	X:	-0.001	Y:	0.029	Z:	0.049	yaw:	-145.131	yaw rate:	-9.912	Roll:	2.340	Pitch:	-2.502	Yaw:	-207.210	Thrust:	84.145
Time:	3.191	Roll Set Point:	-0.065	Pitch Set Point:	0.053	Yaw Set Point:	2.533	X_WP:	0.100	Y_WP:	0.000	Y_WP:	0.500	X:	-0.001	Y:	0.029	Z:	0.049	yaw:	-145.132	yaw rate:	-0.171	Roll:	2.156	Pitch:	-2.577	Yaw:	-204.889	Thrust:	86.736
Time:	3.202	Roll Set Point:	-0.065	Pitch Set Point:	0.053	Yaw Set Point:	2.531	X_WP:	0.100	Y_WP:	0.000	Y_WP:	0.500	X:	-0.001	Y:	0.029	Z:	0.049	yaw:	-144.989	yaw rate:	14.372	Roll:	1.621	Pitch:	-2.790	Yaw:	-200.697	Thrust:	81.929
Time:	3.212	Roll Set Point:	-0.065	Pitch Set Point:	0.053	Yaw Set Point:	2.532	X_WP:	0.100	Y_WP:	0.000	Y_WP:	0.500	X:	-0.001	Y:	0.029	Z:	0.049	yaw:	-145.050	yaw rate:	-6.164	Roll:	2.272	Pitch:	-2.497	Yaw:	-206.167	Thrust:	85.349
Time:	3.222	Roll Set Point:	-0.065	Pitch Set Point:	0.053	Yaw Set Point:	2.535	X_WP:	0.100	Y_WP:	0.000	Y_WP:	0.500	X:	-0.001	Y:	0.029	Z:	0.049	yaw:	-145.221	yaw rate:	-17.110	Roll:	2.524	Pitch:	-2.357	Yaw:	-209.132	Thrust:	85.360
Time:	3.234	Roll Set Point:	-0.065	Pitch Set Point:	0.053	Yaw Set Point:	2.532	X_WP:	0.100	Y_WP:	0.000	Y_WP:	0.500	X:	-0.001	Y:	0.029	Z:	0.049	yaw:	-145.046	yaw rate:	17.558	Roll:	1.801	Pitch:	-2.852	Yaw:	-200.842	Thrust:	91.895
Time:	3.245	Roll Set Point:	-0.065	Pitch Set Point:	0.053	Yaw Set Point:	2.535	X_WP:	0.100	Y_WP:	0.000	Y_WP:	0.500	X:	-0.001	Y:	0.029	Z:	0.049	yaw:	-145.263	yaw rate:	-21.713	Roll:	2.808	Pitch:	-2.193	Yaw:	-210.176	Thrust:	90.711
Time:	3.255	Roll Set Point:	-0.065	Pitch Set Point:	0.053	Yaw Set Point:	2.535	X_WP:	0.100	Y_WP:	0.000	Y_WP:	0.500	X:	-0.001	Y:	0.029	Z:	0.049	yaw:	-145.232	yaw rate:	3.045	Roll:	1.976	Pitch:	-2.645	Yaw:	-204.007	Thrust:	85.406
Time:	3.266	Roll Set Point:	-0.066	Pitch Set Point:	0.052	Yaw Set Point:	2.537	X_WP:	0.100	Y_WP:	0.000	Y_WP:	0.500	X:	-0.001	Y:	0.029	Z:	0.049	yaw:	-145.351	yaw rate:	-11.895	Roll:	2.496	Pitch:	-2.470	Yaw:	-207.980	Thrust:	87.520
Time:	3.276	Roll Set Point:	-0.066	Pitch Set Point:	0.052	Yaw Set Point:	2.537	X_WP:	0.100	Y_WP:	0.000	Y_WP:	0.500	X:	-0.001	Y:	0.029	Z:	0.049	yaw:	-145.350	yaw rate:	0.162	Roll:	2.126	Pitch:	-2.582	Yaw:	-205.012	Thrust:	88.801
Time:	3.287	Roll Set Point:	-0.065	Pitch Set Point:	0.053	Yaw Set Point:	2.534	X_WP:	0.100	Y_WP:	0.000	Y_WP:	0.500	X:	-0.001	Y:	0.029	Z:	0.049	yaw:	-145.177	yaw rate:	17.242	Roll:	1.557	Pitch:	-2.954	Yaw:	-200.543	Thrust:	91.623
Time:	3.298	Roll Set Point:	-0.065	Pitch Set Point:	0.053	Yaw Set Point:	2.532	X_WP:	0.100	Y_WP:	0.000	Y_WP:	0.500	X:	-0.001	Y:	0.029	Z:	0.049	yaw:	-145.070	yaw rate:	10.698	Roll:	1.921	Pitch:	-2.826	Yaw:	-202.211	Thrust:	92.651
Time:	3.333	Roll Set Point:	-0.065	Pitch Set Point:	0.053	Yaw Set Point:	2.533	X_WP:	0.100	Y_WP:	0.000	Y_WP:	0.500	X:	-0.001	Y:	0.029	Z:	0.049	yaw:	-145.157	yaw rate:	-8.645	Roll:	2.643	Pitch:	-3.153	Yaw:	-210.434	Thrust:	100.000
Time:	3.344	Roll Set Point:	-0.066	Pitch Set Point:	0.052	Yaw Set Point:	2.537	X_WP:	0.100	Y_WP:	0.000	Y_WP:	0.500	X:	-0.001	Y:	0.029	Z:	0.049	yaw:	-145.374	yaw rate:	-37.168	Roll:	2.862	Pitch:	-2.230	Yaw:	-210.353	Thrust:	94.634
Time:	3.355	Roll Set Point:	-0.065	Pitch Set Point:	0.053	Yaw Set Point:	2.532	X_WP:	0.100	Y_WP:	0.000	Y_WP:	0.500	X:	-0.001	Y:	0.029	Z:	0.049	yaw:	-145.101	yaw rate:	27.321	Roll:	1.306	Pitch:	-3.182	Yaw:	-197.997	Thrust:	91.587
Time:	3.366	Roll Set Point:	-0.065	Pitch Set Point:	0.053	Yaw Set Point:	2.533	X_WP:	0.100	Y_WP:	0.000	Y_WP:	0.500	X:	-0.001	Y:	0.029	Z:	0.049	yaw:	-145.111	yaw rate:	-1.026	Roll:	2.156	Pitch:	-2.616	Yaw:	-204.971	Thrust:	91.856
Time:	3.377	Roll Set Point:	-0.065	Pitch Set Point:	0.053	Yaw Set Point:	2.532	X_WP:	0.100	Y_WP:	0.000	Y_WP:	0.500	X:	-0.001	Y:	0.029	Z:	0.049	yaw:	-145.070	yaw rate:	4.149	Roll:	2.099	Pitch:	-2.681	Yaw:	-203.629	Thrust:	92.585
Time:	3.387	Roll Set Point:	-0.065	Pitch Set Point:	0.053	Yaw Set Point:	2.531	X_WP:	0.100	Y_WP:	0.000	Y_WP:	0.500	X:	-0.001	Y:	0.029	Z:	0.049	yaw:	-145.000	yaw rate:	7.038	Roll:	1.877	Pitch:	-2.687	Yaw:	-203.003	Thrust:	96.720
Time:	3.398	Roll Set Point:	-0.065	Pitch Set Point:	0.053	Yaw Set Point:	2.531	X_WP:	0.100	Y_WP:	0.000	Y_WP:	0.500	X:	-0.001	Y:	0.029	Z:	0.049	yaw:	-145.036	yaw rate:	-3.690	Roll:	2.218	Pitch:	-2.605	Yaw:	-205.533	Thrust:	93.740
Time:	3.409	Roll Set Point:	-0.065	Pitch Set Point:	0.053	Yaw Set Point:	2.532	X_WP:	0.100	Y_WP:	0.000	Y_WP:	0.500	X:	-0.001	Y:	0.029	Z:	0.049	yaw:	-145.100	yaw rate:	-6.399	Roll:	2.386	Pitch:	-2.575	Yaw:	-206.295	Thrust:	94.205
Time:	3.419	Roll Set Point:	-0.065	Pitch Set Point:	0.053	Yaw Set Point:	2.534	X_WP:	0.100	Y_WP:	0.000	Y_WP:	0.500	X:	-0.001	Y:	0.029	Z:	0.049	yaw:	-145.199	yaw rate:	-9.903	Roll:	2.306	Pitch:	-2.441	Yaw:	-207.304	Thrust:	94.965
Time:	3.430	Roll Set Point:	-0.065	Pitch Set Point:	0.053	Yaw Set Point:	2.532	X_WP:	0.100	Y_WP:	0.000	Y_WP:	0.500	X:	-0.001	Y:	0.029	Z:	0.049	yaw:	-145.083	yaw rate:	11.639	Roll:	1.935	Pitch:	-2.887	Yaw:	-202.006	Thrust:	98.612
Time:	3.441	Roll Set Point:	-0.065	Pitch Set Point:	0.053	Yaw Set Point:	2.532	X_WP:	0.100	Y_WP:	0.000	Y_WP:	0.500	X:	-0.001	Y:	0.029	Z:	0.049	yaw:	-145.046	yaw rate:	3.733	Roll:	2.069	Pitch:	-2.648	Yaw:	-203.982	Thrust:	100.000
Time:	3.452	Roll Set Point:	-0.065	Pitch Set Point:	0.053	Yaw Set Point:	2.532	X_WP:	0.100	Y_WP:	0.000	Y_WP:	0.500	X:	-0.001	Y:	0.029	Z:	0.049	yaw:	-145.094	yaw rate:	-4.805	Roll:	2.270	Pitch:	-2.628	Yaw:	-205.907	Thrust:	98.279
Time:	3.464	Roll Set Point:	-0.066	Pitch Set Point:	0.052	Yaw Set Point:	2.537	X_WP:	0.100	Y_WP:	0.000	Y_WP:	0.500	X:	-0.001	Y:	0.029	Z:	0.049	yaw:	-145.381	yaw rate:	-28.765	Roll:	3.152	Pitch:	-2.091	Yaw:	-212.026	Thrust:	100.000
Time:	3.475	Roll Set Point:	-0.065	Pitch Set Point:	0.053	Yaw Set Point:	2.534	X_WP:	0.100	Y_WP:	0.000	Y_WP:	0.500	X:	-0.001	Y:	0.029	Z:	0.049	yaw:	-145.207	yaw rate:	17.420	Roll:	1.502	Pitch:	-2.988	Yaw:	-201.351	Thrust:	100.000
Time:	3.485	Roll Set Point:	-0.066	Pitch Set Point:	0.052	Yaw Set Point:	2.537	X_WP:	0.100	Y_WP:	0.000	Y_WP:	0.500	X:	-0.001	Y:	0.029	Z:	0.049	yaw:	-145.356	yaw rate:	-14.831	Roll:	2.631	Pitch:	-2.327	Yaw:	-208.830	Thrust:	99.050
Time:	3.497	Roll Set Point:	-0.066	Pitch Set Point:	0.052	Yaw Set Point:	2.537	X_WP:	0.100	Y_WP:	0.000	Y_WP:	0.500	X:	-0.001	Y:	0.029	Z:	0.049	yaw:	-145.332	yaw rate:	2.370	Roll:	2.157	Pitch:	-2.736	Yaw:	-204.691	Thrust:	100.000
Time:	3.508	Roll Set Point:	-0.065	Pitch Set Point:	0.053	Yaw Set Point:	2.534	X_WP:	0.100	Y_WP:	0.000	Y_WP:	0.500	X:	-0.001	Y:	0.029	Z:	0.049	yaw:	-145.164	yaw rate:	16.831	Roll:	1.602	Pitch:	-2.971	Yaw:	-200.898	Thrust:	100.000
Time:	3.518	Roll Set Point:	-0.065	Pitch Set Point:	0.053	Yaw Set Point:	2.536	X_WP:	0.100	Y_WP:	0.000	Y_WP:	0.500	X:	-0.001	Y:	0.029	Z:	0.049	yaw:	-145.286	yaw rate:	-12.287	Roll:	2.645	Pitch:	-2.408	Yaw:	-208.011	Thrust:	100.000
Time:	3.528	Roll Set Point:	-0.065	Pitch Set Point:	0.053	Yaw Set Point:	2.533	X_WP:	0.100	Y_WP:	0.000	Y_WP:	0.500	X:	-0.001	Y:	0.029	Z:	0.049	yaw:	-145.136	yaw rate:	15.078	Roll:	1.564	Pitch:	-2.955	Yaw:	-200.734	Thrust:	96.437
Time:	3.539	Roll Set Point:	-0.065	Pitch Set Point:	0.053	Yaw Set Point:	2.532	X_WP:	0.100	Y_WP:	0.000	Y_WP:	0.500	X:	-0.001	Y:	0.029	Z:	0.049	yaw:	-145.073	yaw rate:	6.273	Roll:	2.030	Pitch:	-2.716	Yaw:	-203.097	Thrust:	100.000
Time:	3.549	Roll Set Point:	-0.065	Pitch Set Point:	0.053	Yaw Set Point:	2.534	X_WP:	0.100	Y_WP:	0.000	Y_WP:	0.500	X:	-0.001	Y:	0.029	Z:	0.049	yaw:	-145.171	yaw rate:	-9.801	Roll:	2.394	Pitch:	-2.541	Yaw:	-207.238	Thrust:	100.000
Time:	3.561	Roll Set Point:	-0.065	Pitch Set Point:	0.053	Yaw Set Point:	2.530	X_WP:	0.100	Y_WP:	0.000	Y_WP:	0.500	X:	-0.001	Y:	0.029	Z:	0.049	yaw:	-144.982	yaw rate:	18.941	Roll:	1.674	Pitch:	-2.958	Yaw:	-200.700	Thrust:	100.000
Time:	3.575	Roll Set Point:	-0.065	Pitch Set Point:	0.053	Yaw Set Point:	2.535	X_WP:	0.100	Y_WP:	0.000	Y_WP:	0.500	X:	-0.001	Y:	0.029	Z:	0.049	yaw:	-145.221	yaw rate:	-23.905	Roll:	2.874	Pitch:	-2.429	Yaw:	-210.095	Thrust:	100.000
Time:	3.588	Roll Set Point:	-0.065	Pitch Set Point:	0.053	Yaw Set Point:	2.532	X_WP:	0.100	Y_WP:	0.000	Y_WP:	0.500	X:	-0.001	Y:	0.029	Z:	0.049	yaw:	-145.098	yaw rate:	12.223	Roll:	1.775	Pitch:	-2.970	Yaw:	-202.127	Thrust:	100.000
Time:	3.603	Roll Set Point:	-0.065	Pitch Set Point:	0.053	Yaw Set Point:	2.534	X_WP:	0.100	Y_WP:	0.000	Y_WP:	0.500	X:	-0.001	Y:	0.029	Z:	0.049	yaw:	-145.193	yaw rate:	-6.856	Roll:	2.447	Pitch:	-2.676	Yaw:	-207.432	Thrust:	100.000
Time:	3.616	Roll Set Point:	-0.065	Pitch Set Point:	0.053	Yaw Set Point:	2.531	X_WP:	0.100	Y_WP:	0.000	Y_WP:	0.500	X:	-0.001	Y:	0.029	Z:	0.049	yaw:	-145.042	yaw rate:	15.124	Roll:	1.962	Pitch:	-2.906	Yaw:	-202.086	Thrust:	100.000
Time:	3.626	Roll Set Point:	-0.065	Pitch Set Point:	0.053	Yaw Set Point:	2.533	X_WP:	0.100	Y_WP:	0.000	Y_WP:	0.500	X:	-0.001	Y:	0.029	Z:	0.049	yaw:	-145.158	yaw rate:	-11.631	Roll:	2.430	Pitch:	-2.550	Yaw:	-207.646	Thrust:	100.000
Time:	3.637	Roll Set Point:	-0.065	Pitch Set Point:	0.053	Yaw Set Point:	2.532	X_WP:	0.100	Y_WP:	0.000	Y_WP:	0.500	X:	-0.001	Y:	0.029	Z:	0.049	yaw:	-145.100	yaw rate:	5.822	Roll:	2.042	Pitch:	-2.801	Yaw:	-203.258	Thrust:	100.000
Time:	3.650	Roll Set Point:	-0.065	Pitch Set Point:	0.053	Yaw Set Point:	2.533	X_WP:	0.100	Y_WP:	0.000	Y_WP:	0.500	X:	-0.001	Y:	0.029	Z:	0.049	yaw:	-145.132	yaw rate:	-3.241	Roll:	2.309	Pitch:	-2.624	Yaw:	-205.761	Thrust:	100.000
Time:	3.662	Roll Set Point:	-0.065	Pitch Set Point:	0.053	Yaw Set Point:	2.533	X_WP:	0.100	Y_WP:	0.000	Y_WP:	0.500	X:	-0.001	Y:	0.029	Z:	0.049	yaw:	-145.137	yaw rate:	-0.478	Roll:	2.175	Pitch:	-2.785	Yaw:	-205.350	Thrust:	100.000
Time:	3.678	Roll Set Point:	-0.065	Pitch Set Point:	0.053	Yaw Set Point:	2.534	X_WP:	0.100	Y_WP:	0.000	Y_WP:	0.500	X:	-0.001	Y:	0.029	Z:	0.049	yaw:	-145.193	yaw rate:	12.849	Roll:	2.432	Pitch:	-2.768	Yaw:	-206.924	Thrust:	100.000
Time:	3.689	Roll Set Point:	-0.066	Pitch Set Point:	0.053	Yaw Set Point:	2.536	X_WP:	0.100	Y_WP:	0.000	Y_WP:	0.500	X:	-0.001	Y:	0.029	Z:	0.049	yaw:	-145.308	yaw rate:	-11.535	Roll:	2.682	Pitch:	-2.468	Yaw:	-207.837	Thrust:	100.000
Time:	3.701	Roll Set Point:	-0.065	Pitch Set Point:	0.053	Yaw Set Point:	2.533	X_WP:	0.100	Y_WP:	0.000	Y_WP:	0.500	X:	-0.001	Y:	0.029	Z:	0.049	yaw:	-145.159	yaw rate:	14.974	Roll:	1.621	Pitch:	-3.004	Yaw:	-201.588	Thrust:	100.000
Time:	3.712	Roll Set Point:	-0.065	Pitch Set Point:	0.053	Yaw Set Point:	2.533	X_WP:	0.100	Y_WP:	0.000	Y_WP:	0.500	X:	-0.001	Y:	0.029	Z:	0.049	yaw:	-145.118	yaw rate:	4.105	Roll:	2.111	Pitch:	-2.733	Yaw:	-203.854	Thrust:	100.000
Time:	3.722	Roll Set Point:	-0.066	Pitch Set Point:	0.052	Yaw Set Point:	2.537	X_WP:	0.100	Y_WP:	0.000	Y_WP:	0.500	X:	-0.001	Y:	0.029	Z:	0.049	yaw:	-145.337	yaw rate:	-21.890	Roll:	2.920	Pitch:	-2.292	Yaw:	-210.448	Thrust:	100.000
Time:	3.736	Roll Set Point:	-0.065	Pitch Set Point:	0.053	Yaw Set Point:	2.532	X_WP:	0.100	Y_WP:	0.000	Y_WP:	0.500	X:	-0.001	Y:	0.029	Z:	0.049	yaw:	-145.098	yaw rate:	23.845	Roll:	1.511	Pitch:	-3.162	Yaw:	-200.423	Thrust:	100.000
Time:	3.748	Roll Set Point:	-0.065	Pitch Set Point:	0.053	Yaw Set Point:	2.533	X_WP:	0.100	Y_WP:	0.000	Y_WP:	0.500	X:	-0.001	Y:	0.029	Z:	0.049	yaw:	-145.106	yaw rate:	-0.746	Roll:	2.177	Pitch:	-2.679	Yaw:	-205.186	Thrust:	100.000
Time:	3.759	Roll Set Point:	-0.065	Pitch Set Point:	0.053	Yaw Set Point:	2.533	X_WP:	0.100	Y_WP:	0.000	Y_WP:	0.500	X:	-0.001	Y:	0.029	Z:	0.049	yaw:	-145.137	yaw rate:	-3.097	Roll:	2.382	Pitch:	-2.733	Yaw:	-205.590	Thrust:	100.000
Time:	3.769	Roll Set Point:	-0.065	Pitch Set Point:	0.053	Yaw Set Point:	2.532	X_WP:	0.100	Y_WP:	0.000	Y_WP:	0.500	X:	-0.001	Y:	0.029	Z:	0.049	yaw:	-145.090	yaw rate:	4.634	Roll:	2.082	Pitch:	-2.774	Yaw:	-203.540	Thrust:	100.000
Time:	3.779	Roll Set Point:	-0.065	Pitch Set Point:	0.053	Yaw Set Point:	2.533	X_WP:	0.100	Y_WP:	0.000	Y_WP:	0.500	X:	-0.001	Y:	0.029	Z:	0.049	yaw:	-145.125	yaw rate:	-3.504	Roll:	2.308	Pitch:	-2.646	Yaw:	-205.570	Thrust:	100.000
Time:	3.790	Roll Set Point:	-0.065	Pitch Set Point:	0.053	Yaw Set Point:	2.533	X_WP:	0.100	Y_WP:	0.000	Y_WP:	0.500	X:	-0.001	Y:	0.029	Z:	0.049	yaw:	-145.151	yaw rate:	-2.618	Roll:	2.284	Pitch:	-2.690	Yaw:	-205.512	Thrust:	100.000
Time:	3.802	Roll Set Point:	-0.066	Pitch Set Point:	0.052	Yaw Set Point:	2.537	X_WP:	0.100	Y_WP:	0.000	Y_WP:	0.500	X:	-0.001	Y:	0.029	Z:	0.049	yaw:	-145.339	yaw rate:	-18.781	Roll:	2.892	Pitch:	-2.289	Yaw:	-209.593	Thrust:	100.000
Time:	3.813	Roll Set Point:	-0.065	Pitch Set Point:	0.053	Yaw Set Point:	2.535	X_WP:	0.100	Y_WP:	0.000	Y_WP:	0.500	X:	-0.001	Y:	0.029	Z:	0.049	yaw:	-145.218	yaw rate:	12.071	Roll:	1.900	Pitch:	-2.909	Yaw:	-202.115	Thrust:	100.000
Time:	3.824	Roll Set Point:	-0.065	Pitch Set Point:	0.053	Yaw Set Point:	2.532	X_WP:	0.100	Y_WP:	0.000	Y_WP:	0.500	X:	-0.001	Y:	0.029	Z:	0.049	yaw:	-145.064	yaw rate:	15.492	Roll:	1.705	Pitch:	-3.082	Yaw:	-201.280	Thrust:	100.000
Time:	3.836	Roll Set Point:	-0.065	Pitch Set Point:	0.053	Yaw Set Point:	2.531	X_WP:	0.100	Y_WP:	0.000	Y_WP:	0.500	X:	-0.001	Y:	0.029	Z:	0.049	yaw:	-145.041	yaw rate:	2.246	Roll:	2.134	Pitch:	-2.760	Yaw:	-204.313	Thrust:	100.000
Time:	3.847	Roll Set Point:	-0.065	Pitch Set Point:	0.053	Yaw Set Point:	2.533	X_WP:	0.100	Y_WP:	0.000	Y_WP:	0.500	X:	-0.001	Y:	0.029	Z:	0.049	yaw:	-145.148	yaw rate:	-10.704	Roll:	2.470	Pitch:	-2.541	Yaw:	-207.408	Thrust:	100.000
Time:	3.858	Roll Set Point:	-0.065	Pitch Set Point:	0.053	Yaw Set Point:	2.531	X_WP:	0.100	Y_WP:	0.000	Y_WP:	0.500	X:	-0.001	Y:	0.029	Z:	0.049	yaw:	-145.015	yaw rate:	13.329	Roll:	1.944	Pitch:	-2.926	Yaw:	-201.521	Thrust:	100.000
Time:	3.868	Roll Set Point:	-0.066	Pitch Set Point:	0.052	Yaw Set Point:	2.537	X_WP:	0.100	Y_WP:	0.000	Y_WP:	0.500	X:	-0.001	Y:	0.029	Z:	0.049	yaw:	-145.338	yaw rate:	-32.347	Roll:	3.270	Pitch:	-2.087	Yaw:	-213.074	Thrust:	100.000
Time:	3.879	Roll Set Point:	-0.065	Pitch Set Point:	0.053	Yaw Set Point:	2.532	X_WP:	0.100	Y_WP:	0.000	Y_WP:	0.500	X:	-0.001	Y:	0.029	Z:	0.049	yaw:	-145.098	yaw rate:	24.005	Roll:	1.324	Pitch:	-3.160	Yaw:	-198.729	Thrust:	100.000
Time:	3.890	Roll Set Point:	-0.065	Pitch Set Point:	0.053	Yaw Set Point:	2.531	X_WP:	0.100	Y_WP:	0.000	Y_WP:	0.500	X:	-0.001	Y:	0.029	Z:	0.049	yaw:	-144.988	yaw rate:	11.063	Roll:	2.023	Pitch:	-2.937	Yaw:	-202.022	Thrust:	100.000
Time:	3.900	Roll Set Point:	-0.065	Pitch Set Point:	0.053	Yaw Set Point:	2.534	X_WP:	0.100	Y_WP:	0.000	Y_WP:	0.500	X:	-0.001	Y:	0.029	Z:	0.049	yaw:	-145.196	yaw rate:	-20.803	Roll:	2.685	Pitch:	-2.348	Yaw:	-210.009	Thrust:	100.000
Time:	3.911	Roll Set Point:	-0.065	Pitch Set Point:	0.053	Yaw Set Point:	2.532	X_WP:	0.100	Y_WP:	0.000	Y_WP:	0.500	X:	-0.001	Y:	0.029	Z:	0.049	yaw:	-145.100	yaw rate:	9.547	Roll:	2.109	Pitch:	-2.925	Yaw:	-202.538	Thrust:	100.000
Time:	3.922	Roll Set Point:	-0.065	Pitch Set Point:	0.053	Yaw Set Point:	2.534	X_WP:	0.100	Y_WP:	0.000	Y_WP:	0.500	X:	-0.001	Y:	0.029	Z:	0.049	yaw:	-145.202	yaw rate:	-10.157	Roll:	2.537	Pitch:	-2.542	Yaw:	-207.356	Thrust:	100.000
Time:	3.933	Roll Set Point:	-0.065	Pitch Set Point:	0.053	Yaw Set Point:	2.531	X_WP:	0.100	Y_WP:	0.000	Y_WP:	0.500	X:	-0.001	Y:	0.029	Z:	0.049	yaw:	-145.035	yaw rate:	16.631	Roll:	1.663	Pitch:	-3.015	Yaw:	-200.491	Thrust:	100.000
Time:	3.944	Roll Set Point:	-0.065	Pitch Set Point:	0.053	Yaw Set Point:	2.532	X_WP:	0.100	Y_WP:	0.000	Y_WP:	0.500	X:	-0.001	Y:	0.029	Z:	0.049	yaw:	-145.092	yaw rate:	-5.645	Roll:	2.402	Pitch:	-2.722	Yaw:	-206.132	Thrust:	100.000
Time:	3.955	Roll Set Point:	-0.066	Pitch Set Point:	0.052	Yaw Set Point:	2.537	X_WP:	0.100	Y_WP:	0.000	Y_WP:	0.500	X:	-0.001	Y:	0.029	Z:	0.049	yaw:	-145.372	yaw rate:	-28.048	Roll:	3.008	Pitch:	-2.202	Yaw:	-211.840	Thrust:	100.000
Time:	3.966	Roll Set Point:	-0.065	Pitch Set Point:	0.053	Yaw Set Point:	2.533	X_WP:	0.100	Y_WP:	0.000	Y_WP:	0.500	X:	-0.001	Y:	0.029	Z:	0.049	yaw:	-145.112	yaw rate:	26.035	Roll:	1.427	Pitch:	-3.260	Yaw:	-198.642	Thrust:	100.000
Time:	3.978	Roll Set Point:	-0.065	Pitch Set Point:	0.053	Yaw Set Point:	2.534	X_WP:	0.100	Y_WP:	0.000	Y_WP:	0.500	X:	-0.001	Y:	0.029	Z:	0.049	yaw:	-145.180	yaw rate:	18.443	Roll:	2.426	Pitch:	-2.689	Yaw:	-206.587	Thrust:	100.000
Time:	3.989	Roll Set Point:	-0.065	Pitch Set Point:	0.053	Yaw Set Point:	2.530	X_WP:	0.100	Y_WP:	0.000	Y_WP:	0.500	X:	-0.001	Y:	0.029	Z:	0.049	yaw:	-144.955	yaw rate:	22.431	Roll:	1.716	Pitch:	-3.108	Yaw:	-199.370	Thrust:	100.000
Time:	4.001	Roll Set Point:	-0.065	Pitch Set Point:	0.053	Yaw Set Point:	2.535	X_WP:	0.100	Y_WP:	0.000	Y_WP:	0.500	X:	-0.001	Y:	0.029	Z:	0.049	yaw:	-145.232	yaw rate:	-27.708	Roll:	3.059	Pitch:	-2.274	Yaw:	-211.379	Thrust:	100.000
Time:	4.012	Roll Set Point:	-0.065	Pitch Set Point:	0.053	Yaw Set Point:	2.534	X_WP:	0.100	Y_WP:	0.000	Y_WP:	0.500	X:	-0.001	Y:	0.029	Z:	0.049	yaw:	-145.203	yaw rate:	2.900	Roll:	2.084	Pitch:	-2.938	Yaw:	-204.398	Thrust:	100.000
Time:	4.023	Roll Set Point:	-0.065	Pitch Set Point:	0.053	Yaw Set Point:	2.532	X_WP:	0.100	Y_WP:	0.000	Y_WP:	0.500	X:	-0.001	Y:	0.029	Z:	0.049	yaw:	-145.100	yaw rate:	10.383	Roll:	2.061	Pitch:	-2.921	Yaw:	-202.069	Thrust:	100.000
Time:	4.035	Roll Set Point:	-0.065	Pitch Set Point:	0.053	Yaw Set Point:	2.532	X_WP:	0.100	Y_WP:	0.000	Y_WP:	0.500	X:	-0.001	Y:	0.029	Z:	0.049	yaw:	-145.077	yaw rate:	2.259	Roll:	2.198	Pitch:	-2.847	Yaw:	-204.482	Thrust:	100.000
Time:	4.046	Roll Set Point:	-0.065	Pitch Set Point:	0.053	Yaw Set Point:	2.532	X_WP:	0.100	Y_WP:	0.000	Y_WP:	0.500	X:	-0.001	Y:	0.029	Z:	0.049	yaw:	-145.096	yaw rate:	-1.890	Roll:	2.317	Pitch:	-2.710	Yaw:	-205.247	Thrust:	100.000
Time:	4.056	Roll Set Point:	-0.065	Pitch Set Point:	0.053	Yaw Set Point:	2.532	X_WP:	0.100	Y_WP:	0.000	Y_WP:	0.500	X:	-0.001	Y:	0.029	Z:	0.049	yaw:	-145.084	yaw rate:	1.159	Roll:	2.152	Pitch:	-2.768	Yaw:	-204.285	Thrust:	100.000
Time:	4.068	Roll Set Point:	-0.065	Pitch Set Point:	0.053	Yaw Set Point:	2.530	X_WP:	0.100	Y_WP:	0.000	Y_WP:	0.500	X:	-0.001	Y:	0.029	Z:	0.049	yaw:	-144.944	yaw rate:	14.004	Roll:	1.910	Pitch:	-2.946	Yaw:	-201.744	Thrust:	100.000
Time:	4.079	Roll Set Point:	-0.066	Pitch Set Point:	0.052	Yaw Set Point:	2.536	X_WP:	0.100	Y_WP:	0.000	Y_WP:	0.500	X:	-0.001	Y:	0.029	Z:	0.049	yaw:	-145.327	yaw rate:	-38.290	Roll:	3.415	Pitch:	-2.184	Yaw:	-214.210	Thrust:	100.000
Time:	4.090	Roll Set Point:	-0.065	Pitch Set Point:	0.053	Yaw Set Point:	2.532	X_WP:	0.100	Y_WP:	0.000	Y_WP:	0.500	X:	-0.001	Y:	0.029	Z:	0.049	yaw:	-145.092	yaw rate:	23.496	Roll:	1.563	Pitch:	-3.230	Yaw:	-198.877	Thrust:	100.000
Time:	4.101	Roll Set Point:	-0.066	Pitch Set Point:	0.052	Yaw Set Point:	2.538	X_WP:	0.100	Y_WP:	0.000	Y_WP:	0.500	X:	-0.001	Y:	0.029	Z:	0.049	yaw:	-145.412	yaw rate:	-31.987	Roll:	3.079	Pitch:	-2.154	Yaw:	-212.602	Thrust:	100.000
Time:	4.112	Roll Set Point:	-0.065	Pitch Set Point:	0.053	Yaw Set Point:	2.533	X_WP:	0.100	Y_WP:	0.000	Y_WP:	0.500	X:	-0.001	Y:	0.029	Z:	0.049	yaw:	-145.127	yaw rate:	28.486	Roll:	1.546	Pitch:	-3.340	Yaw:	-198.080	Thrust:	100.000
Time:	4.123	Roll Set Point:	-0.065	Pitch Set Point:	0.053	Yaw Set Point:	2.533	X_WP:	0.100	Y_WP:	0.000	Y_WP:	0.500	X:	-0.001	Y:	0.029	Z:	0.049	yaw:	-145.109	yaw rate:	1.846	Roll:	2.104	Pitch:	-2.774	Yaw:	-204.310	Thrust:	100.000
Time:	4.136	Roll Set Point:	-0.065	Pitch Set Point:	0.053	Yaw Set Point:	2.532	X_WP:	0.100	Y_WP:	0.000	Y_WP:	0.500	X:	-0.001	Y:	0.029	Z:	0.049	yaw:	-145.080	yaw rate:	2.877	Roll:	2.362	Pitch:	-2.929	Yaw:	-204.600	Thrust:	100.000
Time:	4.147	Roll Set Point:	-0.065	Pitch Set Point:	0.053	Yaw Set Point:	2.533	X_WP:	0.100	Y_WP:	0.000	Y_WP:	0.500	X:	-0.001	Y:	0.029	Z:	0.049	yaw:	-145.155	yaw rate:	-7.513	Roll:	2.420	Pitch:	-2.657	Yaw:	-206.666	Thrust:	100.000
Time:	4.158	Roll Set Point:	-0.065	Pitch Set Point:	0.053	Yaw Set Point:	2.532	X_WP:	0.100	Y_WP:	0.000	Y_WP:	0.500	X:	-0.001	Y:	0.029	Z:	0.049	yaw:	-145.083	yaw rate:	7.248	Roll:	2.096	Pitch:	-2.845	Yaw:	-203.059	Thrust:	100.000
Time:	4.170	Roll Set Point:	-0.065	Pitch Set Point:	0.053	Yaw Set Point:	2.533	X_WP:	0.100	Y_WP:	0.000	Y_WP:	0.500	X:	-0.001	Y:	0.029	Z:	0.049	yaw:	-145.119	yaw rate:	-3.668	Roll:	2.361	Pitch:	-2.813	Yaw:	-205.764	Thrust:	100.000
Time:	4.180	Roll Set Point:	-0.065	Pitch Set Point:	0.053	Yaw Set Point:	2.533	X_WP:	0.100	Y_WP:	0.000	Y_WP:	0.500	X:	-0.001	Y:	0.029	Z:	0.049	yaw:	-145.112	yaw rate:	0.695	Roll:	2.256	Pitch:	-2.764	Yaw:	-204.554	Thrust:	100.000
Time:	4.191	Roll Set Point:	-0.065	Pitch Set Point:	0.053	Yaw Set Point:	2.533	X_WP:	0.100	Y_WP:	0.000	Y_WP:	0.500	X:	-0.001	Y:	0.029	Z:	0.049	yaw:	-145.116	yaw rate:	-0.354	Roll:	2.338	Pitch:	-2.723	Yaw:	-204.910	Thrust:	100.000
Time:	4.202	Roll Set Point:	-0.065	Pitch Set Point:	0.053	Yaw Set Point:	2.531	X_WP:	0.100	Y_WP:	0.000	Y_WP:	0.500	X:	-0.001	Y:	0.029	Z:	0.049	yaw:	-145.033	yaw rate:	8.304	Roll:	1.844	Pitch:	-2.925	Yaw:	-202.558	Thrust:	100.000
Time:	4.213	Roll Set Point:	-0.065	Pitch Set Point:	0.053	Yaw Set Point:	2.533	X_WP:	0.100	Y_WP:	0.000	Y_WP:	0.500	X:	-0.001	Y:	0.029	Z:	0.049	yaw:	-145.143	yaw rate:	-11.026	Roll:	2.597	Pitch:	-2.626	Yaw:	-207.481	Thrust:	100.000
Time:	4.223	Roll Set Point:	-0.065	Pitch Set Point:	0.053	Yaw Set Point:	2.532	X_WP:	0.100	Y_WP:	0.000	Y_WP:	0.500	X:	-0.001	Y:	0.029	Z:	0.049	yaw:	-145.087	yaw rate:	5.579	Roll:	2.198	Pitch:	-2.853	Yaw:	-203.130	Thrust:	100.000
Time:	4.234	Roll Set Point:	-0.065	Pitch Set Point:	0.053	Yaw Set Point:	2.532	X_WP:	0.100	Y_WP:	0.000	Y_WP:	0.500	X:	-0.001	Y:	0.029	Z:	0.049	yaw:	-145.093	yaw rate:	-0.563	Roll:	2.203	Pitch:	-2.713	Yaw:	-205.022	Thrust:	100.000
Time:	4.245	Roll Set Point:	-0.065	Pitch Set Point:	0.053	Yaw Set Point:	2.533	X_WP:	0.100	Y_WP:	0.000	Y_WP:	0.500	X:	-0.001	Y:	0.029	Z:	0.049	yaw:	-145.127	yaw rate:	-3.362	Roll:	2.387	Pitch:	-2.767	Yaw:	-205.577	Thrust:	100.000
Time:	4.256	Roll Set Point:	-0.065	Pitch Set Point:	0.053	Yaw Set Point:	2.534	X_WP:	0.100	Y_WP:	0.000	Y_WP:	0.500	X:	-0.001	Y:	0.029	Z:	0.049	yaw:	-145.194	yaw rate:	-6.754	Roll:	2.421	Pitch:	-2.734	Yaw:	-206.569	Thrust:	100.000
Time:	4.268	Roll Set Point:	-0.065	Pitch Set Point:	0.053	Yaw Set Point:	2.533	X_WP:	0.100	Y_WP:	0.000	Y_WP:	0.500	X:	-0.001	Y:	0.029	Z:	0.049	yaw:	-145.151	yaw rate:	4.279	Roll:	2.208	Pitch:	-2.879	Yaw:	-204.006	Thrust:	100.000
Time:	4.279	Roll Set Point:	-0.065	Pitch Set Point:	0.053	Yaw Set Point:	2.533	X_WP:	0.100	Y_WP:	0.000	Y_WP:	0.500	X:	-0.001	Y:	0.029	Z:	0.049	yaw:	-145.111	yaw rate:	4.075	Roll:	2.312	Pitch:	-2.841	Yaw:	-203.851	Thrust:	100.000
Time:	4.289	Roll Set Point:	-0.065	Pitch Set Point:	0.053	Yaw Set Point:	2.533	X_WP:	0.100	Y_WP:	0.000	Y_WP:	0.500	X:	-0.001	Y:	0.029	Z:	0.049	yaw:	-145.126	yaw rate:	-1.497	Roll:	2.229	Pitch:	-2.692	Yaw:	-205.089	Thrust:	100.000
Time:	4.300	Roll Set Point:	-0.065	Pitch Set Point:	0.053	Yaw Set Point:	2.534	X_WP:	0.100	Y_WP:	0.000	Y_WP:	0.500	X:	-0.001	Y:	0.029	Z:	0.049	yaw:	-145.166	yaw rate:	-4.003	Roll:	2.420	Pitch:	-2.758	Yaw:	-205.852	Thrust:	100.000
Time:	4.312	Roll Set Point:	-0.065	Pitch Set Point:	0.053	Yaw Set Point:	2.531	X_WP:	0.100	Y_WP:	0.000	Y_WP:	0.500	X:	-0.001	Y:	0.029	Z:	0.049	yaw:	-145.038	yaw rate:	12.712	Roll:	2.005	Pitch:	-2.914	Yaw:	-201.932	Thrust:	100.000
Time:	4.323	Roll Set Point:	-0.065	Pitch Set Point:	0.053	Yaw Set Point:	2.533	X_WP:	0.100	Y_WP:	0.000	Y_WP:	0.500	X:	-0.001	Y:	0.029	Z:	0.049	yaw:	-145.115	yaw rate:	-7.005	Roll:	2.468	Pitch:	-2.748	Yaw:	-206.620	Thrust:	100.000
Time:	4.335	Roll Set Point:	-0.065	Pitch Set Point:	0.053	Yaw Set Point:	2.533	X_WP:	0.100	Y_WP:	0.000	Y_WP:	0.500	X:	-0.001	Y:	0.029	Z:	0.049	yaw:	-145.115	yaw rate:	-7.005	Roll:	2.316	Pitch:	-2.803	Yaw:	-205.025	Thrust:	100.000
Time:	4.346	Roll Set Point:	-0.065	Pitch Set Point:	0.053	Yaw Set Point:	2.533	X_WP:	0.100	Y_WP:	0.000	Y_WP:	0.500	X:	-0.001	Y:	0.029	Z:	0.049	yaw:	-145.134	yaw rate:	-11.021	Roll:	2.358	Pitch:	-2.737	Yaw:	-205.313	Thrust:	100.000
Time:	4.356	Roll Set Point:	-0.065	Pitch Set Point:	0.053	Yaw Set Point:	2.533	X_WP:	0.100	Y_WP:	0.000	Y_WP:	0.500	X:	-0.001	Y:	0.029	Z:	0.049	yaw:	-145.134	yaw rate:	-11.021	Roll:	2.304	Pitch:	-2.764	Yaw:	-204.752	Thrust:	100.000
Time:	4.368	Roll Set Point:	-0.065	Pitch Set Point:	0.053	Yaw Set Point:	2.532	X_WP:	0.100	Y_WP:	0.000	Y_WP:	0.500	X:	-0.001	Y:	0.029	Z:	0.049	yaw:	-145.055	yaw rate:	7.194	Roll:	2.142	Pitch:	-2.897	Yaw:	-203.046	Thrust:	100.000
Time:	4.378	Roll Set Point:	-0.065	Pitch Set Point:	0.053	Yaw Set Point:	2.532	X_WP:	0.100	Y_WP:	0.000	Y_WP:	0.500	X:	-0.001	Y:	0.029	Z:	0.049	yaw:	-145.083	yaw rate:	-2.817	Roll:	2.376	Pitch:	-2.793	Yaw:	-205.380	Thrust:	100.000
Time:	4.390	Roll Set Point:	-0.065	Pitch Set Point:	0.053	Yaw Set Point:	2.533	X_WP:	0.100	Y_WP:	0.000	Y_WP:	0.500	X:	-0.001	Y:	0.029	Z:	0.049	yaw:	-145.136	yaw rate:	-5.344	Roll:	2.471	Pitch:	-2.712	Yaw:	-206.126	Thrust:	100.000
Time:	4.401	Roll Set Point:	-0.065	Pitch Set Point:	0.053	Yaw Set Point:	2.533	X_WP:	0.100	Y_WP:	0.000	Y_WP:	0.500	X:	-0.001	Y:	0.029	Z:	0.049	yaw:	-145.156	yaw rate:	-1.944	Roll:	2.397	Pitch:	-2.747	Yaw:	-205.504	Thrust:	100.000
Time:	4.412	Roll Set Point:	-0.065	Pitch Set Point:	0.053	Yaw Set Point:	2.534	X_WP:	0.100	Y_WP:	0.000	Y_WP:	0.500	X:	-0.001	Y:	0.029	Z:	0.049	yaw:	-145.161	yaw rate:	-0.488	Roll:	2.234	Pitch:	-2.726	Yaw:	-204.909	Thrust:	100.000
Time:	4.423	Roll Set Point:	-0.065	Pitch Set Point:	0.053	Yaw Set Point:	2.533	X_WP:	0.100	Y_WP:	0.000	Y_WP:	0.500	X:	-0.001	Y:	0.029	Z:	0.049	yaw:	-145.134	yaw rate:	2.709	Roll:	2.233	Pitch:	-2.860	Yaw:	-204.203	Thrust:	100.000
Time:	4.435	Roll Set Point:	-0.065	Pitch Set Point:	0.053	Yaw Set Point:	2.532	X_WP:	0.100	Y_WP:	0.000	Y_WP:	0.500	X:	-0.001	Y:	0.029	Z:	0.049	yaw:	-145.093	yaw rate:	4.036	Roll:	2.258	Pitch:	-2.875	Yaw:	-203.977	Thrust:	100.000
Time:	4.446	Roll Set Point:	-0.065	Pitch Set Point:	0.053	Yaw Set Point:	2.534	X_WP:	0.100	Y_WP:	0.000	Y_WP:	0.500	X:	-0.001	Y:	0.029	Z:	0.049	yaw:	-145.212	yaw rate:	-11.880	Roll:	2.566	Pitch:	-2.556	Yaw:	-207.780	Thrust:	100.000
Time:	4.456	Roll Set Point:	-0.065	Pitch Set Point:	0.053	Yaw Set Point:	2.532	X_WP:	0.100	Y_WP:	0.000	Y_WP:	0.500	X:	-0.001	Y:	0.029	Z:	0.049	yaw:	-145.060	yaw rate:	15.244	Roll:	1.986	Pitch:	-2.992	Yaw:	-200.771	Thrust:	100.000
Time:	4.466	Roll Set Point:	-0.065	Pitch Set Point:	0.053	Yaw Set Point:	2.535	X_WP:	0.100	Y_WP:	0.000	Y_WP:	0.500	X:	-0.001	Y:	0.029	Z:	0.049	yaw:	-145.225	yaw rate:	-16.519	Roll:	2.709	Pitch:	-2.533	Yaw:	-208.984	Thrust:	100.000
Time:	4.477	Roll Set Point:	-0.065	Pitch Set Point:	0.053	Yaw Set Point:	2.532	X_WP:	0.100	Y_WP:	0.000	Y_WP:	0.500	X:	-0.001	Y:	0.029	Z:	0.049	yaw:	-145.086	yaw rate:	13.914	Roll:	1.991	Pitch:	-2.997	Yaw:	-201.480	Thrust:	100.000
Time:	4.488	Roll Set Point:	-0.065	Pitch Set Point:	0.053	Yaw Set Point:	2.533	X_WP:	0.100	Y_WP:	0.000	Y_WP:	0.500	X:	-0.001	Y:	0.029	Z:	0.049	yaw:	-145.139	yaw rate:	-5.315	Roll:	2.398	Pitch:	-2.699	Yaw:	-206.082	Thrust:	100.000
Time:	4.499	Roll Set Point:	-0.065	Pitch Set Point:	0.053	Yaw Set Point:	2.534	X_WP:	0.100	Y_WP:	0.000	Y_WP:	0.500	X:	-0.001	Y:	0.029	Z:	0.049	yaw:	-145.161	yaw rate:	-2.252	Roll:	2.380	Pitch:	-2.676	Yaw:	-205.349	Thrust:	100.000
Time:	4.509	Roll Set Point:	-0.065	Pitch Set Point:	0.053	Yaw Set Point:	2.533	X_WP:	0.100	Y_WP:	0.000	Y_WP:	0.500	X:	-0.001	Y:	0.029	Z:	0.049	yaw:	-145.128	yaw rate:	3.319	Roll:	2.241	Pitch:	-2.906	Yaw:	-203.918	Thrust:	100.000
Time:	4.520	Roll Set Point:	-0.065	Pitch Set Point:	0.053	Yaw Set Point:	2.532	X_WP:	0.100	Y_WP:	0.000	Y_WP:	0.500	X:	-0.001	Y:	0.029	Z:	0.049	yaw:	-145.054	yaw rate:	7.428	Roll:	2.179	Pitch:	-2.837	Yaw:	-202.998	Thrust:	100.000
Time:	4.533	Roll Set Point:	-0.065	Pitch Set Point:	0.053	Yaw Set Point:	2.532	X_WP:	0.100	Y_WP:	0.000	Y_WP:	0.500	X:	-0.001	Y:	0.029	Z:	0.049	yaw:	-145.069	yaw rate:	-1.493	Roll:	2.438	Pitch:	-2.793	Yaw:	-205.369	Thrust:	100.000
Time:	4.544	Roll Set Point:	-0.065	Pitch Set Point:	0.053	Yaw Set Point:	2.533	X_WP:	0.100	Y_WP:	0.000	Y_WP:	0.500	X:	-0.001	Y:	0.029	Z:	0.049	yaw:	-145.153	yaw rate:	-8.418	Roll:	2.532	Pitch:	-2.699	Yaw:	-206.889	Thrust:	100.000
Time:	4.555	Roll Set Point:	-0.065	Pitch Set Point:	0.053	Yaw Set Point:	2.533	X_WP:	0.100	Y_WP:	0.000	Y_WP:	0.500	X:	-0.001	Y:	0.029	Z:	0.049	yaw:	-145.111	yaw rate:	4.207	Roll:	2.265	Pitch:	-2.781	Yaw:	-203.693	Thrust:	100.000
Time:	4.565	Roll Set Point:	-0.065	Pitch Set Point:	0.053	Yaw Set Point:	2.533	X_WP:	0.100	Y_WP:	0.000	Y_WP:	0.500	X:	-0.001	Y:	0.029	Z:	0.049	yaw:	-145.133	yaw rate:	-2.191	Roll:	2.311	Pitch:	-2.783	Yaw:	-205.299	Thrust:	100.000
Time:	4.576	Roll Set Point:	-0.066	Pitch Set Point:	0.053	Yaw Set Point:	2.536	X_WP:	0.100	Y_WP:	0.000	Y_WP:	0.500	X:	-0.001	Y:	0.029	Z:	0.049	yaw:	-145.317	yaw rate:	-18.403	Roll:	2.977	Pitch:	-2.444	Yaw:	-209.582	Thrust:	100.000
Time:	4.586	Roll Set Point:	-0.065	Pitch Set Point:	0.053	Yaw Set Point:	2.530	X_WP:	0.100	Y_WP:	0.000	Y_WP:	0.500	X:	-0.001	Y:	0.029	Z:	0.049	yaw:	-144.980	yaw rate:	33.698	Roll:	1.325	Pitch:	-3.230	Yaw:	-196.158	Thrust:	100.000
Time:	4.597	Roll Set Point:	-0.065	Pitch Set Point:	0.053	Yaw Set Point:	2.533	X_WP:	0.100	Y_WP:	0.000	Y_WP:	0.500	X:	-0.001	Y:	0.029	Z:	0.049	yaw:	-145.157	yaw rate:	-17.732	Roll:	2.811	Pitch:	-2.554	Yaw:	-209.092	Thrust:	100.000
Time:	4.610	Roll Set Point:	-0.065	Pitch Set Point:	0.053	Yaw Set Point:	2.532	X_WP:	0.100	Y_WP:	0.000	Y_WP:	0.500	X:	-0.001	Y:	0.029	Z:	0.049	yaw:	-145.061	yaw rate:	9.571	Roll:	2.145	Pitch:	-2.942	Yaw:	-202.869	Thrust:	100.000
Time:	4.621	Roll Set Point:	-0.065	Pitch Set Point:	0.053	Yaw Set Point:	2.532	X_WP:	0.100	Y_WP:	0.000	Y_WP:	0.500	X:	-0.001	Y:	0.029	Z:	0.049	yaw:	-145.093	yaw rate:	-3.111	Roll:	2.489	Pitch:	-2.736	Yaw:	-205.600	Thrust:	100.000
Time:	4.633	Roll Set Point:	-0.065	Pitch Set Point:	0.053	Yaw Set Point:	2.534	X_WP:	0.100	Y_WP:	0.000	Y_WP:	0.500	X:	-0.001	Y:	0.029	Z:	0.049	yaw:	-145.201	yaw rate:	-10.890	Roll:	2.595	Pitch:	-2.653	Yaw:	-207.518	Thrust:	100.000
Time:	4.643	Roll Set Point:	-0.065	Pitch Set Point:	0.053	Yaw Set Point:	2.531	X_WP:	0.100	Y_WP:	0.000	Y_WP:	0.500	X:	-0.001	Y:	0.029	Z:	0.049	yaw:	-145.022	yaw rate:	17.934	Roll:	1.864	Pitch:	-3.057	Yaw:	-200.135	Thrust:	100.000
Time:	4.654	Roll Set Point:	-0.065	Pitch Set Point:	0.053	Yaw Set Point:	2.532	X_WP:	0.100	Y_WP:	0.000	Y_WP:	0.500	X:	-0.001	Y:	0.029	Z:	0.049	yaw:	-145.059	yaw rate:	-3.703	Roll:	2.398	Pitch:	-2.808	Yaw:	-205.570	Thrust:	100.000
Time:	4.665	Roll Set Point:	-0.065	Pitch Set Point:	0.053	Yaw Set Point:	2.535	X_WP:	0.100	Y_WP:	0.000	Y_WP:	0.500	X:	-0.001	Y:	0.029	Z:	0.049	yaw:	-145.225	yaw rate:	-16.544	Roll:	2.796	Pitch:	-2.436	Yaw:	-208.899	Thrust:	100.000
Time:	4.676	Roll Set Point:	-0.065	Pitch Set Point:	0.053	Yaw Set Point:	2.535	X_WP:	0.100	Y_WP:	0.000	Y_WP:	0.500	X:	-0.001	Y:	0.029	Z:	0.049	yaw:	-145.232	yaw rate:	-0.757	Roll:	2.533	Pitch:	-2.686	Yaw:	-205.254	Thrust:	100.000
Time:	4.687	Roll Set Point:	-0.065	Pitch Set Point:	0.053	Yaw Set Point:	2.534	X_WP:	0.100	Y_WP:	0.000	Y_WP:	0.500	X:	-0.001	Y:	0.029	Z:	0.049	yaw:	-145.185	yaw rate:	4.733	Roll:	2.102	Pitch:	-2.946	Yaw:	-203.592	Thrust:	100.000
Time:	4.698	Roll Set Point:	-0.065	Pitch Set Point:	0.053	Yaw Set Point:	2.532	X_WP:	0.100	Y_WP:	0.000	Y_WP:	0.500	X:	-0.001	Y:	0.029	Z:	0.049	yaw:	-145.101	yaw rate:	8.331	Roll:	2.110	Pitch:	-2.947	Yaw:	-203.018	Thrust:	100.000
Time:	4.709	Roll Set Point:	-0.065	Pitch Set Point:	0.053	Yaw Set Point:	2.533	X_WP:	0.100	Y_WP:	0.000	Y_WP:	0.500	X:	-0.001	Y:	0.029	Z:	0.049	yaw:	-145.114	yaw rate:	-1.273	Roll:	2.321	Pitch:	-2.739	Yaw:	-205.040	Thrust:	100.000
Time:	4.719	Roll Set Point:	-0.065	Pitch Set Point:	0.053	Yaw Set Point:	2.531	X_WP:	0.100	Y_WP:	0.000	Y_WP:	0.500	X:	-0.001	Y:	0.029	Z:	0.049	yaw:	-145.036	yaw rate:	7.817	Roll:	2.070	Pitch:	-2.856	Yaw:	-202.546	Thrust:	100.000
Time:	4.731	Roll Set Point:	-0.065	Pitch Set Point:	0.053	Yaw Set Point:	2.533	X_WP:	0.100	Y_WP:	0.000	Y_WP:	0.500	X:	-0.001	Y:	0.029	Z:	0.049	yaw:	-145.110	yaw rate:	-7.361	Roll:	2.567	Pitch:	-2.744	Yaw:	-206.658	Thrust:	100.000
Time:	4.744	Roll Set Point:	-0.065	Pitch Set Point:	0.053	Yaw Set Point:	2.533	X_WP:	0.100	Y_WP:	0.000	Y_WP:	0.500	X:	-0.001	Y:	0.029	Z:	0.049	yaw:	-145.144	yaw rate:	1.188	Roll:	2.449	Pitch:	-2.801	Yaw:	-205.893	Thrust:	100.000
Time:	4.755	Roll Set Point:	-0.065	Pitch Set Point:	0.053	Yaw Set Point:	2.536	X_WP:	0.100	Y_WP:	0.000	Y_WP:	0.500	X:	-0.001	Y:	0.029	Z:	0.049	yaw:	-145.284	yaw rate:	-13.974	Roll:	2.922	Pitch:	-2.465	Yaw:	-208.377	Thrust:	100.000
Time:	4.766	Roll Set Point:	-0.065	Pitch Set Point:	0.053	Yaw Set Point:	2.533	X_WP:	0.100	Y_WP:	0.000	Y_WP:	0.500	X:	-0.001	Y:	0.029	Z:	0.049	yaw:	-145.103	yaw rate:	18.115	Roll:	1.749	Pitch:	-3.173	Yaw:	-200.246	Thrust:	100.000
Time:	4.777	Roll Set Point:	-0.065	Pitch Set Point:	0.053	Yaw Set Point:	2.533	X_WP:	0.100	Y_WP:	0.000	Y_WP:	0.500	X:	-0.001	Y:	0.029	Z:	0.049	yaw:	-145.138	yaw rate:	-3.455	Roll:	2.350	Pitch:	-2.750	Yaw:	-205.741	Thrust:	100.000
Time:	4.787	Roll Set Point:	-0.065	Pitch Set Point:	0.053	Yaw Set Point:	2.532	X_WP:	0.100	Y_WP:	0.000	Y_WP:	0.500	X:	-0.001	Y:	0.029	Z:	0.049	yaw:	-145.101	yaw rate:	3.635	Roll:	2.240	Pitch:	-2.836	Yaw:	-203.684	Thrust:	100.000
Time:	4.800	Roll Set Point:	-0.065	Pitch Set Point:	0.053	Yaw Set Point:	2.533	X_WP:	0.100	Y_WP:	0.000	Y_WP:	0.500	X:	-0.001	Y:	0.029	Z:	0.049	yaw:	-145.137	yaw rate:	-3.599	Roll:	2.450	Pitch:	-2.763	Yaw:	-205.976	Thrust:	100.000
Time:	4.812	Roll Set Point:	-0.065	Pitch Set Point:	0.053	Yaw Set Point:	2.533	X_WP:	0.100	Y_WP:	0.000	Y_WP:	0.500	X:	-0.001	Y:	0.029	Z:	0.049	yaw:	-145.113	yaw rate:	2.431	Roll:	2.311	Pitch:	-2.862	Yaw:	-204.370	Thrust:	100.000
Time:	4.822	Roll Set Point:	-0.065	Pitch Set Point:	0.053	Yaw Set Point:	2.533	X_WP:	0.100	Y_WP:	0.000	Y_WP:	0.500	X:	-0.001	Y:	0.029	Z:	0.049	yaw:	-145.125	yaw rate:	-1.192	Roll:	2.363	Pitch:	-2.746	Yaw:	-205.044	Thrust:	100.000
Time:	4.834	Roll Set Point:	-0.065	Pitch Set Point:	0.053	Yaw Set Point:	2.536	X_WP:	0.100	Y_WP:	0.000	Y_WP:	0.500	X:	-0.001	Y:	0.029	Z:	0.049	yaw:	-145.280	yaw rate:	-15.487	Roll:	2.951	Pitch:	-2.426	Yaw:	-208.674	Thrust:	100.000
Time:	4.845	Roll Set Point:	-0.065	Pitch Set Point:	0.053	Yaw Set Point:	2.532	X_WP:	0.100	Y_WP:	0.000	Y_WP:	0.500	X:	-0.001	Y:	0.029	Z:	0.049	yaw:	-145.090	yaw rate:	18.939	Roll:	1.664	Pitch:	-3.190	Yaw:	-199.980	Thrust:	100.000
Time:	4.857	Roll Set Point:	-0.065	Pitch Set Point:	0.053	Yaw Set Point:	2.532	X_WP:	0.100	Y_WP:	0.000	Y_WP:	0.500	X:	-0.001	Y:	0.029	Z:	0.049	yaw:	-145.056	yaw rate:	3.418	Roll:	2.227	Pitch:	-2.793	Yaw:	-204.216	Thrust:	100.000
Time:	4.868	Roll Set Point:	-0.065	Pitch Set Point:	0.053	Yaw Set Point:	2.532	X_WP:	0.100	Y_WP:	0.000	Y_WP:	0.500	X:	-0.001	Y:	0.029	Z:	0.049	yaw:	-145.052	yaw rate:	0.388	Roll:	2.334	Pitch:	-2.790	Yaw:	-204.639	Thrust:	100.000
Time:	4.880	Roll Set Point:	-0.065	Pitch Set Point:	0.053	Yaw Set Point:	2.533	X_WP:	0.100	Y_WP:	0.000	Y_WP:	0.500	X:	-0.001	Y:	0.029	Z:	0.049	yaw:	-145.145	yaw rate:	-9.257	Roll:	2.748	Pitch:	-2.670	Yaw:	-207.068	Thrust:	100.000
Time:	4.892	Roll Set Point:	-0.065	Pitch Set Point:	0.053	Yaw Set Point:	2.532	X_WP:	0.100	Y_WP:	0.000	Y_WP:	0.500	X:	-0.001	Y:	0.029	Z:	0.049	yaw:	-145.067	yaw rate:	7.798	Roll:	2.046	Pitch:	-3.027	Yaw:	-203.271	Thrust:	100.000
Time:	4.903	Roll Set Point:	-0.065	Pitch Set Point:	0.053	Yaw Set Point:	2.533	X_WP:	0.100	Y_WP:	0.000	Y_WP:	0.500	X:	-0.001	Y:	0.029	Z:	0.049	yaw:	-145.149	yaw rate:	-8.186	Roll:	2.483	Pitch:	-2.682	Yaw:	-206.831	Thrust:	100.000
Time:	4.916	Roll Set Point:	-0.065	Pitch Set Point:	0.053	Yaw Set Point:	2.536	X_WP:	0.100	Y_WP:	0.000	Y_WP:	0.500	X:	-0.001	Y:	0.029	Z:	0.049	yaw:	-145.288	yaw rate:	-13.901	Roll:	2.912	Pitch:	-2.530	Yaw:	-208.269	Thrust:	100.000
Time:	4.927	Roll Set Point:	-0.065	Pitch Set Point:	0.053	Yaw Set Point:	2.533	X_WP:	0.100	Y_WP:	0.000	Y_WP:	0.500	X:	-0.001	Y:	0.029	Z:	0.049	yaw:	-145.131	yaw rate:	1.860	Roll:	1.886	Pitch:	-3.146	Yaw:	-201.135	Thrust:	100.000
Time:	4.938	Roll Set Point:	-0.065	Pitch Set Point:	0.053	Yaw Set Point:	2.533	X_WP:	0.100	Y_WP:	0.000	Y_WP:	0.500	X:	-0.001	Y:	0.029	Z:	0.049	yaw:	-145.124	yaw rate:	0.725	Roll:	2.335	Pitch:	-2.813	Yaw:	-204.881	Thrust:	100.000
Time:	4.950	Roll Set Point:	-0.065	Pitch Set Point:	0.053	Yaw Set Point:	2.532	X_WP:	0.100	Y_WP:	0.000	Y_WP:	0.500	X:	-0.001	Y:	0.029	Z:	0.049	yaw:	-145.084	yaw rate:	3.987	Roll:	2.279	Pitch:	-2.845	Yaw:	-203.996	Thrust:	100.000
Time:	4.961	Roll Set Point:	-0.065	Pitch Set Point:	0.053	Yaw Set Point:	2.533	X_WP:	0.100	Y_WP:	0.000	Y_WP:	0.500	X:	-0.001	Y:	0.029	Z:	0.049	yaw:	-145.137	yaw rate:	-5.291	Roll:	2.431	Pitch:	-2.696	Yaw:	-206.037	Thrust:	100.000
