Time:	2.156	Roll Set Point:	-0.017	Pitch Set Point:	0.032	Yaw Set Point:	-2.936	X_WP:	0.000	Y_WP:	0.000	Y_WP:	0.500	X:	0.163	Y:	0.066	Z:	0.404	yaw:	168.239	yaw rate:	-3.275	Roll:	-4.224	Pitch:	-2.840	Yaw:	234.907	Thrust:	5.254
Time:	2.171	Roll Set Point:	-0.017	Pitch Set Point:	0.032	Yaw Set Point:	-2.936	X_WP:	0.000	Y_WP:	0.000	Y_WP:	0.500	X:	0.163	Y:	0.066	Z:	0.404	yaw:	168.242	yaw rate:	0.228	Roll:	-4.243	Pitch:	-2.863	Yaw:	235.864	Thrust:	5.393
Time:	2.187	Roll Set Point:	-0.017	Pitch Set Point:	0.032	Yaw Set Point:	-2.937	X_WP:	0.000	Y_WP:	0.000	Y_WP:	0.500	X:	0.163	Y:	0.066	Z:	0.404	yaw:	168.259	yaw rate:	1.388	Roll:	-4.277	Pitch:	-2.804	Yaw:	236.790	Thrust:	5.635
Time:	2.203	Roll Set Point:	-0.017	Pitch Set Point:	0.032	Yaw Set Point:	-2.937	X_WP:	0.000	Y_WP:	0.000	Y_WP:	0.500	X:	0.163	Y:	0.066	Z:	0.404	yaw:	168.250	yaw rate:	-0.909	Roll:	-4.216	Pitch:	-2.819	Yaw:	236.335	Thrust:	5.798
Time:	2.218	Roll Set Point:	-0.017	Pitch Set Point:	0.032	Yaw Set Point:	-2.937	X_WP:	0.000	Y_WP:	0.000	Y_WP:	0.500	X:	0.163	Y:	0.066	Z:	0.404	yaw:	168.262	yaw rate:	1.180	Roll:	-4.276	Pitch:	-2.863	Yaw:	236.696	Thrust:	5.982
Time:	2.234	Roll Set Point:	-0.017	Pitch Set Point:	0.032	Yaw Set Point:	-2.937	X_WP:	0.000	Y_WP:	0.000	Y_WP:	0.500	X:	0.163	Y:	0.066	Z:	0.404	yaw:	168.251	yaw rate:	-1.065	Roll:	-4.221	Pitch:	-2.846	Yaw:	236.308	Thrust:	6.086
Time:	2.250	Roll Set Point:	-0.017	Pitch Set Point:	0.032	Yaw Set Point:	-2.937	X_WP:	0.000	Y_WP:	0.000	Y_WP:	0.500	X:	0.163	Y:	0.066	Z:	0.404	yaw:	168.273	yaw rate:	2.183	Roll:	-4.316	Pitch:	-2.860	Yaw:	236.884	Thrust:	6.397
Time:	2.265	Roll Set Point:	-0.017	Pitch Set Point:	0.032	Yaw Set Point:	-2.937	X_WP:	0.000	Y_WP:	0.000	Y_WP:	0.500	X:	0.163	Y:	0.066	Z:	0.404	yaw:	168.265	yaw rate:	-0.803	Roll:	-4.256	Pitch:	-2.851	Yaw:	236.367	Thrust:	6.511
Time:	2.281	Roll Set Point:	-0.017	Pitch Set Point:	0.032	Yaw Set Point:	-2.936	X_WP:	0.000	Y_WP:	0.000	Y_WP:	0.500	X:	0.163	Y:	0.066	Z:	0.404	yaw:	168.225	yaw rate:	-4.039	Roll:	-4.182	Pitch:	-2.956	Yaw:	235.772	Thrust:	6.637
Time:	2.297	Roll Set Point:	-0.017	Pitch Set Point:	0.032	Yaw Set Point:	-2.936	X_WP:	0.000	Y_WP:	0.000	Y_WP:	0.500	X:	0.163	Y:	0.066	Z:	0.404	yaw:	168.225	yaw rate:	-4.039	Roll:	-4.275	Pitch:	-2.875	Yaw:	236.452	Thrust:	6.868
Time:	2.312	Roll Set Point:	-0.017	Pitch Set Point:	0.032	Yaw Set Point:	-2.937	X_WP:	0.000	Y_WP:	0.000	Y_WP:	0.500	X:	0.163	Y:	0.066	Z:	0.404	yaw:	168.257	yaw rate:	3.204	Roll:	-4.354	Pitch:	-2.841	Yaw:	237.030	Thrust:	7.144
Time:	2.328	Roll Set Point:	-0.017	Pitch Set Point:	0.032	Yaw Set Point:	-2.937	X_WP:	0.000	Y_WP:	0.000	Y_WP:	0.500	X:	0.163	Y:	0.066	Z:	0.404	yaw:	168.261	yaw rate:	0.430	Roll:	-4.290	Pitch:	-2.850	Yaw:	236.571	Thrust:	7.167
Time:	2.343	Roll Set Point:	-0.017	Pitch Set Point:	0.032	Yaw Set Point:	-2.937	X_WP:	0.000	Y_WP:	0.000	Y_WP:	0.500	X:	0.163	Y:	0.066	Z:	0.404	yaw:	168.271	yaw rate:	0.981	Roll:	-4.311	Pitch:	-2.869	Yaw:	236.675	Thrust:	7.386
Time:	2.359	Roll Set Point:	-0.017	Pitch Set Point:	0.032	Yaw Set Point:	-2.936	X_WP:	0.000	Y_WP:	0.000	Y_WP:	0.500	X:	0.163	Y:	0.066	Z:	0.405	yaw:	168.246	yaw rate:	-1.581	Roll:	-4.250	Pitch:	-2.909	Yaw:	236.053	Thrust:	7.497
Time:	2.375	Roll Set Point:	-0.017	Pitch Set Point:	0.032	Yaw Set Point:	-2.937	X_WP:	0.000	Y_WP:	0.000	Y_WP:	0.500	X:	0.163	Y:	0.066	Z:	0.404	yaw:	168.260	yaw rate:	1.401	Roll:	-4.313	Pitch:	-2.912	Yaw:	236.732	Thrust:	7.958
Time:	2.390	Roll Set Point:	-0.017	Pitch Set Point:	0.032	Yaw Set Point:	-2.936	X_WP:	0.000	Y_WP:	0.000	Y_WP:	0.500	X:	0.163	Y:	0.066	Z:	0.405	yaw:	168.244	yaw rate:	-1.549	Roll:	-4.303	Pitch:	-2.895	Yaw:	236.216	Thrust:	7.740
Time:	2.406	Roll Set Point:	-0.017	Pitch Set Point:	0.032	Yaw Set Point:	-2.937	X_WP:	0.000	Y_WP:	0.000	Y_WP:	0.500	X:	0.163	Y:	0.066	Z:	0.404	yaw:	168.289	yaw rate:	4.455	Roll:	-4.410	Pitch:	-2.845	Yaw:	237.284	Thrust:	8.268
Time:	2.421	Roll Set Point:	-0.017	Pitch Set Point:	0.032	Yaw Set Point:	-2.936	X_WP:	0.000	Y_WP:	0.000	Y_WP:	0.500	X:	0.163	Y:	0.066	Z:	0.405	yaw:	168.248	yaw rate:	-4.082	Roll:	-4.249	Pitch:	-2.954	Yaw:	235.797	Thrust:	8.142
Time:	2.437	Roll Set Point:	-0.017	Pitch Set Point:	0.032	Yaw Set Point:	-2.937	X_WP:	0.000	Y_WP:	0.000	Y_WP:	0.500	X:	0.163	Y:	0.066	Z:	0.404	yaw:	168.282	yaw rate:	3.456	Roll:	-4.382	Pitch:	-2.846	Yaw:	237.108	Thrust:	8.607
Time:	2.453	Roll Set Point:	-0.017	Pitch Set Point:	0.032	Yaw Set Point:	-2.937	X_WP:	0.000	Y_WP:	0.000	Y_WP:	0.500	X:	0.163	Y:	0.066	Z:	0.404	yaw:	168.254	yaw rate:	-2.871	Roll:	-4.281	Pitch:	-2.995	Yaw:	236.012	Thrust:	8.604
Time:	2.468	Roll Set Point:	-0.017	Pitch Set Point:	0.032	Yaw Set Point:	-2.936	X_WP:	0.000	Y_WP:	0.000	Y_WP:	0.500	X:	0.163	Y:	0.066	Z:	0.404	yaw:	168.243	yaw rate:	-1.034	Roll:	-4.305	Pitch:	-2.913	Yaw:	236.298	Thrust:	8.903
Time:	2.484	Roll Set Point:	-0.017	Pitch Set Point:	0.032	Yaw Set Point:	-2.937	X_WP:	0.000	Y_WP:	0.000	Y_WP:	0.500	X:	0.163	Y:	0.066	Z:	0.404	yaw:	168.279	yaw rate:	3.580	Roll:	-4.426	Pitch:	-2.860	Yaw:	237.126	Thrust:	9.071
Time:	2.500	Roll Set Point:	-0.017	Pitch Set Point:	0.032	Yaw Set Point:	-2.936	X_WP:	0.000	Y_WP:	0.000	Y_WP:	0.500	X:	0.163	Y:	0.066	Z:	0.405	yaw:	168.237	yaw rate:	-4.238	Roll:	-4.264	Pitch:	-2.980	Yaw:	235.751	Thrust:	8.990
Time:	2.515	Roll Set Point:	-0.017	Pitch Set Point:	0.032	Yaw Set Point:	-2.937	X_WP:	0.000	Y_WP:	0.000	Y_WP:	0.500	X:	0.163	Y:	0.066	Z:	0.404	yaw:	168.293	yaw rate:	5.605	Roll:	-4.466	Pitch:	-2.837	Yaw:	237.483	Thrust:	9.582
Time:	2.531	Roll Set Point:	-0.017	Pitch Set Point:	0.032	Yaw Set Point:	-2.937	X_WP:	0.000	Y_WP:	0.000	Y_WP:	0.500	X:	0.163	Y:	0.066	Z:	0.404	yaw:	168.250	yaw rate:	-4.306	Roll:	-4.272	Pitch:	-3.003	Yaw:	235.762	Thrust:	9.415
Time:	2.546	Roll Set Point:	-0.017	Pitch Set Point:	0.032	Yaw Set Point:	-2.937	X_WP:	0.000	Y_WP:	0.000	Y_WP:	0.500	X:	0.163	Y:	0.066	Z:	0.404	yaw:	168.292	yaw rate:	4.262	Roll:	-4.470	Pitch:	-2.889	Yaw:	237.257	Thrust:	9.858
Time:	2.562	Roll Set Point:	-0.017	Pitch Set Point:	0.032	Yaw Set Point:	-2.937	X_WP:	0.000	Y_WP:	0.000	Y_WP:	0.500	X:	0.163	Y:	0.066	Z:	0.405	yaw:	168.256	yaw rate:	-3.651	Roll:	-4.297	Pitch:	-2.954	Yaw:	235.882	Thrust:	9.695
Time:	2.579	Roll Set Point:	-0.017	Pitch Set Point:	0.032	Yaw Set Point:	-2.937	X_WP:	0.000	Y_WP:	0.000	Y_WP:	0.500	X:	0.163	Y:	0.066	Z:	0.404	yaw:	168.262	yaw rate:	0.592	Roll:	-4.386	Pitch:	-2.984	Yaw:	236.728	Thrust:	10.668
Time:	2.596	Roll Set Point:	-0.017	Pitch Set Point:	0.032	Yaw Set Point:	-2.937	X_WP:	0.000	Y_WP:	0.000	Y_WP:	0.500	X:	0.163	Y:	0.066	Z:	0.405	yaw:	168.249	yaw rate:	-1.264	Roll:	-4.387	Pitch:	-2.930	Yaw:	236.397	Thrust:	10.490
Time:	2.611	Roll Set Point:	-0.017	Pitch Set Point:	0.032	Yaw Set Point:	-2.937	X_WP:	0.000	Y_WP:	0.000	Y_WP:	0.500	X:	0.163	Y:	0.066	Z:	0.405	yaw:	168.249	yaw rate:	-1.264	Roll:	-4.389	Pitch:	-2.949	Yaw:	236.478	Thrust:	10.430
Time:	2.627	Roll Set Point:	-0.017	Pitch Set Point:	0.032	Yaw Set Point:	-2.937	X_WP:	0.000	Y_WP:	0.000	Y_WP:	0.500	X:	0.163	Y:	0.066	Z:	0.404	yaw:	168.250	yaw rate:	0.091	Roll:	-4.387	Pitch:	-2.988	Yaw:	236.498	Thrust:	10.792
Time:	2.643	Roll Set Point:	-0.017	Pitch Set Point:	0.032	Yaw Set Point:	-2.937	X_WP:	0.000	Y_WP:	0.000	Y_WP:	0.500	X:	0.163	Y:	0.066	Z:	0.404	yaw:	168.261	yaw rate:	1.136	Roll:	-4.450	Pitch:	-2.945	Yaw:	236.690	Thrust:	10.721
Time:	2.658	Roll Set Point:	-0.017	Pitch Set Point:	0.032	Yaw Set Point:	-2.936	X_WP:	0.000	Y_WP:	0.000	Y_WP:	0.500	X:	0.163	Y:	0.066	Z:	0.404	yaw:	168.246	yaw rate:	-1.526	Roll:	-4.359	Pitch:	-2.970	Yaw:	236.227	Thrust:	11.008
Time:	2.685	Roll Set Point:	-0.017	Pitch Set Point:	0.032	Yaw Set Point:	-2.936	X_WP:	0.000	Y_WP:	0.000	Y_WP:	0.500	X:	0.163	Y:	0.066	Z:	0.405	yaw:	168.247	yaw rate:	-3.959	Roll:	-4.547	Pitch:	-3.048	Yaw:	237.609	Thrust:	15.357
Time:	2.701	Roll Set Point:	-0.017	Pitch Set Point:	0.032	Yaw Set Point:	-2.936	X_WP:	0.000	Y_WP:	0.000	Y_WP:	0.500	X:	0.163	Y:	0.066	Z:	0.405	yaw:	168.231	yaw rate:	-1.540	Roll:	-4.393	Pitch:	-3.008	Yaw:	236.200	Thrust:	11.366
Time:	2.716	Roll Set Point:	-0.017	Pitch Set Point:	0.032	Yaw Set Point:	-2.936	X_WP:	0.000	Y_WP:	0.000	Y_WP:	0.500	X:	0.163	Y:	0.066	Z:	0.405	yaw:	168.231	yaw rate:	-1.540	Roll:	-4.423	Pitch:	-2.974	Yaw:	236.458	Thrust:	11.520
Time:	2.732	Roll Set Point:	-0.017	Pitch Set Point:	0.032	Yaw Set Point:	-2.936	X_WP:	0.000	Y_WP:	0.000	Y_WP:	0.500	X:	0.163	Y:	0.066	Z:	0.404	yaw:	168.233	yaw rate:	0.205	Roll:	-4.424	Pitch:	-2.974	Yaw:	236.498	Thrust:	11.814
Time:	2.748	Roll Set Point:	-0.017	Pitch Set Point:	0.032	Yaw Set Point:	-2.936	X_WP:	0.000	Y_WP:	0.000	Y_WP:	0.500	X:	0.163	Y:	0.066	Z:	0.404	yaw:	168.242	yaw rate:	0.900	Roll:	-4.448	Pitch:	-2.918	Yaw:	236.621	Thrust:	11.877
Time:	2.763	Roll Set Point:	-0.017	Pitch Set Point:	0.032	Yaw Set Point:	-2.936	X_WP:	0.000	Y_WP:	0.000	Y_WP:	0.500	X:	0.163	Y:	0.066	Z:	0.404	yaw:	168.246	yaw rate:	0.357	Roll:	-4.462	Pitch:	-3.026	Yaw:	236.541	Thrust:	12.107
Time:	2.779	Roll Set Point:	-0.017	Pitch Set Point:	0.032	Yaw Set Point:	-2.936	X_WP:	0.000	Y_WP:	0.000	Y_WP:	0.500	X:	0.163	Y:	0.066	Z:	0.405	yaw:	168.239	yaw rate:	-1.158	Roll:	-4.433	Pitch:	-2.984	Yaw:	236.348	Thrust:	12.115
Time:	2.795	Roll Set Point:	-0.017	Pitch Set Point:	0.032	Yaw Set Point:	-2.937	X_WP:	0.000	Y_WP:	0.000	Y_WP:	0.500	X:	0.163	Y:	0.066	Z:	0.404	yaw:	168.267	yaw rate:	2.836	Roll:	-4.505	Pitch:	-2.956	Yaw:	236.981	Thrust:	12.599
Time:	2.810	Roll Set Point:	-0.017	Pitch Set Point:	0.032	Yaw Set Point:	-2.937	X_WP:	0.000	Y_WP:	0.000	Y_WP:	0.500	X:	0.163	Y:	0.066	Z:	0.404	yaw:	168.259	yaw rate:	-0.771	Roll:	-4.451	Pitch:	-2.976	Yaw:	236.370	Thrust:	12.438
Time:	2.826	Roll Set Point:	-0.017	Pitch Set Point:	0.032	Yaw Set Point:	-2.937	X_WP:	0.000	Y_WP:	0.000	Y_WP:	0.500	X:	0.163	Y:	0.066	Z:	0.404	yaw:	168.259	yaw rate:	-0.771	Roll:	-4.464	Pitch:	-2.998	Yaw:	236.495	Thrust:	12.767
Time:	2.842	Roll Set Point:	-0.017	Pitch Set Point:	0.032	Yaw Set Point:	-2.936	X_WP:	0.000	Y_WP:	0.000	Y_WP:	0.500	X:	0.163	Y:	0.066	Z:	0.404	yaw:	168.231	yaw rate:	-0.056	Roll:	-4.423	Pitch:	-3.138	Yaw:	235.993	Thrust:	13.025
Time:	2.857	Roll Set Point:	-0.017	Pitch Set Point:	0.032	Yaw Set Point:	-2.936	X_WP:	0.000	Y_WP:	0.000	Y_WP:	0.500	X:	0.163	Y:	0.066	Z:	0.404	yaw:	168.231	yaw rate:	-0.056	Roll:	-4.474	Pitch:	-3.009	Yaw:	236.452	Thrust:	13.106
Time:	2.873	Roll Set Point:	-0.017	Pitch Set Point:	0.032	Yaw Set Point:	-2.936	X_WP:	0.000	Y_WP:	0.000	Y_WP:	0.500	X:	0.163	Y:	0.066	Z:	0.404	yaw:	168.239	yaw rate:	0.813	Roll:	-4.471	Pitch:	-2.918	Yaw:	236.602	Thrust:	13.306
Time:	2.888	Roll Set Point:	-0.017	Pitch Set Point:	0.032	Yaw Set Point:	-2.936	X_WP:	0.000	Y_WP:	0.000	Y_WP:	0.500	X:	0.163	Y:	0.066	Z:	0.404	yaw:	168.239	yaw rate:	0.813	Roll:	-4.486	Pitch:	-3.015	Yaw:	236.468	Thrust:	13.491
Time:	2.904	Roll Set Point:	-0.017	Pitch Set Point:	0.032	Yaw Set Point:	-2.937	X_WP:	0.000	Y_WP:	0.000	Y_WP:	0.500	X:	0.163	Y:	0.066	Z:	0.405	yaw:	168.251	yaw rate:	-0.496	Roll:	-4.531	Pitch:	-3.035	Yaw:	236.691	Thrust:	13.613
Time:	2.920	Roll Set Point:	-0.017	Pitch Set Point:	0.032	Yaw Set Point:	-2.937	X_WP:	0.000	Y_WP:	0.000	Y_WP:	0.500	X:	0.163	Y:	0.066	Z:	0.404	yaw:	168.257	yaw rate:	0.542	Roll:	-4.505	Pitch:	-2.963	Yaw:	236.584	Thrust:	14.065
Time:	2.935	Roll Set Point:	-0.017	Pitch Set Point:	0.032	Yaw Set Point:	-2.937	X_WP:	0.000	Y_WP:	0.000	Y_WP:	0.500	X:	0.163	Y:	0.066	Z:	0.404	yaw:	168.257	yaw rate:	0.542	Roll:	-4.504	Pitch:	-3.025	Yaw:	236.493	Thrust:	14.033
Time:	2.951	Roll Set Point:	-0.017	Pitch Set Point:	0.032	Yaw Set Point:	-2.937	X_WP:	0.000	Y_WP:	0.000	Y_WP:	0.500	X:	0.163	Y:	0.066	Z:	0.405	yaw:	168.253	yaw rate:	-0.354	Roll:	-4.523	Pitch:	-3.065	Yaw:	236.429	Thrust:	13.971
Time:	2.966	Roll Set Point:	-0.017	Pitch Set Point:	0.032	Yaw Set Point:	-2.937	X_WP:	0.000	Y_WP:	0.000	Y_WP:	0.500	X:	0.163	Y:	0.066	Z:	0.405	yaw:	168.257	yaw rate:	-0.200	Roll:	-4.518	Pitch:	-3.056	Yaw:	236.562	Thrust:	14.352
Time:	2.982	Roll Set Point:	-0.017	Pitch Set Point:	0.032	Yaw Set Point:	-2.937	X_WP:	0.000	Y_WP:	0.000	Y_WP:	0.500	X:	0.163	Y:	0.066	Z:	0.405	yaw:	168.257	yaw rate:	-0.200	Roll:	-4.522	Pitch:	-3.038	Yaw:	236.494	Thrust:	14.565
Time:	2.998	Roll Set Point:	-0.017	Pitch Set Point:	0.032	Yaw Set Point:	-2.937	X_WP:	0.000	Y_WP:	0.000	Y_WP:	0.500	X:	0.163	Y:	0.066	Z:	0.404	yaw:	168.273	yaw rate:	1.541	Roll:	-4.541	Pitch:	-2.968	Yaw:	236.774	Thrust:	14.962
Time:	3.013	Roll Set Point:	-0.017	Pitch Set Point:	0.032	Yaw Set Point:	-2.936	X_WP:	0.000	Y_WP:	0.000	Y_WP:	0.500	X:	0.163	Y:	0.066	Z:	0.404	yaw:	168.243	yaw rate:	2.719	Roll:	-4.482	Pitch:	-3.167	Yaw:	235.975	Thrust:	14.833
Time:	3.029	Roll Set Point:	-0.017	Pitch Set Point:	0.032	Yaw Set Point:	-2.936	X_WP:	0.000	Y_WP:	0.000	Y_WP:	0.500	X:	0.163	Y:	0.066	Z:	0.404	yaw:	168.243	yaw rate:	2.719	Roll:	-4.538	Pitch:	-3.051	Yaw:	236.474	Thrust:	15.105
Time:	3.045	Roll Set Point:	-0.017	Pitch Set Point:	0.032	Yaw Set Point:	-2.937	X_WP:	0.000	Y_WP:	0.000	Y_WP:	0.500	X:	0.163	Y:	0.066	Z:	0.404	yaw:	168.266	yaw rate:	2.322	Roll:	-4.572	Pitch:	-2.964	Yaw:	236.895	Thrust:	15.286
Time:	3.060	Roll Set Point:	-0.017	Pitch Set Point:	0.032	Yaw Set Point:	-2.937	X_WP:	0.000	Y_WP:	0.000	Y_WP:	0.500	X:	0.163	Y:	0.066	Z:	0.404	yaw:	168.303	yaw rate:	3.714	Roll:	-4.637	Pitch:	-2.949	Yaw:	237.181	Thrust:	15.570
Time:	3.076	Roll Set Point:	-0.017	Pitch Set Point:	0.032	Yaw Set Point:	-2.937	X_WP:	0.000	Y_WP:	0.000	Y_WP:	0.500	X:	0.163	Y:	0.066	Z:	0.404	yaw:	168.303	yaw rate:	3.714	Roll:	-4.558	Pitch:	-3.057	Yaw:	236.558	Thrust:	15.644
Time:	3.092	Roll Set Point:	-0.017	Pitch Set Point:	0.032	Yaw Set Point:	-2.936	X_WP:	0.000	Y_WP:	0.000	Y_WP:	0.500	X:	0.163	Y:	0.066	Z:	0.405	yaw:	168.238	yaw rate:	-6.516	Roll:	-4.438	Pitch:	-3.260	Yaw:	235.381	Thrust:	15.675
Time:	3.107	Roll Set Point:	-0.017	Pitch Set Point:	0.032	Yaw Set Point:	-2.937	X_WP:	0.000	Y_WP:	0.000	Y_WP:	0.500	X:	0.163	Y:	0.066	Z:	0.404	yaw:	168.270	yaw rate:	1.154	Roll:	-4.625	Pitch:	-2.926	Yaw:	237.036	Thrust:	16.024
Time:	3.123	Roll Set Point:	-0.017	Pitch Set Point:	0.032	Yaw Set Point:	-2.937	X_WP:	0.000	Y_WP:	0.000	Y_WP:	0.500	X:	0.163	Y:	0.066	Z:	0.404	yaw:	168.251	yaw rate:	-1.819	Roll:	-4.539	Pitch:	-3.133	Yaw:	236.185	Thrust:	16.257
Time:	3.138	Roll Set Point:	-0.017	Pitch Set Point:	0.032	Yaw Set Point:	-2.937	X_WP:	0.000	Y_WP:	0.000	Y_WP:	0.500	X:	0.163	Y:	0.066	Z:	0.404	yaw:	168.249	yaw rate:	-0.194	Roll:	-4.582	Pitch:	-3.144	Yaw:	236.448	Thrust:	16.271
Time:	3.154	Roll Set Point:	-0.017	Pitch Set Point:	0.032	Yaw Set Point:	-2.936	X_WP:	0.000	Y_WP:	0.000	Y_WP:	0.500	X:	0.163	Y:	0.066	Z:	0.404	yaw:	168.249	yaw rate:	-0.045	Roll:	-4.566	Pitch:	-3.079	Yaw:	236.475	Thrust:	16.575
Time:	3.170	Roll Set Point:	-0.017	Pitch Set Point:	0.032	Yaw Set Point:	-2.936	X_WP:	0.000	Y_WP:	0.000	Y_WP:	0.500	X:	0.163	Y:	0.066	Z:	0.404	yaw:	168.249	yaw rate:	-0.045	Roll:	-4.590	Pitch:	-3.086	Yaw:	236.488	Thrust:	16.756
Time:	3.185	Roll Set Point:	-0.017	Pitch Set Point:	0.032	Yaw Set Point:	-2.937	X_WP:	0.000	Y_WP:	0.000	Y_WP:	0.500	X:	0.163	Y:	0.066	Z:	0.404	yaw:	168.257	yaw rate:	0.813	Roll:	-4.621	Pitch:	-2.972	Yaw:	236.625	Thrust:	16.820
Time:	3.201	Roll Set Point:	-0.017	Pitch Set Point:	0.032	Yaw Set Point:	-2.937	X_WP:	0.000	Y_WP:	0.000	Y_WP:	0.500	X:	0.163	Y:	0.066	Z:	0.404	yaw:	168.252	yaw rate:	-2.002	Roll:	-4.584	Pitch:	-3.171	Yaw:	236.412	Thrust:	17.160
Time:	3.217	Roll Set Point:	-0.017	Pitch Set Point:	0.032	Yaw Set Point:	-2.936	X_WP:	0.000	Y_WP:	0.000	Y_WP:	0.500	X:	0.163	Y:	0.066	Z:	0.405	yaw:	168.211	yaw rate:	-4.125	Roll:	-4.527	Pitch:	-3.212	Yaw:	235.734	Thrust:	17.032
Time:	3.232	Roll Set Point:	-0.017	Pitch Set Point:	0.032	Yaw Set Point:	-2.937	X_WP:	0.000	Y_WP:	0.000	Y_WP:	0.500	X:	0.163	Y:	0.066	Z:	0.404	yaw:	168.275	yaw rate:	6.344	Roll:	-4.738	Pitch:	-2.920	Yaw:	237.581	Thrust:	17.683
Time:	3.248	Roll Set Point:	-0.017	Pitch Set Point:	0.032	Yaw Set Point:	-2.936	X_WP:	0.000	Y_WP:	0.000	Y_WP:	0.500	X:	0.163	Y:	0.066	Z:	0.404	yaw:	168.246	yaw rate:	-2.870	Roll:	-4.564	Pitch:	-3.116	Yaw:	235.997	Thrust:	17.496
Time:	3.263	Roll Set Point:	-0.017	Pitch Set Point:	0.032	Yaw Set Point:	-2.936	X_WP:	0.000	Y_WP:	0.000	Y_WP:	0.500	X:	0.163	Y:	0.066	Z:	0.404	yaw:	168.246	yaw rate:	-2.870	Roll:	-4.623	Pitch:	-3.106	Yaw:	236.478	Thrust:	17.792
Time:	3.279	Roll Set Point:	-0.017	Pitch Set Point:	0.032	Yaw Set Point:	-2.937	X_WP:	0.000	Y_WP:	0.000	Y_WP:	0.500	X:	0.163	Y:	0.066	Z:	0.404	yaw:	168.253	yaw rate:	0.762	Roll:	-4.639	Pitch:	-3.177	Yaw:	236.616	Thrust:	18.058
Time:	3.295	Roll Set Point:	-0.017	Pitch Set Point:	0.032	Yaw Set Point:	-2.937	X_WP:	0.000	Y_WP:	0.000	Y_WP:	0.500	X:	0.163	Y:	0.066	Z:	0.404	yaw:	168.255	yaw rate:	0.184	Roll:	-4.647	Pitch:	-3.083	Yaw:	236.525	Thrust:	18.129
Time:	3.310	Roll Set Point:	-0.017	Pitch Set Point:	0.032	Yaw Set Point:	-2.936	X_WP:	0.000	Y_WP:	0.000	Y_WP:	0.500	X:	0.163	Y:	0.066	Z:	0.404	yaw:	168.239	yaw rate:	-1.668	Roll:	-4.594	Pitch:	-3.120	Yaw:	236.186	Thrust:	18.303
Time:	3.326	Roll Set Point:	-0.017	Pitch Set Point:	0.032	Yaw Set Point:	-2.936	X_WP:	0.000	Y_WP:	0.000	Y_WP:	0.500	X:	0.163	Y:	0.066	Z:	0.404	yaw:	168.239	yaw rate:	-1.668	Roll:	-4.645	Pitch:	-3.122	Yaw:	236.468	Thrust:	18.504
Time:	3.342	Roll Set Point:	-0.017	Pitch Set Point:	0.032	Yaw Set Point:	-2.937	X_WP:	0.000	Y_WP:	0.000	Y_WP:	0.500	X:	0.163	Y:	0.066	Z:	0.404	yaw:	168.261	yaw rate:	2.249	Roll:	-4.701	Pitch:	-3.158	Yaw:	236.876	Thrust:	18.764
Time:	3.357	Roll Set Point:	-0.017	Pitch Set Point:	0.032	Yaw Set Point:	-2.937	X_WP:	0.000	Y_WP:	0.000	Y_WP:	0.500	X:	0.163	Y:	0.066	Z:	0.404	yaw:	168.261	yaw rate:	2.249	Roll:	-4.658	Pitch:	-3.130	Yaw:	236.500	Thrust:	18.869
Time:	3.373	Roll Set Point:	-0.017	Pitch Set Point:	0.032	Yaw Set Point:	-2.937	X_WP:	0.000	Y_WP:	0.000	Y_WP:	0.500	X:	0.163	Y:	0.066	Z:	0.404	yaw:	168.266	yaw rate:	0.478	Roll:	-4.664	Pitch:	-3.096	Yaw:	236.586	Thrust:	19.107
Time:	3.388	Roll Set Point:	-0.017	Pitch Set Point:	0.032	Yaw Set Point:	-2.937	X_WP:	0.000	Y_WP:	0.000	Y_WP:	0.500	X:	0.163	Y:	0.066	Z:	0.404	yaw:	168.266	yaw rate:	0.478	Roll:	-4.670	Pitch:	-3.137	Yaw:	236.506	Thrust:	19.229
Time:	3.404	Roll Set Point:	-0.017	Pitch Set Point:	0.032	Yaw Set Point:	-2.937	X_WP:	0.000	Y_WP:	0.000	Y_WP:	0.500	X:	0.163	Y:	0.066	Z:	0.404	yaw:	168.278	yaw rate:	6.251	Roll:	-4.706	Pitch:	-3.086	Yaw:	236.728	Thrust:	19.282
Time:	3.420	Roll Set Point:	-0.017	Pitch Set Point:	0.032	Yaw Set Point:	-2.936	X_WP:	0.000	Y_WP:	0.000	Y_WP:	0.500	X:	0.163	Y:	0.066	Z:	0.404	yaw:	168.245	yaw rate:	-3.350	Roll:	-4.626	Pitch:	-3.191	Yaw:	235.914	Thrust:	19.525
Time:	3.435	Roll Set Point:	-0.017	Pitch Set Point:	0.032	Yaw Set Point:	-2.936	X_WP:	0.000	Y_WP:	0.000	Y_WP:	0.500	X:	0.163	Y:	0.066	Z:	0.404	yaw:	168.245	yaw rate:	-3.350	Roll:	-4.686	Pitch:	-3.148	Yaw:	236.476	Thrust:	19.762
Time:	3.451	Roll Set Point:	-0.017	Pitch Set Point:	0.032	Yaw Set Point:	-2.936	X_WP:	0.000	Y_WP:	0.000	Y_WP:	0.500	X:	0.163	Y:	0.066	Z:	0.404	yaw:	168.246	yaw rate:	-0.381	Roll:	-4.721	Pitch:	-3.211	Yaw:	236.496	Thrust:	19.939
Time:	3.467	Roll Set Point:	-0.017	Pitch Set Point:	0.032	Yaw Set Point:	-2.937	X_WP:	0.000	Y_WP:	0.000	Y_WP:	0.500	X:	0.163	Y:	0.066	Z:	0.404	yaw:	168.265	yaw rate:	1.891	Roll:	-4.682	Pitch:	-3.076	Yaw:	236.821	Thrust:	20.240
Time:	3.482	Roll Set Point:	-0.017	Pitch Set Point:	0.032	Yaw Set Point:	-2.937	X_WP:	0.000	Y_WP:	0.000	Y_WP:	0.500	X:	0.163	Y:	0.066	Z:	0.405	yaw:	168.286	yaw rate:	2.130	Roll:	-4.768	Pitch:	-3.079	Yaw:	236.891	Thrust:	20.099
Time:	3.498	Roll Set Point:	-0.017	Pitch Set Point:	0.032	Yaw Set Point:	-2.937	X_WP:	0.000	Y_WP:	0.000	Y_WP:	0.500	X:	0.163	Y:	0.066	Z:	0.405	yaw:	168.286	yaw rate:	2.130	Roll:	-4.711	Pitch:	-3.161	Yaw:	236.534	Thrust:	20.477
Time:	3.513	Roll Set Point:	-0.017	Pitch Set Point:	0.032	Yaw Set Point:	-2.937	X_WP:	0.000	Y_WP:	0.000	Y_WP:	0.500	X:	0.163	Y:	0.066	Z:	0.404	yaw:	168.267	yaw rate:	-1.903	Roll:	-4.671	Pitch:	-3.274	Yaw:	236.189	Thrust:	20.897
Time:	3.529	Roll Set Point:	-0.017	Pitch Set Point:	0.032	Yaw Set Point:	-2.937	X_WP:	0.000	Y_WP:	0.000	Y_WP:	0.500	X:	0.163	Y:	0.066	Z:	0.404	yaw:	168.267	yaw rate:	-1.903	Roll:	-4.721	Pitch:	-3.171	Yaw:	236.507	Thrust:	20.839
Time:	3.545	Roll Set Point:	-0.017	Pitch Set Point:	0.032	Yaw Set Point:	-2.937	X_WP:	0.000	Y_WP:	0.000	Y_WP:	0.500	X:	0.163	Y:	0.066	Z:	0.404	yaw:	168.269	yaw rate:	0.243	Roll:	-4.719	Pitch:	-3.132	Yaw:	236.551	Thrust:	20.952
Time:	3.560	Roll Set Point:	-0.017	Pitch Set Point:	0.032	Yaw Set Point:	-2.937	X_WP:	0.000	Y_WP:	0.000	Y_WP:	0.500	X:	0.163	Y:	0.066	Z:	0.404	yaw:	168.269	yaw rate:	0.243	Roll:	-4.732	Pitch:	-3.178	Yaw:	236.511	Thrust:	21.197
Time:	3.576	Roll Set Point:	-0.017	Pitch Set Point:	0.032	Yaw Set Point:	-2.937	X_WP:	0.000	Y_WP:	0.000	Y_WP:	0.500	X:	0.163	Y:	0.066	Z:	0.404	yaw:	168.261	yaw rate:	-0.799	Roll:	-4.728	Pitch:	-3.205	Yaw:	236.366	Thrust:	21.354
Time:	3.592	Roll Set Point:	-0.017	Pitch Set Point:	0.032	Yaw Set Point:	-2.936	X_WP:	0.000	Y_WP:	0.000	Y_WP:	0.500	X:	0.163	Y:	0.066	Z:	0.405	yaw:	168.240	yaw rate:	3.207	Roll:	-4.724	Pitch:	-3.250	Yaw:	236.107	Thrust:	21.405
Time:	3.607	Roll Set Point:	-0.017	Pitch Set Point:	0.032	Yaw Set Point:	-2.937	X_WP:	0.000	Y_WP:	0.000	Y_WP:	0.500	X:	0.163	Y:	0.066	Z:	0.404	yaw:	168.293	yaw rate:	5.322	Roll:	-4.840	Pitch:	-3.038	Yaw:	237.435	Thrust:	21.894
Time:	3.623	Roll Set Point:	-0.017	Pitch Set Point:	0.032	Yaw Set Point:	-2.936	X_WP:	0.000	Y_WP:	0.000	Y_WP:	0.500	X:	0.163	Y:	0.066	Z:	0.405	yaw:	168.238	yaw rate:	-5.461	Roll:	-4.641	Pitch:	-3.300	Yaw:	235.552	Thrust:	21.797
Time:	3.638	Roll Set Point:	-0.017	Pitch Set Point:	0.032	Yaw Set Point:	-2.937	X_WP:	0.000	Y_WP:	0.000	Y_WP:	0.500	X:	0.163	Y:	0.066	Z:	0.404	yaw:	168.278	yaw rate:	3.961	Roll:	-4.848	Pitch:	-3.186	Yaw:	237.187	Thrust:	22.242
Time:	3.654	Roll Set Point:	-0.017	Pitch Set Point:	0.032	Yaw Set Point:	-2.936	X_WP:	0.000	Y_WP:	0.000	Y_WP:	0.500	X:	0.163	Y:	0.066	Z:	0.405	yaw:	168.232	yaw rate:	-4.629	Roll:	-4.687	Pitch:	-3.253	Yaw:	235.682	Thrust:	22.024
Time:	3.669	Roll Set Point:	-0.017	Pitch Set Point:	0.032	Yaw Set Point:	-2.937	X_WP:	0.000	Y_WP:	0.000	Y_WP:	0.500	X:	0.163	Y:	0.066	Z:	0.404	yaw:	168.272	yaw rate:	4.094	Roll:	-4.815	Pitch:	-3.104	Yaw:	237.166	Thrust:	21.938
Time:	3.686	Roll Set Point:	-0.017	Pitch Set Point:	0.032	Yaw Set Point:	-2.937	X_WP:	0.000	Y_WP:	0.000	Y_WP:	0.500	X:	0.163	Y:	0.066	Z:	0.404	yaw:	168.272	yaw rate:	4.094	Roll:	-4.816	Pitch:	-3.234	Yaw:	236.622	Thrust:	23.815
Time:	3.701	Roll Set Point:	-0.017	Pitch Set Point:	0.032	Yaw Set Point:	-2.937	X_WP:	0.000	Y_WP:	0.000	Y_WP:	0.500	X:	0.163	Y:	0.066	Z:	0.404	yaw:	168.276	yaw rate:	1.265	Roll:	-4.798	Pitch:	-3.259	Yaw:	236.584	Thrust:	22.915
Time:	3.717	Roll Set Point:	-0.017	Pitch Set Point:	0.032	Yaw Set Point:	-2.937	X_WP:	0.000	Y_WP:	0.000	Y_WP:	0.500	X:	0.163	Y:	0.066	Z:	0.404	yaw:	168.276	yaw rate:	1.265	Roll:	-4.790	Pitch:	-3.217	Yaw:	236.521	Thrust:	22.990
Time:	3.733	Roll Set Point:	-0.017	Pitch Set Point:	0.032	Yaw Set Point:	-2.936	X_WP:	0.000	Y_WP:	0.000	Y_WP:	0.500	X:	0.163	Y:	0.066	Z:	0.405	yaw:	168.233	yaw rate:	-4.317	Roll:	-4.708	Pitch:	-3.245	Yaw:	235.737	Thrust:	22.973
Time:	3.748	Roll Set Point:	-0.017	Pitch Set Point:	0.032	Yaw Set Point:	-2.937	X_WP:	0.000	Y_WP:	0.000	Y_WP:	0.500	X:	0.163	Y:	0.066	Z:	0.404	yaw:	168.262	yaw rate:	2.867	Roll:	-4.858	Pitch:	-3.185	Yaw:	236.983	Thrust:	23.395
Time:	3.764	Roll Set Point:	-0.017	Pitch Set Point:	0.032	Yaw Set Point:	-2.937	X_WP:	0.000	Y_WP:	0.000	Y_WP:	0.500	X:	0.163	Y:	0.066	Z:	0.404	yaw:	168.262	yaw rate:	2.867	Roll:	-4.806	Pitch:	-3.228	Yaw:	236.501	Thrust:	23.527
Time:	3.780	Roll Set Point:	-0.017	Pitch Set Point:	0.032	Yaw Set Point:	-2.936	X_WP:	0.000	Y_WP:	0.000	Y_WP:	0.500	X:	0.163	Y:	0.066	Z:	0.404	yaw:	168.246	yaw rate:	-1.580	Roll:	-4.764	Pitch:	-3.285	Yaw:	236.213	Thrust:	23.780
Time:	3.795	Roll Set Point:	-0.017	Pitch Set Point:	0.032	Yaw Set Point:	-2.937	X_WP:	0.000	Y_WP:	0.000	Y_WP:	0.500	X:	0.163	Y:	0.066	Z:	0.404	yaw:	168.259	yaw rate:	1.342	Roll:	-4.846	Pitch:	-3.191	Yaw:	236.719	Thrust:	23.795
Time:	3.811	Roll Set Point:	-0.017	Pitch Set Point:	0.032	Yaw Set Point:	-2.938	X_WP:	0.000	Y_WP:	0.000	Y_WP:	0.500	X:	0.163	Y:	0.066	Z:	0.404	yaw:	168.308	yaw rate:	4.894	Roll:	-4.916	Pitch:	-3.104	Yaw:	237.385	Thrust:	24.106
Time:	3.826	Roll Set Point:	-0.017	Pitch Set Point:	0.032	Yaw Set Point:	-2.936	X_WP:	0.000	Y_WP:	0.000	Y_WP:	0.500	X:	0.163	Y:	0.066	Z:	0.404	yaw:	168.211	yaw rate:	-5.446	Roll:	-4.621	Pitch:	-3.505	Yaw:	234.808	Thrust:	24.171
Time:	3.842	Roll Set Point:	-0.017	Pitch Set Point:	0.032	Yaw Set Point:	-2.936	X_WP:	0.000	Y_WP:	0.000	Y_WP:	0.500	X:	0.163	Y:	0.066	Z:	0.404	yaw:	168.248	yaw rate:	3.662	Roll:	-4.871	Pitch:	-3.151	Yaw:	237.095	Thrust:	24.447
Time:	3.858	Roll Set Point:	-0.017	Pitch Set Point:	0.032	Yaw Set Point:	-2.936	X_WP:	0.000	Y_WP:	0.000	Y_WP:	0.500	X:	0.163	Y:	0.066	Z:	0.404	yaw:	168.242	yaw rate:	-0.646	Roll:	-4.806	Pitch:	-3.270	Yaw:	236.364	Thrust:	24.672
Time:	3.873	Roll Set Point:	-0.017	Pitch Set Point:	0.032	Yaw Set Point:	-2.937	X_WP:	0.000	Y_WP:	0.000	Y_WP:	0.500	X:	0.163	Y:	0.066	Z:	0.404	yaw:	168.282	yaw rate:	4.002	Roll:	-4.881	Pitch:	-3.130	Yaw:	237.199	Thrust:	24.704
Time:	3.889	Roll Set Point:	-0.017	Pitch Set Point:	0.032	Yaw Set Point:	-2.937	X_WP:	0.000	Y_WP:	0.000	Y_WP:	0.500	X:	0.163	Y:	0.066	Z:	0.404	yaw:	168.268	yaw rate:	-1.398	Roll:	-4.796	Pitch:	-3.341	Yaw:	236.274	Thrust:	24.952
Time:	3.905	Roll Set Point:	-0.017	Pitch Set Point:	0.032	Yaw Set Point:	-2.937	X_WP:	0.000	Y_WP:	0.000	Y_WP:	0.500	X:	0.163	Y:	0.066	Z:	0.404	yaw:	168.268	yaw rate:	-1.398	Roll:	-4.812	Pitch:	-3.263	Yaw:	236.509	Thrust:	25.139
Time:	3.920	Roll Set Point:	-0.017	Pitch Set Point:	0.032	Yaw Set Point:	-2.937	X_WP:	0.000	Y_WP:	0.000	Y_WP:	0.500	X:	0.163	Y:	0.066	Z:	0.404	yaw:	168.274	yaw rate:	0.647	Roll:	-4.835	Pitch:	-3.241	Yaw:	236.629	Thrust:	25.417
Time:	3.936	Roll Set Point:	-0.017	Pitch Set Point:	0.032	Yaw Set Point:	-2.937	X_WP:	0.000	Y_WP:	0.000	Y_WP:	0.500	X:	0.163	Y:	0.066	Z:	0.404	yaw:	168.274	yaw rate:	0.647	Roll:	-4.811	Pitch:	-3.269	Yaw:	236.515	Thrust:	25.458
Time:	3.951	Roll Set Point:	-0.017	Pitch Set Point:	0.032	Yaw Set Point:	-2.937	X_WP:	0.000	Y_WP:	0.000	Y_WP:	0.500	X:	0.163	Y:	0.066	Z:	0.404	yaw:	168.270	yaw rate:	-0.366	Roll:	-4.803	Pitch:	-3.287	Yaw:	236.451	Thrust:	25.654
Time:	3.967	Roll Set Point:	-0.017	Pitch Set Point:	0.032	Yaw Set Point:	-2.936	X_WP:	0.000	Y_WP:	0.000	Y_WP:	0.500	X:	0.163	Y:	0.066	Z:	0.404	yaw:	168.236	yaw rate:	-3.409	Roll:	-4.730	Pitch:	-3.315	Yaw:	235.901	Thrust:	25.868
Time:	3.983	Roll Set Point:	-0.017	Pitch Set Point:	0.032	Yaw Set Point:	-2.937	X_WP:	0.000	Y_WP:	0.000	Y_WP:	0.500	X:	0.163	Y:	0.066	Z:	0.404	yaw:	168.279	yaw rate:	4.308	Roll:	-4.898	Pitch:	-3.204	Yaw:	237.244	Thrust:	26.129
Time:	3.998	Roll Set Point:	-0.017	Pitch Set Point:	0.032	Yaw Set Point:	-2.937	X_WP:	0.000	Y_WP:	0.000	Y_WP:	0.500	X:	0.163	Y:	0.066	Z:	0.405	yaw:	168.262	yaw rate:	-1.748	Roll:	-4.781	Pitch:	-3.320	Yaw:	236.201	Thrust:	26.007
Time:	4.014	Roll Set Point:	-0.017	Pitch Set Point:	0.032	Yaw Set Point:	-2.937	X_WP:	0.000	Y_WP:	0.000	Y_WP:	0.500	X:	0.163	Y:	0.066	Z:	0.404	yaw:	168.270	yaw rate:	0.826	Roll:	-4.838	Pitch:	-3.305	Yaw:	236.653	Thrust:	26.469
Time:	4.030	Roll Set Point:	-0.017	Pitch Set Point:	0.032	Yaw Set Point:	-2.937	X_WP:	0.000	Y_WP:	0.000	Y_WP:	0.500	X:	0.163	Y:	0.066	Z:	0.404	yaw:	168.270	yaw rate:	0.826	Roll:	-4.812	Pitch:	-3.294	Yaw:	236.512	Thrust:	26.569
Time:	4.045	Roll Set Point:	-0.017	Pitch Set Point:	0.032	Yaw Set Point:	-2.937	X_WP:	0.000	Y_WP:	0.000	Y_WP:	0.500	X:	0.163	Y:	0.066	Z:	0.404	yaw:	168.288	yaw rate:	1.748	Roll:	-4.852	Pitch:	-3.228	Yaw:	236.827	Thrust:	26.822
Time:	4.061	Roll Set Point:	-0.017	Pitch Set Point:	0.032	Yaw Set Point:	-2.937	X_WP:	0.000	Y_WP:	0.000	Y_WP:	0.500	X:	0.163	Y:	0.066	Z:	0.404	yaw:	168.257	yaw rate:	-1.154	Roll:	-4.737	Pitch:	-3.375	Yaw:	235.983	Thrust:	26.831
Time:	4.076	Roll Set Point:	-0.017	Pitch Set Point:	0.032	Yaw Set Point:	-2.937	X_WP:	0.000	Y_WP:	0.000	Y_WP:	0.500	X:	0.163	Y:	0.066	Z:	0.404	yaw:	168.257	yaw rate:	-1.154	Roll:	-4.810	Pitch:	-3.304	Yaw:	236.491	Thrust:	27.064
Time:	4.092	Roll Set Point:	-0.017	Pitch Set Point:	0.032	Yaw Set Point:	-2.936	X_WP:	0.000	Y_WP:	0.000	Y_WP:	0.500	X:	0.163	Y:	0.066	Z:	0.404	yaw:	168.244	yaw rate:	-3.603	Roll:	-4.787	Pitch:	-3.357	Yaw:	236.267	Thrust:	27.308
Time:	4.108	Roll Set Point:	-0.017	Pitch Set Point:	0.032	Yaw Set Point:	-2.937	X_WP:	0.000	Y_WP:	0.000	Y_WP:	0.500	X:	0.163	Y:	0.066	Z:	0.404	yaw:	168.256	yaw rate:	1.147	Roll:	-4.833	Pitch:	-3.258	Yaw:	236.684	Thrust:	27.444
Time:	4.123	Roll Set Point:	-0.017	Pitch Set Point:	0.032	Yaw Set Point:	-2.937	X_WP:	0.000	Y_WP:	0.000	Y_WP:	0.500	X:	0.163	Y:	0.066	Z:	0.404	yaw:	168.274	yaw rate:	1.799	Roll:	-4.849	Pitch:	-3.309	Yaw:	236.822	Thrust:	27.869
Time:	4.139	Roll Set Point:	-0.017	Pitch Set Point:	0.032	Yaw Set Point:	-2.937	X_WP:	0.000	Y_WP:	0.000	Y_WP:	0.500	X:	0.163	Y:	0.066	Z:	0.404	yaw:	168.274	yaw rate:	1.799	Roll:	-4.811	Pitch:	-3.319	Yaw:	236.513	Thrust:	27.767
Time:	4.155	Roll Set Point:	-0.017	Pitch Set Point:	0.032	Yaw Set Point:	-2.937	X_WP:	0.000	Y_WP:	0.000	Y_WP:	0.500	X:	0.163	Y:	0.066	Z:	0.404	yaw:	168.253	yaw rate:	1.256	Roll:	-4.773	Pitch:	-3.375	Yaw:	236.141	Thrust:	27.938
Time:	4.170	Roll Set Point:	-0.017	Pitch Set Point:	0.032	Yaw Set Point:	-2.936	X_WP:	0.000	Y_WP:	0.000	Y_WP:	0.500	X:	0.163	Y:	0.066	Z:	0.404	yaw:	168.242	yaw rate:	-1.140	Roll:	-4.781	Pitch:	-3.333	Yaw:	236.282	Thrust:	28.115
Time:	4.186	Roll Set Point:	-0.017	Pitch Set Point:	0.032	Yaw Set Point:	-2.937	X_WP:	0.000	Y_WP:	0.000	Y_WP:	0.500	X:	0.163	Y:	0.066	Z:	0.404	yaw:	168.291	yaw rate:	4.925	Roll:	-4.923	Pitch:	-3.203	Yaw:	237.366	Thrust:	28.408
Time:	4.201	Roll Set Point:	-0.017	Pitch Set Point:	0.032	Yaw Set Point:	-2.937	X_WP:	0.000	Y_WP:	0.000	Y_WP:	0.500	X:	0.163	Y:	0.066	Z:	0.404	yaw:	168.291	yaw rate:	4.925	Roll:	-4.813	Pitch:	-3.333	Yaw:	236.541	Thrust:	28.535
Time:	4.217	Roll Set Point:	-0.017	Pitch Set Point:	0.032	Yaw Set Point:	-2.936	X_WP:	0.000	Y_WP:	0.000	Y_WP:	0.500	X:	0.163	Y:	0.066	Z:	0.405	yaw:	168.247	yaw rate:	-4.379	Roll:	-4.720	Pitch:	-3.433	Yaw:	235.751	Thrust:	28.671
Time:	4.233	Roll Set Point:	-0.017	Pitch Set Point:	0.032	Yaw Set Point:	-2.937	X_WP:	0.000	Y_WP:	0.000	Y_WP:	0.500	X:	0.163	Y:	0.066	Z:	0.404	yaw:	168.271	yaw rate:	2.367	Roll:	-4.863	Pitch:	-3.341	Yaw:	236.909	Thrust:	28.951
Time:	4.248	Roll Set Point:	-0.017	Pitch Set Point:	0.032	Yaw Set Point:	-2.937	X_WP:	0.000	Y_WP:	0.000	Y_WP:	0.500	X:	0.163	Y:	0.066	Z:	0.404	yaw:	168.267	yaw rate:	-0.345	Roll:	-4.790	Pitch:	-3.324	Yaw:	236.447	Thrust:	29.162
Time:	4.264	Roll Set Point:	-0.017	Pitch Set Point:	0.032	Yaw Set Point:	-2.937	X_WP:	0.000	Y_WP:	0.000	Y_WP:	0.500	X:	0.163	Y:	0.066	Z:	0.404	yaw:	168.267	yaw rate:	-0.345	Roll:	-4.812	Pitch:	-3.350	Yaw:	236.508	Thrust:	29.257
Time:	4.280	Roll Set Point:	-0.017	Pitch Set Point:	0.032	Yaw Set Point:	-2.937	X_WP:	0.000	Y_WP:	0.000	Y_WP:	0.500	X:	0.163	Y:	0.066	Z:	0.404	yaw:	168.262	yaw rate:	-0.492	Roll:	-4.791	Pitch:	-3.323	Yaw:	236.419	Thrust:	29.340
Time:	4.295	Roll Set Point:	-0.017	Pitch Set Point:	0.032	Yaw Set Point:	-2.936	X_WP:	0.000	Y_WP:	0.000	Y_WP:	0.500	X:	0.163	Y:	0.066	Z:	0.404	yaw:	168.235	yaw rate:	-2.742	Roll:	-4.778	Pitch:	-3.466	Yaw:	236.004	Thrust:	29.571
Time:	4.311	Roll Set Point:	-0.017	Pitch Set Point:	0.032	Yaw Set Point:	-2.937	X_WP:	0.000	Y_WP:	0.000	Y_WP:	0.500	X:	0.163	Y:	0.066	Z:	0.404	yaw:	168.263	yaw rate:	1.189	Roll:	-4.872	Pitch:	-3.280	Yaw:	236.976	Thrust:	29.809
Time:	4.326	Roll Set Point:	-0.017	Pitch Set Point:	0.032	Yaw Set Point:	-2.937	X_WP:	0.000	Y_WP:	0.000	Y_WP:	0.500	X:	0.163	Y:	0.066	Z:	0.405	yaw:	168.261	yaw rate:	-0.223	Roll:	-4.799	Pitch:	-3.347	Yaw:	236.462	Thrust:	29.868
Time:	4.342	Roll Set Point:	-0.017	Pitch Set Point:	0.032	Yaw Set Point:	-2.937	X_WP:	0.000	Y_WP:	0.000	Y_WP:	0.500	X:	0.163	Y:	0.066	Z:	0.404	yaw:	168.271	yaw rate:	0.945	Roll:	-4.836	Pitch:	-3.357	Yaw:	236.671	Thrust:	30.286
Time:	4.358	Roll Set Point:	-0.017	Pitch Set Point:	0.032	Yaw Set Point:	-2.936	X_WP:	0.000	Y_WP:	0.000	Y_WP:	0.500	X:	0.163	Y:	0.066	Z:	0.404	yaw:	168.241	yaw rate:	-2.925	Roll:	-4.742	Pitch:	-3.465	Yaw:	235.982	Thrust:	30.301
Time:	4.373	Roll Set Point:	-0.017	Pitch Set Point:	0.032	Yaw Set Point:	-2.937	X_WP:	0.000	Y_WP:	0.000	Y_WP:	0.500	X:	0.163	Y:	0.066	Z:	0.404	yaw:	168.254	yaw rate:	1.250	Roll:	-4.842	Pitch:	-3.340	Yaw:	236.701	Thrust:	30.568
Time:	4.389	Roll Set Point:	-0.017	Pitch Set Point:	0.032	Yaw Set Point:	-2.937	X_WP:	0.000	Y_WP:	0.000	Y_WP:	0.500	X:	0.163	Y:	0.066	Z:	0.404	yaw:	168.261	yaw rate:	0.714	Roll:	-4.825	Pitch:	-3.374	Yaw:	236.616	Thrust:	30.661
Time:	4.405	Roll Set Point:	-0.017	Pitch Set Point:	0.032	Yaw Set Point:	-2.936	X_WP:	0.000	Y_WP:	0.000	Y_WP:	0.500	X:	0.163	Y:	0.066	Z:	0.404	yaw:	168.224	yaw rate:	-3.676	Roll:	-4.740	Pitch:	-3.495	Yaw:	235.837	Thrust:	30.848
Time:	4.420	Roll Set Point:	-0.017	Pitch Set Point:	0.032	Yaw Set Point:	-2.937	X_WP:	0.000	Y_WP:	0.000	Y_WP:	0.500	X:	0.163	Y:	0.066	Z:	0.404	yaw:	168.269	yaw rate:	4.482	Roll:	-4.894	Pitch:	-3.287	Yaw:	237.260	Thrust:	31.026
Time:	4.436	Roll Set Point:	-0.017	Pitch Set Point:	0.032	Yaw Set Point:	-2.937	X_WP:	0.000	Y_WP:	0.000	Y_WP:	0.500	X:	0.163	Y:	0.066	Z:	0.404	yaw:	168.271	yaw rate:	0.177	Roll:	-4.820	Pitch:	-3.349	Yaw:	236.543	Thrust:	31.266
Time:	4.451	Roll Set Point:	-0.017	Pitch Set Point:	0.032	Yaw Set Point:	-2.937	X_WP:	0.000	Y_WP:	0.000	Y_WP:	0.500	X:	0.163	Y:	0.066	Z:	0.404	yaw:	168.264	yaw rate:	-0.713	Roll:	-4.816	Pitch:	-3.402	Yaw:	236.383	Thrust:	31.327
Time:	4.467	Roll Set Point:	-0.017	Pitch Set Point:	0.032	Yaw Set Point:	-2.937	X_WP:	0.000	Y_WP:	0.000	Y_WP:	0.500	X:	0.163	Y:	0.066	Z:	0.404	yaw:	168.264	yaw rate:	-0.713	Roll:	-4.812	Pitch:	-3.400	Yaw:	236.503	Thrust:	31.583
Time:	4.483	Roll Set Point:	-0.017	Pitch Set Point:	0.032	Yaw Set Point:	-2.936	X_WP:	0.000	Y_WP:	0.000	Y_WP:	0.500	X:	0.163	Y:	0.066	Z:	0.404	yaw:	168.218	yaw rate:	-4.175	Roll:	-4.701	Pitch:	-3.551	Yaw:	235.683	Thrust:	31.900
Time:	4.498	Roll Set Point:	-0.017	Pitch Set Point:	0.032	Yaw Set Point:	-2.936	X_WP:	0.000	Y_WP:	0.000	Y_WP:	0.500	X:	0.163	Y:	0.066	Z:	0.404	yaw:	168.218	yaw rate:	-4.175	Roll:	-4.809	Pitch:	-3.411	Yaw:	236.440	Thrust:	31.943
Time:	4.514	Roll Set Point:	-0.017	Pitch Set Point:	0.032	Yaw Set Point:	-2.936	X_WP:	0.000	Y_WP:	0.000	Y_WP:	0.500	X:	0.163	Y:	0.066	Z:	0.404	yaw:	168.227	yaw rate:	-2.457	Roll:	-4.824	Pitch:	-3.380	Yaw:	236.593	Thrust:	32.115
Time:	4.530	Roll Set Point:	-0.017	Pitch Set Point:	0.032	Yaw Set Point:	-2.936	X_WP:	0.000	Y_WP:	0.000	Y_WP:	0.500	X:	0.163	Y:	0.066	Z:	0.404	yaw:	168.227	yaw rate:	-2.457	Roll:	-4.808	Pitch:	-3.417	Yaw:	236.448	Thrust:	32.247
Time:	4.545	Roll Set Point:	-0.016	Pitch Set Point:	0.031	Yaw Set Point:	-2.943	X_WP:	0.000	Y_WP:	0.000	Y_WP:	0.500	X:	0.162	Y:	0.066	Z:	0.404	yaw:	168.634	yaw rate:	40.727	Roll:	-5.481	Pitch:	-2.325	Yaw:	243.841	Thrust:	32.769
Time:	4.561	Roll Set Point:	-0.016	Pitch Set Point:	0.031	Yaw Set Point:	-2.943	X_WP:	0.000	Y_WP:	0.000	Y_WP:	0.500	X:	0.162	Y:	0.066	Z:	0.404	yaw:	168.634	yaw rate:	40.727	Roll:	-4.827	Pitch:	-3.397	Yaw:	237.020	Thrust:	32.658
Time:	4.576	Roll Set Point:	-0.017	Pitch Set Point:	0.032	Yaw Set Point:	-2.937	X_WP:	0.000	Y_WP:	0.000	Y_WP:	0.500	X:	0.163	Y:	0.066	Z:	0.404	yaw:	168.258	yaw rate:	-37.608	Roll:	-4.204	Pitch:	-4.436	Yaw:	230.193	Thrust:	32.596
Time:	4.592	Roll Set Point:	-0.017	Pitch Set Point:	0.032	Yaw Set Point:	-2.937	X_WP:	0.000	Y_WP:	0.000	Y_WP:	0.500	X:	0.163	Y:	0.066	Z:	0.404	yaw:	168.258	yaw rate:	-37.608	Roll:	-4.811	Pitch:	-3.425	Yaw:	236.495	Thrust:	33.020
Time:	4.608	Roll Set Point:	-0.017	Pitch Set Point:	0.032	Yaw Set Point:	-2.937	X_WP:	0.000	Y_WP:	0.000	Y_WP:	0.500	X:	0.163	Y:	0.066	Z:	0.405	yaw:	168.288	yaw rate:	2.992	Roll:	-4.892	Pitch:	-3.309	Yaw:	237.038	Thrust:	33.024
Time:	4.623	Roll Set Point:	-0.017	Pitch Set Point:	0.032	Yaw Set Point:	-2.937	X_WP:	0.000	Y_WP:	0.000	Y_WP:	0.500	X:	0.163	Y:	0.066	Z:	0.404	yaw:	168.268	yaw rate:	1.548	Roll:	-4.779	Pitch:	-3.538	Yaw:	236.178	Thrust:	33.575
Time:	4.639	Roll Set Point:	-0.017	Pitch Set Point:	0.032	Yaw Set Point:	-2.936	X_WP:	0.000	Y_WP:	0.000	Y_WP:	0.500	X:	0.163	Y:	0.066	Z:	0.405	yaw:	168.229	yaw rate:	-3.898	Roll:	-4.736	Pitch:	-3.472	Yaw:	235.802	Thrust:	33.341
Time:	4.655	Roll Set Point:	-0.017	Pitch Set Point:	0.032	Yaw Set Point:	-2.936	X_WP:	0.000	Y_WP:	0.000	Y_WP:	0.500	X:	0.163	Y:	0.066	Z:	0.404	yaw:	168.243	yaw rate:	1.396	Roll:	-4.831	Pitch:	-3.418	Yaw:	236.708	Thrust:	33.969
Time:	4.686	Roll Set Point:	-0.017	Pitch Set Point:	0.032	Yaw Set Point:	-2.937	X_WP:	0.000	Y_WP:	0.000	Y_WP:	0.500	X:	0.163	Y:	0.066	Z:	0.404	yaw:	168.262	yaw rate:	1.948	Roll:	-5.421	Pitch:	-3.994	Yaw:	238.254	Thrust:	63.058
Time:	4.702	Roll Set Point:	-0.017	Pitch Set Point:	0.032	Yaw Set Point:	-2.937	X_WP:	0.000	Y_WP:	0.000	Y_WP:	0.500	X:	0.163	Y:	0.066	Z:	0.404	yaw:	168.249	yaw rate:	-1.302	Roll:	-4.786	Pitch:	-3.440	Yaw:	236.265	Thrust:	34.039
Time:	4.717	Roll Set Point:	-0.017	Pitch Set Point:	0.032	Yaw Set Point:	-2.936	X_WP:	0.000	Y_WP:	0.000	Y_WP:	0.500	X:	0.163	Y:	0.066	Z:	0.404	yaw:	168.247	yaw rate:	-1.245	Roll:	-4.826	Pitch:	-3.458	Yaw:	236.434	Thrust:	34.307
Time:	4.733	Roll Set Point:	-0.017	Pitch Set Point:	0.032	Yaw Set Point:	-2.936	X_WP:	0.000	Y_WP:	0.000	Y_WP:	0.500	X:	0.163	Y:	0.066	Z:	0.404	yaw:	168.247	yaw rate:	-1.245	Roll:	-4.811	Pitch:	-3.426	Yaw:	236.479	Thrust:	34.452
Time:	4.749	Roll Set Point:	-0.017	Pitch Set Point:	0.032	Yaw Set Point:	-2.937	X_WP:	0.000	Y_WP:	0.000	Y_WP:	0.500	X:	0.163	Y:	0.066	Z:	0.405	yaw:	168.258	yaw rate:	1.133	Roll:	-4.830	Pitch:	-3.357	Yaw:	236.685	Thrust:	34.502
Time:	4.764	Roll Set Point:	-0.017	Pitch Set Point:	0.032	Yaw Set Point:	-2.937	X_WP:	0.000	Y_WP:	0.000	Y_WP:	0.500	X:	0.163	Y:	0.066	Z:	0.404	yaw:	168.257	yaw rate:	-0.112	Roll:	-4.785	Pitch:	-3.453	Yaw:	236.475	Thrust:	34.997
Time:	4.811	Roll Set Point:	-0.017	Pitch Set Point:	0.032	Yaw Set Point:	-2.936	X_WP:	0.000	Y_WP:	0.000	Y_WP:	0.500	X:	0.163	Y:	0.066	Z:	0.404	yaw:	168.245	yaw rate:	-1.197	Roll:	-5.979	Pitch:	-4.611	Yaw:	239.535	Thrust:	94.433
Time:	4.827	Roll Set Point:	-0.017	Pitch Set Point:	0.032	Yaw Set Point:	-2.936	X_WP:	0.000	Y_WP:	0.000	Y_WP:	0.500	X:	0.163	Y:	0.066	Z:	0.404	yaw:	168.242	yaw rate:	-0.282	Roll:	-4.801	Pitch:	-3.387	Yaw:	236.427	Thrust:	35.133
Time:	4.842	Roll Set Point:	-0.017	Pitch Set Point:	0.032	Yaw Set Point:	-2.936	X_WP:	0.000	Y_WP:	0.000	Y_WP:	0.500	X:	0.163	Y:	0.066	Z:	0.404	yaw:	168.242	yaw rate:	-0.282	Roll:	-4.810	Pitch:	-3.424	Yaw:	236.472	Thrust:	35.331
Time:	4.858	Roll Set Point:	-0.017	Pitch Set Point:	0.032	Yaw Set Point:	-2.937	X_WP:	0.000	Y_WP:	0.000	Y_WP:	0.500	X:	0.163	Y:	0.066	Z:	0.404	yaw:	168.261	yaw rate:	-1.095	Roll:	-4.861	Pitch:	-3.390	Yaw:	236.815	Thrust:	35.620
Time:	4.874	Roll Set Point:	-0.017	Pitch Set Point:	0.032	Yaw Set Point:	-2.937	X_WP:	0.000	Y_WP:	0.000	Y_WP:	0.500	X:	0.163	Y:	0.066	Z:	0.404	yaw:	168.261	yaw rate:	-1.095	Roll:	-4.812	Pitch:	-3.424	Yaw:	236.499	Thrust:	35.707
Time:	4.889	Roll Set Point:	-0.017	Pitch Set Point:	0.032	Yaw Set Point:	-2.936	X_WP:	0.000	Y_WP:	0.000	Y_WP:	0.500	X:	0.163	Y:	0.066	Z:	0.404	yaw:	168.213	yaw rate:	-6.319	Roll:	-4.725	Pitch:	-3.590	Yaw:	235.637	Thrust:	35.849
Time:	4.905	Roll Set Point:	-0.017	Pitch Set Point:	0.032	Yaw Set Point:	-2.937	X_WP:	0.000	Y_WP:	0.000	Y_WP:	0.500	X:	0.163	Y:	0.066	Z:	0.404	yaw:	168.252	yaw rate:	3.817	Roll:	-4.886	Pitch:	-3.327	Yaw:	237.126	Thrust:	36.025
Time:	4.921	Roll Set Point:	-0.017	Pitch Set Point:	0.032	Yaw Set Point:	-2.937	X_WP:	0.000	Y_WP:	0.000	Y_WP:	0.500	X:	0.163	Y:	0.066	Z:	0.404	yaw:	168.288	yaw rate:	3.597	Roll:	-4.872	Pitch:	-3.306	Yaw:	237.139	Thrust:	36.301
Time:	4.936	Roll Set Point:	-0.017	Pitch Set Point:	0.032	Yaw Set Point:	-2.937	X_WP:	0.000	Y_WP:	0.000	Y_WP:	0.500	X:	0.163	Y:	0.066	Z:	0.404	yaw:	168.288	yaw rate:	3.597	Roll:	-4.813	Pitch:	-3.422	Yaw:	236.536	Thrust:	36.421
Time:	4.952	Roll Set Point:	-0.017	Pitch Set Point:	0.032	Yaw Set Point:	-2.936	X_WP:	0.000	Y_WP:	0.000	Y_WP:	0.500	X:	0.163	Y:	0.066	Z:	0.405	yaw:	168.226	yaw rate:	-4.227	Roll:	-4.696	Pitch:	-3.594	Yaw:	235.410	Thrust:	36.464
Time:	4.967	Roll Set Point:	-0.017	Pitch Set Point:	0.032	Yaw Set Point:	-2.936	X_WP:	0.000	Y_WP:	0.000	Y_WP:	0.500	X:	0.163	Y:	0.066	Z:	0.405	yaw:	168.226	yaw rate:	-4.227	Roll:	-4.810	Pitch:	-3.427	Yaw:	236.450	Thrust:	36.779
Time:	4.983	Roll Set Point:	-0.017	Pitch Set Point:	0.032	Yaw Set Point:	-2.937	X_WP:	0.000	Y_WP:	0.000	Y_WP:	0.500	X:	0.163	Y:	0.066	Z:	0.404	yaw:	168.263	yaw rate:	3.783	Roll:	-4.874	Pitch:	-3.380	Yaw:	237.137	Thrust:	37.181
Time:	4.999	Roll Set Point:	-0.017	Pitch Set Point:	0.032	Yaw Set Point:	-2.937	X_WP:	0.000	Y_WP:	0.000	Y_WP:	0.500	X:	0.163	Y:	0.066	Z:	0.404	yaw:	168.300	yaw rate:	3.634	Roll:	-4.891	Pitch:	-3.271	Yaw:	237.162	Thrust:	37.065
Time:	5.014	Roll Set Point:	-0.017	Pitch Set Point:	0.032	Yaw Set Point:	-2.937	X_WP:	0.000	Y_WP:	0.000	Y_WP:	0.500	X:	0.163	Y:	0.066	Z:	0.404	yaw:	168.300	yaw rate:	3.634	Roll:	-4.814	Pitch:	-3.422	Yaw:	236.553	Thrust:	37.316
Time:	5.030	Roll Set Point:	-0.017	Pitch Set Point:	0.032	Yaw Set Point:	-2.936	X_WP:	0.000	Y_WP:	0.000	Y_WP:	0.500	X:	0.163	Y:	0.066	Z:	0.404	yaw:	168.244	yaw rate:	-5.555	Roll:	-4.692	Pitch:	-3.609	Yaw:	235.545	Thrust:	37.451
Time:	5.046	Roll Set Point:	-0.017	Pitch Set Point:	0.032	Yaw Set Point:	-2.936	X_WP:	0.000	Y_WP:	0.000	Y_WP:	0.500	X:	0.163	Y:	0.066	Z:	0.404	yaw:	168.245	yaw rate:	0.096	Roll:	-4.841	Pitch:	-3.413	Yaw:	236.494	Thrust:	37.666
Time:	5.061	Roll Set Point:	-0.017	Pitch Set Point:	0.032	Yaw Set Point:	-2.937	X_WP:	0.000	Y_WP:	0.000	Y_WP:	0.500	X:	0.163	Y:	0.066	Z:	0.404	yaw:	168.299	yaw rate:	4.494	Roll:	-4.878	Pitch:	-3.272	Yaw:	237.454	Thrust:	38.020
Time:	5.077	Roll Set Point:	-0.017	Pitch Set Point:	0.032	Yaw Set Point:	-2.936	X_WP:	0.000	Y_WP:	0.000	Y_WP:	0.500	X:	0.163	Y:	0.066	Z:	0.405	yaw:	168.220	yaw rate:	-7.915	Roll:	-4.678	Pitch:	-3.631	Yaw:	235.115	Thrust:	37.795
Time:	5.092	Roll Set Point:	-0.017	Pitch Set Point:	0.032	Yaw Set Point:	-2.936	X_WP:	0.000	Y_WP:	0.000	Y_WP:	0.500	X:	0.163	Y:	0.066	Z:	0.404	yaw:	168.246	yaw rate:	2.596	Roll:	-4.869	Pitch:	-3.382	Yaw:	236.912	Thrust:	38.261
Time:	5.108	Roll Set Point:	-0.017	Pitch Set Point:	0.032	Yaw Set Point:	-2.937	X_WP:	0.000	Y_WP:	0.000	Y_WP:	0.500	X:	0.163	Y:	0.066	Z:	0.404	yaw:	168.281	yaw rate:	3.531	Roll:	-4.870	Pitch:	-3.306	Yaw:	237.121	Thrust:	38.659
Time:	5.124	Roll Set Point:	-0.017	Pitch Set Point:	0.032	Yaw Set Point:	-2.937	X_WP:	0.000	Y_WP:	0.000	Y_WP:	0.500	X:	0.163	Y:	0.066	Z:	0.404	yaw:	168.281	yaw rate:	3.531	Roll:	-4.812	Pitch:	-3.422	Yaw:	236.525	Thrust:	38.517
Time:	5.139	Roll Set Point:	-0.017	Pitch Set Point:	0.032	Yaw Set Point:	-2.937	X_WP:	0.000	Y_WP:	0.000	Y_WP:	0.500	X:	0.163	Y:	0.066	Z:	0.404	yaw:	168.272	yaw rate:	2.434	Roll:	-4.782	Pitch:	-3.489	Yaw:	236.360	Thrust:	38.734
Time:	5.155	Roll Set Point:	-0.017	Pitch Set Point:	0.032	Yaw Set Point:	-2.937	X_WP:	0.000	Y_WP:	0.000	Y_WP:	0.500	X:	0.163	Y:	0.066	Z:	0.404	yaw:	168.272	yaw rate:	2.434	Roll:	-4.811	Pitch:	-3.424	Yaw:	236.513	Thrust:	38.905
Time:	5.171	Roll Set Point:	-0.017	Pitch Set Point:	0.032	Yaw Set Point:	-2.937	X_WP:	0.000	Y_WP:	0.000	Y_WP:	0.500	X:	0.163	Y:	0.066	Z:	0.405	yaw:	168.249	yaw rate:	-2.229	Roll:	-4.797	Pitch:	-3.451	Yaw:	236.106	Thrust:	38.877
Time:	5.186	Roll Set Point:	-0.017	Pitch Set Point:	0.032	Yaw Set Point:	-2.937	X_WP:	0.000	Y_WP:	0.000	Y_WP:	0.500	X:	0.163	Y:	0.066	Z:	0.404	yaw:	168.251	yaw rate:	0.197	Roll:	-4.789	Pitch:	-3.405	Yaw:	236.519	Thrust:	39.484
Time:	5.202	Roll Set Point:	-0.017	Pitch Set Point:	0.032	Yaw Set Point:	-2.937	X_WP:	0.000	Y_WP:	0.000	Y_WP:	0.500	X:	0.163	Y:	0.066	Z:	0.404	yaw:	168.250	yaw rate:	-2.623	Roll:	-4.806	Pitch:	-3.477	Yaw:	236.464	Thrust:	39.409
Time:	5.217	Roll Set Point:	-0.017	Pitch Set Point:	0.032	Yaw Set Point:	-2.936	X_WP:	0.000	Y_WP:	0.000	Y_WP:	0.500	X:	0.163	Y:	0.066	Z:	0.405	yaw:	168.232	yaw rate:	-1.822	Roll:	-4.773	Pitch:	-3.428	Yaw:	236.155	Thrust:	39.555
Time:	5.233	Roll Set Point:	-0.017	Pitch Set Point:	0.032	Yaw Set Point:	-2.936	X_WP:	0.000	Y_WP:	0.000	Y_WP:	0.500	X:	0.163	Y:	0.066	Z:	0.404	yaw:	168.223	yaw rate:	-0.918	Roll:	-4.821	Pitch:	-3.438	Yaw:	236.299	Thrust:	40.035
Time:	5.249	Roll Set Point:	-0.017	Pitch Set Point:	0.032	Yaw Set Point:	-2.936	X_WP:	0.000	Y_WP:	0.000	Y_WP:	0.500	X:	0.163	Y:	0.066	Z:	0.404	yaw:	168.223	yaw rate:	-0.918	Roll:	-4.809	Pitch:	-3.426	Yaw:	236.443	Thrust:	39.947
Time:	5.264	Roll Set Point:	-0.017	Pitch Set Point:	0.032	Yaw Set Point:	-2.937	X_WP:	0.000	Y_WP:	0.000	Y_WP:	0.500	X:	0.163	Y:	0.066	Z:	0.405	yaw:	168.262	yaw rate:	-1.719	Roll:	-4.869	Pitch:	-3.333	Yaw:	237.160	Thrust:	40.015
Time:	5.280	Roll Set Point:	-0.017	Pitch Set Point:	0.032	Yaw Set Point:	-2.936	X_WP:	0.000	Y_WP:	0.000	Y_WP:	0.500	X:	0.163	Y:	0.066	Z:	0.404	yaw:	168.239	yaw rate:	-2.339	Roll:	-4.770	Pitch:	-3.544	Yaw:	236.079	Thrust:	40.550
Time:	5.296	Roll Set Point:	-0.017	Pitch Set Point:	0.032	Yaw Set Point:	-2.936	X_WP:	0.000	Y_WP:	0.000	Y_WP:	0.500	X:	0.163	Y:	0.066	Z:	0.405	yaw:	168.241	yaw rate:	0.207	Roll:	-4.808	Pitch:	-3.316	Yaw:	236.508	Thrust:	40.488
Time:	5.311	Roll Set Point:	-0.017	Pitch Set Point:	0.032	Yaw Set Point:	-2.936	X_WP:	0.000	Y_WP:	0.000	Y_WP:	0.500	X:	0.163	Y:	0.066	Z:	0.405	yaw:	168.241	yaw rate:	0.207	Roll:	-4.809	Pitch:	-3.423	Yaw:	236.468	Thrust:	40.637
Time:	5.327	Roll Set Point:	-0.017	Pitch Set Point:	0.032	Yaw Set Point:	-2.937	X_WP:	0.000	Y_WP:	0.000	Y_WP:	0.500	X:	0.163	Y:	0.066	Z:	0.404	yaw:	168.284	yaw rate:	4.340	Roll:	-4.894	Pitch:	-3.331	Yaw:	237.258	Thrust:	41.079
Time:	5.342	Roll Set Point:	-0.017	Pitch Set Point:	0.032	Yaw Set Point:	-2.937	X_WP:	0.000	Y_WP:	0.000	Y_WP:	0.500	X:	0.163	Y:	0.066	Z:	0.404	yaw:	168.284	yaw rate:	4.340	Roll:	-4.812	Pitch:	-3.422	Yaw:	236.531	Thrust:	41.068
Time:	5.358	Roll Set Point:	-0.017	Pitch Set Point:	0.032	Yaw Set Point:	-2.936	X_WP:	0.000	Y_WP:	0.000	Y_WP:	0.500	X:	0.163	Y:	0.066	Z:	0.404	yaw:	168.234	yaw rate:	-0.906	Roll:	-4.732	Pitch:	-3.579	Yaw:	235.631	Thrust:	41.159
Time:	5.374	Roll Set Point:	-0.017	Pitch Set Point:	0.032	Yaw Set Point:	-2.936	X_WP:	0.000	Y_WP:	0.000	Y_WP:	0.500	X:	0.163	Y:	0.066	Z:	0.404	yaw:	168.234	yaw rate:	-0.906	Roll:	-4.809	Pitch:	-3.425	Yaw:	236.459	Thrust:	41.363
Time:	5.389	Roll Set Point:	-0.017	Pitch Set Point:	0.032	Yaw Set Point:	-2.937	X_WP:	0.000	Y_WP:	0.000	Y_WP:	0.500	X:	0.163	Y:	0.066	Z:	0.404	yaw:	168.262	yaw rate:	2.804	Roll:	-4.871	Pitch:	-3.316	Yaw:	236.971	Thrust:	41.612
Time:	5.405	Roll Set Point:	-0.017	Pitch Set Point:	0.032	Yaw Set Point:	-2.937	X_WP:	0.000	Y_WP:	0.000	Y_WP:	0.500	X:	0.163	Y:	0.066	Z:	0.404	yaw:	168.273	yaw rate:	2.148	Roll:	-4.827	Pitch:	-3.489	Yaw:	236.696	Thrust:	41.909
Time:	5.421	Roll Set Point:	-0.017	Pitch Set Point:	0.032	Yaw Set Point:	-2.936	X_WP:	0.000	Y_WP:	0.000	Y_WP:	0.500	X:	0.163	Y:	0.066	Z:	0.404	yaw:	168.238	yaw rate:	-3.512	Roll:	-4.738	Pitch:	-3.475	Yaw:	235.879	Thrust:	41.988
Time:	5.436	Roll Set Point:	-0.017	Pitch Set Point:	0.032	Yaw Set Point:	-2.936	X_WP:	0.000	Y_WP:	0.000	Y_WP:	0.500	X:	0.163	Y:	0.066	Z:	0.404	yaw:	168.238	yaw rate:	-3.512	Roll:	-4.810	Pitch:	-3.426	Yaw:	236.466	Thrust:	42.139
Time:	5.452	Roll Set Point:	-0.017	Pitch Set Point:	0.032	Yaw Set Point:	-2.937	X_WP:	0.000	Y_WP:	0.000	Y_WP:	0.500	X:	0.163	Y:	0.066	Z:	0.404	yaw:	168.268	yaw rate:	0.704	Roll:	-4.854	Pitch:	-3.360	Yaw:	237.012	Thrust:	42.278
Time:	5.467	Roll Set Point:	-0.017	Pitch Set Point:	0.032	Yaw Set Point:	-2.937	X_WP:	0.000	Y_WP:	0.000	Y_WP:	0.500	X:	0.163	Y:	0.066	Z:	0.404	yaw:	168.268	yaw rate:	0.704	Roll:	-4.812	Pitch:	-3.425	Yaw:	236.509	Thrust:	42.512
Time:	5.483	Roll Set Point:	-0.017	Pitch Set Point:	0.032	Yaw Set Point:	-2.936	X_WP:	0.000	Y_WP:	0.000	Y_WP:	0.500	X:	0.163	Y:	0.066	Z:	0.405	yaw:	168.249	yaw rate:	-1.901	Roll:	-4.794	Pitch:	-3.482	Yaw:	236.164	Thrust:	42.566
Time:	5.499	Roll Set Point:	-0.017	Pitch Set Point:	0.032	Yaw Set Point:	-2.937	X_WP:	0.000	Y_WP:	0.000	Y_WP:	0.500	X:	0.163	Y:	0.066	Z:	0.404	yaw:	168.265	yaw rate:	1.591	Roll:	-4.844	Pitch:	-3.318	Yaw:	236.771	Thrust:	42.969
Time:	5.514	Roll Set Point:	-0.017	Pitch Set Point:	0.032	Yaw Set Point:	-2.937	X_WP:	0.000	Y_WP:	0.000	Y_WP:	0.500	X:	0.163	Y:	0.066	Z:	0.404	yaw:	168.265	yaw rate:	1.591	Roll:	-4.812	Pitch:	-3.423	Yaw:	236.505	Thrust:	43.047
Time:	5.530	Roll Set Point:	-0.017	Pitch Set Point:	0.032	Yaw Set Point:	-2.936	X_WP:	0.000	Y_WP:	0.000	Y_WP:	0.500	X:	0.163	Y:	0.066	Z:	0.404	yaw:	168.226	yaw rate:	-1.868	Roll:	-4.733	Pitch:	-3.575	Yaw:	235.798	Thrust:	43.262
Time:	5.546	Roll Set Point:	-0.017	Pitch Set Point:	0.032	Yaw Set Point:	-2.936	X_WP:	0.000	Y_WP:	0.000	Y_WP:	0.500	X:	0.163	Y:	0.066	Z:	0.404	yaw:	168.226	yaw rate:	-1.868	Roll:	-4.809	Pitch:	-3.426	Yaw:	236.447	Thrust:	43.330
Time:	5.562	Roll Set Point:	-0.017	Pitch Set Point:	0.032	Yaw Set Point:	-2.937	X_WP:	0.000	Y_WP:	0.000	Y_WP:	0.500	X:	0.163	Y:	0.066	Z:	0.404	yaw:	168.276	yaw rate:	5.083	Roll:	-4.907	Pitch:	-3.308	Yaw:	237.399	Thrust:	45.040
Time:	5.578	Roll Set Point:	-0.017	Pitch Set Point:	0.032	Yaw Set Point:	-2.937	X_WP:	0.000	Y_WP:	0.000	Y_WP:	0.500	X:	0.163	Y:	0.066	Z:	0.404	yaw:	168.264	yaw rate:	0.098	Roll:	-4.835	Pitch:	-3.457	Yaw:	236.336	Thrust:	44.790
Time:	5.610	Roll Set Point:	-0.017	Pitch Set Point:	0.032	Yaw Set Point:	-2.937	X_WP:	0.000	Y_WP:	0.000	Y_WP:	0.500	X:	0.163	Y:	0.066	Z:	0.405	yaw:	168.267	yaw rate:	0.376	Roll:	-5.443	Pitch:	-4.047	Yaw:	238.227	Thrust:	85.883
Time:	5.626	Roll Set Point:	-0.017	Pitch Set Point:	0.032	Yaw Set Point:	-2.937	X_WP:	0.000	Y_WP:	0.000	Y_WP:	0.500	X:	0.163	Y:	0.066	Z:	0.404	yaw:	168.268	yaw rate:	0.164	Roll:	-4.823	Pitch:	-3.466	Yaw:	236.534	Thrust:	44.241
Time:	5.642	Roll Set Point:	-0.017	Pitch Set Point:	0.032	Yaw Set Point:	-2.937	X_WP:	0.000	Y_WP:	0.000	Y_WP:	0.500	X:	0.163	Y:	0.066	Z:	0.404	yaw:	168.270	yaw rate:	0.168	Roll:	-4.823	Pitch:	-3.415	Yaw:	236.540	Thrust:	44.243
Time:	5.657	Roll Set Point:	-0.017	Pitch Set Point:	0.032	Yaw Set Point:	-2.936	X_WP:	0.000	Y_WP:	0.000	Y_WP:	0.500	X:	0.163	Y:	0.066	Z:	0.404	yaw:	168.248	yaw rate:	-2.163	Roll:	-4.766	Pitch:	-3.473	Yaw:	236.119	Thrust:	44.455
Time:	5.685	Roll Set Point:	-0.017	Pitch Set Point:	0.032	Yaw Set Point:	-2.937	X_WP:	0.000	Y_WP:	0.000	Y_WP:	0.500	X:	0.163	Y:	0.066	Z:	0.404	yaw:	168.266	yaw rate:	1.789	Roll:	-5.277	Pitch:	-3.845	Yaw:	237.882	Thrust:	75.084
Time:	5.701	Roll Set Point:	-0.017	Pitch Set Point:	0.032	Yaw Set Point:	-2.937	X_WP:	0.000	Y_WP:	0.000	Y_WP:	0.500	X:	0.163	Y:	0.066	Z:	0.404	yaw:	168.257	yaw rate:	-0.954	Roll:	-4.785	Pitch:	-3.402	Yaw:	236.333	Thrust:	44.827
Time:	5.716	Roll Set Point:	-0.017	Pitch Set Point:	0.032	Yaw Set Point:	-2.936	X_WP:	0.000	Y_WP:	0.000	Y_WP:	0.500	X:	0.163	Y:	0.066	Z:	0.404	yaw:	168.233	yaw rate:	-2.634	Roll:	-4.797	Pitch:	-3.564	Yaw:	236.058	Thrust:	45.054
Time:	5.732	Roll Set Point:	-0.017	Pitch Set Point:	0.032	Yaw Set Point:	-2.936	X_WP:	0.000	Y_WP:	0.000	Y_WP:	0.500	X:	0.163	Y:	0.066	Z:	0.404	yaw:	168.247	yaw rate:	1.473	Roll:	-4.799	Pitch:	-3.358	Yaw:	236.727	Thrust:	45.212
Time:	5.747	Roll Set Point:	-0.017	Pitch Set Point:	0.032	Yaw Set Point:	-2.937	X_WP:	0.000	Y_WP:	0.000	Y_WP:	0.500	X:	0.163	Y:	0.066	Z:	0.404	yaw:	168.281	yaw rate:	3.354	Roll:	-4.897	Pitch:	-3.320	Yaw:	237.089	Thrust:	45.312
Time:	5.763	Roll Set Point:	-0.017	Pitch Set Point:	0.032	Yaw Set Point:	-2.937	X_WP:	0.000	Y_WP:	0.000	Y_WP:	0.500	X:	0.163	Y:	0.066	Z:	0.404	yaw:	168.268	yaw rate:	-1.248	Roll:	-4.774	Pitch:	-3.486	Yaw:	236.301	Thrust:	45.746
Time:	5.779	Roll Set Point:	-0.017	Pitch Set Point:	0.032	Yaw Set Point:	-2.936	X_WP:	0.000	Y_WP:	0.000	Y_WP:	0.500	X:	0.163	Y:	0.066	Z:	0.405	yaw:	168.225	yaw rate:	-4.364	Roll:	-4.756	Pitch:	-3.545	Yaw:	235.722	Thrust:	45.554
Time:	5.794	Roll Set Point:	-0.017	Pitch Set Point:	0.032	Yaw Set Point:	-2.937	X_WP:	0.000	Y_WP:	0.000	Y_WP:	0.500	X:	0.163	Y:	0.066	Z:	0.404	yaw:	168.262	yaw rate:	3.755	Roll:	-4.845	Pitch:	-3.357	Yaw:	237.130	Thrust:	46.080
Time:	5.810	Roll Set Point:	-0.017	Pitch Set Point:	0.032	Yaw Set Point:	-2.937	X_WP:	0.000	Y_WP:	0.000	Y_WP:	0.500	X:	0.163	Y:	0.066	Z:	0.404	yaw:	168.271	yaw rate:	0.889	Roll:	-4.849	Pitch:	-3.362	Yaw:	236.661	Thrust:	46.025
Time:	5.826	Roll Set Point:	-0.017	Pitch Set Point:	0.032	Yaw Set Point:	-2.937	X_WP:	0.000	Y_WP:	0.000	Y_WP:	0.500	X:	0.163	Y:	0.066	Z:	0.404	yaw:	168.271	yaw rate:	0.889	Roll:	-4.812	Pitch:	-3.424	Yaw:	236.514	Thrust:	46.278
Time:	5.841	Roll Set Point:	-0.017	Pitch Set Point:	0.032	Yaw Set Point:	-2.937	X_WP:	0.000	Y_WP:	0.000	Y_WP:	0.500	X:	0.163	Y:	0.066	Z:	0.404	yaw:	168.260	yaw rate:	-1.910	Roll:	-4.796	Pitch:	-3.478	Yaw:	236.312	Thrust:	46.519
Time:	5.857	Roll Set Point:	-0.017	Pitch Set Point:	0.032	Yaw Set Point:	-2.936	X_WP:	0.000	Y_WP:	0.000	Y_WP:	0.500	X:	0.163	Y:	0.066	Z:	0.404	yaw:	168.222	yaw rate:	-3.792	Roll:	-4.737	Pitch:	-3.516	Yaw:	235.805	Thrust:	46.469
Time:	5.872	Roll Set Point:	-0.017	Pitch Set Point:	0.032	Yaw Set Point:	-2.937	X_WP:	0.000	Y_WP:	0.000	Y_WP:	0.500	X:	0.163	Y:	0.066	Z:	0.404	yaw:	168.253	yaw rate:	3.102	Roll:	-4.852	Pitch:	-3.290	Yaw:	237.008	Thrust:	46.785
Time:	5.888	Roll Set Point:	-0.017	Pitch Set Point:	0.032	Yaw Set Point:	-2.937	X_WP:	0.000	Y_WP:	0.000	Y_WP:	0.500	X:	0.163	Y:	0.066	Z:	0.404	yaw:	168.253	yaw rate:	3.102	Roll:	-4.811	Pitch:	-3.424	Yaw:	236.488	Thrust:	46.986
Time:	5.904	Roll Set Point:	-0.017	Pitch Set Point:	0.032	Yaw Set Point:	-2.936	X_WP:	0.000	Y_WP:	0.000	Y_WP:	0.500	X:	0.163	Y:	0.066	Z:	0.404	yaw:	168.238	yaw rate:	-2.623	Roll:	-4.809	Pitch:	-3.568	Yaw:	236.212	Thrust:	47.367
Time:	5.919	Roll Set Point:	-0.017	Pitch Set Point:	0.032	Yaw Set Point:	-2.936	X_WP:	0.000	Y_WP:	0.000	Y_WP:	0.500	X:	0.163	Y:	0.066	Z:	0.405	yaw:	168.245	yaw rate:	0.698	Roll:	-4.806	Pitch:	-3.317	Yaw:	236.593	Thrust:	47.186
Time:	5.935	Roll Set Point:	-0.017	Pitch Set Point:	0.032	Yaw Set Point:	-2.937	X_WP:	0.000	Y_WP:	0.000	Y_WP:	0.500	X:	0.163	Y:	0.066	Z:	0.404	yaw:	168.272	yaw rate:	2.745	Roll:	-4.852	Pitch:	-3.367	Yaw:	236.975	Thrust:	47.747
Time:	5.951	Roll Set Point:	-0.017	Pitch Set Point:	0.032	Yaw Set Point:	-2.936	X_WP:	0.000	Y_WP:	0.000	Y_WP:	0.500	X:	0.163	Y:	0.066	Z:	0.404	yaw:	168.245	yaw rate:	-2.672	Roll:	-4.772	Pitch:	-3.519	Yaw:	236.026	Thrust:	47.549
Time:	5.966	Roll Set Point:	-0.017	Pitch Set Point:	0.032	Yaw Set Point:	-2.936	X_WP:	0.000	Y_WP:	0.000	Y_WP:	0.500	X:	0.163	Y:	0.066	Z:	0.404	yaw:	168.210	yaw rate:	-3.519	Roll:	-4.727	Pitch:	-3.470	Yaw:	235.839	Thrust:	47.822
Time:	5.982	Roll Set Point:	-0.017	Pitch Set Point:	0.032	Yaw Set Point:	-2.937	X_WP:	0.000	Y_WP:	0.000	Y_WP:	0.500	X:	0.163	Y:	0.066	Z:	0.404	yaw:	168.263	yaw rate:	5.282	Roll:	-4.928	Pitch:	-3.368	Yaw:	237.387	Thrust:	48.147
Time:	5.998	Roll Set Point:	-0.017	Pitch Set Point:	0.032	Yaw Set Point:	-2.937	X_WP:	0.000	Y_WP:	0.000	Y_WP:	0.500	X:	0.163	Y:	0.066	Z:	0.404	yaw:	168.273	yaw rate:	1.056	Roll:	-4.837	Pitch:	-3.321	Yaw:	236.694	Thrust:	48.228
Time:	6.013	Roll Set Point:	-0.162	Pitch Set Point:	-0.129	Yaw Set Point:	-2.937	X_WP:	0.175	Y_WP:	0.127	Y_WP:	0.500	X:	0.163	Y:	0.066	Z:	0.404	yaw:	168.273	yaw rate:	1.056	Roll:	30.000	Pitch:	30.000	Yaw:	236.517	Thrust:	48.418
Time:	6.029	Roll Set Point:	-0.162	Pitch Set Point:	-0.129	Yaw Set Point:	-2.937	X_WP:	0.175	Y_WP:	0.127	Y_WP:	0.500	X:	0.163	Y:	0.066	Z:	0.405	yaw:	168.249	yaw rate:	-2.401	Roll:	-0.627	Pitch:	1.227	Yaw:	236.092	Thrust:	48.682
Time:	6.044	Roll Set Point:	-0.162	Pitch Set Point:	-0.129	Yaw Set Point:	-2.937	X_WP:	0.175	Y_WP:	0.127	Y_WP:	0.500	X:	0.163	Y:	0.066	Z:	0.404	yaw:	168.268	yaw rate:	-0.003	Roll:	-0.582	Pitch:	1.224	Yaw:	236.821	Thrust:	48.891
Time:	6.060	Roll Set Point:	-0.162	Pitch Set Point:	-0.129	Yaw Set Point:	-2.937	X_WP:	0.175	Y_WP:	0.127	Y_WP:	0.500	X:	0.163	Y:	0.066	Z:	0.404	yaw:	168.277	yaw rate:	0.867	Roll:	-0.570	Pitch:	1.236	Yaw:	236.659	Thrust:	48.695
Time:	6.076	Roll Set Point:	-0.162	Pitch Set Point:	-0.129	Yaw Set Point:	-2.937	X_WP:	0.175	Y_WP:	0.127	Y_WP:	0.500	X:	0.163	Y:	0.066	Z:	0.404	yaw:	168.273	yaw rate:	-0.345	Roll:	-0.614	Pitch:	1.231	Yaw:	236.459	Thrust:	49.186
Time:	6.091	Roll Set Point:	-0.162	Pitch Set Point:	-0.129	Yaw Set Point:	-2.936	X_WP:	0.175	Y_WP:	0.127	Y_WP:	0.500	X:	0.163	Y:	0.066	Z:	0.404	yaw:	168.242	yaw rate:	-3.109	Roll:	-0.636	Pitch:	1.237	Yaw:	235.953	Thrust:	49.298
Time:	6.107	Roll Set Point:	-0.162	Pitch Set Point:	-0.129	Yaw Set Point:	-2.936	X_WP:	0.175	Y_WP:	0.127	Y_WP:	0.500	X:	0.163	Y:	0.066	Z:	0.405	yaw:	168.240	yaw rate:	-0.242	Roll:	-0.580	Pitch:	1.235	Yaw:	236.429	Thrust:	49.359
Time:	6.123	Roll Set Point:	-0.162	Pitch Set Point:	-0.129	Yaw Set Point:	-2.937	X_WP:	0.175	Y_WP:	0.127	Y_WP:	0.500	X:	0.163	Y:	0.066	Z:	0.404	yaw:	168.287	yaw rate:	4.721	Roll:	-0.557	Pitch:	1.241	Yaw:	237.327	Thrust:	50.029
Time:	6.138	Roll Set Point:	-0.162	Pitch Set Point:	-0.129	Yaw Set Point:	-2.937	X_WP:	0.175	Y_WP:	0.127	Y_WP:	0.500	X:	0.163	Y:	0.066	Z:	0.405	yaw:	168.256	yaw rate:	-3.123	Roll:	-0.620	Pitch:	1.243	Yaw:	235.969	Thrust:	49.550
Time:	6.154	Roll Set Point:	-0.162	Pitch Set Point:	-0.129	Yaw Set Point:	-2.937	X_WP:	0.175	Y_WP:	0.127	Y_WP:	0.500	X:	0.163	Y:	0.066	Z:	0.404	yaw:	168.251	yaw rate:	-0.436	Roll:	-0.620	Pitch:	1.244	Yaw:	236.413	Thrust:	50.161
Time:	6.169	Roll Set Point:	-0.162	Pitch Set Point:	-0.129	Yaw Set Point:	-2.936	X_WP:	0.175	Y_WP:	0.127	Y_WP:	0.500	X:	0.163	Y:	0.066	Z:	0.404	yaw:	168.230	yaw rate:	-2.140	Roll:	-0.609	Pitch:	1.248	Yaw:	236.098	Thrust:	50.179
Time:	6.185	Roll Set Point:	-0.162	Pitch Set Point:	-0.129	Yaw Set Point:	-2.937	X_WP:	0.175	Y_WP:	0.127	Y_WP:	0.500	X:	0.163	Y:	0.066	Z:	0.404	yaw:	168.262	yaw rate:	3.158	Roll:	-0.557	Pitch:	1.253	Yaw:	237.029	Thrust:	50.459
Time:	6.201	Roll Set Point:	-0.162	Pitch Set Point:	-0.129	Yaw Set Point:	-2.937	X_WP:	0.175	Y_WP:	0.127	Y_WP:	0.500	X:	0.163	Y:	0.066	Z:	0.404	yaw:	168.262	yaw rate:	3.158	Roll:	-0.597	Pitch:	1.251	Yaw:	236.503	Thrust:	50.660
Time:	6.216	Roll Set Point:	-0.162	Pitch Set Point:	-0.129	Yaw Set Point:	-2.936	X_WP:	0.175	Y_WP:	0.127	Y_WP:	0.500	X:	0.163	Y:	0.066	Z:	0.404	yaw:	168.246	yaw rate:	0.237	Roll:	-0.623	Pitch:	1.251	Yaw:	236.220	Thrust:	50.702
Time:	6.232	Roll Set Point:	-0.162	Pitch Set Point:	-0.129	Yaw Set Point:	-2.936	X_WP:	0.175	Y_WP:	0.127	Y_WP:	0.500	X:	0.163	Y:	0.066	Z:	0.404	yaw:	168.246	yaw rate:	0.237	Roll:	-0.595	Pitch:	1.258	Yaw:	236.476	Thrust:	50.848
Time:	6.248	Roll Set Point:	-0.162	Pitch Set Point:	-0.129	Yaw Set Point:	-2.937	X_WP:	0.175	Y_WP:	0.127	Y_WP:	0.500	X:	0.163	Y:	0.066	Z:	0.404	yaw:	168.256	yaw rate:	0.867	Roll:	-0.578	Pitch:	1.261	Yaw:	236.663	Thrust:	51.065
Time:	6.263	Roll Set Point:	-0.162	Pitch Set Point:	-0.129	Yaw Set Point:	-2.937	X_WP:	0.175	Y_WP:	0.127	Y_WP:	0.500	X:	0.163	Y:	0.066	Z:	0.404	yaw:	168.256	yaw rate:	-0.062	Roll:	-0.594	Pitch:	1.263	Yaw:	236.482	Thrust:	51.385
Time:	6.279	Roll Set Point:	-0.162	Pitch Set Point:	-0.129	Yaw Set Point:	-2.937	X_WP:	0.175	Y_WP:	0.127	Y_WP:	0.500	X:	0.163	Y:	0.066	Z:	0.404	yaw:	168.256	yaw rate:	-0.062	Roll:	-0.596	Pitch:	1.264	Yaw:	236.495	Thrust:	51.549
Time:	6.294	Roll Set Point:	-0.162	Pitch Set Point:	-0.129	Yaw Set Point:	-2.937	X_WP:	0.175	Y_WP:	0.127	Y_WP:	0.500	X:	0.163	Y:	0.066	Z:	0.404	yaw:	168.260	yaw rate:	0.859	Roll:	-0.605	Pitch:	1.267	Yaw:	236.560	Thrust:	51.638
Time:	6.310	Roll Set Point:	-0.162	Pitch Set Point:	-0.129	Yaw Set Point:	-2.936	X_WP:	0.175	Y_WP:	0.127	Y_WP:	0.500	X:	0.163	Y:	0.066	Z:	0.405	yaw:	168.243	yaw rate:	-1.621	Roll:	-0.596	Pitch:	1.266	Yaw:	236.203	Thrust:	51.634
Time:	6.326	Roll Set Point:	-0.162	Pitch Set Point:	-0.129	Yaw Set Point:	-2.936	X_WP:	0.175	Y_WP:	0.127	Y_WP:	0.500	X:	0.163	Y:	0.066	Z:	0.405	yaw:	168.243	yaw rate:	-1.621	Roll:	-0.597	Pitch:	1.271	Yaw:	236.478	Thrust:	52.093
Time:	6.341	Roll Set Point:	-0.162	Pitch Set Point:	-0.129	Yaw Set Point:	-2.937	X_WP:	0.175	Y_WP:	0.127	Y_WP:	0.500	X:	0.163	Y:	0.066	Z:	0.404	yaw:	168.264	yaw rate:	2.415	Roll:	-0.584	Pitch:	1.277	Yaw:	236.852	Thrust:	52.139
