Time:	2.035	Roll Set Point:	0.046	Pitch Set Point:	-0.118	Yaw Set Point:	-0.341	X_WP:	0.100	Y_WP:	0.000	Y_WP:	0.500	X:	0.017	Y:	0.046	Z:	0.057	yaw:	19.553	yaw rate:	0.120	Roll:	-1.820	Pitch:	2.075	Yaw:	27.302	Thrust:	24.384
Time:	2.048	Roll Set Point:	0.046	Pitch Set Point:	-0.118	Yaw Set Point:	-0.341	X_WP:	0.100	Y_WP:	0.000	Y_WP:	0.500	X:	0.017	Y:	0.046	Z:	0.057	yaw:	19.551	yaw rate:	-0.201	Roll:	-1.800	Pitch:	2.082	Yaw:	27.343	Thrust:	25.172
Time:	2.060	Roll Set Point:	0.046	Pitch Set Point:	-0.118	Yaw Set Point:	-0.341	X_WP:	0.100	Y_WP:	0.000	Y_WP:	0.500	X:	0.017	Y:	0.046	Z:	0.057	yaw:	19.549	yaw rate:	-0.632	Roll:	-1.841	Pitch:	2.069	Yaw:	27.397	Thrust:	25.582
Time:	2.071	Roll Set Point:	0.046	Pitch Set Point:	-0.118	Yaw Set Point:	-0.340	X_WP:	0.100	Y_WP:	0.000	Y_WP:	0.500	X:	0.017	Y:	0.046	Z:	0.057	yaw:	19.453	yaw rate:	-9.540	Roll:	-2.086	Pitch:	1.859	Yaw:	25.124	Thrust:	25.991
Time:	2.087	Roll Set Point:	0.046	Pitch Set Point:	-0.118	Yaw Set Point:	-0.339	X_WP:	0.100	Y_WP:	0.000	Y_WP:	0.500	X:	0.017	Y:	0.046	Z:	0.057	yaw:	19.413	yaw rate:	-3.989	Roll:	-1.785	Pitch:	2.108	Yaw:	26.895	Thrust:	27.941
Time:	2.099	Roll Set Point:	0.046	Pitch Set Point:	-0.118	Yaw Set Point:	-0.341	X_WP:	0.100	Y_WP:	0.000	Y_WP:	0.500	X:	0.017	Y:	0.046	Z:	0.057	yaw:	19.565	yaw rate:	15.172	Roll:	-1.756	Pitch:	2.127	Yaw:	31.126	Thrust:	27.462
Time:	2.111	Roll Set Point:	0.046	Pitch Set Point:	-0.118	Yaw Set Point:	-0.339	X_WP:	0.100	Y_WP:	0.000	Y_WP:	0.500	X:	0.017	Y:	0.046	Z:	0.057	yaw:	19.442	yaw rate:	-12.313	Roll:	-1.980	Pitch:	1.995	Yaw:	24.958	Thrust:	28.003
Time:	2.129	Roll Set Point:	0.046	Pitch Set Point:	-0.118	Yaw Set Point:	-0.338	X_WP:	0.100	Y_WP:	0.000	Y_WP:	0.500	X:	0.017	Y:	0.047	Z:	0.057	yaw:	19.366	yaw rate:	-12.155	Roll:	-1.752	Pitch:	2.103	Yaw:	26.799	Thrust:	31.187
Time:	2.141	Roll Set Point:	0.046	Pitch Set Point:	-0.118	Yaw Set Point:	-0.340	X_WP:	0.100	Y_WP:	0.000	Y_WP:	0.500	X:	0.017	Y:	0.046	Z:	0.057	yaw:	19.479	yaw rate:	11.295	Roll:	-1.786	Pitch:	2.015	Yaw:	30.427	Thrust:	29.763
Time:	2.156	Roll Set Point:	0.046	Pitch Set Point:	-0.118	Yaw Set Point:	-0.339	X_WP:	0.100	Y_WP:	0.000	Y_WP:	0.500	X:	0.017	Y:	0.046	Z:	0.057	yaw:	19.451	yaw rate:	-2.830	Roll:	-1.977	Pitch:	2.140	Yaw:	27.496	Thrust:	31.006
Time:	2.166	Roll Set Point:	0.046	Pitch Set Point:	-0.118	Yaw Set Point:	-0.340	X_WP:	0.100	Y_WP:	0.000	Y_WP:	0.500	X:	0.017	Y:	0.046	Z:	0.057	yaw:	19.504	yaw rate:	5.311	Roll:	-1.737	Pitch:	2.044	Yaw:	29.240	Thrust:	30.541
Time:	2.185	Roll Set Point:	0.046	Pitch Set Point:	-0.118	Yaw Set Point:	-0.339	X_WP:	0.100	Y_WP:	0.000	Y_WP:	0.500	X:	0.017	Y:	0.046	Z:	0.057	yaw:	19.447	yaw rate:	-5.703	Roll:	-1.925	Pitch:	2.150	Yaw:	27.740	Thrust:	34.871
Time:	2.196	Roll Set Point:	0.046	Pitch Set Point:	-0.117	Yaw Set Point:	-0.338	X_WP:	0.100	Y_WP:	0.000	Y_WP:	0.500	X:	0.017	Y:	0.046	Z:	0.057	yaw:	19.390	yaw rate:	-5.537	Roll:	-1.960	Pitch:	1.727	Yaw:	26.718	Thrust:	32.144
Time:	2.208	Roll Set Point:	0.046	Pitch Set Point:	-0.117	Yaw Set Point:	-0.339	X_WP:	0.100	Y_WP:	0.000	Y_WP:	0.500	X:	0.017	Y:	0.046	Z:	0.057	yaw:	19.402	yaw rate:	1.240	Roll:	-1.831	Pitch:	2.190	Yaw:	28.425	Thrust:	32.571
Time:	2.221	Roll Set Point:	0.046	Pitch Set Point:	-0.118	Yaw Set Point:	-0.340	X_WP:	0.100	Y_WP:	0.000	Y_WP:	0.500	X:	0.017	Y:	0.046	Z:	0.057	yaw:	19.504	yaw rate:	10.170	Roll:	-1.727	Pitch:	2.434	Yaw:	30.589	Thrust:	33.427
Time:	2.232	Roll Set Point:	0.046	Pitch Set Point:	-0.118	Yaw Set Point:	-0.339	X_WP:	0.100	Y_WP:	0.000	Y_WP:	0.500	X:	0.017	Y:	0.046	Z:	0.057	yaw:	19.435	yaw rate:	-6.906	Roll:	-1.850	Pitch:	1.968	Yaw:	26.484	Thrust:	32.710
Time:	2.243	Roll Set Point:	0.046	Pitch Set Point:	-0.118	Yaw Set Point:	-0.340	X_WP:	0.100	Y_WP:	0.000	Y_WP:	0.500	X:	0.017	Y:	0.046	Z:	0.057	yaw:	19.475	yaw rate:	3.981	Roll:	-1.824	Pitch:	2.221	Yaw:	29.261	Thrust:	34.661
Time:	2.262	Roll Set Point:	0.046	Pitch Set Point:	-0.118	Yaw Set Point:	-0.340	X_WP:	0.100	Y_WP:	0.000	Y_WP:	0.500	X:	0.017	Y:	0.046	Z:	0.057	yaw:	19.487	yaw rate:	1.248	Roll:	-1.821	Pitch:	2.066	Yaw:	29.196	Thrust:	40.874
Time:	2.272	Roll Set Point:	0.046	Pitch Set Point:	-0.118	Yaw Set Point:	-0.339	X_WP:	0.100	Y_WP:	0.000	Y_WP:	0.500	X:	0.017	Y:	0.046	Z:	0.057	yaw:	19.450	yaw rate:	-3.738	Roll:	-1.990	Pitch:	2.108	Yaw:	27.281	Thrust:	33.876
Time:	2.285	Roll Set Point:	0.046	Pitch Set Point:	-0.118	Yaw Set Point:	-0.339	X_WP:	0.100	Y_WP:	0.000	Y_WP:	0.500	X:	0.017	Y:	0.046	Z:	0.057	yaw:	19.419	yaw rate:	-0.846	Roll:	-1.980	Pitch:	2.033	Yaw:	27.803	Thrust:	37.655
Time:	2.298	Roll Set Point:	0.046	Pitch Set Point:	-0.118	Yaw Set Point:	-0.338	X_WP:	0.100	Y_WP:	0.000	Y_WP:	0.500	X:	0.017	Y:	0.046	Z:	0.057	yaw:	19.369	yaw rate:	-4.969	Roll:	-1.834	Pitch:	2.116	Yaw:	27.438	Thrust:	37.875
Time:	2.316	Roll Set Point:	0.046	Pitch Set Point:	-0.118	Yaw Set Point:	-0.339	X_WP:	0.100	Y_WP:	0.000	Y_WP:	0.500	X:	0.017	Y:	0.046	Z:	0.057	yaw:	19.440	yaw rate:	7.114	Roll:	-1.785	Pitch:	2.254	Yaw:	29.961	Thrust:	43.422
Time:	2.328	Roll Set Point:	0.046	Pitch Set Point:	-0.118	Yaw Set Point:	-0.340	X_WP:	0.100	Y_WP:	0.000	Y_WP:	0.500	X:	0.017	Y:	0.046	Z:	0.057	yaw:	19.458	yaw rate:	-1.696	Roll:	-1.928	Pitch:	2.075	Yaw:	28.767	Thrust:	40.096
Time:	2.340	Roll Set Point:	0.046	Pitch Set Point:	-0.118	Yaw Set Point:	-0.339	X_WP:	0.100	Y_WP:	0.000	Y_WP:	0.500	X:	0.017	Y:	0.046	Z:	0.057	yaw:	19.433	yaw rate:	-2.570	Roll:	-1.892	Pitch:	2.061	Yaw:	27.848	Thrust:	38.216
Time:	2.352	Roll Set Point:	0.046	Pitch Set Point:	-0.118	Yaw Set Point:	-0.340	X_WP:	0.100	Y_WP:	0.000	Y_WP:	0.500	X:	0.017	Y:	0.046	Z:	0.057	yaw:	19.458	yaw rate:	2.513	Roll:	-1.775	Pitch:	2.155	Yaw:	28.919	Thrust:	41.368
Time:	2.365	Roll Set Point:	0.046	Pitch Set Point:	-0.118	Yaw Set Point:	-0.341	X_WP:	0.100	Y_WP:	0.000	Y_WP:	0.500	X:	0.017	Y:	0.046	Z:	0.057	yaw:	19.532	yaw rate:	7.371	Roll:	-1.862	Pitch:	2.212	Yaw:	30.077	Thrust:	40.015
Time:	2.380	Roll Set Point:	0.046	Pitch Set Point:	-0.118	Yaw Set Point:	-0.340	X_WP:	0.100	Y_WP:	0.000	Y_WP:	0.500	X:	0.017	Y:	0.046	Z:	0.057	yaw:	19.483	yaw rate:	-4.884	Roll:	-1.936	Pitch:	2.082	Yaw:	27.859	Thrust:	45.209
Time:	2.394	Roll Set Point:	0.046	Pitch Set Point:	-0.118	Yaw Set Point:	-0.340	X_WP:	0.100	Y_WP:	0.000	Y_WP:	0.500	X:	0.017	Y:	0.046	Z:	0.057	yaw:	19.463	yaw rate:	3.423	Roll:	-1.927	Pitch:	2.139	Yaw:	28.282	Thrust:	45.467
Time:	2.406	Roll Set Point:	0.046	Pitch Set Point:	-0.117	Yaw Set Point:	-0.339	X_WP:	0.100	Y_WP:	0.000	Y_WP:	0.500	X:	0.017	Y:	0.046	Z:	0.057	yaw:	19.397	yaw rate:	-6.619	Roll:	-1.962	Pitch:	1.713	Yaw:	26.847	Thrust:	40.550
Time:	2.418	Roll Set Point:	0.046	Pitch Set Point:	-0.118	Yaw Set Point:	-0.339	X_WP:	0.100	Y_WP:	0.000	Y_WP:	0.500	X:	0.017	Y:	0.046	Z:	0.057	yaw:	19.401	yaw rate:	0.413	Roll:	-1.863	Pitch:	2.450	Yaw:	28.383	Thrust:	44.454
Time:	2.429	Roll Set Point:	0.046	Pitch Set Point:	-0.118	Yaw Set Point:	-0.339	X_WP:	0.100	Y_WP:	0.000	Y_WP:	0.500	X:	0.017	Y:	0.046	Z:	0.057	yaw:	19.419	yaw rate:	1.769	Roll:	-1.868	Pitch:	2.087	Yaw:	28.607	Thrust:	41.019
Time:	2.440	Roll Set Point:	0.046	Pitch Set Point:	-0.118	Yaw Set Point:	-0.340	X_WP:	0.100	Y_WP:	0.000	Y_WP:	0.500	X:	0.017	Y:	0.046	Z:	0.057	yaw:	19.491	yaw rate:	7.220	Roll:	-1.812	Pitch:	2.235	Yaw:	30.012	Thrust:	41.836
Time:	2.454	Roll Set Point:	0.046	Pitch Set Point:	-0.118	Yaw Set Point:	-0.340	X_WP:	0.100	Y_WP:	0.000	Y_WP:	0.500	X:	0.017	Y:	0.046	Z:	0.057	yaw:	19.478	yaw rate:	-1.297	Roll:	-1.846	Pitch:	2.175	Yaw:	28.304	Thrust:	49.193
Time:	2.466	Roll Set Point:	0.046	Pitch Set Point:	-0.118	Yaw Set Point:	-0.338	X_WP:	0.100	Y_WP:	0.000	Y_WP:	0.500	X:	0.017	Y:	0.046	Z:	0.057	yaw:	19.354	yaw rate:	-12.398	Roll:	-2.077	Pitch:	1.951	Yaw:	25.419	Thrust:	44.874
Time:	2.484	Roll Set Point:	0.046	Pitch Set Point:	-0.118	Yaw Set Point:	-0.338	X_WP:	0.100	Y_WP:	0.000	Y_WP:	0.500	X:	0.017	Y:	0.046	Z:	0.057	yaw:	19.374	yaw rate:	2.012	Roll:	-1.882	Pitch:	2.135	Yaw:	29.068	Thrust:	53.477
Time:	2.496	Roll Set Point:	0.046	Pitch Set Point:	-0.118	Yaw Set Point:	-0.338	X_WP:	0.100	Y_WP:	0.000	Y_WP:	0.500	X:	0.017	Y:	0.046	Z:	0.057	yaw:	19.360	yaw rate:	-3.160	Roll:	-1.890	Pitch:	2.209	Yaw:	28.049	Thrust:	50.477
Time:	2.507	Roll Set Point:	0.046	Pitch Set Point:	-0.118	Yaw Set Point:	-0.338	X_WP:	0.100	Y_WP:	0.000	Y_WP:	0.500	X:	0.017	Y:	0.046	Z:	0.057	yaw:	19.364	yaw rate:	0.363	Roll:	-1.883	Pitch:	2.094	Yaw:	28.180	Thrust:	44.598
Time:	2.520	Roll Set Point:	0.046	Pitch Set Point:	-0.118	Yaw Set Point:	-0.338	X_WP:	0.100	Y_WP:	0.000	Y_WP:	0.500	X:	0.017	Y:	0.046	Z:	0.057	yaw:	19.386	yaw rate:	2.178	Roll:	-1.921	Pitch:	2.189	Yaw:	28.879	Thrust:	51.997
Time:	2.533	Roll Set Point:	0.046	Pitch Set Point:	-0.118	Yaw Set Point:	-0.339	X_WP:	0.100	Y_WP:	0.000	Y_WP:	0.500	X:	0.017	Y:	0.046	Z:	0.057	yaw:	19.433	yaw rate:	4.761	Roll:	-1.854	Pitch:	2.227	Yaw:	29.368	Thrust:	47.531
Time:	2.545	Roll Set Point:	0.046	Pitch Set Point:	-0.118	Yaw Set Point:	-0.339	X_WP:	0.100	Y_WP:	0.000	Y_WP:	0.500	X:	0.017	Y:	0.046	Z:	0.057	yaw:	19.408	yaw rate:	-2.504	Roll:	-2.016	Pitch:	2.039	Yaw:	27.899	Thrust:	49.295
Time:	2.556	Roll Set Point:	0.046	Pitch Set Point:	-0.118	Yaw Set Point:	-0.338	X_WP:	0.100	Y_WP:	0.000	Y_WP:	0.500	X:	0.017	Y:	0.046	Z:	0.057	yaw:	19.381	yaw rate:	-2.739	Roll:	-1.919	Pitch:	2.190	Yaw:	27.596	Thrust:	50.850
Time:	2.568	Roll Set Point:	0.047	Pitch Set Point:	-0.117	Yaw Set Point:	-0.335	X_WP:	0.100	Y_WP:	0.000	Y_WP:	0.500	X:	0.017	Y:	0.046	Z:	0.057	yaw:	19.200	yaw rate:	-18.082	Roll:	-2.425	Pitch:	1.800	Yaw:	23.857	Thrust:	49.768
Time:	2.586	Roll Set Point:	0.047	Pitch Set Point:	-0.117	Yaw Set Point:	-0.333	X_WP:	0.100	Y_WP:	0.000	Y_WP:	0.500	X:	0.017	Y:	0.046	Z:	0.057	yaw:	19.067	yaw rate:	-13.273	Roll:	-2.116	Pitch:	1.916	Yaw:	26.617	Thrust:	64.951
Time:	2.598	Roll Set Point:	0.047	Pitch Set Point:	-0.117	Yaw Set Point:	-0.331	X_WP:	0.100	Y_WP:	0.000	Y_WP:	0.500	X:	0.017	Y:	0.046	Z:	0.057	yaw:	18.957	yaw rate:	-15.291	Roll:	-2.224	Pitch:	2.020	Yaw:	25.125	Thrust:	51.411
Time:	2.617	Roll Set Point:	0.047	Pitch Set Point:	-0.117	Yaw Set Point:	-0.331	X_WP:	0.100	Y_WP:	0.000	Y_WP:	0.500	X:	0.017	Y:	0.046	Z:	0.057	yaw:	18.994	yaw rate:	3.644	Roll:	-1.785	Pitch:	2.201	Yaw:	28.722	Thrust:	58.137
Time:	2.632	Roll Set Point:	0.047	Pitch Set Point:	-0.117	Yaw Set Point:	-0.326	X_WP:	0.100	Y_WP:	0.000	Y_WP:	0.500	X:	0.017	Y:	0.046	Z:	0.057	yaw:	18.686	yaw rate:	-9.878	Roll:	-2.027	Pitch:	1.934	Yaw:	23.260	Thrust:	70.361
Time:	2.652	Roll Set Point:	0.047	Pitch Set Point:	-0.117	Yaw Set Point:	-0.322	X_WP:	0.100	Y_WP:	0.000	Y_WP:	0.500	X:	0.017	Y:	0.046	Z:	0.057	yaw:	18.433	yaw rate:	-25.306	Roll:	-2.178	Pitch:	2.099	Yaw:	24.576	Thrust:	73.432
Time:	2.667	Roll Set Point:	0.047	Pitch Set Point:	-0.117	Yaw Set Point:	-0.315	X_WP:	0.100	Y_WP:	0.000	Y_WP:	0.500	X:	0.017	Y:	0.047	Z:	0.057	yaw:	18.054	yaw rate:	-31.019	Roll:	-2.140	Pitch:	1.828	Yaw:	19.838	Thrust:	61.895
Time:	2.686	Roll Set Point:	0.047	Pitch Set Point:	-0.117	Yaw Set Point:	-0.302	X_WP:	0.100	Y_WP:	0.000	Y_WP:	0.500	X:	0.018	Y:	0.047	Z:	0.057	yaw:	17.278	yaw rate:	-36.800	Roll:	-2.535	Pitch:	1.656	Yaw:	15.389	Thrust:	71.648
Time:	2.698	Roll Set Point:	0.047	Pitch Set Point:	-0.117	Yaw Set Point:	-0.296	X_WP:	0.100	Y_WP:	0.000	Y_WP:	0.500	X:	0.018	Y:	0.047	Z:	0.057	yaw:	16.949	yaw rate:	-32.916	Roll:	-2.166	Pitch:	1.801	Yaw:	17.348	Thrust:	55.787
Time:	2.709	Roll Set Point:	0.047	Pitch Set Point:	-0.117	Yaw Set Point:	-0.291	X_WP:	0.100	Y_WP:	0.000	Y_WP:	0.500	X:	0.018	Y:	0.047	Z:	0.057	yaw:	16.697	yaw rate:	-25.231	Roll:	-2.027	Pitch:	1.790	Yaw:	19.034	Thrust:	55.814
Time:	2.723	Roll Set Point:	0.047	Pitch Set Point:	-0.116	Yaw Set Point:	-0.282	X_WP:	0.100	Y_WP:	0.000	Y_WP:	0.500	X:	0.018	Y:	0.048	Z:	0.057	yaw:	16.156	yaw rate:	-54.092	Roll:	-2.423	Pitch:	1.720	Yaw:	13.886	Thrust:	62.424
Time:	2.734	Roll Set Point:	0.047	Pitch Set Point:	-0.116	Yaw Set Point:	-0.263	X_WP:	0.100	Y_WP:	0.000	Y_WP:	0.500	X:	0.019	Y:	0.048	Z:	0.058	yaw:	15.096	yaw rate:	-106.009	Roll:	-3.169	Pitch:	0.729	Yaw:	-2.984	Thrust:	52.333
Time:	2.755	Roll Set Point:	0.047	Pitch Set Point:	-0.116	Yaw Set Point:	-0.253	X_WP:	0.100	Y_WP:	0.000	Y_WP:	0.500	X:	0.019	Y:	0.049	Z:	0.058	yaw:	14.494	yaw rate:	-60.140	Roll:	-2.420	Pitch:	1.683	Yaw:	14.634	Thrust:	81.404
Time:	2.766	Roll Set Point:	0.047	Pitch Set Point:	-0.116	Yaw Set Point:	-0.241	X_WP:	0.100	Y_WP:	0.000	Y_WP:	0.500	X:	0.019	Y:	0.049	Z:	0.059	yaw:	13.826	yaw rate:	-66.786	Roll:	-2.435	Pitch:	1.232	Yaw:	4.559	Thrust:	54.109
Time:	2.779	Roll Set Point:	0.047	Pitch Set Point:	-0.115	Yaw Set Point:	-0.231	X_WP:	0.100	Y_WP:	0.000	Y_WP:	0.500	X:	0.020	Y:	0.049	Z:	0.059	yaw:	13.219	yaw rate:	-60.707	Roll:	-2.536	Pitch:	1.274	Yaw:	7.030	Thrust:	58.742
Time:	2.791	Roll Set Point:	0.047	Pitch Set Point:	-0.114	Yaw Set Point:	-0.206	X_WP:	0.100	Y_WP:	0.000	Y_WP:	0.500	X:	0.021	Y:	0.049	Z:	0.061	yaw:	11.798	yaw rate:	-142.176	Roll:	-2.979	Pitch:	0.004	Yaw:	-13.265	Thrust:	53.807
Time:	2.802	Roll Set Point:	0.047	Pitch Set Point:	-0.114	Yaw Set Point:	-0.193	X_WP:	0.100	Y_WP:	0.000	Y_WP:	0.500	X:	0.021	Y:	0.050	Z:	0.062	yaw:	11.085	yaw rate:	-71.208	Roll:	-2.744	Pitch:	0.781	Yaw:	-0.322	Thrust:	54.488
Time:	2.819	Roll Set Point:	0.047	Pitch Set Point:	-0.112	Yaw Set Point:	-0.163	X_WP:	0.100	Y_WP:	0.000	Y_WP:	0.500	X:	0.022	Y:	0.050	Z:	0.064	yaw:	9.352	yaw rate:	-72.703	Roll:	-2.839	Pitch:	0.155	Yaw:	-12.721	Thrust:	69.594
Time:	2.832	Roll Set Point:	0.047	Pitch Set Point:	-0.111	Yaw Set Point:	-0.149	X_WP:	0.100	Y_WP:	0.000	Y_WP:	0.500	X:	0.023	Y:	0.050	Z:	0.065	yaw:	8.535	yaw rate:	-81.719	Roll:	-2.635	Pitch:	0.622	Yaw:	-3.193	Thrust:	60.986
Time:	2.844	Roll Set Point:	0.046	Pitch Set Point:	-0.111	Yaw Set Point:	-0.132	X_WP:	0.100	Y_WP:	0.000	Y_WP:	0.500	X:	0.023	Y:	0.051	Z:	0.066	yaw:	7.573	yaw rate:	-96.145	Roll:	-2.476	Pitch:	0.537	Yaw:	-8.253	Thrust:	59.343
Time:	2.866	Roll Set Point:	0.045	Pitch Set Point:	-0.109	Yaw Set Point:	-0.090	X_WP:	0.100	Y_WP:	0.000	Y_WP:	0.500	X:	0.025	Y:	0.051	Z:	0.070	yaw:	5.175	yaw rate:	-78.156	Roll:	-2.741	Pitch:	-0.136	Yaw:	-19.031	Thrust:	84.103
Time:	2.888	Roll Set Point:	0.045	Pitch Set Point:	-0.107	Yaw Set Point:	-0.070	X_WP:	0.100	Y_WP:	0.000	Y_WP:	0.500	X:	0.026	Y:	0.051	Z:	0.072	yaw:	4.007	yaw rate:	-116.852	Roll:	-2.726	Pitch:	0.734	Yaw:	-6.069	Thrust:	92.702
Time:	2.900	Roll Set Point:	0.044	Pitch Set Point:	-0.106	Yaw Set Point:	-0.043	X_WP:	0.100	Y_WP:	0.000	Y_WP:	0.500	X:	0.027	Y:	0.051	Z:	0.075	yaw:	2.452	yaw rate:	-75.074	Roll:	-2.188	Pitch:	-0.495	Yaw:	-27.792	Thrust:	55.716
Time:	2.918	Roll Set Point:	0.043	Pitch Set Point:	-0.105	Yaw Set Point:	-0.030	X_WP:	0.100	Y_WP:	0.000	Y_WP:	0.500	X:	0.028	Y:	0.052	Z:	0.077	yaw:	1.738	yaw rate:	-71.459	Roll:	-2.086	Pitch:	0.973	Yaw:	-7.227	Thrust:	74.777
Time:	2.930	Roll Set Point:	0.040	Pitch Set Point:	-0.104	Yaw Set Point:	-0.001	X_WP:	0.100	Y_WP:	0.000	Y_WP:	0.500	X:	0.030	Y:	0.052	Z:	0.081	yaw:	0.082	yaw rate:	-75.826	Roll:	-1.734	Pitch:	-0.669	Yaw:	-31.827	Thrust:	54.437
Time:	2.944	Roll Set Point:	0.037	Pitch Set Point:	-0.103	Yaw Set Point:	0.023	X_WP:	0.100	Y_WP:	0.000	Y_WP:	0.500	X:	0.032	Y:	0.052	Z:	0.086	yaw:	-1.326	yaw rate:	-140.827	Roll:	-1.075	Pitch:	0.033	Yaw:	-27.734	Thrust:	54.457
Time:	2.959	Roll Set Point:	0.036	Pitch Set Point:	-0.102	Yaw Set Point:	0.037	X_WP:	0.100	Y_WP:	0.000	Y_WP:	0.500	X:	0.033	Y:	0.052	Z:	0.088	yaw:	-2.112	yaw rate:	-78.662	Roll:	-1.577	Pitch:	0.775	Yaw:	-15.667	Thrust:	66.344
Time:	2.970	Roll Set Point:	0.034	Pitch Set Point:	-0.102	Yaw Set Point:	0.049	X_WP:	0.100	Y_WP:	0.000	Y_WP:	0.500	X:	0.034	Y:	0.052	Z:	0.091	yaw:	-2.803	yaw rate:	-69.027	Roll:	-1.226	Pitch:	0.539	Yaw:	-17.744	Thrust:	55.557
Time:	2.985	Roll Set Point:	0.028	Pitch Set Point:	-0.102	Yaw Set Point:	0.064	X_WP:	0.100	Y_WP:	0.000	Y_WP:	0.500	X:	0.037	Y:	0.053	Z:	0.097	yaw:	-3.684	yaw rate:	-56.092	Roll:	0.971	Pitch:	1.085	Yaw:	-19.592	Thrust:	55.201
Time:	2.999	Roll Set Point:	0.026	Pitch Set Point:	-0.102	Yaw Set Point:	0.072	X_WP:	0.100	Y_WP:	0.000	Y_WP:	0.500	X:	0.039	Y:	0.053	Z:	0.100	yaw:	-4.097	yaw rate:	-41.235	Roll:	-0.993	Pitch:	1.284	Yaw:	-11.744	Thrust:	68.217
Time:	3.018	Roll Set Point:	0.021	Pitch Set Point:	-0.102	Yaw Set Point:	0.080	X_WP:	0.100	Y_WP:	0.000	Y_WP:	0.500	X:	0.042	Y:	0.053	Z:	0.106	yaw:	-4.597	yaw rate:	-15.897	Roll:	0.244	Pitch:	1.659	Yaw:	-11.482	Thrust:	78.672
Time:	3.032	Roll Set Point:	0.018	Pitch Set Point:	-0.102	Yaw Set Point:	0.088	X_WP:	0.100	Y_WP:	0.000	Y_WP:	0.500	X:	0.043	Y:	0.054	Z:	0.109	yaw:	-5.018	yaw rate:	-42.126	Roll:	-0.499	Pitch:	1.603	Yaw:	-13.550	Thrust:	63.055
Time:	3.047	Roll Set Point:	0.015	Pitch Set Point:	-0.103	Yaw Set Point:	0.092	X_WP:	0.100	Y_WP:	0.000	Y_WP:	0.500	X:	0.045	Y:	0.054	Z:	0.111	yaw:	-5.286	yaw rate:	-26.760	Roll:	0.022	Pitch:	1.750	Yaw:	-12.100	Thrust:	59.502
Time:	3.063	Roll Set Point:	0.009	Pitch Set Point:	-0.104	Yaw Set Point:	0.097	X_WP:	0.100	Y_WP:	0.000	Y_WP:	0.500	X:	0.048	Y:	0.054	Z:	0.117	yaw:	-5.544	yaw rate:	-30.004	Roll:	0.745	Pitch:	2.024	Yaw:	-9.711	Thrust:	78.372
Time:	3.074	Roll Set Point:	0.002	Pitch Set Point:	-0.104	Yaw Set Point:	0.102	X_WP:	0.100	Y_WP:	0.000	Y_WP:	0.500	X:	0.051	Y:	0.055	Z:	0.124	yaw:	-5.827	yaw rate:	-28.319	Roll:	3.324	Pitch:	2.352	Yaw:	-14.643	Thrust:	32.802
Time:	3.087	Roll Set Point:	-0.001	Pitch Set Point:	-0.105	Yaw Set Point:	0.102	X_WP:	0.100	Y_WP:	0.000	Y_WP:	0.500	X:	0.053	Y:	0.055	Z:	0.127	yaw:	-5.866	yaw rate:	-3.937	Roll:	0.392	Pitch:	2.042	Yaw:	-7.644	Thrust:	61.312
Time:	3.100	Roll Set Point:	-0.005	Pitch Set Point:	-0.106	Yaw Set Point:	0.103	X_WP:	0.100	Y_WP:	0.000	Y_WP:	0.500	X:	0.055	Y:	0.055	Z:	0.130	yaw:	-5.929	yaw rate:	-6.256	Roll:	0.762	Pitch:	2.182	Yaw:	-8.730	Thrust:	61.612
Time:	3.115	Roll Set Point:	-0.008	Pitch Set Point:	-0.106	Yaw Set Point:	0.103	X_WP:	0.100	Y_WP:	0.000	Y_WP:	0.500	X:	0.057	Y:	0.056	Z:	0.133	yaw:	-5.880	yaw rate:	4.924	Roll:	0.853	Pitch:	2.246	Yaw:	-6.107	Thrust:	71.469
Time:	3.128	Roll Set Point:	-0.016	Pitch Set Point:	-0.108	Yaw Set Point:	0.098	X_WP:	0.100	Y_WP:	0.000	Y_WP:	0.500	X:	0.061	Y:	0.056	Z:	0.140	yaw:	-5.641	yaw rate:	4.257	Roll:	3.174	Pitch:	3.136	Yaw:	-2.045	Thrust:	49.546
Time:	3.139	Roll Set Point:	-0.021	Pitch Set Point:	-0.109	Yaw Set Point:	0.098	X_WP:	0.100	Y_WP:	0.000	Y_WP:	0.500	X:	0.063	Y:	0.056	Z:	0.144	yaw:	-5.586	yaw rate:	5.476	Roll:	1.737	Pitch:	2.476	Yaw:	-5.623	Thrust:	51.153
Time:	3.152	Roll Set Point:	-0.025	Pitch Set Point:	-0.110	Yaw Set Point:	0.097	X_WP:	0.100	Y_WP:	0.000	Y_WP:	0.500	X:	0.065	Y:	0.057	Z:	0.147	yaw:	-5.558	yaw rate:	2.830	Roll:	1.395	Pitch:	2.309	Yaw:	-6.186	Thrust:	64.599
Time:	3.165	Roll Set Point:	-0.028	Pitch Set Point:	-0.110	Yaw Set Point:	0.098	X_WP:	0.100	Y_WP:	0.000	Y_WP:	0.500	X:	0.067	Y:	0.057	Z:	0.151	yaw:	-5.629	yaw rate:	-7.126	Roll:	1.055	Pitch:	2.109	Yaw:	-8.410	Thrust:	59.574
Time:	3.182	Roll Set Point:	-0.032	Pitch Set Point:	-0.111	Yaw Set Point:	0.097	X_WP:	0.100	Y_WP:	0.000	Y_WP:	0.500	X:	0.069	Y:	0.057	Z:	0.154	yaw:	-5.568	yaw rate:	6.153	Roll:	1.042	Pitch:	2.269	Yaw:	-5.593	Thrust:	85.070
Time:	3.194	Roll Set Point:	-0.045	Pitch Set Point:	-0.114	Yaw Set Point:	0.091	X_WP:	0.100	Y_WP:	0.000	Y_WP:	0.500	X:	0.075	Y:	0.058	Z:	0.165	yaw:	-5.193	yaw rate:	6.369	Roll:	6.859	Pitch:	4.173	Yaw:	1.763	Thrust:	30.620
Time:	3.205	Roll Set Point:	-0.050	Pitch Set Point:	-0.114	Yaw Set Point:	0.089	X_WP:	0.100	Y_WP:	0.000	Y_WP:	0.500	X:	0.077	Y:	0.058	Z:	0.168	yaw:	-5.090	yaw rate:	10.227	Roll:	2.286	Pitch:	2.556	Yaw:	-3.929	Thrust:	52.669
Time:	3.219	Roll Set Point:	-0.054	Pitch Set Point:	-0.115	Yaw Set Point:	0.086	X_WP:	0.100	Y_WP:	0.000	Y_WP:	0.500	X:	0.079	Y:	0.059	Z:	0.172	yaw:	-4.953	yaw rate:	13.769	Roll:	1.941	Pitch:	2.445	Yaw:	-3.419	Thrust:	66.283
Time:	3.232	Roll Set Point:	-0.059	Pitch Set Point:	-0.116	Yaw Set Point:	0.080	X_WP:	0.100	Y_WP:	0.000	Y_WP:	0.500	X:	0.082	Y:	0.059	Z:	0.175	yaw:	-4.586	yaw rate:	36.624	Roll:	2.203	Pitch:	2.794	Yaw:	1.686	Thrust:	67.688
Time:	3.244	Roll Set Point:	-0.063	Pitch Set Point:	-0.117	Yaw Set Point:	0.082	X_WP:	0.100	Y_WP:	0.000	Y_WP:	0.500	X:	0.084	Y:	0.059	Z:	0.179	yaw:	-4.709	yaw rate:	-12.272	Roll:	2.047	Pitch:	2.360	Yaw:	-8.479	Thrust:	59.273
Time:	3.256	Roll Set Point:	-0.072	Pitch Set Point:	-0.118	Yaw Set Point:	0.078	X_WP:	0.100	Y_WP:	0.000	Y_WP:	0.500	X:	0.088	Y:	0.060	Z:	0.185	yaw:	-4.464	yaw rate:	-3.803	Roll:	5.742	Pitch:	3.197	Yaw:	-0.166	Thrust:	46.907
Time:	3.268	Roll Set Point:	-0.076	Pitch Set Point:	-0.119	Yaw Set Point:	0.073	X_WP:	0.100	Y_WP:	0.000	Y_WP:	0.500	X:	0.090	Y:	0.060	Z:	0.188	yaw:	-4.177	yaw rate:	28.736	Roll:	2.693	Pitch:	2.750	Yaw:	1.378	Thrust:	57.332
Time:	3.284	Roll Set Point:	-0.084	Pitch Set Point:	-0.120	Yaw Set Point:	0.074	X_WP:	0.100	Y_WP:	0.000	Y_WP:	0.500	X:	0.094	Y:	0.061	Z:	0.194	yaw:	-4.237	yaw rate:	-5.997	Roll:	3.780	Pitch:	2.736	Yaw:	-5.950	Thrust:	74.487
Time:	3.295	Roll Set Point:	-0.088	Pitch Set Point:	-0.121	Yaw Set Point:	0.071	X_WP:	0.100	Y_WP:	0.000	Y_WP:	0.500	X:	0.096	Y:	0.061	Z:	0.197	yaw:	-4.050	yaw rate:	18.659	Roll:	3.175	Pitch:	2.711	Yaw:	-0.599	Thrust:	55.403
Time:	3.307	Roll Set Point:	-0.092	Pitch Set Point:	-0.122	Yaw Set Point:	0.069	X_WP:	0.100	Y_WP:	0.000	Y_WP:	0.500	X:	0.098	Y:	0.061	Z:	0.200	yaw:	-3.971	yaw rate:	7.871	Roll:	2.645	Pitch:	2.568	Yaw:	-3.129	Thrust:	54.536
Time:	3.320	Roll Set Point:	-0.096	Pitch Set Point:	-0.123	Yaw Set Point:	0.068	X_WP:	0.100	Y_WP:	0.000	Y_WP:	0.500	X:	0.100	Y:	0.061	Z:	0.203	yaw:	-3.883	yaw rate:	8.886	Roll:	2.319	Pitch:	2.572	Yaw:	-2.889	Thrust:	70.764
Time:	3.331	Roll Set Point:	-0.100	Pitch Set Point:	-0.123	Yaw Set Point:	0.065	X_WP:	0.100	Y_WP:	0.000	Y_WP:	0.500	X:	0.102	Y:	0.062	Z:	0.205	yaw:	-3.716	yaw rate:	16.693	Roll:	2.893	Pitch:	2.509	Yaw:	-0.821	Thrust:	60.929
Time:	3.344	Roll Set Point:	-0.105	Pitch Set Point:	-0.124	Yaw Set Point:	0.057	X_WP:	0.100	Y_WP:	0.000	Y_WP:	0.500	X:	0.104	Y:	0.062	Z:	0.208	yaw:	-3.285	yaw rate:	43.117	Roll:	3.331	Pitch:	2.713	Yaw:	5.061	Thrust:	66.480
Time:	3.356	Roll Set Point:	-0.112	Pitch Set Point:	-0.125	Yaw Set Point:	0.056	X_WP:	0.100	Y_WP:	0.000	Y_WP:	0.500	X:	0.108	Y:	0.062	Z:	0.213	yaw:	-3.204	yaw rate:	8.082	Roll:	5.145	Pitch:	2.750	Yaw:	-2.109	Thrust:	54.956
Time:	3.366	Roll Set Point:	-0.116	Pitch Set Point:	-0.126	Yaw Set Point:	0.049	X_WP:	0.100	Y_WP:	0.000	Y_WP:	0.500	X:	0.110	Y:	0.063	Z:	0.215	yaw:	-2.798	yaw rate:	40.563	Roll:	3.713	Pitch:	2.794	Yaw:	6.692	Thrust:	56.377
Time:	3.384	Roll Set Point:	-0.120	Pitch Set Point:	-0.127	Yaw Set Point:	0.047	X_WP:	0.100	Y_WP:	0.000	Y_WP:	0.500	X:	0.112	Y:	0.063	Z:	0.218	yaw:	-2.705	yaw rate:	9.280	Roll:	2.523	Pitch:	2.411	Yaw:	-1.532	Thrust:	84.810
Time:	3.397	Roll Set Point:	-0.127	Pitch Set Point:	-0.127	Yaw Set Point:	0.045	X_WP:	0.100	Y_WP:	0.000	Y_WP:	0.500	X:	0.115	Y:	0.063	Z:	0.222	yaw:	-2.603	yaw rate:	16.282	Roll:	3.369	Pitch:	2.494	Yaw:	-1.035	Thrust:	76.274
Time:	3.412	Roll Set Point:	-0.131	Pitch Set Point:	-0.128	Yaw Set Point:	0.040	X_WP:	0.100	Y_WP:	0.000	Y_WP:	0.500	X:	0.117	Y:	0.064	Z:	0.224	yaw:	-2.273	yaw rate:	32.998	Roll:	2.979	Pitch:	2.550	Yaw:	3.256	Thrust:	77.532
Time:	3.426	Roll Set Point:	-0.137	Pitch Set Point:	-0.128	Yaw Set Point:	0.038	X_WP:	0.100	Y_WP:	0.000	Y_WP:	0.500	X:	0.120	Y:	0.064	Z:	0.229	yaw:	-2.173	yaw rate:	13.055	Roll:	3.569	Pitch:	2.418	Yaw:	-0.569	Thrust:	80.185
Time:	3.437	Roll Set Point:	-0.140	Pitch Set Point:	-0.129	Yaw Set Point:	0.035	X_WP:	0.100	Y_WP:	0.000	Y_WP:	0.500	X:	0.121	Y:	0.064	Z:	0.231	yaw:	-2.019	yaw rate:	15.470	Roll:	2.899	Pitch:	2.303	Yaw:	1.377	Thrust:	60.765
Time:	3.452	Roll Set Point:	-0.143	Pitch Set Point:	-0.129	Yaw Set Point:	0.034	X_WP:	0.100	Y_WP:	0.000	Y_WP:	0.500	X:	0.123	Y:	0.064	Z:	0.233	yaw:	-1.946	yaw rate:	7.266	Roll:	2.509	Pitch:	2.305	Yaw:	-0.768	Thrust:	81.667
Time:	3.465	Roll Set Point:	-0.149	Pitch Set Point:	-0.130	Yaw Set Point:	0.031	X_WP:	0.100	Y_WP:	0.000	Y_WP:	0.500	X:	0.125	Y:	0.064	Z:	0.237	yaw:	-1.754	yaw rate:	19.179	Roll:	3.832	Pitch:	2.512	Yaw:	1.969	Thrust:	65.938
Time:	3.483	Roll Set Point:	-0.151	Pitch Set Point:	-0.130	Yaw Set Point:	0.030	X_WP:	0.100	Y_WP:	0.000	Y_WP:	0.500	X:	0.127	Y:	0.064	Z:	0.239	yaw:	-1.723	yaw rate:	3.129	Roll:	1.880	Pitch:	2.235	Yaw:	-1.194	Thrust:	90.370
Time:	3.495	Roll Set Point:	-0.156	Pitch Set Point:	-0.130	Yaw Set Point:	0.027	X_WP:	0.100	Y_WP:	0.000	Y_WP:	0.500	X:	0.129	Y:	0.065	Z:	0.244	yaw:	-1.536	yaw rate:	-8.557	Roll:	3.539	Pitch:	2.255	Yaw:	2.295	Thrust:	65.444
Time:	3.505	Roll Set Point:	-0.158	Pitch Set Point:	-0.130	Yaw Set Point:	0.026	X_WP:	0.100	Y_WP:	0.000	Y_WP:	0.500	X:	0.130	Y:	0.065	Z:	0.246	yaw:	-1.492	yaw rate:	4.336	Roll:	2.379	Pitch:	2.191	Yaw:	-0.567	Thrust:	61.092
Time:	3.520	Roll Set Point:	-0.160	Pitch Set Point:	-0.130	Yaw Set Point:	0.023	X_WP:	0.100	Y_WP:	0.000	Y_WP:	0.500	X:	0.131	Y:	0.065	Z:	0.249	yaw:	-1.318	yaw rate:	17.488	Roll:	2.133	Pitch:	2.309	Yaw:	1.899	Thrust:	81.532
Time:	3.531	Roll Set Point:	-0.161	Pitch Set Point:	-0.130	Yaw Set Point:	0.026	X_WP:	0.100	Y_WP:	0.000	Y_WP:	0.500	X:	0.132	Y:	0.065	Z:	0.251	yaw:	-1.478	yaw rate:	-16.022	Roll:	1.556	Pitch:	2.094	Yaw:	-5.417	Thrust:	60.088
Time:	3.544	Roll Set Point:	-0.163	Pitch Set Point:	-0.130	Yaw Set Point:	0.026	X_WP:	0.100	Y_WP:	0.000	Y_WP:	0.500	X:	0.132	Y:	0.065	Z:	0.254	yaw:	-1.516	yaw rate:	-3.861	Roll:	1.727	Pitch:	2.112	Yaw:	-2.367	Thrust:	72.010
Time:	3.562	Roll Set Point:	-0.167	Pitch Set Point:	-0.130	Yaw Set Point:	0.021	X_WP:	0.100	Y_WP:	0.000	Y_WP:	0.500	X:	0.134	Y:	0.065	Z:	0.264	yaw:	-1.212	yaw rate:	20.250	Roll:	2.905	Pitch:	2.243	Yaw:	3.447	Thrust:	84.152
Time:	3.574	Roll Set Point:	-0.168	Pitch Set Point:	-0.130	Yaw Set Point:	0.022	X_WP:	0.100	Y_WP:	0.000	Y_WP:	0.500	X:	0.135	Y:	0.065	Z:	0.267	yaw:	-1.263	yaw rate:	-5.123	Roll:	1.352	Pitch:	2.009	Yaw:	-2.429	Thrust:	62.657
Time:	3.589	Roll Set Point:	-0.169	Pitch Set Point:	-0.130	Yaw Set Point:	0.020	X_WP:	0.100	Y_WP:	0.000	Y_WP:	0.500	X:	0.135	Y:	0.065	Z:	0.271	yaw:	-1.147	yaw rate:	11.586	Roll:	1.424	Pitch:	2.101	Yaw:	1.045	Thrust:	79.428
Time:	3.601	Roll Set Point:	-0.170	Pitch Set Point:	-0.130	Yaw Set Point:	0.019	X_WP:	0.100	Y_WP:	0.000	Y_WP:	0.500	X:	0.135	Y:	0.065	Z:	0.275	yaw:	-1.084	yaw rate:	6.303	Roll:	1.252	Pitch:	2.024	Yaw:	0.273	Thrust:	67.765
Time:	3.619	Roll Set Point:	-0.170	Pitch Set Point:	-0.130	Yaw Set Point:	0.018	X_WP:	0.100	Y_WP:	0.000	Y_WP:	0.500	X:	0.136	Y:	0.065	Z:	0.278	yaw:	-1.018	yaw rate:	6.576	Roll:	1.137	Pitch:	2.148	Yaw:	0.226	Thrust:	94.243
Time:	3.630	Roll Set Point:	-0.171	Pitch Set Point:	-0.130	Yaw Set Point:	0.018	X_WP:	0.100	Y_WP:	0.000	Y_WP:	0.500	X:	0.136	Y:	0.065	Z:	0.286	yaw:	-1.024	yaw rate:	-5.650	Roll:	1.179	Pitch:	1.923	Yaw:	-1.138	Thrust:	47.340
Time:	3.650	Roll Set Point:	-0.171	Pitch Set Point:	-0.129	Yaw Set Point:	0.018	X_WP:	0.100	Y_WP:	0.000	Y_WP:	0.500	X:	0.136	Y:	0.064	Z:	0.291	yaw:	-1.053	yaw rate:	-2.823	Roll:	0.935	Pitch:	2.024	Yaw:	-1.510	Thrust:	67.782
Time:	3.664	Roll Set Point:	-0.170	Pitch Set Point:	-0.129	Yaw Set Point:	0.019	X_WP:	0.100	Y_WP:	0.000	Y_WP:	0.500	X:	0.136	Y:	0.064	Z:	0.305	yaw:	-1.117	yaw rate:	-3.986	Roll:	0.527	Pitch:	1.863	Yaw:	-1.740	Thrust:	85.510
Time:	3.676	Roll Set Point:	-0.170	Pitch Set Point:	-0.128	Yaw Set Point:	0.016	X_WP:	0.100	Y_WP:	0.000	Y_WP:	0.500	X:	0.136	Y:	0.064	Z:	0.310	yaw:	-0.903	yaw rate:	21.427	Roll:	1.114	Pitch:	1.817	Yaw:	3.837	Thrust:	50.735
Time:	3.689	Roll Set Point:	-0.170	Pitch Set Point:	-0.128	Yaw Set Point:	0.021	X_WP:	0.100	Y_WP:	0.000	Y_WP:	0.500	X:	0.135	Y:	0.064	Z:	0.315	yaw:	-1.202	yaw rate:	-29.891	Roll:	0.144	Pitch:	1.992	Yaw:	-6.529	Thrust:	81.379
Time:	3.700	Roll Set Point:	-0.169	Pitch Set Point:	-0.127	Yaw Set Point:	0.019	X_WP:	0.100	Y_WP:	0.000	Y_WP:	0.500	X:	0.135	Y:	0.063	Z:	0.320	yaw:	-1.078	yaw rate:	12.397	Roll:	0.635	Pitch:	1.615	Yaw:	1.832	Thrust:	49.987
Time:	3.717	Roll Set Point:	-0.169	Pitch Set Point:	-0.127	Yaw Set Point:	0.018	X_WP:	0.100	Y_WP:	0.000	Y_WP:	0.500	X:	0.135	Y:	0.063	Z:	0.325	yaw:	-1.043	yaw rate:	3.454	Roll:	0.550	Pitch:	1.848	Yaw:	-0.322	Thrust:	84.135
Time:	3.730	Roll Set Point:	-0.167	Pitch Set Point:	-0.126	Yaw Set Point:	0.018	X_WP:	0.100	Y_WP:	0.000	Y_WP:	0.500	X:	0.134	Y:	0.063	Z:	0.336	yaw:	-1.019	yaw rate:	2.012	Roll:	0.182	Pitch:	1.559	Yaw:	-0.474	Thrust:	49.278
Time:	3.743	Roll Set Point:	-0.167	Pitch Set Point:	-0.125	Yaw Set Point:	0.017	X_WP:	0.100	Y_WP:	0.000	Y_WP:	0.500	X:	0.134	Y:	0.062	Z:	0.341	yaw:	-0.961	yaw rate:	5.817	Roll:	0.341	Pitch:	1.626	Yaw:	0.280	Thrust:	63.265
Time:	3.757	Roll Set Point:	-0.165	Pitch Set Point:	-0.124	Yaw Set Point:	0.013	X_WP:	0.100	Y_WP:	0.000	Y_WP:	0.500	X:	0.133	Y:	0.062	Z:	0.352	yaw:	-0.771	yaw rate:	18.919	Roll:	-0.055	Pitch:	1.331	Yaw:	3.046	Thrust:	44.850
Time:	3.767	Roll Set Point:	-0.165	Pitch Set Point:	-0.124	Yaw Set Point:	0.009	X_WP:	0.100	Y_WP:	0.000	Y_WP:	0.500	X:	0.133	Y:	0.062	Z:	0.357	yaw:	-0.489	yaw rate:	28.262	Roll:	0.663	Pitch:	1.532	Yaw:	6.701	Thrust:	48.550
Time:	3.784	Roll Set Point:	-0.163	Pitch Set Point:	-0.123	Yaw Set Point:	0.011	X_WP:	0.100	Y_WP:	0.000	Y_WP:	0.500	X:	0.132	Y:	0.061	Z:	0.362	yaw:	-0.617	yaw rate:	-12.804	Roll:	-0.120	Pitch:	1.747	Yaw:	-2.400	Thrust:	83.873
Time:	3.795	Roll Set Point:	-0.161	Pitch Set Point:	-0.122	Yaw Set Point:	0.008	X_WP:	0.100	Y_WP:	0.000	Y_WP:	0.500	X:	0.131	Y:	0.061	Z:	0.373	yaw:	-0.447	yaw rate:	4.745	Roll:	-0.570	Pitch:	0.977	Yaw:	3.629	Thrust:	32.089
Time:	3.805	Roll Set Point:	-0.160	Pitch Set Point:	-0.121	Yaw Set Point:	0.002	X_WP:	0.100	Y_WP:	0.000	Y_WP:	0.500	X:	0.130	Y:	0.061	Z:	0.378	yaw:	-0.133	yaw rate:	31.366	Roll:	0.403	Pitch:	1.480	Yaw:	7.966	Thrust:	45.388
Time:	3.818	Roll Set Point:	-0.159	Pitch Set Point:	-0.120	Yaw Set Point:	0.004	X_WP:	0.100	Y_WP:	0.000	Y_WP:	0.500	X:	0.130	Y:	0.060	Z:	0.382	yaw:	-0.257	yaw rate:	-12.401	Roll:	-0.489	Pitch:	1.467	Yaw:	-2.647	Thrust:	57.085
Time:	3.830	Roll Set Point:	-0.158	Pitch Set Point:	-0.120	Yaw Set Point:	-0.000	X_WP:	0.100	Y_WP:	0.000	Y_WP:	0.500	X:	0.129	Y:	0.060	Z:	0.387	yaw:	0.005	yaw rate:	26.162	Roll:	0.298	Pitch:	1.536	Yaw:	5.883	Thrust:	61.004
Time:	3.843	Roll Set Point:	-0.156	Pitch Set Point:	-0.119	Yaw Set Point:	0.003	X_WP:	0.100	Y_WP:	0.000	Y_WP:	0.500	X:	0.128	Y:	0.059	Z:	0.392	yaw:	-0.144	yaw rate:	-14.883	Roll:	-0.649	Pitch:	1.438	Yaw:	-2.754	Thrust:	58.134
Time:	3.854	Roll Set Point:	-0.154	Pitch Set Point:	-0.117	Yaw Set Point:	-0.001	X_WP:	0.100	Y_WP:	0.000	Y_WP:	0.500	X:	0.127	Y:	0.059	Z:	0.400	yaw:	0.055	yaw rate:	19.928	Roll:	-1.090	Pitch:	0.939	Yaw:	4.984	Thrust:	46.418
Time:	3.865	Roll Set Point:	-0.152	Pitch Set Point:	-0.117	Yaw Set Point:	-0.002	X_WP:	0.100	Y_WP:	0.000	Y_WP:	0.500	X:	0.126	Y:	0.058	Z:	0.404	yaw:	0.095	yaw rate:	4.042	Roll:	-0.477	Pitch:	1.378	Yaw:	1.490	Thrust:	48.768
Time:	3.883	Roll Set Point:	-0.151	Pitch Set Point:	-0.116	Yaw Set Point:	-0.004	X_WP:	0.100	Y_WP:	0.000	Y_WP:	0.500	X:	0.125	Y:	0.058	Z:	0.408	yaw:	0.210	yaw rate:	11.505	Roll:	-0.257	Pitch:	1.514	Yaw:	2.705	Thrust:	80.479
Time:	3.896	Roll Set Point:	-0.148	Pitch Set Point:	-0.115	Yaw Set Point:	-0.006	X_WP:	0.100	Y_WP:	0.000	Y_WP:	0.500	X:	0.124	Y:	0.057	Z:	0.416	yaw:	0.326	yaw rate:	8.644	Roll:	-0.946	Pitch:	1.256	Yaw:	2.976	Thrust:	73.222
Time:	3.913	Roll Set Point:	-0.146	Pitch Set Point:	-0.114	Yaw Set Point:	-0.006	X_WP:	0.100	Y_WP:	0.000	Y_WP:	0.500	X:	0.123	Y:	0.057	Z:	0.419	yaw:	0.357	yaw rate:	3.074	Roll:	-0.517	Pitch:	1.493	Yaw:	1.539	Thrust:	71.470
Time:	3.928	Roll Set Point:	-0.141	Pitch Set Point:	-0.112	Yaw Set Point:	-0.009	X_WP:	0.100	Y_WP:	0.000	Y_WP:	0.500	X:	0.120	Y:	0.056	Z:	0.428	yaw:	0.496	yaw rate:	-12.098	Roll:	-1.709	Pitch:	1.107	Yaw:	3.446	Thrust:	88.560
Time:	3.938	Roll Set Point:	-0.139	Pitch Set Point:	-0.111	Yaw Set Point:	-0.010	X_WP:	0.100	Y_WP:	0.000	Y_WP:	0.500	X:	0.119	Y:	0.056	Z:	0.431	yaw:	0.547	yaw rate:	5.067	Roll:	-0.847	Pitch:	1.265	Yaw:	2.362	Thrust:	53.848
Time:	3.954	Roll Set Point:	-0.137	Pitch Set Point:	-0.110	Yaw Set Point:	-0.011	X_WP:	0.100	Y_WP:	0.000	Y_WP:	0.500	X:	0.118	Y:	0.055	Z:	0.434	yaw:	0.657	yaw rate:	11.054	Roll:	-0.616	Pitch:	1.475	Yaw:	3.267	Thrust:	88.659
Time:	3.966	Roll Set Point:	-0.136	Pitch Set Point:	-0.110	Yaw Set Point:	-0.012	X_WP:	0.100	Y_WP:	0.000	Y_WP:	0.500	X:	0.117	Y:	0.055	Z:	0.437	yaw:	0.707	yaw rate:	5.030	Roll:	-0.711	Pitch:	1.451	Yaw:	2.526	Thrust:	58.840
Time:	3.983	Roll Set Point:	-0.134	Pitch Set Point:	-0.109	Yaw Set Point:	-0.014	X_WP:	0.100	Y_WP:	0.000	Y_WP:	0.500	X:	0.117	Y:	0.055	Z:	0.440	yaw:	0.830	yaw rate:	12.295	Roll:	-0.621	Pitch:	1.639	Yaw:	3.674	Thrust:	88.373
Time:	3.994	Roll Set Point:	-0.130	Pitch Set Point:	-0.108	Yaw Set Point:	-0.012	X_WP:	0.100	Y_WP:	0.000	Y_WP:	0.500	X:	0.115	Y:	0.054	Z:	0.447	yaw:	0.679	yaw rate:	-2.533	Roll:	-2.414	Pitch:	0.854	Yaw:	-2.254	Thrust:	45.593
Time:	4.005	Roll Set Point:	-0.128	Pitch Set Point:	-0.107	Yaw Set Point:	-0.012	X_WP:	0.100	Y_WP:	0.000	Y_WP:	0.500	X:	0.113	Y:	0.054	Z:	0.450	yaw:	0.672	yaw rate:	-0.754	Roll:	-1.203	Pitch:	1.323	Yaw:	1.157	Thrust:	55.219
Time:	4.018	Roll Set Point:	-0.125	Pitch Set Point:	-0.106	Yaw Set Point:	-0.011	X_WP:	0.100	Y_WP:	0.000	Y_WP:	0.500	X:	0.112	Y:	0.053	Z:	0.453	yaw:	0.631	yaw rate:	-4.064	Roll:	-1.222	Pitch:	1.375	Yaw:	0.530	Thrust:	63.954
Time:	4.029	Roll Set Point:	-0.123	Pitch Set Point:	-0.106	Yaw Set Point:	-0.010	X_WP:	0.100	Y_WP:	0.000	Y_WP:	0.500	X:	0.111	Y:	0.053	Z:	0.457	yaw:	0.554	yaw rate:	-7.702	Roll:	-1.457	Pitch:	1.432	Yaw:	-0.663	Thrust:	56.557
Time:	4.041	Roll Set Point:	-0.121	Pitch Set Point:	-0.105	Yaw Set Point:	-0.010	X_WP:	0.100	Y_WP:	0.000	Y_WP:	0.500	X:	0.110	Y:	0.053	Z:	0.460	yaw:	0.598	yaw rate:	4.356	Roll:	-1.276	Pitch:	1.381	Yaw:	2.247	Thrust:	54.833
Time:	4.054	Roll Set Point:	-0.117	Pitch Set Point:	-0.104	Yaw Set Point:	-0.009	X_WP:	0.100	Y_WP:	0.000	Y_WP:	0.500	X:	0.108	Y:	0.052	Z:	0.467	yaw:	0.496	yaw rate:	-10.127	Roll:	-2.848	Pitch:	1.197	Yaw:	-0.773	Thrust:	57.920
Time:	4.065	Roll Set Point:	-0.114	Pitch Set Point:	-0.104	Yaw Set Point:	-0.008	X_WP:	0.100	Y_WP:	0.000	Y_WP:	0.500	X:	0.107	Y:	0.052	Z:	0.471	yaw:	0.476	yaw rate:	-2.026	Roll:	-1.643	Pitch:	1.382	Yaw:	0.583	Thrust:	51.897
Time:	4.081	Roll Set Point:	-0.112	Pitch Set Point:	-0.103	Yaw Set Point:	-0.008	X_WP:	0.100	Y_WP:	0.000	Y_WP:	0.500	X:	0.106	Y:	0.052	Z:	0.474	yaw:	0.439	yaw rate:	-3.697	Roll:	-1.476	Pitch:	1.637	Yaw:	0.557	Thrust:	72.824
Time:	4.095	Roll Set Point:	-0.110	Pitch Set Point:	-0.103	Yaw Set Point:	-0.008	X_WP:	0.100	Y_WP:	0.000	Y_WP:	0.500	X:	0.105	Y:	0.052	Z:	0.478	yaw:	0.447	yaw rate:	0.783	Roll:	-1.205	Pitch:	1.622	Yaw:	1.282	Thrust:	82.235
Time:	4.107	Roll Set Point:	-0.107	Pitch Set Point:	-0.103	Yaw Set Point:	-0.008	X_WP:	0.100	Y_WP:	0.000	Y_WP:	0.500	X:	0.104	Y:	0.051	Z:	0.481	yaw:	0.459	yaw rate:	1.239	Roll:	-1.703	Pitch:	1.454	Yaw:	1.360	Thrust:	55.333
Time:	4.121	Roll Set Point:	-0.101	Pitch Set Point:	-0.102	Yaw Set Point:	-0.012	X_WP:	0.100	Y_WP:	0.000	Y_WP:	0.500	X:	0.100	Y:	0.051	Z:	0.492	yaw:	0.703	yaw rate:	25.147	Roll:	-3.944	Pitch:	1.446	Yaw:	6.193	Thrust:	54.780
Time:	4.132	Roll Set Point:	-0.098	Pitch Set Point:	-0.101	Yaw Set Point:	-0.009	X_WP:	0.100	Y_WP:	0.000	Y_WP:	0.500	X:	0.099	Y:	0.051	Z:	0.495	yaw:	0.514	yaw rate:	-18.908	Roll:	-2.264	Pitch:	1.303	Yaw:	-3.133	Thrust:	55.662
Time:	4.152	Roll Set Point:	-0.096	Pitch Set Point:	-0.101	Yaw Set Point:	-0.009	X_WP:	0.100	Y_WP:	0.000	Y_WP:	0.500	X:	0.098	Y:	0.050	Z:	0.498	yaw:	0.509	yaw rate:	-0.511	Roll:	-1.487	Pitch:	1.766	Yaw:	1.372	Thrust:	100.000
Time:	4.164	Roll Set Point:	-0.091	Pitch Set Point:	-0.101	Yaw Set Point:	-0.010	X_WP:	0.100	Y_WP:	0.000	Y_WP:	0.500	X:	0.095	Y:	0.050	Z:	0.504	yaw:	0.583	yaw rate:	5.943	Roll:	-2.728	Pitch:	1.557	Yaw:	2.819	Thrust:	55.836
Time:	4.177	Roll Set Point:	-0.089	Pitch Set Point:	-0.100	Yaw Set Point:	-0.011	X_WP:	0.100	Y_WP:	0.000	Y_WP:	0.500	X:	0.094	Y:	0.050	Z:	0.507	yaw:	0.607	yaw rate:	2.418	Roll:	-1.958	Pitch:	1.639	Yaw:	1.827	Thrust:	59.479
Time:	4.188	Roll Set Point:	-0.086	Pitch Set Point:	-0.100	Yaw Set Point:	-0.010	X_WP:	0.100	Y_WP:	0.000	Y_WP:	0.500	X:	0.093	Y:	0.050	Z:	0.510	yaw:	0.588	yaw rate:	-1.934	Roll:	-2.121	Pitch:	1.587	Yaw:	0.859	Thrust:	59.954
Time:	4.200	Roll Set Point:	-0.084	Pitch Set Point:	-0.100	Yaw Set Point:	-0.010	X_WP:	0.100	Y_WP:	0.000	Y_WP:	0.500	X:	0.092	Y:	0.050	Z:	0.513	yaw:	0.575	yaw rate:	-1.341	Roll:	-2.027	Pitch:	1.583	Yaw:	0.931	Thrust:	55.695
Time:	4.216	Roll Set Point:	-0.081	Pitch Set Point:	-0.100	Yaw Set Point:	-0.009	X_WP:	0.100	Y_WP:	0.000	Y_WP:	0.500	X:	0.090	Y:	0.050	Z:	0.515	yaw:	0.530	yaw rate:	-4.488	Roll:	-1.794	Pitch:	1.763	Yaw:	0.623	Thrust:	85.835
Time:	4.228	Roll Set Point:	-0.074	Pitch Set Point:	-0.099	Yaw Set Point:	-0.008	X_WP:	0.100	Y_WP:	0.000	Y_WP:	0.500	X:	0.087	Y:	0.050	Z:	0.524	yaw:	0.440	yaw rate:	-7.411	Roll:	-5.308	Pitch:	1.385	Yaw:	-0.869	Thrust:	32.208
Time:	4.239	Roll Set Point:	-0.072	Pitch Set Point:	-0.099	Yaw Set Point:	-0.008	X_WP:	0.100	Y_WP:	0.000	Y_WP:	0.500	X:	0.086	Y:	0.049	Z:	0.527	yaw:	0.468	yaw rate:	2.758	Roll:	-2.258	Pitch:	1.638	Yaw:	1.731	Thrust:	55.302
Time:	4.253	Roll Set Point:	-0.070	Pitch Set Point:	-0.099	Yaw Set Point:	-0.007	X_WP:	0.100	Y_WP:	0.000	Y_WP:	0.500	X:	0.085	Y:	0.049	Z:	0.530	yaw:	0.412	yaw rate:	-5.625	Roll:	-2.236	Pitch:	1.759	Yaw:	-0.045	Thrust:	64.806
Time:	4.265	Roll Set Point:	-0.067	Pitch Set Point:	-0.099	Yaw Set Point:	-0.006	X_WP:	0.100	Y_WP:	0.000	Y_WP:	0.500	X:	0.083	Y:	0.049	Z:	0.533	yaw:	0.338	yaw rate:	-7.366	Roll:	-2.159	Pitch:	1.586	Yaw:	-0.618	Thrust:	59.060
Time:	4.284	Roll Set Point:	-0.065	Pitch Set Point:	-0.099	Yaw Set Point:	-0.004	X_WP:	0.100	Y_WP:	0.000	Y_WP:	0.500	X:	0.082	Y:	0.049	Z:	0.536	yaw:	0.258	yaw rate:	-8.022	Roll:	-1.891	Pitch:	1.878	Yaw:	0.003	Thrust:	100.000
Time:	4.296	Roll Set Point:	-0.060	Pitch Set Point:	-0.099	Yaw Set Point:	-0.004	X_WP:	0.100	Y_WP:	0.000	Y_WP:	0.500	X:	0.080	Y:	0.049	Z:	0.543	yaw:	0.237	yaw rate:	-3.051	Roll:	-3.533	Pitch:	1.714	Yaw:	0.393	Thrust:	47.752
Time:	4.308	Roll Set Point:	-0.058	Pitch Set Point:	-0.099	Yaw Set Point:	-0.004	X_WP:	0.100	Y_WP:	0.000	Y_WP:	0.500	X:	0.079	Y:	0.049	Z:	0.546	yaw:	0.248	yaw rate:	1.033	Roll:	-2.378	Pitch:	1.651	Yaw:	1.023	Thrust:	48.815
Time:	4.322	Roll Set Point:	-0.056	Pitch Set Point:	-0.099	Yaw Set Point:	-0.004	X_WP:	0.100	Y_WP:	0.000	Y_WP:	0.500	X:	0.078	Y:	0.049	Z:	0.549	yaw:	0.230	yaw rate:	-1.743	Roll:	-2.113	Pitch:	1.811	Yaw:	0.579	Thrust:	72.348
Time:	4.333	Roll Set Point:	-0.054	Pitch Set Point:	-0.098	Yaw Set Point:	-0.003	X_WP:	0.100	Y_WP:	0.000	Y_WP:	0.500	X:	0.077	Y:	0.049	Z:	0.553	yaw:	0.199	yaw rate:	-3.156	Roll:	-2.473	Pitch:	1.631	Yaw:	-0.038	Thrust:	47.679
Time:	4.351	Roll Set Point:	-0.052	Pitch Set Point:	-0.098	Yaw Set Point:	-0.003	X_WP:	0.100	Y_WP:	0.000	Y_WP:	0.500	X:	0.076	Y:	0.049	Z:	0.556	yaw:	0.185	yaw rate:	-1.324	Roll:	-2.308	Pitch:	1.846	Yaw:	0.754	Thrust:	87.603
Time:	4.364	Roll Set Point:	-0.045	Pitch Set Point:	-0.098	Yaw Set Point:	-0.001	X_WP:	0.100	Y_WP:	0.000	Y_WP:	0.500	X:	0.073	Y:	0.049	Z:	0.566	yaw:	0.065	yaw rate:	-0.205	Roll:	-3.823	Pitch:	1.738	Yaw:	-1.699	Thrust:	45.844
Time:	4.382	Roll Set Point:	-0.043	Pitch Set Point:	-0.098	Yaw Set Point:	-0.002	X_WP:	0.100	Y_WP:	0.000	Y_WP:	0.500	X:	0.072	Y:	0.049	Z:	0.569	yaw:	0.091	yaw rate:	2.579	Roll:	-2.182	Pitch:	1.903	Yaw:	1.205	Thrust:	86.884
Time:	4.393	Roll Set Point:	-0.039	Pitch Set Point:	-0.099	Yaw Set Point:	-0.002	X_WP:	0.100	Y_WP:	0.000	Y_WP:	0.500	X:	0.070	Y:	0.049	Z:	0.576	yaw:	0.111	yaw rate:	5.109	Roll:	-3.266	Pitch:	1.833	Yaw:	1.074	Thrust:	45.272
Time:	4.404	Roll Set Point:	-0.037	Pitch Set Point:	-0.098	Yaw Set Point:	-0.003	X_WP:	0.100	Y_WP:	0.000	Y_WP:	0.500	X:	0.069	Y:	0.049	Z:	0.579	yaw:	0.191	yaw rate:	7.960	Roll:	-2.488	Pitch:	1.565	Yaw:	2.662	Thrust:	42.725
Time:	4.417	Roll Set Point:	-0.036	Pitch Set Point:	-0.099	Yaw Set Point:	-0.003	X_WP:	0.100	Y_WP:	0.000	Y_WP:	0.500	X:	0.068	Y:	0.049	Z:	0.582	yaw:	0.146	yaw rate:	-4.496	Roll:	-2.358	Pitch:	1.957	Yaw:	-0.179	Thrust:	60.947
Time:	4.430	Roll Set Point:	-0.034	Pitch Set Point:	-0.098	Yaw Set Point:	-0.004	X_WP:	0.100	Y_WP:	0.000	Y_WP:	0.500	X:	0.067	Y:	0.049	Z:	0.585	yaw:	0.258	yaw rate:	11.170	Roll:	-2.285	Pitch:	1.749	Yaw:	3.190	Thrust:	56.855
Time:	4.442	Roll Set Point:	-0.032	Pitch Set Point:	-0.099	Yaw Set Point:	-0.005	X_WP:	0.100	Y_WP:	0.000	Y_WP:	0.500	X:	0.066	Y:	0.049	Z:	0.588	yaw:	0.292	yaw rate:	3.411	Roll:	-2.351	Pitch:	1.818	Yaw:	1.628	Thrust:	54.557
Time:	4.454	Roll Set Point:	-0.030	Pitch Set Point:	-0.099	Yaw Set Point:	-0.006	X_WP:	0.100	Y_WP:	0.000	Y_WP:	0.500	X:	0.065	Y:	0.049	Z:	0.591	yaw:	0.320	yaw rate:	2.832	Roll:	-2.192	Pitch:	2.098	Yaw:	1.538	Thrust:	58.271
Time:	4.465	Roll Set Point:	-0.027	Pitch Set Point:	-0.099	Yaw Set Point:	-0.008	X_WP:	0.100	Y_WP:	0.000	Y_WP:	0.500	X:	0.063	Y:	0.049	Z:	0.595	yaw:	0.446	yaw rate:	12.604	Roll:	-3.591	Pitch:	1.987	Yaw:	4.176	Thrust:	35.061
Time:	4.480	Roll Set Point:	-0.026	Pitch Set Point:	-0.099	Yaw Set Point:	-0.008	X_WP:	0.100	Y_WP:	0.000	Y_WP:	0.500	X:	0.063	Y:	0.049	Z:	0.597	yaw:	0.462	yaw rate:	1.550	Roll:	-2.262	Pitch:	1.886	Yaw:	1.518	Thrust:	68.618
Time:	4.493	Roll Set Point:	-0.023	Pitch Set Point:	-0.100	Yaw Set Point:	-0.010	X_WP:	0.100	Y_WP:	0.000	Y_WP:	0.500	X:	0.061	Y:	0.050	Z:	0.601	yaw:	0.575	yaw rate:	-2.791	Roll:	-2.914	Pitch:	2.123	Yaw:	3.539	Thrust:	66.266
Time:	4.504	Roll Set Point:	-0.021	Pitch Set Point:	-0.100	Yaw Set Point:	-0.014	X_WP:	0.100	Y_WP:	0.000	Y_WP:	0.500	X:	0.060	Y:	0.050	Z:	0.603	yaw:	0.817	yaw rate:	24.182	Roll:	-1.921	Pitch:	2.299	Yaw:	7.321	Thrust:	50.873
Time:	4.518	Roll Set Point:	-0.020	Pitch Set Point:	-0.100	Yaw Set Point:	-0.012	X_WP:	0.100	Y_WP:	0.000	Y_WP:	0.500	X:	0.060	Y:	0.050	Z:	0.604	yaw:	0.661	yaw rate:	-15.636	Roll:	-2.545	Pitch:	1.569	Yaw:	-1.419	Thrust:	69.916
Time:	4.531	Roll Set Point:	-0.018	Pitch Set Point:	-0.100	Yaw Set Point:	-0.012	X_WP:	0.100	Y_WP:	0.000	Y_WP:	0.500	X:	0.059	Y:	0.050	Z:	0.605	yaw:	0.714	yaw rate:	5.365	Roll:	-2.141	Pitch:	2.034	Yaw:	2.628	Thrust:	62.074
Time:	4.544	Roll Set Point:	-0.017	Pitch Set Point:	-0.100	Yaw Set Point:	-0.013	X_WP:	0.100	Y_WP:	0.000	Y_WP:	0.500	X:	0.058	Y:	0.050	Z:	0.606	yaw:	0.757	yaw rate:	4.281	Roll:	-2.175	Pitch:	1.930	Yaw:	2.468	Thrust:	62.166
Time:	4.556	Roll Set Point:	-0.016	Pitch Set Point:	-0.100	Yaw Set Point:	-0.014	X_WP:	0.100	Y_WP:	0.000	Y_WP:	0.500	X:	0.058	Y:	0.050	Z:	0.607	yaw:	0.790	yaw rate:	3.252	Roll:	-2.253	Pitch:	2.000	Yaw:	2.310	Thrust:	60.229
Time:	4.567	Roll Set Point:	-0.013	Pitch Set Point:	-0.101	Yaw Set Point:	-0.016	X_WP:	0.100	Y_WP:	0.000	Y_WP:	0.500	X:	0.056	Y:	0.050	Z:	0.607	yaw:	0.910	yaw rate:	10.463	Roll:	-3.026	Pitch:	2.144	Yaw:	4.598	Thrust:	53.663
Time:	4.585	Roll Set Point:	-0.013	Pitch Set Point:	-0.101	Yaw Set Point:	-0.016	X_WP:	0.100	Y_WP:	0.000	Y_WP:	0.500	X:	0.056	Y:	0.050	Z:	0.607	yaw:	0.910	yaw rate:	10.463	Roll:	-1.453	Pitch:	1.974	Yaw:	2.011	Thrust:	93.199
Time:	4.597	Roll Set Point:	-0.010	Pitch Set Point:	-0.101	Yaw Set Point:	-0.019	X_WP:	0.100	Y_WP:	0.000	Y_WP:	0.500	X:	0.055	Y:	0.050	Z:	0.607	yaw:	1.070	yaw rate:	8.766	Roll:	-3.672	Pitch:	2.189	Yaw:	5.467	Thrust:	62.120
Time:	4.608	Roll Set Point:	-0.009	Pitch Set Point:	-0.101	Yaw Set Point:	-0.019	X_WP:	0.100	Y_WP:	0.000	Y_WP:	0.500	X:	0.054	Y:	0.050	Z:	0.607	yaw:	1.084	yaw rate:	1.468	Roll:	-2.256	Pitch:	1.964	Yaw:	2.334	Thrust:	56.973
Time:	4.625	Roll Set Point:	-0.008	Pitch Set Point:	-0.102	Yaw Set Point:	-0.020	X_WP:	0.100	Y_WP:	0.000	Y_WP:	0.500	X:	0.054	Y:	0.050	Z:	0.607	yaw:	1.121	yaw rate:	3.659	Roll:	-1.950	Pitch:	2.164	Yaw:	2.876	Thrust:	96.580
Time:	4.636	Roll Set Point:	-0.007	Pitch Set Point:	-0.102	Yaw Set Point:	-0.020	X_WP:	0.100	Y_WP:	0.000	Y_WP:	0.500	X:	0.053	Y:	0.051	Z:	0.606	yaw:	1.127	yaw rate:	0.666	Roll:	-2.174	Pitch:	2.010	Yaw:	2.213	Thrust:	57.669
Time:	4.651	Roll Set Point:	-0.005	Pitch Set Point:	-0.102	Yaw Set Point:	-0.023	X_WP:	0.100	Y_WP:	0.000	Y_WP:	0.500	X:	0.052	Y:	0.051	Z:	0.604	yaw:	1.325	yaw rate:	8.911	Roll:	-2.988	Pitch:	2.314	Yaw:	5.953	Thrust:	83.391
Time:	4.664	Roll Set Point:	-0.004	Pitch Set Point:	-0.103	Yaw Set Point:	-0.023	X_WP:	0.100	Y_WP:	0.000	Y_WP:	0.500	X:	0.051	Y:	0.051	Z:	0.604	yaw:	1.315	yaw rate:	-1.078	Roll:	-2.028	Pitch:	1.928	Yaw:	2.138	Thrust:	63.935
Time:	4.677	Roll Set Point:	-0.003	Pitch Set Point:	-0.102	Yaw Set Point:	-0.024	X_WP:	0.100	Y_WP:	0.000	Y_WP:	0.500	X:	0.051	Y:	0.051	Z:	0.603	yaw:	1.365	yaw rate:	5.033	Roll:	-2.183	Pitch:	1.755	Yaw:	3.501	Thrust:	63.501
Time:	4.694	Roll Set Point:	-0.002	Pitch Set Point:	-0.103	Yaw Set Point:	-0.023	X_WP:	0.100	Y_WP:	0.000	Y_WP:	0.500	X:	0.050	Y:	0.051	Z:	0.602	yaw:	1.338	yaw rate:	-4.011	Roll:	-2.303	Pitch:	2.116	Yaw:	2.222	Thrust:	95.170
Time:	4.705	Roll Set Point:	-0.001	Pitch Set Point:	-0.103	Yaw Set Point:	-0.024	X_WP:	0.100	Y_WP:	0.000	Y_WP:	0.500	X:	0.050	Y:	0.051	Z:	0.601	yaw:	1.382	yaw rate:	4.450	Roll:	-1.911	Pitch:	2.012	Yaw:	3.482	Thrust:	61.802
Time:	4.719	Roll Set Point:	-0.001	Pitch Set Point:	-0.103	Yaw Set Point:	-0.024	X_WP:	0.100	Y_WP:	0.000	Y_WP:	0.500	X:	0.050	Y:	0.051	Z:	0.600	yaw:	1.379	yaw rate:	-0.337	Roll:	-1.857	Pitch:	2.005	Yaw:	2.515	Thrust:	68.696
Time:	4.731	Roll Set Point:	-0.000	Pitch Set Point:	-0.103	Yaw Set Point:	-0.029	X_WP:	0.100	Y_WP:	0.000	Y_WP:	0.500	X:	0.049	Y:	0.051	Z:	0.600	yaw:	1.657	yaw rate:	27.776	Roll:	-1.634	Pitch:	2.327	Yaw:	9.415	Thrust:	62.975
Time:	4.743	Roll Set Point:	0.000	Pitch Set Point:	-0.103	Yaw Set Point:	-0.026	X_WP:	0.100	Y_WP:	0.000	Y_WP:	0.500	X:	0.049	Y:	0.051	Z:	0.599	yaw:	1.474	yaw rate:	-18.217	Roll:	-2.256	Pitch:	1.543	Yaw:	-0.971	Thrust:	68.199
Time:	4.757	Roll Set Point:	0.001	Pitch Set Point:	-0.103	Yaw Set Point:	-0.026	X_WP:	0.100	Y_WP:	0.000	Y_WP:	0.500	X:	0.049	Y:	0.051	Z:	0.599	yaw:	1.478	yaw rate:	0.404	Roll:	-1.855	Pitch:	1.944	Yaw:	2.770	Thrust:	67.862
Time:	4.767	Roll Set Point:	0.001	Pitch Set Point:	-0.103	Yaw Set Point:	-0.025	X_WP:	0.100	Y_WP:	0.000	Y_WP:	0.500	X:	0.049	Y:	0.051	Z:	0.598	yaw:	1.425	yaw rate:	-5.297	Roll:	-2.115	Pitch:	1.809	Yaw:	1.190	Thrust:	57.101
Time:	4.785	Roll Set Point:	0.002	Pitch Set Point:	-0.103	Yaw Set Point:	-0.025	X_WP:	0.100	Y_WP:	0.000	Y_WP:	0.500	X:	0.048	Y:	0.051	Z:	0.597	yaw:	1.411	yaw rate:	-1.411	Roll:	-1.961	Pitch:	1.871	Yaw:	2.652	Thrust:	91.420
Time:	4.798	Roll Set Point:	0.002	Pitch Set Point:	-0.102	Yaw Set Point:	-0.025	X_WP:	0.100	Y_WP:	0.000	Y_WP:	0.500	X:	0.048	Y:	0.051	Z:	0.597	yaw:	1.423	yaw rate:	-2.091	Roll:	-1.858	Pitch:	1.849	Yaw:	2.835	Thrust:	67.541
Time:	4.814	Roll Set Point:	0.002	Pitch Set Point:	-0.102	Yaw Set Point:	-0.025	X_WP:	0.100	Y_WP:	0.000	Y_WP:	0.500	X:	0.048	Y:	0.051	Z:	0.596	yaw:	1.421	yaw rate:	-0.133	Roll:	-1.776	Pitch:	1.877	Yaw:	2.791	Thrust:	76.981
Time:	4.826	Roll Set Point:	0.002	Pitch Set Point:	-0.103	Yaw Set Point:	-0.028	X_WP:	0.100	Y_WP:	0.000	Y_WP:	0.500	X:	0.048	Y:	0.051	Z:	0.596	yaw:	1.596	yaw rate:	17.520	Roll:	-1.436	Pitch:	2.278	Yaw:	6.791	Thrust:	66.123
Time:	4.836	Roll Set Point:	0.003	Pitch Set Point:	-0.102	Yaw Set Point:	-0.024	X_WP:	0.100	Y_WP:	0.000	Y_WP:	0.500	X:	0.048	Y:	0.050	Z:	0.596	yaw:	1.350	yaw rate:	-24.230	Roll:	-2.159	Pitch:	1.000	Yaw:	-3.385	Thrust:	54.950
Time:	4.853	Roll Set Point:	0.003	Pitch Set Point:	-0.101	Yaw Set Point:	-0.025	X_WP:	0.100	Y_WP:	0.000	Y_WP:	0.500	X:	0.048	Y:	0.050	Z:	0.596	yaw:	1.429	yaw rate:	7.928	Roll:	-1.726	Pitch:	1.772	Yaw:	4.089	Thrust:	85.781
Time:	4.865	Roll Set Point:	0.003	Pitch Set Point:	-0.101	Yaw Set Point:	-0.023	X_WP:	0.100	Y_WP:	0.000	Y_WP:	0.500	X:	0.048	Y:	0.050	Z:	0.597	yaw:	1.315	yaw rate:	-11.424	Roll:	-1.737	Pitch:	1.530	Yaw:	-0.183	Thrust:	55.172
Time:	4.880	Roll Set Point:	0.003	Pitch Set Point:	-0.101	Yaw Set Point:	-0.022	X_WP:	0.100	Y_WP:	0.000	Y_WP:	0.500	X:	0.048	Y:	0.050	Z:	0.597	yaw:	1.279	yaw rate:	-3.610	Roll:	-1.629	Pitch:	1.772	Yaw:	1.849	Thrust:	68.870
Time:	4.894	Roll Set Point:	0.002	Pitch Set Point:	-0.101	Yaw Set Point:	-0.021	X_WP:	0.100	Y_WP:	0.000	Y_WP:	0.500	X:	0.048	Y:	0.050	Z:	0.597	yaw:	1.228	yaw rate:	-5.113	Roll:	-1.572	Pitch:	1.872	Yaw:	1.620	Thrust:	74.280
Time:	4.906	Roll Set Point:	0.002	Pitch Set Point:	-0.100	Yaw Set Point:	-0.020	X_WP:	0.100	Y_WP:	0.000	Y_WP:	0.500	X:	0.048	Y:	0.049	Z:	0.599	yaw:	1.135	yaw rate:	-1.494	Roll:	-1.634	Pitch:	1.167	Yaw:	0.317	Thrust:	56.892
Time:	4.919	Roll Set Point:	0.002	Pitch Set Point:	-0.100	Yaw Set Point:	-0.018	X_WP:	0.100	Y_WP:	0.000	Y_WP:	0.500	X:	0.049	Y:	0.049	Z:	0.600	yaw:	1.058	yaw rate:	-7.696	Roll:	-1.592	Pitch:	1.667	Yaw:	0.637	Thrust:	61.656
Time:	4.930	Roll Set Point:	0.002	Pitch Set Point:	-0.099	Yaw Set Point:	-0.018	X_WP:	0.100	Y_WP:	0.000	Y_WP:	0.500	X:	0.049	Y:	0.049	Z:	0.600	yaw:	1.006	yaw rate:	-5.188	Roll:	-1.547	Pitch:	1.492	Yaw:	0.695	Thrust:	47.706
Time:	4.943	Roll Set Point:	0.002	Pitch Set Point:	-0.099	Yaw Set Point:	-0.018	X_WP:	0.100	Y_WP:	0.000	Y_WP:	0.500	X:	0.049	Y:	0.049	Z:	0.601	yaw:	1.019	yaw rate:	1.239	Roll:	-1.394	Pitch:	1.635	Yaw:	2.363	Thrust:	55.197
Time:	4.954	Roll Set Point:	0.001	Pitch Set Point:	-0.098	Yaw Set Point:	-0.016	X_WP:	0.100	Y_WP:	0.000	Y_WP:	0.500	X:	0.049	Y:	0.049	Z:	0.603	yaw:	0.934	yaw rate:	-8.483	Roll:	-1.340	Pitch:	1.292	Yaw:	0.008	Thrust:	50.898
Time:	4.966	Roll Set Point:	0.001	Pitch Set Point:	-0.098	Yaw Set Point:	-0.016	X_WP:	0.100	Y_WP:	0.000	Y_WP:	0.500	X:	0.049	Y:	0.049	Z:	0.604	yaw:	0.931	yaw rate:	-0.283	Roll:	-1.379	Pitch:	1.600	Yaw:	1.860	Thrust:	50.242
Time:	4.983	Roll Set Point:	0.000	Pitch Set Point:	-0.098	Yaw Set Point:	-0.017	X_WP:	0.100	Y_WP:	0.000	Y_WP:	0.500	X:	0.050	Y:	0.049	Z:	0.605	yaw:	0.951	yaw rate:	1.973	Roll:	-1.328	Pitch:	1.865	Yaw:	2.557	Thrust:	70.755
Time:	4.995	Roll Set Point:	-0.001	Pitch Set Point:	-0.097	Yaw Set Point:	-0.016	X_WP:	0.100	Y_WP:	0.000	Y_WP:	0.500	X:	0.050	Y:	0.048	Z:	0.607	yaw:	0.914	yaw rate:	2.327	Roll:	-1.295	Pitch:	1.514	Yaw:	1.261	Thrust:	64.409
Time:	5.007	Roll Set Point:	-0.001	Pitch Set Point:	-0.097	Yaw Set Point:	-0.019	X_WP:	0.100	Y_WP:	0.000	Y_WP:	0.500	X:	0.050	Y:	0.048	Z:	0.608	yaw:	1.091	yaw rate:	17.741	Roll:	-1.027	Pitch:	1.856	Yaw:	6.350	Thrust:	47.696
Time:	5.024	Roll Set Point:	-0.001	Pitch Set Point:	-0.096	Yaw Set Point:	-0.016	X_WP:	0.100	Y_WP:	0.000	Y_WP:	0.500	X:	0.050	Y:	0.048	Z:	0.609	yaw:	0.901	yaw rate:	-18.976	Roll:	-1.743	Pitch:	1.565	Yaw:	-0.472	Thrust:	86.770
Time:	5.035	Roll Set Point:	-0.002	Pitch Set Point:	-0.096	Yaw Set Point:	-0.015	X_WP:	0.100	Y_WP:	0.000	Y_WP:	0.500	X:	0.051	Y:	0.048	Z:	0.610	yaw:	0.866	yaw rate:	-3.575	Roll:	-1.228	Pitch:	1.707	Yaw:	0.990	Thrust:	49.476
Time:	5.054	Roll Set Point:	-0.002	Pitch Set Point:	-0.096	Yaw Set Point:	-0.019	X_WP:	0.100	Y_WP:	0.000	Y_WP:	0.500	X:	0.051	Y:	0.048	Z:	0.610	yaw:	1.072	yaw rate:	20.639	Roll:	-1.282	Pitch:	2.064	Yaw:	5.518	Thrust:	83.607
Time:	5.065	Roll Set Point:	-0.004	Pitch Set Point:	-0.095	Yaw Set Point:	-0.014	X_WP:	0.100	Y_WP:	0.000	Y_WP:	0.500	X:	0.051	Y:	0.047	Z:	0.611	yaw:	0.819	yaw rate:	-6.506	Roll:	-0.971	Pitch:	0.757	Yaw:	-4.168	Thrust:	50.696
Time:	5.081	Roll Set Point:	-0.004	Pitch Set Point:	-0.095	Yaw Set Point:	-0.015	X_WP:	0.100	Y_WP:	0.000	Y_WP:	0.500	X:	0.052	Y:	0.047	Z:	0.611	yaw:	0.833	yaw rate:	1.401	Roll:	-1.300	Pitch:	1.703	Yaw:	2.275	Thrust:	71.555
Time:	5.096	Roll Set Point:	-0.005	Pitch Set Point:	-0.095	Yaw Set Point:	-0.014	X_WP:	0.100	Y_WP:	0.000	Y_WP:	0.500	X:	0.052	Y:	0.047	Z:	0.611	yaw:	0.775	yaw rate:	-5.767	Roll:	-1.432	Pitch:	1.732	Yaw:	1.074	Thrust:	76.893
Time:	5.107	Roll Set Point:	-0.006	Pitch Set Point:	-0.094	Yaw Set Point:	-0.012	X_WP:	0.100	Y_WP:	0.000	Y_WP:	0.500	X:	0.053	Y:	0.047	Z:	0.611	yaw:	0.695	yaw rate:	-8.026	Roll:	-0.804	Pitch:	1.222	Yaw:	-0.221	Thrust:	53.595
Time:	5.122	Roll Set Point:	-0.007	Pitch Set Point:	-0.093	Yaw Set Point:	-0.010	X_WP:	0.100	Y_WP:	0.000	Y_WP:	0.500	X:	0.053	Y:	0.046	Z:	0.611	yaw:	0.593	yaw rate:	-2.832	Roll:	-0.955	Pitch:	1.422	Yaw:	-0.245	Thrust:	67.546
Time:	5.132	Roll Set Point:	-0.007	Pitch Set Point:	-0.093	Yaw Set Point:	-0.010	X_WP:	0.100	Y_WP:	0.000	Y_WP:	0.500	X:	0.053	Y:	0.046	Z:	0.611	yaw:	0.574	yaw rate:	-1.902	Roll:	-1.169	Pitch:	1.506	Yaw:	1.020	Thrust:	52.641
Time:	5.144	Roll Set Point:	-0.008	Pitch Set Point:	-0.093	Yaw Set Point:	-0.009	X_WP:	0.100	Y_WP:	0.000	Y_WP:	0.500	X:	0.054	Y:	0.046	Z:	0.610	yaw:	0.527	yaw rate:	-4.712	Roll:	-1.089	Pitch:	1.516	Yaw:	0.421	Thrust:	56.617
Time:	5.156	Roll Set Point:	-0.009	Pitch Set Point:	-0.093	Yaw Set Point:	-0.010	X_WP:	0.100	Y_WP:	0.000	Y_WP:	0.500	X:	0.054	Y:	0.046	Z:	0.610	yaw:	0.593	yaw rate:	6.582	Roll:	-0.873	Pitch:	1.842	Yaw:	2.971	Thrust:	55.918
Time:	5.167	Roll Set Point:	-0.009	Pitch Set Point:	-0.092	Yaw Set Point:	-0.010	X_WP:	0.100	Y_WP:	0.000	Y_WP:	0.500	X:	0.054	Y:	0.046	Z:	0.610	yaw:	0.560	yaw rate:	-3.305	Roll:	-1.117	Pitch:	1.451	Yaw:	0.662	Thrust:	50.944
Time:	5.183	Roll Set Point:	-0.010	Pitch Set Point:	-0.092	Yaw Set Point:	-0.006	X_WP:	0.100	Y_WP:	0.000	Y_WP:	0.500	X:	0.055	Y:	0.046	Z:	0.610	yaw:	0.324	yaw rate:	-23.569	Roll:	-1.486	Pitch:	1.328	Yaw:	-2.583	Thrust:	70.695
Time:	5.194	Roll Set Point:	-0.011	Pitch Set Point:	-0.092	Yaw Set Point:	-0.005	X_WP:	0.100	Y_WP:	0.000	Y_WP:	0.500	X:	0.055	Y:	0.046	Z:	0.610	yaw:	0.273	yaw rate:	-5.072	Roll:	-0.623	Pitch:	1.634	Yaw:	-0.166	Thrust:	53.187
Time:	5.205	Roll Set Point:	-0.012	Pitch Set Point:	-0.092	Yaw Set Point:	-0.005	X_WP:	0.100	Y_WP:	0.000	Y_WP:	0.500	X:	0.056	Y:	0.046	Z:	0.610	yaw:	0.309	yaw rate:	3.595	Roll:	-1.019	Pitch:	1.624	Yaw:	1.943	Thrust:	49.821
Time:	5.219	Roll Set Point:	-0.012	Pitch Set Point:	-0.091	Yaw Set Point:	-0.005	X_WP:	0.100	Y_WP:	0.000	Y_WP:	0.500	X:	0.056	Y:	0.045	Z:	0.610	yaw:	0.309	yaw rate:	-0.031	Roll:	-1.257	Pitch:	1.566	Yaw:	1.239	Thrust:	62.288
Time:	5.232	Roll Set Point:	-0.013	Pitch Set Point:	-0.091	Yaw Set Point:	-0.005	X_WP:	0.100	Y_WP:	0.000	Y_WP:	0.500	X:	0.056	Y:	0.045	Z:	0.610	yaw:	0.308	yaw rate:	1.761	Roll:	-0.774	Pitch:	1.605	Yaw:	1.195	Thrust:	60.203
Time:	5.244	Roll Set Point:	-0.014	Pitch Set Point:	-0.091	Yaw Set Point:	-0.008	X_WP:	0.100	Y_WP:	0.000	Y_WP:	0.500	X:	0.057	Y:	0.046	Z:	0.609	yaw:	0.486	yaw rate:	17.729	Roll:	-0.493	Pitch:	2.233	Yaw:	5.255	Thrust:	55.496
Time:	5.261	Roll Set Point:	-0.015	Pitch Set Point:	-0.091	Yaw Set Point:	-0.006	X_WP:	0.100	Y_WP:	0.000	Y_WP:	0.500	X:	0.057	Y:	0.045	Z:	0.609	yaw:	0.334	yaw rate:	-15.187	Roll:	-1.505	Pitch:	1.577	Yaw:	-0.841	Thrust:	80.019
Time:	5.274	Roll Set Point:	-0.015	Pitch Set Point:	-0.091	Yaw Set Point:	-0.006	X_WP:	0.100	Y_WP:	0.000	Y_WP:	0.500	X:	0.057	Y:	0.045	Z:	0.609	yaw:	0.350	yaw rate:	1.645	Roll:	-1.011	Pitch:	1.663	Yaw:	1.597	Thrust:	54.082
Time:	5.288	Roll Set Point:	-0.016	Pitch Set Point:	-0.091	Yaw Set Point:	-0.008	X_WP:	0.100	Y_WP:	0.000	Y_WP:	0.500	X:	0.058	Y:	0.045	Z:	0.608	yaw:	0.431	yaw rate:	8.083	Roll:	-1.191	Pitch:	1.731	Yaw:	2.935	Thrust:	70.083
Time:	5.300	Roll Set Point:	-0.017	Pitch Set Point:	-0.091	Yaw Set Point:	-0.010	X_WP:	0.100	Y_WP:	0.000	Y_WP:	0.500	X:	0.058	Y:	0.045	Z:	0.607	yaw:	0.587	yaw rate:	20.715	Roll:	-0.004	Pitch:	2.076	Yaw:	5.242	Thrust:	54.670
Time:	5.317	Roll Set Point:	-0.018	Pitch Set Point:	-0.091	Yaw Set Point:	-0.010	X_WP:	0.100	Y_WP:	0.000	Y_WP:	0.500	X:	0.059	Y:	0.045	Z:	0.607	yaw:	0.581	yaw rate:	-0.562	Roll:	-1.125	Pitch:	1.791	Yaw:	1.829	Thrust:	77.561
Time:	5.329	Roll Set Point:	-0.019	Pitch Set Point:	-0.090	Yaw Set Point:	-0.002	X_WP:	0.100	Y_WP:	0.000	Y_WP:	0.500	X:	0.060	Y:	0.045	Z:	0.605	yaw:	0.125	yaw rate:	-4.293	Roll:	-0.865	Pitch:	0.840	Yaw:	-9.485	Thrust:	63.769
Time:	5.342	Roll Set Point:	-0.020	Pitch Set Point:	-0.089	Yaw Set Point:	-0.000	X_WP:	0.100	Y_WP:	0.000	Y_WP:	0.500	X:	0.060	Y:	0.045	Z:	0.605	yaw:	0.012	yaw rate:	-11.304	Roll:	-1.038	Pitch:	1.435	Yaw:	-1.705	Thrust:	54.772
Time:	5.355	Roll Set Point:	-0.020	Pitch Set Point:	-0.089	Yaw Set Point:	0.002	X_WP:	0.100	Y_WP:	0.000	Y_WP:	0.500	X:	0.060	Y:	0.045	Z:	0.605	yaw:	-0.127	yaw rate:	-13.846	Roll:	-1.250	Pitch:	1.645	Yaw:	-1.895	Thrust:	64.007
Time:	5.366	Roll Set Point:	-0.021	Pitch Set Point:	-0.089	Yaw Set Point:	0.004	X_WP:	0.100	Y_WP:	0.000	Y_WP:	0.500	X:	0.060	Y:	0.045	Z:	0.604	yaw:	-0.216	yaw rate:	-8.921	Roll:	-1.063	Pitch:	1.563	Yaw:	-1.745	Thrust:	49.002
Time:	5.384	Roll Set Point:	-0.021	Pitch Set Point:	-0.089	Yaw Set Point:	0.004	X_WP:	0.100	Y_WP:	0.000	Y_WP:	0.500	X:	0.061	Y:	0.045	Z:	0.604	yaw:	-0.250	yaw rate:	-3.399	Roll:	-1.156	Pitch:	1.780	Yaw:	0.125	Thrust:	70.696
Time:	5.396	Roll Set Point:	-0.022	Pitch Set Point:	-0.089	Yaw Set Point:	0.007	X_WP:	0.100	Y_WP:	0.000	Y_WP:	0.500	X:	0.061	Y:	0.045	Z:	0.604	yaw:	-0.416	yaw rate:	-8.361	Roll:	-1.074	Pitch:	1.702	Yaw:	-2.825	Thrust:	64.759
Time:	5.419	Roll Set Point:	-0.023	Pitch Set Point:	-0.090	Yaw Set Point:	0.003	X_WP:	0.100	Y_WP:	0.000	Y_WP:	0.500	X:	0.061	Y:	0.045	Z:	0.604	yaw:	-0.158	yaw rate:	25.821	Roll:	-0.891	Pitch:	2.335	Yaw:	4.142	Thrust:	96.764
Time:	5.430	Roll Set Point:	-0.024	Pitch Set Point:	-0.090	Yaw Set Point:	0.005	X_WP:	0.100	Y_WP:	0.000	Y_WP:	0.500	X:	0.062	Y:	0.045	Z:	0.605	yaw:	-0.300	yaw rate:	1.746	Roll:	-1.163	Pitch:	1.872	Yaw:	-2.951	Thrust:	58.467
Time:	5.453	Roll Set Point:	-0.024	Pitch Set Point:	-0.090	Yaw Set Point:	0.005	X_WP:	0.100	Y_WP:	0.000	Y_WP:	0.500	X:	0.062	Y:	0.045	Z:	0.605	yaw:	-0.285	yaw rate:	1.478	Roll:	-1.042	Pitch:	1.923	Yaw:	1.114	Thrust:	88.254
Time:	5.467	Roll Set Point:	-0.025	Pitch Set Point:	-0.090	Yaw Set Point:	0.006	X_WP:	0.100	Y_WP:	0.000	Y_WP:	0.500	X:	0.062	Y:	0.045	Z:	0.606	yaw:	-0.320	yaw rate:	-4.886	Roll:	-1.357	Pitch:	2.246	Yaw:	-0.354	Thrust:	67.918
Time:	5.485	Roll Set Point:	-0.025	Pitch Set Point:	-0.090	Yaw Set Point:	0.006	X_WP:	0.100	Y_WP:	0.000	Y_WP:	0.500	X:	0.063	Y:	0.045	Z:	0.606	yaw:	-0.321	yaw rate:	-0.079	Roll:	-1.162	Pitch:	2.034	Yaw:	0.632	Thrust:	75.495
Time:	5.498	Roll Set Point:	-0.026	Pitch Set Point:	-0.091	Yaw Set Point:	0.006	X_WP:	0.100	Y_WP:	0.000	Y_WP:	0.500	X:	0.063	Y:	0.046	Z:	0.607	yaw:	-0.339	yaw rate:	-3.422	Roll:	-1.054	Pitch:	2.111	Yaw:	-0.035	Thrust:	60.149
Time:	5.511	Roll Set Point:	-0.026	Pitch Set Point:	-0.091	Yaw Set Point:	0.006	X_WP:	0.100	Y_WP:	0.000	Y_WP:	0.500	X:	0.063	Y:	0.046	Z:	0.607	yaw:	-0.365	yaw rate:	-2.632	Roll:	-1.151	Pitch:	1.959	Yaw:	-0.256	Thrust:	54.845
Time:	5.526	Roll Set Point:	-0.026	Pitch Set Point:	-0.091	Yaw Set Point:	0.008	X_WP:	0.100	Y_WP:	0.000	Y_WP:	0.500	X:	0.063	Y:	0.046	Z:	0.608	yaw:	-0.446	yaw rate:	-8.059	Roll:	-1.201	Pitch:	1.940	Yaw:	-1.119	Thrust:	64.337
Time:	5.538	Roll Set Point:	-0.027	Pitch Set Point:	-0.092	Yaw Set Point:	0.009	X_WP:	0.100	Y_WP:	0.000	Y_WP:	0.500	X:	0.064	Y:	0.046	Z:	0.609	yaw:	-0.516	yaw rate:	-6.988	Roll:	-0.993	Pitch:	2.151	Yaw:	-1.340	Thrust:	45.365
Time:	5.555	Roll Set Point:	-0.027	Pitch Set Point:	-0.092	Yaw Set Point:	0.010	X_WP:	0.100	Y_WP:	0.000	Y_WP:	0.500	X:	0.064	Y:	0.046	Z:	0.610	yaw:	-0.556	yaw rate:	-4.025	Roll:	-1.066	Pitch:	2.068	Yaw:	-0.426	Thrust:	72.411
Time:	5.568	Roll Set Point:	-0.028	Pitch Set Point:	-0.093	Yaw Set Point:	0.008	X_WP:	0.100	Y_WP:	0.000	Y_WP:	0.500	X:	0.064	Y:	0.047	Z:	0.612	yaw:	-0.452	yaw rate:	7.519	Roll:	-0.877	Pitch:	2.404	Yaw:	2.171	Thrust:	48.537
Time:	5.585	Roll Set Point:	-0.029	Pitch Set Point:	-0.093	Yaw Set Point:	0.009	X_WP:	0.100	Y_WP:	0.000	Y_WP:	0.500	X:	0.065	Y:	0.047	Z:	0.614	yaw:	-0.507	yaw rate:	-5.406	Roll:	-1.111	Pitch:	2.125	Yaw:	-0.695	Thrust:	66.146
Time:	5.598	Roll Set Point:	-0.029	Pitch Set Point:	-0.094	Yaw Set Point:	0.007	X_WP:	0.100	Y_WP:	0.000	Y_WP:	0.500	X:	0.065	Y:	0.047	Z:	0.615	yaw:	-0.408	yaw rate:	9.804	Roll:	-1.159	Pitch:	2.204	Yaw:	2.169	Thrust:	53.557
Time:	5.615	Roll Set Point:	-0.030	Pitch Set Point:	-0.095	Yaw Set Point:	0.005	X_WP:	0.100	Y_WP:	0.000	Y_WP:	0.500	X:	0.065	Y:	0.048	Z:	0.618	yaw:	-0.310	yaw rate:	11.796	Roll:	-0.426	Pitch:	2.796	Yaw:	2.239	Thrust:	42.291
Time:	5.629	Roll Set Point:	-0.030	Pitch Set Point:	-0.096	Yaw Set Point:	0.005	X_WP:	0.100	Y_WP:	0.000	Y_WP:	0.500	X:	0.065	Y:	0.048	Z:	0.620	yaw:	-0.260	yaw rate:	4.971	Roll:	-1.238	Pitch:	2.203	Yaw:	1.404	Thrust:	74.549
Time:	5.644	Roll Set Point:	-0.031	Pitch Set Point:	-0.096	Yaw Set Point:	0.003	X_WP:	0.100	Y_WP:	0.000	Y_WP:	0.500	X:	0.066	Y:	0.048	Z:	0.621	yaw:	-0.172	yaw rate:	8.787	Roll:	-0.768	Pitch:	2.347	Yaw:	2.359	Thrust:	46.014
