Time:	2.037	Roll Set Point:	-0.066	Pitch Set Point:	0.052	Yaw Set Point:	2.538	X_WP:	0.100	Y_WP:	0.000	Y_WP:	0.500	X:	-0.001	Y:	0.029	Z:	0.049	yaw:	-145.394	yaw rate:	-3.834	Roll:	1.942	Pitch:	-2.360	Yaw:	-203.008	Thrust:	24.808
Time:	2.048	Roll Set Point:	-0.065	Pitch Set Point:	0.053	Yaw Set Point:	2.533	X_WP:	0.100	Y_WP:	0.000	Y_WP:	0.500	X:	-0.001	Y:	0.029	Z:	0.049	yaw:	-145.122	yaw rate:	27.170	Roll:	1.104	Pitch:	-2.851	Yaw:	-196.731	Thrust:	24.839
Time:	2.058	Roll Set Point:	-0.065	Pitch Set Point:	0.052	Yaw Set Point:	2.535	X_WP:	0.100	Y_WP:	0.000	Y_WP:	0.500	X:	-0.001	Y:	0.029	Z:	0.049	yaw:	-145.268	yaw rate:	-14.646	Roll:	2.258	Pitch:	-2.084	Yaw:	-207.654	Thrust:	25.833
Time:	2.072	Roll Set Point:	-0.065	Pitch Set Point:	0.053	Yaw Set Point:	2.534	X_WP:	0.100	Y_WP:	0.000	Y_WP:	0.500	X:	-0.001	Y:	0.029	Z:	0.049	yaw:	-145.209	yaw rate:	5.933	Roll:	1.877	Pitch:	-2.452	Yaw:	-203.788	Thrust:	27.094
Time:	2.083	Roll Set Point:	-0.065	Pitch Set Point:	0.053	Yaw Set Point:	2.534	X_WP:	0.100	Y_WP:	0.000	Y_WP:	0.500	X:	-0.001	Y:	0.029	Z:	0.049	yaw:	-145.201	yaw rate:	0.782	Roll:	1.931	Pitch:	-2.410	Yaw:	-204.758	Thrust:	27.325
Time:	2.093	Roll Set Point:	-0.065	Pitch Set Point:	0.053	Yaw Set Point:	2.534	X_WP:	0.100	Y_WP:	0.000	Y_WP:	0.500	X:	-0.001	Y:	0.029	Z:	0.049	yaw:	-145.170	yaw rate:	3.078	Roll:	1.942	Pitch:	-2.427	Yaw:	-204.014	Thrust:	27.536
Time:	2.106	Roll Set Point:	-0.065	Pitch Set Point:	0.053	Yaw Set Point:	2.532	X_WP:	0.100	Y_WP:	0.000	Y_WP:	0.500	X:	-0.001	Y:	0.029	Z:	0.049	yaw:	-145.086	yaw rate:	8.468	Roll:	1.750	Pitch:	-2.549	Yaw:	-203.059	Thrust:	28.684
Time:	2.117	Roll Set Point:	-0.066	Pitch Set Point:	0.052	Yaw Set Point:	2.538	X_WP:	0.100	Y_WP:	0.000	Y_WP:	0.500	X:	-0.001	Y:	0.029	Z:	0.049	yaw:	-145.415	yaw rate:	-32.971	Roll:	2.853	Pitch:	-1.801	Yaw:	-212.830	Thrust:	29.845
Time:	2.127	Roll Set Point:	-0.065	Pitch Set Point:	0.053	Yaw Set Point:	2.533	X_WP:	0.100	Y_WP:	0.000	Y_WP:	0.500	X:	-0.001	Y:	0.029	Z:	0.049	yaw:	-145.106	yaw rate:	30.942	Roll:	0.940	Pitch:	-2.986	Yaw:	-196.536	Thrust:	28.332
Time:	2.138	Roll Set Point:	-0.065	Pitch Set Point:	0.053	Yaw Set Point:	2.533	X_WP:	0.100	Y_WP:	0.000	Y_WP:	0.500	X:	-0.001	Y:	0.029	Z:	0.049	yaw:	-145.150	yaw rate:	-4.399	Roll:	2.123	Pitch:	-2.300	Yaw:	-205.981	Thrust:	30.371
Time:	2.150	Roll Set Point:	-0.065	Pitch Set Point:	0.053	Yaw Set Point:	2.534	X_WP:	0.100	Y_WP:	0.000	Y_WP:	0.500	X:	-0.001	Y:	0.029	Z:	0.049	yaw:	-145.189	yaw rate:	-3.864	Roll:	1.998	Pitch:	-2.339	Yaw:	-205.905	Thrust:	31.158
Time:	2.160	Roll Set Point:	-0.066	Pitch Set Point:	0.052	Yaw Set Point:	2.537	X_WP:	0.100	Y_WP:	0.000	Y_WP:	0.500	X:	-0.001	Y:	0.029	Z:	0.049	yaw:	-145.371	yaw rate:	-18.257	Roll:	2.607	Pitch:	-2.003	Yaw:	-209.743	Thrust:	31.424
Time:	2.170	Roll Set Point:	-0.065	Pitch Set Point:	0.053	Yaw Set Point:	2.532	X_WP:	0.100	Y_WP:	0.000	Y_WP:	0.500	X:	-0.001	Y:	0.029	Z:	0.049	yaw:	-145.070	yaw rate:	30.099	Roll:	1.011	Pitch:	-2.938	Yaw:	-197.184	Thrust:	30.685
Time:	2.181	Roll Set Point:	-0.065	Pitch Set Point:	0.053	Yaw Set Point:	2.534	X_WP:	0.100	Y_WP:	0.000	Y_WP:	0.500	X:	-0.001	Y:	0.029	Z:	0.049	yaw:	-145.178	yaw rate:	-10.804	Roll:	2.210	Pitch:	-2.266	Yaw:	-207.475	Thrust:	32.827
Time:	2.192	Roll Set Point:	-0.066	Pitch Set Point:	0.052	Yaw Set Point:	2.536	X_WP:	0.100	Y_WP:	0.000	Y_WP:	0.500	X:	-0.001	Y:	0.029	Z:	0.049	yaw:	-145.317	yaw rate:	-13.851	Roll:	2.412	Pitch:	-2.103	Yaw:	-208.513	Thrust:	32.682
Time:	2.203	Roll Set Point:	-0.065	Pitch Set Point:	0.053	Yaw Set Point:	2.532	X_WP:	0.100	Y_WP:	0.000	Y_WP:	0.500	X:	-0.001	Y:	0.029	Z:	0.049	yaw:	-145.093	yaw rate:	22.354	Roll:	1.311	Pitch:	-2.719	Yaw:	-199.816	Thrust:	33.740
Time:	2.214	Roll Set Point:	-0.066	Pitch Set Point:	0.052	Yaw Set Point:	2.537	X_WP:	0.100	Y_WP:	0.000	Y_WP:	0.500	X:	-0.001	Y:	0.029	Z:	0.049	yaw:	-145.347	yaw rate:	-25.378	Roll:	2.750	Pitch:	-2.005	Yaw:	-211.171	Thrust:	35.340
Time:	2.225	Roll Set Point:	-0.065	Pitch Set Point:	0.053	Yaw Set Point:	2.535	X_WP:	0.100	Y_WP:	0.000	Y_WP:	0.500	X:	-0.001	Y:	0.029	Z:	0.049	yaw:	-145.240	yaw rate:	10.707	Roll:	1.515	Pitch:	-2.615	Yaw:	-202.471	Thrust:	34.310
Time:	2.236	Roll Set Point:	-0.065	Pitch Set Point:	0.053	Yaw Set Point:	2.533	X_WP:	0.100	Y_WP:	0.000	Y_WP:	0.500	X:	-0.001	Y:	0.029	Z:	0.049	yaw:	-145.136	yaw rate:	10.374	Roll:	1.720	Pitch:	-2.556	Yaw:	-202.187	Thrust:	34.593
Time:	2.247	Roll Set Point:	-0.065	Pitch Set Point:	0.053	Yaw Set Point:	2.533	X_WP:	0.100	Y_WP:	0.000	Y_WP:	0.500	X:	-0.001	Y:	0.029	Z:	0.049	yaw:	-145.125	yaw rate:	1.145	Roll:	1.934	Pitch:	-2.472	Yaw:	-204.566	Thrust:	36.588
Time:	2.258	Roll Set Point:	-0.065	Pitch Set Point:	0.053	Yaw Set Point:	2.532	X_WP:	0.100	Y_WP:	0.000	Y_WP:	0.500	X:	-0.001	Y:	0.029	Z:	0.049	yaw:	-145.101	yaw rate:	2.386	Roll:	1.959	Pitch:	-2.480	Yaw:	-204.265	Thrust:	36.890
Time:	2.270	Roll Set Point:	-0.065	Pitch Set Point:	0.053	Yaw Set Point:	2.534	X_WP:	0.100	Y_WP:	0.000	Y_WP:	0.500	X:	-0.001	Y:	0.029	Z:	0.049	yaw:	-145.208	yaw rate:	-2.427	Roll:	2.162	Pitch:	-2.222	Yaw:	-207.480	Thrust:	38.473
Time:	2.281	Roll Set Point:	-0.065	Pitch Set Point:	0.053	Yaw Set Point:	2.534	X_WP:	0.100	Y_WP:	0.000	Y_WP:	0.500	X:	-0.001	Y:	0.029	Z:	0.049	yaw:	-145.185	yaw rate:	2.270	Roll:	1.922	Pitch:	-2.470	Yaw:	-204.383	Thrust:	37.867
Time:	2.292	Roll Set Point:	-0.065	Pitch Set Point:	0.053	Yaw Set Point:	2.534	X_WP:	0.100	Y_WP:	0.000	Y_WP:	0.500	X:	-0.001	Y:	0.029	Z:	0.049	yaw:	-145.184	yaw rate:	0.102	Roll:	1.972	Pitch:	-2.426	Yaw:	-204.916	Thrust:	38.716
Time:	2.304	Roll Set Point:	-0.065	Pitch Set Point:	0.053	Yaw Set Point:	2.533	X_WP:	0.100	Y_WP:	0.000	Y_WP:	0.500	X:	-0.001	Y:	0.029	Z:	0.049	yaw:	-145.127	yaw rate:	5.680	Roll:	1.836	Pitch:	-2.514	Yaw:	-203.668	Thrust:	39.801
Time:	2.315	Roll Set Point:	-0.065	Pitch Set Point:	0.053	Yaw Set Point:	2.534	X_WP:	0.100	Y_WP:	0.000	Y_WP:	0.500	X:	-0.001	Y:	0.029	Z:	0.049	yaw:	-145.195	yaw rate:	-6.751	Roll:	2.108	Pitch:	-2.300	Yaw:	-206.538	Thrust:	39.624
Time:	2.325	Roll Set Point:	-0.065	Pitch Set Point:	0.053	Yaw Set Point:	2.533	X_WP:	0.100	Y_WP:	0.000	Y_WP:	0.500	X:	-0.001	Y:	0.029	Z:	0.049	yaw:	-145.149	yaw rate:	4.572	Roll:	1.986	Pitch:	-2.524	Yaw:	-203.675	Thrust:	39.904
Time:	2.336	Roll Set Point:	-0.065	Pitch Set Point:	0.053	Yaw Set Point:	2.533	X_WP:	0.100	Y_WP:	0.000	Y_WP:	0.500	X:	-0.001	Y:	0.029	Z:	0.049	yaw:	-145.123	yaw rate:	2.601	Roll:	1.815	Pitch:	-2.371	Yaw:	-204.090	Thrust:	39.966
Time:	2.347	Roll Set Point:	-0.065	Pitch Set Point:	0.053	Yaw Set Point:	2.533	X_WP:	0.100	Y_WP:	0.000	Y_WP:	0.500	X:	-0.001	Y:	0.029	Z:	0.049	yaw:	-145.105	yaw rate:	1.787	Roll:	1.938	Pitch:	-2.484	Yaw:	-204.505	Thrust:	42.205
Time:	2.358	Roll Set Point:	-0.065	Pitch Set Point:	0.053	Yaw Set Point:	2.534	X_WP:	0.100	Y_WP:	0.000	Y_WP:	0.500	X:	-0.001	Y:	0.029	Z:	0.049	yaw:	-145.176	yaw rate:	-7.103	Roll:	2.139	Pitch:	-2.359	Yaw:	-206.600	Thrust:	42.445
Time:	2.369	Roll Set Point:	-0.065	Pitch Set Point:	0.053	Yaw Set Point:	2.535	X_WP:	0.100	Y_WP:	0.000	Y_WP:	0.500	X:	-0.001	Y:	0.029	Z:	0.049	yaw:	-145.239	yaw rate:	-6.306	Roll:	2.147	Pitch:	-2.321	Yaw:	-206.469	Thrust:	41.993
Time:	2.381	Roll Set Point:	-0.065	Pitch Set Point:	0.053	Yaw Set Point:	2.533	X_WP:	0.100	Y_WP:	0.000	Y_WP:	0.500	X:	-0.001	Y:	0.029	Z:	0.049	yaw:	-145.118	yaw rate:	12.114	Roll:	1.702	Pitch:	-2.595	Yaw:	-202.179	Thrust:	43.967
Time:	2.392	Roll Set Point:	-0.065	Pitch Set Point:	0.053	Yaw Set Point:	2.534	X_WP:	0.100	Y_WP:	0.000	Y_WP:	0.500	X:	-0.001	Y:	0.029	Z:	0.049	yaw:	-145.198	yaw rate:	-7.985	Roll:	2.198	Pitch:	-2.355	Yaw:	-206.838	Thrust:	44.297
Time:	2.403	Roll Set Point:	-0.065	Pitch Set Point:	0.053	Yaw Set Point:	2.535	X_WP:	0.100	Y_WP:	0.000	Y_WP:	0.500	X:	-0.001	Y:	0.029	Z:	0.049	yaw:	-145.243	yaw rate:	-4.515	Roll:	2.046	Pitch:	-2.380	Yaw:	-206.130	Thrust:	44.414
Time:	2.414	Roll Set Point:	-0.065	Pitch Set Point:	0.053	Yaw Set Point:	2.535	X_WP:	0.100	Y_WP:	0.000	Y_WP:	0.500	X:	-0.001	Y:	0.029	Z:	0.049	yaw:	-145.217	yaw rate:	2.611	Roll:	1.890	Pitch:	-2.493	Yaw:	-204.346	Thrust:	46.112
Time:	2.424	Roll Set Point:	-0.065	Pitch Set Point:	0.053	Yaw Set Point:	2.533	X_WP:	0.100	Y_WP:	0.000	Y_WP:	0.500	X:	-0.001	Y:	0.029	Z:	0.049	yaw:	-145.105	yaw rate:	11.152	Roll:	1.833	Pitch:	-2.673	Yaw:	-201.758	Thrust:	44.059
Time:	2.436	Roll Set Point:	-0.066	Pitch Set Point:	0.053	Yaw Set Point:	2.536	X_WP:	0.100	Y_WP:	0.000	Y_WP:	0.500	X:	-0.001	Y:	0.029	Z:	0.049	yaw:	-145.294	yaw rate:	-18.872	Roll:	2.590	Pitch:	-1.993	Yaw:	-209.459	Thrust:	47.539
Time:	2.447	Roll Set Point:	-0.066	Pitch Set Point:	0.053	Yaw Set Point:	2.536	X_WP:	0.100	Y_WP:	0.000	Y_WP:	0.500	X:	-0.001	Y:	0.029	Z:	0.049	yaw:	-145.315	yaw rate:	-2.082	Roll:	2.068	Pitch:	-2.423	Yaw:	-205.598	Thrust:	46.876
Time:	2.459	Roll Set Point:	-0.065	Pitch Set Point:	0.053	Yaw Set Point:	2.532	X_WP:	0.100	Y_WP:	0.000	Y_WP:	0.500	X:	-0.001	Y:	0.029	Z:	0.049	yaw:	-145.094	yaw rate:	22.083	Roll:	1.373	Pitch:	-2.825	Yaw:	-200.105	Thrust:	48.617
Time:	2.471	Roll Set Point:	-0.066	Pitch Set Point:	0.052	Yaw Set Point:	2.538	X_WP:	0.100	Y_WP:	0.000	Y_WP:	0.500	X:	-0.001	Y:	0.029	Z:	0.049	yaw:	-145.414	yaw rate:	-31.996	Roll:	2.833	Pitch:	-1.985	Yaw:	-212.219	Thrust:	51.109
Time:	2.482	Roll Set Point:	-0.065	Pitch Set Point:	0.053	Yaw Set Point:	2.534	X_WP:	0.100	Y_WP:	0.000	Y_WP:	0.500	X:	-0.001	Y:	0.029	Z:	0.049	yaw:	-145.184	yaw rate:	22.967	Roll:	1.338	Pitch:	-2.889	Yaw:	-199.471	Thrust:	49.088
Time:	2.493	Roll Set Point:	-0.066	Pitch Set Point:	0.053	Yaw Set Point:	2.536	X_WP:	0.100	Y_WP:	0.000	Y_WP:	0.500	X:	-0.001	Y:	0.029	Z:	0.049	yaw:	-145.328	yaw rate:	-14.381	Roll:	2.621	Pitch:	-2.082	Yaw:	-208.594	Thrust:	48.790
Time:	2.504	Roll Set Point:	-0.066	Pitch Set Point:	0.052	Yaw Set Point:	2.538	X_WP:	0.100	Y_WP:	0.000	Y_WP:	0.500	X:	-0.001	Y:	0.029	Z:	0.049	yaw:	-145.416	yaw rate:	-8.771	Roll:	2.093	Pitch:	-2.342	Yaw:	-207.326	Thrust:	49.907
Time:	2.515	Roll Set Point:	-0.065	Pitch Set Point:	0.053	Yaw Set Point:	2.533	X_WP:	0.100	Y_WP:	0.000	Y_WP:	0.500	X:	-0.001	Y:	0.029	Z:	0.049	yaw:	-145.147	yaw rate:	26.941	Roll:	1.235	Pitch:	-2.972	Yaw:	-198.068	Thrust:	48.705
Time:	2.526	Roll Set Point:	-0.065	Pitch Set Point:	0.053	Yaw Set Point:	2.533	X_WP:	0.100	Y_WP:	0.000	Y_WP:	0.500	X:	-0.001	Y:	0.029	Z:	0.049	yaw:	-145.105	yaw rate:	4.194	Roll:	1.907	Pitch:	-2.548	Yaw:	-203.826	Thrust:	51.115
Time:	2.537	Roll Set Point:	-0.065	Pitch Set Point:	0.053	Yaw Set Point:	2.534	X_WP:	0.100	Y_WP:	0.000	Y_WP:	0.500	X:	-0.001	Y:	0.029	Z:	0.049	yaw:	-145.205	yaw rate:	-10.064	Roll:	2.175	Pitch:	-2.263	Yaw:	-207.336	Thrust:	51.689
Time:	2.548	Roll Set Point:	-0.065	Pitch Set Point:	0.052	Yaw Set Point:	2.535	X_WP:	0.100	Y_WP:	0.000	Y_WP:	0.500	X:	-0.001	Y:	0.029	Z:	0.049	yaw:	-145.257	yaw rate:	-5.218	Roll:	2.134	Pitch:	-2.424	Yaw:	-206.262	Thrust:	53.474
Time:	2.559	Roll Set Point:	-0.065	Pitch Set Point:	0.053	Yaw Set Point:	2.534	X_WP:	0.100	Y_WP:	0.000	Y_WP:	0.500	X:	-0.001	Y:	0.029	Z:	0.049	yaw:	-145.192	yaw rate:	6.549	Roll:	1.903	Pitch:	-2.577	Yaw:	-203.255	Thrust:	51.999
Time:	2.570	Roll Set Point:	-0.065	Pitch Set Point:	0.053	Yaw Set Point:	2.533	X_WP:	0.100	Y_WP:	0.000	Y_WP:	0.500	X:	-0.001	Y:	0.029	Z:	0.049	yaw:	-145.118	yaw rate:	7.353	Roll:	1.857	Pitch:	-2.625	Yaw:	-203.266	Thrust:	54.863
Time:	2.582	Roll Set Point:	-0.065	Pitch Set Point:	0.053	Yaw Set Point:	2.533	X_WP:	0.100	Y_WP:	0.000	Y_WP:	0.500	X:	-0.001	Y:	0.029	Z:	0.049	yaw:	-145.106	yaw rate:	7.975	Roll:	1.965	Pitch:	-2.472	Yaw:	-204.523	Thrust:	53.979
Time:	2.592	Roll Set Point:	-0.065	Pitch Set Point:	0.053	Yaw Set Point:	2.533	X_WP:	0.100	Y_WP:	0.000	Y_WP:	0.500	X:	-0.001	Y:	0.029	Z:	0.049	yaw:	-145.103	yaw rate:	0.353	Roll:	2.003	Pitch:	-2.490	Yaw:	-204.725	Thrust:	54.703
Time:	2.604	Roll Set Point:	-0.065	Pitch Set Point:	0.053	Yaw Set Point:	2.534	X_WP:	0.100	Y_WP:	0.000	Y_WP:	0.500	X:	-0.001	Y:	0.029	Z:	0.049	yaw:	-145.216	yaw rate:	-11.287	Roll:	2.334	Pitch:	-2.279	Yaw:	-207.641	Thrust:	55.427
Time:	2.615	Roll Set Point:	-0.065	Pitch Set Point:	0.053	Yaw Set Point:	2.534	X_WP:	0.100	Y_WP:	0.000	Y_WP:	0.500	X:	-0.001	Y:	0.029	Z:	0.049	yaw:	-145.193	yaw rate:	2.301	Roll:	1.914	Pitch:	-2.524	Yaw:	-204.511	Thrust:	55.674
Time:	2.625	Roll Set Point:	-0.066	Pitch Set Point:	0.053	Yaw Set Point:	2.536	X_WP:	0.100	Y_WP:	0.000	Y_WP:	0.500	X:	-0.001	Y:	0.029	Z:	0.049	yaw:	-145.312	yaw rate:	-11.938	Roll:	2.550	Pitch:	-2.175	Yaw:	-208.000	Thrust:	55.884
Time:	2.639	Roll Set Point:	-0.065	Pitch Set Point:	0.053	Yaw Set Point:	2.533	X_WP:	0.100	Y_WP:	0.000	Y_WP:	0.500	X:	-0.001	Y:	0.029	Z:	0.049	yaw:	-145.145	yaw rate:	16.736	Roll:	1.496	Pitch:	-2.817	Yaw:	-202.132	Thrust:	62.450
Time:	2.650	Roll Set Point:	-0.065	Pitch Set Point:	0.053	Yaw Set Point:	2.533	X_WP:	0.100	Y_WP:	0.000	Y_WP:	0.500	X:	-0.001	Y:	0.029	Z:	0.049	yaw:	-145.126	yaw rate:	1.885	Roll:	2.037	Pitch:	-2.548	Yaw:	-204.503	Thrust:	60.695
Time:	2.660	Roll Set Point:	-0.065	Pitch Set Point:	0.053	Yaw Set Point:	2.534	X_WP:	0.100	Y_WP:	0.000	Y_WP:	0.500	X:	-0.001	Y:	0.029	Z:	0.049	yaw:	-145.180	yaw rate:	-5.404	Roll:	2.208	Pitch:	-2.353	Yaw:	-206.126	Thrust:	55.387
Time:	2.672	Roll Set Point:	-0.065	Pitch Set Point:	0.053	Yaw Set Point:	2.534	X_WP:	0.100	Y_WP:	0.000	Y_WP:	0.500	X:	-0.001	Y:	0.029	Z:	0.049	yaw:	-145.178	yaw rate:	0.230	Roll:	2.001	Pitch:	-2.535	Yaw:	-205.023	Thrust:	59.458
Time:	2.683	Roll Set Point:	-0.065	Pitch Set Point:	0.053	Yaw Set Point:	2.533	X_WP:	0.100	Y_WP:	0.000	Y_WP:	0.500	X:	-0.001	Y:	0.029	Z:	0.049	yaw:	-145.147	yaw rate:	3.071	Roll:	1.948	Pitch:	-2.547	Yaw:	-204.141	Thrust:	61.112
Time:	2.693	Roll Set Point:	-0.065	Pitch Set Point:	0.053	Yaw Set Point:	2.534	X_WP:	0.100	Y_WP:	0.000	Y_WP:	0.500	X:	-0.001	Y:	0.029	Z:	0.049	yaw:	-145.183	yaw rate:	-3.634	Roll:	2.117	Pitch:	-2.431	Yaw:	-205.673	Thrust:	56.876
Time:	2.705	Roll Set Point:	-0.065	Pitch Set Point:	0.053	Yaw Set Point:	2.533	X_WP:	0.100	Y_WP:	0.000	Y_WP:	0.500	X:	-0.001	Y:	0.029	Z:	0.049	yaw:	-145.121	yaw rate:	6.221	Roll:	1.923	Pitch:	-2.540	Yaw:	-203.703	Thrust:	63.953
Time:	2.717	Roll Set Point:	-0.065	Pitch Set Point:	0.053	Yaw Set Point:	2.535	X_WP:	0.100	Y_WP:	0.000	Y_WP:	0.500	X:	-0.001	Y:	0.029	Z:	0.049	yaw:	-145.262	yaw rate:	-14.105	Roll:	2.347	Pitch:	-2.328	Yaw:	-208.378	Thrust:	61.528
Time:	2.727	Roll Set Point:	-0.066	Pitch Set Point:	0.052	Yaw Set Point:	2.537	X_WP:	0.100	Y_WP:	0.000	Y_WP:	0.500	X:	-0.001	Y:	0.029	Z:	0.049	yaw:	-145.350	yaw rate:	-8.757	Roll:	2.478	Pitch:	-2.300	Yaw:	-207.229	Thrust:	60.605
Time:	2.738	Roll Set Point:	-0.066	Pitch Set Point:	0.052	Yaw Set Point:	2.537	X_WP:	0.100	Y_WP:	0.000	Y_WP:	0.500	X:	-0.001	Y:	0.029	Z:	0.049	yaw:	-145.360	yaw rate:	-1.053	Roll:	2.068	Pitch:	-2.514	Yaw:	-205.509	Thrust:	64.268
Time:	2.749	Roll Set Point:	-0.066	Pitch Set Point:	0.052	Yaw Set Point:	2.538	X_WP:	0.100	Y_WP:	0.000	Y_WP:	0.500	X:	-0.001	Y:	0.029	Z:	0.049	yaw:	-145.413	yaw rate:	-5.325	Roll:	2.192	Pitch:	-2.410	Yaw:	-206.505	Thrust:	61.300
Time:	2.760	Roll Set Point:	-0.065	Pitch Set Point:	0.053	Yaw Set Point:	2.533	X_WP:	0.100	Y_WP:	0.000	Y_WP:	0.500	X:	-0.001	Y:	0.029	Z:	0.049	yaw:	-145.156	yaw rate:	25.728	Roll:	1.202	Pitch:	-2.979	Yaw:	-197.982	Thrust:	61.108
Time:	2.771	Roll Set Point:	-0.065	Pitch Set Point:	0.053	Yaw Set Point:	2.533	X_WP:	0.100	Y_WP:	0.000	Y_WP:	0.500	X:	-0.001	Y:	0.029	Z:	0.049	yaw:	-145.147	yaw rate:	0.932	Roll:	2.022	Pitch:	-2.557	Yaw:	-204.669	Thrust:	64.634
Time:	2.782	Roll Set Point:	-0.065	Pitch Set Point:	0.053	Yaw Set Point:	2.533	X_WP:	0.100	Y_WP:	0.000	Y_WP:	0.500	X:	-0.001	Y:	0.029	Z:	0.049	yaw:	-145.123	yaw rate:	2.359	Roll:	2.020	Pitch:	-2.505	Yaw:	-204.276	Thrust:	64.473
Time:	2.793	Roll Set Point:	-0.065	Pitch Set Point:	0.053	Yaw Set Point:	2.534	X_WP:	0.100	Y_WP:	0.000	Y_WP:	0.500	X:	-0.001	Y:	0.029	Z:	0.049	yaw:	-145.176	yaw rate:	-5.271	Roll:	2.168	Pitch:	-2.464	Yaw:	-206.187	Thrust:	66.779
Time:	2.804	Roll Set Point:	-0.065	Pitch Set Point:	0.053	Yaw Set Point:	2.534	X_WP:	0.100	Y_WP:	0.000	Y_WP:	0.500	X:	-0.001	Y:	0.029	Z:	0.049	yaw:	-145.179	yaw rate:	-0.327	Roll:	2.045	Pitch:	-2.526	Yaw:	-204.896	Thrust:	64.055
Time:	2.815	Roll Set Point:	-0.065	Pitch Set Point:	0.053	Yaw Set Point:	2.536	X_WP:	0.100	Y_WP:	0.000	Y_WP:	0.500	X:	-0.001	Y:	0.029	Z:	0.049	yaw:	-145.295	yaw rate:	-11.599	Roll:	2.488	Pitch:	-2.316	Yaw:	-207.810	Thrust:	69.049
Time:	2.826	Roll Set Point:	-0.066	Pitch Set Point:	0.052	Yaw Set Point:	2.538	X_WP:	0.100	Y_WP:	0.000	Y_WP:	0.500	X:	-0.001	Y:	0.029	Z:	0.049	yaw:	-145.425	yaw rate:	-12.954	Roll:	2.344	Pitch:	-2.269	Yaw:	-208.375	Thrust:	65.500
Time:	2.837	Roll Set Point:	-0.066	Pitch Set Point:	0.052	Yaw Set Point:	2.538	X_WP:	0.100	Y_WP:	0.000	Y_WP:	0.500	X:	-0.001	Y:	0.029	Z:	0.049	yaw:	-145.417	yaw rate:	0.747	Roll:	2.071	Pitch:	-2.542	Yaw:	-205.172	Thrust:	69.594
Time:	2.848	Roll Set Point:	-0.065	Pitch Set Point:	0.053	Yaw Set Point:	2.534	X_WP:	0.100	Y_WP:	0.000	Y_WP:	0.500	X:	-0.001	Y:	0.029	Z:	0.049	yaw:	-145.205	yaw rate:	21.208	Roll:	1.483	Pitch:	-2.906	Yaw:	-199.576	Thrust:	65.726
Time:	2.859	Roll Set Point:	-0.065	Pitch Set Point:	0.053	Yaw Set Point:	2.534	X_WP:	0.100	Y_WP:	0.000	Y_WP:	0.500	X:	-0.001	Y:	0.029	Z:	0.049	yaw:	-145.206	yaw rate:	-0.105	Roll:	1.921	Pitch:	-2.557	Yaw:	-204.985	Thrust:	68.936
Time:	2.870	Roll Set Point:	-0.065	Pitch Set Point:	0.053	Yaw Set Point:	2.534	X_WP:	0.100	Y_WP:	0.000	Y_WP:	0.500	X:	-0.001	Y:	0.029	Z:	0.049	yaw:	-145.181	yaw rate:	2.521	Roll:	2.072	Pitch:	-2.613	Yaw:	-204.455	Thrust:	71.996
Time:	2.881	Roll Set Point:	-0.065	Pitch Set Point:	0.053	Yaw Set Point:	2.534	X_WP:	0.100	Y_WP:	0.000	Y_WP:	0.500	X:	-0.001	Y:	0.029	Z:	0.049	yaw:	-145.177	yaw rate:	0.416	Roll:	2.047	Pitch:	-2.527	Yaw:	-204.708	Thrust:	66.107
Time:	2.891	Roll Set Point:	-0.065	Pitch Set Point:	0.053	Yaw Set Point:	2.535	X_WP:	0.100	Y_WP:	0.000	Y_WP:	0.500	X:	-0.001	Y:	0.029	Z:	0.049	yaw:	-145.252	yaw rate:	-7.491	Roll:	2.265	Pitch:	-2.356	Yaw:	-206.771	Thrust:	68.831
Time:	2.903	Roll Set Point:	-0.066	Pitch Set Point:	0.052	Yaw Set Point:	2.537	X_WP:	0.100	Y_WP:	0.000	Y_WP:	0.500	X:	-0.001	Y:	0.029	Z:	0.049	yaw:	-145.385	yaw rate:	-13.336	Roll:	2.587	Pitch:	-2.312	Yaw:	-208.328	Thrust:	74.263
Time:	2.914	Roll Set Point:	-0.065	Pitch Set Point:	0.052	Yaw Set Point:	2.536	X_WP:	0.100	Y_WP:	0.000	Y_WP:	0.500	X:	-0.001	Y:	0.029	Z:	0.049	yaw:	-145.311	yaw rate:	7.426	Roll:	1.816	Pitch:	-2.685	Yaw:	-203.335	Thrust:	71.544
Time:	2.924	Roll Set Point:	-0.066	Pitch Set Point:	0.052	Yaw Set Point:	2.536	X_WP:	0.100	Y_WP:	0.000	Y_WP:	0.500	X:	-0.001	Y:	0.029	Z:	0.049	yaw:	-145.331	yaw rate:	-1.994	Roll:	2.205	Pitch:	-2.444	Yaw:	-205.529	Thrust:	70.706
Time:	2.936	Roll Set Point:	-0.065	Pitch Set Point:	0.053	Yaw Set Point:	2.535	X_WP:	0.100	Y_WP:	0.000	Y_WP:	0.500	X:	-0.001	Y:	0.029	Z:	0.049	yaw:	-145.267	yaw rate:	6.339	Roll:	1.849	Pitch:	-2.710	Yaw:	-203.701	Thrust:	75.103
Time:	2.947	Roll Set Point:	-0.065	Pitch Set Point:	0.053	Yaw Set Point:	2.534	X_WP:	0.100	Y_WP:	0.000	Y_WP:	0.500	X:	-0.001	Y:	0.029	Z:	0.049	yaw:	-145.194	yaw rate:	7.378	Roll:	1.782	Pitch:	-2.726	Yaw:	-203.360	Thrust:	75.910
Time:	2.958	Roll Set Point:	-0.065	Pitch Set Point:	0.053	Yaw Set Point:	2.533	X_WP:	0.100	Y_WP:	0.000	Y_WP:	0.500	X:	-0.001	Y:	0.029	Z:	0.049	yaw:	-145.104	yaw rate:	8.954	Roll:	1.932	Pitch:	-2.692	Yaw:	-202.518	Thrust:	72.413
Time:	2.969	Roll Set Point:	-0.065	Pitch Set Point:	0.053	Yaw Set Point:	2.532	X_WP:	0.100	Y_WP:	0.000	Y_WP:	0.500	X:	-0.001	Y:	0.029	Z:	0.049	yaw:	-145.093	yaw rate:	1.067	Roll:	2.038	Pitch:	-2.502	Yaw:	-204.647	Thrust:	74.601
Time:	2.981	Roll Set Point:	-0.065	Pitch Set Point:	0.053	Yaw Set Point:	2.533	X_WP:	0.100	Y_WP:	0.000	Y_WP:	0.500	X:	-0.001	Y:	0.029	Z:	0.049	yaw:	-145.120	yaw rate:	-2.686	Roll:	2.146	Pitch:	-2.553	Yaw:	-205.542	Thrust:	80.214
Time:	2.991	Roll Set Point:	-0.065	Pitch Set Point:	0.053	Yaw Set Point:	2.533	X_WP:	0.100	Y_WP:	0.000	Y_WP:	0.500	X:	-0.001	Y:	0.029	Z:	0.049	yaw:	-145.131	yaw rate:	-1.035	Roll:	2.097	Pitch:	-2.580	Yaw:	-204.934	Thrust:	72.226
Time:	3.003	Roll Set Point:	-0.065	Pitch Set Point:	0.053	Yaw Set Point:	2.534	X_WP:	0.100	Y_WP:	0.000	Y_WP:	0.500	X:	-0.001	Y:	0.029	Z:	0.049	yaw:	-145.173	yaw rate:	-4.203	Roll:	2.241	Pitch:	-2.509	Yaw:	-206.022	Thrust:	81.463
Time:	3.014	Roll Set Point:	-0.065	Pitch Set Point:	0.053	Yaw Set Point:	2.533	X_WP:	0.100	Y_WP:	0.000	Y_WP:	0.500	X:	-0.001	Y:	0.029	Z:	0.049	yaw:	-145.158	yaw rate:	1.471	Roll:	2.026	Pitch:	-2.606	Yaw:	-204.532	Thrust:	77.279
Time:	3.025	Roll Set Point:	-0.065	Pitch Set Point:	0.053	Yaw Set Point:	2.533	X_WP:	0.100	Y_WP:	0.000	Y_WP:	0.500	X:	-0.001	Y:	0.029	Z:	0.049	yaw:	-145.132	yaw rate:	2.577	Roll:	2.026	Pitch:	-2.634	Yaw:	-204.254	Thrust:	78.280
Time:	3.038	Roll Set Point:	-0.066	Pitch Set Point:	0.052	Yaw Set Point:	2.537	X_WP:	0.100	Y_WP:	0.000	Y_WP:	0.500	X:	-0.001	Y:	0.029	Z:	0.049	yaw:	-145.385	yaw rate:	-25.330	Roll:	2.877	Pitch:	-2.174	Yaw:	-210.787	Thrust:	86.534
Time:	3.049	Roll Set Point:	-0.065	Pitch Set Point:	0.053	Yaw Set Point:	2.534	X_WP:	0.100	Y_WP:	0.000	Y_WP:	0.500	X:	-0.001	Y:	0.029	Z:	0.049	yaw:	-145.199	yaw rate:	18.665	Roll:	1.512	Pitch:	-2.878	Yaw:	-200.511	Thrust:	78.618
Time:	3.060	Roll Set Point:	-0.065	Pitch Set Point:	0.053	Yaw Set Point:	2.533	X_WP:	0.100	Y_WP:	0.000	Y_WP:	0.500	X:	-0.001	Y:	0.029	Z:	0.049	yaw:	-145.154	yaw rate:	4.431	Roll:	1.926	Pitch:	-2.697	Yaw:	-203.912	Thrust:	81.063
Time:	3.072	Roll Set Point:	-0.065	Pitch Set Point:	0.053	Yaw Set Point:	2.534	X_WP:	0.100	Y_WP:	0.000	Y_WP:	0.500	X:	-0.001	Y:	0.029	Z:	0.049	yaw:	-145.193	yaw rate:	-3.824	Roll:	2.210	Pitch:	-2.522	Yaw:	-205.896	Thrust:	82.528
Time:	3.083	Roll Set Point:	-0.065	Pitch Set Point:	0.052	Yaw Set Point:	2.535	X_WP:	0.100	Y_WP:	0.000	Y_WP:	0.500	X:	-0.001	Y:	0.029	Z:	0.049	yaw:	-145.273	yaw rate:	-8.000	Roll:	2.302	Pitch:	-2.407	Yaw:	-206.944	Thrust:	78.380
Time:	3.093	Roll Set Point:	-0.065	Pitch Set Point:	0.053	Yaw Set Point:	2.533	X_WP:	0.100	Y_WP:	0.000	Y_WP:	0.500	X:	-0.001	Y:	0.029	Z:	0.049	yaw:	-145.132	yaw rate:	14.024	Roll:	1.782	Pitch:	-2.836	Yaw:	-201.273	Thrust:	81.609
Time:	3.105	Roll Set Point:	-0.065	Pitch Set Point:	0.053	Yaw Set Point:	2.534	X_WP:	0.100	Y_WP:	0.000	Y_WP:	0.500	X:	-0.001	Y:	0.029	Z:	0.049	yaw:	-145.185	yaw rate:	-5.211	Roll:	2.230	Pitch:	-2.464	Yaw:	-206.212	Thrust:	85.081
Time:	3.115	Roll Set Point:	-0.065	Pitch Set Point:	0.053	Yaw Set Point:	2.534	X_WP:	0.100	Y_WP:	0.000	Y_WP:	0.500	X:	-0.001	Y:	0.029	Z:	0.049	yaw:	-145.184	yaw rate:	0.060	Roll:	2.035	Pitch:	-2.607	Yaw:	-204.806	Thrust:	80.142
Time:	3.126	Roll Set Point:	-0.065	Pitch Set Point:	0.053	Yaw Set Point:	2.533	X_WP:	0.100	Y_WP:	0.000	Y_WP:	0.500	X:	-0.001	Y:	0.029	Z:	0.049	yaw:	-145.131	yaw rate:	5.259	Roll:	2.035	Pitch:	-2.633	Yaw:	-203.618	Thrust:	83.253
Time:	3.137	Roll Set Point:	-0.065	Pitch Set Point:	0.053	Yaw Set Point:	2.533	X_WP:	0.100	Y_WP:	0.000	Y_WP:	0.500	X:	-0.001	Y:	0.029	Z:	0.049	yaw:	-145.118	yaw rate:	1.349	Roll:	2.095	Pitch:	-2.629	Yaw:	-204.397	Thrust:	81.594
Time:	3.148	Roll Set Point:	-0.065	Pitch Set Point:	0.053	Yaw Set Point:	2.534	X_WP:	0.100	Y_WP:	0.000	Y_WP:	0.500	X:	-0.001	Y:	0.029	Z:	0.049	yaw:	-145.185	yaw rate:	-6.734	Roll:	2.235	Pitch:	-2.492	Yaw:	-206.521	Thrust:	81.854
Time:	3.159	Roll Set Point:	-0.065	Pitch Set Point:	0.053	Yaw Set Point:	2.535	X_WP:	0.100	Y_WP:	0.000	Y_WP:	0.500	X:	-0.001	Y:	0.029	Z:	0.049	yaw:	-145.225	yaw rate:	-4.002	Roll:	2.244	Pitch:	-2.520	Yaw:	-205.931	Thrust:	87.893
Time:	3.171	Roll Set Point:	-0.065	Pitch Set Point:	0.053	Yaw Set Point:	2.532	X_WP:	0.100	Y_WP:	0.000	Y_WP:	0.500	X:	-0.001	Y:	0.029	Z:	0.049	yaw:	-145.085	yaw rate:	13.974	Roll:	1.787	Pitch:	-2.796	Yaw:	-201.724	Thrust:	88.264
Time:	3.181	Roll Set Point:	-0.065	Pitch Set Point:	0.053	Yaw Set Point:	2.533	X_WP:	0.100	Y_WP:	0.000	Y_WP:	0.500	X:	-0.001	Y:	0.029	Z:	0.049	yaw:	-145.138	yaw rate:	-5.268	Roll:	2.177	Pitch:	-2.543	Yaw:	-206.067	Thrust:	83.765
Time:	3.192	Roll Set Point:	-0.065	Pitch Set Point:	0.053	Yaw Set Point:	2.534	X_WP:	0.100	Y_WP:	0.000	Y_WP:	0.500	X:	-0.001	Y:	0.029	Z:	0.049	yaw:	-145.183	yaw rate:	-4.483	Roll:	2.201	Pitch:	-2.577	Yaw:	-205.995	Thrust:	87.633
Time:	3.206	Roll Set Point:	-0.066	Pitch Set Point:	0.052	Yaw Set Point:	2.538	X_WP:	0.100	Y_WP:	0.000	Y_WP:	0.500	X:	-0.001	Y:	0.029	Z:	0.049	yaw:	-145.426	yaw rate:	-24.272	Roll:	2.945	Pitch:	-2.224	Yaw:	-210.633	Thrust:	96.451
Time:	3.217	Roll Set Point:	-0.066	Pitch Set Point:	0.053	Yaw Set Point:	2.536	X_WP:	0.100	Y_WP:	0.000	Y_WP:	0.500	X:	-0.001	Y:	0.029	Z:	0.049	yaw:	-145.304	yaw rate:	-15.907	Roll:	1.868	Pitch:	-2.731	Yaw:	-202.883	Thrust:	96.872
Time:	3.228	Roll Set Point:	-0.065	Pitch Set Point:	0.053	Yaw Set Point:	2.534	X_WP:	0.100	Y_WP:	0.000	Y_WP:	0.500	X:	-0.001	Y:	0.029	Z:	0.049	yaw:	-145.215	yaw rate:	8.946	Roll:	1.750	Pitch:	-2.874	Yaw:	-202.829	Thrust:	88.140
Time:	3.242	Roll Set Point:	-0.065	Pitch Set Point:	0.053	Yaw Set Point:	2.535	X_WP:	0.100	Y_WP:	0.000	Y_WP:	0.500	X:	-0.001	Y:	0.029	Z:	0.049	yaw:	-145.240	yaw rate:	-2.495	Roll:	2.173	Pitch:	-2.655	Yaw:	-206.076	Thrust:	100.000
Time:	3.254	Roll Set Point:	-0.065	Pitch Set Point:	0.053	Yaw Set Point:	2.533	X_WP:	0.100	Y_WP:	0.000	Y_WP:	0.500	X:	-0.001	Y:	0.029	Z:	0.049	yaw:	-145.111	yaw rate:	12.867	Roll:	1.927	Pitch:	-2.775	Yaw:	-201.810	Thrust:	90.207
Time:	3.266	Roll Set Point:	-0.065	Pitch Set Point:	0.053	Yaw Set Point:	2.532	X_WP:	0.100	Y_WP:	0.000	Y_WP:	0.500	X:	-0.001	Y:	0.029	Z:	0.049	yaw:	-145.089	yaw rate:	2.155	Roll:	2.117	Pitch:	-2.718	Yaw:	-204.518	Thrust:	96.635
Time:	3.278	Roll Set Point:	-0.065	Pitch Set Point:	0.053	Yaw Set Point:	2.533	X_WP:	0.100	Y_WP:	0.000	Y_WP:	0.500	X:	-0.001	Y:	0.029	Z:	0.049	yaw:	-145.112	yaw rate:	-2.287	Roll:	2.147	Pitch:	-2.627	Yaw:	-205.646	Thrust:	98.764
Time:	3.289	Roll Set Point:	-0.065	Pitch Set Point:	0.053	Yaw Set Point:	2.534	X_WP:	0.100	Y_WP:	0.000	Y_WP:	0.500	X:	-0.001	Y:	0.029	Z:	0.049	yaw:	-145.198	yaw rate:	-8.534	Roll:	2.324	Pitch:	-2.481	Yaw:	-206.962	Thrust:	92.115
Time:	3.301	Roll Set Point:	-0.066	Pitch Set Point:	0.052	Yaw Set Point:	2.537	X_WP:	0.100	Y_WP:	0.000	Y_WP:	0.500	X:	-0.001	Y:	0.029	Z:	0.049	yaw:	-145.353	yaw rate:	-15.494	Roll:	2.692	Pitch:	-2.377	Yaw:	-208.728	Thrust:	98.941
Time:	3.313	Roll Set Point:	-0.065	Pitch Set Point:	0.053	Yaw Set Point:	2.534	X_WP:	0.100	Y_WP:	0.000	Y_WP:	0.500	X:	-0.001	Y:	0.029	Z:	0.049	yaw:	-145.194	yaw rate:	15.900	Roll:	1.633	Pitch:	-2.897	Yaw:	-201.428	Thrust:	95.269
Time:	3.324	Roll Set Point:	-0.065	Pitch Set Point:	0.053	Yaw Set Point:	2.533	X_WP:	0.100	Y_WP:	0.000	Y_WP:	0.500	X:	-0.001	Y:	0.029	Z:	0.049	yaw:	-145.153	yaw rate:	4.070	Roll:	1.993	Pitch:	-2.699	Yaw:	-203.912	Thrust:	93.450
Time:	3.337	Roll Set Point:	-0.065	Pitch Set Point:	0.053	Yaw Set Point:	2.532	X_WP:	0.100	Y_WP:	0.000	Y_WP:	0.500	X:	-0.001	Y:	0.029	Z:	0.049	yaw:	-145.075	yaw rate:	7.739	Roll:	1.988	Pitch:	-2.748	Yaw:	-203.625	Thrust:	100.000
Time:	3.348	Roll Set Point:	-0.065	Pitch Set Point:	0.053	Yaw Set Point:	2.533	X_WP:	0.100	Y_WP:	0.000	Y_WP:	0.500	X:	-0.001	Y:	0.029	Z:	0.049	yaw:	-145.134	yaw rate:	9.738	Roll:	2.335	Pitch:	-2.592	Yaw:	-206.235	Thrust:	98.088
Time:	3.359	Roll Set Point:	-0.065	Pitch Set Point:	0.053	Yaw Set Point:	2.535	X_WP:	0.100	Y_WP:	0.000	Y_WP:	0.500	X:	-0.001	Y:	0.029	Z:	0.049	yaw:	-145.217	yaw rate:	-8.318	Roll:	2.363	Pitch:	-2.496	Yaw:	-206.941	Thrust:	95.383
Time:	3.369	Roll Set Point:	-0.065	Pitch Set Point:	0.053	Yaw Set Point:	2.535	X_WP:	0.100	Y_WP:	0.000	Y_WP:	0.500	X:	-0.001	Y:	0.029	Z:	0.049	yaw:	-145.241	yaw rate:	-2.437	Roll:	2.122	Pitch:	-2.586	Yaw:	-205.521	Thrust:	90.042
Time:	3.380	Roll Set Point:	-0.065	Pitch Set Point:	0.053	Yaw Set Point:	2.533	X_WP:	0.100	Y_WP:	0.000	Y_WP:	0.500	X:	-0.001	Y:	0.029	Z:	0.049	yaw:	-145.118	yaw rate:	12.278	Roll:	1.910	Pitch:	-2.851	Yaw:	-201.914	Thrust:	99.557
Time:	3.391	Roll Set Point:	-0.065	Pitch Set Point:	0.053	Yaw Set Point:	2.533	X_WP:	0.100	Y_WP:	0.000	Y_WP:	0.500	X:	-0.001	Y:	0.029	Z:	0.049	yaw:	-145.144	yaw rate:	-2.563	Roll:	2.190	Pitch:	-2.612	Yaw:	-205.474	Thrust:	97.118
Time:	3.403	Roll Set Point:	-0.065	Pitch Set Point:	0.053	Yaw Set Point:	2.533	X_WP:	0.100	Y_WP:	0.000	Y_WP:	0.500	X:	-0.001	Y:	0.029	Z:	0.049	yaw:	-145.108	yaw rate:	3.558	Roll:	2.121	Pitch:	-2.725	Yaw:	-204.244	Thrust:	100.000
Time:	3.414	Roll Set Point:	-0.065	Pitch Set Point:	0.053	Yaw Set Point:	2.534	X_WP:	0.100	Y_WP:	0.000	Y_WP:	0.500	X:	-0.001	Y:	0.029	Z:	0.049	yaw:	-145.213	yaw rate:	-10.485	Roll:	2.385	Pitch:	-2.437	Yaw:	-207.451	Thrust:	100.000
Time:	3.426	Roll Set Point:	-0.065	Pitch Set Point:	0.053	Yaw Set Point:	2.535	X_WP:	0.100	Y_WP:	0.000	Y_WP:	0.500	X:	-0.001	Y:	0.029	Z:	0.049	yaw:	-145.223	yaw rate:	-0.918	Roll:	2.169	Pitch:	-2.636	Yaw:	-205.204	Thrust:	99.217
Time:	3.436	Roll Set Point:	-0.065	Pitch Set Point:	0.053	Yaw Set Point:	2.533	X_WP:	0.100	Y_WP:	0.000	Y_WP:	0.500	X:	-0.001	Y:	0.029	Z:	0.049	yaw:	-145.147	yaw rate:	7.599	Roll:	2.063	Pitch:	-2.749	Yaw:	-202.875	Thrust:	95.961
Time:	3.448	Roll Set Point:	-0.065	Pitch Set Point:	0.053	Yaw Set Point:	2.533	X_WP:	0.100	Y_WP:	0.000	Y_WP:	0.500	X:	-0.001	Y:	0.029	Z:	0.049	yaw:	-145.131	yaw rate:	1.582	Roll:	2.045	Pitch:	-2.722	Yaw:	-204.588	Thrust:	99.895
Time:	3.458	Roll Set Point:	-0.065	Pitch Set Point:	0.053	Yaw Set Point:	2.534	X_WP:	0.100	Y_WP:	0.000	Y_WP:	0.500	X:	-0.001	Y:	0.029	Z:	0.049	yaw:	-145.204	yaw rate:	-7.367	Roll:	2.400	Pitch:	-2.520	Yaw:	-206.682	Thrust:	100.000
Time:	3.470	Roll Set Point:	-0.065	Pitch Set Point:	0.053	Yaw Set Point:	2.533	X_WP:	0.100	Y_WP:	0.000	Y_WP:	0.500	X:	-0.001	Y:	0.029	Z:	0.049	yaw:	-145.126	yaw rate:	7.855	Roll:	1.920	Pitch:	-2.816	Yaw:	-203.160	Thrust:	100.000
Time:	3.481	Roll Set Point:	-0.065	Pitch Set Point:	0.053	Yaw Set Point:	2.532	X_WP:	0.100	Y_WP:	0.000	Y_WP:	0.500	X:	-0.001	Y:	0.029	Z:	0.049	yaw:	-145.062	yaw rate:	6.372	Roll:	2.036	Pitch:	-2.761	Yaw:	-203.238	Thrust:	100.000
Time:	3.492	Roll Set Point:	-0.065	Pitch Set Point:	0.053	Yaw Set Point:	2.534	X_WP:	0.100	Y_WP:	0.000	Y_WP:	0.500	X:	-0.001	Y:	0.029	Z:	0.049	yaw:	-145.167	yaw rate:	-10.507	Roll:	2.477	Pitch:	-2.451	Yaw:	-207.390	Thrust:	100.000
Time:	3.503	Roll Set Point:	-0.065	Pitch Set Point:	0.053	Yaw Set Point:	2.534	X_WP:	0.100	Y_WP:	0.000	Y_WP:	0.500	X:	-0.001	Y:	0.029	Z:	0.049	yaw:	-145.206	yaw rate:	-3.847	Roll:	2.143	Pitch:	-2.602	Yaw:	-205.865	Thrust:	100.000
Time:	3.514	Roll Set Point:	-0.065	Pitch Set Point:	0.053	Yaw Set Point:	2.533	X_WP:	0.100	Y_WP:	0.000	Y_WP:	0.500	X:	-0.001	Y:	0.029	Z:	0.049	yaw:	-145.142	yaw rate:	6.406	Roll:	2.005	Pitch:	-2.792	Yaw:	-203.341	Thrust:	100.000
Time:	3.524	Roll Set Point:	-0.065	Pitch Set Point:	0.053	Yaw Set Point:	2.533	X_WP:	0.100	Y_WP:	0.000	Y_WP:	0.500	X:	-0.001	Y:	0.029	Z:	0.049	yaw:	-145.109	yaw rate:	3.308	Roll:	2.099	Pitch:	-2.659	Yaw:	-203.909	Thrust:	100.000
Time:	3.536	Roll Set Point:	-0.065	Pitch Set Point:	0.052	Yaw Set Point:	2.536	X_WP:	0.100	Y_WP:	0.000	Y_WP:	0.500	X:	-0.001	Y:	0.029	Z:	0.049	yaw:	-145.298	yaw rate:	-18.932	Roll:	2.528	Pitch:	-2.428	Yaw:	-209.565	Thrust:	100.000
Time:	3.547	Roll Set Point:	-0.065	Pitch Set Point:	0.053	Yaw Set Point:	2.532	X_WP:	0.100	Y_WP:	0.000	Y_WP:	0.500	X:	-0.001	Y:	0.029	Z:	0.049	yaw:	-145.066	yaw rate:	23.216	Roll:	1.671	Pitch:	-2.983	Yaw:	-199.245	Thrust:	100.000
Time:	3.557	Roll Set Point:	-0.065	Pitch Set Point:	0.053	Yaw Set Point:	2.533	X_WP:	0.100	Y_WP:	0.000	Y_WP:	0.500	X:	-0.001	Y:	0.029	Z:	0.049	yaw:	-145.122	yaw rate:	-5.635	Roll:	2.362	Pitch:	-2.625	Yaw:	-206.111	Thrust:	100.000
Time:	3.569	Roll Set Point:	-0.065	Pitch Set Point:	0.053	Yaw Set Point:	2.533	X_WP:	0.100	Y_WP:	0.000	Y_WP:	0.500	X:	-0.001	Y:	0.029	Z:	0.049	yaw:	-145.117	yaw rate:	0.499	Roll:	2.100	Pitch:	-2.722	Yaw:	-204.926	Thrust:	100.000
Time:	3.580	Roll Set Point:	-0.065	Pitch Set Point:	0.053	Yaw Set Point:	2.533	X_WP:	0.100	Y_WP:	0.000	Y_WP:	0.500	X:	-0.001	Y:	0.029	Z:	0.049	yaw:	-145.105	yaw rate:	1.189	Roll:	2.211	Pitch:	-2.660	Yaw:	-204.641	Thrust:	100.000
Time:	3.591	Roll Set Point:	-0.066	Pitch Set Point:	0.052	Yaw Set Point:	2.537	X_WP:	0.100	Y_WP:	0.000	Y_WP:	0.500	X:	-0.001	Y:	0.029	Z:	0.049	yaw:	-145.370	yaw rate:	-26.493	Roll:	2.923	Pitch:	-2.210	Yaw:	-211.654	Thrust:	100.000
Time:	3.605	Roll Set Point:	-0.065	Pitch Set Point:	0.053	Yaw Set Point:	2.533	X_WP:	0.100	Y_WP:	0.000	Y_WP:	0.500	X:	-0.001	Y:	0.029	Z:	0.049	yaw:	-145.108	yaw rate:	26.208	Roll:	1.637	Pitch:	-3.103	Yaw:	-200.562	Thrust:	100.000
Time:	3.617	Roll Set Point:	-0.065	Pitch Set Point:	0.053	Yaw Set Point:	2.534	X_WP:	0.100	Y_WP:	0.000	Y_WP:	0.500	X:	-0.001	Y:	0.029	Z:	0.049	yaw:	-145.191	yaw rate:	-8.329	Roll:	2.411	Pitch:	-2.637	Yaw:	-206.924	Thrust:	100.000
Time:	3.627	Roll Set Point:	-0.065	Pitch Set Point:	0.053	Yaw Set Point:	2.533	X_WP:	0.100	Y_WP:	0.000	Y_WP:	0.500	X:	-0.001	Y:	0.029	Z:	0.049	yaw:	-145.133	yaw rate:	5.787	Roll:	1.966	Pitch:	-2.751	Yaw:	-203.152	Thrust:	100.000
Time:	3.638	Roll Set Point:	-0.065	Pitch Set Point:	0.053	Yaw Set Point:	2.533	X_WP:	0.100	Y_WP:	0.000	Y_WP:	0.500	X:	-0.001	Y:	0.029	Z:	0.049	yaw:	-145.155	yaw rate:	-2.161	Roll:	2.331	Pitch:	-2.660	Yaw:	-205.472	Thrust:	100.000
Time:	3.649	Roll Set Point:	-0.065	Pitch Set Point:	0.053	Yaw Set Point:	2.534	X_WP:	0.100	Y_WP:	0.000	Y_WP:	0.500	X:	-0.001	Y:	0.029	Z:	0.049	yaw:	-145.196	yaw rate:	-4.106	Roll:	2.347	Pitch:	-2.604	Yaw:	-205.858	Thrust:	100.000
Time:	3.660	Roll Set Point:	-0.065	Pitch Set Point:	0.053	Yaw Set Point:	2.534	X_WP:	0.100	Y_WP:	0.000	Y_WP:	0.500	X:	-0.001	Y:	0.029	Z:	0.049	yaw:	-145.193	yaw rate:	0.354	Roll:	2.096	Pitch:	-2.702	Yaw:	-204.857	Thrust:	100.000
Time:	3.670	Roll Set Point:	-0.065	Pitch Set Point:	0.053	Yaw Set Point:	2.534	X_WP:	0.100	Y_WP:	0.000	Y_WP:	0.500	X:	-0.001	Y:	0.029	Z:	0.049	yaw:	-145.196	yaw rate:	-0.331	Roll:	2.176	Pitch:	-2.684	Yaw:	-204.934	Thrust:	100.000
Time:	3.681	Roll Set Point:	-0.065	Pitch Set Point:	0.053	Yaw Set Point:	2.534	X_WP:	0.100	Y_WP:	0.000	Y_WP:	0.500	X:	-0.001	Y:	0.029	Z:	0.049	yaw:	-145.213	yaw rate:	-1.681	Roll:	2.213	Pitch:	-2.663	Yaw:	-205.360	Thrust:	100.000
Time:	3.692	Roll Set Point:	-0.065	Pitch Set Point:	0.053	Yaw Set Point:	2.532	X_WP:	0.100	Y_WP:	0.000	Y_WP:	0.500	X:	-0.001	Y:	0.029	Z:	0.049	yaw:	-145.090	yaw rate:	12.286	Roll:	1.967	Pitch:	-2.951	Yaw:	-201.725	Thrust:	100.000
Time:	3.703	Roll Set Point:	-0.065	Pitch Set Point:	0.052	Yaw Set Point:	2.535	X_WP:	0.100	Y_WP:	0.000	Y_WP:	0.500	X:	-0.001	Y:	0.029	Z:	0.049	yaw:	-145.262	yaw rate:	-17.215	Roll:	2.554	Pitch:	-2.360	Yaw:	-209.107	Thrust:	100.000
Time:	3.714	Roll Set Point:	-0.065	Pitch Set Point:	0.053	Yaw Set Point:	2.534	X_WP:	0.100	Y_WP:	0.000	Y_WP:	0.500	X:	-0.001	Y:	0.029	Z:	0.049	yaw:	-145.187	yaw rate:	7.482	Roll:	2.069	Pitch:	-2.809	Yaw:	-203.147	Thrust:	100.000
Time:	3.725	Roll Set Point:	-0.065	Pitch Set Point:	0.053	Yaw Set Point:	2.533	X_WP:	0.100	Y_WP:	0.000	Y_WP:	0.500	X:	-0.001	Y:	0.029	Z:	0.049	yaw:	-145.124	yaw rate:	6.279	Roll:	2.025	Pitch:	-2.826	Yaw:	-203.072	Thrust:	100.000
Time:	3.737	Roll Set Point:	-0.065	Pitch Set Point:	0.053	Yaw Set Point:	2.534	X_WP:	0.100	Y_WP:	0.000	Y_WP:	0.500	X:	-0.001	Y:	0.029	Z:	0.049	yaw:	-145.203	yaw rate:	-7.852	Roll:	2.388	Pitch:	-2.670	Yaw:	-206.929	Thrust:	100.000
Time:	3.749	Roll Set Point:	-0.065	Pitch Set Point:	0.053	Yaw Set Point:	2.532	X_WP:	0.100	Y_WP:	0.000	Y_WP:	0.500	X:	-0.001	Y:	0.029	Z:	0.049	yaw:	-145.076	yaw rate:	9.328	Roll:	1.934	Pitch:	-2.833	Yaw:	-201.759	Thrust:	100.000
Time:	3.759	Roll Set Point:	-0.065	Pitch Set Point:	0.053	Yaw Set Point:	2.535	X_WP:	0.100	Y_WP:	0.000	Y_WP:	0.500	X:	-0.001	Y:	0.029	Z:	0.049	yaw:	-145.218	yaw rate:	-14.236	Roll:	2.561	Pitch:	-2.529	Yaw:	-208.404	Thrust:	100.000
Time:	3.770	Roll Set Point:	-0.065	Pitch Set Point:	0.053	Yaw Set Point:	2.533	X_WP:	0.100	Y_WP:	0.000	Y_WP:	0.500	X:	-0.001	Y:	0.029	Z:	0.049	yaw:	-145.150	yaw rate:	6.789	Roll:	2.040	Pitch:	-2.825	Yaw:	-203.296	Thrust:	100.000
Time:	3.782	Roll Set Point:	-0.065	Pitch Set Point:	0.053	Yaw Set Point:	2.533	X_WP:	0.100	Y_WP:	0.000	Y_WP:	0.500	X:	-0.001	Y:	0.029	Z:	0.049	yaw:	-145.118	yaw rate:	3.208	Roll:	2.136	Pitch:	-2.754	Yaw:	-204.179	Thrust:	100.000
Time:	3.792	Roll Set Point:	-0.065	Pitch Set Point:	0.053	Yaw Set Point:	2.533	X_WP:	0.100	Y_WP:	0.000	Y_WP:	0.500	X:	-0.001	Y:	0.029	Z:	0.049	yaw:	-145.152	yaw rate:	-3.316	Roll:	2.268	Pitch:	-2.705	Yaw:	-205.624	Thrust:	100.000
Time:	3.806	Roll Set Point:	-0.065	Pitch Set Point:	0.053	Yaw Set Point:	2.532	X_WP:	0.100	Y_WP:	0.000	Y_WP:	0.500	X:	-0.001	Y:	0.029	Z:	0.049	yaw:	-145.093	yaw rate:	5.887	Roll:	2.166	Pitch:	-2.855	Yaw:	-204.170	Thrust:	100.000
Time:	3.816	Roll Set Point:	-0.065	Pitch Set Point:	0.053	Yaw Set Point:	2.533	X_WP:	0.100	Y_WP:	0.000	Y_WP:	0.500	X:	-0.001	Y:	0.029	Z:	0.049	yaw:	-145.132	yaw rate:	-3.917	Roll:	2.381	Pitch:	-2.603	Yaw:	-205.722	Thrust:	100.000
Time:	3.827	Roll Set Point:	-0.065	Pitch Set Point:	0.053	Yaw Set Point:	2.533	X_WP:	0.100	Y_WP:	0.000	Y_WP:	0.500	X:	-0.001	Y:	0.029	Z:	0.049	yaw:	-145.144	yaw rate:	-1.166	Roll:	2.141	Pitch:	-2.714	Yaw:	-204.980	Thrust:	100.000
Time:	3.838	Roll Set Point:	-0.065	Pitch Set Point:	0.053	Yaw Set Point:	2.535	X_WP:	0.100	Y_WP:	0.000	Y_WP:	0.500	X:	-0.001	Y:	0.029	Z:	0.049	yaw:	-145.229	yaw rate:	-8.576	Roll:	2.405	Pitch:	-2.630	Yaw:	-207.032	Thrust:	100.000
Time:	3.849	Roll Set Point:	-0.065	Pitch Set Point:	0.053	Yaw Set Point:	2.532	X_WP:	0.100	Y_WP:	0.000	Y_WP:	0.500	X:	-0.001	Y:	0.029	Z:	0.049	yaw:	-145.083	yaw rate:	14.605	Roll:	2.052	Pitch:	-2.925	Yaw:	-201.049	Thrust:	100.000
Time:	3.859	Roll Set Point:	-0.065	Pitch Set Point:	0.053	Yaw Set Point:	2.534	X_WP:	0.100	Y_WP:	0.000	Y_WP:	0.500	X:	-0.001	Y:	0.029	Z:	0.049	yaw:	-145.195	yaw rate:	-11.172	Roll:	2.341	Pitch:	-2.601	Yaw:	-207.619	Thrust:	100.000
Time:	3.871	Roll Set Point:	-0.065	Pitch Set Point:	0.053	Yaw Set Point:	2.535	X_WP:	0.100	Y_WP:	0.000	Y_WP:	0.500	X:	-0.001	Y:	0.029	Z:	0.049	yaw:	-145.241	yaw rate:	-4.606	Roll:	2.320	Pitch:	-2.689	Yaw:	-206.199	Thrust:	100.000
Time:	3.882	Roll Set Point:	-0.065	Pitch Set Point:	0.053	Yaw Set Point:	2.535	X_WP:	0.100	Y_WP:	0.000	Y_WP:	0.500	X:	-0.001	Y:	0.029	Z:	0.049	yaw:	-145.226	yaw rate:	1.511	Roll:	2.199	Pitch:	-2.753	Yaw:	-204.503	Thrust:	100.000
Time:	3.892	Roll Set Point:	-0.065	Pitch Set Point:	0.053	Yaw Set Point:	2.534	X_WP:	0.100	Y_WP:	0.000	Y_WP:	0.500	X:	-0.001	Y:	0.029	Z:	0.049	yaw:	-145.161	yaw rate:	6.500	Roll:	2.103	Pitch:	-2.832	Yaw:	-203.181	Thrust:	100.000
Time:	3.903	Roll Set Point:	-0.066	Pitch Set Point:	0.052	Yaw Set Point:	2.537	X_WP:	0.100	Y_WP:	0.000	Y_WP:	0.500	X:	-0.001	Y:	0.029	Z:	0.049	yaw:	-145.371	yaw rate:	-21.021	Roll:	2.872	Pitch:	-2.294	Yaw:	-210.307	Thrust:	100.000
Time:	3.914	Roll Set Point:	-0.066	Pitch Set Point:	0.053	Yaw Set Point:	2.536	X_WP:	0.100	Y_WP:	0.000	Y_WP:	0.500	X:	-0.001	Y:	0.029	Z:	0.049	yaw:	-145.310	yaw rate:	6.071	Roll:	2.148	Pitch:	-2.848	Yaw:	-203.656	Thrust:	100.000
Time:	3.924	Roll Set Point:	-0.065	Pitch Set Point:	0.053	Yaw Set Point:	2.534	X_WP:	0.100	Y_WP:	0.000	Y_WP:	0.500	X:	-0.001	Y:	0.029	Z:	0.049	yaw:	-145.166	yaw rate:	14.445	Roll:	1.685	Pitch:	-2.975	Yaw:	-200.925	Thrust:	100.000
Time:	3.936	Roll Set Point:	-0.066	Pitch Set Point:	0.052	Yaw Set Point:	2.537	X_WP:	0.100	Y_WP:	0.000	Y_WP:	0.500	X:	-0.001	Y:	0.029	Z:	0.049	yaw:	-145.380	yaw rate:	-21.424	Roll:	2.895	Pitch:	-2.449	Yaw:	-210.052	Thrust:	100.000
Time:	3.947	Roll Set Point:	-0.065	Pitch Set Point:	0.053	Yaw Set Point:	2.535	X_WP:	0.100	Y_WP:	0.000	Y_WP:	0.500	X:	-0.001	Y:	0.029	Z:	0.049	yaw:	-145.259	yaw rate:	12.113	Roll:	1.928	Pitch:	-2.934	Yaw:	-202.375	Thrust:	100.000
Time:	3.958	Roll Set Point:	-0.065	Pitch Set Point:	0.053	Yaw Set Point:	2.535	X_WP:	0.100	Y_WP:	0.000	Y_WP:	0.500	X:	-0.001	Y:	0.029	Z:	0.049	yaw:	-145.224	yaw rate:	3.487	Roll:	2.026	Pitch:	-2.871	Yaw:	-204.118	Thrust:	100.000
Time:	3.969	Roll Set Point:	-0.065	Pitch Set Point:	0.053	Yaw Set Point:	2.532	X_WP:	0.100	Y_WP:	0.000	Y_WP:	0.500	X:	-0.001	Y:	0.029	Z:	0.049	yaw:	-145.091	yaw rate:	13.343	Roll:	1.881	Pitch:	-3.003	Yaw:	-201.390	Thrust:	100.000
Time:	3.980	Roll Set Point:	-0.065	Pitch Set Point:	0.053	Yaw Set Point:	2.533	X_WP:	0.100	Y_WP:	0.000	Y_WP:	0.500	X:	-0.001	Y:	0.029	Z:	0.049	yaw:	-145.145	yaw rate:	-5.418	Roll:	2.391	Pitch:	-2.639	Yaw:	-206.197	Thrust:	100.000
Time:	3.991	Roll Set Point:	-0.066	Pitch Set Point:	0.053	Yaw Set Point:	2.536	X_WP:	0.100	Y_WP:	0.000	Y_WP:	0.500	X:	-0.001	Y:	0.029	Z:	0.049	yaw:	-145.315	yaw rate:	-17.008	Roll:	2.821	Pitch:	-2.472	Yaw:	-209.229	Thrust:	100.000
Time:	4.002	Roll Set Point:	-0.065	Pitch Set Point:	0.053	Yaw Set Point:	2.534	X_WP:	0.100	Y_WP:	0.000	Y_WP:	0.500	X:	-0.001	Y:	0.029	Z:	0.049	yaw:	-145.170	yaw rate:	14.511	Roll:	1.784	Pitch:	-3.028	Yaw:	-201.719	Thrust:	100.000
Time:	4.013	Roll Set Point:	-0.065	Pitch Set Point:	0.053	Yaw Set Point:	2.534	X_WP:	0.100	Y_WP:	0.000	Y_WP:	0.500	X:	-0.001	Y:	0.029	Z:	0.049	yaw:	-145.162	yaw rate:	0.794	Roll:	2.250	Pitch:	-2.740	Yaw:	-204.702	Thrust:	100.000
Time:	4.024	Roll Set Point:	-0.065	Pitch Set Point:	0.053	Yaw Set Point:	2.534	X_WP:	0.100	Y_WP:	0.000	Y_WP:	0.500	X:	-0.001	Y:	0.029	Z:	0.049	yaw:	-145.174	yaw rate:	-1.181	Roll:	2.231	Pitch:	-2.773	Yaw:	-205.100	Thrust:	100.000
Time:	4.036	Roll Set Point:	-0.065	Pitch Set Point:	0.053	Yaw Set Point:	2.535	X_WP:	0.100	Y_WP:	0.000	Y_WP:	0.500	X:	-0.001	Y:	0.029	Z:	0.049	yaw:	-145.243	yaw rate:	-6.938	Roll:	2.445	Pitch:	-2.702	Yaw:	-206.679	Thrust:	100.000
Time:	4.047	Roll Set Point:	-0.065	Pitch Set Point:	0.053	Yaw Set Point:	2.533	X_WP:	0.100	Y_WP:	0.000	Y_WP:	0.500	X:	-0.001	Y:	0.029	Z:	0.049	yaw:	-145.150	yaw rate:	9.299	Roll:	1.999	Pitch:	-2.910	Yaw:	-202.863	Thrust:	100.000
Time:	4.057	Roll Set Point:	-0.065	Pitch Set Point:	0.053	Yaw Set Point:	2.534	X_WP:	0.100	Y_WP:	0.000	Y_WP:	0.500	X:	-0.001	Y:	0.029	Z:	0.049	yaw:	-145.189	yaw rate:	-3.879	Roll:	2.327	Pitch:	-2.686	Yaw:	-205.740	Thrust:	100.000
Time:	4.069	Roll Set Point:	-0.065	Pitch Set Point:	0.053	Yaw Set Point:	2.535	X_WP:	0.100	Y_WP:	0.000	Y_WP:	0.500	X:	-0.001	Y:	0.029	Z:	0.049	yaw:	-145.226	yaw rate:	-3.689	Roll:	2.422	Pitch:	-2.735	Yaw:	-205.920	Thrust:	100.000
Time:	4.080	Roll Set Point:	-0.065	Pitch Set Point:	0.053	Yaw Set Point:	2.533	X_WP:	0.100	Y_WP:	0.000	Y_WP:	0.500	X:	-0.001	Y:	0.029	Z:	0.049	yaw:	-145.155	yaw rate:	7.042	Roll:	2.118	Pitch:	-2.902	Yaw:	-203.382	Thrust:	100.000
Time:	4.091	Roll Set Point:	-0.065	Pitch Set Point:	0.053	Yaw Set Point:	2.534	X_WP:	0.100	Y_WP:	0.000	Y_WP:	0.500	X:	-0.001	Y:	0.029	Z:	0.049	yaw:	-145.208	yaw rate:	-5.210	Roll:	2.323	Pitch:	-2.715	Yaw:	-206.149	Thrust:	100.000
Time:	4.102	Roll Set Point:	-0.066	Pitch Set Point:	0.052	Yaw Set Point:	2.538	X_WP:	0.100	Y_WP:	0.000	Y_WP:	0.500	X:	-0.001	Y:	0.029	Z:	0.049	yaw:	-145.434	yaw rate:	-22.665	Roll:	3.053	Pitch:	-2.325	Yaw:	-210.510	Thrust:	100.000
Time:	4.113	Roll Set Point:	-0.065	Pitch Set Point:	0.053	Yaw Set Point:	2.534	X_WP:	0.100	Y_WP:	0.000	Y_WP:	0.500	X:	-0.001	Y:	0.029	Z:	0.049	yaw:	-145.167	yaw rate:	26.733	Roll:	1.583	Pitch:	-3.299	Yaw:	-198.553	Thrust:	100.000
Time:	4.124	Roll Set Point:	-0.065	Pitch Set Point:	0.053	Yaw Set Point:	2.533	X_WP:	0.100	Y_WP:	0.000	Y_WP:	0.500	X:	-0.001	Y:	0.029	Z:	0.049	yaw:	-145.146	yaw rate:	2.097	Roll:	2.068	Pitch:	-2.828	Yaw:	-204.246	Thrust:	100.000
Time:	4.136	Roll Set Point:	-0.065	Pitch Set Point:	0.053	Yaw Set Point:	2.533	X_WP:	0.100	Y_WP:	0.000	Y_WP:	0.500	X:	-0.001	Y:	0.029	Z:	0.049	yaw:	-145.119	yaw rate:	2.684	Roll:	2.292	Pitch:	-2.800	Yaw:	-204.577	Thrust:	100.000
Time:	4.147	Roll Set Point:	-0.065	Pitch Set Point:	0.053	Yaw Set Point:	2.534	X_WP:	0.100	Y_WP:	0.000	Y_WP:	0.500	X:	-0.001	Y:	0.029	Z:	0.049	yaw:	-145.174	yaw rate:	-5.470	Roll:	2.378	Pitch:	-2.764	Yaw:	-206.205	Thrust:	100.000
Time:	4.159	Roll Set Point:	-0.065	Pitch Set Point:	0.053	Yaw Set Point:	2.533	X_WP:	0.100	Y_WP:	0.000	Y_WP:	0.500	X:	-0.001	Y:	0.029	Z:	0.049	yaw:	-145.115	yaw rate:	5.836	Roll:	2.182	Pitch:	-2.878	Yaw:	-203.274	Thrust:	100.000
Time:	4.171	Roll Set Point:	-0.065	Pitch Set Point:	0.053	Yaw Set Point:	2.533	X_WP:	0.100	Y_WP:	0.000	Y_WP:	0.500	X:	-0.001	Y:	0.029	Z:	0.049	yaw:	-145.154	yaw rate:	-3.876	Roll:	2.385	Pitch:	-2.805	Yaw:	-206.063	Thrust:	100.000
Time:	4.182	Roll Set Point:	-0.066	Pitch Set Point:	0.052	Yaw Set Point:	2.538	X_WP:	0.100	Y_WP:	0.000	Y_WP:	0.500	X:	-0.001	Y:	0.029	Z:	0.049	yaw:	-145.398	yaw rate:	-24.358	Roll:	3.076	Pitch:	-2.251	Yaw:	-211.001	Thrust:	100.000
Time:	4.192	Roll Set Point:	-0.065	Pitch Set Point:	0.053	Yaw Set Point:	2.535	X_WP:	0.100	Y_WP:	0.000	Y_WP:	0.500	X:	-0.001	Y:	0.029	Z:	0.049	yaw:	-145.237	yaw rate:	16.055	Roll:	1.807	Pitch:	-3.114	Yaw:	-200.622	Thrust:	100.000
Time:	4.204	Roll Set Point:	-0.065	Pitch Set Point:	0.053	Yaw Set Point:	2.534	X_WP:	0.100	Y_WP:	0.000	Y_WP:	0.500	X:	-0.001	Y:	0.029	Z:	0.049	yaw:	-145.211	yaw rate:	2.587	Roll:	2.071	Pitch:	-2.845	Yaw:	-204.473	Thrust:	100.000
Time:	4.215	Roll Set Point:	-0.065	Pitch Set Point:	0.053	Yaw Set Point:	2.533	X_WP:	0.100	Y_WP:	0.000	Y_WP:	0.500	X:	-0.001	Y:	0.029	Z:	0.049	yaw:	-145.137	yaw rate:	7.450	Roll:	2.121	Pitch:	-2.891	Yaw:	-203.086	Thrust:	100.000
Time:	4.225	Roll Set Point:	-0.065	Pitch Set Point:	0.053	Yaw Set Point:	2.535	X_WP:	0.100	Y_WP:	0.000	Y_WP:	0.500	X:	-0.001	Y:	0.029	Z:	0.049	yaw:	-145.220	yaw rate:	-8.341	Roll:	2.462	Pitch:	-2.617	Yaw:	-206.945	Thrust:	100.000
Time:	4.237	Roll Set Point:	-0.065	Pitch Set Point:	0.053	Yaw Set Point:	2.532	X_WP:	0.100	Y_WP:	0.000	Y_WP:	0.500	X:	-0.001	Y:	0.029	Z:	0.049	yaw:	-145.095	yaw rate:	12.553	Roll:	2.037	Pitch:	-2.948	Yaw:	-202.049	Thrust:	100.000
Time:	4.248	Roll Set Point:	-0.065	Pitch Set Point:	0.053	Yaw Set Point:	2.532	X_WP:	0.100	Y_WP:	0.000	Y_WP:	0.500	X:	-0.001	Y:	0.029	Z:	0.049	yaw:	-145.085	yaw rate:	0.984	Roll:	2.277	Pitch:	-2.826	Yaw:	-204.549	Thrust:	100.000
Time:	4.259	Roll Set Point:	-0.065	Pitch Set Point:	0.053	Yaw Set Point:	2.532	X_WP:	0.100	Y_WP:	0.000	Y_WP:	0.500	X:	-0.001	Y:	0.029	Z:	0.049	yaw:	-145.087	yaw rate:	-0.214	Roll:	2.334	Pitch:	-2.830	Yaw:	-204.843	Thrust:	100.000
Time:	4.271	Roll Set Point:	-0.065	Pitch Set Point:	0.053	Yaw Set Point:	2.534	X_WP:	0.100	Y_WP:	0.000	Y_WP:	0.500	X:	-0.001	Y:	0.029	Z:	0.049	yaw:	-145.180	yaw rate:	-0.598	Roll:	2.502	Pitch:	-2.671	Yaw:	-207.146	Thrust:	100.000
Time:	4.282	Roll Set Point:	-0.065	Pitch Set Point:	0.053	Yaw Set Point:	2.533	X_WP:	0.100	Y_WP:	0.000	Y_WP:	0.500	X:	-0.001	Y:	0.029	Z:	0.049	yaw:	-145.107	yaw rate:	7.325	Roll:	2.188	Pitch:	-2.788	Yaw:	-203.075	Thrust:	100.000
Time:	4.293	Roll Set Point:	-0.065	Pitch Set Point:	0.053	Yaw Set Point:	2.535	X_WP:	0.100	Y_WP:	0.000	Y_WP:	0.500	X:	-0.001	Y:	0.029	Z:	0.049	yaw:	-145.233	yaw rate:	-12.571	Roll:	2.485	Pitch:	-2.693	Yaw:	-207.969	Thrust:	100.000
Time:	4.304	Roll Set Point:	-0.065	Pitch Set Point:	0.053	Yaw Set Point:	2.534	X_WP:	0.100	Y_WP:	0.000	Y_WP:	0.500	X:	-0.001	Y:	0.029	Z:	0.049	yaw:	-145.184	yaw rate:	4.913	Roll:	2.172	Pitch:	-2.846	Yaw:	-203.607	Thrust:	100.000
Time:	4.315	Roll Set Point:	-0.066	Pitch Set Point:	0.053	Yaw Set Point:	2.536	X_WP:	0.100	Y_WP:	0.000	Y_WP:	0.500	X:	-0.001	Y:	0.029	Z:	0.049	yaw:	-145.313	yaw rate:	-12.978	Roll:	2.824	Pitch:	-2.426	Yaw:	-208.182	Thrust:	100.000
Time:	4.325	Roll Set Point:	-0.065	Pitch Set Point:	0.053	Yaw Set Point:	2.534	X_WP:	0.100	Y_WP:	0.000	Y_WP:	0.500	X:	-0.001	Y:	0.029	Z:	0.049	yaw:	-145.160	yaw rate:	15.371	Roll:	1.682	Pitch:	-3.151	Yaw:	-200.674	Thrust:	100.000
Time:	4.336	Roll Set Point:	-0.065	Pitch Set Point:	0.053	Yaw Set Point:	2.535	X_WP:	0.100	Y_WP:	0.000	Y_WP:	0.500	X:	-0.001	Y:	0.029	Z:	0.049	yaw:	-145.265	yaw rate:	-10.547	Roll:	2.756	Pitch:	-2.530	Yaw:	-207.529	Thrust:	100.000
Time:	4.347	Roll Set Point:	-0.066	Pitch Set Point:	0.053	Yaw Set Point:	2.536	X_WP:	0.100	Y_WP:	0.000	Y_WP:	0.500	X:	-0.001	Y:	0.029	Z:	0.049	yaw:	-145.307	yaw rate:	-4.174	Roll:	2.428	Pitch:	-2.696	Yaw:	-206.083	Thrust:	100.000
Time:	4.358	Roll Set Point:	-0.065	Pitch Set Point:	0.053	Yaw Set Point:	2.535	X_WP:	0.100	Y_WP:	0.000	Y_WP:	0.500	X:	-0.001	Y:	0.029	Z:	0.049	yaw:	-145.235	yaw rate:	7.200	Roll:	2.029	Pitch:	-2.988	Yaw:	-203.283	Thrust:	100.000
Time:	4.372	Roll Set Point:	-0.065	Pitch Set Point:	0.053	Yaw Set Point:	2.533	X_WP:	0.100	Y_WP:	0.000	Y_WP:	0.500	X:	-0.001	Y:	0.029	Z:	0.049	yaw:	-145.142	yaw rate:	9.293	Roll:	2.189	Pitch:	-2.967	Yaw:	-203.745	Thrust:	100.000
Time:	4.384	Roll Set Point:	-0.065	Pitch Set Point:	0.053	Yaw Set Point:	2.533	X_WP:	0.100	Y_WP:	0.000	Y_WP:	0.500	X:	-0.001	Y:	0.029	Z:	0.049	yaw:	-145.152	yaw rate:	-1.023	Roll:	2.375	Pitch:	-2.869	Yaw:	-205.212	Thrust:	100.000
Time:	4.396	Roll Set Point:	-0.065	Pitch Set Point:	0.053	Yaw Set Point:	2.534	X_WP:	0.100	Y_WP:	0.000	Y_WP:	0.500	X:	-0.001	Y:	0.029	Z:	0.049	yaw:	-145.201	yaw rate:	-4.852	Roll:	2.418	Pitch:	-2.698	Yaw:	-206.096	Thrust:	100.000
Time:	4.409	Roll Set Point:	-0.065	Pitch Set Point:	0.053	Yaw Set Point:	2.535	X_WP:	0.100	Y_WP:	0.000	Y_WP:	0.500	X:	-0.001	Y:	0.029	Z:	0.049	yaw:	-145.223	yaw rate:	-2.266	Roll:	2.425	Pitch:	-2.861	Yaw:	-206.085	Thrust:	100.000
Time:	4.421	Roll Set Point:	-0.065	Pitch Set Point:	0.053	Yaw Set Point:	2.534	X_WP:	0.100	Y_WP:	0.000	Y_WP:	0.500	X:	-0.001	Y:	0.029	Z:	0.049	yaw:	-145.206	yaw rate:	1.764	Roll:	2.360	Pitch:	-2.851	Yaw:	-204.569	Thrust:	100.000
Time:	4.435	Roll Set Point:	-0.065	Pitch Set Point:	0.053	Yaw Set Point:	2.533	X_WP:	0.100	Y_WP:	0.000	Y_WP:	0.500	X:	-0.001	Y:	0.029	Z:	0.049	yaw:	-145.115	yaw rate:	9.071	Roll:	2.166	Pitch:	-2.946	Yaw:	-203.404	Thrust:	100.000
Time:	4.446	Roll Set Point:	-0.065	Pitch Set Point:	0.053	Yaw Set Point:	2.534	X_WP:	0.100	Y_WP:	0.000	Y_WP:	0.500	X:	-0.001	Y:	0.029	Z:	0.049	yaw:	-145.160	yaw rate:	6.335	Roll:	2.471	Pitch:	-2.814	Yaw:	-206.127	Thrust:	100.000
Time:	4.458	Roll Set Point:	-0.066	Pitch Set Point:	0.053	Yaw Set Point:	2.536	X_WP:	0.100	Y_WP:	0.000	Y_WP:	0.500	X:	-0.001	Y:	0.029	Z:	0.049	yaw:	-145.302	yaw rate:	-14.201	Roll:	2.851	Pitch:	-2.469	Yaw:	-208.409	Thrust:	100.000
Time:	4.471	Roll Set Point:	-0.065	Pitch Set Point:	0.053	Yaw Set Point:	2.535	X_WP:	0.100	Y_WP:	0.000	Y_WP:	0.500	X:	-0.001	Y:	0.029	Z:	0.049	yaw:	-145.231	yaw rate:	7.092	Roll:	2.059	Pitch:	-3.025	Yaw:	-203.973	Thrust:	100.000
Time:	4.482	Roll Set Point:	-0.065	Pitch Set Point:	0.053	Yaw Set Point:	2.533	X_WP:	0.100	Y_WP:	0.000	Y_WP:	0.500	X:	-0.001	Y:	0.029	Z:	0.049	yaw:	-145.151	yaw rate:	7.958	Roll:	2.192	Pitch:	-2.915	Yaw:	-202.987	Thrust:	100.000
Time:	4.495	Roll Set Point:	-0.066	Pitch Set Point:	0.053	Yaw Set Point:	2.536	X_WP:	0.100	Y_WP:	0.000	Y_WP:	0.500	X:	-0.001	Y:	0.029	Z:	0.049	yaw:	-145.291	yaw rate:	-13.999	Roll:	2.799	Pitch:	-2.553	Yaw:	-208.280	Thrust:	100.000
Time:	4.506	Roll Set Point:	-0.066	Pitch Set Point:	0.052	Yaw Set Point:	2.537	X_WP:	0.100	Y_WP:	0.000	Y_WP:	0.500	X:	-0.001	Y:	0.029	Z:	0.049	yaw:	-145.343	yaw rate:	-5.189	Roll:	2.514	Pitch:	-2.698	Yaw:	-206.336	Thrust:	100.000
Time:	4.517	Roll Set Point:	-0.065	Pitch Set Point:	0.053	Yaw Set Point:	2.533	X_WP:	0.100	Y_WP:	0.000	Y_WP:	0.500	X:	-0.001	Y:	0.029	Z:	0.049	yaw:	-145.147	yaw rate:	19.582	Roll:	1.724	Pitch:	-3.236	Yaw:	-200.221	Thrust:	100.000
Time:	4.528	Roll Set Point:	-0.065	Pitch Set Point:	0.053	Yaw Set Point:	2.533	X_WP:	0.100	Y_WP:	0.000	Y_WP:	0.500	X:	-0.001	Y:	0.029	Z:	0.049	yaw:	-145.113	yaw rate:	3.451	Roll:	2.166	Pitch:	-2.803	Yaw:	-204.004	Thrust:	100.000
Time:	4.540	Roll Set Point:	-0.065	Pitch Set Point:	0.053	Yaw Set Point:	2.535	X_WP:	0.100	Y_WP:	0.000	Y_WP:	0.500	X:	-0.001	Y:	0.029	Z:	0.049	yaw:	-145.263	yaw rate:	-15.015	Roll:	2.698	Pitch:	-2.602	Yaw:	-208.498	Thrust:	100.000
Time:	4.551	Roll Set Point:	-0.065	Pitch Set Point:	0.053	Yaw Set Point:	2.535	X_WP:	0.100	Y_WP:	0.000	Y_WP:	0.500	X:	-0.001	Y:	0.029	Z:	0.049	yaw:	-145.217	yaw rate:	4.592	Roll:	2.262	Pitch:	-2.892	Yaw:	-203.878	Thrust:	100.000
Time:	4.562	Roll Set Point:	-0.065	Pitch Set Point:	0.053	Yaw Set Point:	2.534	X_WP:	0.100	Y_WP:	0.000	Y_WP:	0.500	X:	-0.001	Y:	0.029	Z:	0.049	yaw:	-145.177	yaw rate:	4.050	Roll:	2.207	Pitch:	-2.797	Yaw:	-203.950	Thrust:	100.000
Time:	4.573	Roll Set Point:	-0.065	Pitch Set Point:	0.053	Yaw Set Point:	2.533	X_WP:	0.100	Y_WP:	0.000	Y_WP:	0.500	X:	-0.001	Y:	0.029	Z:	0.049	yaw:	-145.142	yaw rate:	3.518	Roll:	2.339	Pitch:	-2.841	Yaw:	-204.173	Thrust:	100.000
Time:	4.585	Roll Set Point:	-0.065	Pitch Set Point:	0.053	Yaw Set Point:	2.534	X_WP:	0.100	Y_WP:	0.000	Y_WP:	0.500	X:	-0.001	Y:	0.029	Z:	0.049	yaw:	-145.174	yaw rate:	-3.266	Roll:	2.413	Pitch:	-2.781	Yaw:	-205.681	Thrust:	100.000
Time:	4.595	Roll Set Point:	-0.065	Pitch Set Point:	0.053	Yaw Set Point:	2.533	X_WP:	0.100	Y_WP:	0.000	Y_WP:	0.500	X:	-0.001	Y:	0.029	Z:	0.049	yaw:	-145.133	yaw rate:	4.108	Roll:	2.195	Pitch:	-2.748	Yaw:	-203.576	Thrust:	100.000
Time:	4.607	Roll Set Point:	-0.065	Pitch Set Point:	0.053	Yaw Set Point:	2.534	X_WP:	0.100	Y_WP:	0.000	Y_WP:	0.500	X:	-0.001	Y:	0.029	Z:	0.049	yaw:	-145.197	yaw rate:	-6.359	Roll:	2.449	Pitch:	-2.746	Yaw:	-206.525	Thrust:	100.000
Time:	4.619	Roll Set Point:	-0.065	Pitch Set Point:	0.053	Yaw Set Point:	2.534	X_WP:	0.100	Y_WP:	0.000	Y_WP:	0.500	X:	-0.001	Y:	0.029	Z:	0.049	yaw:	-145.186	yaw rate:	1.095	Roll:	2.359	Pitch:	-2.842	Yaw:	-204.665	Thrust:	100.000
Time:	4.632	Roll Set Point:	-0.065	Pitch Set Point:	0.052	Yaw Set Point:	2.536	X_WP:	0.100	Y_WP:	0.000	Y_WP:	0.500	X:	-0.001	Y:	0.029	Z:	0.049	yaw:	-145.286	yaw rate:	-10.058	Roll:	2.533	Pitch:	-2.641	Yaw:	-207.541	Thrust:	100.000
Time:	4.644	Roll Set Point:	-0.065	Pitch Set Point:	0.053	Yaw Set Point:	2.534	X_WP:	0.100	Y_WP:	0.000	Y_WP:	0.500	X:	-0.001	Y:	0.029	Z:	0.049	yaw:	-145.201	yaw rate:	2.619	Roll:	2.329	Pitch:	-3.002	Yaw:	-203.124	Thrust:	100.000
Time:	4.655	Roll Set Point:	-0.065	Pitch Set Point:	0.053	Yaw Set Point:	2.532	X_WP:	0.100	Y_WP:	0.000	Y_WP:	0.500	X:	-0.001	Y:	0.029	Z:	0.049	yaw:	-145.090	yaw rate:	11.130	Roll:	2.211	Pitch:	-3.001	Yaw:	-202.570	Thrust:	100.000
Time:	4.668	Roll Set Point:	-0.065	Pitch Set Point:	0.053	Yaw Set Point:	2.534	X_WP:	0.100	Y_WP:	0.000	Y_WP:	0.500	X:	-0.001	Y:	0.029	Z:	0.049	yaw:	-145.179	yaw rate:	-8.856	Roll:	2.532	Pitch:	-2.604	Yaw:	-207.066	Thrust:	100.000
Time:	4.680	Roll Set Point:	-0.065	Pitch Set Point:	0.053	Yaw Set Point:	2.534	X_WP:	0.100	Y_WP:	0.000	Y_WP:	0.500	X:	-0.001	Y:	0.029	Z:	0.049	yaw:	-145.163	yaw rate:	1.519	Roll:	2.413	Pitch:	-2.897	Yaw:	-204.761	Thrust:	100.000
Time:	4.691	Roll Set Point:	-0.065	Pitch Set Point:	0.053	Yaw Set Point:	2.533	X_WP:	0.100	Y_WP:	0.000	Y_WP:	0.500	X:	-0.001	Y:	0.029	Z:	0.049	yaw:	-145.128	yaw rate:	3.560	Roll:	2.250	Pitch:	-2.849	Yaw:	-204.139	Thrust:	100.000
Time:	4.702	Roll Set Point:	-0.065	Pitch Set Point:	0.053	Yaw Set Point:	2.535	X_WP:	0.100	Y_WP:	0.000	Y_WP:	0.500	X:	-0.001	Y:	0.029	Z:	0.049	yaw:	-145.219	yaw rate:	-9.094	Roll:	2.609	Pitch:	-2.642	Yaw:	-207.128	Thrust:	100.000
Time:	4.713	Roll Set Point:	-0.065	Pitch Set Point:	0.053	Yaw Set Point:	2.533	X_WP:	0.100	Y_WP:	0.000	Y_WP:	0.500	X:	-0.001	Y:	0.029	Z:	0.049	yaw:	-145.147	yaw rate:	7.150	Roll:	2.085	Pitch:	-2.948	Yaw:	-203.172	Thrust:	100.000
Time:	4.724	Roll Set Point:	-0.066	Pitch Set Point:	0.052	Yaw Set Point:	2.538	X_WP:	0.100	Y_WP:	0.000	Y_WP:	0.500	X:	-0.001	Y:	0.029	Z:	0.049	yaw:	-145.418	yaw rate:	-27.097	Roll:	3.174	Pitch:	-2.209	Yaw:	-211.884	Thrust:	100.000
Time:	4.736	Roll Set Point:	-0.065	Pitch Set Point:	0.053	Yaw Set Point:	2.534	X_WP:	0.100	Y_WP:	0.000	Y_WP:	0.500	X:	-0.001	Y:	0.029	Z:	0.049	yaw:	-145.211	yaw rate:	20.764	Roll:	1.654	Pitch:	-3.160	Yaw:	-200.350	Thrust:	100.000
Time:	4.747	Roll Set Point:	-0.065	Pitch Set Point:	0.053	Yaw Set Point:	2.533	X_WP:	0.100	Y_WP:	0.000	Y_WP:	0.500	X:	-0.001	Y:	0.029	Z:	0.049	yaw:	-145.137	yaw rate:	7.310	Roll:	2.277	Pitch:	-2.925	Yaw:	-203.297	Thrust:	100.000
Time:	4.758	Roll Set Point:	-0.065	Pitch Set Point:	0.053	Yaw Set Point:	2.535	X_WP:	0.100	Y_WP:	0.000	Y_WP:	0.500	X:	-0.001	Y:	0.029	Z:	0.049	yaw:	-145.262	yaw rate:	-12.445	Roll:	2.597	Pitch:	-2.575	Yaw:	-207.984	Thrust:	100.000
Time:	4.769	Roll Set Point:	-0.065	Pitch Set Point:	0.053	Yaw Set Point:	2.534	X_WP:	0.100	Y_WP:	0.000	Y_WP:	0.500	X:	-0.001	Y:	0.029	Z:	0.049	yaw:	-145.198	yaw rate:	6.363	Roll:	2.227	Pitch:	-2.863	Yaw:	-203.451	Thrust:	100.000
Time:	4.780	Roll Set Point:	-0.065	Pitch Set Point:	0.053	Yaw Set Point:	2.534	X_WP:	0.100	Y_WP:	0.000	Y_WP:	0.500	X:	-0.001	Y:	0.029	Z:	0.049	yaw:	-145.168	yaw rate:	3.037	Roll:	2.201	Pitch:	-2.853	Yaw:	-204.177	Thrust:	100.000
Time:	4.791	Roll Set Point:	-0.065	Pitch Set Point:	0.053	Yaw Set Point:	2.533	X_WP:	0.100	Y_WP:	0.000	Y_WP:	0.500	X:	-0.001	Y:	0.029	Z:	0.049	yaw:	-145.120	yaw rate:	7.016	Roll:	2.332	Pitch:	-2.911	Yaw:	-203.684	Thrust:	100.000
Time:	4.803	Roll Set Point:	-0.065	Pitch Set Point:	0.053	Yaw Set Point:	2.533	X_WP:	0.100	Y_WP:	0.000	Y_WP:	0.500	X:	-0.001	Y:	0.029	Z:	0.049	yaw:	-145.102	yaw rate:	1.723	Roll:	2.261	Pitch:	-2.775	Yaw:	-204.518	Thrust:	100.000
Time:	4.814	Roll Set Point:	-0.065	Pitch Set Point:	0.053	Yaw Set Point:	2.534	X_WP:	0.100	Y_WP:	0.000	Y_WP:	0.500	X:	-0.001	Y:	0.029	Z:	0.049	yaw:	-145.172	yaw rate:	-6.986	Roll:	2.476	Pitch:	-2.650	Yaw:	-206.563	Thrust:	100.000
Time:	4.825	Roll Set Point:	-0.065	Pitch Set Point:	0.053	Yaw Set Point:	2.535	X_WP:	0.100	Y_WP:	0.000	Y_WP:	0.500	X:	-0.001	Y:	0.029	Z:	0.049	yaw:	-145.221	yaw rate:	-4.909	Roll:	2.466	Pitch:	-2.763	Yaw:	-206.138	Thrust:	100.000
Time:	4.838	Roll Set Point:	-0.065	Pitch Set Point:	0.053	Yaw Set Point:	2.533	X_WP:	0.100	Y_WP:	0.000	Y_WP:	0.500	X:	-0.001	Y:	0.029	Z:	0.049	yaw:	-145.107	yaw rate:	11.463	Roll:	2.154	Pitch:	-2.954	Yaw:	-202.923	Thrust:	100.000
Time:	4.849	Roll Set Point:	-0.065	Pitch Set Point:	0.053	Yaw Set Point:	2.534	X_WP:	0.100	Y_WP:	0.000	Y_WP:	0.500	X:	-0.001	Y:	0.029	Z:	0.049	yaw:	-145.165	yaw rate:	-5.793	Roll:	2.506	Pitch:	-2.724	Yaw:	-206.309	Thrust:	100.000
Time:	4.861	Roll Set Point:	-0.065	Pitch Set Point:	0.053	Yaw Set Point:	2.534	X_WP:	0.100	Y_WP:	0.000	Y_WP:	0.500	X:	-0.001	Y:	0.029	Z:	0.049	yaw:	-145.215	yaw rate:	-5.030	Roll:	2.475	Pitch:	-2.693	Yaw:	-206.169	Thrust:	100.000
Time:	4.872	Roll Set Point:	-0.066	Pitch Set Point:	0.052	Yaw Set Point:	2.537	X_WP:	0.100	Y_WP:	0.000	Y_WP:	0.500	X:	-0.001	Y:	0.029	Z:	0.049	yaw:	-145.363	yaw rate:	-14.778	Roll:	2.867	Pitch:	-2.525	Yaw:	-208.675	Thrust:	100.000
Time:	4.883	Roll Set Point:	-0.065	Pitch Set Point:	0.053	Yaw Set Point:	2.534	X_WP:	0.100	Y_WP:	0.000	Y_WP:	0.500	X:	-0.001	Y:	0.029	Z:	0.049	yaw:	-145.201	yaw rate:	16.168	Roll:	1.787	Pitch:	-3.084	Yaw:	-201.107	Thrust:	100.000
Time:	4.895	Roll Set Point:	-0.065	Pitch Set Point:	0.053	Yaw Set Point:	2.535	X_WP:	0.100	Y_WP:	0.000	Y_WP:	0.500	X:	-0.001	Y:	0.029	Z:	0.049	yaw:	-145.223	yaw rate:	-2.238	Roll:	2.488	Pitch:	-2.736	Yaw:	-205.628	Thrust:	100.000
Time:	4.906	Roll Set Point:	-0.065	Pitch Set Point:	0.053	Yaw Set Point:	2.534	X_WP:	0.100	Y_WP:	0.000	Y_WP:	0.500	X:	-0.001	Y:	0.029	Z:	0.049	yaw:	-145.171	yaw rate:	5.243	Roll:	2.099	Pitch:	-2.876	Yaw:	-203.665	Thrust:	100.000
Time:	4.918	Roll Set Point:	-0.065	Pitch Set Point:	0.053	Yaw Set Point:	2.533	X_WP:	0.100	Y_WP:	0.000	Y_WP:	0.500	X:	-0.001	Y:	0.029	Z:	0.049	yaw:	-145.111	yaw rate:	5.964	Roll:	2.341	Pitch:	-2.947	Yaw:	-203.723	Thrust:	100.000
Time:	4.929	Roll Set Point:	-0.065	Pitch Set Point:	0.053	Yaw Set Point:	2.535	X_WP:	0.100	Y_WP:	0.000	Y_WP:	0.500	X:	-0.001	Y:	0.029	Z:	0.049	yaw:	-145.259	yaw rate:	-14.798	Roll:	2.850	Pitch:	-2.383	Yaw:	-208.538	Thrust:	100.000
Time:	4.946	Roll Set Point:	-0.065	Pitch Set Point:	0.053	Yaw Set Point:	2.533	X_WP:	0.100	Y_WP:	0.000	Y_WP:	0.500	X:	-0.001	Y:	0.029	Z:	0.049	yaw:	-145.110	yaw rate:	14.908	Roll:	2.192	Pitch:	-3.214	Yaw:	-203.743	Thrust:	100.000
Time:	4.958	Roll Set Point:	-0.065	Pitch Set Point:	0.053	Yaw Set Point:	2.534	X_WP:	0.100	Y_WP:	0.000	Y_WP:	0.500	X:	-0.001	Y:	0.029	Z:	0.049	yaw:	-145.166	yaw rate:	8.369	Roll:	2.490	Pitch:	-2.769	Yaw:	-206.362	Thrust:	100.000
Time:	4.969	Roll Set Point:	-0.065	Pitch Set Point:	0.053	Yaw Set Point:	2.533	X_WP:	0.100	Y_WP:	0.000	Y_WP:	0.500	X:	-0.001	Y:	0.029	Z:	0.049	yaw:	-145.158	yaw rate:	0.771	Roll:	2.341	Pitch:	-2.840	Yaw:	-204.710	Thrust:	100.000
