Time:	2.141	Roll Set Point:	-0.234	Pitch Set Point:	-0.125	Yaw Set Point:	-0.545	X_WP:	0.000	Y_WP:	0.000	Y_WP:	0.500	X:	0.099	Y:	0.095	Z:	0.400	yaw:	31.223	yaw rate:	-0.709	Roll:	3.894	Pitch:	0.867	Yaw:	43.596	Thrust:	5.526
Time:	2.157	Roll Set Point:	-0.234	Pitch Set Point:	-0.125	Yaw Set Point:	-0.545	X_WP:	0.000	Y_WP:	0.000	Y_WP:	0.500	X:	0.099	Y:	0.095	Z:	0.400	yaw:	31.223	yaw rate:	-0.071	Roll:	3.894	Pitch:	0.861	Yaw:	43.753	Thrust:	5.715
Time:	2.172	Roll Set Point:	-0.234	Pitch Set Point:	-0.125	Yaw Set Point:	-0.545	X_WP:	0.000	Y_WP:	0.000	Y_WP:	0.500	X:	0.099	Y:	0.095	Z:	0.400	yaw:	31.223	yaw rate:	-0.071	Roll:	3.905	Pitch:	0.869	Yaw:	43.935	Thrust:	5.902
Time:	2.188	Roll Set Point:	-0.234	Pitch Set Point:	-0.125	Yaw Set Point:	-0.545	X_WP:	0.000	Y_WP:	0.000	Y_WP:	0.500	X:	0.099	Y:	0.095	Z:	0.400	yaw:	31.244	yaw rate:	4.452	Roll:	3.936	Pitch:	0.838	Yaw:	44.490	Thrust:	6.102
Time:	2.204	Roll Set Point:	-0.234	Pitch Set Point:	-0.125	Yaw Set Point:	-0.545	X_WP:	0.000	Y_WP:	0.000	Y_WP:	0.500	X:	0.099	Y:	0.095	Z:	0.400	yaw:	31.229	yaw rate:	-1.447	Roll:	3.874	Pitch:	0.921	Yaw:	44.043	Thrust:	6.274
Time:	2.219	Roll Set Point:	-0.234	Pitch Set Point:	-0.125	Yaw Set Point:	-0.545	X_WP:	0.000	Y_WP:	0.000	Y_WP:	0.500	X:	0.099	Y:	0.095	Z:	0.400	yaw:	31.232	yaw rate:	0.246	Roll:	3.940	Pitch:	0.880	Yaw:	44.501	Thrust:	6.499
Time:	2.235	Roll Set Point:	-0.234	Pitch Set Point:	-0.125	Yaw Set Point:	-0.545	X_WP:	0.000	Y_WP:	0.000	Y_WP:	0.500	X:	0.099	Y:	0.095	Z:	0.400	yaw:	31.232	yaw rate:	0.246	Roll:	3.926	Pitch:	0.874	Yaw:	44.630	Thrust:	6.657
Time:	2.251	Roll Set Point:	-0.234	Pitch Set Point:	-0.125	Yaw Set Point:	-0.545	X_WP:	0.000	Y_WP:	0.000	Y_WP:	0.500	X:	0.099	Y:	0.095	Z:	0.400	yaw:	31.237	yaw rate:	0.570	Roll:	3.926	Pitch:	0.817	Yaw:	44.903	Thrust:	6.775
Time:	2.266	Roll Set Point:	-0.234	Pitch Set Point:	-0.125	Yaw Set Point:	-0.545	X_WP:	0.000	Y_WP:	0.000	Y_WP:	0.500	X:	0.099	Y:	0.095	Z:	0.400	yaw:	31.237	yaw rate:	0.570	Roll:	3.936	Pitch:	0.875	Yaw:	44.979	Thrust:	7.032
Time:	2.282	Roll Set Point:	-0.234	Pitch Set Point:	-0.125	Yaw Set Point:	-0.545	X_WP:	0.000	Y_WP:	0.000	Y_WP:	0.500	X:	0.099	Y:	0.095	Z:	0.400	yaw:	31.223	yaw rate:	-1.450	Roll:	3.942	Pitch:	0.940	Yaw:	44.886	Thrust:	7.261
Time:	2.297	Roll Set Point:	-0.234	Pitch Set Point:	-0.125	Yaw Set Point:	-0.545	X_WP:	0.000	Y_WP:	0.000	Y_WP:	0.500	X:	0.099	Y:	0.095	Z:	0.400	yaw:	31.211	yaw rate:	-1.168	Roll:	3.930	Pitch:	0.894	Yaw:	44.946	Thrust:	7.353
Time:	2.313	Roll Set Point:	-0.234	Pitch Set Point:	-0.125	Yaw Set Point:	-0.546	X_WP:	0.000	Y_WP:	0.000	Y_WP:	0.500	X:	0.099	Y:	0.095	Z:	0.400	yaw:	31.276	yaw rate:	0.389	Roll:	4.004	Pitch:	0.766	Yaw:	46.320	Thrust:	7.732
Time:	2.329	Roll Set Point:	-0.234	Pitch Set Point:	-0.125	Yaw Set Point:	-0.546	X_WP:	0.000	Y_WP:	0.000	Y_WP:	0.500	X:	0.099	Y:	0.095	Z:	0.400	yaw:	31.276	yaw rate:	0.389	Roll:	3.958	Pitch:	0.879	Yaw:	45.233	Thrust:	7.788
Time:	2.344	Roll Set Point:	-0.234	Pitch Set Point:	-0.125	Yaw Set Point:	-0.545	X_WP:	0.000	Y_WP:	0.000	Y_WP:	0.500	X:	0.099	Y:	0.095	Z:	0.400	yaw:	31.227	yaw rate:	0.878	Roll:	3.926	Pitch:	0.964	Yaw:	44.336	Thrust:	7.902
Time:	2.360	Roll Set Point:	-0.234	Pitch Set Point:	-0.125	Yaw Set Point:	-0.545	X_WP:	0.000	Y_WP:	0.000	Y_WP:	0.500	X:	0.099	Y:	0.095	Z:	0.400	yaw:	31.227	yaw rate:	0.878	Roll:	3.968	Pitch:	0.884	Yaw:	45.164	Thrust:	8.165
Time:	2.376	Roll Set Point:	-0.234	Pitch Set Point:	-0.125	Yaw Set Point:	-0.545	X_WP:	0.000	Y_WP:	0.000	Y_WP:	0.500	X:	0.099	Y:	0.095	Z:	0.400	yaw:	31.248	yaw rate:	1.674	Roll:	3.990	Pitch:	0.867	Yaw:	45.548	Thrust:	8.443
Time:	2.391	Roll Set Point:	-0.234	Pitch Set Point:	-0.125	Yaw Set Point:	-0.545	X_WP:	0.000	Y_WP:	0.000	Y_WP:	0.500	X:	0.099	Y:	0.095	Z:	0.400	yaw:	31.213	yaw rate:	-3.479	Roll:	3.947	Pitch:	0.956	Yaw:	44.549	Thrust:	8.388
Time:	2.407	Roll Set Point:	-0.234	Pitch Set Point:	-0.125	Yaw Set Point:	-0.545	X_WP:	0.000	Y_WP:	0.000	Y_WP:	0.500	X:	0.099	Y:	0.095	Z:	0.400	yaw:	31.227	yaw rate:	1.404	Roll:	3.994	Pitch:	0.834	Yaw:	45.401	Thrust:	8.764
Time:	2.422	Roll Set Point:	-0.235	Pitch Set Point:	-0.121	Yaw Set Point:	-0.586	X_WP:	0.000	Y_WP:	0.000	Y_WP:	0.500	X:	0.099	Y:	0.096	Z:	0.399	yaw:	33.559	yaw rate:	233.193	Roll:	5.661	Pitch:	-4.309	Yaw:	87.554	Thrust:	11.101
Time:	2.438	Roll Set Point:	-0.235	Pitch Set Point:	-0.121	Yaw Set Point:	-0.586	X_WP:	0.000	Y_WP:	0.000	Y_WP:	0.500	X:	0.099	Y:	0.096	Z:	0.399	yaw:	33.559	yaw rate:	233.193	Roll:	4.037	Pitch:	0.754	Yaw:	48.422	Thrust:	9.154
Time:	2.454	Roll Set Point:	-0.234	Pitch Set Point:	-0.125	Yaw Set Point:	-0.545	X_WP:	0.000	Y_WP:	0.000	Y_WP:	0.500	X:	0.099	Y:	0.095	Z:	0.400	yaw:	31.216	yaw rate:	5.534	Roll:	2.364	Pitch:	5.983	Yaw:	5.827	Thrust:	7.180
Time:	2.469	Roll Set Point:	-0.234	Pitch Set Point:	-0.125	Yaw Set Point:	-0.545	X_WP:	0.000	Y_WP:	0.000	Y_WP:	0.500	X:	0.099	Y:	0.095	Z:	0.400	yaw:	31.214	yaw rate:	-0.234	Roll:	4.018	Pitch:	0.883	Yaw:	45.105	Thrust:	9.435
Time:	2.485	Roll Set Point:	-0.234	Pitch Set Point:	-0.125	Yaw Set Point:	-0.546	X_WP:	0.000	Y_WP:	0.000	Y_WP:	0.500	X:	0.099	Y:	0.095	Z:	0.399	yaw:	31.272	yaw rate:	5.849	Roll:	4.032	Pitch:	0.797	Yaw:	46.207	Thrust:	9.808
Time:	2.501	Roll Set Point:	-0.234	Pitch Set Point:	-0.125	Yaw Set Point:	-0.544	X_WP:	0.000	Y_WP:	0.000	Y_WP:	0.500	X:	0.099	Y:	0.095	Z:	0.400	yaw:	31.186	yaw rate:	-8.624	Roll:	3.963	Pitch:	1.054	Yaw:	43.668	Thrust:	9.693
Time:	2.516	Roll Set Point:	-0.234	Pitch Set Point:	-0.125	Yaw Set Point:	-0.544	X_WP:	0.000	Y_WP:	0.000	Y_WP:	0.500	X:	0.099	Y:	0.095	Z:	0.400	yaw:	31.186	yaw rate:	-8.624	Roll:	4.020	Pitch:	0.897	Yaw:	45.106	Thrust:	10.048
Time:	2.532	Roll Set Point:	-0.234	Pitch Set Point:	-0.125	Yaw Set Point:	-0.545	X_WP:	0.000	Y_WP:	0.000	Y_WP:	0.500	X:	0.099	Y:	0.095	Z:	0.400	yaw:	31.199	yaw rate:	-8.694	Roll:	4.035	Pitch:	0.856	Yaw:	45.351	Thrust:	10.240
Time:	2.547	Roll Set Point:	-0.234	Pitch Set Point:	-0.125	Yaw Set Point:	-0.546	X_WP:	0.000	Y_WP:	0.000	Y_WP:	0.500	X:	0.099	Y:	0.095	Z:	0.399	yaw:	31.269	yaw rate:	6.967	Roll:	4.075	Pitch:	0.776	Yaw:	46.391	Thrust:	10.611
Time:	2.563	Roll Set Point:	-0.234	Pitch Set Point:	-0.125	Yaw Set Point:	-0.546	X_WP:	0.000	Y_WP:	0.000	Y_WP:	0.500	X:	0.099	Y:	0.095	Z:	0.399	yaw:	31.269	yaw rate:	6.967	Roll:	4.036	Pitch:	0.896	Yaw:	45.220	Thrust:	10.607
Time:	2.579	Roll Set Point:	-0.234	Pitch Set Point:	-0.125	Yaw Set Point:	-0.545	X_WP:	0.000	Y_WP:	0.000	Y_WP:	0.500	X:	0.099	Y:	0.095	Z:	0.400	yaw:	31.208	yaw rate:	-6.123	Roll:	3.993	Pitch:	0.984	Yaw:	44.112	Thrust:	10.612
Time:	2.594	Roll Set Point:	-0.234	Pitch Set Point:	-0.125	Yaw Set Point:	-0.544	X_WP:	0.000	Y_WP:	0.000	Y_WP:	0.500	X:	0.099	Y:	0.095	Z:	0.400	yaw:	31.196	yaw rate:	-1.153	Roll:	4.064	Pitch:	0.973	Yaw:	44.928	Thrust:	11.050
Time:	2.609	Roll Set Point:	-0.234	Pitch Set Point:	-0.125	Yaw Set Point:	-0.545	X_WP:	0.000	Y_WP:	0.000	Y_WP:	0.500	X:	0.099	Y:	0.095	Z:	0.400	yaw:	31.212	yaw rate:	1.552	Roll:	4.045	Pitch:	0.848	Yaw:	45.342	Thrust:	10.903
Time:	2.625	Roll Set Point:	-0.234	Pitch Set Point:	-0.125	Yaw Set Point:	-0.545	X_WP:	0.000	Y_WP:	0.000	Y_WP:	0.500	X:	0.099	Y:	0.095	Z:	0.400	yaw:	31.203	yaw rate:	-0.844	Roll:	4.041	Pitch:	0.886	Yaw:	44.990	Thrust:	11.310
Time:	2.640	Roll Set Point:	-0.234	Pitch Set Point:	-0.125	Yaw Set Point:	-0.545	X_WP:	0.000	Y_WP:	0.000	Y_WP:	0.500	X:	0.099	Y:	0.095	Z:	0.400	yaw:	31.203	yaw rate:	-0.844	Roll:	4.062	Pitch:	0.904	Yaw:	45.131	Thrust:	11.556
Time:	2.656	Roll Set Point:	-0.234	Pitch Set Point:	-0.125	Yaw Set Point:	-0.544	X_WP:	0.000	Y_WP:	0.000	Y_WP:	0.500	X:	0.099	Y:	0.095	Z:	0.400	yaw:	31.148	yaw rate:	-5.525	Roll:	4.034	Pitch:	1.108	Yaw:	44.128	Thrust:	11.835
Time:	2.672	Roll Set Point:	-0.234	Pitch Set Point:	-0.125	Yaw Set Point:	-0.544	X_WP:	0.000	Y_WP:	0.000	Y_WP:	0.500	X:	0.099	Y:	0.095	Z:	0.400	yaw:	31.165	yaw rate:	1.681	Roll:	4.077	Pitch:	0.832	Yaw:	45.359	Thrust:	11.979
Time:	2.687	Roll Set Point:	-0.234	Pitch Set Point:	-0.125	Yaw Set Point:	-0.544	X_WP:	0.000	Y_WP:	0.000	Y_WP:	0.500	X:	0.099	Y:	0.095	Z:	0.400	yaw:	31.165	yaw rate:	1.681	Roll:	4.077	Pitch:	0.911	Yaw:	45.077	Thrust:	12.124
Time:	2.703	Roll Set Point:	-0.234	Pitch Set Point:	-0.124	Yaw Set Point:	-0.553	X_WP:	0.000	Y_WP:	0.000	Y_WP:	0.500	X:	0.099	Y:	0.095	Z:	0.399	yaw:	31.656	yaw rate:	49.133	Roll:	4.510	Pitch:	-0.404	Yaw:	53.982	Thrust:	12.726
Time:	2.719	Roll Set Point:	-0.234	Pitch Set Point:	-0.124	Yaw Set Point:	-0.553	X_WP:	0.000	Y_WP:	0.000	Y_WP:	0.500	X:	0.099	Y:	0.095	Z:	0.399	yaw:	31.656	yaw rate:	49.133	Roll:	4.098	Pitch:	0.879	Yaw:	45.760	Thrust:	12.495
Time:	2.734	Roll Set Point:	-0.235	Pitch Set Point:	-0.121	Yaw Set Point:	-0.586	X_WP:	0.000	Y_WP:	0.000	Y_WP:	0.500	X:	0.099	Y:	0.096	Z:	0.399	yaw:	33.555	yaw rate:	230.025	Roll:	5.353	Pitch:	-3.087	Yaw:	80.161	Thrust:	14.489
Time:	2.750	Roll Set Point:	-0.235	Pitch Set Point:	-0.121	Yaw Set Point:	-0.586	X_WP:	0.000	Y_WP:	0.000	Y_WP:	0.500	X:	0.099	Y:	0.096	Z:	0.399	yaw:	33.555	yaw rate:	230.025	Roll:	4.141	Pitch:	0.778	Yaw:	48.411	Thrust:	12.904
Time:	2.765	Roll Set Point:	-0.234	Pitch Set Point:	-0.125	Yaw Set Point:	-0.544	X_WP:	0.000	Y_WP:	0.000	Y_WP:	0.500	X:	0.099	Y:	0.095	Z:	0.400	yaw:	31.162	yaw rate:	-239.216	Roll:	2.470	Pitch:	6.057	Yaw:	4.999	Thrust:	10.823
Time:	2.781	Roll Set Point:	-0.234	Pitch Set Point:	-0.125	Yaw Set Point:	-0.545	X_WP:	0.000	Y_WP:	0.000	Y_WP:	0.500	X:	0.099	Y:	0.095	Z:	0.400	yaw:	31.248	yaw rate:	2.170	Roll:	4.174	Pitch:	0.776	Yaw:	46.628	Thrust:	13.226
Time:	2.797	Roll Set Point:	-0.234	Pitch Set Point:	-0.125	Yaw Set Point:	-0.545	X_WP:	0.000	Y_WP:	0.000	Y_WP:	0.500	X:	0.099	Y:	0.095	Z:	0.400	yaw:	31.200	yaw rate:	-4.841	Roll:	4.083	Pitch:	0.992	Yaw:	44.315	Thrust:	13.554
Time:	2.812	Roll Set Point:	-0.234	Pitch Set Point:	-0.124	Yaw Set Point:	-0.551	X_WP:	0.000	Y_WP:	0.000	Y_WP:	0.500	X:	0.099	Y:	0.095	Z:	0.399	yaw:	31.563	yaw rate:	36.333	Roll:	4.451	Pitch:	-0.085	Yaw:	51.721	Thrust:	14.137
Time:	2.828	Roll Set Point:	-0.234	Pitch Set Point:	-0.124	Yaw Set Point:	-0.551	X_WP:	0.000	Y_WP:	0.000	Y_WP:	0.500	X:	0.099	Y:	0.095	Z:	0.399	yaw:	31.563	yaw rate:	36.333	Roll:	4.134	Pitch:	0.893	Yaw:	45.633	Thrust:	13.833
Time:	2.844	Roll Set Point:	-0.234	Pitch Set Point:	-0.125	Yaw Set Point:	-0.544	X_WP:	0.000	Y_WP:	0.000	Y_WP:	0.500	X:	0.099	Y:	0.095	Z:	0.400	yaw:	31.191	yaw rate:	7.784	Roll:	3.806	Pitch:	1.927	Yaw:	38.885	Thrust:	13.382
Time:	2.859	Roll Set Point:	-0.234	Pitch Set Point:	-0.125	Yaw Set Point:	-0.545	X_WP:	0.000	Y_WP:	0.000	Y_WP:	0.500	X:	0.099	Y:	0.095	Z:	0.400	yaw:	31.247	yaw rate:	5.546	Roll:	4.157	Pitch:	0.809	Yaw:	46.121	Thrust:	14.349
Time:	2.875	Roll Set Point:	-0.234	Pitch Set Point:	-0.124	Yaw Set Point:	-0.552	X_WP:	0.000	Y_WP:	0.000	Y_WP:	0.500	X:	0.099	Y:	0.095	Z:	0.399	yaw:	31.616	yaw rate:	36.924	Roll:	4.485	Pitch:	-0.158	Yaw:	51.884	Thrust:	14.815
Time:	2.890	Roll Set Point:	-0.234	Pitch Set Point:	-0.125	Yaw Set Point:	-0.545	X_WP:	0.000	Y_WP:	0.000	Y_WP:	0.500	X:	0.099	Y:	0.095	Z:	0.400	yaw:	31.230	yaw rate:	-38.619	Roll:	3.806	Pitch:	2.001	Yaw:	38.682	Thrust:	14.192
Time:	2.906	Roll Set Point:	-0.234	Pitch Set Point:	-0.124	Yaw Set Point:	-0.553	X_WP:	0.000	Y_WP:	0.000	Y_WP:	0.500	X:	0.099	Y:	0.095	Z:	0.399	yaw:	31.657	yaw rate:	42.681	Roll:	4.543	Pitch:	-0.208	Yaw:	52.914	Thrust:	15.102
Time:	2.922	Roll Set Point:	-0.234	Pitch Set Point:	-0.125	Yaw Set Point:	-0.544	X_WP:	0.000	Y_WP:	0.000	Y_WP:	0.500	X:	0.099	Y:	0.095	Z:	0.400	yaw:	31.142	yaw rate:	-51.494	Roll:	3.713	Pitch:	2.243	Yaw:	36.417	Thrust:	14.489
Time:	2.937	Roll Set Point:	-0.234	Pitch Set Point:	-0.125	Yaw Set Point:	-0.544	X_WP:	0.000	Y_WP:	0.000	Y_WP:	0.500	X:	0.099	Y:	0.095	Z:	0.400	yaw:	31.142	yaw rate:	-51.494	Roll:	4.161	Pitch:	0.931	Yaw:	45.045	Thrust:	15.140
Time:	2.953	Roll Set Point:	-0.234	Pitch Set Point:	-0.125	Yaw Set Point:	-0.545	X_WP:	0.000	Y_WP:	0.000	Y_WP:	0.500	X:	0.099	Y:	0.095	Z:	0.400	yaw:	31.243	yaw rate:	10.107	Roll:	4.225	Pitch:	0.649	Yaw:	46.879	Thrust:	15.360
Time:	2.969	Roll Set Point:	-0.234	Pitch Set Point:	-0.125	Yaw Set Point:	-0.545	X_WP:	0.000	Y_WP:	0.000	Y_WP:	0.500	X:	0.099	Y:	0.095	Z:	0.400	yaw:	31.231	yaw rate:	5.207	Roll:	4.186	Pitch:	0.993	Yaw:	44.977	Thrust:	15.482
Time:	2.984	Roll Set Point:	-0.234	Pitch Set Point:	-0.125	Yaw Set Point:	-0.545	X_WP:	0.000	Y_WP:	0.000	Y_WP:	0.500	X:	0.099	Y:	0.095	Z:	0.400	yaw:	31.246	yaw rate:	1.518	Roll:	4.178	Pitch:	0.905	Yaw:	45.445	Thrust:	15.736
Time:	3.000	Roll Set Point:	-0.234	Pitch Set Point:	-0.125	Yaw Set Point:	-0.545	X_WP:	0.000	Y_WP:	0.000	Y_WP:	0.500	X:	0.099	Y:	0.095	Z:	0.400	yaw:	31.246	yaw rate:	1.518	Roll:	4.183	Pitch:	0.930	Yaw:	45.191	Thrust:	15.894
Time:	3.015	Roll Set Point:	-0.234	Pitch Set Point:	-0.125	Yaw Set Point:	-0.544	X_WP:	0.000	Y_WP:	0.000	Y_WP:	0.500	X:	0.099	Y:	0.095	Z:	0.400	yaw:	31.152	yaw rate:	-9.430	Roll:	4.128	Pitch:	1.121	Yaw:	43.479	Thrust:	16.117
Time:	3.031	Roll Set Point:	-0.234	Pitch Set Point:	-0.125	Yaw Set Point:	-0.544	X_WP:	0.000	Y_WP:	0.000	Y_WP:	0.500	X:	0.099	Y:	0.095	Z:	0.400	yaw:	31.152	yaw rate:	-9.430	Roll:	4.192	Pitch:	0.937	Yaw:	45.059	Thrust:	16.272
Time:	3.047	Roll Set Point:	-0.234	Pitch Set Point:	-0.125	Yaw Set Point:	-0.545	X_WP:	0.000	Y_WP:	0.000	Y_WP:	0.500	X:	0.099	Y:	0.095	Z:	0.400	yaw:	31.204	yaw rate:	5.141	Roll:	4.237	Pitch:	0.816	Yaw:	45.992	Thrust:	16.364
Time:	3.062	Roll Set Point:	-0.234	Pitch Set Point:	-0.125	Yaw Set Point:	-0.545	X_WP:	0.000	Y_WP:	0.000	Y_WP:	0.500	X:	0.099	Y:	0.095	Z:	0.400	yaw:	31.204	yaw rate:	5.141	Roll:	4.204	Pitch:	0.936	Yaw:	45.131	Thrust:	16.646
Time:	3.078	Roll Set Point:	-0.234	Pitch Set Point:	-0.125	Yaw Set Point:	-0.545	X_WP:	0.000	Y_WP:	0.000	Y_WP:	0.500	X:	0.099	Y:	0.095	Z:	0.400	yaw:	31.250	yaw rate:	4.614	Roll:	4.229	Pitch:	0.833	Yaw:	45.968	Thrust:	16.940
Time:	3.094	Roll Set Point:	-0.234	Pitch Set Point:	-0.125	Yaw Set Point:	-0.544	X_WP:	0.000	Y_WP:	0.000	Y_WP:	0.500	X:	0.099	Y:	0.095	Z:	0.400	yaw:	31.185	yaw rate:	-8.146	Roll:	4.175	Pitch:	1.087	Yaw:	44.026	Thrust:	16.942
Time:	3.109	Roll Set Point:	-0.234	Pitch Set Point:	-0.125	Yaw Set Point:	-0.544	X_WP:	0.000	Y_WP:	0.000	Y_WP:	0.500	X:	0.099	Y:	0.095	Z:	0.400	yaw:	31.185	yaw rate:	-8.146	Roll:	4.219	Pitch:	0.941	Yaw:	45.106	Thrust:	17.215
Time:	3.125	Roll Set Point:	-0.234	Pitch Set Point:	-0.125	Yaw Set Point:	-0.545	X_WP:	0.000	Y_WP:	0.000	Y_WP:	0.500	X:	0.099	Y:	0.095	Z:	0.400	yaw:	31.246	yaw rate:	1.146	Roll:	4.265	Pitch:	0.830	Yaw:	46.211	Thrust:	17.513
Time:	3.141	Roll Set Point:	-0.234	Pitch Set Point:	-0.125	Yaw Set Point:	-0.545	X_WP:	0.000	Y_WP:	0.000	Y_WP:	0.500	X:	0.099	Y:	0.095	Z:	0.400	yaw:	31.239	yaw rate:	-0.761	Roll:	4.226	Pitch:	0.943	Yaw:	45.052	Thrust:	17.521
Time:	3.156	Roll Set Point:	-0.234	Pitch Set Point:	-0.125	Yaw Set Point:	-0.545	X_WP:	0.000	Y_WP:	0.000	Y_WP:	0.500	X:	0.099	Y:	0.095	Z:	0.400	yaw:	31.248	yaw rate:	0.990	Roll:	4.254	Pitch:	0.896	Yaw:	45.359	Thrust:	17.797
Time:	3.172	Roll Set Point:	-0.234	Pitch Set Point:	-0.125	Yaw Set Point:	-0.545	X_WP:	0.000	Y_WP:	0.000	Y_WP:	0.500	X:	0.099	Y:	0.095	Z:	0.400	yaw:	31.226	yaw rate:	-2.210	Roll:	4.206	Pitch:	1.042	Yaw:	44.793	Thrust:	17.988
Time:	3.187	Roll Set Point:	-0.234	Pitch Set Point:	-0.125	Yaw Set Point:	-0.545	X_WP:	0.000	Y_WP:	0.000	Y_WP:	0.500	X:	0.099	Y:	0.095	Z:	0.400	yaw:	31.226	yaw rate:	-2.210	Roll:	4.246	Pitch:	0.945	Yaw:	45.163	Thrust:	18.157
Time:	3.203	Roll Set Point:	-0.234	Pitch Set Point:	-0.125	Yaw Set Point:	-0.545	X_WP:	0.000	Y_WP:	0.000	Y_WP:	0.500	X:	0.099	Y:	0.095	Z:	0.400	yaw:	31.200	yaw rate:	-3.440	Roll:	4.225	Pitch:	0.926	Yaw:	44.680	Thrust:	18.261
Time:	3.219	Roll Set Point:	-0.234	Pitch Set Point:	-0.125	Yaw Set Point:	-0.545	X_WP:	0.000	Y_WP:	0.000	Y_WP:	0.500	X:	0.099	Y:	0.095	Z:	0.400	yaw:	31.229	yaw rate:	2.958	Roll:	4.273	Pitch:	0.883	Yaw:	45.663	Thrust:	18.548
Time:	3.234	Roll Set Point:	-0.234	Pitch Set Point:	-0.125	Yaw Set Point:	-0.545	X_WP:	0.000	Y_WP:	0.000	Y_WP:	0.500	X:	0.099	Y:	0.095	Z:	0.400	yaw:	31.229	yaw rate:	-0.004	Roll:	4.285	Pitch:	0.999	Yaw:	45.169	Thrust:	18.768
Time:	3.250	Roll Set Point:	-0.234	Pitch Set Point:	-0.125	Yaw Set Point:	-0.545	X_WP:	0.000	Y_WP:	0.000	Y_WP:	0.500	X:	0.099	Y:	0.095	Z:	0.400	yaw:	31.229	yaw rate:	-0.004	Roll:	4.266	Pitch:	0.949	Yaw:	45.164	Thrust:	18.881
Time:	3.266	Roll Set Point:	-0.234	Pitch Set Point:	-0.125	Yaw Set Point:	-0.544	X_WP:	0.000	Y_WP:	0.000	Y_WP:	0.500	X:	0.099	Y:	0.095	Z:	0.400	yaw:	31.193	yaw rate:	-5.343	Roll:	4.235	Pitch:	1.001	Yaw:	44.501	Thrust:	19.076
Time:	3.281	Roll Set Point:	-0.234	Pitch Set Point:	-0.125	Yaw Set Point:	-0.544	X_WP:	0.000	Y_WP:	0.000	Y_WP:	0.500	X:	0.099	Y:	0.095	Z:	0.400	yaw:	31.193	yaw rate:	-5.343	Roll:	4.277	Pitch:	0.953	Yaw:	45.116	Thrust:	19.285
Time:	3.297	Roll Set Point:	-0.234	Pitch Set Point:	-0.125	Yaw Set Point:	-0.546	X_WP:	0.000	Y_WP:	0.000	Y_WP:	0.500	X:	0.099	Y:	0.095	Z:	0.400	yaw:	31.255	yaw rate:	5.210	Roll:	4.326	Pitch:	0.879	Yaw:	46.257	Thrust:	19.600
Time:	3.312	Roll Set Point:	-0.235	Pitch Set Point:	-0.121	Yaw Set Point:	-0.586	X_WP:	0.000	Y_WP:	0.000	Y_WP:	0.500	X:	0.099	Y:	0.096	Z:	0.399	yaw:	33.557	yaw rate:	230.203	Roll:	5.932	Pitch:	-4.151	Yaw:	87.057	Thrust:	21.863
Time:	3.328	Roll Set Point:	-0.234	Pitch Set Point:	-0.125	Yaw Set Point:	-0.543	X_WP:	0.000	Y_WP:	0.000	Y_WP:	0.500	X:	0.099	Y:	0.095	Z:	0.400	yaw:	31.129	yaw rate:	-242.875	Roll:	2.631	Pitch:	6.176	Yaw:	4.333	Thrust:	17.596
Time:	3.344	Roll Set Point:	-0.234	Pitch Set Point:	-0.125	Yaw Set Point:	-0.545	X_WP:	0.000	Y_WP:	0.000	Y_WP:	0.500	X:	0.099	Y:	0.095	Z:	0.400	yaw:	31.209	yaw rate:	8.050	Roll:	4.326	Pitch:	0.725	Yaw:	46.488	Thrust:	20.005
Time:	3.359	Roll Set Point:	-0.234	Pitch Set Point:	-0.125	Yaw Set Point:	-0.545	X_WP:	0.000	Y_WP:	0.000	Y_WP:	0.500	X:	0.099	Y:	0.095	Z:	0.400	yaw:	31.220	yaw rate:	1.076	Roll:	4.327	Pitch:	0.988	Yaw:	45.337	Thrust:	20.285
Time:	3.375	Roll Set Point:	-0.234	Pitch Set Point:	-0.125	Yaw Set Point:	-0.545	X_WP:	0.000	Y_WP:	0.000	Y_WP:	0.500	X:	0.099	Y:	0.095	Z:	0.400	yaw:	31.220	yaw rate:	1.076	Roll:	4.308	Pitch:	0.959	Yaw:	45.151	Thrust:	20.384
Time:	3.391	Roll Set Point:	-0.234	Pitch Set Point:	-0.125	Yaw Set Point:	-0.545	X_WP:	0.000	Y_WP:	0.000	Y_WP:	0.500	X:	0.099	Y:	0.095	Z:	0.400	yaw:	31.215	yaw rate:	-0.345	Roll:	4.305	Pitch:	0.943	Yaw:	45.068	Thrust:	20.546
Time:	3.406	Roll Set Point:	-0.234	Pitch Set Point:	-0.124	Yaw Set Point:	-0.552	X_WP:	0.000	Y_WP:	0.000	Y_WP:	0.500	X:	0.099	Y:	0.095	Z:	0.399	yaw:	31.637	yaw rate:	42.158	Roll:	4.682	Pitch:	-0.178	Yaw:	52.798	Thrust:	21.405
Time:	3.422	Roll Set Point:	-0.234	Pitch Set Point:	-0.125	Yaw Set Point:	-0.545	X_WP:	0.000	Y_WP:	0.000	Y_WP:	0.500	X:	0.099	Y:	0.095	Z:	0.400	yaw:	31.238	yaw rate:	-39.846	Roll:	3.994	Pitch:	2.054	Yaw:	38.503	Thrust:	20.454
Time:	3.437	Roll Set Point:	-0.234	Pitch Set Point:	-0.125	Yaw Set Point:	-0.545	X_WP:	0.000	Y_WP:	0.000	Y_WP:	0.500	X:	0.099	Y:	0.095	Z:	0.400	yaw:	31.238	yaw rate:	-39.846	Roll:	4.331	Pitch:	0.963	Yaw:	45.183	Thrust:	21.202
Time:	3.453	Roll Set Point:	-0.234	Pitch Set Point:	-0.125	Yaw Set Point:	-0.544	X_WP:	0.000	Y_WP:	0.000	Y_WP:	0.500	X:	0.099	Y:	0.095	Z:	0.400	yaw:	31.193	yaw rate:	-45.681	Roll:	4.297	Pitch:	1.028	Yaw:	44.347	Thrust:	21.361
Time:	3.469	Roll Set Point:	-0.234	Pitch Set Point:	-0.125	Yaw Set Point:	-0.545	X_WP:	0.000	Y_WP:	0.000	Y_WP:	0.500	X:	0.099	Y:	0.095	Z:	0.399	yaw:	31.248	yaw rate:	5.512	Roll:	4.363	Pitch:	0.865	Yaw:	46.116	Thrust:	21.647
Time:	3.484	Roll Set Point:	-0.234	Pitch Set Point:	-0.125	Yaw Set Point:	-0.545	X_WP:	0.000	Y_WP:	0.000	Y_WP:	0.500	X:	0.099	Y:	0.095	Z:	0.399	yaw:	31.248	yaw rate:	5.512	Roll:	4.347	Pitch:	0.966	Yaw:	45.196	Thrust:	21.768
Time:	3.500	Roll Set Point:	-0.234	Pitch Set Point:	-0.125	Yaw Set Point:	-0.543	X_WP:	0.000	Y_WP:	0.000	Y_WP:	0.500	X:	0.099	Y:	0.095	Z:	0.400	yaw:	31.139	yaw rate:	-10.871	Roll:	4.295	Pitch:	1.206	Yaw:	43.213	Thrust:	21.707
Time:	3.516	Roll Set Point:	-0.234	Pitch Set Point:	-0.125	Yaw Set Point:	-0.544	X_WP:	0.000	Y_WP:	0.000	Y_WP:	0.500	X:	0.099	Y:	0.095	Z:	0.400	yaw:	31.196	yaw rate:	5.710	Roll:	4.397	Pitch:	0.829	Yaw:	46.077	Thrust:	22.035
Time:	3.531	Roll Set Point:	-0.234	Pitch Set Point:	-0.125	Yaw Set Point:	-0.544	X_WP:	0.000	Y_WP:	0.000	Y_WP:	0.500	X:	0.099	Y:	0.095	Z:	0.400	yaw:	31.196	yaw rate:	5.710	Roll:	4.361	Pitch:	0.971	Yaw:	45.121	Thrust:	22.299
Time:	3.547	Roll Set Point:	-0.234	Pitch Set Point:	-0.125	Yaw Set Point:	-0.546	X_WP:	0.000	Y_WP:	0.000	Y_WP:	0.500	X:	0.099	Y:	0.095	Z:	0.400	yaw:	31.260	yaw rate:	6.598	Roll:	4.398	Pitch:	0.839	Yaw:	46.273	Thrust:	22.715
Time:	3.562	Roll Set Point:	-0.234	Pitch Set Point:	-0.125	Yaw Set Point:	-0.545	X_WP:	0.000	Y_WP:	0.000	Y_WP:	0.500	X:	0.099	Y:	0.095	Z:	0.400	yaw:	31.206	yaw rate:	-5.397	Roll:	4.350	Pitch:	1.155	Yaw:	44.230	Thrust:	22.642
Time:	3.578	Roll Set Point:	-0.234	Pitch Set Point:	-0.124	Yaw Set Point:	-0.552	X_WP:	0.000	Y_WP:	0.000	Y_WP:	0.500	X:	0.099	Y:	0.095	Z:	0.399	yaw:	31.635	yaw rate:	42.913	Roll:	4.751	Pitch:	-0.175	Yaw:	52.935	Thrust:	23.306
Time:	3.594	Roll Set Point:	-0.234	Pitch Set Point:	-0.123	Yaw Set Point:	-0.565	X_WP:	0.000	Y_WP:	0.000	Y_WP:	0.500	X:	0.099	Y:	0.096	Z:	0.399	yaw:	32.387	yaw rate:	75.252	Roll:	4.848	Pitch:	-0.507	Yaw:	59.391	Thrust:	23.906
Time:	3.609	Roll Set Point:	-0.234	Pitch Set Point:	-0.123	Yaw Set Point:	-0.566	X_WP:	0.000	Y_WP:	0.000	Y_WP:	0.500	X:	0.099	Y:	0.096	Z:	0.399	yaw:	32.443	yaw rate:	5.615	Roll:	4.412	Pitch:	0.755	Yaw:	47.776	Thrust:	22.447
Time:	3.625	Roll Set Point:	-0.235	Pitch Set Point:	-0.122	Yaw Set Point:	-0.586	X_WP:	0.000	Y_WP:	0.000	Y_WP:	0.500	X:	0.099	Y:	0.096	Z:	0.399	yaw:	33.563	yaw rate:	111.982	Roll:	5.213	Pitch:	-1.374	Yaw:	66.094	Thrust:	25.597
Time:	3.641	Roll Set Point:	-0.235	Pitch Set Point:	-0.122	Yaw Set Point:	-0.586	X_WP:	0.000	Y_WP:	0.000	Y_WP:	0.500	X:	0.099	Y:	0.096	Z:	0.399	yaw:	33.563	yaw rate:	111.982	Roll:	4.442	Pitch:	0.846	Yaw:	48.426	Thrust:	23.666
Time:	3.656	Roll Set Point:	-0.233	Pitch Set Point:	-0.125	Yaw Set Point:	-0.532	X_WP:	0.000	Y_WP:	0.000	Y_WP:	0.500	X:	0.099	Y:	0.094	Z:	0.401	yaw:	30.480	yaw rate:	-308.318	Roll:	1.863	Pitch:	7.089	Yaw:	-7.634	Thrust:	17.595
Time:	3.672	Roll Set Point:	-0.234	Pitch Set Point:	-0.125	Yaw Set Point:	-0.546	X_WP:	0.000	Y_WP:	0.000	Y_WP:	0.500	X:	0.099	Y:	0.095	Z:	0.400	yaw:	31.257	yaw rate:	81.541	Roll:	5.318	Pitch:	-0.198	Yaw:	58.197	Thrust:	27.932
Time:	3.688	Roll Set Point:	-0.234	Pitch Set Point:	-0.125	Yaw Set Point:	-0.546	X_WP:	0.000	Y_WP:	0.000	Y_WP:	0.500	X:	0.099	Y:	0.095	Z:	0.400	yaw:	31.257	yaw rate:	81.541	Roll:	4.415	Pitch:	0.979	Yaw:	45.206	Thrust:	24.188
Time:	3.703	Roll Set Point:	-0.234	Pitch Set Point:	-0.124	Yaw Set Point:	-0.552	X_WP:	0.000	Y_WP:	0.000	Y_WP:	0.500	X:	0.099	Y:	0.095	Z:	0.399	yaw:	31.628	yaw rate:	40.920	Roll:	4.762	Pitch:	-0.014	Yaw:	51.945	Thrust:	24.776
Time:	3.719	Roll Set Point:	-0.234	Pitch Set Point:	-0.125	Yaw Set Point:	-0.544	X_WP:	0.000	Y_WP:	0.000	Y_WP:	0.500	X:	0.099	Y:	0.095	Z:	0.400	yaw:	31.188	yaw rate:	-43.978	Roll:	4.029	Pitch:	2.093	Yaw:	37.742	Thrust:	24.082
Time:	3.735	Roll Set Point:	-0.234	Pitch Set Point:	-0.125	Yaw Set Point:	-0.544	X_WP:	0.000	Y_WP:	0.000	Y_WP:	0.500	X:	0.099	Y:	0.095	Z:	0.400	yaw:	31.188	yaw rate:	-43.978	Roll:	4.430	Pitch:	0.987	Yaw:	45.112	Thrust:	24.789
Time:	3.750	Roll Set Point:	-0.234	Pitch Set Point:	-0.125	Yaw Set Point:	-0.545	X_WP:	0.000	Y_WP:	0.000	Y_WP:	0.500	X:	0.099	Y:	0.095	Z:	0.400	yaw:	31.215	yaw rate:	-5.372	Roll:	4.467	Pitch:	0.969	Yaw:	45.608	Thrust:	24.908
Time:	3.766	Roll Set Point:	-0.234	Pitch Set Point:	-0.125	Yaw Set Point:	-0.545	X_WP:	0.000	Y_WP:	0.000	Y_WP:	0.500	X:	0.099	Y:	0.095	Z:	0.400	yaw:	31.215	yaw rate:	-5.372	Roll:	4.440	Pitch:	0.989	Yaw:	45.148	Thrust:	25.130
Time:	3.782	Roll Set Point:	-0.234	Pitch Set Point:	-0.125	Yaw Set Point:	-0.545	X_WP:	0.000	Y_WP:	0.000	Y_WP:	0.500	X:	0.099	Y:	0.095	Z:	0.400	yaw:	31.248	yaw rate:	3.282	Roll:	4.477	Pitch:	0.893	Yaw:	45.742	Thrust:	25.262
Time:	3.797	Roll Set Point:	-0.234	Pitch Set Point:	-0.125	Yaw Set Point:	-0.545	X_WP:	0.000	Y_WP:	0.000	Y_WP:	0.500	X:	0.099	Y:	0.095	Z:	0.400	yaw:	31.199	yaw rate:	-4.953	Roll:	4.407	Pitch:	1.060	Yaw:	44.294	Thrust:	25.499
Time:	3.813	Roll Set Point:	-0.234	Pitch Set Point:	-0.125	Yaw Set Point:	-0.545	X_WP:	0.000	Y_WP:	0.000	Y_WP:	0.500	X:	0.099	Y:	0.095	Z:	0.400	yaw:	31.249	yaw rate:	5.061	Roll:	4.503	Pitch:	0.923	Yaw:	46.044	Thrust:	25.783
Time:	3.828	Roll Set Point:	-0.234	Pitch Set Point:	-0.125	Yaw Set Point:	-0.545	X_WP:	0.000	Y_WP:	0.000	Y_WP:	0.500	X:	0.099	Y:	0.095	Z:	0.400	yaw:	31.249	yaw rate:	5.061	Roll:	4.462	Pitch:	0.991	Yaw:	45.195	Thrust:	25.883
Time:	3.844	Roll Set Point:	-0.234	Pitch Set Point:	-0.125	Yaw Set Point:	-0.545	X_WP:	0.000	Y_WP:	0.000	Y_WP:	0.500	X:	0.099	Y:	0.095	Z:	0.400	yaw:	31.238	yaw rate:	-1.123	Roll:	4.463	Pitch:	1.013	Yaw:	44.991	Thrust:	25.998
Time:	3.860	Roll Set Point:	-0.235	Pitch Set Point:	-0.121	Yaw Set Point:	-0.586	X_WP:	0.000	Y_WP:	0.000	Y_WP:	0.500	X:	0.099	Y:	0.096	Z:	0.399	yaw:	33.552	yaw rate:	193.255	Roll:	6.103	Pitch:	-4.205	Yaw:	87.251	Thrust:	28.583
Time:	3.875	Roll Set Point:	-0.234	Pitch Set Point:	-0.125	Yaw Set Point:	-0.544	X_WP:	0.000	Y_WP:	0.000	Y_WP:	0.500	X:	0.099	Y:	0.095	Z:	0.400	yaw:	31.175	yaw rate:	-237.745	Roll:	2.846	Pitch:	6.201	Yaw:	5.346	Thrust:	24.268
Time:	3.891	Roll Set Point:	-0.234	Pitch Set Point:	-0.125	Yaw Set Point:	-0.546	X_WP:	0.000	Y_WP:	0.000	Y_WP:	0.500	X:	0.099	Y:	0.095	Z:	0.400	yaw:	31.256	yaw rate:	8.116	Roll:	4.537	Pitch:	0.814	Yaw:	46.564	Thrust:	26.627
Time:	3.907	Roll Set Point:	-0.234	Pitch Set Point:	-0.125	Yaw Set Point:	-0.543	X_WP:	0.000	Y_WP:	0.000	Y_WP:	0.500	X:	0.099	Y:	0.095	Z:	0.400	yaw:	31.138	yaw rate:	-11.828	Roll:	4.394	Pitch:	1.278	Yaw:	43.050	Thrust:	26.756
Time:	3.922	Roll Set Point:	-0.234	Pitch Set Point:	-0.125	Yaw Set Point:	-0.545	X_WP:	0.000	Y_WP:	0.000	Y_WP:	0.500	X:	0.099	Y:	0.095	Z:	0.400	yaw:	31.212	yaw rate:	7.371	Roll:	4.511	Pitch:	0.759	Yaw:	46.377	Thrust:	27.033
Time:	3.938	Roll Set Point:	-0.234	Pitch Set Point:	-0.125	Yaw Set Point:	-0.545	X_WP:	0.000	Y_WP:	0.000	Y_WP:	0.500	X:	0.099	Y:	0.095	Z:	0.400	yaw:	31.212	yaw rate:	7.371	Roll:	4.481	Pitch:	1.000	Yaw:	45.145	Thrust:	27.246
Time:	3.953	Roll Set Point:	-0.234	Pitch Set Point:	-0.125	Yaw Set Point:	-0.545	X_WP:	0.000	Y_WP:	0.000	Y_WP:	0.500	X:	0.099	Y:	0.095	Z:	0.400	yaw:	31.230	yaw rate:	-0.521	Roll:	4.521	Pitch:	1.023	Yaw:	45.484	Thrust:	27.418
Time:	3.969	Roll Set Point:	-0.234	Pitch Set Point:	-0.125	Yaw Set Point:	-0.545	X_WP:	0.000	Y_WP:	0.000	Y_WP:	0.500	X:	0.099	Y:	0.095	Z:	0.400	yaw:	31.250	yaw rate:	1.916	Roll:	4.479	Pitch:	0.937	Yaw:	45.514	Thrust:	27.538
Time:	3.985	Roll Set Point:	-0.234	Pitch Set Point:	-0.125	Yaw Set Point:	-0.544	X_WP:	0.000	Y_WP:	0.000	Y_WP:	0.500	X:	0.099	Y:	0.095	Z:	0.400	yaw:	31.197	yaw rate:	-5.234	Roll:	4.454	Pitch:	1.068	Yaw:	44.250	Thrust:	27.777
Time:	4.000	Roll Set Point:	-0.234	Pitch Set Point:	-0.125	Yaw Set Point:	-0.544	X_WP:	0.000	Y_WP:	0.000	Y_WP:	0.500	X:	0.099	Y:	0.095	Z:	0.400	yaw:	31.197	yaw rate:	-5.234	Roll:	4.480	Pitch:	1.005	Yaw:	45.122	Thrust:	27.958
Time:	4.016	Roll Set Point:	-0.234	Pitch Set Point:	-0.125	Yaw Set Point:	-0.544	X_WP:	0.000	Y_WP:	0.000	Y_WP:	0.500	X:	0.099	Y:	0.095	Z:	0.400	yaw:	31.184	yaw rate:	-1.354	Roll:	4.461	Pitch:	1.076	Yaw:	44.873	Thrust:	28.060
Time:	4.032	Roll Set Point:	-0.234	Pitch Set Point:	-0.125	Yaw Set Point:	-0.546	X_WP:	0.000	Y_WP:	0.000	Y_WP:	0.500	X:	0.099	Y:	0.095	Z:	0.400	yaw:	31.267	yaw rate:	0.747	Roll:	4.529	Pitch:	0.813	Yaw:	46.612	Thrust:	28.420
Time:	4.047	Roll Set Point:	-0.234	Pitch Set Point:	-0.125	Yaw Set Point:	-0.546	X_WP:	0.000	Y_WP:	0.000	Y_WP:	0.500	X:	0.099	Y:	0.095	Z:	0.400	yaw:	31.288	yaw rate:	2.075	Roll:	4.500	Pitch:	0.943	Yaw:	45.596	Thrust:	28.576
Time:	4.063	Roll Set Point:	-0.234	Pitch Set Point:	-0.125	Yaw Set Point:	-0.546	X_WP:	0.000	Y_WP:	0.000	Y_WP:	0.500	X:	0.099	Y:	0.095	Z:	0.400	yaw:	31.288	yaw rate:	2.075	Roll:	4.481	Pitch:	1.005	Yaw:	45.249	Thrust:	28.719
Time:	4.078	Roll Set Point:	-0.235	Pitch Set Point:	-0.121	Yaw Set Point:	-0.585	X_WP:	0.000	Y_WP:	0.000	Y_WP:	0.500	X:	0.099	Y:	0.096	Z:	0.399	yaw:	33.517	yaw rate:	230.282	Roll:	6.092	Pitch:	-3.909	Yaw:	85.719	Thrust:	31.060
Time:	4.094	Roll Set Point:	-0.234	Pitch Set Point:	-0.124	Yaw Set Point:	-0.552	X_WP:	0.000	Y_WP:	0.000	Y_WP:	0.500	X:	0.099	Y:	0.095	Z:	0.399	yaw:	31.613	yaw rate:	-190.412	Roll:	3.230	Pitch:	4.897	Yaw:	13.800	Thrust:	27.368
Time:	4.110	Roll Set Point:	-0.234	Pitch Set Point:	-0.124	Yaw Set Point:	-0.552	X_WP:	0.000	Y_WP:	0.000	Y_WP:	0.500	X:	0.099	Y:	0.095	Z:	0.399	yaw:	31.613	yaw rate:	-190.412	Roll:	4.490	Pitch:	0.985	Yaw:	45.703	Thrust:	29.290
Time:	4.125	Roll Set Point:	-0.234	Pitch Set Point:	-0.125	Yaw Set Point:	-0.545	X_WP:	0.000	Y_WP:	0.000	Y_WP:	0.500	X:	0.099	Y:	0.095	Z:	0.400	yaw:	31.217	yaw rate:	-39.604	Roll:	4.105	Pitch:	2.055	Yaw:	38.514	Thrust:	28.957
Time:	4.141	Roll Set Point:	-0.234	Pitch Set Point:	-0.125	Yaw Set Point:	-0.545	X_WP:	0.000	Y_WP:	0.000	Y_WP:	0.500	X:	0.099	Y:	0.095	Z:	0.400	yaw:	31.217	yaw rate:	-39.604	Roll:	4.480	Pitch:	1.015	Yaw:	45.150	Thrust:	29.655
Time:	4.157	Roll Set Point:	-0.234	Pitch Set Point:	-0.125	Yaw Set Point:	-0.544	X_WP:	0.000	Y_WP:	0.000	Y_WP:	0.500	X:	0.099	Y:	0.095	Z:	0.400	yaw:	31.155	yaw rate:	-8.365	Roll:	4.459	Pitch:	1.202	Yaw:	44.032	Thrust:	29.885
Time:	4.172	Roll Set Point:	-0.234	Pitch Set Point:	-0.125	Yaw Set Point:	-0.545	X_WP:	0.000	Y_WP:	0.000	Y_WP:	0.500	X:	0.099	Y:	0.095	Z:	0.400	yaw:	31.231	yaw rate:	7.607	Roll:	4.517	Pitch:	0.771	Yaw:	46.444	Thrust:	29.957
Time:	4.188	Roll Set Point:	-0.234	Pitch Set Point:	-0.125	Yaw Set Point:	-0.545	X_WP:	0.000	Y_WP:	0.000	Y_WP:	0.500	X:	0.099	Y:	0.095	Z:	0.400	yaw:	31.231	yaw rate:	7.607	Roll:	4.480	Pitch:	1.017	Yaw:	45.170	Thrust:	30.230
Time:	4.203	Roll Set Point:	-0.234	Pitch Set Point:	-0.125	Yaw Set Point:	-0.545	X_WP:	0.000	Y_WP:	0.000	Y_WP:	0.500	X:	0.099	Y:	0.095	Z:	0.400	yaw:	31.231	yaw rate:	-2.581	Roll:	4.495	Pitch:	1.065	Yaw:	45.155	Thrust:	30.375
Time:	4.219	Roll Set Point:	-0.234	Pitch Set Point:	-0.125	Yaw Set Point:	-0.545	X_WP:	0.000	Y_WP:	0.000	Y_WP:	0.500	X:	0.099	Y:	0.095	Z:	0.400	yaw:	31.231	yaw rate:	0.015	Roll:	4.490	Pitch:	1.018	Yaw:	45.174	Thrust:	30.699
Time:	4.235	Roll Set Point:	-0.234	Pitch Set Point:	-0.124	Yaw Set Point:	-0.552	X_WP:	0.000	Y_WP:	0.000	Y_WP:	0.500	X:	0.099	Y:	0.095	Z:	0.399	yaw:	31.612	yaw rate:	38.173	Roll:	4.832	Pitch:	-0.034	Yaw:	52.106	Thrust:	31.205
Time:	4.250	Roll Set Point:	-0.234	Pitch Set Point:	-0.125	Yaw Set Point:	-0.545	X_WP:	0.000	Y_WP:	0.000	Y_WP:	0.500	X:	0.099	Y:	0.095	Z:	0.400	yaw:	31.227	yaw rate:	-38.585	Roll:	4.114	Pitch:	2.053	Yaw:	38.698	Thrust:	30.605
Time:	4.266	Roll Set Point:	-0.234	Pitch Set Point:	-0.125	Yaw Set Point:	-0.545	X_WP:	0.000	Y_WP:	0.000	Y_WP:	0.500	X:	0.099	Y:	0.095	Z:	0.400	yaw:	31.221	yaw rate:	-0.548	Roll:	4.488	Pitch:	1.026	Yaw:	45.064	Thrust:	31.058
Time:	4.282	Roll Set Point:	-0.234	Pitch Set Point:	-0.125	Yaw Set Point:	-0.544	X_WP:	0.000	Y_WP:	0.000	Y_WP:	0.500	X:	0.099	Y:	0.095	Z:	0.400	yaw:	31.173	yaw rate:	-4.782	Roll:	4.448	Pitch:	1.203	Yaw:	44.288	Thrust:	31.419
Time:	4.297	Roll Set Point:	-0.234	Pitch Set Point:	-0.125	Yaw Set Point:	-0.545	X_WP:	0.000	Y_WP:	0.000	Y_WP:	0.500	X:	0.099	Y:	0.095	Z:	0.400	yaw:	31.206	yaw rate:	3.276	Roll:	4.485	Pitch:	0.928	Yaw:	45.683	Thrust:	31.542
Time:	4.313	Roll Set Point:	-0.234	Pitch Set Point:	-0.125	Yaw Set Point:	-0.545	X_WP:	0.000	Y_WP:	0.000	Y_WP:	0.500	X:	0.099	Y:	0.095	Z:	0.400	yaw:	31.206	yaw rate:	3.276	Roll:	4.480	Pitch:	1.029	Yaw:	45.135	Thrust:	31.730
Time:	4.328	Roll Set Point:	-0.234	Pitch Set Point:	-0.124	Yaw Set Point:	-0.552	X_WP:	0.000	Y_WP:	0.000	Y_WP:	0.500	X:	0.099	Y:	0.095	Z:	0.399	yaw:	31.626	yaw rate:	39.502	Roll:	4.870	Pitch:	-0.129	Yaw:	52.758	Thrust:	32.345
Time:	4.344	Roll Set Point:	-0.234	Pitch Set Point:	-0.125	Yaw Set Point:	-0.545	X_WP:	0.000	Y_WP:	0.000	Y_WP:	0.500	X:	0.099	Y:	0.095	Z:	0.400	yaw:	31.230	yaw rate:	-39.644	Roll:	4.141	Pitch:	2.076	Yaw:	38.525	Thrust:	31.673
Time:	4.360	Roll Set Point:	-0.234	Pitch Set Point:	-0.125	Yaw Set Point:	-0.545	X_WP:	0.000	Y_WP:	0.000	Y_WP:	0.500	X:	0.099	Y:	0.095	Z:	0.400	yaw:	31.209	yaw rate:	-2.017	Roll:	4.443	Pitch:	1.112	Yaw:	44.801	Thrust:	32.326
Time:	4.375	Roll Set Point:	-0.234	Pitch Set Point:	-0.125	Yaw Set Point:	-0.544	X_WP:	0.000	Y_WP:	0.000	Y_WP:	0.500	X:	0.099	Y:	0.095	Z:	0.400	yaw:	31.172	yaw rate:	-3.770	Roll:	4.469	Pitch:	1.111	Yaw:	44.455	Thrust:	32.419
Time:	4.391	Roll Set Point:	-0.234	Pitch Set Point:	-0.125	Yaw Set Point:	-0.544	X_WP:	0.000	Y_WP:	0.000	Y_WP:	0.500	X:	0.099	Y:	0.095	Z:	0.400	yaw:	31.172	yaw rate:	-3.770	Roll:	4.479	Pitch:	1.037	Yaw:	45.087	Thrust:	32.672
Time:	4.407	Roll Set Point:	-0.234	Pitch Set Point:	-0.125	Yaw Set Point:	-0.545	X_WP:	0.000	Y_WP:	0.000	Y_WP:	0.500	X:	0.099	Y:	0.095	Z:	0.400	yaw:	31.243	yaw rate:	7.160	Roll:	4.528	Pitch:	0.871	Yaw:	46.386	Thrust:	32.912
Time:	4.422	Roll Set Point:	-0.234	Pitch Set Point:	-0.125	Yaw Set Point:	-0.545	X_WP:	0.000	Y_WP:	0.000	Y_WP:	0.500	X:	0.099	Y:	0.095	Z:	0.400	yaw:	31.226	yaw rate:	-1.714	Roll:	4.468	Pitch:	1.066	Yaw:	44.876	Thrust:	33.040
Time:	4.438	Roll Set Point:	-0.234	Pitch Set Point:	-0.125	Yaw Set Point:	-0.545	X_WP:	0.000	Y_WP:	0.000	Y_WP:	0.500	X:	0.099	Y:	0.095	Z:	0.400	yaw:	31.226	yaw rate:	-1.714	Roll:	4.481	Pitch:	1.037	Yaw:	45.166	Thrust:	33.290
Time:	4.453	Roll Set Point:	-0.234	Pitch Set Point:	-0.125	Yaw Set Point:	-0.544	X_WP:	0.000	Y_WP:	0.000	Y_WP:	0.500	X:	0.099	Y:	0.095	Z:	0.400	yaw:	31.147	yaw rate:	-7.958	Roll:	4.415	Pitch:	1.215	Yaw:	43.714	Thrust:	33.268
Time:	4.469	Roll Set Point:	-0.234	Pitch Set Point:	-0.125	Yaw Set Point:	-0.544	X_WP:	0.000	Y_WP:	0.000	Y_WP:	0.500	X:	0.099	Y:	0.095	Z:	0.400	yaw:	31.147	yaw rate:	-7.958	Roll:	4.479	Pitch:	1.044	Yaw:	45.052	Thrust:	33.613
Time:	4.485	Roll Set Point:	-0.234	Pitch Set Point:	-0.125	Yaw Set Point:	-0.545	X_WP:	0.000	Y_WP:	0.000	Y_WP:	0.500	X:	0.099	Y:	0.095	Z:	0.400	yaw:	31.212	yaw rate:	6.556	Roll:	4.532	Pitch:	0.914	Yaw:	46.241	Thrust:	33.841
Time:	4.500	Roll Set Point:	-0.234	Pitch Set Point:	-0.125	Yaw Set Point:	-0.545	X_WP:	0.000	Y_WP:	0.000	Y_WP:	0.500	X:	0.099	Y:	0.095	Z:	0.400	yaw:	31.217	yaw rate:	0.497	Roll:	4.482	Pitch:	1.021	Yaw:	45.233	Thrust:	34.058
Time:	4.516	Roll Set Point:	-0.234	Pitch Set Point:	-0.125	Yaw Set Point:	-0.545	X_WP:	0.000	Y_WP:	0.000	Y_WP:	0.500	X:	0.099	Y:	0.095	Z:	0.400	yaw:	31.217	yaw rate:	0.497	Roll:	4.480	Pitch:	1.043	Yaw:	45.150	Thrust:	34.178
Time:	4.532	Roll Set Point:	-0.234	Pitch Set Point:	-0.125	Yaw Set Point:	-0.545	X_WP:	0.000	Y_WP:	0.000	Y_WP:	0.500	X:	0.099	Y:	0.095	Z:	0.400	yaw:	31.231	yaw rate:	3.093	Roll:	4.494	Pitch:	1.007	Yaw:	45.392	Thrust:	34.307
Time:	4.547	Roll Set Point:	-0.234	Pitch Set Point:	-0.124	Yaw Set Point:	-0.552	X_WP:	0.000	Y_WP:	0.000	Y_WP:	0.500	X:	0.099	Y:	0.095	Z:	0.399	yaw:	31.614	yaw rate:	38.393	Roll:	4.840	Pitch:	0.026	Yaw:	52.135	Thrust:	35.011
Time:	4.563	Roll Set Point:	-0.234	Pitch Set Point:	-0.125	Yaw Set Point:	-0.546	X_WP:	0.000	Y_WP:	0.000	Y_WP:	0.500	X:	0.099	Y:	0.095	Z:	0.399	yaw:	31.256	yaw rate:	-35.838	Roll:	4.132	Pitch:	1.986	Yaw:	39.201	Thrust:	34.420
Time:	4.578	Roll Set Point:	-0.234	Pitch Set Point:	-0.125	Yaw Set Point:	-0.545	X_WP:	0.000	Y_WP:	0.000	Y_WP:	0.500	X:	0.099	Y:	0.095	Z:	0.400	yaw:	31.245	yaw rate:	-1.157	Roll:	4.482	Pitch:	1.049	Yaw:	44.997	Thrust:	34.937
Time:	4.594	Roll Set Point:	-0.234	Pitch Set Point:	-0.125	Yaw Set Point:	-0.545	X_WP:	0.000	Y_WP:	0.000	Y_WP:	0.500	X:	0.099	Y:	0.095	Z:	0.400	yaw:	31.248	yaw rate:	0.301	Roll:	4.484	Pitch:	1.038	Yaw:	45.240	Thrust:	34.976
Time:	4.625	Roll Set Point:	-0.234	Pitch Set Point:	-0.124	Yaw Set Point:	-0.553	X_WP:	0.000	Y_WP:	0.000	Y_WP:	0.500	X:	0.099	Y:	0.095	Z:	0.399	yaw:	31.664	yaw rate:	43.209	Roll:	5.253	Pitch:	0.663	Yaw:	50.824	Thrust:	65.259
Time:	4.641	Roll Set Point:	-0.234	Pitch Set Point:	-0.125	Yaw Set Point:	-0.544	X_WP:	0.000	Y_WP:	0.000	Y_WP:	0.500	X:	0.099	Y:	0.095	Z:	0.400	yaw:	31.183	yaw rate:	-48.103	Roll:	4.078	Pitch:	2.317	Yaw:	37.040	Thrust:	35.014
Time:	4.657	Roll Set Point:	-0.234	Pitch Set Point:	-0.125	Yaw Set Point:	-0.544	X_WP:	0.000	Y_WP:	0.000	Y_WP:	0.500	X:	0.099	Y:	0.095	Z:	0.400	yaw:	31.183	yaw rate:	-48.103	Roll:	4.480	Pitch:	1.055	Yaw:	45.103	Thrust:	35.699
Time:	4.672	Roll Set Point:	-0.234	Pitch Set Point:	-0.125	Yaw Set Point:	-0.545	X_WP:	0.000	Y_WP:	0.000	Y_WP:	0.500	X:	0.099	Y:	0.095	Z:	0.400	yaw:	31.232	yaw rate:	-4.964	Roll:	4.510	Pitch:	0.912	Yaw:	45.989	Thrust:	35.832
Time:	4.688	Roll Set Point:	-0.234	Pitch Set Point:	-0.125	Yaw Set Point:	-0.545	X_WP:	0.000	Y_WP:	0.000	Y_WP:	0.500	X:	0.099	Y:	0.095	Z:	0.400	yaw:	31.230	yaw rate:	-0.142	Roll:	4.472	Pitch:	1.068	Yaw:	45.145	Thrust:	36.040
Time:	4.703	Roll Set Point:	-0.234	Pitch Set Point:	-0.125	Yaw Set Point:	-0.545	X_WP:	0.000	Y_WP:	0.000	Y_WP:	0.500	X:	0.099	Y:	0.095	Z:	0.400	yaw:	31.203	yaw rate:	-2.685	Roll:	4.471	Pitch:	1.089	Yaw:	44.680	Thrust:	36.239
Time:	4.719	Roll Set Point:	-0.234	Pitch Set Point:	-0.125	Yaw Set Point:	-0.545	X_WP:	0.000	Y_WP:	0.000	Y_WP:	0.500	X:	0.099	Y:	0.095	Z:	0.400	yaw:	31.203	yaw rate:	-2.685	Roll:	4.481	Pitch:	1.058	Yaw:	45.134	Thrust:	36.499
Time:	4.735	Roll Set Point:	-0.234	Pitch Set Point:	-0.125	Yaw Set Point:	-0.545	X_WP:	0.000	Y_WP:	0.000	Y_WP:	0.500	X:	0.099	Y:	0.095	Z:	0.400	yaw:	31.220	yaw rate:	1.696	Roll:	4.490	Pitch:	1.034	Yaw:	45.436	Thrust:	36.547
Time:	4.750	Roll Set Point:	-0.234	Pitch Set Point:	-0.125	Yaw Set Point:	-0.546	X_WP:	0.000	Y_WP:	0.000	Y_WP:	0.500	X:	0.099	Y:	0.095	Z:	0.400	yaw:	31.272	yaw rate:	5.126	Roll:	4.526	Pitch:	0.981	Yaw:	46.085	Thrust:	36.946
Time:	4.766	Roll Set Point:	-0.234	Pitch Set Point:	-0.125	Yaw Set Point:	-0.546	X_WP:	0.000	Y_WP:	0.000	Y_WP:	0.500	X:	0.099	Y:	0.095	Z:	0.400	yaw:	31.272	yaw rate:	5.126	Roll:	4.481	Pitch:	1.058	Yaw:	45.226	Thrust:	37.005
Time:	4.782	Roll Set Point:	-0.234	Pitch Set Point:	-0.125	Yaw Set Point:	-0.545	X_WP:	0.000	Y_WP:	0.000	Y_WP:	0.500	X:	0.099	Y:	0.095	Z:	0.400	yaw:	31.244	yaw rate:	-2.775	Roll:	4.445	Pitch:	1.135	Yaw:	44.722	Thrust:	37.215
Time:	4.797	Roll Set Point:	-0.234	Pitch Set Point:	-0.125	Yaw Set Point:	-0.546	X_WP:	0.000	Y_WP:	0.000	Y_WP:	0.500	X:	0.099	Y:	0.095	Z:	0.400	yaw:	31.263	yaw rate:	1.766	Roll:	4.503	Pitch:	0.988	Yaw:	45.531	Thrust:	37.359
Time:	4.813	Roll Set Point:	-0.234	Pitch Set Point:	-0.125	Yaw Set Point:	-0.545	X_WP:	0.000	Y_WP:	0.000	Y_WP:	0.500	X:	0.099	Y:	0.095	Z:	0.400	yaw:	31.220	yaw rate:	-4.249	Roll:	4.449	Pitch:	1.161	Yaw:	44.443	Thrust:	37.421
Time:	4.828	Roll Set Point:	-0.234	Pitch Set Point:	-0.125	Yaw Set Point:	-0.545	X_WP:	0.000	Y_WP:	0.000	Y_WP:	0.500	X:	0.099	Y:	0.095	Z:	0.400	yaw:	31.220	yaw rate:	-4.249	Roll:	4.480	Pitch:	1.065	Yaw:	45.154	Thrust:	37.753
Time:	4.844	Roll Set Point:	-0.234	Pitch Set Point:	-0.125	Yaw Set Point:	-0.544	X_WP:	0.000	Y_WP:	0.000	Y_WP:	0.500	X:	0.099	Y:	0.095	Z:	0.400	yaw:	31.193	yaw rate:	-44.672	Roll:	4.475	Pitch:	1.063	Yaw:	44.654	Thrust:	37.890
Time:	4.860	Roll Set Point:	-0.234	Pitch Set Point:	-0.125	Yaw Set Point:	-0.544	X_WP:	0.000	Y_WP:	0.000	Y_WP:	0.500	X:	0.099	Y:	0.095	Z:	0.400	yaw:	31.193	yaw rate:	-44.672	Roll:	4.480	Pitch:	1.068	Yaw:	45.116	Thrust:	38.134
Time:	4.875	Roll Set Point:	-0.234	Pitch Set Point:	-0.125	Yaw Set Point:	-0.545	X_WP:	0.000	Y_WP:	0.000	Y_WP:	0.500	X:	0.099	Y:	0.095	Z:	0.400	yaw:	31.244	yaw rate:	3.276	Roll:	4.499	Pitch:	1.016	Yaw:	46.047	Thrust:	38.434
Time:	4.891	Roll Set Point:	-0.234	Pitch Set Point:	-0.125	Yaw Set Point:	-0.545	X_WP:	0.000	Y_WP:	0.000	Y_WP:	0.500	X:	0.099	Y:	0.095	Z:	0.400	yaw:	31.216	yaw rate:	-2.827	Roll:	4.475	Pitch:	1.088	Yaw:	44.675	Thrust:	38.384
Time:	4.907	Roll Set Point:	-0.234	Pitch Set Point:	-0.125	Yaw Set Point:	-0.545	X_WP:	0.000	Y_WP:	0.000	Y_WP:	0.500	X:	0.099	Y:	0.095	Z:	0.400	yaw:	31.216	yaw rate:	-2.827	Roll:	4.480	Pitch:	1.070	Yaw:	45.148	Thrust:	38.694
Time:	4.922	Roll Set Point:	-0.234	Pitch Set Point:	-0.125	Yaw Set Point:	-0.545	X_WP:	0.000	Y_WP:	0.000	Y_WP:	0.500	X:	0.099	Y:	0.095	Z:	0.400	yaw:	31.235	yaw rate:	2.160	Roll:	4.480	Pitch:	1.040	Yaw:	45.496	Thrust:	39.041
Time:	4.938	Roll Set Point:	-0.234	Pitch Set Point:	-0.125	Yaw Set Point:	-0.545	X_WP:	0.000	Y_WP:	0.000	Y_WP:	0.500	X:	0.099	Y:	0.095	Z:	0.400	yaw:	31.235	yaw rate:	2.160	Roll:	4.480	Pitch:	1.072	Yaw:	45.175	Thrust:	39.076
Time:	4.953	Roll Set Point:	-0.234	Pitch Set Point:	-0.125	Yaw Set Point:	-0.544	X_WP:	0.000	Y_WP:	0.000	Y_WP:	0.500	X:	0.099	Y:	0.095	Z:	0.400	yaw:	31.176	yaw rate:	-8.343	Roll:	4.462	Pitch:	1.223	Yaw:	44.101	Thrust:	39.124
Time:	4.969	Roll Set Point:	-0.234	Pitch Set Point:	-0.125	Yaw Set Point:	-0.545	X_WP:	0.000	Y_WP:	0.000	Y_WP:	0.500	X:	0.099	Y:	0.095	Z:	0.400	yaw:	31.240	yaw rate:	6.469	Roll:	4.518	Pitch:	0.972	Yaw:	46.266	Thrust:	39.626
Time:	4.985	Roll Set Point:	-0.234	Pitch Set Point:	-0.125	Yaw Set Point:	-0.545	X_WP:	0.000	Y_WP:	0.000	Y_WP:	0.500	X:	0.099	Y:	0.095	Z:	0.400	yaw:	31.232	yaw rate:	-0.830	Roll:	4.452	Pitch:	1.038	Yaw:	45.032	Thrust:	39.604
Time:	5.000	Roll Set Point:	-0.234	Pitch Set Point:	-0.125	Yaw Set Point:	-0.545	X_WP:	0.000	Y_WP:	0.000	Y_WP:	0.500	X:	0.099	Y:	0.095	Z:	0.400	yaw:	31.232	yaw rate:	-0.830	Roll:	4.480	Pitch:	1.077	Yaw:	45.172	Thrust:	39.841
Time:	5.016	Roll Set Point:	-0.234	Pitch Set Point:	-0.125	Yaw Set Point:	-0.544	X_WP:	0.000	Y_WP:	0.000	Y_WP:	0.500	X:	0.099	Y:	0.095	Z:	0.400	yaw:	31.183	yaw rate:	-44.108	Roll:	4.468	Pitch:	1.225	Yaw:	44.281	Thrust:	40.051
Time:	5.032	Roll Set Point:	-0.234	Pitch Set Point:	-0.125	Yaw Set Point:	-0.544	X_WP:	0.000	Y_WP:	0.000	Y_WP:	0.500	X:	0.099	Y:	0.095	Z:	0.400	yaw:	31.183	yaw rate:	-44.108	Roll:	4.480	Pitch:	1.083	Yaw:	45.102	Thrust:	40.195
Time:	5.047	Roll Set Point:	-0.234	Pitch Set Point:	-0.125	Yaw Set Point:	-0.545	X_WP:	0.000	Y_WP:	0.000	Y_WP:	0.500	X:	0.099	Y:	0.095	Z:	0.400	yaw:	31.221	yaw rate:	2.182	Roll:	4.487	Pitch:	0.965	Yaw:	45.796	Thrust:	40.405
Time:	5.063	Roll Set Point:	-0.234	Pitch Set Point:	-0.125	Yaw Set Point:	-0.545	X_WP:	0.000	Y_WP:	0.000	Y_WP:	0.500	X:	0.099	Y:	0.095	Z:	0.400	yaw:	31.233	yaw rate:	1.139	Roll:	4.483	Pitch:	1.055	Yaw:	45.362	Thrust:	40.569
Time:	5.078	Roll Set Point:	-0.234	Pitch Set Point:	-0.124	Yaw Set Point:	-0.552	X_WP:	0.000	Y_WP:	0.000	Y_WP:	0.500	X:	0.099	Y:	0.095	Z:	0.399	yaw:	31.641	yaw rate:	40.801	Roll:	4.870	Pitch:	0.021	Yaw:	52.577	Thrust:	41.188
Time:	5.094	Roll Set Point:	-0.235	Pitch Set Point:	-0.122	Yaw Set Point:	-0.585	X_WP:	0.000	Y_WP:	0.000	Y_WP:	0.500	X:	0.099	Y:	0.096	Z:	0.399	yaw:	33.535	yaw rate:	189.476	Roll:	5.770	Pitch:	-2.922	Yaw:	80.130	Thrust:	42.829
Time:	5.110	Roll Set Point:	-0.234	Pitch Set Point:	-0.125	Yaw Set Point:	-0.544	X_WP:	0.000	Y_WP:	0.000	Y_WP:	0.500	X:	0.099	Y:	0.095	Z:	0.400	yaw:	31.146	yaw rate:	-238.971	Roll:	2.802	Pitch:	6.245	Yaw:	5.016	Thrust:	38.971
Time:	5.125	Roll Set Point:	-0.234	Pitch Set Point:	-0.125	Yaw Set Point:	-0.544	X_WP:	0.000	Y_WP:	0.000	Y_WP:	0.500	X:	0.099	Y:	0.095	Z:	0.400	yaw:	31.186	yaw rate:	4.042	Roll:	4.504	Pitch:	0.925	Yaw:	45.784	Thrust:	41.152
Time:	5.141	Roll Set Point:	-0.234	Pitch Set Point:	-0.125	Yaw Set Point:	-0.545	X_WP:	0.000	Y_WP:	0.000	Y_WP:	0.500	X:	0.099	Y:	0.095	Z:	0.400	yaw:	31.241	yaw rate:	5.496	Roll:	4.527	Pitch:	1.012	Yaw:	46.104	Thrust:	41.619
Time:	5.157	Roll Set Point:	-0.235	Pitch Set Point:	-0.122	Yaw Set Point:	-0.585	X_WP:	0.000	Y_WP:	0.000	Y_WP:	0.500	X:	0.099	Y:	0.096	Z:	0.399	yaw:	33.526	yaw rate:	228.460	Roll:	6.123	Pitch:	-3.940	Yaw:	86.651	Thrust:	43.942
Time:	5.172	Roll Set Point:	-0.235	Pitch Set Point:	-0.122	Yaw Set Point:	-0.585	X_WP:	0.000	Y_WP:	0.000	Y_WP:	0.500	X:	0.099	Y:	0.096	Z:	0.399	yaw:	33.526	yaw rate:	228.460	Roll:	4.523	Pitch:	0.959	Yaw:	48.373	Thrust:	41.945
Time:	5.188	Roll Set Point:	-0.234	Pitch Set Point:	-0.125	Yaw Set Point:	-0.545	X_WP:	0.000	Y_WP:	0.000	Y_WP:	0.500	X:	0.099	Y:	0.095	Z:	0.400	yaw:	31.225	yaw rate:	-230.080	Roll:	2.862	Pitch:	6.004	Yaw:	6.613	Thrust:	39.929
Time:	5.203	Roll Set Point:	-0.234	Pitch Set Point:	-0.125	Yaw Set Point:	-0.546	X_WP:	0.000	Y_WP:	0.000	Y_WP:	0.500	X:	0.099	Y:	0.095	Z:	0.400	yaw:	31.260	yaw rate:	3.546	Roll:	4.498	Pitch:	1.004	Yaw:	45.805	Thrust:	42.263
Time:	5.219	Roll Set Point:	-0.234	Pitch Set Point:	-0.124	Yaw Set Point:	-0.552	X_WP:	0.000	Y_WP:	0.000	Y_WP:	0.500	X:	0.099	Y:	0.095	Z:	0.399	yaw:	31.633	yaw rate:	41.485	Roll:	4.855	Pitch:	0.099	Yaw:	51.972	Thrust:	42.843
Time:	5.235	Roll Set Point:	-0.234	Pitch Set Point:	-0.125	Yaw Set Point:	-0.543	X_WP:	0.000	Y_WP:	0.000	Y_WP:	0.500	X:	0.099	Y:	0.095	Z:	0.400	yaw:	31.110	yaw rate:	-52.320	Roll:	4.035	Pitch:	2.442	Yaw:	36.235	Thrust:	42.325
Time:	5.250	Roll Set Point:	-0.234	Pitch Set Point:	-0.125	Yaw Set Point:	-0.546	X_WP:	0.000	Y_WP:	0.000	Y_WP:	0.500	X:	0.099	Y:	0.095	Z:	0.399	yaw:	31.289	yaw rate:	17.968	Roll:	4.573	Pitch:	0.687	Yaw:	48.261	Thrust:	42.984
Time:	5.266	Roll Set Point:	-0.235	Pitch Set Point:	-0.122	Yaw Set Point:	-0.578	X_WP:	0.000	Y_WP:	0.000	Y_WP:	0.500	X:	0.099	Y:	0.096	Z:	0.399	yaw:	33.104	yaw rate:	181.456	Roll:	5.790	Pitch:	-2.869	Yaw:	78.182	Thrust:	45.171
Time:	5.282	Roll Set Point:	-0.235	Pitch Set Point:	-0.122	Yaw Set Point:	-0.578	X_WP:	0.000	Y_WP:	0.000	Y_WP:	0.500	X:	0.099	Y:	0.096	Z:	0.399	yaw:	33.104	yaw rate:	181.456	Roll:	4.515	Pitch:	0.992	Yaw:	47.784	Thrust:	43.265
Time:	5.297	Roll Set Point:	-0.234	Pitch Set Point:	-0.123	Yaw Set Point:	-0.567	X_WP:	0.000	Y_WP:	0.000	Y_WP:	0.500	X:	0.099	Y:	0.096	Z:	0.399	yaw:	32.488	yaw rate:	-61.611	Roll:	4.102	Pitch:	2.429	Yaw:	36.604	Thrust:	42.519
Time:	5.313	Roll Set Point:	-0.234	Pitch Set Point:	-0.125	Yaw Set Point:	-0.546	X_WP:	0.000	Y_WP:	0.000	Y_WP:	0.500	X:	0.099	Y:	0.095	Z:	0.399	yaw:	31.264	yaw rate:	-122.385	Roll:	3.581	Pitch:	3.573	Yaw:	24.711	Thrust:	42.414
Time:	5.328	Roll Set Point:	-0.234	Pitch Set Point:	-0.125	Yaw Set Point:	-0.546	X_WP:	0.000	Y_WP:	0.000	Y_WP:	0.500	X:	0.099	Y:	0.095	Z:	0.400	yaw:	31.270	yaw rate:	0.613	Roll:	4.498	Pitch:	1.063	Yaw:	45.327	Thrust:	43.716
Time:	5.344	Roll Set Point:	-0.234	Pitch Set Point:	-0.125	Yaw Set Point:	-0.546	X_WP:	0.000	Y_WP:	0.000	Y_WP:	0.500	X:	0.099	Y:	0.095	Z:	0.400	yaw:	31.270	yaw rate:	0.613	Roll:	4.481	Pitch:	1.098	Yaw:	45.224	Thrust:	43.983
Time:	5.360	Roll Set Point:	-0.234	Pitch Set Point:	-0.125	Yaw Set Point:	-0.544	X_WP:	0.000	Y_WP:	0.000	Y_WP:	0.500	X:	0.099	Y:	0.095	Z:	0.400	yaw:	31.172	yaw rate:	-44.210	Roll:	4.434	Pitch:	1.431	Yaw:	43.435	Thrust:	44.055
Time:	5.375	Roll Set Point:	-0.234	Pitch Set Point:	-0.125	Yaw Set Point:	-0.544	X_WP:	0.000	Y_WP:	0.000	Y_WP:	0.500	X:	0.099	Y:	0.095	Z:	0.400	yaw:	31.145	yaw rate:	-2.644	Roll:	4.450	Pitch:	1.110	Yaw:	44.607	Thrust:	44.526
Time:	5.391	Roll Set Point:	-0.234	Pitch Set Point:	-0.125	Yaw Set Point:	-0.546	X_WP:	0.000	Y_WP:	0.000	Y_WP:	0.500	X:	0.099	Y:	0.095	Z:	0.399	yaw:	31.272	yaw rate:	12.659	Roll:	4.556	Pitch:	0.797	Yaw:	47.347	Thrust:	44.574
Time:	5.407	Roll Set Point:	-0.234	Pitch Set Point:	-0.125	Yaw Set Point:	-0.544	X_WP:	0.000	Y_WP:	0.000	Y_WP:	0.500	X:	0.099	Y:	0.095	Z:	0.400	yaw:	31.164	yaw rate:	-10.796	Roll:	4.425	Pitch:	1.388	Yaw:	43.267	Thrust:	44.516
Time:	5.422	Roll Set Point:	-0.234	Pitch Set Point:	-0.125	Yaw Set Point:	-0.545	X_WP:	0.000	Y_WP:	0.000	Y_WP:	0.500	X:	0.099	Y:	0.095	Z:	0.400	yaw:	31.242	yaw rate:	7.827	Roll:	4.537	Pitch:	0.950	Yaw:	46.496	Thrust:	45.039
Time:	5.438	Roll Set Point:	-0.234	Pitch Set Point:	-0.125	Yaw Set Point:	-0.545	X_WP:	0.000	Y_WP:	0.000	Y_WP:	0.500	X:	0.099	Y:	0.095	Z:	0.400	yaw:	31.224	yaw rate:	-1.807	Roll:	4.459	Pitch:	1.114	Yaw:	44.857	Thrust:	45.128
Time:	5.453	Roll Set Point:	-0.234	Pitch Set Point:	-0.125	Yaw Set Point:	-0.545	X_WP:	0.000	Y_WP:	0.000	Y_WP:	0.500	X:	0.099	Y:	0.095	Z:	0.400	yaw:	31.247	yaw rate:	2.325	Roll:	4.476	Pitch:	1.038	Yaw:	45.581	Thrust:	45.335
Time:	5.469	Roll Set Point:	-0.234	Pitch Set Point:	-0.125	Yaw Set Point:	-0.545	X_WP:	0.000	Y_WP:	0.000	Y_WP:	0.500	X:	0.099	Y:	0.095	Z:	0.400	yaw:	31.247	yaw rate:	2.325	Roll:	4.480	Pitch:	1.110	Yaw:	45.192	Thrust:	45.496
Time:	5.485	Roll Set Point:	-0.234	Pitch Set Point:	-0.125	Yaw Set Point:	-0.545	X_WP:	0.000	Y_WP:	0.000	Y_WP:	0.500	X:	0.099	Y:	0.095	Z:	0.400	yaw:	31.218	yaw rate:	-2.941	Roll:	4.498	Pitch:	1.192	Yaw:	44.658	Thrust:	45.561
Time:	5.500	Roll Set Point:	-0.234	Pitch Set Point:	-0.125	Yaw Set Point:	-0.545	X_WP:	0.000	Y_WP:	0.000	Y_WP:	0.500	X:	0.099	Y:	0.095	Z:	0.400	yaw:	31.212	yaw rate:	-42.212	Roll:	4.473	Pitch:	1.151	Yaw:	45.046	Thrust:	45.962
Time:	5.516	Roll Set Point:	-0.234	Pitch Set Point:	-0.124	Yaw Set Point:	-0.552	X_WP:	0.000	Y_WP:	0.000	Y_WP:	0.500	X:	0.099	Y:	0.095	Z:	0.399	yaw:	31.634	yaw rate:	42.188	Roll:	4.838	Pitch:	-0.060	Yaw:	52.801	Thrust:	46.574
Time:	5.532	Roll Set Point:	-0.234	Pitch Set Point:	-0.124	Yaw Set Point:	-0.552	X_WP:	0.000	Y_WP:	0.000	Y_WP:	0.500	X:	0.099	Y:	0.095	Z:	0.399	yaw:	31.623	yaw rate:	-1.048	Roll:	4.510	Pitch:	1.166	Yaw:	45.542	Thrust:	46.129
Time:	5.547	Roll Set Point:	-0.234	Pitch Set Point:	-0.125	Yaw Set Point:	-0.544	X_WP:	0.000	Y_WP:	0.000	Y_WP:	0.500	X:	0.099	Y:	0.095	Z:	0.400	yaw:	31.147	yaw rate:	-47.609	Roll:	4.075	Pitch:	2.393	Yaw:	37.077	Thrust:	45.982
Time:	5.563	Roll Set Point:	-0.234	Pitch Set Point:	-0.125	Yaw Set Point:	-0.545	X_WP:	0.000	Y_WP:	0.000	Y_WP:	0.500	X:	0.099	Y:	0.095	Z:	0.400	yaw:	31.237	yaw rate:	8.991	Roll:	4.520	Pitch:	0.817	Yaw:	46.684	Thrust:	46.703
Time:	5.579	Roll Set Point:	-0.234	Pitch Set Point:	-0.125	Yaw Set Point:	-0.545	X_WP:	0.000	Y_WP:	0.000	Y_WP:	0.500	X:	0.099	Y:	0.095	Z:	0.400	yaw:	31.239	yaw rate:	0.175	Roll:	4.460	Pitch:	1.097	Yaw:	45.210	Thrust:	46.718
Time:	5.594	Roll Set Point:	-0.234	Pitch Set Point:	-0.125	Yaw Set Point:	-0.546	X_WP:	0.000	Y_WP:	0.000	Y_WP:	0.500	X:	0.099	Y:	0.095	Z:	0.400	yaw:	31.256	yaw rate:	1.694	Roll:	4.536	Pitch:	1.148	Yaw:	45.488	Thrust:	47.065
Time:	5.609	Roll Set Point:	-0.234	Pitch Set Point:	-0.124	Yaw Set Point:	-0.553	X_WP:	0.000	Y_WP:	0.000	Y_WP:	0.500	X:	0.099	Y:	0.095	Z:	0.399	yaw:	31.669	yaw rate:	41.347	Roll:	4.825	Pitch:	0.039	Yaw:	52.855	Thrust:	46.606
Time:	5.625	Roll Set Point:	-0.234	Pitch Set Point:	-0.125	Yaw Set Point:	-0.545	X_WP:	0.000	Y_WP:	0.000	Y_WP:	0.500	X:	0.099	Y:	0.095	Z:	0.400	yaw:	31.233	yaw rate:	-43.655	Roll:	4.093	Pitch:	2.178	Yaw:	37.858	Thrust:	46.884
Time:	5.641	Roll Set Point:	-0.234	Pitch Set Point:	-0.125	Yaw Set Point:	-0.545	X_WP:	0.000	Y_WP:	0.000	Y_WP:	0.500	X:	0.099	Y:	0.095	Z:	0.400	yaw:	31.233	yaw rate:	-43.655	Roll:	4.480	Pitch:	1.124	Yaw:	45.172	Thrust:	47.565
Time:	5.656	Roll Set Point:	-0.234	Pitch Set Point:	-0.124	Yaw Set Point:	-0.552	X_WP:	0.000	Y_WP:	0.000	Y_WP:	0.500	X:	0.099	Y:	0.095	Z:	0.399	yaw:	31.636	yaw rate:	37.938	Roll:	4.854	Pitch:	0.040	Yaw:	52.480	Thrust:	48.210
Time:	5.672	Roll Set Point:	-0.234	Pitch Set Point:	-0.124	Yaw Set Point:	-0.552	X_WP:	0.000	Y_WP:	0.000	Y_WP:	0.500	X:	0.099	Y:	0.095	Z:	0.399	yaw:	31.636	yaw rate:	37.938	Roll:	4.490	Pitch:	1.098	Yaw:	45.734	Thrust:	47.951
Time:	5.687	Roll Set Point:	-0.234	Pitch Set Point:	-0.125	Yaw Set Point:	-0.544	X_WP:	0.000	Y_WP:	0.000	Y_WP:	0.500	X:	0.099	Y:	0.095	Z:	0.400	yaw:	31.149	yaw rate:	-239.184	Roll:	4.064	Pitch:	2.404	Yaw:	36.895	Thrust:	47.637
Time:	5.703	Roll Set Point:	-0.235	Pitch Set Point:	-0.121	Yaw Set Point:	-0.586	X_WP:	0.000	Y_WP:	0.000	Y_WP:	0.500	X:	0.099	Y:	0.096	Z:	0.399	yaw:	33.556	yaw rate:	240.702	Roll:	6.182	Pitch:	-4.262	Yaw:	88.741	Thrust:	50.550
Time:	5.719	Roll Set Point:	-0.234	Pitch Set Point:	-0.125	Yaw Set Point:	-0.544	X_WP:	0.000	Y_WP:	0.000	Y_WP:	0.500	X:	0.099	Y:	0.095	Z:	0.400	yaw:	31.159	yaw rate:	-239.688	Roll:	2.833	Pitch:	6.337	Yaw:	4.921	Thrust:	46.389
Time:	5.734	Roll Set Point:	-0.234	Pitch Set Point:	-0.125	Yaw Set Point:	-0.545	X_WP:	0.000	Y_WP:	0.000	Y_WP:	0.500	X:	0.099	Y:	0.095	Z:	0.400	yaw:	31.212	yaw rate:	5.370	Roll:	4.531	Pitch:	1.043	Yaw:	46.043	Thrust:	48.550
Time:	5.750	Roll Set Point:	-0.234	Pitch Set Point:	-0.124	Yaw Set Point:	-0.552	X_WP:	0.000	Y_WP:	0.000	Y_WP:	0.500	X:	0.099	Y:	0.095	Z:	0.399	yaw:	31.639	yaw rate:	42.696	Roll:	4.847	Pitch:	-0.007	Yaw:	52.892	Thrust:	49.458
Time:	5.766	Roll Set Point:	-0.234	Pitch Set Point:	-0.125	Yaw Set Point:	-0.545	X_WP:	0.000	Y_WP:	0.000	Y_WP:	0.500	X:	0.099	Y:	0.095	Z:	0.400	yaw:	31.234	yaw rate:	-40.576	Roll:	4.122	Pitch:	2.091	Yaw:	38.374	Thrust:	48.515
Time:	5.781	Roll Set Point:	-0.234	Pitch Set Point:	-0.125	Yaw Set Point:	-0.546	X_WP:	0.000	Y_WP:	0.000	Y_WP:	0.500	X:	0.099	Y:	0.095	Z:	0.400	yaw:	31.265	yaw rate:	3.174	Roll:	4.502	Pitch:	1.114	Yaw:	45.749	Thrust:	49.385
Time:	5.797	Roll Set Point:	-0.234	Pitch Set Point:	-0.125	Yaw Set Point:	-0.546	X_WP:	0.000	Y_WP:	0.000	Y_WP:	0.500	X:	0.099	Y:	0.095	Z:	0.400	yaw:	31.265	yaw rate:	3.174	Roll:	4.481	Pitch:	1.133	Yaw:	45.217	Thrust:	49.455
Time:	5.812	Roll Set Point:	-0.234	Pitch Set Point:	-0.125	Yaw Set Point:	-0.545	X_WP:	0.000	Y_WP:	0.000	Y_WP:	0.500	X:	0.099	Y:	0.095	Z:	0.400	yaw:	31.241	yaw rate:	11.190	Roll:	4.458	Pitch:	1.225	Yaw:	44.771	Thrust:	49.664
Time:	5.828	Roll Set Point:	-0.234	Pitch Set Point:	-0.125	Yaw Set Point:	-0.546	X_WP:	0.000	Y_WP:	0.000	Y_WP:	0.500	X:	0.099	Y:	0.095	Z:	0.400	yaw:	31.258	yaw rate:	1.757	Roll:	4.482	Pitch:	1.075	Yaw:	45.502	Thrust:	49.804
Time:	5.844	Roll Set Point:	-0.234	Pitch Set Point:	-0.125	Yaw Set Point:	-0.545	X_WP:	0.000	Y_WP:	0.000	Y_WP:	0.500	X:	0.099	Y:	0.095	Z:	0.400	yaw:	31.235	yaw rate:	-2.369	Roll:	4.485	Pitch:	1.185	Yaw:	44.777	Thrust:	49.938
Time:	5.859	Roll Set Point:	-0.234	Pitch Set Point:	-0.125	Yaw Set Point:	-0.545	X_WP:	0.000	Y_WP:	0.000	Y_WP:	0.500	X:	0.099	Y:	0.095	Z:	0.400	yaw:	31.241	yaw rate:	0.636	Roll:	4.490	Pitch:	1.197	Yaw:	45.290	Thrust:	50.284
Time:	5.875	Roll Set Point:	-0.234	Pitch Set Point:	-0.125	Yaw Set Point:	-0.545	X_WP:	0.000	Y_WP:	0.000	Y_WP:	0.500	X:	0.099	Y:	0.095	Z:	0.400	yaw:	31.236	yaw rate:	-0.473	Roll:	4.469	Pitch:	1.109	Yaw:	45.097	Thrust:	50.334
Time:	5.891	Roll Set Point:	-0.234	Pitch Set Point:	-0.125	Yaw Set Point:	-0.546	X_WP:	0.000	Y_WP:	0.000	Y_WP:	0.500	X:	0.099	Y:	0.095	Z:	0.400	yaw:	31.256	yaw rate:	1.983	Roll:	4.468	Pitch:	1.076	Yaw:	45.537	Thrust:	50.655
Time:	5.906	Roll Set Point:	-0.234	Pitch Set Point:	-0.125	Yaw Set Point:	-0.546	X_WP:	0.000	Y_WP:	0.000	Y_WP:	0.500	X:	0.099	Y:	0.095	Z:	0.400	yaw:	31.256	yaw rate:	1.983	Roll:	4.480	Pitch:	1.142	Yaw:	45.204	Thrust:	50.769
Time:	5.922	Roll Set Point:	-0.234	Pitch Set Point:	-0.125	Yaw Set Point:	-0.545	X_WP:	0.000	Y_WP:	0.000	Y_WP:	0.500	X:	0.099	Y:	0.095	Z:	0.400	yaw:	31.237	yaw rate:	-1.930	Roll:	4.502	Pitch:	1.164	Yaw:	44.854	Thrust:	50.863
Time:	5.938	Roll Set Point:	-0.234	Pitch Set Point:	-0.125	Yaw Set Point:	-0.545	X_WP:	0.000	Y_WP:	0.000	Y_WP:	0.500	X:	0.099	Y:	0.095	Z:	0.400	yaw:	31.239	yaw rate:	1.818	Roll:	4.475	Pitch:	1.178	Yaw:	45.210	Thrust:	51.120
Time:	5.953	Roll Set Point:	-0.234	Pitch Set Point:	-0.125	Yaw Set Point:	-0.545	X_WP:	0.000	Y_WP:	0.000	Y_WP:	0.500	X:	0.099	Y:	0.095	Z:	0.400	yaw:	31.215	yaw rate:	-2.321	Roll:	4.445	Pitch:	1.147	Yaw:	44.759	Thrust:	51.370
Time:	5.969	Roll Set Point:	-0.234	Pitch Set Point:	-0.125	Yaw Set Point:	-0.545	X_WP:	0.000	Y_WP:	0.000	Y_WP:	0.500	X:	0.099	Y:	0.095	Z:	0.400	yaw:	31.240	yaw rate:	2.433	Roll:	4.513	Pitch:	1.124	Yaw:	45.589	Thrust:	51.510
Time:	5.984	Roll Set Point:	-0.234	Pitch Set Point:	-0.125	Yaw Set Point:	-0.545	X_WP:	0.000	Y_WP:	0.000	Y_WP:	0.500	X:	0.099	Y:	0.095	Z:	0.399	yaw:	31.253	yaw rate:	1.318	Roll:	4.501	Pitch:	1.195	Yaw:	45.421	Thrust:	51.850
Time:	6.000	Roll Set Point:	-0.083	Pitch Set Point:	-0.035	Yaw Set Point:	-0.545	X_WP:	0.082	Y_WP:	0.155	Y_WP:	0.500	X:	0.099	Y:	0.095	Z:	0.400	yaw:	31.241	yaw rate:	-1.194	Roll:	-30.000	Pitch:	-30.000	Yaw:	44.983	Thrust:	51.815
Time:	6.016	Roll Set Point:	-0.083	Pitch Set Point:	-0.035	Yaw Set Point:	-0.545	X_WP:	0.082	Y_WP:	0.155	Y_WP:	0.500	X:	0.099	Y:	0.095	Z:	0.400	yaw:	31.200	yaw rate:	-4.121	Roll:	0.125	Pitch:	-1.463	Yaw:	44.435	Thrust:	51.976
Time:	6.031	Roll Set Point:	-0.083	Pitch Set Point:	-0.035	Yaw Set Point:	-0.546	X_WP:	0.082	Y_WP:	0.155	Y_WP:	0.500	X:	0.099	Y:	0.095	Z:	0.399	yaw:	31.273	yaw rate:	7.302	Roll:	0.069	Pitch:	-1.454	Yaw:	46.451	Thrust:	52.455
Time:	6.047	Roll Set Point:	-0.083	Pitch Set Point:	-0.035	Yaw Set Point:	-0.545	X_WP:	0.082	Y_WP:	0.155	Y_WP:	0.500	X:	0.099	Y:	0.095	Z:	0.400	yaw:	31.207	yaw rate:	-6.591	Roll:	0.180	Pitch:	-1.494	Yaw:	44.031	Thrust:	52.294
Time:	6.063	Roll Set Point:	-0.083	Pitch Set Point:	-0.035	Yaw Set Point:	-0.545	X_WP:	0.082	Y_WP:	0.155	Y_WP:	0.500	X:	0.099	Y:	0.095	Z:	0.400	yaw:	31.207	yaw rate:	-6.591	Roll:	0.114	Pitch:	-1.473	Yaw:	45.136	Thrust:	52.651
Time:	6.078	Roll Set Point:	-0.083	Pitch Set Point:	-0.035	Yaw Set Point:	-0.546	X_WP:	0.082	Y_WP:	0.155	Y_WP:	0.500	X:	0.099	Y:	0.095	Z:	0.400	yaw:	31.283	yaw rate:	7.625	Roll:	0.029	Pitch:	-1.453	Yaw:	46.520	Thrust:	53.011
Time:	6.094	Roll Set Point:	-0.083	Pitch Set Point:	-0.035	Yaw Set Point:	-0.545	X_WP:	0.082	Y_WP:	0.155	Y_WP:	0.500	X:	0.099	Y:	0.095	Z:	0.400	yaw:	31.221	yaw rate:	-0.493	Roll:	0.182	Pitch:	-1.492	Yaw:	44.118	Thrust:	52.930
Time:	6.109	Roll Set Point:	-0.083	Pitch Set Point:	-0.035	Yaw Set Point:	-0.545	X_WP:	0.082	Y_WP:	0.155	Y_WP:	0.500	X:	0.099	Y:	0.095	Z:	0.400	yaw:	31.218	yaw rate:	-0.294	Roll:	0.109	Pitch:	-1.483	Yaw:	45.104	Thrust:	53.229
Time:	6.125	Roll Set Point:	-0.083	Pitch Set Point:	-0.035	Yaw Set Point:	-0.544	X_WP:	0.082	Y_WP:	0.155	Y_WP:	0.500	X:	0.099	Y:	0.095	Z:	0.400	yaw:	31.146	yaw rate:	-7.235	Roll:	0.174	Pitch:	-1.497	Yaw:	43.837	Thrust:	53.321
Time:	6.141	Roll Set Point:	-0.083	Pitch Set Point:	-0.035	Yaw Set Point:	-0.544	X_WP:	0.082	Y_WP:	0.155	Y_WP:	0.500	X:	0.099	Y:	0.095	Z:	0.400	yaw:	31.146	yaw rate:	-7.235	Roll:	0.112	Pitch:	-1.485	Yaw:	45.051	Thrust:	53.595
Time:	6.156	Roll Set Point:	-0.083	Pitch Set Point:	-0.035	Yaw Set Point:	-0.545	X_WP:	0.082	Y_WP:	0.155	Y_WP:	0.500	X:	0.099	Y:	0.095	Z:	0.400	yaw:	31.199	yaw rate:	-7.704	Roll:	0.055	Pitch:	-1.475	Yaw:	46.022	Thrust:	53.871
Time:	6.172	Roll Set Point:	-0.083	Pitch Set Point:	-0.035	Yaw Set Point:	-0.545	X_WP:	0.082	Y_WP:	0.155	Y_WP:	0.500	X:	0.099	Y:	0.095	Z:	0.400	yaw:	31.199	yaw rate:	-7.704	Roll:	0.109	Pitch:	-1.489	Yaw:	45.125	Thrust:	53.970
Time:	6.188	Roll Set Point:	-0.083	Pitch Set Point:	-0.035	Yaw Set Point:	-0.545	X_WP:	0.082	Y_WP:	0.155	Y_WP:	0.500	X:	0.099	Y:	0.095	Z:	0.400	yaw:	31.203	yaw rate:	0.406	Roll:	0.103	Pitch:	-1.490	Yaw:	45.199	Thrust:	54.053
Time:	6.203	Roll Set Point:	-0.083	Pitch Set Point:	-0.035	Yaw Set Point:	-0.545	X_WP:	0.082	Y_WP:	0.155	Y_WP:	0.500	X:	0.099	Y:	0.095	Z:	0.400	yaw:	31.241	yaw rate:	-231.239	Roll:	0.093	Pitch:	-1.380	Yaw:	45.806	Thrust:	54.467
Time:	6.219	Roll Set Point:	-0.083	Pitch Set Point:	-0.035	Yaw Set Point:	-0.544	X_WP:	0.082	Y_WP:	0.155	Y_WP:	0.500	X:	0.099	Y:	0.095	Z:	0.400	yaw:	31.181	yaw rate:	-5.931	Roll:	0.145	Pitch:	-1.614	Yaw:	44.106	Thrust:	54.508
Time:	6.234	Roll Set Point:	-0.083	Pitch Set Point:	-0.035	Yaw Set Point:	-0.546	X_WP:	0.082	Y_WP:	0.155	Y_WP:	0.500	X:	0.099	Y:	0.095	Z:	0.400	yaw:	31.310	yaw rate:	12.856	Roll:	-0.026	Pitch:	-1.460	Yaw:	47.433	Thrust:	54.759
Time:	6.250	Roll Set Point:	-0.083	Pitch Set Point:	-0.035	Yaw Set Point:	-0.546	X_WP:	0.082	Y_WP:	0.155	Y_WP:	0.500	X:	0.099	Y:	0.095	Z:	0.400	yaw:	31.310	yaw rate:	12.856	Roll:	0.103	Pitch:	-1.500	Yaw:	45.280	Thrust:	54.916
Time:	6.266	Roll Set Point:	-0.083	Pitch Set Point:	-0.035	Yaw Set Point:	-0.545	X_WP:	0.082	Y_WP:	0.155	Y_WP:	0.500	X:	0.099	Y:	0.095	Z:	0.400	yaw:	31.230	yaw rate:	-7.988	Roll:	0.194	Pitch:	-1.530	Yaw:	43.830	Thrust:	55.036
Time:	6.281	Roll Set Point:	-0.083	Pitch Set Point:	-0.035	Yaw Set Point:	-0.544	X_WP:	0.082	Y_WP:	0.155	Y_WP:	0.500	X:	0.099	Y:	0.095	Z:	0.400	yaw:	31.172	yaw rate:	-47.249	Roll:	0.165	Pitch:	-1.511	Yaw:	44.122	Thrust:	55.310
Time:	6.297	Roll Set Point:	-0.083	Pitch Set Point:	-0.035	Yaw Set Point:	-0.546	X_WP:	0.082	Y_WP:	0.155	Y_WP:	0.500	X:	0.099	Y:	0.095	Z:	0.400	yaw:	31.311	yaw rate:	13.849	Roll:	-0.044	Pitch:	-1.476	Yaw:	47.601	Thrust:	55.592
