Time:	2.586	Roll Set Point:	0.048	Pitch Set Point:	0.527	Yaw Set Point:	-0.139	X_WP:	0.000	Y_WP:	0.000	Y_WP:	0.500	X:	-0.006	Y:	-0.265	Z:	0.045	yaw:	7.993	yaw rate:	3.173	Roll:	-1.234	Pitch:	-7.596	Yaw:	11.160	Thrust:	25.011
Time:	2.600	Roll Set Point:	0.048	Pitch Set Point:	0.527	Yaw Set Point:	-0.140	X_WP:	0.000	Y_WP:	0.000	Y_WP:	0.500	X:	-0.006	Y:	-0.265	Z:	0.045	yaw:	8.014	yaw rate:	2.154	Roll:	-1.357	Pitch:	-7.574	Yaw:	11.631	Thrust:	25.742
Time:	2.615	Roll Set Point:	0.048	Pitch Set Point:	0.527	Yaw Set Point:	-0.140	X_WP:	0.000	Y_WP:	0.000	Y_WP:	0.500	X:	-0.006	Y:	-0.265	Z:	0.045	yaw:	8.020	yaw rate:	0.616	Roll:	-1.255	Pitch:	-7.605	Yaw:	11.390	Thrust:	26.636
Time:	2.630	Roll Set Point:	0.048	Pitch Set Point:	0.527	Yaw Set Point:	-0.139	X_WP:	0.000	Y_WP:	0.000	Y_WP:	0.500	X:	-0.006	Y:	-0.265	Z:	0.045	yaw:	7.948	yaw rate:	-7.220	Roll:	-1.059	Pitch:	-7.809	Yaw:	9.967	Thrust:	27.640
Time:	2.645	Roll Set Point:	0.048	Pitch Set Point:	0.527	Yaw Set Point:	-0.140	X_WP:	0.000	Y_WP:	0.000	Y_WP:	0.500	X:	-0.006	Y:	-0.265	Z:	0.045	yaw:	8.006	yaw rate:	2.599	Roll:	-1.375	Pitch:	-7.465	Yaw:	12.347	Thrust:	28.194
Time:	2.659	Roll Set Point:	0.048	Pitch Set Point:	0.527	Yaw Set Point:	-0.139	X_WP:	0.000	Y_WP:	0.000	Y_WP:	0.500	X:	-0.006	Y:	-0.265	Z:	0.045	yaw:	7.982	yaw rate:	-2.409	Roll:	-1.281	Pitch:	-7.769	Yaw:	10.891	Thrust:	29.037
Time:	2.674	Roll Set Point:	0.048	Pitch Set Point:	0.527	Yaw Set Point:	-0.140	X_WP:	0.000	Y_WP:	0.000	Y_WP:	0.500	X:	-0.006	Y:	-0.265	Z:	0.045	yaw:	7.995	yaw rate:	1.337	Roll:	-1.140	Pitch:	-7.551	Yaw:	11.648	Thrust:	29.679
Time:	2.693	Roll Set Point:	0.048	Pitch Set Point:	0.527	Yaw Set Point:	-0.140	X_WP:	0.000	Y_WP:	0.000	Y_WP:	0.500	X:	-0.006	Y:	-0.265	Z:	0.045	yaw:	7.995	yaw rate:	1.337	Roll:	-1.247	Pitch:	-7.683	Yaw:	11.535	Thrust:	32.287
Time:	2.707	Roll Set Point:	0.048	Pitch Set Point:	0.527	Yaw Set Point:	-0.139	X_WP:	0.000	Y_WP:	0.000	Y_WP:	0.500	X:	-0.006	Y:	-0.265	Z:	0.045	yaw:	7.989	yaw rate:	-0.577	Roll:	-1.248	Pitch:	-7.677	Yaw:	11.361	Thrust:	31.153
Time:	2.722	Roll Set Point:	0.048	Pitch Set Point:	0.527	Yaw Set Point:	-0.139	X_WP:	0.000	Y_WP:	0.000	Y_WP:	0.500	X:	-0.006	Y:	-0.265	Z:	0.045	yaw:	7.961	yaw rate:	-2.814	Roll:	-1.226	Pitch:	-7.820	Yaw:	11.004	Thrust:	32.568
Time:	2.736	Roll Set Point:	0.048	Pitch Set Point:	0.527	Yaw Set Point:	-0.139	X_WP:	0.000	Y_WP:	0.000	Y_WP:	0.500	X:	-0.006	Y:	-0.265	Z:	0.045	yaw:	7.986	yaw rate:	2.517	Roll:	-1.232	Pitch:	-7.541	Yaw:	12.012	Thrust:	32.639
Time:	2.751	Roll Set Point:	0.048	Pitch Set Point:	0.527	Yaw Set Point:	-0.140	X_WP:	0.000	Y_WP:	0.000	Y_WP:	0.500	X:	-0.006	Y:	-0.265	Z:	0.045	yaw:	8.000	yaw rate:	1.371	Roll:	-1.309	Pitch:	-7.719	Yaw:	11.870	Thrust:	33.851
Time:	2.772	Roll Set Point:	0.048	Pitch Set Point:	0.527	Yaw Set Point:	-0.140	X_WP:	0.000	Y_WP:	0.000	Y_WP:	0.500	X:	-0.006	Y:	-0.265	Z:	0.045	yaw:	8.018	yaw rate:	1.773	Roll:	-1.349	Pitch:	-7.740	Yaw:	12.120	Thrust:	38.854
Time:	2.791	Roll Set Point:	0.048	Pitch Set Point:	0.527	Yaw Set Point:	-0.139	X_WP:	0.000	Y_WP:	0.000	Y_WP:	0.500	X:	-0.006	Y:	-0.265	Z:	0.045	yaw:	7.975	yaw rate:	-4.270	Roll:	-1.180	Pitch:	-7.860	Yaw:	11.239	Thrust:	38.667
Time:	2.809	Roll Set Point:	0.048	Pitch Set Point:	0.527	Yaw Set Point:	-0.140	X_WP:	0.000	Y_WP:	0.000	Y_WP:	0.500	X:	-0.006	Y:	-0.265	Z:	0.045	yaw:	8.002	yaw rate:	2.745	Roll:	-1.281	Pitch:	-7.660	Yaw:	12.277	Thrust:	38.631
Time:	2.834	Roll Set Point:	0.048	Pitch Set Point:	0.527	Yaw Set Point:	-0.139	X_WP:	0.000	Y_WP:	0.000	Y_WP:	0.500	X:	-0.006	Y:	-0.265	Z:	0.045	yaw:	7.972	yaw rate:	-2.999	Roll:	-1.241	Pitch:	-7.914	Yaw:	11.812	Thrust:	44.888
Time:	2.848	Roll Set Point:	0.048	Pitch Set Point:	0.527	Yaw Set Point:	-0.140	X_WP:	0.000	Y_WP:	0.000	Y_WP:	0.500	X:	-0.006	Y:	-0.265	Z:	0.045	yaw:	7.994	yaw rate:	2.130	Roll:	-1.253	Pitch:	-7.639	Yaw:	12.185	Thrust:	36.943
Time:	2.861	Roll Set Point:	0.048	Pitch Set Point:	0.527	Yaw Set Point:	-0.139	X_WP:	0.000	Y_WP:	0.000	Y_WP:	0.500	X:	-0.006	Y:	-0.265	Z:	0.045	yaw:	7.982	yaw rate:	-1.140	Roll:	-1.363	Pitch:	-7.863	Yaw:	11.535	Thrust:	37.342
Time:	2.890	Roll Set Point:	0.048	Pitch Set Point:	0.527	Yaw Set Point:	-0.140	X_WP:	0.000	Y_WP:	0.000	Y_WP:	0.500	X:	-0.006	Y:	-0.265	Z:	0.045	yaw:	7.998	yaw rate:	1.565	Roll:	-1.242	Pitch:	-7.876	Yaw:	12.768	Thrust:	53.504
Time:	2.904	Roll Set Point:	0.048	Pitch Set Point:	0.527	Yaw Set Point:	-0.139	X_WP:	0.000	Y_WP:	0.000	Y_WP:	0.500	X:	-0.006	Y:	-0.265	Z:	0.045	yaw:	7.978	yaw rate:	-1.959	Roll:	-1.169	Pitch:	-7.787	Yaw:	11.519	Thrust:	39.600
Time:	2.923	Roll Set Point:	0.048	Pitch Set Point:	0.527	Yaw Set Point:	-0.140	X_WP:	0.000	Y_WP:	0.000	Y_WP:	0.500	X:	-0.006	Y:	-0.265	Z:	0.045	yaw:	8.008	yaw rate:	2.980	Roll:	-1.398	Pitch:	-7.823	Yaw:	12.654	Thrust:	45.744
Time:	2.938	Roll Set Point:	0.048	Pitch Set Point:	0.527	Yaw Set Point:	-0.139	X_WP:	0.000	Y_WP:	0.000	Y_WP:	0.500	X:	-0.006	Y:	-0.265	Z:	0.045	yaw:	7.989	yaw rate:	-1.925	Roll:	-1.189	Pitch:	-7.828	Yaw:	11.701	Thrust:	42.280
Time:	2.965	Roll Set Point:	0.048	Pitch Set Point:	0.527	Yaw Set Point:	-0.139	X_WP:	0.000	Y_WP:	0.000	Y_WP:	0.500	X:	-0.006	Y:	-0.265	Z:	0.045	yaw:	7.987	yaw rate:	-0.182	Roll:	-1.284	Pitch:	-7.935	Yaw:	12.734	Thrust:	53.937
Time:	2.980	Roll Set Point:	0.048	Pitch Set Point:	0.527	Yaw Set Point:	-0.140	X_WP:	0.000	Y_WP:	0.000	Y_WP:	0.500	X:	-0.006	Y:	-0.265	Z:	0.045	yaw:	8.007	yaw rate:	1.251	Roll:	-1.349	Pitch:	-7.871	Yaw:	12.540	Thrust:	47.605
Time:	2.994	Roll Set Point:	0.048	Pitch Set Point:	0.527	Yaw Set Point:	-0.140	X_WP:	0.000	Y_WP:	0.000	Y_WP:	0.500	X:	-0.006	Y:	-0.265	Z:	0.045	yaw:	7.999	yaw rate:	-0.889	Roll:	-1.213	Pitch:	-7.830	Yaw:	11.942	Thrust:	43.420
Time:	3.357	Roll Set Point:	0.048	Pitch Set Point:	0.527	Yaw Set Point:	-0.140	X_WP:	0.000	Y_WP:	0.000	Y_WP:	0.500	X:	-0.006	Y:	-0.265	Z:	0.045	yaw:	7.993	yaw rate:	-0.519	Roll:	-2.198	Pitch:	-13.535	Yaw:	36.463	Thrust:	100.000
Time:	3.371	Roll Set Point:	0.048	Pitch Set Point:	0.527	Yaw Set Point:	-0.139	X_WP:	0.000	Y_WP:	0.000	Y_WP:	0.500	X:	-0.006	Y:	-0.265	Z:	0.045	yaw:	7.956	yaw rate:	-3.702	Roll:	-1.200	Pitch:	-7.983	Yaw:	11.437	Thrust:	45.016
Time:	3.390	Roll Set Point:	0.048	Pitch Set Point:	0.527	Yaw Set Point:	-0.140	X_WP:	0.000	Y_WP:	0.000	Y_WP:	0.500	X:	-0.006	Y:	-0.265	Z:	0.045	yaw:	7.994	yaw rate:	0.365	Roll:	-1.346	Pitch:	-7.839	Yaw:	13.118	Thrust:	53.013
Time:	3.405	Roll Set Point:	0.048	Pitch Set Point:	0.527	Yaw Set Point:	-0.139	X_WP:	0.000	Y_WP:	0.000	Y_WP:	0.500	X:	-0.006	Y:	-0.265	Z:	0.045	yaw:	7.983	yaw rate:	-1.072	Roll:	-1.220	Pitch:	-7.867	Yaw:	12.135	Thrust:	48.029
Time:	3.419	Roll Set Point:	0.048	Pitch Set Point:	0.527	Yaw Set Point:	-0.140	X_WP:	0.000	Y_WP:	0.000	Y_WP:	0.500	X:	-0.006	Y:	-0.265	Z:	0.045	yaw:	8.019	yaw rate:	3.570	Roll:	-1.465	Pitch:	-7.831	Yaw:	12.998	Thrust:	47.148
Time:	3.434	Roll Set Point:	0.048	Pitch Set Point:	0.527	Yaw Set Point:	-0.140	X_WP:	0.000	Y_WP:	0.000	Y_WP:	0.500	X:	-0.006	Y:	-0.265	Z:	0.045	yaw:	8.000	yaw rate:	-1.875	Roll:	-1.185	Pitch:	-7.914	Yaw:	12.103	Thrust:	49.604
Time:	3.448	Roll Set Point:	0.048	Pitch Set Point:	0.527	Yaw Set Point:	-0.139	X_WP:	0.000	Y_WP:	0.000	Y_WP:	0.500	X:	-0.006	Y:	-0.265	Z:	0.045	yaw:	7.958	yaw rate:	-4.273	Roll:	-1.192	Pitch:	-8.031	Yaw:	11.528	Thrust:	47.318
Time:	3.465	Roll Set Point:	0.048	Pitch Set Point:	0.527	Yaw Set Point:	-0.139	X_WP:	0.000	Y_WP:	0.000	Y_WP:	0.500	X:	-0.006	Y:	-0.265	Z:	0.045	yaw:	7.988	yaw rate:	3.053	Roll:	-1.320	Pitch:	-7.858	Yaw:	13.084	Thrust:	54.667
Time:	3.478	Roll Set Point:	0.048	Pitch Set Point:	0.527	Yaw Set Point:	-0.139	X_WP:	0.000	Y_WP:	0.000	Y_WP:	0.500	X:	-0.006	Y:	-0.265	Z:	0.045	yaw:	7.972	yaw rate:	-3.823	Roll:	-1.342	Pitch:	-7.997	Yaw:	12.119	Thrust:	50.449
Time:	3.493	Roll Set Point:	0.048	Pitch Set Point:	0.527	Yaw Set Point:	-0.140	X_WP:	0.000	Y_WP:	0.000	Y_WP:	0.500	X:	-0.006	Y:	-0.265	Z:	0.045	yaw:	8.020	yaw rate:	4.786	Roll:	-1.369	Pitch:	-7.796	Yaw:	13.457	Thrust:	52.695
Time:	3.507	Roll Set Point:	0.048	Pitch Set Point:	0.527	Yaw Set Point:	-0.139	X_WP:	0.000	Y_WP:	0.000	Y_WP:	0.500	X:	-0.006	Y:	-0.265	Z:	0.045	yaw:	7.970	yaw rate:	-4.979	Roll:	-1.183	Pitch:	-8.056	Yaw:	11.570	Thrust:	52.122
Time:	3.522	Roll Set Point:	0.048	Pitch Set Point:	0.527	Yaw Set Point:	-0.139	X_WP:	0.000	Y_WP:	0.000	Y_WP:	0.500	X:	-0.006	Y:	-0.265	Z:	0.045	yaw:	7.968	yaw rate:	-0.170	Roll:	-1.292	Pitch:	-7.942	Yaw:	12.498	Thrust:	52.569
Time:	3.537	Roll Set Point:	0.048	Pitch Set Point:	0.527	Yaw Set Point:	-0.139	X_WP:	0.000	Y_WP:	0.000	Y_WP:	0.500	X:	-0.006	Y:	-0.265	Z:	0.045	yaw:	7.988	yaw rate:	2.013	Roll:	-1.242	Pitch:	-7.894	Yaw:	13.087	Thrust:	57.195
Time:	3.554	Roll Set Point:	0.048	Pitch Set Point:	0.527	Yaw Set Point:	-0.140	X_WP:	0.000	Y_WP:	0.000	Y_WP:	0.500	X:	-0.006	Y:	-0.265	Z:	0.045	yaw:	7.997	yaw rate:	0.818	Roll:	-1.351	Pitch:	-7.961	Yaw:	12.903	Thrust:	58.226
Time:	3.577	Roll Set Point:	0.048	Pitch Set Point:	0.528	Yaw Set Point:	-0.139	X_WP:	0.000	Y_WP:	0.000	Y_WP:	0.500	X:	-0.006	Y:	-0.265	Z:	0.045	yaw:	7.945	yaw rate:	-5.177	Roll:	-1.244	Pitch:	-8.337	Yaw:	12.936	Thrust:	76.335
Time:	3.592	Roll Set Point:	0.048	Pitch Set Point:	0.527	Yaw Set Point:	-0.139	X_WP:	0.000	Y_WP:	0.000	Y_WP:	0.500	X:	-0.006	Y:	-0.265	Z:	0.045	yaw:	7.969	yaw rate:	-3.312	Roll:	-1.444	Pitch:	-7.910	Yaw:	13.047	Thrust:	57.952
Time:	3.607	Roll Set Point:	0.048	Pitch Set Point:	0.527	Yaw Set Point:	-0.139	X_WP:	0.000	Y_WP:	0.000	Y_WP:	0.500	X:	-0.006	Y:	-0.265	Z:	0.045	yaw:	7.961	yaw rate:	-0.759	Roll:	-1.239	Pitch:	-8.014	Yaw:	12.488	Thrust:	58.608
Time:	3.624	Roll Set Point:	0.048	Pitch Set Point:	0.527	Yaw Set Point:	-0.139	X_WP:	0.000	Y_WP:	0.000	Y_WP:	0.500	X:	-0.006	Y:	-0.265	Z:	0.045	yaw:	7.961	yaw rate:	-0.759	Roll:	-1.300	Pitch:	-8.012	Yaw:	12.720	Thrust:	59.481
Time:	3.642	Roll Set Point:	0.048	Pitch Set Point:	0.527	Yaw Set Point:	-0.140	X_WP:	0.000	Y_WP:	0.000	Y_WP:	0.500	X:	-0.006	Y:	-0.265	Z:	0.045	yaw:	8.012	yaw rate:	4.505	Roll:	-1.427	Pitch:	-8.037	Yaw:	13.728	Thrust:	69.565
Time:	3.661	Roll Set Point:	0.048	Pitch Set Point:	0.527	Yaw Set Point:	-0.140	X_WP:	0.000	Y_WP:	0.000	Y_WP:	0.500	X:	-0.006	Y:	-0.265	Z:	0.045	yaw:	8.000	yaw rate:	-1.221	Roll:	-1.272	Pitch:	-8.150	Yaw:	12.907	Thrust:	70.840
Time:	3.676	Roll Set Point:	0.048	Pitch Set Point:	0.527	Yaw Set Point:	-0.140	X_WP:	0.000	Y_WP:	0.000	Y_WP:	0.500	X:	-0.006	Y:	-0.265	Z:	0.045	yaw:	8.012	yaw rate:	1.241	Roll:	-1.375	Pitch:	-8.030	Yaw:	12.907	Thrust:	61.833
Time:	3.987	Roll Set Point:	0.048	Pitch Set Point:	0.527	Yaw Set Point:	-0.140	X_WP:	0.000	Y_WP:	0.000	Y_WP:	0.500	X:	-0.006	Y:	-0.265	Z:	0.045	yaw:	8.013	yaw rate:	0.109	Roll:	-2.758	Pitch:	-16.989	Yaw:	42.372	Thrust:	100.000
Time:	4.002	Roll Set Point:	0.048	Pitch Set Point:	0.527	Yaw Set Point:	-0.139	X_WP:	0.000	Y_WP:	0.000	Y_WP:	0.500	X:	-0.006	Y:	-0.265	Z:	0.045	yaw:	7.959	yaw rate:	0.850	Roll:	-1.177	Pitch:	-8.181	Yaw:	11.505	Thrust:	61.315
Time:	4.016	Roll Set Point:	0.048	Pitch Set Point:	0.527	Yaw Set Point:	-0.140	X_WP:	0.000	Y_WP:	0.000	Y_WP:	0.500	X:	-0.006	Y:	-0.265	Z:	0.045	yaw:	8.003	yaw rate:	4.357	Roll:	-1.377	Pitch:	-7.905	Yaw:	13.390	Thrust:	61.503
Time:	4.030	Roll Set Point:	0.048	Pitch Set Point:	0.527	Yaw Set Point:	-0.140	X_WP:	0.000	Y_WP:	0.000	Y_WP:	0.500	X:	-0.006	Y:	-0.265	Z:	0.045	yaw:	8.002	yaw rate:	-0.094	Roll:	-1.310	Pitch:	-8.033	Yaw:	12.558	Thrust:	62.598
Time:	4.048	Roll Set Point:	0.048	Pitch Set Point:	0.527	Yaw Set Point:	-0.140	X_WP:	0.000	Y_WP:	0.000	Y_WP:	0.500	X:	-0.006	Y:	-0.265	Z:	0.045	yaw:	8.002	yaw rate:	-0.094	Roll:	-1.326	Pitch:	-8.186	Yaw:	12.977	Thrust:	74.257
Time:	4.065	Roll Set Point:	0.048	Pitch Set Point:	0.527	Yaw Set Point:	-0.140	X_WP:	0.000	Y_WP:	0.000	Y_WP:	0.500	X:	-0.006	Y:	-0.265	Z:	0.045	yaw:	8.004	yaw rate:	0.224	Roll:	-1.330	Pitch:	-8.191	Yaw:	12.914	Thrust:	72.434
Time:	4.078	Roll Set Point:	0.048	Pitch Set Point:	0.527	Yaw Set Point:	-0.140	X_WP:	0.000	Y_WP:	0.000	Y_WP:	0.500	X:	-0.006	Y:	-0.265	Z:	0.045	yaw:	7.994	yaw rate:	-1.068	Roll:	-1.236	Pitch:	-8.044	Yaw:	12.278	Thrust:	61.953
Time:	4.093	Roll Set Point:	0.048	Pitch Set Point:	0.527	Yaw Set Point:	-0.139	X_WP:	0.000	Y_WP:	0.000	Y_WP:	0.500	X:	-0.006	Y:	-0.265	Z:	0.045	yaw:	7.947	yaw rate:	-4.745	Roll:	-1.237	Pitch:	-8.229	Yaw:	11.615	Thrust:	65.788
Time:	4.107	Roll Set Point:	0.048	Pitch Set Point:	0.527	Yaw Set Point:	-0.140	X_WP:	0.000	Y_WP:	0.000	Y_WP:	0.500	X:	-0.006	Y:	-0.265	Z:	0.045	yaw:	8.003	yaw rate:	5.575	Roll:	-1.441	Pitch:	-7.977	Yaw:	13.648	Thrust:	69.126
Time:	4.124	Roll Set Point:	0.048	Pitch Set Point:	0.527	Yaw Set Point:	-0.140	X_WP:	0.000	Y_WP:	0.000	Y_WP:	0.500	X:	-0.006	Y:	-0.265	Z:	0.045	yaw:	8.004	yaw rate:	0.106	Roll:	-1.368	Pitch:	-8.217	Yaw:	12.896	Thrust:	76.242
Time:	4.140	Roll Set Point:	0.048	Pitch Set Point:	0.527	Yaw Set Point:	-0.139	X_WP:	0.000	Y_WP:	0.000	Y_WP:	0.500	X:	-0.006	Y:	-0.265	Z:	0.045	yaw:	7.970	yaw rate:	-3.382	Roll:	-1.258	Pitch:	-8.255	Yaw:	12.045	Thrust:	71.176
Time:	4.163	Roll Set Point:	0.048	Pitch Set Point:	0.527	Yaw Set Point:	-0.139	X_WP:	0.000	Y_WP:	0.000	Y_WP:	0.500	X:	-0.006	Y:	-0.265	Z:	0.045	yaw:	7.972	yaw rate:	0.188	Roll:	-1.400	Pitch:	-8.492	Yaw:	13.557	Thrust:	99.842
Time:	4.179	Roll Set Point:	0.048	Pitch Set Point:	0.527	Yaw Set Point:	-0.139	X_WP:	0.000	Y_WP:	0.000	Y_WP:	0.500	X:	-0.006	Y:	-0.265	Z:	0.045	yaw:	7.992	yaw rate:	1.992	Roll:	-1.288	Pitch:	-8.053	Yaw:	13.010	Thrust:	72.451
Time:	4.449	Roll Set Point:	0.048	Pitch Set Point:	0.527	Yaw Set Point:	-0.140	X_WP:	0.000	Y_WP:	0.000	Y_WP:	0.500	X:	-0.006	Y:	-0.265	Z:	0.045	yaw:	8.009	yaw rate:	1.741	Roll:	-2.941	Pitch:	-17.746	Yaw:	38.271	Thrust:	100.000
Time:	4.464	Roll Set Point:	0.048	Pitch Set Point:	0.527	Yaw Set Point:	-0.139	X_WP:	0.000	Y_WP:	0.000	Y_WP:	0.500	X:	-0.006	Y:	-0.265	Z:	0.045	yaw:	7.963	yaw rate:	-3.862	Roll:	-1.240	Pitch:	-8.321	Yaw:	11.827	Thrust:	74.313
Time:	4.505	Roll Set Point:	0.048	Pitch Set Point:	0.527	Yaw Set Point:	-0.139	X_WP:	0.000	Y_WP:	0.000	Y_WP:	0.500	X:	-0.006	Y:	-0.265	Z:	0.045	yaw:	7.963	yaw rate:	-3.862	Roll:	-1.494	Pitch:	-9.103	Yaw:	15.230	Thrust:	100.000
Time:	4.528	Roll Set Point:	0.048	Pitch Set Point:	0.527	Yaw Set Point:	-0.139	X_WP:	0.000	Y_WP:	0.000	Y_WP:	0.500	X:	-0.006	Y:	-0.265	Z:	0.045	yaw:	7.981	yaw rate:	-3.608	Roll:	-1.343	Pitch:	-8.431	Yaw:	13.645	Thrust:	100.000
Time:	4.596	Roll Set Point:	0.048	Pitch Set Point:	0.527	Yaw Set Point:	-0.139	X_WP:	0.000	Y_WP:	0.000	Y_WP:	0.500	X:	-0.006	Y:	-0.265	Z:	0.045	yaw:	7.961	yaw rate:	-4.037	Roll:	-1.694	Pitch:	-10.184	Yaw:	17.856	Thrust:	100.000
Time:	4.662	Roll Set Point:	0.048	Pitch Set Point:	0.527	Yaw Set Point:	-0.140	X_WP:	0.000	Y_WP:	0.000	Y_WP:	0.500	X:	-0.006	Y:	-0.265	Z:	0.045	yaw:	8.012	yaw rate:	5.095	Roll:	-1.712	Pitch:	-10.041	Yaw:	18.005	Thrust:	100.000
Time:	4.680	Roll Set Point:	0.048	Pitch Set Point:	0.527	Yaw Set Point:	-0.140	X_WP:	0.000	Y_WP:	0.000	Y_WP:	0.500	X:	-0.006	Y:	-0.265	Z:	0.045	yaw:	7.998	yaw rate:	-1.403	Roll:	-1.317	Pitch:	-8.241	Yaw:	12.656	Thrust:	85.473
Time:	4.730	Roll Set Point:	0.048	Pitch Set Point:	0.527	Yaw Set Point:	-0.139	X_WP:	0.000	Y_WP:	0.000	Y_WP:	0.500	X:	-0.006	Y:	-0.265	Z:	0.045	yaw:	7.953	yaw rate:	-2.874	Roll:	-1.556	Pitch:	-9.523	Yaw:	15.990	Thrust:	100.000
Time:	4.824	Roll Set Point:	0.048	Pitch Set Point:	0.527	Yaw Set Point:	-0.139	X_WP:	0.000	Y_WP:	0.000	Y_WP:	0.500	X:	-0.006	Y:	-0.265	Z:	0.045	yaw:	7.953	yaw rate:	-4.919	Roll:	-1.897	Pitch:	-11.133	Yaw:	20.427	Thrust:	100.000
Time:	4.938	Roll Set Point:	0.048	Pitch Set Point:	0.527	Yaw Set Point:	-0.139	X_WP:	0.000	Y_WP:	0.000	Y_WP:	0.500	X:	-0.006	Y:	-0.265	Z:	0.045	yaw:	7.985	yaw rate:	-2.155	Roll:	-1.961	Pitch:	-11.302	Yaw:	22.556	Thrust:	100.000
Time:	5.003	Roll Set Point:	0.048	Pitch Set Point:	0.527	Yaw Set Point:	-0.139	X_WP:	0.000	Y_WP:	0.000	Y_WP:	0.500	X:	-0.006	Y:	-0.265	Z:	0.045	yaw:	7.986	yaw rate:	1.892	Roll:	-1.821	Pitch:	-10.594	Yaw:	17.754	Thrust:	100.000
Time:	5.020	Roll Set Point:	0.048	Pitch Set Point:	0.527	Yaw Set Point:	-0.139	X_WP:	0.000	Y_WP:	0.000	Y_WP:	0.500	X:	-0.006	Y:	-0.265	Z:	0.045	yaw:	7.972	yaw rate:	-1.376	Roll:	-1.422	Pitch:	-8.328	Yaw:	12.625	Thrust:	90.321
Time:	5.037	Roll Set Point:	0.048	Pitch Set Point:	0.527	Yaw Set Point:	-0.140	X_WP:	0.000	Y_WP:	0.000	Y_WP:	0.500	X:	-0.006	Y:	-0.265	Z:	0.045	yaw:	7.999	yaw rate:	2.633	Roll:	-1.349	Pitch:	-8.132	Yaw:	13.278	Thrust:	90.914
Time:	5.056	Roll Set Point:	0.048	Pitch Set Point:	0.527	Yaw Set Point:	-0.139	X_WP:	0.000	Y_WP:	0.000	Y_WP:	0.500	X:	-0.006	Y:	-0.265	Z:	0.045	yaw:	7.987	yaw rate:	-1.169	Roll:	-1.454	Pitch:	-8.368	Yaw:	12.786	Thrust:	96.076
Time:	5.160	Roll Set Point:	0.048	Pitch Set Point:	0.527	Yaw Set Point:	-0.140	X_WP:	0.000	Y_WP:	0.000	Y_WP:	0.500	X:	-0.006	Y:	-0.265	Z:	0.045	yaw:	8.013	yaw rate:	0.423	Roll:	-2.057	Pitch:	-11.530	Yaw:	21.781	Thrust:	100.000
