Time:	2.110	Roll Set Point:	-0.234	Pitch Set Point:	-0.122	Yaw Set Point:	-0.578	X_WP:	0.000	Y_WP:	0.000	Y_WP:	0.500	X:	0.099	Y:	0.096	Z:	0.399	yaw:	33.094	yaw rate:	3.653	Roll:	3.922	Pitch:	0.754	Yaw:	46.208	Thrust:	5.564
Time:	2.126	Roll Set Point:	-0.234	Pitch Set Point:	-0.122	Yaw Set Point:	-0.577	X_WP:	0.000	Y_WP:	0.000	Y_WP:	0.500	X:	0.099	Y:	0.096	Z:	0.399	yaw:	33.064	yaw rate:	-3.033	Roll:	3.907	Pitch:	0.761	Yaw:	45.837	Thrust:	5.686
Time:	2.142	Roll Set Point:	-0.234	Pitch Set Point:	-0.122	Yaw Set Point:	-0.577	X_WP:	0.000	Y_WP:	0.000	Y_WP:	0.500	X:	0.099	Y:	0.096	Z:	0.399	yaw:	33.057	yaw rate:	-0.645	Roll:	3.945	Pitch:	0.906	Yaw:	46.410	Thrust:	5.891
Time:	2.157	Roll Set Point:	-0.234	Pitch Set Point:	-0.122	Yaw Set Point:	-0.577	X_WP:	0.000	Y_WP:	0.000	Y_WP:	0.500	X:	0.099	Y:	0.096	Z:	0.399	yaw:	33.057	yaw rate:	-0.645	Roll:	3.937	Pitch:	0.762	Yaw:	46.699	Thrust:	6.131
Time:	2.173	Roll Set Point:	-0.234	Pitch Set Point:	-0.122	Yaw Set Point:	-0.577	X_WP:	0.000	Y_WP:	0.000	Y_WP:	0.500	X:	0.099	Y:	0.096	Z:	0.399	yaw:	33.056	yaw rate:	-0.101	Roll:	3.961	Pitch:	0.647	Yaw:	46.860	Thrust:	6.253
Time:	2.189	Roll Set Point:	-0.234	Pitch Set Point:	-0.122	Yaw Set Point:	-0.577	X_WP:	0.000	Y_WP:	0.000	Y_WP:	0.500	X:	0.099	Y:	0.096	Z:	0.399	yaw:	33.056	yaw rate:	-0.101	Roll:	3.949	Pitch:	0.761	Yaw:	47.058	Thrust:	6.509
Time:	2.204	Roll Set Point:	-0.234	Pitch Set Point:	-0.122	Yaw Set Point:	-0.577	X_WP:	0.000	Y_WP:	0.000	Y_WP:	0.500	X:	0.099	Y:	0.096	Z:	0.399	yaw:	33.067	yaw rate:	-2.811	Roll:	3.940	Pitch:	0.786	Yaw:	47.420	Thrust:	6.747
Time:	2.220	Roll Set Point:	-0.234	Pitch Set Point:	-0.122	Yaw Set Point:	-0.577	X_WP:	0.000	Y_WP:	0.000	Y_WP:	0.500	X:	0.099	Y:	0.096	Z:	0.399	yaw:	33.086	yaw rate:	1.917	Roll:	3.979	Pitch:	0.779	Yaw:	47.786	Thrust:	6.900
Time:	2.235	Roll Set Point:	-0.234	Pitch Set Point:	-0.122	Yaw Set Point:	-0.577	X_WP:	0.000	Y_WP:	0.000	Y_WP:	0.500	X:	0.099	Y:	0.096	Z:	0.399	yaw:	33.059	yaw rate:	-2.688	Roll:	3.938	Pitch:	0.702	Yaw:	47.152	Thrust:	7.045
Time:	2.251	Roll Set Point:	-0.234	Pitch Set Point:	-0.122	Yaw Set Point:	-0.577	X_WP:	0.000	Y_WP:	0.000	Y_WP:	0.500	X:	0.099	Y:	0.096	Z:	0.399	yaw:	33.083	yaw rate:	2.408	Roll:	3.970	Pitch:	0.707	Yaw:	48.153	Thrust:	7.439
Time:	2.267	Roll Set Point:	-0.234	Pitch Set Point:	-0.122	Yaw Set Point:	-0.577	X_WP:	0.000	Y_WP:	0.000	Y_WP:	0.500	X:	0.099	Y:	0.096	Z:	0.399	yaw:	33.083	yaw rate:	2.408	Roll:	3.974	Pitch:	0.764	Yaw:	47.755	Thrust:	7.459
Time:	2.298	Roll Set Point:	-0.234	Pitch Set Point:	-0.122	Yaw Set Point:	-0.577	X_WP:	0.000	Y_WP:	0.000	Y_WP:	0.500	X:	0.099	Y:	0.096	Z:	0.399	yaw:	33.040	yaw rate:	-4.270	Roll:	4.038	Pitch:	0.856	Yaw:	48.929	Thrust:	9.611
Time:	2.314	Roll Set Point:	-0.234	Pitch Set Point:	-0.122	Yaw Set Point:	-0.577	X_WP:	0.000	Y_WP:	0.000	Y_WP:	0.500	X:	0.099	Y:	0.096	Z:	0.399	yaw:	33.037	yaw rate:	-4.969	Roll:	3.937	Pitch:	0.656	Yaw:	47.627	Thrust:	7.997
Time:	2.329	Roll Set Point:	-0.234	Pitch Set Point:	-0.122	Yaw Set Point:	-0.577	X_WP:	0.000	Y_WP:	0.000	Y_WP:	0.500	X:	0.099	Y:	0.096	Z:	0.399	yaw:	33.077	yaw rate:	4.079	Roll:	4.042	Pitch:	0.725	Yaw:	48.433	Thrust:	8.100
Time:	2.345	Roll Set Point:	-0.234	Pitch Set Point:	-0.121	Yaw Set Point:	-0.578	X_WP:	0.000	Y_WP:	0.000	Y_WP:	0.500	X:	0.099	Y:	0.096	Z:	0.399	yaw:	33.105	yaw rate:	2.792	Roll:	3.834	Pitch:	0.712	Yaw:	48.254	Thrust:	7.753
Time:	2.361	Roll Set Point:	-0.234	Pitch Set Point:	-0.122	Yaw Set Point:	-0.577	X_WP:	0.000	Y_WP:	0.000	Y_WP:	0.500	X:	0.099	Y:	0.096	Z:	0.399	yaw:	33.069	yaw rate:	-3.683	Roll:	4.158	Pitch:	0.935	Yaw:	47.114	Thrust:	8.660
Time:	2.376	Roll Set Point:	-0.234	Pitch Set Point:	-0.122	Yaw Set Point:	-0.578	X_WP:	0.000	Y_WP:	0.000	Y_WP:	0.500	X:	0.099	Y:	0.096	Z:	0.399	yaw:	33.091	yaw rate:	2.233	Roll:	4.003	Pitch:	0.637	Yaw:	48.140	Thrust:	8.935
Time:	2.392	Roll Set Point:	-0.234	Pitch Set Point:	-0.122	Yaw Set Point:	-0.577	X_WP:	0.000	Y_WP:	0.000	Y_WP:	0.500	X:	0.099	Y:	0.096	Z:	0.399	yaw:	33.040	yaw rate:	-5.064	Roll:	3.998	Pitch:	0.897	Yaw:	46.847	Thrust:	8.531
Time:	2.408	Roll Set Point:	-0.234	Pitch Set Point:	-0.122	Yaw Set Point:	-0.577	X_WP:	0.000	Y_WP:	0.000	Y_WP:	0.500	X:	0.099	Y:	0.096	Z:	0.399	yaw:	33.040	yaw rate:	-5.064	Roll:	4.017	Pitch:	0.775	Yaw:	47.699	Thrust:	8.981
Time:	2.423	Roll Set Point:	-0.234	Pitch Set Point:	-0.122	Yaw Set Point:	-0.577	X_WP:	0.000	Y_WP:	0.000	Y_WP:	0.500	X:	0.099	Y:	0.096	Z:	0.399	yaw:	33.079	yaw rate:	3.915	Roll:	4.072	Pitch:	0.770	Yaw:	48.406	Thrust:	9.097
Time:	2.439	Roll Set Point:	-0.234	Pitch Set Point:	-0.122	Yaw Set Point:	-0.577	X_WP:	0.000	Y_WP:	0.000	Y_WP:	0.500	X:	0.099	Y:	0.096	Z:	0.399	yaw:	33.079	yaw rate:	3.915	Roll:	4.028	Pitch:	0.776	Yaw:	47.749	Thrust:	9.348
Time:	2.454	Roll Set Point:	-0.234	Pitch Set Point:	-0.121	Yaw Set Point:	-0.578	X_WP:	0.000	Y_WP:	0.000	Y_WP:	0.500	X:	0.099	Y:	0.096	Z:	0.399	yaw:	33.095	yaw rate:	1.597	Roll:	3.984	Pitch:	0.594	Yaw:	48.038	Thrust:	9.764
Time:	2.470	Roll Set Point:	-0.234	Pitch Set Point:	-0.122	Yaw Set Point:	-0.578	X_WP:	0.000	Y_WP:	0.000	Y_WP:	0.500	X:	0.099	Y:	0.096	Z:	0.399	yaw:	33.100	yaw rate:	0.511	Roll:	4.080	Pitch:	0.907	Yaw:	47.868	Thrust:	9.698
Time:	2.486	Roll Set Point:	-0.234	Pitch Set Point:	-0.122	Yaw Set Point:	-0.578	X_WP:	0.000	Y_WP:	0.000	Y_WP:	0.500	X:	0.099	Y:	0.096	Z:	0.399	yaw:	33.100	yaw rate:	0.511	Roll:	4.044	Pitch:	0.778	Yaw:	47.777	Thrust:	9.915
Time:	2.501	Roll Set Point:	-0.234	Pitch Set Point:	-0.122	Yaw Set Point:	-0.578	X_WP:	0.000	Y_WP:	0.000	Y_WP:	0.500	X:	0.099	Y:	0.096	Z:	0.399	yaw:	33.117	yaw rate:	1.659	Roll:	4.062	Pitch:	0.779	Yaw:	48.081	Thrust:	10.082
Time:	2.517	Roll Set Point:	-0.234	Pitch Set Point:	-0.121	Yaw Set Point:	-0.578	X_WP:	0.000	Y_WP:	0.000	Y_WP:	0.500	X:	0.099	Y:	0.095	Z:	0.399	yaw:	33.099	yaw rate:	-1.799	Roll:	3.794	Pitch:	0.590	Yaw:	47.476	Thrust:	10.071
Time:	2.533	Roll Set Point:	-0.234	Pitch Set Point:	-0.122	Yaw Set Point:	-0.578	X_WP:	0.000	Y_WP:	0.000	Y_WP:	0.500	X:	0.099	Y:	0.096	Z:	0.399	yaw:	33.126	yaw rate:	7.550	Roll:	4.322	Pitch:	0.959	Yaw:	48.270	Thrust:	10.735
Time:	2.548	Roll Set Point:	-0.234	Pitch Set Point:	-0.122	Yaw Set Point:	-0.578	X_WP:	0.000	Y_WP:	0.000	Y_WP:	0.500	X:	0.099	Y:	0.096	Z:	0.399	yaw:	33.106	yaw rate:	-2.046	Roll:	4.057	Pitch:	0.825	Yaw:	47.448	Thrust:	10.634
Time:	2.564	Roll Set Point:	-0.234	Pitch Set Point:	-0.122	Yaw Set Point:	-0.577	X_WP:	0.000	Y_WP:	0.000	Y_WP:	0.500	X:	0.099	Y:	0.096	Z:	0.399	yaw:	33.058	yaw rate:	-4.748	Roll:	4.019	Pitch:	0.777	Yaw:	46.925	Thrust:	10.934
Time:	2.579	Roll Set Point:	-0.234	Pitch Set Point:	-0.122	Yaw Set Point:	-0.577	X_WP:	0.000	Y_WP:	0.000	Y_WP:	0.500	X:	0.099	Y:	0.096	Z:	0.399	yaw:	33.070	yaw rate:	1.220	Roll:	4.059	Pitch:	0.731	Yaw:	47.942	Thrust:	11.236
Time:	2.595	Roll Set Point:	-0.234	Pitch Set Point:	-0.122	Yaw Set Point:	-0.577	X_WP:	0.000	Y_WP:	0.000	Y_WP:	0.500	X:	0.099	Y:	0.096	Z:	0.399	yaw:	33.070	yaw rate:	1.220	Roll:	4.079	Pitch:	0.785	Yaw:	47.734	Thrust:	11.241
Time:	2.611	Roll Set Point:	-0.234	Pitch Set Point:	-0.122	Yaw Set Point:	-0.578	X_WP:	0.000	Y_WP:	0.000	Y_WP:	0.500	X:	0.099	Y:	0.096	Z:	0.399	yaw:	33.129	yaw rate:	7.468	Roll:	4.166	Pitch:	0.797	Yaw:	48.793	Thrust:	11.244
Time:	2.628	Roll Set Point:	-0.234	Pitch Set Point:	-0.122	Yaw Set Point:	-0.576	X_WP:	0.000	Y_WP:	0.000	Y_WP:	0.500	X:	0.099	Y:	0.096	Z:	0.399	yaw:	33.030	yaw rate:	-9.909	Roll:	4.038	Pitch:	0.886	Yaw:	46.296	Thrust:	11.994
Time:	2.644	Roll Set Point:	-0.234	Pitch Set Point:	-0.122	Yaw Set Point:	-0.576	X_WP:	0.000	Y_WP:	0.000	Y_WP:	0.500	X:	0.099	Y:	0.096	Z:	0.399	yaw:	33.030	yaw rate:	-9.909	Roll:	4.113	Pitch:	0.794	Yaw:	47.784	Thrust:	12.231
Time:	2.660	Roll Set Point:	-0.234	Pitch Set Point:	-0.122	Yaw Set Point:	-0.577	X_WP:	0.000	Y_WP:	0.000	Y_WP:	0.500	X:	0.099	Y:	0.096	Z:	0.399	yaw:	33.036	yaw rate:	-6.352	Roll:	4.104	Pitch:	0.733	Yaw:	47.806	Thrust:	12.097
Time:	2.676	Roll Set Point:	-0.234	Pitch Set Point:	-0.122	Yaw Set Point:	-0.578	X_WP:	0.000	Y_WP:	0.000	Y_WP:	0.500	X:	0.099	Y:	0.096	Z:	0.399	yaw:	33.093	yaw rate:	5.636	Roll:	4.146	Pitch:	0.819	Yaw:	48.713	Thrust:	12.224
Time:	2.691	Roll Set Point:	-0.234	Pitch Set Point:	-0.122	Yaw Set Point:	-0.577	X_WP:	0.000	Y_WP:	0.000	Y_WP:	0.500	X:	0.099	Y:	0.096	Z:	0.399	yaw:	33.043	yaw rate:	-5.016	Roll:	4.069	Pitch:	0.765	Yaw:	46.859	Thrust:	12.399
Time:	2.707	Roll Set Point:	-0.234	Pitch Set Point:	-0.122	Yaw Set Point:	-0.577	X_WP:	0.000	Y_WP:	0.000	Y_WP:	0.500	X:	0.099	Y:	0.096	Z:	0.399	yaw:	33.043	yaw rate:	-5.016	Roll:	4.117	Pitch:	0.793	Yaw:	47.699	Thrust:	12.576
Time:	2.722	Roll Set Point:	-0.234	Pitch Set Point:	-0.122	Yaw Set Point:	-0.577	X_WP:	0.000	Y_WP:	0.000	Y_WP:	0.500	X:	0.099	Y:	0.096	Z:	0.399	yaw:	33.085	yaw rate:	4.250	Roll:	4.140	Pitch:	0.711	Yaw:	48.470	Thrust:	12.912
Time:	2.738	Roll Set Point:	-0.234	Pitch Set Point:	-0.122	Yaw Set Point:	-0.579	X_WP:	0.000	Y_WP:	0.000	Y_WP:	0.500	X:	0.099	Y:	0.096	Z:	0.399	yaw:	33.153	yaw rate:	6.772	Roll:	4.183	Pitch:	0.755	Yaw:	48.987	Thrust:	13.163
Time:	2.754	Roll Set Point:	-0.234	Pitch Set Point:	-0.122	Yaw Set Point:	-0.578	X_WP:	0.000	Y_WP:	0.000	Y_WP:	0.500	X:	0.099	Y:	0.096	Z:	0.399	yaw:	33.102	yaw rate:	1.112	Roll:	4.083	Pitch:	0.865	Yaw:	46.930	Thrust:	12.900
Time:	2.769	Roll Set Point:	-0.234	Pitch Set Point:	-0.122	Yaw Set Point:	-0.578	X_WP:	0.000	Y_WP:	0.000	Y_WP:	0.500	X:	0.099	Y:	0.096	Z:	0.399	yaw:	33.102	yaw rate:	1.112	Roll:	4.138	Pitch:	0.796	Yaw:	47.782	Thrust:	13.336
Time:	2.785	Roll Set Point:	-0.234	Pitch Set Point:	-0.122	Yaw Set Point:	-0.577	X_WP:	0.000	Y_WP:	0.000	Y_WP:	0.500	X:	0.099	Y:	0.096	Z:	0.399	yaw:	33.082	yaw rate:	-1.960	Roll:	4.141	Pitch:	0.831	Yaw:	47.426	Thrust:	13.584
Time:	2.801	Roll Set Point:	-0.234	Pitch Set Point:	-0.122	Yaw Set Point:	-0.578	X_WP:	0.000	Y_WP:	0.000	Y_WP:	0.500	X:	0.099	Y:	0.096	Z:	0.399	yaw:	33.110	yaw rate:	2.736	Roll:	4.185	Pitch:	0.744	Yaw:	48.251	Thrust:	13.841
Time:	2.816	Roll Set Point:	-0.234	Pitch Set Point:	-0.122	Yaw Set Point:	-0.577	X_WP:	0.000	Y_WP:	0.000	Y_WP:	0.500	X:	0.099	Y:	0.096	Z:	0.399	yaw:	33.041	yaw rate:	-3.635	Roll:	4.095	Pitch:	0.939	Yaw:	46.539	Thrust:	13.575
Time:	2.832	Roll Set Point:	-0.234	Pitch Set Point:	-0.122	Yaw Set Point:	-0.577	X_WP:	0.000	Y_WP:	0.000	Y_WP:	0.500	X:	0.099	Y:	0.096	Z:	0.399	yaw:	33.047	yaw rate:	0.624	Roll:	4.172	Pitch:	0.738	Yaw:	47.810	Thrust:	14.166
Time:	2.847	Roll Set Point:	-0.234	Pitch Set Point:	-0.122	Yaw Set Point:	-0.577	X_WP:	0.000	Y_WP:	0.000	Y_WP:	0.500	X:	0.099	Y:	0.096	Z:	0.399	yaw:	33.076	yaw rate:	2.919	Roll:	4.182	Pitch:	0.774	Yaw:	48.236	Thrust:	14.362
Time:	2.863	Roll Set Point:	-0.234	Pitch Set Point:	-0.122	Yaw Set Point:	-0.577	X_WP:	0.000	Y_WP:	0.000	Y_WP:	0.500	X:	0.099	Y:	0.096	Z:	0.399	yaw:	33.087	yaw rate:	1.121	Roll:	4.179	Pitch:	0.797	Yaw:	47.948	Thrust:	14.459
Time:	2.879	Roll Set Point:	-0.234	Pitch Set Point:	-0.122	Yaw Set Point:	-0.577	X_WP:	0.000	Y_WP:	0.000	Y_WP:	0.500	X:	0.099	Y:	0.096	Z:	0.399	yaw:	33.087	yaw rate:	1.121	Roll:	4.176	Pitch:	0.804	Yaw:	47.761	Thrust:	14.664
Time:	2.894	Roll Set Point:	-0.234	Pitch Set Point:	-0.122	Yaw Set Point:	-0.578	X_WP:	0.000	Y_WP:	0.000	Y_WP:	0.500	X:	0.099	Y:	0.096	Z:	0.399	yaw:	33.093	yaw rate:	3.484	Roll:	4.181	Pitch:	0.813	Yaw:	47.873	Thrust:	14.970
Time:	2.910	Roll Set Point:	-0.234	Pitch Set Point:	-0.122	Yaw Set Point:	-0.577	X_WP:	0.000	Y_WP:	0.000	Y_WP:	0.500	X:	0.099	Y:	0.096	Z:	0.399	yaw:	33.046	yaw rate:	-4.787	Roll:	4.176	Pitch:	0.842	Yaw:	46.901	Thrust:	14.886
Time:	2.926	Roll Set Point:	-0.234	Pitch Set Point:	-0.122	Yaw Set Point:	-0.577	X_WP:	0.000	Y_WP:	0.000	Y_WP:	0.500	X:	0.099	Y:	0.096	Z:	0.399	yaw:	33.046	yaw rate:	-4.787	Roll:	4.191	Pitch:	0.808	Yaw:	47.703	Thrust:	15.233
Time:	2.941	Roll Set Point:	-0.234	Pitch Set Point:	-0.122	Yaw Set Point:	-0.577	X_WP:	0.000	Y_WP:	0.000	Y_WP:	0.500	X:	0.099	Y:	0.096	Z:	0.399	yaw:	33.051	yaw rate:	-1.920	Roll:	4.173	Pitch:	0.848	Yaw:	47.804	Thrust:	15.294
Time:	2.957	Roll Set Point:	-0.234	Pitch Set Point:	-0.122	Yaw Set Point:	-0.577	X_WP:	0.000	Y_WP:	0.000	Y_WP:	0.500	X:	0.099	Y:	0.096	Z:	0.399	yaw:	33.051	yaw rate:	-1.920	Roll:	4.201	Pitch:	0.811	Yaw:	47.711	Thrust:	15.609
Time:	2.972	Roll Set Point:	-0.234	Pitch Set Point:	-0.122	Yaw Set Point:	-0.577	X_WP:	0.000	Y_WP:	0.000	Y_WP:	0.500	X:	0.099	Y:	0.096	Z:	0.399	yaw:	33.079	yaw rate:	0.546	Roll:	4.239	Pitch:	0.709	Yaw:	48.214	Thrust:	16.012
Time:	2.988	Roll Set Point:	-0.234	Pitch Set Point:	-0.122	Yaw Set Point:	-0.577	X_WP:	0.000	Y_WP:	0.000	Y_WP:	0.500	X:	0.099	Y:	0.096	Z:	0.399	yaw:	33.087	yaw rate:	0.764	Roll:	4.206	Pitch:	0.768	Yaw:	47.888	Thrust:	15.877
Time:	3.004	Roll Set Point:	-0.234	Pitch Set Point:	-0.122	Yaw Set Point:	-0.577	X_WP:	0.000	Y_WP:	0.000	Y_WP:	0.500	X:	0.099	Y:	0.096	Z:	0.399	yaw:	33.071	yaw rate:	-1.558	Roll:	4.198	Pitch:	0.890	Yaw:	47.481	Thrust:	16.176
Time:	3.019	Roll Set Point:	-0.234	Pitch Set Point:	-0.122	Yaw Set Point:	-0.578	X_WP:	0.000	Y_WP:	0.000	Y_WP:	0.500	X:	0.099	Y:	0.096	Z:	0.399	yaw:	33.091	yaw rate:	1.993	Roll:	4.236	Pitch:	0.808	Yaw:	48.098	Thrust:	16.347
Time:	3.035	Roll Set Point:	-0.234	Pitch Set Point:	-0.122	Yaw Set Point:	-0.578	X_WP:	0.000	Y_WP:	0.000	Y_WP:	0.500	X:	0.099	Y:	0.096	Z:	0.399	yaw:	33.091	yaw rate:	1.993	Roll:	4.228	Pitch:	0.814	Yaw:	47.766	Thrust:	16.558
Time:	3.051	Roll Set Point:	-0.234	Pitch Set Point:	-0.122	Yaw Set Point:	-0.577	X_WP:	0.000	Y_WP:	0.000	Y_WP:	0.500	X:	0.099	Y:	0.096	Z:	0.399	yaw:	33.071	yaw rate:	-5.620	Roll:	4.239	Pitch:	0.745	Yaw:	47.414	Thrust:	16.804
Time:	3.066	Roll Set Point:	-0.234	Pitch Set Point:	-0.122	Yaw Set Point:	-0.578	X_WP:	0.000	Y_WP:	0.000	Y_WP:	0.500	X:	0.099	Y:	0.096	Z:	0.399	yaw:	33.103	yaw rate:	3.152	Roll:	4.225	Pitch:	0.845	Yaw:	48.309	Thrust:	17.066
Time:	3.082	Roll Set Point:	-0.234	Pitch Set Point:	-0.122	Yaw Set Point:	-0.577	X_WP:	0.000	Y_WP:	0.000	Y_WP:	0.500	X:	0.099	Y:	0.096	Z:	0.399	yaw:	33.060	yaw rate:	-4.278	Roll:	4.251	Pitch:	0.927	Yaw:	47.011	Thrust:	16.987
Time:	3.098	Roll Set Point:	-0.234	Pitch Set Point:	-0.122	Yaw Set Point:	-0.578	X_WP:	0.000	Y_WP:	0.000	Y_WP:	0.500	X:	0.099	Y:	0.096	Z:	0.399	yaw:	33.108	yaw rate:	4.770	Roll:	4.287	Pitch:	0.705	Yaw:	48.587	Thrust:	17.444
Time:	3.113	Roll Set Point:	-0.234	Pitch Set Point:	-0.121	Yaw Set Point:	-0.578	X_WP:	0.000	Y_WP:	0.000	Y_WP:	0.500	X:	0.099	Y:	0.095	Z:	0.399	yaw:	33.090	yaw rate:	-1.774	Roll:	4.007	Pitch:	0.667	Yaw:	47.471	Thrust:	17.122
Time:	3.129	Roll Set Point:	-0.234	Pitch Set Point:	-0.121	Yaw Set Point:	-0.578	X_WP:	0.000	Y_WP:	0.000	Y_WP:	0.500	X:	0.099	Y:	0.095	Z:	0.399	yaw:	33.090	yaw rate:	-1.774	Roll:	4.254	Pitch:	0.815	Yaw:	47.762	Thrust:	17.669
Time:	3.144	Roll Set Point:	-0.234	Pitch Set Point:	-0.122	Yaw Set Point:	-0.577	X_WP:	0.000	Y_WP:	0.000	Y_WP:	0.500	X:	0.099	Y:	0.096	Z:	0.399	yaw:	33.065	yaw rate:	-2.499	Roll:	4.462	Pitch:	1.042	Yaw:	47.316	Thrust:	18.190
Time:	3.160	Roll Set Point:	-0.234	Pitch Set Point:	-0.122	Yaw Set Point:	-0.577	X_WP:	0.000	Y_WP:	0.000	Y_WP:	0.500	X:	0.099	Y:	0.096	Z:	0.399	yaw:	33.065	yaw rate:	-2.499	Roll:	4.269	Pitch:	0.823	Yaw:	47.727	Thrust:	18.049
Time:	3.176	Roll Set Point:	-0.234	Pitch Set Point:	-0.122	Yaw Set Point:	-0.577	X_WP:	0.000	Y_WP:	0.000	Y_WP:	0.500	X:	0.099	Y:	0.096	Z:	0.399	yaw:	33.087	yaw rate:	2.962	Roll:	4.297	Pitch:	0.688	Yaw:	48.135	Thrust:	18.324
Time:	3.191	Roll Set Point:	-0.234	Pitch Set Point:	-0.122	Yaw Set Point:	-0.577	X_WP:	0.000	Y_WP:	0.000	Y_WP:	0.500	X:	0.099	Y:	0.096	Z:	0.399	yaw:	33.064	yaw rate:	-2.350	Roll:	4.258	Pitch:	0.965	Yaw:	47.335	Thrust:	18.512
Time:	3.207	Roll Set Point:	-0.234	Pitch Set Point:	-0.122	Yaw Set Point:	-0.577	X_WP:	0.000	Y_WP:	0.000	Y_WP:	0.500	X:	0.099	Y:	0.096	Z:	0.399	yaw:	33.077	yaw rate:	1.386	Roll:	4.297	Pitch:	0.882	Yaw:	47.980	Thrust:	18.631
Time:	3.223	Roll Set Point:	-0.234	Pitch Set Point:	-0.122	Yaw Set Point:	-0.577	X_WP:	0.000	Y_WP:	0.000	Y_WP:	0.500	X:	0.099	Y:	0.096	Z:	0.399	yaw:	33.077	yaw rate:	1.386	Roll:	4.291	Pitch:	0.829	Yaw:	47.747	Thrust:	18.833
Time:	3.238	Roll Set Point:	-0.234	Pitch Set Point:	-0.122	Yaw Set Point:	-0.578	X_WP:	0.000	Y_WP:	0.000	Y_WP:	0.500	X:	0.099	Y:	0.096	Z:	0.399	yaw:	33.103	yaw rate:	2.583	Roll:	4.320	Pitch:	0.723	Yaw:	48.214	Thrust:	19.090
Time:	3.254	Roll Set Point:	-0.234	Pitch Set Point:	-0.122	Yaw Set Point:	-0.577	X_WP:	0.000	Y_WP:	0.000	Y_WP:	0.500	X:	0.099	Y:	0.096	Z:	0.399	yaw:	33.070	yaw rate:	-0.421	Roll:	4.264	Pitch:	0.887	Yaw:	47.184	Thrust:	19.191
Time:	3.269	Roll Set Point:	-0.234	Pitch Set Point:	-0.122	Yaw Set Point:	-0.577	X_WP:	0.000	Y_WP:	0.000	Y_WP:	0.500	X:	0.099	Y:	0.096	Z:	0.399	yaw:	33.074	yaw rate:	0.391	Roll:	4.329	Pitch:	0.830	Yaw:	47.805	Thrust:	19.421
Time:	3.298	Roll Set Point:	-0.234	Pitch Set Point:	-0.122	Yaw Set Point:	-0.577	X_WP:	0.000	Y_WP:	0.000	Y_WP:	0.500	X:	0.099	Y:	0.096	Z:	0.399	yaw:	33.073	yaw rate:	-0.063	Roll:	4.640	Pitch:	0.872	Yaw:	49.055	Thrust:	31.338
Time:	3.314	Roll Set Point:	-0.234	Pitch Set Point:	-0.122	Yaw Set Point:	-0.577	X_WP:	0.000	Y_WP:	0.000	Y_WP:	0.500	X:	0.099	Y:	0.096	Z:	0.399	yaw:	33.066	yaw rate:	-0.717	Roll:	4.317	Pitch:	0.841	Yaw:	47.612	Thrust:	19.975
Time:	3.329	Roll Set Point:	-0.234	Pitch Set Point:	-0.122	Yaw Set Point:	-0.577	X_WP:	0.000	Y_WP:	0.000	Y_WP:	0.500	X:	0.099	Y:	0.096	Z:	0.399	yaw:	33.066	yaw rate:	-0.717	Roll:	4.323	Pitch:	0.833	Yaw:	47.732	Thrust:	19.976
Time:	3.345	Roll Set Point:	-0.234	Pitch Set Point:	-0.121	Yaw Set Point:	-0.578	X_WP:	0.000	Y_WP:	0.000	Y_WP:	0.500	X:	0.099	Y:	0.095	Z:	0.399	yaw:	33.089	yaw rate:	-1.851	Roll:	4.126	Pitch:	0.684	Yaw:	48.154	Thrust:	19.587
Time:	3.361	Roll Set Point:	-0.234	Pitch Set Point:	-0.122	Yaw Set Point:	-0.578	X_WP:	0.000	Y_WP:	0.000	Y_WP:	0.500	X:	0.099	Y:	0.096	Z:	0.399	yaw:	33.117	yaw rate:	2.706	Roll:	4.573	Pitch:	0.899	Yaw:	48.256	Thrust:	20.956
Time:	3.376	Roll Set Point:	-0.234	Pitch Set Point:	-0.122	Yaw Set Point:	-0.577	X_WP:	0.000	Y_WP:	0.000	Y_WP:	0.500	X:	0.099	Y:	0.096	Z:	0.399	yaw:	33.077	yaw rate:	-3.986	Roll:	4.296	Pitch:	0.881	Yaw:	47.079	Thrust:	20.463
Time:	3.392	Roll Set Point:	-0.234	Pitch Set Point:	-0.122	Yaw Set Point:	-0.577	X_WP:	0.000	Y_WP:	0.000	Y_WP:	0.500	X:	0.099	Y:	0.096	Z:	0.399	yaw:	33.070	yaw rate:	-0.665	Roll:	4.334	Pitch:	0.868	Yaw:	47.626	Thrust:	20.700
Time:	3.408	Roll Set Point:	-0.234	Pitch Set Point:	-0.122	Yaw Set Point:	-0.577	X_WP:	0.000	Y_WP:	0.000	Y_WP:	0.500	X:	0.099	Y:	0.096	Z:	0.399	yaw:	33.070	yaw rate:	-0.665	Roll:	4.349	Pitch:	0.838	Yaw:	47.737	Thrust:	20.923
Time:	3.423	Roll Set Point:	-0.234	Pitch Set Point:	-0.122	Yaw Set Point:	-0.577	X_WP:	0.000	Y_WP:	0.000	Y_WP:	0.500	X:	0.099	Y:	0.096	Z:	0.399	yaw:	33.080	yaw rate:	1.614	Roll:	4.366	Pitch:	0.858	Yaw:	47.913	Thrust:	21.159
Time:	3.439	Roll Set Point:	-0.234	Pitch Set Point:	-0.122	Yaw Set Point:	-0.577	X_WP:	0.000	Y_WP:	0.000	Y_WP:	0.500	X:	0.099	Y:	0.096	Z:	0.399	yaw:	33.067	yaw rate:	-1.238	Roll:	4.347	Pitch:	0.881	Yaw:	47.530	Thrust:	21.405
Time:	3.454	Roll Set Point:	-0.234	Pitch Set Point:	-0.122	Yaw Set Point:	-0.577	X_WP:	0.000	Y_WP:	0.000	Y_WP:	0.500	X:	0.099	Y:	0.096	Z:	0.399	yaw:	33.077	yaw rate:	0.972	Roll:	4.377	Pitch:	0.742	Yaw:	47.907	Thrust:	21.249
Time:	3.470	Roll Set Point:	-0.234	Pitch Set Point:	-0.122	Yaw Set Point:	-0.577	X_WP:	0.000	Y_WP:	0.000	Y_WP:	0.500	X:	0.099	Y:	0.096	Z:	0.399	yaw:	33.073	yaw rate:	-0.425	Roll:	4.356	Pitch:	0.929	Yaw:	47.670	Thrust:	21.818
Time:	3.486	Roll Set Point:	-0.234	Pitch Set Point:	-0.122	Yaw Set Point:	-0.577	X_WP:	0.000	Y_WP:	0.000	Y_WP:	0.500	X:	0.099	Y:	0.096	Z:	0.399	yaw:	33.059	yaw rate:	-1.421	Roll:	4.385	Pitch:	0.818	Yaw:	47.483	Thrust:	21.729
Time:	3.501	Roll Set Point:	-0.234	Pitch Set Point:	-0.122	Yaw Set Point:	-0.577	X_WP:	0.000	Y_WP:	0.000	Y_WP:	0.500	X:	0.099	Y:	0.096	Z:	0.399	yaw:	33.069	yaw rate:	1.090	Roll:	4.374	Pitch:	0.807	Yaw:	47.919	Thrust:	22.139
Time:	3.517	Roll Set Point:	-0.234	Pitch Set Point:	-0.122	Yaw Set Point:	-0.577	X_WP:	0.000	Y_WP:	0.000	Y_WP:	0.500	X:	0.099	Y:	0.096	Z:	0.399	yaw:	33.061	yaw rate:	-0.854	Roll:	4.402	Pitch:	0.827	Yaw:	47.581	Thrust:	22.111
Time:	3.533	Roll Set Point:	-0.234	Pitch Set Point:	-0.122	Yaw Set Point:	-0.577	X_WP:	0.000	Y_WP:	0.000	Y_WP:	0.500	X:	0.099	Y:	0.096	Z:	0.399	yaw:	33.061	yaw rate:	-0.854	Roll:	4.392	Pitch:	0.845	Yaw:	47.725	Thrust:	22.437
Time:	3.548	Roll Set Point:	-0.234	Pitch Set Point:	-0.122	Yaw Set Point:	-0.578	X_WP:	0.000	Y_WP:	0.000	Y_WP:	0.500	X:	0.099	Y:	0.096	Z:	0.399	yaw:	33.096	yaw rate:	1.499	Roll:	4.413	Pitch:	0.852	Yaw:	48.364	Thrust:	22.770
Time:	3.564	Roll Set Point:	-0.234	Pitch Set Point:	-0.122	Yaw Set Point:	-0.577	X_WP:	0.000	Y_WP:	0.000	Y_WP:	0.500	X:	0.099	Y:	0.096	Z:	0.399	yaw:	33.078	yaw rate:	-1.786	Roll:	4.387	Pitch:	0.828	Yaw:	47.449	Thrust:	22.748
Time:	3.579	Roll Set Point:	-0.234	Pitch Set Point:	-0.122	Yaw Set Point:	-0.577	X_WP:	0.000	Y_WP:	0.000	Y_WP:	0.500	X:	0.099	Y:	0.096	Z:	0.399	yaw:	33.072	yaw rate:	-0.635	Roll:	4.406	Pitch:	0.858	Yaw:	47.634	Thrust:	23.055
Time:	3.595	Roll Set Point:	-0.234	Pitch Set Point:	-0.122	Yaw Set Point:	-0.577	X_WP:	0.000	Y_WP:	0.000	Y_WP:	0.500	X:	0.099	Y:	0.096	Z:	0.399	yaw:	33.072	yaw rate:	-0.635	Roll:	4.413	Pitch:	0.849	Yaw:	47.740	Thrust:	23.196
Time:	3.611	Roll Set Point:	-0.234	Pitch Set Point:	-0.122	Yaw Set Point:	-0.578	X_WP:	0.000	Y_WP:	0.000	Y_WP:	0.500	X:	0.099	Y:	0.096	Z:	0.399	yaw:	33.094	yaw rate:	0.680	Roll:	4.431	Pitch:	0.825	Yaw:	48.142	Thrust:	23.397
Time:	3.626	Roll Set Point:	-0.234	Pitch Set Point:	-0.122	Yaw Set Point:	-0.578	X_WP:	0.000	Y_WP:	0.000	Y_WP:	0.500	X:	0.099	Y:	0.096	Z:	0.399	yaw:	33.094	yaw rate:	0.680	Roll:	4.424	Pitch:	0.850	Yaw:	47.771	Thrust:	23.578
Time:	3.642	Roll Set Point:	-0.234	Pitch Set Point:	-0.122	Yaw Set Point:	-0.576	X_WP:	0.000	Y_WP:	0.000	Y_WP:	0.500	X:	0.099	Y:	0.096	Z:	0.399	yaw:	33.027	yaw rate:	-5.711	Roll:	4.383	Pitch:	0.988	Yaw:	46.551	Thrust:	23.682
Time:	3.658	Roll Set Point:	-0.234	Pitch Set Point:	-0.122	Yaw Set Point:	-0.578	X_WP:	0.000	Y_WP:	0.000	Y_WP:	0.500	X:	0.099	Y:	0.096	Z:	0.399	yaw:	33.099	yaw rate:	7.268	Roll:	4.493	Pitch:	0.740	Yaw:	48.995	Thrust:	24.067
Time:	3.673	Roll Set Point:	-0.234	Pitch Set Point:	-0.122	Yaw Set Point:	-0.577	X_WP:	0.000	Y_WP:	0.000	Y_WP:	0.500	X:	0.099	Y:	0.096	Z:	0.399	yaw:	33.082	yaw rate:	-1.747	Roll:	4.432	Pitch:	0.877	Yaw:	47.461	Thrust:	24.100
Time:	3.689	Roll Set Point:	-0.234	Pitch Set Point:	-0.121	Yaw Set Point:	-0.577	X_WP:	0.000	Y_WP:	0.000	Y_WP:	0.500	X:	0.099	Y:	0.095	Z:	0.399	yaw:	33.072	yaw rate:	-0.967	Roll:	4.213	Pitch:	0.742	Yaw:	47.581	Thrust:	23.983
Time:	3.705	Roll Set Point:	-0.234	Pitch Set Point:	-0.121	Yaw Set Point:	-0.577	X_WP:	0.000	Y_WP:	0.000	Y_WP:	0.500	X:	0.099	Y:	0.095	Z:	0.399	yaw:	33.072	yaw rate:	-0.967	Roll:	4.445	Pitch:	0.854	Yaw:	47.741	Thrust:	24.525
Time:	3.720	Roll Set Point:	-0.234	Pitch Set Point:	-0.122	Yaw Set Point:	-0.577	X_WP:	0.000	Y_WP:	0.000	Y_WP:	0.500	X:	0.099	Y:	0.096	Z:	0.399	yaw:	33.055	yaw rate:	-4.774	Roll:	4.665	Pitch:	0.997	Yaw:	47.415	Thrust:	25.107
Time:	3.736	Roll Set Point:	-0.234	Pitch Set Point:	-0.122	Yaw Set Point:	-0.577	X_WP:	0.000	Y_WP:	0.000	Y_WP:	0.500	X:	0.099	Y:	0.096	Z:	0.399	yaw:	33.055	yaw rate:	-4.774	Roll:	4.461	Pitch:	0.859	Yaw:	47.715	Thrust:	24.904
Time:	3.751	Roll Set Point:	-0.234	Pitch Set Point:	-0.122	Yaw Set Point:	-0.577	X_WP:	0.000	Y_WP:	0.000	Y_WP:	0.500	X:	0.099	Y:	0.096	Z:	0.399	yaw:	33.044	yaw rate:	-1.021	Roll:	4.454	Pitch:	0.887	Yaw:	47.533	Thrust:	24.982
Time:	3.767	Roll Set Point:	-0.234	Pitch Set Point:	-0.122	Yaw Set Point:	-0.578	X_WP:	0.000	Y_WP:	0.000	Y_WP:	0.500	X:	0.099	Y:	0.096	Z:	0.399	yaw:	33.092	yaw rate:	4.780	Roll:	4.510	Pitch:	0.751	Yaw:	48.569	Thrust:	25.453
Time:	3.783	Roll Set Point:	-0.234	Pitch Set Point:	-0.122	Yaw Set Point:	-0.578	X_WP:	0.000	Y_WP:	0.000	Y_WP:	0.500	X:	0.099	Y:	0.096	Z:	0.399	yaw:	33.092	yaw rate:	4.780	Roll:	4.476	Pitch:	0.860	Yaw:	47.764	Thrust:	25.426
Time:	3.798	Roll Set Point:	-0.234	Pitch Set Point:	-0.122	Yaw Set Point:	-0.577	X_WP:	0.000	Y_WP:	0.000	Y_WP:	0.500	X:	0.099	Y:	0.096	Z:	0.399	yaw:	33.059	yaw rate:	-3.349	Roll:	4.433	Pitch:	0.961	Yaw:	47.160	Thrust:	25.585
Time:	3.814	Roll Set Point:	-0.234	Pitch Set Point:	-0.122	Yaw Set Point:	-0.577	X_WP:	0.000	Y_WP:	0.000	Y_WP:	0.500	X:	0.099	Y:	0.096	Z:	0.399	yaw:	33.055	yaw rate:	-0.405	Roll:	4.504	Pitch:	0.849	Yaw:	47.651	Thrust:	25.872
Time:	3.830	Roll Set Point:	-0.234	Pitch Set Point:	-0.122	Yaw Set Point:	-0.577	X_WP:	0.000	Y_WP:	0.000	Y_WP:	0.500	X:	0.099	Y:	0.096	Z:	0.399	yaw:	33.082	yaw rate:	-4.052	Roll:	4.495	Pitch:	0.881	Yaw:	48.211	Thrust:	26.165
Time:	3.845	Roll Set Point:	-0.234	Pitch Set Point:	-0.122	Yaw Set Point:	-0.577	X_WP:	0.000	Y_WP:	0.000	Y_WP:	0.500	X:	0.099	Y:	0.096	Z:	0.399	yaw:	33.055	yaw rate:	-2.717	Roll:	4.493	Pitch:	0.826	Yaw:	47.261	Thrust:	26.107
Time:	3.861	Roll Set Point:	-0.234	Pitch Set Point:	-0.122	Yaw Set Point:	-0.577	X_WP:	0.000	Y_WP:	0.000	Y_WP:	0.500	X:	0.099	Y:	0.096	Z:	0.399	yaw:	33.073	yaw rate:	1.854	Roll:	4.497	Pitch:	0.913	Yaw:	48.050	Thrust:	26.382
