Time:	2.197	Roll Set Point:	-0.237	Pitch Set Point:	-0.228	Yaw Set Point:	0.070	X_WP:	0.000	Y_WP:	0.000	Y_WP:	0.500	X:	0.123	Y:	0.110	Z:	0.049	yaw:	-3.998	yaw rate:	-1.249	Roll:	3.322	Pitch:	3.429	Yaw:	-5.582	Thrust:	24.782
Time:	2.214	Roll Set Point:	-0.237	Pitch Set Point:	-0.228	Yaw Set Point:	0.070	X_WP:	0.000	Y_WP:	0.000	Y_WP:	0.500	X:	0.123	Y:	0.110	Z:	0.049	yaw:	-3.997	yaw rate:	0.084	Roll:	3.348	Pitch:	3.414	Yaw:	-5.592	Thrust:	25.544
Time:	2.232	Roll Set Point:	-0.237	Pitch Set Point:	-0.228	Yaw Set Point:	0.070	X_WP:	0.000	Y_WP:	0.000	Y_WP:	0.500	X:	0.123	Y:	0.110	Z:	0.049	yaw:	-3.983	yaw rate:	1.419	Roll:	3.346	Pitch:	3.425	Yaw:	-5.405	Thrust:	26.809
Time:	2.249	Roll Set Point:	-0.236	Pitch Set Point:	-0.229	Yaw Set Point:	0.074	X_WP:	0.000	Y_WP:	0.000	Y_WP:	0.500	X:	0.122	Y:	0.110	Z:	0.049	yaw:	-4.236	yaw rate:	-25.286	Roll:	2.741	Pitch:	4.106	Yaw:	-9.869	Thrust:	27.677
Time:	2.266	Roll Set Point:	-0.237	Pitch Set Point:	-0.229	Yaw Set Point:	0.074	X_WP:	0.000	Y_WP:	0.000	Y_WP:	0.500	X:	0.123	Y:	0.110	Z:	0.049	yaw:	-4.245	yaw rate:	-0.961	Roll:	3.437	Pitch:	3.449	Yaw:	-6.171	Thrust:	28.644
Time:	2.283	Roll Set Point:	-0.237	Pitch Set Point:	-0.228	Yaw Set Point:	0.071	X_WP:	0.000	Y_WP:	0.000	Y_WP:	0.500	X:	0.123	Y:	0.110	Z:	0.049	yaw:	-4.055	yaw rate:	19.011	Roll:	3.661	Pitch:	2.971	Yaw:	-2.869	Thrust:	29.732
Time:	2.300	Roll Set Point:	-0.237	Pitch Set Point:	-0.229	Yaw Set Point:	0.071	X_WP:	0.000	Y_WP:	0.000	Y_WP:	0.500	X:	0.123	Y:	0.110	Z:	0.049	yaw:	-4.059	yaw rate:	-0.427	Roll:	3.438	Pitch:	3.570	Yaw:	-5.879	Thrust:	29.739
Time:	2.318	Roll Set Point:	-0.237	Pitch Set Point:	-0.229	Yaw Set Point:	0.072	X_WP:	0.000	Y_WP:	0.000	Y_WP:	0.500	X:	0.122	Y:	0.110	Z:	0.049	yaw:	-4.151	yaw rate:	-16.295	Roll:	3.016	Pitch:	3.719	Yaw:	-7.301	Thrust:	31.499
Time:	2.335	Roll Set Point:	-0.236	Pitch Set Point:	-0.229	Yaw Set Point:	0.077	X_WP:	0.000	Y_WP:	0.000	Y_WP:	0.500	X:	0.122	Y:	0.110	Z:	0.049	yaw:	-4.405	yaw rate:	-25.419	Roll:	2.741	Pitch:	3.914	Yaw:	-10.245	Thrust:	33.100
Time:	2.353	Roll Set Point:	-0.236	Pitch Set Point:	-0.229	Yaw Set Point:	0.080	X_WP:	0.000	Y_WP:	0.000	Y_WP:	0.500	X:	0.122	Y:	0.110	Z:	0.050	yaw:	-4.588	yaw rate:	-18.284	Roll:	2.959	Pitch:	3.728	Yaw:	-9.368	Thrust:	32.277
Time:	2.370	Roll Set Point:	-0.237	Pitch Set Point:	-0.229	Yaw Set Point:	0.073	X_WP:	0.000	Y_WP:	0.000	Y_WP:	0.500	X:	0.123	Y:	0.110	Z:	0.049	yaw:	-4.156	yaw rate:	23.429	Roll:	4.394	Pitch:	2.772	Yaw:	0.588	Thrust:	34.155
Time:	2.386	Roll Set Point:	-0.236	Pitch Set Point:	-0.229	Yaw Set Point:	0.073	X_WP:	0.000	Y_WP:	0.000	Y_WP:	0.500	X:	0.122	Y:	0.110	Z:	0.049	yaw:	-4.166	yaw rate:	-1.026	Roll:	3.173	Pitch:	3.525	Yaw:	-6.242	Thrust:	34.917
Time:	2.402	Roll Set Point:	-0.237	Pitch Set Point:	-0.229	Yaw Set Point:	0.073	X_WP:	0.000	Y_WP:	0.000	Y_WP:	0.500	X:	0.123	Y:	0.110	Z:	0.050	yaw:	-4.198	yaw rate:	-3.128	Roll:	3.447	Pitch:	3.585	Yaw:	-6.646	Thrust:	34.677
Time:	2.419	Roll Set Point:	-0.236	Pitch Set Point:	-0.229	Yaw Set Point:	0.078	X_WP:	0.000	Y_WP:	0.000	Y_WP:	0.500	X:	0.122	Y:	0.110	Z:	0.049	yaw:	-4.476	yaw rate:	-27.833	Roll:	2.656	Pitch:	3.977	Yaw:	-10.847	Thrust:	36.995
Time:	2.436	Roll Set Point:	-0.238	Pitch Set Point:	-0.228	Yaw Set Point:	0.068	X_WP:	0.000	Y_WP:	0.000	Y_WP:	0.500	X:	0.123	Y:	0.110	Z:	0.050	yaw:	-3.895	yaw rate:	58.118	Roll:	4.843	Pitch:	2.452	Yaw:	3.154	Thrust:	37.454
Time:	2.453	Roll Set Point:	-0.237	Pitch Set Point:	-0.228	Yaw Set Point:	0.068	X_WP:	0.000	Y_WP:	0.000	Y_WP:	0.500	X:	0.123	Y:	0.110	Z:	0.049	yaw:	-3.880	yaw rate:	1.499	Roll:	3.387	Pitch:	3.459	Yaw:	-5.560	Thrust:	39.079
Time:	2.470	Roll Set Point:	-0.238	Pitch Set Point:	-0.228	Yaw Set Point:	0.065	X_WP:	0.000	Y_WP:	0.000	Y_WP:	0.500	X:	0.123	Y:	0.110	Z:	0.049	yaw:	-3.746	yaw rate:	13.420	Roll:	3.713	Pitch:	3.260	Yaw:	-3.564	Thrust:	39.452
Time:	2.487	Roll Set Point:	-0.237	Pitch Set Point:	-0.229	Yaw Set Point:	0.072	X_WP:	0.000	Y_WP:	0.000	Y_WP:	0.500	X:	0.123	Y:	0.110	Z:	0.049	yaw:	-4.111	yaw rate:	-36.510	Roll:	2.611	Pitch:	4.195	Yaw:	-11.766	Thrust:	40.282
Time:	2.504	Roll Set Point:	-0.236	Pitch Set Point:	-0.229	Yaw Set Point:	0.075	X_WP:	0.000	Y_WP:	0.000	Y_WP:	0.500	X:	0.123	Y:	0.110	Z:	0.049	yaw:	-4.279	yaw rate:	-16.884	Roll:	2.990	Pitch:	3.722	Yaw:	-9.010	Thrust:	41.465
Time:	2.522	Roll Set Point:	-0.236	Pitch Set Point:	-0.229	Yaw Set Point:	0.081	X_WP:	0.000	Y_WP:	0.000	Y_WP:	0.500	X:	0.122	Y:	0.110	Z:	0.049	yaw:	-4.624	yaw rate:	-34.441	Roll:	2.650	Pitch:	4.289	Yaw:	-12.221	Thrust:	42.305
Time:	2.539	Roll Set Point:	-0.237	Pitch Set Point:	-0.229	Yaw Set Point:	0.074	X_WP:	0.000	Y_WP:	0.000	Y_WP:	0.500	X:	0.123	Y:	0.110	Z:	0.049	yaw:	-4.242	yaw rate:	38.226	Roll:	4.380	Pitch:	2.834	Yaw:	-0.555	Thrust:	42.947
Time:	2.556	Roll Set Point:	-0.237	Pitch Set Point:	-0.229	Yaw Set Point:	0.074	X_WP:	0.000	Y_WP:	0.000	Y_WP:	0.500	X:	0.123	Y:	0.110	Z:	0.050	yaw:	-4.225	yaw rate:	1.695	Roll:	3.289	Pitch:	3.520	Yaw:	-6.158	Thrust:	43.902
Time:	2.573	Roll Set Point:	-0.237	Pitch Set Point:	-0.229	Yaw Set Point:	0.073	X_WP:	0.000	Y_WP:	0.000	Y_WP:	0.500	X:	0.123	Y:	0.110	Z:	0.050	yaw:	-4.158	yaw rate:	6.690	Roll:	3.569	Pitch:	3.512	Yaw:	-5.324	Thrust:	45.206
Time:	2.591	Roll Set Point:	-0.236	Pitch Set Point:	-0.229	Yaw Set Point:	0.080	X_WP:	0.000	Y_WP:	0.000	Y_WP:	0.500	X:	0.122	Y:	0.110	Z:	0.049	yaw:	-4.562	yaw rate:	-40.441	Roll:	2.553	Pitch:	4.199	Yaw:	-12.834	Thrust:	47.524
Time:	2.609	Roll Set Point:	-0.236	Pitch Set Point:	-0.229	Yaw Set Point:	0.078	X_WP:	0.000	Y_WP:	0.000	Y_WP:	0.500	X:	0.122	Y:	0.110	Z:	0.049	yaw:	-4.463	yaw rate:	9.872	Roll:	3.620	Pitch:	3.395	Yaw:	-5.430	Thrust:	48.162
Time:	2.627	Roll Set Point:	-0.237	Pitch Set Point:	-0.229	Yaw Set Point:	0.071	X_WP:	0.000	Y_WP:	0.000	Y_WP:	0.500	X:	0.123	Y:	0.110	Z:	0.049	yaw:	-4.070	yaw rate:	39.311	Roll:	4.373	Pitch:	2.975	Yaw:	-0.642	Thrust:	49.300
Time:	2.646	Roll Set Point:	-0.236	Pitch Set Point:	-0.229	Yaw Set Point:	0.076	X_WP:	0.000	Y_WP:	0.000	Y_WP:	0.500	X:	0.122	Y:	0.110	Z:	0.049	yaw:	-4.352	yaw rate:	-28.154	Roll:	2.612	Pitch:	3.936	Yaw:	-10.670	Thrust:	51.383
Time:	2.664	Roll Set Point:	-0.237	Pitch Set Point:	-0.228	Yaw Set Point:	0.068	X_WP:	0.000	Y_WP:	0.000	Y_WP:	0.500	X:	0.122	Y:	0.110	Z:	0.049	yaw:	-3.888	yaw rate:	46.344	Roll:	4.437	Pitch:	2.732	Yaw:	0.580	Thrust:	51.270
Time:	2.682	Roll Set Point:	-0.237	Pitch Set Point:	-0.228	Yaw Set Point:	0.070	X_WP:	0.000	Y_WP:	0.000	Y_WP:	0.500	X:	0.122	Y:	0.110	Z:	0.049	yaw:	-3.984	yaw rate:	-9.566	Roll:	3.301	Pitch:	3.898	Yaw:	-7.689	Thrust:	52.013
Time:	2.700	Roll Set Point:	-0.236	Pitch Set Point:	-0.228	Yaw Set Point:	0.070	X_WP:	0.000	Y_WP:	0.000	Y_WP:	0.500	X:	0.122	Y:	0.110	Z:	0.050	yaw:	-4.017	yaw rate:	-5.191	Roll:	3.240	Pitch:	3.486	Yaw:	-6.853	Thrust:	51.737
Time:	2.719	Roll Set Point:	-0.237	Pitch Set Point:	-0.228	Yaw Set Point:	0.067	X_WP:	0.000	Y_WP:	0.000	Y_WP:	0.500	X:	0.122	Y:	0.110	Z:	0.050	yaw:	-3.838	yaw rate:	17.938	Roll:	3.676	Pitch:	3.203	Yaw:	-3.731	Thrust:	55.847
Time:	2.737	Roll Set Point:	-0.236	Pitch Set Point:	-0.228	Yaw Set Point:	0.070	X_WP:	0.000	Y_WP:	0.000	Y_WP:	0.500	X:	0.122	Y:	0.110	Z:	0.050	yaw:	-4.012	yaw rate:	-17.412	Roll:	2.854	Pitch:	3.734	Yaw:	-8.943	Thrust:	54.290
Time:	2.757	Roll Set Point:	-0.236	Pitch Set Point:	-0.227	Yaw Set Point:	0.062	X_WP:	0.000	Y_WP:	0.000	Y_WP:	0.500	X:	0.122	Y:	0.110	Z:	0.050	yaw:	-3.576	yaw rate:	43.565	Roll:	4.189	Pitch:	2.736	Yaw:	0.108	Thrust:	56.895
Time:	2.775	Roll Set Point:	-0.238	Pitch Set Point:	-0.224	Yaw Set Point:	0.047	X_WP:	0.000	Y_WP:	0.000	Y_WP:	0.500	X:	0.121	Y:	0.109	Z:	0.051	yaw:	-2.703	yaw rate:	87.331	Roll:	4.919	Pitch:	1.614	Yaw:	7.318	Thrust:	57.829
Time:	2.793	Roll Set Point:	-0.236	Pitch Set Point:	-0.224	Yaw Set Point:	0.052	X_WP:	0.000	Y_WP:	0.000	Y_WP:	0.500	X:	0.121	Y:	0.109	Z:	0.051	yaw:	-2.954	yaw rate:	-25.106	Roll:	2.770	Pitch:	3.844	Yaw:	-8.644	Thrust:	56.858
Time:	2.810	Roll Set Point:	-0.237	Pitch Set Point:	-0.222	Yaw Set Point:	0.038	X_WP:	0.000	Y_WP:	0.000	Y_WP:	0.500	X:	0.121	Y:	0.109	Z:	0.052	yaw:	-2.196	yaw rate:	75.762	Roll:	4.706	Pitch:	1.681	Yaw:	7.703	Thrust:	55.879
Time:	2.827	Roll Set Point:	-0.237	Pitch Set Point:	-0.221	Yaw Set Point:	0.033	X_WP:	0.000	Y_WP:	0.000	Y_WP:	0.500	X:	0.120	Y:	0.108	Z:	0.052	yaw:	-1.897	yaw rate:	29.968	Roll:	3.796	Pitch:	2.371	Yaw:	1.096	Thrust:	57.658
Time:	2.844	Roll Set Point:	-0.238	Pitch Set Point:	-0.218	Yaw Set Point:	0.015	X_WP:	0.000	Y_WP:	0.000	Y_WP:	0.500	X:	0.120	Y:	0.108	Z:	0.052	yaw:	-0.874	yaw rate:	33.458	Roll:	5.277	Pitch:	0.799	Yaw:	13.611	Thrust:	56.763
Time:	2.861	Roll Set Point:	-0.239	Pitch Set Point:	-0.214	Yaw Set Point:	-0.001	X_WP:	0.000	Y_WP:	0.000	Y_WP:	0.500	X:	0.119	Y:	0.107	Z:	0.053	yaw:	0.049	yaw rate:	-4.983	Roll:	4.709	Pitch:	0.611	Yaw:	13.368	Thrust:	57.869
Time:	2.879	Roll Set Point:	-0.239	Pitch Set Point:	-0.213	Yaw Set Point:	-0.009	X_WP:	0.000	Y_WP:	0.000	Y_WP:	0.500	X:	0.119	Y:	0.107	Z:	0.054	yaw:	0.503	yaw rate:	45.425	Roll:	4.166	Pitch:	2.092	Yaw:	6.373	Thrust:	60.994
Time:	2.900	Roll Set Point:	-0.237	Pitch Set Point:	-0.211	Yaw Set Point:	-0.010	X_WP:	0.000	Y_WP:	0.000	Y_WP:	0.500	X:	0.118	Y:	0.106	Z:	0.054	yaw:	0.579	yaw rate:	7.577	Roll:	2.885	Pitch:	2.353	Yaw:	0.770	Thrust:	66.317
Time:	2.917	Roll Set Point:	-0.237	Pitch Set Point:	-0.208	Yaw Set Point:	-0.023	X_WP:	0.000	Y_WP:	0.000	Y_WP:	0.500	X:	0.117	Y:	0.105	Z:	0.055	yaw:	1.318	yaw rate:	73.984	Roll:	4.178	Pitch:	1.096	Yaw:	12.335	Thrust:	60.235
Time:	2.934	Roll Set Point:	-0.234	Pitch Set Point:	-0.206	Yaw Set Point:	-0.024	X_WP:	0.000	Y_WP:	0.000	Y_WP:	0.500	X:	0.116	Y:	0.104	Z:	0.056	yaw:	1.387	yaw rate:	6.836	Roll:	2.352	Pitch:	1.967	Yaw:	2.125	Thrust:	59.863
Time:	2.951	Roll Set Point:	-0.231	Pitch Set Point:	-0.202	Yaw Set Point:	-0.029	X_WP:	0.000	Y_WP:	0.000	Y_WP:	0.500	X:	0.114	Y:	0.103	Z:	0.057	yaw:	1.644	yaw rate:	-15.933	Roll:	2.093	Pitch:	1.202	Yaw:	5.387	Thrust:	61.005
Time:	2.968	Roll Set Point:	-0.226	Pitch Set Point:	-0.198	Yaw Set Point:	-0.036	X_WP:	0.000	Y_WP:	0.000	Y_WP:	0.500	X:	0.111	Y:	0.101	Z:	0.059	yaw:	2.081	yaw rate:	-16.117	Roll:	1.537	Pitch:	0.295	Yaw:	8.566	Thrust:	62.042
Time:	2.985	Roll Set Point:	-0.224	Pitch Set Point:	-0.195	Yaw Set Point:	-0.043	X_WP:	0.000	Y_WP:	0.000	Y_WP:	0.500	X:	0.110	Y:	0.100	Z:	0.060	yaw:	2.449	yaw rate:	36.849	Roll:	2.896	Pitch:	1.532	Yaw:	8.249	Thrust:	63.579
Time:	3.002	Roll Set Point:	-0.221	Pitch Set Point:	-0.193	Yaw Set Point:	-0.044	X_WP:	0.000	Y_WP:	0.000	Y_WP:	0.500	X:	0.108	Y:	0.099	Z:	0.060	yaw:	2.534	yaw rate:	8.462	Roll:	2.171	Pitch:	1.645	Yaw:	4.023	Thrust:	64.857
Time:	3.019	Roll Set Point:	-0.216	Pitch Set Point:	-0.188	Yaw Set Point:	-0.049	X_WP:	0.000	Y_WP:	0.000	Y_WP:	0.500	X:	0.106	Y:	0.097	Z:	0.062	yaw:	2.794	yaw rate:	26.008	Roll:	0.845	Pitch:	0.350	Yaw:	7.086	Thrust:	63.281
Time:	3.036	Roll Set Point:	-0.212	Pitch Set Point:	-0.184	Yaw Set Point:	-0.060	X_WP:	0.000	Y_WP:	0.000	Y_WP:	0.500	X:	0.103	Y:	0.095	Z:	0.063	yaw:	3.446	yaw rate:	65.251	Roll:	2.125	Pitch:	0.007	Yaw:	14.066	Thrust:	64.559
Time:	3.053	Roll Set Point:	-0.208	Pitch Set Point:	-0.179	Yaw Set Point:	-0.068	X_WP:	0.000	Y_WP:	0.000	Y_WP:	0.500	X:	0.101	Y:	0.093	Z:	0.064	yaw:	3.892	yaw rate:	44.609	Roll:	1.408	Pitch:	-0.183	Yaw:	11.520	Thrust:	65.692
Time:	3.070	Roll Set Point:	-0.202	Pitch Set Point:	-0.173	Yaw Set Point:	-0.072	X_WP:	0.000	Y_WP:	0.000	Y_WP:	0.500	X:	0.098	Y:	0.090	Z:	0.067	yaw:	4.126	yaw rate:	23.347	Roll:	0.296	Pitch:	-0.292	Yaw:	8.605	Thrust:	63.732
Time:	3.087	Roll Set Point:	-0.192	Pitch Set Point:	-0.165	Yaw Set Point:	-0.073	X_WP:	0.000	Y_WP:	0.000	Y_WP:	0.500	X:	0.093	Y:	0.086	Z:	0.070	yaw:	4.195	yaw rate:	4.179	Roll:	-1.945	Pitch:	-1.350	Yaw:	6.208	Thrust:	62.180
Time:	3.105	Roll Set Point:	-0.187	Pitch Set Point:	-0.161	Yaw Set Point:	-0.074	X_WP:	0.000	Y_WP:	0.000	Y_WP:	0.500	X:	0.091	Y:	0.084	Z:	0.071	yaw:	4.220	yaw rate:	2.490	Roll:	0.801	Pitch:	0.827	Yaw:	5.583	Thrust:	67.817
Time:	3.122	Roll Set Point:	-0.181	Pitch Set Point:	-0.156	Yaw Set Point:	-0.073	X_WP:	0.000	Y_WP:	0.000	Y_WP:	0.500	X:	0.088	Y:	0.081	Z:	0.073	yaw:	4.202	yaw rate:	-1.862	Roll:	-0.406	Pitch:	-0.174	Yaw:	4.914	Thrust:	66.775
Time:	3.139	Roll Set Point:	-0.172	Pitch Set Point:	-0.148	Yaw Set Point:	-0.076	X_WP:	0.000	Y_WP:	0.000	Y_WP:	0.500	X:	0.083	Y:	0.077	Z:	0.076	yaw:	4.375	yaw rate:	17.363	Roll:	-1.591	Pitch:	-1.438	Yaw:	8.134	Thrust:	63.618
Time:	3.156	Roll Set Point:	-0.165	Pitch Set Point:	-0.142	Yaw Set Point:	-0.084	X_WP:	0.000	Y_WP:	0.000	Y_WP:	0.500	X:	0.080	Y:	0.074	Z:	0.079	yaw:	4.784	yaw rate:	40.899	Roll:	-0.272	Pitch:	-1.207	Yaw:	12.138	Thrust:	68.590
Time:	3.174	Roll Set Point:	-0.155	Pitch Set Point:	-0.133	Yaw Set Point:	-0.077	X_WP:	0.000	Y_WP:	0.000	Y_WP:	0.500	X:	0.075	Y:	0.070	Z:	0.082	yaw:	4.413	yaw rate:	-37.171	Roll:	-2.732	Pitch:	-1.404	Yaw:	0.012	Thrust:	66.494
Time:	3.191	Roll Set Point:	-0.149	Pitch Set Point:	-0.127	Yaw Set Point:	-0.088	X_WP:	0.000	Y_WP:	0.000	Y_WP:	0.500	X:	0.072	Y:	0.067	Z:	0.086	yaw:	5.058	yaw rate:	64.539	Roll:	-0.535	Pitch:	-1.700	Yaw:	16.414	Thrust:	65.925
Time:	3.208	Roll Set Point:	-0.136	Pitch Set Point:	-0.116	Yaw Set Point:	-0.088	X_WP:	0.000	Y_WP:	0.000	Y_WP:	0.500	X:	0.065	Y:	0.061	Z:	0.091	yaw:	5.045	yaw rate:	0.423	Roll:	-4.390	Pitch:	-3.313	Yaw:	6.309	Thrust:	61.706
Time:	3.225	Roll Set Point:	-0.128	Pitch Set Point:	-0.109	Yaw Set Point:	-0.088	X_WP:	0.000	Y_WP:	0.000	Y_WP:	0.500	X:	0.062	Y:	0.057	Z:	0.094	yaw:	5.026	yaw rate:	-1.850	Roll:	-1.774	Pitch:	-1.349	Yaw:	6.233	Thrust:	67.383
Time:	3.242	Roll Set Point:	-0.122	Pitch Set Point:	-0.104	Yaw Set Point:	-0.083	X_WP:	0.000	Y_WP:	0.000	Y_WP:	0.500	X:	0.059	Y:	0.055	Z:	0.096	yaw:	4.736	yaw rate:	-29.034	Roll:	-1.065	Pitch:	-0.291	Yaw:	1.682	Thrust:	70.566
Time:	3.259	Roll Set Point:	-0.113	Pitch Set Point:	-0.095	Yaw Set Point:	-0.091	X_WP:	0.000	Y_WP:	0.000	Y_WP:	0.500	X:	0.054	Y:	0.050	Z:	0.102	yaw:	5.191	yaw rate:	45.478	Roll:	-2.800	Pitch:	-3.197	Yaw:	13.799	Thrust:	63.511
Time:	3.276	Roll Set Point:	-0.104	Pitch Set Point:	-0.088	Yaw Set Point:	-0.086	X_WP:	0.000	Y_WP:	0.000	Y_WP:	0.500	X:	0.050	Y:	0.046	Z:	0.105	yaw:	4.949	yaw rate:	-24.142	Roll:	-2.489	Pitch:	-1.738	Yaw:	2.795	Thrust:	67.799
Time:	3.294	Roll Set Point:	-0.089	Pitch Set Point:	-0.074	Yaw Set Point:	-0.098	X_WP:	0.000	Y_WP:	0.000	Y_WP:	0.500	X:	0.043	Y:	0.039	Z:	0.114	yaw:	5.620	yaw rate:	81.100	Roll:	-5.457	Pitch:	-5.360	Yaw:	17.150	Thrust:	59.801
Time:	3.311	Roll Set Point:	-0.084	Pitch Set Point:	-0.069	Yaw Set Point:	-0.089	X_WP:	0.000	Y_WP:	0.000	Y_WP:	0.500	X:	0.040	Y:	0.036	Z:	0.117	yaw:	5.102	yaw rate:	-51.812	Roll:	-1.625	Pitch:	-0.699	Yaw:	-1.172	Thrust:	71.102
Time:	3.328	Roll Set Point:	-0.076	Pitch Set Point:	-0.062	Yaw Set Point:	-0.096	X_WP:	0.000	Y_WP:	0.000	Y_WP:	0.500	X:	0.037	Y:	0.033	Z:	0.122	yaw:	5.522	yaw rate:	42.001	Roll:	-2.313	Pitch:	-2.159	Yaw:	13.852	Thrust:	66.958
Time:	3.345	Roll Set Point:	-0.068	Pitch Set Point:	-0.055	Yaw Set Point:	-0.101	X_WP:	0.000	Y_WP:	0.000	Y_WP:	0.500	X:	0.033	Y:	0.029	Z:	0.126	yaw:	5.766	yaw rate:	24.389	Roll:	-2.652	Pitch:	-2.435	Yaw:	11.511	Thrust:	67.439
Time:	3.362	Roll Set Point:	-0.061	Pitch Set Point:	-0.049	Yaw Set Point:	-0.096	X_WP:	0.000	Y_WP:	0.000	Y_WP:	0.500	X:	0.029	Y:	0.026	Z:	0.131	yaw:	5.521	yaw rate:	-24.476	Roll:	-2.876	Pitch:	-2.062	Yaw:	3.704	Thrust:	68.316
Time:	3.379	Roll Set Point:	-0.051	Pitch Set Point:	-0.040	Yaw Set Point:	-0.095	X_WP:	0.000	Y_WP:	0.000	Y_WP:	0.500	X:	0.024	Y:	0.021	Z:	0.138	yaw:	5.433	yaw rate:	-8.800	Roll:	-4.165	Pitch:	-3.183	Yaw:	6.016	Thrust:	62.898
Time:	3.396	Roll Set Point:	-0.043	Pitch Set Point:	-0.034	Yaw Set Point:	-0.094	X_WP:	0.000	Y_WP:	0.000	Y_WP:	0.500	X:	0.021	Y:	0.018	Z:	0.142	yaw:	5.375	yaw rate:	-5.811	Roll:	-2.948	Pitch:	-2.344	Yaw:	6.425	Thrust:	68.787
Time:	3.413	Roll Set Point:	-0.033	Pitch Set Point:	-0.025	Yaw Set Point:	-0.085	X_WP:	0.000	Y_WP:	0.000	Y_WP:	0.500	X:	0.016	Y:	0.013	Z:	0.149	yaw:	4.850	yaw rate:	-52.500	Roll:	-4.266	Pitch:	-3.118	Yaw:	-1.434	Thrust:	62.961
Time:	3.431	Roll Set Point:	-0.027	Pitch Set Point:	-0.019	Yaw Set Point:	-0.093	X_WP:	0.000	Y_WP:	0.000	Y_WP:	0.500	X:	0.013	Y:	0.010	Z:	0.155	yaw:	5.312	yaw rate:	46.162	Roll:	-2.828	Pitch:	-2.457	Yaw:	14.392	Thrust:	68.136
Time:	3.448	Roll Set Point:	-0.019	Pitch Set Point:	-0.014	Yaw Set Point:	-0.091	X_WP:	0.000	Y_WP:	0.000	Y_WP:	0.500	X:	0.009	Y:	0.007	Z:	0.160	yaw:	5.238	yaw rate:	-7.408	Roll:	-3.082	Pitch:	-2.189	Yaw:	6.083	Thrust:	68.503
Time:	3.465	Roll Set Point:	-0.010	Pitch Set Point:	-0.006	Yaw Set Point:	-0.079	X_WP:	0.000	Y_WP:	0.000	Y_WP:	0.500	X:	0.005	Y:	0.003	Z:	0.167	yaw:	4.544	yaw rate:	-69.340	Roll:	-4.225	Pitch:	-3.325	Yaw:	-4.385	Thrust:	62.953
Time:	3.482	Roll Set Point:	-0.004	Pitch Set Point:	-0.000	Yaw Set Point:	-0.081	X_WP:	0.000	Y_WP:	0.000	Y_WP:	0.500	X:	0.002	Y:	0.000	Z:	0.173	yaw:	4.632	yaw rate:	8.761	Roll:	-2.913	Pitch:	-2.189	Yaw:	7.777	Thrust:	68.734
Time:	3.499	Roll Set Point:	0.004	Pitch Set Point:	0.007	Yaw Set Point:	-0.072	X_WP:	0.000	Y_WP:	0.000	Y_WP:	0.500	X:	-0.002	Y:	-0.003	Z:	0.180	yaw:	4.151	yaw rate:	-48.050	Roll:	-4.085	Pitch:	-3.184	Yaw:	-1.582	Thrust:	63.644
Time:	3.516	Roll Set Point:	0.010	Pitch Set Point:	0.011	Yaw Set Point:	-0.079	X_WP:	0.000	Y_WP:	0.000	Y_WP:	0.500	X:	-0.005	Y:	-0.006	Z:	0.186	yaw:	4.546	yaw rate:	39.484	Roll:	-2.653	Pitch:	-2.120	Yaw:	12.426	Thrust:	68.248
Time:	3.533	Roll Set Point:	0.018	Pitch Set Point:	0.018	Yaw Set Point:	-0.072	X_WP:	0.000	Y_WP:	0.000	Y_WP:	0.500	X:	-0.008	Y:	-0.009	Z:	0.194	yaw:	4.103	yaw rate:	-13.517	Roll:	-3.930	Pitch:	-3.142	Yaw:	-1.036	Thrust:	63.922
Time:	3.550	Roll Set Point:	0.022	Pitch Set Point:	0.022	Yaw Set Point:	-0.065	X_WP:	0.000	Y_WP:	0.000	Y_WP:	0.500	X:	-0.011	Y:	-0.012	Z:	0.200	yaw:	3.696	yaw rate:	-40.663	Roll:	-2.530	Pitch:	-2.195	Yaw:	-0.948	Thrust:	68.731
Time:	3.567	Roll Set Point:	0.027	Pitch Set Point:	0.027	Yaw Set Point:	-0.064	X_WP:	0.000	Y_WP:	0.000	Y_WP:	0.500	X:	-0.013	Y:	-0.014	Z:	0.206	yaw:	3.686	yaw rate:	-1.067	Roll:	-2.576	Pitch:	-2.098	Yaw:	5.073	Thrust:	68.550
Time:	3.584	Roll Set Point:	0.036	Pitch Set Point:	0.034	Yaw Set Point:	-0.061	X_WP:	0.000	Y_WP:	0.000	Y_WP:	0.500	X:	-0.018	Y:	-0.018	Z:	0.218	yaw:	3.478	yaw rate:	-31.775	Roll:	-4.733	Pitch:	-3.889	Yaw:	1.779	Thrust:	52.369
Time:	3.601	Roll Set Point:	0.038	Pitch Set Point:	0.037	Yaw Set Point:	-0.055	X_WP:	0.000	Y_WP:	0.000	Y_WP:	0.500	X:	-0.019	Y:	-0.019	Z:	0.222	yaw:	3.162	yaw rate:	-31.642	Roll:	-1.409	Pitch:	-1.397	Yaw:	-0.322	Thrust:	73.569
Time:	3.617	Roll Set Point:	0.041	Pitch Set Point:	0.039	Yaw Set Point:	-0.054	X_WP:	0.000	Y_WP:	0.000	Y_WP:	0.500	X:	-0.020	Y:	-0.020	Z:	0.226	yaw:	3.070	yaw rate:	-9.214	Roll:	-1.851	Pitch:	-1.431	Yaw:	2.925	Thrust:	69.474
Time:	3.634	Roll Set Point:	0.048	Pitch Set Point:	0.045	Yaw Set Point:	-0.045	X_WP:	0.000	Y_WP:	0.000	Y_WP:	0.500	X:	-0.023	Y:	-0.023	Z:	0.239	yaw:	2.572	yaw rate:	-6.532	Roll:	-3.684	Pitch:	-3.563	Yaw:	-3.875	Thrust:	50.220
Time:	3.651	Roll Set Point:	0.050	Pitch Set Point:	0.047	Yaw Set Point:	-0.043	X_WP:	0.000	Y_WP:	0.000	Y_WP:	0.500	X:	-0.024	Y:	-0.024	Z:	0.244	yaw:	2.436	yaw rate:	-13.586	Roll:	-1.290	Pitch:	-1.155	Yaw:	1.500	Thrust:	73.854
Time:	3.669	Roll Set Point:	0.052	Pitch Set Point:	0.049	Yaw Set Point:	-0.048	X_WP:	0.000	Y_WP:	0.000	Y_WP:	0.500	X:	-0.026	Y:	-0.025	Z:	0.250	yaw:	2.753	yaw rate:	31.677	Roll:	-1.845	Pitch:	-1.268	Yaw:	8.738	Thrust:	70.810
Time:	3.686	Roll Set Point:	0.055	Pitch Set Point:	0.051	Yaw Set Point:	-0.046	X_WP:	0.000	Y_WP:	0.000	Y_WP:	0.500	X:	-0.027	Y:	-0.026	Z:	0.257	yaw:	2.643	yaw rate:	-11.057	Roll:	-1.635	Pitch:	-1.550	Yaw:	2.208	Thrust:	67.938
Time:	3.703	Roll Set Point:	0.057	Pitch Set Point:	0.053	Yaw Set Point:	-0.042	X_WP:	0.000	Y_WP:	0.000	Y_WP:	0.500	X:	-0.028	Y:	-0.027	Z:	0.264	yaw:	2.400	yaw rate:	-24.230	Roll:	-1.652	Pitch:	-1.574	Yaw:	-0.138	Thrust:	68.150
Time:	3.720	Roll Set Point:	0.059	Pitch Set Point:	0.055	Yaw Set Point:	-0.038	X_WP:	0.000	Y_WP:	0.000	Y_WP:	0.500	X:	-0.029	Y:	-0.028	Z:	0.273	yaw:	2.193	yaw rate:	-20.730	Roll:	-1.519	Pitch:	-1.648	Yaw:	0.124	Thrust:	60.986
Time:	3.738	Roll Set Point:	0.060	Pitch Set Point:	0.058	Yaw Set Point:	-0.028	X_WP:	0.000	Y_WP:	0.000	Y_WP:	0.500	X:	-0.030	Y:	-0.029	Z:	0.285	yaw:	1.617	yaw rate:	-58.292	Roll:	-1.251	Pitch:	-1.937	Yaw:	-6.162	Thrust:	57.068
Time:	3.755	Roll Set Point:	0.061	Pitch Set Point:	0.058	Yaw Set Point:	-0.034	X_WP:	0.000	Y_WP:	0.000	Y_WP:	0.500	X:	-0.030	Y:	-0.030	Z:	0.289	yaw:	1.950	yaw rate:	33.356	Roll:	-1.017	Pitch:	-0.612	Yaw:	8.107	Thrust:	73.198
Time:	3.772	Roll Set Point:	0.061	Pitch Set Point:	0.060	Yaw Set Point:	-0.023	X_WP:	0.000	Y_WP:	0.000	Y_WP:	0.500	X:	-0.030	Y:	-0.030	Z:	0.296	yaw:	1.317	yaw rate:	-63.303	Roll:	-0.716	Pitch:	-1.432	Yaw:	-7.605	Thrust:	67.217
Time:	3.789	Roll Set Point:	0.061	Pitch Set Point:	0.060	Yaw Set Point:	-0.019	X_WP:	0.000	Y_WP:	0.000	Y_WP:	0.500	X:	-0.030	Y:	-0.030	Z:	0.308	yaw:	1.110	yaw rate:	-74.260	Roll:	-0.517	Pitch:	-1.018	Yaw:	-1.351	Thrust:	53.935
Time:	3.806	Roll Set Point:	0.061	Pitch Set Point:	0.060	Yaw Set Point:	-0.027	X_WP:	0.000	Y_WP:	0.000	Y_WP:	0.500	X:	-0.030	Y:	-0.031	Z:	0.315	yaw:	1.572	yaw rate:	46.206	Roll:	-0.718	Pitch:	-0.479	Yaw:	9.584	Thrust:	66.366
Time:	3.823	Roll Set Point:	0.061	Pitch Set Point:	0.060	Yaw Set Point:	-0.024	X_WP:	0.000	Y_WP:	0.000	Y_WP:	0.500	X:	-0.030	Y:	-0.031	Z:	0.320	yaw:	1.388	yaw rate:	-18.344	Roll:	-0.316	Pitch:	-0.705	Yaw:	-0.583	Thrust:	72.163
Time:	3.840	Roll Set Point:	0.059	Pitch Set Point:	0.060	Yaw Set Point:	-0.017	X_WP:	0.000	Y_WP:	0.000	Y_WP:	0.500	X:	-0.029	Y:	-0.030	Z:	0.335	yaw:	0.979	yaw rate:	-4.388	Roll:	0.229	Pitch:	-0.744	Yaw:	-4.614	Thrust:	46.778
Time:	3.857	Roll Set Point:	0.058	Pitch Set Point:	0.061	Yaw Set Point:	-0.011	X_WP:	0.000	Y_WP:	0.000	Y_WP:	0.500	X:	-0.029	Y:	-0.030	Z:	0.340	yaw:	0.634	yaw rate:	-34.442	Roll:	-0.005	Pitch:	-0.721	Yaw:	-4.086	Thrust:	72.026
Time:	3.874	Roll Set Point:	0.056	Pitch Set Point:	0.059	Yaw Set Point:	-0.014	X_WP:	0.000	Y_WP:	0.000	Y_WP:	0.500	X:	-0.028	Y:	-0.030	Z:	0.352	yaw:	0.824	yaw rate:	0.690	Roll:	0.638	Pitch:	0.031	Yaw:	4.392	Thrust:	52.917
Time:	3.891	Roll Set Point:	0.055	Pitch Set Point:	0.059	Yaw Set Point:	-0.010	X_WP:	0.000	Y_WP:	0.000	Y_WP:	0.500	X:	-0.027	Y:	-0.030	Z:	0.357	yaw:	0.556	yaw rate:	-26.818	Roll:	0.057	Pitch:	-0.589	Yaw:	-3.010	Thrust:	72.367
Time:	3.908	Roll Set Point:	0.052	Pitch Set Point:	0.058	Yaw Set Point:	-0.014	X_WP:	0.000	Y_WP:	0.000	Y_WP:	0.500	X:	-0.026	Y:	-0.029	Z:	0.366	yaw:	0.806	yaw rate:	58.904	Roll:	0.710	Pitch:	0.111	Yaw:	5.292	Thrust:	59.540
Time:	3.925	Roll Set Point:	0.050	Pitch Set Point:	0.057	Yaw Set Point:	-0.007	X_WP:	0.000	Y_WP:	0.000	Y_WP:	0.500	X:	-0.025	Y:	-0.029	Z:	0.373	yaw:	0.408	yaw rate:	-39.783	Roll:	0.674	Pitch:	-0.315	Yaw:	-5.216	Thrust:	66.181
Time:	3.943	Roll Set Point:	0.049	Pitch Set Point:	0.056	Yaw Set Point:	-0.010	X_WP:	0.000	Y_WP:	0.000	Y_WP:	0.500	X:	-0.024	Y:	-0.028	Z:	0.378	yaw:	0.561	yaw rate:	15.248	Roll:	0.249	Pitch:	-0.135	Yaw:	3.350	Thrust:	77.847
Time:	3.961	Roll Set Point:	0.046	Pitch Set Point:	0.056	Yaw Set Point:	0.001	X_WP:	0.000	Y_WP:	0.000	Y_WP:	0.500	X:	-0.023	Y:	-0.028	Z:	0.386	yaw:	-0.040	yaw rate:	-60.055	Roll:	1.245	Pitch:	-0.288	Yaw:	-8.418	Thrust:	66.823
Time:	3.978	Roll Set Point:	0.042	Pitch Set Point:	0.053	Yaw Set Point:	-0.007	X_WP:	0.000	Y_WP:	0.000	Y_WP:	0.500	X:	-0.021	Y:	-0.027	Z:	0.395	yaw:	0.388	yaw rate:	42.819	Roll:	1.274	Pitch:	0.785	Yaw:	7.460	Thrust:	60.571
Time:	3.995	Roll Set Point:	0.038	Pitch Set Point:	0.051	Yaw Set Point:	-0.003	X_WP:	0.000	Y_WP:	0.000	Y_WP:	0.500	X:	-0.019	Y:	-0.026	Z:	0.406	yaw:	0.149	yaw rate:	-5.746	Roll:	1.996	Pitch:	0.506	Yaw:	-3.121	Thrust:	55.244
Time:	4.011	Roll Set Point:	0.036	Pitch Set Point:	0.050	Yaw Set Point:	0.001	X_WP:	0.000	Y_WP:	0.000	Y_WP:	0.500	X:	-0.018	Y:	-0.025	Z:	0.410	yaw:	-0.050	yaw rate:	-19.962	Roll:	0.773	Pitch:	-0.111	Yaw:	-3.004	Thrust:	66.638
Time:	4.039	Roll Set Point:	0.031	Pitch Set Point:	0.048	Yaw Set Point:	-0.002	X_WP:	0.000	Y_WP:	0.000	Y_WP:	0.500	X:	-0.016	Y:	-0.024	Z:	0.422	yaw:	0.123	yaw rate:	17.323	Roll:	1.443	Pitch:	0.554	Yaw:	2.352	Thrust:	100.000
Time:	4.061	Roll Set Point:	0.025	Pitch Set Point:	0.044	Yaw Set Point:	-0.002	X_WP:	0.000	Y_WP:	0.000	Y_WP:	0.500	X:	-0.012	Y:	-0.022	Z:	0.435	yaw:	0.131	yaw rate:	11.426	Roll:	2.511	Pitch:	0.946	Yaw:	0.719	Thrust:	78.175
Time:	4.081	Roll Set Point:	0.022	Pitch Set Point:	0.044	Yaw Set Point:	0.005	X_WP:	0.000	Y_WP:	0.000	Y_WP:	0.500	X:	-0.011	Y:	-0.022	Z:	0.440	yaw:	-0.289	yaw rate:	-41.944	Roll:	0.957	Pitch:	-0.049	Yaw:	-5.474	Thrust:	86.398
Time:	4.098	Roll Set Point:	0.018	Pitch Set Point:	0.042	Yaw Set Point:	0.008	X_WP:	0.000	Y_WP:	0.000	Y_WP:	0.500	X:	-0.009	Y:	-0.021	Z:	0.448	yaw:	-0.475	yaw rate:	-18.602	Roll:	2.036	Pitch:	0.507	Yaw:	-3.176	Thrust:	59.195
Time:	4.116	Roll Set Point:	0.015	Pitch Set Point:	0.040	Yaw Set Point:	0.009	X_WP:	0.000	Y_WP:	0.000	Y_WP:	0.500	X:	-0.008	Y:	-0.020	Z:	0.455	yaw:	-0.515	yaw rate:	-3.960	Roll:	1.777	Pitch:	0.581	Yaw:	-0.986	Thrust:	63.814
Time:	4.133	Roll Set Point:	0.012	Pitch Set Point:	0.038	Yaw Set Point:	0.006	X_WP:	0.000	Y_WP:	0.000	Y_WP:	0.500	X:	-0.006	Y:	-0.019	Z:	0.462	yaw:	-0.351	yaw rate:	16.308	Roll:	1.770	Pitch:	0.622	Yaw:	2.355	Thrust:	62.649
Time:	4.150	Roll Set Point:	0.007	Pitch Set Point:	0.036	Yaw Set Point:	0.002	X_WP:	0.000	Y_WP:	0.000	Y_WP:	0.500	X:	-0.004	Y:	-0.018	Z:	0.472	yaw:	-0.102	yaw rate:	24.933	Roll:	2.397	Pitch:	0.940	Yaw:	4.017	Thrust:	55.686
Time:	4.167	Roll Set Point:	0.004	Pitch Set Point:	0.034	Yaw Set Point:	0.001	X_WP:	0.000	Y_WP:	0.000	Y_WP:	0.500	X:	-0.002	Y:	-0.017	Z:	0.480	yaw:	-0.033	yaw rate:	6.873	Roll:	1.895	Pitch:	0.452	Yaw:	1.345	Thrust:	60.383
Time:	4.184	Roll Set Point:	-0.003	Pitch Set Point:	0.031	Yaw Set Point:	-0.002	X_WP:	0.000	Y_WP:	0.000	Y_WP:	0.500	X:	0.001	Y:	-0.016	Z:	0.495	yaw:	0.111	yaw rate:	44.340	Roll:	3.589	Pitch:	1.302	Yaw:	2.701	Thrust:	39.069
Time:	4.201	Roll Set Point:	-0.004	Pitch Set Point:	0.031	Yaw Set Point:	0.003	X_WP:	0.000	Y_WP:	0.000	Y_WP:	0.500	X:	0.002	Y:	-0.015	Z:	0.498	yaw:	-0.174	yaw rate:	-28.422	Roll:	1.024	Pitch:	0.085	Yaw:	-4.267	Thrust:	72.510
Time:	4.218	Roll Set Point:	-0.008	Pitch Set Point:	0.029	Yaw Set Point:	0.001	X_WP:	0.000	Y_WP:	0.000	Y_WP:	0.500	X:	0.004	Y:	-0.015	Z:	0.506	yaw:	-0.041	yaw rate:	13.268	Roll:	2.152	Pitch:	0.514	Yaw:	2.317	Thrust:	58.553
Time:	4.235	Roll Set Point:	-0.012	Pitch Set Point:	0.027	Yaw Set Point:	-0.008	X_WP:	0.000	Y_WP:	0.000	Y_WP:	0.500	X:	0.006	Y:	-0.014	Z:	0.516	yaw:	0.442	yaw rate:	48.268	Roll:	2.552	Pitch:	0.927	Yaw:	8.364	Thrust:	51.390
Time:	4.252	Roll Set Point:	-0.016	Pitch Set Point:	0.025	Yaw Set Point:	-0.002	X_WP:	0.000	Y_WP:	0.000	Y_WP:	0.500	X:	0.008	Y:	-0.013	Z:	0.524	yaw:	0.106	yaw rate:	-33.593	Roll:	2.321	Pitch:	0.751	Yaw:	-4.675	Thrust:	58.317
Time:	4.274	Roll Set Point:	-0.021	Pitch Set Point:	0.023	Yaw Set Point:	0.005	X_WP:	0.000	Y_WP:	0.000	Y_WP:	0.500	X:	0.010	Y:	-0.012	Z:	0.536	yaw:	-0.299	yaw rate:	-40.436	Roll:	2.693	Pitch:	0.789	Yaw:	-4.780	Thrust:	76.629
Time:	4.291	Roll Set Point:	-0.024	Pitch Set Point:	0.022	Yaw Set Point:	0.006	X_WP:	0.000	Y_WP:	0.000	Y_WP:	0.500	X:	0.012	Y:	-0.011	Z:	0.543	yaw:	-0.372	yaw rate:	-7.349	Roll:	2.276	Pitch:	0.609	Yaw:	-1.311	Thrust:	58.712
Time:	4.308	Roll Set Point:	-0.027	Pitch Set Point:	0.021	Yaw Set Point:	0.005	X_WP:	0.000	Y_WP:	0.000	Y_WP:	0.500	X:	0.014	Y:	-0.010	Z:	0.549	yaw:	-0.313	yaw rate:	5.890	Roll:	2.151	Pitch:	0.635	Yaw:	0.801	Thrust:	59.555
Time:	4.325	Roll Set Point:	-0.032	Pitch Set Point:	0.019	Yaw Set Point:	0.012	X_WP:	0.000	Y_WP:	0.000	Y_WP:	0.500	X:	0.016	Y:	-0.009	Z:	0.557	yaw:	-0.682	yaw rate:	-36.848	Roll:	2.967	Pitch:	1.101	Yaw:	-6.280	Thrust:	53.999
Time:	4.342	Roll Set Point:	-0.035	Pitch Set Point:	0.017	Yaw Set Point:	0.013	X_WP:	0.000	Y_WP:	0.000	Y_WP:	0.500	X:	0.017	Y:	-0.009	Z:	0.564	yaw:	-0.738	yaw rate:	-5.687	Roll:	2.382	Pitch:	0.801	Yaw:	-1.576	Thrust:	59.612
Time:	4.359	Roll Set Point:	-0.041	Pitch Set Point:	0.014	Yaw Set Point:	0.010	X_WP:	0.000	Y_WP:	0.000	Y_WP:	0.500	X:	0.020	Y:	-0.007	Z:	0.576	yaw:	-0.580	yaw rate:	39.772	Roll:	3.787	Pitch:	1.453	Yaw:	1.949	Thrust:	43.227
Time:	4.376	Roll Set Point:	-0.043	Pitch Set Point:	0.013	Yaw Set Point:	0.012	X_WP:	0.000	Y_WP:	0.000	Y_WP:	0.500	X:	0.021	Y:	-0.007	Z:	0.580	yaw:	-0.709	yaw rate:	-12.910	Roll:	1.992	Pitch:	0.582	Yaw:	-2.650	Thrust:	63.900
Time:	4.393	Roll Set Point:	-0.046	Pitch Set Point:	0.012	Yaw Set Point:	0.020	X_WP:	0.000	Y_WP:	0.000	Y_WP:	0.500	X:	0.023	Y:	-0.006	Z:	0.585	yaw:	-1.163	yaw rate:	-45.360	Roll:	2.240	Pitch:	0.694	Yaw:	-8.276	Thrust:	59.408
Time:	4.410	Roll Set Point:	-0.048	Pitch Set Point:	0.011	Yaw Set Point:	0.021	X_WP:	0.000	Y_WP:	0.000	Y_WP:	0.500	X:	0.024	Y:	-0.006	Z:	0.591	yaw:	-1.196	yaw rate:	-3.282	Roll:	2.303	Pitch:	0.760	Yaw:	-1.861	Thrust:	59.911
Time:	4.427	Roll Set Point:	-0.051	Pitch Set Point:	0.009	Yaw Set Point:	0.021	X_WP:	0.000	Y_WP:	0.000	Y_WP:	0.500	X:	0.026	Y:	-0.005	Z:	0.596	yaw:	-1.203	yaw rate:	-0.766	Roll:	2.525	Pitch:	0.900	Yaw:	-1.499	Thrust:	58.534
Time:	4.444	Roll Set Point:	-0.057	Pitch Set Point:	0.007	Yaw Set Point:	0.016	X_WP:	0.000	Y_WP:	0.000	Y_WP:	0.500	X:	0.028	Y:	-0.004	Z:	0.605	yaw:	-0.938	yaw rate:	28.793	Roll:	3.787	Pitch:	1.292	Yaw:	3.052	Thrust:	47.142
Time:	4.461	Roll Set Point:	-0.058	Pitch Set Point:	0.006	Yaw Set Point:	0.025	X_WP:	0.000	Y_WP:	0.000	Y_WP:	0.500	X:	0.029	Y:	-0.003	Z:	0.608	yaw:	-1.421	yaw rate:	-48.243	Roll:	1.826	Pitch:	0.713	Yaw:	-9.105	Thrust:	64.278
Time:	4.478	Roll Set Point:	-0.061	Pitch Set Point:	0.005	Yaw Set Point:	0.020	X_WP:	0.000	Y_WP:	0.000	Y_WP:	0.500	X:	0.031	Y:	-0.003	Z:	0.613	yaw:	-1.165	yaw rate:	25.530	Roll:	2.645	Pitch:	0.746	Yaw:	2.574	Thrust:	60.131
Time:	4.496	Roll Set Point:	-0.063	Pitch Set Point:	0.004	Yaw Set Point:	0.032	X_WP:	0.000	Y_WP:	0.000	Y_WP:	0.500	X:	0.032	Y:	-0.002	Z:	0.617	yaw:	-1.847	yaw rate:	-68.210	Roll:	2.360	Pitch:	0.996	Yaw:	-12.796	Thrust:	59.973
Time:	4.513	Roll Set Point:	-0.066	Pitch Set Point:	0.003	Yaw Set Point:	0.029	X_WP:	0.000	Y_WP:	0.000	Y_WP:	0.500	X:	0.033	Y:	-0.002	Z:	0.620	yaw:	-1.668	yaw rate:	17.974	Roll:	2.400	Pitch:	0.709	Yaw:	0.694	Thrust:	61.074
Time:	4.530	Roll Set Point:	-0.069	Pitch Set Point:	0.001	Yaw Set Point:	0.032	X_WP:	0.000	Y_WP:	0.000	Y_WP:	0.500	X:	0.035	Y:	-0.001	Z:	0.625	yaw:	-1.814	yaw rate:	3.385	Roll:	2.927	Pitch:	1.114	Yaw:	-4.526	Thrust:	57.912
Time:	4.547	Roll Set Point:	-0.072	Pitch Set Point:	-0.000	Yaw Set Point:	0.028	X_WP:	0.000	Y_WP:	0.000	Y_WP:	0.500	X:	0.036	Y:	-0.000	Z:	0.628	yaw:	-1.608	yaw rate:	20.637	Roll:	2.618	Pitch:	0.702	Yaw:	1.090	Thrust:	63.451
Time:	4.564	Roll Set Point:	-0.075	Pitch Set Point:	-0.002	Yaw Set Point:	0.030	X_WP:	0.000	Y_WP:	0.000	Y_WP:	0.500	X:	0.038	Y:	0.000	Z:	0.634	yaw:	-1.740	yaw rate:	11.918	Roll:	3.208	Pitch:	1.231	Yaw:	-4.230	Thrust:	55.390
Time:	4.582	Roll Set Point:	-0.077	Pitch Set Point:	-0.002	Yaw Set Point:	0.031	X_WP:	0.000	Y_WP:	0.000	Y_WP:	0.500	X:	0.038	Y:	0.001	Z:	0.636	yaw:	-1.793	yaw rate:	-5.269	Roll:	2.025	Pitch:	0.616	Yaw:	-3.035	Thrust:	68.486
Time:	4.598	Roll Set Point:	-0.080	Pitch Set Point:	-0.003	Yaw Set Point:	0.030	X_WP:	0.000	Y_WP:	0.000	Y_WP:	0.500	X:	0.040	Y:	0.001	Z:	0.639	yaw:	-1.707	yaw rate:	8.639	Roll:	3.043	Pitch:	0.839	Yaw:	-0.777	Thrust:	53.721
Time:	4.616	Roll Set Point:	-0.083	Pitch Set Point:	-0.005	Yaw Set Point:	0.041	X_WP:	0.000	Y_WP:	0.000	Y_WP:	0.500	X:	0.041	Y:	0.002	Z:	0.643	yaw:	-2.335	yaw rate:	-32.094	Roll:	2.869	Pitch:	1.455	Yaw:	-12.356	Thrust:	59.966
Time:	4.633	Roll Set Point:	-0.084	Pitch Set Point:	-0.006	Yaw Set Point:	0.041	X_WP:	0.000	Y_WP:	0.000	Y_WP:	0.500	X:	0.042	Y:	0.002	Z:	0.645	yaw:	-2.351	yaw rate:	-1.596	Roll:	2.232	Pitch:	0.560	Yaw:	-3.340	Thrust:	62.892
Time:	4.650	Roll Set Point:	-0.086	Pitch Set Point:	-0.006	Yaw Set Point:	0.037	X_WP:	0.000	Y_WP:	0.000	Y_WP:	0.500	X:	0.043	Y:	0.002	Z:	0.647	yaw:	-2.106	yaw rate:	24.494	Roll:	2.598	Pitch:	0.630	Yaw:	1.000	Thrust:	60.905
Time:	4.667	Roll Set Point:	-0.088	Pitch Set Point:	-0.007	Yaw Set Point:	0.034	X_WP:	0.000	Y_WP:	0.000	Y_WP:	0.500	X:	0.044	Y:	0.003	Z:	0.650	yaw:	-1.948	yaw rate:	15.734	Roll:	2.611	Pitch:	0.684	Yaw:	-0.144	Thrust:	60.580
Time:	4.685	Roll Set Point:	-0.092	Pitch Set Point:	-0.008	Yaw Set Point:	0.035	X_WP:	0.000	Y_WP:	0.000	Y_WP:	0.500	X:	0.046	Y:	0.003	Z:	0.654	yaw:	-2.010	yaw rate:	-14.689	Roll:	3.141	Pitch:	0.858	Yaw:	-3.578	Thrust:	57.454
Time:	4.702	Roll Set Point:	-0.093	Pitch Set Point:	-0.008	Yaw Set Point:	0.027	X_WP:	0.000	Y_WP:	0.000	Y_WP:	0.500	X:	0.047	Y:	0.003	Z:	0.655	yaw:	-1.572	yaw rate:	43.765	Roll:	2.393	Pitch:	0.284	Yaw:	4.655	Thrust:	62.257
Time:	4.719	Roll Set Point:	-0.095	Pitch Set Point:	-0.009	Yaw Set Point:	0.029	X_WP:	0.000	Y_WP:	0.000	Y_WP:	0.500	X:	0.047	Y:	0.004	Z:	0.657	yaw:	-1.663	yaw rate:	-9.102	Roll:	2.490	Pitch:	0.825	Yaw:	-3.593	Thrust:	60.310
Time:	4.736	Roll Set Point:	-0.096	Pitch Set Point:	-0.010	Yaw Set Point:	0.035	X_WP:	0.000	Y_WP:	0.000	Y_WP:	0.500	X:	0.048	Y:	0.004	Z:	0.659	yaw:	-2.015	yaw rate:	-35.163	Roll:	2.319	Pitch:	0.888	Yaw:	-8.097	Thrust:	60.246
Time:	4.753	Roll Set Point:	-0.098	Pitch Set Point:	-0.010	Yaw Set Point:	0.039	X_WP:	0.000	Y_WP:	0.000	Y_WP:	0.500	X:	0.049	Y:	0.004	Z:	0.660	yaw:	-2.254	yaw rate:	-23.915	Roll:	2.531	Pitch:	0.813	Yaw:	-6.716	Thrust:	59.904
Time:	4.770	Roll Set Point:	-0.100	Pitch Set Point:	-0.011	Yaw Set Point:	0.031	X_WP:	0.000	Y_WP:	0.000	Y_WP:	0.500	X:	0.050	Y:	0.005	Z:	0.663	yaw:	-1.800	yaw rate:	14.057	Roll:	3.154	Pitch:	0.572	Yaw:	4.557	Thrust:	57.251
Time:	4.787	Roll Set Point:	-0.101	Pitch Set Point:	-0.011	Yaw Set Point:	0.035	X_WP:	0.000	Y_WP:	0.000	Y_WP:	0.500	X:	0.051	Y:	0.005	Z:	0.664	yaw:	-2.030	yaw rate:	-22.986	Roll:	2.175	Pitch:	0.781	Yaw:	-6.283	Thrust:	61.204
Time:	4.804	Roll Set Point:	-0.103	Pitch Set Point:	-0.012	Yaw Set Point:	0.038	X_WP:	0.000	Y_WP:	0.000	Y_WP:	0.500	X:	0.052	Y:	0.005	Z:	0.665	yaw:	-2.179	yaw rate:	-14.992	Roll:	2.614	Pitch:	0.747	Yaw:	-5.280	Thrust:	58.657
Time:	4.821	Roll Set Point:	-0.104	Pitch Set Point:	-0.012	Yaw Set Point:	0.036	X_WP:	0.000	Y_WP:	0.000	Y_WP:	0.500	X:	0.052	Y:	0.005	Z:	0.666	yaw:	-2.062	yaw rate:	11.746	Roll:	2.430	Pitch:	0.633	Yaw:	-1.021	Thrust:	60.361
Time:	4.838	Roll Set Point:	-0.106	Pitch Set Point:	-0.012	Yaw Set Point:	0.029	X_WP:	0.000	Y_WP:	0.000	Y_WP:	0.500	X:	0.053	Y:	0.005	Z:	0.667	yaw:	-1.690	yaw rate:	54.125	Roll:	2.735	Pitch:	0.264	Yaw:	3.399	Thrust:	59.280
Time:	4.856	Roll Set Point:	-0.107	Pitch Set Point:	-0.012	Yaw Set Point:	0.033	X_WP:	0.000	Y_WP:	0.000	Y_WP:	0.500	X:	0.053	Y:	0.005	Z:	0.668	yaw:	-1.895	yaw rate:	-20.531	Roll:	2.217	Pitch:	0.738	Yaw:	-5.641	Thrust:	62.929
Time:	4.873	Roll Set Point:	-0.108	Pitch Set Point:	-0.012	Yaw Set Point:	0.028	X_WP:	0.000	Y_WP:	0.000	Y_WP:	0.500	X:	0.054	Y:	0.005	Z:	0.669	yaw:	-1.597	yaw rate:	29.831	Roll:	2.621	Pitch:	0.323	Yaw:	2.374	Thrust:	59.760
Time:	4.891	Roll Set Point:	-0.110	Pitch Set Point:	-0.013	Yaw Set Point:	0.029	X_WP:	0.000	Y_WP:	0.000	Y_WP:	0.500	X:	0.055	Y:	0.006	Z:	0.670	yaw:	-1.639	yaw rate:	50.325	Roll:	2.899	Pitch:	0.846	Yaw:	-2.892	Thrust:	63.392
Time:	4.908	Roll Set Point:	-0.110	Pitch Set Point:	-0.014	Yaw Set Point:	0.041	X_WP:	0.000	Y_WP:	0.000	Y_WP:	0.500	X:	0.055	Y:	0.006	Z:	0.670	yaw:	-2.360	yaw rate:	-72.063	Roll:	1.934	Pitch:	1.051	Yaw:	-14.345	Thrust:	60.488
Time:	4.925	Roll Set Point:	-0.111	Pitch Set Point:	-0.014	Yaw Set Point:	0.029	X_WP:	0.000	Y_WP:	0.000	Y_WP:	0.500	X:	0.056	Y:	0.006	Z:	0.670	yaw:	-1.690	yaw rate:	66.988	Roll:	2.625	Pitch:	0.117	Yaw:	7.917	Thrust:	59.764
Time:	4.942	Roll Set Point:	-0.112	Pitch Set Point:	-0.014	Yaw Set Point:	0.033	X_WP:	0.000	Y_WP:	0.000	Y_WP:	0.500	X:	0.056	Y:	0.006	Z:	0.670	yaw:	-1.887	yaw rate:	-7.537	Roll:	2.431	Pitch:	0.765	Yaw:	-5.662	Thrust:	60.669
Time:	4.959	Roll Set Point:	-0.113	Pitch Set Point:	-0.014	Yaw Set Point:	0.026	X_WP:	0.000	Y_WP:	0.000	Y_WP:	0.500	X:	0.057	Y:	0.006	Z:	0.670	yaw:	-1.506	yaw rate:	38.127	Roll:	2.424	Pitch:	0.177	Yaw:	3.760	Thrust:	59.344
Time:	4.976	Roll Set Point:	-0.114	Pitch Set Point:	-0.014	Yaw Set Point:	0.028	X_WP:	0.000	Y_WP:	0.000	Y_WP:	0.500	X:	0.057	Y:	0.006	Z:	0.670	yaw:	-1.622	yaw rate:	-11.598	Roll:	2.257	Pitch:	0.635	Yaw:	-4.086	Thrust:	59.705
Time:	4.993	Roll Set Point:	-0.114	Pitch Set Point:	-0.014	Yaw Set Point:	0.037	X_WP:	0.000	Y_WP:	0.000	Y_WP:	0.500	X:	0.057	Y:	0.006	Z:	0.670	yaw:	-2.094	yaw rate:	-47.173	Roll:	2.171	Pitch:	0.801	Yaw:	-10.221	Thrust:	59.873
Time:	5.011	Roll Set Point:	-0.115	Pitch Set Point:	-0.014	Yaw Set Point:	0.026	X_WP:	0.000	Y_WP:	0.000	Y_WP:	0.500	X:	0.058	Y:	0.006	Z:	0.669	yaw:	-1.493	yaw rate:	60.020	Roll:	2.548	Pitch:	0.139	Yaw:	6.845	Thrust:	61.238
Time:	5.028	Roll Set Point:	-0.116	Pitch Set Point:	-0.014	Yaw Set Point:	0.021	X_WP:	0.000	Y_WP:	0.000	Y_WP:	0.500	X:	0.058	Y:	0.006	Z:	0.669	yaw:	-1.184	yaw rate:	30.968	Roll:	2.570	Pitch:	0.296	Yaw:	3.032	Thrust:	59.693
Time:	5.045	Roll Set Point:	-0.116	Pitch Set Point:	-0.014	Yaw Set Point:	0.030	X_WP:	0.000	Y_WP:	0.000	Y_WP:	0.500	X:	0.058	Y:	0.006	Z:	0.668	yaw:	-1.718	yaw rate:	-53.478	Roll:	2.031	Pitch:	0.849	Yaw:	-10.692	Thrust:	59.464
Time:	5.062	Roll Set Point:	-0.117	Pitch Set Point:	-0.014	Yaw Set Point:	0.021	X_WP:	0.000	Y_WP:	0.000	Y_WP:	0.500	X:	0.059	Y:	0.006	Z:	0.667	yaw:	-1.186	yaw rate:	57.680	Roll:	2.550	Pitch:	0.109	Yaw:	6.165	Thrust:	62.840
Time:	5.079	Roll Set Point:	-0.118	Pitch Set Point:	-0.014	Yaw Set Point:	0.028	X_WP:	0.000	Y_WP:	0.000	Y_WP:	0.500	X:	0.059	Y:	0.006	Z:	0.666	yaw:	-1.630	yaw rate:	-44.461	Roll:	2.111	Pitch:	0.774	Yaw:	-9.176	Thrust:	60.158
Time:	5.096	Roll Set Point:	-0.118	Pitch Set Point:	-0.014	Yaw Set Point:	0.024	X_WP:	0.000	Y_WP:	0.000	Y_WP:	0.500	X:	0.059	Y:	0.006	Z:	0.666	yaw:	-1.374	yaw rate:	25.699	Roll:	2.321	Pitch:	0.307	Yaw:	1.918	Thrust:	58.522
Time:	5.113	Roll Set Point:	-0.119	Pitch Set Point:	-0.014	Yaw Set Point:	0.015	X_WP:	0.000	Y_WP:	0.000	Y_WP:	0.500	X:	0.059	Y:	0.006	Z:	0.665	yaw:	-0.860	yaw rate:	51.362	Roll:	2.483	Pitch:	0.068	Yaw:	6.584	Thrust:	60.355
Time:	5.131	Roll Set Point:	-0.119	Pitch Set Point:	-0.014	Yaw Set Point:	0.017	X_WP:	0.000	Y_WP:	0.000	Y_WP:	0.500	X:	0.059	Y:	0.006	Z:	0.663	yaw:	-0.948	yaw rate:	-8.850	Roll:	2.059	Pitch:	0.566	Yaw:	-2.794	Thrust:	59.865
Time:	5.149	Roll Set Point:	-0.119	Pitch Set Point:	-0.014	Yaw Set Point:	0.017	X_WP:	0.000	Y_WP:	0.000	Y_WP:	0.500	X:	0.060	Y:	0.006	Z:	0.661	yaw:	-0.963	yaw rate:	-9.768	Roll:	2.276	Pitch:	0.548	Yaw:	-1.683	Thrust:	66.322
Time:	5.166	Roll Set Point:	-0.119	Pitch Set Point:	-0.014	Yaw Set Point:	0.015	X_WP:	0.000	Y_WP:	0.000	Y_WP:	0.500	X:	0.060	Y:	0.006	Z:	0.660	yaw:	-0.870	yaw rate:	9.292	Roll:	2.099	Pitch:	0.298	Yaw:	0.079	Thrust:	58.992
Time:	5.183	Roll Set Point:	-0.119	Pitch Set Point:	-0.014	Yaw Set Point:	0.012	X_WP:	0.000	Y_WP:	0.000	Y_WP:	0.500	X:	0.060	Y:	0.007	Z:	0.659	yaw:	-0.674	yaw rate:	19.557	Roll:	2.244	Pitch:	0.364	Yaw:	1.932	Thrust:	58.385
Time:	5.200	Roll Set Point:	-0.120	Pitch Set Point:	-0.014	Yaw Set Point:	0.011	X_WP:	0.000	Y_WP:	0.000	Y_WP:	0.500	X:	0.060	Y:	0.007	Z:	0.657	yaw:	-0.644	yaw rate:	3.013	Roll:	2.233	Pitch:	0.503	Yaw:	-0.577	Thrust:	61.181
Time:	5.217	Roll Set Point:	-0.119	Pitch Set Point:	-0.014	Yaw Set Point:	0.012	X_WP:	0.000	Y_WP:	0.000	Y_WP:	0.500	X:	0.060	Y:	0.007	Z:	0.655	yaw:	-0.704	yaw rate:	-6.027	Roll:	2.013	Pitch:	0.585	Yaw:	-2.052	Thrust:	59.654
Time:	5.234	Roll Set Point:	-0.120	Pitch Set Point:	-0.014	Yaw Set Point:	0.009	X_WP:	0.000	Y_WP:	0.000	Y_WP:	0.500	X:	0.060	Y:	0.007	Z:	0.653	yaw:	-0.525	yaw rate:	17.975	Roll:	2.277	Pitch:	0.343	Yaw:	1.883	Thrust:	61.638
Time:	5.251	Roll Set Point:	-0.119	Pitch Set Point:	-0.015	Yaw Set Point:	0.021	X_WP:	0.000	Y_WP:	0.000	Y_WP:	0.500	X:	0.060	Y:	0.007	Z:	0.650	yaw:	-1.224	yaw rate:	-9.927	Roll:	1.817	Pitch:	1.178	Yaw:	-12.607	Thrust:	63.066
Time:	5.268	Roll Set Point:	-0.119	Pitch Set Point:	-0.014	Yaw Set Point:	0.016	X_WP:	0.000	Y_WP:	0.000	Y_WP:	0.500	X:	0.060	Y:	0.007	Z:	0.649	yaw:	-0.941	yaw rate:	28.280	Roll:	2.113	Pitch:	0.225	Yaw:	2.870	Thrust:	58.512
Time:	5.285	Roll Set Point:	-0.119	Pitch Set Point:	-0.015	Yaw Set Point:	0.020	X_WP:	0.000	Y_WP:	0.000	Y_WP:	0.500	X:	0.060	Y:	0.007	Z:	0.647	yaw:	-1.138	yaw rate:	-19.696	Roll:	2.020	Pitch:	0.741	Yaw:	-4.780	Thrust:	60.076
Time:	5.302	Roll Set Point:	-0.119	Pitch Set Point:	-0.015	Yaw Set Point:	0.015	X_WP:	0.000	Y_WP:	0.000	Y_WP:	0.500	X:	0.060	Y:	0.007	Z:	0.644	yaw:	-0.887	yaw rate:	25.135	Roll:	2.178	Pitch:	0.490	Yaw:	2.449	Thrust:	60.644
Time:	5.319	Roll Set Point:	-0.119	Pitch Set Point:	-0.015	Yaw Set Point:	0.013	X_WP:	0.000	Y_WP:	0.000	Y_WP:	0.500	X:	0.060	Y:	0.007	Z:	0.641	yaw:	-0.736	yaw rate:	15.106	Roll:	2.066	Pitch:	0.440	Yaw:	1.121	Thrust:	62.316
Time:	5.336	Roll Set Point:	-0.119	Pitch Set Point:	-0.015	Yaw Set Point:	0.013	X_WP:	0.000	Y_WP:	0.000	Y_WP:	0.500	X:	0.060	Y:	0.007	Z:	0.639	yaw:	-0.725	yaw rate:	1.055	Roll:	2.126	Pitch:	0.623	Yaw:	-1.031	Thrust:	60.564
Time:	5.353	Roll Set Point:	-0.119	Pitch Set Point:	-0.015	Yaw Set Point:	0.010	X_WP:	0.000	Y_WP:	0.000	Y_WP:	0.500	X:	0.059	Y:	0.007	Z:	0.636	yaw:	-0.595	yaw rate:	13.010	Roll:	1.877	Pitch:	0.353	Yaw:	0.982	Thrust:	60.918
Time:	5.370	Roll Set Point:	-0.118	Pitch Set Point:	-0.016	Yaw Set Point:	0.019	X_WP:	0.000	Y_WP:	0.000	Y_WP:	0.500	X:	0.059	Y:	0.007	Z:	0.631	yaw:	-1.073	yaw rate:	-9.445	Roll:	1.748	Pitch:	1.140	Yaw:	-9.019	Thrust:	68.544
Time:	5.387	Roll Set Point:	-0.119	Pitch Set Point:	-0.016	Yaw Set Point:	0.008	X_WP:	0.000	Y_WP:	0.000	Y_WP:	0.500	X:	0.059	Y:	0.008	Z:	0.629	yaw:	-0.443	yaw rate:	62.970	Roll:	2.394	Pitch:	0.146	Yaw:	8.842	Thrust:	58.498
Time:	5.404	Roll Set Point:	-0.118	Pitch Set Point:	-0.016	Yaw Set Point:	0.013	X_WP:	0.000	Y_WP:	0.000	Y_WP:	0.500	X:	0.059	Y:	0.008	Z:	0.626	yaw:	-0.720	yaw rate:	-27.647	Roll:	1.662	Pitch:	0.866	Yaw:	-5.450	Thrust:	62.208
Time:	5.421	Roll Set Point:	-0.118	Pitch Set Point:	-0.017	Yaw Set Point:	0.008	X_WP:	0.000	Y_WP:	0.000	Y_WP:	0.500	X:	0.059	Y:	0.008	Z:	0.623	yaw:	-0.486	yaw rate:	23.349	Roll:	2.089	Pitch:	0.427	Yaw:	2.706	Thrust:	61.567
Time:	5.438	Roll Set Point:	-0.117	Pitch Set Point:	-0.017	Yaw Set Point:	0.008	X_WP:	0.000	Y_WP:	0.000	Y_WP:	0.500	X:	0.059	Y:	0.008	Z:	0.620	yaw:	-0.483	yaw rate:	0.276	Roll:	1.956	Pitch:	0.682	Yaw:	-0.837	Thrust:	61.708
Time:	5.455	Roll Set Point:	-0.117	Pitch Set Point:	-0.018	Yaw Set Point:	0.010	X_WP:	0.000	Y_WP:	0.000	Y_WP:	0.500	X:	0.058	Y:	0.009	Z:	0.614	yaw:	-0.600	yaw rate:	37.879	Roll:	1.818	Pitch:	1.067	Yaw:	-2.836	Thrust:	70.212
Time:	5.473	Roll Set Point:	-0.116	Pitch Set Point:	-0.018	Yaw Set Point:	0.015	X_WP:	0.000	Y_WP:	0.000	Y_WP:	0.500	X:	0.058	Y:	0.009	Z:	0.612	yaw:	-0.860	yaw rate:	-25.986	Roll:	1.843	Pitch:	0.917	Yaw:	-5.404	Thrust:	59.353
Time:	5.490	Roll Set Point:	-0.117	Pitch Set Point:	-0.019	Yaw Set Point:	0.009	X_WP:	0.000	Y_WP:	0.000	Y_WP:	0.500	X:	0.058	Y:	0.009	Z:	0.608	yaw:	-0.500	yaw rate:	35.951	Roll:	2.306	Pitch:	0.468	Yaw:	4.566	Thrust:	62.731
Time:	5.507	Roll Set Point:	-0.116	Pitch Set Point:	-0.019	Yaw Set Point:	0.015	X_WP:	0.000	Y_WP:	0.000	Y_WP:	0.500	X:	0.058	Y:	0.009	Z:	0.605	yaw:	-0.848	yaw rate:	-34.818	Roll:	1.740	Pitch:	1.056	Yaw:	-6.752	Thrust:	62.045
Time:	5.524	Roll Set Point:	-0.115	Pitch Set Point:	-0.020	Yaw Set Point:	0.020	X_WP:	0.000	Y_WP:	0.000	Y_WP:	0.500	X:	0.058	Y:	0.009	Z:	0.601	yaw:	-1.129	yaw rate:	-28.040	Roll:	1.609	Pitch:	1.025	Yaw:	-6.103	Thrust:	65.348
Time:	5.541	Roll Set Point:	-0.115	Pitch Set Point:	-0.020	Yaw Set Point:	0.015	X_WP:	0.000	Y_WP:	0.000	Y_WP:	0.500	X:	0.058	Y:	0.010	Z:	0.598	yaw:	-0.869	yaw rate:	25.956	Roll:	2.049	Pitch:	0.498	Yaw:	2.546	Thrust:	61.998
Time:	5.558	Roll Set Point:	-0.114	Pitch Set Point:	-0.021	Yaw Set Point:	0.014	X_WP:	0.000	Y_WP:	0.000	Y_WP:	0.500	X:	0.057	Y:	0.010	Z:	0.593	yaw:	-0.823	yaw rate:	4.638	Roll:	1.811	Pitch:	0.865	Yaw:	-0.673	Thrust:	65.710
Time:	5.575	Roll Set Point:	-0.114	Pitch Set Point:	-0.021	Yaw Set Point:	0.008	X_WP:	0.000	Y_WP:	0.000	Y_WP:	0.500	X:	0.057	Y:	0.010	Z:	0.590	yaw:	-0.468	yaw rate:	35.513	Roll:	2.114	Pitch:	0.496	Yaw:	4.561	Thrust:	62.481
Time:	5.592	Roll Set Point:	-0.114	Pitch Set Point:	-0.021	Yaw Set Point:	0.007	X_WP:	0.000	Y_WP:	0.000	Y_WP:	0.500	X:	0.057	Y:	0.010	Z:	0.586	yaw:	-0.423	yaw rate:	4.454	Roll:	1.831	Pitch:	0.694	Yaw:	-0.162	Thrust:	62.982
Time:	5.609	Roll Set Point:	-0.113	Pitch Set Point:	-0.022	Yaw Set Point:	0.015	X_WP:	0.000	Y_WP:	0.000	Y_WP:	0.500	X:	0.057	Y:	0.011	Z:	0.582	yaw:	-0.852	yaw rate:	-42.840	Roll:	1.681	Pitch:	1.190	Yaw:	-8.007	Thrust:	65.302
Time:	5.626	Roll Set Point:	-0.114	Pitch Set Point:	-0.022	Yaw Set Point:	0.005	X_WP:	0.000	Y_WP:	0.000	Y_WP:	0.500	X:	0.057	Y:	0.011	Z:	0.579	yaw:	-0.301	yaw rate:	55.026	Roll:	2.312	Pitch:	0.423	Yaw:	7.790	Thrust:	62.528
Time:	5.643	Roll Set Point:	-0.113	Pitch Set Point:	-0.023	Yaw Set Point:	0.011	X_WP:	0.000	Y_WP:	0.000	Y_WP:	0.500	X:	0.056	Y:	0.011	Z:	0.573	yaw:	-0.602	yaw rate:	30.410	Roll:	1.534	Pitch:	1.281	Yaw:	-5.700	Thrust:	68.799
Time:	5.661	Roll Set Point:	-0.113	Pitch Set Point:	-0.024	Yaw Set Point:	0.006	X_WP:	0.000	Y_WP:	0.000	Y_WP:	0.500	X:	0.056	Y:	0.012	Z:	0.570	yaw:	-0.335	yaw rate:	26.652	Roll:	2.097	Pitch:	0.634	Yaw:	3.144	Thrust:	65.351
Time:	5.678	Roll Set Point:	-0.111	Pitch Set Point:	-0.024	Yaw Set Point:	0.015	X_WP:	0.000	Y_WP:	0.000	Y_WP:	0.500	X:	0.056	Y:	0.012	Z:	0.566	yaw:	-0.845	yaw rate:	-50.952	Roll:	1.447	Pitch:	1.043	Yaw:	-9.275	Thrust:	62.769
Time:	5.695	Roll Set Point:	-0.111	Pitch Set Point:	-0.025	Yaw Set Point:	0.016	X_WP:	0.000	Y_WP:	0.000	Y_WP:	0.500	X:	0.056	Y:	0.012	Z:	0.563	yaw:	-0.919	yaw rate:	-7.405	Roll:	1.896	Pitch:	0.978	Yaw:	-2.684	Thrust:	62.849
Time:	5.712	Roll Set Point:	-0.111	Pitch Set Point:	-0.025	Yaw Set Point:	0.016	X_WP:	0.000	Y_WP:	0.000	Y_WP:	0.500	X:	0.056	Y:	0.012	Z:	0.560	yaw:	-0.945	yaw rate:	-2.631	Roll:	1.947	Pitch:	0.927	Yaw:	-1.993	Thrust:	62.353
Time:	5.729	Roll Set Point:	-0.111	Pitch Set Point:	-0.026	Yaw Set Point:	0.007	X_WP:	0.000	Y_WP:	0.000	Y_WP:	0.500	X:	0.056	Y:	0.013	Z:	0.555	yaw:	-0.390	yaw rate:	55.529	Roll:	2.083	Pitch:	0.567	Yaw:	7.709	Thrust:	65.697
Time:	5.747	Roll Set Point:	-0.110	Pitch Set Point:	-0.026	Yaw Set Point:	0.010	X_WP:	0.000	Y_WP:	0.000	Y_WP:	0.500	X:	0.055	Y:	0.013	Z:	0.552	yaw:	-0.577	yaw rate:	-18.722	Roll:	1.724	Pitch:	0.939	Yaw:	-3.834	Thrust:	65.378
Time:	5.764	Roll Set Point:	-0.109	Pitch Set Point:	-0.027	Yaw Set Point:	0.016	X_WP:	0.000	Y_WP:	0.000	Y_WP:	0.500	X:	0.055	Y:	0.013	Z:	0.546	yaw:	-0.912	yaw rate:	-18.519	Roll:	1.588	Pitch:	1.247	Yaw:	-6.691	Thrust:	70.288
Time:	5.782	Roll Set Point:	-0.110	Pitch Set Point:	-0.027	Yaw Set Point:	0.007	X_WP:	0.000	Y_WP:	0.000	Y_WP:	0.500	X:	0.055	Y:	0.013	Z:	0.544	yaw:	-0.419	yaw rate:	49.300	Roll:	2.268	Pitch:	0.504	Yaw:	6.703	Thrust:	60.044
Time:	5.799	Roll Set Point:	-0.109	Pitch Set Point:	-0.028	Yaw Set Point:	0.013	X_WP:	0.000	Y_WP:	0.000	Y_WP:	0.500	X:	0.055	Y:	0.014	Z:	0.539	yaw:	-0.756	yaw rate:	-14.209	Roll:	1.598	Pitch:	1.254	Yaw:	-6.432	Thrust:	68.819
Time:	5.816	Roll Set Point:	-0.109	Pitch Set Point:	-0.028	Yaw Set Point:	0.011	X_WP:	0.000	Y_WP:	0.000	Y_WP:	0.500	X:	0.054	Y:	0.014	Z:	0.537	yaw:	-0.606	yaw rate:	15.027	Roll:	1.842	Pitch:	0.584	Yaw:	1.169	Thrust:	59.753
Time:	5.833	Roll Set Point:	-0.108	Pitch Set Point:	-0.028	Yaw Set Point:	0.016	X_WP:	0.000	Y_WP:	0.000	Y_WP:	0.500	X:	0.054	Y:	0.014	Z:	0.534	yaw:	-0.890	yaw rate:	-28.439	Roll:	1.828	Pitch:	1.047	Yaw:	-5.907	Thrust:	62.350
Time:	5.850	Roll Set Point:	-0.108	Pitch Set Point:	-0.028	Yaw Set Point:	0.016	X_WP:	0.000	Y_WP:	0.000	Y_WP:	0.500	X:	0.054	Y:	0.014	Z:	0.532	yaw:	-0.928	yaw rate:	-3.758	Roll:	1.905	Pitch:	0.825	Yaw:	-2.174	Thrust:	61.971
Time:	5.867	Roll Set Point:	-0.108	Pitch Set Point:	-0.029	Yaw Set Point:	0.016	X_WP:	0.000	Y_WP:	0.000	Y_WP:	0.500	X:	0.054	Y:	0.014	Z:	0.528	yaw:	-0.928	yaw rate:	-56.535	Roll:	1.773	Pitch:	0.869	Yaw:	-1.603	Thrust:	64.854
Time:	5.884	Roll Set Point:	-0.107	Pitch Set Point:	-0.029	Yaw Set Point:	0.017	X_WP:	0.000	Y_WP:	0.000	Y_WP:	0.500	X:	0.054	Y:	0.014	Z:	0.525	yaw:	-0.968	yaw rate:	-3.976	Roll:	1.923	Pitch:	0.905	Yaw:	-2.274	Thrust:	62.406
Time:	5.901	Roll Set Point:	-0.108	Pitch Set Point:	-0.029	Yaw Set Point:	0.007	X_WP:	0.000	Y_WP:	0.000	Y_WP:	0.500	X:	0.054	Y:	0.014	Z:	0.522	yaw:	-0.399	yaw rate:	56.861	Roll:	2.224	Pitch:	0.485	Yaw:	7.857	Thrust:	62.364
Time:	5.918	Roll Set Point:	-0.107	Pitch Set Point:	-0.030	Yaw Set Point:	0.009	X_WP:	0.000	Y_WP:	0.000	Y_WP:	0.500	X:	0.054	Y:	0.015	Z:	0.519	yaw:	-0.520	yaw rate:	-12.109	Roll:	1.639	Pitch:	0.899	Yaw:	-2.907	Thrust:	62.728
Time:	5.935	Roll Set Point:	-0.106	Pitch Set Point:	-0.030	Yaw Set Point:	0.015	X_WP:	0.000	Y_WP:	0.000	Y_WP:	0.500	X:	0.053	Y:	0.015	Z:	0.514	yaw:	-0.848	yaw rate:	-8.575	Roll:	1.769	Pitch:	1.126	Yaw:	-6.535	Thrust:	69.893
Time:	5.952	Roll Set Point:	-0.106	Pitch Set Point:	-0.030	Yaw Set Point:	0.016	X_WP:	0.000	Y_WP:	0.000	Y_WP:	0.500	X:	0.053	Y:	0.015	Z:	0.512	yaw:	-0.944	yaw rate:	-9.627	Roll:	1.832	Pitch:	0.894	Yaw:	-3.124	Thrust:	60.235
Time:	5.969	Roll Set Point:	-0.106	Pitch Set Point:	-0.030	Yaw Set Point:	0.011	X_WP:	0.000	Y_WP:	0.000	Y_WP:	0.500	X:	0.053	Y:	0.015	Z:	0.510	yaw:	-0.611	yaw rate:	33.283	Roll:	2.035	Pitch:	0.626	Yaw:	3.931	Thrust:	62.994
Time:	5.986	Roll Set Point:	-0.106	Pitch Set Point:	-0.031	Yaw Set Point:	0.009	X_WP:	0.000	Y_WP:	0.000	Y_WP:	0.500	X:	0.053	Y:	0.015	Z:	0.507	yaw:	-0.534	yaw rate:	7.696	Roll:	1.970	Pitch:	0.757	Yaw:	0.098	Thrust:	63.205
Time:	6.003	Roll Set Point:	0.005	Pitch Set Point:	-0.039	Yaw Set Point:	0.007	X_WP:	0.110	Y_WP:	-0.009	Y_WP:	0.500	X:	0.053	Y:	0.015	Z:	0.503	yaw:	-0.429	yaw rate:	10.489	Roll:	-30.000	Pitch:	9.279	Yaw:	0.670	Thrust:	65.954
Time:	6.021	Roll Set Point:	0.005	Pitch Set Point:	-0.039	Yaw Set Point:	0.017	X_WP:	0.110	Y_WP:	-0.010	Y_WP:	0.500	X:	0.053	Y:	0.015	Z:	0.498	yaw:	-0.994	yaw rate:	-3.359	Roll:	-1.181	Pitch:	0.977	Yaw:	-10.010	Thrust:	70.569
Time:	6.039	Roll Set Point:	0.005	Pitch Set Point:	-0.040	Yaw Set Point:	0.010	X_WP:	0.110	Y_WP:	-0.010	Y_WP:	0.500	X:	0.053	Y:	0.015	Z:	0.497	yaw:	-0.567	yaw rate:	42.725	Roll:	-0.907	Pitch:	1.564	Yaw:	5.035	Thrust:	63.715
Time:	6.056	Roll Set Point:	0.005	Pitch Set Point:	-0.040	Yaw Set Point:	0.010	X_WP:	0.110	Y_WP:	-0.010	Y_WP:	0.500	X:	0.053	Y:	0.016	Z:	0.493	yaw:	-0.558	yaw rate:	13.682	Roll:	-0.979	Pitch:	1.496	Yaw:	-0.995	Thrust:	67.842
Time:	6.073	Roll Set Point:	0.004	Pitch Set Point:	-0.041	Yaw Set Point:	0.008	X_WP:	0.110	Y_WP:	-0.010	Y_WP:	0.500	X:	0.053	Y:	0.016	Z:	0.491	yaw:	-0.441	yaw rate:	11.689	Roll:	-1.059	Pitch:	1.295	Yaw:	0.823	Thrust:	61.537
Time:	6.091	Roll Set Point:	0.004	Pitch Set Point:	-0.041	Yaw Set Point:	0.014	X_WP:	0.109	Y_WP:	-0.011	Y_WP:	0.500	X:	0.053	Y:	0.015	Z:	0.488	yaw:	-0.822	yaw rate:	-38.096	Roll:	-1.220	Pitch:	0.914	Yaw:	-7.358	Thrust:	63.072
Time:	6.108	Roll Set Point:	0.004	Pitch Set Point:	-0.041	Yaw Set Point:	0.015	X_WP:	0.109	Y_WP:	-0.011	Y_WP:	0.500	X:	0.053	Y:	0.015	Z:	0.486	yaw:	-0.836	yaw rate:	-1.450	Roll:	-1.081	Pitch:	1.268	Yaw:	-1.755	Thrust:	63.644
Time:	6.125	Roll Set Point:	0.003	Pitch Set Point:	-0.041	Yaw Set Point:	0.016	X_WP:	0.110	Y_WP:	-0.011	Y_WP:	0.500	X:	0.053	Y:	0.015	Z:	0.482	yaw:	-0.902	yaw rate:	-67.618	Roll:	-0.963	Pitch:	1.484	Yaw:	-2.638	Thrust:	67.953
Time:	6.143	Roll Set Point:	0.003	Pitch Set Point:	-0.042	Yaw Set Point:	0.006	X_WP:	0.110	Y_WP:	-0.012	Y_WP:	0.500	X:	0.054	Y:	0.015	Z:	0.480	yaw:	-0.323	yaw rate:	57.920	Roll:	-0.819	Pitch:	1.748	Yaw:	7.568	Thrust:	64.399
Time:	6.160	Roll Set Point:	0.001	Pitch Set Point:	-0.042	Yaw Set Point:	0.007	X_WP:	0.111	Y_WP:	-0.012	Y_WP:	0.500	X:	0.055	Y:	0.015	Z:	0.477	yaw:	-0.399	yaw rate:	-25.641	Roll:	-1.013	Pitch:	1.382	Yaw:	-2.070	Thrust:	67.631
Time:	6.177	Roll Set Point:	0.001	Pitch Set Point:	-0.042	Yaw Set Point:	0.006	X_WP:	0.111	Y_WP:	-0.013	Y_WP:	0.500	X:	0.055	Y:	0.015	Z:	0.476	yaw:	-0.332	yaw rate:	6.629	Roll:	-1.054	Pitch:	1.277	Yaw:	0.175	Thrust:	60.960
Time:	6.194	Roll Set Point:	-0.000	Pitch Set Point:	-0.042	Yaw Set Point:	0.007	X_WP:	0.112	Y_WP:	-0.013	Y_WP:	0.500	X:	0.056	Y:	0.015	Z:	0.474	yaw:	-0.377	yaw rate:	-4.447	Roll:	-1.062	Pitch:	1.237	Yaw:	-1.590	Thrust:	62.188
Time:	6.211	Roll Set Point:	-0.001	Pitch Set Point:	-0.042	Yaw Set Point:	0.005	X_WP:	0.113	Y_WP:	-0.013	Y_WP:	0.500	X:	0.057	Y:	0.015	Z:	0.473	yaw:	-0.262	yaw rate:	11.445	Roll:	-0.981	Pitch:	1.376	Yaw:	1.009	Thrust:	62.101
Time:	6.228	Roll Set Point:	-0.003	Pitch Set Point:	-0.042	Yaw Set Point:	0.005	X_WP:	0.114	Y_WP:	-0.014	Y_WP:	0.500	X:	0.059	Y:	0.014	Z:	0.471	yaw:	-0.259	yaw rate:	0.281	Roll:	-1.012	Pitch:	1.220	Yaw:	-0.704	Thrust:	63.284
Time:	6.245	Roll Set Point:	-0.004	Pitch Set Point:	-0.042	Yaw Set Point:	0.004	X_WP:	0.115	Y_WP:	-0.014	Y_WP:	0.500	X:	0.060	Y:	0.014	Z:	0.469	yaw:	-0.230	yaw rate:	2.955	Roll:	-1.058	Pitch:	1.437	Yaw:	-0.253	Thrust:	62.621
Time:	6.263	Roll Set Point:	-0.006	Pitch Set Point:	-0.042	Yaw Set Point:	0.005	X_WP:	0.116	Y_WP:	-0.015	Y_WP:	0.500	X:	0.061	Y:	0.014	Z:	0.468	yaw:	-0.274	yaw rate:	-4.434	Roll:	-1.087	Pitch:	1.258	Yaw:	-1.451	Thrust:	62.411
Time:	6.280	Roll Set Point:	-0.008	Pitch Set Point:	-0.041	Yaw Set Point:	0.008	X_WP:	0.118	Y_WP:	-0.015	Y_WP:	0.500	X:	0.063	Y:	0.013	Z:	0.466	yaw:	-0.460	yaw rate:	-18.603	Roll:	-1.028	Pitch:	1.055	Yaw:	-3.889	Thrust:	63.525
Time:	6.297	Roll Set Point:	-0.009	Pitch Set Point:	-0.041	Yaw Set Point:	0.009	X_WP:	0.120	Y_WP:	-0.016	Y_WP:	0.500	X:	0.065	Y:	0.013	Z:	0.465	yaw:	-0.502	yaw rate:	-4.145	Roll:	-1.197	Pitch:	1.206	Yaw:	-1.729	Thrust:	62.276
Time:	6.314	Roll Set Point:	-0.012	Pitch Set Point:	-0.041	Yaw Set Point:	0.009	X_WP:	0.122	Y_WP:	-0.016	Y_WP:	0.500	X:	0.067	Y:	0.012	Z:	0.463	yaw:	-0.493	yaw rate:	0.836	Roll:	-0.906	Pitch:	1.147	Yaw:	-0.955	Thrust:	64.393
Time:	6.331	Roll Set Point:	-0.013	Pitch Set Point:	-0.040	Yaw Set Point:	0.010	X_WP:	0.124	Y_WP:	-0.017	Y_WP:	0.500	X:	0.069	Y:	0.012	Z:	0.461	yaw:	-0.589	yaw rate:	-9.574	Roll:	-1.299	Pitch:	1.242	Yaw:	-2.691	Thrust:	63.157
Time:	6.348	Roll Set Point:	-0.017	Pitch Set Point:	-0.040	Yaw Set Point:	0.007	X_WP:	0.127	Y_WP:	-0.018	Y_WP:	0.500	X:	0.072	Y:	0.011	Z:	0.459	yaw:	-0.426	yaw rate:	47.973	Roll:	-1.084	Pitch:	1.436	Yaw:	1.516	Thrust:	65.589
Time:	6.365	Roll Set Point:	-0.018	Pitch Set Point:	-0.039	Yaw Set Point:	0.011	X_WP:	0.129	Y_WP:	-0.018	Y_WP:	0.500	X:	0.074	Y:	0.011	Z:	0.458	yaw:	-0.633	yaw rate:	-20.776	Roll:	-1.265	Pitch:	0.964	Yaw:	-4.479	Thrust:	62.066
Time:	6.382	Roll Set Point:	-0.021	Pitch Set Point:	-0.039	Yaw Set Point:	0.012	X_WP:	0.131	Y_WP:	-0.019	Y_WP:	0.500	X:	0.076	Y:	0.010	Z:	0.456	yaw:	-0.694	yaw rate:	-6.065	Roll:	-1.010	Pitch:	1.025	Yaw:	-2.308	Thrust:	64.434
Time:	6.399	Roll Set Point:	-0.025	Pitch Set Point:	-0.038	Yaw Set Point:	0.011	X_WP:	0.136	Y_WP:	-0.020	Y_WP:	0.500	X:	0.081	Y:	0.009	Z:	0.453	yaw:	-0.615	yaw rate:	11.215	Roll:	-1.375	Pitch:	0.994	Yaw:	-0.050	Thrust:	67.633
Time:	6.416	Roll Set Point:	-0.027	Pitch Set Point:	-0.037	Yaw Set Point:	0.012	X_WP:	0.137	Y_WP:	-0.020	Y_WP:	0.500	X:	0.082	Y:	0.009	Z:	0.452	yaw:	-0.692	yaw rate:	-7.744	Roll:	-1.113	Pitch:	1.263	Yaw:	-2.560	Thrust:	63.900
Time:	6.433	Roll Set Point:	-0.031	Pitch Set Point:	-0.036	Yaw Set Point:	0.016	X_WP:	0.142	Y_WP:	-0.021	Y_WP:	0.500	X:	0.087	Y:	0.008	Z:	0.449	yaw:	-0.894	yaw rate:	2.946	Roll:	-1.381	Pitch:	0.663	Yaw:	-4.764	Thrust:	67.594
Time:	6.450	Roll Set Point:	-0.033	Pitch Set Point:	-0.035	Yaw Set Point:	0.015	X_WP:	0.144	Y_WP:	-0.022	Y_WP:	0.500	X:	0.089	Y:	0.007	Z:	0.448	yaw:	-0.881	yaw rate:	1.240	Roll:	-1.108	Pitch:	1.226	Yaw:	-1.464	Thrust:	63.294
Time:	6.468	Roll Set Point:	-0.036	Pitch Set Point:	-0.035	Yaw Set Point:	0.015	X_WP:	0.146	Y_WP:	-0.022	Y_WP:	0.500	X:	0.091	Y:	0.007	Z:	0.447	yaw:	-0.880	yaw rate:	0.161	Roll:	-1.129	Pitch:	1.131	Yaw:	-1.648	Thrust:	65.103
Time:	6.485	Roll Set Point:	-0.040	Pitch Set Point:	-0.034	Yaw Set Point:	0.011	X_WP:	0.149	Y_WP:	-0.022	Y_WP:	0.500	X:	0.095	Y:	0.006	Z:	0.445	yaw:	-0.618	yaw rate:	26.172	Roll:	-0.246	Pitch:	0.786	Yaw:	2.722	Thrust:	67.154
Time:	6.502	Roll Set Point:	-0.043	Pitch Set Point:	-0.033	Yaw Set Point:	0.020	X_WP:	0.153	Y_WP:	-0.023	Y_WP:	0.500	X:	0.098	Y:	0.005	Z:	0.443	yaw:	-1.167	yaw rate:	-54.957	Roll:	-1.979	Pitch:	0.637	Yaw:	-10.510	Thrust:	64.844
Time:	6.519	Roll Set Point:	-0.048	Pitch Set Point:	-0.031	Yaw Set Point:	0.013	X_WP:	0.156	Y_WP:	-0.023	Y_WP:	0.500	X:	0.102	Y:	0.004	Z:	0.441	yaw:	-0.771	yaw rate:	39.663	Roll:	-0.292	Pitch:	0.823	Yaw:	4.579	Thrust:	67.326
Time:	6.536	Roll Set Point:	-0.051	Pitch Set Point:	-0.031	Yaw Set Point:	0.017	X_WP:	0.162	Y_WP:	-0.025	Y_WP:	0.500	X:	0.107	Y:	0.003	Z:	0.439	yaw:	-0.961	yaw rate:	4.573	Roll:	-2.611	Pitch:	1.189	Yaw:	-4.720	Thrust:	66.684
Time:	6.553	Roll Set Point:	-0.055	Pitch Set Point:	-0.029	Yaw Set Point:	0.017	X_WP:	0.165	Y_WP:	-0.025	Y_WP:	0.500	X:	0.111	Y:	0.003	Z:	0.438	yaw:	-0.981	yaw rate:	-1.989	Roll:	-0.753	Pitch:	0.490	Yaw:	-2.132	Thrust:	65.499
Time:	6.570	Roll Set Point:	-0.059	Pitch Set Point:	-0.028	Yaw Set Point:	0.015	X_WP:	0.169	Y_WP:	-0.025	Y_WP:	0.500	X:	0.114	Y:	0.002	Z:	0.436	yaw:	-0.871	yaw rate:	10.988	Roll:	-1.182	Pitch:	0.768	Yaw:	0.009	Thrust:	65.745
Time:	6.587	Roll Set Point:	-0.065	Pitch Set Point:	-0.025	Yaw Set Point:	0.020	X_WP:	0.173	Y_WP:	-0.025	Y_WP:	0.500	X:	0.119	Y:	0.001	Z:	0.435	yaw:	-1.166	yaw rate:	-29.451	Roll:	-0.131	Pitch:	-0.498	Yaw:	-6.612	Thrust:	66.106
Time:	6.604	Roll Set Point:	-0.068	Pitch Set Point:	-0.025	Yaw Set Point:	0.018	X_WP:	0.179	Y_WP:	-0.026	Y_WP:	0.500	X:	0.123	Y:	-0.000	Z:	0.433	yaw:	-1.034	yaw rate:	13.206	Roll:	-2.733	Pitch:	1.520	Yaw:	0.115	Thrust:	65.577
Time:	6.621	Roll Set Point:	-0.072	Pitch Set Point:	-0.024	Yaw Set Point:	0.012	X_WP:	0.183	Y_WP:	-0.026	Y_WP:	0.500	X:	0.127	Y:	-0.001	Z:	0.432	yaw:	-0.703	yaw rate:	33.120	Roll:	-0.959	Pitch:	0.749	Yaw:	3.626	Thrust:	65.362
Time:	6.638	Roll Set Point:	-0.079	Pitch Set Point:	-0.021	Yaw Set Point:	0.015	X_WP:	0.187	Y_WP:	-0.026	Y_WP:	0.500	X:	0.133	Y:	-0.002	Z:	0.431	yaw:	-0.871	yaw rate:	-16.828	Roll:	0.456	Pitch:	-0.669	Yaw:	-4.285	Thrust:	66.119
Time:	6.655	Roll Set Point:	-0.082	Pitch Set Point:	-0.021	Yaw Set Point:	0.009	X_WP:	0.193	Y_WP:	-0.027	Y_WP:	0.500	X:	0.137	Y:	-0.003	Z:	0.430	yaw:	-0.529	yaw rate:	34.183	Roll:	-3.126	Pitch:	1.547	Yaw:	4.022	Thrust:	65.678
Time:	6.672	Roll Set Point:	-0.086	Pitch Set Point:	-0.019	Yaw Set Point:	0.013	X_WP:	0.198	Y_WP:	-0.027	Y_WP:	0.500	X:	0.142	Y:	-0.004	Z:	0.430	yaw:	-0.731	yaw rate:	-20.187	Roll:	-1.510	Pitch:	0.167	Yaw:	-4.614	Thrust:	64.746
Time:	6.693	Roll Set Point:	-0.101	Pitch Set Point:	-0.013	Yaw Set Point:	0.016	X_WP:	0.197	Y_WP:	-0.025	Y_WP:	0.500	X:	0.149	Y:	-0.005	Z:	0.428	yaw:	-0.927	yaw rate:	-19.641	Roll:	5.650	Pitch:	-2.769	Yaw:	-4.348	Thrust:	80.392
Time:	6.710	Roll Set Point:	-0.098	Pitch Set Point:	-0.015	Yaw Set Point:	0.011	X_WP:	0.210	Y_WP:	-0.028	Y_WP:	0.500	X:	0.154	Y:	-0.006	Z:	0.428	yaw:	-0.628	yaw rate:	29.909	Roll:	-9.528	Pitch:	3.529	Yaw:	3.222	Thrust:	64.945
Time:	6.728	Roll Set Point:	-0.102	Pitch Set Point:	-0.013	Yaw Set Point:	0.008	X_WP:	0.215	Y_WP:	-0.028	Y_WP:	0.500	X:	0.159	Y:	-0.007	Z:	0.427	yaw:	-0.434	yaw rate:	19.450	Roll:	-1.604	Pitch:	0.348	Yaw:	1.876	Thrust:	64.587
Time:	6.745	Roll Set Point:	-0.113	Pitch Set Point:	-0.010	Yaw Set Point:	0.006	X_WP:	0.218	Y_WP:	-0.026	Y_WP:	0.500	X:	0.165	Y:	-0.008	Z:	0.427	yaw:	-0.318	yaw rate:	11.561	Roll:	2.367	Pitch:	-1.473	Yaw:	0.745	Thrust:	67.761
Time:	6.762	Roll Set Point:	-0.114	Pitch Set Point:	-0.009	Yaw Set Point:	0.004	X_WP:	0.231	Y_WP:	-0.028	Y_WP:	0.500	X:	0.172	Y:	-0.009	Z:	0.426	yaw:	-0.230	yaw rate:	15.644	Roll:	-7.110	Pitch:	1.414	Yaw:	0.520	Thrust:	64.298
Time:	6.779	Roll Set Point:	-0.121	Pitch Set Point:	-0.007	Yaw Set Point:	0.003	X_WP:	0.234	Y_WP:	-0.027	Y_WP:	0.500	X:	0.177	Y:	-0.010	Z:	0.427	yaw:	-0.145	yaw rate:	8.496	Roll:	0.457	Pitch:	-0.829	Yaw:	0.587	Thrust:	63.944
Time:	6.796	Roll Set Point:	-0.126	Pitch Set Point:	-0.005	Yaw Set Point:	-0.000	X_WP:	0.240	Y_WP:	-0.027	Y_WP:	0.500	X:	0.183	Y:	-0.011	Z:	0.427	yaw:	0.001	yaw rate:	14.629	Roll:	-1.551	Pitch:	-0.189	Yaw:	1.735	Thrust:	63.482
