Time:	2.156	Roll Set Point:	-0.234	Pitch Set Point:	-0.125	Yaw Set Point:	-0.544	X_WP:	0.000	Y_WP:	0.000	Y_WP:	0.500	X:	0.099	Y:	0.095	Z:	0.400	yaw:	31.152	yaw rate:	-7.033	Roll:	3.893	Pitch:	0.873	Yaw:	43.497	Thrust:	5.527
Time:	2.172	Roll Set Point:	-0.235	Pitch Set Point:	-0.121	Yaw Set Point:	-0.586	X_WP:	0.000	Y_WP:	0.000	Y_WP:	0.500	X:	0.099	Y:	0.096	Z:	0.399	yaw:	33.552	yaw rate:	239.977	Roll:	5.580	Pitch:	-4.473	Yaw:	87.218	Thrust:	7.815
Time:	2.187	Roll Set Point:	-0.235	Pitch Set Point:	-0.121	Yaw Set Point:	-0.586	X_WP:	0.000	Y_WP:	0.000	Y_WP:	0.500	X:	0.099	Y:	0.096	Z:	0.399	yaw:	33.552	yaw rate:	239.977	Roll:	3.948	Pitch:	0.736	Yaw:	47.200	Thrust:	5.945
Time:	2.203	Roll Set Point:	-0.234	Pitch Set Point:	-0.125	Yaw Set Point:	-0.545	X_WP:	0.000	Y_WP:	0.000	Y_WP:	0.500	X:	0.099	Y:	0.095	Z:	0.400	yaw:	31.248	yaw rate:	-230.377	Roll:	2.332	Pitch:	5.785	Yaw:	5.649	Thrust:	3.953
Time:	2.219	Roll Set Point:	-0.234	Pitch Set Point:	-0.125	Yaw Set Point:	-0.545	X_WP:	0.000	Y_WP:	0.000	Y_WP:	0.500	X:	0.099	Y:	0.095	Z:	0.400	yaw:	31.248	yaw rate:	-230.377	Roll:	3.916	Pitch:	0.870	Yaw:	44.336	Thrust:	6.280
Time:	2.234	Roll Set Point:	-0.234	Pitch Set Point:	-0.125	Yaw Set Point:	-0.545	X_WP:	0.000	Y_WP:	0.000	Y_WP:	0.500	X:	0.099	Y:	0.095	Z:	0.400	yaw:	31.242	yaw rate:	-0.581	Roll:	3.918	Pitch:	0.909	Yaw:	44.402	Thrust:	6.407
Time:	2.250	Roll Set Point:	-0.234	Pitch Set Point:	-0.125	Yaw Set Point:	-0.545	X_WP:	0.000	Y_WP:	0.000	Y_WP:	0.500	X:	0.099	Y:	0.095	Z:	0.400	yaw:	31.231	yaw rate:	-1.186	Roll:	3.903	Pitch:	0.918	Yaw:	44.455	Thrust:	6.799
Time:	2.265	Roll Set Point:	-0.234	Pitch Set Point:	-0.125	Yaw Set Point:	-0.545	X_WP:	0.000	Y_WP:	0.000	Y_WP:	0.500	X:	0.099	Y:	0.095	Z:	0.400	yaw:	31.231	yaw rate:	-1.186	Roll:	3.931	Pitch:	0.875	Yaw:	44.824	Thrust:	6.848
Time:	2.281	Roll Set Point:	-0.234	Pitch Set Point:	-0.125	Yaw Set Point:	-0.545	X_WP:	0.000	Y_WP:	0.000	Y_WP:	0.500	X:	0.099	Y:	0.095	Z:	0.400	yaw:	31.249	yaw rate:	2.354	Roll:	3.959	Pitch:	0.829	Yaw:	45.326	Thrust:	6.980
Time:	2.297	Roll Set Point:	-0.234	Pitch Set Point:	-0.125	Yaw Set Point:	-0.545	X_WP:	0.000	Y_WP:	0.000	Y_WP:	0.500	X:	0.099	Y:	0.095	Z:	0.400	yaw:	31.249	yaw rate:	2.354	Roll:	3.942	Pitch:	0.877	Yaw:	45.190	Thrust:	7.224
Time:	2.312	Roll Set Point:	-0.234	Pitch Set Point:	-0.125	Yaw Set Point:	-0.545	X_WP:	0.000	Y_WP:	0.000	Y_WP:	0.500	X:	0.099	Y:	0.095	Z:	0.400	yaw:	31.244	yaw rate:	-0.451	Roll:	3.936	Pitch:	0.860	Yaw:	45.112	Thrust:	7.343
Time:	2.328	Roll Set Point:	-0.234	Pitch Set Point:	-0.123	Yaw Set Point:	-0.568	X_WP:	0.000	Y_WP:	0.000	Y_WP:	0.500	X:	0.099	Y:	0.096	Z:	0.399	yaw:	32.522	yaw rate:	6.003	Roll:	4.872	Pitch:	-1.846	Yaw:	68.346	Thrust:	9.091
Time:	2.344	Roll Set Point:	-0.234	Pitch Set Point:	-0.125	Yaw Set Point:	-0.543	X_WP:	0.000	Y_WP:	0.000	Y_WP:	0.500	X:	0.099	Y:	0.095	Z:	0.400	yaw:	31.125	yaw rate:	-139.695	Roll:	2.987	Pitch:	3.826	Yaw:	21.573	Thrust:	6.199
Time:	2.359	Roll Set Point:	-0.234	Pitch Set Point:	-0.125	Yaw Set Point:	-0.543	X_WP:	0.000	Y_WP:	0.000	Y_WP:	0.500	X:	0.099	Y:	0.095	Z:	0.400	yaw:	31.125	yaw rate:	-139.695	Roll:	3.961	Pitch:	0.888	Yaw:	45.022	Thrust:	7.975
Time:	2.375	Roll Set Point:	-0.234	Pitch Set Point:	-0.124	Yaw Set Point:	-0.552	X_WP:	0.000	Y_WP:	0.000	Y_WP:	0.500	X:	0.099	Y:	0.095	Z:	0.399	yaw:	31.622	yaw rate:	49.721	Roll:	4.396	Pitch:	-0.412	Yaw:	54.046	Thrust:	8.709
Time:	2.390	Roll Set Point:	-0.234	Pitch Set Point:	-0.125	Yaw Set Point:	-0.544	X_WP:	0.000	Y_WP:	0.000	Y_WP:	0.500	X:	0.099	Y:	0.095	Z:	0.400	yaw:	31.174	yaw rate:	-11.409	Roll:	3.591	Pitch:	1.991	Yaw:	37.576	Thrust:	7.889
Time:	2.406	Roll Set Point:	-0.235	Pitch Set Point:	-0.122	Yaw Set Point:	-0.585	X_WP:	0.000	Y_WP:	0.000	Y_WP:	0.500	X:	0.099	Y:	0.096	Z:	0.399	yaw:	33.540	yaw rate:	236.590	Roll:	5.654	Pitch:	-4.231	Yaw:	88.030	Thrust:	10.918
Time:	2.422	Roll Set Point:	-0.235	Pitch Set Point:	-0.122	Yaw Set Point:	-0.585	X_WP:	0.000	Y_WP:	0.000	Y_WP:	0.500	X:	0.099	Y:	0.096	Z:	0.399	yaw:	33.540	yaw rate:	236.590	Roll:	4.027	Pitch:	0.755	Yaw:	48.393	Thrust:	8.776
Time:	2.437	Roll Set Point:	-0.234	Pitch Set Point:	-0.125	Yaw Set Point:	-0.545	X_WP:	0.000	Y_WP:	0.000	Y_WP:	0.500	X:	0.099	Y:	0.095	Z:	0.400	yaw:	31.232	yaw rate:	-230.755	Roll:	2.375	Pitch:	5.786	Yaw:	6.513	Thrust:	6.601
Time:	2.453	Roll Set Point:	-0.234	Pitch Set Point:	-0.123	Yaw Set Point:	-0.568	X_WP:	0.000	Y_WP:	0.000	Y_WP:	0.500	X:	0.099	Y:	0.096	Z:	0.399	yaw:	32.569	yaw rate:	-52.129	Roll:	4.946	Pitch:	-1.974	Yaw:	69.435	Thrust:	10.659
Time:	2.469	Roll Set Point:	-0.234	Pitch Set Point:	-0.123	Yaw Set Point:	-0.567	X_WP:	0.000	Y_WP:	0.000	Y_WP:	0.500	X:	0.099	Y:	0.096	Z:	0.399	yaw:	32.509	yaw rate:	-6.020	Roll:	3.998	Pitch:	0.915	Yaw:	45.945	Thrust:	9.129
Time:	2.484	Roll Set Point:	-0.234	Pitch Set Point:	-0.123	Yaw Set Point:	-0.567	X_WP:	0.000	Y_WP:	0.000	Y_WP:	0.500	X:	0.099	Y:	0.096	Z:	0.399	yaw:	32.509	yaw rate:	-6.020	Roll:	4.029	Pitch:	0.819	Yaw:	46.955	Thrust:	9.516
Time:	2.500	Roll Set Point:	-0.234	Pitch Set Point:	-0.124	Yaw Set Point:	-0.552	X_WP:	0.000	Y_WP:	0.000	Y_WP:	0.500	X:	0.099	Y:	0.095	Z:	0.399	yaw:	31.614	yaw rate:	50.492	Roll:	3.471	Pitch:	2.572	Yaw:	30.710	Thrust:	8.900
Time:	2.515	Roll Set Point:	-0.234	Pitch Set Point:	-0.125	Yaw Set Point:	-0.543	X_WP:	0.000	Y_WP:	0.000	Y_WP:	0.500	X:	0.099	Y:	0.095	Z:	0.400	yaw:	31.115	yaw rate:	-49.914	Roll:	3.588	Pitch:	2.165	Yaw:	36.646	Thrust:	9.376
Time:	2.531	Roll Set Point:	-0.234	Pitch Set Point:	-0.125	Yaw Set Point:	-0.546	X_WP:	0.000	Y_WP:	0.000	Y_WP:	0.500	X:	0.099	Y:	0.095	Z:	0.400	yaw:	31.295	yaw rate:	17.971	Roll:	4.150	Pitch:	0.467	Yaw:	48.269	Thrust:	10.156
Time:	2.547	Roll Set Point:	-0.235	Pitch Set Point:	-0.122	Yaw Set Point:	-0.578	X_WP:	0.000	Y_WP:	0.000	Y_WP:	0.500	X:	0.099	Y:	0.096	Z:	0.399	yaw:	33.125	yaw rate:	183.027	Roll:	5.315	Pitch:	-3.069	Yaw:	78.477	Thrust:	12.496
Time:	2.562	Roll Set Point:	-0.233	Pitch Set Point:	-0.125	Yaw Set Point:	-0.532	X_WP:	0.000	Y_WP:	0.000	Y_WP:	0.500	X:	0.099	Y:	0.094	Z:	0.401	yaw:	30.476	yaw rate:	-264.905	Roll:	1.801	Pitch:	6.040	Yaw:	-0.266	Thrust:	4.165
Time:	2.578	Roll Set Point:	-0.233	Pitch Set Point:	-0.125	Yaw Set Point:	-0.532	X_WP:	0.000	Y_WP:	0.000	Y_WP:	0.500	X:	0.099	Y:	0.094	Z:	0.401	yaw:	30.476	yaw rate:	-264.905	Roll:	4.012	Pitch:	0.927	Yaw:	44.116	Thrust:	10.546
Time:	2.594	Roll Set Point:	-0.234	Pitch Set Point:	-0.125	Yaw Set Point:	-0.545	X_WP:	0.000	Y_WP:	0.000	Y_WP:	0.500	X:	0.099	Y:	0.095	Z:	0.400	yaw:	31.238	yaw rate:	-232.395	Roll:	4.959	Pitch:	-0.218	Yaw:	57.940	Thrust:	14.751
Time:	2.609	Roll Set Point:	-0.234	Pitch Set Point:	-0.125	Yaw Set Point:	-0.545	X_WP:	0.000	Y_WP:	0.000	Y_WP:	0.500	X:	0.099	Y:	0.095	Z:	0.400	yaw:	31.207	yaw rate:	-3.059	Roll:	4.041	Pitch:	0.967	Yaw:	44.624	Thrust:	10.889
Time:	2.625	Roll Set Point:	-0.234	Pitch Set Point:	-0.124	Yaw Set Point:	-0.552	X_WP:	0.000	Y_WP:	0.000	Y_WP:	0.500	X:	0.099	Y:	0.095	Z:	0.399	yaw:	31.606	yaw rate:	39.834	Roll:	4.384	Pitch:	-0.185	Yaw:	52.366	Thrust:	11.775
Time:	2.640	Roll Set Point:	-0.234	Pitch Set Point:	-0.125	Yaw Set Point:	-0.544	X_WP:	0.000	Y_WP:	0.000	Y_WP:	0.500	X:	0.099	Y:	0.095	Z:	0.400	yaw:	31.161	yaw rate:	-44.485	Roll:	3.681	Pitch:	2.079	Yaw:	37.618	Thrust:	10.850
Time:	2.656	Roll Set Point:	-0.234	Pitch Set Point:	-0.125	Yaw Set Point:	-0.544	X_WP:	0.000	Y_WP:	0.000	Y_WP:	0.500	X:	0.099	Y:	0.095	Z:	0.400	yaw:	31.161	yaw rate:	-44.485	Roll:	4.062	Pitch:	0.908	Yaw:	45.074	Thrust:	11.571
Time:	2.672	Roll Set Point:	-0.234	Pitch Set Point:	-0.125	Yaw Set Point:	-0.544	X_WP:	0.000	Y_WP:	0.000	Y_WP:	0.500	X:	0.099	Y:	0.095	Z:	0.400	yaw:	31.177	yaw rate:	-11.046	Roll:	4.078	Pitch:	0.831	Yaw:	45.372	Thrust:	11.574
Time:	2.687	Roll Set Point:	-0.234	Pitch Set Point:	-0.125	Yaw Set Point:	-0.546	X_WP:	0.000	Y_WP:	0.000	Y_WP:	0.500	X:	0.099	Y:	0.095	Z:	0.400	yaw:	31.255	yaw rate:	7.804	Roll:	4.111	Pitch:	0.785	Yaw:	46.511	Thrust:	12.176
Time:	2.703	Roll Set Point:	-0.235	Pitch Set Point:	-0.121	Yaw Set Point:	-0.586	X_WP:	0.000	Y_WP:	0.000	Y_WP:	0.500	X:	0.099	Y:	0.096	Z:	0.399	yaw:	33.574	yaw rate:	231.849	Roll:	5.723	Pitch:	-4.251	Yaw:	87.204	Thrust:	14.312
Time:	2.719	Roll Set Point:	-0.234	Pitch Set Point:	-0.125	Yaw Set Point:	-0.544	X_WP:	0.000	Y_WP:	0.000	Y_WP:	0.500	X:	0.099	Y:	0.095	Z:	0.400	yaw:	31.143	yaw rate:	-243.144	Roll:	2.425	Pitch:	6.186	Yaw:	4.228	Thrust:	10.098
Time:	2.734	Roll Set Point:	-0.234	Pitch Set Point:	-0.125	Yaw Set Point:	-0.544	X_WP:	0.000	Y_WP:	0.000	Y_WP:	0.500	X:	0.099	Y:	0.095	Z:	0.400	yaw:	31.143	yaw rate:	-243.144	Roll:	4.088	Pitch:	0.914	Yaw:	45.046	Thrust:	12.503
Time:	2.750	Roll Set Point:	-0.235	Pitch Set Point:	-0.121	Yaw Set Point:	-0.585	X_WP:	0.000	Y_WP:	0.000	Y_WP:	0.500	X:	0.099	Y:	0.096	Z:	0.399	yaw:	33.503	yaw rate:	228.791	Roll:	5.769	Pitch:	-4.346	Yaw:	87.882	Thrust:	14.828
Time:	2.766	Roll Set Point:	-0.234	Pitch Set Point:	-0.124	Yaw Set Point:	-0.552	X_WP:	0.000	Y_WP:	0.000	Y_WP:	0.500	X:	0.099	Y:	0.095	Z:	0.399	yaw:	31.600	yaw rate:	-190.367	Roll:	2.845	Pitch:	4.854	Yaw:	13.776	Thrust:	11.315
Time:	2.781	Roll Set Point:	-0.234	Pitch Set Point:	-0.124	Yaw Set Point:	-0.552	X_WP:	0.000	Y_WP:	0.000	Y_WP:	0.500	X:	0.099	Y:	0.095	Z:	0.399	yaw:	31.600	yaw rate:	-190.367	Roll:	4.113	Pitch:	0.887	Yaw:	45.684	Thrust:	13.080
Time:	2.796	Roll Set Point:	-0.234	Pitch Set Point:	-0.125	Yaw Set Point:	-0.546	X_WP:	0.000	Y_WP:	0.000	Y_WP:	0.500	X:	0.099	Y:	0.095	Z:	0.399	yaw:	31.277	yaw rate:	9.370	Roll:	3.807	Pitch:	1.814	Yaw:	39.633	Thrust:	12.685
Time:	2.813	Roll Set Point:	-0.234	Pitch Set Point:	-0.124	Yaw Set Point:	-0.552	X_WP:	0.000	Y_WP:	0.000	Y_WP:	0.500	X:	0.099	Y:	0.095	Z:	0.399	yaw:	31.626	yaw rate:	34.870	Roll:	4.446	Pitch:	-0.051	Yaw:	51.294	Thrust:	14.142
Time:	2.829	Roll Set Point:	-0.234	Pitch Set Point:	-0.124	Yaw Set Point:	-0.552	X_WP:	0.000	Y_WP:	0.000	Y_WP:	0.500	X:	0.099	Y:	0.095	Z:	0.399	yaw:	31.626	yaw rate:	34.870	Roll:	4.131	Pitch:	0.887	Yaw:	45.724	Thrust:	13.658
Time:	2.844	Roll Set Point:	-0.234	Pitch Set Point:	-0.125	Yaw Set Point:	-0.544	X_WP:	0.000	Y_WP:	0.000	Y_WP:	0.500	X:	0.099	Y:	0.095	Z:	0.400	yaw:	31.193	yaw rate:	-43.298	Roll:	3.737	Pitch:	2.125	Yaw:	37.845	Thrust:	13.551
Time:	2.860	Roll Set Point:	-0.234	Pitch Set Point:	-0.125	Yaw Set Point:	-0.544	X_WP:	0.000	Y_WP:	0.000	Y_WP:	0.500	X:	0.099	Y:	0.095	Z:	0.400	yaw:	31.193	yaw rate:	-43.298	Roll:	4.130	Pitch:	0.921	Yaw:	45.116	Thrust:	14.013
Time:	2.876	Roll Set Point:	-0.234	Pitch Set Point:	-0.125	Yaw Set Point:	-0.545	X_WP:	0.000	Y_WP:	0.000	Y_WP:	0.500	X:	0.099	Y:	0.095	Z:	0.400	yaw:	31.222	yaw rate:	9.968	Roll:	4.156	Pitch:	0.771	Yaw:	45.649	Thrust:	14.006
Time:	2.891	Roll Set Point:	-0.234	Pitch Set Point:	-0.123	Yaw Set Point:	-0.567	X_WP:	0.000	Y_WP:	0.000	Y_WP:	0.500	X:	0.099	Y:	0.096	Z:	0.399	yaw:	32.470	yaw rate:	124.795	Roll:	5.013	Pitch:	-1.633	Yaw:	67.805	Thrust:	15.920
Time:	2.907	Roll Set Point:	-0.234	Pitch Set Point:	-0.123	Yaw Set Point:	-0.567	X_WP:	0.000	Y_WP:	0.000	Y_WP:	0.500	X:	0.099	Y:	0.096	Z:	0.399	yaw:	32.488	yaw rate:	1.839	Roll:	4.212	Pitch:	0.706	Yaw:	47.233	Thrust:	14.866
Time:	2.922	Roll Set Point:	-0.234	Pitch Set Point:	-0.125	Yaw Set Point:	-0.544	X_WP:	0.000	Y_WP:	0.000	Y_WP:	0.500	X:	0.099	Y:	0.095	Z:	0.400	yaw:	31.149	yaw rate:	-133.906	Roll:	3.212	Pitch:	3.764	Yaw:	22.666	Thrust:	13.170
Time:	2.938	Roll Set Point:	-0.234	Pitch Set Point:	-0.124	Yaw Set Point:	-0.552	X_WP:	0.000	Y_WP:	0.000	Y_WP:	0.500	X:	0.099	Y:	0.095	Z:	0.399	yaw:	31.630	yaw rate:	48.042	Roll:	4.572	Pitch:	-0.352	Yaw:	53.787	Thrust:	15.442
Time:	2.954	Roll Set Point:	-0.234	Pitch Set Point:	-0.124	Yaw Set Point:	-0.551	X_WP:	0.000	Y_WP:	0.000	Y_WP:	0.500	X:	0.099	Y:	0.095	Z:	0.399	yaw:	31.582	yaw rate:	-4.794	Roll:	4.149	Pitch:	1.063	Yaw:	44.861	Thrust:	15.142
Time:	2.969	Roll Set Point:	-0.234	Pitch Set Point:	-0.124	Yaw Set Point:	-0.552	X_WP:	0.000	Y_WP:	0.000	Y_WP:	0.500	X:	0.099	Y:	0.095	Z:	0.399	yaw:	31.651	yaw rate:	6.923	Roll:	4.211	Pitch:	0.739	Yaw:	46.915	Thrust:	15.483
Time:	2.985	Roll Set Point:	-0.235	Pitch Set Point:	-0.121	Yaw Set Point:	-0.586	X_WP:	0.000	Y_WP:	0.000	Y_WP:	0.500	X:	0.099	Y:	0.096	Z:	0.399	yaw:	33.559	yaw rate:	190.792	Roll:	5.467	Pitch:	-3.198	Yaw:	80.381	Thrust:	17.113
Time:	3.001	Roll Set Point:	-0.234	Pitch Set Point:	-0.125	Yaw Set Point:	-0.546	X_WP:	0.000	Y_WP:	0.000	Y_WP:	0.500	X:	0.099	Y:	0.095	Z:	0.400	yaw:	31.258	yaw rate:	-230.144	Roll:	2.580	Pitch:	5.922	Yaw:	6.646	Thrust:	13.603
Time:	3.016	Roll Set Point:	-0.234	Pitch Set Point:	-0.125	Yaw Set Point:	-0.545	X_WP:	0.000	Y_WP:	0.000	Y_WP:	0.500	X:	0.099	Y:	0.095	Z:	0.400	yaw:	31.205	yaw rate:	-5.239	Roll:	4.159	Pitch:	1.032	Yaw:	44.256	Thrust:	15.712
Time:	3.032	Roll Set Point:	-0.234	Pitch Set Point:	-0.125	Yaw Set Point:	-0.545	X_WP:	0.000	Y_WP:	0.000	Y_WP:	0.500	X:	0.099	Y:	0.095	Z:	0.400	yaw:	31.205	yaw rate:	-5.239	Roll:	4.189	Pitch:	0.931	Yaw:	45.133	Thrust:	16.087
Time:	3.047	Roll Set Point:	-0.234	Pitch Set Point:	-0.125	Yaw Set Point:	-0.546	X_WP:	0.000	Y_WP:	0.000	Y_WP:	0.500	X:	0.099	Y:	0.095	Z:	0.400	yaw:	31.268	yaw rate:	2.761	Roll:	4.225	Pitch:	0.798	Yaw:	46.277	Thrust:	16.431
Time:	3.063	Roll Set Point:	-0.234	Pitch Set Point:	-0.125	Yaw Set Point:	-0.544	X_WP:	0.000	Y_WP:	0.000	Y_WP:	0.500	X:	0.099	Y:	0.095	Z:	0.400	yaw:	31.180	yaw rate:	-8.803	Roll:	4.149	Pitch:	1.151	Yaw:	43.630	Thrust:	16.526
Time:	3.079	Roll Set Point:	-0.234	Pitch Set Point:	-0.125	Yaw Set Point:	-0.544	X_WP:	0.000	Y_WP:	0.000	Y_WP:	0.500	X:	0.099	Y:	0.095	Z:	0.400	yaw:	31.180	yaw rate:	-8.803	Roll:	4.203	Pitch:	0.937	Yaw:	45.095	Thrust:	16.633
Time:	3.095	Roll Set Point:	-0.234	Pitch Set Point:	-0.125	Yaw Set Point:	-0.546	X_WP:	0.000	Y_WP:	0.000	Y_WP:	0.500	X:	0.099	Y:	0.095	Z:	0.400	yaw:	31.272	yaw rate:	-0.674	Roll:	4.271	Pitch:	0.744	Yaw:	46.774	Thrust:	17.087
Time:	3.122	Roll Set Point:	-0.235	Pitch Set Point:	-0.121	Yaw Set Point:	-0.585	X_WP:	0.000	Y_WP:	0.000	Y_WP:	0.500	X:	0.099	Y:	0.096	Z:	0.399	yaw:	33.510	yaw rate:	224.056	Roll:	5.387	Pitch:	-1.876	Yaw:	70.688	Thrust:	27.234
Time:	3.138	Roll Set Point:	-0.234	Pitch Set Point:	-0.125	Yaw Set Point:	-0.544	X_WP:	0.000	Y_WP:	0.000	Y_WP:	0.500	X:	0.099	Y:	0.095	Z:	0.399	yaw:	31.177	yaw rate:	-233.372	Roll:	2.607	Pitch:	6.018	Yaw:	5.990	Thrust:	15.093
Time:	3.154	Roll Set Point:	-0.234	Pitch Set Point:	-0.124	Yaw Set Point:	-0.552	X_WP:	0.000	Y_WP:	0.000	Y_WP:	0.500	X:	0.099	Y:	0.095	Z:	0.399	yaw:	31.615	yaw rate:	43.854	Roll:	4.610	Pitch:	-0.282	Yaw:	53.053	Thrust:	17.677
Time:	3.169	Roll Set Point:	-0.234	Pitch Set Point:	-0.124	Yaw Set Point:	-0.552	X_WP:	0.000	Y_WP:	0.000	Y_WP:	0.500	X:	0.099	Y:	0.095	Z:	0.399	yaw:	31.622	yaw rate:	0.691	Roll:	4.240	Pitch:	0.923	Yaw:	45.831	Thrust:	17.747
Time:	3.185	Roll Set Point:	-0.234	Pitch Set Point:	-0.125	Yaw Set Point:	-0.545	X_WP:	0.000	Y_WP:	0.000	Y_WP:	0.500	X:	0.099	Y:	0.095	Z:	0.400	yaw:	31.229	yaw rate:	-39.279	Roll:	3.889	Pitch:	1.961	Yaw:	38.588	Thrust:	17.289
Time:	3.201	Roll Set Point:	-0.234	Pitch Set Point:	-0.125	Yaw Set Point:	-0.546	X_WP:	0.000	Y_WP:	0.000	Y_WP:	0.500	X:	0.099	Y:	0.095	Z:	0.400	yaw:	31.278	yaw rate:	4.874	Roll:	4.261	Pitch:	0.854	Yaw:	46.051	Thrust:	18.031
Time:	3.216	Roll Set Point:	-0.234	Pitch Set Point:	-0.124	Yaw Set Point:	-0.552	X_WP:	0.000	Y_WP:	0.000	Y_WP:	0.500	X:	0.099	Y:	0.095	Z:	0.399	yaw:	31.652	yaw rate:	37.389	Roll:	4.607	Pitch:	-0.110	Yaw:	52.020	Thrust:	18.531
Time:	3.232	Roll Set Point:	-0.235	Pitch Set Point:	-0.122	Yaw Set Point:	-0.578	X_WP:	0.000	Y_WP:	0.000	Y_WP:	0.500	X:	0.099	Y:	0.096	Z:	0.399	yaw:	33.098	yaw rate:	144.576	Roll:	5.214	Pitch:	-1.953	Yaw:	72.002	Thrust:	20.292
Time:	3.247	Roll Set Point:	-0.234	Pitch Set Point:	-0.123	Yaw Set Point:	-0.566	X_WP:	0.000	Y_WP:	0.000	Y_WP:	0.500	X:	0.099	Y:	0.096	Z:	0.399	yaw:	32.438	yaw rate:	-65.983	Roll:	3.816	Pitch:	2.271	Yaw:	35.801	Thrust:	17.535
Time:	3.263	Roll Set Point:	-0.234	Pitch Set Point:	-0.125	Yaw Set Point:	-0.544	X_WP:	0.000	Y_WP:	0.000	Y_WP:	0.500	X:	0.099	Y:	0.095	Z:	0.400	yaw:	31.156	yaw rate:	-128.161	Roll:	3.391	Pitch:	3.601	Yaw:	23.592	Thrust:	17.399
Time:	3.279	Roll Set Point:	-0.234	Pitch Set Point:	-0.125	Yaw Set Point:	-0.546	X_WP:	0.000	Y_WP:	0.000	Y_WP:	0.500	X:	0.099	Y:	0.095	Z:	0.400	yaw:	31.267	yaw rate:	11.092	Roll:	4.321	Pitch:	0.742	Yaw:	47.078	Thrust:	19.017
Time:	3.294	Roll Set Point:	-0.235	Pitch Set Point:	-0.122	Yaw Set Point:	-0.579	X_WP:	0.000	Y_WP:	0.000	Y_WP:	0.500	X:	0.099	Y:	0.096	Z:	0.399	yaw:	33.157	yaw rate:	189.035	Roll:	5.611	Pitch:	-3.154	Yaw:	79.527	Thrust:	21.307
Time:	3.310	Roll Set Point:	-0.234	Pitch Set Point:	-0.123	Yaw Set Point:	-0.567	X_WP:	0.000	Y_WP:	0.000	Y_WP:	0.500	X:	0.099	Y:	0.096	Z:	0.399	yaw:	32.473	yaw rate:	-68.495	Roll:	3.845	Pitch:	2.311	Yaw:	35.427	Thrust:	18.383
Time:	3.326	Roll Set Point:	-0.234	Pitch Set Point:	-0.123	Yaw Set Point:	-0.567	X_WP:	0.000	Y_WP:	0.000	Y_WP:	0.500	X:	0.099	Y:	0.096	Z:	0.399	yaw:	32.473	yaw rate:	-68.495	Roll:	4.307	Pitch:	0.881	Yaw:	46.903	Thrust:	19.513
Time:	3.341	Roll Set Point:	-0.234	Pitch Set Point:	-0.124	Yaw Set Point:	-0.551	X_WP:	0.000	Y_WP:	0.000	Y_WP:	0.500	X:	0.099	Y:	0.095	Z:	0.399	yaw:	31.592	yaw rate:	-197.088	Roll:	3.766	Pitch:	2.614	Yaw:	30.923	Thrust:	18.899
Time:	3.357	Roll Set Point:	-0.234	Pitch Set Point:	-0.125	Yaw Set Point:	-0.544	X_WP:	0.000	Y_WP:	0.000	Y_WP:	0.500	X:	0.099	Y:	0.095	Z:	0.400	yaw:	31.188	yaw rate:	-40.439	Roll:	3.938	Pitch:	2.012	Yaw:	38.334	Thrust:	19.283
Time:	3.372	Roll Set Point:	-0.234	Pitch Set Point:	-0.124	Yaw Set Point:	-0.552	X_WP:	0.000	Y_WP:	0.000	Y_WP:	0.500	X:	0.099	Y:	0.095	Z:	0.399	yaw:	31.647	yaw rate:	45.928	Roll:	4.700	Pitch:	-0.258	Yaw:	53.445	Thrust:	20.678
Time:	3.388	Roll Set Point:	-0.234	Pitch Set Point:	-0.124	Yaw Set Point:	-0.551	X_WP:	0.000	Y_WP:	0.000	Y_WP:	0.500	X:	0.099	Y:	0.095	Z:	0.399	yaw:	31.596	yaw rate:	-5.101	Roll:	4.280	Pitch:	1.007	Yaw:	44.825	Thrust:	20.257
Time:	3.406	Roll Set Point:	-0.235	Pitch Set Point:	-0.121	Yaw Set Point:	-0.585	X_WP:	0.000	Y_WP:	0.000	Y_WP:	0.500	X:	0.099	Y:	0.096	Z:	0.399	yaw:	33.546	yaw rate:	195.048	Roll:	5.533	Pitch:	-2.739	Yaw:	77.649	Thrust:	23.866
Time:	3.428	Roll Set Point:	-0.234	Pitch Set Point:	-0.124	Yaw Set Point:	-0.552	X_WP:	0.000	Y_WP:	0.000	Y_WP:	0.500	X:	0.099	Y:	0.095	Z:	0.399	yaw:	31.630	yaw rate:	-191.686	Roll:	3.599	Pitch:	3.774	Yaw:	23.498	Thrust:	25.483
Time:	3.443	Roll Set Point:	-0.235	Pitch Set Point:	-0.122	Yaw Set Point:	-0.585	X_WP:	0.000	Y_WP:	0.000	Y_WP:	0.500	X:	0.099	Y:	0.096	Z:	0.399	yaw:	33.522	yaw rate:	-3.039	Roll:	5.603	Pitch:	-2.985	Yaw:	80.072	Thrust:	22.708
Time:	3.459	Roll Set Point:	-0.234	Pitch Set Point:	-0.125	Yaw Set Point:	-0.543	X_WP:	0.000	Y_WP:	0.000	Y_WP:	0.500	X:	0.099	Y:	0.095	Z:	0.400	yaw:	31.129	yaw rate:	-239.313	Roll:	2.681	Pitch:	6.075	Yaw:	4.933	Thrust:	18.648
Time:	3.474	Roll Set Point:	-0.234	Pitch Set Point:	-0.124	Yaw Set Point:	-0.552	X_WP:	0.000	Y_WP:	0.000	Y_WP:	0.500	X:	0.099	Y:	0.095	Z:	0.399	yaw:	31.653	yaw rate:	52.452	Roll:	4.750	Pitch:	-0.444	Yaw:	54.546	Thrust:	21.670
Time:	3.490	Roll Set Point:	-0.234	Pitch Set Point:	-0.124	Yaw Set Point:	-0.551	X_WP:	0.000	Y_WP:	0.000	Y_WP:	0.500	X:	0.099	Y:	0.095	Z:	0.399	yaw:	31.595	yaw rate:	-5.858	Roll:	4.319	Pitch:	1.080	Yaw:	44.696	Thrust:	21.322
Time:	3.506	Roll Set Point:	-0.234	Pitch Set Point:	-0.125	Yaw Set Point:	-0.546	X_WP:	0.000	Y_WP:	0.000	Y_WP:	0.500	X:	0.099	Y:	0.095	Z:	0.400	yaw:	31.260	yaw rate:	-33.480	Roll:	4.037	Pitch:	1.929	Yaw:	39.602	Thrust:	21.230
Time:	3.521	Roll Set Point:	-0.234	Pitch Set Point:	-0.125	Yaw Set Point:	-0.545	X_WP:	0.000	Y_WP:	0.000	Y_WP:	0.500	X:	0.099	Y:	0.095	Z:	0.400	yaw:	31.225	yaw rate:	-3.456	Roll:	4.309	Pitch:	0.976	Yaw:	44.582	Thrust:	21.704
Time:	3.537	Roll Set Point:	-0.234	Pitch Set Point:	-0.125	Yaw Set Point:	-0.545	X_WP:	0.000	Y_WP:	0.000	Y_WP:	0.500	X:	0.099	Y:	0.095	Z:	0.400	yaw:	31.247	yaw rate:	2.127	Roll:	4.370	Pitch:	0.872	Yaw:	45.548	Thrust:	21.939
Time:	3.553	Roll Set Point:	-0.234	Pitch Set Point:	-0.124	Yaw Set Point:	-0.552	X_WP:	0.000	Y_WP:	0.000	Y_WP:	0.500	X:	0.099	Y:	0.095	Z:	0.399	yaw:	31.635	yaw rate:	38.872	Roll:	4.721	Pitch:	0.003	Yaw:	52.247	Thrust:	22.577
Time:	3.568	Roll Set Point:	-0.234	Pitch Set Point:	-0.124	Yaw Set Point:	-0.552	X_WP:	0.000	Y_WP:	0.000	Y_WP:	0.500	X:	0.099	Y:	0.095	Z:	0.399	yaw:	31.635	yaw rate:	38.872	Roll:	4.372	Pitch:	0.940	Yaw:	45.734	Thrust:	22.328
Time:	3.584	Roll Set Point:	-0.234	Pitch Set Point:	-0.125	Yaw Set Point:	-0.545	X_WP:	0.000	Y_WP:	0.000	Y_WP:	0.500	X:	0.099	Y:	0.095	Z:	0.400	yaw:	31.238	yaw rate:	5.918	Roll:	4.010	Pitch:	1.955	Yaw:	38.515	Thrust:	22.044
Time:	3.600	Roll Set Point:	-0.234	Pitch Set Point:	-0.125	Yaw Set Point:	-0.546	X_WP:	0.000	Y_WP:	0.000	Y_WP:	0.500	X:	0.099	Y:	0.095	Z:	0.400	yaw:	31.257	yaw rate:	1.969	Roll:	4.407	Pitch:	0.908	Yaw:	45.536	Thrust:	22.746
Time:	3.615	Roll Set Point:	-0.234	Pitch Set Point:	-0.124	Yaw Set Point:	-0.552	X_WP:	0.000	Y_WP:	0.000	Y_WP:	0.500	X:	0.099	Y:	0.095	Z:	0.399	yaw:	31.612	yaw rate:	35.478	Roll:	4.697	Pitch:	0.059	Yaw:	51.646	Thrust:	23.320
Time:	3.631	Roll Set Point:	-0.234	Pitch Set Point:	-0.124	Yaw Set Point:	-0.552	X_WP:	0.000	Y_WP:	0.000	Y_WP:	0.500	X:	0.099	Y:	0.095	Z:	0.399	yaw:	31.612	yaw rate:	35.478	Roll:	4.393	Pitch:	0.945	Yaw:	45.702	Thrust:	23.083
Time:	3.646	Roll Set Point:	-0.234	Pitch Set Point:	-0.125	Yaw Set Point:	-0.545	X_WP:	0.000	Y_WP:	0.000	Y_WP:	0.500	X:	0.099	Y:	0.095	Z:	0.400	yaw:	31.210	yaw rate:	6.787	Roll:	4.045	Pitch:	1.991	Yaw:	38.401	Thrust:	22.742
Time:	3.662	Roll Set Point:	-0.235	Pitch Set Point:	-0.121	Yaw Set Point:	-0.585	X_WP:	0.000	Y_WP:	0.000	Y_WP:	0.500	X:	0.099	Y:	0.096	Z:	0.399	yaw:	33.538	yaw rate:	232.852	Roll:	6.021	Pitch:	-4.137	Yaw:	87.402	Thrust:	25.867
Time:	3.678	Roll Set Point:	-0.235	Pitch Set Point:	-0.121	Yaw Set Point:	-0.585	X_WP:	0.000	Y_WP:	0.000	Y_WP:	0.500	X:	0.099	Y:	0.096	Z:	0.399	yaw:	33.538	yaw rate:	232.852	Roll:	4.442	Pitch:	0.843	Yaw:	48.391	Thrust:	23.685
Time:	3.693	Roll Set Point:	-0.234	Pitch Set Point:	-0.125	Yaw Set Point:	-0.544	X_WP:	0.000	Y_WP:	0.000	Y_WP:	0.500	X:	0.099	Y:	0.095	Z:	0.400	yaw:	31.154	yaw rate:	-238.400	Roll:	2.766	Pitch:	6.143	Yaw:	5.136	Thrust:	21.567
Time:	3.709	Roll Set Point:	-0.234	Pitch Set Point:	-0.125	Yaw Set Point:	-0.543	X_WP:	0.000	Y_WP:	0.000	Y_WP:	0.500	X:	0.099	Y:	0.095	Z:	0.400	yaw:	31.140	yaw rate:	-240.845	Roll:	4.401	Pitch:	1.022	Yaw:	44.801	Thrust:	24.039
Time:	3.725	Roll Set Point:	-0.234	Pitch Set Point:	-0.125	Yaw Set Point:	-0.545	X_WP:	0.000	Y_WP:	0.000	Y_WP:	0.500	X:	0.099	Y:	0.095	Z:	0.400	yaw:	31.229	yaw rate:	8.939	Roll:	4.479	Pitch:	0.689	Yaw:	46.665	Thrust:	24.145
Time:	3.740	Roll Set Point:	-0.235	Pitch Set Point:	-0.122	Yaw Set Point:	-0.578	X_WP:	0.000	Y_WP:	0.000	Y_WP:	0.500	X:	0.099	Y:	0.096	Z:	0.399	yaw:	33.107	yaw rate:	187.730	Roll:	5.736	Pitch:	-3.048	Yaw:	79.237	Thrust:	26.741
Time:	3.756	Roll Set Point:	-0.235	Pitch Set Point:	-0.122	Yaw Set Point:	-0.578	X_WP:	0.000	Y_WP:	0.000	Y_WP:	0.500	X:	0.099	Y:	0.096	Z:	0.399	yaw:	33.107	yaw rate:	187.730	Roll:	4.460	Pitch:	0.875	Yaw:	47.788	Thrust:	24.630
Time:	3.771	Roll Set Point:	-0.235	Pitch Set Point:	-0.122	Yaw Set Point:	-0.585	X_WP:	0.000	Y_WP:	0.000	Y_WP:	0.500	X:	0.099	Y:	0.096	Z:	0.399	yaw:	33.536	yaw rate:	42.970	Roll:	4.790	Pitch:	-0.120	Yaw:	55.588	Thrust:	24.743
Time:	3.787	Roll Set Point:	-0.235	Pitch Set Point:	-0.122	Yaw Set Point:	-0.585	X_WP:	0.000	Y_WP:	0.000	Y_WP:	0.500	X:	0.099	Y:	0.096	Z:	0.399	yaw:	33.536	yaw rate:	42.970	Roll:	4.479	Pitch:	0.851	Yaw:	48.389	Thrust:	25.011
Time:	3.812	Roll Set Point:	-0.234	Pitch Set Point:	-0.125	Yaw Set Point:	-0.544	X_WP:	0.000	Y_WP:	0.000	Y_WP:	0.500	X:	0.099	Y:	0.095	Z:	0.400	yaw:	31.151	yaw rate:	-238.565	Roll:	3.750	Pitch:	4.234	Yaw:	21.244	Thrust:	35.823
Time:	3.828	Roll Set Point:	-0.234	Pitch Set Point:	-0.124	Yaw Set Point:	-0.551	X_WP:	0.000	Y_WP:	0.000	Y_WP:	0.500	X:	0.099	Y:	0.095	Z:	0.399	yaw:	31.595	yaw rate:	-5.496	Roll:	4.850	Pitch:	-0.164	Yaw:	53.117	Thrust:	25.734
Time:	3.843	Roll Set Point:	-0.234	Pitch Set Point:	-0.125	Yaw Set Point:	-0.546	X_WP:	0.000	Y_WP:	0.000	Y_WP:	0.500	X:	0.099	Y:	0.095	Z:	0.400	yaw:	31.296	yaw rate:	-29.936	Roll:	4.160	Pitch:	1.782	Yaw:	40.244	Thrust:	25.224
Time:	3.859	Roll Set Point:	-0.234	Pitch Set Point:	-0.125	Yaw Set Point:	-0.546	X_WP:	0.000	Y_WP:	0.000	Y_WP:	0.500	X:	0.099	Y:	0.095	Z:	0.400	yaw:	31.296	yaw rate:	-29.936	Roll:	4.459	Pitch:	0.984	Yaw:	45.260	Thrust:	25.723
Time:	3.875	Roll Set Point:	-0.234	Pitch Set Point:	-0.124	Yaw Set Point:	-0.553	X_WP:	0.000	Y_WP:	0.000	Y_WP:	0.500	X:	0.099	Y:	0.095	Z:	0.399	yaw:	31.657	yaw rate:	43.798	Roll:	4.787	Pitch:	0.015	Yaw:	51.815	Thrust:	26.331
Time:	3.890	Roll Set Point:	-0.234	Pitch Set Point:	-0.125	Yaw Set Point:	-0.546	X_WP:	0.000	Y_WP:	0.000	Y_WP:	0.500	X:	0.099	Y:	0.095	Z:	0.400	yaw:	31.257	yaw rate:	-40.006	Roll:	4.130	Pitch:	2.011	Yaw:	38.503	Thrust:	25.545
Time:	3.906	Roll Set Point:	-0.235	Pitch Set Point:	-0.122	Yaw Set Point:	-0.579	X_WP:	0.000	Y_WP:	0.000	Y_WP:	0.500	X:	0.099	Y:	0.096	Z:	0.399	yaw:	33.162	yaw rate:	190.588	Roll:	5.802	Pitch:	-3.203	Yaw:	79.796	Thrust:	28.579
Time:	3.922	Roll Set Point:	-0.234	Pitch Set Point:	-0.123	Yaw Set Point:	-0.568	X_WP:	0.000	Y_WP:	0.000	Y_WP:	0.500	X:	0.099	Y:	0.096	Z:	0.399	yaw:	32.568	yaw rate:	-59.442	Roll:	4.107	Pitch:	2.287	Yaw:	37.078	Thrust:	25.790
Time:	3.937	Roll Set Point:	-0.234	Pitch Set Point:	-0.123	Yaw Set Point:	-0.568	X_WP:	0.000	Y_WP:	0.000	Y_WP:	0.500	X:	0.099	Y:	0.096	Z:	0.399	yaw:	32.527	yaw rate:	-4.073	Roll:	4.478	Pitch:	0.992	Yaw:	46.297	Thrust:	26.624
Time:	3.953	Roll Set Point:	-0.235	Pitch Set Point:	-0.122	Yaw Set Point:	-0.578	X_WP:	0.000	Y_WP:	0.000	Y_WP:	0.500	X:	0.099	Y:	0.096	Z:	0.399	yaw:	33.124	yaw rate:	59.682	Roll:	4.917	Pitch:	-0.427	Yaw:	57.811	Thrust:	27.724
Time:	3.969	Roll Set Point:	-0.234	Pitch Set Point:	-0.123	Yaw Set Point:	-0.566	X_WP:	0.000	Y_WP:	0.000	Y_WP:	0.500	X:	0.099	Y:	0.096	Z:	0.399	yaw:	32.418	yaw rate:	-70.648	Roll:	4.019	Pitch:	2.493	Yaw:	34.991	Thrust:	26.091
Time:	3.984	Roll Set Point:	-0.234	Pitch Set Point:	-0.123	Yaw Set Point:	-0.566	X_WP:	0.000	Y_WP:	0.000	Y_WP:	0.500	X:	0.099	Y:	0.096	Z:	0.399	yaw:	32.418	yaw rate:	-70.648	Roll:	4.502	Pitch:	0.931	Yaw:	46.826	Thrust:	27.256
Time:	4.000	Roll Set Point:	-0.234	Pitch Set Point:	-0.125	Yaw Set Point:	-0.544	X_WP:	0.000	Y_WP:	0.000	Y_WP:	0.500	X:	0.099	Y:	0.095	Z:	0.400	yaw:	31.148	yaw rate:	-239.047	Roll:	3.608	Pitch:	3.689	Yaw:	23.784	Thrust:	26.134
Time:	4.015	Roll Set Point:	-0.234	Pitch Set Point:	-0.125	Yaw Set Point:	-0.544	X_WP:	0.000	Y_WP:	0.000	Y_WP:	0.500	X:	0.099	Y:	0.095	Z:	0.400	yaw:	31.148	yaw rate:	-239.047	Roll:	4.479	Pitch:	1.004	Yaw:	45.054	Thrust:	27.610
Time:	4.031	Roll Set Point:	-0.234	Pitch Set Point:	-0.124	Yaw Set Point:	-0.552	X_WP:	0.000	Y_WP:	0.000	Y_WP:	0.500	X:	0.099	Y:	0.095	Z:	0.399	yaw:	31.639	yaw rate:	-0.131	Roll:	4.907	Pitch:	-0.341	Yaw:	53.959	Thrust:	28.325
Time:	4.047	Roll Set Point:	-0.234	Pitch Set Point:	-0.125	Yaw Set Point:	-0.544	X_WP:	0.000	Y_WP:	0.000	Y_WP:	0.500	X:	0.099	Y:	0.095	Z:	0.400	yaw:	31.148	yaw rate:	-49.093	Roll:	4.064	Pitch:	2.258	Yaw:	36.829	Thrust:	27.418
Time:	4.062	Roll Set Point:	-0.234	Pitch Set Point:	-0.125	Yaw Set Point:	-0.545	X_WP:	0.000	Y_WP:	0.000	Y_WP:	0.500	X:	0.099	Y:	0.095	Z:	0.400	yaw:	31.231	yaw rate:	8.302	Roll:	4.547	Pitch:	0.847	Yaw:	46.560	Thrust:	28.289
Time:	4.078	Roll Set Point:	-0.234	Pitch Set Point:	-0.125	Yaw Set Point:	-0.545	X_WP:	0.000	Y_WP:	0.000	Y_WP:	0.500	X:	0.099	Y:	0.095	Z:	0.400	yaw:	31.253	yaw rate:	2.252	Roll:	4.487	Pitch:	0.942	Yaw:	45.578	Thrust:	28.321
Time:	4.094	Roll Set Point:	-0.234	Pitch Set Point:	-0.124	Yaw Set Point:	-0.552	X_WP:	0.000	Y_WP:	0.000	Y_WP:	0.500	X:	0.099	Y:	0.095	Z:	0.399	yaw:	31.612	yaw rate:	35.847	Roll:	4.810	Pitch:	0.006	Yaw:	51.707	Thrust:	29.098
Time:	4.109	Roll Set Point:	-0.235	Pitch Set Point:	-0.121	Yaw Set Point:	-0.586	X_WP:	0.000	Y_WP:	0.000	Y_WP:	0.500	X:	0.099	Y:	0.096	Z:	0.399	yaw:	33.552	yaw rate:	194.052	Roll:	5.782	Pitch:	-3.141	Yaw:	80.919	Thrust:	30.483
Time:	4.125	Roll Set Point:	-0.234	Pitch Set Point:	-0.125	Yaw Set Point:	-0.545	X_WP:	0.000	Y_WP:	0.000	Y_WP:	0.500	X:	0.099	Y:	0.095	Z:	0.400	yaw:	31.238	yaw rate:	-231.481	Roll:	2.891	Pitch:	6.034	Yaw:	6.401	Thrust:	26.718
Time:	4.140	Roll Set Point:	-0.234	Pitch Set Point:	-0.124	Yaw Set Point:	-0.552	X_WP:	0.000	Y_WP:	0.000	Y_WP:	0.500	X:	0.099	Y:	0.095	Z:	0.399	yaw:	31.629	yaw rate:	39.144	Roll:	4.832	Pitch:	-0.085	Yaw:	52.284	Thrust:	29.483
Time:	4.156	Roll Set Point:	-0.234	Pitch Set Point:	-0.124	Yaw Set Point:	-0.552	X_WP:	0.000	Y_WP:	0.000	Y_WP:	0.500	X:	0.099	Y:	0.095	Z:	0.399	yaw:	31.627	yaw rate:	-0.239	Roll:	4.495	Pitch:	0.981	Yaw:	45.682	Thrust:	29.425
Time:	4.172	Roll Set Point:	-0.234	Pitch Set Point:	-0.125	Yaw Set Point:	-0.545	X_WP:	0.000	Y_WP:	0.000	Y_WP:	0.500	X:	0.099	Y:	0.095	Z:	0.400	yaw:	31.210	yaw rate:	-41.619	Roll:	4.106	Pitch:	2.069	Yaw:	38.168	Thrust:	28.972
Time:	4.187	Roll Set Point:	-0.234	Pitch Set Point:	-0.125	Yaw Set Point:	-0.545	X_WP:	0.000	Y_WP:	0.000	Y_WP:	0.500	X:	0.099	Y:	0.095	Z:	0.400	yaw:	31.206	yaw rate:	-0.489	Roll:	4.489	Pitch:	1.073	Yaw:	45.052	Thrust:	29.678
Time:	4.203	Roll Set Point:	-0.234	Pitch Set Point:	-0.125	Yaw Set Point:	-0.545	X_WP:	0.000	Y_WP:	0.000	Y_WP:	0.500	X:	0.099	Y:	0.095	Z:	0.400	yaw:	31.206	yaw rate:	-0.489	Roll:	4.480	Pitch:	1.014	Yaw:	45.134	Thrust:	29.882
Time:	4.219	Roll Set Point:	-0.234	Pitch Set Point:	-0.125	Yaw Set Point:	-0.544	X_WP:	0.000	Y_WP:	0.000	Y_WP:	0.500	X:	0.099	Y:	0.095	Z:	0.400	yaw:	31.154	yaw rate:	-5.172	Roll:	4.443	Pitch:	1.155	Yaw:	44.194	Thrust:	30.139
Time:	4.234	Roll Set Point:	-0.234	Pitch Set Point:	-0.123	Yaw Set Point:	-0.565	X_WP:	0.000	Y_WP:	0.000	Y_WP:	0.500	X:	0.099	Y:	0.096	Z:	0.399	yaw:	32.392	yaw rate:	123.848	Roll:	5.344	Pitch:	-1.650	Yaw:	67.506	Thrust:	31.509
Time:	4.250	Roll Set Point:	-0.234	Pitch Set Point:	-0.123	Yaw Set Point:	-0.565	X_WP:	0.000	Y_WP:	0.000	Y_WP:	0.500	X:	0.099	Y:	0.096	Z:	0.399	yaw:	32.392	yaw rate:	123.848	Roll:	4.501	Pitch:	0.951	Yaw:	46.788	Thrust:	30.415
Time:	4.265	Roll Set Point:	-0.234	Pitch Set Point:	-0.123	Yaw Set Point:	-0.568	X_WP:	0.000	Y_WP:	0.000	Y_WP:	0.500	X:	0.099	Y:	0.096	Z:	0.399	yaw:	32.542	yaw rate:	-4.835	Roll:	4.603	Pitch:	0.648	Yaw:	49.516	Thrust:	30.931
Time:	4.281	Roll Set Point:	-0.234	Pitch Set Point:	-0.123	Yaw Set Point:	-0.567	X_WP:	0.000	Y_WP:	0.000	Y_WP:	0.500	X:	0.099	Y:	0.096	Z:	0.399	yaw:	32.510	yaw rate:	-3.262	Roll:	4.501	Pitch:	0.896	Yaw:	46.408	Thrust:	30.927
Time:	4.297	Roll Set Point:	-0.234	Pitch Set Point:	-0.123	Yaw Set Point:	-0.567	X_WP:	0.000	Y_WP:	0.000	Y_WP:	0.500	X:	0.099	Y:	0.096	Z:	0.399	yaw:	32.500	yaw rate:	-0.991	Roll:	4.480	Pitch:	1.036	Yaw:	46.775	Thrust:	30.751
Time:	4.312	Roll Set Point:	-0.234	Pitch Set Point:	-0.123	Yaw Set Point:	-0.570	X_WP:	0.000	Y_WP:	0.000	Y_WP:	0.500	X:	0.099	Y:	0.096	Z:	0.399	yaw:	32.631	yaw rate:	13.090	Roll:	4.616	Pitch:	0.730	Yaw:	49.317	Thrust:	31.441
Time:	4.328	Roll Set Point:	-0.234	Pitch Set Point:	-0.123	Yaw Set Point:	-0.570	X_WP:	0.000	Y_WP:	0.000	Y_WP:	0.500	X:	0.099	Y:	0.096	Z:	0.399	yaw:	32.631	yaw rate:	13.090	Roll:	4.506	Pitch:	0.944	Yaw:	47.124	Thrust:	31.416
Time:	4.344	Roll Set Point:	-0.234	Pitch Set Point:	-0.123	Yaw Set Point:	-0.567	X_WP:	0.000	Y_WP:	0.000	Y_WP:	0.500	X:	0.099	Y:	0.096	Z:	0.399	yaw:	32.509	yaw rate:	0.640	Roll:	4.418	Pitch:	1.090	Yaw:	44.912	Thrust:	31.772
Time:	4.359	Roll Set Point:	-0.234	Pitch Set Point:	-0.123	Yaw Set Point:	-0.567	X_WP:	0.000	Y_WP:	0.000	Y_WP:	0.500	X:	0.099	Y:	0.096	Z:	0.399	yaw:	32.509	yaw rate:	0.640	Roll:	4.505	Pitch:	0.950	Yaw:	46.955	Thrust:	31.813
Time:	4.375	Roll Set Point:	-0.234	Pitch Set Point:	-0.125	Yaw Set Point:	-0.543	X_WP:	0.000	Y_WP:	0.000	Y_WP:	0.500	X:	0.099	Y:	0.095	Z:	0.400	yaw:	31.104	yaw rate:	-138.016	Roll:	3.520	Pitch:	4.047	Yaw:	21.495	Thrust:	30.228
Time:	4.390	Roll Set Point:	-0.234	Pitch Set Point:	-0.125	Yaw Set Point:	-0.544	X_WP:	0.000	Y_WP:	0.000	Y_WP:	0.500	X:	0.099	Y:	0.095	Z:	0.400	yaw:	31.156	yaw rate:	5.119	Roll:	4.490	Pitch:	0.962	Yaw:	45.921	Thrust:	32.290
Time:	4.406	Roll Set Point:	-0.234	Pitch Set Point:	-0.125	Yaw Set Point:	-0.545	X_WP:	0.000	Y_WP:	0.000	Y_WP:	0.500	X:	0.099	Y:	0.095	Z:	0.400	yaw:	31.254	yaw rate:	9.844	Roll:	4.550	Pitch:	0.766	Yaw:	46.851	Thrust:	32.284
Time:	4.422	Roll Set Point:	-0.234	Pitch Set Point:	-0.123	Yaw Set Point:	-0.566	X_WP:	0.000	Y_WP:	0.000	Y_WP:	0.500	X:	0.099	Y:	0.096	Z:	0.399	yaw:	32.443	yaw rate:	118.914	Roll:	5.350	Pitch:	-1.573	Yaw:	66.784	Thrust:	34.109
Time:	4.437	Roll Set Point:	-0.234	Pitch Set Point:	-0.123	Yaw Set Point:	-0.566	X_WP:	0.000	Y_WP:	0.000	Y_WP:	0.500	X:	0.099	Y:	0.096	Z:	0.399	yaw:	32.443	yaw rate:	118.914	Roll:	4.503	Pitch:	0.960	Yaw:	46.862	Thrust:	32.742
Time:	4.453	Roll Set Point:	-0.234	Pitch Set Point:	-0.123	Yaw Set Point:	-0.569	X_WP:	0.000	Y_WP:	0.000	Y_WP:	0.500	X:	0.099	Y:	0.096	Z:	0.399	yaw:	32.598	yaw rate:	15.446	Roll:	4.599	Pitch:	0.678	Yaw:	49.663	Thrust:	32.836
Time:	4.469	Roll Set Point:	-0.234	Pitch Set Point:	-0.125	Yaw Set Point:	-0.545	X_WP:	0.000	Y_WP:	0.000	Y_WP:	0.500	X:	0.099	Y:	0.095	Z:	0.399	yaw:	31.253	yaw rate:	-33.757	Roll:	3.537	Pitch:	3.865	Yaw:	22.635	Thrust:	31.733
Time:	4.484	Roll Set Point:	-0.234	Pitch Set Point:	-0.124	Yaw Set Point:	-0.553	X_WP:	0.000	Y_WP:	0.000	Y_WP:	0.500	X:	0.099	Y:	0.095	Z:	0.399	yaw:	31.658	yaw rate:	40.491	Roll:	4.851	Pitch:	-0.129	Yaw:	52.550	Thrust:	33.444
Time:	4.500	Roll Set Point:	-0.234	Pitch Set Point:	-0.124	Yaw Set Point:	-0.552	X_WP:	0.000	Y_WP:	0.000	Y_WP:	0.500	X:	0.099	Y:	0.095	Z:	0.399	yaw:	31.607	yaw rate:	-5.176	Roll:	4.464	Pitch:	1.170	Yaw:	44.832	Thrust:	33.661
Time:	4.515	Roll Set Point:	-0.234	Pitch Set Point:	-0.125	Yaw Set Point:	-0.546	X_WP:	0.000	Y_WP:	0.000	Y_WP:	0.500	X:	0.099	Y:	0.095	Z:	0.400	yaw:	31.279	yaw rate:	-32.761	Roll:	4.173	Pitch:	1.919	Yaw:	39.733	Thrust:	33.234
Time:	4.531	Roll Set Point:	-0.235	Pitch Set Point:	-0.122	Yaw Set Point:	-0.578	X_WP:	0.000	Y_WP:	0.000	Y_WP:	0.500	X:	0.099	Y:	0.096	Z:	0.399	yaw:	33.132	yaw rate:	185.295	Roll:	5.775	Pitch:	-3.017	Yaw:	78.867	Thrust:	36.053
Time:	4.547	Roll Set Point:	-0.234	Pitch Set Point:	-0.123	Yaw Set Point:	-0.566	X_WP:	0.000	Y_WP:	0.000	Y_WP:	0.500	X:	0.099	Y:	0.096	Z:	0.399	yaw:	32.457	yaw rate:	-67.543	Roll:	4.052	Pitch:	2.409	Yaw:	35.590	Thrust:	33.441
Time:	4.562	Roll Set Point:	-0.234	Pitch Set Point:	-0.123	Yaw Set Point:	-0.568	X_WP:	0.000	Y_WP:	0.000	Y_WP:	0.500	X:	0.099	Y:	0.096	Z:	0.399	yaw:	32.563	yaw rate:	10.689	Roll:	4.581	Pitch:	0.818	Yaw:	48.821	Thrust:	34.091
Time:	4.578	Roll Set Point:	-0.234	Pitch Set Point:	-0.123	Yaw Set Point:	-0.567	X_WP:	0.000	Y_WP:	0.000	Y_WP:	0.500	X:	0.099	Y:	0.096	Z:	0.399	yaw:	32.507	yaw rate:	-5.639	Roll:	4.470	Pitch:	1.023	Yaw:	46.002	Thrust:	34.630
Time:	4.594	Roll Set Point:	-0.234	Pitch Set Point:	-0.123	Yaw Set Point:	-0.567	X_WP:	0.000	Y_WP:	0.000	Y_WP:	0.500	X:	0.099	Y:	0.096	Z:	0.399	yaw:	32.503	yaw rate:	-0.389	Roll:	4.478	Pitch:	0.974	Yaw:	46.880	Thrust:	34.249
Time:	4.609	Roll Set Point:	-0.234	Pitch Set Point:	-0.123	Yaw Set Point:	-0.568	X_WP:	0.000	Y_WP:	0.000	Y_WP:	0.500	X:	0.099	Y:	0.096	Z:	0.399	yaw:	32.524	yaw rate:	2.094	Roll:	4.542	Pitch:	0.899	Yaw:	47.326	Thrust:	35.211
Time:	4.625	Roll Set Point:	-0.234	Pitch Set Point:	-0.125	Yaw Set Point:	-0.543	X_WP:	0.000	Y_WP:	0.000	Y_WP:	0.500	X:	0.099	Y:	0.095	Z:	0.400	yaw:	31.124	yaw rate:	-140.045	Roll:	3.518	Pitch:	4.077	Yaw:	21.554	Thrust:	33.193
Time:	4.640	Roll Set Point:	-0.234	Pitch Set Point:	-0.125	Yaw Set Point:	-0.543	X_WP:	0.000	Y_WP:	0.000	Y_WP:	0.500	X:	0.099	Y:	0.095	Z:	0.400	yaw:	31.135	yaw rate:	1.092	Roll:	4.466	Pitch:	0.987	Yaw:	45.218	Thrust:	35.279
Time:	4.656	Roll Set Point:	-0.235	Pitch Set Point:	-0.121	Yaw Set Point:	-0.586	X_WP:	0.000	Y_WP:	0.000	Y_WP:	0.500	X:	0.099	Y:	0.096	Z:	0.399	yaw:	33.586	yaw rate:	245.144	Roll:	6.216	Pitch:	-4.422	Yaw:	89.524	Thrust:	37.675
Time:	4.672	Roll Set Point:	-0.234	Pitch Set Point:	-0.124	Yaw Set Point:	-0.552	X_WP:	0.000	Y_WP:	0.000	Y_WP:	0.500	X:	0.099	Y:	0.095	Z:	0.399	yaw:	31.642	yaw rate:	-194.349	Roll:	3.235	Pitch:	5.048	Yaw:	13.180	Thrust:	33.707
Time:	4.687	Roll Set Point:	-0.234	Pitch Set Point:	-0.125	Yaw Set Point:	-0.544	X_WP:	0.000	Y_WP:	0.000	Y_WP:	0.500	X:	0.099	Y:	0.095	Z:	0.400	yaw:	31.191	yaw rate:	-45.124	Roll:	4.096	Pitch:	2.248	Yaw:	37.554	Thrust:	35.235
Time:	4.703	Roll Set Point:	-0.234	Pitch Set Point:	-0.125	Yaw Set Point:	-0.544	X_WP:	0.000	Y_WP:	0.000	Y_WP:	0.500	X:	0.099	Y:	0.095	Z:	0.400	yaw:	31.191	yaw rate:	-45.124	Roll:	4.480	Pitch:	1.050	Yaw:	45.114	Thrust:	35.923
Time:	4.719	Roll Set Point:	-0.234	Pitch Set Point:	-0.125	Yaw Set Point:	-0.546	X_WP:	0.000	Y_WP:	0.000	Y_WP:	0.500	X:	0.099	Y:	0.095	Z:	0.400	yaw:	31.264	yaw rate:	8.969	Roll:	4.507	Pitch:	0.844	Yaw:	46.440	Thrust:	36.234
Time:	4.734	Roll Set Point:	-0.234	Pitch Set Point:	-0.125	Yaw Set Point:	-0.546	X_WP:	0.000	Y_WP:	0.000	Y_WP:	0.500	X:	0.099	Y:	0.095	Z:	0.400	yaw:	31.264	yaw rate:	8.969	Roll:	4.482	Pitch:	1.048	Yaw:	45.219	Thrust:	36.361
Time:	4.750	Roll Set Point:	-0.235	Pitch Set Point:	-0.121	Yaw Set Point:	-0.586	X_WP:	0.000	Y_WP:	0.000	Y_WP:	0.500	X:	0.099	Y:	0.096	Z:	0.399	yaw:	33.572	yaw rate:	233.673	Roll:	6.136	Pitch:	-3.988	Yaw:	87.153	Thrust:	38.701
Time:	4.765	Roll Set Point:	-0.234	Pitch Set Point:	-0.124	Yaw Set Point:	-0.551	X_WP:	0.000	Y_WP:	0.000	Y_WP:	0.500	X:	0.099	Y:	0.095	Z:	0.399	yaw:	31.576	yaw rate:	-199.559	Roll:	3.203	Pitch:	5.061	Yaw:	12.211	Thrust:	34.868
Time:	4.781	Roll Set Point:	-0.234	Pitch Set Point:	-0.124	Yaw Set Point:	-0.551	X_WP:	0.000	Y_WP:	0.000	Y_WP:	0.500	X:	0.099	Y:	0.095	Z:	0.399	yaw:	31.576	yaw rate:	-199.559	Roll:	4.490	Pitch:	1.028	Yaw:	45.654	Thrust:	36.920
Time:	4.797	Roll Set Point:	-0.234	Pitch Set Point:	-0.125	Yaw Set Point:	-0.546	X_WP:	0.000	Y_WP:	0.000	Y_WP:	0.500	X:	0.099	Y:	0.095	Z:	0.400	yaw:	31.272	yaw rate:	6.553	Roll:	4.222	Pitch:	1.871	Yaw:	40.365	Thrust:	37.828
Time:	4.813	Roll Set Point:	-0.234	Pitch Set Point:	-0.125	Yaw Set Point:	-0.546	X_WP:	0.000	Y_WP:	0.000	Y_WP:	0.500	X:	0.099	Y:	0.095	Z:	0.400	yaw:	31.272	yaw rate:	6.553	Roll:	4.483	Pitch:	1.053	Yaw:	45.230	Thrust:	37.312
Time:	4.829	Roll Set Point:	-0.234	Pitch Set Point:	-0.125	Yaw Set Point:	-0.544	X_WP:	0.000	Y_WP:	0.000	Y_WP:	0.500	X:	0.099	Y:	0.095	Z:	0.400	yaw:	31.195	yaw rate:	-41.781	Roll:	4.422	Pitch:	1.257	Yaw:	43.832	Thrust:	37.274
Time:	4.844	Roll Set Point:	-0.234	Pitch Set Point:	-0.125	Yaw Set Point:	-0.544	X_WP:	0.000	Y_WP:	0.000	Y_WP:	0.500	X:	0.099	Y:	0.095	Z:	0.400	yaw:	31.195	yaw rate:	-41.781	Roll:	4.481	Pitch:	1.060	Yaw:	45.123	Thrust:	37.684
Time:	4.860	Roll Set Point:	-0.235	Pitch Set Point:	-0.121	Yaw Set Point:	-0.586	X_WP:	0.000	Y_WP:	0.000	Y_WP:	0.500	X:	0.099	Y:	0.096	Z:	0.399	yaw:	33.547	yaw rate:	235.187	Roll:	6.132	Pitch:	-4.194	Yaw:	87.877	Thrust:	40.132
Time:	4.875	Roll Set Point:	-0.234	Pitch Set Point:	-0.125	Yaw Set Point:	-0.543	X_WP:	0.000	Y_WP:	0.000	Y_WP:	0.500	X:	0.099	Y:	0.095	Z:	0.400	yaw:	31.121	yaw rate:	-242.635	Roll:	2.816	Pitch:	6.302	Yaw:	4.369	Thrust:	35.614
Time:	4.891	Roll Set Point:	-0.234	Pitch Set Point:	-0.124	Yaw Set Point:	-0.553	X_WP:	0.000	Y_WP:	0.000	Y_WP:	0.500	X:	0.099	Y:	0.095	Z:	0.399	yaw:	31.660	yaw rate:	53.906	Roll:	4.941	Pitch:	-0.236	Yaw:	54.784	Thrust:	38.881
Time:	4.907	Roll Set Point:	-0.234	Pitch Set Point:	-0.124	Yaw Set Point:	-0.553	X_WP:	0.000	Y_WP:	0.000	Y_WP:	0.500	X:	0.099	Y:	0.095	Z:	0.399	yaw:	31.660	yaw rate:	53.906	Roll:	4.489	Pitch:	1.033	Yaw:	45.765	Thrust:	38.313
Time:	4.922	Roll Set Point:	-0.234	Pitch Set Point:	-0.125	Yaw Set Point:	-0.545	X_WP:	0.000	Y_WP:	0.000	Y_WP:	0.500	X:	0.099	Y:	0.095	Z:	0.400	yaw:	31.239	yaw rate:	1.723	Roll:	4.106	Pitch:	2.052	Yaw:	38.135	Thrust:	38.058
Time:	4.938	Roll Set Point:	-0.234	Pitch Set Point:	-0.125	Yaw Set Point:	-0.546	X_WP:	0.000	Y_WP:	0.000	Y_WP:	0.500	X:	0.099	Y:	0.095	Z:	0.400	yaw:	31.259	yaw rate:	2.007	Roll:	4.498	Pitch:	1.049	Yaw:	45.548	Thrust:	38.741
Time:	4.954	Roll Set Point:	-0.234	Pitch Set Point:	-0.125	Yaw Set Point:	-0.546	X_WP:	0.000	Y_WP:	0.000	Y_WP:	0.500	X:	0.099	Y:	0.095	Z:	0.400	yaw:	31.259	yaw rate:	2.007	Roll:	4.480	Pitch:	1.063	Yaw:	45.206	Thrust:	38.869
Time:	4.969	Roll Set Point:	-0.234	Pitch Set Point:	-0.124	Yaw Set Point:	-0.552	X_WP:	0.000	Y_WP:	0.000	Y_WP:	0.500	X:	0.099	Y:	0.095	Z:	0.399	yaw:	31.638	yaw rate:	37.838	Roll:	4.847	Pitch:	0.089	Yaw:	52.067	Thrust:	39.774
Time:	4.985	Roll Set Point:	-0.234	Pitch Set Point:	-0.124	Yaw Set Point:	-0.552	X_WP:	0.000	Y_WP:	0.000	Y_WP:	0.500	X:	0.099	Y:	0.095	Z:	0.399	yaw:	31.638	yaw rate:	37.838	Roll:	4.489	Pitch:	1.040	Yaw:	45.734	Thrust:	39.259
Time:	5.000	Roll Set Point:	-0.234	Pitch Set Point:	-0.124	Yaw Set Point:	-0.552	X_WP:	0.000	Y_WP:	0.000	Y_WP:	0.500	X:	0.099	Y:	0.095	Z:	0.399	yaw:	31.635	yaw rate:	50.056	Roll:	4.499	Pitch:	1.014	Yaw:	45.693	Thrust:	39.439
Time:	5.016	Roll Set Point:	-0.234	Pitch Set Point:	-0.124	Yaw Set Point:	-0.552	X_WP:	0.000	Y_WP:	0.000	Y_WP:	0.500	X:	0.099	Y:	0.095	Z:	0.399	yaw:	31.635	yaw rate:	50.056	Roll:	4.491	Pitch:	1.042	Yaw:	45.734	Thrust:	39.705
Time:	5.032	Roll Set Point:	-0.234	Pitch Set Point:	-0.124	Yaw Set Point:	-0.551	X_WP:	0.000	Y_WP:	0.000	Y_WP:	0.500	X:	0.099	Y:	0.095	Z:	0.399	yaw:	31.573	yaw rate:	40.362	Roll:	4.426	Pitch:	1.162	Yaw:	44.603	Thrust:	39.948
Time:	5.047	Roll Set Point:	-0.234	Pitch Set Point:	-0.125	Yaw Set Point:	-0.544	X_WP:	0.000	Y_WP:	0.000	Y_WP:	0.500	X:	0.099	Y:	0.095	Z:	0.400	yaw:	31.178	yaw rate:	-39.451	Roll:	4.110	Pitch:	2.096	Yaw:	38.487	Thrust:	39.589
Time:	5.063	Roll Set Point:	-0.234	Pitch Set Point:	-0.125	Yaw Set Point:	-0.545	X_WP:	0.000	Y_WP:	0.000	Y_WP:	0.500	X:	0.099	Y:	0.095	Z:	0.400	yaw:	31.241	yaw rate:	6.291	Roll:	4.548	Pitch:	0.971	Yaw:	46.238	Thrust:	40.244
Time:	5.079	Roll Set Point:	-0.234	Pitch Set Point:	-0.124	Yaw Set Point:	-0.552	X_WP:	0.000	Y_WP:	0.000	Y_WP:	0.500	X:	0.099	Y:	0.095	Z:	0.399	yaw:	31.649	yaw rate:	40.764	Roll:	4.843	Pitch:	0.010	Yaw:	52.583	Thrust:	40.863
Time:	5.094	Roll Set Point:	-0.234	Pitch Set Point:	-0.124	Yaw Set Point:	-0.552	X_WP:	0.000	Y_WP:	0.000	Y_WP:	0.500	X:	0.099	Y:	0.095	Z:	0.399	yaw:	31.649	yaw rate:	40.764	Roll:	4.490	Pitch:	1.048	Yaw:	45.753	Thrust:	40.648
Time:	5.110	Roll Set Point:	-0.234	Pitch Set Point:	-0.123	Yaw Set Point:	-0.567	X_WP:	0.000	Y_WP:	0.000	Y_WP:	0.500	X:	0.099	Y:	0.096	Z:	0.399	yaw:	32.510	yaw rate:	86.071	Roll:	5.001	Pitch:	-0.672	Yaw:	61.372	Thrust:	41.814
Time:	5.125	Roll Set Point:	-0.234	Pitch Set Point:	-0.123	Yaw Set Point:	-0.567	X_WP:	0.000	Y_WP:	0.000	Y_WP:	0.500	X:	0.099	Y:	0.096	Z:	0.399	yaw:	32.510	yaw rate:	86.071	Roll:	4.503	Pitch:	1.005	Yaw:	46.955	Thrust:	41.035
Time:	5.141	Roll Set Point:	-0.234	Pitch Set Point:	-0.123	Yaw Set Point:	-0.568	X_WP:	0.000	Y_WP:	0.000	Y_WP:	0.500	X:	0.099	Y:	0.096	Z:	0.399	yaw:	32.541	yaw rate:	3.078	Roll:	4.545	Pitch:	0.985	Yaw:	47.514	Thrust:	41.245
Time:	5.157	Roll Set Point:	-0.234	Pitch Set Point:	-0.123	Yaw Set Point:	-0.568	X_WP:	0.000	Y_WP:	0.000	Y_WP:	0.500	X:	0.099	Y:	0.096	Z:	0.399	yaw:	32.528	yaw rate:	0.454	Roll:	4.489	Pitch:	1.056	Yaw:	46.779	Thrust:	41.823
Time:	5.172	Roll Set Point:	-0.234	Pitch Set Point:	-0.123	Yaw Set Point:	-0.566	X_WP:	0.000	Y_WP:	0.000	Y_WP:	0.500	X:	0.099	Y:	0.096	Z:	0.399	yaw:	32.405	yaw rate:	-12.340	Roll:	4.426	Pitch:	1.257	Yaw:	44.741	Thrust:	41.099
Time:	5.188	Roll Set Point:	-0.234	Pitch Set Point:	-0.123	Yaw Set Point:	-0.568	X_WP:	0.000	Y_WP:	0.000	Y_WP:	0.500	X:	0.099	Y:	0.096	Z:	0.399	yaw:	32.540	yaw rate:	13.513	Roll:	4.590	Pitch:	0.723	Yaw:	49.261	Thrust:	42.003
Time:	5.204	Roll Set Point:	-0.234	Pitch Set Point:	-0.123	Yaw Set Point:	-0.568	X_WP:	0.000	Y_WP:	0.000	Y_WP:	0.500	X:	0.099	Y:	0.096	Z:	0.399	yaw:	32.540	yaw rate:	13.513	Roll:	4.505	Pitch:	1.010	Yaw:	46.998	Thrust:	41.995
Time:	5.219	Roll Set Point:	-0.234	Pitch Set Point:	-0.123	Yaw Set Point:	-0.568	X_WP:	0.000	Y_WP:	0.000	Y_WP:	0.500	X:	0.099	Y:	0.096	Z:	0.399	yaw:	32.518	yaw rate:	-56.967	Roll:	4.500	Pitch:	1.112	Yaw:	46.594	Thrust:	42.512
Time:	5.235	Roll Set Point:	-0.234	Pitch Set Point:	-0.123	Yaw Set Point:	-0.568	X_WP:	0.000	Y_WP:	0.000	Y_WP:	0.500	X:	0.099	Y:	0.096	Z:	0.399	yaw:	32.518	yaw rate:	-56.967	Roll:	4.504	Pitch:	1.015	Yaw:	46.966	Thrust:	42.377
Time:	5.250	Roll Set Point:	-0.234	Pitch Set Point:	-0.125	Yaw Set Point:	-0.545	X_WP:	0.000	Y_WP:	0.000	Y_WP:	0.500	X:	0.099	Y:	0.095	Z:	0.400	yaw:	31.247	yaw rate:	-230.090	Roll:	3.593	Pitch:	3.688	Yaw:	23.894	Thrust:	40.785
Time:	5.266	Roll Set Point:	-0.235	Pitch Set Point:	-0.122	Yaw Set Point:	-0.578	X_WP:	0.000	Y_WP:	0.000	Y_WP:	0.500	X:	0.099	Y:	0.096	Z:	0.399	yaw:	33.141	yaw rate:	189.401	Roll:	5.818	Pitch:	-3.009	Yaw:	79.569	Thrust:	44.934
Time:	5.282	Roll Set Point:	-0.234	Pitch Set Point:	-0.125	Yaw Set Point:	-0.544	X_WP:	0.000	Y_WP:	0.000	Y_WP:	0.500	X:	0.099	Y:	0.095	Z:	0.400	yaw:	31.154	yaw rate:	-198.719	Roll:	3.127	Pitch:	5.313	Yaw:	12.139	Thrust:	41.106
Time:	5.312	Roll Set Point:	-0.233	Pitch Set Point:	-0.125	Yaw Set Point:	-0.532	X_WP:	0.000	Y_WP:	0.000	Y_WP:	0.500	X:	0.099	Y:	0.094	Z:	0.401	yaw:	30.478	yaw rate:	-266.407	Roll:	4.545	Pitch:	1.774	Yaw:	39.583	Thrust:	74.971
Time:	5.327	Roll Set Point:	-0.233	Pitch Set Point:	-0.125	Yaw Set Point:	-0.532	X_WP:	0.000	Y_WP:	0.000	Y_WP:	0.500	X:	0.099	Y:	0.094	Z:	0.401	yaw:	30.478	yaw rate:	-266.407	Roll:	4.457	Pitch:	1.120	Yaw:	44.118	Thrust:	43.215
Time:	5.343	Roll Set Point:	-0.234	Pitch Set Point:	-0.125	Yaw Set Point:	-0.543	X_WP:	0.000	Y_WP:	0.000	Y_WP:	0.500	X:	0.099	Y:	0.095	Z:	0.400	yaw:	31.138	yaw rate:	65.967	Roll:	5.316	Pitch:	0.272	Yaw:	56.091	Thrust:	47.244
Time:	5.359	Roll Set Point:	-0.234	Pitch Set Point:	-0.125	Yaw Set Point:	-0.543	X_WP:	0.000	Y_WP:	0.000	Y_WP:	0.500	X:	0.099	Y:	0.095	Z:	0.400	yaw:	31.138	yaw rate:	65.967	Roll:	4.479	Pitch:	1.100	Yaw:	45.039	Thrust:	43.660
Time:	5.374	Roll Set Point:	-0.234	Pitch Set Point:	-0.125	Yaw Set Point:	-0.545	X_WP:	0.000	Y_WP:	0.000	Y_WP:	0.500	X:	0.099	Y:	0.095	Z:	0.400	yaw:	31.253	yaw rate:	-38.423	Roll:	4.553	Pitch:	0.727	Yaw:	47.141	Thrust:	43.890
Time:	5.390	Roll Set Point:	-0.234	Pitch Set Point:	-0.125	Yaw Set Point:	-0.545	X_WP:	0.000	Y_WP:	0.000	Y_WP:	0.500	X:	0.099	Y:	0.095	Z:	0.400	yaw:	31.237	yaw rate:	-1.683	Roll:	4.463	Pitch:	1.172	Yaw:	44.896	Thrust:	44.019
Time:	5.405	Roll Set Point:	-0.234	Pitch Set Point:	-0.125	Yaw Set Point:	-0.545	X_WP:	0.000	Y_WP:	0.000	Y_WP:	0.500	X:	0.099	Y:	0.095	Z:	0.400	yaw:	31.237	yaw rate:	-1.683	Roll:	4.480	Pitch:	1.096	Yaw:	45.177	Thrust:	44.223
Time:	5.421	Roll Set Point:	-0.234	Pitch Set Point:	-0.124	Yaw Set Point:	-0.552	X_WP:	0.000	Y_WP:	0.000	Y_WP:	0.500	X:	0.099	Y:	0.095	Z:	0.399	yaw:	31.635	yaw rate:	-2.446	Roll:	4.856	Pitch:	0.057	Yaw:	52.413	Thrust:	44.978
Time:	5.437	Roll Set Point:	-0.234	Pitch Set Point:	-0.125	Yaw Set Point:	-0.545	X_WP:	0.000	Y_WP:	0.000	Y_WP:	0.500	X:	0.099	Y:	0.095	Z:	0.400	yaw:	31.211	yaw rate:	-42.420	Roll:	4.102	Pitch:	2.176	Yaw:	38.027	Thrust:	44.072
Time:	5.452	Roll Set Point:	-0.234	Pitch Set Point:	-0.125	Yaw Set Point:	-0.546	X_WP:	0.000	Y_WP:	0.000	Y_WP:	0.500	X:	0.099	Y:	0.095	Z:	0.400	yaw:	31.273	yaw rate:	6.145	Roll:	4.519	Pitch:	0.956	Yaw:	46.258	Thrust:	44.917
Time:	5.468	Roll Set Point:	-0.234	Pitch Set Point:	-0.125	Yaw Set Point:	-0.546	X_WP:	0.000	Y_WP:	0.000	Y_WP:	0.500	X:	0.099	Y:	0.095	Z:	0.400	yaw:	31.273	yaw rate:	6.145	Roll:	4.479	Pitch:	1.098	Yaw:	45.224	Thrust:	44.879
Time:	5.484	Roll Set Point:	-0.234	Pitch Set Point:	-0.123	Yaw Set Point:	-0.566	X_WP:	0.000	Y_WP:	0.000	Y_WP:	0.500	X:	0.099	Y:	0.096	Z:	0.399	yaw:	32.437	yaw rate:	79.899	Roll:	5.341	Pitch:	-1.369	Yaw:	66.351	Thrust:	46.846
Time:	5.499	Roll Set Point:	-0.234	Pitch Set Point:	-0.123	Yaw Set Point:	-0.568	X_WP:	0.000	Y_WP:	0.000	Y_WP:	0.500	X:	0.099	Y:	0.096	Z:	0.399	yaw:	32.519	yaw rate:	8.201	Roll:	4.535	Pitch:	0.890	Yaw:	48.341	Thrust:	45.165
Time:	5.515	Roll Set Point:	-0.234	Pitch Set Point:	-0.123	Yaw Set Point:	-0.567	X_WP:	0.000	Y_WP:	0.000	Y_WP:	0.500	X:	0.099	Y:	0.096	Z:	0.399	yaw:	32.483	yaw rate:	-3.513	Roll:	4.475	Pitch:	1.013	Yaw:	46.330	Thrust:	45.427
Time:	5.530	Roll Set Point:	-0.234	Pitch Set Point:	-0.123	Yaw Set Point:	-0.568	X_WP:	0.000	Y_WP:	0.000	Y_WP:	0.500	X:	0.099	Y:	0.096	Z:	0.399	yaw:	32.562	yaw rate:	7.850	Roll:	4.537	Pitch:	0.979	Yaw:	48.343	Thrust:	45.969
Time:	5.546	Roll Set Point:	-0.234	Pitch Set Point:	-0.124	Yaw Set Point:	-0.546	X_WP:	0.000	Y_WP:	0.000	Y_WP:	0.500	X:	0.100	Y:	0.095	Z:	0.401	yaw:	31.280	yaw rate:	-128.222	Roll:	3.437	Pitch:	2.979	Yaw:	23.754	Thrust:	40.889
Time:	5.562	Roll Set Point:	-0.234	Pitch Set Point:	-0.123	Yaw Set Point:	-0.568	X_WP:	0.000	Y_WP:	0.000	Y_WP:	0.500	X:	0.099	Y:	0.096	Z:	0.399	yaw:	32.522	yaw rate:	124.270	Roll:	5.538	Pitch:	-0.864	Yaw:	67.793	Thrust:	50.857
Time:	5.577	Roll Set Point:	-0.234	Pitch Set Point:	-0.123	Yaw Set Point:	-0.569	X_WP:	0.000	Y_WP:	0.000	Y_WP:	0.500	X:	0.099	Y:	0.096	Z:	0.399	yaw:	32.586	yaw rate:	6.390	Roll:	4.549	Pitch:	0.877	Yaw:	48.132	Thrust:	46.443
Time:	5.593	Roll Set Point:	-0.234	Pitch Set Point:	-0.123	Yaw Set Point:	-0.568	X_WP:	0.000	Y_WP:	0.000	Y_WP:	0.500	X:	0.099	Y:	0.096	Z:	0.399	yaw:	32.524	yaw rate:	-6.280	Roll:	4.459	Pitch:	1.272	Yaw:	45.922	Thrust:	47.040
Time:	5.609	Roll Set Point:	-0.234	Pitch Set Point:	-0.123	Yaw Set Point:	-0.568	X_WP:	0.000	Y_WP:	0.000	Y_WP:	0.500	X:	0.099	Y:	0.096	Z:	0.399	yaw:	32.524	yaw rate:	-6.280	Roll:	4.504	Pitch:	1.041	Yaw:	46.974	Thrust:	46.713
Time:	5.624	Roll Set Point:	-0.234	Pitch Set Point:	-0.123	Yaw Set Point:	-0.565	X_WP:	0.000	Y_WP:	0.000	Y_WP:	0.500	X:	0.099	Y:	0.096	Z:	0.399	yaw:	32.400	yaw rate:	-11.658	Roll:	4.425	Pitch:	1.293	Yaw:	44.724	Thrust:	46.212
Time:	5.640	Roll Set Point:	-0.234	Pitch Set Point:	-0.123	Yaw Set Point:	-0.568	X_WP:	0.000	Y_WP:	0.000	Y_WP:	0.500	X:	0.099	Y:	0.096	Z:	0.399	yaw:	32.524	yaw rate:	12.472	Roll:	4.595	Pitch:	0.727	Yaw:	49.065	Thrust:	47.185
Time:	5.655	Roll Set Point:	-0.235	Pitch Set Point:	-0.122	Yaw Set Point:	-0.578	X_WP:	0.000	Y_WP:	0.000	Y_WP:	0.500	X:	0.099	Y:	0.096	Z:	0.399	yaw:	33.094	yaw rate:	56.976	Roll:	4.891	Pitch:	-0.197	Yaw:	57.316	Thrust:	48.258
Time:	5.671	Roll Set Point:	-0.235	Pitch Set Point:	-0.122	Yaw Set Point:	-0.578	X_WP:	0.000	Y_WP:	0.000	Y_WP:	0.500	X:	0.099	Y:	0.096	Z:	0.399	yaw:	33.129	yaw rate:	3.521	Roll:	4.544	Pitch:	0.926	Yaw:	48.410	Thrust:	47.416
Time:	5.687	Roll Set Point:	-0.235	Pitch Set Point:	-0.122	Yaw Set Point:	-0.585	X_WP:	0.000	Y_WP:	0.000	Y_WP:	0.500	X:	0.099	Y:	0.096	Z:	0.399	yaw:	33.498	yaw rate:	36.892	Roll:	4.795	Pitch:	0.158	Yaw:	54.516	Thrust:	47.589
Time:	5.702	Roll Set Point:	-0.234	Pitch Set Point:	-0.125	Yaw Set Point:	-0.546	X_WP:	0.000	Y_WP:	0.000	Y_WP:	0.500	X:	0.099	Y:	0.095	Z:	0.400	yaw:	31.266	yaw rate:	-223.243	Roll:	2.930	Pitch:	5.889	Yaw:	7.818	Thrust:	45.734
Time:	5.718	Roll Set Point:	-0.234	Pitch Set Point:	-0.125	Yaw Set Point:	-0.545	X_WP:	0.000	Y_WP:	0.000	Y_WP:	0.500	X:	0.099	Y:	0.095	Z:	0.400	yaw:	31.252	yaw rate:	-1.356	Roll:	4.476	Pitch:	1.131	Yaw:	44.972	Thrust:	47.973
Time:	5.734	Roll Set Point:	-0.234	Pitch Set Point:	-0.125	Yaw Set Point:	-0.545	X_WP:	0.000	Y_WP:	0.000	Y_WP:	0.500	X:	0.099	Y:	0.095	Z:	0.400	yaw:	31.252	yaw rate:	-1.356	Roll:	4.481	Pitch:	1.118	Yaw:	45.199	Thrust:	48.196
Time:	5.749	Roll Set Point:	-0.234	Pitch Set Point:	-0.124	Yaw Set Point:	-0.552	X_WP:	0.000	Y_WP:	0.000	Y_WP:	0.500	X:	0.099	Y:	0.095	Z:	0.399	yaw:	31.611	yaw rate:	-5.554	Roll:	4.820	Pitch:	0.127	Yaw:	51.714	Thrust:	48.735
Time:	5.765	Roll Set Point:	-0.234	Pitch Set Point:	-0.125	Yaw Set Point:	-0.543	X_WP:	0.000	Y_WP:	0.000	Y_WP:	0.500	X:	0.099	Y:	0.095	Z:	0.400	yaw:	31.126	yaw rate:	-48.528	Roll:	4.067	Pitch:	2.415	Yaw:	36.896	Thrust:	48.212
Time:	5.780	Roll Set Point:	-0.234	Pitch Set Point:	-0.125	Yaw Set Point:	-0.546	X_WP:	0.000	Y_WP:	0.000	Y_WP:	0.500	X:	0.099	Y:	0.095	Z:	0.400	yaw:	31.262	yaw rate:	13.565	Roll:	4.566	Pitch:	0.803	Yaw:	47.484	Thrust:	48.761
Time:	5.796	Roll Set Point:	-0.234	Pitch Set Point:	-0.124	Yaw Set Point:	-0.552	X_WP:	0.000	Y_WP:	0.000	Y_WP:	0.500	X:	0.099	Y:	0.095	Z:	0.399	yaw:	31.643	yaw rate:	38.113	Roll:	4.836	Pitch:	0.110	Yaw:	52.036	Thrust:	50.335
Time:	5.813	Roll Set Point:	-0.234	Pitch Set Point:	-0.124	Yaw Set Point:	-0.552	X_WP:	0.000	Y_WP:	0.000	Y_WP:	0.500	X:	0.099	Y:	0.095	Z:	0.399	yaw:	31.643	yaw rate:	38.113	Roll:	4.531	Pitch:	1.115	Yaw:	45.854	Thrust:	52.220
Time:	5.829	Roll Set Point:	-0.234	Pitch Set Point:	-0.125	Yaw Set Point:	-0.543	X_WP:	0.000	Y_WP:	0.000	Y_WP:	0.500	X:	0.099	Y:	0.095	Z:	0.400	yaw:	31.121	yaw rate:	-243.918	Roll:	4.043	Pitch:	2.468	Yaw:	36.283	Thrust:	48.756
Time:	5.844	Roll Set Point:	-0.234	Pitch Set Point:	-0.125	Yaw Set Point:	-0.545	X_WP:	0.000	Y_WP:	0.000	Y_WP:	0.500	X:	0.099	Y:	0.095	Z:	0.400	yaw:	31.213	yaw rate:	9.114	Roll:	4.549	Pitch:	0.900	Yaw:	46.671	Thrust:	49.583
Time:	5.860	Roll Set Point:	-0.234	Pitch Set Point:	-0.125	Yaw Set Point:	-0.545	X_WP:	0.000	Y_WP:	0.000	Y_WP:	0.500	X:	0.099	Y:	0.095	Z:	0.400	yaw:	31.213	yaw rate:	9.114	Roll:	4.480	Pitch:	1.130	Yaw:	45.144	Thrust:	49.704
Time:	5.876	Roll Set Point:	-0.234	Pitch Set Point:	-0.124	Yaw Set Point:	-0.552	X_WP:	0.000	Y_WP:	0.000	Y_WP:	0.500	X:	0.099	Y:	0.095	Z:	0.399	yaw:	31.606	yaw rate:	2.333	Roll:	4.837	Pitch:	0.068	Yaw:	52.283	Thrust:	50.213
Time:	5.891	Roll Set Point:	-0.234	Pitch Set Point:	-0.125	Yaw Set Point:	-0.545	X_WP:	0.000	Y_WP:	0.000	Y_WP:	0.500	X:	0.099	Y:	0.095	Z:	0.400	yaw:	31.229	yaw rate:	-37.647	Roll:	4.132	Pitch:	2.127	Yaw:	38.860	Thrust:	49.707
Time:	5.907	Roll Set Point:	-0.234	Pitch Set Point:	-0.125	Yaw Set Point:	-0.545	X_WP:	0.000	Y_WP:	0.000	Y_WP:	0.500	X:	0.099	Y:	0.095	Z:	0.400	yaw:	31.229	yaw rate:	-37.647	Roll:	4.480	Pitch:	1.133	Yaw:	45.167	Thrust:	50.264
Time:	5.923	Roll Set Point:	-0.234	Pitch Set Point:	-0.125	Yaw Set Point:	-0.545	X_WP:	0.000	Y_WP:	0.000	Y_WP:	0.500	X:	0.099	Y:	0.095	Z:	0.400	yaw:	31.229	yaw rate:	2.132	Roll:	4.475	Pitch:	1.137	Yaw:	45.167	Thrust:	50.418
Time:	5.938	Roll Set Point:	-0.234	Pitch Set Point:	-0.125	Yaw Set Point:	-0.545	X_WP:	0.000	Y_WP:	0.000	Y_WP:	0.500	X:	0.099	Y:	0.095	Z:	0.400	yaw:	31.229	yaw rate:	2.132	Roll:	4.480	Pitch:	1.135	Yaw:	45.167	Thrust:	50.645
Time:	5.954	Roll Set Point:	-0.235	Pitch Set Point:	-0.121	Yaw Set Point:	-0.585	X_WP:	0.000	Y_WP:	0.000	Y_WP:	0.500	X:	0.099	Y:	0.096	Z:	0.399	yaw:	33.535	yaw rate:	192.068	Roll:	6.114	Pitch:	-3.946	Yaw:	87.022	Thrust:	53.094
Time:	5.969	Roll Set Point:	-0.234	Pitch Set Point:	-0.125	Yaw Set Point:	-0.543	X_WP:	0.000	Y_WP:	0.000	Y_WP:	0.500	X:	0.099	Y:	0.095	Z:	0.400	yaw:	31.119	yaw rate:	-241.655	Roll:	2.831	Pitch:	6.321	Yaw:	4.528	Thrust:	48.808
Time:	5.985	Roll Set Point:	-0.234	Pitch Set Point:	-0.125	Yaw Set Point:	-0.545	X_WP:	0.000	Y_WP:	0.000	Y_WP:	0.500	X:	0.099	Y:	0.095	Z:	0.400	yaw:	31.232	yaw rate:	11.328	Roll:	4.538	Pitch:	0.879	Yaw:	47.069	Thrust:	51.268
Time:	6.001	Roll Set Point:	-0.083	Pitch Set Point:	-0.035	Yaw Set Point:	-0.545	X_WP:	0.082	Y_WP:	0.155	Y_WP:	0.500	X:	0.099	Y:	0.095	Z:	0.400	yaw:	31.232	yaw rate:	11.328	Roll:	-30.000	Pitch:	-30.000	Yaw:	45.171	Thrust:	51.393
Time:	6.016	Roll Set Point:	-0.083	Pitch Set Point:	-0.035	Yaw Set Point:	-0.544	X_WP:	0.082	Y_WP:	0.155	Y_WP:	0.500	X:	0.099	Y:	0.095	Z:	0.400	yaw:	31.162	yaw rate:	-1.641	Roll:	0.196	Pitch:	-1.497	Yaw:	43.895	Thrust:	51.329
Time:	6.032	Roll Set Point:	-0.083	Pitch Set Point:	-0.035	Yaw Set Point:	-0.545	X_WP:	0.082	Y_WP:	0.155	Y_WP:	0.500	X:	0.099	Y:	0.095	Z:	0.400	yaw:	31.249	yaw rate:	8.680	Roll:	0.016	Pitch:	-1.456	Yaw:	46.648	Thrust:	52.022
Time:	6.048	Roll Set Point:	-0.083	Pitch Set Point:	-0.035	Yaw Set Point:	-0.545	X_WP:	0.082	Y_WP:	0.155	Y_WP:	0.500	X:	0.099	Y:	0.095	Z:	0.400	yaw:	31.249	yaw rate:	8.680	Roll:	0.112	Pitch:	-1.481	Yaw:	45.194	Thrust:	51.952
Time:	6.063	Roll Set Point:	-0.083	Pitch Set Point:	-0.035	Yaw Set Point:	-0.545	X_WP:	0.082	Y_WP:	0.155	Y_WP:	0.500	X:	0.099	Y:	0.095	Z:	0.400	yaw:	31.246	yaw rate:	5.493	Roll:	0.140	Pitch:	-1.484	Yaw:	45.146	Thrust:	52.153
Time:	6.079	Roll Set Point:	-0.083	Pitch Set Point:	-0.035	Yaw Set Point:	-0.552	X_WP:	0.082	Y_WP:	0.155	Y_WP:	0.500	X:	0.099	Y:	0.095	Z:	0.399	yaw:	31.647	yaw rate:	40.062	Roll:	-0.389	Pitch:	-1.344	Yaw:	52.461	Thrust:	52.778
Time:	6.094	Roll Set Point:	-0.082	Pitch Set Point:	-0.036	Yaw Set Point:	-0.565	X_WP:	0.082	Y_WP:	0.156	Y_WP:	0.500	X:	0.099	Y:	0.096	Z:	0.399	yaw:	32.379	yaw rate:	73.262	Roll:	-0.499	Pitch:	-1.277	Yaw:	59.047	Thrust:	53.270
Time:	6.110	Roll Set Point:	-0.082	Pitch Set Point:	-0.036	Yaw Set Point:	-0.565	X_WP:	0.082	Y_WP:	0.156	Y_WP:	0.500	X:	0.099	Y:	0.096	Z:	0.399	yaw:	32.379	yaw rate:	73.262	Roll:	0.082	Pitch:	-1.481	Yaw:	46.773	Thrust:	52.743
Time:	6.126	Roll Set Point:	-0.081	Pitch Set Point:	-0.036	Yaw Set Point:	-0.579	X_WP:	0.081	Y_WP:	0.156	Y_WP:	0.500	X:	0.099	Y:	0.096	Z:	0.399	yaw:	33.151	yaw rate:	64.172	Roll:	-0.702	Pitch:	-1.279	Yaw:	60.786	Thrust:	54.046
Time:	6.141	Roll Set Point:	-0.082	Pitch Set Point:	-0.036	Yaw Set Point:	-0.567	X_WP:	0.082	Y_WP:	0.156	Y_WP:	0.500	X:	0.099	Y:	0.096	Z:	0.399	yaw:	32.491	yaw rate:	-65.973	Roll:	0.704	Pitch:	-1.669	Yaw:	35.877	Thrust:	52.439
Time:	6.157	Roll Set Point:	-0.081	Pitch Set Point:	-0.037	Yaw Set Point:	-0.587	X_WP:	0.081	Y_WP:	0.156	Y_WP:	0.500	X:	0.099	Y:	0.096	Z:	0.399	yaw:	33.614	yaw rate:	112.258	Roll:	-1.054	Pitch:	-1.134	Yaw:	67.296	Thrust:	54.036
Time:	6.173	Roll Set Point:	-0.083	Pitch Set Point:	-0.035	Yaw Set Point:	-0.545	X_WP:	0.082	Y_WP:	0.155	Y_WP:	0.500	X:	0.099	Y:	0.095	Z:	0.400	yaw:	31.228	yaw rate:	-238.587	Roll:	2.447	Pitch:	-2.101	Yaw:	5.182	Thrust:	51.212
Time:	6.188	Roll Set Point:	-0.083	Pitch Set Point:	-0.035	Yaw Set Point:	-0.545	X_WP:	0.082	Y_WP:	0.155	Y_WP:	0.500	X:	0.099	Y:	0.095	Z:	0.400	yaw:	31.233	yaw rate:	0.532	Roll:	0.083	Pitch:	-1.606	Yaw:	45.262	Thrust:	53.634
Time:	6.204	Roll Set Point:	-0.082	Pitch Set Point:	-0.036	Yaw Set Point:	-0.565	X_WP:	0.082	Y_WP:	0.156	Y_WP:	0.500	X:	0.099	Y:	0.096	Z:	0.399	yaw:	32.387	yaw rate:	115.354	Roll:	-0.984	Pitch:	-1.146	Yaw:	66.109	Thrust:	55.100
Time:	6.219	Roll Set Point:	-0.082	Pitch Set Point:	-0.036	Yaw Set Point:	-0.565	X_WP:	0.082	Y_WP:	0.156	Y_WP:	0.500	X:	0.099	Y:	0.096	Z:	0.399	yaw:	32.387	yaw rate:	115.354	Roll:	0.078	Pitch:	-1.498	Yaw:	46.784	Thrust:	54.065
Time:	6.235	Roll Set Point:	-0.083	Pitch Set Point:	-0.035	Yaw Set Point:	-0.544	X_WP:	0.082	Y_WP:	0.155	Y_WP:	0.500	X:	0.099	Y:	0.095	Z:	0.400	yaw:	31.161	yaw rate:	-241.348	Roll:	1.282	Pitch:	-1.785	Yaw:	24.534	Thrust:	53.102
Time:	6.251	Roll Set Point:	-0.081	Pitch Set Point:	-0.037	Yaw Set Point:	-0.586	X_WP:	0.081	Y_WP:	0.156	Y_WP:	0.500	X:	0.099	Y:	0.096	Z:	0.399	yaw:	33.556	yaw rate:	239.470	Roll:	-2.297	Pitch:	-0.813	Yaw:	88.539	Thrust:	56.584
Time:	6.266	Roll Set Point:	-0.081	Pitch Set Point:	-0.036	Yaw Set Point:	-0.578	X_WP:	0.081	Y_WP:	0.156	Y_WP:	0.500	X:	0.099	Y:	0.096	Z:	0.399	yaw:	33.123	yaw rate:	-43.296	Roll:	0.497	Pitch:	-1.734	Yaw:	40.559	Thrust:	54.700
Time:	6.282	Roll Set Point:	-0.081	Pitch Set Point:	-0.036	Yaw Set Point:	-0.578	X_WP:	0.081	Y_WP:	0.156	Y_WP:	0.500	X:	0.099	Y:	0.096	Z:	0.399	yaw:	33.123	yaw rate:	-43.296	Roll:	0.056	Pitch:	-1.503	Yaw:	47.811	Thrust:	54.834
Time:	6.298	Roll Set Point:	-0.081	Pitch Set Point:	-0.037	Yaw Set Point:	-0.586	X_WP:	0.081	Y_WP:	0.156	Y_WP:	0.500	X:	0.099	Y:	0.096	Z:	0.399	yaw:	33.586	yaw rate:	106.166	Roll:	-0.468	Pitch:	-1.321	Yaw:	56.220	Thrust:	55.116
Time:	6.313	Roll Set Point:	-0.081	Pitch Set Point:	-0.037	Yaw Set Point:	-0.586	X_WP:	0.081	Y_WP:	0.156	Y_WP:	0.500	X:	0.099	Y:	0.096	Z:	0.399	yaw:	33.586	yaw rate:	106.166	Roll:	0.041	Pitch:	-1.503	Yaw:	48.458	Thrust:	55.214
Time:	6.329	Roll Set Point:	-0.083	Pitch Set Point:	-0.035	Yaw Set Point:	-0.546	X_WP:	0.082	Y_WP:	0.155	Y_WP:	0.500	X:	0.099	Y:	0.095	Z:	0.400	yaw:	31.271	yaw rate:	0.381	Roll:	2.375	Pitch:	-2.211	Yaw:	6.430	Thrust:	53.073
