Time:	2.058	Roll Set Point:	0.016	Pitch Set Point:	-0.028	Yaw Set Point:	0.006	X_WP:	0.000	Y_WP:	0.000	Y_WP:	0.500	X:	-0.008	Y:	0.014	Z:	0.050	yaw:	-0.353	yaw rate:	-8.114	Roll:	-0.239	Pitch:	0.411	Yaw:	-0.493	Thrust:	24.760
Time:	2.069	Roll Set Point:	0.016	Pitch Set Point:	-0.028	Yaw Set Point:	0.005	X_WP:	0.000	Y_WP:	0.000	Y_WP:	0.500	X:	-0.008	Y:	0.014	Z:	0.050	yaw:	-0.280	yaw rate:	7.295	Roll:	-0.229	Pitch:	0.451	Yaw:	1.344	Thrust:	25.491
Time:	2.080	Roll Set Point:	0.016	Pitch Set Point:	-0.028	Yaw Set Point:	0.008	X_WP:	0.000	Y_WP:	0.000	Y_WP:	0.500	X:	-0.008	Y:	0.014	Z:	0.050	yaw:	-0.452	yaw rate:	-17.253	Roll:	-0.226	Pitch:	0.236	Yaw:	-4.719	Thrust:	25.548
Time:	2.091	Roll Set Point:	0.016	Pitch Set Point:	-0.028	Yaw Set Point:	0.006	X_WP:	0.000	Y_WP:	0.000	Y_WP:	0.500	X:	-0.008	Y:	0.014	Z:	0.050	yaw:	-0.317	yaw rate:	13.540	Roll:	-0.287	Pitch:	0.448	Yaw:	2.766	Thrust:	26.904
Time:	2.102	Roll Set Point:	0.016	Pitch Set Point:	-0.028	Yaw Set Point:	0.006	X_WP:	0.000	Y_WP:	0.000	Y_WP:	0.500	X:	-0.008	Y:	0.014	Z:	0.050	yaw:	-0.332	yaw rate:	-1.546	Roll:	-0.202	Pitch:	0.424	Yaw:	-0.837	Thrust:	26.325
Time:	2.114	Roll Set Point:	0.017	Pitch Set Point:	-0.028	Yaw Set Point:	0.006	X_WP:	0.000	Y_WP:	0.000	Y_WP:	0.500	X:	-0.008	Y:	0.014	Z:	0.050	yaw:	-0.343	yaw rate:	-1.072	Roll:	-0.452	Pitch:	0.374	Yaw:	-0.719	Thrust:	28.429
Time:	2.125	Roll Set Point:	0.016	Pitch Set Point:	-0.028	Yaw Set Point:	0.002	X_WP:	0.000	Y_WP:	0.000	Y_WP:	0.500	X:	-0.008	Y:	0.014	Z:	0.050	yaw:	-0.121	yaw rate:	22.242	Roll:	-0.031	Pitch:	0.328	Yaw:	5.122	Thrust:	28.510
Time:	2.136	Roll Set Point:	0.016	Pitch Set Point:	-0.028	Yaw Set Point:	0.004	X_WP:	0.000	Y_WP:	0.000	Y_WP:	0.500	X:	-0.008	Y:	0.014	Z:	0.050	yaw:	-0.227	yaw rate:	-10.622	Roll:	-0.246	Pitch:	0.480	Yaw:	-2.847	Thrust:	28.548
Time:	2.147	Roll Set Point:	0.016	Pitch Set Point:	-0.028	Yaw Set Point:	0.004	X_WP:	0.000	Y_WP:	0.000	Y_WP:	0.500	X:	-0.008	Y:	0.014	Z:	0.050	yaw:	-0.214	yaw rate:	1.341	Roll:	-0.227	Pitch:	0.496	Yaw:	0.011	Thrust:	30.048
Time:	2.158	Roll Set Point:	0.017	Pitch Set Point:	-0.028	Yaw Set Point:	0.008	X_WP:	0.000	Y_WP:	0.000	Y_WP:	0.500	X:	-0.008	Y:	0.014	Z:	0.050	yaw:	-0.467	yaw rate:	-25.359	Roll:	-0.361	Pitch:	0.043	Yaw:	-6.681	Thrust:	29.546
Time:	2.169	Roll Set Point:	0.017	Pitch Set Point:	-0.028	Yaw Set Point:	0.005	X_WP:	0.000	Y_WP:	0.000	Y_WP:	0.500	X:	-0.008	Y:	0.014	Z:	0.050	yaw:	-0.313	yaw rate:	15.386	Roll:	-0.211	Pitch:	0.685	Yaw:	3.193	Thrust:	30.330
Time:	2.181	Roll Set Point:	0.016	Pitch Set Point:	-0.028	Yaw Set Point:	0.005	X_WP:	0.000	Y_WP:	0.000	Y_WP:	0.500	X:	-0.008	Y:	0.014	Z:	0.050	yaw:	-0.268	yaw rate:	4.478	Roll:	-0.185	Pitch:	0.463	Yaw:	0.585	Thrust:	31.915
Time:	2.192	Roll Set Point:	0.017	Pitch Set Point:	-0.028	Yaw Set Point:	0.011	X_WP:	0.000	Y_WP:	0.000	Y_WP:	0.500	X:	-0.008	Y:	0.014	Z:	0.050	yaw:	-0.648	yaw rate:	-37.903	Roll:	-0.375	Pitch:	0.225	Yaw:	-9.916	Thrust:	32.235
Time:	2.203	Roll Set Point:	0.017	Pitch Set Point:	-0.028	Yaw Set Point:	0.003	X_WP:	0.000	Y_WP:	0.000	Y_WP:	0.500	X:	-0.008	Y:	0.014	Z:	0.050	yaw:	-0.159	yaw rate:	48.891	Roll:	-0.128	Pitch:	0.652	Yaw:	11.397	Thrust:	32.845
Time:	2.214	Roll Set Point:	0.016	Pitch Set Point:	-0.028	Yaw Set Point:	0.011	X_WP:	0.000	Y_WP:	0.000	Y_WP:	0.500	X:	-0.008	Y:	0.014	Z:	0.050	yaw:	-0.629	yaw rate:	-47.051	Roll:	-0.259	Pitch:	-0.110	Yaw:	-12.036	Thrust:	32.528
Time:	2.225	Roll Set Point:	0.016	Pitch Set Point:	-0.028	Yaw Set Point:	0.006	X_WP:	0.000	Y_WP:	0.000	Y_WP:	0.500	X:	-0.008	Y:	0.014	Z:	0.050	yaw:	-0.349	yaw rate:	27.977	Roll:	-0.236	Pitch:	0.730	Yaw:	6.131	Thrust:	33.294
Time:	2.236	Roll Set Point:	0.017	Pitch Set Point:	-0.028	Yaw Set Point:	0.003	X_WP:	0.000	Y_WP:	0.000	Y_WP:	0.500	X:	-0.008	Y:	0.014	Z:	0.050	yaw:	-0.198	yaw rate:	15.168	Roll:	-0.253	Pitch:	0.217	Yaw:	3.314	Thrust:	36.077
Time:	2.247	Roll Set Point:	0.017	Pitch Set Point:	-0.028	Yaw Set Point:	0.003	X_WP:	0.000	Y_WP:	0.000	Y_WP:	0.500	X:	-0.008	Y:	0.014	Z:	0.050	yaw:	-0.146	yaw rate:	5.156	Roll:	-0.286	Pitch:	0.660	Yaw:	0.998	Thrust:	34.290
Time:	2.258	Roll Set Point:	0.016	Pitch Set Point:	-0.028	Yaw Set Point:	-0.000	X_WP:	0.000	Y_WP:	0.000	Y_WP:	0.500	X:	-0.008	Y:	0.014	Z:	0.050	yaw:	0.021	yaw rate:	16.675	Roll:	0.045	Pitch:	0.528	Yaw:	3.955	Thrust:	35.853
Time:	2.269	Roll Set Point:	0.016	Pitch Set Point:	-0.028	Yaw Set Point:	0.004	X_WP:	0.000	Y_WP:	0.000	Y_WP:	0.500	X:	-0.008	Y:	0.014	Z:	0.050	yaw:	-0.230	yaw rate:	-25.070	Roll:	-0.445	Pitch:	0.399	Yaw:	-6.293	Thrust:	34.651
Time:	2.281	Roll Set Point:	0.017	Pitch Set Point:	-0.028	Yaw Set Point:	0.004	X_WP:	0.000	Y_WP:	0.000	Y_WP:	0.500	X:	-0.008	Y:	0.014	Z:	0.050	yaw:	-0.201	yaw rate:	2.876	Roll:	-0.422	Pitch:	0.374	Yaw:	0.319	Thrust:	38.823
Time:	2.292	Roll Set Point:	0.016	Pitch Set Point:	-0.028	Yaw Set Point:	0.005	X_WP:	0.000	Y_WP:	0.000	Y_WP:	0.500	X:	-0.008	Y:	0.014	Z:	0.050	yaw:	-0.269	yaw rate:	-6.772	Roll:	-0.079	Pitch:	0.210	Yaw:	-2.007	Thrust:	36.328
Time:	2.303	Roll Set Point:	0.016	Pitch Set Point:	-0.028	Yaw Set Point:	0.001	X_WP:	0.000	Y_WP:	0.000	Y_WP:	0.500	X:	-0.008	Y:	0.014	Z:	0.050	yaw:	-0.036	yaw rate:	23.332	Roll:	0.009	Pitch:	0.683	Yaw:	5.463	Thrust:	38.015
Time:	2.314	Roll Set Point:	0.016	Pitch Set Point:	-0.028	Yaw Set Point:	0.002	X_WP:	0.000	Y_WP:	0.000	Y_WP:	0.500	X:	-0.008	Y:	0.014	Z:	0.050	yaw:	-0.096	yaw rate:	-6.032	Roll:	-0.273	Pitch:	0.278	Yaw:	-1.595	Thrust:	38.424
Time:	2.325	Roll Set Point:	0.016	Pitch Set Point:	-0.028	Yaw Set Point:	0.004	X_WP:	0.000	Y_WP:	0.000	Y_WP:	0.500	X:	-0.008	Y:	0.014	Z:	0.050	yaw:	-0.238	yaw rate:	-14.169	Roll:	-0.421	Pitch:	0.504	Yaw:	-3.714	Thrust:	39.460
Time:	2.336	Roll Set Point:	0.016	Pitch Set Point:	-0.028	Yaw Set Point:	-0.000	X_WP:	0.000	Y_WP:	0.000	Y_WP:	0.500	X:	-0.008	Y:	0.014	Z:	0.050	yaw:	0.006	yaw rate:	24.335	Roll:	-0.236	Pitch:	0.499	Yaw:	5.755	Thrust:	39.889
Time:	2.347	Roll Set Point:	0.016	Pitch Set Point:	-0.028	Yaw Set Point:	0.005	X_WP:	0.000	Y_WP:	0.000	Y_WP:	0.500	X:	-0.008	Y:	0.014	Z:	0.050	yaw:	-0.282	yaw rate:	-28.804	Roll:	-0.276	Pitch:	0.361	Yaw:	-7.257	Thrust:	39.293
Time:	2.358	Roll Set Point:	0.017	Pitch Set Point:	-0.028	Yaw Set Point:	0.009	X_WP:	0.000	Y_WP:	0.000	Y_WP:	0.500	X:	-0.008	Y:	0.014	Z:	0.050	yaw:	-0.531	yaw rate:	-24.876	Roll:	-0.530	Pitch:	0.134	Yaw:	-6.674	Thrust:	41.971
Time:	2.370	Roll Set Point:	0.017	Pitch Set Point:	-0.028	Yaw Set Point:	0.002	X_WP:	0.000	Y_WP:	0.000	Y_WP:	0.500	X:	-0.008	Y:	0.014	Z:	0.050	yaw:	-0.111	yaw rate:	9.123	Roll:	-0.081	Pitch:	0.698	Yaw:	8.953	Thrust:	42.655
Time:	2.381	Roll Set Point:	0.017	Pitch Set Point:	-0.028	Yaw Set Point:	0.002	X_WP:	0.000	Y_WP:	0.000	Y_WP:	0.500	X:	-0.008	Y:	0.014	Z:	0.050	yaw:	-0.111	yaw rate:	9.123	Roll:	-0.248	Pitch:	0.421	Yaw:	-0.185	Thrust:	42.030
Time:	2.392	Roll Set Point:	0.017	Pitch Set Point:	-0.028	Yaw Set Point:	-0.001	X_WP:	0.000	Y_WP:	0.000	Y_WP:	0.500	X:	-0.008	Y:	0.014	Z:	0.050	yaw:	0.056	yaw rate:	16.760	Roll:	-0.168	Pitch:	0.487	Yaw:	4.025	Thrust:	42.959
Time:	2.403	Roll Set Point:	0.016	Pitch Set Point:	-0.028	Yaw Set Point:	0.003	X_WP:	0.000	Y_WP:	0.000	Y_WP:	0.500	X:	-0.008	Y:	0.014	Z:	0.050	yaw:	-0.192	yaw rate:	-24.853	Roll:	-0.224	Pitch:	0.189	Yaw:	-6.197	Thrust:	42.936
Time:	2.415	Roll Set Point:	0.016	Pitch Set Point:	-0.028	Yaw Set Point:	0.005	X_WP:	0.000	Y_WP:	0.000	Y_WP:	0.500	X:	-0.008	Y:	0.014	Z:	0.050	yaw:	-0.285	yaw rate:	-9.310	Roll:	-0.189	Pitch:	0.474	Yaw:	-2.472	Thrust:	44.602
Time:	2.426	Roll Set Point:	0.016	Pitch Set Point:	-0.028	Yaw Set Point:	0.005	X_WP:	0.000	Y_WP:	0.000	Y_WP:	0.500	X:	-0.008	Y:	0.014	Z:	0.050	yaw:	-0.285	yaw rate:	0.010	Roll:	-0.347	Pitch:	0.565	Yaw:	-0.428	Thrust:	44.517
Time:	2.437	Roll Set Point:	0.016	Pitch Set Point:	-0.028	Yaw Set Point:	0.002	X_WP:	0.000	Y_WP:	0.000	Y_WP:	0.500	X:	-0.008	Y:	0.014	Z:	0.050	yaw:	-0.117	yaw rate:	16.802	Roll:	0.044	Pitch:	0.222	Yaw:	3.791	Thrust:	45.076
Time:	2.449	Roll Set Point:	0.016	Pitch Set Point:	-0.028	Yaw Set Point:	-0.000	X_WP:	0.000	Y_WP:	0.000	Y_WP:	0.500	X:	-0.008	Y:	0.014	Z:	0.050	yaw:	0.015	yaw rate:	13.222	Roll:	-0.213	Pitch:	0.499	Yaw:	3.126	Thrust:	45.479
Time:	2.460	Roll Set Point:	0.016	Pitch Set Point:	-0.028	Yaw Set Point:	-0.002	X_WP:	0.000	Y_WP:	0.000	Y_WP:	0.500	X:	-0.008	Y:	0.014	Z:	0.050	yaw:	0.096	yaw rate:	8.113	Roll:	-0.192	Pitch:	0.225	Yaw:	2.027	Thrust:	46.128
Time:	2.471	Roll Set Point:	0.016	Pitch Set Point:	-0.028	Yaw Set Point:	-0.002	X_WP:	0.000	Y_WP:	0.000	Y_WP:	0.500	X:	-0.008	Y:	0.014	Z:	0.050	yaw:	0.120	yaw rate:	2.382	Roll:	-0.264	Pitch:	0.291	Yaw:	0.700	Thrust:	46.204
Time:	2.482	Roll Set Point:	0.016	Pitch Set Point:	-0.028	Yaw Set Point:	0.000	X_WP:	0.000	Y_WP:	0.000	Y_WP:	0.500	X:	-0.008	Y:	0.014	Z:	0.050	yaw:	-0.014	yaw rate:	-13.421	Roll:	-0.418	Pitch:	0.343	Yaw:	-3.238	Thrust:	48.649
Time:	2.493	Roll Set Point:	0.016	Pitch Set Point:	-0.027	Yaw Set Point:	-0.004	X_WP:	0.000	Y_WP:	0.000	Y_WP:	0.500	X:	-0.008	Y:	0.014	Z:	0.050	yaw:	0.214	yaw rate:	22.789	Roll:	-0.324	Pitch:	0.179	Yaw:	5.675	Thrust:	47.131
Time:	2.504	Roll Set Point:	0.017	Pitch Set Point:	-0.027	Yaw Set Point:	-0.004	X_WP:	0.000	Y_WP:	0.000	Y_WP:	0.500	X:	-0.008	Y:	0.014	Z:	0.050	yaw:	0.240	yaw rate:	2.652	Roll:	-0.294	Pitch:	0.264	Yaw:	0.933	Thrust:	48.416
Time:	2.515	Roll Set Point:	0.017	Pitch Set Point:	-0.027	Yaw Set Point:	-0.003	X_WP:	0.000	Y_WP:	0.000	Y_WP:	0.500	X:	-0.008	Y:	0.014	Z:	0.050	yaw:	0.145	yaw rate:	-9.529	Roll:	-0.517	Pitch:	0.375	Yaw:	-2.090	Thrust:	49.966
Time:	2.526	Roll Set Point:	0.017	Pitch Set Point:	-0.027	Yaw Set Point:	-0.009	X_WP:	0.000	Y_WP:	0.000	Y_WP:	0.500	X:	-0.009	Y:	0.013	Z:	0.050	yaw:	0.538	yaw rate:	39.254	Roll:	-0.405	Pitch:	0.233	Yaw:	10.038	Thrust:	49.988
Time:	2.537	Roll Set Point:	0.017	Pitch Set Point:	-0.027	Yaw Set Point:	-0.012	X_WP:	0.000	Y_WP:	0.000	Y_WP:	0.500	X:	-0.009	Y:	0.013	Z:	0.050	yaw:	0.707	yaw rate:	16.906	Roll:	-0.318	Pitch:	0.423	Yaw:	4.971	Thrust:	50.212
Time:	2.548	Roll Set Point:	0.017	Pitch Set Point:	-0.027	Yaw Set Point:	-0.010	X_WP:	0.000	Y_WP:	0.000	Y_WP:	0.500	X:	-0.009	Y:	0.013	Z:	0.050	yaw:	0.562	yaw rate:	-14.456	Roll:	-0.276	Pitch:	0.268	Yaw:	-2.665	Thrust:	50.515
Time:	2.560	Roll Set Point:	0.018	Pitch Set Point:	-0.027	Yaw Set Point:	-0.012	X_WP:	0.000	Y_WP:	0.000	Y_WP:	0.500	X:	-0.009	Y:	0.013	Z:	0.050	yaw:	0.669	yaw rate:	10.682	Roll:	-0.456	Pitch:	0.434	Yaw:	3.237	Thrust:	54.701
Time:	2.571	Roll Set Point:	0.017	Pitch Set Point:	-0.027	Yaw Set Point:	-0.015	X_WP:	0.000	Y_WP:	0.000	Y_WP:	0.500	X:	-0.009	Y:	0.013	Z:	0.050	yaw:	0.866	yaw rate:	19.747	Roll:	-0.134	Pitch:	0.472	Yaw:	5.875	Thrust:	51.179
Time:	2.582	Roll Set Point:	0.018	Pitch Set Point:	-0.027	Yaw Set Point:	-0.016	X_WP:	0.000	Y_WP:	0.000	Y_WP:	0.500	X:	-0.009	Y:	0.013	Z:	0.050	yaw:	0.894	yaw rate:	2.777	Roll:	-0.359	Pitch:	0.336	Yaw:	1.890	Thrust:	52.894
Time:	2.593	Roll Set Point:	0.018	Pitch Set Point:	-0.026	Yaw Set Point:	-0.018	X_WP:	0.000	Y_WP:	0.000	Y_WP:	0.500	X:	-0.009	Y:	0.013	Z:	0.050	yaw:	1.043	yaw rate:	14.853	Roll:	-0.477	Pitch:	0.184	Yaw:	4.956	Thrust:	55.039
Time:	2.604	Roll Set Point:	0.017	Pitch Set Point:	-0.027	Yaw Set Point:	-0.026	X_WP:	0.000	Y_WP:	0.000	Y_WP:	0.500	X:	-0.009	Y:	0.013	Z:	0.050	yaw:	1.477	yaw rate:	43.465	Roll:	0.124	Pitch:	0.686	Yaw:	12.392	Thrust:	52.963
Time:	2.615	Roll Set Point:	0.018	Pitch Set Point:	-0.027	Yaw Set Point:	-0.024	X_WP:	0.000	Y_WP:	0.000	Y_WP:	0.500	X:	-0.009	Y:	0.013	Z:	0.050	yaw:	1.386	yaw rate:	-9.153	Roll:	-0.564	Pitch:	0.392	Yaw:	-0.242	Thrust:	54.764
Time:	2.626	Roll Set Point:	0.018	Pitch Set Point:	-0.027	Yaw Set Point:	-0.017	X_WP:	0.000	Y_WP:	0.000	Y_WP:	0.500	X:	-0.009	Y:	0.013	Z:	0.050	yaw:	0.955	yaw rate:	-43.101	Roll:	-0.316	Pitch:	0.306	Yaw:	-8.772	Thrust:	56.119
Time:	2.637	Roll Set Point:	0.018	Pitch Set Point:	-0.027	Yaw Set Point:	-0.021	X_WP:	0.000	Y_WP:	0.000	Y_WP:	0.500	X:	-0.009	Y:	0.013	Z:	0.050	yaw:	1.183	yaw rate:	22.790	Roll:	-0.075	Pitch:	0.715	Yaw:	7.079	Thrust:	54.430
Time:	2.648	Roll Set Point:	0.018	Pitch Set Point:	-0.027	Yaw Set Point:	-0.016	X_WP:	0.000	Y_WP:	0.000	Y_WP:	0.500	X:	-0.009	Y:	0.013	Z:	0.050	yaw:	0.940	yaw rate:	-24.232	Roll:	-0.403	Pitch:	0.356	Yaw:	-4.430	Thrust:	56.810
Time:	2.659	Roll Set Point:	0.018	Pitch Set Point:	-0.027	Yaw Set Point:	-0.016	X_WP:	0.000	Y_WP:	0.000	Y_WP:	0.500	X:	-0.009	Y:	0.013	Z:	0.050	yaw:	0.916	yaw rate:	-2.451	Roll:	-0.170	Pitch:	0.216	Yaw:	0.711	Thrust:	57.339
Time:	2.670	Roll Set Point:	0.017	Pitch Set Point:	-0.027	Yaw Set Point:	-0.017	X_WP:	0.000	Y_WP:	0.000	Y_WP:	0.500	X:	-0.009	Y:	0.013	Z:	0.050	yaw:	0.989	yaw rate:	7.279	Roll:	-0.083	Pitch:	0.547	Yaw:	3.128	Thrust:	56.307
Time:	2.681	Roll Set Point:	0.017	Pitch Set Point:	-0.027	Yaw Set Point:	-0.019	X_WP:	0.000	Y_WP:	0.000	Y_WP:	0.500	X:	-0.009	Y:	0.013	Z:	0.050	yaw:	1.114	yaw rate:	12.527	Roll:	-0.140	Pitch:	0.423	Yaw:	4.541	Thrust:	58.503
Time:	2.692	Roll Set Point:	0.017	Pitch Set Point:	-0.026	Yaw Set Point:	-0.013	X_WP:	0.000	Y_WP:	0.000	Y_WP:	0.500	X:	-0.009	Y:	0.013	Z:	0.050	yaw:	0.760	yaw rate:	-35.375	Roll:	-0.299	Pitch:	0.009	Yaw:	-7.314	Thrust:	58.349
Time:	2.703	Roll Set Point:	0.017	Pitch Set Point:	-0.027	Yaw Set Point:	-0.019	X_WP:	0.000	Y_WP:	0.000	Y_WP:	0.500	X:	-0.009	Y:	0.013	Z:	0.050	yaw:	1.081	yaw rate:	32.095	Roll:	0.074	Pitch:	0.668	Yaw:	9.135	Thrust:	59.173
Time:	2.714	Roll Set Point:	0.017	Pitch Set Point:	-0.027	Yaw Set Point:	-0.023	X_WP:	0.000	Y_WP:	0.000	Y_WP:	0.500	X:	-0.008	Y:	0.013	Z:	0.050	yaw:	1.330	yaw rate:	24.915	Roll:	-0.034	Pitch:	0.394	Yaw:	7.804	Thrust:	59.972
Time:	2.725	Roll Set Point:	0.017	Pitch Set Point:	-0.026	Yaw Set Point:	-0.018	X_WP:	0.000	Y_WP:	0.000	Y_WP:	0.500	X:	-0.009	Y:	0.013	Z:	0.050	yaw:	1.043	yaw rate:	-28.747	Roll:	-0.543	Pitch:	0.206	Yaw:	-5.347	Thrust:	60.359
Time:	2.736	Roll Set Point:	0.017	Pitch Set Point:	-0.026	Yaw Set Point:	-0.023	X_WP:	0.000	Y_WP:	0.000	Y_WP:	0.500	X:	-0.008	Y:	0.013	Z:	0.050	yaw:	1.293	yaw rate:	25.068	Roll:	0.065	Pitch:	0.574	Yaw:	7.797	Thrust:	59.805
Time:	2.747	Roll Set Point:	0.016	Pitch Set Point:	-0.026	Yaw Set Point:	-0.024	X_WP:	0.000	Y_WP:	0.000	Y_WP:	0.500	X:	-0.008	Y:	0.013	Z:	0.051	yaw:	1.366	yaw rate:	7.230	Roll:	-0.039	Pitch:	0.409	Yaw:	3.669	Thrust:	61.076
Time:	2.759	Roll Set Point:	0.016	Pitch Set Point:	-0.026	Yaw Set Point:	-0.022	X_WP:	0.000	Y_WP:	0.000	Y_WP:	0.500	X:	-0.008	Y:	0.013	Z:	0.051	yaw:	1.246	yaw rate:	-11.985	Roll:	-0.237	Pitch:	0.241	Yaw:	-1.048	Thrust:	61.245
Time:	2.770	Roll Set Point:	0.016	Pitch Set Point:	-0.026	Yaw Set Point:	-0.025	X_WP:	0.000	Y_WP:	0.000	Y_WP:	0.500	X:	-0.008	Y:	0.013	Z:	0.051	yaw:	1.435	yaw rate:	18.945	Roll:	0.081	Pitch:	0.459	Yaw:	6.557	Thrust:	61.539
Time:	2.781	Roll Set Point:	0.016	Pitch Set Point:	-0.026	Yaw Set Point:	-0.029	X_WP:	0.000	Y_WP:	0.000	Y_WP:	0.500	X:	-0.008	Y:	0.013	Z:	0.052	yaw:	1.678	yaw rate:	24.316	Roll:	0.139	Pitch:	0.264	Yaw:	8.172	Thrust:	61.248
Time:	2.792	Roll Set Point:	0.015	Pitch Set Point:	-0.026	Yaw Set Point:	-0.029	X_WP:	0.000	Y_WP:	0.000	Y_WP:	0.500	X:	-0.008	Y:	0.013	Z:	0.052	yaw:	1.676	yaw rate:	-0.294	Roll:	0.103	Pitch:	0.270	Yaw:	2.337	Thrust:	62.222
Time:	2.803	Roll Set Point:	0.015	Pitch Set Point:	-0.026	Yaw Set Point:	-0.037	X_WP:	0.000	Y_WP:	0.000	Y_WP:	0.500	X:	-0.008	Y:	0.013	Z:	0.053	yaw:	2.145	yaw rate:	46.952	Roll:	0.248	Pitch:	0.578	Yaw:	14.189	Thrust:	62.371
Time:	2.814	Roll Set Point:	0.015	Pitch Set Point:	-0.026	Yaw Set Point:	-0.037	X_WP:	0.000	Y_WP:	0.000	Y_WP:	0.500	X:	-0.007	Y:	0.013	Z:	0.053	yaw:	2.127	yaw rate:	-1.830	Roll:	-0.179	Pitch:	-0.034	Yaw:	2.618	Thrust:	63.990
Time:	2.825	Roll Set Point:	0.014	Pitch Set Point:	-0.026	Yaw Set Point:	-0.046	X_WP:	0.000	Y_WP:	0.000	Y_WP:	0.500	X:	-0.007	Y:	0.013	Z:	0.054	yaw:	2.624	yaw rate:	49.687	Roll:	0.538	Pitch:	0.587	Yaw:	15.549	Thrust:	62.454
Time:	2.836	Roll Set Point:	0.013	Pitch Set Point:	-0.025	Yaw Set Point:	-0.046	X_WP:	0.000	Y_WP:	0.000	Y_WP:	0.500	X:	-0.007	Y:	0.012	Z:	0.055	yaw:	2.657	yaw rate:	3.332	Roll:	0.399	Pitch:	0.017	Yaw:	4.603	Thrust:	60.548
Time:	2.847	Roll Set Point:	0.012	Pitch Set Point:	-0.025	Yaw Set Point:	-0.049	X_WP:	0.000	Y_WP:	0.000	Y_WP:	0.500	X:	-0.006	Y:	0.012	Z:	0.056	yaw:	2.808	yaw rate:	15.106	Roll:	0.272	Pitch:	0.235	Yaw:	7.617	Thrust:	62.904
Time:	2.858	Roll Set Point:	0.012	Pitch Set Point:	-0.025	Yaw Set Point:	-0.050	X_WP:	0.000	Y_WP:	0.000	Y_WP:	0.500	X:	-0.006	Y:	0.012	Z:	0.057	yaw:	2.871	yaw rate:	6.330	Roll:	0.212	Pitch:	0.139	Yaw:	5.633	Thrust:	63.484
Time:	2.869	Roll Set Point:	0.011	Pitch Set Point:	-0.024	Yaw Set Point:	-0.054	X_WP:	0.000	Y_WP:	0.000	Y_WP:	0.500	X:	-0.006	Y:	0.012	Z:	0.058	yaw:	3.114	yaw rate:	24.314	Roll:	0.278	Pitch:	-0.009	Yaw:	10.253	Thrust:	63.671
Time:	2.880	Roll Set Point:	0.011	Pitch Set Point:	-0.024	Yaw Set Point:	-0.055	X_WP:	0.000	Y_WP:	0.000	Y_WP:	0.500	X:	-0.006	Y:	0.012	Z:	0.059	yaw:	3.127	yaw rate:	1.244	Roll:	0.118	Pitch:	0.083	Yaw:	4.806	Thrust:	64.406
Time:	2.891	Roll Set Point:	0.010	Pitch Set Point:	-0.023	Yaw Set Point:	-0.058	X_WP:	0.000	Y_WP:	0.000	Y_WP:	0.500	X:	-0.005	Y:	0.011	Z:	0.061	yaw:	3.307	yaw rate:	18.005	Roll:	0.330	Pitch:	-0.304	Yaw:	9.047	Thrust:	61.659
Time:	2.902	Roll Set Point:	0.010	Pitch Set Point:	-0.022	Yaw Set Point:	-0.059	X_WP:	0.000	Y_WP:	0.000	Y_WP:	0.500	X:	-0.005	Y:	0.011	Z:	0.062	yaw:	3.358	yaw rate:	5.079	Roll:	0.179	Pitch:	-0.233	Yaw:	6.063	Thrust:	64.375
Time:	2.913	Roll Set Point:	0.009	Pitch Set Point:	-0.021	Yaw Set Point:	-0.061	X_WP:	0.000	Y_WP:	0.000	Y_WP:	0.500	X:	-0.005	Y:	0.011	Z:	0.063	yaw:	3.510	yaw rate:	15.256	Roll:	0.172	Pitch:	-0.331	Yaw:	8.712	Thrust:	65.863
Time:	2.925	Roll Set Point:	0.008	Pitch Set Point:	-0.021	Yaw Set Point:	-0.071	X_WP:	0.000	Y_WP:	0.000	Y_WP:	0.500	X:	-0.005	Y:	0.010	Z:	0.064	yaw:	4.080	yaw rate:	56.963	Roll:	0.627	Pitch:	-0.146	Yaw:	18.304	Thrust:	68.718
Time:	2.936	Roll Set Point:	0.008	Pitch Set Point:	-0.019	Yaw Set Point:	-0.067	X_WP:	0.000	Y_WP:	0.000	Y_WP:	0.500	X:	-0.004	Y:	0.009	Z:	0.067	yaw:	3.850	yaw rate:	-6.332	Roll:	0.249	Pitch:	-1.087	Yaw:	0.131	Thrust:	59.224
Time:	2.947	Roll Set Point:	0.008	Pitch Set Point:	-0.019	Yaw Set Point:	-0.067	X_WP:	0.000	Y_WP:	0.000	Y_WP:	0.500	X:	-0.004	Y:	0.009	Z:	0.067	yaw:	3.850	yaw rate:	-6.332	Roll:	-0.122	Pitch:	0.307	Yaw:	5.603	Thrust:	71.416
Time:	2.958	Roll Set Point:	0.007	Pitch Set Point:	-0.017	Yaw Set Point:	-0.072	X_WP:	0.000	Y_WP:	0.000	Y_WP:	0.500	X:	-0.004	Y:	0.009	Z:	0.069	yaw:	4.138	yaw rate:	28.771	Roll:	0.479	Pitch:	-0.939	Yaw:	12.847	Thrust:	63.190
Time:	2.970	Roll Set Point:	0.007	Pitch Set Point:	-0.016	Yaw Set Point:	-0.072	X_WP:	0.000	Y_WP:	0.000	Y_WP:	0.500	X:	-0.004	Y:	0.008	Z:	0.071	yaw:	4.114	yaw rate:	-2.381	Roll:	0.192	Pitch:	-0.393	Yaw:	5.495	Thrust:	70.191
Time:	2.981	Roll Set Point:	0.006	Pitch Set Point:	-0.015	Yaw Set Point:	-0.077	X_WP:	0.000	Y_WP:	0.000	Y_WP:	0.500	X:	-0.003	Y:	0.007	Z:	0.072	yaw:	4.420	yaw rate:	30.562	Roll:	0.098	Pitch:	-0.772	Yaw:	13.713	Thrust:	66.107
Time:	2.992	Roll Set Point:	0.006	Pitch Set Point:	-0.013	Yaw Set Point:	-0.079	X_WP:	0.000	Y_WP:	0.000	Y_WP:	0.500	X:	-0.003	Y:	0.006	Z:	0.075	yaw:	4.501	yaw rate:	8.151	Roll:	0.014	Pitch:	-1.184	Yaw:	8.510	Thrust:	63.399
Time:	3.003	Roll Set Point:	0.006	Pitch Set Point:	-0.012	Yaw Set Point:	-0.084	X_WP:	0.000	Y_WP:	0.000	Y_WP:	0.500	X:	-0.003	Y:	0.006	Z:	0.076	yaw:	4.821	yaw rate:	32.034	Roll:	-0.043	Pitch:	-1.087	Yaw:	14.643	Thrust:	66.702
Time:	3.014	Roll Set Point:	0.006	Pitch Set Point:	-0.010	Yaw Set Point:	-0.082	X_WP:	0.000	Y_WP:	0.000	Y_WP:	0.500	X:	-0.003	Y:	0.005	Z:	0.078	yaw:	4.709	yaw rate:	-11.215	Roll:	-0.260	Pitch:	-1.213	Yaw:	4.239	Thrust:	67.307
Time:	3.025	Roll Set Point:	0.006	Pitch Set Point:	-0.008	Yaw Set Point:	-0.089	X_WP:	0.000	Y_WP:	0.000	Y_WP:	0.500	X:	-0.003	Y:	0.004	Z:	0.080	yaw:	5.106	yaw rate:	39.696	Roll:	0.001	Pitch:	-0.975	Yaw:	16.896	Thrust:	66.570
Time:	3.036	Roll Set Point:	0.006	Pitch Set Point:	-0.006	Yaw Set Point:	-0.097	X_WP:	0.000	Y_WP:	0.000	Y_WP:	0.500	X:	-0.003	Y:	0.003	Z:	0.082	yaw:	5.555	yaw rate:	44.849	Roll:	-0.019	Pitch:	-1.329	Yaw:	18.765	Thrust:	66.858
Time:	3.047	Roll Set Point:	0.006	Pitch Set Point:	-0.003	Yaw Set Point:	-0.092	X_WP:	0.000	Y_WP:	0.000	Y_WP:	0.500	X:	-0.003	Y:	0.002	Z:	0.085	yaw:	5.288	yaw rate:	-26.641	Roll:	-0.271	Pitch:	-2.138	Yaw:	1.445	Thrust:	62.796
Time:	3.058	Roll Set Point:	0.006	Pitch Set Point:	-0.002	Yaw Set Point:	-0.098	X_WP:	0.000	Y_WP:	0.000	Y_WP:	0.500	X:	-0.003	Y:	0.001	Z:	0.087	yaw:	5.629	yaw rate:	34.056	Roll:	-0.180	Pitch:	-1.326	Yaw:	16.349	Thrust:	67.083
Time:	3.069	Roll Set Point:	0.006	Pitch Set Point:	0.000	Yaw Set Point:	-0.101	X_WP:	0.000	Y_WP:	0.000	Y_WP:	0.500	X:	-0.003	Y:	-0.000	Z:	0.089	yaw:	5.769	yaw rate:	14.030	Roll:	-0.311	Pitch:	-1.421	Yaw:	11.813	Thrust:	67.455
Time:	3.080	Roll Set Point:	0.007	Pitch Set Point:	0.003	Yaw Set Point:	-0.088	X_WP:	0.000	Y_WP:	0.000	Y_WP:	0.500	X:	-0.003	Y:	-0.001	Z:	0.092	yaw:	5.058	yaw rate:	-71.150	Roll:	-0.604	Pitch:	-1.865	Yaw:	-9.377	Thrust:	67.982
Time:	3.091	Roll Set Point:	0.007	Pitch Set Point:	0.006	Yaw Set Point:	-0.091	X_WP:	0.000	Y_WP:	0.000	Y_WP:	0.500	X:	-0.003	Y:	-0.003	Z:	0.095	yaw:	5.236	yaw rate:	17.822	Roll:	-0.284	Pitch:	-2.492	Yaw:	12.010	Thrust:	62.651
Time:	3.102	Roll Set Point:	0.007	Pitch Set Point:	0.008	Yaw Set Point:	-0.103	X_WP:	0.000	Y_WP:	0.000	Y_WP:	0.500	X:	-0.003	Y:	-0.004	Z:	0.097	yaw:	5.921	yaw rate:	68.519	Roll:	-0.475	Pitch:	-1.561	Yaw:	25.021	Thrust:	68.510
Time:	3.113	Roll Set Point:	0.007	Pitch Set Point:	0.010	Yaw Set Point:	-0.100	X_WP:	0.000	Y_WP:	0.000	Y_WP:	0.500	X:	-0.003	Y:	-0.005	Z:	0.100	yaw:	5.726	yaw rate:	-19.491	Roll:	-0.301	Pitch:	-1.812	Yaw:	3.881	Thrust:	68.040
Time:	3.124	Roll Set Point:	0.007	Pitch Set Point:	0.012	Yaw Set Point:	-0.099	X_WP:	0.000	Y_WP:	0.000	Y_WP:	0.500	X:	-0.003	Y:	-0.006	Z:	0.102	yaw:	5.645	yaw rate:	-8.087	Roll:	-0.456	Pitch:	-1.988	Yaw:	6.497	Thrust:	68.000
Time:	3.135	Roll Set Point:	0.008	Pitch Set Point:	0.015	Yaw Set Point:	-0.093	X_WP:	0.000	Y_WP:	0.000	Y_WP:	0.500	X:	-0.004	Y:	-0.008	Z:	0.104	yaw:	5.336	yaw rate:	-30.884	Roll:	-0.495	Pitch:	-2.287	Yaw:	0.676	Thrust:	69.299
Time:	3.146	Roll Set Point:	0.008	Pitch Set Point:	0.018	Yaw Set Point:	-0.102	X_WP:	0.000	Y_WP:	0.000	Y_WP:	0.500	X:	-0.004	Y:	-0.009	Z:	0.108	yaw:	5.865	yaw rate:	52.867	Roll:	-0.826	Pitch:	-2.644	Yaw:	21.315	Thrust:	63.693
Time:	3.157	Roll Set Point:	0.009	Pitch Set Point:	0.021	Yaw Set Point:	-0.096	X_WP:	0.000	Y_WP:	0.000	Y_WP:	0.500	X:	-0.004	Y:	-0.011	Z:	0.111	yaw:	5.503	yaw rate:	-36.184	Roll:	-0.699	Pitch:	-2.289	Yaw:	-0.306	Thrust:	69.289
Time:	3.168	Roll Set Point:	0.010	Pitch Set Point:	0.024	Yaw Set Point:	-0.094	X_WP:	0.000	Y_WP:	0.000	Y_WP:	0.500	X:	-0.004	Y:	-0.012	Z:	0.113	yaw:	5.365	yaw rate:	-13.779	Roll:	-0.830	Pitch:	-2.336	Yaw:	4.841	Thrust:	69.948
Time:	3.179	Roll Set Point:	0.011	Pitch Set Point:	0.026	Yaw Set Point:	-0.092	X_WP:	0.000	Y_WP:	0.000	Y_WP:	0.500	X:	-0.005	Y:	-0.013	Z:	0.116	yaw:	5.295	yaw rate:	-7.071	Roll:	-0.864	Pitch:	-2.199	Yaw:	6.355	Thrust:	69.717
Time:	3.190	Roll Set Point:	0.011	Pitch Set Point:	0.028	Yaw Set Point:	-0.096	X_WP:	0.000	Y_WP:	0.000	Y_WP:	0.500	X:	-0.005	Y:	-0.014	Z:	0.118	yaw:	5.512	yaw rate:	21.708	Roll:	-0.678	Pitch:	-2.046	Yaw:	13.511	Thrust:	68.960
Time:	3.202	Roll Set Point:	0.012	Pitch Set Point:	0.032	Yaw Set Point:	-0.091	X_WP:	0.000	Y_WP:	0.000	Y_WP:	0.500	X:	-0.005	Y:	-0.016	Z:	0.122	yaw:	5.228	yaw rate:	-28.343	Roll:	-1.037	Pitch:	-3.283	Yaw:	1.255	Thrust:	65.628
Time:	3.213	Roll Set Point:	0.013	Pitch Set Point:	0.034	Yaw Set Point:	-0.090	X_WP:	0.000	Y_WP:	0.000	Y_WP:	0.500	X:	-0.006	Y:	-0.017	Z:	0.125	yaw:	5.156	yaw rate:	-7.252	Roll:	-1.078	Pitch:	-2.240	Yaw:	6.180	Thrust:	69.756
Time:	3.224	Roll Set Point:	0.014	Pitch Set Point:	0.037	Yaw Set Point:	-0.093	X_WP:	0.000	Y_WP:	0.000	Y_WP:	0.500	X:	-0.006	Y:	-0.019	Z:	0.128	yaw:	5.346	yaw rate:	19.026	Roll:	-0.787	Pitch:	-2.208	Yaw:	12.703	Thrust:	69.872
Time:	3.235	Roll Set Point:	0.015	Pitch Set Point:	0.039	Yaw Set Point:	-0.083	X_WP:	0.000	Y_WP:	0.000	Y_WP:	0.500	X:	-0.007	Y:	-0.020	Z:	0.130	yaw:	4.732	yaw rate:	-61.424	Roll:	-1.024	Pitch:	-2.668	Yaw:	-7.199	Thrust:	70.671
Time:	3.246	Roll Set Point:	0.015	Pitch Set Point:	0.042	Yaw Set Point:	-0.082	X_WP:	0.000	Y_WP:	0.000	Y_WP:	0.500	X:	-0.007	Y:	-0.021	Z:	0.133	yaw:	4.725	yaw rate:	-0.679	Roll:	-0.859	Pitch:	-2.256	Yaw:	7.198	Thrust:	70.845
Time:	3.257	Roll Set Point:	0.017	Pitch Set Point:	0.045	Yaw Set Point:	-0.083	X_WP:	0.000	Y_WP:	0.000	Y_WP:	0.500	X:	-0.007	Y:	-0.023	Z:	0.137	yaw:	4.762	yaw rate:	3.656	Roll:	-1.511	Pitch:	-3.204	Yaw:	8.295	Thrust:	65.378
Time:	3.268	Roll Set Point:	0.018	Pitch Set Point:	0.047	Yaw Set Point:	-0.084	X_WP:	0.000	Y_WP:	0.000	Y_WP:	0.500	X:	-0.008	Y:	-0.024	Z:	0.140	yaw:	4.811	yaw rate:	4.936	Roll:	-1.090	Pitch:	-2.264	Yaw:	8.688	Thrust:	70.238
Time:	3.279	Roll Set Point:	0.018	Pitch Set Point:	0.049	Yaw Set Point:	-0.086	X_WP:	0.000	Y_WP:	0.000	Y_WP:	0.500	X:	-0.008	Y:	-0.025	Z:	0.143	yaw:	4.912	yaw rate:	10.047	Roll:	-0.905	Pitch:	-2.213	Yaw:	10.059	Thrust:	70.868
Time:	3.290	Roll Set Point:	0.019	Pitch Set Point:	0.052	Yaw Set Point:	-0.084	X_WP:	0.000	Y_WP:	0.000	Y_WP:	0.500	X:	-0.008	Y:	-0.026	Z:	0.146	yaw:	4.793	yaw rate:	-11.803	Roll:	-0.998	Pitch:	-2.525	Yaw:	4.733	Thrust:	71.213
Time:	3.301	Roll Set Point:	0.021	Pitch Set Point:	0.055	Yaw Set Point:	-0.078	X_WP:	0.000	Y_WP:	0.000	Y_WP:	0.500	X:	-0.009	Y:	-0.028	Z:	0.151	yaw:	4.459	yaw rate:	-33.404	Roll:	-1.572	Pitch:	-3.122	Yaw:	-0.866	Thrust:	64.837
Time:	3.312	Roll Set Point:	0.022	Pitch Set Point:	0.057	Yaw Set Point:	-0.080	X_WP:	0.000	Y_WP:	0.000	Y_WP:	0.500	X:	-0.010	Y:	-0.029	Z:	0.154	yaw:	4.599	yaw rate:	13.918	Roll:	-1.376	Pitch:	-2.411	Yaw:	10.595	Thrust:	71.267
Time:	3.323	Roll Set Point:	0.023	Pitch Set Point:	0.059	Yaw Set Point:	-0.077	X_WP:	0.000	Y_WP:	0.000	Y_WP:	0.500	X:	-0.010	Y:	-0.030	Z:	0.157	yaw:	4.384	yaw rate:	-21.498	Roll:	-1.039	Pitch:	-2.438	Yaw:	1.918	Thrust:	70.719
Time:	3.334	Roll Set Point:	0.023	Pitch Set Point:	0.061	Yaw Set Point:	-0.070	X_WP:	0.000	Y_WP:	0.000	Y_WP:	0.500	X:	-0.011	Y:	-0.031	Z:	0.160	yaw:	4.017	yaw rate:	-36.714	Roll:	-0.782	Pitch:	-2.590	Yaw:	-2.201	Thrust:	71.814
Time:	3.345	Roll Set Point:	0.025	Pitch Set Point:	0.063	Yaw Set Point:	-0.071	X_WP:	0.000	Y_WP:	0.000	Y_WP:	0.500	X:	-0.011	Y:	-0.032	Z:	0.164	yaw:	4.062	yaw rate:	4.569	Roll:	-1.389	Pitch:	-2.277	Yaw:	7.677	Thrust:	70.993
Time:	3.356	Roll Set Point:	0.026	Pitch Set Point:	0.066	Yaw Set Point:	-0.067	X_WP:	0.000	Y_WP:	0.000	Y_WP:	0.500	X:	-0.012	Y:	-0.033	Z:	0.169	yaw:	3.829	yaw rate:	-23.329	Roll:	-1.391	Pitch:	-3.134	Yaw:	0.729	Thrust:	64.044
Time:	3.367	Roll Set Point:	0.027	Pitch Set Point:	0.068	Yaw Set Point:	-0.062	X_WP:	0.000	Y_WP:	0.000	Y_WP:	0.500	X:	-0.012	Y:	-0.034	Z:	0.172	yaw:	3.579	yaw rate:	-24.957	Roll:	-1.045	Pitch:	-2.428	Yaw:	0.025	Thrust:	70.959
Time:	3.378	Roll Set Point:	0.028	Pitch Set Point:	0.069	Yaw Set Point:	-0.063	X_WP:	0.000	Y_WP:	0.000	Y_WP:	0.500	X:	-0.013	Y:	-0.035	Z:	0.175	yaw:	3.596	yaw rate:	1.642	Roll:	-1.323	Pitch:	-2.091	Yaw:	6.376	Thrust:	72.346
Time:	3.389	Roll Set Point:	0.029	Pitch Set Point:	0.071	Yaw Set Point:	-0.065	X_WP:	0.000	Y_WP:	0.000	Y_WP:	0.500	X:	-0.013	Y:	-0.036	Z:	0.179	yaw:	3.732	yaw rate:	13.630	Roll:	-1.507	Pitch:	-2.072	Yaw:	9.429	Thrust:	70.717
Time:	3.400	Roll Set Point:	0.030	Pitch Set Point:	0.072	Yaw Set Point:	-0.068	X_WP:	0.000	Y_WP:	0.000	Y_WP:	0.500	X:	-0.014	Y:	-0.037	Z:	0.183	yaw:	3.869	yaw rate:	13.723	Roll:	-1.138	Pitch:	-2.035	Yaw:	9.653	Thrust:	70.570
Time:	3.411	Roll Set Point:	0.031	Pitch Set Point:	0.074	Yaw Set Point:	-0.060	X_WP:	0.000	Y_WP:	0.000	Y_WP:	0.500	X:	-0.014	Y:	-0.038	Z:	0.188	yaw:	3.428	yaw rate:	-44.120	Roll:	-1.251	Pitch:	-2.857	Yaw:	-4.679	Thrust:	62.789
Time:	3.422	Roll Set Point:	0.031	Pitch Set Point:	0.076	Yaw Set Point:	-0.053	X_WP:	0.000	Y_WP:	0.000	Y_WP:	0.500	X:	-0.015	Y:	-0.039	Z:	0.192	yaw:	3.041	yaw rate:	-38.714	Roll:	-0.759	Pitch:	-2.536	Yaw:	-3.591	Thrust:	74.630
Time:	3.434	Roll Set Point:	0.032	Pitch Set Point:	0.077	Yaw Set Point:	-0.055	X_WP:	0.000	Y_WP:	0.000	Y_WP:	0.500	X:	-0.015	Y:	-0.039	Z:	0.196	yaw:	3.176	yaw rate:	13.459	Roll:	-1.391	Pitch:	-1.655	Yaw:	8.661	Thrust:	70.643
Time:	3.445	Roll Set Point:	0.033	Pitch Set Point:	0.078	Yaw Set Point:	-0.058	X_WP:	0.000	Y_WP:	0.000	Y_WP:	0.500	X:	-0.016	Y:	-0.039	Z:	0.200	yaw:	3.306	yaw rate:	13.007	Roll:	-1.309	Pitch:	-1.816	Yaw:	8.744	Thrust:	70.976
Time:	3.456	Roll Set Point:	0.035	Pitch Set Point:	0.081	Yaw Set Point:	-0.055	X_WP:	0.000	Y_WP:	0.000	Y_WP:	0.500	X:	-0.017	Y:	-0.041	Z:	0.207	yaw:	3.177	yaw rate:	-3.992	Roll:	-2.111	Pitch:	-3.046	Yaw:	2.588	Thrust:	59.053
Time:	3.468	Roll Set Point:	0.036	Pitch Set Point:	0.082	Yaw Set Point:	-0.054	X_WP:	0.000	Y_WP:	0.000	Y_WP:	0.500	X:	-0.017	Y:	-0.041	Z:	0.213	yaw:	3.099	yaw rate:	-7.726	Roll:	-1.072	Pitch:	-2.073	Yaw:	3.814	Thrust:	69.679
Time:	3.479	Roll Set Point:	0.036	Pitch Set Point:	0.082	Yaw Set Point:	-0.052	X_WP:	0.000	Y_WP:	0.000	Y_WP:	0.500	X:	-0.017	Y:	-0.042	Z:	0.218	yaw:	2.953	yaw rate:	-14.619	Roll:	-0.809	Pitch:	-1.638	Yaw:	1.745	Thrust:	70.045
Time:	3.490	Roll Set Point:	0.037	Pitch Set Point:	0.083	Yaw Set Point:	-0.050	X_WP:	0.000	Y_WP:	0.000	Y_WP:	0.500	X:	-0.018	Y:	-0.042	Z:	0.222	yaw:	2.876	yaw rate:	-7.746	Roll:	-1.171	Pitch:	-1.831	Yaw:	3.271	Thrust:	69.719
Time:	3.501	Roll Set Point:	0.038	Pitch Set Point:	0.084	Yaw Set Point:	-0.050	X_WP:	0.000	Y_WP:	0.000	Y_WP:	0.500	X:	-0.018	Y:	-0.042	Z:	0.226	yaw:	2.842	yaw rate:	-3.361	Roll:	-1.009	Pitch:	-1.775	Yaw:	4.274	Thrust:	70.222
Time:	3.513	Roll Set Point:	0.038	Pitch Set Point:	0.085	Yaw Set Point:	-0.044	X_WP:	0.000	Y_WP:	0.000	Y_WP:	0.500	X:	-0.018	Y:	-0.043	Z:	0.230	yaw:	2.513	yaw rate:	-32.905	Roll:	-0.806	Pitch:	-1.789	Yaw:	-2.473	Thrust:	78.341
Time:	3.524	Roll Set Point:	0.039	Pitch Set Point:	0.085	Yaw Set Point:	-0.046	X_WP:	0.000	Y_WP:	0.000	Y_WP:	0.500	X:	-0.018	Y:	-0.043	Z:	0.236	yaw:	2.655	yaw rate:	14.169	Roll:	-1.235	Pitch:	-1.551	Yaw:	8.133	Thrust:	62.711
Time:	3.535	Roll Set Point:	0.039	Pitch Set Point:	0.086	Yaw Set Point:	-0.035	X_WP:	0.000	Y_WP:	0.000	Y_WP:	0.500	X:	-0.019	Y:	-0.043	Z:	0.241	yaw:	2.008	yaw rate:	-64.680	Roll:	-0.496	Pitch:	-2.189	Yaw:	-11.483	Thrust:	69.488
Time:	3.546	Roll Set Point:	0.040	Pitch Set Point:	0.087	Yaw Set Point:	-0.039	X_WP:	0.000	Y_WP:	0.000	Y_WP:	0.500	X:	-0.019	Y:	-0.044	Z:	0.245	yaw:	2.244	yaw rate:	23.632	Roll:	-1.377	Pitch:	-1.509	Yaw:	9.846	Thrust:	69.849
Time:	3.557	Roll Set Point:	0.040	Pitch Set Point:	0.087	Yaw Set Point:	-0.032	X_WP:	0.000	Y_WP:	0.000	Y_WP:	0.500	X:	-0.019	Y:	-0.044	Z:	0.249	yaw:	1.834	yaw rate:	-41.045	Roll:	-0.300	Pitch:	-1.482	Yaw:	-6.078	Thrust:	70.214
Time:	3.569	Roll Set Point:	0.041	Pitch Set Point:	0.087	Yaw Set Point:	-0.044	X_WP:	0.000	Y_WP:	0.000	Y_WP:	0.500	X:	-0.019	Y:	-0.044	Z:	0.256	yaw:	2.512	yaw rate:	67.852	Roll:	-1.600	Pitch:	-0.783	Yaw:	20.692	Thrust:	60.592
Time:	3.580	Roll Set Point:	0.041	Pitch Set Point:	0.087	Yaw Set Point:	-0.034	X_WP:	0.000	Y_WP:	0.000	Y_WP:	0.500	X:	-0.020	Y:	-0.044	Z:	0.260	yaw:	1.920	yaw rate:	-59.280	Roll:	-0.465	Pitch:	-1.742	Yaw:	-10.287	Thrust:	69.245
Time:	3.591	Roll Set Point:	0.041	Pitch Set Point:	0.086	Yaw Set Point:	-0.042	X_WP:	0.000	Y_WP:	0.000	Y_WP:	0.500	X:	-0.020	Y:	-0.044	Z:	0.265	yaw:	2.390	yaw rate:	47.022	Roll:	-1.241	Pitch:	-0.634	Yaw:	15.602	Thrust:	69.369
Time:	3.602	Roll Set Point:	0.041	Pitch Set Point:	0.086	Yaw Set Point:	-0.037	X_WP:	0.000	Y_WP:	0.000	Y_WP:	0.500	X:	-0.020	Y:	-0.044	Z:	0.269	yaw:	2.135	yaw rate:	-25.469	Roll:	-0.374	Pitch:	-1.254	Yaw:	-1.970	Thrust:	69.485
Time:	3.613	Roll Set Point:	0.041	Pitch Set Point:	0.086	Yaw Set Point:	-0.038	X_WP:	0.000	Y_WP:	0.000	Y_WP:	0.500	X:	-0.020	Y:	-0.043	Z:	0.273	yaw:	2.177	yaw rate:	4.168	Roll:	-0.634	Pitch:	-1.178	Yaw:	5.132	Thrust:	69.543
Time:	3.624	Roll Set Point:	0.041	Pitch Set Point:	0.086	Yaw Set Point:	-0.036	X_WP:	0.000	Y_WP:	0.000	Y_WP:	0.500	X:	-0.020	Y:	-0.043	Z:	0.278	yaw:	2.037	yaw rate:	-13.972	Roll:	-0.585	Pitch:	-0.966	Yaw:	0.631	Thrust:	69.027
Time:	3.635	Roll Set Point:	0.041	Pitch Set Point:	0.085	Yaw Set Point:	-0.038	X_WP:	0.000	Y_WP:	0.000	Y_WP:	0.500	X:	-0.020	Y:	-0.043	Z:	0.285	yaw:	2.172	yaw rate:	13.528	Roll:	-0.654	Pitch:	-0.543	Yaw:	7.347	Thrust:	59.922
Time:	3.646	Roll Set Point:	0.041	Pitch Set Point:	0.085	Yaw Set Point:	-0.032	X_WP:	0.000	Y_WP:	0.000	Y_WP:	0.500	X:	-0.020	Y:	-0.043	Z:	0.289	yaw:	1.859	yaw rate:	-31.322	Roll:	-0.346	Pitch:	-1.142	Yaw:	-3.756	Thrust:	68.840
Time:	3.657	Roll Set Point:	0.041	Pitch Set Point:	0.084	Yaw Set Point:	-0.039	X_WP:	0.000	Y_WP:	0.000	Y_WP:	0.500	X:	-0.019	Y:	-0.042	Z:	0.294	yaw:	2.226	yaw rate:	36.683	Roll:	-0.653	Pitch:	-0.275	Yaw:	12.918	Thrust:	69.252
Time:	3.668	Roll Set Point:	0.040	Pitch Set Point:	0.084	Yaw Set Point:	-0.031	X_WP:	0.000	Y_WP:	0.000	Y_WP:	0.500	X:	-0.020	Y:	-0.042	Z:	0.298	yaw:	1.790	yaw rate:	-43.587	Roll:	-0.282	Pitch:	-1.377	Yaw:	-6.745	Thrust:	69.178
Time:	3.679	Roll Set Point:	0.040	Pitch Set Point:	0.082	Yaw Set Point:	-0.035	X_WP:	0.000	Y_WP:	0.000	Y_WP:	0.500	X:	-0.019	Y:	-0.042	Z:	0.303	yaw:	2.002	yaw rate:	21.182	Roll:	-0.637	Pitch:	-0.170	Yaw:	8.919	Thrust:	69.037
Time:	3.690	Roll Set Point:	0.040	Pitch Set Point:	0.082	Yaw Set Point:	-0.029	X_WP:	0.000	Y_WP:	0.000	Y_WP:	0.500	X:	-0.019	Y:	-0.041	Z:	0.310	yaw:	1.640	yaw rate:	-36.195	Roll:	-0.258	Pitch:	-0.715	Yaw:	-5.215	Thrust:	59.991
Time:	3.701	Roll Set Point:	0.040	Pitch Set Point:	0.080	Yaw Set Point:	-0.036	X_WP:	0.000	Y_WP:	0.000	Y_WP:	0.500	X:	-0.019	Y:	-0.040	Z:	0.314	yaw:	2.065	yaw rate:	42.541	Roll:	-0.544	Pitch:	-0.005	Yaw:	14.081	Thrust:	69.144
Time:	3.712	Roll Set Point:	0.039	Pitch Set Point:	0.079	Yaw Set Point:	-0.024	X_WP:	0.000	Y_WP:	0.000	Y_WP:	0.500	X:	-0.019	Y:	-0.040	Z:	0.321	yaw:	1.372	yaw rate:	-69.320	Roll:	0.622	Pitch:	-0.475	Yaw:	-13.396	Thrust:	60.351
Time:	3.723	Roll Set Point:	0.038	Pitch Set Point:	0.078	Yaw Set Point:	-0.024	X_WP:	0.000	Y_WP:	0.000	Y_WP:	0.500	X:	-0.019	Y:	-0.039	Z:	0.326	yaw:	1.400	yaw rate:	2.766	Roll:	-0.317	Pitch:	-0.257	Yaw:	3.713	Thrust:	68.183
Time:	3.734	Roll Set Point:	0.037	Pitch Set Point:	0.076	Yaw Set Point:	-0.027	X_WP:	0.000	Y_WP:	0.000	Y_WP:	0.500	X:	-0.018	Y:	-0.038	Z:	0.331	yaw:	1.531	yaw rate:	13.139	Roll:	-0.107	Pitch:	0.239	Yaw:	6.360	Thrust:	67.988
Time:	3.745	Roll Set Point:	0.037	Pitch Set Point:	0.075	Yaw Set Point:	-0.029	X_WP:	0.000	Y_WP:	0.000	Y_WP:	0.500	X:	-0.018	Y:	-0.038	Z:	0.335	yaw:	1.649	yaw rate:	11.820	Roll:	-0.327	Pitch:	-0.317	Yaw:	6.212	Thrust:	68.758
Time:	3.757	Roll Set Point:	0.036	Pitch Set Point:	0.074	Yaw Set Point:	-0.025	X_WP:	0.000	Y_WP:	0.000	Y_WP:	0.500	X:	-0.018	Y:	-0.037	Z:	0.340	yaw:	1.435	yaw rate:	-21.471	Roll:	-0.012	Pitch:	-0.155	Yaw:	-1.685	Thrust:	73.592
Time:	3.768	Roll Set Point:	0.036	Pitch Set Point:	0.073	Yaw Set Point:	-0.026	X_WP:	0.000	Y_WP:	0.000	Y_WP:	0.500	X:	-0.017	Y:	-0.037	Z:	0.344	yaw:	1.478	yaw rate:	4.343	Roll:	-0.010	Pitch:	0.006	Yaw:	4.198	Thrust:	68.545
Time:	3.779	Roll Set Point:	0.035	Pitch Set Point:	0.071	Yaw Set Point:	-0.028	X_WP:	0.000	Y_WP:	0.000	Y_WP:	0.500	X:	-0.017	Y:	-0.036	Z:	0.351	yaw:	1.588	yaw rate:	10.956	Roll:	-0.209	Pitch:	0.504	Yaw:	5.921	Thrust:	59.932
Time:	3.790	Roll Set Point:	0.034	Pitch Set Point:	0.069	Yaw Set Point:	-0.019	X_WP:	0.000	Y_WP:	0.000	Y_WP:	0.500	X:	-0.017	Y:	-0.035	Z:	0.356	yaw:	1.077	yaw rate:	-51.045	Roll:	0.496	Pitch:	-0.057	Yaw:	-9.543	Thrust:	68.140
Time:	3.801	Roll Set Point:	0.033	Pitch Set Point:	0.067	Yaw Set Point:	-0.016	X_WP:	0.000	Y_WP:	0.000	Y_WP:	0.500	X:	-0.016	Y:	-0.034	Z:	0.360	yaw:	0.892	yaw rate:	-18.535	Roll:	0.429	Pitch:	0.300	Yaw:	-2.003	Thrust:	69.065
Time:	3.812	Roll Set Point:	0.032	Pitch Set Point:	0.065	Yaw Set Point:	-0.021	X_WP:	0.000	Y_WP:	0.000	Y_WP:	0.500	X:	-0.016	Y:	-0.033	Z:	0.365	yaw:	1.202	yaw rate:	31.009	Roll:	-0.029	Pitch:	0.633	Yaw:	10.142	Thrust:	67.929
Time:	3.823	Roll Set Point:	0.031	Pitch Set Point:	0.064	Yaw Set Point:	-0.019	X_WP:	0.000	Y_WP:	0.000	Y_WP:	0.500	X:	-0.015	Y:	-0.032	Z:	0.369	yaw:	1.097	yaw rate:	-10.485	Roll:	0.340	Pitch:	0.448	Yaw:	0.146	Thrust:	67.977
Time:	3.834	Roll Set Point:	0.030	Pitch Set Point:	0.061	Yaw Set Point:	-0.020	X_WP:	0.000	Y_WP:	0.000	Y_WP:	0.500	X:	-0.015	Y:	-0.031	Z:	0.377	yaw:	1.165	yaw rate:	6.801	Roll:	0.676	Pitch:	1.192	Yaw:	4.344	Thrust:	58.043
Time:	3.845	Roll Set Point:	0.029	Pitch Set Point:	0.059	Yaw Set Point:	-0.022	X_WP:	0.000	Y_WP:	0.000	Y_WP:	0.500	X:	-0.014	Y:	-0.030	Z:	0.381	yaw:	1.273	yaw rate:	10.752	Roll:	0.151	Pitch:	0.591	Yaw:	5.429	Thrust:	68.097
Time:	3.857	Roll Set Point:	0.028	Pitch Set Point:	0.057	Yaw Set Point:	-0.023	X_WP:	0.000	Y_WP:	0.000	Y_WP:	0.500	X:	-0.014	Y:	-0.029	Z:	0.386	yaw:	1.302	yaw rate:	2.952	Roll:	0.260	Pitch:	0.500	Yaw:	3.664	Thrust:	76.726
Time:	3.868	Roll Set Point:	0.027	Pitch Set Point:	0.055	Yaw Set Point:	-0.023	X_WP:	0.000	Y_WP:	0.000	Y_WP:	0.500	X:	-0.013	Y:	-0.028	Z:	0.390	yaw:	1.305	yaw rate:	0.260	Roll:	0.440	Pitch:	0.817	Yaw:	2.987	Thrust:	67.662
Time:	3.879	Roll Set Point:	0.025	Pitch Set Point:	0.053	Yaw Set Point:	-0.020	X_WP:	0.000	Y_WP:	0.000	Y_WP:	0.500	X:	-0.012	Y:	-0.026	Z:	0.395	yaw:	1.132	yaw rate:	-17.297	Roll:	0.611	Pitch:	0.866	Yaw:	-1.424	Thrust:	67.209
Time:	3.890	Roll Set Point:	0.025	Pitch Set Point:	0.051	Yaw Set Point:	-0.024	X_WP:	0.000	Y_WP:	0.000	Y_WP:	0.500	X:	-0.012	Y:	-0.026	Z:	0.399	yaw:	1.373	yaw rate:	24.107	Roll:	0.204	Pitch:	0.801	Yaw:	8.742	Thrust:	67.838
Time:	3.901	Roll Set Point:	0.023	Pitch Set Point:	0.048	Yaw Set Point:	-0.023	X_WP:	0.000	Y_WP:	0.000	Y_WP:	0.500	X:	-0.011	Y:	-0.024	Z:	0.406	yaw:	1.321	yaw rate:	-5.163	Roll:	0.953	Pitch:	1.652	Yaw:	1.722	Thrust:	58.216
Time:	3.912	Roll Set Point:	0.022	Pitch Set Point:	0.046	Yaw Set Point:	-0.010	X_WP:	0.000	Y_WP:	0.000	Y_WP:	0.500	X:	-0.011	Y:	-0.023	Z:	0.411	yaw:	0.578	yaw rate:	-74.327	Roll:	0.721	Pitch:	0.526	Yaw:	-15.732	Thrust:	66.628
Time:	3.923	Roll Set Point:	0.020	Pitch Set Point:	0.043	Yaw Set Point:	-0.015	X_WP:	0.000	Y_WP:	0.000	Y_WP:	0.500	X:	-0.010	Y:	-0.022	Z:	0.416	yaw:	0.846	yaw rate:	26.784	Roll:	0.633	Pitch:	1.516	Yaw:	8.642	Thrust:	66.824
Time:	3.934	Roll Set Point:	0.019	Pitch Set Point:	0.041	Yaw Set Point:	-0.013	X_WP:	0.000	Y_WP:	0.000	Y_WP:	0.500	X:	-0.009	Y:	-0.021	Z:	0.420	yaw:	0.762	yaw rate:	-8.404	Roll:	0.674	Pitch:	1.069	Yaw:	0.173	Thrust:	66.835
Time:	3.946	Roll Set Point:	0.018	Pitch Set Point:	0.039	Yaw Set Point:	-0.002	X_WP:	0.000	Y_WP:	0.000	Y_WP:	0.500	X:	-0.009	Y:	-0.020	Z:	0.425	yaw:	0.133	yaw rate:	-62.890	Roll:	0.769	Pitch:	0.633	Yaw:	-12.300	Thrust:	75.392
Time:	3.957	Roll Set Point:	0.016	Pitch Set Point:	0.035	Yaw Set Point:	-0.010	X_WP:	0.000	Y_WP:	0.000	Y_WP:	0.500	X:	-0.008	Y:	-0.018	Z:	0.432	yaw:	0.598	yaw rate:	46.548	Roll:	1.203	Pitch:	2.609	Yaw:	12.987	Thrust:	56.802
Time:	3.968	Roll Set Point:	0.015	Pitch Set Point:	0.033	Yaw Set Point:	-0.001	X_WP:	0.000	Y_WP:	0.000	Y_WP:	0.500	X:	-0.007	Y:	-0.017	Z:	0.436	yaw:	0.069	yaw rate:	-52.977	Roll:	0.691	Pitch:	0.921	Yaw:	-11.375	Thrust:	66.619
Time:	3.979	Roll Set Point:	0.013	Pitch Set Point:	0.031	Yaw Set Point:	-0.006	X_WP:	0.000	Y_WP:	0.000	Y_WP:	0.500	X:	-0.007	Y:	-0.015	Z:	0.441	yaw:	0.349	yaw rate:	28.005	Roll:	0.677	Pitch:	1.435	Yaw:	8.237	Thrust:	66.986
Time:	3.990	Roll Set Point:	0.012	Pitch Set Point:	0.028	Yaw Set Point:	-0.002	X_WP:	0.000	Y_WP:	0.000	Y_WP:	0.500	X:	-0.006	Y:	-0.014	Z:	0.445	yaw:	0.118	yaw rate:	-23.027	Roll:	0.834	Pitch:	1.395	Yaw:	-4.196	Thrust:	65.554
Time:	4.001	Roll Set Point:	0.011	Pitch Set Point:	0.026	Yaw Set Point:	-0.005	X_WP:	0.000	Y_WP:	0.000	Y_WP:	0.500	X:	-0.005	Y:	-0.013	Z:	0.450	yaw:	0.303	yaw rate:	18.441	Roll:	0.866	Pitch:	1.684	Yaw:	5.904	Thrust:	65.849
Time:	4.012	Roll Set Point:	0.009	Pitch Set Point:	0.023	Yaw Set Point:	0.005	X_WP:	0.000	Y_WP:	0.000	Y_WP:	0.500	X:	-0.005	Y:	-0.012	Z:	0.454	yaw:	-0.285	yaw rate:	-58.787	Roll:	0.930	Pitch:	1.248	Yaw:	-13.244	Thrust:	66.169
Time:	4.023	Roll Set Point:	0.007	Pitch Set Point:	0.020	Yaw Set Point:	-0.004	X_WP:	0.000	Y_WP:	0.000	Y_WP:	0.500	X:	-0.004	Y:	-0.010	Z:	0.461	yaw:	0.245	yaw rate:	52.954	Roll:	1.429	Pitch:	2.640	Yaw:	14.037	Thrust:	55.617
Time:	4.034	Roll Set Point:	0.006	Pitch Set Point:	0.017	Yaw Set Point:	0.001	X_WP:	0.000	Y_WP:	0.000	Y_WP:	0.500	X:	-0.003	Y:	-0.008	Z:	0.466	yaw:	-0.044	yaw rate:	-28.876	Roll:	1.036	Pitch:	1.794	Yaw:	-5.819	Thrust:	65.272
Time:	4.045	Roll Set Point:	0.004	Pitch Set Point:	0.014	Yaw Set Point:	-0.001	X_WP:	0.000	Y_WP:	0.000	Y_WP:	0.500	X:	-0.002	Y:	-0.007	Z:	0.470	yaw:	0.066	yaw rate:	10.983	Roll:	0.960	Pitch:	1.722	Yaw:	3.797	Thrust:	65.469
Time:	4.057	Roll Set Point:	0.003	Pitch Set Point:	0.012	Yaw Set Point:	0.001	X_WP:	0.000	Y_WP:	0.000	Y_WP:	0.500	X:	-0.002	Y:	-0.006	Z:	0.475	yaw:	-0.076	yaw rate:	-14.123	Roll:	0.846	Pitch:	1.665	Yaw:	-1.977	Thrust:	73.950
Time:	4.068	Roll Set Point:	0.001	Pitch Set Point:	0.008	Yaw Set Point:	-0.001	X_WP:	0.000	Y_WP:	0.000	Y_WP:	0.500	X:	-0.000	Y:	-0.004	Z:	0.481	yaw:	0.047	yaw rate:	12.220	Roll:	1.644	Pitch:	2.655	Yaw:	4.072	Thrust:	56.037
Time:	4.080	Roll Set Point:	-0.000	Pitch Set Point:	0.005	Yaw Set Point:	0.005	X_WP:	0.000	Y_WP:	0.000	Y_WP:	0.500	X:	0.000	Y:	-0.003	Z:	0.486	yaw:	-0.308	yaw rate:	-35.459	Roll:	0.965	Pitch:	2.012	Yaw:	-7.695	Thrust:	65.124
Time:	4.090	Roll Set Point:	-0.002	Pitch Set Point:	0.003	Yaw Set Point:	0.015	X_WP:	0.000	Y_WP:	0.000	Y_WP:	0.500	X:	0.001	Y:	-0.002	Z:	0.490	yaw:	-0.877	yaw rate:	-56.867	Roll:	1.040	Pitch:	1.660	Yaw:	-13.747	Thrust:	64.457
Time:	4.101	Roll Set Point:	-0.003	Pitch Set Point:	0.000	Yaw Set Point:	0.006	X_WP:	0.000	Y_WP:	0.000	Y_WP:	0.500	X:	0.002	Y:	-0.000	Z:	0.494	yaw:	-0.366	yaw rate:	51.111	Roll:	1.019	Pitch:	2.013	Yaw:	12.724	Thrust:	63.796
Time:	4.113	Roll Set Point:	-0.005	Pitch Set Point:	-0.002	Yaw Set Point:	0.010	X_WP:	0.000	Y_WP:	0.000	Y_WP:	0.500	X:	0.002	Y:	0.001	Z:	0.499	yaw:	-0.565	yaw rate:	-19.948	Roll:	1.247	Pitch:	1.993	Yaw:	-4.437	Thrust:	64.203
Time:	4.124	Roll Set Point:	-0.007	Pitch Set Point:	-0.006	Yaw Set Point:	0.018	X_WP:	0.000	Y_WP:	0.000	Y_WP:	0.500	X:	0.003	Y:	0.003	Z:	0.505	yaw:	-1.033	yaw rate:	-46.815	Roll:	1.499	Pitch:	2.883	Yaw:	-11.438	Thrust:	56.217
Time:	4.135	Roll Set Point:	-0.008	Pitch Set Point:	-0.009	Yaw Set Point:	0.013	X_WP:	0.000	Y_WP:	0.000	Y_WP:	0.500	X:	0.004	Y:	0.004	Z:	0.509	yaw:	-0.770	yaw rate:	26.290	Roll:	1.197	Pitch:	2.345	Yaw:	6.265	Thrust:	63.950
Time:	4.146	Roll Set Point:	-0.009	Pitch Set Point:	-0.011	Yaw Set Point:	0.008	X_WP:	0.000	Y_WP:	0.000	Y_WP:	0.500	X:	0.005	Y:	0.005	Z:	0.514	yaw:	-0.461	yaw rate:	30.919	Roll:	1.056	Pitch:	1.702	Yaw:	7.782	Thrust:	64.308
Time:	4.157	Roll Set Point:	-0.011	Pitch Set Point:	-0.014	Yaw Set Point:	0.014	X_WP:	0.000	Y_WP:	0.000	Y_WP:	0.500	X:	0.006	Y:	0.007	Z:	0.518	yaw:	-0.800	yaw rate:	-33.859	Roll:	1.300	Pitch:	2.472	Yaw:	-8.048	Thrust:	64.002
Time:	4.168	Roll Set Point:	-0.013	Pitch Set Point:	-0.016	Yaw Set Point:	0.021	X_WP:	0.000	Y_WP:	0.000	Y_WP:	0.500	X:	0.006	Y:	0.008	Z:	0.522	yaw:	-1.213	yaw rate:	-41.346	Roll:	1.241	Pitch:	2.173	Yaw:	-10.425	Thrust:	63.559
Time:	4.179	Roll Set Point:	-0.015	Pitch Set Point:	-0.020	Yaw Set Point:	0.015	X_WP:	0.000	Y_WP:	0.000	Y_WP:	0.500	X:	0.008	Y:	0.010	Z:	0.528	yaw:	-0.833	yaw rate:	38.062	Roll:	2.040	Pitch:	3.374	Yaw:	8.968	Thrust:	54.958
Time:	4.190	Roll Set Point:	-0.016	Pitch Set Point:	-0.023	Yaw Set Point:	0.015	X_WP:	0.000	Y_WP:	0.000	Y_WP:	0.500	X:	0.008	Y:	0.012	Z:	0.532	yaw:	-0.855	yaw rate:	-2.220	Roll:	1.293	Pitch:	2.486	Yaw:	-0.645	Thrust:	63.919
Time:	4.201	Roll Set Point:	-0.018	Pitch Set Point:	-0.026	Yaw Set Point:	0.014	X_WP:	0.000	Y_WP:	0.000	Y_WP:	0.500	X:	0.009	Y:	0.013	Z:	0.536	yaw:	-0.813	yaw rate:	4.150	Roll:	1.478	Pitch:	2.280	Yaw:	0.921	Thrust:	64.399
Time:	4.212	Roll Set Point:	-0.019	Pitch Set Point:	-0.028	Yaw Set Point:	0.024	X_WP:	0.000	Y_WP:	0.000	Y_WP:	0.500	X:	0.010	Y:	0.014	Z:	0.540	yaw:	-1.373	yaw rate:	-55.936	Roll:	0.989	Pitch:	2.366	Yaw:	-14.157	Thrust:	63.259
Time:	4.223	Roll Set Point:	-0.021	Pitch Set Point:	-0.031	Yaw Set Point:	0.020	X_WP:	0.000	Y_WP:	0.000	Y_WP:	0.500	X:	0.011	Y:	0.015	Z:	0.544	yaw:	-1.118	yaw rate:	25.491	Roll:	1.498	Pitch:	2.223	Yaw:	5.553	Thrust:	63.726
Time:	4.234	Roll Set Point:	-0.022	Pitch Set Point:	-0.033	Yaw Set Point:	0.022	X_WP:	0.000	Y_WP:	0.000	Y_WP:	0.500	X:	0.011	Y:	0.016	Z:	0.547	yaw:	-1.248	yaw rate:	-13.016	Roll:	0.973	Pitch:	2.336	Yaw:	-3.773	Thrust:	64.173
Time:	4.245	Roll Set Point:	-0.024	Pitch Set Point:	-0.037	Yaw Set Point:	0.028	X_WP:	0.000	Y_WP:	0.000	Y_WP:	0.500	X:	0.012	Y:	0.018	Z:	0.553	yaw:	-1.602	yaw rate:	-35.413	Roll:	1.887	Pitch:	3.826	Yaw:	-9.588	Thrust:	56.030
Time:	4.256	Roll Set Point:	-0.026	Pitch Set Point:	-0.040	Yaw Set Point:	0.029	X_WP:	0.000	Y_WP:	0.000	Y_WP:	0.500	X:	0.013	Y:	0.020	Z:	0.557	yaw:	-1.676	yaw rate:	-7.359	Roll:	1.439	Pitch:	2.367	Yaw:	-3.039	Thrust:	63.218
Time:	4.267	Roll Set Point:	-0.027	Pitch Set Point:	-0.042	Yaw Set Point:	0.035	X_WP:	0.000	Y_WP:	0.000	Y_WP:	0.500	X:	0.014	Y:	0.021	Z:	0.560	yaw:	-2.029	yaw rate:	-35.326	Roll:	1.403	Pitch:	2.477	Yaw:	-10.176	Thrust:	63.821
Time:	4.278	Roll Set Point:	-0.029	Pitch Set Point:	-0.044	Yaw Set Point:	0.030	X_WP:	0.000	Y_WP:	0.000	Y_WP:	0.500	X:	0.015	Y:	0.022	Z:	0.564	yaw:	-1.728	yaw rate:	30.107	Roll:	1.615	Pitch:	2.466	Yaw:	5.768	Thrust:	63.988
Time:	4.289	Roll Set Point:	-0.030	Pitch Set Point:	-0.047	Yaw Set Point:	0.032	X_WP:	0.000	Y_WP:	0.000	Y_WP:	0.500	X:	0.015	Y:	0.023	Z:	0.567	yaw:	-1.853	yaw rate:	-12.532	Roll:	0.985	Pitch:	2.748	Yaw:	-4.535	Thrust:	63.487
Time:	4.300	Roll Set Point:	-0.032	Pitch Set Point:	-0.051	Yaw Set Point:	0.032	X_WP:	0.000	Y_WP:	0.000	Y_WP:	0.500	X:	0.016	Y:	0.025	Z:	0.572	yaw:	-1.853	yaw rate:	0.040	Roll:	2.361	Pitch:	3.741	Yaw:	-1.557	Thrust:	56.071
Time:	4.311	Roll Set Point:	-0.034	Pitch Set Point:	-0.053	Yaw Set Point:	0.030	X_WP:	0.000	Y_WP:	0.000	Y_WP:	0.500	X:	0.017	Y:	0.026	Z:	0.576	yaw:	-1.707	yaw rate:	14.531	Roll:	1.823	Pitch:	2.647	Yaw:	2.078	Thrust:	63.119
Time:	4.322	Roll Set Point:	-0.035	Pitch Set Point:	-0.056	Yaw Set Point:	0.026	X_WP:	0.000	Y_WP:	0.000	Y_WP:	0.500	X:	0.018	Y:	0.028	Z:	0.579	yaw:	-1.512	yaw rate:	19.493	Roll:	1.680	Pitch:	2.477	Yaw:	3.521	Thrust:	63.536
Time:	4.333	Roll Set Point:	-0.037	Pitch Set Point:	-0.058	Yaw Set Point:	0.028	X_WP:	0.000	Y_WP:	0.000	Y_WP:	0.500	X:	0.019	Y:	0.029	Z:	0.582	yaw:	-1.602	yaw rate:	-8.980	Roll:	1.337	Pitch:	2.744	Yaw:	-3.363	Thrust:	63.924
Time:	4.344	Roll Set Point:	-0.038	Pitch Set Point:	-0.060	Yaw Set Point:	0.039	X_WP:	0.000	Y_WP:	0.000	Y_WP:	0.500	X:	0.019	Y:	0.030	Z:	0.585	yaw:	-2.260	yaw rate:	-65.754	Roll:	0.895	Pitch:	2.832	Yaw:	-17.769	Thrust:	63.236
Time:	4.356	Roll Set Point:	-0.040	Pitch Set Point:	-0.063	Yaw Set Point:	0.030	X_WP:	0.000	Y_WP:	0.000	Y_WP:	0.500	X:	0.021	Y:	0.031	Z:	0.588	yaw:	-1.738	yaw rate:	52.185	Roll:	2.710	Pitch:	2.469	Yaw:	10.370	Thrust:	67.738
Time:	4.367	Roll Set Point:	-0.042	Pitch Set Point:	-0.066	Yaw Set Point:	0.031	X_WP:	0.000	Y_WP:	0.000	Y_WP:	0.500	X:	0.022	Y:	0.033	Z:	0.593	yaw:	-1.760	yaw rate:	-2.242	Roll:	1.935	Pitch:	3.787	Yaw:	-2.011	Thrust:	56.842
Time:	4.378	Roll Set Point:	-0.043	Pitch Set Point:	-0.069	Yaw Set Point:	0.035	X_WP:	0.000	Y_WP:	0.000	Y_WP:	0.500	X:	0.022	Y:	0.034	Z:	0.596	yaw:	-1.987	yaw rate:	-22.710	Roll:	1.105	Pitch:	2.908	Yaw:	-7.193	Thrust:	63.815
Time:	4.389	Roll Set Point:	-0.045	Pitch Set Point:	-0.071	Yaw Set Point:	0.034	X_WP:	0.000	Y_WP:	0.000	Y_WP:	0.500	X:	0.023	Y:	0.035	Z:	0.599	yaw:	-1.939	yaw rate:	4.805	Roll:	1.714	Pitch:	2.546	Yaw:	-0.603	Thrust:	62.946
Time:	4.400	Roll Set Point:	-0.046	Pitch Set Point:	-0.073	Yaw Set Point:	0.046	X_WP:	0.000	Y_WP:	0.000	Y_WP:	0.500	X:	0.024	Y:	0.036	Z:	0.602	yaw:	-2.617	yaw rate:	-67.754	Roll:	1.171	Pitch:	3.265	Yaw:	-18.786	Thrust:	62.914
Time:	4.411	Roll Set Point:	-0.047	Pitch Set Point:	-0.075	Yaw Set Point:	0.040	X_WP:	0.000	Y_WP:	0.000	Y_WP:	0.500	X:	0.024	Y:	0.037	Z:	0.604	yaw:	-2.288	yaw rate:	32.868	Roll:	2.084	Pitch:	2.678	Yaw:	5.565	Thrust:	62.752
Time:	4.422	Roll Set Point:	-0.049	Pitch Set Point:	-0.079	Yaw Set Point:	0.039	X_WP:	0.000	Y_WP:	0.000	Y_WP:	0.500	X:	0.025	Y:	0.039	Z:	0.608	yaw:	-2.227	yaw rate:	6.122	Roll:	2.139	Pitch:	3.522	Yaw:	-0.718	Thrust:	57.734
Time:	4.433	Roll Set Point:	-0.051	Pitch Set Point:	-0.081	Yaw Set Point:	0.041	X_WP:	0.000	Y_WP:	0.000	Y_WP:	0.500	X:	0.026	Y:	0.040	Z:	0.611	yaw:	-2.350	yaw rate:	-12.294	Roll:	1.704	Pitch:	3.018	Yaw:	-5.270	Thrust:	63.042
Time:	4.444	Roll Set Point:	-0.052	Pitch Set Point:	-0.083	Yaw Set Point:	0.047	X_WP:	0.000	Y_WP:	0.000	Y_WP:	0.500	X:	0.027	Y:	0.041	Z:	0.614	yaw:	-2.701	yaw rate:	-35.141	Roll:	1.563	Pitch:	2.991	Yaw:	-11.174	Thrust:	63.115
Time:	4.455	Roll Set Point:	-0.054	Pitch Set Point:	-0.085	Yaw Set Point:	0.037	X_WP:	0.000	Y_WP:	0.000	Y_WP:	0.500	X:	0.028	Y:	0.042	Z:	0.616	yaw:	-2.140	yaw rate:	56.140	Roll:	2.399	Pitch:	2.568	Yaw:	11.252	Thrust:	62.214
Time:	4.466	Roll Set Point:	-0.056	Pitch Set Point:	-0.088	Yaw Set Point:	0.037	X_WP:	0.000	Y_WP:	0.000	Y_WP:	0.500	X:	0.029	Y:	0.044	Z:	0.620	yaw:	-2.101	yaw rate:	3.912	Roll:	2.441	Pitch:	3.707	Yaw:	-1.103	Thrust:	57.666
Time:	4.477	Roll Set Point:	-0.058	Pitch Set Point:	-0.090	Yaw Set Point:	0.038	X_WP:	0.000	Y_WP:	0.000	Y_WP:	0.500	X:	0.030	Y:	0.045	Z:	0.622	yaw:	-2.158	yaw rate:	-5.705	Roll:	2.042	Pitch:	3.028	Yaw:	-3.473	Thrust:	62.618
Time:	4.489	Roll Set Point:	-0.060	Pitch Set Point:	-0.092	Yaw Set Point:	0.036	X_WP:	0.000	Y_WP:	0.000	Y_WP:	0.500	X:	0.031	Y:	0.046	Z:	0.625	yaw:	-2.067	yaw rate:	9.110	Roll:	2.020	Pitch:	2.776	Yaw:	0.103	Thrust:	67.171
Time:	4.500	Roll Set Point:	-0.061	Pitch Set Point:	-0.094	Yaw Set Point:	0.036	X_WP:	0.000	Y_WP:	0.000	Y_WP:	0.500	X:	0.031	Y:	0.046	Z:	0.627	yaw:	-2.069	yaw rate:	-0.229	Roll:	1.817	Pitch:	2.787	Yaw:	-2.068	Thrust:	61.797
Time:	4.511	Roll Set Point:	-0.063	Pitch Set Point:	-0.097	Yaw Set Point:	0.039	X_WP:	0.000	Y_WP:	0.000	Y_WP:	0.500	X:	0.032	Y:	0.048	Z:	0.630	yaw:	-2.228	yaw rate:	-15.900	Roll:	1.988	Pitch:	3.480	Yaw:	-5.788	Thrust:	63.332
Time:	4.522	Roll Set Point:	-0.064	Pitch Set Point:	-0.099	Yaw Set Point:	0.049	X_WP:	0.000	Y_WP:	0.000	Y_WP:	0.500	X:	0.033	Y:	0.049	Z:	0.632	yaw:	-2.780	yaw rate:	-55.169	Roll:	1.223	Pitch:	3.383	Yaw:	-16.119	Thrust:	62.901
Time:	4.533	Roll Set Point:	-0.065	Pitch Set Point:	-0.100	Yaw Set Point:	0.042	X_WP:	0.000	Y_WP:	0.000	Y_WP:	0.500	X:	0.034	Y:	0.050	Z:	0.635	yaw:	-2.426	yaw rate:	35.337	Roll:	2.399	Pitch:	2.542	Yaw:	5.850	Thrust:	62.070
Time:	4.544	Roll Set Point:	-0.067	Pitch Set Point:	-0.102	Yaw Set Point:	0.041	X_WP:	0.000	Y_WP:	0.000	Y_WP:	0.500	X:	0.034	Y:	0.050	Z:	0.636	yaw:	-2.355	yaw rate:	7.112	Roll:	2.048	Pitch:	2.749	Yaw:	-0.762	Thrust:	63.317
Time:	4.556	Roll Set Point:	-0.069	Pitch Set Point:	-0.104	Yaw Set Point:	0.033	X_WP:	0.000	Y_WP:	0.000	Y_WP:	0.500	X:	0.035	Y:	0.051	Z:	0.638	yaw:	-1.912	yaw rate:	44.336	Roll:	2.693	Pitch:	2.566	Yaw:	8.190	Thrust:	66.869
Time:	4.567	Roll Set Point:	-0.071	Pitch Set Point:	-0.106	Yaw Set Point:	0.035	X_WP:	0.000	Y_WP:	0.000	Y_WP:	0.500	X:	0.036	Y:	0.053	Z:	0.641	yaw:	-2.031	yaw rate:	-11.877	Roll:	2.241	Pitch:	3.635	Yaw:	-4.830	Thrust:	58.782
Time:	4.578	Roll Set Point:	-0.072	Pitch Set Point:	-0.108	Yaw Set Point:	0.035	X_WP:	0.000	Y_WP:	0.000	Y_WP:	0.500	X:	0.037	Y:	0.053	Z:	0.643	yaw:	-1.989	yaw rate:	4.128	Roll:	2.273	Pitch:	2.988	Yaw:	-0.981	Thrust:	62.112
Time:	4.589	Roll Set Point:	-0.073	Pitch Set Point:	-0.109	Yaw Set Point:	0.035	X_WP:	0.000	Y_WP:	0.000	Y_WP:	0.500	X:	0.038	Y:	0.054	Z:	0.645	yaw:	-2.003	yaw rate:	-1.382	Roll:	1.633	Pitch:	2.567	Yaw:	-2.316	Thrust:	62.263
Time:	4.600	Roll Set Point:	-0.074	Pitch Set Point:	-0.111	Yaw Set Point:	0.044	X_WP:	0.000	Y_WP:	0.000	Y_WP:	0.500	X:	0.038	Y:	0.055	Z:	0.646	yaw:	-2.542	yaw rate:	-53.860	Roll:	1.266	Pitch:	3.375	Yaw:	-15.532	Thrust:	62.336
Time:	4.611	Roll Set Point:	-0.076	Pitch Set Point:	-0.114	Yaw Set Point:	0.040	X_WP:	0.000	Y_WP:	0.000	Y_WP:	0.500	X:	0.039	Y:	0.056	Z:	0.649	yaw:	-2.301	yaw rate:	24.091	Roll:	2.772	Pitch:	3.360	Yaw:	3.297	Thrust:	58.545
Time:	4.622	Roll Set Point:	-0.077	Pitch Set Point:	-0.115	Yaw Set Point:	0.045	X_WP:	0.000	Y_WP:	0.000	Y_WP:	0.500	X:	0.040	Y:	0.057	Z:	0.650	yaw:	-2.606	yaw rate:	-30.542	Roll:	1.414	Pitch:	2.885	Yaw:	-10.119	Thrust:	62.377
Time:	4.633	Roll Set Point:	-0.079	Pitch Set Point:	-0.116	Yaw Set Point:	0.033	X_WP:	0.000	Y_WP:	0.000	Y_WP:	0.500	X:	0.040	Y:	0.057	Z:	0.652	yaw:	-1.912	yaw rate:	69.388	Roll:	3.175	Pitch:	2.316	Yaw:	14.574	Thrust:	61.680
Time:	4.644	Roll Set Point:	-0.081	Pitch Set Point:	-0.118	Yaw Set Point:	0.031	X_WP:	0.000	Y_WP:	0.000	Y_WP:	0.500	X:	0.041	Y:	0.058	Z:	0.654	yaw:	-1.764	yaw rate:	14.858	Roll:	2.620	Pitch:	2.745	Yaw:	1.822	Thrust:	61.870
Time:	4.655	Roll Set Point:	-0.082	Pitch Set Point:	-0.119	Yaw Set Point:	0.031	X_WP:	0.000	Y_WP:	0.000	Y_WP:	0.500	X:	0.042	Y:	0.059	Z:	0.655	yaw:	-1.777	yaw rate:	-1.267	Roll:	2.043	Pitch:	2.773	Yaw:	-2.026	Thrust:	61.812
Time:	4.666	Roll Set Point:	-0.083	Pitch Set Point:	-0.121	Yaw Set Point:	0.032	X_WP:	0.000	Y_WP:	0.000	Y_WP:	0.500	X:	0.042	Y:	0.060	Z:	0.657	yaw:	-1.857	yaw rate:	-8.048	Roll:	1.851	Pitch:	3.355	Yaw:	-3.749	Thrust:	59.231
Time:	4.677	Roll Set Point:	-0.084	Pitch Set Point:	-0.122	Yaw Set Point:	0.036	X_WP:	0.000	Y_WP:	0.000	Y_WP:	0.500	X:	0.043	Y:	0.060	Z:	0.658	yaw:	-2.077	yaw rate:	-22.039	Roll:	1.597	Pitch:	2.914	Yaw:	-7.382	Thrust:	61.936
Time:	4.688	Roll Set Point:	-0.085	Pitch Set Point:	-0.123	Yaw Set Point:	0.041	X_WP:	0.000	Y_WP:	0.000	Y_WP:	0.500	X:	0.044	Y:	0.061	Z:	0.660	yaw:	-2.334	yaw rate:	-25.647	Roll:	1.685	Pitch:	2.840	Yaw:	-8.613	Thrust:	61.647
Time:	4.699	Roll Set Point:	-0.086	Pitch Set Point:	-0.124	Yaw Set Point:	0.030	X_WP:	0.000	Y_WP:	0.000	Y_WP:	0.500	X:	0.044	Y:	0.061	Z:	0.661	yaw:	-1.715	yaw rate:	61.937	Roll:	2.878	Pitch:	2.275	Yaw:	13.059	Thrust:	61.858
Time:	4.710	Roll Set Point:	-0.088	Pitch Set Point:	-0.126	Yaw Set Point:	0.033	X_WP:	0.000	Y_WP:	0.000	Y_WP:	0.500	X:	0.045	Y:	0.062	Z:	0.662	yaw:	-1.906	yaw rate:	-19.165	Roll:	2.024	Pitch:	3.017	Yaw:	-6.490	Thrust:	59.746
Time:	4.721	Roll Set Point:	-0.089	Pitch Set Point:	-0.127	Yaw Set Point:	0.030	X_WP:	0.000	Y_WP:	0.000	Y_WP:	0.500	X:	0.045	Y:	0.063	Z:	0.663	yaw:	-1.734	yaw rate:	17.202	Roll:	2.203	Pitch:	2.802	Yaw:	2.375	Thrust:	61.799
Time:	4.732	Roll Set Point:	-0.089	Pitch Set Point:	-0.128	Yaw Set Point:	0.030	X_WP:	0.000	Y_WP:	0.000	Y_WP:	0.500	X:	0.046	Y:	0.063	Z:	0.664	yaw:	-1.746	yaw rate:	-1.167	Roll:	1.611	Pitch:	2.476	Yaw:	-2.006	Thrust:	62.540
Time:	4.743	Roll Set Point:	-0.090	Pitch Set Point:	-0.129	Yaw Set Point:	0.036	X_WP:	0.000	Y_WP:	0.000	Y_WP:	0.500	X:	0.046	Y:	0.064	Z:	0.665	yaw:	-2.042	yaw rate:	-29.613	Roll:	1.614	Pitch:	3.003	Yaw:	-9.194	Thrust:	61.593
Time:	4.755	Roll Set Point:	-0.092	Pitch Set Point:	-0.130	Yaw Set Point:	0.029	X_WP:	0.000	Y_WP:	0.000	Y_WP:	0.500	X:	0.047	Y:	0.064	Z:	0.666	yaw:	-1.639	yaw rate:	40.349	Roll:	3.020	Pitch:	2.627	Yaw:	7.982	Thrust:	61.637
Time:	4.766	Roll Set Point:	-0.092	Pitch Set Point:	-0.131	Yaw Set Point:	0.032	X_WP:	0.000	Y_WP:	0.000	Y_WP:	0.500	X:	0.047	Y:	0.065	Z:	0.667	yaw:	-1.819	yaw rate:	-18.046	Roll:	1.514	Pitch:	2.913	Yaw:	-6.137	Thrust:	61.146
Time:	4.777	Roll Set Point:	-0.093	Pitch Set Point:	-0.132	Yaw Set Point:	0.040	X_WP:	0.000	Y_WP:	0.000	Y_WP:	0.500	X:	0.048	Y:	0.065	Z:	0.668	yaw:	-2.296	yaw rate:	-47.687	Roll:	1.052	Pitch:	3.084	Yaw:	-13.846	Thrust:	62.204
Time:	4.788	Roll Set Point:	-0.095	Pitch Set Point:	-0.133	Yaw Set Point:	0.026	X_WP:	0.000	Y_WP:	0.000	Y_WP:	0.500	X:	0.048	Y:	0.066	Z:	0.669	yaw:	-1.502	yaw rate:	0.576	Roll:	3.885	Pitch:	2.471	Yaw:	16.299	Thrust:	65.157
Time:	4.799	Roll Set Point:	-0.096	Pitch Set Point:	-0.134	Yaw Set Point:	0.030	X_WP:	0.000	Y_WP:	0.000	Y_WP:	0.500	X:	0.049	Y:	0.066	Z:	0.669	yaw:	-1.705	yaw rate:	-20.288	Roll:	1.468	Pitch:	2.743	Yaw:	-6.532	Thrust:	62.528
Time:	4.810	Roll Set Point:	-0.096	Pitch Set Point:	-0.135	Yaw Set Point:	0.030	X_WP:	0.000	Y_WP:	0.000	Y_WP:	0.500	X:	0.049	Y:	0.067	Z:	0.669	yaw:	-1.718	yaw rate:	-1.327	Roll:	1.474	Pitch:	2.453	Yaw:	-2.058	Thrust:	62.727
Time:	4.821	Roll Set Point:	-0.096	Pitch Set Point:	-0.135	Yaw Set Point:	0.030	X_WP:	0.000	Y_WP:	0.000	Y_WP:	0.500	X:	0.049	Y:	0.067	Z:	0.669	yaw:	-1.718	yaw rate:	-1.327	Roll:	1.354	Pitch:	2.010	Yaw:	-1.747	Thrust:	63.831
Time:	4.835	Roll Set Point:	-0.098	Pitch Set Point:	-0.136	Yaw Set Point:	0.027	X_WP:	0.000	Y_WP:	0.000	Y_WP:	0.500	X:	0.050	Y:	0.068	Z:	0.670	yaw:	-1.558	yaw rate:	24.282	Roll:	2.808	Pitch:	3.078	Yaw:	1.642	Thrust:	81.398
Time:	4.848	Roll Set Point:	-0.099	Pitch Set Point:	-0.137	Yaw Set Point:	0.023	X_WP:	0.000	Y_WP:	0.000	Y_WP:	0.500	X:	0.050	Y:	0.068	Z:	0.670	yaw:	-1.345	yaw rate:	21.274	Roll:	2.070	Pitch:	2.280	Yaw:	3.156	Thrust:	75.805
Time:	4.860	Roll Set Point:	-0.099	Pitch Set Point:	-0.138	Yaw Set Point:	0.028	X_WP:	0.000	Y_WP:	0.000	Y_WP:	0.500	X:	0.050	Y:	0.068	Z:	0.670	yaw:	-1.590	yaw rate:	-24.508	Roll:	1.307	Pitch:	2.665	Yaw:	-6.862	Thrust:	69.227
Time:	4.873	Roll Set Point:	-0.099	Pitch Set Point:	-0.138	Yaw Set Point:	0.028	X_WP:	0.000	Y_WP:	0.000	Y_WP:	0.500	X:	0.050	Y:	0.068	Z:	0.670	yaw:	-1.622	yaw rate:	-3.240	Roll:	1.531	Pitch:	2.385	Yaw:	-2.286	Thrust:	69.398
Time:	4.885	Roll Set Point:	-0.099	Pitch Set Point:	-0.138	Yaw Set Point:	0.028	X_WP:	0.000	Y_WP:	0.000	Y_WP:	0.500	X:	0.051	Y:	0.068	Z:	0.670	yaw:	-1.609	yaw rate:	1.348	Roll:	1.567	Pitch:	2.257	Yaw:	-1.276	Thrust:	69.188
Time:	4.896	Roll Set Point:	-0.100	Pitch Set Point:	-0.139	Yaw Set Point:	0.028	X_WP:	0.000	Y_WP:	0.000	Y_WP:	0.500	X:	0.051	Y:	0.069	Z:	0.670	yaw:	-1.617	yaw rate:	-0.834	Roll:	1.657	Pitch:	2.500	Yaw:	-1.840	Thrust:	62.340
Time:	4.907	Roll Set Point:	-0.099	Pitch Set Point:	-0.139	Yaw Set Point:	0.035	X_WP:	0.000	Y_WP:	0.000	Y_WP:	0.500	X:	0.051	Y:	0.069	Z:	0.670	yaw:	-1.987	yaw rate:	-36.946	Roll:	0.809	Pitch:	2.597	Yaw:	-10.955	Thrust:	62.020
Time:	4.918	Roll Set Point:	-0.100	Pitch Set Point:	-0.140	Yaw Set Point:	0.034	X_WP:	0.000	Y_WP:	0.000	Y_WP:	0.500	X:	0.051	Y:	0.069	Z:	0.670	yaw:	-1.923	yaw rate:	6.375	Roll:	1.851	Pitch:	2.377	Yaw:	-0.571	Thrust:	62.061
Time:	4.929	Roll Set Point:	-0.101	Pitch Set Point:	-0.140	Yaw Set Point:	0.024	X_WP:	0.000	Y_WP:	0.000	Y_WP:	0.500	X:	0.051	Y:	0.069	Z:	0.670	yaw:	-1.350	yaw rate:	57.261	Roll:	2.828	Pitch:	1.796	Yaw:	12.300	Thrust:	61.282
Time:	4.940	Roll Set Point:	-0.101	Pitch Set Point:	-0.140	Yaw Set Point:	0.021	X_WP:	0.000	Y_WP:	0.000	Y_WP:	0.500	X:	0.051	Y:	0.069	Z:	0.670	yaw:	-1.189	yaw rate:	16.121	Roll:	1.785	Pitch:	1.897	Yaw:	2.755	Thrust:	61.000
Time:	4.951	Roll Set Point:	-0.101	Pitch Set Point:	-0.140	Yaw Set Point:	0.029	X_WP:	0.000	Y_WP:	0.000	Y_WP:	0.500	X:	0.051	Y:	0.069	Z:	0.670	yaw:	-1.648	yaw rate:	-45.922	Roll:	0.701	Pitch:	2.494	Yaw:	-12.618	Thrust:	60.442
Time:	4.962	Roll Set Point:	-0.101	Pitch Set Point:	-0.140	Yaw Set Point:	0.026	X_WP:	0.000	Y_WP:	0.000	Y_WP:	0.500	X:	0.051	Y:	0.069	Z:	0.671	yaw:	-1.486	yaw rate:	16.188	Roll:	1.674	Pitch:	2.250	Yaw:	2.345	Thrust:	60.002
Time:	4.973	Roll Set Point:	-0.101	Pitch Set Point:	-0.140	Yaw Set Point:	0.025	X_WP:	0.000	Y_WP:	0.000	Y_WP:	0.500	X:	0.051	Y:	0.069	Z:	0.671	yaw:	-1.406	yaw rate:	7.998	Roll:	1.522	Pitch:	1.946	Yaw:	0.506	Thrust:	60.123
Time:	4.984	Roll Set Point:	-0.100	Pitch Set Point:	-0.140	Yaw Set Point:	0.031	X_WP:	0.000	Y_WP:	0.000	Y_WP:	0.500	X:	0.051	Y:	0.069	Z:	0.671	yaw:	-1.779	yaw rate:	-37.248	Roll:	0.489	Pitch:	2.272	Yaw:	-10.739	Thrust:	60.633
Time:	4.995	Roll Set Point:	-0.100	Pitch Set Point:	-0.140	Yaw Set Point:	0.031	X_WP:	0.000	Y_WP:	0.000	Y_WP:	0.500	X:	0.051	Y:	0.069	Z:	0.671	yaw:	-1.766	yaw rate:	1.275	Roll:	1.476	Pitch:	2.007	Yaw:	-1.604	Thrust:	59.486
Time:	5.006	Roll Set Point:	-0.100	Pitch Set Point:	-0.140	Yaw Set Point:	0.029	X_WP:	0.000	Y_WP:	0.000	Y_WP:	0.500	X:	0.051	Y:	0.069	Z:	0.671	yaw:	-1.642	yaw rate:	12.388	Roll:	1.740	Pitch:	2.008	Yaw:	1.199	Thrust:	59.090
Time:	5.017	Roll Set Point:	-0.101	Pitch Set Point:	-0.139	Yaw Set Point:	0.021	X_WP:	0.000	Y_WP:	0.000	Y_WP:	0.500	X:	0.051	Y:	0.069	Z:	0.671	yaw:	-1.227	yaw rate:	41.545	Roll:	2.422	Pitch:	1.640	Yaw:	8.715	Thrust:	59.187
