Time:	2.154	Roll Set Point:	-0.017	Pitch Set Point:	0.032	Yaw Set Point:	-2.937	X_WP:	0.000	Y_WP:	0.000	Y_WP:	0.500	X:	0.163	Y:	0.066	Z:	0.405	yaw:	168.254	yaw rate:	-3.810	Roll:	-4.224	Pitch:	-2.838	Yaw:	234.927	Thrust:	5.251
Time:	2.169	Roll Set Point:	-0.017	Pitch Set Point:	0.032	Yaw Set Point:	-2.937	X_WP:	0.000	Y_WP:	0.000	Y_WP:	0.500	X:	0.163	Y:	0.066	Z:	0.404	yaw:	168.284	yaw rate:	2.995	Roll:	-4.299	Pitch:	-2.822	Yaw:	236.388	Thrust:	5.620
Time:	2.185	Roll Set Point:	-0.017	Pitch Set Point:	0.032	Yaw Set Point:	-2.937	X_WP:	0.000	Y_WP:	0.000	Y_WP:	0.500	X:	0.163	Y:	0.066	Z:	0.404	yaw:	168.275	yaw rate:	-0.490	Roll:	-4.217	Pitch:	-2.809	Yaw:	236.366	Thrust:	5.583
Time:	2.201	Roll Set Point:	-0.017	Pitch Set Point:	0.032	Yaw Set Point:	-2.937	X_WP:	0.000	Y_WP:	0.000	Y_WP:	0.500	X:	0.163	Y:	0.066	Z:	0.404	yaw:	168.265	yaw rate:	-1.029	Roll:	-4.228	Pitch:	-2.874	Yaw:	236.332	Thrust:	5.724
Time:	2.216	Roll Set Point:	-0.017	Pitch Set Point:	0.032	Yaw Set Point:	-2.937	X_WP:	0.000	Y_WP:	0.000	Y_WP:	0.500	X:	0.163	Y:	0.066	Z:	0.404	yaw:	168.282	yaw rate:	1.721	Roll:	-4.272	Pitch:	-2.844	Yaw:	236.817	Thrust:	6.092
Time:	2.232	Roll Set Point:	-0.017	Pitch Set Point:	0.032	Yaw Set Point:	-2.938	X_WP:	0.000	Y_WP:	0.000	Y_WP:	0.500	X:	0.163	Y:	0.066	Z:	0.404	yaw:	168.310	yaw rate:	2.783	Roll:	-4.306	Pitch:	-2.731	Yaw:	237.036	Thrust:	6.032
Time:	2.247	Roll Set Point:	-0.017	Pitch Set Point:	0.032	Yaw Set Point:	-2.937	X_WP:	0.000	Y_WP:	0.000	Y_WP:	0.500	X:	0.163	Y:	0.066	Z:	0.404	yaw:	168.280	yaw rate:	-3.019	Roll:	-4.188	Pitch:	-2.954	Yaw:	236.016	Thrust:	6.392
Time:	2.263	Roll Set Point:	-0.017	Pitch Set Point:	0.032	Yaw Set Point:	-2.937	X_WP:	0.000	Y_WP:	0.000	Y_WP:	0.500	X:	0.163	Y:	0.066	Z:	0.404	yaw:	168.282	yaw rate:	0.273	Roll:	-4.279	Pitch:	-2.920	Yaw:	236.575	Thrust:	6.607
Time:	2.279	Roll Set Point:	-0.017	Pitch Set Point:	0.032	Yaw Set Point:	-2.937	X_WP:	0.000	Y_WP:	0.000	Y_WP:	0.500	X:	0.163	Y:	0.066	Z:	0.405	yaw:	168.251	yaw rate:	-3.079	Roll:	-4.230	Pitch:	-2.886	Yaw:	235.970	Thrust:	6.458
Time:	2.294	Roll Set Point:	-0.017	Pitch Set Point:	0.032	Yaw Set Point:	-2.937	X_WP:	0.000	Y_WP:	0.000	Y_WP:	0.500	X:	0.163	Y:	0.066	Z:	0.404	yaw:	168.298	yaw rate:	4.612	Roll:	-4.344	Pitch:	-2.761	Yaw:	237.323	Thrust:	7.029
Time:	2.310	Roll Set Point:	-0.017	Pitch Set Point:	0.032	Yaw Set Point:	-2.937	X_WP:	0.000	Y_WP:	0.000	Y_WP:	0.500	X:	0.163	Y:	0.066	Z:	0.404	yaw:	168.298	yaw rate:	4.612	Roll:	-4.283	Pitch:	-2.874	Yaw:	236.554	Thrust:	7.050
Time:	2.326	Roll Set Point:	-0.017	Pitch Set Point:	0.032	Yaw Set Point:	-2.937	X_WP:	0.000	Y_WP:	0.000	Y_WP:	0.500	X:	0.163	Y:	0.066	Z:	0.404	yaw:	168.289	yaw rate:	-0.902	Roll:	-4.263	Pitch:	-2.877	Yaw:	236.383	Thrust:	7.119
Time:	2.341	Roll Set Point:	-0.017	Pitch Set Point:	0.032	Yaw Set Point:	-2.937	X_WP:	0.000	Y_WP:	0.000	Y_WP:	0.500	X:	0.163	Y:	0.066	Z:	0.404	yaw:	168.272	yaw rate:	-1.657	Roll:	-4.280	Pitch:	-3.015	Yaw:	236.237	Thrust:	7.481
Time:	2.357	Roll Set Point:	-0.017	Pitch Set Point:	0.032	Yaw Set Point:	-2.937	X_WP:	0.000	Y_WP:	0.000	Y_WP:	0.500	X:	0.163	Y:	0.066	Z:	0.404	yaw:	168.295	yaw rate:	4.928	Roll:	-4.351	Pitch:	-2.763	Yaw:	236.925	Thrust:	7.634
Time:	2.372	Roll Set Point:	-0.017	Pitch Set Point:	0.032	Yaw Set Point:	-2.937	X_WP:	0.000	Y_WP:	0.000	Y_WP:	0.500	X:	0.163	Y:	0.066	Z:	0.404	yaw:	168.295	yaw rate:	4.928	Roll:	-4.306	Pitch:	-2.889	Yaw:	236.546	Thrust:	7.763
Time:	2.388	Roll Set Point:	-0.017	Pitch Set Point:	0.032	Yaw Set Point:	-2.937	X_WP:	0.000	Y_WP:	0.000	Y_WP:	0.500	X:	0.163	Y:	0.066	Z:	0.404	yaw:	168.288	yaw rate:	-1.786	Roll:	-4.304	Pitch:	-2.943	Yaw:	236.419	Thrust:	7.866
Time:	2.404	Roll Set Point:	-0.017	Pitch Set Point:	0.032	Yaw Set Point:	-2.937	X_WP:	0.000	Y_WP:	0.000	Y_WP:	0.500	X:	0.163	Y:	0.066	Z:	0.404	yaw:	168.288	yaw rate:	-1.786	Roll:	-4.318	Pitch:	-2.898	Yaw:	236.539	Thrust:	8.125
Time:	2.419	Roll Set Point:	-0.017	Pitch Set Point:	0.032	Yaw Set Point:	-2.937	X_WP:	0.000	Y_WP:	0.000	Y_WP:	0.500	X:	0.163	Y:	0.066	Z:	0.404	yaw:	168.291	yaw rate:	2.977	Roll:	-4.303	Pitch:	-2.865	Yaw:	236.590	Thrust:	8.312
Time:	2.435	Roll Set Point:	-0.017	Pitch Set Point:	0.032	Yaw Set Point:	-2.937	X_WP:	0.000	Y_WP:	0.000	Y_WP:	0.500	X:	0.163	Y:	0.066	Z:	0.404	yaw:	168.295	yaw rate:	0.424	Roll:	-4.344	Pitch:	-2.864	Yaw:	236.618	Thrust:	8.475
Time:	2.451	Roll Set Point:	-0.017	Pitch Set Point:	0.032	Yaw Set Point:	-2.937	X_WP:	0.000	Y_WP:	0.000	Y_WP:	0.500	X:	0.163	Y:	0.066	Z:	0.404	yaw:	168.270	yaw rate:	-2.519	Roll:	-4.291	Pitch:	-3.036	Yaw:	236.090	Thrust:	8.639
Time:	2.466	Roll Set Point:	-0.017	Pitch Set Point:	0.032	Yaw Set Point:	-2.937	X_WP:	0.000	Y_WP:	0.000	Y_WP:	0.500	X:	0.163	Y:	0.066	Z:	0.404	yaw:	168.267	yaw rate:	-0.265	Roll:	-4.336	Pitch:	-2.916	Yaw:	236.463	Thrust:	8.826
Time:	2.482	Roll Set Point:	-0.017	Pitch Set Point:	0.032	Yaw Set Point:	-2.937	X_WP:	0.000	Y_WP:	0.000	Y_WP:	0.500	X:	0.163	Y:	0.066	Z:	0.404	yaw:	168.302	yaw rate:	3.498	Roll:	-4.389	Pitch:	-2.781	Yaw:	237.143	Thrust:	9.129
Time:	2.497	Roll Set Point:	-0.017	Pitch Set Point:	0.032	Yaw Set Point:	-2.937	X_WP:	0.000	Y_WP:	0.000	Y_WP:	0.500	X:	0.163	Y:	0.066	Z:	0.404	yaw:	168.299	yaw rate:	-0.342	Roll:	-4.349	Pitch:	-2.897	Yaw:	236.495	Thrust:	9.023
Time:	2.513	Roll Set Point:	-0.017	Pitch Set Point:	0.032	Yaw Set Point:	-2.937	X_WP:	0.000	Y_WP:	0.000	Y_WP:	0.500	X:	0.163	Y:	0.066	Z:	0.404	yaw:	168.268	yaw rate:	-3.068	Roll:	-4.303	Pitch:	-3.071	Yaw:	235.995	Thrust:	9.431
Time:	2.529	Roll Set Point:	-0.017	Pitch Set Point:	0.032	Yaw Set Point:	-2.937	X_WP:	0.000	Y_WP:	0.000	Y_WP:	0.500	X:	0.163	Y:	0.066	Z:	0.404	yaw:	168.254	yaw rate:	-1.417	Roll:	-4.331	Pitch:	-2.977	Yaw:	236.252	Thrust:	9.573
Time:	2.544	Roll Set Point:	-0.017	Pitch Set Point:	0.032	Yaw Set Point:	-2.937	X_WP:	0.000	Y_WP:	0.000	Y_WP:	0.500	X:	0.163	Y:	0.066	Z:	0.404	yaw:	168.274	yaw rate:	1.988	Roll:	-4.431	Pitch:	-2.836	Yaw:	236.858	Thrust:	9.684
Time:	2.560	Roll Set Point:	-0.017	Pitch Set Point:	0.032	Yaw Set Point:	-2.938	X_WP:	0.000	Y_WP:	0.000	Y_WP:	0.500	X:	0.163	Y:	0.066	Z:	0.404	yaw:	168.317	yaw rate:	4.315	Roll:	-4.437	Pitch:	-2.834	Yaw:	237.300	Thrust:	10.112
Time:	2.576	Roll Set Point:	-0.017	Pitch Set Point:	0.032	Yaw Set Point:	-2.937	X_WP:	0.000	Y_WP:	0.000	Y_WP:	0.500	X:	0.163	Y:	0.066	Z:	0.404	yaw:	168.284	yaw rate:	-3.255	Roll:	-4.322	Pitch:	-3.040	Yaw:	235.974	Thrust:	9.914
Time:	2.591	Roll Set Point:	-0.017	Pitch Set Point:	0.032	Yaw Set Point:	-2.937	X_WP:	0.000	Y_WP:	0.000	Y_WP:	0.500	X:	0.163	Y:	0.066	Z:	0.404	yaw:	168.284	yaw rate:	-3.255	Roll:	-4.385	Pitch:	-2.944	Yaw:	236.532	Thrust:	10.270
Time:	2.607	Roll Set Point:	-0.017	Pitch Set Point:	0.032	Yaw Set Point:	-2.937	X_WP:	0.000	Y_WP:	0.000	Y_WP:	0.500	X:	0.163	Y:	0.066	Z:	0.404	yaw:	168.267	yaw rate:	0.376	Roll:	-4.345	Pitch:	-2.989	Yaw:	236.222	Thrust:	10.508
Time:	2.622	Roll Set Point:	-0.017	Pitch Set Point:	0.032	Yaw Set Point:	-2.937	X_WP:	0.000	Y_WP:	0.000	Y_WP:	0.500	X:	0.163	Y:	0.066	Z:	0.404	yaw:	168.283	yaw rate:	1.630	Roll:	-4.434	Pitch:	-2.872	Yaw:	236.804	Thrust:	10.635
Time:	2.653	Roll Set Point:	-0.017	Pitch Set Point:	0.032	Yaw Set Point:	-2.937	X_WP:	0.000	Y_WP:	0.000	Y_WP:	0.500	X:	0.163	Y:	0.066	Z:	0.404	yaw:	168.277	yaw rate:	-0.664	Roll:	-4.569	Pitch:	-3.096	Yaw:	237.950	Thrust:	16.066
Time:	2.669	Roll Set Point:	-0.017	Pitch Set Point:	0.032	Yaw Set Point:	-2.937	X_WP:	0.000	Y_WP:	0.000	Y_WP:	0.500	X:	0.163	Y:	0.066	Z:	0.404	yaw:	168.253	yaw rate:	-2.366	Roll:	-4.351	Pitch:	-3.052	Yaw:	236.095	Thrust:	11.008
Time:	2.684	Roll Set Point:	-0.017	Pitch Set Point:	0.032	Yaw Set Point:	-2.937	X_WP:	0.000	Y_WP:	0.000	Y_WP:	0.500	X:	0.163	Y:	0.066	Z:	0.404	yaw:	168.253	yaw rate:	-2.366	Roll:	-4.412	Pitch:	-2.965	Yaw:	236.486	Thrust:	11.157
Time:	2.700	Roll Set Point:	-0.017	Pitch Set Point:	0.032	Yaw Set Point:	-2.937	X_WP:	0.000	Y_WP:	0.000	Y_WP:	0.500	X:	0.163	Y:	0.066	Z:	0.405	yaw:	168.274	yaw rate:	2.095	Roll:	-4.461	Pitch:	-2.827	Yaw:	236.869	Thrust:	11.236
Time:	2.715	Roll Set Point:	-0.017	Pitch Set Point:	0.032	Yaw Set Point:	-2.937	X_WP:	0.000	Y_WP:	0.000	Y_WP:	0.500	X:	0.163	Y:	0.066	Z:	0.404	yaw:	168.266	yaw rate:	-5.102	Roll:	-4.409	Pitch:	-3.059	Yaw:	236.376	Thrust:	11.573
Time:	2.731	Roll Set Point:	-0.017	Pitch Set Point:	0.032	Yaw Set Point:	-2.937	X_WP:	0.000	Y_WP:	0.000	Y_WP:	0.500	X:	0.163	Y:	0.066	Z:	0.404	yaw:	168.273	yaw rate:	0.688	Roll:	-4.458	Pitch:	-2.943	Yaw:	236.632	Thrust:	11.674
Time:	2.747	Roll Set Point:	-0.017	Pitch Set Point:	0.032	Yaw Set Point:	-2.938	X_WP:	0.000	Y_WP:	0.000	Y_WP:	0.500	X:	0.163	Y:	0.066	Z:	0.404	yaw:	168.313	yaw rate:	3.994	Roll:	-4.503	Pitch:	-2.852	Yaw:	237.241	Thrust:	11.984
Time:	2.762	Roll Set Point:	-0.017	Pitch Set Point:	0.032	Yaw Set Point:	-2.937	X_WP:	0.000	Y_WP:	0.000	Y_WP:	0.500	X:	0.163	Y:	0.066	Z:	0.404	yaw:	168.277	yaw rate:	-3.607	Roll:	-4.368	Pitch:	-3.081	Yaw:	235.918	Thrust:	12.034
Time:	2.778	Roll Set Point:	-0.017	Pitch Set Point:	0.032	Yaw Set Point:	-2.936	X_WP:	0.000	Y_WP:	0.000	Y_WP:	0.500	X:	0.163	Y:	0.066	Z:	0.405	yaw:	168.240	yaw rate:	-3.727	Roll:	-4.384	Pitch:	-3.103	Yaw:	235.845	Thrust:	12.150
Time:	2.794	Roll Set Point:	-0.017	Pitch Set Point:	0.032	Yaw Set Point:	-2.937	X_WP:	0.000	Y_WP:	0.000	Y_WP:	0.500	X:	0.163	Y:	0.066	Z:	0.404	yaw:	168.281	yaw rate:	4.136	Roll:	-4.552	Pitch:	-2.912	Yaw:	237.221	Thrust:	12.571
Time:	2.809	Roll Set Point:	-0.017	Pitch Set Point:	0.032	Yaw Set Point:	-2.938	X_WP:	0.000	Y_WP:	0.000	Y_WP:	0.500	X:	0.163	Y:	0.066	Z:	0.404	yaw:	168.313	yaw rate:	3.141	Roll:	-4.491	Pitch:	-2.843	Yaw:	237.096	Thrust:	12.530
Time:	2.825	Roll Set Point:	-0.017	Pitch Set Point:	0.032	Yaw Set Point:	-2.937	X_WP:	0.000	Y_WP:	0.000	Y_WP:	0.500	X:	0.163	Y:	0.066	Z:	0.404	yaw:	168.259	yaw rate:	-5.375	Roll:	-4.364	Pitch:	-3.143	Yaw:	235.596	Thrust:	12.727
Time:	2.841	Roll Set Point:	-0.017	Pitch Set Point:	0.032	Yaw Set Point:	-2.937	X_WP:	0.000	Y_WP:	0.000	Y_WP:	0.500	X:	0.163	Y:	0.066	Z:	0.404	yaw:	168.259	yaw rate:	-5.375	Roll:	-4.470	Pitch:	-3.002	Yaw:	236.499	Thrust:	12.971
Time:	2.856	Roll Set Point:	-0.017	Pitch Set Point:	0.032	Yaw Set Point:	-2.937	X_WP:	0.000	Y_WP:	0.000	Y_WP:	0.500	X:	0.163	Y:	0.066	Z:	0.404	yaw:	168.251	yaw rate:	-2.659	Roll:	-4.475	Pitch:	-3.044	Yaw:	236.344	Thrust:	13.111
Time:	2.872	Roll Set Point:	-0.017	Pitch Set Point:	0.032	Yaw Set Point:	-2.937	X_WP:	0.000	Y_WP:	0.000	Y_WP:	0.500	X:	0.163	Y:	0.066	Z:	0.404	yaw:	168.293	yaw rate:	4.247	Roll:	-4.561	Pitch:	-2.899	Yaw:	237.257	Thrust:	13.463
Time:	2.887	Roll Set Point:	-0.017	Pitch Set Point:	0.032	Yaw Set Point:	-2.937	X_WP:	0.000	Y_WP:	0.000	Y_WP:	0.500	X:	0.163	Y:	0.066	Z:	0.404	yaw:	168.278	yaw rate:	-1.553	Roll:	-4.449	Pitch:	-3.042	Yaw:	236.259	Thrust:	13.393
Time:	2.903	Roll Set Point:	-0.017	Pitch Set Point:	0.032	Yaw Set Point:	-2.937	X_WP:	0.000	Y_WP:	0.000	Y_WP:	0.500	X:	0.163	Y:	0.066	Z:	0.404	yaw:	168.278	yaw rate:	-1.553	Roll:	-4.493	Pitch:	-3.016	Yaw:	236.522	Thrust:	13.673
Time:	2.919	Roll Set Point:	-0.017	Pitch Set Point:	0.032	Yaw Set Point:	-2.937	X_WP:	0.000	Y_WP:	0.000	Y_WP:	0.500	X:	0.163	Y:	0.066	Z:	0.405	yaw:	168.286	yaw rate:	4.122	Roll:	-4.523	Pitch:	-3.038	Yaw:	236.682	Thrust:	13.784
Time:	2.934	Roll Set Point:	-0.017	Pitch Set Point:	0.032	Yaw Set Point:	-2.937	X_WP:	0.000	Y_WP:	0.000	Y_WP:	0.500	X:	0.163	Y:	0.066	Z:	0.404	yaw:	168.278	yaw rate:	-0.861	Roll:	-4.495	Pitch:	-3.038	Yaw:	236.382	Thrust:	14.221
Time:	2.950	Roll Set Point:	-0.017	Pitch Set Point:	0.032	Yaw Set Point:	-2.937	X_WP:	0.000	Y_WP:	0.000	Y_WP:	0.500	X:	0.163	Y:	0.066	Z:	0.404	yaw:	168.299	yaw rate:	2.138	Roll:	-4.538	Pitch:	-2.940	Yaw:	236.911	Thrust:	14.069
Time:	2.965	Roll Set Point:	-0.017	Pitch Set Point:	0.032	Yaw Set Point:	-2.937	X_WP:	0.000	Y_WP:	0.000	Y_WP:	0.500	X:	0.163	Y:	0.066	Z:	0.404	yaw:	168.299	yaw rate:	2.138	Roll:	-4.516	Pitch:	-3.029	Yaw:	236.549	Thrust:	14.369
Time:	2.981	Roll Set Point:	-0.017	Pitch Set Point:	0.032	Yaw Set Point:	-2.936	X_WP:	0.000	Y_WP:	0.000	Y_WP:	0.500	X:	0.163	Y:	0.066	Z:	0.405	yaw:	168.248	yaw rate:	-2.973	Roll:	-4.418	Pitch:	-3.184	Yaw:	235.617	Thrust:	14.527
Time:	2.997	Roll Set Point:	-0.017	Pitch Set Point:	0.032	Yaw Set Point:	-2.936	X_WP:	0.000	Y_WP:	0.000	Y_WP:	0.500	X:	0.163	Y:	0.066	Z:	0.404	yaw:	168.247	yaw rate:	-0.037	Roll:	-4.534	Pitch:	-3.043	Yaw:	236.474	Thrust:	14.764
Time:	3.012	Roll Set Point:	-0.017	Pitch Set Point:	0.032	Yaw Set Point:	-2.937	X_WP:	0.000	Y_WP:	0.000	Y_WP:	0.500	X:	0.163	Y:	0.066	Z:	0.404	yaw:	168.280	yaw rate:	3.284	Roll:	-4.597	Pitch:	-2.955	Yaw:	237.076	Thrust:	15.053
Time:	3.028	Roll Set Point:	-0.017	Pitch Set Point:	0.032	Yaw Set Point:	-2.937	X_WP:	0.000	Y_WP:	0.000	Y_WP:	0.500	X:	0.163	Y:	0.066	Z:	0.404	yaw:	168.275	yaw rate:	-0.521	Roll:	-4.509	Pitch:	-3.025	Yaw:	236.432	Thrust:	15.049
Time:	3.044	Roll Set Point:	-0.017	Pitch Set Point:	0.032	Yaw Set Point:	-2.937	X_WP:	0.000	Y_WP:	0.000	Y_WP:	0.500	X:	0.163	Y:	0.066	Z:	0.404	yaw:	168.270	yaw rate:	-0.490	Roll:	-4.544	Pitch:	-3.148	Yaw:	236.430	Thrust:	15.293
Time:	3.059	Roll Set Point:	-0.017	Pitch Set Point:	0.032	Yaw Set Point:	-2.937	X_WP:	0.000	Y_WP:	0.000	Y_WP:	0.500	X:	0.163	Y:	0.066	Z:	0.404	yaw:	168.270	yaw rate:	-0.490	Roll:	-4.550	Pitch:	-3.056	Yaw:	236.512	Thrust:	15.465
Time:	3.075	Roll Set Point:	-0.017	Pitch Set Point:	0.032	Yaw Set Point:	-2.937	X_WP:	0.000	Y_WP:	0.000	Y_WP:	0.500	X:	0.163	Y:	0.066	Z:	0.404	yaw:	168.285	yaw rate:	2.753	Roll:	-4.583	Pitch:	-2.937	Yaw:	236.791	Thrust:	15.692
Time:	3.090	Roll Set Point:	-0.017	Pitch Set Point:	0.032	Yaw Set Point:	-2.937	X_WP:	0.000	Y_WP:	0.000	Y_WP:	0.500	X:	0.163	Y:	0.066	Z:	0.404	yaw:	168.285	yaw rate:	2.753	Roll:	-4.561	Pitch:	-3.060	Yaw:	236.530	Thrust:	15.804
Time:	3.106	Roll Set Point:	-0.017	Pitch Set Point:	0.032	Yaw Set Point:	-2.937	X_WP:	0.000	Y_WP:	0.000	Y_WP:	0.500	X:	0.163	Y:	0.066	Z:	0.404	yaw:	168.278	yaw rate:	-0.754	Roll:	-4.554	Pitch:	-3.121	Yaw:	236.396	Thrust:	16.017
Time:	3.122	Roll Set Point:	-0.017	Pitch Set Point:	0.032	Yaw Set Point:	-2.937	X_WP:	0.000	Y_WP:	0.000	Y_WP:	0.500	X:	0.163	Y:	0.066	Z:	0.404	yaw:	168.278	yaw rate:	-0.754	Roll:	-4.573	Pitch:	-3.070	Yaw:	236.523	Thrust:	16.182
Time:	3.137	Roll Set Point:	-0.017	Pitch Set Point:	0.032	Yaw Set Point:	-2.936	X_WP:	0.000	Y_WP:	0.000	Y_WP:	0.500	X:	0.163	Y:	0.066	Z:	0.405	yaw:	168.244	yaw rate:	-3.360	Roll:	-4.535	Pitch:	-3.108	Yaw:	235.913	Thrust:	16.119
Time:	3.153	Roll Set Point:	-0.017	Pitch Set Point:	0.032	Yaw Set Point:	-2.937	X_WP:	0.000	Y_WP:	0.000	Y_WP:	0.500	X:	0.163	Y:	0.066	Z:	0.404	yaw:	168.299	yaw rate:	0.070	Roll:	-4.667	Pitch:	-2.973	Yaw:	237.474	Thrust:	16.783
Time:	3.169	Roll Set Point:	-0.017	Pitch Set Point:	0.032	Yaw Set Point:	-2.937	X_WP:	0.000	Y_WP:	0.000	Y_WP:	0.500	X:	0.163	Y:	0.066	Z:	0.404	yaw:	168.270	yaw rate:	-2.868	Roll:	-4.536	Pitch:	-3.166	Yaw:	236.032	Thrust:	16.606
Time:	3.184	Roll Set Point:	-0.017	Pitch Set Point:	0.032	Yaw Set Point:	-2.937	X_WP:	0.000	Y_WP:	0.000	Y_WP:	0.500	X:	0.163	Y:	0.066	Z:	0.404	yaw:	168.277	yaw rate:	0.669	Roll:	-4.601	Pitch:	-3.076	Yaw:	236.634	Thrust:	16.931
Time:	3.200	Roll Set Point:	-0.017	Pitch Set Point:	0.032	Yaw Set Point:	-2.938	X_WP:	0.000	Y_WP:	0.000	Y_WP:	0.500	X:	0.163	Y:	0.066	Z:	0.404	yaw:	168.311	yaw rate:	3.347	Roll:	-4.702	Pitch:	-3.030	Yaw:	237.129	Thrust:	17.134
Time:	3.216	Roll Set Point:	-0.017	Pitch Set Point:	0.032	Yaw Set Point:	-2.938	X_WP:	0.000	Y_WP:	0.000	Y_WP:	0.500	X:	0.163	Y:	0.066	Z:	0.405	yaw:	168.320	yaw rate:	0.922	Roll:	-4.610	Pitch:	-2.982	Yaw:	236.736	Thrust:	17.135
Time:	3.231	Roll Set Point:	-0.017	Pitch Set Point:	0.032	Yaw Set Point:	-2.937	X_WP:	0.000	Y_WP:	0.000	Y_WP:	0.500	X:	0.163	Y:	0.066	Z:	0.404	yaw:	168.295	yaw rate:	-2.482	Roll:	-4.562	Pitch:	-3.219	Yaw:	236.131	Thrust:	17.502
Time:	3.247	Roll Set Point:	-0.017	Pitch Set Point:	0.032	Yaw Set Point:	-2.937	X_WP:	0.000	Y_WP:	0.000	Y_WP:	0.500	X:	0.163	Y:	0.066	Z:	0.404	yaw:	168.295	yaw rate:	-2.482	Roll:	-4.619	Pitch:	-3.100	Yaw:	236.547	Thrust:	17.615
Time:	3.262	Roll Set Point:	-0.017	Pitch Set Point:	0.032	Yaw Set Point:	-2.937	X_WP:	0.000	Y_WP:	0.000	Y_WP:	0.500	X:	0.163	Y:	0.066	Z:	0.404	yaw:	168.261	yaw rate:	-3.366	Roll:	-4.551	Pitch:	-3.210	Yaw:	235.936	Thrust:	17.811
Time:	3.278	Roll Set Point:	-0.017	Pitch Set Point:	0.032	Yaw Set Point:	-2.938	X_WP:	0.000	Y_WP:	0.000	Y_WP:	0.500	X:	0.163	Y:	0.066	Z:	0.404	yaw:	168.330	yaw rate:	6.673	Roll:	-4.772	Pitch:	-2.895	Yaw:	237.749	Thrust:	18.112
Time:	3.294	Roll Set Point:	-0.017	Pitch Set Point:	0.032	Yaw Set Point:	-2.937	X_WP:	0.000	Y_WP:	0.000	Y_WP:	0.500	X:	0.163	Y:	0.066	Z:	0.404	yaw:	168.280	yaw rate:	-5.001	Roll:	-4.540	Pitch:	-3.236	Yaw:	235.688	Thrust:	18.000
Time:	3.309	Roll Set Point:	-0.017	Pitch Set Point:	0.032	Yaw Set Point:	-2.937	X_WP:	0.000	Y_WP:	0.000	Y_WP:	0.500	X:	0.163	Y:	0.066	Z:	0.404	yaw:	168.280	yaw rate:	-5.001	Roll:	-4.642	Pitch:	-3.116	Yaw:	236.529	Thrust:	18.356
Time:	3.325	Roll Set Point:	-0.017	Pitch Set Point:	0.032	Yaw Set Point:	-2.937	X_WP:	0.000	Y_WP:	0.000	Y_WP:	0.500	X:	0.163	Y:	0.066	Z:	0.404	yaw:	168.287	yaw rate:	0.651	Roll:	-4.661	Pitch:	-3.153	Yaw:	236.641	Thrust:	18.547
Time:	3.341	Roll Set Point:	-0.017	Pitch Set Point:	0.032	Yaw Set Point:	-2.937	X_WP:	0.000	Y_WP:	0.000	Y_WP:	0.500	X:	0.163	Y:	0.066	Z:	0.404	yaw:	168.287	yaw rate:	0.651	Roll:	-4.653	Pitch:	-3.124	Yaw:	236.535	Thrust:	18.690
Time:	3.356	Roll Set Point:	-0.017	Pitch Set Point:	0.032	Yaw Set Point:	-2.937	X_WP:	0.000	Y_WP:	0.000	Y_WP:	0.500	X:	0.163	Y:	0.066	Z:	0.404	yaw:	168.273	yaw rate:	-1.599	Roll:	-4.623	Pitch:	-3.128	Yaw:	236.282	Thrust:	18.801
Time:	3.372	Roll Set Point:	-0.017	Pitch Set Point:	0.032	Yaw Set Point:	-2.937	X_WP:	0.000	Y_WP:	0.000	Y_WP:	0.500	X:	0.163	Y:	0.066	Z:	0.404	yaw:	168.304	yaw rate:	3.185	Roll:	-4.734	Pitch:	-3.060	Yaw:	237.097	Thrust:	19.055
Time:	3.387	Roll Set Point:	-0.017	Pitch Set Point:	0.032	Yaw Set Point:	-2.937	X_WP:	0.000	Y_WP:	0.000	Y_WP:	0.500	X:	0.163	Y:	0.066	Z:	0.404	yaw:	168.304	yaw rate:	3.185	Roll:	-4.669	Pitch:	-3.132	Yaw:	236.555	Thrust:	19.178
Time:	3.403	Roll Set Point:	-0.017	Pitch Set Point:	0.032	Yaw Set Point:	-2.937	X_WP:	0.000	Y_WP:	0.000	Y_WP:	0.500	X:	0.163	Y:	0.066	Z:	0.404	yaw:	168.271	yaw rate:	-3.328	Roll:	-4.623	Pitch:	-3.234	Yaw:	235.956	Thrust:	19.511
Time:	3.419	Roll Set Point:	-0.017	Pitch Set Point:	0.032	Yaw Set Point:	-2.938	X_WP:	0.000	Y_WP:	0.000	Y_WP:	0.500	X:	0.163	Y:	0.066	Z:	0.404	yaw:	168.322	yaw rate:	5.056	Roll:	-4.766	Pitch:	-3.016	Yaw:	237.431	Thrust:	19.755
Time:	3.434	Roll Set Point:	-0.017	Pitch Set Point:	0.032	Yaw Set Point:	-2.938	X_WP:	0.000	Y_WP:	0.000	Y_WP:	0.500	X:	0.163	Y:	0.066	Z:	0.404	yaw:	168.322	yaw rate:	5.056	Roll:	-4.689	Pitch:	-3.144	Yaw:	236.584	Thrust:	19.769
Time:	3.450	Roll Set Point:	-0.017	Pitch Set Point:	0.032	Yaw Set Point:	-2.937	X_WP:	0.000	Y_WP:	0.000	Y_WP:	0.500	X:	0.163	Y:	0.066	Z:	0.404	yaw:	168.287	yaw rate:	3.671	Roll:	-4.624	Pitch:	-3.242	Yaw:	235.958	Thrust:	19.802
Time:	3.466	Roll Set Point:	-0.017	Pitch Set Point:	0.032	Yaw Set Point:	-2.937	X_WP:	0.000	Y_WP:	0.000	Y_WP:	0.500	X:	0.163	Y:	0.066	Z:	0.404	yaw:	168.282	yaw rate:	-0.561	Roll:	-4.699	Pitch:	-3.130	Yaw:	236.434	Thrust:	20.046
Time:	3.481	Roll Set Point:	-0.017	Pitch Set Point:	0.032	Yaw Set Point:	-2.937	X_WP:	0.000	Y_WP:	0.000	Y_WP:	0.500	X:	0.163	Y:	0.066	Z:	0.405	yaw:	168.265	yaw rate:	-1.704	Roll:	-4.670	Pitch:	-3.171	Yaw:	236.219	Thrust:	20.218
Time:	3.497	Roll Set Point:	-0.017	Pitch Set Point:	0.032	Yaw Set Point:	-2.938	X_WP:	0.000	Y_WP:	0.000	Y_WP:	0.500	X:	0.163	Y:	0.066	Z:	0.404	yaw:	168.311	yaw rate:	4.634	Roll:	-4.793	Pitch:	-3.121	Yaw:	237.346	Thrust:	20.717
Time:	3.512	Roll Set Point:	-0.017	Pitch Set Point:	0.032	Yaw Set Point:	-2.937	X_WP:	0.000	Y_WP:	0.000	Y_WP:	0.500	X:	0.163	Y:	0.066	Z:	0.404	yaw:	168.274	yaw rate:	-3.732	Roll:	-4.655	Pitch:	-3.219	Yaw:	235.891	Thrust:	20.466
Time:	3.528	Roll Set Point:	-0.017	Pitch Set Point:	0.032	Yaw Set Point:	-2.937	X_WP:	0.000	Y_WP:	0.000	Y_WP:	0.500	X:	0.163	Y:	0.066	Z:	0.404	yaw:	168.286	yaw rate:	1.274	Roll:	-4.734	Pitch:	-3.099	Yaw:	236.748	Thrust:	20.859
Time:	3.545	Roll Set Point:	-0.017	Pitch Set Point:	0.032	Yaw Set Point:	-2.938	X_WP:	0.000	Y_WP:	0.000	Y_WP:	0.500	X:	0.163	Y:	0.066	Z:	0.404	yaw:	168.310	yaw rate:	2.342	Roll:	-4.822	Pitch:	-3.193	Yaw:	237.033	Thrust:	21.996
Time:	3.564	Roll Set Point:	-0.017	Pitch Set Point:	0.032	Yaw Set Point:	-2.937	X_WP:	0.000	Y_WP:	0.000	Y_WP:	0.500	X:	0.163	Y:	0.066	Z:	0.404	yaw:	168.277	yaw rate:	-3.321	Roll:	-4.746	Pitch:	-3.248	Yaw:	236.281	Thrust:	23.612
Time:	3.597	Roll Set Point:	-0.017	Pitch Set Point:	0.032	Yaw Set Point:	-2.937	X_WP:	0.000	Y_WP:	0.000	Y_WP:	0.500	X:	0.163	Y:	0.066	Z:	0.404	yaw:	168.280	yaw rate:	0.287	Roll:	-5.361	Pitch:	-3.616	Yaw:	238.448	Thrust:	41.010
Time:	3.613	Roll Set Point:	-0.017	Pitch Set Point:	0.032	Yaw Set Point:	-2.937	X_WP:	0.000	Y_WP:	0.000	Y_WP:	0.500	X:	0.163	Y:	0.066	Z:	0.404	yaw:	168.280	yaw rate:	0.287	Roll:	-4.744	Pitch:	-3.185	Yaw:	236.525	Thrust:	21.555
Time:	3.631	Roll Set Point:	-0.017	Pitch Set Point:	0.032	Yaw Set Point:	-2.937	X_WP:	0.000	Y_WP:	0.000	Y_WP:	0.500	X:	0.163	Y:	0.066	Z:	0.404	yaw:	168.289	yaw rate:	2.505	Roll:	-4.828	Pitch:	-3.211	Yaw:	236.900	Thrust:	24.145
Time:	3.654	Roll Set Point:	-0.017	Pitch Set Point:	0.032	Yaw Set Point:	-2.937	X_WP:	0.000	Y_WP:	0.000	Y_WP:	0.500	X:	0.163	Y:	0.066	Z:	0.404	yaw:	168.265	yaw rate:	-2.315	Roll:	-4.974	Pitch:	-3.383	Yaw:	236.935	Thrust:	29.403
Time:	3.669	Roll Set Point:	-0.017	Pitch Set Point:	0.032	Yaw Set Point:	-2.937	X_WP:	0.000	Y_WP:	0.000	Y_WP:	0.500	X:	0.163	Y:	0.066	Z:	0.404	yaw:	168.265	yaw rate:	-2.315	Roll:	-4.761	Pitch:	-3.197	Yaw:	236.509	Thrust:	22.132
Time:	3.685	Roll Set Point:	-0.017	Pitch Set Point:	0.032	Yaw Set Point:	-2.938	X_WP:	0.000	Y_WP:	0.000	Y_WP:	0.500	X:	0.163	Y:	0.066	Z:	0.404	yaw:	168.318	yaw rate:	5.801	Roll:	-4.862	Pitch:	-3.105	Yaw:	237.463	Thrust:	22.364
Time:	3.701	Roll Set Point:	-0.017	Pitch Set Point:	0.032	Yaw Set Point:	-2.937	X_WP:	0.000	Y_WP:	0.000	Y_WP:	0.500	X:	0.163	Y:	0.066	Z:	0.405	yaw:	168.265	yaw rate:	-5.289	Roll:	-4.672	Pitch:	-3.289	Yaw:	235.645	Thrust:	22.429
Time:	3.717	Roll Set Point:	-0.017	Pitch Set Point:	0.032	Yaw Set Point:	-2.937	X_WP:	0.000	Y_WP:	0.000	Y_WP:	0.500	X:	0.163	Y:	0.066	Z:	0.404	yaw:	168.289	yaw rate:	2.396	Roll:	-4.868	Pitch:	-3.229	Yaw:	237.021	Thrust:	23.988
Time:	3.733	Roll Set Point:	-0.017	Pitch Set Point:	0.032	Yaw Set Point:	-2.937	X_WP:	0.000	Y_WP:	0.000	Y_WP:	0.500	X:	0.163	Y:	0.066	Z:	0.404	yaw:	168.295	yaw rate:	0.573	Roll:	-4.803	Pitch:	-3.144	Yaw:	236.642	Thrust:	22.786
Time:	3.749	Roll Set Point:	-0.017	Pitch Set Point:	0.032	Yaw Set Point:	-2.937	X_WP:	0.000	Y_WP:	0.000	Y_WP:	0.500	X:	0.163	Y:	0.066	Z:	0.405	yaw:	168.298	yaw rate:	0.309	Roll:	-4.796	Pitch:	-3.222	Yaw:	236.599	Thrust:	22.829
Time:	3.764	Roll Set Point:	-0.017	Pitch Set Point:	0.032	Yaw Set Point:	-2.937	X_WP:	0.000	Y_WP:	0.000	Y_WP:	0.500	X:	0.163	Y:	0.066	Z:	0.404	yaw:	168.284	yaw rate:	-1.330	Roll:	-4.758	Pitch:	-3.300	Yaw:	236.309	Thrust:	23.362
Time:	3.780	Roll Set Point:	-0.017	Pitch Set Point:	0.032	Yaw Set Point:	-2.937	X_WP:	0.000	Y_WP:	0.000	Y_WP:	0.500	X:	0.163	Y:	0.066	Z:	0.404	yaw:	168.298	yaw rate:	1.337	Roll:	-4.820	Pitch:	-3.181	Yaw:	236.775	Thrust:	23.349
Time:	3.795	Roll Set Point:	-0.017	Pitch Set Point:	0.032	Yaw Set Point:	-2.937	X_WP:	0.000	Y_WP:	0.000	Y_WP:	0.500	X:	0.163	Y:	0.066	Z:	0.404	yaw:	168.298	yaw rate:	1.337	Roll:	-4.807	Pitch:	-3.226	Yaw:	236.551	Thrust:	23.529
Time:	3.811	Roll Set Point:	-0.017	Pitch Set Point:	0.032	Yaw Set Point:	-2.937	X_WP:	0.000	Y_WP:	0.000	Y_WP:	0.500	X:	0.163	Y:	0.066	Z:	0.404	yaw:	168.300	yaw rate:	2.470	Roll:	-4.829	Pitch:	-3.208	Yaw:	236.592	Thrust:	23.699
Time:	3.827	Roll Set Point:	-0.017	Pitch Set Point:	0.032	Yaw Set Point:	-2.937	X_WP:	0.000	Y_WP:	0.000	Y_WP:	0.500	X:	0.163	Y:	0.066	Z:	0.405	yaw:	168.257	yaw rate:	-4.273	Roll:	-4.735	Pitch:	-3.305	Yaw:	235.778	Thrust:	23.686
Time:	3.842	Roll Set Point:	-0.017	Pitch Set Point:	0.032	Yaw Set Point:	-2.937	X_WP:	0.000	Y_WP:	0.000	Y_WP:	0.500	X:	0.163	Y:	0.066	Z:	0.404	yaw:	168.299	yaw rate:	4.190	Roll:	-4.867	Pitch:	-3.170	Yaw:	237.254	Thrust:	24.195
Time:	3.858	Roll Set Point:	-0.017	Pitch Set Point:	0.032	Yaw Set Point:	-2.937	X_WP:	0.000	Y_WP:	0.000	Y_WP:	0.500	X:	0.163	Y:	0.066	Z:	0.404	yaw:	168.290	yaw rate:	-0.868	Roll:	-4.831	Pitch:	-3.254	Yaw:	236.395	Thrust:	24.242
Time:	3.874	Roll Set Point:	-0.017	Pitch Set Point:	0.032	Yaw Set Point:	-2.937	X_WP:	0.000	Y_WP:	0.000	Y_WP:	0.500	X:	0.163	Y:	0.066	Z:	0.404	yaw:	168.278	yaw rate:	-1.282	Roll:	-4.770	Pitch:	-3.258	Yaw:	236.317	Thrust:	24.480
Time:	3.889	Roll Set Point:	-0.017	Pitch Set Point:	0.032	Yaw Set Point:	-2.937	X_WP:	0.000	Y_WP:	0.000	Y_WP:	0.500	X:	0.163	Y:	0.066	Z:	0.404	yaw:	168.278	yaw rate:	-1.282	Roll:	-4.808	Pitch:	-3.247	Yaw:	236.514	Thrust:	24.495
Time:	3.905	Roll Set Point:	-0.017	Pitch Set Point:	0.032	Yaw Set Point:	-2.937	X_WP:	0.000	Y_WP:	0.000	Y_WP:	0.500	X:	0.163	Y:	0.066	Z:	0.404	yaw:	168.262	yaw rate:	-1.569	Roll:	-4.783	Pitch:	-3.322	Yaw:	236.238	Thrust:	24.762
Time:	3.920	Roll Set Point:	-0.017	Pitch Set Point:	0.032	Yaw Set Point:	-2.937	X_WP:	0.000	Y_WP:	0.000	Y_WP:	0.500	X:	0.163	Y:	0.066	Z:	0.404	yaw:	168.275	yaw rate:	-2.236	Roll:	-4.839	Pitch:	-3.170	Yaw:	236.737	Thrust:	25.015
Time:	3.936	Roll Set Point:	-0.017	Pitch Set Point:	0.032	Yaw Set Point:	-2.937	X_WP:	0.000	Y_WP:	0.000	Y_WP:	0.500	X:	0.163	Y:	0.066	Z:	0.404	yaw:	168.267	yaw rate:	-0.791	Roll:	-4.801	Pitch:	-3.343	Yaw:	236.371	Thrust:	25.113
Time:	3.952	Roll Set Point:	-0.017	Pitch Set Point:	0.032	Yaw Set Point:	-2.937	X_WP:	0.000	Y_WP:	0.000	Y_WP:	0.500	X:	0.163	Y:	0.066	Z:	0.404	yaw:	168.283	yaw rate:	1.654	Roll:	-4.845	Pitch:	-3.235	Yaw:	236.808	Thrust:	25.379
Time:	3.967	Roll Set Point:	-0.017	Pitch Set Point:	0.032	Yaw Set Point:	-2.937	X_WP:	0.000	Y_WP:	0.000	Y_WP:	0.500	X:	0.163	Y:	0.066	Z:	0.405	yaw:	168.253	yaw rate:	-3.080	Roll:	-4.743	Pitch:	-3.284	Yaw:	235.976	Thrust:	25.325
Time:	3.983	Roll Set Point:	-0.017	Pitch Set Point:	0.032	Yaw Set Point:	-2.937	X_WP:	0.000	Y_WP:	0.000	Y_WP:	0.500	X:	0.163	Y:	0.066	Z:	0.404	yaw:	168.278	yaw rate:	2.516	Roll:	-4.868	Pitch:	-3.247	Yaw:	236.942	Thrust:	25.788
Time:	3.999	Roll Set Point:	-0.017	Pitch Set Point:	0.032	Yaw Set Point:	-2.938	X_WP:	0.000	Y_WP:	0.000	Y_WP:	0.500	X:	0.163	Y:	0.066	Z:	0.404	yaw:	168.313	yaw rate:	3.504	Roll:	-4.867	Pitch:	-3.187	Yaw:	237.159	Thrust:	25.985
Time:	4.014	Roll Set Point:	-0.017	Pitch Set Point:	0.032	Yaw Set Point:	-2.937	X_WP:	0.000	Y_WP:	0.000	Y_WP:	0.500	X:	0.163	Y:	0.066	Z:	0.405	yaw:	168.252	yaw rate:	-6.094	Roll:	-4.708	Pitch:	-3.400	Yaw:	235.466	Thrust:	25.716
Time:	4.030	Roll Set Point:	-0.017	Pitch Set Point:	0.032	Yaw Set Point:	-2.937	X_WP:	0.000	Y_WP:	0.000	Y_WP:	0.500	X:	0.163	Y:	0.066	Z:	0.404	yaw:	168.261	yaw rate:	0.887	Roll:	-4.801	Pitch:	-3.289	Yaw:	236.648	Thrust:	26.440
Time:	4.045	Roll Set Point:	-0.017	Pitch Set Point:	0.032	Yaw Set Point:	-2.937	X_WP:	0.000	Y_WP:	0.000	Y_WP:	0.500	X:	0.163	Y:	0.066	Z:	0.404	yaw:	168.302	yaw rate:	4.161	Roll:	-4.887	Pitch:	-3.159	Yaw:	237.254	Thrust:	26.356
Time:	4.061	Roll Set Point:	-0.017	Pitch Set Point:	0.032	Yaw Set Point:	-2.937	X_WP:	0.000	Y_WP:	0.000	Y_WP:	0.500	X:	0.163	Y:	0.066	Z:	0.404	yaw:	168.263	yaw rate:	-3.936	Roll:	-4.762	Pitch:	-3.391	Yaw:	235.843	Thrust:	26.517
Time:	4.077	Roll Set Point:	-0.017	Pitch Set Point:	0.032	Yaw Set Point:	-2.937	X_WP:	0.000	Y_WP:	0.000	Y_WP:	0.500	X:	0.163	Y:	0.066	Z:	0.404	yaw:	168.263	yaw rate:	-3.936	Roll:	-4.812	Pitch:	-3.297	Yaw:	236.505	Thrust:	26.792
Time:	4.092	Roll Set Point:	-0.017	Pitch Set Point:	0.032	Yaw Set Point:	-2.937	X_WP:	0.000	Y_WP:	0.000	Y_WP:	0.500	X:	0.163	Y:	0.066	Z:	0.404	yaw:	168.277	yaw rate:	2.403	Roll:	-4.832	Pitch:	-3.293	Yaw:	236.747	Thrust:	26.925
Time:	4.108	Roll Set Point:	-0.017	Pitch Set Point:	0.032	Yaw Set Point:	-2.937	X_WP:	0.000	Y_WP:	0.000	Y_WP:	0.500	X:	0.163	Y:	0.066	Z:	0.404	yaw:	168.303	yaw rate:	2.663	Roll:	-4.839	Pitch:	-3.197	Yaw:	237.002	Thrust:	27.093
Time:	4.124	Roll Set Point:	-0.017	Pitch Set Point:	0.032	Yaw Set Point:	-2.937	X_WP:	0.000	Y_WP:	0.000	Y_WP:	0.500	X:	0.163	Y:	0.066	Z:	0.404	yaw:	168.303	yaw rate:	2.663	Roll:	-4.812	Pitch:	-3.304	Yaw:	236.558	Thrust:	27.288
Time:	4.139	Roll Set Point:	-0.017	Pitch Set Point:	0.032	Yaw Set Point:	-2.937	X_WP:	0.000	Y_WP:	0.000	Y_WP:	0.500	X:	0.163	Y:	0.066	Z:	0.404	yaw:	168.288	yaw rate:	0.497	Roll:	-4.797	Pitch:	-3.364	Yaw:	236.286	Thrust:	27.494
Time:	4.155	Roll Set Point:	-0.017	Pitch Set Point:	0.032	Yaw Set Point:	-2.937	X_WP:	0.000	Y_WP:	0.000	Y_WP:	0.500	X:	0.163	Y:	0.066	Z:	0.404	yaw:	168.289	yaw rate:	0.123	Roll:	-4.830	Pitch:	-3.313	Yaw:	236.562	Thrust:	27.602
Time:	4.170	Roll Set Point:	-0.016	Pitch Set Point:	0.031	Yaw Set Point:	-2.944	X_WP:	0.000	Y_WP:	0.000	Y_WP:	0.500	X:	0.162	Y:	0.066	Z:	0.404	yaw:	168.661	yaw rate:	37.177	Roll:	-5.396	Pitch:	-2.343	Yaw:	243.286	Thrust:	28.290
Time:	4.186	Roll Set Point:	-0.016	Pitch Set Point:	0.031	Yaw Set Point:	-2.944	X_WP:	0.000	Y_WP:	0.000	Y_WP:	0.500	X:	0.162	Y:	0.066	Z:	0.404	yaw:	168.661	yaw rate:	37.177	Roll:	-4.826	Pitch:	-3.295	Yaw:	237.055	Thrust:	27.966
Time:	4.202	Roll Set Point:	-0.017	Pitch Set Point:	0.032	Yaw Set Point:	-2.937	X_WP:	0.000	Y_WP:	0.000	Y_WP:	0.500	X:	0.163	Y:	0.066	Z:	0.404	yaw:	168.280	yaw rate:	-0.747	Roll:	-4.236	Pitch:	-4.317	Yaw:	230.141	Thrust:	27.771
Time:	4.217	Roll Set Point:	-0.017	Pitch Set Point:	0.032	Yaw Set Point:	-2.937	X_WP:	0.000	Y_WP:	0.000	Y_WP:	0.500	X:	0.163	Y:	0.066	Z:	0.404	yaw:	168.259	yaw rate:	-2.105	Roll:	-4.741	Pitch:	-3.376	Yaw:	236.144	Thrust:	28.360
Time:	4.233	Roll Set Point:	-0.017	Pitch Set Point:	0.032	Yaw Set Point:	-2.937	X_WP:	0.000	Y_WP:	0.000	Y_WP:	0.500	X:	0.163	Y:	0.066	Z:	0.404	yaw:	168.262	yaw rate:	0.302	Roll:	-4.808	Pitch:	-3.313	Yaw:	236.554	Thrust:	28.639
Time:	4.249	Roll Set Point:	-0.017	Pitch Set Point:	0.032	Yaw Set Point:	-2.937	X_WP:	0.000	Y_WP:	0.000	Y_WP:	0.500	X:	0.163	Y:	0.066	Z:	0.404	yaw:	168.288	yaw rate:	2.627	Roll:	-4.897	Pitch:	-3.273	Yaw:	236.978	Thrust:	28.661
Time:	4.264	Roll Set Point:	-0.017	Pitch Set Point:	0.032	Yaw Set Point:	-2.937	X_WP:	0.000	Y_WP:	0.000	Y_WP:	0.500	X:	0.163	Y:	0.066	Z:	0.404	yaw:	168.289	yaw rate:	0.027	Roll:	-4.792	Pitch:	-3.355	Yaw:	236.539	Thrust:	28.956
Time:	4.280	Roll Set Point:	-0.017	Pitch Set Point:	0.032	Yaw Set Point:	-2.937	X_WP:	0.000	Y_WP:	0.000	Y_WP:	0.500	X:	0.163	Y:	0.066	Z:	0.404	yaw:	168.285	yaw rate:	-0.396	Roll:	-4.817	Pitch:	-3.340	Yaw:	236.466	Thrust:	29.008
Time:	4.295	Roll Set Point:	-0.017	Pitch Set Point:	0.032	Yaw Set Point:	-2.937	X_WP:	0.000	Y_WP:	0.000	Y_WP:	0.500	X:	0.163	Y:	0.066	Z:	0.404	yaw:	168.288	yaw rate:	0.318	Roll:	-4.807	Pitch:	-3.340	Yaw:	236.595	Thrust:	29.363
Time:	4.311	Roll Set Point:	-0.017	Pitch Set Point:	0.032	Yaw Set Point:	-2.937	X_WP:	0.000	Y_WP:	0.000	Y_WP:	0.500	X:	0.163	Y:	0.066	Z:	0.404	yaw:	168.294	yaw rate:	0.668	Roll:	-4.825	Pitch:	-3.387	Yaw:	236.653	Thrust:	29.401
Time:	4.327	Roll Set Point:	-0.017	Pitch Set Point:	0.032	Yaw Set Point:	-2.937	X_WP:	0.000	Y_WP:	0.000	Y_WP:	0.500	X:	0.163	Y:	0.066	Z:	0.404	yaw:	168.283	yaw rate:	-1.149	Roll:	-4.796	Pitch:	-3.318	Yaw:	236.337	Thrust:	29.501
Time:	4.342	Roll Set Point:	-0.017	Pitch Set Point:	0.032	Yaw Set Point:	-2.937	X_WP:	0.000	Y_WP:	0.000	Y_WP:	0.500	X:	0.163	Y:	0.066	Z:	0.404	yaw:	168.282	yaw rate:	-0.056	Roll:	-4.810	Pitch:	-3.404	Yaw:	236.520	Thrust:	29.958
Time:	4.358	Roll Set Point:	-0.017	Pitch Set Point:	0.032	Yaw Set Point:	-2.937	X_WP:	0.000	Y_WP:	0.000	Y_WP:	0.500	X:	0.163	Y:	0.066	Z:	0.404	yaw:	168.280	yaw rate:	-0.235	Roll:	-4.800	Pitch:	-3.321	Yaw:	236.486	Thrust:	29.829
Time:	4.374	Roll Set Point:	-0.017	Pitch Set Point:	0.032	Yaw Set Point:	-2.937	X_WP:	0.000	Y_WP:	0.000	Y_WP:	0.500	X:	0.163	Y:	0.066	Z:	0.404	yaw:	168.283	yaw rate:	0.271	Roll:	-4.809	Pitch:	-3.396	Yaw:	236.575	Thrust:	30.137
Time:	4.389	Roll Set Point:	-0.017	Pitch Set Point:	0.032	Yaw Set Point:	-2.937	X_WP:	0.000	Y_WP:	0.000	Y_WP:	0.500	X:	0.163	Y:	0.066	Z:	0.404	yaw:	168.282	yaw rate:	-0.115	Roll:	-4.852	Pitch:	-3.392	Yaw:	236.509	Thrust:	30.356
Time:	4.405	Roll Set Point:	-0.017	Pitch Set Point:	0.032	Yaw Set Point:	-2.937	X_WP:	0.000	Y_WP:	0.000	Y_WP:	0.500	X:	0.163	Y:	0.066	Z:	0.404	yaw:	168.259	yaw rate:	-2.286	Roll:	-4.736	Pitch:	-3.416	Yaw:	236.113	Thrust:	30.546
Time:	4.420	Roll Set Point:	-0.017	Pitch Set Point:	0.032	Yaw Set Point:	-2.937	X_WP:	0.000	Y_WP:	0.000	Y_WP:	0.500	X:	0.163	Y:	0.066	Z:	0.404	yaw:	168.259	yaw rate:	-2.286	Roll:	-4.810	Pitch:	-3.381	Yaw:	236.496	Thrust:	30.692
Time:	4.436	Roll Set Point:	-0.017	Pitch Set Point:	0.032	Yaw Set Point:	-2.937	X_WP:	0.000	Y_WP:	0.000	Y_WP:	0.500	X:	0.163	Y:	0.066	Z:	0.404	yaw:	168.299	yaw rate:	0.348	Roll:	-4.881	Pitch:	-3.250	Yaw:	237.219	Thrust:	30.898
Time:	4.452	Roll Set Point:	-0.017	Pitch Set Point:	0.032	Yaw Set Point:	-2.937	X_WP:	0.000	Y_WP:	0.000	Y_WP:	0.500	X:	0.163	Y:	0.066	Z:	0.404	yaw:	168.262	yaw rate:	-3.689	Roll:	-4.767	Pitch:	-3.512	Yaw:	235.882	Thrust:	30.950
Time:	4.467	Roll Set Point:	-0.017	Pitch Set Point:	0.032	Yaw Set Point:	-2.937	X_WP:	0.000	Y_WP:	0.000	Y_WP:	0.500	X:	0.163	Y:	0.066	Z:	0.404	yaw:	168.267	yaw rate:	0.528	Roll:	-4.814	Pitch:	-3.369	Yaw:	236.604	Thrust:	31.461
Time:	4.483	Roll Set Point:	-0.017	Pitch Set Point:	0.032	Yaw Set Point:	-2.937	X_WP:	0.000	Y_WP:	0.000	Y_WP:	0.500	X:	0.163	Y:	0.066	Z:	0.404	yaw:	168.279	yaw rate:	1.218	Roll:	-4.843	Pitch:	-3.382	Yaw:	236.722	Thrust:	31.266
Time:	4.499	Roll Set Point:	-0.017	Pitch Set Point:	0.032	Yaw Set Point:	-2.937	X_WP:	0.000	Y_WP:	0.000	Y_WP:	0.500	X:	0.163	Y:	0.066	Z:	0.404	yaw:	168.280	yaw rate:	0.071	Roll:	-4.804	Pitch:	-3.369	Yaw:	236.537	Thrust:	31.496
Time:	4.514	Roll Set Point:	-0.017	Pitch Set Point:	0.032	Yaw Set Point:	-2.937	X_WP:	0.000	Y_WP:	0.000	Y_WP:	0.500	X:	0.163	Y:	0.066	Z:	0.404	yaw:	168.290	yaw rate:	1.035	Roll:	-4.834	Pitch:	-3.397	Yaw:	236.714	Thrust:	31.840
Time:	4.530	Roll Set Point:	-0.017	Pitch Set Point:	0.032	Yaw Set Point:	-2.937	X_WP:	0.000	Y_WP:	0.000	Y_WP:	0.500	X:	0.163	Y:	0.066	Z:	0.404	yaw:	168.276	yaw rate:	-1.371	Roll:	-4.797	Pitch:	-3.443	Yaw:	236.290	Thrust:	31.945
Time:	4.545	Roll Set Point:	-0.017	Pitch Set Point:	0.032	Yaw Set Point:	-2.937	X_WP:	0.000	Y_WP:	0.000	Y_WP:	0.500	X:	0.163	Y:	0.066	Z:	0.404	yaw:	168.253	yaw rate:	-2.375	Roll:	-4.749	Pitch:	-3.458	Yaw:	236.090	Thrust:	32.060
Time:	4.561	Roll Set Point:	-0.017	Pitch Set Point:	0.032	Yaw Set Point:	-2.937	X_WP:	0.000	Y_WP:	0.000	Y_WP:	0.500	X:	0.163	Y:	0.066	Z:	0.404	yaw:	168.280	yaw rate:	2.729	Roll:	-4.863	Pitch:	-3.314	Yaw:	236.985	Thrust:	32.374
Time:	4.577	Roll Set Point:	-0.017	Pitch Set Point:	0.032	Yaw Set Point:	-2.937	X_WP:	0.000	Y_WP:	0.000	Y_WP:	0.500	X:	0.163	Y:	0.066	Z:	0.404	yaw:	168.303	yaw rate:	2.253	Roll:	-4.842	Pitch:	-3.431	Yaw:	236.932	Thrust:	32.624
Time:	4.592	Roll Set Point:	-0.017	Pitch Set Point:	0.032	Yaw Set Point:	-2.937	X_WP:	0.000	Y_WP:	0.000	Y_WP:	0.500	X:	0.163	Y:	0.066	Z:	0.405	yaw:	168.282	yaw rate:	-2.076	Roll:	-4.792	Pitch:	-3.382	Yaw:	236.181	Thrust:	32.425
Time:	4.608	Roll Set Point:	-0.017	Pitch Set Point:	0.032	Yaw Set Point:	-2.937	X_WP:	0.000	Y_WP:	0.000	Y_WP:	0.500	X:	0.163	Y:	0.066	Z:	0.404	yaw:	168.300	yaw rate:	1.779	Roll:	-4.850	Pitch:	-3.436	Yaw:	236.851	Thrust:	32.992
Time:	4.624	Roll Set Point:	-0.017	Pitch Set Point:	0.032	Yaw Set Point:	-2.937	X_WP:	0.000	Y_WP:	0.000	Y_WP:	0.500	X:	0.163	Y:	0.066	Z:	0.404	yaw:	168.270	yaw rate:	-2.992	Roll:	-4.740	Pitch:	-3.460	Yaw:	236.010	Thrust:	32.923
Time:	4.653	Roll Set Point:	-0.017	Pitch Set Point:	0.032	Yaw Set Point:	-2.937	X_WP:	0.000	Y_WP:	0.000	Y_WP:	0.500	X:	0.163	Y:	0.066	Z:	0.404	yaw:	168.266	yaw rate:	-2.286	Roll:	-5.326	Pitch:	-3.956	Yaw:	237.865	Thrust:	58.034
Time:	4.669	Roll Set Point:	-0.017	Pitch Set Point:	0.032	Yaw Set Point:	-2.937	X_WP:	0.000	Y_WP:	0.000	Y_WP:	0.500	X:	0.163	Y:	0.066	Z:	0.404	yaw:	168.266	yaw rate:	-2.286	Roll:	-4.812	Pitch:	-3.424	Yaw:	236.510	Thrust:	33.432
Time:	4.684	Roll Set Point:	-0.017	Pitch Set Point:	0.032	Yaw Set Point:	-2.938	X_WP:	0.000	Y_WP:	0.000	Y_WP:	0.500	X:	0.163	Y:	0.066	Z:	0.404	yaw:	168.308	yaw rate:	4.110	Roll:	-4.909	Pitch:	-3.328	Yaw:	237.253	Thrust:	33.540
Time:	4.700	Roll Set Point:	-0.017	Pitch Set Point:	0.032	Yaw Set Point:	-2.937	X_WP:	0.000	Y_WP:	0.000	Y_WP:	0.500	X:	0.163	Y:	0.066	Z:	0.404	yaw:	168.264	yaw rate:	-2.186	Roll:	-4.721	Pitch:	-3.539	Yaw:	235.776	Thrust:	33.629
Time:	4.716	Roll Set Point:	-0.017	Pitch Set Point:	0.032	Yaw Set Point:	-2.937	X_WP:	0.000	Y_WP:	0.000	Y_WP:	0.500	X:	0.163	Y:	0.066	Z:	0.404	yaw:	168.279	yaw rate:	1.418	Roll:	-4.839	Pitch:	-3.386	Yaw:	236.761	Thrust:	33.933
Time:	4.731	Roll Set Point:	-0.017	Pitch Set Point:	0.032	Yaw Set Point:	-2.937	X_WP:	0.000	Y_WP:	0.000	Y_WP:	0.500	X:	0.163	Y:	0.066	Z:	0.404	yaw:	168.251	yaw rate:	-2.795	Roll:	-4.762	Pitch:	-3.519	Yaw:	236.017	Thrust:	34.129
Time:	4.747	Roll Set Point:	-0.017	Pitch Set Point:	0.032	Yaw Set Point:	-2.937	X_WP:	0.000	Y_WP:	0.000	Y_WP:	0.500	X:	0.163	Y:	0.066	Z:	0.404	yaw:	168.283	yaw rate:	3.243	Roll:	-4.873	Pitch:	-3.320	Yaw:	237.073	Thrust:	34.284
Time:	4.762	Roll Set Point:	-0.017	Pitch Set Point:	0.032	Yaw Set Point:	-2.937	X_WP:	0.000	Y_WP:	0.000	Y_WP:	0.500	X:	0.163	Y:	0.066	Z:	0.404	yaw:	168.285	yaw rate:	0.217	Roll:	-4.816	Pitch:	-3.421	Yaw:	236.570	Thrust:	34.432
Time:	4.778	Roll Set Point:	-0.017	Pitch Set Point:	0.032	Yaw Set Point:	-2.937	X_WP:	0.000	Y_WP:	0.000	Y_WP:	0.500	X:	0.163	Y:	0.066	Z:	0.404	yaw:	168.267	yaw rate:	-1.801	Roll:	-4.764	Pitch:	-3.448	Yaw:	236.206	Thrust:	34.589
Time:	4.794	Roll Set Point:	-0.017	Pitch Set Point:	0.032	Yaw Set Point:	-2.937	X_WP:	0.000	Y_WP:	0.000	Y_WP:	0.500	X:	0.163	Y:	0.066	Z:	0.404	yaw:	168.275	yaw rate:	0.765	Roll:	-4.835	Pitch:	-3.420	Yaw:	236.647	Thrust:	34.844
Time:	4.809	Roll Set Point:	-0.017	Pitch Set Point:	0.032	Yaw Set Point:	-2.937	X_WP:	0.000	Y_WP:	0.000	Y_WP:	0.500	X:	0.163	Y:	0.066	Z:	0.404	yaw:	168.275	yaw rate:	0.765	Roll:	-4.812	Pitch:	-3.423	Yaw:	236.519	Thrust:	34.992
Time:	4.825	Roll Set Point:	-0.017	Pitch Set Point:	0.032	Yaw Set Point:	-2.937	X_WP:	0.000	Y_WP:	0.000	Y_WP:	0.500	X:	0.163	Y:	0.066	Z:	0.404	yaw:	168.277	yaw rate:	0.345	Roll:	-4.815	Pitch:	-3.405	Yaw:	236.557	Thrust:	35.256
Time:	4.841	Roll Set Point:	-0.017	Pitch Set Point:	0.032	Yaw Set Point:	-2.937	X_WP:	0.000	Y_WP:	0.000	Y_WP:	0.500	X:	0.163	Y:	0.066	Z:	0.404	yaw:	168.288	yaw rate:	1.127	Roll:	-4.837	Pitch:	-3.388	Yaw:	236.726	Thrust:	35.227
Time:	4.856	Roll Set Point:	-0.017	Pitch Set Point:	0.032	Yaw Set Point:	-2.937	X_WP:	0.000	Y_WP:	0.000	Y_WP:	0.500	X:	0.163	Y:	0.066	Z:	0.404	yaw:	168.259	yaw rate:	-2.945	Roll:	-4.741	Pitch:	-3.481	Yaw:	236.003	Thrust:	35.502
Time:	4.872	Roll Set Point:	-0.016	Pitch Set Point:	0.030	Yaw Set Point:	-2.945	X_WP:	0.000	Y_WP:	0.000	Y_WP:	0.500	X:	0.162	Y:	0.066	Z:	0.404	yaw:	168.729	yaw rate:	47.020	Roll:	-5.584	Pitch:	-2.138	Yaw:	245.030	Thrust:	36.046
Time:	4.887	Roll Set Point:	-0.017	Pitch Set Point:	0.032	Yaw Set Point:	-2.937	X_WP:	0.000	Y_WP:	0.000	Y_WP:	0.500	X:	0.163	Y:	0.066	Z:	0.404	yaw:	168.272	yaw rate:	-45.687	Roll:	-4.104	Pitch:	-4.732	Yaw:	228.861	Thrust:	35.705
Time:	4.903	Roll Set Point:	-0.017	Pitch Set Point:	0.032	Yaw Set Point:	-2.937	X_WP:	0.000	Y_WP:	0.000	Y_WP:	0.500	X:	0.163	Y:	0.066	Z:	0.405	yaw:	168.271	yaw rate:	-0.112	Roll:	-4.806	Pitch:	-3.334	Yaw:	236.494	Thrust:	35.831
Time:	4.919	Roll Set Point:	-0.017	Pitch Set Point:	0.032	Yaw Set Point:	-2.937	X_WP:	0.000	Y_WP:	0.000	Y_WP:	0.500	X:	0.163	Y:	0.066	Z:	0.404	yaw:	168.296	yaw rate:	2.463	Roll:	-4.834	Pitch:	-3.414	Yaw:	236.960	Thrust:	36.527
Time:	4.934	Roll Set Point:	-0.017	Pitch Set Point:	0.032	Yaw Set Point:	-2.937	X_WP:	0.000	Y_WP:	0.000	Y_WP:	0.500	X:	0.163	Y:	0.066	Z:	0.404	yaw:	168.296	yaw rate:	2.463	Roll:	-4.812	Pitch:	-3.422	Yaw:	236.548	Thrust:	36.427
Time:	4.950	Roll Set Point:	-0.017	Pitch Set Point:	0.032	Yaw Set Point:	-2.937	X_WP:	0.000	Y_WP:	0.000	Y_WP:	0.500	X:	0.163	Y:	0.066	Z:	0.404	yaw:	168.284	yaw rate:	-1.183	Roll:	-4.810	Pitch:	-3.426	Yaw:	236.333	Thrust:	36.441
Time:	4.966	Roll Set Point:	-0.017	Pitch Set Point:	0.032	Yaw Set Point:	-2.937	X_WP:	0.000	Y_WP:	0.000	Y_WP:	0.500	X:	0.163	Y:	0.066	Z:	0.404	yaw:	168.284	yaw rate:	-1.183	Roll:	-4.812	Pitch:	-3.422	Yaw:	236.531	Thrust:	36.780
Time:	4.981	Roll Set Point:	-0.017	Pitch Set Point:	0.032	Yaw Set Point:	-2.937	X_WP:	0.000	Y_WP:	0.000	Y_WP:	0.500	X:	0.163	Y:	0.066	Z:	0.404	yaw:	168.289	yaw rate:	0.311	Roll:	-4.805	Pitch:	-3.368	Yaw:	236.628	Thrust:	36.950
Time:	4.997	Roll Set Point:	-0.017	Pitch Set Point:	0.032	Yaw Set Point:	-2.937	X_WP:	0.000	Y_WP:	0.000	Y_WP:	0.500	X:	0.163	Y:	0.066	Z:	0.404	yaw:	168.252	yaw rate:	-3.718	Roll:	-4.766	Pitch:	-3.562	Yaw:	235.864	Thrust:	37.128
Time:	5.013	Roll Set Point:	-0.017	Pitch Set Point:	0.032	Yaw Set Point:	-2.937	X_WP:	0.000	Y_WP:	0.000	Y_WP:	0.500	X:	0.163	Y:	0.066	Z:	0.404	yaw:	168.276	yaw rate:	2.407	Roll:	-4.851	Pitch:	-3.367	Yaw:	236.924	Thrust:	37.459
Time:	5.028	Roll Set Point:	-0.017	Pitch Set Point:	0.032	Yaw Set Point:	-2.938	X_WP:	0.000	Y_WP:	0.000	Y_WP:	0.500	X:	0.163	Y:	0.066	Z:	0.404	yaw:	168.308	yaw rate:	3.160	Roll:	-4.889	Pitch:	-3.347	Yaw:	237.094	Thrust:	37.368
Time:	5.044	Roll Set Point:	-0.017	Pitch Set Point:	0.032	Yaw Set Point:	-2.937	X_WP:	0.000	Y_WP:	0.000	Y_WP:	0.500	X:	0.163	Y:	0.066	Z:	0.404	yaw:	168.290	yaw rate:	-1.749	Roll:	-4.748	Pitch:	-3.432	Yaw:	236.247	Thrust:	37.632
Time:	5.059	Roll Set Point:	-0.017	Pitch Set Point:	0.032	Yaw Set Point:	-2.937	X_WP:	0.000	Y_WP:	0.000	Y_WP:	0.500	X:	0.163	Y:	0.066	Z:	0.404	yaw:	168.276	yaw rate:	-1.419	Roll:	-4.776	Pitch:	-3.526	Yaw:	236.282	Thrust:	37.991
Time:	5.075	Roll Set Point:	-0.017	Pitch Set Point:	0.032	Yaw Set Point:	-2.937	X_WP:	0.000	Y_WP:	0.000	Y_WP:	0.500	X:	0.163	Y:	0.066	Z:	0.404	yaw:	168.276	yaw rate:	-1.419	Roll:	-4.811	Pitch:	-3.424	Yaw:	236.520	Thrust:	38.037
Time:	5.091	Roll Set Point:	-0.017	Pitch Set Point:	0.032	Yaw Set Point:	-2.937	X_WP:	0.000	Y_WP:	0.000	Y_WP:	0.500	X:	0.163	Y:	0.066	Z:	0.404	yaw:	168.283	yaw rate:	0.656	Roll:	-4.847	Pitch:	-3.332	Yaw:	236.639	Thrust:	38.082
Time:	5.106	Roll Set Point:	-0.017	Pitch Set Point:	0.032	Yaw Set Point:	-2.937	X_WP:	0.000	Y_WP:	0.000	Y_WP:	0.500	X:	0.163	Y:	0.066	Z:	0.405	yaw:	168.283	yaw rate:	-1.126	Roll:	-4.809	Pitch:	-3.422	Yaw:	236.534	Thrust:	38.380
Time:	5.122	Roll Set Point:	-0.017	Pitch Set Point:	0.032	Yaw Set Point:	-2.937	X_WP:	0.000	Y_WP:	0.000	Y_WP:	0.500	X:	0.163	Y:	0.066	Z:	0.404	yaw:	168.280	yaw rate:	-0.239	Roll:	-4.802	Pitch:	-3.436	Yaw:	236.486	Thrust:	38.626
Time:	5.138	Roll Set Point:	-0.017	Pitch Set Point:	0.032	Yaw Set Point:	-2.937	X_WP:	0.000	Y_WP:	0.000	Y_WP:	0.500	X:	0.163	Y:	0.066	Z:	0.404	yaw:	168.259	yaw rate:	-2.111	Roll:	-4.781	Pitch:	-3.506	Yaw:	236.143	Thrust:	38.774
Time:	5.153	Roll Set Point:	-0.017	Pitch Set Point:	0.032	Yaw Set Point:	-2.937	X_WP:	0.000	Y_WP:	0.000	Y_WP:	0.500	X:	0.163	Y:	0.066	Z:	0.404	yaw:	168.288	yaw rate:	2.901	Roll:	-4.855	Pitch:	-3.358	Yaw:	237.023	Thrust:	39.010
Time:	5.169	Roll Set Point:	-0.017	Pitch Set Point:	0.032	Yaw Set Point:	-2.937	X_WP:	0.000	Y_WP:	0.000	Y_WP:	0.500	X:	0.163	Y:	0.066	Z:	0.404	yaw:	168.302	yaw rate:	1.379	Roll:	-4.831	Pitch:	-3.339	Yaw:	236.790	Thrust:	39.118
Time:	5.184	Roll Set Point:	-0.017	Pitch Set Point:	0.032	Yaw Set Point:	-2.937	X_WP:	0.000	Y_WP:	0.000	Y_WP:	0.500	X:	0.163	Y:	0.066	Z:	0.404	yaw:	168.276	yaw rate:	-2.579	Roll:	-4.769	Pitch:	-3.525	Yaw:	236.085	Thrust:	39.219
Time:	5.200	Roll Set Point:	-0.017	Pitch Set Point:	0.032	Yaw Set Point:	-2.937	X_WP:	0.000	Y_WP:	0.000	Y_WP:	0.500	X:	0.163	Y:	0.066	Z:	0.404	yaw:	168.284	yaw rate:	0.810	Roll:	-4.850	Pitch:	-3.440	Yaw:	236.670	Thrust:	39.496
Time:	5.216	Roll Set Point:	-0.017	Pitch Set Point:	0.032	Yaw Set Point:	-2.937	X_WP:	0.000	Y_WP:	0.000	Y_WP:	0.500	X:	0.163	Y:	0.066	Z:	0.404	yaw:	168.299	yaw rate:	1.466	Roll:	-4.823	Pitch:	-3.339	Yaw:	236.798	Thrust:	39.681
Time:	5.231	Roll Set Point:	-0.017	Pitch Set Point:	0.032	Yaw Set Point:	-2.937	X_WP:	0.000	Y_WP:	0.000	Y_WP:	0.500	X:	0.163	Y:	0.066	Z:	0.404	yaw:	168.299	yaw rate:	1.466	Roll:	-4.811	Pitch:	-3.420	Yaw:	236.549	Thrust:	39.756
Time:	5.247	Roll Set Point:	-0.017	Pitch Set Point:	0.032	Yaw Set Point:	-2.936	X_WP:	0.000	Y_WP:	0.000	Y_WP:	0.500	X:	0.163	Y:	0.066	Z:	0.405	yaw:	168.233	yaw rate:	-5.122	Roll:	-4.674	Pitch:	-3.564	Yaw:	235.348	Thrust:	39.911
Time:	5.263	Roll Set Point:	-0.017	Pitch Set Point:	0.032	Yaw Set Point:	-2.936	X_WP:	0.000	Y_WP:	0.000	Y_WP:	0.500	X:	0.163	Y:	0.066	Z:	0.405	yaw:	168.233	yaw rate:	-5.122	Roll:	-4.811	Pitch:	-3.427	Yaw:	236.465	Thrust:	40.308
Time:	5.278	Roll Set Point:	-0.017	Pitch Set Point:	0.032	Yaw Set Point:	-2.936	X_WP:	0.000	Y_WP:	0.000	Y_WP:	0.500	X:	0.163	Y:	0.066	Z:	0.405	yaw:	168.247	yaw rate:	-1.160	Roll:	-4.870	Pitch:	-3.400	Yaw:	236.722	Thrust:	40.244
Time:	5.294	Roll Set Point:	-0.017	Pitch Set Point:	0.032	Yaw Set Point:	-2.937	X_WP:	0.000	Y_WP:	0.000	Y_WP:	0.500	X:	0.163	Y:	0.066	Z:	0.404	yaw:	168.290	yaw rate:	4.275	Roll:	-4.862	Pitch:	-3.276	Yaw:	237.256	Thrust:	40.662
Time:	5.309	Roll Set Point:	-0.017	Pitch Set Point:	0.032	Yaw Set Point:	-2.937	X_WP:	0.000	Y_WP:	0.000	Y_WP:	0.500	X:	0.163	Y:	0.066	Z:	0.404	yaw:	168.266	yaw rate:	-2.436	Roll:	-4.755	Pitch:	-3.526	Yaw:	236.098	Thrust:	40.666
Time:	5.325	Roll Set Point:	-0.017	Pitch Set Point:	0.032	Yaw Set Point:	-2.937	X_WP:	0.000	Y_WP:	0.000	Y_WP:	0.500	X:	0.163	Y:	0.066	Z:	0.404	yaw:	168.275	yaw rate:	0.964	Roll:	-4.833	Pitch:	-3.441	Yaw:	236.681	Thrust:	41.037
Time:	5.341	Roll Set Point:	-0.017	Pitch Set Point:	0.032	Yaw Set Point:	-2.937	X_WP:	0.000	Y_WP:	0.000	Y_WP:	0.500	X:	0.163	Y:	0.066	Z:	0.405	yaw:	168.264	yaw rate:	-1.129	Roll:	-4.812	Pitch:	-3.372	Yaw:	236.314	Thrust:	40.791
Time:	5.356	Roll Set Point:	-0.017	Pitch Set Point:	0.032	Yaw Set Point:	-2.937	X_WP:	0.000	Y_WP:	0.000	Y_WP:	0.500	X:	0.163	Y:	0.066	Z:	0.404	yaw:	168.306	yaw rate:	4.180	Roll:	-4.871	Pitch:	-3.379	Yaw:	237.262	Thrust:	41.618
Time:	5.372	Roll Set Point:	-0.017	Pitch Set Point:	0.032	Yaw Set Point:	-2.938	X_WP:	0.000	Y_WP:	0.000	Y_WP:	0.500	X:	0.163	Y:	0.066	Z:	0.404	yaw:	168.307	yaw rate:	0.060	Roll:	-4.810	Pitch:	-3.420	Yaw:	236.573	Thrust:	41.370
Time:	5.388	Roll Set Point:	-0.017	Pitch Set Point:	0.032	Yaw Set Point:	-2.937	X_WP:	0.000	Y_WP:	0.000	Y_WP:	0.500	X:	0.163	Y:	0.066	Z:	0.405	yaw:	168.263	yaw rate:	-4.348	Roll:	-4.748	Pitch:	-3.495	Yaw:	235.774	Thrust:	41.343
Time:	5.403	Roll Set Point:	-0.017	Pitch Set Point:	0.032	Yaw Set Point:	-2.937	X_WP:	0.000	Y_WP:	0.000	Y_WP:	0.500	X:	0.163	Y:	0.066	Z:	0.404	yaw:	168.303	yaw rate:	3.976	Roll:	-4.888	Pitch:	-3.399	Yaw:	237.224	Thrust:	42.090
Time:	5.419	Roll Set Point:	-0.017	Pitch Set Point:	0.032	Yaw Set Point:	-2.936	X_WP:	0.000	Y_WP:	0.000	Y_WP:	0.500	X:	0.163	Y:	0.066	Z:	0.404	yaw:	168.232	yaw rate:	-7.045	Roll:	-4.667	Pitch:	-3.497	Yaw:	235.279	Thrust:	41.800
Time:	5.434	Roll Set Point:	-0.017	Pitch Set Point:	0.032	Yaw Set Point:	-2.936	X_WP:	0.000	Y_WP:	0.000	Y_WP:	0.500	X:	0.163	Y:	0.066	Z:	0.404	yaw:	168.232	yaw rate:	-7.045	Roll:	-4.811	Pitch:	-3.427	Yaw:	236.466	Thrust:	42.300
Time:	5.450	Roll Set Point:	-0.017	Pitch Set Point:	0.032	Yaw Set Point:	-2.937	X_WP:	0.000	Y_WP:	0.000	Y_WP:	0.500	X:	0.163	Y:	0.066	Z:	0.404	yaw:	168.280	yaw rate:	-0.691	Roll:	-4.893	Pitch:	-3.318	Yaw:	237.328	Thrust:	42.177
Time:	5.466	Roll Set Point:	-0.017	Pitch Set Point:	0.032	Yaw Set Point:	-2.937	X_WP:	0.000	Y_WP:	0.000	Y_WP:	0.500	X:	0.163	Y:	0.066	Z:	0.404	yaw:	168.303	yaw rate:	2.239	Roll:	-4.879	Pitch:	-3.438	Yaw:	236.933	Thrust:	42.660
Time:	5.481	Roll Set Point:	-0.017	Pitch Set Point:	0.032	Yaw Set Point:	-2.937	X_WP:	0.000	Y_WP:	0.000	Y_WP:	0.500	X:	0.163	Y:	0.066	Z:	0.404	yaw:	168.275	yaw rate:	-2.747	Roll:	-4.744	Pitch:	-3.400	Yaw:	236.059	Thrust:	42.541
Time:	5.497	Roll Set Point:	-0.017	Pitch Set Point:	0.032	Yaw Set Point:	-2.937	X_WP:	0.000	Y_WP:	0.000	Y_WP:	0.500	X:	0.163	Y:	0.066	Z:	0.404	yaw:	168.275	yaw rate:	-2.747	Roll:	-4.811	Pitch:	-3.422	Yaw:	236.519	Thrust:	42.871
Time:	5.513	Roll Set Point:	-0.017	Pitch Set Point:	0.032	Yaw Set Point:	-2.937	X_WP:	0.000	Y_WP:	0.000	Y_WP:	0.500	X:	0.163	Y:	0.066	Z:	0.404	yaw:	168.253	yaw rate:	-3.082	Roll:	-4.779	Pitch:	-3.545	Yaw:	236.108	Thrust:	43.091
Time:	5.528	Roll Set Point:	-0.017	Pitch Set Point:	0.032	Yaw Set Point:	-2.937	X_WP:	0.000	Y_WP:	0.000	Y_WP:	0.500	X:	0.163	Y:	0.066	Z:	0.404	yaw:	168.268	yaw rate:	1.554	Roll:	-4.843	Pitch:	-3.370	Yaw:	236.770	Thrust:	43.206
Time:	5.544	Roll Set Point:	-0.017	Pitch Set Point:	0.032	Yaw Set Point:	-2.937	X_WP:	0.000	Y_WP:	0.000	Y_WP:	0.500	X:	0.163	Y:	0.066	Z:	0.404	yaw:	168.299	yaw rate:	3.048	Roll:	-4.866	Pitch:	-3.327	Yaw:	237.063	Thrust:	43.561
Time:	5.559	Roll Set Point:	-0.017	Pitch Set Point:	0.032	Yaw Set Point:	-2.937	X_WP:	0.000	Y_WP:	0.000	Y_WP:	0.500	X:	0.163	Y:	0.066	Z:	0.404	yaw:	168.277	yaw rate:	-2.147	Roll:	-4.759	Pitch:	-3.470	Yaw:	236.162	Thrust:	43.445
Time:	5.575	Roll Set Point:	-0.017	Pitch Set Point:	0.032	Yaw Set Point:	-2.937	X_WP:	0.000	Y_WP:	0.000	Y_WP:	0.500	X:	0.163	Y:	0.066	Z:	0.404	yaw:	168.290	yaw rate:	1.236	Roll:	-4.849	Pitch:	-3.438	Yaw:	236.746	Thrust:	43.780
Time:	5.591	Roll Set Point:	-0.017	Pitch Set Point:	0.032	Yaw Set Point:	-2.936	X_WP:	0.000	Y_WP:	0.000	Y_WP:	0.500	X:	0.163	Y:	0.066	Z:	0.404	yaw:	168.249	yaw rate:	-4.057	Roll:	-4.736	Pitch:	-3.503	Yaw:	235.803	Thrust:	43.938
Time:	5.606	Roll Set Point:	-0.017	Pitch Set Point:	0.032	Yaw Set Point:	-2.938	X_WP:	0.000	Y_WP:	0.000	Y_WP:	0.500	X:	0.163	Y:	0.066	Z:	0.404	yaw:	168.320	yaw rate:	7.096	Roll:	-4.950	Pitch:	-3.224	Yaw:	237.771	Thrust:	44.266
Time:	5.622	Roll Set Point:	-0.017	Pitch Set Point:	0.032	Yaw Set Point:	-2.938	X_WP:	0.000	Y_WP:	0.000	Y_WP:	0.500	X:	0.163	Y:	0.066	Z:	0.404	yaw:	168.306	yaw rate:	-1.355	Roll:	-4.767	Pitch:	-3.463	Yaw:	236.332	Thrust:	44.181
Time:	5.636	Roll Set Point:	-0.017	Pitch Set Point:	0.032	Yaw Set Point:	-2.937	X_WP:	0.000	Y_WP:	0.000	Y_WP:	0.500	X:	0.163	Y:	0.066	Z:	0.404	yaw:	168.292	yaw rate:	-1.461	Roll:	-4.736	Pitch:	-3.469	Yaw:	236.158	Thrust:	41.604
Time:	5.653	Roll Set Point:	-0.017	Pitch Set Point:	0.032	Yaw Set Point:	-2.937	X_WP:	0.000	Y_WP:	0.000	Y_WP:	0.500	X:	0.163	Y:	0.066	Z:	0.404	yaw:	168.292	yaw rate:	-1.461	Roll:	-4.853	Pitch:	-3.464	Yaw:	236.651	Thrust:	47.408
Time:	5.669	Roll Set Point:	-0.017	Pitch Set Point:	0.032	Yaw Set Point:	-2.937	X_WP:	0.000	Y_WP:	0.000	Y_WP:	0.500	X:	0.163	Y:	0.066	Z:	0.404	yaw:	168.253	yaw rate:	-3.926	Roll:	-4.741	Pitch:	-3.431	Yaw:	235.830	Thrust:	44.697
Time:	5.684	Roll Set Point:	-0.017	Pitch Set Point:	0.032	Yaw Set Point:	-2.937	X_WP:	0.000	Y_WP:	0.000	Y_WP:	0.500	X:	0.163	Y:	0.066	Z:	0.404	yaw:	168.253	yaw rate:	-3.926	Roll:	-4.813	Pitch:	-3.426	Yaw:	236.494	Thrust:	45.196
Time:	5.700	Roll Set Point:	-0.017	Pitch Set Point:	0.032	Yaw Set Point:	-2.937	X_WP:	0.000	Y_WP:	0.000	Y_WP:	0.500	X:	0.163	Y:	0.066	Z:	0.405	yaw:	168.273	yaw rate:	2.049	Roll:	-4.852	Pitch:	-3.386	Yaw:	236.854	Thrust:	44.994
Time:	5.716	Roll Set Point:	-0.017	Pitch Set Point:	0.032	Yaw Set Point:	-2.937	X_WP:	0.000	Y_WP:	0.000	Y_WP:	0.500	X:	0.163	Y:	0.066	Z:	0.405	yaw:	168.273	yaw rate:	2.049	Roll:	-4.811	Pitch:	-3.422	Yaw:	236.516	Thrust:	45.375
Time:	5.731	Roll Set Point:	-0.017	Pitch Set Point:	0.032	Yaw Set Point:	-2.937	X_WP:	0.000	Y_WP:	0.000	Y_WP:	0.500	X:	0.163	Y:	0.066	Z:	0.404	yaw:	168.282	yaw rate:	2.265	Roll:	-4.836	Pitch:	-3.426	Yaw:	236.671	Thrust:	45.750
Time:	5.747	Roll Set Point:	-0.017	Pitch Set Point:	0.032	Yaw Set Point:	-2.937	X_WP:	0.000	Y_WP:	0.000	Y_WP:	0.500	X:	0.163	Y:	0.066	Z:	0.405	yaw:	168.273	yaw rate:	-0.849	Roll:	-4.800	Pitch:	-3.410	Yaw:	236.374	Thrust:	45.512
Time:	5.762	Roll Set Point:	-0.017	Pitch Set Point:	0.032	Yaw Set Point:	-2.937	X_WP:	0.000	Y_WP:	0.000	Y_WP:	0.500	X:	0.163	Y:	0.066	Z:	0.404	yaw:	168.304	yaw rate:	3.092	Roll:	-4.856	Pitch:	-3.376	Yaw:	237.077	Thrust:	46.118
Time:	5.778	Roll Set Point:	-0.017	Pitch Set Point:	0.032	Yaw Set Point:	-2.937	X_WP:	0.000	Y_WP:	0.000	Y_WP:	0.500	X:	0.163	Y:	0.066	Z:	0.405	yaw:	168.258	yaw rate:	-4.569	Roll:	-4.724	Pitch:	-3.557	Yaw:	235.730	Thrust:	45.925
Time:	5.794	Roll Set Point:	-0.017	Pitch Set Point:	0.032	Yaw Set Point:	-2.937	X_WP:	0.000	Y_WP:	0.000	Y_WP:	0.500	X:	0.163	Y:	0.066	Z:	0.404	yaw:	168.276	yaw rate:	1.763	Roll:	-4.839	Pitch:	-3.331	Yaw:	236.815	Thrust:	46.402
Time:	5.809	Roll Set Point:	-0.017	Pitch Set Point:	0.032	Yaw Set Point:	-2.937	X_WP:	0.000	Y_WP:	0.000	Y_WP:	0.500	X:	0.163	Y:	0.066	Z:	0.404	yaw:	168.276	yaw rate:	1.763	Roll:	-4.811	Pitch:	-3.422	Yaw:	236.520	Thrust:	46.455
Time:	5.825	Roll Set Point:	-0.017	Pitch Set Point:	0.032	Yaw Set Point:	-2.937	X_WP:	0.000	Y_WP:	0.000	Y_WP:	0.500	X:	0.163	Y:	0.066	Z:	0.404	yaw:	168.300	yaw rate:	1.112	Roll:	-4.882	Pitch:	-3.396	Yaw:	236.964	Thrust:	46.640
Time:	5.841	Roll Set Point:	-0.017	Pitch Set Point:	0.032	Yaw Set Point:	-2.937	X_WP:	0.000	Y_WP:	0.000	Y_WP:	0.500	X:	0.163	Y:	0.066	Z:	0.404	yaw:	168.300	yaw rate:	1.112	Roll:	-4.813	Pitch:	-3.421	Yaw:	236.554	Thrust:	46.808
Time:	5.856	Roll Set Point:	-0.017	Pitch Set Point:	0.032	Yaw Set Point:	-2.937	X_WP:	0.000	Y_WP:	0.000	Y_WP:	0.500	X:	0.163	Y:	0.066	Z:	0.405	yaw:	168.260	yaw rate:	-4.052	Roll:	-4.723	Pitch:	-3.489	Yaw:	235.819	Thrust:	46.890
Time:	5.872	Roll Set Point:	-0.017	Pitch Set Point:	0.032	Yaw Set Point:	-2.937	X_WP:	0.000	Y_WP:	0.000	Y_WP:	0.500	X:	0.163	Y:	0.066	Z:	0.405	yaw:	168.260	yaw rate:	-4.052	Roll:	-4.811	Pitch:	-3.423	Yaw:	236.498	Thrust:	47.169
Time:	5.888	Roll Set Point:	-0.017	Pitch Set Point:	0.032	Yaw Set Point:	-2.936	X_WP:	0.000	Y_WP:	0.000	Y_WP:	0.500	X:	0.163	Y:	0.066	Z:	0.404	yaw:	168.246	yaw rate:	-1.352	Roll:	-4.784	Pitch:	-3.480	Yaw:	236.252	Thrust:	47.379
Time:	5.903	Roll Set Point:	-0.017	Pitch Set Point:	0.032	Yaw Set Point:	-2.936	X_WP:	0.000	Y_WP:	0.000	Y_WP:	0.500	X:	0.163	Y:	0.066	Z:	0.404	yaw:	168.246	yaw rate:	-1.352	Roll:	-4.810	Pitch:	-3.424	Yaw:	236.479	Thrust:	47.527
Time:	5.919	Roll Set Point:	-0.017	Pitch Set Point:	0.032	Yaw Set Point:	-2.938	X_WP:	0.000	Y_WP:	0.000	Y_WP:	0.500	X:	0.163	Y:	0.066	Z:	0.404	yaw:	168.313	yaw rate:	6.630	Roll:	-4.942	Pitch:	-3.334	Yaw:	237.682	Thrust:	47.824
Time:	5.934	Roll Set Point:	-0.017	Pitch Set Point:	0.032	Yaw Set Point:	-2.937	X_WP:	0.000	Y_WP:	0.000	Y_WP:	0.500	X:	0.163	Y:	0.066	Z:	0.404	yaw:	168.271	yaw rate:	-4.128	Roll:	-4.751	Pitch:	-3.435	Yaw:	235.822	Thrust:	47.794
Time:	5.950	Roll Set Point:	-0.017	Pitch Set Point:	0.032	Yaw Set Point:	-2.937	X_WP:	0.000	Y_WP:	0.000	Y_WP:	0.500	X:	0.163	Y:	0.066	Z:	0.404	yaw:	168.273	yaw rate:	0.135	Roll:	-4.784	Pitch:	-3.473	Yaw:	236.538	Thrust:	48.164
Time:	5.981	Roll Set Point:	-0.017	Pitch Set Point:	0.032	Yaw Set Point:	-2.937	X_WP:	0.000	Y_WP:	0.000	Y_WP:	0.500	X:	0.163	Y:	0.066	Z:	0.405	yaw:	168.271	yaw rate:	-0.146	Roll:	-5.397	Pitch:	-4.014	Yaw:	238.064	Thrust:	91.149
Time:	6.013	Roll Set Point:	-0.162	Pitch Set Point:	-0.129	Yaw Set Point:	-2.938	X_WP:	0.175	Y_WP:	0.127	Y_WP:	0.500	X:	0.163	Y:	0.066	Z:	0.404	yaw:	168.308	yaw rate:	3.666	Roll:	30.000	Pitch:	30.000	Yaw:	238.435	Thrust:	91.703
Time:	6.028	Roll Set Point:	-0.162	Pitch Set Point:	-0.129	Yaw Set Point:	-2.938	X_WP:	0.175	Y_WP:	0.127	Y_WP:	0.500	X:	0.163	Y:	0.066	Z:	0.404	yaw:	168.308	yaw rate:	3.666	Roll:	-0.591	Pitch:	1.225	Yaw:	236.565	Thrust:	48.605
Time:	6.044	Roll Set Point:	-0.162	Pitch Set Point:	-0.129	Yaw Set Point:	-2.937	X_WP:	0.175	Y_WP:	0.127	Y_WP:	0.500	X:	0.163	Y:	0.066	Z:	0.404	yaw:	168.273	yaw rate:	-3.500	Roll:	-0.665	Pitch:	1.226	Yaw:	235.930	Thrust:	48.774
Time:	6.059	Roll Set Point:	-0.162	Pitch Set Point:	-0.129	Yaw Set Point:	-2.937	X_WP:	0.175	Y_WP:	0.127	Y_WP:	0.500	X:	0.163	Y:	0.066	Z:	0.404	yaw:	168.258	yaw rate:	-1.512	Roll:	-0.588	Pitch:	1.229	Yaw:	236.245	Thrust:	48.904
Time:	6.075	Roll Set Point:	-0.162	Pitch Set Point:	-0.129	Yaw Set Point:	-2.937	X_WP:	0.175	Y_WP:	0.127	Y_WP:	0.500	X:	0.163	Y:	0.066	Z:	0.404	yaw:	168.258	yaw rate:	-1.512	Roll:	-0.595	Pitch:	1.234	Yaw:	236.491	Thrust:	49.048
Time:	6.091	Roll Set Point:	-0.162	Pitch Set Point:	-0.129	Yaw Set Point:	-2.937	X_WP:	0.175	Y_WP:	0.127	Y_WP:	0.500	X:	0.163	Y:	0.066	Z:	0.404	yaw:	168.273	yaw rate:	1.518	Roll:	-0.580	Pitch:	1.240	Yaw:	236.770	Thrust:	49.345
Time:	6.106	Roll Set Point:	-0.162	Pitch Set Point:	-0.129	Yaw Set Point:	-2.937	X_WP:	0.175	Y_WP:	0.127	Y_WP:	0.500	X:	0.163	Y:	0.066	Z:	0.404	yaw:	168.273	yaw rate:	1.518	Roll:	-0.595	Pitch:	1.238	Yaw:	236.516	Thrust:	49.500
Time:	6.122	Roll Set Point:	-0.162	Pitch Set Point:	-0.129	Yaw Set Point:	-2.937	X_WP:	0.175	Y_WP:	0.127	Y_WP:	0.500	X:	0.163	Y:	0.066	Z:	0.404	yaw:	168.265	yaw rate:	-0.786	Roll:	-0.616	Pitch:	1.236	Yaw:	236.373	Thrust:	49.772
Time:	6.138	Roll Set Point:	-0.162	Pitch Set Point:	-0.129	Yaw Set Point:	-2.938	X_WP:	0.175	Y_WP:	0.127	Y_WP:	0.500	X:	0.163	Y:	0.066	Z:	0.404	yaw:	168.307	yaw rate:	4.220	Roll:	-0.551	Pitch:	1.246	Yaw:	237.271	Thrust:	49.957
Time:	6.153	Roll Set Point:	-0.162	Pitch Set Point:	-0.129	Yaw Set Point:	-2.938	X_WP:	0.175	Y_WP:	0.127	Y_WP:	0.500	X:	0.163	Y:	0.066	Z:	0.404	yaw:	168.307	yaw rate:	4.220	Roll:	-0.595	Pitch:	1.245	Yaw:	236.564	Thrust:	50.052
Time:	6.169	Roll Set Point:	-0.162	Pitch Set Point:	-0.129	Yaw Set Point:	-2.937	X_WP:	0.175	Y_WP:	0.127	Y_WP:	0.500	X:	0.163	Y:	0.066	Z:	0.404	yaw:	168.303	yaw rate:	-0.422	Roll:	-0.576	Pitch:	1.246	Yaw:	236.487	Thrust:	49.975
Time:	6.184	Roll Set Point:	-0.162	Pitch Set Point:	-0.129	Yaw Set Point:	-2.937	X_WP:	0.175	Y_WP:	0.127	Y_WP:	0.500	X:	0.163	Y:	0.066	Z:	0.404	yaw:	168.267	yaw rate:	-3.641	Roll:	-0.654	Pitch:	1.250	Yaw:	235.897	Thrust:	50.424
Time:	6.200	Roll Set Point:	-0.162	Pitch Set Point:	-0.129	Yaw Set Point:	-2.937	X_WP:	0.175	Y_WP:	0.127	Y_WP:	0.500	X:	0.163	Y:	0.066	Z:	0.404	yaw:	168.252	yaw rate:	-0.881	Roll:	-0.604	Pitch:	1.251	Yaw:	236.249	Thrust:	50.648
Time:	6.216	Roll Set Point:	-0.162	Pitch Set Point:	-0.129	Yaw Set Point:	-2.938	X_WP:	0.175	Y_WP:	0.127	Y_WP:	0.500	X:	0.163	Y:	0.066	Z:	0.404	yaw:	168.325	yaw rate:	7.245	Roll:	-0.520	Pitch:	1.255	Yaw:	237.802	Thrust:	50.805
Time:	6.231	Roll Set Point:	-0.162	Pitch Set Point:	-0.129	Yaw Set Point:	-2.938	X_WP:	0.175	Y_WP:	0.127	Y_WP:	0.500	X:	0.163	Y:	0.066	Z:	0.404	yaw:	168.325	yaw rate:	7.245	Roll:	-0.594	Pitch:	1.257	Yaw:	236.588	Thrust:	50.934
Time:	6.247	Roll Set Point:	-0.162	Pitch Set Point:	-0.129	Yaw Set Point:	-2.936	X_WP:	0.175	Y_WP:	0.127	Y_WP:	0.500	X:	0.163	Y:	0.066	Z:	0.405	yaw:	168.239	yaw rate:	-8.559	Roll:	-0.685	Pitch:	1.259	Yaw:	235.035	Thrust:	50.895
Time:	6.263	Roll Set Point:	-0.162	Pitch Set Point:	-0.129	Yaw Set Point:	-2.936	X_WP:	0.175	Y_WP:	0.127	Y_WP:	0.500	X:	0.163	Y:	0.066	Z:	0.405	yaw:	168.239	yaw rate:	-8.559	Roll:	-0.596	Pitch:	1.262	Yaw:	236.469	Thrust:	51.289
Time:	6.278	Roll Set Point:	-0.162	Pitch Set Point:	-0.129	Yaw Set Point:	-2.937	X_WP:	0.175	Y_WP:	0.127	Y_WP:	0.500	X:	0.163	Y:	0.066	Z:	0.404	yaw:	168.294	yaw rate:	0.799	Roll:	-0.539	Pitch:	1.267	Yaw:	237.467	Thrust:	51.627
Time:	6.294	Roll Set Point:	-0.162	Pitch Set Point:	-0.129	Yaw Set Point:	-2.937	X_WP:	0.175	Y_WP:	0.127	Y_WP:	0.500	X:	0.163	Y:	0.066	Z:	0.404	yaw:	168.284	yaw rate:	-1.049	Roll:	-0.608	Pitch:	1.268	Yaw:	236.355	Thrust:	51.626
Time:	6.309	Roll Set Point:	-0.162	Pitch Set Point:	-0.129	Yaw Set Point:	-2.937	X_WP:	0.175	Y_WP:	0.127	Y_WP:	0.500	X:	0.163	Y:	0.066	Z:	0.404	yaw:	168.284	yaw rate:	-1.049	Roll:	-0.595	Pitch:	1.269	Yaw:	236.531	Thrust:	51.830
Time:	6.325	Roll Set Point:	-0.162	Pitch Set Point:	-0.129	Yaw Set Point:	-2.936	X_WP:	0.175	Y_WP:	0.127	Y_WP:	0.500	X:	0.163	Y:	0.066	Z:	0.405	yaw:	168.229	yaw rate:	-2.023	Roll:	-0.644	Pitch:	1.269	Yaw:	235.538	Thrust:	51.930
Time:	6.341	Roll Set Point:	-0.162	Pitch Set Point:	-0.129	Yaw Set Point:	-2.937	X_WP:	0.175	Y_WP:	0.127	Y_WP:	0.500	X:	0.163	Y:	0.066	Z:	0.404	yaw:	168.295	yaw rate:	6.581	Roll:	-0.534	Pitch:	1.275	Yaw:	237.649	Thrust:	52.353
