Time:	2.042	Roll Set Point:	0.103	Pitch Set Point:	0.146	Yaw Set Point:	0.119	X_WP:	0.100	Y_WP:	0.000	Y_WP:	0.500	X:	-0.006	Y:	-0.067	Z:	0.057	yaw:	-6.803	yaw rate:	0.057	Roll:	-2.822	Pitch:	-2.292	Yaw:	-9.498	Thrust:	24.386
Time:	2.053	Roll Set Point:	0.103	Pitch Set Point:	0.146	Yaw Set Point:	0.119	X_WP:	0.100	Y_WP:	0.000	Y_WP:	0.500	X:	-0.006	Y:	-0.067	Z:	0.057	yaw:	-6.797	yaw rate:	-0.193	Roll:	-2.850	Pitch:	-2.298	Yaw:	-9.393	Thrust:	24.948
Time:	2.065	Roll Set Point:	0.103	Pitch Set Point:	0.146	Yaw Set Point:	0.119	X_WP:	0.100	Y_WP:	0.000	Y_WP:	0.500	X:	-0.006	Y:	-0.067	Z:	0.057	yaw:	-6.800	yaw rate:	-0.258	Roll:	-2.874	Pitch:	-2.345	Yaw:	-9.608	Thrust:	25.744
Time:	2.076	Roll Set Point:	0.103	Pitch Set Point:	0.146	Yaw Set Point:	0.119	X_WP:	0.100	Y_WP:	0.000	Y_WP:	0.500	X:	-0.006	Y:	-0.067	Z:	0.057	yaw:	-6.816	yaw rate:	-1.571	Roll:	-2.844	Pitch:	-2.415	Yaw:	-9.947	Thrust:	26.225
Time:	2.087	Roll Set Point:	0.104	Pitch Set Point:	0.145	Yaw Set Point:	0.110	X_WP:	0.100	Y_WP:	0.000	Y_WP:	0.500	X:	-0.006	Y:	-0.067	Z:	0.057	yaw:	-6.280	yaw rate:	53.578	Roll:	-4.566	Pitch:	0.258	Yaw:	4.456	Thrust:	26.798
Time:	2.098	Roll Set Point:	0.104	Pitch Set Point:	0.146	Yaw Set Point:	0.116	X_WP:	0.100	Y_WP:	0.000	Y_WP:	0.500	X:	-0.006	Y:	-0.067	Z:	0.057	yaw:	-6.630	yaw rate:	-34.966	Roll:	-2.100	Pitch:	-4.050	Yaw:	-17.868	Thrust:	27.424
Time:	2.110	Roll Set Point:	0.104	Pitch Set Point:	0.146	Yaw Set Point:	0.115	X_WP:	0.100	Y_WP:	0.000	Y_WP:	0.500	X:	-0.006	Y:	-0.067	Z:	0.057	yaw:	-6.611	yaw rate:	1.814	Roll:	-3.205	Pitch:	-2.523	Yaw:	-9.005	Thrust:	28.354
Time:	2.120	Roll Set Point:	0.104	Pitch Set Point:	0.146	Yaw Set Point:	0.115	X_WP:	0.100	Y_WP:	0.000	Y_WP:	0.500	X:	-0.006	Y:	-0.067	Z:	0.057	yaw:	-6.591	yaw rate:	2.064	Roll:	-2.995	Pitch:	-2.254	Yaw:	-8.861	Thrust:	28.067
Time:	2.131	Roll Set Point:	0.104	Pitch Set Point:	0.146	Yaw Set Point:	0.115	X_WP:	0.100	Y_WP:	0.000	Y_WP:	0.500	X:	-0.006	Y:	-0.067	Z:	0.057	yaw:	-6.605	yaw rate:	-1.391	Roll:	-2.799	Pitch:	-2.537	Yaw:	-9.755	Thrust:	29.214
Time:	2.142	Roll Set Point:	0.104	Pitch Set Point:	0.146	Yaw Set Point:	0.116	X_WP:	0.100	Y_WP:	0.000	Y_WP:	0.500	X:	-0.006	Y:	-0.067	Z:	0.057	yaw:	-6.673	yaw rate:	-6.836	Roll:	-2.948	Pitch:	-2.493	Yaw:	-11.172	Thrust:	29.547
Time:	2.153	Roll Set Point:	0.104	Pitch Set Point:	0.146	Yaw Set Point:	0.114	X_WP:	0.100	Y_WP:	0.000	Y_WP:	0.500	X:	-0.006	Y:	-0.067	Z:	0.057	yaw:	-6.540	yaw rate:	13.328	Roll:	-3.587	Pitch:	-2.262	Yaw:	-6.224	Thrust:	30.128
Time:	2.165	Roll Set Point:	0.104	Pitch Set Point:	0.146	Yaw Set Point:	0.115	X_WP:	0.100	Y_WP:	0.000	Y_WP:	0.500	X:	-0.006	Y:	-0.067	Z:	0.057	yaw:	-6.569	yaw rate:	-2.917	Roll:	-3.180	Pitch:	-2.580	Yaw:	-10.129	Thrust:	31.414
Time:	2.176	Roll Set Point:	0.104	Pitch Set Point:	0.146	Yaw Set Point:	0.116	X_WP:	0.100	Y_WP:	0.000	Y_WP:	0.500	X:	-0.006	Y:	-0.067	Z:	0.057	yaw:	-6.629	yaw rate:	-6.032	Roll:	-2.858	Pitch:	-2.680	Yaw:	-10.993	Thrust:	31.266
Time:	2.187	Roll Set Point:	0.104	Pitch Set Point:	0.146	Yaw Set Point:	0.115	X_WP:	0.100	Y_WP:	0.000	Y_WP:	0.500	X:	-0.006	Y:	-0.067	Z:	0.056	yaw:	-6.593	yaw rate:	3.635	Roll:	-3.371	Pitch:	-2.621	Yaw:	-8.675	Thrust:	32.825
Time:	2.197	Roll Set Point:	0.104	Pitch Set Point:	0.146	Yaw Set Point:	0.114	X_WP:	0.100	Y_WP:	0.000	Y_WP:	0.500	X:	-0.006	Y:	-0.067	Z:	0.057	yaw:	-6.555	yaw rate:	3.813	Roll:	-3.256	Pitch:	-2.272	Yaw:	-8.482	Thrust:	30.909
Time:	2.209	Roll Set Point:	0.104	Pitch Set Point:	0.146	Yaw Set Point:	0.117	X_WP:	0.100	Y_WP:	0.000	Y_WP:	0.500	X:	-0.006	Y:	-0.067	Z:	0.057	yaw:	-6.705	yaw rate:	-14.974	Roll:	-2.771	Pitch:	-3.052	Yaw:	-13.161	Thrust:	33.947
Time:	2.220	Roll Set Point:	0.104	Pitch Set Point:	0.146	Yaw Set Point:	0.116	X_WP:	0.100	Y_WP:	0.000	Y_WP:	0.500	X:	-0.006	Y:	-0.067	Z:	0.057	yaw:	-6.621	yaw rate:	8.348	Roll:	-3.513	Pitch:	-2.332	Yaw:	-7.777	Thrust:	33.508
Time:	2.230	Roll Set Point:	0.103	Pitch Set Point:	0.146	Yaw Set Point:	0.119	X_WP:	0.100	Y_WP:	0.000	Y_WP:	0.500	X:	-0.006	Y:	-0.067	Z:	0.057	yaw:	-6.816	yaw rate:	-19.504	Roll:	-2.430	Pitch:	-3.558	Yaw:	-14.898	Thrust:	33.945
Time:	2.242	Roll Set Point:	0.104	Pitch Set Point:	0.145	Yaw Set Point:	0.111	X_WP:	0.100	Y_WP:	0.000	Y_WP:	0.500	X:	-0.006	Y:	-0.067	Z:	0.056	yaw:	-6.365	yaw rate:	45.144	Roll:	-4.719	Pitch:	-0.594	Yaw:	0.882	Thrust:	36.063
Time:	2.253	Roll Set Point:	0.104	Pitch Set Point:	0.146	Yaw Set Point:	0.115	X_WP:	0.100	Y_WP:	0.000	Y_WP:	0.500	X:	-0.006	Y:	-0.067	Z:	0.057	yaw:	-6.609	yaw rate:	-24.472	Roll:	-2.753	Pitch:	-3.981	Yaw:	-15.292	Thrust:	35.164
Time:	2.264	Roll Set Point:	0.104	Pitch Set Point:	0.146	Yaw Set Point:	0.115	X_WP:	0.100	Y_WP:	0.000	Y_WP:	0.500	X:	-0.006	Y:	-0.067	Z:	0.057	yaw:	-6.597	yaw rate:	1.264	Roll:	-3.457	Pitch:	-2.678	Yaw:	-9.384	Thrust:	36.020
Time:	2.275	Roll Set Point:	0.104	Pitch Set Point:	0.145	Yaw Set Point:	0.116	X_WP:	0.100	Y_WP:	0.000	Y_WP:	0.500	X:	-0.006	Y:	-0.067	Z:	0.057	yaw:	-6.647	yaw rate:	-5.004	Roll:	-3.224	Pitch:	-2.762	Yaw:	-10.977	Thrust:	37.236
Time:	2.287	Roll Set Point:	0.104	Pitch Set Point:	0.146	Yaw Set Point:	0.116	X_WP:	0.100	Y_WP:	0.000	Y_WP:	0.500	X:	-0.006	Y:	-0.067	Z:	0.056	yaw:	-6.653	yaw rate:	-0.595	Roll:	-3.355	Pitch:	-2.882	Yaw:	-9.992	Thrust:	37.821
Time:	2.298	Roll Set Point:	0.104	Pitch Set Point:	0.146	Yaw Set Point:	0.117	X_WP:	0.100	Y_WP:	0.000	Y_WP:	0.500	X:	-0.006	Y:	-0.067	Z:	0.057	yaw:	-6.677	yaw rate:	-2.397	Roll:	-3.342	Pitch:	-2.851	Yaw:	-10.479	Thrust:	36.548
Time:	2.308	Roll Set Point:	0.104	Pitch Set Point:	0.146	Yaw Set Point:	0.116	X_WP:	0.100	Y_WP:	0.000	Y_WP:	0.500	X:	-0.006	Y:	-0.067	Z:	0.057	yaw:	-6.625	yaw rate:	5.137	Roll:	-3.710	Pitch:	-2.642	Yaw:	-8.558	Thrust:	38.500
Time:	2.319	Roll Set Point:	0.104	Pitch Set Point:	0.145	Yaw Set Point:	0.116	X_WP:	0.100	Y_WP:	0.000	Y_WP:	0.500	X:	-0.006	Y:	-0.067	Z:	0.057	yaw:	-6.661	yaw rate:	-3.602	Roll:	-3.348	Pitch:	-2.793	Yaw:	-10.806	Thrust:	39.175
Time:	2.330	Roll Set Point:	0.104	Pitch Set Point:	0.146	Yaw Set Point:	0.116	X_WP:	0.100	Y_WP:	0.000	Y_WP:	0.500	X:	-0.006	Y:	-0.067	Z:	0.057	yaw:	-6.636	yaw rate:	2.488	Roll:	-3.674	Pitch:	-2.888	Yaw:	-9.356	Thrust:	39.456
Time:	2.342	Roll Set Point:	0.104	Pitch Set Point:	0.146	Yaw Set Point:	0.116	X_WP:	0.100	Y_WP:	0.000	Y_WP:	0.500	X:	-0.006	Y:	-0.067	Z:	0.057	yaw:	-6.663	yaw rate:	-2.622	Roll:	-3.451	Pitch:	-2.995	Yaw:	-10.619	Thrust:	41.292
Time:	2.352	Roll Set Point:	0.104	Pitch Set Point:	0.146	Yaw Set Point:	0.116	X_WP:	0.100	Y_WP:	0.000	Y_WP:	0.500	X:	-0.006	Y:	-0.067	Z:	0.057	yaw:	-6.625	yaw rate:	3.783	Roll:	-3.649	Pitch:	-2.790	Yaw:	-9.067	Thrust:	40.516
Time:	2.365	Roll Set Point:	0.104	Pitch Set Point:	0.146	Yaw Set Point:	0.116	X_WP:	0.100	Y_WP:	0.000	Y_WP:	0.500	X:	-0.006	Y:	-0.067	Z:	0.057	yaw:	-6.624	yaw rate:	0.086	Roll:	-3.748	Pitch:	-2.946	Yaw:	-10.073	Thrust:	43.124
Time:	2.376	Roll Set Point:	0.104	Pitch Set Point:	0.145	Yaw Set Point:	0.111	X_WP:	0.100	Y_WP:	0.000	Y_WP:	0.500	X:	-0.006	Y:	-0.067	Z:	0.057	yaw:	-6.375	yaw rate:	24.903	Roll:	-4.200	Pitch:	-1.716	Yaw:	-3.760	Thrust:	42.613
Time:	2.387	Roll Set Point:	0.104	Pitch Set Point:	0.146	Yaw Set Point:	0.115	X_WP:	0.100	Y_WP:	0.000	Y_WP:	0.500	X:	-0.006	Y:	-0.067	Z:	0.057	yaw:	-6.582	yaw rate:	-20.729	Roll:	-3.250	Pitch:	-4.110	Yaw:	-14.901	Thrust:	42.473
Time:	2.399	Roll Set Point:	0.104	Pitch Set Point:	0.146	Yaw Set Point:	0.115	X_WP:	0.100	Y_WP:	0.000	Y_WP:	0.500	X:	-0.006	Y:	-0.067	Z:	0.057	yaw:	-6.597	yaw rate:	-1.461	Roll:	-3.670	Pitch:	-3.169	Yaw:	-10.419	Thrust:	44.989
Time:	2.411	Roll Set Point:	0.104	Pitch Set Point:	0.146	Yaw Set Point:	0.117	X_WP:	0.100	Y_WP:	0.000	Y_WP:	0.500	X:	-0.006	Y:	-0.067	Z:	0.057	yaw:	-6.687	yaw rate:	-8.975	Roll:	-3.432	Pitch:	-3.203	Yaw:	-12.254	Thrust:	44.749
Time:	2.422	Roll Set Point:	0.104	Pitch Set Point:	0.146	Yaw Set Point:	0.117	X_WP:	0.100	Y_WP:	0.000	Y_WP:	0.500	X:	-0.006	Y:	-0.067	Z:	0.057	yaw:	-6.676	yaw rate:	1.106	Roll:	-3.801	Pitch:	-2.948	Yaw:	-9.926	Thrust:	44.380
Time:	2.433	Roll Set Point:	0.103	Pitch Set Point:	0.146	Yaw Set Point:	0.116	X_WP:	0.100	Y_WP:	0.000	Y_WP:	0.500	X:	-0.006	Y:	-0.067	Z:	0.057	yaw:	-6.671	yaw rate:	0.480	Roll:	-3.748	Pitch:	-3.053	Yaw:	-10.093	Thrust:	44.816
Time:	2.444	Roll Set Point:	0.104	Pitch Set Point:	0.146	Yaw Set Point:	0.116	X_WP:	0.100	Y_WP:	0.000	Y_WP:	0.500	X:	-0.006	Y:	-0.067	Z:	0.057	yaw:	-6.664	yaw rate:	0.641	Roll:	-3.832	Pitch:	-2.987	Yaw:	-10.120	Thrust:	46.290
Time:	2.457	Roll Set Point:	0.104	Pitch Set Point:	0.146	Yaw Set Point:	0.117	X_WP:	0.100	Y_WP:	0.000	Y_WP:	0.500	X:	-0.006	Y:	-0.067	Z:	0.057	yaw:	-6.703	yaw rate:	-3.850	Roll:	-3.984	Pitch:	-3.355	Yaw:	-11.236	Thrust:	49.310
Time:	2.472	Roll Set Point:	0.104	Pitch Set Point:	0.146	Yaw Set Point:	0.117	X_WP:	0.100	Y_WP:	0.000	Y_WP:	0.500	X:	-0.006	Y:	-0.067	Z:	0.057	yaw:	-6.680	yaw rate:	-23.873	Roll:	-4.246	Pitch:	-3.330	Yaw:	-10.259	Thrust:	54.620
Time:	2.483	Roll Set Point:	0.103	Pitch Set Point:	0.146	Yaw Set Point:	0.117	X_WP:	0.100	Y_WP:	0.000	Y_WP:	0.500	X:	-0.006	Y:	-0.067	Z:	0.057	yaw:	-6.693	yaw rate:	-1.308	Roll:	-3.780	Pitch:	-3.120	Yaw:	-10.652	Thrust:	46.095
Time:	2.496	Roll Set Point:	0.103	Pitch Set Point:	0.145	Yaw Set Point:	0.116	X_WP:	0.100	Y_WP:	0.000	Y_WP:	0.500	X:	-0.006	Y:	-0.067	Z:	0.057	yaw:	-6.657	yaw rate:	3.665	Roll:	-4.131	Pitch:	-3.286	Yaw:	-9.829	Thrust:	54.073
Time:	2.508	Roll Set Point:	0.103	Pitch Set Point:	0.145	Yaw Set Point:	0.116	X_WP:	0.100	Y_WP:	0.000	Y_WP:	0.500	X:	-0.006	Y:	-0.067	Z:	0.057	yaw:	-6.646	yaw rate:	1.068	Roll:	-4.021	Pitch:	-3.160	Yaw:	-10.134	Thrust:	49.540
Time:	2.519	Roll Set Point:	0.103	Pitch Set Point:	0.146	Yaw Set Point:	0.117	X_WP:	0.100	Y_WP:	0.000	Y_WP:	0.500	X:	-0.006	Y:	-0.067	Z:	0.057	yaw:	-6.729	yaw rate:	-8.312	Roll:	-3.696	Pitch:	-3.547	Yaw:	-12.441	Thrust:	48.755
Time:	2.531	Roll Set Point:	0.103	Pitch Set Point:	0.145	Yaw Set Point:	0.116	X_WP:	0.100	Y_WP:	0.000	Y_WP:	0.500	X:	-0.006	Y:	-0.067	Z:	0.057	yaw:	-6.650	yaw rate:	7.896	Roll:	-4.336	Pitch:	-2.934	Yaw:	-8.885	Thrust:	50.613
Time:	2.542	Roll Set Point:	0.103	Pitch Set Point:	0.145	Yaw Set Point:	0.116	X_WP:	0.100	Y_WP:	0.000	Y_WP:	0.500	X:	-0.006	Y:	-0.067	Z:	0.057	yaw:	-6.645	yaw rate:	0.496	Roll:	-3.977	Pitch:	-3.208	Yaw:	-10.171	Thrust:	50.211
Time:	2.553	Roll Set Point:	0.103	Pitch Set Point:	0.145	Yaw Set Point:	0.117	X_WP:	0.100	Y_WP:	0.000	Y_WP:	0.500	X:	-0.006	Y:	-0.067	Z:	0.057	yaw:	-6.681	yaw rate:	-3.585	Roll:	-3.955	Pitch:	-3.333	Yaw:	-11.345	Thrust:	51.954
Time:	2.564	Roll Set Point:	0.103	Pitch Set Point:	0.146	Yaw Set Point:	0.120	X_WP:	0.100	Y_WP:	0.000	Y_WP:	0.500	X:	-0.006	Y:	-0.067	Z:	0.057	yaw:	-6.881	yaw rate:	-19.968	Roll:	-3.516	Pitch:	-4.025	Yaw:	-15.370	Thrust:	52.481
Time:	2.576	Roll Set Point:	0.103	Pitch Set Point:	0.145	Yaw Set Point:	0.116	X_WP:	0.100	Y_WP:	0.000	Y_WP:	0.500	X:	-0.006	Y:	-0.067	Z:	0.057	yaw:	-6.661	yaw rate:	22.022	Roll:	-4.617	Pitch:	-1.810	Yaw:	-5.278	Thrust:	51.932
Time:	2.598	Roll Set Point:	0.103	Pitch Set Point:	0.145	Yaw Set Point:	0.117	X_WP:	0.100	Y_WP:	0.000	Y_WP:	0.500	X:	-0.006	Y:	-0.066	Z:	0.057	yaw:	-6.711	yaw rate:	-4.999	Roll:	-4.149	Pitch:	-3.530	Yaw:	-11.889	Thrust:	61.283
Time:	2.611	Roll Set Point:	0.102	Pitch Set Point:	0.146	Yaw Set Point:	0.128	X_WP:	0.100	Y_WP:	0.000	Y_WP:	0.500	X:	-0.006	Y:	-0.066	Z:	0.057	yaw:	-7.332	yaw rate:	-40.550	Roll:	-4.750	Pitch:	-5.551	Yaw:	-20.361	Thrust:	78.369
Time:	2.630	Roll Set Point:	0.102	Pitch Set Point:	0.146	Yaw Set Point:	0.130	X_WP:	0.100	Y_WP:	0.000	Y_WP:	0.500	X:	-0.006	Y:	-0.066	Z:	0.057	yaw:	-7.429	yaw rate:	-9.637	Roll:	-4.758	Pitch:	-4.237	Yaw:	-13.909	Thrust:	71.954
Time:	2.641	Roll Set Point:	0.101	Pitch Set Point:	0.145	Yaw Set Point:	0.133	X_WP:	0.100	Y_WP:	0.000	Y_WP:	0.500	X:	-0.006	Y:	-0.066	Z:	0.058	yaw:	-7.638	yaw rate:	0.249	Roll:	-3.107	Pitch:	-3.209	Yaw:	-17.117	Thrust:	53.836
Time:	2.652	Roll Set Point:	0.101	Pitch Set Point:	0.146	Yaw Set Point:	0.139	X_WP:	0.100	Y_WP:	0.000	Y_WP:	0.500	X:	-0.006	Y:	-0.066	Z:	0.058	yaw:	-7.990	yaw rate:	-35.206	Roll:	-3.424	Pitch:	-5.092	Yaw:	-21.190	Thrust:	53.497
Time:	2.665	Roll Set Point:	0.100	Pitch Set Point:	0.147	Yaw Set Point:	0.148	X_WP:	0.100	Y_WP:	0.000	Y_WP:	0.500	X:	-0.006	Y:	-0.066	Z:	0.058	yaw:	-8.461	yaw rate:	-47.127	Roll:	-2.875	Pitch:	-4.867	Yaw:	-22.610	Thrust:	61.432
Time:	2.677	Roll Set Point:	0.100	Pitch Set Point:	0.146	Yaw Set Point:	0.147	X_WP:	0.100	Y_WP:	0.000	Y_WP:	0.500	X:	-0.005	Y:	-0.066	Z:	0.058	yaw:	-8.412	yaw rate:	4.920	Roll:	-4.398	Pitch:	-2.739	Yaw:	-12.211	Thrust:	56.624
Time:	2.687	Roll Set Point:	0.100	Pitch Set Point:	0.146	Yaw Set Point:	0.150	X_WP:	0.100	Y_WP:	0.000	Y_WP:	0.500	X:	-0.005	Y:	-0.065	Z:	0.059	yaw:	-8.601	yaw rate:	-18.908	Roll:	-3.442	Pitch:	-3.463	Yaw:	-18.082	Thrust:	54.634
Time:	2.700	Roll Set Point:	0.098	Pitch Set Point:	0.144	Yaw Set Point:	0.155	X_WP:	0.100	Y_WP:	0.000	Y_WP:	0.500	X:	-0.005	Y:	-0.064	Z:	0.060	yaw:	-8.867	yaw rate:	-26.638	Roll:	-2.825	Pitch:	-2.866	Yaw:	-19.484	Thrust:	59.043
Time:	2.712	Roll Set Point:	0.097	Pitch Set Point:	0.143	Yaw Set Point:	0.157	X_WP:	0.100	Y_WP:	0.000	Y_WP:	0.500	X:	-0.004	Y:	-0.064	Z:	0.061	yaw:	-8.986	yaw rate:	-11.855	Roll:	-3.166	Pitch:	-2.787	Yaw:	-16.809	Thrust:	56.798
Time:	2.724	Roll Set Point:	0.097	Pitch Set Point:	0.143	Yaw Set Point:	0.160	X_WP:	0.100	Y_WP:	0.000	Y_WP:	0.500	X:	-0.004	Y:	-0.064	Z:	0.061	yaw:	-9.154	yaw rate:	-16.801	Roll:	-3.100	Pitch:	-3.129	Yaw:	-18.109	Thrust:	59.131
Time:	2.738	Roll Set Point:	0.095	Pitch Set Point:	0.142	Yaw Set Point:	0.160	X_WP:	0.100	Y_WP:	0.000	Y_WP:	0.500	X:	-0.003	Y:	-0.063	Z:	0.062	yaw:	-9.188	yaw rate:	-3.385	Roll:	-3.855	Pitch:	-2.971	Yaw:	-15.476	Thrust:	66.821
Time:	2.749	Roll Set Point:	0.093	Pitch Set Point:	0.138	Yaw Set Point:	0.163	X_WP:	0.100	Y_WP:	0.000	Y_WP:	0.500	X:	-0.002	Y:	-0.061	Z:	0.063	yaw:	-9.319	yaw rate:	-1.105	Roll:	-1.609	Pitch:	0.003	Yaw:	-17.742	Thrust:	53.645
Time:	2.763	Roll Set Point:	0.092	Pitch Set Point:	0.136	Yaw Set Point:	0.163	X_WP:	0.100	Y_WP:	0.000	Y_WP:	0.500	X:	-0.002	Y:	-0.060	Z:	0.064	yaw:	-9.364	yaw rate:	-4.414	Roll:	-3.440	Pitch:	-1.976	Yaw:	-15.946	Thrust:	65.042
Time:	2.775	Roll Set Point:	0.090	Pitch Set Point:	0.134	Yaw Set Point:	0.163	X_WP:	0.100	Y_WP:	0.000	Y_WP:	0.500	X:	-0.001	Y:	-0.059	Z:	0.065	yaw:	-9.341	yaw rate:	2.229	Roll:	-3.115	Pitch:	-1.257	Yaw:	-14.392	Thrust:	60.728
Time:	2.786	Roll Set Point:	0.088	Pitch Set Point:	0.132	Yaw Set Point:	0.163	X_WP:	0.100	Y_WP:	0.000	Y_WP:	0.500	X:	0.001	Y:	-0.058	Z:	0.065	yaw:	-9.365	yaw rate:	-2.419	Roll:	-2.070	Pitch:	-0.675	Yaw:	-15.367	Thrust:	57.622
Time:	2.798	Roll Set Point:	0.083	Pitch Set Point:	0.126	Yaw Set Point:	0.161	X_WP:	0.100	Y_WP:	0.000	Y_WP:	0.500	X:	0.003	Y:	-0.055	Z:	0.067	yaw:	-9.210	yaw rate:	15.583	Roll:	-0.180	Pitch:	3.123	Yaw:	-11.597	Thrust:	60.552
Time:	2.809	Roll Set Point:	0.080	Pitch Set Point:	0.122	Yaw Set Point:	0.156	X_WP:	0.100	Y_WP:	0.000	Y_WP:	0.500	X:	0.005	Y:	-0.054	Z:	0.068	yaw:	-8.940	yaw rate:	26.941	Roll:	-1.902	Pitch:	2.209	Yaw:	-7.878	Thrust:	58.196
Time:	2.821	Roll Set Point:	0.078	Pitch Set Point:	0.118	Yaw Set Point:	0.153	X_WP:	0.100	Y_WP:	0.000	Y_WP:	0.500	X:	0.007	Y:	-0.052	Z:	0.069	yaw:	-8.792	yaw rate:	14.841	Roll:	-1.912	Pitch:	0.859	Yaw:	-10.937	Thrust:	61.587
Time:	2.833	Roll Set Point:	0.074	Pitch Set Point:	0.114	Yaw Set Point:	0.154	X_WP:	0.100	Y_WP:	0.000	Y_WP:	0.500	X:	0.009	Y:	-0.050	Z:	0.070	yaw:	-8.827	yaw rate:	-3.546	Roll:	-0.508	Pitch:	0.941	Yaw:	-15.022	Thrust:	59.547
Time:	2.844	Roll Set Point:	0.071	Pitch Set Point:	0.110	Yaw Set Point:	0.151	X_WP:	0.100	Y_WP:	0.000	Y_WP:	0.500	X:	0.010	Y:	-0.049	Z:	0.071	yaw:	-8.642	yaw rate:	18.557	Roll:	-1.002	Pitch:	2.338	Yaw:	-9.829	Thrust:	59.498
Time:	2.855	Roll Set Point:	0.067	Pitch Set Point:	0.105	Yaw Set Point:	0.147	X_WP:	0.100	Y_WP:	0.000	Y_WP:	0.500	X:	0.013	Y:	-0.047	Z:	0.071	yaw:	-8.425	yaw rate:	21.649	Roll:	-0.770	Pitch:	2.406	Yaw:	-8.548	Thrust:	62.814
Time:	2.866	Roll Set Point:	0.063	Pitch Set Point:	0.101	Yaw Set Point:	0.144	X_WP:	0.100	Y_WP:	0.000	Y_WP:	0.500	X:	0.015	Y:	-0.044	Z:	0.072	yaw:	-8.230	yaw rate:	19.483	Roll:	-0.463	Pitch:	2.543	Yaw:	-9.113	Thrust:	62.933
Time:	2.878	Roll Set Point:	0.059	Pitch Set Point:	0.095	Yaw Set Point:	0.137	X_WP:	0.100	Y_WP:	0.000	Y_WP:	0.500	X:	0.017	Y:	-0.042	Z:	0.073	yaw:	-7.858	yaw rate:	37.241	Roll:	-0.590	Pitch:	4.128	Yaw:	-4.498	Thrust:	63.000
Time:	2.888	Roll Set Point:	0.055	Pitch Set Point:	0.090	Yaw Set Point:	0.136	X_WP:	0.100	Y_WP:	0.000	Y_WP:	0.500	X:	0.019	Y:	-0.040	Z:	0.074	yaw:	-7.797	yaw rate:	6.127	Roll:	0.603	Pitch:	2.762	Yaw:	-11.289	Thrust:	60.665
Time:	2.899	Roll Set Point:	0.050	Pitch Set Point:	0.085	Yaw Set Point:	0.129	X_WP:	0.100	Y_WP:	0.000	Y_WP:	0.500	X:	0.022	Y:	-0.037	Z:	0.075	yaw:	-7.365	yaw rate:	43.182	Roll:	0.426	Pitch:	4.755	Yaw:	-2.081	Thrust:	63.250
Time:	2.911	Roll Set Point:	0.046	Pitch Set Point:	0.080	Yaw Set Point:	0.128	X_WP:	0.100	Y_WP:	0.000	Y_WP:	0.500	X:	0.024	Y:	-0.035	Z:	0.075	yaw:	-7.309	yaw rate:	5.624	Roll:	0.410	Pitch:	3.206	Yaw:	-11.098	Thrust:	62.874
Time:	2.921	Roll Set Point:	0.036	Pitch Set Point:	0.068	Yaw Set Point:	0.115	X_WP:	0.100	Y_WP:	0.000	Y_WP:	0.500	X:	0.030	Y:	-0.030	Z:	0.077	yaw:	-6.567	yaw rate:	74.172	Roll:	6.876	Pitch:	13.199	Yaw:	8.240	Thrust:	58.986
Time:	2.933	Roll Set Point:	0.031	Pitch Set Point:	0.062	Yaw Set Point:	0.110	X_WP:	0.100	Y_WP:	0.000	Y_WP:	0.500	X:	0.033	Y:	-0.027	Z:	0.078	yaw:	-6.288	yaw rate:	27.880	Roll:	1.452	Pitch:	4.672	Yaw:	-4.298	Thrust:	64.254
Time:	2.943	Roll Set Point:	0.026	Pitch Set Point:	0.057	Yaw Set Point:	0.109	X_WP:	0.100	Y_WP:	0.000	Y_WP:	0.500	X:	0.036	Y:	-0.025	Z:	0.078	yaw:	-6.220	yaw rate:	6.811	Roll:	1.762	Pitch:	3.747	Yaw:	-9.390	Thrust:	66.765
Time:	2.954	Roll Set Point:	0.020	Pitch Set Point:	0.051	Yaw Set Point:	0.102	X_WP:	0.100	Y_WP:	0.000	Y_WP:	0.500	X:	0.039	Y:	-0.022	Z:	0.079	yaw:	-5.861	yaw rate:	35.939	Roll:	2.355	Pitch:	5.677	Yaw:	-1.824	Thrust:	65.719
Time:	2.965	Roll Set Point:	0.014	Pitch Set Point:	0.044	Yaw Set Point:	0.097	X_WP:	0.100	Y_WP:	0.000	Y_WP:	0.500	X:	0.042	Y:	-0.019	Z:	0.080	yaw:	-5.575	yaw rate:	28.564	Roll:	2.753	Pitch:	5.850	Yaw:	-2.781	Thrust:	63.585
Time:	2.977	Roll Set Point:	0.008	Pitch Set Point:	0.038	Yaw Set Point:	0.092	X_WP:	0.100	Y_WP:	0.000	Y_WP:	0.500	X:	0.045	Y:	-0.017	Z:	0.081	yaw:	-5.278	yaw rate:	29.688	Roll:	2.340	Pitch:	4.584	Yaw:	-3.024	Thrust:	69.340
Time:	2.988	Roll Set Point:	-0.004	Pitch Set Point:	0.025	Yaw Set Point:	0.081	X_WP:	0.100	Y_WP:	0.000	Y_WP:	0.500	X:	0.051	Y:	-0.011	Z:	0.083	yaw:	-4.631	yaw rate:	39.738	Roll:	8.525	Pitch:	13.322	Yaw:	6.459	Thrust:	63.298
Time:	2.999	Roll Set Point:	-0.011	Pitch Set Point:	0.019	Yaw Set Point:	0.070	X_WP:	0.100	Y_WP:	0.000	Y_WP:	0.500	X:	0.055	Y:	-0.008	Z:	0.083	yaw:	-4.029	yaw rate:	60.203	Roll:	3.764	Pitch:	6.551	Yaw:	6.458	Thrust:	67.487
Time:	3.010	Roll Set Point:	-0.017	Pitch Set Point:	0.013	Yaw Set Point:	0.070	X_WP:	0.100	Y_WP:	0.000	Y_WP:	0.500	X:	0.058	Y:	-0.005	Z:	0.084	yaw:	-3.989	yaw rate:	4.060	Roll:	3.277	Pitch:	5.006	Yaw:	-6.955	Thrust:	69.663
Time:	3.021	Roll Set Point:	-0.023	Pitch Set Point:	0.006	Yaw Set Point:	0.062	X_WP:	0.100	Y_WP:	0.000	Y_WP:	0.500	X:	0.061	Y:	-0.002	Z:	0.085	yaw:	-3.526	yaw rate:	46.296	Roll:	3.614	Pitch:	6.171	Yaw:	4.300	Thrust:	66.553
Time:	3.032	Roll Set Point:	-0.029	Pitch Set Point:	-0.000	Yaw Set Point:	0.056	X_WP:	0.100	Y_WP:	0.000	Y_WP:	0.500	X:	0.065	Y:	0.001	Z:	0.086	yaw:	-3.197	yaw rate:	32.906	Roll:	3.801	Pitch:	5.946	Yaw:	1.141	Thrust:	68.552
Time:	3.044	Roll Set Point:	-0.036	Pitch Set Point:	-0.007	Yaw Set Point:	0.044	X_WP:	0.100	Y_WP:	0.000	Y_WP:	0.500	X:	0.068	Y:	0.004	Z:	0.087	yaw:	-2.525	yaw rate:	67.178	Roll:	4.504	Pitch:	6.079	Yaw:	9.413	Thrust:	71.429
Time:	3.055	Roll Set Point:	-0.042	Pitch Set Point:	-0.012	Yaw Set Point:	0.044	X_WP:	0.100	Y_WP:	0.000	Y_WP:	0.500	X:	0.071	Y:	0.007	Z:	0.088	yaw:	-2.524	yaw rate:	0.069	Roll:	3.568	Pitch:	5.700	Yaw:	-5.714	Thrust:	69.038
Time:	3.066	Roll Set Point:	-0.049	Pitch Set Point:	-0.019	Yaw Set Point:	0.036	X_WP:	0.100	Y_WP:	0.000	Y_WP:	0.500	X:	0.075	Y:	0.010	Z:	0.089	yaw:	-2.087	yaw rate:	43.672	Roll:	4.759	Pitch:	6.215	Yaw:	5.246	Thrust:	69.518
Time:	3.077	Roll Set Point:	-0.055	Pitch Set Point:	-0.025	Yaw Set Point:	0.030	X_WP:	0.100	Y_WP:	0.000	Y_WP:	0.500	X:	0.078	Y:	0.013	Z:	0.090	yaw:	-1.743	yaw rate:	34.474	Roll:	4.549	Pitch:	5.858	Yaw:	3.538	Thrust:	69.492
Time:	3.088	Roll Set Point:	-0.062	Pitch Set Point:	-0.030	Yaw Set Point:	0.030	X_WP:	0.100	Y_WP:	0.000	Y_WP:	0.500	X:	0.081	Y:	0.015	Z:	0.091	yaw:	-1.728	yaw rate:	1.491	Roll:	3.998	Pitch:	4.735	Yaw:	-4.293	Thrust:	70.183
Time:	3.099	Roll Set Point:	-0.069	Pitch Set Point:	-0.036	Yaw Set Point:	0.020	X_WP:	0.100	Y_WP:	0.000	Y_WP:	0.500	X:	0.084	Y:	0.018	Z:	0.092	yaw:	-1.150	yaw rate:	57.778	Roll:	5.248	Pitch:	6.222	Yaw:	9.902	Thrust:	69.555
Time:	3.111	Roll Set Point:	-0.082	Pitch Set Point:	-0.047	Yaw Set Point:	0.015	X_WP:	0.100	Y_WP:	0.000	Y_WP:	0.500	X:	0.091	Y:	0.024	Z:	0.095	yaw:	-0.857	yaw rate:	29.295	Roll:	12.342	Pitch:	11.062	Yaw:	3.147	Thrust:	66.221
Time:	3.123	Roll Set Point:	-0.088	Pitch Set Point:	-0.053	Yaw Set Point:	0.010	X_WP:	0.100	Y_WP:	0.000	Y_WP:	0.500	X:	0.094	Y:	0.027	Z:	0.097	yaw:	-0.553	yaw rate:	30.355	Roll:	4.390	Pitch:	5.079	Yaw:	3.708	Thrust:	72.450
Time:	3.133	Roll Set Point:	-0.095	Pitch Set Point:	-0.058	Yaw Set Point:	0.005	X_WP:	0.100	Y_WP:	0.000	Y_WP:	0.500	X:	0.098	Y:	0.029	Z:	0.099	yaw:	-0.303	yaw rate:	25.011	Roll:	5.478	Pitch:	5.325	Yaw:	3.308	Thrust:	68.954
Time:	3.145	Roll Set Point:	-0.102	Pitch Set Point:	-0.064	Yaw Set Point:	-0.002	X_WP:	0.100	Y_WP:	0.000	Y_WP:	0.500	X:	0.101	Y:	0.032	Z:	0.101	yaw:	0.087	yaw rate:	39.046	Roll:	5.452	Pitch:	5.101	Yaw:	6.209	Thrust:	74.280
Time:	3.157	Roll Set Point:	-0.108	Pitch Set Point:	-0.069	Yaw Set Point:	-0.006	X_WP:	0.100	Y_WP:	0.000	Y_WP:	0.500	X:	0.104	Y:	0.035	Z:	0.103	yaw:	0.330	yaw rate:	24.242	Roll:	5.281	Pitch:	5.072	Yaw:	3.658	Thrust:	71.410
Time:	3.172	Roll Set Point:	-0.115	Pitch Set Point:	-0.074	Yaw Set Point:	-0.006	X_WP:	0.100	Y_WP:	0.000	Y_WP:	0.500	X:	0.107	Y:	0.037	Z:	0.105	yaw:	0.341	yaw rate:	1.195	Roll:	2.263	Pitch:	2.946	Yaw:	-2.322	Thrust:	91.202
Time:	3.183	Roll Set Point:	-0.128	Pitch Set Point:	-0.084	Yaw Set Point:	-0.016	X_WP:	0.100	Y_WP:	0.000	Y_WP:	0.500	X:	0.114	Y:	0.042	Z:	0.110	yaw:	0.901	yaw rate:	38.304	Roll:	13.762	Pitch:	10.836	Yaw:	11.665	Thrust:	58.365
Time:	3.196	Roll Set Point:	-0.140	Pitch Set Point:	-0.093	Yaw Set Point:	-0.022	X_WP:	0.100	Y_WP:	0.000	Y_WP:	0.500	X:	0.120	Y:	0.047	Z:	0.115	yaw:	1.244	yaw rate:	34.300	Roll:	12.985	Pitch:	9.652	Yaw:	7.190	Thrust:	63.580
Time:	3.207	Roll Set Point:	-0.146	Pitch Set Point:	-0.097	Yaw Set Point:	-0.020	X_WP:	0.100	Y_WP:	0.000	Y_WP:	0.500	X:	0.123	Y:	0.049	Z:	0.118	yaw:	1.173	yaw rate:	-7.079	Roll:	4.200	Pitch:	3.608	Yaw:	-2.296	Thrust:	70.374
Time:	3.218	Roll Set Point:	-0.152	Pitch Set Point:	-0.101	Yaw Set Point:	-0.023	X_WP:	0.100	Y_WP:	0.000	Y_WP:	0.500	X:	0.126	Y:	0.051	Z:	0.121	yaw:	1.303	yaw rate:	12.986	Roll:	5.696	Pitch:	4.568	Yaw:	2.712	Thrust:	70.234
Time:	3.231	Roll Set Point:	-0.159	Pitch Set Point:	-0.105	Yaw Set Point:	-0.027	X_WP:	0.100	Y_WP:	0.000	Y_WP:	0.500	X:	0.129	Y:	0.053	Z:	0.124	yaw:	1.534	yaw rate:	23.098	Roll:	4.945	Pitch:	3.696	Yaw:	4.183	Thrust:	72.882
Time:	3.241	Roll Set Point:	-0.164	Pitch Set Point:	-0.109	Yaw Set Point:	-0.025	X_WP:	0.100	Y_WP:	0.000	Y_WP:	0.500	X:	0.132	Y:	0.055	Z:	0.127	yaw:	1.453	yaw rate:	-8.152	Roll:	5.366	Pitch:	4.317	Yaw:	-2.079	Thrust:	70.269
Time:	3.252	Roll Set Point:	-0.170	Pitch Set Point:	-0.113	Yaw Set Point:	-0.026	X_WP:	0.100	Y_WP:	0.000	Y_WP:	0.500	X:	0.134	Y:	0.057	Z:	0.130	yaw:	1.463	yaw rate:	1.081	Roll:	5.684	Pitch:	4.515	Yaw:	0.126	Thrust:	65.914
Time:	3.264	Roll Set Point:	-0.176	Pitch Set Point:	-0.116	Yaw Set Point:	-0.027	X_WP:	0.100	Y_WP:	0.000	Y_WP:	0.500	X:	0.137	Y:	0.059	Z:	0.134	yaw:	1.567	yaw rate:	10.362	Roll:	5.297	Pitch:	3.361	Yaw:	2.274	Thrust:	68.699
Time:	3.275	Roll Set Point:	-0.182	Pitch Set Point:	-0.120	Yaw Set Point:	-0.028	X_WP:	0.100	Y_WP:	0.000	Y_WP:	0.500	X:	0.140	Y:	0.061	Z:	0.137	yaw:	1.587	yaw rate:	1.986	Roll:	5.854	Pitch:	4.215	Yaw:	0.502	Thrust:	66.715
Time:	3.286	Roll Set Point:	-0.188	Pitch Set Point:	-0.123	Yaw Set Point:	-0.029	X_WP:	0.100	Y_WP:	0.000	Y_WP:	0.500	X:	0.143	Y:	0.062	Z:	0.141	yaw:	1.646	yaw rate:	5.902	Roll:	5.748	Pitch:	4.112	Yaw:	1.542	Thrust:	65.148
Time:	3.297	Roll Set Point:	-0.193	Pitch Set Point:	-0.126	Yaw Set Point:	-0.030	X_WP:	0.100	Y_WP:	0.000	Y_WP:	0.500	X:	0.146	Y:	0.064	Z:	0.145	yaw:	1.730	yaw rate:	8.396	Roll:	6.095	Pitch:	3.071	Yaw:	2.259	Thrust:	64.311
Time:	3.309	Roll Set Point:	-0.199	Pitch Set Point:	-0.129	Yaw Set Point:	-0.031	X_WP:	0.100	Y_WP:	0.000	Y_WP:	0.500	X:	0.148	Y:	0.065	Z:	0.149	yaw:	1.752	yaw rate:	2.172	Roll:	5.014	Pitch:	3.470	Yaw:	0.697	Thrust:	68.238
Time:	3.320	Roll Set Point:	-0.209	Pitch Set Point:	-0.134	Yaw Set Point:	-0.032	X_WP:	0.100	Y_WP:	0.000	Y_WP:	0.500	X:	0.154	Y:	0.068	Z:	0.157	yaw:	1.823	yaw rate:	7.186	Roll:	12.054	Pitch:	6.253	Yaw:	2.117	Thrust:	46.484
Time:	3.330	Roll Set Point:	-0.215	Pitch Set Point:	-0.137	Yaw Set Point:	-0.031	X_WP:	0.100	Y_WP:	0.000	Y_WP:	0.500	X:	0.156	Y:	0.069	Z:	0.162	yaw:	1.800	yaw rate:	-2.301	Roll:	5.711	Pitch:	3.433	Yaw:	-0.092	Thrust:	59.572
Time:	3.342	Roll Set Point:	-0.220	Pitch Set Point:	-0.139	Yaw Set Point:	-0.033	X_WP:	0.100	Y_WP:	0.000	Y_WP:	0.500	X:	0.159	Y:	0.070	Z:	0.166	yaw:	1.878	yaw rate:	7.760	Roll:	5.418	Pitch:	2.908	Yaw:	2.165	Thrust:	67.097
Time:	3.353	Roll Set Point:	-0.225	Pitch Set Point:	-0.141	Yaw Set Point:	-0.032	X_WP:	0.100	Y_WP:	0.000	Y_WP:	0.500	X:	0.161	Y:	0.071	Z:	0.171	yaw:	1.844	yaw rate:	-3.400	Roll:	5.990	Pitch:	3.098	Yaw:	-0.347	Thrust:	62.857
Time:	3.364	Roll Set Point:	-0.230	Pitch Set Point:	-0.143	Yaw Set Point:	-0.033	X_WP:	0.100	Y_WP:	0.000	Y_WP:	0.500	X:	0.164	Y:	0.073	Z:	0.175	yaw:	1.889	yaw rate:	4.499	Roll:	5.356	Pitch:	2.657	Yaw:	1.455	Thrust:	66.513
Time:	3.375	Roll Set Point:	-0.235	Pitch Set Point:	-0.145	Yaw Set Point:	-0.037	X_WP:	0.100	Y_WP:	0.000	Y_WP:	0.500	X:	0.166	Y:	0.074	Z:	0.180	yaw:	2.135	yaw rate:	24.578	Roll:	6.495	Pitch:	2.609	Yaw:	6.711	Thrust:	59.114
Time:	3.386	Roll Set Point:	-0.240	Pitch Set Point:	-0.147	Yaw Set Point:	-0.033	X_WP:	0.100	Y_WP:	0.000	Y_WP:	0.500	X:	0.169	Y:	0.074	Z:	0.185	yaw:	1.912	yaw rate:	-22.283	Roll:	5.235	Pitch:	3.006	Yaw:	-4.869	Thrust:	63.305
Time:	3.398	Roll Set Point:	-0.249	Pitch Set Point:	-0.150	Yaw Set Point:	-0.037	X_WP:	0.100	Y_WP:	0.000	Y_WP:	0.500	X:	0.173	Y:	0.076	Z:	0.194	yaw:	2.108	yaw rate:	23.112	Roll:	11.197	Pitch:	3.912	Yaw:	5.086	Thrust:	41.854
Time:	3.408	Roll Set Point:	-0.254	Pitch Set Point:	-0.151	Yaw Set Point:	-0.035	X_WP:	0.100	Y_WP:	0.000	Y_WP:	0.500	X:	0.175	Y:	0.077	Z:	0.198	yaw:	2.018	yaw rate:	-9.015	Roll:	4.921	Pitch:	2.370	Yaw:	-1.406	Thrust:	67.286
Time:	3.419	Roll Set Point:	-0.258	Pitch Set Point:	-0.152	Yaw Set Point:	-0.036	X_WP:	0.100	Y_WP:	0.000	Y_WP:	0.500	X:	0.178	Y:	0.077	Z:	0.203	yaw:	2.047	yaw rate:	2.854	Roll:	5.406	Pitch:	1.991	Yaw:	1.466	Thrust:	63.799
Time:	3.430	Roll Set Point:	-0.262	Pitch Set Point:	-0.153	Yaw Set Point:	-0.036	X_WP:	0.100	Y_WP:	0.000	Y_WP:	0.500	X:	0.180	Y:	0.078	Z:	0.207	yaw:	2.060	yaw rate:	1.315	Roll:	5.441	Pitch:	2.122	Yaw:	1.126	Thrust:	64.486
Time:	3.442	Roll Set Point:	-0.266	Pitch Set Point:	-0.154	Yaw Set Point:	-0.036	X_WP:	0.100	Y_WP:	0.000	Y_WP:	0.500	X:	0.182	Y:	0.078	Z:	0.212	yaw:	2.077	yaw rate:	1.754	Roll:	5.187	Pitch:	1.871	Yaw:	1.152	Thrust:	68.628
Time:	3.453	Roll Set Point:	-0.271	Pitch Set Point:	-0.155	Yaw Set Point:	-0.037	X_WP:	0.100	Y_WP:	0.000	Y_WP:	0.500	X:	0.184	Y:	0.079	Z:	0.216	yaw:	2.101	yaw rate:	2.330	Roll:	5.495	Pitch:	2.035	Yaw:	1.441	Thrust:	64.486
Time:	3.465	Roll Set Point:	-0.275	Pitch Set Point:	-0.155	Yaw Set Point:	-0.041	X_WP:	0.100	Y_WP:	0.000	Y_WP:	0.500	X:	0.186	Y:	0.079	Z:	0.220	yaw:	2.321	yaw rate:	22.036	Roll:	5.144	Pitch:	1.105	Yaw:	5.814	Thrust:	73.384
Time:	3.476	Roll Set Point:	-0.281	Pitch Set Point:	-0.157	Yaw Set Point:	-0.036	X_WP:	0.100	Y_WP:	0.000	Y_WP:	0.500	X:	0.189	Y:	0.080	Z:	0.229	yaw:	2.089	yaw rate:	-23.171	Roll:	8.438	Pitch:	2.713	Yaw:	-4.609	Thrust:	47.655
Time:	3.489	Roll Set Point:	-0.285	Pitch Set Point:	-0.157	Yaw Set Point:	-0.042	X_WP:	0.100	Y_WP:	0.000	Y_WP:	0.500	X:	0.191	Y:	0.080	Z:	0.233	yaw:	2.396	yaw rate:	30.698	Roll:	5.404	Pitch:	0.672	Yaw:	6.794	Thrust:	77.179
Time:	3.500	Roll Set Point:	-0.289	Pitch Set Point:	-0.157	Yaw Set Point:	-0.038	X_WP:	0.100	Y_WP:	0.000	Y_WP:	0.500	X:	0.193	Y:	0.081	Z:	0.238	yaw:	2.191	yaw rate:	-20.536	Roll:	3.524	Pitch:	1.886	Yaw:	-3.827	Thrust:	73.476
Time:	3.512	Roll Set Point:	-0.292	Pitch Set Point:	-0.158	Yaw Set Point:	-0.039	X_WP:	0.100	Y_WP:	0.000	Y_WP:	0.500	X:	0.194	Y:	0.081	Z:	0.242	yaw:	2.214	yaw rate:	2.276	Roll:	4.845	Pitch:	1.277	Yaw:	1.513	Thrust:	69.595
Time:	3.524	Roll Set Point:	-0.295	Pitch Set Point:	-0.158	Yaw Set Point:	-0.042	X_WP:	0.100	Y_WP:	0.000	Y_WP:	0.500	X:	0.196	Y:	0.081	Z:	0.246	yaw:	2.391	yaw rate:	17.752	Roll:	5.315	Pitch:	0.931	Yaw:	5.284	Thrust:	62.143
Time:	3.537	Roll Set Point:	-0.298	Pitch Set Point:	-0.158	Yaw Set Point:	-0.042	X_WP:	0.100	Y_WP:	0.000	Y_WP:	0.500	X:	0.197	Y:	0.081	Z:	0.250	yaw:	2.403	yaw rate:	1.211	Roll:	3.674	Pitch:	1.004	Yaw:	1.253	Thrust:	88.475
Time:	3.548	Roll Set Point:	-0.301	Pitch Set Point:	-0.158	Yaw Set Point:	-0.041	X_WP:	0.100	Y_WP:	0.000	Y_WP:	0.500	X:	0.199	Y:	0.081	Z:	0.255	yaw:	2.331	yaw rate:	-7.229	Roll:	4.562	Pitch:	1.846	Yaw:	-0.452	Thrust:	66.043
Time:	3.562	Roll Set Point:	-0.304	Pitch Set Point:	-0.158	Yaw Set Point:	-0.038	X_WP:	0.100	Y_WP:	0.000	Y_WP:	0.500	X:	0.200	Y:	0.081	Z:	0.259	yaw:	2.170	yaw rate:	-16.116	Roll:	3.228	Pitch:	1.386	Yaw:	-2.531	Thrust:	84.731
Time:	3.575	Roll Set Point:	-0.309	Pitch Set Point:	-0.158	Yaw Set Point:	-0.037	X_WP:	0.100	Y_WP:	0.000	Y_WP:	0.500	X:	0.203	Y:	0.081	Z:	0.268	yaw:	2.124	yaw rate:	-3.845	Roll:	5.715	Pitch:	0.919	Yaw:	-0.387	Thrust:	68.417
Time:	3.586	Roll Set Point:	-0.313	Pitch Set Point:	-0.158	Yaw Set Point:	-0.037	X_WP:	0.100	Y_WP:	0.000	Y_WP:	0.500	X:	0.205	Y:	0.081	Z:	0.278	yaw:	2.132	yaw rate:	0.812	Roll:	6.428	Pitch:	0.626	Yaw:	1.220	Thrust:	47.900
Time:	3.598	Roll Set Point:	-0.315	Pitch Set Point:	-0.157	Yaw Set Point:	-0.037	X_WP:	0.100	Y_WP:	0.000	Y_WP:	0.500	X:	0.206	Y:	0.081	Z:	0.284	yaw:	2.105	yaw rate:	-2.684	Roll:	3.414	Pitch:	0.905	Yaw:	0.259	Thrust:	68.815
Time:	3.610	Roll Set Point:	-0.317	Pitch Set Point:	-0.157	Yaw Set Point:	-0.037	X_WP:	0.100	Y_WP:	0.000	Y_WP:	0.500	X:	0.207	Y:	0.081	Z:	0.289	yaw:	2.145	yaw rate:	4.023	Roll:	3.938	Pitch:	0.824	Yaw:	1.886	Thrust:	61.145
Time:	3.620	Roll Set Point:	-0.319	Pitch Set Point:	-0.157	Yaw Set Point:	-0.036	X_WP:	0.100	Y_WP:	0.000	Y_WP:	0.500	X:	0.208	Y:	0.080	Z:	0.295	yaw:	2.082	yaw rate:	-6.335	Roll:	3.755	Pitch:	1.030	Yaw:	-0.506	Thrust:	60.196
Time:	3.631	Roll Set Point:	-0.320	Pitch Set Point:	-0.156	Yaw Set Point:	-0.037	X_WP:	0.100	Y_WP:	0.000	Y_WP:	0.500	X:	0.209	Y:	0.080	Z:	0.300	yaw:	2.124	yaw rate:	4.181	Roll:	3.498	Pitch:	0.643	Yaw:	2.010	Thrust:	60.118
Time:	3.643	Roll Set Point:	-0.322	Pitch Set Point:	-0.156	Yaw Set Point:	-0.036	X_WP:	0.100	Y_WP:	0.000	Y_WP:	0.500	X:	0.209	Y:	0.080	Z:	0.306	yaw:	2.058	yaw rate:	-6.593	Roll:	3.412	Pitch:	0.984	Yaw:	-0.620	Thrust:	62.880
Time:	3.654	Roll Set Point:	-0.323	Pitch Set Point:	-0.155	Yaw Set Point:	-0.037	X_WP:	0.100	Y_WP:	0.000	Y_WP:	0.500	X:	0.210	Y:	0.080	Z:	0.312	yaw:	2.101	yaw rate:	4.274	Roll:	3.493	Pitch:	0.600	Yaw:	2.046	Thrust:	53.525
Time:	3.665	Roll Set Point:	-0.324	Pitch Set Point:	-0.154	Yaw Set Point:	-0.036	X_WP:	0.100	Y_WP:	0.000	Y_WP:	0.500	X:	0.211	Y:	0.079	Z:	0.319	yaw:	2.078	yaw rate:	-2.226	Roll:	3.180	Pitch:	0.806	Yaw:	0.480	Thrust:	61.960
Time:	3.676	Roll Set Point:	-0.325	Pitch Set Point:	-0.154	Yaw Set Point:	-0.036	X_WP:	0.100	Y_WP:	0.000	Y_WP:	0.500	X:	0.211	Y:	0.079	Z:	0.325	yaw:	2.050	yaw rate:	-2.865	Roll:	3.141	Pitch:	0.795	Yaw:	0.296	Thrust:	57.177
Time:	3.686	Roll Set Point:	-0.327	Pitch Set Point:	-0.153	Yaw Set Point:	-0.034	X_WP:	0.100	Y_WP:	0.000	Y_WP:	0.500	X:	0.212	Y:	0.078	Z:	0.338	yaw:	1.946	yaw rate:	-10.382	Roll:	3.721	Pitch:	0.303	Yaw:	-1.657	Thrust:	24.251
Time:	3.700	Roll Set Point:	-0.327	Pitch Set Point:	-0.152	Yaw Set Point:	-0.035	X_WP:	0.100	Y_WP:	0.000	Y_WP:	0.500	X:	0.212	Y:	0.078	Z:	0.344	yaw:	2.034	yaw rate:	8.793	Roll:	2.804	Pitch:	0.248	Yaw:	2.301	Thrust:	67.666
Time:	3.713	Roll Set Point:	-0.328	Pitch Set Point:	-0.151	Yaw Set Point:	-0.033	X_WP:	0.100	Y_WP:	0.000	Y_WP:	0.500	X:	0.213	Y:	0.078	Z:	0.351	yaw:	1.893	yaw rate:	-14.046	Roll:	2.099	Pitch:	1.092	Yaw:	-2.358	Thrust:	81.497
Time:	3.732	Roll Set Point:	-0.328	Pitch Set Point:	-0.150	Yaw Set Point:	-0.034	X_WP:	0.100	Y_WP:	0.000	Y_WP:	0.500	X:	0.213	Y:	0.077	Z:	0.357	yaw:	1.946	yaw rate:	5.237	Roll:	1.685	Pitch:	0.353	Yaw:	0.232	Thrust:	100.000
Time:	3.744	Roll Set Point:	-0.329	Pitch Set Point:	-0.148	Yaw Set Point:	-0.033	X_WP:	0.100	Y_WP:	0.000	Y_WP:	0.500	X:	0.213	Y:	0.076	Z:	0.376	yaw:	1.909	yaw rate:	-0.580	Roll:	3.151	Pitch:	-1.010	Yaw:	-0.090	Thrust:	11.305
Time:	3.758	Roll Set Point:	-0.329	Pitch Set Point:	-0.147	Yaw Set Point:	-0.034	X_WP:	0.100	Y_WP:	0.000	Y_WP:	0.500	X:	0.213	Y:	0.076	Z:	0.382	yaw:	1.942	yaw rate:	3.283	Roll:	2.248	Pitch:	0.474	Yaw:	1.089	Thrust:	77.671
Time:	3.774	Roll Set Point:	-0.330	Pitch Set Point:	-0.146	Yaw Set Point:	-0.036	X_WP:	0.100	Y_WP:	0.000	Y_WP:	0.500	X:	0.213	Y:	0.075	Z:	0.388	yaw:	2.050	yaw rate:	10.762	Roll:	2.196	Pitch:	0.323	Yaw:	1.795	Thrust:	100.000
Time:	3.785	Roll Set Point:	-0.329	Pitch Set Point:	-0.146	Yaw Set Point:	-0.033	X_WP:	0.100	Y_WP:	0.000	Y_WP:	0.500	X:	0.213	Y:	0.075	Z:	0.394	yaw:	1.886	yaw rate:	-16.412	Roll:	1.587	Pitch:	0.918	Yaw:	-3.087	Thrust:	55.951
Time:	3.799	Roll Set Point:	-0.330	Pitch Set Point:	-0.145	Yaw Set Point:	-0.036	X_WP:	0.100	Y_WP:	0.000	Y_WP:	0.500	X:	0.213	Y:	0.074	Z:	0.400	yaw:	2.067	yaw rate:	18.120	Roll:	2.743	Pitch:	0.084	Yaw:	4.578	Thrust:	68.768
Time:	3.811	Roll Set Point:	-0.329	Pitch Set Point:	-0.143	Yaw Set Point:	-0.031	X_WP:	0.100	Y_WP:	0.000	Y_WP:	0.500	X:	0.213	Y:	0.073	Z:	0.412	yaw:	1.788	yaw rate:	-3.625	Roll:	0.912	Pitch:	0.431	Yaw:	-5.112	Thrust:	54.597
Time:	3.825	Roll Set Point:	-0.328	Pitch Set Point:	-0.142	Yaw Set Point:	-0.031	X_WP:	0.100	Y_WP:	0.000	Y_WP:	0.500	X:	0.213	Y:	0.073	Z:	0.419	yaw:	1.787	yaw rate:	-0.101	Roll:	2.008	Pitch:	0.599	Yaw:	0.257	Thrust:	58.099
Time:	3.837	Roll Set Point:	-0.328	Pitch Set Point:	-0.141	Yaw Set Point:	-0.030	X_WP:	0.100	Y_WP:	0.000	Y_WP:	0.500	X:	0.213	Y:	0.072	Z:	0.425	yaw:	1.743	yaw rate:	-4.400	Roll:	1.736	Pitch:	0.772	Yaw:	-0.521	Thrust:	83.202
Time:	3.849	Roll Set Point:	-0.327	Pitch Set Point:	-0.141	Yaw Set Point:	-0.031	X_WP:	0.100	Y_WP:	0.000	Y_WP:	0.500	X:	0.213	Y:	0.072	Z:	0.431	yaw:	1.757	yaw rate:	1.387	Roll:	2.043	Pitch:	0.398	Yaw:	0.897	Thrust:	53.381
Time:	3.863	Roll Set Point:	-0.327	Pitch Set Point:	-0.139	Yaw Set Point:	-0.033	X_WP:	0.100	Y_WP:	0.000	Y_WP:	0.500	X:	0.212	Y:	0.071	Z:	0.444	yaw:	1.909	yaw rate:	15.231	Roll:	1.907	Pitch:	-0.678	Yaw:	3.614	Thrust:	44.552
Time:	3.875	Roll Set Point:	-0.325	Pitch Set Point:	-0.137	Yaw Set Point:	-0.030	X_WP:	0.100	Y_WP:	0.000	Y_WP:	0.500	X:	0.211	Y:	0.070	Z:	0.456	yaw:	1.746	yaw rate:	3.800	Roll:	0.682	Pitch:	0.331	Yaw:	-2.953	Thrust:	58.837
Time:	3.886	Roll Set Point:	-0.325	Pitch Set Point:	-0.137	Yaw Set Point:	-0.033	X_WP:	0.100	Y_WP:	0.000	Y_WP:	0.500	X:	0.211	Y:	0.070	Z:	0.462	yaw:	1.903	yaw rate:	15.691	Roll:	2.371	Pitch:	0.311	Yaw:	4.615	Thrust:	53.469
Time:	3.897	Roll Set Point:	-0.324	Pitch Set Point:	-0.136	Yaw Set Point:	-0.029	X_WP:	0.100	Y_WP:	0.000	Y_WP:	0.500	X:	0.211	Y:	0.070	Z:	0.467	yaw:	1.663	yaw rate:	-24.060	Roll:	0.862	Pitch:	1.465	Yaw:	-5.139	Thrust:	53.785
Time:	3.908	Roll Set Point:	-0.323	Pitch Set Point:	-0.135	Yaw Set Point:	-0.029	X_WP:	0.100	Y_WP:	0.000	Y_WP:	0.500	X:	0.210	Y:	0.069	Z:	0.473	yaw:	1.659	yaw rate:	-0.335	Roll:	1.662	Pitch:	0.698	Yaw:	0.406	Thrust:	58.044
Time:	3.919	Roll Set Point:	-0.322	Pitch Set Point:	-0.135	Yaw Set Point:	-0.027	X_WP:	0.100	Y_WP:	0.000	Y_WP:	0.500	X:	0.210	Y:	0.069	Z:	0.479	yaw:	1.566	yaw rate:	-9.283	Roll:	1.369	Pitch:	1.283	Yaw:	-1.790	Thrust:	48.730
Time:	3.931	Roll Set Point:	-0.321	Pitch Set Point:	-0.134	Yaw Set Point:	-0.027	X_WP:	0.100	Y_WP:	0.000	Y_WP:	0.500	X:	0.210	Y:	0.069	Z:	0.484	yaw:	1.563	yaw rate:	-0.363	Roll:	1.670	Pitch:	0.782	Yaw:	0.198	Thrust:	62.388
Time:	3.942	Roll Set Point:	-0.320	Pitch Set Point:	-0.133	Yaw Set Point:	-0.028	X_WP:	0.100	Y_WP:	0.000	Y_WP:	0.500	X:	0.209	Y:	0.068	Z:	0.490	yaw:	1.591	yaw rate:	2.825	Roll:	1.654	Pitch:	0.659	Yaw:	1.047	Thrust:	58.030
Time:	3.954	Roll Set Point:	-0.319	Pitch Set Point:	-0.133	Yaw Set Point:	-0.027	X_WP:	0.100	Y_WP:	0.000	Y_WP:	0.500	X:	0.209	Y:	0.068	Z:	0.495	yaw:	1.569	yaw rate:	-2.200	Roll:	1.585	Pitch:	0.999	Yaw:	-0.061	Thrust:	53.514
Time:	3.965	Roll Set Point:	-0.318	Pitch Set Point:	-0.132	Yaw Set Point:	-0.026	X_WP:	0.100	Y_WP:	0.000	Y_WP:	0.500	X:	0.208	Y:	0.068	Z:	0.501	yaw:	1.513	yaw rate:	-5.572	Roll:	1.408	Pitch:	1.058	Yaw:	-0.933	Thrust:	53.591
Time:	3.976	Roll Set Point:	-0.317	Pitch Set Point:	-0.132	Yaw Set Point:	-0.027	X_WP:	0.100	Y_WP:	0.000	Y_WP:	0.500	X:	0.208	Y:	0.067	Z:	0.506	yaw:	1.536	yaw rate:	2.314	Roll:	1.640	Pitch:	0.851	Yaw:	0.864	Thrust:	54.374
Time:	3.987	Roll Set Point:	-0.317	Pitch Set Point:	-0.131	Yaw Set Point:	-0.029	X_WP:	0.100	Y_WP:	0.000	Y_WP:	0.500	X:	0.207	Y:	0.067	Z:	0.511	yaw:	1.683	yaw rate:	14.657	Roll:	2.137	Pitch:	0.374	Yaw:	4.360	Thrust:	53.816
Time:	3.998	Roll Set Point:	-0.314	Pitch Set Point:	-0.130	Yaw Set Point:	-0.025	X_WP:	0.100	Y_WP:	0.000	Y_WP:	0.500	X:	0.206	Y:	0.066	Z:	0.521	yaw:	1.442	yaw rate:	-24.114	Roll:	-0.472	Pitch:	0.854	Yaw:	-5.819	Thrust:	23.305
Time:	4.008	Roll Set Point:	-0.313	Pitch Set Point:	-0.129	Yaw Set Point:	-0.024	X_WP:	0.100	Y_WP:	0.000	Y_WP:	0.500	X:	0.206	Y:	0.066	Z:	0.526	yaw:	1.378	yaw rate:	-6.388	Roll:	1.299	Pitch:	1.326	Yaw:	-1.303	Thrust:	58.957
Time:	4.020	Roll Set Point:	-0.312	Pitch Set Point:	-0.128	Yaw Set Point:	-0.025	X_WP:	0.100	Y_WP:	0.000	Y_WP:	0.500	X:	0.205	Y:	0.065	Z:	0.531	yaw:	1.438	yaw rate:	5.986	Roll:	1.444	Pitch:	0.313	Yaw:	1.594	Thrust:	54.161
Time:	4.031	Roll Set Point:	-0.311	Pitch Set Point:	-0.128	Yaw Set Point:	-0.024	X_WP:	0.100	Y_WP:	0.000	Y_WP:	0.500	X:	0.205	Y:	0.065	Z:	0.535	yaw:	1.368	yaw rate:	-6.960	Roll:	1.371	Pitch:	1.219	Yaw:	-1.436	Thrust:	54.975
Time:	4.042	Roll Set Point:	-0.310	Pitch Set Point:	-0.128	Yaw Set Point:	-0.022	X_WP:	0.100	Y_WP:	0.000	Y_WP:	0.500	X:	0.204	Y:	0.065	Z:	0.540	yaw:	1.263	yaw rate:	-10.490	Roll:	1.436	Pitch:	1.725	Yaw:	-2.451	Thrust:	60.234
Time:	4.053	Roll Set Point:	-0.309	Pitch Set Point:	-0.127	Yaw Set Point:	-0.023	X_WP:	0.100	Y_WP:	0.000	Y_WP:	0.500	X:	0.204	Y:	0.065	Z:	0.544	yaw:	1.293	yaw rate:	2.965	Roll:	1.658	Pitch:	0.781	Yaw:	0.830	Thrust:	55.649
Time:	4.064	Roll Set Point:	-0.308	Pitch Set Point:	-0.126	Yaw Set Point:	-0.023	X_WP:	0.100	Y_WP:	0.000	Y_WP:	0.500	X:	0.203	Y:	0.064	Z:	0.548	yaw:	1.314	yaw rate:	2.143	Roll:	1.528	Pitch:	0.927	Yaw:	0.670	Thrust:	55.913
Time:	4.076	Roll Set Point:	-0.306	Pitch Set Point:	-0.126	Yaw Set Point:	-0.022	X_WP:	0.100	Y_WP:	0.000	Y_WP:	0.500	X:	0.202	Y:	0.064	Z:	0.552	yaw:	1.276	yaw rate:	-3.808	Roll:	1.405	Pitch:	1.271	Yaw:	-0.872	Thrust:	61.406
Time:	4.087	Roll Set Point:	-0.305	Pitch Set Point:	-0.125	Yaw Set Point:	-0.023	X_WP:	0.100	Y_WP:	0.000	Y_WP:	0.500	X:	0.202	Y:	0.064	Z:	0.556	yaw:	1.308	yaw rate:	3.219	Roll:	1.298	Pitch:	0.544	Yaw:	0.927	Thrust:	60.658
Time:	4.097	Roll Set Point:	-0.303	Pitch Set Point:	-0.124	Yaw Set Point:	-0.021	X_WP:	0.100	Y_WP:	0.000	Y_WP:	0.500	X:	0.201	Y:	0.063	Z:	0.562	yaw:	1.206	yaw rate:	-10.296	Roll:	0.014	Pitch:	0.956	Yaw:	-2.513	Thrust:	33.772
Time:	4.109	Roll Set Point:	-0.301	Pitch Set Point:	-0.123	Yaw Set Point:	-0.021	X_WP:	0.100	Y_WP:	0.000	Y_WP:	0.500	X:	0.200	Y:	0.063	Z:	0.566	yaw:	1.217	yaw rate:	1.104	Roll:	1.172	Pitch:	0.714	Yaw:	0.220	Thrust:	61.449
Time:	4.120	Roll Set Point:	-0.300	Pitch Set Point:	-0.123	Yaw Set Point:	-0.020	X_WP:	0.100	Y_WP:	0.000	Y_WP:	0.500	X:	0.200	Y:	0.062	Z:	0.569	yaw:	1.156	yaw rate:	-6.019	Roll:	1.505	Pitch:	1.513	Yaw:	-1.464	Thrust:	58.411
Time:	4.131	Roll Set Point:	-0.299	Pitch Set Point:	-0.122	Yaw Set Point:	-0.021	X_WP:	0.100	Y_WP:	0.000	Y_WP:	0.500	X:	0.199	Y:	0.062	Z:	0.572	yaw:	1.219	yaw rate:	6.297	Roll:	1.417	Pitch:	0.523	Yaw:	1.551	Thrust:	58.045
Time:	4.142	Roll Set Point:	-0.298	Pitch Set Point:	-0.122	Yaw Set Point:	-0.019	X_WP:	0.100	Y_WP:	0.000	Y_WP:	0.500	X:	0.198	Y:	0.062	Z:	0.575	yaw:	1.100	yaw rate:	-11.984	Roll:	1.393	Pitch:	1.763	Yaw:	-2.901	Thrust:	63.010
Time:	4.153	Roll Set Point:	-0.297	Pitch Set Point:	-0.121	Yaw Set Point:	-0.020	X_WP:	0.100	Y_WP:	0.000	Y_WP:	0.500	X:	0.198	Y:	0.061	Z:	0.578	yaw:	1.119	yaw rate:	1.971	Roll:	1.527	Pitch:	0.822	Yaw:	0.394	Thrust:	59.081
Time:	4.165	Roll Set Point:	-0.295	Pitch Set Point:	-0.120	Yaw Set Point:	-0.019	X_WP:	0.100	Y_WP:	0.000	Y_WP:	0.500	X:	0.197	Y:	0.061	Z:	0.580	yaw:	1.096	yaw rate:	-2.333	Roll:	1.364	Pitch:	1.167	Yaw:	-0.706	Thrust:	63.391
Time:	4.176	Roll Set Point:	-0.294	Pitch Set Point:	-0.120	Yaw Set Point:	-0.020	X_WP:	0.100	Y_WP:	0.000	Y_WP:	0.500	X:	0.196	Y:	0.061	Z:	0.583	yaw:	1.136	yaw rate:	4.043	Roll:	1.526	Pitch:	0.936	Yaw:	0.786	Thrust:	64.492
Time:	4.187	Roll Set Point:	-0.293	Pitch Set Point:	-0.119	Yaw Set Point:	-0.019	X_WP:	0.100	Y_WP:	0.000	Y_WP:	0.500	X:	0.196	Y:	0.060	Z:	0.585	yaw:	1.104	yaw rate:	-3.265	Roll:	1.420	Pitch:	1.099	Yaw:	-0.859	Thrust:	60.537
Time:	4.197	Roll Set Point:	-0.291	Pitch Set Point:	-0.119	Yaw Set Point:	-0.018	X_WP:	0.100	Y_WP:	0.000	Y_WP:	0.500	X:	0.195	Y:	0.060	Z:	0.587	yaw:	1.015	yaw rate:	-8.859	Roll:	1.098	Pitch:	1.342	Yaw:	-2.368	Thrust:	52.963
Time:	4.209	Roll Set Point:	-0.289	Pitch Set Point:	-0.117	Yaw Set Point:	-0.018	X_WP:	0.100	Y_WP:	0.000	Y_WP:	0.500	X:	0.194	Y:	0.059	Z:	0.591	yaw:	1.007	yaw rate:	-0.810	Roll:	-0.035	Pitch:	0.234	Yaw:	-0.467	Thrust:	57.264
Time:	4.219	Roll Set Point:	-0.288	Pitch Set Point:	-0.116	Yaw Set Point:	-0.019	X_WP:	0.100	Y_WP:	0.000	Y_WP:	0.500	X:	0.193	Y:	0.059	Z:	0.593	yaw:	1.084	yaw rate:	7.737	Roll:	1.227	Pitch:	0.451	Yaw:	1.899	Thrust:	57.767
Time:	4.231	Roll Set Point:	-0.286	Pitch Set Point:	-0.116	Yaw Set Point:	-0.017	X_WP:	0.100	Y_WP:	0.000	Y_WP:	0.500	X:	0.193	Y:	0.059	Z:	0.595	yaw:	0.984	yaw rate:	-9.995	Roll:	1.396	Pitch:	1.725	Yaw:	-2.567	Thrust:	66.883
Time:	4.242	Roll Set Point:	-0.285	Pitch Set Point:	-0.116	Yaw Set Point:	-0.016	X_WP:	0.100	Y_WP:	0.000	Y_WP:	0.500	X:	0.192	Y:	0.059	Z:	0.596	yaw:	0.926	yaw rate:	-5.885	Roll:	1.221	Pitch:	1.298	Yaw:	-1.702	Thrust:	57.845
Time:	4.253	Roll Set Point:	-0.284	Pitch Set Point:	-0.115	Yaw Set Point:	-0.021	X_WP:	0.100	Y_WP:	0.000	Y_WP:	0.500	X:	0.191	Y:	0.058	Z:	0.598	yaw:	1.215	yaw rate:	28.937	Roll:	2.275	Pitch:	0.127	Yaw:	6.964	Thrust:	62.241
Time:	4.264	Roll Set Point:	-0.282	Pitch Set Point:	-0.114	Yaw Set Point:	-0.017	X_WP:	0.100	Y_WP:	0.000	Y_WP:	0.500	X:	0.191	Y:	0.058	Z:	0.599	yaw:	0.949	yaw rate:	-26.624	Roll:	0.671	Pitch:	1.627	Yaw:	-6.388	Thrust:	62.263
Time:	4.276	Roll Set Point:	-0.281	Pitch Set Point:	-0.113	Yaw Set Point:	-0.016	X_WP:	0.100	Y_WP:	0.000	Y_WP:	0.500	X:	0.190	Y:	0.057	Z:	0.600	yaw:	0.898	yaw rate:	-5.055	Roll:	1.290	Pitch:	1.248	Yaw:	-1.552	Thrust:	68.626
Time:	4.287	Roll Set Point:	-0.280	Pitch Set Point:	-0.113	Yaw Set Point:	-0.016	X_WP:	0.100	Y_WP:	0.000	Y_WP:	0.500	X:	0.189	Y:	0.057	Z:	0.602	yaw:	0.927	yaw rate:	2.920	Roll:	1.483	Pitch:	0.833	Yaw:	0.400	Thrust:	62.410
Time:	4.297	Roll Set Point:	-0.278	Pitch Set Point:	-0.112	Yaw Set Point:	-0.017	X_WP:	0.100	Y_WP:	0.000	Y_WP:	0.500	X:	0.189	Y:	0.057	Z:	0.603	yaw:	0.946	yaw rate:	1.870	Roll:	1.094	Pitch:	0.623	Yaw:	0.342	Thrust:	56.132
Time:	4.308	Roll Set Point:	-0.277	Pitch Set Point:	-0.111	Yaw Set Point:	-0.016	X_WP:	0.100	Y_WP:	0.000	Y_WP:	0.500	X:	0.188	Y:	0.056	Z:	0.604	yaw:	0.924	yaw rate:	-2.234	Roll:	1.293	Pitch:	1.192	Yaw:	-0.870	Thrust:	66.409
Time:	4.319	Roll Set Point:	-0.276	Pitch Set Point:	-0.110	Yaw Set Point:	-0.015	X_WP:	0.100	Y_WP:	0.000	Y_WP:	0.500	X:	0.187	Y:	0.056	Z:	0.605	yaw:	0.858	yaw rate:	-6.535	Roll:	1.487	Pitch:	1.374	Yaw:	-1.930	Thrust:	63.116
Time:	4.330	Roll Set Point:	-0.274	Pitch Set Point:	-0.110	Yaw Set Point:	-0.016	X_WP:	0.100	Y_WP:	0.000	Y_WP:	0.500	X:	0.187	Y:	0.056	Z:	0.606	yaw:	0.913	yaw rate:	5.419	Roll:	1.525	Pitch:	0.861	Yaw:	1.060	Thrust:	60.863
Time:	4.342	Roll Set Point:	-0.270	Pitch Set Point:	-0.108	Yaw Set Point:	-0.015	X_WP:	0.100	Y_WP:	0.000	Y_WP:	0.500	X:	0.185	Y:	0.054	Z:	0.609	yaw:	0.887	yaw rate:	3.548	Roll:	-1.946	Pitch:	-0.643	Yaw:	-0.976	Thrust:	58.941
Time:	4.353	Roll Set Point:	-0.269	Pitch Set Point:	-0.107	Yaw Set Point:	-0.015	X_WP:	0.100	Y_WP:	0.000	Y_WP:	0.500	X:	0.184	Y:	0.054	Z:	0.610	yaw:	0.873	yaw rate:	-1.386	Roll:	1.340	Pitch:	1.035	Yaw:	-0.677	Thrust:	62.690
Time:	4.364	Roll Set Point:	-0.268	Pitch Set Point:	-0.106	Yaw Set Point:	-0.020	X_WP:	0.100	Y_WP:	0.000	Y_WP:	0.500	X:	0.183	Y:	0.054	Z:	0.611	yaw:	1.149	yaw rate:	27.533	Roll:	2.056	Pitch:	0.458	Yaw:	6.581	Thrust:	62.649
Time:	4.375	Roll Set Point:	-0.266	Pitch Set Point:	-0.105	Yaw Set Point:	-0.017	X_WP:	0.100	Y_WP:	0.000	Y_WP:	0.500	X:	0.182	Y:	0.053	Z:	0.611	yaw:	0.955	yaw rate:	-19.412	Roll:	0.460	Pitch:	1.072	Yaw:	-4.790	Thrust:	63.335
Time:	4.386	Roll Set Point:	-0.264	Pitch Set Point:	-0.104	Yaw Set Point:	-0.016	X_WP:	0.100	Y_WP:	0.000	Y_WP:	0.500	X:	0.182	Y:	0.053	Z:	0.612	yaw:	0.907	yaw rate:	-4.743	Roll:	1.393	Pitch:	1.297	Yaw:	-1.415	Thrust:	59.514
Time:	4.397	Roll Set Point:	-0.263	Pitch Set Point:	-0.104	Yaw Set Point:	-0.015	X_WP:	0.100	Y_WP:	0.000	Y_WP:	0.500	X:	0.181	Y:	0.053	Z:	0.613	yaw:	0.876	yaw rate:	-3.085	Roll:	1.215	Pitch:	1.108	Yaw:	-1.061	Thrust:	65.683
Time:	4.408	Roll Set Point:	-0.261	Pitch Set Point:	-0.103	Yaw Set Point:	-0.016	X_WP:	0.100	Y_WP:	0.000	Y_WP:	0.500	X:	0.180	Y:	0.052	Z:	0.614	yaw:	0.890	yaw rate:	1.347	Roll:	1.143	Pitch:	0.623	Yaw:	0.099	Thrust:	58.539
Time:	4.419	Roll Set Point:	-0.261	Pitch Set Point:	-0.102	Yaw Set Point:	-0.019	X_WP:	0.100	Y_WP:	0.000	Y_WP:	0.500	X:	0.180	Y:	0.052	Z:	0.614	yaw:	1.111	yaw rate:	22.143	Roll:	2.215	Pitch:	0.898	Yaw:	4.964	Thrust:	62.529
Time:	4.431	Roll Set Point:	-0.259	Pitch Set Point:	-0.102	Yaw Set Point:	-0.016	X_WP:	0.100	Y_WP:	0.000	Y_WP:	0.500	X:	0.179	Y:	0.051	Z:	0.615	yaw:	0.899	yaw rate:	-21.226	Roll:	0.551	Pitch:	1.338	Yaw:	-5.174	Thrust:	61.927
Time:	4.441	Roll Set Point:	-0.257	Pitch Set Point:	-0.101	Yaw Set Point:	-0.015	X_WP:	0.100	Y_WP:	0.000	Y_WP:	0.500	X:	0.178	Y:	0.051	Z:	0.616	yaw:	0.850	yaw rate:	-4.922	Roll:	1.184	Pitch:	1.106	Yaw:	-1.505	Thrust:	65.109
Time:	4.452	Roll Set Point:	-0.256	Pitch Set Point:	-0.100	Yaw Set Point:	-0.015	X_WP:	0.100	Y_WP:	0.000	Y_WP:	0.500	X:	0.178	Y:	0.051	Z:	0.617	yaw:	0.849	yaw rate:	-0.035	Roll:	1.279	Pitch:	0.991	Yaw:	-0.356	Thrust:	61.499
Time:	4.464	Roll Set Point:	-0.255	Pitch Set Point:	-0.099	Yaw Set Point:	-0.015	X_WP:	0.100	Y_WP:	0.000	Y_WP:	0.500	X:	0.177	Y:	0.050	Z:	0.617	yaw:	0.836	yaw rate:	-1.371	Roll:	1.458	Pitch:	1.036	Yaw:	-0.745	Thrust:	64.664
Time:	4.475	Roll Set Point:	-0.252	Pitch Set Point:	-0.098	Yaw Set Point:	-0.015	X_WP:	0.100	Y_WP:	0.000	Y_WP:	0.500	X:	0.176	Y:	0.049	Z:	0.619	yaw:	0.842	yaw rate:	0.671	Roll:	-0.367	Pitch:	0.077	Yaw:	-0.193	Thrust:	57.802
Time:	4.486	Roll Set Point:	-0.250	Pitch Set Point:	-0.097	Yaw Set Point:	-0.015	X_WP:	0.100	Y_WP:	0.000	Y_WP:	0.500	X:	0.175	Y:	0.049	Z:	0.620	yaw:	0.880	yaw rate:	3.716	Roll:	1.106	Pitch:	0.518	Yaw:	0.586	Thrust:	57.287
Time:	4.496	Roll Set Point:	-0.249	Pitch Set Point:	-0.096	Yaw Set Point:	-0.014	X_WP:	0.100	Y_WP:	0.000	Y_WP:	0.500	X:	0.174	Y:	0.049	Z:	0.621	yaw:	0.827	yaw rate:	-5.297	Roll:	1.303	Pitch:	1.285	Yaw:	-1.615	Thrust:	61.215
Time:	4.508	Roll Set Point:	-0.247	Pitch Set Point:	-0.095	Yaw Set Point:	-0.014	X_WP:	0.100	Y_WP:	0.000	Y_WP:	0.500	X:	0.173	Y:	0.048	Z:	0.621	yaw:	0.786	yaw rate:	-4.089	Roll:	1.180	Pitch:	1.086	Yaw:	-1.418	Thrust:	63.922
Time:	4.519	Roll Set Point:	-0.246	Pitch Set Point:	-0.094	Yaw Set Point:	-0.018	X_WP:	0.100	Y_WP:	0.000	Y_WP:	0.500	X:	0.173	Y:	0.048	Z:	0.622	yaw:	1.025	yaw rate:	23.954	Roll:	1.852	Pitch:	0.513	Yaw:	5.603	Thrust:	60.319
Time:	4.530	Roll Set Point:	-0.244	Pitch Set Point:	-0.094	Yaw Set Point:	-0.014	X_WP:	0.100	Y_WP:	0.000	Y_WP:	0.500	X:	0.172	Y:	0.047	Z:	0.623	yaw:	0.788	yaw rate:	-23.754	Roll:	0.714	Pitch:	1.387	Yaw:	-6.039	Thrust:	60.512
Time:	4.541	Roll Set Point:	-0.243	Pitch Set Point:	-0.093	Yaw Set Point:	-0.015	X_WP:	0.100	Y_WP:	0.000	Y_WP:	0.500	X:	0.171	Y:	0.047	Z:	0.623	yaw:	0.849	yaw rate:	6.163	Roll:	1.132	Pitch:	0.529	Yaw:	1.008	Thrust:	63.173
Time:	4.552	Roll Set Point:	-0.242	Pitch Set Point:	-0.092	Yaw Set Point:	-0.014	X_WP:	0.100	Y_WP:	0.000	Y_WP:	0.500	X:	0.170	Y:	0.046	Z:	0.624	yaw:	0.796	yaw rate:	-5.321	Roll:	1.282	Pitch:	1.287	Yaw:	-1.656	Thrust:	60.318
Time:	4.564	Roll Set Point:	-0.240	Pitch Set Point:	-0.091	Yaw Set Point:	-0.013	X_WP:	0.100	Y_WP:	0.000	Y_WP:	0.500	X:	0.170	Y:	0.046	Z:	0.625	yaw:	0.731	yaw rate:	-6.510	Roll:	1.170	Pitch:	1.059	Yaw:	-2.026	Thrust:	59.784
Time:	4.575	Roll Set Point:	-0.237	Pitch Set Point:	-0.090	Yaw Set Point:	-0.013	X_WP:	0.100	Y_WP:	0.000	Y_WP:	0.500	X:	0.168	Y:	0.045	Z:	0.626	yaw:	0.752	yaw rate:	2.063	Roll:	-0.447	Pitch:	-0.145	Yaw:	0.010	Thrust:	54.936
Time:	4.586	Roll Set Point:	-0.236	Pitch Set Point:	-0.089	Yaw Set Point:	-0.013	X_WP:	0.100	Y_WP:	0.000	Y_WP:	0.500	X:	0.168	Y:	0.045	Z:	0.627	yaw:	0.772	yaw rate:	1.985	Roll:	1.206	Pitch:	0.809	Yaw:	0.053	Thrust:	59.599
Time:	4.597	Roll Set Point:	-0.234	Pitch Set Point:	-0.088	Yaw Set Point:	-0.014	X_WP:	0.100	Y_WP:	0.000	Y_WP:	0.500	X:	0.167	Y:	0.044	Z:	0.627	yaw:	0.781	yaw rate:	0.985	Roll:	1.358	Pitch:	1.010	Yaw:	-0.247	Thrust:	65.946
Time:	4.610	Roll Set Point:	-0.233	Pitch Set Point:	-0.087	Yaw Set Point:	-0.013	X_WP:	0.100	Y_WP:	0.000	Y_WP:	0.500	X:	0.166	Y:	0.044	Z:	0.628	yaw:	0.726	yaw rate:	-5.564	Roll:	1.160	Pitch:	1.106	Yaw:	-1.842	Thrust:	65.919
Time:	4.621	Roll Set Point:	-0.231	Pitch Set Point:	-0.086	Yaw Set Point:	-0.013	X_WP:	0.100	Y_WP:	0.000	Y_WP:	0.500	X:	0.165	Y:	0.044	Z:	0.628	yaw:	0.769	yaw rate:	4.313	Roll:	1.486	Pitch:	0.875	Yaw:	0.603	Thrust:	62.657
Time:	4.632	Roll Set Point:	-0.230	Pitch Set Point:	-0.085	Yaw Set Point:	-0.014	X_WP:	0.100	Y_WP:	0.000	Y_WP:	0.500	X:	0.165	Y:	0.043	Z:	0.629	yaw:	0.787	yaw rate:	1.808	Roll:	0.911	Pitch:	0.671	Yaw:	0.044	Thrust:	59.385
Time:	4.643	Roll Set Point:	-0.228	Pitch Set Point:	-0.084	Yaw Set Point:	-0.013	X_WP:	0.100	Y_WP:	0.000	Y_WP:	0.500	X:	0.164	Y:	0.043	Z:	0.629	yaw:	0.752	yaw rate:	-3.520	Roll:	1.168	Pitch:	0.963	Yaw:	-1.267	Thrust:	59.582
Time:	4.654	Roll Set Point:	-0.227	Pitch Set Point:	-0.083	Yaw Set Point:	-0.014	X_WP:	0.100	Y_WP:	0.000	Y_WP:	0.500	X:	0.163	Y:	0.042	Z:	0.630	yaw:	0.785	yaw rate:	3.292	Roll:	1.117	Pitch:	0.724	Yaw:	0.399	Thrust:	55.916
Time:	4.666	Roll Set Point:	-0.226	Pitch Set Point:	-0.083	Yaw Set Point:	-0.018	X_WP:	0.100	Y_WP:	0.000	Y_WP:	0.500	X:	0.162	Y:	0.042	Z:	0.630	yaw:	1.032	yaw rate:	24.682	Roll:	1.854	Pitch:	0.676	Yaw:	5.502	Thrust:	65.558
Time:	4.677	Roll Set Point:	-0.224	Pitch Set Point:	-0.082	Yaw Set Point:	-0.014	X_WP:	0.100	Y_WP:	0.000	Y_WP:	0.500	X:	0.162	Y:	0.041	Z:	0.630	yaw:	0.783	yaw rate:	-24.835	Roll:	0.521	Pitch:	1.159	Yaw:	-6.222	Thrust:	59.789
Time:	4.688	Roll Set Point:	-0.222	Pitch Set Point:	-0.081	Yaw Set Point:	-0.013	X_WP:	0.100	Y_WP:	0.000	Y_WP:	0.500	X:	0.161	Y:	0.041	Z:	0.631	yaw:	0.767	yaw rate:	-1.566	Roll:	1.203	Pitch:	0.871	Yaw:	-0.778	Thrust:	59.590
Time:	4.701	Roll Set Point:	-0.221	Pitch Set Point:	-0.080	Yaw Set Point:	-0.013	X_WP:	0.100	Y_WP:	0.000	Y_WP:	0.500	X:	0.160	Y:	0.040	Z:	0.631	yaw:	0.749	yaw rate:	-1.882	Roll:	1.327	Pitch:	0.980	Yaw:	-1.065	Thrust:	65.060
Time:	4.711	Roll Set Point:	-0.217	Pitch Set Point:	-0.078	Yaw Set Point:	-0.013	X_WP:	0.100	Y_WP:	0.000	Y_WP:	0.500	X:	0.158	Y:	0.039	Z:	0.632	yaw:	0.745	yaw rate:	-2.202	Roll:	-0.831	Pitch:	-0.267	Yaw:	-0.435	Thrust:	60.538
Time:	4.723	Roll Set Point:	-0.216	Pitch Set Point:	-0.077	Yaw Set Point:	-0.013	X_WP:	0.100	Y_WP:	0.000	Y_WP:	0.500	X:	0.158	Y:	0.039	Z:	0.632	yaw:	0.742	yaw rate:	-0.327	Roll:	0.969	Pitch:	0.742	Yaw:	-0.597	Thrust:	62.965
Time:	4.735	Roll Set Point:	-0.213	Pitch Set Point:	-0.075	Yaw Set Point:	-0.013	X_WP:	0.100	Y_WP:	0.000	Y_WP:	0.500	X:	0.156	Y:	0.038	Z:	0.633	yaw:	0.737	yaw rate:	-0.539	Roll:	0.103	Pitch:	0.121	Yaw:	-0.677	Thrust:	64.093
Time:	4.747	Roll Set Point:	-0.211	Pitch Set Point:	-0.074	Yaw Set Point:	-0.013	X_WP:	0.100	Y_WP:	0.000	Y_WP:	0.500	X:	0.155	Y:	0.038	Z:	0.633	yaw:	0.768	yaw rate:	3.070	Roll:	1.010	Pitch:	0.661	Yaw:	0.248	Thrust:	61.603
Time:	4.761	Roll Set Point:	-0.210	Pitch Set Point:	-0.073	Yaw Set Point:	-0.014	X_WP:	0.100	Y_WP:	0.000	Y_WP:	0.500	X:	0.155	Y:	0.037	Z:	0.633	yaw:	0.793	yaw rate:	2.560	Roll:	1.102	Pitch:	0.942	Yaw:	-0.262	Thrust:	73.649
Time:	4.775	Roll Set Point:	-0.208	Pitch Set Point:	-0.072	Yaw Set Point:	-0.013	X_WP:	0.100	Y_WP:	0.000	Y_WP:	0.500	X:	0.154	Y:	0.037	Z:	0.633	yaw:	0.732	yaw rate:	-6.100	Roll:	2.068	Pitch:	1.431	Yaw:	-1.985	Thrust:	79.509
Time:	4.787	Roll Set Point:	-0.205	Pitch Set Point:	-0.070	Yaw Set Point:	-0.013	X_WP:	0.100	Y_WP:	0.000	Y_WP:	0.500	X:	0.152	Y:	0.036	Z:	0.634	yaw:	0.737	yaw rate:	-4.203	Roll:	-0.533	Pitch:	-0.186	Yaw:	-0.365	Thrust:	63.803
Time:	4.799	Roll Set Point:	-0.204	Pitch Set Point:	-0.070	Yaw Set Point:	-0.013	X_WP:	0.100	Y_WP:	0.000	Y_WP:	0.500	X:	0.152	Y:	0.035	Z:	0.634	yaw:	0.769	yaw rate:	3.217	Roll:	1.066	Pitch:	0.691	Yaw:	0.395	Thrust:	58.196
Time:	4.809	Roll Set Point:	-0.202	Pitch Set Point:	-0.069	Yaw Set Point:	-0.013	X_WP:	0.100	Y_WP:	0.000	Y_WP:	0.500	X:	0.151	Y:	0.035	Z:	0.634	yaw:	0.753	yaw rate:	-1.625	Roll:	1.093	Pitch:	0.816	Yaw:	-0.822	Thrust:	60.742
Time:	4.822	Roll Set Point:	-0.200	Pitch Set Point:	-0.067	Yaw Set Point:	-0.014	X_WP:	0.100	Y_WP:	0.000	Y_WP:	0.500	X:	0.150	Y:	0.034	Z:	0.634	yaw:	0.804	yaw rate:	5.108	Roll:	0.977	Pitch:	0.601	Yaw:	0.467	Thrust:	68.601
Time:	4.836	Roll Set Point:	-0.199	Pitch Set Point:	-0.067	Yaw Set Point:	-0.014	X_WP:	0.100	Y_WP:	0.000	Y_WP:	0.500	X:	0.149	Y:	0.034	Z:	0.634	yaw:	0.788	yaw rate:	-1.601	Roll:	1.764	Pitch:	1.193	Yaw:	-0.915	Thrust:	69.141
Time:	4.849	Roll Set Point:	-0.196	Pitch Set Point:	-0.065	Yaw Set Point:	-0.013	X_WP:	0.100	Y_WP:	0.000	Y_WP:	0.500	X:	0.148	Y:	0.033	Z:	0.635	yaw:	0.750	yaw rate:	-3.813	Roll:	-0.143	Pitch:	0.123	Yaw:	-1.410	Thrust:	67.411
Time:	4.867	Roll Set Point:	-0.194	Pitch Set Point:	-0.064	Yaw Set Point:	-0.014	X_WP:	0.100	Y_WP:	0.000	Y_WP:	0.500	X:	0.147	Y:	0.032	Z:	0.636	yaw:	0.780	yaw rate:	3.021	Roll:	2.062	Pitch:	1.315	Yaw:	-0.807	Thrust:	94.656
Time:	4.880	Roll Set Point:	-0.191	Pitch Set Point:	-0.062	Yaw Set Point:	-0.014	X_WP:	0.100	Y_WP:	0.000	Y_WP:	0.500	X:	0.145	Y:	0.031	Z:	0.636	yaw:	0.796	yaw rate:	-3.037	Roll:	0.265	Pitch:	0.381	Yaw:	-0.266	Thrust:	69.469
Time:	4.894	Roll Set Point:	-0.190	Pitch Set Point:	-0.061	Yaw Set Point:	-0.014	X_WP:	0.100	Y_WP:	0.000	Y_WP:	0.500	X:	0.145	Y:	0.031	Z:	0.637	yaw:	0.799	yaw rate:	0.303	Roll:	1.139	Pitch:	0.755	Yaw:	-0.705	Thrust:	75.594
Time:	4.906	Roll Set Point:	-0.188	Pitch Set Point:	-0.060	Yaw Set Point:	-0.014	X_WP:	0.100	Y_WP:	0.000	Y_WP:	0.500	X:	0.144	Y:	0.030	Z:	0.638	yaw:	0.795	yaw rate:	-0.345	Roll:	1.628	Pitch:	1.099	Yaw:	-0.512	Thrust:	60.865
Time:	4.917	Roll Set Point:	-0.187	Pitch Set Point:	-0.059	Yaw Set Point:	-0.014	X_WP:	0.100	Y_WP:	0.000	Y_WP:	0.500	X:	0.143	Y:	0.030	Z:	0.638	yaw:	0.803	yaw rate:	0.816	Roll:	0.880	Pitch:	0.680	Yaw:	-0.100	Thrust:	53.825
Time:	4.930	Roll Set Point:	-0.186	Pitch Set Point:	-0.058	Yaw Set Point:	-0.018	X_WP:	0.100	Y_WP:	0.000	Y_WP:	0.500	X:	0.143	Y:	0.029	Z:	0.639	yaw:	1.059	yaw rate:	25.520	Roll:	1.602	Pitch:	0.594	Yaw:	4.931	Thrust:	56.286
Time:	4.941	Roll Set Point:	-0.182	Pitch Set Point:	-0.056	Yaw Set Point:	-0.015	X_WP:	0.100	Y_WP:	0.000	Y_WP:	0.500	X:	0.141	Y:	0.028	Z:	0.641	yaw:	0.865	yaw rate:	9.525	Roll:	-0.906	Pitch:	-0.060	Yaw:	-4.783	Thrust:	58.630
Time:	4.953	Roll Set Point:	-0.181	Pitch Set Point:	-0.055	Yaw Set Point:	-0.015	X_WP:	0.100	Y_WP:	0.000	Y_WP:	0.500	X:	0.140	Y:	0.028	Z:	0.642	yaw:	0.837	yaw rate:	-2.839	Roll:	0.796	Pitch:	0.638	Yaw:	-0.944	Thrust:	51.959
Time:	4.965	Roll Set Point:	-0.180	Pitch Set Point:	-0.054	Yaw Set Point:	-0.018	X_WP:	0.100	Y_WP:	0.000	Y_WP:	0.500	X:	0.140	Y:	0.028	Z:	0.643	yaw:	1.058	yaw rate:	22.089	Roll:	1.411	Pitch:	0.711	Yaw:	4.499	Thrust:	60.402
Time:	4.978	Roll Set Point:	-0.176	Pitch Set Point:	-0.052	Yaw Set Point:	-0.015	X_WP:	0.100	Y_WP:	0.000	Y_WP:	0.500	X:	0.138	Y:	0.026	Z:	0.646	yaw:	0.852	yaw rate:	-20.553	Roll:	-0.514	Pitch:	-0.126	Yaw:	-4.799	Thrust:	55.762
Time:	4.989	Roll Set Point:	-0.175	Pitch Set Point:	-0.051	Yaw Set Point:	-0.015	X_WP:	0.100	Y_WP:	0.000	Y_WP:	0.500	X:	0.137	Y:	0.026	Z:	0.647	yaw:	0.836	yaw rate:	-1.667	Roll:	0.968	Pitch:	0.531	Yaw:	-0.669	Thrust:	53.511
Time:	5.001	Roll Set Point:	-0.174	Pitch Set Point:	-0.050	Yaw Set Point:	-0.015	X_WP:	0.100	Y_WP:	0.000	Y_WP:	0.500	X:	0.137	Y:	0.026	Z:	0.648	yaw:	0.845	yaw rate:	0.939	Roll:	1.100	Pitch:	0.789	Yaw:	-0.133	Thrust:	56.212
Time:	5.013	Roll Set Point:	-0.172	Pitch Set Point:	-0.050	Yaw Set Point:	-0.015	X_WP:	0.100	Y_WP:	0.000	Y_WP:	0.500	X:	0.136	Y:	0.025	Z:	0.649	yaw:	0.837	yaw rate:	-0.782	Roll:	1.069	Pitch:	0.813	Yaw:	-0.515	Thrust:	53.007
Time:	5.030	Roll Set Point:	-0.171	Pitch Set Point:	-0.049	Yaw Set Point:	-0.015	X_WP:	0.100	Y_WP:	0.000	Y_WP:	0.500	X:	0.135	Y:	0.025	Z:	0.650	yaw:	0.870	yaw rate:	3.322	Roll:	1.390	Pitch:	1.118	Yaw:	-0.263	Thrust:	77.211
Time:	5.042	Roll Set Point:	-0.168	Pitch Set Point:	-0.047	Yaw Set Point:	-0.016	X_WP:	0.100	Y_WP:	0.000	Y_WP:	0.500	X:	0.134	Y:	0.024	Z:	0.652	yaw:	0.921	yaw rate:	-0.359	Roll:	0.451	Pitch:	-0.072	Yaw:	0.765	Thrust:	61.299
Time:	5.054	Roll Set Point:	-0.167	Pitch Set Point:	-0.046	Yaw Set Point:	-0.015	X_WP:	0.100	Y_WP:	0.000	Y_WP:	0.500	X:	0.133	Y:	0.023	Z:	0.653	yaw:	0.884	yaw rate:	-3.650	Roll:	1.382	Pitch:	0.952	Yaw:	-1.062	Thrust:	53.540
Time:	5.066	Roll Set Point:	-0.166	Pitch Set Point:	-0.045	Yaw Set Point:	-0.020	X_WP:	0.100	Y_WP:	0.000	Y_WP:	0.500	X:	0.133	Y:	0.023	Z:	0.654	yaw:	1.133	yaw rate:	24.919	Roll:	1.545	Pitch:	0.729	Yaw:	5.507	Thrust:	59.134
Time:	5.077	Roll Set Point:	-0.164	Pitch Set Point:	-0.044	Yaw Set Point:	-0.017	X_WP:	0.100	Y_WP:	0.000	Y_WP:	0.500	X:	0.132	Y:	0.022	Z:	0.655	yaw:	0.949	yaw rate:	-18.433	Roll:	0.457	Pitch:	0.395	Yaw:	-4.291	Thrust:	53.185
Time:	5.090	Roll Set Point:	-0.163	Pitch Set Point:	-0.043	Yaw Set Point:	-0.016	X_WP:	0.100	Y_WP:	0.000	Y_WP:	0.500	X:	0.131	Y:	0.022	Z:	0.655	yaw:	0.910	yaw rate:	-3.940	Roll:	1.090	Pitch:	0.598	Yaw:	-1.077	Thrust:	56.498
Time:	5.108	Roll Set Point:	-0.159	Pitch Set Point:	-0.040	Yaw Set Point:	-0.016	X_WP:	0.100	Y_WP:	0.000	Y_WP:	0.500	X:	0.129	Y:	0.020	Z:	0.656	yaw:	0.897	yaw rate:	-5.025	Roll:	0.705	Pitch:	0.549	Yaw:	-1.212	Thrust:	92.535
Time:	5.120	Roll Set Point:	-0.158	Pitch Set Point:	-0.040	Yaw Set Point:	-0.015	X_WP:	0.100	Y_WP:	0.000	Y_WP:	0.500	X:	0.129	Y:	0.020	Z:	0.656	yaw:	0.872	yaw rate:	-2.555	Roll:	1.337	Pitch:	0.819	Yaw:	-0.821	Thrust:	57.769
Time:	5.132	Roll Set Point:	-0.157	Pitch Set Point:	-0.039	Yaw Set Point:	-0.015	X_WP:	0.100	Y_WP:	0.000	Y_WP:	0.500	X:	0.128	Y:	0.020	Z:	0.656	yaw:	0.870	yaw rate:	-0.202	Roll:	0.998	Pitch:	0.443	Yaw:	-0.312	Thrust:	52.821
Time:	5.143	Roll Set Point:	-0.155	Pitch Set Point:	-0.038	Yaw Set Point:	-0.015	X_WP:	0.100	Y_WP:	0.000	Y_WP:	0.500	X:	0.128	Y:	0.019	Z:	0.656	yaw:	0.885	yaw rate:	1.527	Roll:	0.886	Pitch:	0.612	Yaw:	0.246	Thrust:	58.376
Time:	5.155	Roll Set Point:	-0.154	Pitch Set Point:	-0.037	Yaw Set Point:	-0.016	X_WP:	0.100	Y_WP:	0.000	Y_WP:	0.500	X:	0.127	Y:	0.019	Z:	0.656	yaw:	0.922	yaw rate:	3.730	Roll:	1.023	Pitch:	0.524	Yaw:	0.725	Thrust:	55.853
