Time:	2.125	Roll Set Point:	0.059	Pitch Set Point:	-0.192	Yaw Set Point:	0.510	X_WP:	0.000	Y_WP:	0.000	Y_WP:	0.500	X:	-0.005	Y:	0.104	Z:	0.045	yaw:	-29.231	yaw rate:	3.347	Roll:	-1.587	Pitch:	2.564	Yaw:	-40.814	Thrust:	25.008
Time:	2.141	Roll Set Point:	0.059	Pitch Set Point:	-0.192	Yaw Set Point:	0.511	X_WP:	0.000	Y_WP:	0.000	Y_WP:	0.500	X:	-0.005	Y:	0.104	Z:	0.045	yaw:	-29.269	yaw rate:	-3.843	Roll:	-1.644	Pitch:	2.475	Yaw:	-41.668	Thrust:	25.933
Time:	2.157	Roll Set Point:	0.059	Pitch Set Point:	-0.192	Yaw Set Point:	0.511	X_WP:	0.000	Y_WP:	0.000	Y_WP:	0.500	X:	-0.005	Y:	0.104	Z:	0.045	yaw:	-29.269	yaw rate:	-3.843	Roll:	-1.593	Pitch:	2.568	Yaw:	-41.187	Thrust:	26.714
Time:	2.172	Roll Set Point:	0.059	Pitch Set Point:	-0.192	Yaw Set Point:	0.510	X_WP:	0.000	Y_WP:	0.000	Y_WP:	0.500	X:	-0.005	Y:	0.104	Z:	0.045	yaw:	-29.247	yaw rate:	-0.195	Roll:	-1.571	Pitch:	2.610	Yaw:	-40.930	Thrust:	27.624
Time:	2.188	Roll Set Point:	0.059	Pitch Set Point:	-0.192	Yaw Set Point:	0.510	X_WP:	0.000	Y_WP:	0.000	Y_WP:	0.500	X:	-0.005	Y:	0.104	Z:	0.045	yaw:	-29.237	yaw rate:	0.972	Roll:	-1.518	Pitch:	2.550	Yaw:	-41.299	Thrust:	28.338
Time:	2.203	Roll Set Point:	0.059	Pitch Set Point:	-0.192	Yaw Set Point:	0.510	X_WP:	0.000	Y_WP:	0.000	Y_WP:	0.500	X:	-0.005	Y:	0.104	Z:	0.045	yaw:	-29.237	yaw rate:	-0.044	Roll:	-1.595	Pitch:	2.626	Yaw:	-41.628	Thrust:	29.392
Time:	2.219	Roll Set Point:	0.059	Pitch Set Point:	-0.192	Yaw Set Point:	0.511	X_WP:	0.000	Y_WP:	0.000	Y_WP:	0.500	X:	-0.005	Y:	0.104	Z:	0.045	yaw:	-29.252	yaw rate:	-1.501	Roll:	-1.666	Pitch:	2.574	Yaw:	-42.051	Thrust:	29.985
Time:	2.235	Roll Set Point:	0.059	Pitch Set Point:	-0.192	Yaw Set Point:	0.510	X_WP:	0.000	Y_WP:	0.000	Y_WP:	0.500	X:	-0.005	Y:	0.104	Z:	0.045	yaw:	-29.245	yaw rate:	0.719	Roll:	-1.593	Pitch:	2.566	Yaw:	-41.833	Thrust:	31.022
Time:	2.250	Roll Set Point:	0.059	Pitch Set Point:	-0.192	Yaw Set Point:	0.511	X_WP:	0.000	Y_WP:	0.000	Y_WP:	0.500	X:	-0.005	Y:	0.104	Z:	0.045	yaw:	-29.271	yaw rate:	-2.591	Roll:	-1.634	Pitch:	2.589	Yaw:	-42.579	Thrust:	31.806
Time:	2.266	Roll Set Point:	0.059	Pitch Set Point:	-0.192	Yaw Set Point:	0.510	X_WP:	0.000	Y_WP:	0.000	Y_WP:	0.500	X:	-0.005	Y:	0.104	Z:	0.045	yaw:	-29.231	yaw rate:	3.963	Roll:	-1.528	Pitch:	2.597	Yaw:	-41.587	Thrust:	32.670
Time:	2.282	Roll Set Point:	0.059	Pitch Set Point:	-0.192	Yaw Set Point:	0.510	X_WP:	0.000	Y_WP:	0.000	Y_WP:	0.500	X:	-0.005	Y:	0.104	Z:	0.045	yaw:	-29.240	yaw rate:	-0.827	Roll:	-1.630	Pitch:	2.615	Yaw:	-42.560	Thrust:	33.490
Time:	2.297	Roll Set Point:	0.059	Pitch Set Point:	-0.192	Yaw Set Point:	0.510	X_WP:	0.000	Y_WP:	0.000	Y_WP:	0.500	X:	-0.005	Y:	0.104	Z:	0.045	yaw:	-29.245	yaw rate:	-0.513	Roll:	-1.618	Pitch:	2.572	Yaw:	-42.674	Thrust:	34.423
Time:	2.313	Roll Set Point:	0.059	Pitch Set Point:	-0.192	Yaw Set Point:	0.511	X_WP:	0.000	Y_WP:	0.000	Y_WP:	0.500	X:	-0.005	Y:	0.104	Z:	0.045	yaw:	-29.261	yaw rate:	-1.626	Roll:	-1.636	Pitch:	2.610	Yaw:	-43.043	Thrust:	35.051
Time:	2.328	Roll Set Point:	0.059	Pitch Set Point:	-0.192	Yaw Set Point:	0.510	X_WP:	0.000	Y_WP:	0.000	Y_WP:	0.500	X:	-0.005	Y:	0.104	Z:	0.045	yaw:	-29.237	yaw rate:	2.380	Roll:	-1.549	Pitch:	2.636	Yaw:	-42.498	Thrust:	36.334
Time:	2.344	Roll Set Point:	0.059	Pitch Set Point:	-0.192	Yaw Set Point:	0.510	X_WP:	0.000	Y_WP:	0.000	Y_WP:	0.500	X:	-0.005	Y:	0.104	Z:	0.045	yaw:	-29.195	yaw rate:	4.271	Roll:	-1.564	Pitch:	2.634	Yaw:	-42.281	Thrust:	36.811
Time:	2.360	Roll Set Point:	0.059	Pitch Set Point:	-0.192	Yaw Set Point:	0.510	X_WP:	0.000	Y_WP:	0.000	Y_WP:	0.500	X:	-0.005	Y:	0.104	Z:	0.045	yaw:	-29.195	yaw rate:	4.271	Roll:	-1.617	Pitch:	2.615	Yaw:	-43.157	Thrust:	37.802
Time:	2.375	Roll Set Point:	0.059	Pitch Set Point:	-0.192	Yaw Set Point:	0.510	X_WP:	0.000	Y_WP:	0.000	Y_WP:	0.500	X:	-0.005	Y:	0.104	Z:	0.045	yaw:	-29.238	yaw rate:	-4.334	Roll:	-1.727	Pitch:	2.568	Yaw:	-44.101	Thrust:	38.564
Time:	2.391	Roll Set Point:	0.059	Pitch Set Point:	-0.192	Yaw Set Point:	0.511	X_WP:	0.000	Y_WP:	0.000	Y_WP:	0.500	X:	-0.005	Y:	0.104	Z:	0.045	yaw:	-29.252	yaw rate:	2.664	Roll:	-1.640	Pitch:	2.626	Yaw:	-43.790	Thrust:	39.620
Time:	2.407	Roll Set Point:	0.059	Pitch Set Point:	-0.192	Yaw Set Point:	0.511	X_WP:	0.000	Y_WP:	0.000	Y_WP:	0.500	X:	-0.005	Y:	0.104	Z:	0.045	yaw:	-29.252	yaw rate:	2.664	Roll:	-1.626	Pitch:	2.624	Yaw:	-43.714	Thrust:	40.354
Time:	2.422	Roll Set Point:	0.059	Pitch Set Point:	-0.192	Yaw Set Point:	0.510	X_WP:	0.000	Y_WP:	0.000	Y_WP:	0.500	X:	-0.005	Y:	0.104	Z:	0.045	yaw:	-29.249	yaw rate:	-13.235	Roll:	-1.586	Pitch:	2.624	Yaw:	-43.828	Thrust:	41.336
Time:	2.438	Roll Set Point:	0.059	Pitch Set Point:	-0.192	Yaw Set Point:	0.511	X_WP:	0.000	Y_WP:	0.000	Y_WP:	0.500	X:	-0.005	Y:	0.104	Z:	0.045	yaw:	-29.279	yaw rate:	-3.000	Roll:	-1.690	Pitch:	2.614	Yaw:	-44.504	Thrust:	41.766
Time:	2.453	Roll Set Point:	0.059	Pitch Set Point:	-0.192	Yaw Set Point:	0.511	X_WP:	0.000	Y_WP:	0.000	Y_WP:	0.500	X:	-0.005	Y:	0.104	Z:	0.045	yaw:	-29.298	yaw rate:	-1.926	Roll:	-1.678	Pitch:	2.610	Yaw:	-44.356	Thrust:	43.201
Time:	2.469	Roll Set Point:	0.059	Pitch Set Point:	-0.192	Yaw Set Point:	0.510	X_WP:	0.000	Y_WP:	0.000	Y_WP:	0.500	X:	-0.005	Y:	0.104	Z:	0.045	yaw:	-29.245	yaw rate:	5.361	Roll:	-1.480	Pitch:	2.681	Yaw:	-43.060	Thrust:	43.584
Time:	2.485	Roll Set Point:	0.059	Pitch Set Point:	-0.192	Yaw Set Point:	0.510	X_WP:	0.000	Y_WP:	0.000	Y_WP:	0.500	X:	-0.005	Y:	0.104	Z:	0.045	yaw:	-29.237	yaw rate:	0.732	Roll:	-1.727	Pitch:	2.671	Yaw:	-43.826	Thrust:	44.780
Time:	2.500	Roll Set Point:	0.059	Pitch Set Point:	-0.192	Yaw Set Point:	0.510	X_WP:	0.000	Y_WP:	0.000	Y_WP:	0.500	X:	-0.005	Y:	0.104	Z:	0.045	yaw:	-29.236	yaw rate:	0.149	Roll:	-1.581	Pitch:	2.651	Yaw:	-43.920	Thrust:	45.264
Time:	2.516	Roll Set Point:	0.059	Pitch Set Point:	-0.192	Yaw Set Point:	0.511	X_WP:	0.000	Y_WP:	0.000	Y_WP:	0.500	X:	-0.005	Y:	0.104	Z:	0.045	yaw:	-29.254	yaw rate:	-1.788	Roll:	-1.664	Pitch:	2.630	Yaw:	-44.276	Thrust:	46.519
Time:	2.532	Roll Set Point:	0.059	Pitch Set Point:	-0.192	Yaw Set Point:	0.511	X_WP:	0.000	Y_WP:	0.000	Y_WP:	0.500	X:	-0.005	Y:	0.104	Z:	0.045	yaw:	-29.259	yaw rate:	-0.483	Roll:	-1.664	Pitch:	2.636	Yaw:	-44.053	Thrust:	47.109
Time:	2.547	Roll Set Point:	0.059	Pitch Set Point:	-0.192	Yaw Set Point:	0.510	X_WP:	0.000	Y_WP:	0.000	Y_WP:	0.500	X:	-0.005	Y:	0.104	Z:	0.045	yaw:	-29.236	yaw rate:	2.214	Roll:	-1.644	Pitch:	2.687	Yaw:	-43.576	Thrust:	48.015
Time:	2.563	Roll Set Point:	0.059	Pitch Set Point:	-0.192	Yaw Set Point:	0.510	X_WP:	0.000	Y_WP:	0.000	Y_WP:	0.500	X:	-0.005	Y:	0.104	Z:	0.045	yaw:	-29.236	yaw rate:	2.214	Roll:	-1.647	Pitch:	2.660	Yaw:	-43.947	Thrust:	48.883
Time:	2.578	Roll Set Point:	0.059	Pitch Set Point:	-0.192	Yaw Set Point:	0.510	X_WP:	0.000	Y_WP:	0.000	Y_WP:	0.500	X:	-0.005	Y:	0.104	Z:	0.045	yaw:	-29.241	yaw rate:	-0.443	Roll:	-1.622	Pitch:	2.686	Yaw:	-44.027	Thrust:	49.741
Time:	2.594	Roll Set Point:	0.059	Pitch Set Point:	-0.192	Yaw Set Point:	0.510	X_WP:	0.000	Y_WP:	0.000	Y_WP:	0.500	X:	-0.005	Y:	0.104	Z:	0.045	yaw:	-29.230	yaw rate:	3.315	Roll:	-1.590	Pitch:	2.677	Yaw:	-43.762	Thrust:	50.613
Time:	2.610	Roll Set Point:	0.059	Pitch Set Point:	-0.192	Yaw Set Point:	0.510	X_WP:	0.000	Y_WP:	0.000	Y_WP:	0.500	X:	-0.005	Y:	0.104	Z:	0.045	yaw:	-29.248	yaw rate:	-1.811	Roll:	-1.759	Pitch:	2.625	Yaw:	-44.267	Thrust:	51.606
Time:	2.625	Roll Set Point:	0.059	Pitch Set Point:	-0.192	Yaw Set Point:	0.510	X_WP:	0.000	Y_WP:	0.000	Y_WP:	0.500	X:	-0.005	Y:	0.104	Z:	0.045	yaw:	-29.229	yaw rate:	1.958	Roll:	-1.619	Pitch:	2.708	Yaw:	-43.609	Thrust:	51.969
Time:	2.641	Roll Set Point:	0.059	Pitch Set Point:	-0.192	Yaw Set Point:	0.510	X_WP:	0.000	Y_WP:	0.000	Y_WP:	0.500	X:	-0.005	Y:	0.104	Z:	0.045	yaw:	-29.229	yaw rate:	1.958	Roll:	-1.657	Pitch:	2.678	Yaw:	-43.937	Thrust:	53.144
Time:	2.657	Roll Set Point:	0.059	Pitch Set Point:	-0.192	Yaw Set Point:	0.509	X_WP:	0.000	Y_WP:	0.000	Y_WP:	0.500	X:	-0.005	Y:	0.104	Z:	0.045	yaw:	-29.185	yaw rate:	4.412	Roll:	-1.646	Pitch:	2.734	Yaw:	-43.135	Thrust:	54.244
Time:	2.672	Roll Set Point:	0.059	Pitch Set Point:	-0.192	Yaw Set Point:	0.510	X_WP:	0.000	Y_WP:	0.000	Y_WP:	0.500	X:	-0.005	Y:	0.104	Z:	0.045	yaw:	-29.215	yaw rate:	2.077	Roll:	-1.674	Pitch:	2.645	Yaw:	-44.419	Thrust:	54.829
Time:	2.688	Roll Set Point:	0.059	Pitch Set Point:	-0.192	Yaw Set Point:	0.510	X_WP:	0.000	Y_WP:	0.000	Y_WP:	0.500	X:	-0.005	Y:	0.104	Z:	0.045	yaw:	-29.231	yaw rate:	-1.625	Roll:	-1.633	Pitch:	2.662	Yaw:	-44.212	Thrust:	55.756
Time:	2.704	Roll Set Point:	0.059	Pitch Set Point:	-0.192	Yaw Set Point:	0.510	X_WP:	0.000	Y_WP:	0.000	Y_WP:	0.500	X:	-0.005	Y:	0.104	Z:	0.045	yaw:	-29.226	yaw rate:	0.479	Roll:	-1.653	Pitch:	2.682	Yaw:	-43.852	Thrust:	56.202
Time:	2.719	Roll Set Point:	0.059	Pitch Set Point:	-0.192	Yaw Set Point:	0.511	X_WP:	0.000	Y_WP:	0.000	Y_WP:	0.500	X:	-0.005	Y:	0.104	Z:	0.045	yaw:	-29.255	yaw rate:	-2.899	Roll:	-1.778	Pitch:	2.713	Yaw:	-44.459	Thrust:	57.751
Time:	2.735	Roll Set Point:	0.059	Pitch Set Point:	-0.192	Yaw Set Point:	0.510	X_WP:	0.000	Y_WP:	0.000	Y_WP:	0.500	X:	-0.005	Y:	0.104	Z:	0.045	yaw:	-29.196	yaw rate:	5.927	Roll:	-1.481	Pitch:	2.730	Yaw:	-42.898	Thrust:	58.125
Time:	2.750	Roll Set Point:	0.059	Pitch Set Point:	-0.192	Yaw Set Point:	0.510	X_WP:	0.000	Y_WP:	0.000	Y_WP:	0.500	X:	-0.005	Y:	0.104	Z:	0.045	yaw:	-29.236	yaw rate:	-4.019	Roll:	-1.792	Pitch:	2.670	Yaw:	-44.620	Thrust:	59.140
Time:	2.766	Roll Set Point:	0.059	Pitch Set Point:	-0.192	Yaw Set Point:	0.511	X_WP:	0.000	Y_WP:	0.000	Y_WP:	0.500	X:	-0.005	Y:	0.104	Z:	0.045	yaw:	-29.270	yaw rate:	-3.413	Roll:	-1.644	Pitch:	2.618	Yaw:	-44.571	Thrust:	59.802
Time:	2.782	Roll Set Point:	0.059	Pitch Set Point:	-0.192	Yaw Set Point:	0.510	X_WP:	0.000	Y_WP:	0.000	Y_WP:	0.500	X:	-0.005	Y:	0.104	Z:	0.045	yaw:	-29.242	yaw rate:	2.805	Roll:	-1.780	Pitch:	2.804	Yaw:	-43.478	Thrust:	61.050
Time:	2.797	Roll Set Point:	0.059	Pitch Set Point:	-0.192	Yaw Set Point:	0.510	X_WP:	0.000	Y_WP:	0.000	Y_WP:	0.500	X:	-0.005	Y:	0.104	Z:	0.045	yaw:	-29.242	yaw rate:	2.805	Roll:	-1.681	Pitch:	2.712	Yaw:	-43.955	Thrust:	61.673
Time:	2.813	Roll Set Point:	0.059	Pitch Set Point:	-0.192	Yaw Set Point:	0.510	X_WP:	0.000	Y_WP:	0.000	Y_WP:	0.500	X:	-0.005	Y:	0.104	Z:	0.045	yaw:	-29.223	yaw rate:	1.945	Roll:	-1.580	Pitch:	2.699	Yaw:	-43.602	Thrust:	62.408
Time:	2.829	Roll Set Point:	0.059	Pitch Set Point:	-0.192	Yaw Set Point:	0.511	X_WP:	0.000	Y_WP:	0.000	Y_WP:	0.500	X:	-0.005	Y:	0.104	Z:	0.045	yaw:	-29.277	yaw rate:	-5.459	Roll:	-1.752	Pitch:	2.660	Yaw:	-44.919	Thrust:	63.392
Time:	2.844	Roll Set Point:	0.059	Pitch Set Point:	-0.192	Yaw Set Point:	0.511	X_WP:	0.000	Y_WP:	0.000	Y_WP:	0.500	X:	-0.005	Y:	0.104	Z:	0.045	yaw:	-29.278	yaw rate:	-0.094	Roll:	-1.784	Pitch:	2.740	Yaw:	-44.015	Thrust:	64.369
Time:	2.860	Roll Set Point:	0.059	Pitch Set Point:	-0.192	Yaw Set Point:	0.510	X_WP:	0.000	Y_WP:	0.000	Y_WP:	0.500	X:	-0.005	Y:	0.104	Z:	0.045	yaw:	-29.243	yaw rate:	3.488	Roll:	-1.570	Pitch:	2.757	Yaw:	-43.379	Thrust:	65.063
Time:	2.875	Roll Set Point:	0.059	Pitch Set Point:	-0.192	Yaw Set Point:	0.510	X_WP:	0.000	Y_WP:	0.000	Y_WP:	0.500	X:	-0.005	Y:	0.104	Z:	0.045	yaw:	-29.237	yaw rate:	0.598	Roll:	-1.668	Pitch:	2.715	Yaw:	-43.841	Thrust:	65.822
Time:	2.891	Roll Set Point:	0.059	Pitch Set Point:	-0.192	Yaw Set Point:	0.510	X_WP:	0.000	Y_WP:	0.000	Y_WP:	0.500	X:	-0.005	Y:	0.104	Z:	0.045	yaw:	-29.242	yaw rate:	-0.468	Roll:	-1.717	Pitch:	2.718	Yaw:	-44.033	Thrust:	66.781
Time:	2.907	Roll Set Point:	0.059	Pitch Set Point:	-0.192	Yaw Set Point:	0.510	X_WP:	0.000	Y_WP:	0.000	Y_WP:	0.500	X:	-0.005	Y:	0.104	Z:	0.045	yaw:	-29.242	yaw rate:	-0.468	Roll:	-1.695	Pitch:	2.736	Yaw:	-43.973	Thrust:	67.887
Time:	2.922	Roll Set Point:	0.059	Pitch Set Point:	-0.192	Yaw Set Point:	0.511	X_WP:	0.000	Y_WP:	0.000	Y_WP:	0.500	X:	-0.005	Y:	0.104	Z:	0.045	yaw:	-29.265	yaw rate:	-2.309	Roll:	-1.673	Pitch:	2.728	Yaw:	-44.358	Thrust:	68.304
Time:	2.938	Roll Set Point:	0.059	Pitch Set Point:	-0.192	Yaw Set Point:	0.511	X_WP:	0.000	Y_WP:	0.000	Y_WP:	0.500	X:	-0.005	Y:	0.104	Z:	0.045	yaw:	-29.264	yaw rate:	0.098	Roll:	-1.703	Pitch:	2.761	Yaw:	-43.969	Thrust:	69.270
Time:	2.954	Roll Set Point:	0.059	Pitch Set Point:	-0.192	Yaw Set Point:	0.510	X_WP:	0.000	Y_WP:	0.000	Y_WP:	0.500	X:	-0.005	Y:	0.104	Z:	0.045	yaw:	-29.245	yaw rate:	-1.376	Roll:	-1.678	Pitch:	2.767	Yaw:	-43.650	Thrust:	70.295
Time:	2.969	Roll Set Point:	0.059	Pitch Set Point:	-0.192	Yaw Set Point:	0.510	X_WP:	0.000	Y_WP:	0.000	Y_WP:	0.500	X:	-0.005	Y:	0.104	Z:	0.045	yaw:	-29.210	yaw rate:	3.496	Roll:	-1.661	Pitch:	2.777	Yaw:	-43.325	Thrust:	71.034
Time:	2.985	Roll Set Point:	0.059	Pitch Set Point:	-0.192	Yaw Set Point:	0.510	X_WP:	0.000	Y_WP:	0.000	Y_WP:	0.500	X:	-0.005	Y:	0.104	Z:	0.045	yaw:	-29.247	yaw rate:	-3.651	Roll:	-1.760	Pitch:	2.709	Yaw:	-44.573	Thrust:	71.870
Time:	3.000	Roll Set Point:	0.059	Pitch Set Point:	-0.192	Yaw Set Point:	0.511	X_WP:	0.000	Y_WP:	0.000	Y_WP:	0.500	X:	-0.005	Y:	0.104	Z:	0.045	yaw:	-29.251	yaw rate:	-0.434	Roll:	-1.751	Pitch:	2.784	Yaw:	-44.040	Thrust:	72.833
Time:	3.016	Roll Set Point:	0.059	Pitch Set Point:	-0.192	Yaw Set Point:	0.511	X_WP:	0.000	Y_WP:	0.000	Y_WP:	0.500	X:	-0.005	Y:	0.104	Z:	0.045	yaw:	-29.255	yaw rate:	-0.407	Roll:	-1.673	Pitch:	2.734	Yaw:	-44.042	Thrust:	73.431
Time:	3.032	Roll Set Point:	0.059	Pitch Set Point:	-0.192	Yaw Set Point:	0.510	X_WP:	0.000	Y_WP:	0.000	Y_WP:	0.500	X:	-0.005	Y:	0.104	Z:	0.045	yaw:	-29.228	yaw rate:	2.715	Roll:	-1.666	Pitch:	2.771	Yaw:	-43.480	Thrust:	74.519
Time:	3.047	Roll Set Point:	0.059	Pitch Set Point:	-0.192	Yaw Set Point:	0.510	X_WP:	0.000	Y_WP:	0.000	Y_WP:	0.500	X:	-0.005	Y:	0.104	Z:	0.045	yaw:	-29.228	yaw rate:	2.715	Roll:	-1.712	Pitch:	2.767	Yaw:	-43.936	Thrust:	75.317
Time:	3.078	Roll Set Point:	0.059	Pitch Set Point:	-0.192	Yaw Set Point:	0.510	X_WP:	0.000	Y_WP:	0.000	Y_WP:	0.500	X:	-0.005	Y:	0.104	Z:	0.045	yaw:	-29.241	yaw rate:	0.198	Roll:	-1.866	Pitch:	2.965	Yaw:	-47.062	Thrust:	100.000
Time:	3.094	Roll Set Point:	0.059	Pitch Set Point:	-0.192	Yaw Set Point:	0.510	X_WP:	0.000	Y_WP:	0.000	Y_WP:	0.500	X:	-0.005	Y:	0.104	Z:	0.045	yaw:	-29.241	yaw rate:	0.198	Roll:	-1.718	Pitch:	2.773	Yaw:	-43.954	Thrust:	77.022
Time:	3.109	Roll Set Point:	0.059	Pitch Set Point:	-0.192	Yaw Set Point:	0.511	X_WP:	0.000	Y_WP:	0.000	Y_WP:	0.500	X:	-0.005	Y:	0.104	Z:	0.045	yaw:	-29.250	yaw rate:	-1.474	Roll:	-1.744	Pitch:	2.780	Yaw:	-44.109	Thrust:	77.895
Time:	3.125	Roll Set Point:	0.059	Pitch Set Point:	-0.192	Yaw Set Point:	0.510	X_WP:	0.000	Y_WP:	0.000	Y_WP:	0.500	X:	-0.005	Y:	0.104	Z:	0.045	yaw:	-29.225	yaw rate:	2.480	Roll:	-1.738	Pitch:	2.823	Yaw:	-43.523	Thrust:	78.881
Time:	3.140	Roll Set Point:	0.059	Pitch Set Point:	-0.192	Yaw Set Point:	0.511	X_WP:	0.000	Y_WP:	0.000	Y_WP:	0.500	X:	-0.005	Y:	0.104	Z:	0.045	yaw:	-29.251	yaw rate:	-2.536	Roll:	-1.668	Pitch:	2.757	Yaw:	-44.391	Thrust:	79.536
Time:	3.156	Roll Set Point:	0.059	Pitch Set Point:	-0.192	Yaw Set Point:	0.510	X_WP:	0.000	Y_WP:	0.000	Y_WP:	0.500	X:	-0.005	Y:	0.104	Z:	0.045	yaw:	-29.227	yaw rate:	2.345	Roll:	-1.671	Pitch:	2.760	Yaw:	-43.534	Thrust:	80.191
Time:	3.172	Roll Set Point:	0.059	Pitch Set Point:	-0.192	Yaw Set Point:	0.510	X_WP:	0.000	Y_WP:	0.000	Y_WP:	0.500	X:	-0.005	Y:	0.104	Z:	0.045	yaw:	-29.227	yaw rate:	2.345	Roll:	-1.726	Pitch:	2.790	Yaw:	-43.934	Thrust:	81.282
Time:	3.187	Roll Set Point:	0.059	Pitch Set Point:	-0.192	Yaw Set Point:	0.510	X_WP:	0.000	Y_WP:	0.000	Y_WP:	0.500	X:	-0.005	Y:	0.104	Z:	0.045	yaw:	-29.249	yaw rate:	-2.180	Roll:	-1.869	Pitch:	2.839	Yaw:	-44.329	Thrust:	82.360
Time:	3.203	Roll Set Point:	0.059	Pitch Set Point:	-0.192	Yaw Set Point:	0.510	X_WP:	0.000	Y_WP:	0.000	Y_WP:	0.500	X:	-0.005	Y:	0.104	Z:	0.045	yaw:	-29.226	yaw rate:	1.111	Roll:	-1.610	Pitch:	2.791	Yaw:	-43.553	Thrust:	82.936
Time:	3.219	Roll Set Point:	0.059	Pitch Set Point:	-0.192	Yaw Set Point:	0.511	X_WP:	0.000	Y_WP:	0.000	Y_WP:	0.500	X:	-0.005	Y:	0.104	Z:	0.045	yaw:	-29.253	yaw rate:	-2.695	Roll:	-1.796	Pitch:	2.712	Yaw:	-44.422	Thrust:	83.777
Time:	3.234	Roll Set Point:	0.059	Pitch Set Point:	-0.192	Yaw Set Point:	0.511	X_WP:	0.000	Y_WP:	0.000	Y_WP:	0.500	X:	-0.005	Y:	0.104	Z:	0.045	yaw:	-29.253	yaw rate:	-2.695	Roll:	-1.737	Pitch:	2.803	Yaw:	-43.970	Thrust:	84.694
Time:	3.250	Roll Set Point:	0.059	Pitch Set Point:	-0.192	Yaw Set Point:	0.510	X_WP:	0.000	Y_WP:	0.000	Y_WP:	0.500	X:	-0.005	Y:	0.104	Z:	0.045	yaw:	-29.226	yaw rate:	3.700	Roll:	-1.749	Pitch:	2.882	Yaw:	-43.473	Thrust:	85.558
Time:	3.265	Roll Set Point:	0.059	Pitch Set Point:	-0.192	Yaw Set Point:	0.510	X_WP:	0.000	Y_WP:	0.000	Y_WP:	0.500	X:	-0.005	Y:	0.104	Z:	0.045	yaw:	-29.239	yaw rate:	-1.279	Roll:	-1.713	Pitch:	2.812	Yaw:	-44.164	Thrust:	86.450
Time:	3.281	Roll Set Point:	0.059	Pitch Set Point:	-0.192	Yaw Set Point:	0.510	X_WP:	0.000	Y_WP:	0.000	Y_WP:	0.500	X:	-0.005	Y:	0.104	Z:	0.045	yaw:	-29.239	yaw rate:	-1.279	Roll:	-1.743	Pitch:	2.816	Yaw:	-43.957	Thrust:	87.385
Time:	3.297	Roll Set Point:	0.059	Pitch Set Point:	-0.192	Yaw Set Point:	0.511	X_WP:	0.000	Y_WP:	0.000	Y_WP:	0.500	X:	-0.005	Y:	0.104	Z:	0.045	yaw:	-29.250	yaw rate:	-0.619	Roll:	-1.722	Pitch:	2.804	Yaw:	-44.144	Thrust:	87.914
Time:	3.312	Roll Set Point:	0.059	Pitch Set Point:	-0.192	Yaw Set Point:	0.510	X_WP:	0.000	Y_WP:	0.000	Y_WP:	0.500	X:	-0.005	Y:	0.104	Z:	0.045	yaw:	-29.241	yaw rate:	0.871	Roll:	-1.759	Pitch:	2.830	Yaw:	-43.807	Thrust:	89.036
Time:	3.328	Roll Set Point:	0.059	Pitch Set Point:	-0.192	Yaw Set Point:	0.511	X_WP:	0.000	Y_WP:	0.000	Y_WP:	0.500	X:	-0.005	Y:	0.104	Z:	0.045	yaw:	-29.254	yaw rate:	-1.359	Roll:	-1.802	Pitch:	2.815	Yaw:	-44.200	Thrust:	89.758
Time:	3.344	Roll Set Point:	0.059	Pitch Set Point:	-0.192	Yaw Set Point:	0.510	X_WP:	0.000	Y_WP:	0.000	Y_WP:	0.500	X:	-0.005	Y:	0.104	Z:	0.045	yaw:	-29.241	yaw rate:	1.351	Roll:	-1.680	Pitch:	2.853	Yaw:	-43.733	Thrust:	90.771
Time:	3.359	Roll Set Point:	0.059	Pitch Set Point:	-0.192	Yaw Set Point:	0.510	X_WP:	0.000	Y_WP:	0.000	Y_WP:	0.500	X:	-0.005	Y:	0.104	Z:	0.045	yaw:	-29.234	yaw rate:	0.735	Roll:	-1.788	Pitch:	2.825	Yaw:	-43.814	Thrust:	91.465
Time:	3.375	Roll Set Point:	0.059	Pitch Set Point:	-0.192	Yaw Set Point:	0.510	X_WP:	0.000	Y_WP:	0.000	Y_WP:	0.500	X:	-0.005	Y:	0.104	Z:	0.045	yaw:	-29.234	yaw rate:	0.735	Roll:	-1.756	Pitch:	2.836	Yaw:	-43.943	Thrust:	92.368
Time:	3.390	Roll Set Point:	0.059	Pitch Set Point:	-0.192	Yaw Set Point:	0.510	X_WP:	0.000	Y_WP:	0.000	Y_WP:	0.500	X:	-0.005	Y:	0.104	Z:	0.045	yaw:	-29.240	yaw rate:	-0.621	Roll:	-1.729	Pitch:	2.827	Yaw:	-44.056	Thrust:	93.103
Time:	3.406	Roll Set Point:	0.059	Pitch Set Point:	-0.192	Yaw Set Point:	0.511	X_WP:	0.000	Y_WP:	0.000	Y_WP:	0.500	X:	-0.005	Y:	0.104	Z:	0.045	yaw:	-29.252	yaw rate:	-1.179	Roll:	-1.835	Pitch:	2.828	Yaw:	-44.166	Thrust:	94.088
Time:	3.422	Roll Set Point:	0.059	Pitch Set Point:	-0.192	Yaw Set Point:	0.510	X_WP:	0.000	Y_WP:	0.000	Y_WP:	0.500	X:	-0.005	Y:	0.104	Z:	0.045	yaw:	-29.234	yaw rate:	1.790	Roll:	-1.755	Pitch:	2.862	Yaw:	-43.649	Thrust:	95.084
Time:	3.437	Roll Set Point:	0.059	Pitch Set Point:	-0.192	Yaw Set Point:	0.510	X_WP:	0.000	Y_WP:	0.000	Y_WP:	0.500	X:	-0.005	Y:	0.104	Z:	0.045	yaw:	-29.234	yaw rate:	1.790	Roll:	-1.765	Pitch:	2.849	Yaw:	-43.937	Thrust:	95.647
Time:	3.453	Roll Set Point:	0.059	Pitch Set Point:	-0.192	Yaw Set Point:	0.511	X_WP:	0.000	Y_WP:	0.000	Y_WP:	0.500	X:	-0.005	Y:	0.104	Z:	0.045	yaw:	-29.255	yaw rate:	5.643	Roll:	-1.756	Pitch:	2.836	Yaw:	-44.342	Thrust:	96.733
Time:	3.469	Roll Set Point:	0.059	Pitch Set Point:	-0.192	Yaw Set Point:	0.511	X_WP:	0.000	Y_WP:	0.000	Y_WP:	0.500	X:	-0.005	Y:	0.104	Z:	0.045	yaw:	-29.273	yaw rate:	-1.779	Roll:	-1.765	Pitch:	2.822	Yaw:	-44.291	Thrust:	97.315
Time:	3.484	Roll Set Point:	0.059	Pitch Set Point:	-0.192	Yaw Set Point:	0.511	X_WP:	0.000	Y_WP:	0.000	Y_WP:	0.500	X:	-0.005	Y:	0.104	Z:	0.045	yaw:	-29.273	yaw rate:	0.013	Roll:	-1.831	Pitch:	2.851	Yaw:	-44.002	Thrust:	98.544
Time:	3.500	Roll Set Point:	0.059	Pitch Set Point:	-0.192	Yaw Set Point:	0.511	X_WP:	0.000	Y_WP:	0.000	Y_WP:	0.500	X:	-0.005	Y:	0.104	Z:	0.045	yaw:	-29.259	yaw rate:	1.413	Roll:	-1.717	Pitch:	2.909	Yaw:	-43.735	Thrust:	99.049
Time:	3.515	Roll Set Point:	0.059	Pitch Set Point:	-0.192	Yaw Set Point:	0.510	X_WP:	0.000	Y_WP:	0.000	Y_WP:	0.500	X:	-0.005	Y:	0.104	Z:	0.045	yaw:	-29.222	yaw rate:	3.663	Roll:	-1.698	Pitch:	2.885	Yaw:	-43.313	Thrust:	99.973
Time:	3.531	Roll Set Point:	0.059	Pitch Set Point:	-0.192	Yaw Set Point:	0.510	X_WP:	0.000	Y_WP:	0.000	Y_WP:	0.500	X:	-0.005	Y:	0.104	Z:	0.045	yaw:	-29.243	yaw rate:	-2.079	Roll:	-1.838	Pitch:	2.850	Yaw:	-44.305	Thrust:	100.000
Time:	3.547	Roll Set Point:	0.059	Pitch Set Point:	-0.192	Yaw Set Point:	0.511	X_WP:	0.000	Y_WP:	0.000	Y_WP:	0.500	X:	-0.005	Y:	0.104	Z:	0.045	yaw:	-29.257	yaw rate:	-1.393	Roll:	-1.780	Pitch:	2.860	Yaw:	-44.209	Thrust:	100.000
Time:	3.562	Roll Set Point:	0.059	Pitch Set Point:	-0.192	Yaw Set Point:	0.511	X_WP:	0.000	Y_WP:	0.000	Y_WP:	0.500	X:	-0.005	Y:	0.104	Z:	0.045	yaw:	-29.280	yaw rate:	-2.325	Roll:	-1.873	Pitch:	2.863	Yaw:	-44.398	Thrust:	100.000
Time:	3.578	Roll Set Point:	0.059	Pitch Set Point:	-0.192	Yaw Set Point:	0.511	X_WP:	0.000	Y_WP:	0.000	Y_WP:	0.500	X:	-0.005	Y:	0.104	Z:	0.045	yaw:	-29.262	yaw rate:	1.835	Roll:	-1.725	Pitch:	2.883	Yaw:	-43.675	Thrust:	100.000
Time:	3.594	Roll Set Point:	0.059	Pitch Set Point:	-0.192	Yaw Set Point:	0.511	X_WP:	0.000	Y_WP:	0.000	Y_WP:	0.500	X:	-0.005	Y:	0.104	Z:	0.045	yaw:	-29.272	yaw rate:	-0.989	Roll:	-1.821	Pitch:	2.876	Yaw:	-44.162	Thrust:	100.000
Time:	3.609	Roll Set Point:	0.059	Pitch Set Point:	-0.192	Yaw Set Point:	0.511	X_WP:	0.000	Y_WP:	0.000	Y_WP:	0.500	X:	-0.005	Y:	0.104	Z:	0.045	yaw:	-29.272	yaw rate:	-0.989	Roll:	-1.790	Pitch:	2.886	Yaw:	-43.997	Thrust:	100.000
Time:	3.625	Roll Set Point:	0.059	Pitch Set Point:	-0.192	Yaw Set Point:	0.510	X_WP:	0.000	Y_WP:	0.000	Y_WP:	0.500	X:	-0.005	Y:	0.104	Z:	0.045	yaw:	-29.220	yaw rate:	5.185	Roll:	-1.680	Pitch:	2.943	Yaw:	-43.055	Thrust:	100.000
Time:	3.640	Roll Set Point:	0.059	Pitch Set Point:	-0.192	Yaw Set Point:	0.510	X_WP:	0.000	Y_WP:	0.000	Y_WP:	0.500	X:	-0.005	Y:	0.104	Z:	0.045	yaw:	-29.238	yaw rate:	-1.782	Roll:	-1.892	Pitch:	2.901	Yaw:	-44.247	Thrust:	100.000
Time:	3.656	Roll Set Point:	0.059	Pitch Set Point:	-0.192	Yaw Set Point:	0.510	X_WP:	0.000	Y_WP:	0.000	Y_WP:	0.500	X:	-0.005	Y:	0.104	Z:	0.045	yaw:	-29.247	yaw rate:	0.571	Roll:	-1.772	Pitch:	2.882	Yaw:	-44.131	Thrust:	100.000
Time:	3.672	Roll Set Point:	0.059	Pitch Set Point:	-0.192	Yaw Set Point:	0.510	X_WP:	0.000	Y_WP:	0.000	Y_WP:	0.500	X:	-0.005	Y:	0.104	Z:	0.045	yaw:	-29.247	yaw rate:	0.571	Roll:	-1.796	Pitch:	2.899	Yaw:	-43.942	Thrust:	100.000
Time:	3.687	Roll Set Point:	0.059	Pitch Set Point:	-0.192	Yaw Set Point:	0.511	X_WP:	0.000	Y_WP:	0.000	Y_WP:	0.500	X:	-0.005	Y:	0.104	Z:	0.045	yaw:	-29.261	yaw rate:	-1.137	Roll:	-1.814	Pitch:	2.898	Yaw:	-44.227	Thrust:	100.000
Time:	3.703	Roll Set Point:	0.059	Pitch Set Point:	-0.192	Yaw Set Point:	0.510	X_WP:	0.000	Y_WP:	0.000	Y_WP:	0.500	X:	-0.005	Y:	0.104	Z:	0.045	yaw:	-29.218	yaw rate:	4.378	Roll:	-1.708	Pitch:	2.939	Yaw:	-43.187	Thrust:	100.000
Time:	3.719	Roll Set Point:	0.059	Pitch Set Point:	-0.192	Yaw Set Point:	0.511	X_WP:	0.000	Y_WP:	0.000	Y_WP:	0.500	X:	-0.005	Y:	0.104	Z:	0.045	yaw:	-29.277	yaw rate:	-5.985	Roll:	-1.857	Pitch:	2.832	Yaw:	-45.007	Thrust:	100.000
Time:	3.734	Roll Set Point:	0.059	Pitch Set Point:	-0.192	Yaw Set Point:	0.510	X_WP:	0.000	Y_WP:	0.000	Y_WP:	0.500	X:	-0.005	Y:	0.104	Z:	0.045	yaw:	-29.245	yaw rate:	3.206	Roll:	-1.836	Pitch:	2.996	Yaw:	-43.422	Thrust:	100.000
Time:	3.750	Roll Set Point:	0.059	Pitch Set Point:	-0.192	Yaw Set Point:	0.510	X_WP:	0.000	Y_WP:	0.000	Y_WP:	0.500	X:	-0.005	Y:	0.104	Z:	0.045	yaw:	-29.242	yaw rate:	0.363	Roll:	-1.782	Pitch:	2.884	Yaw:	-43.894	Thrust:	100.000
Time:	3.765	Roll Set Point:	0.059	Pitch Set Point:	-0.192	Yaw Set Point:	0.510	X_WP:	0.000	Y_WP:	0.000	Y_WP:	0.500	X:	-0.005	Y:	0.104	Z:	0.045	yaw:	-29.237	yaw rate:	0.483	Roll:	-1.811	Pitch:	2.930	Yaw:	-43.867	Thrust:	100.000
Time:	3.781	Roll Set Point:	0.059	Pitch Set Point:	-0.192	Yaw Set Point:	0.511	X_WP:	0.000	Y_WP:	0.000	Y_WP:	0.500	X:	-0.005	Y:	0.104	Z:	0.045	yaw:	-29.261	yaw rate:	-2.397	Roll:	-1.824	Pitch:	2.870	Yaw:	-44.383	Thrust:	100.000
Time:	3.797	Roll Set Point:	0.059	Pitch Set Point:	-0.192	Yaw Set Point:	0.510	X_WP:	0.000	Y_WP:	0.000	Y_WP:	0.500	X:	-0.005	Y:	0.104	Z:	0.045	yaw:	-29.248	yaw rate:	1.271	Roll:	-1.796	Pitch:	2.965	Yaw:	-43.751	Thrust:	100.000
Time:	3.812	Roll Set Point:	0.059	Pitch Set Point:	-0.192	Yaw Set Point:	0.510	X_WP:	0.000	Y_WP:	0.000	Y_WP:	0.500	X:	-0.005	Y:	0.104	Z:	0.045	yaw:	-29.248	yaw rate:	1.271	Roll:	-1.816	Pitch:	2.932	Yaw:	-43.963	Thrust:	100.000
Time:	3.828	Roll Set Point:	0.059	Pitch Set Point:	-0.192	Yaw Set Point:	0.511	X_WP:	0.000	Y_WP:	0.000	Y_WP:	0.500	X:	-0.005	Y:	0.104	Z:	0.045	yaw:	-29.255	yaw rate:	-0.721	Roll:	-1.846	Pitch:	2.928	Yaw:	-44.094	Thrust:	100.000
Time:	3.844	Roll Set Point:	0.059	Pitch Set Point:	-0.192	Yaw Set Point:	0.511	X_WP:	0.000	Y_WP:	0.000	Y_WP:	0.500	X:	-0.005	Y:	0.104	Z:	0.045	yaw:	-29.269	yaw rate:	-1.394	Roll:	-1.898	Pitch:	2.920	Yaw:	-44.226	Thrust:	100.000
Time:	3.859	Roll Set Point:	0.059	Pitch Set Point:	-0.192	Yaw Set Point:	0.510	X_WP:	0.000	Y_WP:	0.000	Y_WP:	0.500	X:	-0.005	Y:	0.104	Z:	0.045	yaw:	-29.241	yaw rate:	2.784	Roll:	-1.653	Pitch:	2.989	Yaw:	-43.488	Thrust:	100.000
Time:	3.875	Roll Set Point:	0.059	Pitch Set Point:	-0.192	Yaw Set Point:	0.510	X_WP:	0.000	Y_WP:	0.000	Y_WP:	0.500	X:	-0.005	Y:	0.104	Z:	0.045	yaw:	-29.245	yaw rate:	-0.321	Roll:	-1.902	Pitch:	2.945	Yaw:	-44.012	Thrust:	100.000
Time:	3.891	Roll Set Point:	0.059	Pitch Set Point:	-0.192	Yaw Set Point:	0.510	X_WP:	0.000	Y_WP:	0.000	Y_WP:	0.500	X:	-0.005	Y:	0.104	Z:	0.045	yaw:	-29.238	yaw rate:	1.868	Roll:	-1.849	Pitch:	2.959	Yaw:	-43.843	Thrust:	100.000
Time:	3.906	Roll Set Point:	0.059	Pitch Set Point:	-0.192	Yaw Set Point:	0.510	X_WP:	0.000	Y_WP:	0.000	Y_WP:	0.500	X:	-0.005	Y:	0.104	Z:	0.045	yaw:	-29.244	yaw rate:	-0.564	Roll:	-1.747	Pitch:	2.953	Yaw:	-44.046	Thrust:	100.000
Time:	3.922	Roll Set Point:	0.059	Pitch Set Point:	-0.192	Yaw Set Point:	0.511	X_WP:	0.000	Y_WP:	0.000	Y_WP:	0.500	X:	-0.005	Y:	0.104	Z:	0.045	yaw:	-29.270	yaw rate:	-2.684	Roll:	-1.915	Pitch:	2.905	Yaw:	-44.444	Thrust:	100.000
Time:	3.937	Roll Set Point:	0.059	Pitch Set Point:	-0.192	Yaw Set Point:	0.511	X_WP:	0.000	Y_WP:	0.000	Y_WP:	0.500	X:	-0.005	Y:	0.104	Z:	0.045	yaw:	-29.277	yaw rate:	-0.700	Roll:	-1.842	Pitch:	2.960	Yaw:	-44.122	Thrust:	100.000
Time:	3.953	Roll Set Point:	0.059	Pitch Set Point:	-0.192	Yaw Set Point:	0.510	X_WP:	0.000	Y_WP:	0.000	Y_WP:	0.500	X:	-0.005	Y:	0.104	Z:	0.045	yaw:	-29.249	yaw rate:	2.878	Roll:	-1.786	Pitch:	2.994	Yaw:	-43.490	Thrust:	100.000
Time:	3.969	Roll Set Point:	0.059	Pitch Set Point:	-0.192	Yaw Set Point:	0.510	X_WP:	0.000	Y_WP:	0.000	Y_WP:	0.500	X:	-0.005	Y:	0.104	Z:	0.045	yaw:	-29.249	yaw rate:	2.878	Roll:	-1.837	Pitch:	2.966	Yaw:	-43.958	Thrust:	100.000
Time:	3.984	Roll Set Point:	0.059	Pitch Set Point:	-0.192	Yaw Set Point:	0.510	X_WP:	0.000	Y_WP:	0.000	Y_WP:	0.500	X:	-0.005	Y:	0.104	Z:	0.045	yaw:	-29.199	yaw rate:	7.545	Roll:	-1.802	Pitch:	3.041	Yaw:	-43.059	Thrust:	100.000
Time:	4.000	Roll Set Point:	0.059	Pitch Set Point:	-0.192	Yaw Set Point:	0.511	X_WP:	0.000	Y_WP:	0.000	Y_WP:	0.500	X:	-0.005	Y:	0.104	Z:	0.045	yaw:	-29.265	yaw rate:	-6.607	Roll:	-1.903	Pitch:	2.900	Yaw:	-45.105	Thrust:	100.000
Time:	4.016	Roll Set Point:	0.059	Pitch Set Point:	-0.192	Yaw Set Point:	0.511	X_WP:	0.000	Y_WP:	0.000	Y_WP:	0.500	X:	-0.005	Y:	0.104	Z:	0.045	yaw:	-29.251	yaw rate:	1.367	Roll:	-1.851	Pitch:	2.991	Yaw:	-43.740	Thrust:	100.000
Time:	4.031	Roll Set Point:	0.059	Pitch Set Point:	-0.192	Yaw Set Point:	0.511	X_WP:	0.000	Y_WP:	0.000	Y_WP:	0.500	X:	-0.005	Y:	0.104	Z:	0.045	yaw:	-29.290	yaw rate:	-3.883	Roll:	-1.891	Pitch:	2.920	Yaw:	-44.662	Thrust:	100.000
Time:	4.047	Roll Set Point:	0.059	Pitch Set Point:	-0.192	Yaw Set Point:	0.510	X_WP:	0.000	Y_WP:	0.000	Y_WP:	0.500	X:	-0.005	Y:	0.104	Z:	0.045	yaw:	-29.237	yaw rate:	5.326	Roll:	-1.729	Pitch:	3.052	Yaw:	-43.048	Thrust:	100.000
Time:	4.078	Roll Set Point:	0.059	Pitch Set Point:	-0.192	Yaw Set Point:	0.510	X_WP:	0.000	Y_WP:	0.000	Y_WP:	0.500	X:	-0.005	Y:	0.104	Z:	0.045	yaw:	-29.232	yaw rate:	0.455	Roll:	-2.102	Pitch:	3.414	Yaw:	-47.060	Thrust:	100.000
Time:	4.094	Roll Set Point:	0.059	Pitch Set Point:	-0.192	Yaw Set Point:	0.510	X_WP:	0.000	Y_WP:	0.000	Y_WP:	0.500	X:	-0.005	Y:	0.104	Z:	0.045	yaw:	-29.245	yaw rate:	0.591	Roll:	-1.902	Pitch:	2.962	Yaw:	-44.172	Thrust:	100.000
Time:	4.109	Roll Set Point:	0.059	Pitch Set Point:	-0.192	Yaw Set Point:	0.510	X_WP:	0.000	Y_WP:	0.000	Y_WP:	0.500	X:	-0.005	Y:	0.104	Z:	0.045	yaw:	-29.245	yaw rate:	0.591	Roll:	-1.854	Pitch:	2.994	Yaw:	-43.959	Thrust:	100.000
Time:	4.125	Roll Set Point:	0.059	Pitch Set Point:	-0.192	Yaw Set Point:	0.511	X_WP:	0.000	Y_WP:	0.000	Y_WP:	0.500	X:	-0.005	Y:	0.104	Z:	0.045	yaw:	-29.252	yaw rate:	-2.181	Roll:	-1.928	Pitch:	3.019	Yaw:	-44.084	Thrust:	100.000
Time:	4.141	Roll Set Point:	0.059	Pitch Set Point:	-0.192	Yaw Set Point:	0.511	X_WP:	0.000	Y_WP:	0.000	Y_WP:	0.500	X:	-0.005	Y:	0.104	Z:	0.045	yaw:	-29.252	yaw rate:	-2.181	Roll:	-1.861	Pitch:	3.002	Yaw:	-43.975	Thrust:	100.000
Time:	4.156	Roll Set Point:	0.059	Pitch Set Point:	-0.192	Yaw Set Point:	0.511	X_WP:	0.000	Y_WP:	0.000	Y_WP:	0.500	X:	-0.005	Y:	0.104	Z:	0.045	yaw:	-29.253	yaw rate:	-0.092	Roll:	-1.871	Pitch:	2.998	Yaw:	-43.980	Thrust:	100.000
Time:	4.172	Roll Set Point:	0.059	Pitch Set Point:	-0.192	Yaw Set Point:	0.511	X_WP:	0.000	Y_WP:	0.000	Y_WP:	0.500	X:	-0.005	Y:	0.104	Z:	0.045	yaw:	-29.253	yaw rate:	-0.092	Roll:	-1.865	Pitch:	3.008	Yaw:	-43.970	Thrust:	100.000
Time:	4.188	Roll Set Point:	0.059	Pitch Set Point:	-0.192	Yaw Set Point:	0.511	X_WP:	0.000	Y_WP:	0.000	Y_WP:	0.500	X:	-0.005	Y:	0.104	Z:	0.045	yaw:	-29.266	yaw rate:	-3.356	Roll:	-1.876	Pitch:	2.989	Yaw:	-44.210	Thrust:	100.000
Time:	4.203	Roll Set Point:	0.059	Pitch Set Point:	-0.192	Yaw Set Point:	0.511	X_WP:	0.000	Y_WP:	0.000	Y_WP:	0.500	X:	-0.005	Y:	0.104	Z:	0.045	yaw:	-29.279	yaw rate:	-1.326	Roll:	-1.913	Pitch:	3.022	Yaw:	-44.227	Thrust:	100.000
Time:	4.219	Roll Set Point:	0.059	Pitch Set Point:	-0.192	Yaw Set Point:	0.510	X_WP:	0.000	Y_WP:	0.000	Y_WP:	0.500	X:	-0.005	Y:	0.104	Z:	0.045	yaw:	-29.243	yaw rate:	3.636	Roll:	-1.798	Pitch:	3.021	Yaw:	-43.347	Thrust:	100.000
Time:	4.234	Roll Set Point:	0.059	Pitch Set Point:	-0.192	Yaw Set Point:	0.510	X_WP:	0.000	Y_WP:	0.000	Y_WP:	0.500	X:	-0.005	Y:	0.104	Z:	0.045	yaw:	-29.243	yaw rate:	3.636	Roll:	-1.873	Pitch:	3.022	Yaw:	-43.956	Thrust:	100.000
Time:	4.250	Roll Set Point:	0.059	Pitch Set Point:	-0.192	Yaw Set Point:	0.510	X_WP:	0.000	Y_WP:	0.000	Y_WP:	0.500	X:	-0.005	Y:	0.104	Z:	0.045	yaw:	-29.235	yaw rate:	2.364	Roll:	-1.834	Pitch:	3.043	Yaw:	-43.806	Thrust:	100.000
Time:	4.266	Roll Set Point:	0.059	Pitch Set Point:	-0.192	Yaw Set Point:	0.511	X_WP:	0.000	Y_WP:	0.000	Y_WP:	0.500	X:	-0.005	Y:	0.104	Z:	0.045	yaw:	-29.262	yaw rate:	-2.765	Roll:	-1.962	Pitch:	3.021	Yaw:	-44.446	Thrust:	100.000
Time:	4.281	Roll Set Point:	0.059	Pitch Set Point:	-0.192	Yaw Set Point:	0.511	X_WP:	0.000	Y_WP:	0.000	Y_WP:	0.500	X:	-0.005	Y:	0.104	Z:	0.045	yaw:	-29.258	yaw rate:	0.433	Roll:	-1.812	Pitch:	3.013	Yaw:	-43.912	Thrust:	100.000
Time:	4.297	Roll Set Point:	0.059	Pitch Set Point:	-0.192	Yaw Set Point:	0.510	X_WP:	0.000	Y_WP:	0.000	Y_WP:	0.500	X:	-0.005	Y:	0.104	Z:	0.045	yaw:	-29.201	yaw rate:	5.687	Roll:	-1.765	Pitch:	3.090	Yaw:	-42.943	Thrust:	100.000
Time:	4.313	Roll Set Point:	0.059	Pitch Set Point:	-0.192	Yaw Set Point:	0.510	X_WP:	0.000	Y_WP:	0.000	Y_WP:	0.500	X:	-0.005	Y:	0.104	Z:	0.045	yaw:	-29.201	yaw rate:	5.687	Roll:	-1.879	Pitch:	3.039	Yaw:	-43.892	Thrust:	100.000
Time:	4.328	Roll Set Point:	0.059	Pitch Set Point:	-0.192	Yaw Set Point:	0.510	X_WP:	0.000	Y_WP:	0.000	Y_WP:	0.500	X:	-0.005	Y:	0.104	Z:	0.045	yaw:	-29.226	yaw rate:	-1.366	Roll:	-1.982	Pitch:	3.003	Yaw:	-44.345	Thrust:	100.000
Time:	4.344	Roll Set Point:	0.059	Pitch Set Point:	-0.192	Yaw Set Point:	0.511	X_WP:	0.000	Y_WP:	0.000	Y_WP:	0.500	X:	-0.005	Y:	0.104	Z:	0.045	yaw:	-29.260	yaw rate:	-3.409	Roll:	-1.913	Pitch:	3.036	Yaw:	-44.551	Thrust:	100.000
Time:	4.359	Roll Set Point:	0.059	Pitch Set Point:	-0.192	Yaw Set Point:	0.511	X_WP:	0.000	Y_WP:	0.000	Y_WP:	0.500	X:	-0.005	Y:	0.104	Z:	0.045	yaw:	-29.254	yaw rate:	0.552	Roll:	-1.889	Pitch:	3.032	Yaw:	-43.880	Thrust:	100.000
Time:	4.375	Roll Set Point:	0.059	Pitch Set Point:	-0.192	Yaw Set Point:	0.510	X_WP:	0.000	Y_WP:	0.000	Y_WP:	0.500	X:	-0.005	Y:	0.104	Z:	0.045	yaw:	-29.231	yaw rate:	2.326	Roll:	-1.833	Pitch:	3.143	Yaw:	-43.549	Thrust:	100.000
Time:	4.391	Roll Set Point:	0.059	Pitch Set Point:	-0.192	Yaw Set Point:	0.511	X_WP:	0.000	Y_WP:	0.000	Y_WP:	0.500	X:	-0.005	Y:	0.104	Z:	0.045	yaw:	-29.252	yaw rate:	-2.112	Roll:	-1.929	Pitch:	2.985	Yaw:	-44.323	Thrust:	100.000
Time:	4.406	Roll Set Point:	0.059	Pitch Set Point:	-0.192	Yaw Set Point:	0.511	X_WP:	0.000	Y_WP:	0.000	Y_WP:	0.500	X:	-0.005	Y:	0.104	Z:	0.045	yaw:	-29.252	yaw rate:	-2.112	Roll:	-1.895	Pitch:	3.060	Yaw:	-43.971	Thrust:	100.000
Time:	4.422	Roll Set Point:	0.059	Pitch Set Point:	-0.192	Yaw Set Point:	0.509	X_WP:	0.000	Y_WP:	0.000	Y_WP:	0.500	X:	-0.005	Y:	0.104	Z:	0.045	yaw:	-29.190	yaw rate:	6.183	Roll:	-1.908	Pitch:	3.163	Yaw:	-42.844	Thrust:	100.000
Time:	4.438	Roll Set Point:	0.059	Pitch Set Point:	-0.192	Yaw Set Point:	0.509	X_WP:	0.000	Y_WP:	0.000	Y_WP:	0.500	X:	-0.005	Y:	0.104	Z:	0.045	yaw:	-29.190	yaw rate:	6.183	Roll:	-1.900	Pitch:	3.069	Yaw:	-43.883	Thrust:	100.000
Time:	4.453	Roll Set Point:	0.059	Pitch Set Point:	-0.192	Yaw Set Point:	0.511	X_WP:	0.000	Y_WP:	0.000	Y_WP:	0.500	X:	-0.005	Y:	0.104	Z:	0.045	yaw:	-29.265	yaw rate:	-2.732	Roll:	-1.927	Pitch:	2.984	Yaw:	-45.237	Thrust:	100.000
Time:	4.469	Roll Set Point:	0.059	Pitch Set Point:	-0.192	Yaw Set Point:	0.511	X_WP:	0.000	Y_WP:	0.000	Y_WP:	0.500	X:	-0.005	Y:	0.104	Z:	0.045	yaw:	-29.265	yaw rate:	-2.732	Roll:	-1.905	Pitch:	3.074	Yaw:	-43.987	Thrust:	100.000
Time:	4.484	Roll Set Point:	0.059	Pitch Set Point:	-0.192	Yaw Set Point:	0.510	X_WP:	0.000	Y_WP:	0.000	Y_WP:	0.500	X:	-0.005	Y:	0.104	Z:	0.045	yaw:	-29.231	yaw rate:	-7.444	Roll:	-1.843	Pitch:	3.091	Yaw:	-43.376	Thrust:	100.000
Time:	4.500	Roll Set Point:	0.059	Pitch Set Point:	-0.192	Yaw Set Point:	0.510	X_WP:	0.000	Y_WP:	0.000	Y_WP:	0.500	X:	-0.005	Y:	0.104	Z:	0.045	yaw:	-29.238	yaw rate:	-0.635	Roll:	-1.902	Pitch:	3.083	Yaw:	-44.056	Thrust:	100.000
Time:	4.516	Roll Set Point:	0.059	Pitch Set Point:	-0.192	Yaw Set Point:	0.510	X_WP:	0.000	Y_WP:	0.000	Y_WP:	0.500	X:	-0.005	Y:	0.104	Z:	0.045	yaw:	-29.210	yaw rate:	2.753	Roll:	-1.907	Pitch:	3.123	Yaw:	-43.449	Thrust:	100.000
Time:	4.531	Roll Set Point:	0.059	Pitch Set Point:	-0.192	Yaw Set Point:	0.510	X_WP:	0.000	Y_WP:	0.000	Y_WP:	0.500	X:	-0.005	Y:	0.104	Z:	0.045	yaw:	-29.239	yaw rate:	-2.919	Roll:	-1.939	Pitch:	3.043	Yaw:	-44.441	Thrust:	100.000
Time:	4.547	Roll Set Point:	0.059	Pitch Set Point:	-0.192	Yaw Set Point:	0.510	X_WP:	0.000	Y_WP:	0.000	Y_WP:	0.500	X:	-0.005	Y:	0.104	Z:	0.045	yaw:	-29.239	yaw rate:	-2.919	Roll:	-1.914	Pitch:	3.091	Yaw:	-43.951	Thrust:	100.000
Time:	4.563	Roll Set Point:	0.059	Pitch Set Point:	-0.192	Yaw Set Point:	0.510	X_WP:	0.000	Y_WP:	0.000	Y_WP:	0.500	X:	-0.005	Y:	0.104	Z:	0.045	yaw:	-29.244	yaw rate:	-0.866	Roll:	-1.871	Pitch:	3.090	Yaw:	-44.032	Thrust:	100.000
Time:	4.578	Roll Set Point:	0.059	Pitch Set Point:	-0.192	Yaw Set Point:	0.510	X_WP:	0.000	Y_WP:	0.000	Y_WP:	0.500	X:	-0.005	Y:	0.104	Z:	0.045	yaw:	-29.244	yaw rate:	-0.866	Roll:	-1.917	Pitch:	3.098	Yaw:	-43.957	Thrust:	100.000
Time:	4.594	Roll Set Point:	0.059	Pitch Set Point:	-0.192	Yaw Set Point:	0.510	X_WP:	0.000	Y_WP:	0.000	Y_WP:	0.500	X:	-0.005	Y:	0.104	Z:	0.045	yaw:	-29.241	yaw rate:	0.265	Roll:	-1.972	Pitch:	3.129	Yaw:	-43.910	Thrust:	100.000
Time:	4.609	Roll Set Point:	0.059	Pitch Set Point:	-0.192	Yaw Set Point:	0.510	X_WP:	0.000	Y_WP:	0.000	Y_WP:	0.500	X:	-0.005	Y:	0.104	Z:	0.045	yaw:	-29.240	yaw rate:	-2.576	Roll:	-1.906	Pitch:	3.085	Yaw:	-43.930	Thrust:	100.000
Time:	4.625	Roll Set Point:	0.059	Pitch Set Point:	-0.192	Yaw Set Point:	0.511	X_WP:	0.000	Y_WP:	0.000	Y_WP:	0.500	X:	-0.005	Y:	0.104	Z:	0.045	yaw:	-29.254	yaw rate:	-1.476	Roll:	-1.960	Pitch:	3.053	Yaw:	-44.214	Thrust:	100.000
Time:	4.641	Roll Set Point:	0.059	Pitch Set Point:	-0.192	Yaw Set Point:	0.511	X_WP:	0.000	Y_WP:	0.000	Y_WP:	0.500	X:	-0.005	Y:	0.104	Z:	0.045	yaw:	-29.254	yaw rate:	-1.476	Roll:	-1.928	Pitch:	3.110	Yaw:	-43.972	Thrust:	100.000
Time:	4.656	Roll Set Point:	0.059	Pitch Set Point:	-0.192	Yaw Set Point:	0.511	X_WP:	0.000	Y_WP:	0.000	Y_WP:	0.500	X:	-0.005	Y:	0.104	Z:	0.045	yaw:	-29.262	yaw rate:	-0.814	Roll:	-1.957	Pitch:	3.173	Yaw:	-44.120	Thrust:	100.000
Time:	4.672	Roll Set Point:	0.059	Pitch Set Point:	-0.192	Yaw Set Point:	0.511	X_WP:	0.000	Y_WP:	0.000	Y_WP:	0.500	X:	-0.005	Y:	0.104	Z:	0.045	yaw:	-29.262	yaw rate:	-0.814	Roll:	-1.933	Pitch:	3.119	Yaw:	-43.983	Thrust:	100.000
Time:	4.688	Roll Set Point:	0.059	Pitch Set Point:	-0.192	Yaw Set Point:	0.510	X_WP:	0.000	Y_WP:	0.000	Y_WP:	0.500	X:	-0.005	Y:	0.104	Z:	0.045	yaw:	-29.234	yaw rate:	2.515	Roll:	-1.851	Pitch:	3.131	Yaw:	-43.478	Thrust:	100.000
Time:	4.703	Roll Set Point:	0.059	Pitch Set Point:	-0.192	Yaw Set Point:	0.510	X_WP:	0.000	Y_WP:	0.000	Y_WP:	0.500	X:	-0.005	Y:	0.104	Z:	0.045	yaw:	-29.234	yaw rate:	2.515	Roll:	-1.934	Pitch:	3.125	Yaw:	-43.938	Thrust:	100.000
Time:	4.719	Roll Set Point:	0.059	Pitch Set Point:	-0.192	Yaw Set Point:	0.511	X_WP:	0.000	Y_WP:	0.000	Y_WP:	0.500	X:	-0.005	Y:	0.104	Z:	0.045	yaw:	-29.273	yaw rate:	-2.656	Roll:	-2.025	Pitch:	3.106	Yaw:	-44.650	Thrust:	100.000
Time:	4.734	Roll Set Point:	0.059	Pitch Set Point:	-0.192	Yaw Set Point:	0.511	X_WP:	0.000	Y_WP:	0.000	Y_WP:	0.500	X:	-0.005	Y:	0.104	Z:	0.045	yaw:	-29.253	yaw rate:	2.001	Roll:	-1.900	Pitch:	3.130	Yaw:	-43.634	Thrust:	100.000
Time:	4.750	Roll Set Point:	0.059	Pitch Set Point:	-0.192	Yaw Set Point:	0.511	X_WP:	0.000	Y_WP:	0.000	Y_WP:	0.500	X:	-0.005	Y:	0.104	Z:	0.045	yaw:	-29.254	yaw rate:	-0.081	Roll:	-1.929	Pitch:	3.121	Yaw:	-43.992	Thrust:	100.000
Time:	4.766	Roll Set Point:	0.059	Pitch Set Point:	-0.192	Yaw Set Point:	0.510	X_WP:	0.000	Y_WP:	0.000	Y_WP:	0.500	X:	-0.005	Y:	0.104	Z:	0.045	yaw:	-29.236	yaw rate:	1.750	Roll:	-1.979	Pitch:	3.193	Yaw:	-43.666	Thrust:	100.000
Time:	4.781	Roll Set Point:	0.059	Pitch Set Point:	-0.192	Yaw Set Point:	0.510	X_WP:	0.000	Y_WP:	0.000	Y_WP:	0.500	X:	-0.005	Y:	0.104	Z:	0.045	yaw:	-29.222	yaw rate:	1.461	Roll:	-1.885	Pitch:	3.157	Yaw:	-43.662	Thrust:	100.000
Time:	4.797	Roll Set Point:	0.059	Pitch Set Point:	-0.192	Yaw Set Point:	0.510	X_WP:	0.000	Y_WP:	0.000	Y_WP:	0.500	X:	-0.005	Y:	0.104	Z:	0.045	yaw:	-29.228	yaw rate:	-0.640	Roll:	-1.993	Pitch:	3.110	Yaw:	-44.043	Thrust:	100.000
Time:	4.813	Roll Set Point:	0.059	Pitch Set Point:	-0.192	Yaw Set Point:	0.511	X_WP:	0.000	Y_WP:	0.000	Y_WP:	0.500	X:	-0.005	Y:	0.104	Z:	0.045	yaw:	-29.262	yaw rate:	-3.388	Roll:	-1.963	Pitch:	3.128	Yaw:	-44.550	Thrust:	100.000
Time:	4.828	Roll Set Point:	0.059	Pitch Set Point:	-0.192	Yaw Set Point:	0.511	X_WP:	0.000	Y_WP:	0.000	Y_WP:	0.500	X:	-0.005	Y:	0.104	Z:	0.045	yaw:	-29.282	yaw rate:	-1.991	Roll:	-2.023	Pitch:	3.152	Yaw:	-44.344	Thrust:	100.000
Time:	4.844	Roll Set Point:	0.059	Pitch Set Point:	-0.192	Yaw Set Point:	0.510	X_WP:	0.000	Y_WP:	0.000	Y_WP:	0.500	X:	-0.005	Y:	0.104	Z:	0.045	yaw:	-29.249	yaw rate:	3.340	Roll:	-1.885	Pitch:	3.191	Yaw:	-43.411	Thrust:	100.000
Time:	4.859	Roll Set Point:	0.059	Pitch Set Point:	-0.192	Yaw Set Point:	0.510	X_WP:	0.000	Y_WP:	0.000	Y_WP:	0.500	X:	-0.005	Y:	0.104	Z:	0.045	yaw:	-29.222	yaw rate:	2.656	Roll:	-1.894	Pitch:	3.129	Yaw:	-43.475	Thrust:	100.000
Time:	4.875	Roll Set Point:	0.059	Pitch Set Point:	-0.192	Yaw Set Point:	0.510	X_WP:	0.000	Y_WP:	0.000	Y_WP:	0.500	X:	-0.005	Y:	0.104	Z:	0.045	yaw:	-29.245	yaw rate:	-2.272	Roll:	-2.017	Pitch:	3.097	Yaw:	-44.345	Thrust:	100.000
Time:	4.891	Roll Set Point:	0.059	Pitch Set Point:	-0.192	Yaw Set Point:	0.511	X_WP:	0.000	Y_WP:	0.000	Y_WP:	0.500	X:	-0.005	Y:	0.104	Z:	0.045	yaw:	-29.273	yaw rate:	-2.865	Roll:	-2.007	Pitch:	3.202	Yaw:	-44.477	Thrust:	100.000
Time:	4.906	Roll Set Point:	0.059	Pitch Set Point:	-0.192	Yaw Set Point:	0.511	X_WP:	0.000	Y_WP:	0.000	Y_WP:	0.500	X:	-0.005	Y:	0.104	Z:	0.045	yaw:	-29.273	yaw rate:	-2.865	Roll:	-1.965	Pitch:	3.148	Yaw:	-43.994	Thrust:	100.000
Time:	4.922	Roll Set Point:	0.059	Pitch Set Point:	-0.192	Yaw Set Point:	0.510	X_WP:	0.000	Y_WP:	0.000	Y_WP:	0.500	X:	-0.005	Y:	0.104	Z:	0.045	yaw:	-29.248	yaw rate:	2.512	Roll:	-1.953	Pitch:	3.191	Yaw:	-43.543	Thrust:	100.000
Time:	4.938	Roll Set Point:	0.059	Pitch Set Point:	-0.192	Yaw Set Point:	0.511	X_WP:	0.000	Y_WP:	0.000	Y_WP:	0.500	X:	-0.005	Y:	0.104	Z:	0.045	yaw:	-29.279	yaw rate:	-3.097	Roll:	-1.926	Pitch:	3.049	Yaw:	-44.526	Thrust:	100.000
Time:	4.953	Roll Set Point:	0.059	Pitch Set Point:	-0.192	Yaw Set Point:	0.510	X_WP:	0.000	Y_WP:	0.000	Y_WP:	0.500	X:	-0.005	Y:	0.104	Z:	0.045	yaw:	-29.235	yaw rate:	-1.197	Roll:	-1.913	Pitch:	3.234	Yaw:	-43.211	Thrust:	100.000
Time:	4.969	Roll Set Point:	0.059	Pitch Set Point:	-0.192	Yaw Set Point:	0.510	X_WP:	0.000	Y_WP:	0.000	Y_WP:	0.500	X:	-0.005	Y:	0.104	Z:	0.045	yaw:	-29.245	yaw rate:	-0.924	Roll:	-2.058	Pitch:	3.156	Yaw:	-44.115	Thrust:	100.000
Time:	4.984	Roll Set Point:	0.059	Pitch Set Point:	-0.192	Yaw Set Point:	0.510	X_WP:	0.000	Y_WP:	0.000	Y_WP:	0.500	X:	-0.005	Y:	0.104	Z:	0.045	yaw:	-29.235	yaw rate:	0.970	Roll:	-1.913	Pitch:	3.139	Yaw:	-43.783	Thrust:	100.000
Time:	5.000	Roll Set Point:	0.059	Pitch Set Point:	-0.192	Yaw Set Point:	0.510	X_WP:	0.000	Y_WP:	0.000	Y_WP:	0.500	X:	-0.005	Y:	0.104	Z:	0.045	yaw:	-29.241	yaw rate:	-0.623	Roll:	-1.968	Pitch:	3.110	Yaw:	-44.057	Thrust:	100.000
Time:	5.016	Roll Set Point:	0.059	Pitch Set Point:	-0.192	Yaw Set Point:	0.510	X_WP:	0.000	Y_WP:	0.000	Y_WP:	0.500	X:	-0.005	Y:	0.104	Z:	0.045	yaw:	-29.212	yaw rate:	2.914	Roll:	-1.920	Pitch:	3.195	Yaw:	-43.425	Thrust:	100.000
Time:	5.031	Roll Set Point:	0.059	Pitch Set Point:	-0.192	Yaw Set Point:	0.511	X_WP:	0.000	Y_WP:	0.000	Y_WP:	0.500	X:	-0.005	Y:	0.104	Z:	0.045	yaw:	-29.267	yaw rate:	-5.467	Roll:	-2.140	Pitch:	3.102	Yaw:	-44.905	Thrust:	100.000
Time:	5.047	Roll Set Point:	0.059	Pitch Set Point:	-0.192	Yaw Set Point:	0.511	X_WP:	0.000	Y_WP:	0.000	Y_WP:	0.500	X:	-0.005	Y:	0.104	Z:	0.045	yaw:	-29.253	yaw rate:	1.371	Roll:	-1.936	Pitch:	3.155	Yaw:	-43.749	Thrust:	100.000
Time:	5.063	Roll Set Point:	0.059	Pitch Set Point:	-0.192	Yaw Set Point:	0.511	X_WP:	0.000	Y_WP:	0.000	Y_WP:	0.500	X:	-0.005	Y:	0.104	Z:	0.045	yaw:	-29.259	yaw rate:	-0.614	Roll:	-1.965	Pitch:	3.116	Yaw:	-44.072	Thrust:	100.000
Time:	5.087	Roll Set Point:	0.059	Pitch Set Point:	-0.192	Yaw Set Point:	0.510	X_WP:	0.000	Y_WP:	0.000	Y_WP:	0.500	X:	-0.005	Y:	0.104	Z:	0.045	yaw:	-29.223	yaw rate:	2.320	Roll:	-2.221	Pitch:	3.537	Yaw:	-45.300	Thrust:	100.000
Time:	5.103	Roll Set Point:	0.059	Pitch Set Point:	-0.192	Yaw Set Point:	0.511	X_WP:	0.000	Y_WP:	0.000	Y_WP:	0.500	X:	-0.005	Y:	0.104	Z:	0.045	yaw:	-29.263	yaw rate:	-3.961	Roll:	-2.016	Pitch:	3.102	Yaw:	-44.647	Thrust:	100.000
Time:	5.118	Roll Set Point:	0.059	Pitch Set Point:	-0.192	Yaw Set Point:	0.510	X_WP:	0.000	Y_WP:	0.000	Y_WP:	0.500	X:	-0.005	Y:	0.104	Z:	0.045	yaw:	-29.206	yaw rate:	5.662	Roll:	-1.911	Pitch:	3.177	Yaw:	-42.957	Thrust:	100.000
Time:	5.134	Roll Set Point:	0.059	Pitch Set Point:	-0.192	Yaw Set Point:	0.511	X_WP:	0.000	Y_WP:	0.000	Y_WP:	0.500	X:	-0.005	Y:	0.104	Z:	0.045	yaw:	-29.275	yaw rate:	-6.903	Roll:	-2.063	Pitch:	3.063	Yaw:	-45.161	Thrust:	100.000
Time:	5.150	Roll Set Point:	0.059	Pitch Set Point:	-0.192	Yaw Set Point:	0.511	X_WP:	0.000	Y_WP:	0.000	Y_WP:	0.500	X:	-0.005	Y:	0.104	Z:	0.045	yaw:	-29.275	yaw rate:	-6.903	Roll:	-1.996	Pitch:	3.146	Yaw:	-43.995	Thrust:	100.000
Time:	5.165	Roll Set Point:	0.059	Pitch Set Point:	-0.192	Yaw Set Point:	0.511	X_WP:	0.000	Y_WP:	0.000	Y_WP:	0.500	X:	-0.005	Y:	0.104	Z:	0.045	yaw:	-29.250	yaw rate:	-1.334	Roll:	-2.021	Pitch:	3.210	Yaw:	-43.540	Thrust:	100.000
Time:	5.181	Roll Set Point:	0.059	Pitch Set Point:	-0.192	Yaw Set Point:	0.510	X_WP:	0.000	Y_WP:	0.000	Y_WP:	0.500	X:	-0.005	Y:	0.104	Z:	0.045	yaw:	-29.236	yaw rate:	1.411	Roll:	-1.914	Pitch:	3.115	Yaw:	-43.711	Thrust:	100.000
Time:	5.196	Roll Set Point:	0.059	Pitch Set Point:	-0.192	Yaw Set Point:	0.510	X_WP:	0.000	Y_WP:	0.000	Y_WP:	0.500	X:	-0.005	Y:	0.104	Z:	0.045	yaw:	-29.236	yaw rate:	1.411	Roll:	-2.001	Pitch:	3.148	Yaw:	-43.945	Thrust:	100.000
Time:	5.212	Roll Set Point:	0.059	Pitch Set Point:	-0.192	Yaw Set Point:	0.510	X_WP:	0.000	Y_WP:	0.000	Y_WP:	0.500	X:	-0.005	Y:	0.104	Z:	0.045	yaw:	-29.241	yaw rate:	-0.321	Roll:	-2.032	Pitch:	3.187	Yaw:	-44.052	Thrust:	100.000
Time:	5.228	Roll Set Point:	0.059	Pitch Set Point:	-0.192	Yaw Set Point:	0.511	X_WP:	0.000	Y_WP:	0.000	Y_WP:	0.500	X:	-0.005	Y:	0.104	Z:	0.045	yaw:	-29.294	yaw rate:	-5.299	Roll:	-2.088	Pitch:	3.099	Yaw:	-44.913	Thrust:	100.000
Time:	5.243	Roll Set Point:	0.059	Pitch Set Point:	-0.192	Yaw Set Point:	0.510	X_WP:	0.000	Y_WP:	0.000	Y_WP:	0.500	X:	-0.005	Y:	0.104	Z:	0.045	yaw:	-29.232	yaw rate:	6.201	Roll:	-1.932	Pitch:	3.210	Yaw:	-42.908	Thrust:	100.000
Time:	5.259	Roll Set Point:	0.059	Pitch Set Point:	-0.192	Yaw Set Point:	0.510	X_WP:	0.000	Y_WP:	0.000	Y_WP:	0.500	X:	-0.005	Y:	0.104	Z:	0.045	yaw:	-29.232	yaw rate:	6.201	Roll:	-2.010	Pitch:	3.148	Yaw:	-43.936	Thrust:	100.000
Time:	5.275	Roll Set Point:	0.059	Pitch Set Point:	-0.192	Yaw Set Point:	0.510	X_WP:	0.000	Y_WP:	0.000	Y_WP:	0.500	X:	-0.005	Y:	0.104	Z:	0.045	yaw:	-29.222	yaw rate:	3.326	Roll:	-1.955	Pitch:	3.156	Yaw:	-43.771	Thrust:	100.000
Time:	5.290	Roll Set Point:	0.059	Pitch Set Point:	-0.192	Yaw Set Point:	0.510	X_WP:	0.000	Y_WP:	0.000	Y_WP:	0.500	X:	-0.005	Y:	0.104	Z:	0.045	yaw:	-29.222	yaw rate:	3.326	Roll:	-2.014	Pitch:	3.150	Yaw:	-43.929	Thrust:	100.000
Time:	5.306	Roll Set Point:	0.059	Pitch Set Point:	-0.192	Yaw Set Point:	0.511	X_WP:	0.000	Y_WP:	0.000	Y_WP:	0.500	X:	-0.005	Y:	0.104	Z:	0.045	yaw:	-29.252	yaw rate:	1.880	Roll:	-2.104	Pitch:	3.110	Yaw:	-44.450	Thrust:	100.000
Time:	5.321	Roll Set Point:	0.059	Pitch Set Point:	-0.192	Yaw Set Point:	0.511	X_WP:	0.000	Y_WP:	0.000	Y_WP:	0.500	X:	-0.005	Y:	0.104	Z:	0.045	yaw:	-29.252	yaw rate:	1.880	Roll:	-2.020	Pitch:	3.149	Yaw:	-43.968	Thrust:	100.000
Time:	5.337	Roll Set Point:	0.059	Pitch Set Point:	-0.192	Yaw Set Point:	0.510	X_WP:	0.000	Y_WP:	0.000	Y_WP:	0.500	X:	-0.005	Y:	0.104	Z:	0.045	yaw:	-29.234	yaw rate:	5.045	Roll:	-1.942	Pitch:	3.152	Yaw:	-43.663	Thrust:	100.000
Time:	5.353	Roll Set Point:	0.059	Pitch Set Point:	-0.192	Yaw Set Point:	0.511	X_WP:	0.000	Y_WP:	0.000	Y_WP:	0.500	X:	-0.005	Y:	0.104	Z:	0.045	yaw:	-29.251	yaw rate:	-1.707	Roll:	-2.113	Pitch:	3.155	Yaw:	-44.246	Thrust:	100.000
Time:	5.368	Roll Set Point:	0.059	Pitch Set Point:	-0.192	Yaw Set Point:	0.511	X_WP:	0.000	Y_WP:	0.000	Y_WP:	0.500	X:	-0.005	Y:	0.104	Z:	0.045	yaw:	-29.252	yaw rate:	-0.038	Roll:	-2.002	Pitch:	3.159	Yaw:	-43.982	Thrust:	100.000
Time:	5.384	Roll Set Point:	0.059	Pitch Set Point:	-0.192	Yaw Set Point:	0.511	X_WP:	0.000	Y_WP:	0.000	Y_WP:	0.500	X:	-0.005	Y:	0.104	Z:	0.045	yaw:	-29.252	yaw rate:	-0.038	Roll:	-2.027	Pitch:	3.148	Yaw:	-43.962	Thrust:	100.000
Time:	5.400	Roll Set Point:	0.059	Pitch Set Point:	-0.192	Yaw Set Point:	0.510	X_WP:	0.000	Y_WP:	0.000	Y_WP:	0.500	X:	-0.005	Y:	0.104	Z:	0.045	yaw:	-29.246	yaw rate:	2.540	Roll:	-2.013	Pitch:	3.141	Yaw:	-43.859	Thrust:	100.000
Time:	5.415	Roll Set Point:	0.059	Pitch Set Point:	-0.192	Yaw Set Point:	0.510	X_WP:	0.000	Y_WP:	0.000	Y_WP:	0.500	X:	-0.005	Y:	0.104	Z:	0.045	yaw:	-29.233	yaw rate:	1.308	Roll:	-1.983	Pitch:	3.170	Yaw:	-43.723	Thrust:	100.000
Time:	5.431	Roll Set Point:	0.059	Pitch Set Point:	-0.192	Yaw Set Point:	0.510	X_WP:	0.000	Y_WP:	0.000	Y_WP:	0.500	X:	-0.005	Y:	0.104	Z:	0.045	yaw:	-29.233	yaw rate:	1.308	Roll:	-2.033	Pitch:	3.150	Yaw:	-43.942	Thrust:	100.000
Time:	5.446	Roll Set Point:	0.059	Pitch Set Point:	-0.192	Yaw Set Point:	0.511	X_WP:	0.000	Y_WP:	0.000	Y_WP:	0.500	X:	-0.005	Y:	0.104	Z:	0.045	yaw:	-29.264	yaw rate:	-2.754	Roll:	-2.131	Pitch:	3.078	Yaw:	-44.507	Thrust:	100.000
Time:	5.462	Roll Set Point:	0.059	Pitch Set Point:	-0.192	Yaw Set Point:	0.510	X_WP:	0.000	Y_WP:	0.000	Y_WP:	0.500	X:	-0.005	Y:	0.104	Z:	0.045	yaw:	-29.243	yaw rate:	2.090	Roll:	-1.967	Pitch:	3.199	Yaw:	-43.605	Thrust:	100.000
Time:	5.478	Roll Set Point:	0.059	Pitch Set Point:	-0.192	Yaw Set Point:	0.511	X_WP:	0.000	Y_WP:	0.000	Y_WP:	0.500	X:	-0.005	Y:	0.104	Z:	0.045	yaw:	-29.256	yaw rate:	-1.325	Roll:	-2.061	Pitch:	3.120	Yaw:	-44.197	Thrust:	100.000
Time:	5.493	Roll Set Point:	0.059	Pitch Set Point:	-0.192	Yaw Set Point:	0.511	X_WP:	0.000	Y_WP:	0.000	Y_WP:	0.500	X:	-0.005	Y:	0.104	Z:	0.045	yaw:	-29.283	yaw rate:	-2.657	Roll:	-2.118	Pitch:	3.098	Yaw:	-44.457	Thrust:	100.000
Time:	5.509	Roll Set Point:	0.059	Pitch Set Point:	-0.192	Yaw Set Point:	0.511	X_WP:	0.000	Y_WP:	0.000	Y_WP:	0.500	X:	-0.005	Y:	0.104	Z:	0.045	yaw:	-29.283	yaw rate:	-2.657	Roll:	-2.047	Pitch:	3.147	Yaw:	-44.012	Thrust:	100.000
Time:	5.525	Roll Set Point:	0.059	Pitch Set Point:	-0.192	Yaw Set Point:	0.511	X_WP:	0.000	Y_WP:	0.000	Y_WP:	0.500	X:	-0.005	Y:	0.104	Z:	0.045	yaw:	-29.263	yaw rate:	2.009	Roll:	-2.059	Pitch:	3.180	Yaw:	-43.647	Thrust:	100.000
Time:	5.540	Roll Set Point:	0.059	Pitch Set Point:	-0.192	Yaw Set Point:	0.511	X_WP:	0.000	Y_WP:	0.000	Y_WP:	0.500	X:	-0.005	Y:	0.104	Z:	0.045	yaw:	-29.254	yaw rate:	-0.717	Roll:	-1.997	Pitch:	3.184	Yaw:	-43.824	Thrust:	100.000
Time:	5.556	Roll Set Point:	0.059	Pitch Set Point:	-0.192	Yaw Set Point:	0.511	X_WP:	0.000	Y_WP:	0.000	Y_WP:	0.500	X:	-0.005	Y:	0.104	Z:	0.045	yaw:	-29.254	yaw rate:	-0.717	Roll:	-2.052	Pitch:	3.149	Yaw:	-43.971	Thrust:	100.000
Time:	5.571	Roll Set Point:	0.059	Pitch Set Point:	-0.192	Yaw Set Point:	0.510	X_WP:	0.000	Y_WP:	0.000	Y_WP:	0.500	X:	-0.005	Y:	0.104	Z:	0.045	yaw:	-29.221	yaw rate:	5.335	Roll:	-2.058	Pitch:	3.194	Yaw:	-43.369	Thrust:	100.000
Time:	5.587	Roll Set Point:	0.059	Pitch Set Point:	-0.192	Yaw Set Point:	0.510	X_WP:	0.000	Y_WP:	0.000	Y_WP:	0.500	X:	-0.005	Y:	0.104	Z:	0.045	yaw:	-29.248	yaw rate:	-2.715	Roll:	-2.042	Pitch:	3.113	Yaw:	-44.426	Thrust:	100.000
Time:	5.603	Roll Set Point:	0.059	Pitch Set Point:	-0.192	Yaw Set Point:	0.511	X_WP:	0.000	Y_WP:	0.000	Y_WP:	0.500	X:	-0.005	Y:	0.104	Z:	0.045	yaw:	-29.260	yaw rate:	-1.244	Roll:	-2.041	Pitch:	3.119	Yaw:	-44.180	Thrust:	100.000
Time:	5.618	Roll Set Point:	0.059	Pitch Set Point:	-0.192	Yaw Set Point:	0.511	X_WP:	0.000	Y_WP:	0.000	Y_WP:	0.500	X:	-0.005	Y:	0.104	Z:	0.045	yaw:	-29.277	yaw rate:	-1.652	Roll:	-2.124	Pitch:	3.103	Yaw:	-44.286	Thrust:	100.000
Time:	5.634	Roll Set Point:	0.059	Pitch Set Point:	-0.192	Yaw Set Point:	0.510	X_WP:	0.000	Y_WP:	0.000	Y_WP:	0.500	X:	-0.005	Y:	0.104	Z:	0.045	yaw:	-29.240	yaw rate:	3.640	Roll:	-2.021	Pitch:	3.228	Yaw:	-43.335	Thrust:	100.000
Time:	5.650	Roll Set Point:	0.059	Pitch Set Point:	-0.192	Yaw Set Point:	0.510	X_WP:	0.000	Y_WP:	0.000	Y_WP:	0.500	X:	-0.005	Y:	0.104	Z:	0.045	yaw:	-29.221	yaw rate:	1.913	Roll:	-2.015	Pitch:	3.169	Yaw:	-43.617	Thrust:	100.000
Time:	5.665	Roll Set Point:	0.059	Pitch Set Point:	-0.192	Yaw Set Point:	0.510	X_WP:	0.000	Y_WP:	0.000	Y_WP:	0.500	X:	-0.005	Y:	0.104	Z:	0.045	yaw:	-29.237	yaw rate:	-1.589	Roll:	-2.021	Pitch:	3.118	Yaw:	-44.205	Thrust:	100.000
Time:	5.681	Roll Set Point:	0.059	Pitch Set Point:	-0.192	Yaw Set Point:	0.510	X_WP:	0.000	Y_WP:	0.000	Y_WP:	0.500	X:	-0.005	Y:	0.104	Z:	0.045	yaw:	-29.237	yaw rate:	0.058	Roll:	-2.093	Pitch:	3.140	Yaw:	-43.938	Thrust:	100.000
Time:	5.696	Roll Set Point:	0.059	Pitch Set Point:	-0.192	Yaw Set Point:	0.510	X_WP:	0.000	Y_WP:	0.000	Y_WP:	0.500	X:	-0.005	Y:	0.104	Z:	0.045	yaw:	-29.237	yaw rate:	0.058	Roll:	-2.069	Pitch:	3.149	Yaw:	-43.947	Thrust:	100.000
Time:	5.712	Roll Set Point:	0.059	Pitch Set Point:	-0.192	Yaw Set Point:	0.510	X_WP:	0.000	Y_WP:	0.000	Y_WP:	0.500	X:	-0.005	Y:	0.104	Z:	0.045	yaw:	-29.239	yaw rate:	1.406	Roll:	-2.132	Pitch:	3.173	Yaw:	-43.997	Thrust:	100.000
Time:	5.728	Roll Set Point:	0.059	Pitch Set Point:	-0.192	Yaw Set Point:	0.511	X_WP:	0.000	Y_WP:	0.000	Y_WP:	0.500	X:	-0.005	Y:	0.104	Z:	0.045	yaw:	-29.257	yaw rate:	-1.753	Roll:	-2.060	Pitch:	3.112	Yaw:	-44.269	Thrust:	100.000
Time:	5.743	Roll Set Point:	0.059	Pitch Set Point:	-0.192	Yaw Set Point:	0.511	X_WP:	0.000	Y_WP:	0.000	Y_WP:	0.500	X:	-0.005	Y:	0.104	Z:	0.045	yaw:	-29.270	yaw rate:	-1.325	Roll:	-2.093	Pitch:	3.130	Yaw:	-44.216	Thrust:	100.000
Time:	5.759	Roll Set Point:	0.059	Pitch Set Point:	-0.192	Yaw Set Point:	0.511	X_WP:	0.000	Y_WP:	0.000	Y_WP:	0.500	X:	-0.005	Y:	0.104	Z:	0.045	yaw:	-29.270	yaw rate:	-1.325	Roll:	-2.079	Pitch:	3.148	Yaw:	-43.994	Thrust:	100.000
Time:	5.775	Roll Set Point:	0.059	Pitch Set Point:	-0.192	Yaw Set Point:	0.511	X_WP:	0.000	Y_WP:	0.000	Y_WP:	0.500	X:	-0.005	Y:	0.104	Z:	0.045	yaw:	-29.252	yaw rate:	1.774	Roll:	-2.116	Pitch:	3.175	Yaw:	-43.672	Thrust:	100.000
Time:	5.790	Roll Set Point:	0.059	Pitch Set Point:	-0.192	Yaw Set Point:	0.511	X_WP:	0.000	Y_WP:	0.000	Y_WP:	0.500	X:	-0.005	Y:	0.104	Z:	0.045	yaw:	-29.263	yaw rate:	-1.113	Roll:	-2.078	Pitch:	3.141	Yaw:	-44.172	Thrust:	100.000
Time:	5.806	Roll Set Point:	0.059	Pitch Set Point:	-0.192	Yaw Set Point:	0.510	X_WP:	0.000	Y_WP:	0.000	Y_WP:	0.500	X:	-0.005	Y:	0.104	Z:	0.045	yaw:	-29.241	yaw rate:	-0.655	Roll:	-2.016	Pitch:	3.140	Yaw:	-43.576	Thrust:	100.000
Time:	5.821	Roll Set Point:	0.059	Pitch Set Point:	-0.192	Yaw Set Point:	0.510	X_WP:	0.000	Y_WP:	0.000	Y_WP:	0.500	X:	-0.005	Y:	0.104	Z:	0.045	yaw:	-29.239	yaw rate:	0.193	Roll:	-2.172	Pitch:	3.205	Yaw:	-43.918	Thrust:	100.000
Time:	5.837	Roll Set Point:	0.059	Pitch Set Point:	-0.192	Yaw Set Point:	0.511	X_WP:	0.000	Y_WP:	0.000	Y_WP:	0.500	X:	-0.005	Y:	0.104	Z:	0.045	yaw:	-29.263	yaw rate:	-2.433	Roll:	-2.134	Pitch:	3.117	Yaw:	-44.393	Thrust:	100.000
Time:	5.853	Roll Set Point:	0.059	Pitch Set Point:	-0.192	Yaw Set Point:	0.511	X_WP:	0.000	Y_WP:	0.000	Y_WP:	0.500	X:	-0.005	Y:	0.104	Z:	0.045	yaw:	-29.259	yaw rate:	0.422	Roll:	-2.007	Pitch:	3.114	Yaw:	-43.907	Thrust:	100.000
Time:	5.868	Roll Set Point:	0.059	Pitch Set Point:	-0.192	Yaw Set Point:	0.510	X_WP:	0.000	Y_WP:	0.000	Y_WP:	0.500	X:	-0.005	Y:	0.104	Z:	0.045	yaw:	-29.236	yaw rate:	2.303	Roll:	-2.021	Pitch:	3.194	Yaw:	-43.561	Thrust:	100.000
Time:	5.884	Roll Set Point:	0.059	Pitch Set Point:	-0.192	Yaw Set Point:	0.510	X_WP:	0.000	Y_WP:	0.000	Y_WP:	0.500	X:	-0.005	Y:	0.104	Z:	0.045	yaw:	-29.236	yaw rate:	2.303	Roll:	-2.094	Pitch:	3.149	Yaw:	-43.947	Thrust:	100.000
Time:	5.900	Roll Set Point:	0.059	Pitch Set Point:	-0.192	Yaw Set Point:	0.510	X_WP:	0.000	Y_WP:	0.000	Y_WP:	0.500	X:	-0.005	Y:	0.104	Z:	0.045	yaw:	-29.246	yaw rate:	0.489	Roll:	-2.194	Pitch:	3.170	Yaw:	-44.135	Thrust:	100.000
Time:	5.915	Roll Set Point:	0.059	Pitch Set Point:	-0.192	Yaw Set Point:	0.510	X_WP:	0.000	Y_WP:	0.000	Y_WP:	0.500	X:	-0.005	Y:	0.104	Z:	0.045	yaw:	-29.236	yaw rate:	1.037	Roll:	-2.028	Pitch:	3.114	Yaw:	-43.773	Thrust:	100.000
Time:	5.931	Roll Set Point:	0.059	Pitch Set Point:	-0.192	Yaw Set Point:	0.510	X_WP:	0.000	Y_WP:	0.000	Y_WP:	0.500	X:	-0.005	Y:	0.104	Z:	0.045	yaw:	-29.224	yaw rate:	1.214	Roll:	-2.072	Pitch:	3.177	Yaw:	-43.726	Thrust:	100.000
Time:	5.946	Roll Set Point:	0.059	Pitch Set Point:	-0.192	Yaw Set Point:	0.510	X_WP:	0.000	Y_WP:	0.000	Y_WP:	0.500	X:	-0.005	Y:	0.104	Z:	0.045	yaw:	-29.224	yaw rate:	1.214	Roll:	-2.103	Pitch:	3.149	Yaw:	-43.930	Thrust:	100.000
Time:	5.962	Roll Set Point:	0.059	Pitch Set Point:	-0.192	Yaw Set Point:	0.510	X_WP:	0.000	Y_WP:	0.000	Y_WP:	0.500	X:	-0.005	Y:	0.104	Z:	0.045	yaw:	-29.244	yaw rate:	-2.018	Roll:	-2.156	Pitch:	3.136	Yaw:	-44.301	Thrust:	100.000
Time:	5.978	Roll Set Point:	0.059	Pitch Set Point:	-0.192	Yaw Set Point:	0.510	X_WP:	0.000	Y_WP:	0.000	Y_WP:	0.500	X:	-0.005	Y:	0.104	Z:	0.045	yaw:	-29.244	yaw rate:	-2.018	Roll:	-2.107	Pitch:	3.148	Yaw:	-43.952	Thrust:	100.000
Time:	5.993	Roll Set Point:	0.059	Pitch Set Point:	-0.192	Yaw Set Point:	0.510	X_WP:	0.000	Y_WP:	0.000	Y_WP:	0.500	X:	-0.005	Y:	0.104	Z:	0.045	yaw:	-29.241	yaw rate:	0.340	Roll:	-2.126	Pitch:	3.160	Yaw:	-43.903	Thrust:	100.000
Time:	6.009	Roll Set Point:	-0.057	Pitch Set Point:	-0.111	Yaw Set Point:	0.510	X_WP:	-0.062	Y_WP:	0.128	Y_WP:	0.500	X:	-0.005	Y:	0.104	Z:	0.045	yaw:	-29.239	yaw rate:	0.202	Roll:	30.000	Pitch:	-30.000	Yaw:	-43.929	Thrust:	100.000
Time:	6.025	Roll Set Point:	-0.057	Pitch Set Point:	-0.111	Yaw Set Point:	0.510	X_WP:	-0.062	Y_WP:	0.128	Y_WP:	0.500	X:	-0.005	Y:	0.104	Z:	0.045	yaw:	-29.238	yaw rate:	2.172	Roll:	1.268	Pitch:	0.808	Yaw:	-43.935	Thrust:	100.000
Time:	6.041	Roll Set Point:	-0.057	Pitch Set Point:	-0.111	Yaw Set Point:	0.511	X_WP:	-0.062	Y_WP:	0.128	Y_WP:	0.500	X:	-0.005	Y:	0.104	Z:	0.045	yaw:	-29.267	yaw rate:	-2.879	Roll:	1.281	Pitch:	0.804	Yaw:	-44.591	Thrust:	100.000
Time:	6.057	Roll Set Point:	-0.057	Pitch Set Point:	-0.111	Yaw Set Point:	0.510	X_WP:	-0.062	Y_WP:	0.128	Y_WP:	0.500	X:	-0.005	Y:	0.104	Z:	0.045	yaw:	-29.245	yaw rate:	2.180	Roll:	1.246	Pitch:	0.761	Yaw:	-43.693	Thrust:	100.000
Time:	6.078	Roll Set Point:	-0.057	Pitch Set Point:	-0.111	Yaw Set Point:	0.511	X_WP:	-0.062	Y_WP:	0.128	Y_WP:	0.500	X:	-0.005	Y:	0.104	Z:	0.045	yaw:	-29.263	yaw rate:	-4.118	Roll:	1.109	Pitch:	1.006	Yaw:	-45.234	Thrust:	100.000
Time:	6.093	Roll Set Point:	-0.057	Pitch Set Point:	-0.111	Yaw Set Point:	0.510	X_WP:	-0.062	Y_WP:	0.128	Y_WP:	0.500	X:	-0.005	Y:	0.104	Z:	0.045	yaw:	-29.245	yaw rate:	1.760	Roll:	1.286	Pitch:	0.767	Yaw:	-43.658	Thrust:	100.000
Time:	6.109	Roll Set Point:	-0.057	Pitch Set Point:	-0.111	Yaw Set Point:	0.510	X_WP:	-0.062	Y_WP:	0.128	Y_WP:	0.500	X:	-0.005	Y:	0.104	Z:	0.045	yaw:	-29.246	yaw rate:	-0.056	Roll:	1.286	Pitch:	0.750	Yaw:	-43.975	Thrust:	100.000
Time:	6.126	Roll Set Point:	-0.057	Pitch Set Point:	-0.111	Yaw Set Point:	0.511	X_WP:	-0.062	Y_WP:	0.128	Y_WP:	0.500	X:	-0.005	Y:	0.104	Z:	0.045	yaw:	-29.251	yaw rate:	-0.490	Roll:	1.283	Pitch:	0.825	Yaw:	-44.276	Thrust:	100.000
Time:	6.144	Roll Set Point:	-0.057	Pitch Set Point:	-0.111	Yaw Set Point:	0.511	X_WP:	-0.062	Y_WP:	0.128	Y_WP:	0.500	X:	-0.005	Y:	0.104	Z:	0.045	yaw:	-29.251	yaw rate:	-0.490	Roll:	1.193	Pitch:	0.896	Yaw:	-44.374	Thrust:	100.000
Time:	6.159	Roll Set Point:	-0.057	Pitch Set Point:	-0.111	Yaw Set Point:	0.510	X_WP:	-0.062	Y_WP:	0.128	Y_WP:	0.500	X:	-0.005	Y:	0.104	Z:	0.045	yaw:	-29.237	yaw rate:	0.413	Roll:	1.300	Pitch:	0.759	Yaw:	-43.718	Thrust:	100.000
Time:	6.175	Roll Set Point:	-0.057	Pitch Set Point:	-0.111	Yaw Set Point:	0.510	X_WP:	-0.062	Y_WP:	0.128	Y_WP:	0.500	X:	-0.005	Y:	0.104	Z:	0.045	yaw:	-29.236	yaw rate:	0.125	Roll:	1.294	Pitch:	0.758	Yaw:	-43.925	Thrust:	100.000
Time:	6.190	Roll Set Point:	-0.057	Pitch Set Point:	-0.111	Yaw Set Point:	0.510	X_WP:	-0.062	Y_WP:	0.128	Y_WP:	0.500	X:	-0.005	Y:	0.104	Z:	0.045	yaw:	-29.236	yaw rate:	0.125	Roll:	1.299	Pitch:	0.781	Yaw:	-43.946	Thrust:	100.000
Time:	6.206	Roll Set Point:	-0.057	Pitch Set Point:	-0.111	Yaw Set Point:	0.510	X_WP:	-0.062	Y_WP:	0.128	Y_WP:	0.500	X:	-0.005	Y:	0.104	Z:	0.045	yaw:	-29.245	yaw rate:	4.100	Roll:	1.298	Pitch:	0.831	Yaw:	-44.108	Thrust:	100.000
Time:	6.222	Roll Set Point:	-0.057	Pitch Set Point:	-0.111	Yaw Set Point:	0.510	X_WP:	-0.062	Y_WP:	0.128	Y_WP:	0.500	X:	-0.005	Y:	0.104	Z:	0.045	yaw:	-29.245	yaw rate:	4.100	Roll:	1.304	Pitch:	0.782	Yaw:	-43.959	Thrust:	100.000
Time:	6.237	Roll Set Point:	-0.057	Pitch Set Point:	-0.111	Yaw Set Point:	0.511	X_WP:	-0.062	Y_WP:	0.128	Y_WP:	0.500	X:	-0.005	Y:	0.104	Z:	0.045	yaw:	-29.268	yaw rate:	-0.988	Roll:	1.306	Pitch:	0.793	Yaw:	-44.389	Thrust:	100.000
Time:	6.253	Roll Set Point:	-0.057	Pitch Set Point:	-0.111	Yaw Set Point:	0.511	X_WP:	-0.062	Y_WP:	0.128	Y_WP:	0.500	X:	-0.005	Y:	0.104	Z:	0.045	yaw:	-29.268	yaw rate:	-0.988	Roll:	1.308	Pitch:	0.783	Yaw:	-43.997	Thrust:	100.000
Time:	6.269	Roll Set Point:	-0.057	Pitch Set Point:	-0.111	Yaw Set Point:	0.510	X_WP:	-0.062	Y_WP:	0.128	Y_WP:	0.500	X:	-0.005	Y:	0.104	Z:	0.045	yaw:	-29.220	yaw rate:	1.667	Roll:	1.314	Pitch:	0.737	Yaw:	-43.107	Thrust:	100.000
Time:	6.284	Roll Set Point:	-0.057	Pitch Set Point:	-0.111	Yaw Set Point:	0.511	X_WP:	-0.062	Y_WP:	0.128	Y_WP:	0.500	X:	-0.005	Y:	0.104	Z:	0.045	yaw:	-29.275	yaw rate:	-5.523	Roll:	1.309	Pitch:	0.845	Yaw:	-44.926	Thrust:	100.000
