Time:	2.042	Roll Set Point:	-0.045	Pitch Set Point:	-0.026	Yaw Set Point:	0.023	X_WP:	0.000	Y_WP:	0.000	Y_WP:	0.500	X:	0.022	Y:	0.013	Z:	0.049	yaw:	-1.335	yaw rate:	-0.330	Roll:	0.641	Pitch:	0.381	Yaw:	-1.863	Thrust:	24.814
Time:	2.057	Roll Set Point:	-0.045	Pitch Set Point:	-0.026	Yaw Set Point:	0.024	X_WP:	0.000	Y_WP:	0.000	Y_WP:	0.500	X:	0.022	Y:	0.013	Z:	0.049	yaw:	-1.355	yaw rate:	-5.995	Roll:	0.655	Pitch:	0.415	Yaw:	-2.290	Thrust:	25.607
Time:	2.069	Roll Set Point:	-0.045	Pitch Set Point:	-0.026	Yaw Set Point:	0.021	X_WP:	0.000	Y_WP:	0.000	Y_WP:	0.500	X:	0.022	Y:	0.013	Z:	0.049	yaw:	-1.207	yaw rate:	14.736	Roll:	0.778	Pitch:	0.268	Yaw:	1.315	Thrust:	26.467
Time:	2.079	Roll Set Point:	-0.045	Pitch Set Point:	-0.026	Yaw Set Point:	0.022	X_WP:	0.000	Y_WP:	0.000	Y_WP:	0.500	X:	0.023	Y:	0.013	Z:	0.049	yaw:	-1.261	yaw rate:	-5.356	Roll:	0.643	Pitch:	0.456	Yaw:	-3.047	Thrust:	24.625
Time:	2.099	Roll Set Point:	-0.045	Pitch Set Point:	-0.026	Yaw Set Point:	0.028	X_WP:	0.000	Y_WP:	0.000	Y_WP:	0.500	X:	0.023	Y:	0.013	Z:	0.049	yaw:	-1.600	yaw rate:	-33.905	Roll:	0.572	Pitch:	0.507	Yaw:	-6.836	Thrust:	30.203
Time:	2.111	Roll Set Point:	-0.044	Pitch Set Point:	-0.025	Yaw Set Point:	0.022	X_WP:	0.000	Y_WP:	0.000	Y_WP:	0.500	X:	0.022	Y:	0.012	Z:	0.049	yaw:	-1.237	yaw rate:	8.040	Roll:	0.569	Pitch:	-0.020	Yaw:	6.463	Thrust:	27.541
Time:	2.127	Roll Set Point:	-0.045	Pitch Set Point:	-0.026	Yaw Set Point:	0.032	X_WP:	0.000	Y_WP:	0.000	Y_WP:	0.500	X:	0.022	Y:	0.013	Z:	0.048	yaw:	-1.824	yaw rate:	-58.676	Roll:	0.638	Pitch:	0.839	Yaw:	-11.859	Thrust:	30.978
Time:	2.140	Roll Set Point:	-0.045	Pitch Set Point:	-0.026	Yaw Set Point:	0.029	X_WP:	0.000	Y_WP:	0.000	Y_WP:	0.500	X:	0.023	Y:	0.013	Z:	0.049	yaw:	-1.656	yaw rate:	16.837	Roll:	0.739	Pitch:	0.217	Yaw:	1.023	Thrust:	27.805
Time:	2.153	Roll Set Point:	-0.044	Pitch Set Point:	-0.026	Yaw Set Point:	0.033	X_WP:	0.000	Y_WP:	0.000	Y_WP:	0.500	X:	0.022	Y:	0.013	Z:	0.049	yaw:	-1.897	yaw rate:	-24.155	Roll:	0.336	Pitch:	0.477	Yaw:	-7.949	Thrust:	32.060
Time:	2.165	Roll Set Point:	-0.044	Pitch Set Point:	-0.026	Yaw Set Point:	0.027	X_WP:	0.000	Y_WP:	0.000	Y_WP:	0.500	X:	0.022	Y:	0.012	Z:	0.049	yaw:	-1.572	yaw rate:	7.527	Roll:	0.656	Pitch:	0.138	Yaw:	4.289	Thrust:	30.706
Time:	2.177	Roll Set Point:	-0.045	Pitch Set Point:	-0.026	Yaw Set Point:	0.030	X_WP:	0.000	Y_WP:	0.000	Y_WP:	0.500	X:	0.023	Y:	0.013	Z:	0.049	yaw:	-1.713	yaw rate:	-14.119	Roll:	0.931	Pitch:	0.808	Yaw:	-5.657	Thrust:	30.952
Time:	2.190	Roll Set Point:	-0.045	Pitch Set Point:	-0.026	Yaw Set Point:	0.026	X_WP:	0.000	Y_WP:	0.000	Y_WP:	0.500	X:	0.022	Y:	0.012	Z:	0.049	yaw:	-1.503	yaw rate:	20.989	Roll:	0.562	Pitch:	-0.077	Yaw:	2.389	Thrust:	31.600
Time:	2.205	Roll Set Point:	-0.045	Pitch Set Point:	-0.026	Yaw Set Point:	0.025	X_WP:	0.000	Y_WP:	0.000	Y_WP:	0.500	X:	0.023	Y:	0.013	Z:	0.049	yaw:	-1.411	yaw rate:	9.254	Roll:	0.918	Pitch:	0.436	Yaw:	-0.534	Thrust:	35.011
Time:	2.216	Roll Set Point:	-0.045	Pitch Set Point:	-0.026	Yaw Set Point:	0.021	X_WP:	0.000	Y_WP:	0.000	Y_WP:	0.500	X:	0.023	Y:	0.013	Z:	0.049	yaw:	-1.180	yaw rate:	23.065	Roll:	0.693	Pitch:	0.247	Yaw:	3.510	Thrust:	33.335
Time:	2.233	Roll Set Point:	-0.045	Pitch Set Point:	-0.026	Yaw Set Point:	0.020	X_WP:	0.000	Y_WP:	0.000	Y_WP:	0.500	X:	0.022	Y:	0.013	Z:	0.049	yaw:	-1.132	yaw rate:	4.809	Roll:	0.472	Pitch:	0.379	Yaw:	-0.913	Thrust:	35.718
Time:	2.246	Roll Set Point:	-0.045	Pitch Set Point:	-0.026	Yaw Set Point:	0.024	X_WP:	0.000	Y_WP:	0.000	Y_WP:	0.500	X:	0.023	Y:	0.013	Z:	0.049	yaw:	-1.379	yaw rate:	21.453	Roll:	0.723	Pitch:	0.566	Yaw:	-6.904	Thrust:	37.088
Time:	2.263	Roll Set Point:	-0.044	Pitch Set Point:	-0.026	Yaw Set Point:	0.031	X_WP:	0.000	Y_WP:	0.000	Y_WP:	0.500	X:	0.022	Y:	0.013	Z:	0.049	yaw:	-1.767	yaw rate:	-38.790	Roll:	0.367	Pitch:	0.472	Yaw:	-8.405	Thrust:	40.241
Time:	2.274	Roll Set Point:	-0.044	Pitch Set Point:	-0.026	Yaw Set Point:	0.036	X_WP:	0.000	Y_WP:	0.000	Y_WP:	0.500	X:	0.022	Y:	0.013	Z:	0.049	yaw:	-2.036	yaw rate:	-85.453	Roll:	0.596	Pitch:	0.492	Yaw:	-9.190	Thrust:	35.728
Time:	2.287	Roll Set Point:	-0.045	Pitch Set Point:	-0.026	Yaw Set Point:	0.028	X_WP:	0.000	Y_WP:	0.000	Y_WP:	0.500	X:	0.022	Y:	0.013	Z:	0.049	yaw:	-1.630	yaw rate:	40.621	Roll:	0.907	Pitch:	0.285	Yaw:	6.795	Thrust:	36.175
Time:	2.299	Roll Set Point:	-0.045	Pitch Set Point:	-0.025	Yaw Set Point:	0.028	X_WP:	0.000	Y_WP:	0.000	Y_WP:	0.500	X:	0.022	Y:	0.012	Z:	0.049	yaw:	-1.589	yaw rate:	4.086	Roll:	0.607	Pitch:	0.149	Yaw:	-1.513	Thrust:	37.255
Time:	2.309	Roll Set Point:	-0.044	Pitch Set Point:	-0.025	Yaw Set Point:	0.027	X_WP:	0.000	Y_WP:	0.000	Y_WP:	0.500	X:	0.022	Y:	0.012	Z:	0.049	yaw:	-1.571	yaw rate:	1.820	Roll:	0.562	Pitch:	0.354	Yaw:	-1.852	Thrust:	36.143
Time:	2.321	Roll Set Point:	-0.045	Pitch Set Point:	-0.026	Yaw Set Point:	0.025	X_WP:	0.000	Y_WP:	0.000	Y_WP:	0.500	X:	0.023	Y:	0.013	Z:	0.049	yaw:	-1.439	yaw rate:	13.204	Roll:	1.000	Pitch:	0.740	Yaw:	0.858	Thrust:	38.468
Time:	2.334	Roll Set Point:	-0.045	Pitch Set Point:	-0.026	Yaw Set Point:	0.018	X_WP:	0.000	Y_WP:	0.000	Y_WP:	0.500	X:	0.022	Y:	0.013	Z:	0.049	yaw:	-1.021	yaw rate:	41.799	Roll:	0.562	Pitch:	0.039	Yaw:	6.450	Thrust:	40.117
Time:	2.345	Roll Set Point:	-0.045	Pitch Set Point:	-0.026	Yaw Set Point:	0.025	X_WP:	0.000	Y_WP:	0.000	Y_WP:	0.500	X:	0.022	Y:	0.013	Z:	0.049	yaw:	-1.419	yaw rate:	-39.819	Roll:	0.590	Pitch:	0.539	Yaw:	-11.565	Thrust:	38.616
Time:	2.362	Roll Set Point:	-0.045	Pitch Set Point:	-0.026	Yaw Set Point:	0.026	X_WP:	0.000	Y_WP:	0.000	Y_WP:	0.500	X:	0.022	Y:	0.013	Z:	0.049	yaw:	-1.464	yaw rate:	-4.495	Roll:	0.644	Pitch:	0.582	Yaw:	-2.977	Thrust:	43.421
Time:	2.376	Roll Set Point:	-0.045	Pitch Set Point:	-0.026	Yaw Set Point:	0.031	X_WP:	0.000	Y_WP:	0.000	Y_WP:	0.500	X:	0.022	Y:	0.012	Z:	0.049	yaw:	-1.802	yaw rate:	-69.161	Roll:	0.599	Pitch:	0.278	Yaw:	-8.789	Thrust:	47.298
Time:	2.394	Roll Set Point:	-0.045	Pitch Set Point:	-0.026	Yaw Set Point:	0.021	X_WP:	0.000	Y_WP:	0.000	Y_WP:	0.500	X:	0.022	Y:	0.013	Z:	0.049	yaw:	-1.183	yaw rate:	61.851	Roll:	0.772	Pitch:	0.219	Yaw:	6.829	Thrust:	44.410
Time:	2.406	Roll Set Point:	-0.045	Pitch Set Point:	-0.026	Yaw Set Point:	0.025	X_WP:	0.000	Y_WP:	0.000	Y_WP:	0.500	X:	0.022	Y:	0.013	Z:	0.049	yaw:	-1.449	yaw rate:	-22.026	Roll:	0.663	Pitch:	0.449	Yaw:	-7.947	Thrust:	49.415
Time:	2.421	Roll Set Point:	-0.045	Pitch Set Point:	-0.026	Yaw Set Point:	0.022	X_WP:	0.000	Y_WP:	0.000	Y_WP:	0.500	X:	0.022	Y:	0.013	Z:	0.049	yaw:	-1.280	yaw rate:	16.834	Roll:	0.746	Pitch:	0.429	Yaw:	1.000	Thrust:	46.031
Time:	2.443	Roll Set Point:	-0.045	Pitch Set Point:	-0.026	Yaw Set Point:	0.027	X_WP:	0.000	Y_WP:	0.000	Y_WP:	0.500	X:	0.023	Y:	0.013	Z:	0.049	yaw:	-1.571	yaw rate:	-63.769	Roll:	0.758	Pitch:	0.516	Yaw:	-6.041	Thrust:	59.251
Time:	2.465	Roll Set Point:	-0.045	Pitch Set Point:	-0.026	Yaw Set Point:	0.024	X_WP:	0.000	Y_WP:	0.000	Y_WP:	0.500	X:	0.023	Y:	0.013	Z:	0.049	yaw:	-1.352	yaw rate:	21.845	Roll:	0.848	Pitch:	0.304	Yaw:	0.357	Thrust:	60.893
Time:	2.478	Roll Set Point:	-0.045	Pitch Set Point:	-0.026	Yaw Set Point:	0.018	X_WP:	0.000	Y_WP:	0.000	Y_WP:	0.500	X:	0.023	Y:	0.013	Z:	0.049	yaw:	-1.049	yaw rate:	-14.162	Roll:	0.564	Pitch:	0.347	Yaw:	4.420	Thrust:	46.001
Time:	2.497	Roll Set Point:	-0.045	Pitch Set Point:	-0.026	Yaw Set Point:	0.026	X_WP:	0.000	Y_WP:	0.000	Y_WP:	0.500	X:	0.023	Y:	0.013	Z:	0.049	yaw:	-1.476	yaw rate:	-42.725	Roll:	0.822	Pitch:	0.538	Yaw:	-8.072	Thrust:	58.312
Time:	2.510	Roll Set Point:	-0.046	Pitch Set Point:	-0.026	Yaw Set Point:	0.017	X_WP:	0.000	Y_WP:	0.000	Y_WP:	0.500	X:	0.023	Y:	0.013	Z:	0.049	yaw:	-0.979	yaw rate:	-1.766	Roll:	1.115	Pitch:	0.358	Yaw:	9.133	Thrust:	47.683
Time:	2.524	Roll Set Point:	-0.046	Pitch Set Point:	-0.026	Yaw Set Point:	0.018	X_WP:	0.000	Y_WP:	0.000	Y_WP:	0.500	X:	0.023	Y:	0.013	Z:	0.049	yaw:	-1.005	yaw rate:	-2.556	Roll:	0.857	Pitch:	0.273	Yaw:	-2.121	Thrust:	49.350
Time:	2.539	Roll Set Point:	-0.047	Pitch Set Point:	-0.026	Yaw Set Point:	0.015	X_WP:	0.000	Y_WP:	0.000	Y_WP:	0.500	X:	0.023	Y:	0.013	Z:	0.049	yaw:	-0.847	yaw rate:	15.794	Roll:	0.886	Pitch:	0.259	Yaw:	1.284	Thrust:	54.402
Time:	2.549	Roll Set Point:	-0.047	Pitch Set Point:	-0.025	Yaw Set Point:	0.011	X_WP:	0.000	Y_WP:	0.000	Y_WP:	0.500	X:	0.024	Y:	0.013	Z:	0.049	yaw:	-0.640	yaw rate:	20.650	Roll:	1.049	Pitch:	0.145	Yaw:	4.055	Thrust:	45.406
Time:	2.565	Roll Set Point:	-0.048	Pitch Set Point:	-0.025	Yaw Set Point:	0.011	X_WP:	0.000	Y_WP:	0.000	Y_WP:	0.500	X:	0.024	Y:	0.013	Z:	0.049	yaw:	-0.603	yaw rate:	3.734	Roll:	1.072	Pitch:	0.414	Yaw:	-0.472	Thrust:	54.395
Time:	2.576	Roll Set Point:	-0.048	Pitch Set Point:	-0.026	Yaw Set Point:	0.010	X_WP:	0.000	Y_WP:	0.000	Y_WP:	0.500	X:	0.024	Y:	0.013	Z:	0.050	yaw:	-0.593	yaw rate:	30.601	Roll:	1.125	Pitch:	0.680	Yaw:	-0.781	Thrust:	45.076
Time:	2.587	Roll Set Point:	-0.049	Pitch Set Point:	-0.026	Yaw Set Point:	0.009	X_WP:	0.000	Y_WP:	0.000	Y_WP:	0.500	X:	0.024	Y:	0.013	Z:	0.050	yaw:	-0.534	yaw rate:	5.919	Roll:	1.088	Pitch:	0.486	Yaw:	0.319	Thrust:	48.774
Time:	2.601	Roll Set Point:	-0.049	Pitch Set Point:	-0.026	Yaw Set Point:	0.009	X_WP:	0.000	Y_WP:	0.000	Y_WP:	0.500	X:	0.024	Y:	0.013	Z:	0.050	yaw:	-0.503	yaw rate:	3.115	Roll:	0.764	Pitch:	0.667	Yaw:	-0.387	Thrust:	54.837
Time:	2.612	Roll Set Point:	-0.049	Pitch Set Point:	-0.026	Yaw Set Point:	0.006	X_WP:	0.000	Y_WP:	0.000	Y_WP:	0.500	X:	0.025	Y:	0.013	Z:	0.050	yaw:	-0.370	yaw rate:	13.272	Roll:	1.032	Pitch:	0.331	Yaw:	2.585	Thrust:	47.509
Time:	2.629	Roll Set Point:	-0.049	Pitch Set Point:	-0.027	Yaw Set Point:	0.008	X_WP:	0.000	Y_WP:	0.000	Y_WP:	0.500	X:	0.025	Y:	0.013	Z:	0.051	yaw:	-0.463	yaw rate:	-9.310	Roll:	0.881	Pitch:	0.527	Yaw:	-2.432	Thrust:	59.073
Time:	2.640	Roll Set Point:	-0.050	Pitch Set Point:	-0.027	Yaw Set Point:	-0.005	X_WP:	0.000	Y_WP:	0.000	Y_WP:	0.500	X:	0.025	Y:	0.014	Z:	0.051	yaw:	0.297	yaw rate:	89.772	Roll:	1.420	Pitch:	0.523	Yaw:	17.086	Thrust:	51.420
Time:	2.652	Roll Set Point:	-0.050	Pitch Set Point:	-0.027	Yaw Set Point:	-0.003	X_WP:	0.000	Y_WP:	0.000	Y_WP:	0.500	X:	0.025	Y:	0.014	Z:	0.052	yaw:	0.195	yaw rate:	-10.157	Roll:	0.925	Pitch:	0.670	Yaw:	-2.347	Thrust:	50.679
Time:	2.665	Roll Set Point:	-0.051	Pitch Set Point:	-0.028	Yaw Set Point:	-0.002	X_WP:	0.000	Y_WP:	0.000	Y_WP:	0.500	X:	0.025	Y:	0.014	Z:	0.052	yaw:	0.096	yaw rate:	-9.866	Roll:	0.820	Pitch:	0.943	Yaw:	-1.972	Thrust:	57.709
Time:	2.677	Roll Set Point:	-0.051	Pitch Set Point:	-0.028	Yaw Set Point:	-0.011	X_WP:	0.000	Y_WP:	0.000	Y_WP:	0.500	X:	0.025	Y:	0.014	Z:	0.052	yaw:	0.642	yaw rate:	54.558	Roll:	1.250	Pitch:	0.325	Yaw:	12.536	Thrust:	51.498
Time:	2.691	Roll Set Point:	-0.051	Pitch Set Point:	-0.029	Yaw Set Point:	-0.013	X_WP:	0.000	Y_WP:	0.000	Y_WP:	0.500	X:	0.025	Y:	0.015	Z:	0.053	yaw:	0.759	yaw rate:	11.717	Roll:	0.804	Pitch:	0.657	Yaw:	3.071	Thrust:	58.946
Time:	2.706	Roll Set Point:	-0.051	Pitch Set Point:	-0.029	Yaw Set Point:	-0.011	X_WP:	0.000	Y_WP:	0.000	Y_WP:	0.500	X:	0.026	Y:	0.015	Z:	0.053	yaw:	0.606	yaw rate:	-15.303	Roll:	0.938	Pitch:	0.627	Yaw:	-2.240	Thrust:	60.167
Time:	2.716	Roll Set Point:	-0.052	Pitch Set Point:	-0.029	Yaw Set Point:	-0.012	X_WP:	0.000	Y_WP:	0.000	Y_WP:	0.500	X:	0.026	Y:	0.015	Z:	0.054	yaw:	0.664	yaw rate:	5.814	Roll:	1.041	Pitch:	0.661	Yaw:	2.181	Thrust:	50.681
Time:	2.731	Roll Set Point:	-0.052	Pitch Set Point:	-0.030	Yaw Set Point:	-0.022	X_WP:	0.000	Y_WP:	0.000	Y_WP:	0.500	X:	0.026	Y:	0.015	Z:	0.054	yaw:	1.245	yaw rate:	58.133	Roll:	1.137	Pitch:	0.533	Yaw:	11.255	Thrust:	65.016
Time:	2.744	Roll Set Point:	-0.052	Pitch Set Point:	-0.031	Yaw Set Point:	-0.018	X_WP:	0.000	Y_WP:	0.000	Y_WP:	0.500	X:	0.026	Y:	0.016	Z:	0.055	yaw:	1.048	yaw rate:	-5.677	Roll:	0.888	Pitch:	1.068	Yaw:	-2.881	Thrust:	55.577
Time:	2.764	Roll Set Point:	-0.053	Pitch Set Point:	-0.031	Yaw Set Point:	-0.028	X_WP:	0.000	Y_WP:	0.000	Y_WP:	0.500	X:	0.026	Y:	0.016	Z:	0.056	yaw:	1.616	yaw rate:	56.816	Roll:	1.247	Pitch:	0.617	Yaw:	9.293	Thrust:	78.440
Time:	2.777	Roll Set Point:	-0.054	Pitch Set Point:	-0.033	Yaw Set Point:	-0.029	X_WP:	0.000	Y_WP:	0.000	Y_WP:	0.500	X:	0.027	Y:	0.017	Z:	0.058	yaw:	1.653	yaw rate:	-2.891	Roll:	1.247	Pitch:	1.812	Yaw:	2.881	Thrust:	55.179
Time:	2.795	Roll Set Point:	-0.054	Pitch Set Point:	-0.034	Yaw Set Point:	-0.028	X_WP:	0.000	Y_WP:	0.000	Y_WP:	0.500	X:	0.027	Y:	0.017	Z:	0.059	yaw:	1.599	yaw rate:	-5.397	Roll:	0.825	Pitch:	0.809	Yaw:	1.171	Thrust:	75.701
Time:	2.806	Roll Set Point:	-0.054	Pitch Set Point:	-0.035	Yaw Set Point:	-0.036	X_WP:	0.000	Y_WP:	0.000	Y_WP:	0.500	X:	0.027	Y:	0.018	Z:	0.060	yaw:	2.082	yaw rate:	47.584	Roll:	1.156	Pitch:	1.060	Yaw:	14.145	Thrust:	49.278
Time:	2.817	Roll Set Point:	-0.054	Pitch Set Point:	-0.036	Yaw Set Point:	-0.033	X_WP:	0.000	Y_WP:	0.000	Y_WP:	0.500	X:	0.027	Y:	0.018	Z:	0.062	yaw:	1.865	yaw rate:	-21.652	Roll:	0.935	Pitch:	1.636	Yaw:	-2.937	Thrust:	51.569
Time:	2.830	Roll Set Point:	-0.054	Pitch Set Point:	-0.037	Yaw Set Point:	-0.036	X_WP:	0.000	Y_WP:	0.000	Y_WP:	0.500	X:	0.027	Y:	0.019	Z:	0.063	yaw:	2.062	yaw rate:	19.713	Roll:	0.855	Pitch:	0.897	Yaw:	6.489	Thrust:	60.597
Time:	2.844	Roll Set Point:	-0.054	Pitch Set Point:	-0.038	Yaw Set Point:	-0.035	X_WP:	0.000	Y_WP:	0.000	Y_WP:	0.500	X:	0.027	Y:	0.019	Z:	0.064	yaw:	2.034	yaw rate:	-2.864	Roll:	0.847	Pitch:	1.109	Yaw:	2.088	Thrust:	61.511
Time:	2.863	Roll Set Point:	-0.054	Pitch Set Point:	-0.038	Yaw Set Point:	-0.034	X_WP:	0.000	Y_WP:	0.000	Y_WP:	0.500	X:	0.027	Y:	0.020	Z:	0.065	yaw:	1.970	yaw rate:	-6.412	Roll:	0.809	Pitch:	1.009	Yaw:	1.644	Thrust:	81.587
Time:	2.875	Roll Set Point:	-0.055	Pitch Set Point:	-0.040	Yaw Set Point:	-0.051	X_WP:	0.000	Y_WP:	0.000	Y_WP:	0.500	X:	0.027	Y:	0.021	Z:	0.069	yaw:	2.904	yaw rate:	34.538	Roll:	1.640	Pitch:	1.311	Yaw:	24.204	Thrust:	49.692
Time:	2.895	Roll Set Point:	-0.054	Pitch Set Point:	-0.041	Yaw Set Point:	-0.046	X_WP:	0.000	Y_WP:	0.000	Y_WP:	0.500	X:	0.027	Y:	0.021	Z:	0.070	yaw:	2.617	yaw rate:	-28.690	Roll:	0.505	Pitch:	1.572	Yaw:	-2.474	Thrust:	61.214
Time:	2.908	Roll Set Point:	-0.054	Pitch Set Point:	-0.044	Yaw Set Point:	-0.047	X_WP:	0.000	Y_WP:	0.000	Y_WP:	0.500	X:	0.026	Y:	0.022	Z:	0.076	yaw:	2.711	yaw rate:	22.597	Roll:	0.718	Pitch:	1.587	Yaw:	4.744	Thrust:	80.862
Time:	2.922	Roll Set Point:	-0.054	Pitch Set Point:	-0.045	Yaw Set Point:	-0.052	X_WP:	0.000	Y_WP:	0.000	Y_WP:	0.500	X:	0.027	Y:	0.023	Z:	0.078	yaw:	2.965	yaw rate:	25.362	Roll:	1.199	Pitch:	1.476	Yaw:	8.859	Thrust:	60.332
Time:	2.934	Roll Set Point:	-0.054	Pitch Set Point:	-0.046	Yaw Set Point:	-0.048	X_WP:	0.000	Y_WP:	0.000	Y_WP:	0.500	X:	0.026	Y:	0.024	Z:	0.080	yaw:	2.760	yaw rate:	-20.502	Roll:	0.505	Pitch:	1.447	Yaw:	-0.705	Thrust:	55.339
Time:	2.945	Roll Set Point:	-0.053	Pitch Set Point:	-0.047	Yaw Set Point:	-0.049	X_WP:	0.000	Y_WP:	0.000	Y_WP:	0.500	X:	0.026	Y:	0.024	Z:	0.082	yaw:	2.829	yaw rate:	6.891	Roll:	0.583	Pitch:	1.143	Yaw:	5.504	Thrust:	54.609
Time:	2.970	Roll Set Point:	-0.053	Pitch Set Point:	-0.048	Yaw Set Point:	-0.048	X_WP:	0.000	Y_WP:	0.000	Y_WP:	0.500	X:	0.026	Y:	0.025	Z:	0.085	yaw:	2.736	yaw rate:	-9.246	Roll:	0.855	Pitch:	1.156	Yaw:	2.685	Thrust:	100.000
Time:	2.981	Roll Set Point:	-0.052	Pitch Set Point:	-0.051	Yaw Set Point:	-0.047	X_WP:	0.000	Y_WP:	0.000	Y_WP:	0.500	X:	0.026	Y:	0.026	Z:	0.092	yaw:	2.672	yaw rate:	-17.376	Roll:	0.283	Pitch:	2.868	Yaw:	2.215	Thrust:	46.961
Time:	2.996	Roll Set Point:	-0.052	Pitch Set Point:	-0.052	Yaw Set Point:	-0.049	X_WP:	0.000	Y_WP:	0.000	Y_WP:	0.500	X:	0.025	Y:	0.027	Z:	0.094	yaw:	2.785	yaw rate:	11.327	Roll:	0.700	Pitch:	1.304	Yaw:	5.879	Thrust:	66.722
Time:	3.008	Roll Set Point:	-0.052	Pitch Set Point:	-0.054	Yaw Set Point:	-0.051	X_WP:	0.000	Y_WP:	0.000	Y_WP:	0.500	X:	0.025	Y:	0.028	Z:	0.100	yaw:	2.942	yaw rate:	14.636	Roll:	0.719	Pitch:	2.085	Yaw:	7.325	Thrust:	47.918
Time:	3.020	Roll Set Point:	-0.052	Pitch Set Point:	-0.055	Yaw Set Point:	-0.057	X_WP:	0.000	Y_WP:	0.000	Y_WP:	0.500	X:	0.025	Y:	0.028	Z:	0.103	yaw:	3.275	yaw rate:	33.274	Roll:	0.774	Pitch:	1.446	Yaw:	11.785	Thrust:	55.215
Time:	3.033	Roll Set Point:	-0.051	Pitch Set Point:	-0.056	Yaw Set Point:	-0.058	X_WP:	0.000	Y_WP:	0.000	Y_WP:	0.500	X:	0.025	Y:	0.029	Z:	0.106	yaw:	3.332	yaw rate:	5.747	Roll:	0.763	Pitch:	1.498	Yaw:	5.838	Thrust:	57.686
Time:	3.044	Roll Set Point:	-0.051	Pitch Set Point:	-0.057	Yaw Set Point:	-0.068	X_WP:	0.000	Y_WP:	0.000	Y_WP:	0.500	X:	0.025	Y:	0.029	Z:	0.110	yaw:	3.911	yaw rate:	57.917	Roll:	1.098	Pitch:	1.202	Yaw:	19.199	Thrust:	47.887
Time:	3.060	Roll Set Point:	-0.051	Pitch Set Point:	-0.058	Yaw Set Point:	-0.060	X_WP:	0.000	Y_WP:	0.000	Y_WP:	0.500	X:	0.024	Y:	0.030	Z:	0.113	yaw:	3.465	yaw rate:	-44.639	Roll:	0.190	Pitch:	1.744	Yaw:	-2.192	Thrust:	74.117
Time:	3.074	Roll Set Point:	-0.050	Pitch Set Point:	-0.061	Yaw Set Point:	-0.064	X_WP:	0.000	Y_WP:	0.000	Y_WP:	0.500	X:	0.024	Y:	0.031	Z:	0.124	yaw:	3.679	yaw rate:	-4.221	Roll:	0.621	Pitch:	2.248	Yaw:	9.173	Thrust:	46.388
Time:	3.086	Roll Set Point:	-0.050	Pitch Set Point:	-0.062	Yaw Set Point:	-0.068	X_WP:	0.000	Y_WP:	0.000	Y_WP:	0.500	X:	0.024	Y:	0.032	Z:	0.128	yaw:	3.877	yaw rate:	19.875	Roll:	0.829	Pitch:	1.514	Yaw:	9.782	Thrust:	54.586
Time:	3.099	Roll Set Point:	-0.050	Pitch Set Point:	-0.063	Yaw Set Point:	-0.062	X_WP:	0.000	Y_WP:	0.000	Y_WP:	0.500	X:	0.024	Y:	0.032	Z:	0.131	yaw:	3.548	yaw rate:	-32.892	Roll:	0.410	Pitch:	1.713	Yaw:	-1.914	Thrust:	57.166
Time:	3.110	Roll Set Point:	-0.049	Pitch Set Point:	-0.064	Yaw Set Point:	-0.063	X_WP:	0.000	Y_WP:	0.000	Y_WP:	0.500	X:	0.024	Y:	0.033	Z:	0.135	yaw:	3.635	yaw rate:	8.633	Roll:	0.729	Pitch:	1.634	Yaw:	7.109	Thrust:	52.364
Time:	3.122	Roll Set Point:	-0.049	Pitch Set Point:	-0.065	Yaw Set Point:	-0.068	X_WP:	0.000	Y_WP:	0.000	Y_WP:	0.500	X:	0.024	Y:	0.033	Z:	0.139	yaw:	3.885	yaw rate:	25.034	Roll:	0.972	Pitch:	1.561	Yaw:	11.191	Thrust:	52.271
Time:	3.135	Roll Set Point:	-0.049	Pitch Set Point:	-0.066	Yaw Set Point:	-0.061	X_WP:	0.000	Y_WP:	0.000	Y_WP:	0.500	X:	0.024	Y:	0.034	Z:	0.142	yaw:	3.473	yaw rate:	-41.188	Roll:	0.573	Pitch:	1.760	Yaw:	-2.989	Thrust:	64.155
Time:	3.146	Roll Set Point:	-0.049	Pitch Set Point:	-0.066	Yaw Set Point:	-0.062	X_WP:	0.000	Y_WP:	0.000	Y_WP:	0.500	X:	0.024	Y:	0.034	Z:	0.146	yaw:	3.556	yaw rate:	8.300	Roll:	0.772	Pitch:	1.444	Yaw:	7.138	Thrust:	47.837
Time:	3.169	Roll Set Point:	-0.049	Pitch Set Point:	-0.068	Yaw Set Point:	-0.061	X_WP:	0.000	Y_WP:	0.000	Y_WP:	0.500	X:	0.023	Y:	0.035	Z:	0.153	yaw:	3.488	yaw rate:	-27.115	Roll:	0.677	Pitch:	1.740	Yaw:	4.331	Thrust:	92.676
Time:	3.181	Roll Set Point:	-0.049	Pitch Set Point:	-0.069	Yaw Set Point:	-0.060	X_WP:	0.000	Y_WP:	0.000	Y_WP:	0.500	X:	0.023	Y:	0.035	Z:	0.160	yaw:	3.440	yaw rate:	-23.676	Roll:	0.817	Pitch:	1.904	Yaw:	3.926	Thrust:	54.044
Time:	3.196	Roll Set Point:	-0.049	Pitch Set Point:	-0.070	Yaw Set Point:	-0.061	X_WP:	0.000	Y_WP:	0.000	Y_WP:	0.500	X:	0.023	Y:	0.036	Z:	0.163	yaw:	3.505	yaw rate:	6.465	Roll:	0.804	Pitch:	1.593	Yaw:	6.292	Thrust:	68.338
Time:	3.207	Roll Set Point:	-0.048	Pitch Set Point:	-0.071	Yaw Set Point:	-0.058	X_WP:	0.000	Y_WP:	0.000	Y_WP:	0.500	X:	0.023	Y:	0.036	Z:	0.166	yaw:	3.299	yaw rate:	-20.638	Roll:	0.468	Pitch:	1.385	Yaw:	0.556	Thrust:	62.770
Time:	3.219	Roll Set Point:	-0.049	Pitch Set Point:	-0.072	Yaw Set Point:	-0.063	X_WP:	0.000	Y_WP:	0.000	Y_WP:	0.500	X:	0.023	Y:	0.037	Z:	0.173	yaw:	3.604	yaw rate:	30.543	Roll:	1.472	Pitch:	1.958	Yaw:	12.450	Thrust:	40.694
Time:	3.232	Roll Set Point:	-0.049	Pitch Set Point:	-0.073	Yaw Set Point:	-0.065	X_WP:	0.000	Y_WP:	0.000	Y_WP:	0.500	X:	0.023	Y:	0.037	Z:	0.176	yaw:	3.729	yaw rate:	12.489	Roll:	0.878	Pitch:	1.372	Yaw:	7.859	Thrust:	64.299
Time:	3.243	Roll Set Point:	-0.049	Pitch Set Point:	-0.073	Yaw Set Point:	-0.071	X_WP:	0.000	Y_WP:	0.000	Y_WP:	0.500	X:	0.023	Y:	0.037	Z:	0.179	yaw:	4.090	yaw rate:	36.091	Roll:	1.042	Pitch:	1.214	Yaw:	14.487	Thrust:	55.878
Time:	3.255	Roll Set Point:	-0.049	Pitch Set Point:	-0.074	Yaw Set Point:	-0.063	X_WP:	0.000	Y_WP:	0.000	Y_WP:	0.500	X:	0.023	Y:	0.038	Z:	0.183	yaw:	3.604	yaw rate:	-48.592	Roll:	0.562	Pitch:	1.718	Yaw:	-5.291	Thrust:	58.869
Time:	3.270	Roll Set Point:	-0.049	Pitch Set Point:	-0.074	Yaw Set Point:	-0.064	X_WP:	0.000	Y_WP:	0.000	Y_WP:	0.500	X:	0.023	Y:	0.038	Z:	0.190	yaw:	3.651	yaw rate:	13.599	Roll:	0.956	Pitch:	1.460	Yaw:	6.267	Thrust:	58.514
Time:	3.280	Roll Set Point:	-0.049	Pitch Set Point:	-0.075	Yaw Set Point:	-0.057	X_WP:	0.000	Y_WP:	0.000	Y_WP:	0.500	X:	0.023	Y:	0.038	Z:	0.193	yaw:	3.252	yaw rate:	-39.891	Roll:	0.384	Pitch:	1.573	Yaw:	-5.644	Thrust:	48.729
Time:	3.295	Roll Set Point:	-0.049	Pitch Set Point:	-0.075	Yaw Set Point:	-0.064	X_WP:	0.000	Y_WP:	0.000	Y_WP:	0.500	X:	0.023	Y:	0.038	Z:	0.197	yaw:	3.682	yaw rate:	42.988	Roll:	1.279	Pitch:	1.265	Yaw:	13.215	Thrust:	72.211
Time:	3.307	Roll Set Point:	-0.050	Pitch Set Point:	-0.075	Yaw Set Point:	-0.062	X_WP:	0.000	Y_WP:	0.000	Y_WP:	0.500	X:	0.024	Y:	0.039	Z:	0.202	yaw:	3.562	yaw rate:	-11.994	Roll:	1.020	Pitch:	1.446	Yaw:	2.792	Thrust:	59.747
Time:	3.320	Roll Set Point:	-0.050	Pitch Set Point:	-0.076	Yaw Set Point:	-0.060	X_WP:	0.000	Y_WP:	0.000	Y_WP:	0.500	X:	0.024	Y:	0.039	Z:	0.206	yaw:	3.428	yaw rate:	-13.417	Roll:	0.846	Pitch:	1.427	Yaw:	2.570	Thrust:	60.907
Time:	3.333	Roll Set Point:	-0.050	Pitch Set Point:	-0.076	Yaw Set Point:	-0.057	X_WP:	0.000	Y_WP:	0.000	Y_WP:	0.500	X:	0.024	Y:	0.039	Z:	0.214	yaw:	3.263	yaw rate:	-13.241	Roll:	1.053	Pitch:	1.231	Yaw:	1.605	Thrust:	53.965
Time:	3.345	Roll Set Point:	-0.051	Pitch Set Point:	-0.076	Yaw Set Point:	-0.058	X_WP:	0.000	Y_WP:	0.000	Y_WP:	0.500	X:	0.024	Y:	0.039	Z:	0.223	yaw:	3.317	yaw rate:	5.343	Roll:	1.249	Pitch:	1.298	Yaw:	6.140	Thrust:	39.139
Time:	3.363	Roll Set Point:	-0.051	Pitch Set Point:	-0.076	Yaw Set Point:	-0.053	X_WP:	0.000	Y_WP:	0.000	Y_WP:	0.500	X:	0.024	Y:	0.039	Z:	0.228	yaw:	3.039	yaw rate:	-27.763	Roll:	0.873	Pitch:	1.217	Yaw:	0.267	Thrust:	74.369
Time:	3.377	Roll Set Point:	-0.051	Pitch Set Point:	-0.076	Yaw Set Point:	-0.050	X_WP:	0.000	Y_WP:	0.000	Y_WP:	0.500	X:	0.025	Y:	0.039	Z:	0.233	yaw:	2.880	yaw rate:	-15.889	Roll:	0.852	Pitch:	1.277	Yaw:	1.720	Thrust:	76.057
Time:	3.390	Roll Set Point:	-0.052	Pitch Set Point:	-0.076	Yaw Set Point:	-0.052	X_WP:	0.000	Y_WP:	0.000	Y_WP:	0.500	X:	0.025	Y:	0.039	Z:	0.243	yaw:	2.990	yaw rate:	9.268	Roll:	1.310	Pitch:	0.837	Yaw:	6.794	Thrust:	46.955
Time:	3.404	Roll Set Point:	-0.052	Pitch Set Point:	-0.076	Yaw Set Point:	-0.048	X_WP:	0.000	Y_WP:	0.000	Y_WP:	0.500	X:	0.025	Y:	0.039	Z:	0.248	yaw:	2.767	yaw rate:	-22.313	Roll:	1.060	Pitch:	1.253	Yaw:	0.361	Thrust:	70.419
Time:	3.415	Roll Set Point:	-0.052	Pitch Set Point:	-0.075	Yaw Set Point:	-0.051	X_WP:	0.000	Y_WP:	0.000	Y_WP:	0.500	X:	0.025	Y:	0.038	Z:	0.253	yaw:	2.944	yaw rate:	17.712	Roll:	1.078	Pitch:	0.670	Yaw:	8.691	Thrust:	46.338
Time:	3.432	Roll Set Point:	-0.052	Pitch Set Point:	-0.075	Yaw Set Point:	-0.046	X_WP:	0.000	Y_WP:	0.000	Y_WP:	0.500	X:	0.025	Y:	0.038	Z:	0.258	yaw:	2.619	yaw rate:	-32.507	Roll:	0.792	Pitch:	1.133	Yaw:	-0.988	Thrust:	70.646
Time:	3.445	Roll Set Point:	-0.053	Pitch Set Point:	-0.074	Yaw Set Point:	-0.045	X_WP:	0.000	Y_WP:	0.000	Y_WP:	0.500	X:	0.026	Y:	0.038	Z:	0.274	yaw:	2.565	yaw rate:	-4.848	Roll:	1.371	Pitch:	0.531	Yaw:	2.953	Thrust:	32.808
Time:	3.463	Roll Set Point:	-0.054	Pitch Set Point:	-0.074	Yaw Set Point:	-0.042	X_WP:	0.000	Y_WP:	0.000	Y_WP:	0.500	X:	0.026	Y:	0.038	Z:	0.280	yaw:	2.426	yaw rate:	-13.872	Roll:	1.058	Pitch:	1.007	Yaw:	2.043	Thrust:	82.375
Time:	3.476	Roll Set Point:	-0.054	Pitch Set Point:	-0.074	Yaw Set Point:	-0.042	X_WP:	0.000	Y_WP:	0.000	Y_WP:	0.500	X:	0.026	Y:	0.037	Z:	0.286	yaw:	2.412	yaw rate:	-1.486	Roll:	1.106	Pitch:	0.887	Yaw:	3.549	Thrust:	62.944
Time:	3.488	Roll Set Point:	-0.055	Pitch Set Point:	-0.073	Yaw Set Point:	-0.045	X_WP:	0.000	Y_WP:	0.000	Y_WP:	0.500	X:	0.026	Y:	0.037	Z:	0.292	yaw:	2.593	yaw rate:	18.167	Roll:	1.221	Pitch:	0.596	Yaw:	7.899	Thrust:	47.722
Time:	3.502	Roll Set Point:	-0.055	Pitch Set Point:	-0.072	Yaw Set Point:	-0.044	X_WP:	0.000	Y_WP:	0.000	Y_WP:	0.500	X:	0.027	Y:	0.037	Z:	0.303	yaw:	2.496	yaw rate:	29.557	Roll:	1.273	Pitch:	0.504	Yaw:	2.154	Thrust:	50.468
Time:	3.513	Roll Set Point:	-0.055	Pitch Set Point:	-0.071	Yaw Set Point:	-0.040	X_WP:	0.000	Y_WP:	0.000	Y_WP:	0.500	X:	0.027	Y:	0.036	Z:	0.308	yaw:	2.294	yaw rate:	-20.199	Roll:	0.824	Pitch:	0.426	Yaw:	-1.147	Thrust:	45.094
Time:	3.528	Roll Set Point:	-0.056	Pitch Set Point:	-0.070	Yaw Set Point:	-0.043	X_WP:	0.000	Y_WP:	0.000	Y_WP:	0.500	X:	0.027	Y:	0.036	Z:	0.314	yaw:	2.457	yaw rate:	16.362	Roll:	1.379	Pitch:	0.484	Yaw:	6.970	Thrust:	65.134
Time:	3.540	Roll Set Point:	-0.056	Pitch Set Point:	-0.070	Yaw Set Point:	-0.041	X_WP:	0.000	Y_WP:	0.000	Y_WP:	0.500	X:	0.027	Y:	0.035	Z:	0.319	yaw:	2.370	yaw rate:	-8.773	Roll:	1.089	Pitch:	0.915	Yaw:	2.035	Thrust:	59.280
Time:	3.552	Roll Set Point:	-0.057	Pitch Set Point:	-0.068	Yaw Set Point:	-0.038	X_WP:	0.000	Y_WP:	0.000	Y_WP:	0.500	X:	0.028	Y:	0.035	Z:	0.330	yaw:	2.152	yaw rate:	-21.802	Roll:	1.158	Pitch:	-0.149	Yaw:	-1.436	Thrust:	28.287
Time:	3.566	Roll Set Point:	-0.057	Pitch Set Point:	-0.066	Yaw Set Point:	-0.035	X_WP:	0.000	Y_WP:	0.000	Y_WP:	0.500	X:	0.028	Y:	0.034	Z:	0.340	yaw:	2.014	yaw rate:	-1.474	Roll:	1.048	Pitch:	0.058	Yaw:	0.862	Thrust:	48.404
Time:	3.578	Roll Set Point:	-0.058	Pitch Set Point:	-0.065	Yaw Set Point:	-0.037	X_WP:	0.000	Y_WP:	0.000	Y_WP:	0.500	X:	0.028	Y:	0.033	Z:	0.345	yaw:	2.130	yaw rate:	11.602	Roll:	1.439	Pitch:	0.299	Yaw:	5.953	Thrust:	56.270
Time:	3.592	Roll Set Point:	-0.057	Pitch Set Point:	-0.065	Yaw Set Point:	-0.025	X_WP:	0.000	Y_WP:	0.000	Y_WP:	0.500	X:	0.028	Y:	0.033	Z:	0.350	yaw:	1.429	yaw rate:	-70.115	Roll:	0.516	Pitch:	0.819	Yaw:	-12.013	Thrust:	56.818
Time:	3.611	Roll Set Point:	-0.058	Pitch Set Point:	-0.063	Yaw Set Point:	-0.031	X_WP:	0.000	Y_WP:	0.000	Y_WP:	0.500	X:	0.029	Y:	0.032	Z:	0.359	yaw:	1.764	yaw rate:	-3.718	Roll:	1.306	Pitch:	-0.041	Yaw:	7.717	Thrust:	90.553
Time:	3.629	Roll Set Point:	-0.058	Pitch Set Point:	-0.062	Yaw Set Point:	-0.026	X_WP:	0.000	Y_WP:	0.000	Y_WP:	0.500	X:	0.029	Y:	0.031	Z:	0.363	yaw:	1.514	yaw rate:	-25.016	Roll:	1.053	Pitch:	0.672	Yaw:	-0.893	Thrust:	86.830
Time:	3.642	Roll Set Point:	-0.059	Pitch Set Point:	-0.060	Yaw Set Point:	-0.029	X_WP:	0.000	Y_WP:	0.000	Y_WP:	0.500	X:	0.029	Y:	0.030	Z:	0.371	yaw:	1.642	yaw rate:	12.833	Roll:	1.391	Pitch:	-0.280	Yaw:	5.409	Thrust:	55.788
Time:	3.654	Roll Set Point:	-0.059	Pitch Set Point:	-0.058	Yaw Set Point:	-0.024	X_WP:	0.000	Y_WP:	0.000	Y_WP:	0.500	X:	0.029	Y:	0.030	Z:	0.375	yaw:	1.359	yaw rate:	-28.320	Roll:	0.854	Pitch:	0.064	Yaw:	-3.408	Thrust:	53.759
Time:	3.669	Roll Set Point:	-0.060	Pitch Set Point:	-0.056	Yaw Set Point:	-0.029	X_WP:	0.000	Y_WP:	0.000	Y_WP:	0.500	X:	0.030	Y:	0.028	Z:	0.382	yaw:	1.688	yaw rate:	12.031	Roll:	1.611	Pitch:	-0.526	Yaw:	8.995	Thrust:	67.332
Time:	3.680	Roll Set Point:	-0.060	Pitch Set Point:	-0.055	Yaw Set Point:	-0.022	X_WP:	0.000	Y_WP:	0.000	Y_WP:	0.500	X:	0.030	Y:	0.028	Z:	0.386	yaw:	1.276	yaw rate:	-41.189	Roll:	1.056	Pitch:	0.235	Yaw:	-7.012	Thrust:	53.795
Time:	3.698	Roll Set Point:	-0.060	Pitch Set Point:	-0.054	Yaw Set Point:	-0.017	X_WP:	0.000	Y_WP:	0.000	Y_WP:	0.500	X:	0.030	Y:	0.027	Z:	0.389	yaw:	0.955	yaw rate:	-32.188	Roll:	0.967	Pitch:	0.431	Yaw:	-2.732	Thrust:	88.707
Time:	3.710	Roll Set Point:	-0.061	Pitch Set Point:	-0.053	Yaw Set Point:	-0.012	X_WP:	0.000	Y_WP:	0.000	Y_WP:	0.500	X:	0.030	Y:	0.027	Z:	0.393	yaw:	0.698	yaw rate:	-25.688	Roll:	1.095	Pitch:	0.078	Yaw:	-4.011	Thrust:	53.757
Time:	3.729	Roll Set Point:	-0.062	Pitch Set Point:	-0.048	Yaw Set Point:	-0.021	X_WP:	0.000	Y_WP:	0.000	Y_WP:	0.500	X:	0.031	Y:	0.024	Z:	0.404	yaw:	1.211	yaw rate:	36.028	Roll:	1.695	Pitch:	-1.315	Yaw:	9.643	Thrust:	81.253
Time:	3.742	Roll Set Point:	-0.062	Pitch Set Point:	-0.047	Yaw Set Point:	-0.015	X_WP:	0.000	Y_WP:	0.000	Y_WP:	0.500	X:	0.031	Y:	0.024	Z:	0.408	yaw:	0.847	yaw rate:	-36.326	Roll:	1.110	Pitch:	0.334	Yaw:	-5.169	Thrust:	65.353
Time:	3.756	Roll Set Point:	-0.062	Pitch Set Point:	-0.046	Yaw Set Point:	-0.006	X_WP:	0.000	Y_WP:	0.000	Y_WP:	0.500	X:	0.031	Y:	0.023	Z:	0.412	yaw:	0.365	yaw rate:	-48.242	Roll:	0.897	Pitch:	0.063	Yaw:	-9.034	Thrust:	61.450
Time:	3.770	Roll Set Point:	-0.063	Pitch Set Point:	-0.043	Yaw Set Point:	-0.008	X_WP:	0.000	Y_WP:	0.000	Y_WP:	0.500	X:	0.031	Y:	0.022	Z:	0.419	yaw:	0.441	yaw rate:	-0.391	Roll:	1.419	Pitch:	-0.957	Yaw:	2.682	Thrust:	66.482
Time:	3.782	Roll Set Point:	-0.063	Pitch Set Point:	-0.042	Yaw Set Point:	-0.006	X_WP:	0.000	Y_WP:	0.000	Y_WP:	0.500	X:	0.032	Y:	0.021	Z:	0.423	yaw:	0.343	yaw rate:	-9.853	Roll:	1.274	Pitch:	-0.337	Yaw:	-1.178	Thrust:	51.894
Time:	3.797	Roll Set Point:	-0.064	Pitch Set Point:	-0.040	Yaw Set Point:	-0.005	X_WP:	0.000	Y_WP:	0.000	Y_WP:	0.500	X:	0.032	Y:	0.020	Z:	0.427	yaw:	0.311	yaw rate:	-3.153	Roll:	1.205	Pitch:	-0.162	Yaw:	0.656	Thrust:	68.347
Time:	3.809	Roll Set Point:	-0.064	Pitch Set Point:	-0.038	Yaw Set Point:	-0.006	X_WP:	0.000	Y_WP:	0.000	Y_WP:	0.500	X:	0.032	Y:	0.019	Z:	0.431	yaw:	0.357	yaw rate:	4.592	Roll:	1.295	Pitch:	-0.497	Yaw:	2.124	Thrust:	57.832
Time:	3.821	Roll Set Point:	-0.064	Pitch Set Point:	-0.037	Yaw Set Point:	-0.002	X_WP:	0.000	Y_WP:	0.000	Y_WP:	0.500	X:	0.032	Y:	0.019	Z:	0.435	yaw:	0.108	yaw rate:	-24.964	Roll:	1.288	Pitch:	-0.288	Yaw:	-4.680	Thrust:	54.269
Time:	3.835	Roll Set Point:	-0.066	Pitch Set Point:	-0.034	Yaw Set Point:	-0.001	X_WP:	0.000	Y_WP:	0.000	Y_WP:	0.500	X:	0.033	Y:	0.017	Z:	0.443	yaw:	0.068	yaw rate:	-3.982	Roll:	1.681	Pitch:	-1.205	Yaw:	0.115	Thrust:	57.889
Time:	3.846	Roll Set Point:	-0.066	Pitch Set Point:	-0.032	Yaw Set Point:	-0.009	X_WP:	0.000	Y_WP:	0.000	Y_WP:	0.500	X:	0.033	Y:	0.016	Z:	0.447	yaw:	0.541	yaw rate:	47.345	Roll:	1.590	Pitch:	-1.011	Yaw:	12.555	Thrust:	42.576
Time:	3.864	Roll Set Point:	-0.067	Pitch Set Point:	-0.030	Yaw Set Point:	-0.011	X_WP:	0.000	Y_WP:	0.000	Y_WP:	0.500	X:	0.033	Y:	0.015	Z:	0.451	yaw:	0.645	yaw rate:	10.350	Roll:	1.371	Pitch:	-0.428	Yaw:	3.383	Thrust:	84.986
Time:	3.876	Roll Set Point:	-0.067	Pitch Set Point:	-0.027	Yaw Set Point:	-0.003	X_WP:	0.000	Y_WP:	0.000	Y_WP:	0.500	X:	0.034	Y:	0.014	Z:	0.459	yaw:	0.168	yaw rate:	-6.408	Roll:	1.474	Pitch:	-1.271	Yaw:	-8.635	Thrust:	45.767
Time:	3.897	Roll Set Point:	-0.068	Pitch Set Point:	-0.025	Yaw Set Point:	-0.002	X_WP:	0.000	Y_WP:	0.000	Y_WP:	0.500	X:	0.034	Y:	0.013	Z:	0.463	yaw:	0.115	yaw rate:	-5.376	Roll:	1.222	Pitch:	-0.424	Yaw:	0.345	Thrust:	87.063
Time:	3.909	Roll Set Point:	-0.069	Pitch Set Point:	-0.023	Yaw Set Point:	0.006	X_WP:	0.000	Y_WP:	0.000	Y_WP:	0.500	X:	0.034	Y:	0.011	Z:	0.471	yaw:	-0.342	yaw rate:	-28.679	Roll:	1.708	Pitch:	-0.858	Yaw:	-7.572	Thrust:	68.389
Time:	3.933	Roll Set Point:	-0.070	Pitch Set Point:	-0.021	Yaw Set Point:	-0.000	X_WP:	0.000	Y_WP:	0.000	Y_WP:	0.500	X:	0.035	Y:	0.010	Z:	0.475	yaw:	0.020	yaw rate:	36.176	Roll:	1.559	Pitch:	-0.253	Yaw:	5.288	Thrust:	100.000
Time:	3.944	Roll Set Point:	-0.071	Pitch Set Point:	-0.016	Yaw Set Point:	-0.000	X_WP:	0.000	Y_WP:	0.000	Y_WP:	0.500	X:	0.036	Y:	0.008	Z:	0.486	yaw:	0.009	yaw rate:	47.360	Roll:	2.030	Pitch:	-3.473	Yaw:	0.338	Thrust:	18.890
Time:	3.964	Roll Set Point:	-0.071	Pitch Set Point:	-0.014	Yaw Set Point:	0.008	X_WP:	0.000	Y_WP:	0.000	Y_WP:	0.500	X:	0.036	Y:	0.007	Z:	0.490	yaw:	-0.457	yaw rate:	-46.584	Roll:	1.352	Pitch:	-0.262	Yaw:	-5.933	Thrust:	90.004
Time:	3.976	Roll Set Point:	-0.073	Pitch Set Point:	-0.011	Yaw Set Point:	0.007	X_WP:	0.000	Y_WP:	0.000	Y_WP:	0.500	X:	0.036	Y:	0.005	Z:	0.497	yaw:	-0.426	yaw rate:	-15.340	Roll:	1.773	Pitch:	-1.425	Yaw:	0.689	Thrust:	58.973
Time:	3.996	Roll Set Point:	-0.073	Pitch Set Point:	-0.009	Yaw Set Point:	0.004	X_WP:	0.000	Y_WP:	0.000	Y_WP:	0.500	X:	0.037	Y:	0.004	Z:	0.500	yaw:	-0.252	yaw rate:	17.470	Roll:	1.533	Pitch:	-0.601	Yaw:	3.066	Thrust:	93.183
Time:	4.008	Roll Set Point:	-0.075	Pitch Set Point:	-0.004	Yaw Set Point:	0.003	X_WP:	0.000	Y_WP:	0.000	Y_WP:	0.500	X:	0.037	Y:	0.002	Z:	0.509	yaw:	-0.146	yaw rate:	-19.608	Roll:	2.281	Pitch:	-3.121	Yaw:	2.572	Thrust:	39.584
Time:	4.021	Roll Set Point:	-0.076	Pitch Set Point:	-0.003	Yaw Set Point:	-0.002	X_WP:	0.000	Y_WP:	0.000	Y_WP:	0.500	X:	0.038	Y:	0.001	Z:	0.512	yaw:	0.114	yaw rate:	26.013	Roll:	2.002	Pitch:	-0.844	Yaw:	6.065	Thrust:	61.167
Time:	4.033	Roll Set Point:	-0.076	Pitch Set Point:	-0.001	Yaw Set Point:	0.006	X_WP:	0.000	Y_WP:	0.000	Y_WP:	0.500	X:	0.038	Y:	0.001	Z:	0.514	yaw:	-0.331	yaw rate:	-44.508	Roll:	1.363	Pitch:	-0.773	Yaw:	-9.537	Thrust:	51.995
Time:	4.044	Roll Set Point:	-0.077	Pitch Set Point:	0.001	Yaw Set Point:	-0.005	X_WP:	0.000	Y_WP:	0.000	Y_WP:	0.500	X:	0.039	Y:	-0.000	Z:	0.517	yaw:	0.278	yaw rate:	60.940	Roll:	1.875	Pitch:	-1.640	Yaw:	15.412	Thrust:	51.873
Time:	4.065	Roll Set Point:	-0.079	Pitch Set Point:	0.003	Yaw Set Point:	-0.003	X_WP:	0.000	Y_WP:	0.000	Y_WP:	0.500	X:	0.039	Y:	-0.002	Z:	0.522	yaw:	0.167	yaw rate:	52.133	Roll:	2.029	Pitch:	-1.233	Yaw:	-0.136	Thrust:	95.607
Time:	4.077	Roll Set Point:	-0.079	Pitch Set Point:	0.005	Yaw Set Point:	-0.004	X_WP:	0.000	Y_WP:	0.000	Y_WP:	0.500	X:	0.039	Y:	-0.003	Z:	0.524	yaw:	0.222	yaw rate:	5.539	Roll:	1.313	Pitch:	-0.971	Yaw:	2.097	Thrust:	66.590
Time:	4.092	Roll Set Point:	-0.080	Pitch Set Point:	0.006	Yaw Set Point:	0.002	X_WP:	0.000	Y_WP:	0.000	Y_WP:	0.500	X:	0.040	Y:	-0.003	Z:	0.526	yaw:	-0.099	yaw rate:	-32.146	Roll:	1.895	Pitch:	-0.299	Yaw:	-5.347	Thrust:	69.495
Time:	4.104	Roll Set Point:	-0.081	Pitch Set Point:	0.009	Yaw Set Point:	0.004	X_WP:	0.000	Y_WP:	0.000	Y_WP:	0.500	X:	0.040	Y:	-0.004	Z:	0.530	yaw:	-0.246	yaw rate:	-33.712	Roll:	2.101	Pitch:	-1.729	Yaw:	-2.571	Thrust:	58.260
Time:	4.115	Roll Set Point:	-0.081	Pitch Set Point:	0.010	Yaw Set Point:	0.010	X_WP:	0.000	Y_WP:	0.000	Y_WP:	0.500	X:	0.041	Y:	-0.005	Z:	0.531	yaw:	-0.568	yaw rate:	-32.183	Roll:	1.720	Pitch:	-0.652	Yaw:	-7.872	Thrust:	51.202
Time:	4.129	Roll Set Point:	-0.083	Pitch Set Point:	0.012	Yaw Set Point:	0.009	X_WP:	0.000	Y_WP:	0.000	Y_WP:	0.500	X:	0.041	Y:	-0.006	Z:	0.535	yaw:	-0.517	yaw rate:	5.128	Roll:	2.366	Pitch:	-1.881	Yaw:	0.955	Thrust:	58.199
Time:	4.140	Roll Set Point:	-0.083	Pitch Set Point:	0.014	Yaw Set Point:	0.010	X_WP:	0.000	Y_WP:	0.000	Y_WP:	0.500	X:	0.042	Y:	-0.007	Z:	0.536	yaw:	-0.582	yaw rate:	-6.468	Roll:	1.723	Pitch:	-0.912	Yaw:	-1.749	Thrust:	53.557
Time:	4.151	Roll Set Point:	-0.084	Pitch Set Point:	0.015	Yaw Set Point:	0.012	X_WP:	0.000	Y_WP:	0.000	Y_WP:	0.500	X:	0.042	Y:	-0.008	Z:	0.538	yaw:	-0.714	yaw rate:	-13.282	Roll:	1.883	Pitch:	-1.007	Yaw:	-3.572	Thrust:	48.184
Time:	4.165	Roll Set Point:	-0.085	Pitch Set Point:	0.016	Yaw Set Point:	0.010	X_WP:	0.000	Y_WP:	0.000	Y_WP:	0.500	X:	0.042	Y:	-0.008	Z:	0.540	yaw:	-0.571	yaw rate:	14.303	Roll:	1.732	Pitch:	-0.944	Yaw:	2.726	Thrust:	69.139
Time:	4.176	Roll Set Point:	-0.085	Pitch Set Point:	0.017	Yaw Set Point:	0.011	X_WP:	0.000	Y_WP:	0.000	Y_WP:	0.500	X:	0.043	Y:	-0.009	Z:	0.541	yaw:	-0.635	yaw rate:	-6.337	Roll:	1.950	Pitch:	-0.994	Yaw:	-1.750	Thrust:	53.252
Time:	4.192	Roll Set Point:	-0.086	Pitch Set Point:	0.018	Yaw Set Point:	0.011	X_WP:	0.000	Y_WP:	0.000	Y_WP:	0.500	X:	0.043	Y:	-0.009	Z:	0.543	yaw:	-0.608	yaw rate:	2.621	Roll:	1.748	Pitch:	-0.851	Yaw:	0.354	Thrust:	74.702
Time:	4.205	Roll Set Point:	-0.087	Pitch Set Point:	0.020	Yaw Set Point:	0.009	X_WP:	0.000	Y_WP:	0.000	Y_WP:	0.500	X:	0.044	Y:	-0.010	Z:	0.547	yaw:	-0.490	yaw rate:	-3.425	Roll:	2.196	Pitch:	-1.457	Yaw:	2.286	Thrust:	57.790
Time:	4.216	Roll Set Point:	-0.088	Pitch Set Point:	0.022	Yaw Set Point:	0.002	X_WP:	0.000	Y_WP:	0.000	Y_WP:	0.500	X:	0.044	Y:	-0.011	Z:	0.549	yaw:	-0.138	yaw rate:	35.173	Roll:	1.983	Pitch:	-1.511	Yaw:	8.696	Thrust:	50.221
Time:	4.229	Roll Set Point:	-0.088	Pitch Set Point:	0.023	Yaw Set Point:	-0.001	X_WP:	0.000	Y_WP:	0.000	Y_WP:	0.500	X:	0.044	Y:	-0.012	Z:	0.551	yaw:	0.074	yaw rate:	21.154	Roll:	1.515	Pitch:	-1.150	Yaw:	4.987	Thrust:	61.547
Time:	4.241	Roll Set Point:	-0.089	Pitch Set Point:	0.024	Yaw Set Point:	0.010	X_WP:	0.000	Y_WP:	0.000	Y_WP:	0.500	X:	0.045	Y:	-0.012	Z:	0.553	yaw:	-0.589	yaw rate:	-66.243	Roll:	2.120	Pitch:	-0.273	Yaw:	-14.051	Thrust:	57.951
Time:	4.258	Roll Set Point:	-0.091	Pitch Set Point:	0.027	Yaw Set Point:	0.008	X_WP:	0.000	Y_WP:	0.000	Y_WP:	0.500	X:	0.045	Y:	-0.014	Z:	0.558	yaw:	-0.468	yaw rate:	13.637	Roll:	2.612	Pitch:	-2.187	Yaw:	2.031	Thrust:	68.964
Time:	4.274	Roll Set Point:	-0.092	Pitch Set Point:	0.027	Yaw Set Point:	0.012	X_WP:	0.000	Y_WP:	0.000	Y_WP:	0.500	X:	0.046	Y:	-0.014	Z:	0.560	yaw:	-0.671	yaw rate:	-20.330	Roll:	1.823	Pitch:	-0.510	Yaw:	-3.775	Thrust:	77.651
Time:	4.285	Roll Set Point:	-0.093	Pitch Set Point:	0.029	Yaw Set Point:	0.004	X_WP:	0.000	Y_WP:	0.000	Y_WP:	0.500	X:	0.047	Y:	-0.015	Z:	0.563	yaw:	-0.242	yaw rate:	45.889	Roll:	2.468	Pitch:	-2.003	Yaw:	9.691	Thrust:	47.376
Time:	4.301	Roll Set Point:	-0.093	Pitch Set Point:	0.030	Yaw Set Point:	0.012	X_WP:	0.000	Y_WP:	0.000	Y_WP:	0.500	X:	0.047	Y:	-0.015	Z:	0.565	yaw:	-0.708	yaw rate:	-46.592	Roll:	1.695	Pitch:	-0.504	Yaw:	-7.779	Thrust:	78.258
Time:	4.313	Roll Set Point:	-0.094	Pitch Set Point:	0.032	Yaw Set Point:	0.006	X_WP:	0.000	Y_WP:	0.000	Y_WP:	0.500	X:	0.047	Y:	-0.016	Z:	0.567	yaw:	-0.342	yaw rate:	36.637	Roll:	1.599	Pitch:	-1.568	Yaw:	8.397	Thrust:	51.579
Time:	4.324	Roll Set Point:	-0.094	Pitch Set Point:	0.032	Yaw Set Point:	0.011	X_WP:	0.000	Y_WP:	0.000	Y_WP:	0.500	X:	0.047	Y:	-0.016	Z:	0.569	yaw:	-0.651	yaw rate:	-30.955	Roll:	2.153	Pitch:	-0.376	Yaw:	-7.660	Thrust:	49.015
Time:	4.337	Roll Set Point:	-0.095	Pitch Set Point:	0.033	Yaw Set Point:	0.003	X_WP:	0.000	Y_WP:	0.000	Y_WP:	0.500	X:	0.047	Y:	-0.017	Z:	0.571	yaw:	-0.181	yaw rate:	47.027	Roll:	1.570	Pitch:	-1.645	Yaw:	9.796	Thrust:	59.664
Time:	4.348	Roll Set Point:	-0.095	Pitch Set Point:	0.034	Yaw Set Point:	0.005	X_WP:	0.000	Y_WP:	0.000	Y_WP:	0.500	X:	0.048	Y:	-0.017	Z:	0.573	yaw:	-0.263	yaw rate:	-8.158	Roll:	2.115	Pitch:	-0.592	Yaw:	-1.776	Thrust:	44.118
Time:	4.364	Roll Set Point:	-0.096	Pitch Set Point:	0.035	Yaw Set Point:	-0.003	X_WP:	0.000	Y_WP:	0.000	Y_WP:	0.500	X:	0.048	Y:	-0.017	Z:	0.575	yaw:	0.146	yaw rate:	40.900	Roll:	1.829	Pitch:	-1.221	Yaw:	7.635	Thrust:	76.321
Time:	4.375	Roll Set Point:	-0.096	Pitch Set Point:	0.037	Yaw Set Point:	-0.018	X_WP:	0.000	Y_WP:	0.000	Y_WP:	0.500	X:	0.048	Y:	-0.018	Z:	0.579	yaw:	1.009	yaw rate:	91.184	Roll:	1.752	Pitch:	-2.620	Yaw:	23.335	Thrust:	35.409
Time:	4.393	Roll Set Point:	-0.097	Pitch Set Point:	0.037	Yaw Set Point:	-0.010	X_WP:	0.000	Y_WP:	0.000	Y_WP:	0.500	X:	0.048	Y:	-0.018	Z:	0.582	yaw:	0.555	yaw rate:	-45.323	Roll:	1.884	Pitch:	-0.435	Yaw:	-5.581	Thrust:	76.928
Time:	4.405	Roll Set Point:	-0.098	Pitch Set Point:	0.039	Yaw Set Point:	-0.015	X_WP:	0.000	Y_WP:	0.000	Y_WP:	0.500	X:	0.049	Y:	-0.019	Z:	0.591	yaw:	0.872	yaw rate:	-26.125	Roll:	2.419	Pitch:	-1.621	Yaw:	7.844	Thrust:	40.286
Time:	4.416	Roll Set Point:	-0.099	Pitch Set Point:	0.039	Yaw Set Point:	-0.009	X_WP:	0.000	Y_WP:	0.000	Y_WP:	0.500	X:	0.050	Y:	-0.019	Z:	0.594	yaw:	0.533	yaw rate:	-33.819	Roll:	2.316	Pitch:	-0.327	Yaw:	-6.746	Thrust:	40.568
Time:	4.430	Roll Set Point:	-0.100	Pitch Set Point:	0.040	Yaw Set Point:	-0.022	X_WP:	0.000	Y_WP:	0.000	Y_WP:	0.500	X:	0.050	Y:	-0.019	Z:	0.597	yaw:	1.273	yaw rate:	73.993	Roll:	1.642	Pitch:	-1.531	Yaw:	16.606	Thrust:	56.162
Time:	4.442	Roll Set Point:	-0.100	Pitch Set Point:	0.040	Yaw Set Point:	-0.025	X_WP:	0.000	Y_WP:	0.000	Y_WP:	0.500	X:	0.050	Y:	-0.020	Z:	0.600	yaw:	1.415	yaw rate:	14.142	Roll:	1.968	Pitch:	-0.766	Yaw:	5.547	Thrust:	48.513
Time:	4.459	Roll Set Point:	-0.101	Pitch Set Point:	0.040	Yaw Set Point:	-0.021	X_WP:	0.000	Y_WP:	0.000	Y_WP:	0.500	X:	0.051	Y:	-0.020	Z:	0.604	yaw:	1.190	yaw rate:	-22.495	Roll:	1.996	Pitch:	-0.398	Yaw:	-1.342	Thrust:	61.240
Time:	4.472	Roll Set Point:	-0.103	Pitch Set Point:	0.040	Yaw Set Point:	-0.012	X_WP:	0.000	Y_WP:	0.000	Y_WP:	0.500	X:	0.051	Y:	-0.020	Z:	0.610	yaw:	0.693	yaw rate:	-49.398	Roll:	2.766	Pitch:	-0.076	Yaw:	-7.845	Thrust:	51.191
Time:	4.483	Roll Set Point:	-0.103	Pitch Set Point:	0.040	Yaw Set Point:	-0.018	X_WP:	0.000	Y_WP:	0.000	Y_WP:	0.500	X:	0.052	Y:	-0.020	Z:	0.614	yaw:	1.050	yaw rate:	35.794	Roll:	1.990	Pitch:	-1.219	Yaw:	10.526	Thrust:	38.215
Time:	4.500	Roll Set Point:	-0.104	Pitch Set Point:	0.040	Yaw Set Point:	-0.011	X_WP:	0.000	Y_WP:	0.000	Y_WP:	0.500	X:	0.052	Y:	-0.020	Z:	0.617	yaw:	0.607	yaw rate:	-44.385	Roll:	2.201	Pitch:	-0.124	Yaw:	-4.987	Thrust:	76.025
Time:	4.512	Roll Set Point:	-0.105	Pitch Set Point:	0.040	Yaw Set Point:	-0.014	X_WP:	0.000	Y_WP:	0.000	Y_WP:	0.500	X:	0.053	Y:	-0.020	Z:	0.620	yaw:	0.805	yaw rate:	19.877	Roll:	2.455	Pitch:	-0.636	Yaw:	6.216	Thrust:	42.160
Time:	4.528	Roll Set Point:	-0.107	Pitch Set Point:	0.041	Yaw Set Point:	-0.013	X_WP:	0.000	Y_WP:	0.000	Y_WP:	0.500	X:	0.053	Y:	-0.020	Z:	0.628	yaw:	0.724	yaw rate:	28.554	Roll:	2.681	Pitch:	-0.689	Yaw:	0.460	Thrust:	49.599
Time:	4.539	Roll Set Point:	-0.107	Pitch Set Point:	0.040	Yaw Set Point:	-0.010	X_WP:	0.000	Y_WP:	0.000	Y_WP:	0.500	X:	0.054	Y:	-0.020	Z:	0.631	yaw:	0.575	yaw rate:	-14.915	Roll:	2.182	Pitch:	-0.167	Yaw:	-1.772	Thrust:	46.313
Time:	4.553	Roll Set Point:	-0.108	Pitch Set Point:	0.040	Yaw Set Point:	-0.009	X_WP:	0.000	Y_WP:	0.000	Y_WP:	0.500	X:	0.054	Y:	-0.020	Z:	0.633	yaw:	0.522	yaw rate:	-5.333	Roll:	2.322	Pitch:	-0.325	Yaw:	0.248	Thrust:	48.194
Time:	4.565	Roll Set Point:	-0.109	Pitch Set Point:	0.040	Yaw Set Point:	-0.010	X_WP:	0.000	Y_WP:	0.000	Y_WP:	0.500	X:	0.054	Y:	-0.020	Z:	0.636	yaw:	0.580	yaw rate:	5.800	Roll:	2.068	Pitch:	-0.495	Yaw:	2.635	Thrust:	54.450
Time:	4.577	Roll Set Point:	-0.109	Pitch Set Point:	0.040	Yaw Set Point:	-0.013	X_WP:	0.000	Y_WP:	0.000	Y_WP:	0.500	X:	0.055	Y:	-0.020	Z:	0.638	yaw:	0.761	yaw rate:	18.066	Roll:	2.247	Pitch:	-0.628	Yaw:	5.764	Thrust:	40.309
Time:	4.593	Roll Set Point:	-0.110	Pitch Set Point:	0.039	Yaw Set Point:	-0.007	X_WP:	0.000	Y_WP:	0.000	Y_WP:	0.500	X:	0.055	Y:	-0.019	Z:	0.640	yaw:	0.421	yaw rate:	-33.949	Roll:	2.467	Pitch:	0.003	Yaw:	-3.911	Thrust:	75.225
Time:	4.605	Roll Set Point:	-0.111	Pitch Set Point:	0.039	Yaw Set Point:	-0.010	X_WP:	0.000	Y_WP:	0.000	Y_WP:	0.500	X:	0.056	Y:	-0.019	Z:	0.643	yaw:	0.591	yaw rate:	-6.712	Roll:	2.413	Pitch:	-0.681	Yaw:	5.187	Thrust:	40.271
Time:	4.620	Roll Set Point:	-0.112	Pitch Set Point:	0.039	Yaw Set Point:	-0.002	X_WP:	0.000	Y_WP:	0.000	Y_WP:	0.500	X:	0.056	Y:	-0.019	Z:	0.644	yaw:	0.121	yaw rate:	-46.991	Roll:	2.235	Pitch:	0.129	Yaw:	-7.846	Thrust:	59.570
Time:	4.632	Roll Set Point:	-0.113	Pitch Set Point:	0.038	Yaw Set Point:	0.011	X_WP:	0.000	Y_WP:	0.000	Y_WP:	0.500	X:	0.057	Y:	-0.019	Z:	0.646	yaw:	-0.616	yaw rate:	-73.741	Roll:	2.859	Pitch:	0.583	Yaw:	-15.602	Thrust:	48.153
Time:	4.643	Roll Set Point:	-0.113	Pitch Set Point:	0.038	Yaw Set Point:	0.004	X_WP:	0.000	Y_WP:	0.000	Y_WP:	0.500	X:	0.057	Y:	-0.019	Z:	0.647	yaw:	-0.214	yaw rate:	40.206	Roll:	1.805	Pitch:	-1.145	Yaw:	9.824	Thrust:	44.636
Time:	4.660	Roll Set Point:	-0.115	Pitch Set Point:	0.037	Yaw Set Point:	0.018	X_WP:	0.000	Y_WP:	0.000	Y_WP:	0.500	X:	0.057	Y:	-0.019	Z:	0.648	yaw:	-1.019	yaw rate:	-14.623	Roll:	2.960	Pitch:	0.925	Yaw:	-13.248	Thrust:	62.278
Time:	4.671	Roll Set Point:	-0.115	Pitch Set Point:	0.037	Yaw Set Point:	0.020	X_WP:	0.000	Y_WP:	0.000	Y_WP:	0.500	X:	0.058	Y:	-0.019	Z:	0.648	yaw:	-1.156	yaw rate:	-13.715	Roll:	2.305	Pitch:	-0.174	Yaw:	-4.060	Thrust:	61.211
Time:	4.683	Roll Set Point:	-0.116	Pitch Set Point:	0.036	Yaw Set Point:	0.023	X_WP:	0.000	Y_WP:	0.000	Y_WP:	0.500	X:	0.058	Y:	-0.019	Z:	0.648	yaw:	-1.303	yaw rate:	-14.688	Roll:	2.148	Pitch:	-0.111	Yaw:	-4.556	Thrust:	49.605
Time:	4.696	Roll Set Point:	-0.116	Pitch Set Point:	0.036	Yaw Set Point:	0.024	X_WP:	0.000	Y_WP:	0.000	Y_WP:	0.500	X:	0.058	Y:	-0.019	Z:	0.647	yaw:	-1.395	yaw rate:	-9.253	Roll:	2.118	Pitch:	-0.287	Yaw:	-3.052	Thrust:	60.448
Time:	4.707	Roll Set Point:	-0.117	Pitch Set Point:	0.036	Yaw Set Point:	0.020	X_WP:	0.000	Y_WP:	0.000	Y_WP:	0.500	X:	0.058	Y:	-0.019	Z:	0.647	yaw:	-1.165	yaw rate:	23.057	Roll:	2.240	Pitch:	-0.642	Yaw:	4.637	Thrust:	46.905
Time:	4.719	Roll Set Point:	-0.117	Pitch Set Point:	0.036	Yaw Set Point:	0.028	X_WP:	0.000	Y_WP:	0.000	Y_WP:	0.500	X:	0.058	Y:	-0.019	Z:	0.645	yaw:	-1.628	yaw rate:	-28.031	Roll:	2.512	Pitch:	0.393	Yaw:	-11.651	Thrust:	55.635
Time:	4.732	Roll Set Point:	-0.118	Pitch Set Point:	0.036	Yaw Set Point:	0.021	X_WP:	0.000	Y_WP:	0.000	Y_WP:	0.500	X:	0.059	Y:	-0.019	Z:	0.644	yaw:	-1.185	yaw rate:	44.316	Roll:	2.184	Pitch:	-0.961	Yaw:	8.225	Thrust:	59.836
Time:	4.743	Roll Set Point:	-0.118	Pitch Set Point:	0.036	Yaw Set Point:	0.030	X_WP:	0.000	Y_WP:	0.000	Y_WP:	0.500	X:	0.059	Y:	-0.019	Z:	0.643	yaw:	-1.741	yaw rate:	-55.555	Roll:	2.058	Pitch:	0.395	Yaw:	-15.072	Thrust:	50.688
Time:	4.756	Roll Set Point:	-0.118	Pitch Set Point:	0.037	Yaw Set Point:	0.009	X_WP:	0.000	Y_WP:	0.000	Y_WP:	0.500	X:	0.059	Y:	-0.019	Z:	0.642	yaw:	-0.516	yaw rate:	122.525	Roll:	1.741	Pitch:	-2.220	Yaw:	23.969	Thrust:	61.503
Time:	4.769	Roll Set Point:	-0.119	Pitch Set Point:	0.035	Yaw Set Point:	0.033	X_WP:	0.000	Y_WP:	0.000	Y_WP:	0.500	X:	0.059	Y:	-0.019	Z:	0.641	yaw:	-1.917	yaw rate:	-140.169	Roll:	2.492	Pitch:	1.425	Yaw:	-31.358	Thrust:	57.989
Time:	4.780	Roll Set Point:	-0.119	Pitch Set Point:	0.036	Yaw Set Point:	0.032	X_WP:	0.000	Y_WP:	0.000	Y_WP:	0.500	X:	0.059	Y:	-0.019	Z:	0.638	yaw:	-1.852	yaw rate:	6.514	Roll:	2.148	Pitch:	-0.682	Yaw:	-0.512	Thrust:	57.535
Time:	4.797	Roll Set Point:	-0.119	Pitch Set Point:	0.036	Yaw Set Point:	0.023	X_WP:	0.000	Y_WP:	0.000	Y_WP:	0.500	X:	0.059	Y:	-0.019	Z:	0.636	yaw:	-1.334	yaw rate:	51.863	Roll:	2.090	Pitch:	-0.898	Yaw:	6.844	Thrust:	79.949
Time:	4.808	Roll Set Point:	-0.119	Pitch Set Point:	0.036	Yaw Set Point:	0.031	X_WP:	0.000	Y_WP:	0.000	Y_WP:	0.500	X:	0.059	Y:	-0.019	Z:	0.633	yaw:	-1.752	yaw rate:	20.640	Roll:	2.054	Pitch:	-0.131	Yaw:	-11.860	Thrust:	59.929
Time:	4.820	Roll Set Point:	-0.120	Pitch Set Point:	0.036	Yaw Set Point:	0.023	X_WP:	0.000	Y_WP:	0.000	Y_WP:	0.500	X:	0.060	Y:	-0.019	Z:	0.631	yaw:	-1.305	yaw rate:	44.691	Roll:	2.186	Pitch:	-0.969	Yaw:	8.349	Thrust:	57.771
Time:	4.832	Roll Set Point:	-0.119	Pitch Set Point:	0.036	Yaw Set Point:	0.034	X_WP:	0.000	Y_WP:	0.000	Y_WP:	0.500	X:	0.059	Y:	-0.019	Z:	0.629	yaw:	-1.976	yaw rate:	-67.110	Roll:	1.872	Pitch:	0.302	Yaw:	-16.814	Thrust:	57.272
Time:	4.843	Roll Set Point:	-0.119	Pitch Set Point:	0.036	Yaw Set Point:	0.036	X_WP:	0.000	Y_WP:	0.000	Y_WP:	0.500	X:	0.059	Y:	-0.019	Z:	0.628	yaw:	-2.079	yaw rate:	-10.294	Roll:	2.067	Pitch:	-0.446	Yaw:	-4.817	Thrust:	53.756
Time:	4.860	Roll Set Point:	-0.120	Pitch Set Point:	0.037	Yaw Set Point:	0.033	X_WP:	0.000	Y_WP:	0.000	Y_WP:	0.500	X:	0.060	Y:	-0.019	Z:	0.626	yaw:	-1.911	yaw rate:	16.815	Roll:	2.058	Pitch:	-0.785	Yaw:	0.824	Thrust:	69.686
Time:	4.872	Roll Set Point:	-0.120	Pitch Set Point:	0.037	Yaw Set Point:	0.032	X_WP:	0.000	Y_WP:	0.000	Y_WP:	0.500	X:	0.059	Y:	-0.020	Z:	0.622	yaw:	-1.855	yaw rate:	-46.028	Roll:	1.929	Pitch:	-0.777	Yaw:	-0.896	Thrust:	72.664
Time:	4.885	Roll Set Point:	-0.119	Pitch Set Point:	0.037	Yaw Set Point:	0.034	X_WP:	0.000	Y_WP:	0.000	Y_WP:	0.500	X:	0.059	Y:	-0.020	Z:	0.620	yaw:	-1.935	yaw rate:	-7.996	Roll:	1.630	Pitch:	-0.578	Yaw:	-3.794	Thrust:	60.015
Time:	4.902	Roll Set Point:	-0.119	Pitch Set Point:	0.038	Yaw Set Point:	0.034	X_WP:	0.000	Y_WP:	0.000	Y_WP:	0.500	X:	0.059	Y:	-0.020	Z:	0.616	yaw:	-1.972	yaw rate:	-3.713	Roll:	1.938	Pitch:	-0.710	Yaw:	-2.570	Thrust:	83.804
Time:	4.913	Roll Set Point:	-0.119	Pitch Set Point:	0.039	Yaw Set Point:	0.033	X_WP:	0.000	Y_WP:	0.000	Y_WP:	0.500	X:	0.059	Y:	-0.020	Z:	0.615	yaw:	-1.908	yaw rate:	6.392	Roll:	1.840	Pitch:	-0.905	Yaw:	-0.687	Thrust:	55.160
Time:	4.925	Roll Set Point:	-0.119	Pitch Set Point:	0.039	Yaw Set Point:	0.036	X_WP:	0.000	Y_WP:	0.000	Y_WP:	0.500	X:	0.059	Y:	-0.020	Z:	0.613	yaw:	-2.039	yaw rate:	-13.091	Roll:	2.067	Pitch:	-0.550	Yaw:	-5.341	Thrust:	52.237
Time:	4.939	Roll Set Point:	-0.118	Pitch Set Point:	0.039	Yaw Set Point:	0.038	X_WP:	0.000	Y_WP:	0.000	Y_WP:	0.500	X:	0.059	Y:	-0.021	Z:	0.610	yaw:	-2.189	yaw rate:	-6.489	Roll:	1.720	Pitch:	-0.683	Yaw:	-5.367	Thrust:	71.052
Time:	4.949	Roll Set Point:	-0.118	Pitch Set Point:	0.039	Yaw Set Point:	0.038	X_WP:	0.000	Y_WP:	0.000	Y_WP:	0.500	X:	0.059	Y:	-0.021	Z:	0.608	yaw:	-2.172	yaw rate:	1.777	Roll:	1.858	Pitch:	-0.518	Yaw:	-2.174	Thrust:	47.450
Time:	4.964	Roll Set Point:	-0.118	Pitch Set Point:	0.041	Yaw Set Point:	0.023	X_WP:	0.000	Y_WP:	0.000	Y_WP:	0.500	X:	0.059	Y:	-0.021	Z:	0.607	yaw:	-1.308	yaw rate:	86.395	Roll:	1.681	Pitch:	-2.037	Yaw:	13.628	Thrust:	71.860
Time:	4.976	Roll Set Point:	-0.118	Pitch Set Point:	0.040	Yaw Set Point:	0.035	X_WP:	0.000	Y_WP:	0.000	Y_WP:	0.500	X:	0.058	Y:	-0.021	Z:	0.606	yaw:	-2.023	yaw rate:	-71.543	Roll:	1.823	Pitch:	0.504	Yaw:	-19.365	Thrust:	49.750
Time:	4.994	Roll Set Point:	-0.117	Pitch Set Point:	0.041	Yaw Set Point:	0.032	X_WP:	0.000	Y_WP:	0.000	Y_WP:	0.500	X:	0.058	Y:	-0.022	Z:	0.604	yaw:	-1.844	yaw rate:	17.864	Roll:	1.537	Pitch:	-1.079	Yaw:	0.774	Thrust:	65.639
Time:	5.007	Roll Set Point:	-0.116	Pitch Set Point:	0.043	Yaw Set Point:	0.022	X_WP:	0.000	Y_WP:	0.000	Y_WP:	0.500	X:	0.058	Y:	-0.022	Z:	0.602	yaw:	-1.273	yaw rate:	65.172	Roll:	1.678	Pitch:	-1.662	Yaw:	9.169	Thrust:	78.735
Time:	5.019	Roll Set Point:	-0.116	Pitch Set Point:	0.044	Yaw Set Point:	0.019	X_WP:	0.000	Y_WP:	0.000	Y_WP:	0.500	X:	0.058	Y:	-0.022	Z:	0.601	yaw:	-1.095	yaw rate:	17.806	Roll:	1.720	Pitch:	-1.208	Yaw:	3.096	Thrust:	50.066
Time:	5.031	Roll Set Point:	-0.116	Pitch Set Point:	0.044	Yaw Set Point:	0.021	X_WP:	0.000	Y_WP:	0.000	Y_WP:	0.500	X:	0.058	Y:	-0.023	Z:	0.600	yaw:	-1.188	yaw rate:	-9.266	Roll:	1.892	Pitch:	-0.609	Yaw:	-3.142	Thrust:	54.126
Time:	5.042	Roll Set Point:	-0.116	Pitch Set Point:	0.044	Yaw Set Point:	0.023	X_WP:	0.000	Y_WP:	0.000	Y_WP:	0.500	X:	0.058	Y:	-0.023	Z:	0.600	yaw:	-1.342	yaw rate:	-15.377	Roll:	1.610	Pitch:	-0.387	Yaw:	-5.130	Thrust:	44.837
Time:	5.058	Roll Set Point:	-0.115	Pitch Set Point:	0.044	Yaw Set Point:	0.027	X_WP:	0.000	Y_WP:	0.000	Y_WP:	0.500	X:	0.057	Y:	-0.023	Z:	0.600	yaw:	-1.560	yaw rate:	-21.819	Roll:	1.726	Pitch:	-0.713	Yaw:	-5.559	Thrust:	62.863
Time:	5.071	Roll Set Point:	-0.115	Pitch Set Point:	0.045	Yaw Set Point:	0.029	X_WP:	0.000	Y_WP:	0.000	Y_WP:	0.500	X:	0.057	Y:	-0.023	Z:	0.599	yaw:	-1.682	yaw rate:	-3.377	Roll:	1.704	Pitch:	-0.796	Yaw:	-3.966	Thrust:	64.028
Time:	5.082	Roll Set Point:	-0.114	Pitch Set Point:	0.045	Yaw Set Point:	0.030	X_WP:	0.000	Y_WP:	0.000	Y_WP:	0.500	X:	0.057	Y:	-0.023	Z:	0.599	yaw:	-1.738	yaw rate:	-5.578	Roll:	1.618	Pitch:	-0.563	Yaw:	-3.541	Thrust:	40.243
Time:	5.095	Roll Set Point:	-0.114	Pitch Set Point:	0.045	Yaw Set Point:	0.027	X_WP:	0.000	Y_WP:	0.000	Y_WP:	0.500	X:	0.057	Y:	-0.023	Z:	0.599	yaw:	-1.545	yaw rate:	19.239	Roll:	1.475	Pitch:	-1.142	Yaw:	2.227	Thrust:	53.828
Time:	5.107	Roll Set Point:	-0.114	Pitch Set Point:	0.046	Yaw Set Point:	0.031	X_WP:	0.000	Y_WP:	0.000	Y_WP:	0.500	X:	0.056	Y:	-0.024	Z:	0.599	yaw:	-1.750	yaw rate:	-20.473	Roll:	1.893	Pitch:	-0.587	Yaw:	-6.289	Thrust:	51.272
Time:	5.119	Roll Set Point:	-0.113	Pitch Set Point:	0.046	Yaw Set Point:	0.029	X_WP:	0.000	Y_WP:	0.000	Y_WP:	0.500	X:	0.056	Y:	-0.024	Z:	0.599	yaw:	-1.645	yaw rate:	10.491	Roll:	1.548	Pitch:	-1.005	Yaw:	0.373	Thrust:	48.696
Time:	5.131	Roll Set Point:	-0.113	Pitch Set Point:	0.047	Yaw Set Point:	0.017	X_WP:	0.000	Y_WP:	0.000	Y_WP:	0.500	X:	0.056	Y:	-0.024	Z:	0.599	yaw:	-0.955	yaw rate:	68.996	Roll:	1.413	Pitch:	-2.056	Yaw:	13.456	Thrust:	50.507
Time:	5.143	Roll Set Point:	-0.112	Pitch Set Point:	0.047	Yaw Set Point:	0.026	X_WP:	0.000	Y_WP:	0.000	Y_WP:	0.500	X:	0.056	Y:	-0.024	Z:	0.600	yaw:	-1.495	yaw rate:	-54.009	Roll:	1.751	Pitch:	-0.116	Yaw:	-13.988	Thrust:	44.805
Time:	5.158	Roll Set Point:	-0.112	Pitch Set Point:	0.047	Yaw Set Point:	0.030	X_WP:	0.000	Y_WP:	0.000	Y_WP:	0.500	X:	0.056	Y:	-0.025	Z:	0.599	yaw:	-1.729	yaw rate:	-23.438	Roll:	1.628	Pitch:	-0.583	Yaw:	-6.465	Thrust:	51.882
Time:	5.172	Roll Set Point:	-0.111	Pitch Set Point:	0.049	Yaw Set Point:	0.028	X_WP:	0.000	Y_WP:	0.000	Y_WP:	0.500	X:	0.055	Y:	-0.025	Z:	0.600	yaw:	-1.619	yaw rate:	-42.191	Roll:	1.751	Pitch:	-1.154	Yaw:	0.077	Thrust:	67.940
Time:	5.184	Roll Set Point:	-0.111	Pitch Set Point:	0.048	Yaw Set Point:	0.030	X_WP:	0.000	Y_WP:	0.000	Y_WP:	0.500	X:	0.055	Y:	-0.025	Z:	0.599	yaw:	-1.713	yaw rate:	-9.444	Roll:	1.560	Pitch:	-0.431	Yaw:	-4.427	Thrust:	41.856
Time:	5.196	Roll Set Point:	-0.111	Pitch Set Point:	0.049	Yaw Set Point:	0.019	X_WP:	0.000	Y_WP:	0.000	Y_WP:	0.500	X:	0.055	Y:	-0.025	Z:	0.599	yaw:	-1.062	yaw rate:	65.156	Roll:	1.462	Pitch:	-1.508	Yaw:	11.363	Thrust:	55.865
Time:	5.209	Roll Set Point:	-0.110	Pitch Set Point:	0.049	Yaw Set Point:	0.030	X_WP:	0.000	Y_WP:	0.000	Y_WP:	0.500	X:	0.055	Y:	-0.025	Z:	0.599	yaw:	-1.694	yaw rate:	-63.234	Roll:	1.790	Pitch:	-0.158	Yaw:	-14.656	Thrust:	53.430
Time:	5.225	Roll Set Point:	-0.110	Pitch Set Point:	0.049	Yaw Set Point:	0.030	X_WP:	0.000	Y_WP:	0.000	Y_WP:	0.500	X:	0.054	Y:	-0.026	Z:	0.598	yaw:	-1.742	yaw rate:	-63.611	Roll:	1.587	Pitch:	-0.936	Yaw:	-2.840	Thrust:	61.169
Time:	5.241	Roll Set Point:	-0.109	Pitch Set Point:	0.050	Yaw Set Point:	0.028	X_WP:	0.000	Y_WP:	0.000	Y_WP:	0.500	X:	0.054	Y:	-0.026	Z:	0.597	yaw:	-1.590	yaw rate:	15.263	Roll:	1.626	Pitch:	-0.928	Yaw:	0.652	Thrust:	72.907
Time:	5.254	Roll Set Point:	-0.109	Pitch Set Point:	0.050	Yaw Set Point:	0.031	X_WP:	0.000	Y_WP:	0.000	Y_WP:	0.500	X:	0.054	Y:	-0.026	Z:	0.596	yaw:	-1.781	yaw rate:	-19.106	Roll:	1.684	Pitch:	-0.847	Yaw:	-5.970	Thrust:	56.833
Time:	5.270	Roll Set Point:	-0.108	Pitch Set Point:	0.051	Yaw Set Point:	0.030	X_WP:	0.000	Y_WP:	0.000	Y_WP:	0.500	X:	0.054	Y:	-0.026	Z:	0.595	yaw:	-1.732	yaw rate:	4.855	Roll:	1.671	Pitch:	-0.842	Yaw:	-1.192	Thrust:	65.376
Time:	5.281	Roll Set Point:	-0.108	Pitch Set Point:	0.051	Yaw Set Point:	0.028	X_WP:	0.000	Y_WP:	0.000	Y_WP:	0.500	X:	0.054	Y:	-0.026	Z:	0.595	yaw:	-1.607	yaw rate:	12.483	Roll:	1.633	Pitch:	-0.895	Yaw:	1.003	Thrust:	45.117
Time:	5.296	Roll Set Point:	-0.108	Pitch Set Point:	0.051	Yaw Set Point:	0.032	X_WP:	0.000	Y_WP:	0.000	Y_WP:	0.500	X:	0.053	Y:	-0.026	Z:	0.594	yaw:	-1.817	yaw rate:	-20.925	Roll:	1.722	Pitch:	-0.581	Yaw:	-5.892	Thrust:	61.053
Time:	5.306	Roll Set Point:	-0.107	Pitch Set Point:	0.051	Yaw Set Point:	0.034	X_WP:	0.000	Y_WP:	0.000	Y_WP:	0.500	X:	0.053	Y:	-0.027	Z:	0.592	yaw:	-1.922	yaw rate:	-13.203	Roll:	1.141	Pitch:	-0.941	Yaw:	-4.904	Thrust:	50.267
Time:	5.318	Roll Set Point:	-0.106	Pitch Set Point:	0.052	Yaw Set Point:	0.034	X_WP:	0.000	Y_WP:	0.000	Y_WP:	0.500	X:	0.053	Y:	-0.027	Z:	0.591	yaw:	-1.941	yaw rate:	-1.932	Roll:	1.463	Pitch:	-0.896	Yaw:	-2.863	Thrust:	49.246
Time:	5.331	Roll Set Point:	-0.106	Pitch Set Point:	0.052	Yaw Set Point:	0.035	X_WP:	0.000	Y_WP:	0.000	Y_WP:	0.500	X:	0.052	Y:	-0.027	Z:	0.591	yaw:	-2.014	yaw rate:	-7.349	Roll:	1.717	Pitch:	-0.767	Yaw:	-4.053	Thrust:	51.707
Time:	5.342	Roll Set Point:	-0.105	Pitch Set Point:	0.052	Yaw Set Point:	0.033	X_WP:	0.000	Y_WP:	0.000	Y_WP:	0.500	X:	0.052	Y:	-0.027	Z:	0.590	yaw:	-1.890	yaw rate:	12.474	Roll:	1.433	Pitch:	-0.865	Yaw:	0.571	Thrust:	42.634
Time:	5.354	Roll Set Point:	-0.105	Pitch Set Point:	0.053	Yaw Set Point:	0.022	X_WP:	0.000	Y_WP:	0.000	Y_WP:	0.500	X:	0.052	Y:	-0.027	Z:	0.589	yaw:	-1.263	yaw rate:	62.716	Roll:	1.238	Pitch:	-1.647	Yaw:	12.141	Thrust:	52.303
Time:	5.368	Roll Set Point:	-0.105	Pitch Set Point:	0.052	Yaw Set Point:	0.032	X_WP:	0.000	Y_WP:	0.000	Y_WP:	0.500	X:	0.052	Y:	-0.027	Z:	0.589	yaw:	-1.806	yaw rate:	-54.388	Roll:	1.912	Pitch:	-0.167	Yaw:	-12.001	Thrust:	59.340
Time:	5.380	Roll Set Point:	-0.104	Pitch Set Point:	0.053	Yaw Set Point:	0.033	X_WP:	0.000	Y_WP:	0.000	Y_WP:	0.500	X:	0.052	Y:	-0.027	Z:	0.588	yaw:	-1.908	yaw rate:	-10.172	Roll:	1.509	Pitch:	-0.767	Yaw:	-4.734	Thrust:	47.681
Time:	5.397	Roll Set Point:	-0.104	Pitch Set Point:	0.053	Yaw Set Point:	0.032	X_WP:	0.000	Y_WP:	0.000	Y_WP:	0.500	X:	0.051	Y:	-0.027	Z:	0.586	yaw:	-1.845	yaw rate:	-31.874	Roll:	1.403	Pitch:	-0.912	Yaw:	-1.222	Thrust:	64.744
Time:	5.410	Roll Set Point:	-0.104	Pitch Set Point:	0.053	Yaw Set Point:	0.035	X_WP:	0.000	Y_WP:	0.000	Y_WP:	0.500	X:	0.051	Y:	-0.027	Z:	0.585	yaw:	-2.002	yaw rate:	-15.691	Roll:	1.889	Pitch:	-0.559	Yaw:	-5.566	Thrust:	60.211
Time:	5.427	Roll Set Point:	-0.103	Pitch Set Point:	0.053	Yaw Set Point:	0.033	X_WP:	0.000	Y_WP:	0.000	Y_WP:	0.500	X:	0.051	Y:	-0.027	Z:	0.582	yaw:	-1.893	yaw rate:	12.963	Roll:	1.381	Pitch:	-0.946	Yaw:	-0.655	Thrust:	77.564
Time:	5.439	Roll Set Point:	-0.102	Pitch Set Point:	0.053	Yaw Set Point:	0.037	X_WP:	0.000	Y_WP:	0.000	Y_WP:	0.500	X:	0.051	Y:	-0.027	Z:	0.580	yaw:	-2.106	yaw rate:	-21.294	Roll:	1.490	Pitch:	-0.400	Yaw:	-7.355	Thrust:	49.319
Time:	5.455	Roll Set Point:	-0.102	Pitch Set Point:	0.053	Yaw Set Point:	0.032	X_WP:	0.000	Y_WP:	0.000	Y_WP:	0.500	X:	0.051	Y:	-0.028	Z:	0.579	yaw:	-1.836	yaw rate:	26.999	Roll:	1.539	Pitch:	-1.259	Yaw:	2.410	Thrust:	61.576
Time:	5.468	Roll Set Point:	-0.101	Pitch Set Point:	0.053	Yaw Set Point:	0.034	X_WP:	0.000	Y_WP:	0.000	Y_WP:	0.500	X:	0.050	Y:	-0.027	Z:	0.576	yaw:	-1.958	yaw rate:	-55.989	Roll:	1.634	Pitch:	-0.449	Yaw:	-4.727	Thrust:	66.410
Time:	5.480	Roll Set Point:	-0.101	Pitch Set Point:	0.053	Yaw Set Point:	0.036	X_WP:	0.000	Y_WP:	0.000	Y_WP:	0.500	X:	0.050	Y:	-0.028	Z:	0.574	yaw:	-2.052	yaw rate:	-9.394	Roll:	1.532	Pitch:	-0.767	Yaw:	-4.918	Thrust:	51.800
Time:	5.497	Roll Set Point:	-0.101	Pitch Set Point:	0.053	Yaw Set Point:	0.039	X_WP:	0.000	Y_WP:	0.000	Y_WP:	0.500	X:	0.050	Y:	-0.028	Z:	0.573	yaw:	-2.247	yaw rate:	-19.459	Roll:	1.709	Pitch:	-0.539	Yaw:	-5.692	Thrust:	71.338
Time:	5.511	Roll Set Point:	-0.101	Pitch Set Point:	0.054	Yaw Set Point:	0.033	X_WP:	0.000	Y_WP:	0.000	Y_WP:	0.500	X:	0.050	Y:	-0.028	Z:	0.571	yaw:	-1.891	yaw rate:	35.568	Roll:	1.644	Pitch:	-1.178	Yaw:	4.432	Thrust:	58.645
Time:	5.530	Roll Set Point:	-0.100	Pitch Set Point:	0.053	Yaw Set Point:	0.028	X_WP:	0.000	Y_WP:	0.000	Y_WP:	0.500	X:	0.050	Y:	-0.027	Z:	0.568	yaw:	-1.577	yaw rate:	24.730	Roll:	1.483	Pitch:	-0.814	Yaw:	2.377	Thrust:	81.479
Time:	5.544	Roll Set Point:	-0.099	Pitch Set Point:	0.053	Yaw Set Point:	0.034	X_WP:	0.000	Y_WP:	0.000	Y_WP:	0.500	X:	0.049	Y:	-0.027	Z:	0.565	yaw:	-1.967	yaw rate:	-39.049	Roll:	1.677	Pitch:	-0.302	Yaw:	-10.119	Thrust:	68.379
Time:	5.564	Roll Set Point:	-0.099	Pitch Set Point:	0.053	Yaw Set Point:	0.037	X_WP:	0.000	Y_WP:	0.000	Y_WP:	0.500	X:	0.049	Y:	-0.027	Z:	0.562	yaw:	-2.108	yaw rate:	-3.671	Roll:	1.574	Pitch:	-0.598	Yaw:	-4.691	Thrust:	78.166
Time:	5.576	Roll Set Point:	-0.099	Pitch Set Point:	0.053	Yaw Set Point:	0.039	X_WP:	0.000	Y_WP:	0.000	Y_WP:	0.500	X:	0.049	Y:	-0.027	Z:	0.560	yaw:	-2.241	yaw rate:	-13.252	Roll:	1.735	Pitch:	-0.583	Yaw:	-5.436	Thrust:	61.944
Time:	5.597	Roll Set Point:	-0.098	Pitch Set Point:	0.053	Yaw Set Point:	0.034	X_WP:	0.000	Y_WP:	0.000	Y_WP:	0.500	X:	0.049	Y:	-0.027	Z:	0.557	yaw:	-1.950	yaw rate:	17.578	Roll:	1.458	Pitch:	-0.853	Yaw:	1.296	Thrust:	87.075
Time:	5.608	Roll Set Point:	-0.098	Pitch Set Point:	0.053	Yaw Set Point:	0.028	X_WP:	0.000	Y_WP:	0.000	Y_WP:	0.500	X:	0.048	Y:	-0.027	Z:	0.556	yaw:	-1.607	yaw rate:	34.276	Roll:	1.556	Pitch:	-0.916	Yaw:	5.036	Thrust:	54.187
Time:	5.623	Roll Set Point:	-0.097	Pitch Set Point:	0.053	Yaw Set Point:	0.034	X_WP:	0.000	Y_WP:	0.000	Y_WP:	0.500	X:	0.048	Y:	-0.027	Z:	0.553	yaw:	-1.949	yaw rate:	-11.561	Roll:	1.631	Pitch:	-0.275	Yaw:	-8.510	Thrust:	66.551
Time:	5.638	Roll Set Point:	-0.097	Pitch Set Point:	0.053	Yaw Set Point:	0.024	X_WP:	0.000	Y_WP:	0.000	Y_WP:	0.500	X:	0.048	Y:	-0.027	Z:	0.552	yaw:	-1.356	yaw rate:	59.247	Roll:	1.642	Pitch:	-1.066	Yaw:	8.909	Thrust:	60.285
Time:	5.650	Roll Set Point:	-0.097	Pitch Set Point:	0.052	Yaw Set Point:	0.033	X_WP:	0.000	Y_WP:	0.000	Y_WP:	0.500	X:	0.048	Y:	-0.027	Z:	0.552	yaw:	-1.911	yaw rate:	-55.461	Roll:	1.583	Pitch:	-0.009	Yaw:	-15.736	Thrust:	47.838
Time:	5.666	Roll Set Point:	-0.096	Pitch Set Point:	0.053	Yaw Set Point:	0.019	X_WP:	0.000	Y_WP:	0.000	Y_WP:	0.500	X:	0.048	Y:	-0.027	Z:	0.551	yaw:	-1.109	yaw rate:	80.222	Roll:	1.363	Pitch:	-1.283	Yaw:	11.546	Thrust:	65.958
Time:	5.680	Roll Set Point:	-0.096	Pitch Set Point:	0.052	Yaw Set Point:	0.018	X_WP:	0.000	Y_WP:	0.000	Y_WP:	0.500	X:	0.048	Y:	-0.026	Z:	0.550	yaw:	-1.024	yaw rate:	57.475	Roll:	1.469	Pitch:	-0.436	Yaw:	0.199	Thrust:	57.641
