Time:	2.046	Roll Set Point:	0.098	Pitch Set Point:	0.064	Yaw Set Point:	-0.002	X_WP:	0.100	Y_WP:	0.000	Y_WP:	0.500	X:	0.001	Y:	-0.032	Z:	0.050	yaw:	0.140	yaw rate:	-7.487	Roll:	-2.867	Pitch:	-0.927	Yaw:	0.195	Thrust:	24.768
Time:	2.056	Roll Set Point:	0.098	Pitch Set Point:	0.064	Yaw Set Point:	-0.003	X_WP:	0.100	Y_WP:	0.000	Y_WP:	0.500	X:	0.001	Y:	-0.032	Z:	0.050	yaw:	0.174	yaw rate:	3.466	Roll:	-2.988	Pitch:	-0.824	Yaw:	1.094	Thrust:	25.230
Time:	2.067	Roll Set Point:	0.098	Pitch Set Point:	0.064	Yaw Set Point:	-0.002	X_WP:	0.100	Y_WP:	0.000	Y_WP:	0.500	X:	0.001	Y:	-0.032	Z:	0.050	yaw:	0.105	yaw rate:	-6.942	Roll:	-2.945	Pitch:	-1.284	Yaw:	-1.505	Thrust:	26.016
Time:	2.079	Roll Set Point:	0.098	Pitch Set Point:	0.064	Yaw Set Point:	-0.005	X_WP:	0.100	Y_WP:	0.000	Y_WP:	0.500	X:	0.001	Y:	-0.032	Z:	0.050	yaw:	0.260	yaw rate:	15.544	Roll:	-2.973	Pitch:	-0.330	Yaw:	3.893	Thrust:	26.208
Time:	2.089	Roll Set Point:	0.098	Pitch Set Point:	0.064	Yaw Set Point:	-0.006	X_WP:	0.100	Y_WP:	0.000	Y_WP:	0.500	X:	0.001	Y:	-0.032	Z:	0.050	yaw:	0.353	yaw rate:	9.232	Roll:	-2.981	Pitch:	-0.624	Yaw:	2.790	Thrust:	26.701
Time:	2.102	Roll Set Point:	0.097	Pitch Set Point:	0.064	Yaw Set Point:	-0.001	X_WP:	0.100	Y_WP:	0.000	Y_WP:	0.500	X:	0.001	Y:	-0.032	Z:	0.050	yaw:	0.049	yaw rate:	-30.413	Roll:	-2.302	Pitch:	-1.728	Yaw:	-6.280	Thrust:	28.908
Time:	2.113	Roll Set Point:	0.098	Pitch Set Point:	0.066	Yaw Set Point:	0.008	X_WP:	0.100	Y_WP:	0.000	Y_WP:	0.500	X:	0.001	Y:	-0.033	Z:	0.050	yaw:	-0.453	yaw rate:	-50.163	Roll:	-2.929	Pitch:	-3.196	Yaw:	-12.018	Thrust:	28.625
Time:	2.125	Roll Set Point:	0.098	Pitch Set Point:	0.064	Yaw Set Point:	-0.005	X_WP:	0.100	Y_WP:	0.000	Y_WP:	0.500	X:	0.001	Y:	-0.032	Z:	0.050	yaw:	0.279	yaw rate:	73.169	Roll:	-3.637	Pitch:	1.803	Yaw:	16.937	Thrust:	28.112
Time:	2.136	Roll Set Point:	0.098	Pitch Set Point:	0.064	Yaw Set Point:	-0.004	X_WP:	0.100	Y_WP:	0.000	Y_WP:	0.500	X:	0.001	Y:	-0.032	Z:	0.050	yaw:	0.222	yaw rate:	-5.621	Roll:	-2.743	Pitch:	-1.078	Yaw:	-0.962	Thrust:	30.170
Time:	2.148	Roll Set Point:	0.098	Pitch Set Point:	0.066	Yaw Set Point:	0.008	X_WP:	0.100	Y_WP:	0.000	Y_WP:	0.500	X:	0.001	Y:	-0.033	Z:	0.050	yaw:	-0.456	yaw rate:	-67.866	Roll:	-2.301	Pitch:	-3.670	Yaw:	-16.742	Thrust:	30.937
Time:	2.160	Roll Set Point:	0.098	Pitch Set Point:	0.065	Yaw Set Point:	0.005	X_WP:	0.100	Y_WP:	0.000	Y_WP:	0.500	X:	0.001	Y:	-0.032	Z:	0.049	yaw:	-0.260	yaw rate:	19.594	Roll:	-2.989	Pitch:	-0.213	Yaw:	3.720	Thrust:	32.269
Time:	2.172	Roll Set Point:	0.098	Pitch Set Point:	0.065	Yaw Set Point:	0.000	X_WP:	0.100	Y_WP:	0.000	Y_WP:	0.500	X:	0.001	Y:	-0.032	Z:	0.050	yaw:	-0.005	yaw rate:	25.566	Roll:	-2.997	Pitch:	-0.104	Yaw:	5.798	Thrust:	30.045
Time:	2.183	Roll Set Point:	0.099	Pitch Set Point:	0.065	Yaw Set Point:	-0.000	X_WP:	0.100	Y_WP:	0.000	Y_WP:	0.500	X:	0.001	Y:	-0.032	Z:	0.050	yaw:	0.007	yaw rate:	1.175	Roll:	-3.672	Pitch:	-1.161	Yaw:	0.290	Thrust:	32.961
Time:	2.194	Roll Set Point:	0.098	Pitch Set Point:	0.064	Yaw Set Point:	-0.008	X_WP:	0.100	Y_WP:	0.000	Y_WP:	0.500	X:	0.001	Y:	-0.032	Z:	0.050	yaw:	0.449	yaw rate:	44.167	Roll:	-2.847	Pitch:	0.810	Yaw:	10.960	Thrust:	31.446
Time:	2.205	Roll Set Point:	0.098	Pitch Set Point:	0.063	Yaw Set Point:	-0.009	X_WP:	0.100	Y_WP:	0.000	Y_WP:	0.500	X:	0.001	Y:	-0.032	Z:	0.050	yaw:	0.511	yaw rate:	6.267	Roll:	-2.901	Pitch:	-0.654	Yaw:	2.205	Thrust:	32.577
Time:	2.215	Roll Set Point:	0.098	Pitch Set Point:	0.063	Yaw Set Point:	-0.012	X_WP:	0.100	Y_WP:	0.000	Y_WP:	0.500	X:	0.001	Y:	-0.032	Z:	0.050	yaw:	0.712	yaw rate:	20.082	Roll:	-3.017	Pitch:	-0.078	Yaw:	5.993	Thrust:	33.360
Time:	2.227	Roll Set Point:	0.098	Pitch Set Point:	0.064	Yaw Set Point:	-0.002	X_WP:	0.100	Y_WP:	0.000	Y_WP:	0.500	X:	0.001	Y:	-0.032	Z:	0.050	yaw:	0.122	yaw rate:	-58.983	Roll:	-2.433	Pitch:	-3.115	Yaw:	-12.647	Thrust:	35.732
Time:	2.239	Roll Set Point:	0.098	Pitch Set Point:	0.064	Yaw Set Point:	-0.005	X_WP:	0.100	Y_WP:	0.000	Y_WP:	0.500	X:	0.001	Y:	-0.032	Z:	0.050	yaw:	0.274	yaw rate:	15.184	Roll:	-2.953	Pitch:	-0.326	Yaw:	3.838	Thrust:	35.437
Time:	2.250	Roll Set Point:	0.098	Pitch Set Point:	0.065	Yaw Set Point:	0.006	X_WP:	0.100	Y_WP:	0.000	Y_WP:	0.500	X:	0.001	Y:	-0.032	Z:	0.049	yaw:	-0.358	yaw rate:	-63.242	Roll:	-2.324	Pitch:	-3.369	Yaw:	-15.501	Thrust:	37.258
Time:	2.260	Roll Set Point:	0.097	Pitch Set Point:	0.066	Yaw Set Point:	0.011	X_WP:	0.100	Y_WP:	0.000	Y_WP:	0.500	X:	0.001	Y:	-0.033	Z:	0.050	yaw:	-0.620	yaw rate:	-26.182	Roll:	-2.417	Pitch:	-2.083	Yaw:	-7.672	Thrust:	33.908
Time:	2.272	Roll Set Point:	0.098	Pitch Set Point:	0.066	Yaw Set Point:	0.009	X_WP:	0.100	Y_WP:	0.000	Y_WP:	0.500	X:	0.001	Y:	-0.033	Z:	0.050	yaw:	-0.525	yaw rate:	9.510	Roll:	-3.696	Pitch:	-0.926	Yaw:	1.432	Thrust:	37.511
Time:	2.283	Roll Set Point:	0.097	Pitch Set Point:	0.066	Yaw Set Point:	0.010	X_WP:	0.100	Y_WP:	0.000	Y_WP:	0.500	X:	0.001	Y:	-0.032	Z:	0.050	yaw:	-0.560	yaw rate:	-3.557	Roll:	-2.016	Pitch:	-0.675	Yaw:	-1.623	Thrust:	37.231
Time:	2.300	Roll Set Point:	0.098	Pitch Set Point:	0.064	Yaw Set Point:	-0.002	X_WP:	0.100	Y_WP:	0.000	Y_WP:	0.500	X:	0.001	Y:	-0.032	Z:	0.050	yaw:	0.120	yaw rate:	67.991	Roll:	-3.648	Pitch:	0.531	Yaw:	10.382	Thrust:	45.151
Time:	2.312	Roll Set Point:	0.098	Pitch Set Point:	0.065	Yaw Set Point:	-0.000	X_WP:	0.100	Y_WP:	0.000	Y_WP:	0.500	X:	0.001	Y:	-0.032	Z:	0.050	yaw:	0.021	yaw rate:	-24.972	Roll:	-2.777	Pitch:	-1.335	Yaw:	-2.195	Thrust:	38.042
Time:	2.323	Roll Set Point:	0.098	Pitch Set Point:	0.064	Yaw Set Point:	-0.008	X_WP:	0.100	Y_WP:	0.000	Y_WP:	0.500	X:	0.001	Y:	-0.032	Z:	0.050	yaw:	0.453	yaw rate:	43.200	Roll:	-3.598	Pitch:	0.512	Yaw:	10.886	Thrust:	39.344
Time:	2.334	Roll Set Point:	0.098	Pitch Set Point:	0.065	Yaw Set Point:	0.001	X_WP:	0.100	Y_WP:	0.000	Y_WP:	0.500	X:	0.001	Y:	-0.032	Z:	0.050	yaw:	-0.033	yaw rate:	-48.597	Roll:	-2.265	Pitch:	-2.697	Yaw:	-11.577	Thrust:	39.962
Time:	2.344	Roll Set Point:	0.098	Pitch Set Point:	0.063	Yaw Set Point:	-0.012	X_WP:	0.100	Y_WP:	0.000	Y_WP:	0.500	X:	0.001	Y:	-0.032	Z:	0.050	yaw:	0.692	yaw rate:	72.433	Roll:	-3.803	Pitch:	1.907	Yaw:	18.973	Thrust:	38.982
Time:	2.355	Roll Set Point:	0.098	Pitch Set Point:	0.064	Yaw Set Point:	-0.009	X_WP:	0.100	Y_WP:	0.000	Y_WP:	0.500	X:	0.001	Y:	-0.032	Z:	0.050	yaw:	0.488	yaw rate:	-20.348	Roll:	-2.861	Pitch:	-1.725	Yaw:	-4.063	Thrust:	41.426
Time:	2.366	Roll Set Point:	0.098	Pitch Set Point:	0.064	Yaw Set Point:	-0.002	X_WP:	0.100	Y_WP:	0.000	Y_WP:	0.500	X:	0.001	Y:	-0.032	Z:	0.050	yaw:	0.108	yaw rate:	-38.047	Roll:	-2.273	Pitch:	-2.086	Yaw:	-8.844	Thrust:	42.359
Time:	2.378	Roll Set Point:	0.098	Pitch Set Point:	0.065	Yaw Set Point:	0.004	X_WP:	0.100	Y_WP:	0.000	Y_WP:	0.500	X:	0.001	Y:	-0.032	Z:	0.049	yaw:	-0.236	yaw rate:	-34.397	Roll:	-2.904	Pitch:	-2.390	Yaw:	-8.146	Thrust:	43.769
Time:	2.389	Roll Set Point:	0.098	Pitch Set Point:	0.064	Yaw Set Point:	-0.008	X_WP:	0.100	Y_WP:	0.000	Y_WP:	0.500	X:	0.001	Y:	-0.032	Z:	0.050	yaw:	0.480	yaw rate:	71.560	Roll:	-3.600	Pitch:	1.619	Yaw:	17.658	Thrust:	40.557
Time:	2.401	Roll Set Point:	0.098	Pitch Set Point:	0.063	Yaw Set Point:	-0.011	X_WP:	0.100	Y_WP:	0.000	Y_WP:	0.500	X:	0.001	Y:	-0.032	Z:	0.050	yaw:	0.632	yaw rate:	15.224	Roll:	-3.170	Pitch:	-0.329	Yaw:	4.347	Thrust:	44.198
Time:	2.412	Roll Set Point:	0.098	Pitch Set Point:	0.064	Yaw Set Point:	-0.006	X_WP:	0.100	Y_WP:	0.000	Y_WP:	0.500	X:	0.001	Y:	-0.032	Z:	0.050	yaw:	0.339	yaw rate:	-29.252	Roll:	-2.641	Pitch:	-2.048	Yaw:	-6.453	Thrust:	44.029
Time:	2.423	Roll Set Point:	0.097	Pitch Set Point:	0.067	Yaw Set Point:	0.018	X_WP:	0.100	Y_WP:	0.000	Y_WP:	0.500	X:	0.001	Y:	-0.033	Z:	0.049	yaw:	-1.011	yaw rate:	-135.054	Roll:	-1.778	Pitch:	-6.078	Yaw:	-33.470	Thrust:	46.552
Time:	2.435	Roll Set Point:	0.098	Pitch Set Point:	0.064	Yaw Set Point:	-0.007	X_WP:	0.100	Y_WP:	0.000	Y_WP:	0.500	X:	0.001	Y:	-0.032	Z:	0.050	yaw:	0.429	yaw rate:	144.033	Roll:	-4.271	Pitch:	3.962	Yaw:	31.947	Thrust:	44.679
Time:	2.446	Roll Set Point:	0.098	Pitch Set Point:	0.065	Yaw Set Point:	0.003	X_WP:	0.100	Y_WP:	0.000	Y_WP:	0.500	X:	0.001	Y:	-0.032	Z:	0.050	yaw:	-0.164	yaw rate:	-59.327	Roll:	-2.618	Pitch:	-3.173	Yaw:	-14.294	Thrust:	47.025
Time:	2.456	Roll Set Point:	0.098	Pitch Set Point:	0.064	Yaw Set Point:	-0.003	X_WP:	0.100	Y_WP:	0.000	Y_WP:	0.500	X:	0.001	Y:	-0.032	Z:	0.050	yaw:	0.171	yaw rate:	33.558	Roll:	-2.754	Pitch:	0.679	Yaw:	8.565	Thrust:	44.980
Time:	2.469	Roll Set Point:	0.098	Pitch Set Point:	0.064	Yaw Set Point:	-0.006	X_WP:	0.100	Y_WP:	0.000	Y_WP:	0.500	X:	0.001	Y:	-0.032	Z:	0.050	yaw:	0.337	yaw rate:	16.550	Roll:	-3.352	Pitch:	-0.667	Yaw:	3.939	Thrust:	48.139
Time:	2.481	Roll Set Point:	0.097	Pitch Set Point:	0.066	Yaw Set Point:	0.008	X_WP:	0.100	Y_WP:	0.000	Y_WP:	0.500	X:	0.001	Y:	-0.032	Z:	0.050	yaw:	-0.466	yaw rate:	-80.290	Roll:	-1.964	Pitch:	-3.661	Yaw:	-18.107	Thrust:	51.125
Time:	2.494	Roll Set Point:	0.098	Pitch Set Point:	0.064	Yaw Set Point:	-0.005	X_WP:	0.100	Y_WP:	0.000	Y_WP:	0.500	X:	0.001	Y:	-0.032	Z:	0.050	yaw:	0.265	yaw rate:	73.156	Roll:	-4.162	Pitch:	1.397	Yaw:	16.964	Thrust:	48.533
Time:	2.510	Roll Set Point:	0.098	Pitch Set Point:	0.062	Yaw Set Point:	-0.017	X_WP:	0.100	Y_WP:	0.000	Y_WP:	0.500	X:	0.001	Y:	-0.032	Z:	0.050	yaw:	0.976	yaw rate:	37.874	Roll:	-3.462	Pitch:	0.827	Yaw:	11.981	Thrust:	60.967
Time:	2.521	Roll Set Point:	0.098	Pitch Set Point:	0.064	Yaw Set Point:	-0.002	X_WP:	0.100	Y_WP:	0.000	Y_WP:	0.500	X:	0.001	Y:	-0.032	Z:	0.050	yaw:	0.135	yaw rate:	-84.078	Roll:	-2.573	Pitch:	-3.751	Yaw:	-18.890	Thrust:	53.391
Time:	2.531	Roll Set Point:	0.097	Pitch Set Point:	0.066	Yaw Set Point:	0.008	X_WP:	0.100	Y_WP:	0.000	Y_WP:	0.500	X:	0.001	Y:	-0.032	Z:	0.050	yaw:	-0.460	yaw rate:	-59.585	Roll:	-1.532	Pitch:	-3.194	Yaw:	-16.186	Thrust:	46.679
Time:	2.542	Roll Set Point:	0.098	Pitch Set Point:	0.065	Yaw Set Point:	0.000	X_WP:	0.100	Y_WP:	0.000	Y_WP:	0.500	X:	0.001	Y:	-0.032	Z:	0.050	yaw:	-0.008	yaw rate:	45.258	Roll:	-3.711	Pitch:	0.770	Yaw:	11.247	Thrust:	47.232
Time:	2.553	Roll Set Point:	0.098	Pitch Set Point:	0.064	Yaw Set Point:	-0.006	X_WP:	0.100	Y_WP:	0.000	Y_WP:	0.500	X:	0.001	Y:	-0.032	Z:	0.050	yaw:	0.348	yaw rate:	35.549	Roll:	-3.384	Pitch:	0.414	Yaw:	9.752	Thrust:	49.900
Time:	2.565	Roll Set Point:	0.098	Pitch Set Point:	0.065	Yaw Set Point:	0.001	X_WP:	0.100	Y_WP:	0.000	Y_WP:	0.500	X:	0.001	Y:	-0.032	Z:	0.050	yaw:	-0.076	yaw rate:	-42.379	Roll:	-2.971	Pitch:	-2.453	Yaw:	-8.591	Thrust:	57.372
Time:	2.577	Roll Set Point:	0.098	Pitch Set Point:	0.064	Yaw Set Point:	-0.007	X_WP:	0.100	Y_WP:	0.000	Y_WP:	0.500	X:	0.001	Y:	-0.032	Z:	0.050	yaw:	0.429	yaw rate:	50.540	Roll:	-3.169	Pitch:	0.790	Yaw:	11.623	Thrust:	52.941
Time:	2.588	Roll Set Point:	0.098	Pitch Set Point:	0.064	Yaw Set Point:	-0.002	X_WP:	0.100	Y_WP:	0.000	Y_WP:	0.500	X:	0.001	Y:	-0.032	Z:	0.050	yaw:	0.120	yaw rate:	-30.910	Roll:	-2.505	Pitch:	-2.149	Yaw:	-7.483	Thrust:	51.498
Time:	2.599	Roll Set Point:	0.098	Pitch Set Point:	0.064	Yaw Set Point:	-0.007	X_WP:	0.100	Y_WP:	0.000	Y_WP:	0.500	X:	0.001	Y:	-0.032	Z:	0.050	yaw:	0.394	yaw rate:	27.360	Roll:	-3.172	Pitch:	-0.020	Yaw:	6.777	Thrust:	53.712
Time:	2.610	Roll Set Point:	0.098	Pitch Set Point:	0.064	Yaw Set Point:	-0.005	X_WP:	0.100	Y_WP:	0.000	Y_WP:	0.500	X:	0.001	Y:	-0.032	Z:	0.050	yaw:	0.304	yaw rate:	-9.008	Roll:	-3.530	Pitch:	-1.667	Yaw:	-1.695	Thrust:	54.011
Time:	2.621	Roll Set Point:	0.097	Pitch Set Point:	0.063	Yaw Set Point:	-0.011	X_WP:	0.100	Y_WP:	0.000	Y_WP:	0.500	X:	0.002	Y:	-0.032	Z:	0.051	yaw:	0.620	yaw rate:	31.659	Roll:	-2.158	Pitch:	0.591	Yaw:	8.412	Thrust:	52.984
Time:	2.633	Roll Set Point:	0.097	Pitch Set Point:	0.064	Yaw Set Point:	-0.005	X_WP:	0.100	Y_WP:	0.000	Y_WP:	0.500	X:	0.002	Y:	-0.032	Z:	0.051	yaw:	0.285	yaw rate:	-33.511	Roll:	-2.365	Pitch:	-2.199	Yaw:	-6.868	Thrust:	57.976
Time:	2.645	Roll Set Point:	0.096	Pitch Set Point:	0.065	Yaw Set Point:	-0.007	X_WP:	0.100	Y_WP:	0.000	Y_WP:	0.500	X:	0.002	Y:	-0.033	Z:	0.051	yaw:	0.426	yaw rate:	-13.011	Roll:	-2.453	Pitch:	-1.097	Yaw:	3.824	Thrust:	53.854
Time:	2.655	Roll Set Point:	0.094	Pitch Set Point:	0.064	Yaw Set Point:	-0.005	X_WP:	0.100	Y_WP:	0.000	Y_WP:	0.500	X:	0.003	Y:	-0.032	Z:	0.052	yaw:	0.280	yaw rate:	-14.621	Roll:	-1.494	Pitch:	-0.421	Yaw:	-3.209	Thrust:	51.688
Time:	2.666	Roll Set Point:	0.094	Pitch Set Point:	0.064	Yaw Set Point:	-0.005	X_WP:	0.100	Y_WP:	0.000	Y_WP:	0.500	X:	0.003	Y:	-0.032	Z:	0.052	yaw:	0.280	yaw rate:	-14.621	Roll:	-2.968	Pitch:	-0.964	Yaw:	0.417	Thrust:	56.785
Time:	2.678	Roll Set Point:	0.093	Pitch Set Point:	0.064	Yaw Set Point:	-0.004	X_WP:	0.100	Y_WP:	0.000	Y_WP:	0.500	X:	0.004	Y:	-0.032	Z:	0.053	yaw:	0.234	yaw rate:	-22.046	Roll:	-1.729	Pitch:	-1.135	Yaw:	-0.681	Thrust:	56.720
Time:	2.689	Roll Set Point:	0.093	Pitch Set Point:	0.064	Yaw Set Point:	-0.008	X_WP:	0.100	Y_WP:	0.000	Y_WP:	0.500	X:	0.004	Y:	-0.032	Z:	0.053	yaw:	0.481	yaw rate:	24.632	Roll:	-2.824	Pitch:	-0.428	Yaw:	6.550	Thrust:	56.874
Time:	2.701	Roll Set Point:	0.092	Pitch Set Point:	0.063	Yaw Set Point:	-0.010	X_WP:	0.100	Y_WP:	0.000	Y_WP:	0.500	X:	0.004	Y:	-0.032	Z:	0.053	yaw:	0.599	yaw rate:	11.877	Roll:	-2.270	Pitch:	-0.450	Yaw:	3.452	Thrust:	60.502
Time:	2.713	Roll Set Point:	0.091	Pitch Set Point:	0.066	Yaw Set Point:	0.008	X_WP:	0.100	Y_WP:	0.000	Y_WP:	0.500	X:	0.005	Y:	-0.033	Z:	0.053	yaw:	-0.435	yaw rate:	-103.410	Roll:	-1.367	Pitch:	-4.741	Yaw:	-24.052	Thrust:	61.302
Time:	2.723	Roll Set Point:	0.090	Pitch Set Point:	0.063	Yaw Set Point:	-0.006	X_WP:	0.100	Y_WP:	0.000	Y_WP:	0.500	X:	0.005	Y:	-0.032	Z:	0.054	yaw:	0.366	yaw rate:	80.029	Roll:	-2.398	Pitch:	2.473	Yaw:	20.416	Thrust:	55.255
Time:	2.734	Roll Set Point:	0.089	Pitch Set Point:	0.063	Yaw Set Point:	-0.008	X_WP:	0.100	Y_WP:	0.000	Y_WP:	0.500	X:	0.006	Y:	-0.032	Z:	0.054	yaw:	0.465	yaw rate:	9.965	Roll:	-2.021	Pitch:	-0.493	Yaw:	3.047	Thrust:	59.618
Time:	2.745	Roll Set Point:	0.087	Pitch Set Point:	0.064	Yaw Set Point:	0.000	X_WP:	0.100	Y_WP:	0.000	Y_WP:	0.500	X:	0.007	Y:	-0.032	Z:	0.054	yaw:	-0.027	yaw rate:	-49.231	Roll:	-0.429	Pitch:	-2.198	Yaw:	-12.857	Thrust:	56.971
Time:	2.755	Roll Set Point:	0.084	Pitch Set Point:	0.061	Yaw Set Point:	-0.014	X_WP:	0.100	Y_WP:	0.000	Y_WP:	0.500	X:	0.008	Y:	-0.031	Z:	0.055	yaw:	0.788	yaw rate:	81.501	Roll:	-1.312	Pitch:	2.968	Yaw:	21.384	Thrust:	56.838
Time:	2.767	Roll Set Point:	0.084	Pitch Set Point:	0.061	Yaw Set Point:	-0.014	X_WP:	0.100	Y_WP:	0.000	Y_WP:	0.500	X:	0.008	Y:	-0.031	Z:	0.055	yaw:	0.788	yaw rate:	81.501	Roll:	-2.867	Pitch:	-0.923	Yaw:	1.140	Thrust:	65.397
Time:	2.779	Roll Set Point:	0.082	Pitch Set Point:	0.059	Yaw Set Point:	-0.015	X_WP:	0.100	Y_WP:	0.000	Y_WP:	0.500	X:	0.009	Y:	-0.030	Z:	0.056	yaw:	0.880	yaw rate:	-11.005	Roll:	-0.399	Pitch:	0.639	Yaw:	3.268	Thrust:	63.251
Time:	2.790	Roll Set Point:	0.079	Pitch Set Point:	0.059	Yaw Set Point:	-0.008	X_WP:	0.100	Y_WP:	0.000	Y_WP:	0.500	X:	0.011	Y:	-0.030	Z:	0.056	yaw:	0.465	yaw rate:	-41.493	Roll:	0.059	Pitch:	-1.094	Yaw:	-8.724	Thrust:	64.181
Time:	2.801	Roll Set Point:	0.077	Pitch Set Point:	0.058	Yaw Set Point:	-0.005	X_WP:	0.100	Y_WP:	0.000	Y_WP:	0.500	X:	0.012	Y:	-0.029	Z:	0.056	yaw:	0.289	yaw rate:	-17.570	Roll:	-0.730	Pitch:	-0.480	Yaw:	-3.721	Thrust:	61.691
Time:	2.812	Roll Set Point:	0.075	Pitch Set Point:	0.056	Yaw Set Point:	-0.014	X_WP:	0.100	Y_WP:	0.000	Y_WP:	0.500	X:	0.013	Y:	-0.028	Z:	0.057	yaw:	0.798	yaw rate:	50.861	Roll:	-1.375	Pitch:	1.933	Yaw:	13.233	Thrust:	58.220
Time:	2.822	Roll Set Point:	0.072	Pitch Set Point:	0.055	Yaw Set Point:	-0.005	X_WP:	0.100	Y_WP:	0.000	Y_WP:	0.500	X:	0.014	Y:	-0.028	Z:	0.058	yaw:	0.266	yaw rate:	-53.199	Roll:	0.042	Pitch:	-1.415	Yaw:	-13.455	Thrust:	60.635
Time:	2.834	Roll Set Point:	0.070	Pitch Set Point:	0.055	Yaw Set Point:	0.002	X_WP:	0.100	Y_WP:	0.000	Y_WP:	0.500	X:	0.015	Y:	-0.027	Z:	0.058	yaw:	-0.122	yaw rate:	-38.816	Roll:	-0.288	Pitch:	-1.046	Yaw:	-9.323	Thrust:	64.888
Time:	2.845	Roll Set Point:	0.064	Pitch Set Point:	0.051	Yaw Set Point:	-0.002	X_WP:	0.100	Y_WP:	0.000	Y_WP:	0.500	X:	0.018	Y:	-0.025	Z:	0.060	yaw:	0.111	yaw rate:	23.342	Roll:	2.033	Pitch:	3.257	Yaw:	5.292	Thrust:	58.951
Time:	2.857	Roll Set Point:	0.062	Pitch Set Point:	0.051	Yaw Set Point:	0.011	X_WP:	0.100	Y_WP:	0.000	Y_WP:	0.500	X:	0.019	Y:	-0.025	Z:	0.061	yaw:	-0.614	yaw rate:	-72.521	Roll:	-0.040	Pitch:	-1.708	Yaw:	-17.996	Thrust:	66.102
Time:	2.868	Roll Set Point:	0.059	Pitch Set Point:	0.047	Yaw Set Point:	-0.010	X_WP:	0.100	Y_WP:	0.000	Y_WP:	0.500	X:	0.021	Y:	-0.024	Z:	0.062	yaw:	0.578	yaw rate:	119.224	Roll:	-0.404	Pitch:	4.412	Yaw:	29.154	Thrust:	61.841
Time:	2.878	Roll Set Point:	0.056	Pitch Set Point:	0.045	Yaw Set Point:	0.000	X_WP:	0.100	Y_WP:	0.000	Y_WP:	0.500	X:	0.022	Y:	-0.023	Z:	0.063	yaw:	-0.013	yaw rate:	-59.076	Roll:	1.110	Pitch:	-0.176	Yaw:	-14.640	Thrust:	58.936
Time:	2.889	Roll Set Point:	0.053	Pitch Set Point:	0.044	Yaw Set Point:	0.002	X_WP:	0.100	Y_WP:	0.000	Y_WP:	0.500	X:	0.023	Y:	-0.022	Z:	0.064	yaw:	-0.088	yaw rate:	-7.492	Roll:	-0.446	Pitch:	0.302	Yaw:	-1.903	Thrust:	64.010
Time:	2.900	Roll Set Point:	0.050	Pitch Set Point:	0.040	Yaw Set Point:	-0.011	X_WP:	0.100	Y_WP:	0.000	Y_WP:	0.500	X:	0.025	Y:	-0.021	Z:	0.066	yaw:	0.632	yaw rate:	71.925	Roll:	0.532	Pitch:	3.741	Yaw:	17.248	Thrust:	63.603
Time:	2.912	Roll Set Point:	0.047	Pitch Set Point:	0.039	Yaw Set Point:	-0.005	X_WP:	0.100	Y_WP:	0.000	Y_WP:	0.500	X:	0.027	Y:	-0.020	Z:	0.067	yaw:	0.262	yaw rate:	-36.999	Roll:	0.780	Pitch:	0.031	Yaw:	-7.628	Thrust:	66.788
Time:	2.923	Roll Set Point:	0.043	Pitch Set Point:	0.035	Yaw Set Point:	-0.012	X_WP:	0.100	Y_WP:	0.000	Y_WP:	0.500	X:	0.028	Y:	-0.018	Z:	0.069	yaw:	0.659	yaw rate:	39.748	Roll:	0.252	Pitch:	3.026	Yaw:	10.832	Thrust:	62.544
Time:	2.934	Roll Set Point:	0.039	Pitch Set Point:	0.035	Yaw Set Point:	0.008	X_WP:	0.100	Y_WP:	0.000	Y_WP:	0.500	X:	0.030	Y:	-0.017	Z:	0.070	yaw:	-0.458	yaw rate:	-111.723	Roll:	1.788	Pitch:	-1.029	Yaw:	-27.104	Thrust:	63.955
Time:	2.946	Roll Set Point:	0.033	Pitch Set Point:	0.030	Yaw Set Point:	0.014	X_WP:	0.100	Y_WP:	0.000	Y_WP:	0.500	X:	0.034	Y:	-0.014	Z:	0.073	yaw:	-0.807	yaw rate:	-34.865	Roll:	3.936	Pitch:	3.294	Yaw:	-8.983	Thrust:	59.081
Time:	2.956	Roll Set Point:	0.029	Pitch Set Point:	0.025	Yaw Set Point:	-0.005	X_WP:	0.100	Y_WP:	0.000	Y_WP:	0.500	X:	0.036	Y:	-0.013	Z:	0.076	yaw:	0.259	yaw rate:	106.615	Roll:	1.124	Pitch:	5.097	Yaw:	26.835	Thrust:	59.054
Time:	2.967	Roll Set Point:	0.026	Pitch Set Point:	0.022	Yaw Set Point:	-0.005	X_WP:	0.100	Y_WP:	0.000	Y_WP:	0.500	X:	0.037	Y:	-0.011	Z:	0.078	yaw:	0.260	yaw rate:	0.075	Roll:	0.918	Pitch:	2.661	Yaw:	0.433	Thrust:	61.531
Time:	2.979	Roll Set Point:	0.022	Pitch Set Point:	0.020	Yaw Set Point:	0.005	X_WP:	0.100	Y_WP:	0.000	Y_WP:	0.500	X:	0.039	Y:	-0.010	Z:	0.080	yaw:	-0.299	yaw rate:	-55.881	Roll:	1.328	Pitch:	0.538	Yaw:	-13.030	Thrust:	65.844
Time:	2.989	Roll Set Point:	0.018	Pitch Set Point:	0.016	Yaw Set Point:	0.001	X_WP:	0.100	Y_WP:	0.000	Y_WP:	0.500	X:	0.041	Y:	-0.008	Z:	0.083	yaw:	-0.078	yaw rate:	22.069	Roll:	2.288	Pitch:	3.782	Yaw:	5.428	Thrust:	58.446
Time:	3.000	Roll Set Point:	0.014	Pitch Set Point:	0.013	Yaw Set Point:	-0.002	X_WP:	0.100	Y_WP:	0.000	Y_WP:	0.500	X:	0.043	Y:	-0.007	Z:	0.085	yaw:	0.111	yaw rate:	18.920	Roll:	1.771	Pitch:	3.146	Yaw:	4.904	Thrust:	59.918
Time:	3.011	Roll Set Point:	0.010	Pitch Set Point:	0.010	Yaw Set Point:	-0.001	X_WP:	0.100	Y_WP:	0.000	Y_WP:	0.500	X:	0.045	Y:	-0.005	Z:	0.088	yaw:	0.061	yaw rate:	-5.066	Roll:	1.745	Pitch:	2.542	Yaw:	-1.066	Thrust:	59.069
Time:	3.021	Roll Set Point:	0.006	Pitch Set Point:	0.007	Yaw Set Point:	0.000	X_WP:	0.100	Y_WP:	0.000	Y_WP:	0.500	X:	0.047	Y:	-0.003	Z:	0.090	yaw:	-0.022	yaw rate:	-8.207	Roll:	1.936	Pitch:	2.773	Yaw:	-2.091	Thrust:	61.039
Time:	3.034	Roll Set Point:	0.003	Pitch Set Point:	0.005	Yaw Set Point:	0.014	X_WP:	0.100	Y_WP:	0.000	Y_WP:	0.500	X:	0.049	Y:	-0.002	Z:	0.093	yaw:	-0.822	yaw rate:	-80.044	Roll:	1.140	Pitch:	0.801	Yaw:	-17.163	Thrust:	74.518
Time:	3.045	Roll Set Point:	-0.002	Pitch Set Point:	0.002	Yaw Set Point:	0.029	X_WP:	0.100	Y_WP:	0.000	Y_WP:	0.500	X:	0.051	Y:	-0.000	Z:	0.096	yaw:	-1.677	yaw rate:	-85.480	Roll:	1.746	Pitch:	2.064	Yaw:	-21.691	Thrust:	65.698
Time:	3.057	Roll Set Point:	-0.010	Pitch Set Point:	-0.006	Yaw Set Point:	0.011	X_WP:	0.100	Y_WP:	0.000	Y_WP:	0.500	X:	0.055	Y:	0.003	Z:	0.102	yaw:	-0.646	yaw rate:	103.103	Roll:	5.344	Pitch:	7.300	Yaw:	23.558	Thrust:	47.788
Time:	3.068	Roll Set Point:	-0.013	Pitch Set Point:	-0.009	Yaw Set Point:	0.020	X_WP:	0.100	Y_WP:	0.000	Y_WP:	0.500	X:	0.057	Y:	0.005	Z:	0.105	yaw:	-1.128	yaw rate:	-48.216	Roll:	1.793	Pitch:	2.044	Yaw:	-12.979	Thrust:	61.918
Time:	3.079	Roll Set Point:	-0.017	Pitch Set Point:	-0.012	Yaw Set Point:	0.017	X_WP:	0.100	Y_WP:	0.000	Y_WP:	0.500	X:	0.059	Y:	0.006	Z:	0.108	yaw:	-0.962	yaw rate:	16.604	Roll:	2.298	Pitch:	3.323	Yaw:	2.461	Thrust:	65.400
Time:	3.089	Roll Set Point:	-0.022	Pitch Set Point:	-0.015	Yaw Set Point:	0.036	X_WP:	0.100	Y_WP:	0.000	Y_WP:	0.500	X:	0.061	Y:	0.008	Z:	0.111	yaw:	-2.052	yaw rate:	-109.017	Roll:	2.814	Pitch:	2.732	Yaw:	-31.274	Thrust:	55.866
Time:	3.101	Roll Set Point:	-0.025	Pitch Set Point:	-0.019	Yaw Set Point:	0.017	X_WP:	0.100	Y_WP:	0.000	Y_WP:	0.500	X:	0.063	Y:	0.010	Z:	0.115	yaw:	-1.000	yaw rate:	105.232	Roll:	1.762	Pitch:	3.818	Yaw:	21.520	Thrust:	65.769
Time:	3.112	Roll Set Point:	-0.029	Pitch Set Point:	-0.021	Yaw Set Point:	0.045	X_WP:	0.100	Y_WP:	0.000	Y_WP:	0.500	X:	0.065	Y:	0.011	Z:	0.118	yaw:	-2.600	yaw rate:	-160.003	Roll:	1.942	Pitch:	0.905	Yaw:	-41.588	Thrust:	63.382
Time:	3.123	Roll Set Point:	-0.033	Pitch Set Point:	-0.025	Yaw Set Point:	0.019	X_WP:	0.100	Y_WP:	0.000	Y_WP:	0.500	X:	0.067	Y:	0.013	Z:	0.122	yaw:	-1.108	yaw rate:	149.199	Roll:	2.283	Pitch:	5.136	Yaw:	33.869	Thrust:	60.598
Time:	3.134	Roll Set Point:	-0.038	Pitch Set Point:	-0.029	Yaw Set Point:	0.026	X_WP:	0.100	Y_WP:	0.000	Y_WP:	0.500	X:	0.069	Y:	0.015	Z:	0.126	yaw:	-1.516	yaw rate:	-40.779	Roll:	2.993	Pitch:	3.991	Yaw:	-11.790	Thrust:	61.729
Time:	3.145	Roll Set Point:	-0.041	Pitch Set Point:	-0.032	Yaw Set Point:	0.028	X_WP:	0.100	Y_WP:	0.000	Y_WP:	0.500	X:	0.071	Y:	0.016	Z:	0.130	yaw:	-1.612	yaw rate:	-9.630	Roll:	2.451	Pitch:	2.980	Yaw:	-4.644	Thrust:	58.313
Time:	3.156	Roll Set Point:	-0.045	Pitch Set Point:	-0.034	Yaw Set Point:	0.034	X_WP:	0.100	Y_WP:	0.000	Y_WP:	0.500	X:	0.073	Y:	0.017	Z:	0.133	yaw:	-1.955	yaw rate:	-34.330	Roll:	2.304	Pitch:	1.929	Yaw:	-11.066	Thrust:	62.425
Time:	3.168	Roll Set Point:	-0.050	Pitch Set Point:	-0.037	Yaw Set Point:	0.024	X_WP:	0.100	Y_WP:	0.000	Y_WP:	0.500	X:	0.075	Y:	0.019	Z:	0.137	yaw:	-1.403	yaw rate:	55.264	Roll:	3.089	Pitch:	4.140	Yaw:	11.122	Thrust:	60.398
Time:	3.180	Roll Set Point:	-0.053	Pitch Set Point:	-0.040	Yaw Set Point:	0.037	X_WP:	0.100	Y_WP:	0.000	Y_WP:	0.500	X:	0.077	Y:	0.020	Z:	0.141	yaw:	-2.122	yaw rate:	-71.953	Roll:	1.801	Pitch:	2.314	Yaw:	-17.447	Thrust:	74.619
Time:	3.191	Roll Set Point:	-0.057	Pitch Set Point:	-0.043	Yaw Set Point:	0.034	X_WP:	0.100	Y_WP:	0.000	Y_WP:	0.500	X:	0.079	Y:	0.022	Z:	0.145	yaw:	-1.936	yaw rate:	18.564	Roll:	2.157	Pitch:	3.116	Yaw:	1.478	Thrust:	62.928
Time:	3.202	Roll Set Point:	-0.061	Pitch Set Point:	-0.046	Yaw Set Point:	0.027	X_WP:	0.100	Y_WP:	0.000	Y_WP:	0.500	X:	0.081	Y:	0.023	Z:	0.149	yaw:	-1.566	yaw rate:	37.050	Roll:	3.253	Pitch:	3.613	Yaw:	6.573	Thrust:	64.808
Time:	3.213	Roll Set Point:	-0.073	Pitch Set Point:	-0.054	Yaw Set Point:	0.029	X_WP:	0.100	Y_WP:	0.000	Y_WP:	0.500	X:	0.087	Y:	0.027	Z:	0.160	yaw:	-1.660	yaw rate:	16.520	Roll:	9.756	Pitch:	8.078	Yaw:	-4.590	Thrust:	31.127
Time:	3.224	Roll Set Point:	-0.077	Pitch Set Point:	-0.057	Yaw Set Point:	0.018	X_WP:	0.100	Y_WP:	0.000	Y_WP:	0.500	X:	0.089	Y:	0.028	Z:	0.164	yaw:	-1.030	yaw rate:	63.009	Roll:	3.298	Pitch:	3.325	Yaw:	14.139	Thrust:	60.148
Time:	3.235	Roll Set Point:	-0.077	Pitch Set Point:	-0.057	Yaw Set Point:	0.018	X_WP:	0.100	Y_WP:	0.000	Y_WP:	0.500	X:	0.089	Y:	0.028	Z:	0.164	yaw:	-1.030	yaw rate:	63.009	Roll:	-0.580	Pitch:	0.754	Yaw:	-1.491	Thrust:	81.387
Time:	3.246	Roll Set Point:	-0.084	Pitch Set Point:	-0.060	Yaw Set Point:	0.033	X_WP:	0.100	Y_WP:	0.000	Y_WP:	0.500	X:	0.092	Y:	0.030	Z:	0.171	yaw:	-1.901	yaw rate:	-44.772	Roll:	5.245	Pitch:	4.272	Yaw:	-24.365	Thrust:	44.207
Time:	3.257	Roll Set Point:	-0.088	Pitch Set Point:	-0.063	Yaw Set Point:	0.033	X_WP:	0.100	Y_WP:	0.000	Y_WP:	0.500	X:	0.094	Y:	0.032	Z:	0.175	yaw:	-1.897	yaw rate:	0.417	Roll:	3.380	Pitch:	3.279	Yaw:	-2.612	Thrust:	62.496
Time:	3.268	Roll Set Point:	-0.091	Pitch Set Point:	-0.065	Yaw Set Point:	0.030	X_WP:	0.100	Y_WP:	0.000	Y_WP:	0.500	X:	0.096	Y:	0.032	Z:	0.179	yaw:	-1.736	yaw rate:	16.017	Roll:	2.437	Pitch:	2.463	Yaw:	1.138	Thrust:	67.283
Time:	3.280	Roll Set Point:	-0.095	Pitch Set Point:	-0.067	Yaw Set Point:	0.029	X_WP:	0.100	Y_WP:	0.000	Y_WP:	0.500	X:	0.098	Y:	0.034	Z:	0.183	yaw:	-1.677	yaw rate:	5.948	Roll:	3.382	Pitch:	3.259	Yaw:	-1.006	Thrust:	59.513
Time:	3.291	Roll Set Point:	-0.098	Pitch Set Point:	-0.069	Yaw Set Point:	0.033	X_WP:	0.100	Y_WP:	0.000	Y_WP:	0.500	X:	0.100	Y:	0.035	Z:	0.187	yaw:	-1.882	yaw rate:	-20.472	Roll:	2.429	Pitch:	2.543	Yaw:	-7.346	Thrust:	67.755
Time:	3.303	Roll Set Point:	-0.102	Pitch Set Point:	-0.071	Yaw Set Point:	0.022	X_WP:	0.100	Y_WP:	0.000	Y_WP:	0.500	X:	0.101	Y:	0.035	Z:	0.190	yaw:	-1.273	yaw rate:	60.903	Roll:	3.273	Pitch:	2.350	Yaw:	11.956	Thrust:	71.402
Time:	3.314	Roll Set Point:	-0.105	Pitch Set Point:	-0.072	Yaw Set Point:	0.029	X_WP:	0.100	Y_WP:	0.000	Y_WP:	0.500	X:	0.103	Y:	0.036	Z:	0.194	yaw:	-1.670	yaw rate:	-39.713	Roll:	2.041	Pitch:	2.121	Yaw:	-12.299	Thrust:	62.872
Time:	3.324	Roll Set Point:	-0.108	Pitch Set Point:	-0.074	Yaw Set Point:	0.031	X_WP:	0.100	Y_WP:	0.000	Y_WP:	0.500	X:	0.105	Y:	0.037	Z:	0.198	yaw:	-1.788	yaw rate:	-11.782	Roll:	2.976	Pitch:	2.720	Yaw:	-5.390	Thrust:	63.115
Time:	3.334	Roll Set Point:	-0.112	Pitch Set Point:	-0.075	Yaw Set Point:	0.028	X_WP:	0.100	Y_WP:	0.000	Y_WP:	0.500	X:	0.106	Y:	0.037	Z:	0.201	yaw:	-1.584	yaw rate:	20.383	Roll:	3.624	Pitch:	2.081	Yaw:	3.012	Thrust:	58.969
Time:	3.345	Roll Set Point:	-0.118	Pitch Set Point:	-0.077	Yaw Set Point:	0.027	X_WP:	0.100	Y_WP:	0.000	Y_WP:	0.500	X:	0.109	Y:	0.039	Z:	0.209	yaw:	-1.570	yaw rate:	1.334	Roll:	5.821	Pitch:	3.830	Yaw:	-1.971	Thrust:	39.736
Time:	3.355	Roll Set Point:	-0.121	Pitch Set Point:	-0.078	Yaw Set Point:	0.024	X_WP:	0.100	Y_WP:	0.000	Y_WP:	0.500	X:	0.111	Y:	0.039	Z:	0.213	yaw:	-1.373	yaw rate:	19.763	Roll:	3.149	Pitch:	1.964	Yaw:	3.121	Thrust:	62.497
Time:	3.367	Roll Set Point:	-0.121	Pitch Set Point:	-0.078	Yaw Set Point:	0.024	X_WP:	0.100	Y_WP:	0.000	Y_WP:	0.500	X:	0.111	Y:	0.039	Z:	0.213	yaw:	-1.373	yaw rate:	19.763	Roll:	0.030	Pitch:	1.082	Yaw:	-2.054	Thrust:	86.807
Time:	3.378	Roll Set Point:	-0.126	Pitch Set Point:	-0.079	Yaw Set Point:	0.041	X_WP:	0.100	Y_WP:	0.000	Y_WP:	0.500	X:	0.114	Y:	0.039	Z:	0.220	yaw:	-2.344	yaw rate:	-106.899	Roll:	3.924	Pitch:	2.491	Yaw:	-25.445	Thrust:	56.501
Time:	3.389	Roll Set Point:	-0.129	Pitch Set Point:	-0.080	Yaw Set Point:	0.032	X_WP:	0.100	Y_WP:	0.000	Y_WP:	0.500	X:	0.115	Y:	0.040	Z:	0.223	yaw:	-1.829	yaw rate:	51.429	Roll:	3.173	Pitch:	1.862	Yaw:	9.472	Thrust:	66.305
Time:	3.401	Roll Set Point:	-0.131	Pitch Set Point:	-0.081	Yaw Set Point:	0.033	X_WP:	0.100	Y_WP:	0.000	Y_WP:	0.500	X:	0.116	Y:	0.040	Z:	0.227	yaw:	-1.918	yaw rate:	-8.839	Roll:	2.424	Pitch:	1.620	Yaw:	-4.922	Thrust:	67.994
Time:	3.412	Roll Set Point:	-0.135	Pitch Set Point:	-0.081	Yaw Set Point:	0.030	X_WP:	0.100	Y_WP:	0.000	Y_WP:	0.500	X:	0.118	Y:	0.040	Z:	0.230	yaw:	-1.740	yaw rate:	17.727	Roll:	3.227	Pitch:	1.678	Yaw:	1.434	Thrust:	67.093
Time:	3.422	Roll Set Point:	-0.137	Pitch Set Point:	-0.082	Yaw Set Point:	0.026	X_WP:	0.100	Y_WP:	0.000	Y_WP:	0.500	X:	0.119	Y:	0.041	Z:	0.234	yaw:	-1.515	yaw rate:	22.546	Roll:	2.721	Pitch:	1.439	Yaw:	3.519	Thrust:	65.349
Time:	3.434	Roll Set Point:	-0.139	Pitch Set Point:	-0.082	Yaw Set Point:	0.024	X_WP:	0.100	Y_WP:	0.000	Y_WP:	0.500	X:	0.120	Y:	0.041	Z:	0.237	yaw:	-1.362	yaw rate:	15.321	Roll:	2.596	Pitch:	1.453	Yaw:	1.250	Thrust:	75.786
Time:	3.445	Roll Set Point:	-0.142	Pitch Set Point:	-0.082	Yaw Set Point:	0.018	X_WP:	0.100	Y_WP:	0.000	Y_WP:	0.500	X:	0.121	Y:	0.041	Z:	0.240	yaw:	-1.006	yaw rate:	35.552	Roll:	2.483	Pitch:	1.050	Yaw:	6.859	Thrust:	65.612
Time:	3.458	Roll Set Point:	-0.146	Pitch Set Point:	-0.082	Yaw Set Point:	0.021	X_WP:	0.100	Y_WP:	0.000	Y_WP:	0.500	X:	0.123	Y:	0.041	Z:	0.246	yaw:	-1.221	yaw rate:	-21.480	Roll:	3.568	Pitch:	0.917	Yaw:	-6.382	Thrust:	72.807
Time:	3.469	Roll Set Point:	-0.147	Pitch Set Point:	-0.081	Yaw Set Point:	0.024	X_WP:	0.100	Y_WP:	0.000	Y_WP:	0.500	X:	0.124	Y:	0.040	Z:	0.249	yaw:	-1.390	yaw rate:	-16.909	Roll:	1.694	Pitch:	0.613	Yaw:	-5.970	Thrust:	70.599
Time:	3.481	Roll Set Point:	-0.149	Pitch Set Point:	-0.080	Yaw Set Point:	0.020	X_WP:	0.100	Y_WP:	0.000	Y_WP:	0.500	X:	0.125	Y:	0.040	Z:	0.252	yaw:	-1.149	yaw rate:	24.106	Roll:	2.268	Pitch:	0.520	Yaw:	3.438	Thrust:	80.660
Time:	3.496	Roll Set Point:	-0.151	Pitch Set Point:	-0.081	Yaw Set Point:	0.037	X_WP:	0.100	Y_WP:	0.000	Y_WP:	0.500	X:	0.126	Y:	0.040	Z:	0.255	yaw:	-2.121	yaw rate:	-97.234	Roll:	1.168	Pitch:	1.634	Yaw:	-21.780	Thrust:	85.584
Time:	3.512	Roll Set Point:	-0.154	Pitch Set Point:	-0.079	Yaw Set Point:	0.036	X_WP:	0.100	Y_WP:	0.000	Y_WP:	0.500	X:	0.128	Y:	0.039	Z:	0.262	yaw:	-2.076	yaw rate:	-6.276	Roll:	2.065	Pitch:	0.121	Yaw:	-2.472	Thrust:	100.000
Time:	3.525	Roll Set Point:	-0.156	Pitch Set Point:	-0.078	Yaw Set Point:	0.029	X_WP:	0.100	Y_WP:	0.000	Y_WP:	0.500	X:	0.129	Y:	0.039	Z:	0.266	yaw:	-1.641	yaw rate:	43.469	Roll:	2.729	Pitch:	0.633	Yaw:	6.190	Thrust:	82.022
Time:	3.536	Roll Set Point:	-0.158	Pitch Set Point:	-0.078	Yaw Set Point:	0.026	X_WP:	0.100	Y_WP:	0.000	Y_WP:	0.500	X:	0.129	Y:	0.039	Z:	0.269	yaw:	-1.464	yaw rate:	17.682	Roll:	1.901	Pitch:	0.556	Yaw:	1.748	Thrust:	71.215
Time:	3.547	Roll Set Point:	-0.158	Pitch Set Point:	-0.077	Yaw Set Point:	0.031	X_WP:	0.100	Y_WP:	0.000	Y_WP:	0.500	X:	0.130	Y:	0.038	Z:	0.273	yaw:	-1.799	yaw rate:	-33.524	Roll:	1.038	Pitch:	0.154	Yaw:	-10.687	Thrust:	68.703
Time:	3.560	Roll Set Point:	-0.162	Pitch Set Point:	-0.074	Yaw Set Point:	0.011	X_WP:	0.100	Y_WP:	0.000	Y_WP:	0.500	X:	0.131	Y:	0.037	Z:	0.281	yaw:	-0.615	yaw rate:	118.454	Roll:	3.854	Pitch:	-1.614	Yaw:	22.629	Thrust:	58.077
Time:	3.572	Roll Set Point:	-0.162	Pitch Set Point:	-0.073	Yaw Set Point:	0.037	X_WP:	0.100	Y_WP:	0.000	Y_WP:	0.500	X:	0.132	Y:	0.036	Z:	0.285	yaw:	-2.146	yaw rate:	-153.140	Roll:	-0.097	Pitch:	0.651	Yaw:	-38.014	Thrust:	78.895
Time:	3.582	Roll Set Point:	-0.163	Pitch Set Point:	-0.072	Yaw Set Point:	0.024	X_WP:	0.100	Y_WP:	0.000	Y_WP:	0.500	X:	0.132	Y:	0.035	Z:	0.290	yaw:	-1.385	yaw rate:	76.145	Roll:	2.199	Pitch:	-0.371	Yaw:	16.776	Thrust:	56.806
Time:	3.593	Roll Set Point:	-0.164	Pitch Set Point:	-0.070	Yaw Set Point:	0.024	X_WP:	0.100	Y_WP:	0.000	Y_WP:	0.500	X:	0.132	Y:	0.035	Z:	0.295	yaw:	-1.384	yaw rate:	0.086	Roll:	1.620	Pitch:	-0.272	Yaw:	-2.154	Thrust:	63.260
Time:	3.604	Roll Set Point:	-0.164	Pitch Set Point:	-0.069	Yaw Set Point:	0.025	X_WP:	0.100	Y_WP:	0.000	Y_WP:	0.500	X:	0.133	Y:	0.034	Z:	0.300	yaw:	-1.444	yaw rate:	-6.045	Roll:	1.203	Pitch:	-0.048	Yaw:	-3.699	Thrust:	61.386
Time:	3.615	Roll Set Point:	-0.165	Pitch Set Point:	-0.066	Yaw Set Point:	0.020	X_WP:	0.100	Y_WP:	0.000	Y_WP:	0.500	X:	0.133	Y:	0.033	Z:	0.305	yaw:	-1.129	yaw rate:	31.476	Roll:	1.027	Pitch:	-1.690	Yaw:	5.642	Thrust:	61.753
Time:	3.627	Roll Set Point:	-0.165	Pitch Set Point:	-0.065	Yaw Set Point:	0.032	X_WP:	0.100	Y_WP:	0.000	Y_WP:	0.500	X:	0.133	Y:	0.032	Z:	0.311	yaw:	-1.830	yaw rate:	-70.088	Roll:	0.783	Pitch:	0.403	Yaw:	-18.082	Thrust:	60.224
Time:	3.638	Roll Set Point:	-0.166	Pitch Set Point:	-0.064	Yaw Set Point:	0.016	X_WP:	0.100	Y_WP:	0.000	Y_WP:	0.500	X:	0.133	Y:	0.032	Z:	0.317	yaw:	-0.911	yaw rate:	91.984	Roll:	2.390	Pitch:	-1.032	Yaw:	21.344	Thrust:	62.287
Time:	3.649	Roll Set Point:	-0.166	Pitch Set Point:	-0.061	Yaw Set Point:	0.026	X_WP:	0.100	Y_WP:	0.000	Y_WP:	0.500	X:	0.133	Y:	0.030	Z:	0.322	yaw:	-1.472	yaw rate:	-56.140	Roll:	0.319	Pitch:	-0.885	Yaw:	-15.648	Thrust:	59.793
Time:	3.660	Roll Set Point:	-0.167	Pitch Set Point:	-0.059	Yaw Set Point:	0.014	X_WP:	0.100	Y_WP:	0.000	Y_WP:	0.500	X:	0.134	Y:	0.029	Z:	0.329	yaw:	-0.785	yaw rate:	68.689	Roll:	1.832	Pitch:	-1.368	Yaw:	15.719	Thrust:	52.179
Time:	3.671	Roll Set Point:	-0.167	Pitch Set Point:	-0.056	Yaw Set Point:	0.013	X_WP:	0.100	Y_WP:	0.000	Y_WP:	0.500	X:	0.134	Y:	0.028	Z:	0.341	yaw:	-0.762	yaw rate:	2.315	Roll:	1.261	Pitch:	-2.408	Yaw:	-0.827	Thrust:	36.611
Time:	3.682	Roll Set Point:	-0.167	Pitch Set Point:	-0.054	Yaw Set Point:	0.040	X_WP:	0.100	Y_WP:	0.000	Y_WP:	0.500	X:	0.134	Y:	0.026	Z:	0.347	yaw:	-2.316	yaw rate:	-155.394	Roll:	-0.414	Pitch:	-0.355	Yaw:	-42.146	Thrust:	53.276
Time:	3.698	Roll Set Point:	-0.167	Pitch Set Point:	-0.051	Yaw Set Point:	0.018	X_WP:	0.100	Y_WP:	0.000	Y_WP:	0.500	X:	0.134	Y:	0.025	Z:	0.353	yaw:	-1.006	yaw rate:	131.023	Roll:	1.407	Pitch:	-1.879	Yaw:	19.841	Thrust:	79.427
Time:	3.711	Roll Set Point:	-0.168	Pitch Set Point:	-0.047	Yaw Set Point:	0.019	X_WP:	0.100	Y_WP:	0.000	Y_WP:	0.500	X:	0.134	Y:	0.023	Z:	0.366	yaw:	-1.097	yaw rate:	-28.605	Roll:	0.994	Pitch:	-1.483	Yaw:	-3.704	Thrust:	69.136
Time:	3.722	Roll Set Point:	-0.168	Pitch Set Point:	-0.045	Yaw Set Point:	0.014	X_WP:	0.100	Y_WP:	0.000	Y_WP:	0.500	X:	0.134	Y:	0.022	Z:	0.373	yaw:	-0.825	yaw rate:	27.115	Roll:	0.994	Pitch:	-1.526	Yaw:	4.677	Thrust:	59.785
Time:	3.733	Roll Set Point:	-0.168	Pitch Set Point:	-0.043	Yaw Set Point:	0.015	X_WP:	0.100	Y_WP:	0.000	Y_WP:	0.500	X:	0.134	Y:	0.021	Z:	0.379	yaw:	-0.837	yaw rate:	-1.208	Roll:	0.751	Pitch:	-1.476	Yaw:	-1.755	Thrust:	55.408
Time:	3.745	Roll Set Point:	-0.168	Pitch Set Point:	-0.041	Yaw Set Point:	0.015	X_WP:	0.100	Y_WP:	0.000	Y_WP:	0.500	X:	0.134	Y:	0.020	Z:	0.385	yaw:	-0.834	yaw rate:	0.374	Roll:	0.636	Pitch:	-1.509	Yaw:	-1.396	Thrust:	60.866
Time:	3.756	Roll Set Point:	-0.168	Pitch Set Point:	-0.038	Yaw Set Point:	0.013	X_WP:	0.100	Y_WP:	0.000	Y_WP:	0.500	X:	0.134	Y:	0.019	Z:	0.391	yaw:	-0.768	yaw rate:	6.581	Roll:	0.669	Pitch:	-1.373	Yaw:	0.184	Thrust:	56.674
Time:	3.768	Roll Set Point:	-0.167	Pitch Set Point:	-0.033	Yaw Set Point:	-0.010	X_WP:	0.100	Y_WP:	0.000	Y_WP:	0.500	X:	0.134	Y:	0.017	Z:	0.402	yaw:	0.545	yaw rate:	131.284	Roll:	1.013	Pitch:	-4.881	Yaw:	28.990	Thrust:	44.590
Time:	3.779	Roll Set Point:	-0.167	Pitch Set Point:	-0.031	Yaw Set Point:	0.011	X_WP:	0.100	Y_WP:	0.000	Y_WP:	0.500	X:	0.133	Y:	0.015	Z:	0.407	yaw:	-0.603	yaw rate:	-114.758	Roll:	-0.278	Pitch:	-0.502	Yaw:	-29.659	Thrust:	53.431
Time:	3.789	Roll Set Point:	-0.167	Pitch Set Point:	-0.029	Yaw Set Point:	0.016	X_WP:	0.100	Y_WP:	0.000	Y_WP:	0.500	X:	0.134	Y:	0.014	Z:	0.413	yaw:	-0.935	yaw rate:	-33.192	Roll:	0.931	Pitch:	-1.411	Yaw:	-9.822	Thrust:	53.432
Time:	3.800	Roll Set Point:	-0.166	Pitch Set Point:	-0.026	Yaw Set Point:	-0.009	X_WP:	0.100	Y_WP:	0.000	Y_WP:	0.500	X:	0.133	Y:	0.013	Z:	0.418	yaw:	0.500	yaw rate:	143.448	Roll:	0.621	Pitch:	-2.978	Yaw:	32.960	Thrust:	62.003
Time:	3.811	Roll Set Point:	-0.166	Pitch Set Point:	-0.023	Yaw Set Point:	-0.013	X_WP:	0.100	Y_WP:	0.000	Y_WP:	0.500	X:	0.133	Y:	0.012	Z:	0.423	yaw:	0.754	yaw rate:	25.378	Roll:	0.890	Pitch:	-2.404	Yaw:	6.765	Thrust:	58.802
Time:	3.822	Roll Set Point:	-0.166	Pitch Set Point:	-0.021	Yaw Set Point:	0.004	X_WP:	0.100	Y_WP:	0.000	Y_WP:	0.500	X:	0.133	Y:	0.011	Z:	0.428	yaw:	-0.244	yaw rate:	-99.741	Roll:	-0.092	Pitch:	-0.737	Yaw:	-24.975	Thrust:	57.634
Time:	3.834	Roll Set Point:	-0.166	Pitch Set Point:	-0.019	Yaw Set Point:	-0.011	X_WP:	0.100	Y_WP:	0.000	Y_WP:	0.500	X:	0.133	Y:	0.010	Z:	0.433	yaw:	0.656	yaw rate:	90.023	Roll:	0.882	Pitch:	-2.147	Yaw:	20.170	Thrust:	66.473
Time:	3.846	Roll Set Point:	-0.166	Pitch Set Point:	-0.017	Yaw Set Point:	-0.013	X_WP:	0.100	Y_WP:	0.000	Y_WP:	0.500	X:	0.133	Y:	0.009	Z:	0.437	yaw:	0.755	yaw rate:	9.843	Roll:	0.840	Pitch:	-1.956	Yaw:	2.858	Thrust:	65.785
Time:	3.857	Roll Set Point:	-0.165	Pitch Set Point:	-0.015	Yaw Set Point:	-0.007	X_WP:	0.100	Y_WP:	0.000	Y_WP:	0.500	X:	0.133	Y:	0.008	Z:	0.442	yaw:	0.405	yaw rate:	-35.013	Roll:	0.041	Pitch:	-1.307	Yaw:	-8.427	Thrust:	58.419
Time:	3.868	Roll Set Point:	-0.165	Pitch Set Point:	-0.010	Yaw Set Point:	0.004	X_WP:	0.100	Y_WP:	0.000	Y_WP:	0.500	X:	0.132	Y:	0.005	Z:	0.450	yaw:	-0.217	yaw rate:	-62.212	Roll:	0.134	Pitch:	-3.711	Yaw:	-15.376	Thrust:	45.336
Time:	3.879	Roll Set Point:	-0.164	Pitch Set Point:	-0.008	Yaw Set Point:	-0.023	X_WP:	0.100	Y_WP:	0.000	Y_WP:	0.500	X:	0.132	Y:	0.004	Z:	0.455	yaw:	1.290	yaw rate:	150.779	Roll:	0.471	Pitch:	-2.830	Yaw:	35.694	Thrust:	63.171
Time:	3.891	Roll Set Point:	-0.164	Pitch Set Point:	-0.006	Yaw Set Point:	-0.014	X_WP:	0.100	Y_WP:	0.000	Y_WP:	0.500	X:	0.132	Y:	0.003	Z:	0.459	yaw:	0.818	yaw rate:	-47.276	Roll:	0.631	Pitch:	-1.462	Yaw:	-10.347	Thrust:	61.319
Time:	3.902	Roll Set Point:	-0.163	Pitch Set Point:	-0.003	Yaw Set Point:	-0.020	X_WP:	0.100	Y_WP:	0.000	Y_WP:	0.500	X:	0.132	Y:	0.002	Z:	0.463	yaw:	1.125	yaw rate:	30.707	Roll:	0.016	Pitch:	-2.526	Yaw:	8.232	Thrust:	64.110
Time:	3.913	Roll Set Point:	-0.163	Pitch Set Point:	-0.001	Yaw Set Point:	-0.023	X_WP:	0.100	Y_WP:	0.000	Y_WP:	0.500	X:	0.132	Y:	0.001	Z:	0.467	yaw:	1.299	yaw rate:	17.407	Roll:	0.472	Pitch:	-1.643	Yaw:	5.464	Thrust:	66.172
Time:	3.924	Roll Set Point:	-0.162	Pitch Set Point:	0.001	Yaw Set Point:	-0.017	X_WP:	0.100	Y_WP:	0.000	Y_WP:	0.500	X:	0.131	Y:	-0.000	Z:	0.471	yaw:	0.971	yaw rate:	-32.762	Roll:	0.123	Pitch:	-2.456	Yaw:	-7.010	Thrust:	58.862
Time:	3.936	Roll Set Point:	-0.162	Pitch Set Point:	0.003	Yaw Set Point:	-0.018	X_WP:	0.100	Y_WP:	0.000	Y_WP:	0.500	X:	0.131	Y:	-0.001	Z:	0.475	yaw:	1.013	yaw rate:	4.175	Roll:	0.634	Pitch:	-1.480	Yaw:	2.068	Thrust:	63.593
Time:	3.947	Roll Set Point:	-0.161	Pitch Set Point:	0.006	Yaw Set Point:	-0.014	X_WP:	0.100	Y_WP:	0.000	Y_WP:	0.500	X:	0.131	Y:	-0.003	Z:	0.478	yaw:	0.782	yaw rate:	-23.064	Roll:	-0.427	Pitch:	-2.180	Yaw:	-4.660	Thrust:	62.770
Time:	3.958	Roll Set Point:	-0.161	Pitch Set Point:	0.007	Yaw Set Point:	0.003	X_WP:	0.100	Y_WP:	0.000	Y_WP:	0.500	X:	0.131	Y:	-0.004	Z:	0.482	yaw:	-0.168	yaw rate:	-95.073	Roll:	0.776	Pitch:	-1.119	Yaw:	-23.072	Thrust:	62.296
Time:	3.969	Roll Set Point:	-0.161	Pitch Set Point:	0.009	Yaw Set Point:	-0.011	X_WP:	0.100	Y_WP:	0.000	Y_WP:	0.500	X:	0.131	Y:	-0.004	Z:	0.486	yaw:	0.647	yaw rate:	81.541	Roll:	0.634	Pitch:	-2.194	Yaw:	19.109	Thrust:	65.500
Time:	3.980	Roll Set Point:	-0.161	Pitch Set Point:	0.012	Yaw Set Point:	-0.022	X_WP:	0.100	Y_WP:	0.000	Y_WP:	0.500	X:	0.130	Y:	-0.005	Z:	0.489	yaw:	1.288	yaw rate:	64.127	Roll:	0.077	Pitch:	-2.749	Yaw:	16.761	Thrust:	61.575
Time:	3.991	Roll Set Point:	-0.160	Pitch Set Point:	0.014	Yaw Set Point:	-0.032	X_WP:	0.100	Y_WP:	0.000	Y_WP:	0.500	X:	0.130	Y:	-0.006	Z:	0.493	yaw:	1.850	yaw rate:	56.125	Roll:	-0.061	Pitch:	-2.497	Yaw:	16.211	Thrust:	57.087
Time:	4.002	Roll Set Point:	-0.159	Pitch Set Point:	0.016	Yaw Set Point:	-0.031	X_WP:	0.100	Y_WP:	0.000	Y_WP:	0.500	X:	0.130	Y:	-0.007	Z:	0.497	yaw:	1.793	yaw rate:	-5.664	Roll:	-0.140	Pitch:	-1.952	Yaw:	0.945	Thrust:	65.136
Time:	4.013	Roll Set Point:	-0.158	Pitch Set Point:	0.019	Yaw Set Point:	-0.019	X_WP:	0.100	Y_WP:	0.000	Y_WP:	0.500	X:	0.129	Y:	-0.009	Z:	0.504	yaw:	1.062	yaw rate:	-73.044	Roll:	0.204	Pitch:	-3.174	Yaw:	-16.108	Thrust:	43.538
Time:	4.026	Roll Set Point:	-0.158	Pitch Set Point:	0.021	Yaw Set Point:	-0.010	X_WP:	0.100	Y_WP:	0.000	Y_WP:	0.500	X:	0.129	Y:	-0.010	Z:	0.507	yaw:	0.580	yaw rate:	-48.285	Roll:	0.171	Pitch:	-1.510	Yaw:	-9.991	Thrust:	72.336
Time:	4.038	Roll Set Point:	-0.157	Pitch Set Point:	0.025	Yaw Set Point:	-0.026	X_WP:	0.100	Y_WP:	0.000	Y_WP:	0.500	X:	0.129	Y:	-0.012	Z:	0.514	yaw:	1.498	yaw rate:	-3.125	Roll:	-0.334	Pitch:	-4.003	Yaw:	21.810	Thrust:	54.994
Time:	4.049	Roll Set Point:	-0.157	Pitch Set Point:	0.026	Yaw Set Point:	0.010	X_WP:	0.100	Y_WP:	0.000	Y_WP:	0.500	X:	0.129	Y:	-0.013	Z:	0.517	yaw:	-0.597	yaw rate:	-209.500	Roll:	1.540	Pitch:	-0.820	Yaw:	-48.652	Thrust:	66.649
Time:	4.059	Roll Set Point:	-0.157	Pitch Set Point:	0.028	Yaw Set Point:	0.001	X_WP:	0.100	Y_WP:	0.000	Y_WP:	0.500	X:	0.128	Y:	-0.014	Z:	0.521	yaw:	-0.051	yaw rate:	54.594	Roll:	-0.108	Pitch:	-2.098	Yaw:	13.256	Thrust:	56.175
Time:	4.071	Roll Set Point:	-0.155	Pitch Set Point:	0.030	Yaw Set Point:	-0.021	X_WP:	0.100	Y_WP:	0.000	Y_WP:	0.500	X:	0.128	Y:	-0.015	Z:	0.525	yaw:	1.199	yaw rate:	125.043	Roll:	-0.834	Pitch:	-3.298	Yaw:	29.803	Thrust:	63.624
Time:	4.081	Roll Set Point:	-0.155	Pitch Set Point:	0.032	Yaw Set Point:	-0.019	X_WP:	0.100	Y_WP:	0.000	Y_WP:	0.500	X:	0.128	Y:	-0.016	Z:	0.528	yaw:	1.087	yaw rate:	-11.283	Roll:	-0.019	Pitch:	-1.669	Yaw:	-1.517	Thrust:	55.665
Time:	4.095	Roll Set Point:	-0.154	Pitch Set Point:	0.034	Yaw Set Point:	-0.021	X_WP:	0.100	Y_WP:	0.000	Y_WP:	0.500	X:	0.127	Y:	-0.017	Z:	0.532	yaw:	1.216	yaw rate:	12.915	Roll:	-0.012	Pitch:	-2.002	Yaw:	4.000	Thrust:	76.526
Time:	4.112	Roll Set Point:	-0.154	Pitch Set Point:	0.035	Yaw Set Point:	-0.020	X_WP:	0.100	Y_WP:	0.000	Y_WP:	0.500	X:	0.127	Y:	-0.017	Z:	0.535	yaw:	1.166	yaw rate:	-5.008	Roll:	0.352	Pitch:	-1.621	Yaw:	0.459	Thrust:	95.258
Time:	4.124	Roll Set Point:	-0.153	Pitch Set Point:	0.038	Yaw Set Point:	-0.014	X_WP:	0.100	Y_WP:	0.000	Y_WP:	0.500	X:	0.127	Y:	-0.019	Z:	0.542	yaw:	0.803	yaw rate:	-12.691	Roll:	-0.007	Pitch:	-2.196	Yaw:	-6.414	Thrust:	64.101
Time:	4.136	Roll Set Point:	-0.152	Pitch Set Point:	0.041	Yaw Set Point:	-0.016	X_WP:	0.100	Y_WP:	0.000	Y_WP:	0.500	X:	0.126	Y:	-0.020	Z:	0.548	yaw:	0.899	yaw rate:	9.604	Roll:	-0.554	Pitch:	-3.222	Yaw:	3.008	Thrust:	55.395
Time:	4.147	Roll Set Point:	-0.152	Pitch Set Point:	0.042	Yaw Set Point:	-0.006	X_WP:	0.100	Y_WP:	0.000	Y_WP:	0.500	X:	0.126	Y:	-0.021	Z:	0.551	yaw:	0.329	yaw rate:	-57.064	Roll:	1.319	Pitch:	-1.481	Yaw:	-13.305	Thrust:	65.546
Time:	4.159	Roll Set Point:	-0.152	Pitch Set Point:	0.043	Yaw Set Point:	0.004	X_WP:	0.100	Y_WP:	0.000	Y_WP:	0.500	X:	0.126	Y:	-0.022	Z:	0.554	yaw:	-0.212	yaw rate:	-54.050	Roll:	0.639	Pitch:	-1.575	Yaw:	-12.759	Thrust:	64.150
Time:	4.172	Roll Set Point:	-0.151	Pitch Set Point:	0.045	Yaw Set Point:	-0.015	X_WP:	0.100	Y_WP:	0.000	Y_WP:	0.500	X:	0.126	Y:	-0.022	Z:	0.557	yaw:	0.848	yaw rate:	106.004	Roll:	-0.762	Pitch:	-2.378	Yaw:	21.415	Thrust:	79.049
Time:	4.183	Roll Set Point:	-0.151	Pitch Set Point:	0.046	Yaw Set Point:	-0.013	X_WP:	0.100	Y_WP:	0.000	Y_WP:	0.500	X:	0.125	Y:	-0.023	Z:	0.560	yaw:	0.768	yaw rate:	-8.070	Roll:	0.245	Pitch:	-1.894	Yaw:	-1.059	Thrust:	59.538
Time:	4.194	Roll Set Point:	-0.150	Pitch Set Point:	0.048	Yaw Set Point:	-0.016	X_WP:	0.100	Y_WP:	0.000	Y_WP:	0.500	X:	0.125	Y:	-0.024	Z:	0.563	yaw:	0.911	yaw rate:	14.380	Roll:	-0.095	Pitch:	-2.008	Yaw:	4.471	Thrust:	55.187
Time:	4.204	Roll Set Point:	-0.149	Pitch Set Point:	0.049	Yaw Set Point:	-0.014	X_WP:	0.100	Y_WP:	0.000	Y_WP:	0.500	X:	0.125	Y:	-0.024	Z:	0.566	yaw:	0.779	yaw rate:	-13.198	Roll:	-0.028	Pitch:	-1.597	Yaw:	-2.393	Thrust:	58.641
Time:	4.215	Roll Set Point:	-0.149	Pitch Set Point:	0.050	Yaw Set Point:	-0.019	X_WP:	0.100	Y_WP:	0.000	Y_WP:	0.500	X:	0.125	Y:	-0.025	Z:	0.569	yaw:	1.067	yaw rate:	28.762	Roll:	-0.074	Pitch:	-2.097	Yaw:	8.112	Thrust:	58.900
Time:	4.233	Roll Set Point:	-0.149	Pitch Set Point:	0.051	Yaw Set Point:	-0.007	X_WP:	0.100	Y_WP:	0.000	Y_WP:	0.500	X:	0.125	Y:	-0.025	Z:	0.572	yaw:	0.402	yaw rate:	-66.529	Roll:	1.064	Pitch:	-0.952	Yaw:	-9.962	Thrust:	74.161
Time:	4.245	Roll Set Point:	-0.147	Pitch Set Point:	0.054	Yaw Set Point:	-0.019	X_WP:	0.100	Y_WP:	0.000	Y_WP:	0.500	X:	0.124	Y:	-0.027	Z:	0.582	yaw:	1.079	yaw rate:	57.666	Roll:	-1.052	Pitch:	-2.905	Yaw:	16.030	Thrust:	76.861
Time:	4.256	Roll Set Point:	-0.147	Pitch Set Point:	0.055	Yaw Set Point:	-0.011	X_WP:	0.100	Y_WP:	0.000	Y_WP:	0.500	X:	0.124	Y:	-0.027	Z:	0.585	yaw:	0.613	yaw rate:	-46.655	Roll:	0.650	Pitch:	-1.487	Yaw:	-10.415	Thrust:	57.799
Time:	4.267	Roll Set Point:	-0.146	Pitch Set Point:	0.056	Yaw Set Point:	-0.013	X_WP:	0.100	Y_WP:	0.000	Y_WP:	0.500	X:	0.123	Y:	-0.028	Z:	0.589	yaw:	0.741	yaw rate:	12.806	Roll:	-0.086	Pitch:	-1.766	Yaw:	3.880	Thrust:	56.382
Time:	4.277	Roll Set Point:	-0.146	Pitch Set Point:	0.057	Yaw Set Point:	-0.019	X_WP:	0.100	Y_WP:	0.000	Y_WP:	0.500	X:	0.123	Y:	-0.028	Z:	0.591	yaw:	1.064	yaw rate:	32.330	Roll:	0.066	Pitch:	-2.442	Yaw:	9.341	Thrust:	49.649
Time:	4.288	Roll Set Point:	-0.145	Pitch Set Point:	0.058	Yaw Set Point:	-0.026	X_WP:	0.100	Y_WP:	0.000	Y_WP:	0.500	X:	0.123	Y:	-0.029	Z:	0.595	yaw:	1.466	yaw rate:	40.205	Roll:	-0.529	Pitch:	-1.739	Yaw:	11.399	Thrust:	59.178
Time:	4.300	Roll Set Point:	-0.145	Pitch Set Point:	0.058	Yaw Set Point:	-0.017	X_WP:	0.100	Y_WP:	0.000	Y_WP:	0.500	X:	0.123	Y:	-0.029	Z:	0.598	yaw:	0.978	yaw rate:	-48.771	Roll:	0.728	Pitch:	-1.033	Yaw:	-9.439	Thrust:	63.378
Time:	4.313	Roll Set Point:	-0.145	Pitch Set Point:	0.059	Yaw Set Point:	-0.017	X_WP:	0.100	Y_WP:	0.000	Y_WP:	0.500	X:	0.123	Y:	-0.029	Z:	0.601	yaw:	0.995	yaw rate:	1.661	Roll:	0.065	Pitch:	-1.650	Yaw:	1.534	Thrust:	67.062
Time:	4.324	Roll Set Point:	-0.145	Pitch Set Point:	0.060	Yaw Set Point:	-0.015	X_WP:	0.100	Y_WP:	0.000	Y_WP:	0.500	X:	0.123	Y:	-0.030	Z:	0.605	yaw:	0.861	yaw rate:	-13.426	Roll:	0.363	Pitch:	-1.529	Yaw:	-2.099	Thrust:	57.260
Time:	4.335	Roll Set Point:	-0.144	Pitch Set Point:	0.061	Yaw Set Point:	-0.020	X_WP:	0.100	Y_WP:	0.000	Y_WP:	0.500	X:	0.122	Y:	-0.030	Z:	0.608	yaw:	1.164	yaw rate:	30.331	Roll:	-0.278	Pitch:	-1.628	Yaw:	8.332	Thrust:	59.124
Time:	4.347	Roll Set Point:	-0.144	Pitch Set Point:	0.062	Yaw Set Point:	-0.023	X_WP:	0.100	Y_WP:	0.000	Y_WP:	0.500	X:	0.122	Y:	-0.031	Z:	0.611	yaw:	1.328	yaw rate:	16.408	Roll:	-0.217	Pitch:	-1.768	Yaw:	5.583	Thrust:	54.870
Time:	4.358	Roll Set Point:	-0.143	Pitch Set Point:	0.063	Yaw Set Point:	-0.014	X_WP:	0.100	Y_WP:	0.000	Y_WP:	0.500	X:	0.122	Y:	-0.031	Z:	0.617	yaw:	0.798	yaw rate:	-53.040	Roll:	0.419	Pitch:	-1.955	Yaw:	-11.082	Thrust:	48.306
Time:	4.371	Roll Set Point:	-0.143	Pitch Set Point:	0.064	Yaw Set Point:	-0.009	X_WP:	0.100	Y_WP:	0.000	Y_WP:	0.500	X:	0.122	Y:	-0.032	Z:	0.620	yaw:	0.502	yaw rate:	-29.536	Roll:	0.388	Pitch:	-1.319	Yaw:	-5.645	Thrust:	66.271
Time:	4.382	Roll Set Point:	-0.142	Pitch Set Point:	0.065	Yaw Set Point:	-0.017	X_WP:	0.100	Y_WP:	0.000	Y_WP:	0.500	X:	0.121	Y:	-0.032	Z:	0.622	yaw:	0.973	yaw rate:	47.085	Roll:	-0.528	Pitch:	-2.150	Yaw:	12.379	Thrust:	55.113
Time:	4.393	Roll Set Point:	-0.142	Pitch Set Point:	0.065	Yaw Set Point:	-0.016	X_WP:	0.100	Y_WP:	0.000	Y_WP:	0.500	X:	0.121	Y:	-0.032	Z:	0.625	yaw:	0.892	yaw rate:	-8.150	Roll:	0.195	Pitch:	-1.445	Yaw:	-0.841	Thrust:	54.958
Time:	4.404	Roll Set Point:	-0.141	Pitch Set Point:	0.066	Yaw Set Point:	-0.016	X_WP:	0.100	Y_WP:	0.000	Y_WP:	0.500	X:	0.121	Y:	-0.033	Z:	0.628	yaw:	0.918	yaw rate:	2.594	Roll:	-0.409	Pitch:	-1.498	Yaw:	1.715	Thrust:	54.188
Time:	4.415	Roll Set Point:	-0.141	Pitch Set Point:	0.066	Yaw Set Point:	-0.016	X_WP:	0.100	Y_WP:	0.000	Y_WP:	0.500	X:	0.121	Y:	-0.033	Z:	0.631	yaw:	0.920	yaw rate:	0.250	Roll:	0.769	Pitch:	-0.880	Yaw:	1.199	Thrust:	58.638
Time:	4.428	Roll Set Point:	-0.142	Pitch Set Point:	0.066	Yaw Set Point:	0.004	X_WP:	0.100	Y_WP:	0.000	Y_WP:	0.500	X:	0.121	Y:	-0.033	Z:	0.633	yaw:	-0.226	yaw rate:	-114.574	Roll:	1.523	Pitch:	-1.230	Yaw:	-23.496	Thrust:	70.426
Time:	4.445	Roll Set Point:	-0.141	Pitch Set Point:	0.067	Yaw Set Point:	-0.001	X_WP:	0.100	Y_WP:	0.000	Y_WP:	0.500	X:	0.121	Y:	-0.033	Z:	0.636	yaw:	0.084	yaw rate:	30.975	Roll:	-0.430	Pitch:	-1.390	Yaw:	4.963	Thrust:	90.728
Time:	4.456	Roll Set Point:	-0.140	Pitch Set Point:	0.068	Yaw Set Point:	-0.015	X_WP:	0.100	Y_WP:	0.000	Y_WP:	0.500	X:	0.120	Y:	-0.034	Z:	0.642	yaw:	0.879	yaw rate:	-67.869	Roll:	-1.170	Pitch:	-2.313	Yaw:	18.279	Thrust:	46.459
Time:	4.467	Roll Set Point:	-0.139	Pitch Set Point:	0.068	Yaw Set Point:	-0.023	X_WP:	0.100	Y_WP:	0.000	Y_WP:	0.500	X:	0.120	Y:	-0.034	Z:	0.644	yaw:	1.319	yaw rate:	44.039	Roll:	-0.270	Pitch:	-1.463	Yaw:	12.158	Thrust:	55.520
Time:	4.479	Roll Set Point:	-0.139	Pitch Set Point:	0.069	Yaw Set Point:	-0.023	X_WP:	0.100	Y_WP:	0.000	Y_WP:	0.500	X:	0.120	Y:	-0.034	Z:	0.646	yaw:	1.318	yaw rate:	-0.081	Roll:	0.070	Pitch:	-1.512	Yaw:	1.682	Thrust:	59.039
Time:	4.499	Roll Set Point:	-0.138	Pitch Set Point:	0.070	Yaw Set Point:	-0.027	X_WP:	0.100	Y_WP:	0.000	Y_WP:	0.500	X:	0.120	Y:	-0.035	Z:	0.648	yaw:	1.551	yaw rate:	23.328	Roll:	-0.180	Pitch:	-1.498	Yaw:	5.040	Thrust:	100.000
Time:	4.512	Roll Set Point:	-0.139	Pitch Set Point:	0.070	Yaw Set Point:	-0.007	X_WP:	0.100	Y_WP:	0.000	Y_WP:	0.500	X:	0.119	Y:	-0.035	Z:	0.652	yaw:	0.382	yaw rate:	-86.352	Roll:	1.182	Pitch:	-1.449	Yaw:	-23.106	Thrust:	58.876
Time:	4.523	Roll Set Point:	-0.138	Pitch Set Point:	0.070	Yaw Set Point:	-0.019	X_WP:	0.100	Y_WP:	0.000	Y_WP:	0.500	X:	0.119	Y:	-0.035	Z:	0.655	yaw:	1.103	yaw rate:	72.102	Roll:	-0.734	Pitch:	-0.940	Yaw:	17.775	Thrust:	60.790
Time:	4.534	Roll Set Point:	-0.137	Pitch Set Point:	0.071	Yaw Set Point:	-0.018	X_WP:	0.100	Y_WP:	0.000	Y_WP:	0.500	X:	0.119	Y:	-0.035	Z:	0.657	yaw:	1.045	yaw rate:	-5.790	Roll:	-0.074	Pitch:	-1.834	Yaw:	-0.032	Thrust:	54.267
Time:	4.545	Roll Set Point:	-0.138	Pitch Set Point:	0.071	Yaw Set Point:	0.005	X_WP:	0.100	Y_WP:	0.000	Y_WP:	0.500	X:	0.119	Y:	-0.035	Z:	0.659	yaw:	-0.302	yaw rate:	-134.737	Roll:	2.270	Pitch:	-0.448	Yaw:	-34.013	Thrust:	47.007
Time:	4.556	Roll Set Point:	-0.137	Pitch Set Point:	0.071	Yaw Set Point:	-0.016	X_WP:	0.100	Y_WP:	0.000	Y_WP:	0.500	X:	0.119	Y:	-0.035	Z:	0.663	yaw:	0.917	yaw rate:	121.849	Roll:	-1.887	Pitch:	-1.653	Yaw:	30.821	Thrust:	46.317
Time:	4.568	Roll Set Point:	-0.137	Pitch Set Point:	0.071	Yaw Set Point:	-0.010	X_WP:	0.100	Y_WP:	0.000	Y_WP:	0.500	X:	0.118	Y:	-0.036	Z:	0.665	yaw:	0.600	yaw rate:	-31.640	Roll:	0.471	Pitch:	-1.322	Yaw:	-6.780	Thrust:	52.739
Time:	4.578	Roll Set Point:	-0.136	Pitch Set Point:	0.072	Yaw Set Point:	-0.008	X_WP:	0.100	Y_WP:	0.000	Y_WP:	0.500	X:	0.118	Y:	-0.036	Z:	0.667	yaw:	0.465	yaw rate:	-13.491	Roll:	0.205	Pitch:	-1.388	Yaw:	-2.527	Thrust:	56.806
Time:	4.590	Roll Set Point:	-0.136	Pitch Set Point:	0.072	Yaw Set Point:	-0.020	X_WP:	0.100	Y_WP:	0.000	Y_WP:	0.500	X:	0.118	Y:	-0.036	Z:	0.669	yaw:	1.123	yaw rate:	65.767	Roll:	-0.699	Pitch:	-1.182	Yaw:	17.696	Thrust:	50.143
Time:	4.602	Roll Set Point:	-0.135	Pitch Set Point:	0.072	Yaw Set Point:	-0.026	X_WP:	0.100	Y_WP:	0.000	Y_WP:	0.500	X:	0.118	Y:	-0.036	Z:	0.671	yaw:	1.493	yaw rate:	36.965	Roll:	-0.506	Pitch:	-1.529	Yaw:	9.380	Thrust:	66.849
Time:	4.613	Roll Set Point:	-0.135	Pitch Set Point:	0.072	Yaw Set Point:	-0.013	X_WP:	0.100	Y_WP:	0.000	Y_WP:	0.500	X:	0.118	Y:	-0.036	Z:	0.672	yaw:	0.756	yaw rate:	-73.662	Roll:	1.104	Pitch:	-0.929	Yaw:	-16.532	Thrust:	54.246
Time:	4.623	Roll Set Point:	-0.135	Pitch Set Point:	0.072	Yaw Set Point:	-0.015	X_WP:	0.100	Y_WP:	0.000	Y_WP:	0.500	X:	0.118	Y:	-0.036	Z:	0.674	yaw:	0.887	yaw rate:	13.146	Roll:	-0.181	Pitch:	-1.411	Yaw:	4.417	Thrust:	48.824
Time:	4.634	Roll Set Point:	-0.134	Pitch Set Point:	0.072	Yaw Set Point:	-0.012	X_WP:	0.100	Y_WP:	0.000	Y_WP:	0.500	X:	0.117	Y:	-0.036	Z:	0.675	yaw:	0.681	yaw rate:	-20.591	Roll:	0.195	Pitch:	-1.122	Yaw:	-4.026	Thrust:	54.560
Time:	4.646	Roll Set Point:	-0.134	Pitch Set Point:	0.073	Yaw Set Point:	-0.013	X_WP:	0.100	Y_WP:	0.000	Y_WP:	0.500	X:	0.117	Y:	-0.036	Z:	0.676	yaw:	0.727	yaw rate:	4.574	Roll:	0.065	Pitch:	-1.289	Yaw:	1.962	Thrust:	57.024
Time:	4.657	Roll Set Point:	-0.133	Pitch Set Point:	0.073	Yaw Set Point:	-0.019	X_WP:	0.100	Y_WP:	0.000	Y_WP:	0.500	X:	0.117	Y:	-0.036	Z:	0.678	yaw:	1.094	yaw rate:	36.698	Roll:	-0.713	Pitch:	-1.652	Yaw:	10.425	Thrust:	51.617
Time:	4.668	Roll Set Point:	-0.133	Pitch Set Point:	0.073	Yaw Set Point:	-0.018	X_WP:	0.100	Y_WP:	0.000	Y_WP:	0.500	X:	0.117	Y:	-0.036	Z:	0.679	yaw:	1.028	yaw rate:	-6.604	Roll:	-0.109	Pitch:	-0.760	Yaw:	-0.213	Thrust:	52.870
Time:	4.678	Roll Set Point:	-0.133	Pitch Set Point:	0.073	Yaw Set Point:	-0.019	X_WP:	0.100	Y_WP:	0.000	Y_WP:	0.500	X:	0.117	Y:	-0.037	Z:	0.680	yaw:	1.110	yaw rate:	8.226	Roll:	0.087	Pitch:	-1.813	Yaw:	3.522	Thrust:	52.751
Time:	4.689	Roll Set Point:	-0.132	Pitch Set Point:	0.073	Yaw Set Point:	-0.017	X_WP:	0.100	Y_WP:	0.000	Y_WP:	0.500	X:	0.116	Y:	-0.036	Z:	0.681	yaw:	0.979	yaw rate:	-13.147	Roll:	0.020	Pitch:	-0.665	Yaw:	-1.918	Thrust:	51.143
Time:	4.700	Roll Set Point:	-0.131	Pitch Set Point:	0.073	Yaw Set Point:	-0.023	X_WP:	0.100	Y_WP:	0.000	Y_WP:	0.500	X:	0.116	Y:	-0.036	Z:	0.682	yaw:	1.318	yaw rate:	33.929	Roll:	-0.904	Pitch:	-1.520	Yaw:	9.466	Thrust:	57.841
Time:	4.712	Roll Set Point:	-0.131	Pitch Set Point:	0.074	Yaw Set Point:	-0.015	X_WP:	0.100	Y_WP:	0.000	Y_WP:	0.500	X:	0.116	Y:	-0.037	Z:	0.682	yaw:	0.833	yaw rate:	-48.534	Roll:	0.694	Pitch:	-1.305	Yaw:	-9.923	Thrust:	58.187
Time:	4.723	Roll Set Point:	-0.130	Pitch Set Point:	0.074	Yaw Set Point:	-0.021	X_WP:	0.100	Y_WP:	0.000	Y_WP:	0.500	X:	0.115	Y:	-0.037	Z:	0.683	yaw:	1.177	yaw rate:	34.459	Roll:	-1.226	Pitch:	-1.258	Yaw:	9.756	Thrust:	54.360
Time:	4.734	Roll Set Point:	-0.130	Pitch Set Point:	0.074	Yaw Set Point:	-0.022	X_WP:	0.100	Y_WP:	0.000	Y_WP:	0.500	X:	0.115	Y:	-0.037	Z:	0.683	yaw:	1.234	yaw rate:	5.623	Roll:	0.225	Pitch:	-1.293	Yaw:	3.001	Thrust:	57.254
Time:	4.745	Roll Set Point:	-0.130	Pitch Set Point:	0.074	Yaw Set Point:	-0.015	X_WP:	0.100	Y_WP:	0.000	Y_WP:	0.500	X:	0.115	Y:	-0.037	Z:	0.683	yaw:	0.876	yaw rate:	-35.743	Roll:	0.609	Pitch:	-1.116	Yaw:	-8.151	Thrust:	51.719
Time:	4.755	Roll Set Point:	-0.130	Pitch Set Point:	0.074	Yaw Set Point:	-0.015	X_WP:	0.100	Y_WP:	0.000	Y_WP:	0.500	X:	0.115	Y:	-0.037	Z:	0.682	yaw:	0.836	yaw rate:	-3.978	Roll:	-0.038	Pitch:	-1.189	Yaw:	0.133	Thrust:	54.353
Time:	4.768	Roll Set Point:	-0.129	Pitch Set Point:	0.074	Yaw Set Point:	-0.016	X_WP:	0.100	Y_WP:	0.000	Y_WP:	0.500	X:	0.115	Y:	-0.037	Z:	0.682	yaw:	0.904	yaw rate:	6.735	Roll:	-0.102	Pitch:	-1.139	Yaw:	2.677	Thrust:	63.888
Time:	4.779	Roll Set Point:	-0.129	Pitch Set Point:	0.074	Yaw Set Point:	-0.016	X_WP:	0.100	Y_WP:	0.000	Y_WP:	0.500	X:	0.115	Y:	-0.037	Z:	0.682	yaw:	0.910	yaw rate:	0.640	Roll:	-0.211	Pitch:	-1.029	Yaw:	1.366	Thrust:	63.177
Time:	4.790	Roll Set Point:	-0.129	Pitch Set Point:	0.074	Yaw Set Point:	-0.002	X_WP:	0.100	Y_WP:	0.000	Y_WP:	0.500	X:	0.114	Y:	-0.037	Z:	0.680	yaw:	0.132	yaw rate:	-85.926	Roll:	0.762	Pitch:	-1.503	Yaw:	-18.294	Thrust:	62.185
Time:	4.801	Roll Set Point:	-0.127	Pitch Set Point:	0.074	Yaw Set Point:	-0.023	X_WP:	0.100	Y_WP:	0.000	Y_WP:	0.500	X:	0.114	Y:	-0.037	Z:	0.679	yaw:	1.330	yaw rate:	119.782	Roll:	-1.993	Pitch:	-1.129	Yaw:	28.989	Thrust:	58.169
Time:	4.812	Roll Set Point:	-0.127	Pitch Set Point:	0.074	Yaw Set Point:	-0.014	X_WP:	0.100	Y_WP:	0.000	Y_WP:	0.500	X:	0.114	Y:	-0.037	Z:	0.678	yaw:	0.819	yaw rate:	-51.043	Roll:	0.637	Pitch:	-1.277	Yaw:	-11.004	Thrust:	59.520
Time:	4.824	Roll Set Point:	-0.127	Pitch Set Point:	0.075	Yaw Set Point:	-0.006	X_WP:	0.100	Y_WP:	0.000	Y_WP:	0.500	X:	0.113	Y:	-0.037	Z:	0.677	yaw:	0.344	yaw rate:	-47.517	Roll:	0.116	Pitch:	-1.417	Yaw:	-11.239	Thrust:	61.247
Time:	4.834	Roll Set Point:	-0.126	Pitch Set Point:	0.075	Yaw Set Point:	-0.019	X_WP:	0.100	Y_WP:	0.000	Y_WP:	0.500	X:	0.113	Y:	-0.037	Z:	0.676	yaw:	1.109	yaw rate:	76.552	Roll:	-1.117	Pitch:	-1.126	Yaw:	19.692	Thrust:	58.619
Time:	4.845	Roll Set Point:	-0.124	Pitch Set Point:	0.075	Yaw Set Point:	-0.034	X_WP:	0.100	Y_WP:	0.000	Y_WP:	0.500	X:	0.113	Y:	-0.037	Z:	0.674	yaw:	1.922	yaw rate:	81.297	Roll:	-1.864	Pitch:	-1.402	Yaw:	21.110	Thrust:	68.440
Time:	4.856	Roll Set Point:	-0.124	Pitch Set Point:	0.074	Yaw Set Point:	-0.030	X_WP:	0.100	Y_WP:	0.000	Y_WP:	0.500	X:	0.113	Y:	-0.037	Z:	0.672	yaw:	1.702	yaw rate:	-22.059	Roll:	0.436	Pitch:	-0.979	Yaw:	-3.363	Thrust:	56.567
Time:	4.867	Roll Set Point:	-0.124	Pitch Set Point:	0.075	Yaw Set Point:	-0.026	X_WP:	0.100	Y_WP:	0.000	Y_WP:	0.500	X:	0.113	Y:	-0.037	Z:	0.671	yaw:	1.496	yaw rate:	-20.618	Roll:	0.274	Pitch:	-1.155	Yaw:	-2.815	Thrust:	60.661
Time:	4.877	Roll Set Point:	-0.124	Pitch Set Point:	0.075	Yaw Set Point:	-0.016	X_WP:	0.100	Y_WP:	0.000	Y_WP:	0.500	X:	0.112	Y:	-0.037	Z:	0.669	yaw:	0.922	yaw rate:	-57.363	Roll:	0.425	Pitch:	-1.207	Yaw:	-12.977	Thrust:	59.092
Time:	4.888	Roll Set Point:	-0.123	Pitch Set Point:	0.075	Yaw Set Point:	-0.027	X_WP:	0.100	Y_WP:	0.000	Y_WP:	0.500	X:	0.112	Y:	-0.037	Z:	0.667	yaw:	1.533	yaw rate:	61.073	Roll:	-0.887	Pitch:	-1.342	Yaw:	16.636	Thrust:	60.198
Time:	4.899	Roll Set Point:	-0.123	Pitch Set Point:	0.075	Yaw Set Point:	-0.022	X_WP:	0.100	Y_WP:	0.000	Y_WP:	0.500	X:	0.112	Y:	-0.037	Z:	0.666	yaw:	1.278	yaw rate:	-25.443	Roll:	0.146	Pitch:	-1.309	Yaw:	-4.244	Thrust:	61.745
Time:	4.912	Roll Set Point:	-0.122	Pitch Set Point:	0.075	Yaw Set Point:	-0.037	X_WP:	0.100	Y_WP:	0.000	Y_WP:	0.500	X:	0.112	Y:	-0.037	Z:	0.664	yaw:	2.143	yaw rate:	86.497	Roll:	-1.458	Pitch:	-1.393	Yaw:	21.072	Thrust:	67.663
Time:	4.924	Roll Set Point:	-0.122	Pitch Set Point:	0.075	Yaw Set Point:	-0.020	X_WP:	0.100	Y_WP:	0.000	Y_WP:	0.500	X:	0.111	Y:	-0.037	Z:	0.662	yaw:	1.161	yaw rate:	-98.238	Roll:	1.179	Pitch:	-0.903	Yaw:	-19.530	Thrust:	62.225
Time:	4.935	Roll Set Point:	-0.121	Pitch Set Point:	0.075	Yaw Set Point:	-0.035	X_WP:	0.100	Y_WP:	0.000	Y_WP:	0.500	X:	0.111	Y:	-0.037	Z:	0.661	yaw:	2.003	yaw rate:	84.190	Roll:	-1.904	Pitch:	-1.513	Yaw:	22.804	Thrust:	59.634
Time:	4.946	Roll Set Point:	-0.121	Pitch Set Point:	0.075	Yaw Set Point:	-0.024	X_WP:	0.100	Y_WP:	0.000	Y_WP:	0.500	X:	0.111	Y:	-0.037	Z:	0.659	yaw:	1.357	yaw rate:	-64.538	Roll:	0.771	Pitch:	-1.034	Yaw:	-12.721	Thrust:	66.790
Time:	4.960	Roll Set Point:	-0.120	Pitch Set Point:	0.075	Yaw Set Point:	-0.030	X_WP:	0.100	Y_WP:	0.000	Y_WP:	0.500	X:	0.111	Y:	-0.037	Z:	0.658	yaw:	1.713	yaw rate:	35.585	Roll:	-0.836	Pitch:	-1.176	Yaw:	9.053	Thrust:	78.451
Time:	4.976	Roll Set Point:	-0.120	Pitch Set Point:	0.075	Yaw Set Point:	-0.026	X_WP:	0.100	Y_WP:	0.000	Y_WP:	0.500	X:	0.110	Y:	-0.038	Z:	0.654	yaw:	1.465	yaw rate:	-24.829	Roll:	0.027	Pitch:	-1.344	Yaw:	-2.885	Thrust:	73.676
Time:	4.992	Roll Set Point:	-0.119	Pitch Set Point:	0.075	Yaw Set Point:	-0.032	X_WP:	0.100	Y_WP:	0.000	Y_WP:	0.500	X:	0.110	Y:	-0.037	Z:	0.652	yaw:	1.821	yaw rate:	35.576	Roll:	-0.654	Pitch:	-1.172	Yaw:	7.774	Thrust:	97.193
Time:	5.004	Roll Set Point:	-0.118	Pitch Set Point:	0.076	Yaw Set Point:	-0.027	X_WP:	0.100	Y_WP:	0.000	Y_WP:	0.500	X:	0.110	Y:	-0.038	Z:	0.649	yaw:	1.556	yaw rate:	-40.735	Roll:	-0.253	Pitch:	-1.512	Yaw:	-3.521	Thrust:	74.759
Time:	5.015	Roll Set Point:	-0.118	Pitch Set Point:	0.076	Yaw Set Point:	-0.029	X_WP:	0.100	Y_WP:	0.000	Y_WP:	0.500	X:	0.109	Y:	-0.038	Z:	0.647	yaw:	1.645	yaw rate:	8.863	Roll:	-0.454	Pitch:	-1.290	Yaw:	4.374	Thrust:	63.931
Time:	5.034	Roll Set Point:	-0.116	Pitch Set Point:	0.076	Yaw Set Point:	-0.040	X_WP:	0.100	Y_WP:	0.000	Y_WP:	0.500	X:	0.109	Y:	-0.038	Z:	0.645	yaw:	2.290	yaw rate:	64.478	Roll:	-1.335	Pitch:	-1.371	Yaw:	14.013	Thrust:	70.733
Time:	5.046	Roll Set Point:	-0.117	Pitch Set Point:	0.076	Yaw Set Point:	-0.010	X_WP:	0.100	Y_WP:	0.000	Y_WP:	0.500	X:	0.109	Y:	-0.038	Z:	0.641	yaw:	0.556	yaw rate:	-155.274	Roll:	0.961	Pitch:	-1.127	Yaw:	-29.310	Thrust:	100.000
Time:	5.059	Roll Set Point:	-0.116	Pitch Set Point:	0.076	Yaw Set Point:	-0.020	X_WP:	0.100	Y_WP:	0.000	Y_WP:	0.500	X:	0.108	Y:	-0.038	Z:	0.640	yaw:	1.174	yaw rate:	61.770	Roll:	-1.219	Pitch:	-1.033	Yaw:	14.200	Thrust:	70.116
Time:	5.070	Roll Set Point:	-0.115	Pitch Set Point:	0.076	Yaw Set Point:	-0.031	X_WP:	0.100	Y_WP:	0.000	Y_WP:	0.500	X:	0.108	Y:	-0.038	Z:	0.639	yaw:	1.798	yaw rate:	62.464	Roll:	-1.137	Pitch:	-1.275	Yaw:	17.419	Thrust:	56.845
Time:	5.082	Roll Set Point:	-0.114	Pitch Set Point:	0.076	Yaw Set Point:	-0.028	X_WP:	0.100	Y_WP:	0.000	Y_WP:	0.500	X:	0.108	Y:	-0.038	Z:	0.638	yaw:	1.582	yaw rate:	-21.624	Roll:	-0.053	Pitch:	-1.352	Yaw:	-2.606	Thrust:	59.422
Time:	5.099	Roll Set Point:	-0.114	Pitch Set Point:	0.076	Yaw Set Point:	-0.027	X_WP:	0.100	Y_WP:	0.000	Y_WP:	0.500	X:	0.107	Y:	-0.038	Z:	0.637	yaw:	1.548	yaw rate:	-3.406	Roll:	-0.661	Pitch:	-1.121	Yaw:	1.770	Thrust:	82.233
Time:	5.112	Roll Set Point:	-0.113	Pitch Set Point:	0.075	Yaw Set Point:	-0.025	X_WP:	0.100	Y_WP:	0.000	Y_WP:	0.500	X:	0.107	Y:	-0.038	Z:	0.637	yaw:	1.447	yaw rate:	-10.940	Roll:	-0.419	Pitch:	-1.091	Yaw:	0.276	Thrust:	70.930
