Time:	2.040	Roll Set Point:	0.085	Pitch Set Point:	-0.120	Yaw Set Point:	-0.004	X_WP:	0.100	Y_WP:	0.000	Y_WP:	0.500	X:	0.007	Y:	0.060	Z:	0.050	yaw:	0.240	yaw rate:	42.482	Roll:	-2.681	Pitch:	1.750	Yaw:	0.336	Thrust:	24.741
Time:	2.051	Roll Set Point:	0.085	Pitch Set Point:	-0.121	Yaw Set Point:	-0.013	X_WP:	0.100	Y_WP:	0.000	Y_WP:	0.500	X:	0.007	Y:	0.060	Z:	0.050	yaw:	0.723	yaw rate:	48.220	Roll:	-1.860	Pitch:	3.120	Yaw:	12.811	Thrust:	24.378
Time:	2.063	Roll Set Point:	0.085	Pitch Set Point:	-0.121	Yaw Set Point:	-0.013	X_WP:	0.100	Y_WP:	0.000	Y_WP:	0.500	X:	0.007	Y:	0.060	Z:	0.050	yaw:	0.740	yaw rate:	31.404	Roll:	-2.637	Pitch:	1.823	Yaw:	1.399	Thrust:	26.123
Time:	2.074	Roll Set Point:	0.085	Pitch Set Point:	-0.120	Yaw Set Point:	-0.003	X_WP:	0.100	Y_WP:	0.000	Y_WP:	0.500	X:	0.007	Y:	0.060	Z:	0.050	yaw:	0.147	yaw rate:	-59.326	Roll:	-3.540	Pitch:	0.077	Yaw:	-13.870	Thrust:	27.787
Time:	2.085	Roll Set Point:	0.085	Pitch Set Point:	-0.121	Yaw Set Point:	-0.011	X_WP:	0.100	Y_WP:	0.000	Y_WP:	0.500	X:	0.007	Y:	0.060	Z:	0.050	yaw:	0.605	yaw rate:	45.813	Roll:	-2.036	Pitch:	2.977	Yaw:	12.243	Thrust:	25.437
Time:	2.099	Roll Set Point:	0.086	Pitch Set Point:	-0.120	Yaw Set Point:	-0.003	X_WP:	0.100	Y_WP:	0.000	Y_WP:	0.500	X:	0.007	Y:	0.060	Z:	0.050	yaw:	0.154	yaw rate:	-45.128	Roll:	-3.539	Pitch:	0.658	Yaw:	-8.170	Thrust:	29.650
Time:	2.110	Roll Set Point:	0.085	Pitch Set Point:	-0.120	Yaw Set Point:	-0.005	X_WP:	0.100	Y_WP:	0.000	Y_WP:	0.500	X:	0.007	Y:	0.060	Z:	0.050	yaw:	0.295	yaw rate:	14.164	Roll:	-2.316	Pitch:	2.266	Yaw:	3.783	Thrust:	27.765
Time:	2.122	Roll Set Point:	0.085	Pitch Set Point:	-0.121	Yaw Set Point:	-0.011	X_WP:	0.100	Y_WP:	0.000	Y_WP:	0.500	X:	0.007	Y:	0.060	Z:	0.051	yaw:	0.607	yaw rate:	31.159	Roll:	-2.044	Pitch:	2.793	Yaw:	8.253	Thrust:	27.672
Time:	2.133	Roll Set Point:	0.084	Pitch Set Point:	-0.121	Yaw Set Point:	-0.013	X_WP:	0.100	Y_WP:	0.000	Y_WP:	0.500	X:	0.007	Y:	0.060	Z:	0.050	yaw:	0.744	yaw rate:	13.732	Roll:	-2.440	Pitch:	2.137	Yaw:	3.916	Thrust:	30.671
Time:	2.144	Roll Set Point:	0.085	Pitch Set Point:	-0.120	Yaw Set Point:	-0.001	X_WP:	0.100	Y_WP:	0.000	Y_WP:	0.500	X:	0.007	Y:	0.060	Z:	0.050	yaw:	0.074	yaw rate:	-67.048	Roll:	-3.849	Pitch:	-0.217	Yaw:	-16.544	Thrust:	30.821
Time:	2.157	Roll Set Point:	0.085	Pitch Set Point:	-0.119	Yaw Set Point:	0.009	X_WP:	0.100	Y_WP:	0.000	Y_WP:	0.500	X:	0.008	Y:	0.060	Z:	0.050	yaw:	-0.518	yaw rate:	-59.204	Roll:	-3.321	Pitch:	0.313	Yaw:	-12.558	Thrust:	32.901
Time:	2.169	Roll Set Point:	0.085	Pitch Set Point:	-0.120	Yaw Set Point:	-0.004	X_WP:	0.100	Y_WP:	0.000	Y_WP:	0.500	X:	0.007	Y:	0.060	Z:	0.050	yaw:	0.206	yaw rate:	72.463	Roll:	-2.088	Pitch:	3.466	Yaw:	16.104	Thrust:	30.114
Time:	2.180	Roll Set Point:	0.085	Pitch Set Point:	-0.120	Yaw Set Point:	-0.000	X_WP:	0.100	Y_WP:	0.000	Y_WP:	0.500	X:	0.007	Y:	0.060	Z:	0.050	yaw:	0.012	yaw rate:	-19.379	Roll:	-3.047	Pitch:	1.194	Yaw:	-4.567	Thrust:	32.400
Time:	2.202	Roll Set Point:	0.085	Pitch Set Point:	-0.120	Yaw Set Point:	-0.004	X_WP:	0.100	Y_WP:	0.000	Y_WP:	0.500	X:	0.007	Y:	0.060	Z:	0.050	yaw:	0.204	yaw rate:	19.112	Roll:	-2.557	Pitch:	2.084	Yaw:	2.579	Thrust:	39.873
Time:	2.214	Roll Set Point:	0.085	Pitch Set Point:	-0.121	Yaw Set Point:	-0.010	X_WP:	0.100	Y_WP:	0.000	Y_WP:	0.500	X:	0.007	Y:	0.060	Z:	0.050	yaw:	0.565	yaw rate:	36.132	Roll:	-2.135	Pitch:	2.877	Yaw:	9.021	Thrust:	33.439
Time:	2.228	Roll Set Point:	0.085	Pitch Set Point:	-0.121	Yaw Set Point:	-0.010	X_WP:	0.100	Y_WP:	0.000	Y_WP:	0.500	X:	0.007	Y:	0.060	Z:	0.050	yaw:	0.590	yaw rate:	2.490	Roll:	-2.712	Pitch:	1.854	Yaw:	1.433	Thrust:	33.313
Time:	2.241	Roll Set Point:	0.085	Pitch Set Point:	-0.120	Yaw Set Point:	-0.003	X_WP:	0.100	Y_WP:	0.000	Y_WP:	0.500	X:	0.007	Y:	0.060	Z:	0.050	yaw:	0.197	yaw rate:	-5.692	Roll:	-3.188	Pitch:	1.002	Yaw:	-5.909	Thrust:	39.524
Time:	2.252	Roll Set Point:	0.086	Pitch Set Point:	-0.119	Yaw Set Point:	0.010	X_WP:	0.100	Y_WP:	0.000	Y_WP:	0.500	X:	0.007	Y:	0.060	Z:	0.050	yaw:	-0.575	yaw rate:	-77.193	Roll:	-3.915	Pitch:	-0.467	Yaw:	-19.973	Thrust:	36.463
Time:	2.265	Roll Set Point:	0.085	Pitch Set Point:	-0.120	Yaw Set Point:	-0.004	X_WP:	0.100	Y_WP:	0.000	Y_WP:	0.500	X:	0.007	Y:	0.060	Z:	0.050	yaw:	0.218	yaw rate:	79.329	Roll:	-1.694	Pitch:	3.656	Yaw:	16.244	Thrust:	35.629
Time:	2.278	Roll Set Point:	0.084	Pitch Set Point:	-0.121	Yaw Set Point:	-0.013	X_WP:	0.100	Y_WP:	0.000	Y_WP:	0.500	X:	0.007	Y:	0.060	Z:	0.050	yaw:	0.747	yaw rate:	52.856	Roll:	-1.925	Pitch:	3.185	Yaw:	11.681	Thrust:	37.569
Time:	2.295	Roll Set Point:	0.085	Pitch Set Point:	-0.120	Yaw Set Point:	-0.003	X_WP:	0.100	Y_WP:	0.000	Y_WP:	0.500	X:	0.007	Y:	0.060	Z:	0.050	yaw:	0.152	yaw rate:	-59.412	Roll:	-3.724	Pitch:	-0.071	Yaw:	-10.070	Thrust:	40.037
Time:	2.307	Roll Set Point:	0.086	Pitch Set Point:	-0.120	Yaw Set Point:	-0.003	X_WP:	0.100	Y_WP:	0.000	Y_WP:	0.500	X:	0.007	Y:	0.060	Z:	0.050	yaw:	0.184	yaw rate:	-62.663	Roll:	-2.961	Pitch:	1.736	Yaw:	0.868	Thrust:	42.481
Time:	2.317	Roll Set Point:	0.085	Pitch Set Point:	-0.119	Yaw Set Point:	0.002	X_WP:	0.100	Y_WP:	0.000	Y_WP:	0.500	X:	0.007	Y:	0.060	Z:	0.050	yaw:	-0.110	yaw rate:	-29.336	Roll:	-2.854	Pitch:	1.011	Yaw:	-7.421	Thrust:	37.165
Time:	2.332	Roll Set Point:	0.085	Pitch Set Point:	-0.121	Yaw Set Point:	-0.012	X_WP:	0.100	Y_WP:	0.000	Y_WP:	0.500	X:	0.007	Y:	0.060	Z:	0.050	yaw:	0.664	yaw rate:	77.418	Roll:	-1.656	Pitch:	3.783	Yaw:	15.370	Thrust:	41.051
Time:	2.343	Roll Set Point:	0.084	Pitch Set Point:	-0.122	Yaw Set Point:	-0.014	X_WP:	0.100	Y_WP:	0.000	Y_WP:	0.500	X:	0.007	Y:	0.060	Z:	0.050	yaw:	0.820	yaw rate:	15.509	Roll:	-2.504	Pitch:	2.193	Yaw:	4.828	Thrust:	39.217
Time:	2.355	Roll Set Point:	0.085	Pitch Set Point:	-0.120	Yaw Set Point:	-0.001	X_WP:	0.100	Y_WP:	0.000	Y_WP:	0.500	X:	0.007	Y:	0.060	Z:	0.050	yaw:	0.041	yaw rate:	-77.820	Roll:	-4.081	Pitch:	-0.457	Yaw:	-18.384	Thrust:	40.996
Time:	2.367	Roll Set Point:	0.086	Pitch Set Point:	-0.119	Yaw Set Point:	0.004	X_WP:	0.100	Y_WP:	0.000	Y_WP:	0.500	X:	0.007	Y:	0.060	Z:	0.050	yaw:	-0.210	yaw rate:	-25.145	Roll:	-3.385	Pitch:	0.962	Yaw:	-5.301	Thrust:	42.824
Time:	2.378	Roll Set Point:	0.085	Pitch Set Point:	-0.121	Yaw Set Point:	-0.010	X_WP:	0.100	Y_WP:	0.000	Y_WP:	0.500	X:	0.007	Y:	0.060	Z:	0.050	yaw:	0.600	yaw rate:	81.017	Roll:	-1.146	Pitch:	4.257	Yaw:	19.263	Thrust:	40.185
Time:	2.393	Roll Set Point:	0.084	Pitch Set Point:	-0.121	Yaw Set Point:	-0.013	X_WP:	0.100	Y_WP:	0.000	Y_WP:	0.500	X:	0.007	Y:	0.060	Z:	0.051	yaw:	0.769	yaw rate:	76.339	Roll:	-2.435	Pitch:	2.248	Yaw:	4.304	Thrust:	45.577
Time:	2.407	Roll Set Point:	0.085	Pitch Set Point:	-0.121	Yaw Set Point:	-0.010	X_WP:	0.100	Y_WP:	0.000	Y_WP:	0.500	X:	0.007	Y:	0.060	Z:	0.050	yaw:	0.565	yaw rate:	-20.376	Roll:	-3.091	Pitch:	1.254	Yaw:	-2.832	Thrust:	47.997
Time:	2.418	Roll Set Point:	0.085	Pitch Set Point:	-0.120	Yaw Set Point:	-0.002	X_WP:	0.100	Y_WP:	0.000	Y_WP:	0.500	X:	0.007	Y:	0.060	Z:	0.050	yaw:	0.123	yaw rate:	-44.166	Roll:	-3.549	Pitch:	0.558	Yaw:	-10.269	Thrust:	43.879
Time:	2.436	Roll Set Point:	0.084	Pitch Set Point:	-0.122	Yaw Set Point:	-0.014	X_WP:	0.100	Y_WP:	0.000	Y_WP:	0.500	X:	0.007	Y:	0.060	Z:	0.050	yaw:	0.804	yaw rate:	68.054	Roll:	-1.402	Pitch:	3.519	Yaw:	11.326	Thrust:	50.284
Time:	2.449	Roll Set Point:	0.085	Pitch Set Point:	-0.120	Yaw Set Point:	-0.006	X_WP:	0.100	Y_WP:	0.000	Y_WP:	0.500	X:	0.007	Y:	0.060	Z:	0.050	yaw:	0.365	yaw rate:	-58.891	Roll:	-3.373	Pitch:	0.805	Yaw:	-8.164	Thrust:	51.486
Time:	2.463	Roll Set Point:	0.084	Pitch Set Point:	-0.121	Yaw Set Point:	-0.013	X_WP:	0.100	Y_WP:	0.000	Y_WP:	0.500	X:	0.008	Y:	0.060	Z:	0.050	yaw:	0.768	yaw rate:	40.366	Roll:	-1.940	Pitch:	2.850	Yaw:	8.383	Thrust:	48.633
Time:	2.475	Roll Set Point:	0.085	Pitch Set Point:	-0.120	Yaw Set Point:	-0.001	X_WP:	0.100	Y_WP:	0.000	Y_WP:	0.500	X:	0.008	Y:	0.060	Z:	0.050	yaw:	0.033	yaw rate:	-73.482	Roll:	-3.579	Pitch:	0.045	Yaw:	-15.885	Thrust:	49.185
Time:	2.486	Roll Set Point:	0.084	Pitch Set Point:	-0.122	Yaw Set Point:	-0.015	X_WP:	0.100	Y_WP:	0.000	Y_WP:	0.500	X:	0.008	Y:	0.060	Z:	0.050	yaw:	0.877	yaw rate:	84.360	Roll:	-1.692	Pitch:	4.273	Yaw:	22.249	Thrust:	43.258
Time:	2.499	Roll Set Point:	0.084	Pitch Set Point:	-0.122	Yaw Set Point:	-0.015	X_WP:	0.100	Y_WP:	0.000	Y_WP:	0.500	X:	0.008	Y:	0.060	Z:	0.050	yaw:	0.841	yaw rate:	-18.068	Roll:	-2.719	Pitch:	1.843	Yaw:	0.504	Thrust:	50.171
Time:	2.510	Roll Set Point:	0.084	Pitch Set Point:	-0.122	Yaw Set Point:	-0.016	X_WP:	0.100	Y_WP:	0.000	Y_WP:	0.500	X:	0.007	Y:	0.060	Z:	0.050	yaw:	0.891	yaw rate:	4.985	Roll:	-2.820	Pitch:	1.883	Yaw:	2.478	Thrust:	46.532
Time:	2.522	Roll Set Point:	0.084	Pitch Set Point:	-0.120	Yaw Set Point:	-0.002	X_WP:	0.100	Y_WP:	0.000	Y_WP:	0.500	X:	0.008	Y:	0.060	Z:	0.050	yaw:	0.098	yaw rate:	-79.253	Roll:	-3.635	Pitch:	-0.216	Yaw:	-17.048	Thrust:	48.854
Time:	2.534	Roll Set Point:	0.084	Pitch Set Point:	-0.122	Yaw Set Point:	-0.016	X_WP:	0.100	Y_WP:	0.000	Y_WP:	0.500	X:	0.007	Y:	0.060	Z:	0.051	yaw:	0.908	yaw rate:	80.994	Roll:	-2.039	Pitch:	3.603	Yaw:	18.936	Thrust:	50.574
Time:	2.545	Roll Set Point:	0.084	Pitch Set Point:	-0.121	Yaw Set Point:	-0.014	X_WP:	0.100	Y_WP:	0.000	Y_WP:	0.500	X:	0.007	Y:	0.060	Z:	0.050	yaw:	0.810	yaw rate:	-9.820	Roll:	-2.839	Pitch:	1.612	Yaw:	-1.139	Thrust:	48.880
Time:	2.561	Roll Set Point:	0.084	Pitch Set Point:	-0.120	Yaw Set Point:	-0.001	X_WP:	0.100	Y_WP:	0.000	Y_WP:	0.500	X:	0.008	Y:	0.060	Z:	0.050	yaw:	0.043	yaw rate:	-76.647	Roll:	-3.482	Pitch:	0.324	Yaw:	-12.731	Thrust:	59.849
Time:	2.576	Roll Set Point:	0.085	Pitch Set Point:	-0.120	Yaw Set Point:	-0.003	X_WP:	0.100	Y_WP:	0.000	Y_WP:	0.500	X:	0.007	Y:	0.060	Z:	0.050	yaw:	0.196	yaw rate:	-63.311	Roll:	-2.960	Pitch:	2.029	Yaw:	3.025	Thrust:	58.764
Time:	2.588	Roll Set Point:	0.084	Pitch Set Point:	-0.121	Yaw Set Point:	-0.012	X_WP:	0.100	Y_WP:	0.000	Y_WP:	0.500	X:	0.008	Y:	0.060	Z:	0.051	yaw:	0.700	yaw rate:	50.319	Roll:	-1.865	Pitch:	3.207	Yaw:	11.155	Thrust:	54.044
Time:	2.603	Roll Set Point:	0.084	Pitch Set Point:	-0.121	Yaw Set Point:	-0.008	X_WP:	0.100	Y_WP:	0.000	Y_WP:	0.500	X:	0.008	Y:	0.060	Z:	0.050	yaw:	0.476	yaw rate:	-22.378	Roll:	-2.937	Pitch:	1.472	Yaw:	-3.274	Thrust:	59.643
Time:	2.615	Roll Set Point:	0.084	Pitch Set Point:	-0.121	Yaw Set Point:	-0.007	X_WP:	0.100	Y_WP:	0.000	Y_WP:	0.500	X:	0.008	Y:	0.060	Z:	0.051	yaw:	0.380	yaw rate:	-9.604	Roll:	-2.998	Pitch:	1.429	Yaw:	-1.606	Thrust:	51.414
Time:	2.636	Roll Set Point:	0.084	Pitch Set Point:	-0.121	Yaw Set Point:	-0.010	X_WP:	0.100	Y_WP:	0.000	Y_WP:	0.500	X:	0.008	Y:	0.060	Z:	0.051	yaw:	0.586	yaw rate:	20.585	Roll:	-2.615	Pitch:	2.272	Yaw:	3.450	Thrust:	76.559
Time:	2.647	Roll Set Point:	0.084	Pitch Set Point:	-0.120	Yaw Set Point:	-0.005	X_WP:	0.100	Y_WP:	0.000	Y_WP:	0.500	X:	0.008	Y:	0.060	Z:	0.051	yaw:	0.307	yaw rate:	30.860	Roll:	-3.294	Pitch:	0.714	Yaw:	-6.119	Thrust:	53.697
Time:	2.666	Roll Set Point:	0.083	Pitch Set Point:	-0.122	Yaw Set Point:	-0.019	X_WP:	0.100	Y_WP:	0.000	Y_WP:	0.500	X:	0.008	Y:	0.060	Z:	0.052	yaw:	1.086	yaw rate:	77.966	Roll:	-1.843	Pitch:	3.405	Yaw:	12.623	Thrust:	68.054
Time:	2.678	Roll Set Point:	0.082	Pitch Set Point:	-0.122	Yaw Set Point:	-0.018	X_WP:	0.100	Y_WP:	0.000	Y_WP:	0.500	X:	0.008	Y:	0.060	Z:	0.053	yaw:	1.028	yaw rate:	19.370	Roll:	-2.407	Pitch:	1.785	Yaw:	0.301	Thrust:	57.554
Time:	2.695	Roll Set Point:	0.082	Pitch Set Point:	-0.121	Yaw Set Point:	-0.007	X_WP:	0.100	Y_WP:	0.000	Y_WP:	0.500	X:	0.009	Y:	0.060	Z:	0.053	yaw:	0.384	yaw rate:	-64.364	Roll:	-2.717	Pitch:	0.729	Yaw:	-9.518	Thrust:	67.074
Time:	2.708	Roll Set Point:	0.082	Pitch Set Point:	-0.120	Yaw Set Point:	-0.001	X_WP:	0.100	Y_WP:	0.000	Y_WP:	0.500	X:	0.009	Y:	0.060	Z:	0.053	yaw:	0.041	yaw rate:	-34.343	Roll:	-3.128	Pitch:	0.897	Yaw:	-6.750	Thrust:	60.191
Time:	2.719	Roll Set Point:	0.082	Pitch Set Point:	-0.118	Yaw Set Point:	0.009	X_WP:	0.100	Y_WP:	0.000	Y_WP:	0.500	X:	0.009	Y:	0.060	Z:	0.054	yaw:	-0.507	yaw rate:	-54.791	Roll:	-3.209	Pitch:	0.081	Yaw:	-13.621	Thrust:	53.889
Time:	2.735	Roll Set Point:	0.079	Pitch Set Point:	-0.120	Yaw Set Point:	-0.002	X_WP:	0.100	Y_WP:	0.000	Y_WP:	0.500	X:	0.010	Y:	0.060	Z:	0.055	yaw:	0.143	yaw rate:	-45.525	Roll:	-0.938	Pitch:	3.375	Yaw:	10.917	Thrust:	65.823
Time:	2.746	Roll Set Point:	0.077	Pitch Set Point:	-0.122	Yaw Set Point:	-0.015	X_WP:	0.100	Y_WP:	0.000	Y_WP:	0.500	X:	0.011	Y:	0.060	Z:	0.056	yaw:	0.873	yaw rate:	73.005	Roll:	-0.452	Pitch:	3.926	Yaw:	19.172	Thrust:	52.403
Time:	2.758	Roll Set Point:	0.076	Pitch Set Point:	-0.121	Yaw Set Point:	-0.006	X_WP:	0.100	Y_WP:	0.000	Y_WP:	0.500	X:	0.012	Y:	0.060	Z:	0.057	yaw:	0.346	yaw rate:	-52.676	Roll:	-2.563	Pitch:	0.528	Yaw:	-9.998	Thrust:	60.638
Time:	2.772	Roll Set Point:	0.075	Pitch Set Point:	-0.122	Yaw Set Point:	-0.013	X_WP:	0.100	Y_WP:	0.000	Y_WP:	0.500	X:	0.012	Y:	0.060	Z:	0.058	yaw:	0.733	yaw rate:	38.687	Roll:	-1.521	Pitch:	2.779	Yaw:	8.601	Thrust:	61.961
Time:	2.784	Roll Set Point:	0.073	Pitch Set Point:	-0.122	Yaw Set Point:	-0.013	X_WP:	0.100	Y_WP:	0.000	Y_WP:	0.500	X:	0.013	Y:	0.060	Z:	0.059	yaw:	0.720	yaw rate:	-1.317	Roll:	-1.515	Pitch:	1.853	Yaw:	0.798	Thrust:	55.789
Time:	2.797	Roll Set Point:	0.073	Pitch Set Point:	-0.118	Yaw Set Point:	0.017	X_WP:	0.100	Y_WP:	0.000	Y_WP:	0.500	X:	0.014	Y:	0.060	Z:	0.059	yaw:	-0.954	yaw rate:	-167.459	Roll:	-3.788	Pitch:	-2.060	Yaw:	-34.798	Thrust:	63.308
Time:	2.809	Roll Set Point:	0.066	Pitch Set Point:	-0.121	Yaw Set Point:	-0.008	X_WP:	0.100	Y_WP:	0.000	Y_WP:	0.500	X:	0.017	Y:	0.060	Z:	0.064	yaw:	0.484	yaw rate:	-12.550	Roll:	3.129	Pitch:	5.153	Yaw:	30.644	Thrust:	48.215
Time:	2.821	Roll Set Point:	0.063	Pitch Set Point:	-0.121	Yaw Set Point:	-0.011	X_WP:	0.100	Y_WP:	0.000	Y_WP:	0.500	X:	0.018	Y:	0.060	Z:	0.065	yaw:	0.602	yaw rate:	11.774	Roll:	-0.467	Pitch:	1.911	Yaw:	3.723	Thrust:	53.678
Time:	2.833	Roll Set Point:	0.061	Pitch Set Point:	-0.121	Yaw Set Point:	-0.008	X_WP:	0.100	Y_WP:	0.000	Y_WP:	0.500	X:	0.019	Y:	0.060	Z:	0.067	yaw:	0.483	yaw rate:	-11.905	Roll:	-0.962	Pitch:	1.625	Yaw:	-1.604	Thrust:	61.958
Time:	2.844	Roll Set Point:	0.060	Pitch Set Point:	-0.118	Yaw Set Point:	0.012	X_WP:	0.100	Y_WP:	0.000	Y_WP:	0.500	X:	0.020	Y:	0.059	Z:	0.068	yaw:	-0.700	yaw rate:	-118.233	Roll:	-2.800	Pitch:	-1.669	Yaw:	-30.277	Thrust:	54.412
Time:	2.855	Roll Set Point:	0.056	Pitch Set Point:	-0.120	Yaw Set Point:	-0.011	X_WP:	0.100	Y_WP:	0.000	Y_WP:	0.500	X:	0.022	Y:	0.060	Z:	0.070	yaw:	0.654	yaw rate:	135.398	Roll:	2.470	Pitch:	5.138	Yaw:	33.134	Thrust:	52.474
Time:	2.867	Roll Set Point:	0.052	Pitch Set Point:	-0.120	Yaw Set Point:	-0.012	X_WP:	0.100	Y_WP:	0.000	Y_WP:	0.500	X:	0.023	Y:	0.060	Z:	0.071	yaw:	0.692	yaw rate:	3.803	Roll:	-0.281	Pitch:	1.946	Yaw:	1.893	Thrust:	57.911
Time:	2.877	Roll Set Point:	0.049	Pitch Set Point:	-0.119	Yaw Set Point:	-0.003	X_WP:	0.100	Y_WP:	0.000	Y_WP:	0.500	X:	0.025	Y:	0.059	Z:	0.073	yaw:	0.155	yaw rate:	-53.720	Roll:	-0.340	Pitch:	0.411	Yaw:	-13.050	Thrust:	55.539
Time:	2.896	Roll Set Point:	0.046	Pitch Set Point:	-0.119	Yaw Set Point:	-0.010	X_WP:	0.100	Y_WP:	0.000	Y_WP:	0.500	X:	0.027	Y:	0.059	Z:	0.074	yaw:	0.592	yaw rate:	43.692	Roll:	-0.139	Pitch:	2.333	Yaw:	7.485	Thrust:	81.543
Time:	2.908	Roll Set Point:	0.040	Pitch Set Point:	-0.117	Yaw Set Point:	0.006	X_WP:	0.100	Y_WP:	0.000	Y_WP:	0.500	X:	0.030	Y:	0.059	Z:	0.077	yaw:	-0.360	yaw rate:	-67.870	Roll:	0.388	Pitch:	-0.137	Yaw:	-19.517	Thrust:	60.391
Time:	2.919	Roll Set Point:	0.036	Pitch Set Point:	-0.118	Yaw Set Point:	-0.006	X_WP:	0.100	Y_WP:	0.000	Y_WP:	0.500	X:	0.032	Y:	0.059	Z:	0.079	yaw:	0.361	yaw rate:	72.126	Roll:	1.470	Pitch:	3.143	Yaw:	17.383	Thrust:	54.876
Time:	2.934	Roll Set Point:	0.032	Pitch Set Point:	-0.117	Yaw Set Point:	-0.000	X_WP:	0.100	Y_WP:	0.000	Y_WP:	0.500	X:	0.034	Y:	0.058	Z:	0.081	yaw:	0.019	yaw rate:	-34.297	Roll:	-0.228	Pitch:	0.790	Yaw:	-6.012	Thrust:	71.886
Time:	2.945	Roll Set Point:	0.025	Pitch Set Point:	-0.115	Yaw Set Point:	0.005	X_WP:	0.100	Y_WP:	0.000	Y_WP:	0.500	X:	0.038	Y:	0.058	Z:	0.085	yaw:	-0.287	yaw rate:	-30.560	Roll:	3.426	Pitch:	0.401	Yaw:	-7.555	Thrust:	49.622
Time:	2.963	Roll Set Point:	0.021	Pitch Set Point:	-0.114	Yaw Set Point:	0.012	X_WP:	0.100	Y_WP:	0.000	Y_WP:	0.500	X:	0.040	Y:	0.057	Z:	0.086	yaw:	-0.677	yaw rate:	-39.023	Roll:	-0.347	Pitch:	0.868	Yaw:	-6.603	Thrust:	84.823
Time:	2.975	Roll Set Point:	0.013	Pitch Set Point:	-0.112	Yaw Set Point:	0.013	X_WP:	0.100	Y_WP:	0.000	Y_WP:	0.500	X:	0.044	Y:	0.056	Z:	0.090	yaw:	-0.755	yaw rate:	19.127	Roll:	3.529	Pitch:	0.667	Yaw:	-2.564	Thrust:	56.424
Time:	2.986	Roll Set Point:	0.010	Pitch Set Point:	-0.109	Yaw Set Point:	0.032	X_WP:	0.100	Y_WP:	0.000	Y_WP:	0.500	X:	0.046	Y:	0.055	Z:	0.092	yaw:	-1.855	yaw rate:	-110.027	Roll:	-0.568	Pitch:	-1.832	Yaw:	-29.858	Thrust:	56.223
Time:	3.000	Roll Set Point:	0.004	Pitch Set Point:	-0.109	Yaw Set Point:	0.011	X_WP:	0.100	Y_WP:	0.000	Y_WP:	0.500	X:	0.048	Y:	0.055	Z:	0.095	yaw:	-0.609	yaw rate:	124.555	Roll:	2.607	Pitch:	2.902	Yaw:	21.604	Thrust:	69.202
Time:	3.011	Roll Set Point:	0.001	Pitch Set Point:	-0.107	Yaw Set Point:	0.020	X_WP:	0.100	Y_WP:	0.000	Y_WP:	0.500	X:	0.050	Y:	0.054	Z:	0.097	yaw:	-1.154	yaw rate:	-54.446	Roll:	0.416	Pitch:	-0.430	Yaw:	-14.396	Thrust:	60.855
Time:	3.022	Roll Set Point:	-0.005	Pitch Set Point:	-0.107	Yaw Set Point:	0.004	X_WP:	0.100	Y_WP:	0.000	Y_WP:	0.500	X:	0.053	Y:	0.054	Z:	0.100	yaw:	-0.234	yaw rate:	92.007	Roll:	4.013	Pitch:	2.482	Yaw:	21.590	Thrust:	48.731
Time:	3.038	Roll Set Point:	-0.014	Pitch Set Point:	-0.104	Yaw Set Point:	0.013	X_WP:	0.100	Y_WP:	0.000	Y_WP:	0.500	X:	0.057	Y:	0.052	Z:	0.105	yaw:	-0.732	yaw rate:	-49.817	Roll:	3.094	Pitch:	-0.330	Yaw:	-9.290	Thrust:	71.930
Time:	3.049	Roll Set Point:	-0.018	Pitch Set Point:	-0.101	Yaw Set Point:	0.022	X_WP:	0.100	Y_WP:	0.000	Y_WP:	0.500	X:	0.060	Y:	0.051	Z:	0.108	yaw:	-1.239	yaw rate:	-50.648	Roll:	1.344	Pitch:	-0.802	Yaw:	-14.017	Thrust:	57.729
Time:	3.063	Roll Set Point:	-0.023	Pitch Set Point:	-0.099	Yaw Set Point:	0.022	X_WP:	0.100	Y_WP:	0.000	Y_WP:	0.500	X:	0.062	Y:	0.050	Z:	0.111	yaw:	-1.256	yaw rate:	-1.723	Roll:	2.062	Pitch:	0.348	Yaw:	-2.001	Thrust:	67.690
Time:	3.075	Roll Set Point:	-0.032	Pitch Set Point:	-0.094	Yaw Set Point:	0.042	X_WP:	0.100	Y_WP:	0.000	Y_WP:	0.500	X:	0.067	Y:	0.048	Z:	0.117	yaw:	-2.434	yaw rate:	-81.470	Roll:	3.858	Pitch:	-1.895	Yaw:	-27.934	Thrust:	52.078
Time:	3.086	Roll Set Point:	-0.038	Pitch Set Point:	-0.095	Yaw Set Point:	0.017	X_WP:	0.100	Y_WP:	0.000	Y_WP:	0.500	X:	0.070	Y:	0.048	Z:	0.121	yaw:	-1.003	yaw rate:	143.132	Roll:	4.132	Pitch:	2.644	Yaw:	30.821	Thrust:	56.014
Time:	3.098	Roll Set Point:	-0.043	Pitch Set Point:	-0.092	Yaw Set Point:	0.014	X_WP:	0.100	Y_WP:	0.000	Y_WP:	0.500	X:	0.072	Y:	0.046	Z:	0.124	yaw:	-0.781	yaw rate:	22.128	Roll:	2.887	Pitch:	-0.317	Yaw:	3.976	Thrust:	57.102
Time:	3.108	Roll Set Point:	-0.049	Pitch Set Point:	-0.091	Yaw Set Point:	0.015	X_WP:	0.100	Y_WP:	0.000	Y_WP:	0.500	X:	0.075	Y:	0.046	Z:	0.127	yaw:	-0.871	yaw rate:	-8.982	Roll:	3.262	Pitch:	0.203	Yaw:	-3.404	Thrust:	53.599
Time:	3.119	Roll Set Point:	-0.052	Pitch Set Point:	-0.087	Yaw Set Point:	0.035	X_WP:	0.100	Y_WP:	0.000	Y_WP:	0.500	X:	0.077	Y:	0.044	Z:	0.130	yaw:	-2.032	yaw rate:	-116.124	Roll:	1.515	Pitch:	-2.098	Yaw:	-33.111	Thrust:	50.369
Time:	3.133	Roll Set Point:	-0.059	Pitch Set Point:	-0.087	Yaw Set Point:	0.018	X_WP:	0.100	Y_WP:	0.000	Y_WP:	0.500	X:	0.080	Y:	0.043	Z:	0.134	yaw:	-1.014	yaw rate:	101.796	Roll:	3.655	Pitch:	1.341	Yaw:	16.919	Thrust:	73.948
Time:	3.144	Roll Set Point:	-0.069	Pitch Set Point:	-0.082	Yaw Set Point:	0.025	X_WP:	0.100	Y_WP:	0.000	Y_WP:	0.500	X:	0.085	Y:	0.041	Z:	0.141	yaw:	-1.412	yaw rate:	-39.736	Roll:	6.516	Pitch:	-2.032	Yaw:	-11.367	Thrust:	40.329
Time:	3.157	Roll Set Point:	-0.075	Pitch Set Point:	-0.079	Yaw Set Point:	0.021	X_WP:	0.100	Y_WP:	0.000	Y_WP:	0.500	X:	0.088	Y:	0.040	Z:	0.144	yaw:	-1.193	yaw rate:	21.854	Roll:	4.010	Pitch:	-0.599	Yaw:	2.754	Thrust:	67.614
Time:	3.169	Roll Set Point:	-0.080	Pitch Set Point:	-0.077	Yaw Set Point:	0.032	X_WP:	0.100	Y_WP:	0.000	Y_WP:	0.500	X:	0.090	Y:	0.039	Z:	0.148	yaw:	-1.827	yaw rate:	-63.365	Roll:	2.209	Pitch:	-0.290	Yaw:	-16.316	Thrust:	61.170
Time:	3.180	Roll Set Point:	-0.085	Pitch Set Point:	-0.075	Yaw Set Point:	0.030	X_WP:	0.100	Y_WP:	0.000	Y_WP:	0.500	X:	0.093	Y:	0.037	Z:	0.151	yaw:	-1.690	yaw rate:	13.649	Roll:	3.724	Pitch:	-0.590	Yaw:	0.895	Thrust:	56.123
Time:	3.192	Roll Set Point:	-0.090	Pitch Set Point:	-0.072	Yaw Set Point:	0.036	X_WP:	0.100	Y_WP:	0.000	Y_WP:	0.500	X:	0.096	Y:	0.036	Z:	0.155	yaw:	-2.036	yaw rate:	-34.563	Roll:	3.602	Pitch:	-0.645	Yaw:	-10.679	Thrust:	53.632
Time:	3.208	Roll Set Point:	-0.101	Pitch Set Point:	-0.068	Yaw Set Point:	0.030	X_WP:	0.100	Y_WP:	0.000	Y_WP:	0.500	X:	0.101	Y:	0.034	Z:	0.162	yaw:	-1.697	yaw rate:	25.335	Roll:	5.214	Pitch:	-1.111	Yaw:	3.153	Thrust:	80.888
Time:	3.219	Roll Set Point:	-0.111	Pitch Set Point:	-0.062	Yaw Set Point:	0.035	X_WP:	0.100	Y_WP:	0.000	Y_WP:	0.500	X:	0.106	Y:	0.031	Z:	0.168	yaw:	-1.990	yaw rate:	-29.234	Roll:	7.292	Pitch:	-2.729	Yaw:	-9.719	Thrust:	45.736
Time:	3.233	Roll Set Point:	-0.111	Pitch Set Point:	-0.062	Yaw Set Point:	0.035	X_WP:	0.100	Y_WP:	0.000	Y_WP:	0.500	X:	0.106	Y:	0.031	Z:	0.168	yaw:	-1.990	yaw rate:	-29.234	Roll:	-0.070	Pitch:	1.072	Yaw:	-2.793	Thrust:	78.316
Time:	3.244	Roll Set Point:	-0.121	Pitch Set Point:	-0.058	Yaw Set Point:	0.026	X_WP:	0.100	Y_WP:	0.000	Y_WP:	0.500	X:	0.111	Y:	0.029	Z:	0.174	yaw:	-1.484	yaw rate:	1.136	Roll:	7.286	Pitch:	-2.042	Yaw:	9.388	Thrust:	55.686
Time:	3.260	Roll Set Point:	-0.126	Pitch Set Point:	-0.055	Yaw Set Point:	0.039	X_WP:	0.100	Y_WP:	0.000	Y_WP:	0.500	X:	0.114	Y:	0.027	Z:	0.176	yaw:	-2.209	yaw rate:	-72.455	Roll:	3.687	Pitch:	-0.583	Yaw:	-14.919	Thrust:	86.533
Time:	3.275	Roll Set Point:	-0.137	Pitch Set Point:	-0.050	Yaw Set Point:	0.023	X_WP:	0.100	Y_WP:	0.000	Y_WP:	0.500	X:	0.119	Y:	0.025	Z:	0.183	yaw:	-1.343	yaw rate:	50.108	Roll:	4.863	Pitch:	-1.400	Yaw:	12.674	Thrust:	74.747
Time:	3.286	Roll Set Point:	-0.142	Pitch Set Point:	-0.047	Yaw Set Point:	0.017	X_WP:	0.100	Y_WP:	0.000	Y_WP:	0.500	X:	0.121	Y:	0.023	Z:	0.186	yaw:	-1.002	yaw rate:	34.087	Roll:	4.112	Pitch:	-1.515	Yaw:	6.847	Thrust:	60.603
Time:	3.299	Roll Set Point:	-0.146	Pitch Set Point:	-0.045	Yaw Set Point:	0.045	X_WP:	0.100	Y_WP:	0.000	Y_WP:	0.500	X:	0.123	Y:	0.022	Z:	0.189	yaw:	-2.576	yaw rate:	-157.401	Roll:	2.879	Pitch:	-0.222	Yaw:	-35.182	Thrust:	70.376
Time:	3.310	Roll Set Point:	-0.151	Pitch Set Point:	-0.043	Yaw Set Point:	0.036	X_WP:	0.100	Y_WP:	0.000	Y_WP:	0.500	X:	0.126	Y:	0.021	Z:	0.192	yaw:	-2.062	yaw rate:	51.373	Roll:	4.690	Pitch:	-0.769	Yaw:	9.322	Thrust:	61.606
Time:	3.320	Roll Set Point:	-0.160	Pitch Set Point:	-0.037	Yaw Set Point:	0.045	X_WP:	0.100	Y_WP:	0.000	Y_WP:	0.500	X:	0.131	Y:	0.018	Z:	0.198	yaw:	-2.553	yaw rate:	-49.111	Roll:	8.400	Pitch:	-4.004	Yaw:	-16.443	Thrust:	39.717
Time:	3.333	Roll Set Point:	-0.165	Pitch Set Point:	-0.034	Yaw Set Point:	0.039	X_WP:	0.100	Y_WP:	0.000	Y_WP:	0.500	X:	0.133	Y:	0.017	Z:	0.202	yaw:	-2.212	yaw rate:	34.125	Roll:	3.774	Pitch:	-1.271	Yaw:	3.939	Thrust:	68.095
Time:	3.344	Roll Set Point:	-0.169	Pitch Set Point:	-0.032	Yaw Set Point:	0.037	X_WP:	0.100	Y_WP:	0.000	Y_WP:	0.500	X:	0.135	Y:	0.015	Z:	0.205	yaw:	-2.106	yaw rate:	10.626	Roll:	4.313	Pitch:	-1.091	Yaw:	-0.498	Thrust:	58.498
Time:	3.357	Roll Set Point:	-0.174	Pitch Set Point:	-0.029	Yaw Set Point:	0.023	X_WP:	0.100	Y_WP:	0.000	Y_WP:	0.500	X:	0.137	Y:	0.014	Z:	0.209	yaw:	-1.317	yaw rate:	78.895	Roll:	4.385	Pitch:	-1.721	Yaw:	15.222	Thrust:	62.881
Time:	3.369	Roll Set Point:	-0.177	Pitch Set Point:	-0.027	Yaw Set Point:	0.045	X_WP:	0.100	Y_WP:	0.000	Y_WP:	0.500	X:	0.139	Y:	0.013	Z:	0.212	yaw:	-2.606	yaw rate:	-128.947	Roll:	2.985	Pitch:	-0.258	Yaw:	-29.628	Thrust:	73.612
Time:	3.380	Roll Set Point:	-0.181	Pitch Set Point:	-0.024	Yaw Set Point:	0.033	X_WP:	0.100	Y_WP:	0.000	Y_WP:	0.500	X:	0.141	Y:	0.011	Z:	0.216	yaw:	-1.879	yaw rate:	72.728	Roll:	4.263	Pitch:	-2.177	Yaw:	14.536	Thrust:	56.424
Time:	3.395	Roll Set Point:	-0.185	Pitch Set Point:	-0.021	Yaw Set Point:	0.032	X_WP:	0.100	Y_WP:	0.000	Y_WP:	0.500	X:	0.143	Y:	0.010	Z:	0.220	yaw:	-1.841	yaw rate:	3.776	Roll:	3.297	Pitch:	-0.692	Yaw:	-2.088	Thrust:	86.287
Time:	3.408	Roll Set Point:	-0.193	Pitch Set Point:	-0.016	Yaw Set Point:	0.030	X_WP:	0.100	Y_WP:	0.000	Y_WP:	0.500	X:	0.147	Y:	0.008	Z:	0.228	yaw:	-1.728	yaw rate:	-43.981	Roll:	6.142	Pitch:	-2.945	Yaw:	-0.178	Thrust:	54.106
Time:	3.419	Roll Set Point:	-0.196	Pitch Set Point:	-0.014	Yaw Set Point:	0.027	X_WP:	0.100	Y_WP:	0.000	Y_WP:	0.500	X:	0.148	Y:	0.006	Z:	0.231	yaw:	-1.549	yaw rate:	17.865	Roll:	3.982	Pitch:	-1.998	Yaw:	2.176	Thrust:	55.120
Time:	3.433	Roll Set Point:	-0.203	Pitch Set Point:	-0.009	Yaw Set Point:	0.024	X_WP:	0.100	Y_WP:	0.000	Y_WP:	0.500	X:	0.151	Y:	0.004	Z:	0.239	yaw:	-1.377	yaw rate:	17.205	Roll:	5.095	Pitch:	-2.604	Yaw:	1.001	Thrust:	65.496
Time:	3.444	Roll Set Point:	-0.206	Pitch Set Point:	-0.005	Yaw Set Point:	0.035	X_WP:	0.100	Y_WP:	0.000	Y_WP:	0.500	X:	0.153	Y:	0.002	Z:	0.242	yaw:	-2.024	yaw rate:	-64.703	Roll:	3.486	Pitch:	-1.740	Yaw:	-18.309	Thrust:	62.918
Time:	3.463	Roll Set Point:	-0.209	Pitch Set Point:	-0.003	Yaw Set Point:	0.014	X_WP:	0.100	Y_WP:	0.000	Y_WP:	0.500	X:	0.154	Y:	0.001	Z:	0.247	yaw:	-0.774	yaw rate:	124.997	Roll:	3.188	Pitch:	-1.353	Yaw:	16.795	Thrust:	100.000
Time:	3.475	Roll Set Point:	-0.215	Pitch Set Point:	0.001	Yaw Set Point:	0.026	X_WP:	0.100	Y_WP:	0.000	Y_WP:	0.500	X:	0.157	Y:	-0.001	Z:	0.254	yaw:	-1.469	yaw rate:	26.101	Roll:	4.841	Pitch:	-1.994	Yaw:	-16.188	Thrust:	59.136
Time:	3.488	Roll Set Point:	-0.217	Pitch Set Point:	0.004	Yaw Set Point:	0.031	X_WP:	0.100	Y_WP:	0.000	Y_WP:	0.500	X:	0.159	Y:	-0.003	Z:	0.258	yaw:	-1.787	yaw rate:	-31.731	Roll:	3.415	Pitch:	-1.726	Yaw:	-9.856	Thrust:	62.078
Time:	3.499	Roll Set Point:	-0.220	Pitch Set Point:	0.006	Yaw Set Point:	0.030	X_WP:	0.100	Y_WP:	0.000	Y_WP:	0.500	X:	0.160	Y:	-0.004	Z:	0.262	yaw:	-1.692	yaw rate:	9.438	Roll:	3.727	Pitch:	-1.318	Yaw:	-0.393	Thrust:	60.571
Time:	3.509	Roll Set Point:	-0.222	Pitch Set Point:	0.008	Yaw Set Point:	0.039	X_WP:	0.100	Y_WP:	0.000	Y_WP:	0.500	X:	0.161	Y:	-0.005	Z:	0.266	yaw:	-2.214	yaw rate:	-52.167	Roll:	3.248	Pitch:	-1.325	Yaw:	-15.638	Thrust:	59.054
Time:	3.521	Roll Set Point:	-0.225	Pitch Set Point:	0.011	Yaw Set Point:	0.028	X_WP:	0.100	Y_WP:	0.000	Y_WP:	0.500	X:	0.163	Y:	-0.006	Z:	0.270	yaw:	-1.593	yaw rate:	62.096	Roll:	3.747	Pitch:	-2.231	Yaw:	11.098	Thrust:	63.388
Time:	3.533	Roll Set Point:	-0.229	Pitch Set Point:	0.016	Yaw Set Point:	0.024	X_WP:	0.100	Y_WP:	0.000	Y_WP:	0.500	X:	0.165	Y:	-0.009	Z:	0.278	yaw:	-1.393	yaw rate:	20.000	Roll:	4.674	Pitch:	-3.799	Yaw:	2.384	Thrust:	45.448
Time:	3.544	Roll Set Point:	-0.231	Pitch Set Point:	0.018	Yaw Set Point:	0.026	X_WP:	0.100	Y_WP:	0.000	Y_WP:	0.500	X:	0.165	Y:	-0.010	Z:	0.282	yaw:	-1.484	yaw rate:	-9.100	Roll:	3.134	Pitch:	-1.657	Yaw:	-4.500	Thrust:	53.694
Time:	3.556	Roll Set Point:	-0.233	Pitch Set Point:	0.020	Yaw Set Point:	0.022	X_WP:	0.100	Y_WP:	0.000	Y_WP:	0.500	X:	0.166	Y:	-0.011	Z:	0.287	yaw:	-1.247	yaw rate:	23.724	Roll:	2.986	Pitch:	-2.126	Yaw:	3.699	Thrust:	54.403
Time:	3.573	Roll Set Point:	-0.234	Pitch Set Point:	0.022	Yaw Set Point:	0.022	X_WP:	0.100	Y_WP:	0.000	Y_WP:	0.500	X:	0.167	Y:	-0.012	Z:	0.291	yaw:	-1.280	yaw rate:	-3.331	Roll:	2.515	Pitch:	-0.789	Yaw:	-2.590	Thrust:	100.000
Time:	3.584	Roll Set Point:	-0.237	Pitch Set Point:	0.026	Yaw Set Point:	0.041	X_WP:	0.100	Y_WP:	0.000	Y_WP:	0.500	X:	0.168	Y:	-0.014	Z:	0.300	yaw:	-2.366	yaw rate:	-46.479	Roll:	4.292	Pitch:	-2.443	Yaw:	-27.829	Thrust:	45.749
Time:	3.602	Roll Set Point:	-0.239	Pitch Set Point:	0.028	Yaw Set Point:	0.035	X_WP:	0.100	Y_WP:	0.000	Y_WP:	0.500	X:	0.169	Y:	-0.015	Z:	0.304	yaw:	-2.023	yaw rate:	34.263	Roll:	2.468	Pitch:	-1.544	Yaw:	2.109	Thrust:	90.056
Time:	3.613	Roll Set Point:	-0.240	Pitch Set Point:	0.031	Yaw Set Point:	0.018	X_WP:	0.100	Y_WP:	0.000	Y_WP:	0.500	X:	0.170	Y:	-0.016	Z:	0.309	yaw:	-1.020	yaw rate:	100.273	Roll:	2.324	Pitch:	-2.591	Yaw:	20.990	Thrust:	65.671
Time:	3.632	Roll Set Point:	-0.241	Pitch Set Point:	0.033	Yaw Set Point:	0.013	X_WP:	0.100	Y_WP:	0.000	Y_WP:	0.500	X:	0.170	Y:	-0.017	Z:	0.313	yaw:	-0.743	yaw rate:	27.771	Roll:	2.359	Pitch:	-1.584	Yaw:	2.624	Thrust:	100.000
Time:	3.643	Roll Set Point:	-0.243	Pitch Set Point:	0.040	Yaw Set Point:	0.011	X_WP:	0.100	Y_WP:	0.000	Y_WP:	0.500	X:	0.172	Y:	-0.020	Z:	0.325	yaw:	-0.606	yaw rate:	121.760	Roll:	3.518	Pitch:	-4.888	Yaw:	1.848	Thrust:	35.951
Time:	3.653	Roll Set Point:	-0.243	Pitch Set Point:	0.040	Yaw Set Point:	0.011	X_WP:	0.100	Y_WP:	0.000	Y_WP:	0.500	X:	0.172	Y:	-0.020	Z:	0.325	yaw:	-0.606	yaw rate:	121.760	Roll:	1.948	Pitch:	-0.428	Yaw:	-1.052	Thrust:	67.948
Time:	3.666	Roll Set Point:	-0.245	Pitch Set Point:	0.043	Yaw Set Point:	0.013	X_WP:	0.100	Y_WP:	0.000	Y_WP:	0.500	X:	0.172	Y:	-0.022	Z:	0.333	yaw:	-0.729	yaw rate:	-16.277	Roll:	2.982	Pitch:	-2.597	Yaw:	-3.747	Thrust:	58.404
Time:	3.677	Roll Set Point:	-0.245	Pitch Set Point:	0.045	Yaw Set Point:	0.022	X_WP:	0.100	Y_WP:	0.000	Y_WP:	0.500	X:	0.172	Y:	-0.023	Z:	0.336	yaw:	-1.274	yaw rate:	-54.558	Roll:	2.220	Pitch:	-1.205	Yaw:	-14.962	Thrust:	59.756
Time:	3.688	Roll Set Point:	-0.246	Pitch Set Point:	0.047	Yaw Set Point:	0.011	X_WP:	0.100	Y_WP:	0.000	Y_WP:	0.500	X:	0.173	Y:	-0.024	Z:	0.341	yaw:	-0.639	yaw rate:	63.496	Roll:	2.475	Pitch:	-2.612	Yaw:	13.806	Thrust:	50.258
Time:	3.706	Roll Set Point:	-0.246	Pitch Set Point:	0.050	Yaw Set Point:	0.008	X_WP:	0.100	Y_WP:	0.000	Y_WP:	0.500	X:	0.173	Y:	-0.025	Z:	0.348	yaw:	-0.484	yaw rate:	15.592	Roll:	2.121	Pitch:	-2.248	Yaw:	1.345	Thrust:	92.393
Time:	3.716	Roll Set Point:	-0.246	Pitch Set Point:	0.053	Yaw Set Point:	0.005	X_WP:	0.100	Y_WP:	0.000	Y_WP:	0.500	X:	0.173	Y:	-0.026	Z:	0.352	yaw:	-0.278	yaw rate:	20.514	Roll:	1.906	Pitch:	-2.754	Yaw:	4.748	Thrust:	54.691
Time:	3.732	Roll Set Point:	-0.247	Pitch Set Point:	0.052	Yaw Set Point:	0.028	X_WP:	0.100	Y_WP:	0.000	Y_WP:	0.500	X:	0.173	Y:	-0.027	Z:	0.356	yaw:	-1.616	yaw rate:	-133.767	Roll:	2.763	Pitch:	0.580	Yaw:	-23.763	Thrust:	92.285
Time:	3.743	Roll Set Point:	-0.246	Pitch Set Point:	0.056	Yaw Set Point:	0.018	X_WP:	0.100	Y_WP:	0.000	Y_WP:	0.500	X:	0.173	Y:	-0.029	Z:	0.363	yaw:	-1.031	yaw rate:	-66.128	Roll:	1.021	Pitch:	-4.022	Yaw:	12.886	Thrust:	43.203
Time:	3.755	Roll Set Point:	-0.246	Pitch Set Point:	0.058	Yaw Set Point:	0.006	X_WP:	0.100	Y_WP:	0.000	Y_WP:	0.500	X:	0.173	Y:	-0.029	Z:	0.367	yaw:	-0.361	yaw rate:	66.920	Roll:	1.781	Pitch:	-2.994	Yaw:	13.779	Thrust:	57.296
Time:	3.768	Roll Set Point:	-0.245	Pitch Set Point:	0.059	Yaw Set Point:	0.016	X_WP:	0.100	Y_WP:	0.000	Y_WP:	0.500	X:	0.172	Y:	-0.030	Z:	0.371	yaw:	-0.895	yaw rate:	-53.326	Roll:	1.625	Pitch:	-0.515	Yaw:	-12.658	Thrust:	74.883
Time:	3.779	Roll Set Point:	-0.245	Pitch Set Point:	0.060	Yaw Set Point:	0.004	X_WP:	0.100	Y_WP:	0.000	Y_WP:	0.500	X:	0.172	Y:	-0.030	Z:	0.375	yaw:	-0.248	yaw rate:	64.608	Roll:	1.639	Pitch:	-2.489	Yaw:	14.052	Thrust:	60.373
Time:	3.795	Roll Set Point:	-0.245	Pitch Set Point:	0.061	Yaw Set Point:	0.009	X_WP:	0.100	Y_WP:	0.000	Y_WP:	0.500	X:	0.172	Y:	-0.031	Z:	0.379	yaw:	-0.534	yaw rate:	-28.540	Roll:	1.925	Pitch:	-1.153	Yaw:	-6.060	Thrust:	78.700
Time:	3.807	Roll Set Point:	-0.243	Pitch Set Point:	0.065	Yaw Set Point:	-0.003	X_WP:	0.100	Y_WP:	0.000	Y_WP:	0.500	X:	0.171	Y:	-0.032	Z:	0.391	yaw:	0.181	yaw rate:	131.073	Roll:	0.420	Pitch:	-3.369	Yaw:	14.311	Thrust:	51.426
Time:	3.821	Roll Set Point:	-0.243	Pitch Set Point:	0.065	Yaw Set Point:	-0.003	X_WP:	0.100	Y_WP:	0.000	Y_WP:	0.500	X:	0.171	Y:	-0.032	Z:	0.391	yaw:	0.181	yaw rate:	131.073	Roll:	1.914	Pitch:	-0.771	Yaw:	-0.089	Thrust:	93.901
Time:	3.835	Roll Set Point:	-0.241	Pitch Set Point:	0.067	Yaw Set Point:	0.007	X_WP:	0.100	Y_WP:	0.000	Y_WP:	0.500	X:	0.170	Y:	-0.034	Z:	0.399	yaw:	-0.413	yaw rate:	6.669	Roll:	1.171	Pitch:	-1.243	Yaw:	-12.373	Thrust:	60.797
Time:	3.847	Roll Set Point:	-0.241	Pitch Set Point:	0.067	Yaw Set Point:	0.008	X_WP:	0.100	Y_WP:	0.000	Y_WP:	0.500	X:	0.170	Y:	-0.034	Z:	0.404	yaw:	-0.469	yaw rate:	-5.582	Roll:	1.662	Pitch:	-1.315	Yaw:	-2.152	Thrust:	54.392
Time:	3.867	Roll Set Point:	-0.239	Pitch Set Point:	0.068	Yaw Set Point:	0.002	X_WP:	0.100	Y_WP:	0.000	Y_WP:	0.500	X:	0.170	Y:	-0.034	Z:	0.408	yaw:	-0.092	yaw rate:	37.626	Roll:	1.074	Pitch:	-1.259	Yaw:	4.435	Thrust:	100.000
Time:	3.878	Roll Set Point:	-0.236	Pitch Set Point:	0.070	Yaw Set Point:	-0.007	X_WP:	0.100	Y_WP:	0.000	Y_WP:	0.500	X:	0.168	Y:	-0.035	Z:	0.417	yaw:	0.381	yaw rate:	89.261	Roll:	-0.122	Pitch:	-2.765	Yaw:	11.014	Thrust:	49.160
Time:	3.896	Roll Set Point:	-0.236	Pitch Set Point:	0.070	Yaw Set Point:	0.007	X_WP:	0.100	Y_WP:	0.000	Y_WP:	0.500	X:	0.168	Y:	-0.035	Z:	0.421	yaw:	-0.376	yaw rate:	-75.725	Roll:	1.965	Pitch:	-0.228	Yaw:	-12.570	Thrust:	93.253
Time:	3.909	Roll Set Point:	-0.233	Pitch Set Point:	0.071	Yaw Set Point:	0.018	X_WP:	0.100	Y_WP:	0.000	Y_WP:	0.500	X:	0.166	Y:	-0.036	Z:	0.435	yaw:	-1.052	yaw rate:	-81.693	Roll:	0.248	Pitch:	-1.062	Yaw:	-14.863	Thrust:	44.840
Time:	3.920	Roll Set Point:	-0.232	Pitch Set Point:	0.071	Yaw Set Point:	0.014	X_WP:	0.100	Y_WP:	0.000	Y_WP:	0.500	X:	0.166	Y:	-0.036	Z:	0.441	yaw:	-0.795	yaw rate:	25.722	Roll:	0.941	Pitch:	-1.189	Yaw:	4.730	Thrust:	48.816
Time:	3.935	Roll Set Point:	-0.230	Pitch Set Point:	0.071	Yaw Set Point:	0.015	X_WP:	0.100	Y_WP:	0.000	Y_WP:	0.500	X:	0.165	Y:	-0.036	Z:	0.446	yaw:	-0.878	yaw rate:	-8.251	Roll:	1.020	Pitch:	-0.865	Yaw:	-3.027	Thrust:	79.578
Time:	3.946	Roll Set Point:	-0.228	Pitch Set Point:	0.073	Yaw Set Point:	-0.004	X_WP:	0.100	Y_WP:	0.000	Y_WP:	0.500	X:	0.164	Y:	-0.036	Z:	0.451	yaw:	0.209	yaw rate:	108.699	Roll:	-0.578	Pitch:	-3.028	Yaw:	25.820	Thrust:	47.274
Time:	3.962	Roll Set Point:	-0.227	Pitch Set Point:	0.072	Yaw Set Point:	0.008	X_WP:	0.100	Y_WP:	0.000	Y_WP:	0.500	X:	0.163	Y:	-0.036	Z:	0.457	yaw:	-0.454	yaw rate:	-66.351	Roll:	1.347	Pitch:	-0.144	Yaw:	-11.831	Thrust:	81.817
Time:	3.975	Roll Set Point:	-0.226	Pitch Set Point:	0.072	Yaw Set Point:	0.008	X_WP:	0.100	Y_WP:	0.000	Y_WP:	0.500	X:	0.163	Y:	-0.036	Z:	0.463	yaw:	-0.487	yaw rate:	-3.261	Roll:	0.839	Pitch:	-0.870	Yaw:	-1.658	Thrust:	65.574
Time:	3.987	Roll Set Point:	-0.225	Pitch Set Point:	0.072	Yaw Set Point:	0.028	X_WP:	0.100	Y_WP:	0.000	Y_WP:	0.500	X:	0.162	Y:	-0.037	Z:	0.468	yaw:	-1.610	yaw rate:	-112.294	Roll:	1.711	Pitch:	0.618	Yaw:	-29.175	Thrust:	47.004
Time:	4.000	Roll Set Point:	-0.221	Pitch Set Point:	0.072	Yaw Set Point:	0.007	X_WP:	0.100	Y_WP:	0.000	Y_WP:	0.500	X:	0.160	Y:	-0.036	Z:	0.481	yaw:	-0.415	yaw rate:	119.487	Roll:	-1.487	Pitch:	-1.856	Yaw:	22.141	Thrust:	42.025
Time:	4.011	Roll Set Point:	-0.220	Pitch Set Point:	0.071	Yaw Set Point:	0.013	X_WP:	0.100	Y_WP:	0.000	Y_WP:	0.500	X:	0.160	Y:	-0.036	Z:	0.487	yaw:	-0.728	yaw rate:	-31.294	Roll:	0.832	Pitch:	-0.451	Yaw:	-8.733	Thrust:	43.927
Time:	4.024	Roll Set Point:	-0.218	Pitch Set Point:	0.071	Yaw Set Point:	0.017	X_WP:	0.100	Y_WP:	0.000	Y_WP:	0.500	X:	0.159	Y:	-0.036	Z:	0.493	yaw:	-0.953	yaw rate:	-22.529	Roll:	0.499	Pitch:	-0.245	Yaw:	-6.191	Thrust:	59.080
Time:	4.035	Roll Set Point:	-0.215	Pitch Set Point:	0.070	Yaw Set Point:	0.026	X_WP:	0.100	Y_WP:	0.000	Y_WP:	0.500	X:	0.157	Y:	-0.036	Z:	0.505	yaw:	-1.490	yaw rate:	-110.456	Roll:	-0.271	Pitch:	-0.121	Yaw:	-14.575	Thrust:	25.874
Time:	4.047	Roll Set Point:	-0.212	Pitch Set Point:	0.071	Yaw Set Point:	0.010	X_WP:	0.100	Y_WP:	0.000	Y_WP:	0.500	X:	0.156	Y:	-0.036	Z:	0.511	yaw:	-0.548	yaw rate:	94.241	Roll:	-0.717	Pitch:	-2.000	Yaw:	21.278	Thrust:	42.079
Time:	4.062	Roll Set Point:	-0.211	Pitch Set Point:	0.070	Yaw Set Point:	0.014	X_WP:	0.100	Y_WP:	0.000	Y_WP:	0.500	X:	0.155	Y:	-0.035	Z:	0.517	yaw:	-0.822	yaw rate:	-27.446	Roll:	0.766	Pitch:	-0.074	Yaw:	-6.321	Thrust:	74.260
Time:	4.073	Roll Set Point:	-0.208	Pitch Set Point:	0.068	Yaw Set Point:	0.025	X_WP:	0.100	Y_WP:	0.000	Y_WP:	0.500	X:	0.154	Y:	-0.035	Z:	0.528	yaw:	-1.459	yaw rate:	-63.669	Roll:	-0.127	Pitch:	0.716	Yaw:	-17.463	Thrust:	26.194
Time:	4.084	Roll Set Point:	-0.206	Pitch Set Point:	0.068	Yaw Set Point:	0.026	X_WP:	0.100	Y_WP:	0.000	Y_WP:	0.500	X:	0.153	Y:	-0.035	Z:	0.534	yaw:	-1.498	yaw rate:	-3.943	Roll:	0.108	Pitch:	-0.476	Yaw:	-3.334	Thrust:	43.696
Time:	4.097	Roll Set Point:	-0.204	Pitch Set Point:	0.068	Yaw Set Point:	0.004	X_WP:	0.100	Y_WP:	0.000	Y_WP:	0.500	X:	0.152	Y:	-0.034	Z:	0.539	yaw:	-0.226	yaw rate:	127.254	Roll:	-0.793	Pitch:	-1.713	Yaw:	23.859	Thrust:	63.085
Time:	4.109	Roll Set Point:	-0.203	Pitch Set Point:	0.067	Yaw Set Point:	0.011	X_WP:	0.100	Y_WP:	0.000	Y_WP:	0.500	X:	0.151	Y:	-0.034	Z:	0.544	yaw:	-0.622	yaw rate:	-39.612	Roll:	0.758	Pitch:	0.273	Yaw:	-10.161	Thrust:	49.209
Time:	4.120	Roll Set Point:	-0.202	Pitch Set Point:	0.066	Yaw Set Point:	0.023	X_WP:	0.100	Y_WP:	0.000	Y_WP:	0.500	X:	0.150	Y:	-0.034	Z:	0.548	yaw:	-1.312	yaw rate:	-68.991	Roll:	0.663	Pitch:	-0.136	Yaw:	-18.523	Thrust:	47.064
Time:	4.134	Roll Set Point:	-0.200	Pitch Set Point:	0.065	Yaw Set Point:	0.028	X_WP:	0.100	Y_WP:	0.000	Y_WP:	0.500	X:	0.149	Y:	-0.033	Z:	0.553	yaw:	-1.602	yaw rate:	-29.019	Roll:	0.352	Pitch:	0.062	Yaw:	-8.044	Thrust:	67.739
Time:	4.145	Roll Set Point:	-0.198	Pitch Set Point:	0.065	Yaw Set Point:	0.009	X_WP:	0.100	Y_WP:	0.000	Y_WP:	0.500	X:	0.149	Y:	-0.033	Z:	0.558	yaw:	-0.492	yaw rate:	110.985	Roll:	-0.421	Pitch:	-1.539	Yaw:	25.696	Thrust:	44.648
Time:	4.162	Roll Set Point:	-0.196	Pitch Set Point:	0.065	Yaw Set Point:	0.017	X_WP:	0.100	Y_WP:	0.000	Y_WP:	0.500	X:	0.148	Y:	-0.033	Z:	0.562	yaw:	-0.982	yaw rate:	-48.971	Roll:	0.097	Pitch:	-0.189	Yaw:	-10.067	Thrust:	72.645
Time:	4.175	Roll Set Point:	-0.191	Pitch Set Point:	0.063	Yaw Set Point:	0.016	X_WP:	0.100	Y_WP:	0.000	Y_WP:	0.500	X:	0.145	Y:	-0.032	Z:	0.574	yaw:	-0.939	yaw rate:	15.330	Roll:	-1.113	Pitch:	0.005	Yaw:	-0.929	Thrust:	51.172
Time:	4.185	Roll Set Point:	-0.190	Pitch Set Point:	0.062	Yaw Set Point:	0.023	X_WP:	0.100	Y_WP:	0.000	Y_WP:	0.500	X:	0.145	Y:	-0.032	Z:	0.578	yaw:	-1.345	yaw rate:	-40.616	Roll:	0.257	Pitch:	0.080	Yaw:	-12.297	Thrust:	43.614
Time:	4.200	Roll Set Point:	-0.188	Pitch Set Point:	0.062	Yaw Set Point:	0.021	X_WP:	0.100	Y_WP:	0.000	Y_WP:	0.500	X:	0.144	Y:	-0.031	Z:	0.582	yaw:	-1.178	yaw rate:	16.688	Roll:	-0.110	Pitch:	-0.394	Yaw:	1.025	Thrust:	68.543
Time:	4.211	Roll Set Point:	-0.187	Pitch Set Point:	0.061	Yaw Set Point:	0.025	X_WP:	0.100	Y_WP:	0.000	Y_WP:	0.500	X:	0.143	Y:	-0.031	Z:	0.585	yaw:	-1.446	yaw rate:	-26.753	Roll:	0.655	Pitch:	-0.340	Yaw:	-8.185	Thrust:	49.883
Time:	4.222	Roll Set Point:	-0.186	Pitch Set Point:	0.061	Yaw Set Point:	0.026	X_WP:	0.100	Y_WP:	0.000	Y_WP:	0.500	X:	0.142	Y:	-0.031	Z:	0.589	yaw:	-1.474	yaw rate:	-2.802	Roll:	-0.053	Pitch:	-0.465	Yaw:	-3.108	Thrust:	48.347
Time:	4.235	Roll Set Point:	-0.181	Pitch Set Point:	0.060	Yaw Set Point:	0.014	X_WP:	0.100	Y_WP:	0.000	Y_WP:	0.500	X:	0.140	Y:	-0.031	Z:	0.595	yaw:	-0.783	yaw rate:	127.598	Roll:	-1.822	Pitch:	-0.777	Yaw:	11.798	Thrust:	54.609
Time:	4.246	Roll Set Point:	-0.181	Pitch Set Point:	0.059	Yaw Set Point:	0.025	X_WP:	0.100	Y_WP:	0.000	Y_WP:	0.500	X:	0.140	Y:	-0.030	Z:	0.598	yaw:	-1.421	yaw rate:	-63.799	Roll:	0.902	Pitch:	0.456	Yaw:	-17.460	Thrust:	50.060
Time:	4.262	Roll Set Point:	-0.179	Pitch Set Point:	0.059	Yaw Set Point:	0.017	X_WP:	0.100	Y_WP:	0.000	Y_WP:	0.500	X:	0.139	Y:	-0.030	Z:	0.601	yaw:	-0.979	yaw rate:	44.245	Roll:	-0.231	Pitch:	-0.763	Yaw:	5.079	Thrust:	85.725
Time:	4.276	Roll Set Point:	-0.178	Pitch Set Point:	0.059	Yaw Set Point:	0.026	X_WP:	0.100	Y_WP:	0.000	Y_WP:	0.500	X:	0.138	Y:	-0.030	Z:	0.604	yaw:	-1.516	yaw rate:	-53.754	Roll:	0.551	Pitch:	-0.111	Yaw:	-13.350	Thrust:	62.814
Time:	4.287	Roll Set Point:	-0.174	Pitch Set Point:	0.058	Yaw Set Point:	0.014	X_WP:	0.100	Y_WP:	0.000	Y_WP:	0.500	X:	0.137	Y:	-0.029	Z:	0.610	yaw:	-0.788	yaw rate:	72.812	Roll:	-2.069	Pitch:	-1.007	Yaw:	15.036	Thrust:	40.745
Time:	4.299	Roll Set Point:	-0.173	Pitch Set Point:	0.057	Yaw Set Point:	0.023	X_WP:	0.100	Y_WP:	0.000	Y_WP:	0.500	X:	0.136	Y:	-0.029	Z:	0.612	yaw:	-1.311	yaw rate:	-52.264	Roll:	0.547	Pitch:	0.240	Yaw:	-14.064	Thrust:	53.246
Time:	4.310	Roll Set Point:	-0.171	Pitch Set Point:	0.057	Yaw Set Point:	0.023	X_WP:	0.100	Y_WP:	0.000	Y_WP:	0.500	X:	0.135	Y:	-0.029	Z:	0.615	yaw:	-1.319	yaw rate:	-0.844	Roll:	-0.246	Pitch:	-0.503	Yaw:	-2.425	Thrust:	49.629
Time:	4.322	Roll Set Point:	-0.171	Pitch Set Point:	0.056	Yaw Set Point:	0.035	X_WP:	0.100	Y_WP:	0.000	Y_WP:	0.500	X:	0.135	Y:	-0.029	Z:	0.617	yaw:	-1.993	yaw rate:	-67.394	Roll:	0.716	Pitch:	0.185	Yaw:	-17.869	Thrust:	55.716
Time:	4.335	Roll Set Point:	-0.167	Pitch Set Point:	0.056	Yaw Set Point:	0.025	X_WP:	0.100	Y_WP:	0.000	Y_WP:	0.500	X:	0.133	Y:	-0.028	Z:	0.622	yaw:	-1.430	yaw rate:	10.146	Roll:	-1.404	Pitch:	-0.768	Yaw:	9.308	Thrust:	50.906
Time:	4.346	Roll Set Point:	-0.166	Pitch Set Point:	0.056	Yaw Set Point:	0.023	X_WP:	0.100	Y_WP:	0.000	Y_WP:	0.500	X:	0.133	Y:	-0.028	Z:	0.624	yaw:	-1.317	yaw rate:	11.233	Roll:	0.049	Pitch:	-0.694	Yaw:	0.291	Thrust:	53.789
Time:	4.361	Roll Set Point:	-0.165	Pitch Set Point:	0.056	Yaw Set Point:	0.027	X_WP:	0.100	Y_WP:	0.000	Y_WP:	0.500	X:	0.132	Y:	-0.028	Z:	0.626	yaw:	-1.530	yaw rate:	-21.293	Roll:	0.181	Pitch:	-0.344	Yaw:	-6.499	Thrust:	69.654
Time:	4.372	Roll Set Point:	-0.164	Pitch Set Point:	0.055	Yaw Set Point:	0.030	X_WP:	0.100	Y_WP:	0.000	Y_WP:	0.500	X:	0.131	Y:	-0.028	Z:	0.628	yaw:	-1.728	yaw rate:	-19.758	Roll:	0.003	Pitch:	-0.310	Yaw:	-7.163	Thrust:	59.568
Time:	4.383	Roll Set Point:	-0.163	Pitch Set Point:	0.055	Yaw Set Point:	0.031	X_WP:	0.100	Y_WP:	0.000	Y_WP:	0.500	X:	0.131	Y:	-0.028	Z:	0.630	yaw:	-1.781	yaw rate:	-5.311	Roll:	-0.035	Pitch:	-0.470	Yaw:	-4.207	Thrust:	46.776
Time:	4.397	Roll Set Point:	-0.161	Pitch Set Point:	0.055	Yaw Set Point:	0.014	X_WP:	0.100	Y_WP:	0.000	Y_WP:	0.500	X:	0.130	Y:	-0.028	Z:	0.632	yaw:	-0.801	yaw rate:	97.972	Roll:	-0.584	Pitch:	-0.815	Yaw:	17.258	Thrust:	65.410
Time:	4.409	Roll Set Point:	-0.159	Pitch Set Point:	0.055	Yaw Set Point:	0.030	X_WP:	0.100	Y_WP:	0.000	Y_WP:	0.500	X:	0.129	Y:	-0.028	Z:	0.635	yaw:	-1.719	yaw rate:	-91.819	Roll:	-0.170	Pitch:	-0.301	Yaw:	-21.705	Thrust:	59.107
Time:	4.420	Roll Set Point:	-0.157	Pitch Set Point:	0.054	Yaw Set Point:	0.021	X_WP:	0.100	Y_WP:	0.000	Y_WP:	0.500	X:	0.128	Y:	-0.027	Z:	0.637	yaw:	-1.182	yaw rate:	53.775	Roll:	-0.857	Pitch:	-0.815	Yaw:	10.680	Thrust:	49.398
Time:	4.433	Roll Set Point:	-0.155	Pitch Set Point:	0.054	Yaw Set Point:	0.025	X_WP:	0.100	Y_WP:	0.000	Y_WP:	0.500	X:	0.127	Y:	-0.027	Z:	0.639	yaw:	-1.459	yaw rate:	-50.439	Roll:	-0.436	Pitch:	-0.472	Yaw:	-8.319	Thrust:	56.616
Time:	4.444	Roll Set Point:	-0.154	Pitch Set Point:	0.054	Yaw Set Point:	0.024	X_WP:	0.100	Y_WP:	0.000	Y_WP:	0.500	X:	0.127	Y:	-0.027	Z:	0.640	yaw:	-1.383	yaw rate:	7.559	Roll:	-0.113	Pitch:	-0.779	Yaw:	-0.584	Thrust:	51.872
Time:	4.459	Roll Set Point:	-0.153	Pitch Set Point:	0.054	Yaw Set Point:	0.023	X_WP:	0.100	Y_WP:	0.000	Y_WP:	0.500	X:	0.126	Y:	-0.027	Z:	0.641	yaw:	-1.341	yaw rate:	4.224	Roll:	-0.084	Pitch:	-0.727	Yaw:	-1.659	Thrust:	57.610
Time:	4.473	Roll Set Point:	-0.152	Pitch Set Point:	0.054	Yaw Set Point:	0.024	X_WP:	0.100	Y_WP:	0.000	Y_WP:	0.500	X:	0.126	Y:	-0.027	Z:	0.643	yaw:	-1.395	yaw rate:	-5.392	Roll:	0.162	Pitch:	-0.585	Yaw:	-3.499	Thrust:	87.780
Time:	4.485	Roll Set Point:	-0.151	Pitch Set Point:	0.054	Yaw Set Point:	0.017	X_WP:	0.100	Y_WP:	0.000	Y_WP:	0.500	X:	0.125	Y:	-0.027	Z:	0.644	yaw:	-0.951	yaw rate:	44.410	Roll:	-0.416	Pitch:	-0.876	Yaw:	8.273	Thrust:	57.084
Time:	4.497	Roll Set Point:	-0.148	Pitch Set Point:	0.055	Yaw Set Point:	0.021	X_WP:	0.100	Y_WP:	0.000	Y_WP:	0.500	X:	0.124	Y:	-0.028	Z:	0.647	yaw:	-1.215	yaw rate:	-11.329	Roll:	-1.162	Pitch:	-0.845	Yaw:	-7.725	Thrust:	54.137
Time:	4.508	Roll Set Point:	-0.147	Pitch Set Point:	0.055	Yaw Set Point:	0.026	X_WP:	0.100	Y_WP:	0.000	Y_WP:	0.500	X:	0.123	Y:	-0.028	Z:	0.647	yaw:	-1.498	yaw rate:	-28.345	Roll:	0.049	Pitch:	-0.554	Yaw:	-9.589	Thrust:	49.717
Time:	4.518	Roll Set Point:	-0.146	Pitch Set Point:	0.055	Yaw Set Point:	0.017	X_WP:	0.100	Y_WP:	0.000	Y_WP:	0.500	X:	0.123	Y:	-0.028	Z:	0.648	yaw:	-0.981	yaw rate:	51.745	Roll:	-0.671	Pitch:	-0.984	Yaw:	11.555	Thrust:	45.764
Time:	4.532	Roll Set Point:	-0.145	Pitch Set Point:	0.055	Yaw Set Point:	0.018	X_WP:	0.100	Y_WP:	0.000	Y_WP:	0.500	X:	0.122	Y:	-0.028	Z:	0.649	yaw:	-1.041	yaw rate:	-6.037	Roll:	0.122	Pitch:	-1.122	Yaw:	-3.189	Thrust:	70.206
Time:	4.544	Roll Set Point:	-0.144	Pitch Set Point:	0.055	Yaw Set Point:	0.019	X_WP:	0.100	Y_WP:	0.000	Y_WP:	0.500	X:	0.122	Y:	-0.028	Z:	0.650	yaw:	-1.068	yaw rate:	-2.709	Roll:	-0.227	Pitch:	-0.225	Yaw:	-2.614	Thrust:	51.380
Time:	4.557	Roll Set Point:	-0.143	Pitch Set Point:	0.055	Yaw Set Point:	0.026	X_WP:	0.100	Y_WP:	0.000	Y_WP:	0.500	X:	0.121	Y:	-0.028	Z:	0.650	yaw:	-1.493	yaw rate:	-42.507	Roll:	0.409	Pitch:	-0.701	Yaw:	-11.193	Thrust:	57.780
Time:	4.568	Roll Set Point:	-0.143	Pitch Set Point:	0.055	Yaw Set Point:	0.026	X_WP:	0.100	Y_WP:	0.000	Y_WP:	0.500	X:	0.121	Y:	-0.028	Z:	0.651	yaw:	-1.497	yaw rate:	-0.368	Roll:	0.106	Pitch:	-0.994	Yaw:	-2.690	Thrust:	60.796
Time:	4.580	Roll Set Point:	-0.141	Pitch Set Point:	0.056	Yaw Set Point:	0.006	X_WP:	0.100	Y_WP:	0.000	Y_WP:	0.500	X:	0.121	Y:	-0.028	Z:	0.652	yaw:	-0.348	yaw rate:	114.869	Roll:	-0.669	Pitch:	-1.046	Yaw:	23.961	Thrust:	55.244
Time:	4.598	Roll Set Point:	-0.140	Pitch Set Point:	0.056	Yaw Set Point:	-0.004	X_WP:	0.100	Y_WP:	0.000	Y_WP:	0.500	X:	0.120	Y:	-0.028	Z:	0.652	yaw:	0.222	yaw rate:	57.035	Roll:	-0.294	Pitch:	-1.101	Yaw:	7.804	Thrust:	88.050
Time:	4.610	Roll Set Point:	-0.139	Pitch Set Point:	0.057	Yaw Set Point:	0.020	X_WP:	0.100	Y_WP:	0.000	Y_WP:	0.500	X:	0.119	Y:	-0.028	Z:	0.653	yaw:	-1.119	yaw rate:	80.983	Roll:	0.375	Pitch:	-0.711	Yaw:	-32.520	Thrust:	56.238
Time:	4.622	Roll Set Point:	-0.138	Pitch Set Point:	0.057	Yaw Set Point:	0.010	X_WP:	0.100	Y_WP:	0.000	Y_WP:	0.500	X:	0.119	Y:	-0.029	Z:	0.654	yaw:	-0.570	yaw rate:	54.821	Roll:	-1.012	Pitch:	-1.138	Yaw:	10.582	Thrust:	49.516
Time:	4.633	Roll Set Point:	-0.137	Pitch Set Point:	0.057	Yaw Set Point:	0.010	X_WP:	0.100	Y_WP:	0.000	Y_WP:	0.500	X:	0.118	Y:	-0.029	Z:	0.654	yaw:	-0.592	yaw rate:	-2.180	Roll:	-0.000	Pitch:	-0.936	Yaw:	-1.851	Thrust:	60.022
Time:	4.644	Roll Set Point:	-0.137	Pitch Set Point:	0.057	Yaw Set Point:	0.022	X_WP:	0.100	Y_WP:	0.000	Y_WP:	0.500	X:	0.118	Y:	-0.029	Z:	0.654	yaw:	-1.250	yaw rate:	-65.787	Roll:	0.489	Pitch:	-0.711	Yaw:	-17.810	Thrust:	51.778
Time:	4.659	Roll Set Point:	-0.136	Pitch Set Point:	0.058	Yaw Set Point:	0.022	X_WP:	0.100	Y_WP:	0.000	Y_WP:	0.500	X:	0.118	Y:	-0.029	Z:	0.655	yaw:	-1.272	yaw rate:	-2.225	Roll:	0.275	Pitch:	-0.943	Yaw:	-2.845	Thrust:	63.198
Time:	4.673	Roll Set Point:	-0.136	Pitch Set Point:	0.058	Yaw Set Point:	0.023	X_WP:	0.100	Y_WP:	0.000	Y_WP:	0.500	X:	0.117	Y:	-0.029	Z:	0.655	yaw:	-1.310	yaw rate:	-3.808	Roll:	0.139	Pitch:	-0.851	Yaw:	-3.198	Thrust:	76.140
Time:	4.684	Roll Set Point:	-0.136	Pitch Set Point:	0.058	Yaw Set Point:	0.036	X_WP:	0.100	Y_WP:	0.000	Y_WP:	0.500	X:	0.117	Y:	-0.030	Z:	0.655	yaw:	-2.042	yaw rate:	-73.181	Roll:	0.824	Pitch:	-0.904	Yaw:	-20.695	Thrust:	51.464
Time:	4.697	Roll Set Point:	-0.134	Pitch Set Point:	0.059	Yaw Set Point:	0.014	X_WP:	0.100	Y_WP:	0.000	Y_WP:	0.500	X:	0.117	Y:	-0.030	Z:	0.655	yaw:	-0.816	yaw rate:	10.821	Roll:	-1.487	Pitch:	-1.362	Yaw:	24.906	Thrust:	55.238
Time:	4.710	Roll Set Point:	-0.133	Pitch Set Point:	0.059	Yaw Set Point:	0.014	X_WP:	0.100	Y_WP:	0.000	Y_WP:	0.500	X:	0.116	Y:	-0.030	Z:	0.656	yaw:	-0.789	yaw rate:	2.671	Roll:	0.010	Pitch:	-0.947	Yaw:	-1.151	Thrust:	58.997
Time:	4.720	Roll Set Point:	-0.132	Pitch Set Point:	0.060	Yaw Set Point:	0.012	X_WP:	0.100	Y_WP:	0.000	Y_WP:	0.500	X:	0.116	Y:	-0.030	Z:	0.655	yaw:	-0.701	yaw rate:	8.797	Roll:	-0.135	Pitch:	-1.454	Yaw:	0.570	Thrust:	52.501
Time:	4.734	Roll Set Point:	-0.132	Pitch Set Point:	0.060	Yaw Set Point:	0.016	X_WP:	0.100	Y_WP:	0.000	Y_WP:	0.500	X:	0.116	Y:	-0.030	Z:	0.655	yaw:	-0.941	yaw rate:	-23.987	Roll:	0.314	Pitch:	-1.025	Yaw:	-6.471	Thrust:	67.663
Time:	4.745	Roll Set Point:	-0.131	Pitch Set Point:	0.060	Yaw Set Point:	0.012	X_WP:	0.100	Y_WP:	0.000	Y_WP:	0.500	X:	0.115	Y:	-0.030	Z:	0.655	yaw:	-0.694	yaw rate:	24.765	Roll:	-0.246	Pitch:	-0.829	Yaw:	4.365	Thrust:	51.377
Time:	4.755	Roll Set Point:	-0.131	Pitch Set Point:	0.061	Yaw Set Point:	0.019	X_WP:	0.100	Y_WP:	0.000	Y_WP:	0.500	X:	0.115	Y:	-0.031	Z:	0.654	yaw:	-1.086	yaw rate:	-39.253	Roll:	0.657	Pitch:	-1.079	Yaw:	-12.260	Thrust:	48.217
Time:	4.768	Roll Set Point:	-0.130	Pitch Set Point:	0.061	Yaw Set Point:	0.009	X_WP:	0.100	Y_WP:	0.000	Y_WP:	0.500	X:	0.115	Y:	-0.031	Z:	0.654	yaw:	-0.543	yaw rate:	54.311	Roll:	-0.343	Pitch:	-1.014	Yaw:	9.031	Thrust:	64.841
Time:	4.779	Roll Set Point:	-0.130	Pitch Set Point:	0.062	Yaw Set Point:	0.000	X_WP:	0.100	Y_WP:	0.000	Y_WP:	0.500	X:	0.115	Y:	-0.031	Z:	0.654	yaw:	-0.004	yaw rate:	53.929	Roll:	-0.483	Pitch:	-1.666	Yaw:	12.243	Thrust:	52.413
Time:	4.797	Roll Set Point:	-0.130	Pitch Set Point:	0.062	Yaw Set Point:	0.021	X_WP:	0.100	Y_WP:	0.000	Y_WP:	0.500	X:	0.115	Y:	-0.031	Z:	0.653	yaw:	-1.179	yaw rate:	-117.481	Roll:	1.108	Pitch:	-0.466	Yaw:	-19.555	Thrust:	86.423
Time:	4.810	Roll Set Point:	-0.129	Pitch Set Point:	0.063	Yaw Set Point:	0.004	X_WP:	0.100	Y_WP:	0.000	Y_WP:	0.500	X:	0.115	Y:	-0.031	Z:	0.651	yaw:	-0.251	yaw rate:	23.358	Roll:	-0.438	Pitch:	-1.503	Yaw:	18.134	Thrust:	66.851
Time:	4.823	Roll Set Point:	-0.129	Pitch Set Point:	0.063	Yaw Set Point:	0.012	X_WP:	0.100	Y_WP:	0.000	Y_WP:	0.500	X:	0.114	Y:	-0.032	Z:	0.650	yaw:	-0.695	yaw rate:	-44.476	Roll:	0.626	Pitch:	-1.021	Yaw:	-10.555	Thrust:	63.930
Time:	4.837	Roll Set Point:	-0.129	Pitch Set Point:	0.063	Yaw Set Point:	0.015	X_WP:	0.100	Y_WP:	0.000	Y_WP:	0.500	X:	0.114	Y:	-0.032	Z:	0.650	yaw:	-0.848	yaw rate:	-15.267	Roll:	0.237	Pitch:	-0.888	Yaw:	-4.821	Thrust:	66.114
Time:	4.848	Roll Set Point:	-0.128	Pitch Set Point:	0.064	Yaw Set Point:	-0.005	X_WP:	0.100	Y_WP:	0.000	Y_WP:	0.500	X:	0.114	Y:	-0.032	Z:	0.647	yaw:	0.260	yaw rate:	110.749	Roll:	-1.015	Pitch:	-1.895	Yaw:	24.566	Thrust:	62.479
Time:	4.866	Roll Set Point:	-0.128	Pitch Set Point:	0.064	Yaw Set Point:	0.003	X_WP:	0.100	Y_WP:	0.000	Y_WP:	0.500	X:	0.114	Y:	-0.032	Z:	0.646	yaw:	-0.161	yaw rate:	-42.064	Roll:	0.646	Pitch:	-0.762	Yaw:	-7.712	Thrust:	82.322
Time:	4.877	Roll Set Point:	-0.128	Pitch Set Point:	0.065	Yaw Set Point:	0.005	X_WP:	0.100	Y_WP:	0.000	Y_WP:	0.500	X:	0.114	Y:	-0.032	Z:	0.643	yaw:	-0.266	yaw rate:	25.615	Roll:	0.231	Pitch:	-1.239	Yaw:	-3.267	Thrust:	63.713
Time:	4.889	Roll Set Point:	-0.128	Pitch Set Point:	0.065	Yaw Set Point:	0.012	X_WP:	0.100	Y_WP:	0.000	Y_WP:	0.500	X:	0.114	Y:	-0.033	Z:	0.641	yaw:	-0.716	yaw rate:	-44.988	Roll:	0.616	Pitch:	-1.076	Yaw:	-11.799	Thrust:	56.204
Time:	4.901	Roll Set Point:	-0.128	Pitch Set Point:	0.066	Yaw Set Point:	0.012	X_WP:	0.100	Y_WP:	0.000	Y_WP:	0.500	X:	0.114	Y:	-0.033	Z:	0.640	yaw:	-0.710	yaw rate:	0.563	Roll:	0.331	Pitch:	-1.031	Yaw:	-1.520	Thrust:	64.314
Time:	4.912	Roll Set Point:	-0.128	Pitch Set Point:	0.066	Yaw Set Point:	0.016	X_WP:	0.100	Y_WP:	0.000	Y_WP:	0.500	X:	0.114	Y:	-0.033	Z:	0.638	yaw:	-0.901	yaw rate:	-19.095	Roll:	0.437	Pitch:	-1.084	Yaw:	-6.550	Thrust:	56.483
Time:	4.923	Roll Set Point:	-0.127	Pitch Set Point:	0.066	Yaw Set Point:	-0.004	X_WP:	0.100	Y_WP:	0.000	Y_WP:	0.500	X:	0.114	Y:	-0.033	Z:	0.637	yaw:	0.218	yaw rate:	111.914	Roll:	-0.656	Pitch:	-1.254	Yaw:	26.280	Thrust:	53.410
Time:	4.935	Roll Set Point:	-0.127	Pitch Set Point:	0.067	Yaw Set Point:	-0.002	X_WP:	0.100	Y_WP:	0.000	Y_WP:	0.500	X:	0.113	Y:	-0.033	Z:	0.634	yaw:	0.107	yaw rate:	-11.065	Roll:	0.144	Pitch:	-1.237	Yaw:	-2.959	Thrust:	63.432
Time:	4.946	Roll Set Point:	-0.127	Pitch Set Point:	0.067	Yaw Set Point:	0.020	X_WP:	0.100	Y_WP:	0.000	Y_WP:	0.500	X:	0.113	Y:	-0.034	Z:	0.632	yaw:	-1.158	yaw rate:	-126.528	Roll:	1.367	Pitch:	-0.989	Yaw:	-31.524	Thrust:	56.571
Time:	4.958	Roll Set Point:	-0.127	Pitch Set Point:	0.067	Yaw Set Point:	0.011	X_WP:	0.100	Y_WP:	0.000	Y_WP:	0.500	X:	0.113	Y:	-0.034	Z:	0.631	yaw:	-0.651	yaw rate:	50.683	Roll:	-0.045	Pitch:	-1.162	Yaw:	9.486	Thrust:	58.682
Time:	4.973	Roll Set Point:	-0.127	Pitch Set Point:	0.068	Yaw Set Point:	0.015	X_WP:	0.100	Y_WP:	0.000	Y_WP:	0.500	X:	0.113	Y:	-0.034	Z:	0.629	yaw:	-0.874	yaw rate:	-22.261	Roll:	0.281	Pitch:	-1.241	Yaw:	-5.783	Thrust:	76.190
Time:	4.984	Roll Set Point:	-0.127	Pitch Set Point:	0.068	Yaw Set Point:	0.007	X_WP:	0.100	Y_WP:	0.000	Y_WP:	0.500	X:	0.113	Y:	-0.034	Z:	0.628	yaw:	-0.425	yaw rate:	44.924	Roll:	0.204	Pitch:	-0.890	Yaw:	9.235	Thrust:	54.761
Time:	4.998	Roll Set Point:	-0.127	Pitch Set Point:	0.068	Yaw Set Point:	0.008	X_WP:	0.100	Y_WP:	0.000	Y_WP:	0.500	X:	0.113	Y:	-0.034	Z:	0.626	yaw:	-0.465	yaw rate:	53.895	Roll:	0.336	Pitch:	-1.275	Yaw:	-2.155	Thrust:	70.255
Time:	5.010	Roll Set Point:	-0.127	Pitch Set Point:	0.068	Yaw Set Point:	0.020	X_WP:	0.100	Y_WP:	0.000	Y_WP:	0.500	X:	0.113	Y:	-0.034	Z:	0.624	yaw:	-1.159	yaw rate:	-69.354	Roll:	0.946	Pitch:	-0.877	Yaw:	-18.662	Thrust:	56.578
Time:	5.036	Roll Set Point:	-0.127	Pitch Set Point:	0.069	Yaw Set Point:	0.011	X_WP:	0.100	Y_WP:	0.000	Y_WP:	0.500	X:	0.113	Y:	-0.035	Z:	0.621	yaw:	-0.644	yaw rate:	51.512	Roll:	-0.082	Pitch:	-1.198	Yaw:	2.751	Thrust:	100.000
Time:	5.049	Roll Set Point:	-0.127	Pitch Set Point:	0.069	Yaw Set Point:	0.010	X_WP:	0.100	Y_WP:	0.000	Y_WP:	0.500	X:	0.113	Y:	-0.035	Z:	0.618	yaw:	-0.554	yaw rate:	-3.699	Roll:	0.421	Pitch:	-0.915	Yaw:	0.435	Thrust:	70.826
Time:	5.066	Roll Set Point:	-0.127	Pitch Set Point:	0.069	Yaw Set Point:	0.016	X_WP:	0.100	Y_WP:	0.000	Y_WP:	0.500	X:	0.113	Y:	-0.035	Z:	0.615	yaw:	-0.918	yaw rate:	-36.402	Roll:	0.512	Pitch:	-1.034	Yaw:	-7.653	Thrust:	88.544
Time:	5.079	Roll Set Point:	-0.128	Pitch Set Point:	0.070	Yaw Set Point:	0.026	X_WP:	0.100	Y_WP:	0.000	Y_WP:	0.500	X:	0.114	Y:	-0.035	Z:	0.614	yaw:	-1.474	yaw rate:	-55.627	Roll:	1.107	Pitch:	-1.112	Yaw:	-14.360	Thrust:	60.088
Time:	5.100	Roll Set Point:	-0.127	Pitch Set Point:	0.070	Yaw Set Point:	0.008	X_WP:	0.100	Y_WP:	0.000	Y_WP:	0.500	X:	0.113	Y:	-0.035	Z:	0.611	yaw:	-0.468	yaw rate:	-5.289	Roll:	-0.373	Pitch:	-0.912	Yaw:	11.707	Thrust:	96.839
Time:	5.110	Roll Set Point:	-0.127	Pitch Set Point:	0.070	Yaw Set Point:	0.006	X_WP:	0.100	Y_WP:	0.000	Y_WP:	0.500	X:	0.113	Y:	-0.035	Z:	0.610	yaw:	-0.358	yaw rate:	11.020	Roll:	0.216	Pitch:	-1.314	Yaw:	1.238	Thrust:	60.698
Time:	5.121	Roll Set Point:	-0.128	Pitch Set Point:	0.070	Yaw Set Point:	0.018	X_WP:	0.100	Y_WP:	0.000	Y_WP:	0.500	X:	0.114	Y:	-0.035	Z:	0.608	yaw:	-1.024	yaw rate:	-66.587	Roll:	1.287	Pitch:	-0.446	Yaw:	-17.839	Thrust:	48.825
Time:	5.135	Roll Set Point:	-0.127	Pitch Set Point:	0.070	Yaw Set Point:	0.008	X_WP:	0.100	Y_WP:	0.000	Y_WP:	0.500	X:	0.113	Y:	-0.035	Z:	0.607	yaw:	-0.471	yaw rate:	-17.242	Roll:	-0.108	Pitch:	-1.055	Yaw:	8.857	Thrust:	72.549
Time:	5.147	Roll Set Point:	-0.128	Pitch Set Point:	0.070	Yaw Set Point:	0.017	X_WP:	0.100	Y_WP:	0.000	Y_WP:	0.500	X:	0.114	Y:	-0.035	Z:	0.606	yaw:	-1.000	yaw rate:	-52.917	Roll:	1.000	Pitch:	-1.003	Yaw:	-14.545	Thrust:	51.860
Time:	5.163	Roll Set Point:	-0.127	Pitch Set Point:	0.070	Yaw Set Point:	0.013	X_WP:	0.100	Y_WP:	0.000	Y_WP:	0.500	X:	0.113	Y:	-0.035	Z:	0.606	yaw:	-0.768	yaw rate:	23.268	Roll:	0.079	Pitch:	-0.982	Yaw:	2.123	Thrust:	66.753
Time:	5.174	Roll Set Point:	-0.127	Pitch Set Point:	0.070	Yaw Set Point:	0.003	X_WP:	0.100	Y_WP:	0.000	Y_WP:	0.500	X:	0.113	Y:	-0.035	Z:	0.606	yaw:	-0.191	yaw rate:	57.647	Roll:	-0.156	Pitch:	-0.917	Yaw:	11.076	Thrust:	58.177
Time:	5.184	Roll Set Point:	-0.127	Pitch Set Point:	0.070	Yaw Set Point:	0.012	X_WP:	0.100	Y_WP:	0.000	Y_WP:	0.500	X:	0.113	Y:	-0.035	Z:	0.605	yaw:	-0.696	yaw rate:	-50.442	Roll:	1.017	Pitch:	-0.866	Yaw:	-14.657	Thrust:	45.081
Time:	5.200	Roll Set Point:	-0.127	Pitch Set Point:	0.069	Yaw Set Point:	0.003	X_WP:	0.100	Y_WP:	0.000	Y_WP:	0.500	X:	0.113	Y:	-0.035	Z:	0.605	yaw:	-0.154	yaw rate:	54.213	Roll:	-0.155	Pitch:	-0.807	Yaw:	8.359	Thrust:	64.503
Time:	5.212	Roll Set Point:	-0.127	Pitch Set Point:	0.070	Yaw Set Point:	0.007	X_WP:	0.100	Y_WP:	0.000	Y_WP:	0.500	X:	0.113	Y:	-0.035	Z:	0.605	yaw:	-0.413	yaw rate:	27.309	Roll:	0.484	Pitch:	-0.981	Yaw:	-6.712	Thrust:	56.931
Time:	5.225	Roll Set Point:	-0.127	Pitch Set Point:	0.069	Yaw Set Point:	0.007	X_WP:	0.100	Y_WP:	0.000	Y_WP:	0.500	X:	0.113	Y:	-0.035	Z:	0.605	yaw:	-0.426	yaw rate:	-1.314	Roll:	0.397	Pitch:	-0.770	Yaw:	-1.598	Thrust:	56.575
Time:	5.236	Roll Set Point:	-0.127	Pitch Set Point:	0.069	Yaw Set Point:	0.016	X_WP:	0.100	Y_WP:	0.000	Y_WP:	0.500	X:	0.113	Y:	-0.034	Z:	0.606	yaw:	-0.888	yaw rate:	-46.224	Roll:	0.831	Pitch:	-0.326	Yaw:	-12.389	Thrust:	47.845
Time:	5.249	Roll Set Point:	-0.127	Pitch Set Point:	0.069	Yaw Set Point:	0.019	X_WP:	0.100	Y_WP:	0.000	Y_WP:	0.500	X:	0.113	Y:	-0.035	Z:	0.606	yaw:	-1.072	yaw rate:	-18.353	Roll:	0.367	Pitch:	-1.199	Yaw:	-6.112	Thrust:	46.772
Time:	5.265	Roll Set Point:	-0.127	Pitch Set Point:	0.069	Yaw Set Point:	0.018	X_WP:	0.100	Y_WP:	0.000	Y_WP:	0.500	X:	0.113	Y:	-0.035	Z:	0.606	yaw:	-1.032	yaw rate:	3.980	Roll:	0.425	Pitch:	-0.873	Yaw:	-1.718	Thrust:	68.253
Time:	5.277	Roll Set Point:	-0.128	Pitch Set Point:	0.068	Yaw Set Point:	0.022	X_WP:	0.100	Y_WP:	0.000	Y_WP:	0.500	X:	0.113	Y:	-0.034	Z:	0.607	yaw:	-1.283	yaw rate:	-89.887	Roll:	0.586	Pitch:	-0.152	Yaw:	-7.950	Thrust:	53.859
Time:	5.298	Roll Set Point:	-0.127	Pitch Set Point:	0.067	Yaw Set Point:	0.002	X_WP:	0.100	Y_WP:	0.000	Y_WP:	0.500	X:	0.113	Y:	-0.034	Z:	0.607	yaw:	-0.119	yaw rate:	116.470	Roll:	-0.698	Pitch:	-0.757	Yaw:	13.690	Thrust:	87.123
Time:	5.310	Roll Set Point:	-0.127	Pitch Set Point:	0.067	Yaw Set Point:	0.002	X_WP:	0.100	Y_WP:	0.000	Y_WP:	0.500	X:	0.113	Y:	-0.033	Z:	0.608	yaw:	-0.136	yaw rate:	-1.790	Roll:	0.351	Pitch:	-0.600	Yaw:	-1.321	Thrust:	61.303
Time:	5.321	Roll Set Point:	-0.127	Pitch Set Point:	0.066	Yaw Set Point:	0.005	X_WP:	0.100	Y_WP:	0.000	Y_WP:	0.500	X:	0.113	Y:	-0.033	Z:	0.608	yaw:	-0.278	yaw rate:	-14.163	Roll:	0.486	Pitch:	-0.774	Yaw:	-4.395	Thrust:	46.064
Time:	5.335	Roll Set Point:	-0.126	Pitch Set Point:	0.066	Yaw Set Point:	-0.003	X_WP:	0.100	Y_WP:	0.000	Y_WP:	0.500	X:	0.113	Y:	-0.033	Z:	0.607	yaw:	0.154	yaw rate:	5.084	Roll:	-0.058	Pitch:	-0.485	Yaw:	7.770	Thrust:	57.011
Time:	5.347	Roll Set Point:	-0.126	Pitch Set Point:	0.066	Yaw Set Point:	-0.010	X_WP:	0.100	Y_WP:	0.000	Y_WP:	0.500	X:	0.113	Y:	-0.033	Z:	0.607	yaw:	0.545	yaw rate:	39.070	Roll:	-0.076	Pitch:	-0.967	Yaw:	8.747	Thrust:	53.279
Time:	5.367	Roll Set Point:	-0.126	Pitch Set Point:	0.065	Yaw Set Point:	-0.010	X_WP:	0.100	Y_WP:	0.000	Y_WP:	0.500	X:	0.113	Y:	-0.033	Z:	0.607	yaw:	0.551	yaw rate:	0.582	Roll:	0.370	Pitch:	-0.684	Yaw:	-0.295	Thrust:	77.695
Time:	5.379	Roll Set Point:	-0.127	Pitch Set Point:	0.064	Yaw Set Point:	0.004	X_WP:	0.100	Y_WP:	0.000	Y_WP:	0.500	X:	0.113	Y:	-0.032	Z:	0.605	yaw:	-0.215	yaw rate:	62.979	Roll:	0.944	Pitch:	-0.275	Yaw:	-17.014	Thrust:	64.277
Time:	5.399	Roll Set Point:	-0.126	Pitch Set Point:	0.064	Yaw Set Point:	-0.010	X_WP:	0.100	Y_WP:	0.000	Y_WP:	0.500	X:	0.113	Y:	-0.032	Z:	0.604	yaw:	0.585	yaw rate:	79.973	Roll:	-0.317	Pitch:	-0.727	Yaw:	10.374	Thrust:	88.233
Time:	5.413	Roll Set Point:	-0.126	Pitch Set Point:	0.063	Yaw Set Point:	-0.007	X_WP:	0.100	Y_WP:	0.000	Y_WP:	0.500	X:	0.113	Y:	-0.031	Z:	0.602	yaw:	0.408	yaw rate:	-31.950	Roll:	0.562	Pitch:	-0.254	Yaw:	-3.637	Thrust:	61.260
Time:	5.432	Roll Set Point:	-0.126	Pitch Set Point:	0.062	Yaw Set Point:	-0.015	X_WP:	0.100	Y_WP:	0.000	Y_WP:	0.500	X:	0.113	Y:	-0.031	Z:	0.602	yaw:	0.868	yaw rate:	46.023	Roll:	-0.083	Pitch:	-0.721	Yaw:	6.234	Thrust:	84.708
Time:	5.444	Roll Set Point:	-0.127	Pitch Set Point:	0.061	Yaw Set Point:	-0.001	X_WP:	0.100	Y_WP:	0.000	Y_WP:	0.500	X:	0.113	Y:	-0.031	Z:	0.600	yaw:	0.083	yaw rate:	-27.638	Roll:	0.978	Pitch:	-0.018	Yaw:	-17.366	Thrust:	64.235
Time:	5.465	Roll Set Point:	-0.127	Pitch Set Point:	0.061	Yaw Set Point:	-0.009	X_WP:	0.100	Y_WP:	0.000	Y_WP:	0.500	X:	0.113	Y:	-0.030	Z:	0.599	yaw:	0.524	yaw rate:	44.148	Roll:	0.031	Pitch:	-0.662	Yaw:	5.165	Thrust:	81.887
Time:	5.478	Roll Set Point:	-0.126	Pitch Set Point:	0.060	Yaw Set Point:	-0.004	X_WP:	0.100	Y_WP:	0.000	Y_WP:	0.500	X:	0.113	Y:	-0.030	Z:	0.598	yaw:	0.207	yaw rate:	-5.863	Roll:	0.386	Pitch:	-0.206	Yaw:	-6.615	Thrust:	67.247
