Time:	2.141	Roll Set Point:	-0.015	Pitch Set Point:	0.029	Yaw Set Point:	-2.958	X_WP:	0.000	Y_WP:	0.000	Y_WP:	0.500	X:	0.163	Y:	0.069	Z:	0.401	yaw:	169.492	yaw rate:	0.410	Roll:	-4.276	Pitch:	-2.823	Yaw:	236.655	Thrust:	5.448
Time:	2.157	Roll Set Point:	-0.015	Pitch Set Point:	0.029	Yaw Set Point:	-2.958	X_WP:	0.000	Y_WP:	0.000	Y_WP:	0.500	X:	0.163	Y:	0.069	Z:	0.401	yaw:	169.492	yaw rate:	-0.001	Roll:	-4.312	Pitch:	-2.811	Yaw:	237.579	Thrust:	5.509
Time:	2.172	Roll Set Point:	-0.015	Pitch Set Point:	0.029	Yaw Set Point:	-2.958	X_WP:	0.000	Y_WP:	0.000	Y_WP:	0.500	X:	0.163	Y:	0.069	Z:	0.401	yaw:	169.482	yaw rate:	-2.156	Roll:	-4.227	Pitch:	-2.885	Yaw:	238.044	Thrust:	5.815
Time:	2.188	Roll Set Point:	-0.015	Pitch Set Point:	0.029	Yaw Set Point:	-2.958	X_WP:	0.000	Y_WP:	0.000	Y_WP:	0.500	X:	0.163	Y:	0.069	Z:	0.401	yaw:	169.482	yaw rate:	-2.156	Roll:	-4.293	Pitch:	-2.836	Yaw:	238.204	Thrust:	6.003
Time:	2.204	Roll Set Point:	-0.015	Pitch Set Point:	0.029	Yaw Set Point:	-2.958	X_WP:	0.000	Y_WP:	0.000	Y_WP:	0.500	X:	0.163	Y:	0.069	Z:	0.401	yaw:	169.485	yaw rate:	-0.933	Roll:	-4.354	Pitch:	-2.826	Yaw:	238.270	Thrust:	6.232
Time:	2.219	Roll Set Point:	-0.015	Pitch Set Point:	0.029	Yaw Set Point:	-2.958	X_WP:	0.000	Y_WP:	0.000	Y_WP:	0.500	X:	0.163	Y:	0.069	Z:	0.401	yaw:	169.485	yaw rate:	-0.933	Roll:	-4.306	Pitch:	-2.843	Yaw:	238.206	Thrust:	6.373
Time:	2.235	Roll Set Point:	-0.015	Pitch Set Point:	0.029	Yaw Set Point:	-2.958	X_WP:	0.000	Y_WP:	0.000	Y_WP:	0.500	X:	0.163	Y:	0.069	Z:	0.401	yaw:	169.479	yaw rate:	-0.372	Roll:	-4.241	Pitch:	-2.858	Yaw:	238.105	Thrust:	6.557
Time:	2.250	Roll Set Point:	-0.015	Pitch Set Point:	0.029	Yaw Set Point:	-2.958	X_WP:	0.000	Y_WP:	0.000	Y_WP:	0.500	X:	0.163	Y:	0.069	Z:	0.401	yaw:	169.479	yaw rate:	-0.372	Roll:	-4.315	Pitch:	-2.851	Yaw:	238.193	Thrust:	6.741
Time:	2.266	Roll Set Point:	-0.015	Pitch Set Point:	0.029	Yaw Set Point:	-2.958	X_WP:	0.000	Y_WP:	0.000	Y_WP:	0.500	X:	0.163	Y:	0.069	Z:	0.401	yaw:	169.473	yaw rate:	-2.512	Roll:	-4.345	Pitch:	-2.899	Yaw:	238.080	Thrust:	6.940
Time:	2.297	Roll Set Point:	-0.015	Pitch Set Point:	0.029	Yaw Set Point:	-2.958	X_WP:	0.000	Y_WP:	0.000	Y_WP:	0.500	X:	0.163	Y:	0.069	Z:	0.401	yaw:	169.485	yaw rate:	1.038	Roll:	-4.373	Pitch:	-2.860	Yaw:	239.854	Thrust:	8.749
Time:	2.313	Roll Set Point:	-0.015	Pitch Set Point:	0.029	Yaw Set Point:	-2.958	X_WP:	0.000	Y_WP:	0.000	Y_WP:	0.500	X:	0.163	Y:	0.069	Z:	0.401	yaw:	169.499	yaw rate:	1.407	Roll:	-4.364	Pitch:	-2.851	Yaw:	238.461	Thrust:	7.313
Time:	2.328	Roll Set Point:	-0.015	Pitch Set Point:	0.029	Yaw Set Point:	-2.958	X_WP:	0.000	Y_WP:	0.000	Y_WP:	0.500	X:	0.163	Y:	0.069	Z:	0.401	yaw:	169.503	yaw rate:	0.334	Roll:	-4.389	Pitch:	-2.836	Yaw:	238.289	Thrust:	7.558
Time:	2.344	Roll Set Point:	-0.015	Pitch Set Point:	0.028	Yaw Set Point:	-2.958	X_WP:	0.000	Y_WP:	0.000	Y_WP:	0.500	X:	0.163	Y:	0.069	Z:	0.401	yaw:	169.504	yaw rate:	0.140	Roll:	-4.332	Pitch:	-2.852	Yaw:	238.258	Thrust:	7.678
Time:	2.359	Roll Set Point:	-0.015	Pitch Set Point:	0.029	Yaw Set Point:	-2.958	X_WP:	0.000	Y_WP:	0.000	Y_WP:	0.500	X:	0.163	Y:	0.069	Z:	0.401	yaw:	169.494	yaw rate:	-0.974	Roll:	-4.340	Pitch:	-2.879	Yaw:	238.058	Thrust:	7.853
Time:	2.375	Roll Set Point:	-0.015	Pitch Set Point:	0.029	Yaw Set Point:	-2.958	X_WP:	0.000	Y_WP:	0.000	Y_WP:	0.500	X:	0.163	Y:	0.069	Z:	0.401	yaw:	169.496	yaw rate:	0.159	Roll:	-4.337	Pitch:	-2.892	Yaw:	238.250	Thrust:	7.909
Time:	2.391	Roll Set Point:	-0.015	Pitch Set Point:	0.029	Yaw Set Point:	-2.958	X_WP:	0.000	Y_WP:	0.000	Y_WP:	0.500	X:	0.163	Y:	0.069	Z:	0.401	yaw:	169.492	yaw rate:	-0.345	Roll:	-4.386	Pitch:	-2.916	Yaw:	238.161	Thrust:	8.366
Time:	2.406	Roll Set Point:	-0.015	Pitch Set Point:	0.029	Yaw Set Point:	-2.958	X_WP:	0.000	Y_WP:	0.000	Y_WP:	0.500	X:	0.163	Y:	0.069	Z:	0.401	yaw:	169.492	yaw rate:	-0.345	Roll:	-4.369	Pitch:	-2.885	Yaw:	238.218	Thrust:	8.418
Time:	2.422	Roll Set Point:	-0.015	Pitch Set Point:	0.029	Yaw Set Point:	-2.958	X_WP:	0.000	Y_WP:	0.000	Y_WP:	0.500	X:	0.163	Y:	0.069	Z:	0.401	yaw:	169.475	yaw rate:	-1.455	Roll:	-4.322	Pitch:	-2.905	Yaw:	237.908	Thrust:	8.602
Time:	2.438	Roll Set Point:	-0.015	Pitch Set Point:	0.029	Yaw Set Point:	-2.958	X_WP:	0.000	Y_WP:	0.000	Y_WP:	0.500	X:	0.163	Y:	0.069	Z:	0.401	yaw:	169.484	yaw rate:	0.833	Roll:	-4.395	Pitch:	-2.878	Yaw:	238.346	Thrust:	8.746
Time:	2.453	Roll Set Point:	-0.015	Pitch Set Point:	0.029	Yaw Set Point:	-2.958	X_WP:	0.000	Y_WP:	0.000	Y_WP:	0.500	X:	0.163	Y:	0.069	Z:	0.401	yaw:	169.475	yaw rate:	-0.817	Roll:	-4.360	Pitch:	-2.931	Yaw:	238.058	Thrust:	8.879
Time:	2.469	Roll Set Point:	-0.015	Pitch Set Point:	0.029	Yaw Set Point:	-2.958	X_WP:	0.000	Y_WP:	0.000	Y_WP:	0.500	X:	0.163	Y:	0.069	Z:	0.401	yaw:	169.489	yaw rate:	1.381	Roll:	-4.453	Pitch:	-2.856	Yaw:	238.446	Thrust:	9.312
Time:	2.485	Roll Set Point:	-0.015	Pitch Set Point:	0.029	Yaw Set Point:	-2.958	X_WP:	0.000	Y_WP:	0.000	Y_WP:	0.500	X:	0.163	Y:	0.069	Z:	0.401	yaw:	169.485	yaw rate:	-0.430	Roll:	-4.394	Pitch:	-2.895	Yaw:	238.142	Thrust:	9.317
Time:	2.502	Roll Set Point:	-0.015	Pitch Set Point:	0.029	Yaw Set Point:	-2.958	X_WP:	0.000	Y_WP:	0.000	Y_WP:	0.500	X:	0.163	Y:	0.069	Z:	0.401	yaw:	169.490	yaw rate:	0.497	Roll:	-4.380	Pitch:	-2.926	Yaw:	238.448	Thrust:	9.864
Time:	2.518	Roll Set Point:	-0.015	Pitch Set Point:	0.029	Yaw Set Point:	-2.958	X_WP:	0.000	Y_WP:	0.000	Y_WP:	0.500	X:	0.163	Y:	0.069	Z:	0.401	yaw:	169.490	yaw rate:	0.497	Roll:	-4.421	Pitch:	-2.917	Yaw:	238.316	Thrust:	9.993
Time:	2.534	Roll Set Point:	-0.015	Pitch Set Point:	0.029	Yaw Set Point:	-2.958	X_WP:	0.000	Y_WP:	0.000	Y_WP:	0.500	X:	0.163	Y:	0.069	Z:	0.401	yaw:	169.476	yaw rate:	0.833	Roll:	-4.412	Pitch:	-2.947	Yaw:	237.973	Thrust:	9.981
Time:	2.550	Roll Set Point:	-0.015	Pitch Set Point:	0.029	Yaw Set Point:	-2.958	X_WP:	0.000	Y_WP:	0.000	Y_WP:	0.500	X:	0.163	Y:	0.069	Z:	0.401	yaw:	169.484	yaw rate:	0.795	Roll:	-4.432	Pitch:	-2.889	Yaw:	238.339	Thrust:	10.178
Time:	2.565	Roll Set Point:	-0.015	Pitch Set Point:	0.029	Yaw Set Point:	-2.958	X_WP:	0.000	Y_WP:	0.000	Y_WP:	0.500	X:	0.163	Y:	0.069	Z:	0.401	yaw:	169.491	yaw rate:	0.657	Roll:	-4.418	Pitch:	-2.914	Yaw:	238.327	Thrust:	10.139
Time:	2.581	Roll Set Point:	-0.015	Pitch Set Point:	0.029	Yaw Set Point:	-2.958	X_WP:	0.000	Y_WP:	0.000	Y_WP:	0.500	X:	0.163	Y:	0.069	Z:	0.401	yaw:	169.491	yaw rate:	0.657	Roll:	-4.432	Pitch:	-2.926	Yaw:	238.217	Thrust:	10.460
Time:	2.597	Roll Set Point:	-0.015	Pitch Set Point:	0.029	Yaw Set Point:	-2.958	X_WP:	0.000	Y_WP:	0.000	Y_WP:	0.500	X:	0.163	Y:	0.069	Z:	0.401	yaw:	169.475	yaw rate:	-1.579	Roll:	-4.431	Pitch:	-2.982	Yaw:	237.930	Thrust:	10.593
Time:	2.612	Roll Set Point:	-0.015	Pitch Set Point:	0.029	Yaw Set Point:	-2.958	X_WP:	0.000	Y_WP:	0.000	Y_WP:	0.500	X:	0.163	Y:	0.069	Z:	0.401	yaw:	169.500	yaw rate:	0.289	Roll:	-4.491	Pitch:	-2.828	Yaw:	238.651	Thrust:	10.994
Time:	2.628	Roll Set Point:	-0.015	Pitch Set Point:	0.029	Yaw Set Point:	-2.958	X_WP:	0.000	Y_WP:	0.000	Y_WP:	0.500	X:	0.163	Y:	0.069	Z:	0.401	yaw:	169.493	yaw rate:	-0.738	Roll:	-4.439	Pitch:	-2.986	Yaw:	238.096	Thrust:	10.947
Time:	2.643	Roll Set Point:	-0.015	Pitch Set Point:	0.029	Yaw Set Point:	-2.958	X_WP:	0.000	Y_WP:	0.000	Y_WP:	0.500	X:	0.163	Y:	0.069	Z:	0.401	yaw:	169.489	yaw rate:	-0.443	Roll:	-4.420	Pitch:	-2.957	Yaw:	238.139	Thrust:	11.106
Time:	2.659	Roll Set Point:	-0.015	Pitch Set Point:	0.029	Yaw Set Point:	-2.958	X_WP:	0.000	Y_WP:	0.000	Y_WP:	0.500	X:	0.163	Y:	0.069	Z:	0.401	yaw:	169.489	yaw rate:	-0.443	Roll:	-4.465	Pitch:	-2.949	Yaw:	238.254	Thrust:	11.543
Time:	2.677	Roll Set Point:	-0.015	Pitch Set Point:	0.029	Yaw Set Point:	-2.958	X_WP:	0.000	Y_WP:	0.000	Y_WP:	0.500	X:	0.163	Y:	0.069	Z:	0.401	yaw:	169.491	yaw rate:	-1.555	Roll:	-4.517	Pitch:	-2.947	Yaw:	238.405	Thrust:	12.292
Time:	2.697	Roll Set Point:	-0.015	Pitch Set Point:	0.029	Yaw Set Point:	-2.958	X_WP:	0.000	Y_WP:	0.000	Y_WP:	0.500	X:	0.163	Y:	0.069	Z:	0.401	yaw:	169.501	yaw rate:	0.987	Roll:	-4.547	Pitch:	-2.955	Yaw:	238.799	Thrust:	13.480
Time:	2.715	Roll Set Point:	-0.015	Pitch Set Point:	0.029	Yaw Set Point:	-2.958	X_WP:	0.000	Y_WP:	0.000	Y_WP:	0.500	X:	0.163	Y:	0.069	Z:	0.401	yaw:	169.483	yaw rate:	0.062	Roll:	-4.453	Pitch:	-3.042	Yaw:	238.196	Thrust:	12.949
Time:	2.730	Roll Set Point:	-0.015	Pitch Set Point:	0.029	Yaw Set Point:	-2.958	X_WP:	0.000	Y_WP:	0.000	Y_WP:	0.500	X:	0.163	Y:	0.069	Z:	0.401	yaw:	169.479	yaw rate:	-0.338	Roll:	-4.503	Pitch:	-2.978	Yaw:	238.144	Thrust:	12.281
Time:	2.746	Roll Set Point:	-0.015	Pitch Set Point:	0.029	Yaw Set Point:	-2.958	X_WP:	0.000	Y_WP:	0.000	Y_WP:	0.500	X:	0.163	Y:	0.069	Z:	0.401	yaw:	169.489	yaw rate:	1.017	Roll:	-4.502	Pitch:	-2.920	Yaw:	238.387	Thrust:	12.320
Time:	2.763	Roll Set Point:	-0.015	Pitch Set Point:	0.029	Yaw Set Point:	-2.958	X_WP:	0.000	Y_WP:	0.000	Y_WP:	0.500	X:	0.163	Y:	0.069	Z:	0.401	yaw:	169.500	yaw rate:	1.046	Roll:	-4.531	Pitch:	-2.935	Yaw:	238.489	Thrust:	12.867
Time:	2.781	Roll Set Point:	-0.015	Pitch Set Point:	0.029	Yaw Set Point:	-2.958	X_WP:	0.000	Y_WP:	0.000	Y_WP:	0.500	X:	0.163	Y:	0.069	Z:	0.401	yaw:	169.500	yaw rate:	1.046	Roll:	-4.546	Pitch:	-3.000	Yaw:	238.537	Thrust:	14.115
Time:	2.797	Roll Set Point:	-0.015	Pitch Set Point:	0.029	Yaw Set Point:	-2.958	X_WP:	0.000	Y_WP:	0.000	Y_WP:	0.500	X:	0.163	Y:	0.069	Z:	0.401	yaw:	169.481	yaw rate:	1.168	Roll:	-4.448	Pitch:	-3.043	Yaw:	237.889	Thrust:	12.953
Time:	2.813	Roll Set Point:	-0.015	Pitch Set Point:	0.029	Yaw Set Point:	-2.958	X_WP:	0.000	Y_WP:	0.000	Y_WP:	0.500	X:	0.163	Y:	0.069	Z:	0.401	yaw:	169.494	yaw rate:	1.303	Roll:	-4.546	Pitch:	-2.940	Yaw:	238.440	Thrust:	12.964
Time:	2.829	Roll Set Point:	-0.015	Pitch Set Point:	0.029	Yaw Set Point:	-2.958	X_WP:	0.000	Y_WP:	0.000	Y_WP:	0.500	X:	0.163	Y:	0.069	Z:	0.401	yaw:	169.499	yaw rate:	0.453	Roll:	-4.549	Pitch:	-2.968	Yaw:	238.367	Thrust:	13.657
Time:	2.845	Roll Set Point:	-0.015	Pitch Set Point:	0.029	Yaw Set Point:	-2.958	X_WP:	0.000	Y_WP:	0.000	Y_WP:	0.500	X:	0.163	Y:	0.069	Z:	0.401	yaw:	169.480	yaw rate:	-1.885	Roll:	-4.502	Pitch:	-3.048	Yaw:	238.007	Thrust:	13.797
Time:	2.861	Roll Set Point:	-0.015	Pitch Set Point:	0.029	Yaw Set Point:	-2.958	X_WP:	0.000	Y_WP:	0.000	Y_WP:	0.500	X:	0.163	Y:	0.069	Z:	0.401	yaw:	169.479	yaw rate:	-0.099	Roll:	-4.534	Pitch:	-3.028	Yaw:	238.183	Thrust:	13.776
Time:	2.877	Roll Set Point:	-0.015	Pitch Set Point:	0.029	Yaw Set Point:	-2.958	X_WP:	0.000	Y_WP:	0.000	Y_WP:	0.500	X:	0.163	Y:	0.069	Z:	0.401	yaw:	169.479	yaw rate:	-0.099	Roll:	-4.535	Pitch:	-2.996	Yaw:	238.200	Thrust:	13.804
Time:	2.892	Roll Set Point:	-0.015	Pitch Set Point:	0.029	Yaw Set Point:	-2.958	X_WP:	0.000	Y_WP:	0.000	Y_WP:	0.500	X:	0.163	Y:	0.069	Z:	0.401	yaw:	169.485	yaw rate:	0.646	Roll:	-4.540	Pitch:	-2.957	Yaw:	238.317	Thrust:	13.944
Time:	2.908	Roll Set Point:	-0.015	Pitch Set Point:	0.029	Yaw Set Point:	-2.958	X_WP:	0.000	Y_WP:	0.000	Y_WP:	0.500	X:	0.163	Y:	0.069	Z:	0.401	yaw:	169.485	yaw rate:	0.646	Roll:	-4.548	Pitch:	-3.003	Yaw:	238.214	Thrust:	14.205
Time:	2.924	Roll Set Point:	-0.015	Pitch Set Point:	0.029	Yaw Set Point:	-2.958	X_WP:	0.000	Y_WP:	0.000	Y_WP:	0.500	X:	0.163	Y:	0.069	Z:	0.401	yaw:	169.487	yaw rate:	1.270	Roll:	-4.594	Pitch:	-3.002	Yaw:	238.233	Thrust:	14.330
Time:	2.939	Roll Set Point:	-0.015	Pitch Set Point:	0.029	Yaw Set Point:	-2.958	X_WP:	0.000	Y_WP:	0.000	Y_WP:	0.500	X:	0.163	Y:	0.069	Z:	0.401	yaw:	169.461	yaw rate:	-2.647	Roll:	-4.466	Pitch:	-3.105	Yaw:	237.731	Thrust:	14.606
Time:	2.955	Roll Set Point:	-0.015	Pitch Set Point:	0.029	Yaw Set Point:	-2.958	X_WP:	0.000	Y_WP:	0.000	Y_WP:	0.500	X:	0.163	Y:	0.069	Z:	0.401	yaw:	169.484	yaw rate:	2.348	Roll:	-4.611	Pitch:	-2.928	Yaw:	238.600	Thrust:	14.544
Time:	2.970	Roll Set Point:	-0.015	Pitch Set Point:	0.029	Yaw Set Point:	-2.958	X_WP:	0.000	Y_WP:	0.000	Y_WP:	0.500	X:	0.163	Y:	0.069	Z:	0.401	yaw:	169.483	yaw rate:	-0.060	Roll:	-4.569	Pitch:	-3.038	Yaw:	238.196	Thrust:	14.983
Time:	2.986	Roll Set Point:	-0.015	Pitch Set Point:	0.029	Yaw Set Point:	-2.958	X_WP:	0.000	Y_WP:	0.000	Y_WP:	0.500	X:	0.163	Y:	0.069	Z:	0.401	yaw:	169.483	yaw rate:	-0.060	Roll:	-4.575	Pitch:	-3.022	Yaw:	238.206	Thrust:	15.102
Time:	3.002	Roll Set Point:	-0.015	Pitch Set Point:	0.028	Yaw Set Point:	-2.958	X_WP:	0.000	Y_WP:	0.000	Y_WP:	0.500	X:	0.163	Y:	0.069	Z:	0.401	yaw:	169.509	yaw rate:	1.442	Roll:	-4.660	Pitch:	-2.935	Yaw:	238.664	Thrust:	15.388
Time:	3.017	Roll Set Point:	-0.015	Pitch Set Point:	0.028	Yaw Set Point:	-2.958	X_WP:	0.000	Y_WP:	0.000	Y_WP:	0.500	X:	0.163	Y:	0.069	Z:	0.401	yaw:	169.509	yaw rate:	1.442	Roll:	-4.589	Pitch:	-3.027	Yaw:	238.241	Thrust:	15.475
Time:	3.033	Roll Set Point:	-0.015	Pitch Set Point:	0.029	Yaw Set Point:	-2.958	X_WP:	0.000	Y_WP:	0.000	Y_WP:	0.500	X:	0.163	Y:	0.069	Z:	0.401	yaw:	169.486	yaw rate:	0.287	Roll:	-4.538	Pitch:	-3.092	Yaw:	237.827	Thrust:	15.496
Time:	3.049	Roll Set Point:	-0.015	Pitch Set Point:	0.029	Yaw Set Point:	-2.958	X_WP:	0.000	Y_WP:	0.000	Y_WP:	0.500	X:	0.163	Y:	0.069	Z:	0.401	yaw:	169.491	yaw rate:	0.474	Roll:	-4.571	Pitch:	-3.027	Yaw:	238.296	Thrust:	15.925
Time:	3.064	Roll Set Point:	-0.015	Pitch Set Point:	0.029	Yaw Set Point:	-2.958	X_WP:	0.000	Y_WP:	0.000	Y_WP:	0.500	X:	0.163	Y:	0.069	Z:	0.401	yaw:	169.497	yaw rate:	0.606	Roll:	-4.654	Pitch:	-3.034	Yaw:	238.326	Thrust:	16.167
Time:	3.080	Roll Set Point:	-0.015	Pitch Set Point:	0.029	Yaw Set Point:	-2.958	X_WP:	0.000	Y_WP:	0.000	Y_WP:	0.500	X:	0.163	Y:	0.069	Z:	0.401	yaw:	169.497	yaw rate:	0.065	Roll:	-4.607	Pitch:	-3.010	Yaw:	238.240	Thrust:	16.148
Time:	3.095	Roll Set Point:	-0.015	Pitch Set Point:	0.029	Yaw Set Point:	-2.958	X_WP:	0.000	Y_WP:	0.000	Y_WP:	0.500	X:	0.163	Y:	0.069	Z:	0.401	yaw:	169.483	yaw rate:	-1.404	Roll:	-4.583	Pitch:	-3.126	Yaw:	237.967	Thrust:	16.319
Time:	3.111	Roll Set Point:	-0.015	Pitch Set Point:	0.029	Yaw Set Point:	-2.958	X_WP:	0.000	Y_WP:	0.000	Y_WP:	0.500	X:	0.163	Y:	0.069	Z:	0.401	yaw:	169.497	yaw rate:	1.358	Roll:	-4.626	Pitch:	-2.990	Yaw:	238.452	Thrust:	16.633
Time:	3.127	Roll Set Point:	-0.015	Pitch Set Point:	0.029	Yaw Set Point:	-2.958	X_WP:	0.000	Y_WP:	0.000	Y_WP:	0.500	X:	0.163	Y:	0.069	Z:	0.401	yaw:	169.464	yaw rate:	-3.339	Roll:	-4.626	Pitch:	-3.154	Yaw:	237.619	Thrust:	16.805
Time:	3.142	Roll Set Point:	-0.015	Pitch Set Point:	0.029	Yaw Set Point:	-2.958	X_WP:	0.000	Y_WP:	0.000	Y_WP:	0.500	X:	0.163	Y:	0.069	Z:	0.401	yaw:	169.494	yaw rate:	3.022	Roll:	-4.641	Pitch:	-2.971	Yaw:	238.729	Thrust:	17.098
Time:	3.158	Roll Set Point:	-0.015	Pitch Set Point:	0.029	Yaw Set Point:	-2.958	X_WP:	0.000	Y_WP:	0.000	Y_WP:	0.500	X:	0.163	Y:	0.069	Z:	0.401	yaw:	169.481	yaw rate:	-1.284	Roll:	-4.630	Pitch:	-3.085	Yaw:	237.984	Thrust:	16.903
Time:	3.174	Roll Set Point:	-0.015	Pitch Set Point:	0.029	Yaw Set Point:	-2.958	X_WP:	0.000	Y_WP:	0.000	Y_WP:	0.500	X:	0.163	Y:	0.069	Z:	0.401	yaw:	169.487	yaw rate:	0.637	Roll:	-4.656	Pitch:	-3.089	Yaw:	238.319	Thrust:	17.413
Time:	3.189	Roll Set Point:	-0.015	Pitch Set Point:	0.029	Yaw Set Point:	-2.958	X_WP:	0.000	Y_WP:	0.000	Y_WP:	0.500	X:	0.163	Y:	0.069	Z:	0.401	yaw:	169.487	yaw rate:	0.637	Roll:	-4.650	Pitch:	-3.071	Yaw:	238.210	Thrust:	17.504
Time:	3.205	Roll Set Point:	-0.015	Pitch Set Point:	0.029	Yaw Set Point:	-2.958	X_WP:	0.000	Y_WP:	0.000	Y_WP:	0.500	X:	0.163	Y:	0.069	Z:	0.401	yaw:	169.495	yaw rate:	0.506	Roll:	-4.674	Pitch:	-3.019	Yaw:	238.351	Thrust:	17.714
Time:	3.221	Roll Set Point:	-0.015	Pitch Set Point:	0.029	Yaw Set Point:	-2.958	X_WP:	0.000	Y_WP:	0.000	Y_WP:	0.500	X:	0.163	Y:	0.069	Z:	0.401	yaw:	169.495	yaw rate:	0.506	Roll:	-4.663	Pitch:	-3.077	Yaw:	238.222	Thrust:	17.888
Time:	3.236	Roll Set Point:	-0.015	Pitch Set Point:	0.029	Yaw Set Point:	-2.958	X_WP:	0.000	Y_WP:	0.000	Y_WP:	0.500	X:	0.163	Y:	0.069	Z:	0.401	yaw:	169.478	yaw rate:	-1.734	Roll:	-4.633	Pitch:	-3.160	Yaw:	237.907	Thrust:	17.934
Time:	3.252	Roll Set Point:	-0.015	Pitch Set Point:	0.029	Yaw Set Point:	-2.958	X_WP:	0.000	Y_WP:	0.000	Y_WP:	0.500	X:	0.163	Y:	0.069	Z:	0.401	yaw:	169.478	yaw rate:	-1.734	Roll:	-4.673	Pitch:	-3.087	Yaw:	238.198	Thrust:	18.258
Time:	3.267	Roll Set Point:	-0.015	Pitch Set Point:	0.028	Yaw Set Point:	-2.958	X_WP:	0.000	Y_WP:	0.000	Y_WP:	0.500	X:	0.163	Y:	0.069	Z:	0.401	yaw:	169.507	yaw rate:	2.785	Roll:	-4.736	Pitch:	-2.984	Yaw:	238.736	Thrust:	18.728
Time:	3.283	Roll Set Point:	-0.015	Pitch Set Point:	0.028	Yaw Set Point:	-2.958	X_WP:	0.000	Y_WP:	0.000	Y_WP:	0.500	X:	0.163	Y:	0.069	Z:	0.401	yaw:	169.510	yaw rate:	0.251	Roll:	-4.703	Pitch:	-3.088	Yaw:	238.285	Thrust:	18.585
Time:	3.299	Roll Set Point:	-0.015	Pitch Set Point:	0.029	Yaw Set Point:	-2.958	X_WP:	0.000	Y_WP:	0.000	Y_WP:	0.500	X:	0.163	Y:	0.069	Z:	0.401	yaw:	169.483	yaw rate:	-2.637	Roll:	-4.629	Pitch:	-3.200	Yaw:	237.756	Thrust:	18.584
Time:	3.314	Roll Set Point:	-0.015	Pitch Set Point:	0.029	Yaw Set Point:	-2.958	X_WP:	0.000	Y_WP:	0.000	Y_WP:	0.500	X:	0.163	Y:	0.069	Z:	0.401	yaw:	169.487	yaw rate:	0.363	Roll:	-4.715	Pitch:	-3.072	Yaw:	238.272	Thrust:	19.173
Time:	3.330	Roll Set Point:	-0.015	Pitch Set Point:	0.029	Yaw Set Point:	-2.958	X_WP:	0.000	Y_WP:	0.000	Y_WP:	0.500	X:	0.163	Y:	0.069	Z:	0.401	yaw:	169.492	yaw rate:	0.524	Roll:	-4.713	Pitch:	-3.054	Yaw:	238.306	Thrust:	19.179
Time:	3.346	Roll Set Point:	-0.015	Pitch Set Point:	0.028	Yaw Set Point:	-2.958	X_WP:	0.000	Y_WP:	0.000	Y_WP:	0.500	X:	0.163	Y:	0.069	Z:	0.401	yaw:	169.504	yaw rate:	1.189	Roll:	-4.730	Pitch:	-3.108	Yaw:	238.437	Thrust:	19.395
Time:	3.361	Roll Set Point:	-0.015	Pitch Set Point:	0.029	Yaw Set Point:	-2.958	X_WP:	0.000	Y_WP:	0.000	Y_WP:	0.500	X:	0.163	Y:	0.069	Z:	0.401	yaw:	169.485	yaw rate:	-1.902	Roll:	-4.684	Pitch:	-3.183	Yaw:	237.885	Thrust:	19.437
Time:	3.377	Roll Set Point:	-0.015	Pitch Set Point:	0.029	Yaw Set Point:	-2.958	X_WP:	0.000	Y_WP:	0.000	Y_WP:	0.500	X:	0.163	Y:	0.069	Z:	0.401	yaw:	169.473	yaw rate:	-1.153	Roll:	-4.672	Pitch:	-3.128	Yaw:	237.999	Thrust:	19.842
Time:	3.392	Roll Set Point:	-0.015	Pitch Set Point:	0.029	Yaw Set Point:	-2.958	X_WP:	0.000	Y_WP:	0.000	Y_WP:	0.500	X:	0.163	Y:	0.069	Z:	0.401	yaw:	169.487	yaw rate:	1.316	Roll:	-4.741	Pitch:	-3.085	Yaw:	238.434	Thrust:	19.991
Time:	3.408	Roll Set Point:	-0.015	Pitch Set Point:	0.029	Yaw Set Point:	-2.958	X_WP:	0.000	Y_WP:	0.000	Y_WP:	0.500	X:	0.163	Y:	0.069	Z:	0.401	yaw:	169.500	yaw rate:	1.339	Roll:	-4.815	Pitch:	-3.080	Yaw:	238.454	Thrust:	20.023
Time:	3.424	Roll Set Point:	-0.015	Pitch Set Point:	0.029	Yaw Set Point:	-2.958	X_WP:	0.000	Y_WP:	0.000	Y_WP:	0.500	X:	0.163	Y:	0.069	Z:	0.401	yaw:	169.487	yaw rate:	-1.295	Roll:	-4.682	Pitch:	-3.188	Yaw:	237.990	Thrust:	20.341
Time:	3.439	Roll Set Point:	-0.015	Pitch Set Point:	0.029	Yaw Set Point:	-2.958	X_WP:	0.000	Y_WP:	0.000	Y_WP:	0.500	X:	0.163	Y:	0.069	Z:	0.401	yaw:	169.487	yaw rate:	-1.295	Roll:	-4.743	Pitch:	-3.132	Yaw:	238.211	Thrust:	20.487
Time:	3.455	Roll Set Point:	-0.015	Pitch Set Point:	0.029	Yaw Set Point:	-2.958	X_WP:	0.000	Y_WP:	0.000	Y_WP:	0.500	X:	0.163	Y:	0.069	Z:	0.401	yaw:	169.496	yaw rate:	0.463	Roll:	-4.722	Pitch:	-3.088	Yaw:	238.380	Thrust:	20.801
Time:	3.471	Roll Set Point:	-0.015	Pitch Set Point:	0.029	Yaw Set Point:	-2.958	X_WP:	0.000	Y_WP:	0.000	Y_WP:	0.500	X:	0.163	Y:	0.069	Z:	0.401	yaw:	169.496	yaw rate:	0.463	Roll:	-4.753	Pitch:	-3.138	Yaw:	238.221	Thrust:	20.830
Time:	3.486	Roll Set Point:	-0.015	Pitch Set Point:	0.029	Yaw Set Point:	-2.958	X_WP:	0.000	Y_WP:	0.000	Y_WP:	0.500	X:	0.163	Y:	0.069	Z:	0.401	yaw:	169.482	yaw rate:	0.009	Roll:	-4.755	Pitch:	-3.186	Yaw:	237.966	Thrust:	20.975
Time:	3.502	Roll Set Point:	-0.015	Pitch Set Point:	0.029	Yaw Set Point:	-2.958	X_WP:	0.000	Y_WP:	0.000	Y_WP:	0.500	X:	0.163	Y:	0.069	Z:	0.401	yaw:	169.482	yaw rate:	0.009	Roll:	-4.765	Pitch:	-3.147	Yaw:	238.204	Thrust:	21.232
Time:	3.517	Roll Set Point:	-0.015	Pitch Set Point:	0.029	Yaw Set Point:	-2.958	X_WP:	0.000	Y_WP:	0.000	Y_WP:	0.500	X:	0.163	Y:	0.069	Z:	0.401	yaw:	169.495	yaw rate:	1.332	Roll:	-4.813	Pitch:	-3.095	Yaw:	238.446	Thrust:	21.313
Time:	3.533	Roll Set Point:	-0.015	Pitch Set Point:	0.029	Yaw Set Point:	-2.958	X_WP:	0.000	Y_WP:	0.000	Y_WP:	0.500	X:	0.163	Y:	0.069	Z:	0.401	yaw:	169.495	yaw rate:	1.332	Roll:	-4.778	Pitch:	-3.153	Yaw:	238.223	Thrust:	21.602
Time:	3.549	Roll Set Point:	-0.015	Pitch Set Point:	0.029	Yaw Set Point:	-2.958	X_WP:	0.000	Y_WP:	0.000	Y_WP:	0.500	X:	0.163	Y:	0.069	Z:	0.401	yaw:	169.488	yaw rate:	-0.769	Roll:	-4.766	Pitch:	-3.221	Yaw:	238.083	Thrust:	21.845
Time:	3.564	Roll Set Point:	-0.015	Pitch Set Point:	0.029	Yaw Set Point:	-2.958	X_WP:	0.000	Y_WP:	0.000	Y_WP:	0.500	X:	0.163	Y:	0.069	Z:	0.401	yaw:	169.498	yaw rate:	1.132	Roll:	-4.808	Pitch:	-3.091	Yaw:	238.402	Thrust:	21.953
Time:	3.580	Roll Set Point:	-0.015	Pitch Set Point:	0.029	Yaw Set Point:	-2.958	X_WP:	0.000	Y_WP:	0.000	Y_WP:	0.500	X:	0.163	Y:	0.069	Z:	0.401	yaw:	169.496	yaw rate:	-0.198	Roll:	-4.814	Pitch:	-3.186	Yaw:	238.191	Thrust:	22.242
Time:	3.596	Roll Set Point:	-0.015	Pitch Set Point:	0.029	Yaw Set Point:	-2.958	X_WP:	0.000	Y_WP:	0.000	Y_WP:	0.500	X:	0.163	Y:	0.069	Z:	0.401	yaw:	169.491	yaw rate:	-0.488	Roll:	-4.757	Pitch:	-3.213	Yaw:	238.138	Thrust:	22.265
Time:	3.611	Roll Set Point:	-0.015	Pitch Set Point:	0.029	Yaw Set Point:	-2.958	X_WP:	0.000	Y_WP:	0.000	Y_WP:	0.500	X:	0.163	Y:	0.069	Z:	0.401	yaw:	169.504	yaw rate:	1.261	Roll:	-4.881	Pitch:	-3.133	Yaw:	238.443	Thrust:	22.517
Time:	3.627	Roll Set Point:	-0.015	Pitch Set Point:	0.029	Yaw Set Point:	-2.958	X_WP:	0.000	Y_WP:	0.000	Y_WP:	0.500	X:	0.163	Y:	0.069	Z:	0.401	yaw:	169.504	yaw rate:	1.261	Roll:	-4.814	Pitch:	-3.177	Yaw:	238.235	Thrust:	22.717
Time:	3.642	Roll Set Point:	-0.015	Pitch Set Point:	0.029	Yaw Set Point:	-2.958	X_WP:	0.000	Y_WP:	0.000	Y_WP:	0.500	X:	0.163	Y:	0.069	Z:	0.401	yaw:	169.492	yaw rate:	0.673	Roll:	-4.755	Pitch:	-3.157	Yaw:	238.027	Thrust:	22.952
Time:	3.658	Roll Set Point:	-0.015	Pitch Set Point:	0.028	Yaw Set Point:	-2.959	X_WP:	0.000	Y_WP:	0.000	Y_WP:	0.500	X:	0.163	Y:	0.069	Z:	0.401	yaw:	169.511	yaw rate:	1.877	Roll:	-4.881	Pitch:	-3.162	Yaw:	238.559	Thrust:	23.016
Time:	3.674	Roll Set Point:	-0.015	Pitch Set Point:	0.029	Yaw Set Point:	-2.958	X_WP:	0.000	Y_WP:	0.000	Y_WP:	0.500	X:	0.163	Y:	0.069	Z:	0.401	yaw:	169.484	yaw rate:	-2.688	Roll:	-4.771	Pitch:	-3.313	Yaw:	237.768	Thrust:	23.406
Time:	3.689	Roll Set Point:	-0.015	Pitch Set Point:	0.029	Yaw Set Point:	-2.958	X_WP:	0.000	Y_WP:	0.000	Y_WP:	0.500	X:	0.163	Y:	0.069	Z:	0.401	yaw:	169.484	yaw rate:	-2.688	Roll:	-4.835	Pitch:	-3.194	Yaw:	238.208	Thrust:	23.466
Time:	3.705	Roll Set Point:	-0.015	Pitch Set Point:	0.029	Yaw Set Point:	-2.958	X_WP:	0.000	Y_WP:	0.000	Y_WP:	0.500	X:	0.163	Y:	0.069	Z:	0.401	yaw:	169.499	yaw rate:	1.475	Roll:	-4.867	Pitch:	-3.082	Yaw:	238.467	Thrust:	23.564
Time:	3.721	Roll Set Point:	-0.015	Pitch Set Point:	0.029	Yaw Set Point:	-2.958	X_WP:	0.000	Y_WP:	0.000	Y_WP:	0.500	X:	0.163	Y:	0.069	Z:	0.401	yaw:	169.499	yaw rate:	1.475	Roll:	-4.848	Pitch:	-3.199	Yaw:	238.231	Thrust:	23.864
Time:	3.736	Roll Set Point:	-0.015	Pitch Set Point:	0.029	Yaw Set Point:	-2.958	X_WP:	0.000	Y_WP:	0.000	Y_WP:	0.500	X:	0.163	Y:	0.069	Z:	0.401	yaw:	169.494	yaw rate:	-0.463	Roll:	-4.828	Pitch:	-3.288	Yaw:	238.141	Thrust:	23.940
Time:	3.752	Roll Set Point:	-0.015	Pitch Set Point:	0.029	Yaw Set Point:	-2.958	X_WP:	0.000	Y_WP:	0.000	Y_WP:	0.500	X:	0.163	Y:	0.069	Z:	0.401	yaw:	169.494	yaw rate:	-0.463	Roll:	-4.859	Pitch:	-3.209	Yaw:	238.224	Thrust:	24.238
Time:	3.782	Roll Set Point:	-0.015	Pitch Set Point:	0.028	Yaw Set Point:	-2.958	X_WP:	0.000	Y_WP:	0.000	Y_WP:	0.500	X:	0.163	Y:	0.069	Z:	0.401	yaw:	169.507	yaw rate:	-0.035	Roll:	-5.409	Pitch:	-3.503	Yaw:	239.759	Thrust:	41.547
Time:	3.797	Roll Set Point:	-0.015	Pitch Set Point:	0.029	Yaw Set Point:	-2.958	X_WP:	0.000	Y_WP:	0.000	Y_WP:	0.500	X:	0.163	Y:	0.069	Z:	0.401	yaw:	169.466	yaw rate:	-0.782	Roll:	-4.782	Pitch:	-3.422	Yaw:	237.491	Thrust:	24.472
Time:	3.813	Roll Set Point:	-0.015	Pitch Set Point:	0.028	Yaw Set Point:	-2.959	X_WP:	0.000	Y_WP:	0.000	Y_WP:	0.500	X:	0.163	Y:	0.069	Z:	0.401	yaw:	169.514	yaw rate:	4.828	Roll:	-4.983	Pitch:	-2.992	Yaw:	239.058	Thrust:	24.811
Time:	3.828	Roll Set Point:	-0.015	Pitch Set Point:	0.028	Yaw Set Point:	-2.959	X_WP:	0.000	Y_WP:	0.000	Y_WP:	0.500	X:	0.163	Y:	0.069	Z:	0.401	yaw:	169.516	yaw rate:	0.167	Roll:	-4.834	Pitch:	-3.200	Yaw:	238.279	Thrust:	24.942
Time:	3.844	Roll Set Point:	-0.015	Pitch Set Point:	0.028	Yaw Set Point:	-2.959	X_WP:	0.000	Y_WP:	0.000	Y_WP:	0.500	X:	0.163	Y:	0.069	Z:	0.401	yaw:	169.516	yaw rate:	0.167	Roll:	-4.864	Pitch:	-3.223	Yaw:	238.251	Thrust:	25.133
Time:	3.860	Roll Set Point:	-0.015	Pitch Set Point:	0.029	Yaw Set Point:	-2.958	X_WP:	0.000	Y_WP:	0.000	Y_WP:	0.500	X:	0.163	Y:	0.069	Z:	0.401	yaw:	169.477	yaw rate:	-3.880	Roll:	-4.780	Pitch:	-3.436	Yaw:	237.547	Thrust:	25.238
Time:	3.875	Roll Set Point:	-0.015	Pitch Set Point:	0.029	Yaw Set Point:	-2.958	X_WP:	0.000	Y_WP:	0.000	Y_WP:	0.500	X:	0.163	Y:	0.069	Z:	0.401	yaw:	169.478	yaw rate:	0.135	Roll:	-4.875	Pitch:	-3.228	Yaw:	238.221	Thrust:	25.523
Time:	3.891	Roll Set Point:	-0.015	Pitch Set Point:	0.029	Yaw Set Point:	-2.958	X_WP:	0.000	Y_WP:	0.000	Y_WP:	0.500	X:	0.163	Y:	0.069	Z:	0.401	yaw:	169.500	yaw rate:	2.222	Roll:	-4.916	Pitch:	-3.094	Yaw:	238.602	Thrust:	25.754
Time:	3.907	Roll Set Point:	-0.015	Pitch Set Point:	0.029	Yaw Set Point:	-2.958	X_WP:	0.000	Y_WP:	0.000	Y_WP:	0.500	X:	0.163	Y:	0.069	Z:	0.401	yaw:	169.490	yaw rate:	-1.015	Roll:	-4.846	Pitch:	-3.327	Yaw:	238.046	Thrust:	25.812
Time:	3.922	Roll Set Point:	-0.015	Pitch Set Point:	0.029	Yaw Set Point:	-2.958	X_WP:	0.000	Y_WP:	0.000	Y_WP:	0.500	X:	0.163	Y:	0.069	Z:	0.401	yaw:	169.490	yaw rate:	-1.015	Roll:	-4.863	Pitch:	-3.246	Yaw:	238.216	Thrust:	26.059
Time:	3.938	Roll Set Point:	-0.015	Pitch Set Point:	0.029	Yaw Set Point:	-2.958	X_WP:	0.000	Y_WP:	0.000	Y_WP:	0.500	X:	0.163	Y:	0.069	Z:	0.401	yaw:	169.489	yaw rate:	1.415	Roll:	-4.851	Pitch:	-3.230	Yaw:	238.189	Thrust:	26.244
Time:	3.953	Roll Set Point:	-0.015	Pitch Set Point:	0.028	Yaw Set Point:	-2.958	X_WP:	0.000	Y_WP:	0.000	Y_WP:	0.500	X:	0.163	Y:	0.069	Z:	0.401	yaw:	169.506	yaw rate:	1.704	Roll:	-4.914	Pitch:	-3.152	Yaw:	238.524	Thrust:	26.486
Time:	3.969	Roll Set Point:	-0.015	Pitch Set Point:	0.029	Yaw Set Point:	-2.958	X_WP:	0.000	Y_WP:	0.000	Y_WP:	0.500	X:	0.163	Y:	0.069	Z:	0.401	yaw:	169.479	yaw rate:	-2.698	Roll:	-4.774	Pitch:	-3.402	Yaw:	237.748	Thrust:	26.593
Time:	3.985	Roll Set Point:	-0.015	Pitch Set Point:	0.029	Yaw Set Point:	-2.958	X_WP:	0.000	Y_WP:	0.000	Y_WP:	0.500	X:	0.163	Y:	0.069	Z:	0.401	yaw:	169.460	yaw rate:	-1.884	Roll:	-4.842	Pitch:	-3.353	Yaw:	237.858	Thrust:	26.771
Time:	4.000	Roll Set Point:	-0.015	Pitch Set Point:	0.029	Yaw Set Point:	-2.958	X_WP:	0.000	Y_WP:	0.000	Y_WP:	0.500	X:	0.163	Y:	0.069	Z:	0.401	yaw:	169.496	yaw rate:	3.553	Roll:	-4.920	Pitch:	-3.140	Yaw:	238.820	Thrust:	26.994
Time:	4.016	Roll Set Point:	-0.015	Pitch Set Point:	0.029	Yaw Set Point:	-2.958	X_WP:	0.000	Y_WP:	0.000	Y_WP:	0.500	X:	0.163	Y:	0.069	Z:	0.401	yaw:	169.497	yaw rate:	0.160	Roll:	-4.883	Pitch:	-3.197	Yaw:	238.249	Thrust:	27.218
Time:	4.032	Roll Set Point:	-0.015	Pitch Set Point:	0.029	Yaw Set Point:	-2.958	X_WP:	0.000	Y_WP:	0.000	Y_WP:	0.500	X:	0.163	Y:	0.069	Z:	0.401	yaw:	169.498	yaw rate:	0.069	Roll:	-4.859	Pitch:	-3.317	Yaw:	238.238	Thrust:	27.438
Time:	4.047	Roll Set Point:	-0.015	Pitch Set Point:	0.029	Yaw Set Point:	-2.958	X_WP:	0.000	Y_WP:	0.000	Y_WP:	0.500	X:	0.163	Y:	0.069	Z:	0.401	yaw:	169.498	yaw rate:	0.069	Roll:	-4.864	Pitch:	-3.277	Yaw:	238.230	Thrust:	27.598
Time:	4.063	Roll Set Point:	-0.015	Pitch Set Point:	0.029	Yaw Set Point:	-2.958	X_WP:	0.000	Y_WP:	0.000	Y_WP:	0.500	X:	0.163	Y:	0.069	Z:	0.401	yaw:	169.488	yaw rate:	1.837	Roll:	-4.852	Pitch:	-3.306	Yaw:	238.048	Thrust:	27.607
Time:	4.079	Roll Set Point:	-0.015	Pitch Set Point:	0.028	Yaw Set Point:	-2.958	X_WP:	0.000	Y_WP:	0.000	Y_WP:	0.500	X:	0.163	Y:	0.069	Z:	0.401	yaw:	169.508	yaw rate:	2.020	Roll:	-4.929	Pitch:	-3.170	Yaw:	238.586	Thrust:	28.031
Time:	4.094	Roll Set Point:	-0.015	Pitch Set Point:	0.029	Yaw Set Point:	-2.958	X_WP:	0.000	Y_WP:	0.000	Y_WP:	0.500	X:	0.163	Y:	0.069	Z:	0.401	yaw:	169.497	yaw rate:	-1.129	Roll:	-4.817	Pitch:	-3.375	Yaw:	238.026	Thrust:	27.981
Time:	4.110	Roll Set Point:	-0.015	Pitch Set Point:	0.029	Yaw Set Point:	-2.958	X_WP:	0.000	Y_WP:	0.000	Y_WP:	0.500	X:	0.163	Y:	0.069	Z:	0.401	yaw:	169.483	yaw rate:	-1.440	Roll:	-4.831	Pitch:	-3.372	Yaw:	237.968	Thrust:	28.319
Time:	4.125	Roll Set Point:	-0.015	Pitch Set Point:	0.029	Yaw Set Point:	-2.958	X_WP:	0.000	Y_WP:	0.000	Y_WP:	0.500	X:	0.163	Y:	0.069	Z:	0.401	yaw:	169.483	yaw rate:	-1.440	Roll:	-4.861	Pitch:	-3.296	Yaw:	238.202	Thrust:	28.425
Time:	4.141	Roll Set Point:	-0.015	Pitch Set Point:	0.029	Yaw Set Point:	-2.958	X_WP:	0.000	Y_WP:	0.000	Y_WP:	0.500	X:	0.163	Y:	0.069	Z:	0.401	yaw:	169.493	yaw rate:	0.643	Roll:	-4.895	Pitch:	-3.200	Yaw:	238.386	Thrust:	28.705
Time:	4.157	Roll Set Point:	-0.015	Pitch Set Point:	0.028	Yaw Set Point:	-2.959	X_WP:	0.000	Y_WP:	0.000	Y_WP:	0.500	X:	0.163	Y:	0.069	Z:	0.401	yaw:	169.513	yaw rate:	2.053	Roll:	-4.922	Pitch:	-3.243	Yaw:	238.592	Thrust:	28.830
Time:	4.172	Roll Set Point:	-0.015	Pitch Set Point:	0.029	Yaw Set Point:	-2.958	X_WP:	0.000	Y_WP:	0.000	Y_WP:	0.500	X:	0.163	Y:	0.069	Z:	0.401	yaw:	169.492	yaw rate:	-2.094	Roll:	-4.776	Pitch:	-3.441	Yaw:	237.872	Thrust:	28.979
Time:	4.188	Roll Set Point:	-0.015	Pitch Set Point:	0.029	Yaw Set Point:	-2.958	X_WP:	0.000	Y_WP:	0.000	Y_WP:	0.500	X:	0.163	Y:	0.069	Z:	0.401	yaw:	169.484	yaw rate:	-0.865	Roll:	-4.859	Pitch:	-3.308	Yaw:	238.058	Thrust:	29.179
Time:	4.203	Roll Set Point:	-0.015	Pitch Set Point:	0.028	Yaw Set Point:	-2.958	X_WP:	0.000	Y_WP:	0.000	Y_WP:	0.500	X:	0.163	Y:	0.069	Z:	0.401	yaw:	169.510	yaw rate:	2.590	Roll:	-4.893	Pitch:	-3.174	Yaw:	238.677	Thrust:	29.562
Time:	4.219	Roll Set Point:	-0.015	Pitch Set Point:	0.028	Yaw Set Point:	-2.958	X_WP:	0.000	Y_WP:	0.000	Y_WP:	0.500	X:	0.163	Y:	0.069	Z:	0.401	yaw:	169.510	yaw rate:	2.590	Roll:	-4.863	Pitch:	-3.315	Yaw:	238.243	Thrust:	29.591
Time:	4.235	Roll Set Point:	-0.015	Pitch Set Point:	0.029	Yaw Set Point:	-2.958	X_WP:	0.000	Y_WP:	0.000	Y_WP:	0.500	X:	0.163	Y:	0.069	Z:	0.401	yaw:	169.484	yaw rate:	-0.623	Roll:	-4.830	Pitch:	-3.470	Yaw:	237.779	Thrust:	29.625
Time:	4.250	Roll Set Point:	-0.015	Pitch Set Point:	0.029	Yaw Set Point:	-2.958	X_WP:	0.000	Y_WP:	0.000	Y_WP:	0.500	X:	0.163	Y:	0.069	Z:	0.401	yaw:	169.456	yaw rate:	-2.736	Roll:	-4.799	Pitch:	-3.402	Yaw:	237.712	Thrust:	30.094
Time:	4.266	Roll Set Point:	-0.015	Pitch Set Point:	0.029	Yaw Set Point:	-2.958	X_WP:	0.000	Y_WP:	0.000	Y_WP:	0.500	X:	0.163	Y:	0.069	Z:	0.401	yaw:	169.456	yaw rate:	-2.736	Roll:	-4.859	Pitch:	-3.331	Yaw:	238.164	Thrust:	30.069
Time:	4.282	Roll Set Point:	-0.015	Pitch Set Point:	0.029	Yaw Set Point:	-2.958	X_WP:	0.000	Y_WP:	0.000	Y_WP:	0.500	X:	0.163	Y:	0.069	Z:	0.401	yaw:	169.495	yaw rate:	3.898	Roll:	-4.947	Pitch:	-3.159	Yaw:	238.876	Thrust:	30.395
Time:	4.297	Roll Set Point:	-0.015	Pitch Set Point:	0.029	Yaw Set Point:	-2.958	X_WP:	0.000	Y_WP:	0.000	Y_WP:	0.500	X:	0.163	Y:	0.069	Z:	0.401	yaw:	169.495	yaw rate:	3.898	Roll:	-4.863	Pitch:	-3.336	Yaw:	238.223	Thrust:	30.519
Time:	4.313	Roll Set Point:	-0.015	Pitch Set Point:	0.029	Yaw Set Point:	-2.958	X_WP:	0.000	Y_WP:	0.000	Y_WP:	0.500	X:	0.163	Y:	0.069	Z:	0.401	yaw:	169.482	yaw rate:	1.215	Roll:	-4.819	Pitch:	-3.425	Yaw:	237.971	Thrust:	30.569
Time:	4.329	Roll Set Point:	-0.015	Pitch Set Point:	0.028	Yaw Set Point:	-2.959	X_WP:	0.000	Y_WP:	0.000	Y_WP:	0.500	X:	0.163	Y:	0.069	Z:	0.401	yaw:	169.514	yaw rate:	3.220	Roll:	-4.949	Pitch:	-3.186	Yaw:	238.788	Thrust:	30.962
Time:	4.344	Roll Set Point:	-0.015	Pitch Set Point:	0.029	Yaw Set Point:	-2.958	X_WP:	0.000	Y_WP:	0.000	Y_WP:	0.500	X:	0.163	Y:	0.069	Z:	0.401	yaw:	169.483	yaw rate:	-3.080	Roll:	-4.803	Pitch:	-3.496	Yaw:	237.689	Thrust:	31.180
Time:	4.360	Roll Set Point:	-0.015	Pitch Set Point:	0.029	Yaw Set Point:	-2.958	X_WP:	0.000	Y_WP:	0.000	Y_WP:	0.500	X:	0.163	Y:	0.069	Z:	0.401	yaw:	169.488	yaw rate:	0.493	Roll:	-4.868	Pitch:	-3.369	Yaw:	238.294	Thrust:	31.033
Time:	4.375	Roll Set Point:	-0.015	Pitch Set Point:	0.029	Yaw Set Point:	-2.958	X_WP:	0.000	Y_WP:	0.000	Y_WP:	0.500	X:	0.163	Y:	0.069	Z:	0.401	yaw:	169.491	yaw rate:	0.347	Roll:	-4.837	Pitch:	-3.351	Yaw:	238.278	Thrust:	31.510
Time:	4.391	Roll Set Point:	-0.015	Pitch Set Point:	0.029	Yaw Set Point:	-2.958	X_WP:	0.000	Y_WP:	0.000	Y_WP:	0.500	X:	0.163	Y:	0.069	Z:	0.401	yaw:	169.494	yaw rate:	0.222	Roll:	-4.907	Pitch:	-3.294	Yaw:	238.257	Thrust:	31.786
Time:	4.407	Roll Set Point:	-0.015	Pitch Set Point:	0.029	Yaw Set Point:	-2.958	X_WP:	0.000	Y_WP:	0.000	Y_WP:	0.500	X:	0.163	Y:	0.069	Z:	0.401	yaw:	169.494	yaw rate:	0.222	Roll:	-4.863	Pitch:	-3.363	Yaw:	238.221	Thrust:	31.824
Time:	4.422	Roll Set Point:	-0.015	Pitch Set Point:	0.029	Yaw Set Point:	-2.958	X_WP:	0.000	Y_WP:	0.000	Y_WP:	0.500	X:	0.163	Y:	0.069	Z:	0.401	yaw:	169.503	yaw rate:	0.920	Roll:	-4.893	Pitch:	-3.340	Yaw:	238.388	Thrust:	31.959
Time:	4.438	Roll Set Point:	-0.015	Pitch Set Point:	0.029	Yaw Set Point:	-2.958	X_WP:	0.000	Y_WP:	0.000	Y_WP:	0.500	X:	0.163	Y:	0.069	Z:	0.401	yaw:	169.492	yaw rate:	0.811	Roll:	-4.807	Pitch:	-3.438	Yaw:	238.027	Thrust:	32.034
Time:	4.454	Roll Set Point:	-0.015	Pitch Set Point:	0.029	Yaw Set Point:	-2.958	X_WP:	0.000	Y_WP:	0.000	Y_WP:	0.500	X:	0.163	Y:	0.069	Z:	0.401	yaw:	169.494	yaw rate:	0.230	Roll:	-4.871	Pitch:	-3.339	Yaw:	238.259	Thrust:	32.485
Time:	4.469	Roll Set Point:	-0.015	Pitch Set Point:	0.029	Yaw Set Point:	-2.958	X_WP:	0.000	Y_WP:	0.000	Y_WP:	0.500	X:	0.163	Y:	0.069	Z:	0.401	yaw:	169.498	yaw rate:	0.370	Roll:	-4.888	Pitch:	-3.376	Yaw:	238.288	Thrust:	32.647
Time:	4.485	Roll Set Point:	-0.015	Pitch Set Point:	0.029	Yaw Set Point:	-2.958	X_WP:	0.000	Y_WP:	0.000	Y_WP:	0.500	X:	0.163	Y:	0.069	Z:	0.401	yaw:	169.484	yaw rate:	-1.384	Roll:	-4.850	Pitch:	-3.448	Yaw:	237.975	Thrust:	32.626
Time:	4.500	Roll Set Point:	-0.015	Pitch Set Point:	0.029	Yaw Set Point:	-2.958	X_WP:	0.000	Y_WP:	0.000	Y_WP:	0.500	X:	0.163	Y:	0.069	Z:	0.401	yaw:	169.484	yaw rate:	-1.384	Roll:	-4.863	Pitch:	-3.387	Yaw:	238.207	Thrust:	32.928
Time:	4.516	Roll Set Point:	-0.015	Pitch Set Point:	0.029	Yaw Set Point:	-2.958	X_WP:	0.000	Y_WP:	0.000	Y_WP:	0.500	X:	0.163	Y:	0.069	Z:	0.401	yaw:	169.495	yaw rate:	1.215	Roll:	-4.843	Pitch:	-3.316	Yaw:	238.407	Thrust:	33.114
Time:	4.532	Roll Set Point:	-0.015	Pitch Set Point:	0.029	Yaw Set Point:	-2.958	X_WP:	0.000	Y_WP:	0.000	Y_WP:	0.500	X:	0.163	Y:	0.069	Z:	0.401	yaw:	169.495	yaw rate:	1.215	Roll:	-4.862	Pitch:	-3.393	Yaw:	238.222	Thrust:	33.306
Time:	4.547	Roll Set Point:	-0.015	Pitch Set Point:	0.029	Yaw Set Point:	-2.958	X_WP:	0.000	Y_WP:	0.000	Y_WP:	0.500	X:	0.163	Y:	0.069	Z:	0.401	yaw:	169.489	yaw rate:	0.297	Roll:	-4.862	Pitch:	-3.469	Yaw:	238.121	Thrust:	33.477
Time:	4.563	Roll Set Point:	-0.015	Pitch Set Point:	0.029	Yaw Set Point:	-2.958	X_WP:	0.000	Y_WP:	0.000	Y_WP:	0.500	X:	0.163	Y:	0.069	Z:	0.401	yaw:	169.489	yaw rate:	0.297	Roll:	-4.862	Pitch:	-3.402	Yaw:	238.214	Thrust:	33.675
Time:	4.579	Roll Set Point:	-0.015	Pitch Set Point:	0.029	Yaw Set Point:	-2.958	X_WP:	0.000	Y_WP:	0.000	Y_WP:	0.500	X:	0.163	Y:	0.069	Z:	0.401	yaw:	169.483	yaw rate:	-0.001	Roll:	-4.837	Pitch:	-3.364	Yaw:	238.103	Thrust:	33.999
Time:	4.594	Roll Set Point:	-0.015	Pitch Set Point:	0.029	Yaw Set Point:	-2.958	X_WP:	0.000	Y_WP:	0.000	Y_WP:	0.500	X:	0.163	Y:	0.069	Z:	0.401	yaw:	169.481	yaw rate:	-0.187	Roll:	-4.894	Pitch:	-3.444	Yaw:	238.162	Thrust:	33.915
Time:	4.610	Roll Set Point:	-0.015	Pitch Set Point:	0.029	Yaw Set Point:	-2.958	X_WP:	0.000	Y_WP:	0.000	Y_WP:	0.500	X:	0.163	Y:	0.069	Z:	0.401	yaw:	169.495	yaw rate:	1.447	Roll:	-4.903	Pitch:	-3.387	Yaw:	238.465	Thrust:	34.192
Time:	4.625	Roll Set Point:	-0.015	Pitch Set Point:	0.029	Yaw Set Point:	-2.958	X_WP:	0.000	Y_WP:	0.000	Y_WP:	0.500	X:	0.163	Y:	0.069	Z:	0.401	yaw:	169.495	yaw rate:	1.447	Roll:	-4.864	Pitch:	-3.410	Yaw:	238.223	Thrust:	34.416
Time:	4.641	Roll Set Point:	-0.015	Pitch Set Point:	0.029	Yaw Set Point:	-2.958	X_WP:	0.000	Y_WP:	0.000	Y_WP:	0.500	X:	0.163	Y:	0.069	Z:	0.401	yaw:	169.496	yaw rate:	0.927	Roll:	-4.811	Pitch:	-3.373	Yaw:	238.237	Thrust:	34.631
Time:	4.657	Roll Set Point:	-0.015	Pitch Set Point:	0.029	Yaw Set Point:	-2.958	X_WP:	0.000	Y_WP:	0.000	Y_WP:	0.500	X:	0.163	Y:	0.069	Z:	0.401	yaw:	169.496	yaw rate:	0.927	Roll:	-4.862	Pitch:	-3.409	Yaw:	238.224	Thrust:	34.787
Time:	4.672	Roll Set Point:	-0.015	Pitch Set Point:	0.029	Yaw Set Point:	-2.958	X_WP:	0.000	Y_WP:	0.000	Y_WP:	0.500	X:	0.163	Y:	0.069	Z:	0.401	yaw:	169.484	yaw rate:	-2.323	Roll:	-4.862	Pitch:	-3.487	Yaw:	237.998	Thrust:	34.935
Time:	4.688	Roll Set Point:	-0.015	Pitch Set Point:	0.029	Yaw Set Point:	-2.958	X_WP:	0.000	Y_WP:	0.000	Y_WP:	0.500	X:	0.163	Y:	0.069	Z:	0.401	yaw:	169.482	yaw rate:	-0.159	Roll:	-4.835	Pitch:	-3.423	Yaw:	238.180	Thrust:	35.248
Time:	4.704	Roll Set Point:	-0.015	Pitch Set Point:	0.029	Yaw Set Point:	-2.958	X_WP:	0.000	Y_WP:	0.000	Y_WP:	0.500	X:	0.163	Y:	0.069	Z:	0.401	yaw:	169.496	yaw rate:	1.352	Roll:	-4.920	Pitch:	-3.317	Yaw:	238.447	Thrust:	35.314
Time:	4.719	Roll Set Point:	-0.015	Pitch Set Point:	0.029	Yaw Set Point:	-2.958	X_WP:	0.000	Y_WP:	0.000	Y_WP:	0.500	X:	0.163	Y:	0.069	Z:	0.401	yaw:	169.494	yaw rate:	-0.133	Roll:	-4.833	Pitch:	-3.412	Yaw:	238.200	Thrust:	35.525
Time:	4.735	Roll Set Point:	-0.015	Pitch Set Point:	0.029	Yaw Set Point:	-2.958	X_WP:	0.000	Y_WP:	0.000	Y_WP:	0.500	X:	0.163	Y:	0.069	Z:	0.401	yaw:	169.494	yaw rate:	-0.133	Roll:	-4.862	Pitch:	-3.408	Yaw:	238.220	Thrust:	35.697
Time:	4.750	Roll Set Point:	-0.015	Pitch Set Point:	0.029	Yaw Set Point:	-2.958	X_WP:	0.000	Y_WP:	0.000	Y_WP:	0.500	X:	0.163	Y:	0.069	Z:	0.401	yaw:	169.487	yaw rate:	0.015	Roll:	-4.846	Pitch:	-3.487	Yaw:	238.098	Thrust:	35.992
Time:	4.766	Roll Set Point:	-0.015	Pitch Set Point:	0.029	Yaw Set Point:	-2.958	X_WP:	0.000	Y_WP:	0.000	Y_WP:	0.500	X:	0.163	Y:	0.069	Z:	0.401	yaw:	169.470	yaw rate:	-1.688	Roll:	-4.821	Pitch:	-3.411	Yaw:	237.868	Thrust:	35.318
Time:	4.781	Roll Set Point:	-0.015	Pitch Set Point:	0.029	Yaw Set Point:	-2.958	X_WP:	0.000	Y_WP:	0.000	Y_WP:	0.500	X:	0.163	Y:	0.069	Z:	0.401	yaw:	169.470	yaw rate:	-1.688	Roll:	-4.861	Pitch:	-3.411	Yaw:	238.188	Thrust:	36.274
Time:	4.797	Roll Set Point:	-0.015	Pitch Set Point:	0.028	Yaw Set Point:	-2.958	X_WP:	0.000	Y_WP:	0.000	Y_WP:	0.500	X:	0.163	Y:	0.069	Z:	0.401	yaw:	169.506	yaw rate:	3.596	Roll:	-4.968	Pitch:	-3.264	Yaw:	238.840	Thrust:	36.604
Time:	4.813	Roll Set Point:	-0.015	Pitch Set Point:	0.029	Yaw Set Point:	-2.958	X_WP:	0.000	Y_WP:	0.000	Y_WP:	0.500	X:	0.163	Y:	0.069	Z:	0.401	yaw:	169.471	yaw rate:	-3.540	Roll:	-4.763	Pitch:	-3.572	Yaw:	237.596	Thrust:	36.700
Time:	4.828	Roll Set Point:	-0.015	Pitch Set Point:	0.029	Yaw Set Point:	-2.958	X_WP:	0.000	Y_WP:	0.000	Y_WP:	0.500	X:	0.163	Y:	0.069	Z:	0.401	yaw:	169.502	yaw rate:	2.469	Roll:	-4.944	Pitch:	-3.284	Yaw:	238.761	Thrust:	36.651
Time:	4.844	Roll Set Point:	-0.015	Pitch Set Point:	0.029	Yaw Set Point:	-2.958	X_WP:	0.000	Y_WP:	0.000	Y_WP:	0.500	X:	0.163	Y:	0.069	Z:	0.401	yaw:	169.493	yaw rate:	-0.940	Roll:	-4.854	Pitch:	-3.443	Yaw:	238.063	Thrust:	37.082
Time:	4.860	Roll Set Point:	-0.015	Pitch Set Point:	0.029	Yaw Set Point:	-2.958	X_WP:	0.000	Y_WP:	0.000	Y_WP:	0.500	X:	0.163	Y:	0.069	Z:	0.401	yaw:	169.494	yaw rate:	0.051	Roll:	-4.835	Pitch:	-3.431	Yaw:	238.231	Thrust:	37.352
Time:	4.875	Roll Set Point:	-0.015	Pitch Set Point:	0.029	Yaw Set Point:	-2.958	X_WP:	0.000	Y_WP:	0.000	Y_WP:	0.500	X:	0.163	Y:	0.069	Z:	0.401	yaw:	169.494	yaw rate:	0.051	Roll:	-4.862	Pitch:	-3.409	Yaw:	238.220	Thrust:	37.386
Time:	4.891	Roll Set Point:	-0.015	Pitch Set Point:	0.028	Yaw Set Point:	-2.958	X_WP:	0.000	Y_WP:	0.000	Y_WP:	0.500	X:	0.163	Y:	0.069	Z:	0.401	yaw:	169.505	yaw rate:	2.622	Roll:	-4.886	Pitch:	-3.370	Yaw:	238.432	Thrust:	37.504
Time:	4.906	Roll Set Point:	-0.015	Pitch Set Point:	0.028	Yaw Set Point:	-2.958	X_WP:	0.000	Y_WP:	0.000	Y_WP:	0.500	X:	0.163	Y:	0.069	Z:	0.401	yaw:	169.505	yaw rate:	2.622	Roll:	-4.863	Pitch:	-3.409	Yaw:	238.237	Thrust:	37.760
Time:	4.922	Roll Set Point:	-0.015	Pitch Set Point:	0.029	Yaw Set Point:	-2.958	X_WP:	0.000	Y_WP:	0.000	Y_WP:	0.500	X:	0.163	Y:	0.069	Z:	0.401	yaw:	169.495	yaw rate:	-1.026	Roll:	-4.833	Pitch:	-3.422	Yaw:	238.054	Thrust:	37.927
Time:	4.938	Roll Set Point:	-0.015	Pitch Set Point:	0.029	Yaw Set Point:	-2.958	X_WP:	0.000	Y_WP:	0.000	Y_WP:	0.500	X:	0.163	Y:	0.069	Z:	0.401	yaw:	169.481	yaw rate:	0.182	Roll:	-4.851	Pitch:	-3.458	Yaw:	237.969	Thrust:	38.220
Time:	4.953	Roll Set Point:	-0.015	Pitch Set Point:	0.029	Yaw Set Point:	-2.958	X_WP:	0.000	Y_WP:	0.000	Y_WP:	0.500	X:	0.163	Y:	0.069	Z:	0.401	yaw:	169.481	yaw rate:	0.182	Roll:	-4.860	Pitch:	-3.408	Yaw:	238.197	Thrust:	38.203
Time:	4.969	Roll Set Point:	-0.015	Pitch Set Point:	0.029	Yaw Set Point:	-2.958	X_WP:	0.000	Y_WP:	0.000	Y_WP:	0.500	X:	0.163	Y:	0.069	Z:	0.401	yaw:	169.489	yaw rate:	1.774	Roll:	-4.903	Pitch:	-3.394	Yaw:	238.346	Thrust:	38.498
Time:	4.985	Roll Set Point:	-0.015	Pitch Set Point:	0.029	Yaw Set Point:	-2.958	X_WP:	0.000	Y_WP:	0.000	Y_WP:	0.500	X:	0.163	Y:	0.069	Z:	0.401	yaw:	169.489	yaw rate:	1.774	Roll:	-4.863	Pitch:	-3.410	Yaw:	238.214	Thrust:	38.689
Time:	5.000	Roll Set Point:	-0.015	Pitch Set Point:	0.029	Yaw Set Point:	-2.958	X_WP:	0.000	Y_WP:	0.000	Y_WP:	0.500	X:	0.163	Y:	0.069	Z:	0.401	yaw:	169.487	yaw rate:	-0.147	Roll:	-4.852	Pitch:	-3.401	Yaw:	238.191	Thrust:	38.930
Time:	5.016	Roll Set Point:	-0.015	Pitch Set Point:	0.029	Yaw Set Point:	-2.958	X_WP:	0.000	Y_WP:	0.000	Y_WP:	0.500	X:	0.163	Y:	0.069	Z:	0.401	yaw:	169.486	yaw rate:	-1.125	Roll:	-4.864	Pitch:	-3.432	Yaw:	238.190	Thrust:	39.074
Time:	5.031	Roll Set Point:	-0.015	Pitch Set Point:	0.029	Yaw Set Point:	-2.958	X_WP:	0.000	Y_WP:	0.000	Y_WP:	0.500	X:	0.163	Y:	0.069	Z:	0.401	yaw:	169.500	yaw rate:	1.384	Roll:	-4.869	Pitch:	-3.342	Yaw:	238.461	Thrust:	39.154
Time:	5.047	Roll Set Point:	-0.015	Pitch Set Point:	0.028	Yaw Set Point:	-2.958	X_WP:	0.000	Y_WP:	0.000	Y_WP:	0.500	X:	0.163	Y:	0.069	Z:	0.401	yaw:	169.503	yaw rate:	0.313	Roll:	-4.874	Pitch:	-3.407	Yaw:	238.287	Thrust:	39.517
Time:	5.063	Roll Set Point:	-0.015	Pitch Set Point:	0.029	Yaw Set Point:	-2.958	X_WP:	0.000	Y_WP:	0.000	Y_WP:	0.500	X:	0.163	Y:	0.069	Z:	0.401	yaw:	169.497	yaw rate:	-0.655	Roll:	-4.848	Pitch:	-3.447	Yaw:	238.119	Thrust:	39.672
Time:	5.078	Roll Set Point:	-0.015	Pitch Set Point:	0.029	Yaw Set Point:	-2.958	X_WP:	0.000	Y_WP:	0.000	Y_WP:	0.500	X:	0.163	Y:	0.069	Z:	0.401	yaw:	169.483	yaw rate:	-1.385	Roll:	-4.831	Pitch:	-3.456	Yaw:	237.973	Thrust:	39.679
Time:	5.094	Roll Set Point:	-0.015	Pitch Set Point:	0.029	Yaw Set Point:	-2.958	X_WP:	0.000	Y_WP:	0.000	Y_WP:	0.500	X:	0.163	Y:	0.069	Z:	0.401	yaw:	169.483	yaw rate:	-1.385	Roll:	-4.861	Pitch:	-3.409	Yaw:	238.202	Thrust:	39.917
Time:	5.110	Roll Set Point:	-0.015	Pitch Set Point:	0.029	Yaw Set Point:	-2.958	X_WP:	0.000	Y_WP:	0.000	Y_WP:	0.500	X:	0.163	Y:	0.069	Z:	0.401	yaw:	169.488	yaw rate:	-0.399	Roll:	-4.878	Pitch:	-3.361	Yaw:	238.290	Thrust:	40.211
Time:	5.125	Roll Set Point:	-0.015	Pitch Set Point:	0.029	Yaw Set Point:	-2.958	X_WP:	0.000	Y_WP:	0.000	Y_WP:	0.500	X:	0.163	Y:	0.069	Z:	0.401	yaw:	169.481	yaw rate:	-0.649	Roll:	-4.829	Pitch:	-3.444	Yaw:	238.094	Thrust:	40.478
Time:	5.141	Roll Set Point:	-0.015	Pitch Set Point:	0.029	Yaw Set Point:	-2.958	X_WP:	0.000	Y_WP:	0.000	Y_WP:	0.500	X:	0.163	Y:	0.069	Z:	0.401	yaw:	169.500	yaw rate:	1.859	Roll:	-4.931	Pitch:	-3.367	Yaw:	238.540	Thrust:	40.494
Time:	5.156	Roll Set Point:	-0.015	Pitch Set Point:	0.029	Yaw Set Point:	-2.958	X_WP:	0.000	Y_WP:	0.000	Y_WP:	0.500	X:	0.163	Y:	0.069	Z:	0.401	yaw:	169.500	yaw rate:	1.859	Roll:	-4.863	Pitch:	-3.409	Yaw:	238.229	Thrust:	40.732
Time:	5.172	Roll Set Point:	-0.015	Pitch Set Point:	0.028	Yaw Set Point:	-2.958	X_WP:	0.000	Y_WP:	0.000	Y_WP:	0.500	X:	0.163	Y:	0.069	Z:	0.401	yaw:	169.504	yaw rate:	0.755	Roll:	-4.876	Pitch:	-3.360	Yaw:	238.316	Thrust:	40.901
Time:	5.188	Roll Set Point:	-0.015	Pitch Set Point:	0.029	Yaw Set Point:	-2.958	X_WP:	0.000	Y_WP:	0.000	Y_WP:	0.500	X:	0.163	Y:	0.069	Z:	0.401	yaw:	169.488	yaw rate:	-1.620	Roll:	-4.822	Pitch:	-3.462	Yaw:	237.942	Thrust:	41.083
Time:	5.203	Roll Set Point:	-0.015	Pitch Set Point:	0.029	Yaw Set Point:	-2.958	X_WP:	0.000	Y_WP:	0.000	Y_WP:	0.500	X:	0.163	Y:	0.069	Z:	0.401	yaw:	169.483	yaw rate:	-0.486	Roll:	-4.839	Pitch:	-3.469	Yaw:	238.125	Thrust:	41.288
Time:	5.219	Roll Set Point:	-0.015	Pitch Set Point:	0.029	Yaw Set Point:	-2.958	X_WP:	0.000	Y_WP:	0.000	Y_WP:	0.500	X:	0.163	Y:	0.069	Z:	0.401	yaw:	169.462	yaw rate:	-2.185	Roll:	-4.817	Pitch:	-3.481	Yaw:	237.809	Thrust:	41.531
Time:	5.235	Roll Set Point:	-0.015	Pitch Set Point:	0.029	Yaw Set Point:	-2.958	X_WP:	0.000	Y_WP:	0.000	Y_WP:	0.500	X:	0.163	Y:	0.069	Z:	0.401	yaw:	169.492	yaw rate:	3.048	Roll:	-4.921	Pitch:	-3.311	Yaw:	238.729	Thrust:	41.620
Time:	5.250	Roll Set Point:	-0.015	Pitch Set Point:	0.029	Yaw Set Point:	-2.958	X_WP:	0.000	Y_WP:	0.000	Y_WP:	0.500	X:	0.163	Y:	0.069	Z:	0.401	yaw:	169.492	yaw rate:	3.048	Roll:	-4.862	Pitch:	-3.410	Yaw:	238.218	Thrust:	41.844
Time:	5.266	Roll Set Point:	-0.015	Pitch Set Point:	0.028	Yaw Set Point:	-2.959	X_WP:	0.000	Y_WP:	0.000	Y_WP:	0.500	X:	0.163	Y:	0.069	Z:	0.401	yaw:	169.513	yaw rate:	1.856	Roll:	-4.927	Pitch:	-3.335	Yaw:	238.603	Thrust:	42.079
Time:	5.281	Roll Set Point:	-0.015	Pitch Set Point:	0.029	Yaw Set Point:	-2.958	X_WP:	0.000	Y_WP:	0.000	Y_WP:	0.500	X:	0.163	Y:	0.069	Z:	0.401	yaw:	169.490	yaw rate:	-2.357	Roll:	-4.803	Pitch:	-3.486	Yaw:	237.816	Thrust:	42.228
Time:	5.297	Roll Set Point:	-0.015	Pitch Set Point:	0.029	Yaw Set Point:	-2.958	X_WP:	0.000	Y_WP:	0.000	Y_WP:	0.500	X:	0.163	Y:	0.069	Z:	0.401	yaw:	169.483	yaw rate:	-0.607	Roll:	-4.850	Pitch:	-3.401	Yaw:	238.104	Thrust:	42.333
Time:	5.313	Roll Set Point:	-0.015	Pitch Set Point:	0.029	Yaw Set Point:	-2.958	X_WP:	0.000	Y_WP:	0.000	Y_WP:	0.500	X:	0.163	Y:	0.069	Z:	0.401	yaw:	169.494	yaw rate:	1.041	Roll:	-4.882	Pitch:	-3.366	Yaw:	238.398	Thrust:	42.639
Time:	5.328	Roll Set Point:	-0.015	Pitch Set Point:	0.029	Yaw Set Point:	-2.958	X_WP:	0.000	Y_WP:	0.000	Y_WP:	0.500	X:	0.163	Y:	0.069	Z:	0.401	yaw:	169.492	yaw rate:	-0.215	Roll:	-4.857	Pitch:	-3.474	Yaw:	238.179	Thrust:	42.771
Time:	5.344	Roll Set Point:	-0.015	Pitch Set Point:	0.029	Yaw Set Point:	-2.958	X_WP:	0.000	Y_WP:	0.000	Y_WP:	0.500	X:	0.163	Y:	0.069	Z:	0.401	yaw:	169.492	yaw rate:	-0.215	Roll:	-4.862	Pitch:	-3.410	Yaw:	238.218	Thrust:	42.960
Time:	5.360	Roll Set Point:	-0.015	Pitch Set Point:	0.029	Yaw Set Point:	-2.958	X_WP:	0.000	Y_WP:	0.000	Y_WP:	0.500	X:	0.163	Y:	0.069	Z:	0.401	yaw:	169.491	yaw rate:	-0.048	Roll:	-4.880	Pitch:	-3.379	Yaw:	238.221	Thrust:	43.311
Time:	5.375	Roll Set Point:	-0.015	Pitch Set Point:	0.028	Yaw Set Point:	-2.959	X_WP:	0.000	Y_WP:	0.000	Y_WP:	0.500	X:	0.163	Y:	0.069	Z:	0.401	yaw:	169.511	yaw rate:	1.978	Roll:	-4.869	Pitch:	-3.350	Yaw:	238.567	Thrust:	43.175
Time:	5.391	Roll Set Point:	-0.015	Pitch Set Point:	0.028	Yaw Set Point:	-2.959	X_WP:	0.000	Y_WP:	0.000	Y_WP:	0.500	X:	0.163	Y:	0.069	Z:	0.401	yaw:	169.511	yaw rate:	1.978	Roll:	-4.863	Pitch:	-3.408	Yaw:	238.245	Thrust:	43.517
Time:	5.406	Roll Set Point:	-0.015	Pitch Set Point:	0.029	Yaw Set Point:	-2.958	X_WP:	0.000	Y_WP:	0.000	Y_WP:	0.500	X:	0.163	Y:	0.069	Z:	0.401	yaw:	169.482	yaw rate:	-2.956	Roll:	-4.815	Pitch:	-3.502	Yaw:	237.708	Thrust:	43.675
Time:	5.422	Roll Set Point:	-0.015	Pitch Set Point:	0.029	Yaw Set Point:	-2.958	X_WP:	0.000	Y_WP:	0.000	Y_WP:	0.500	X:	0.163	Y:	0.069	Z:	0.401	yaw:	169.484	yaw rate:	0.114	Roll:	-4.888	Pitch:	-3.369	Yaw:	238.244	Thrust:	43.849
Time:	5.438	Roll Set Point:	-0.015	Pitch Set Point:	0.029	Yaw Set Point:	-2.958	X_WP:	0.000	Y_WP:	0.000	Y_WP:	0.500	X:	0.163	Y:	0.069	Z:	0.401	yaw:	169.484	yaw rate:	0.114	Roll:	-4.862	Pitch:	-3.409	Yaw:	238.207	Thrust:	44.075
Time:	5.453	Roll Set Point:	-0.015	Pitch Set Point:	0.029	Yaw Set Point:	-2.958	X_WP:	0.000	Y_WP:	0.000	Y_WP:	0.500	X:	0.163	Y:	0.069	Z:	0.401	yaw:	169.498	yaw rate:	0.668	Roll:	-4.890	Pitch:	-3.401	Yaw:	238.466	Thrust:	44.274
Time:	5.469	Roll Set Point:	-0.015	Pitch Set Point:	0.029	Yaw Set Point:	-2.958	X_WP:	0.000	Y_WP:	0.000	Y_WP:	0.500	X:	0.163	Y:	0.069	Z:	0.401	yaw:	169.486	yaw rate:	-1.236	Roll:	-4.810	Pitch:	-3.474	Yaw:	238.002	Thrust:	44.449
Time:	5.485	Roll Set Point:	-0.015	Pitch Set Point:	0.029	Yaw Set Point:	-2.958	X_WP:	0.000	Y_WP:	0.000	Y_WP:	0.500	X:	0.163	Y:	0.069	Z:	0.401	yaw:	169.489	yaw rate:	0.297	Roll:	-4.876	Pitch:	-3.370	Yaw:	238.266	Thrust:	44.748
Time:	5.500	Roll Set Point:	-0.015	Pitch Set Point:	0.028	Yaw Set Point:	-2.958	X_WP:	0.000	Y_WP:	0.000	Y_WP:	0.500	X:	0.163	Y:	0.069	Z:	0.401	yaw:	169.504	yaw rate:	1.488	Roll:	-4.917	Pitch:	-3.331	Yaw:	238.482	Thrust:	44.736
Time:	5.516	Roll Set Point:	-0.015	Pitch Set Point:	0.029	Yaw Set Point:	-2.958	X_WP:	0.000	Y_WP:	0.000	Y_WP:	0.500	X:	0.163	Y:	0.069	Z:	0.401	yaw:	169.488	yaw rate:	-1.555	Roll:	-4.815	Pitch:	-3.487	Yaw:	237.951	Thrust:	44.860
Time:	5.531	Roll Set Point:	-0.015	Pitch Set Point:	0.029	Yaw Set Point:	-2.958	X_WP:	0.000	Y_WP:	0.000	Y_WP:	0.500	X:	0.163	Y:	0.069	Z:	0.401	yaw:	169.478	yaw rate:	-1.011	Roll:	-4.852	Pitch:	-3.467	Yaw:	238.029	Thrust:	45.293
Time:	5.547	Roll Set Point:	-0.015	Pitch Set Point:	0.029	Yaw Set Point:	-2.958	X_WP:	0.000	Y_WP:	0.000	Y_WP:	0.500	X:	0.163	Y:	0.069	Z:	0.401	yaw:	169.473	yaw rate:	-0.442	Roll:	-4.851	Pitch:	-3.381	Yaw:	238.118	Thrust:	45.451
Time:	5.563	Roll Set Point:	-0.015	Pitch Set Point:	0.028	Yaw Set Point:	-2.958	X_WP:	0.000	Y_WP:	0.000	Y_WP:	0.500	X:	0.163	Y:	0.069	Z:	0.401	yaw:	169.509	yaw rate:	3.547	Roll:	-4.925	Pitch:	-3.273	Yaw:	238.838	Thrust:	45.503
Time:	5.578	Roll Set Point:	-0.015	Pitch Set Point:	0.029	Yaw Set Point:	-2.958	X_WP:	0.000	Y_WP:	0.000	Y_WP:	0.500	X:	0.163	Y:	0.069	Z:	0.401	yaw:	169.490	yaw rate:	-1.923	Roll:	-4.821	Pitch:	-3.521	Yaw:	237.889	Thrust:	45.750
Time:	5.594	Roll Set Point:	-0.015	Pitch Set Point:	0.029	Yaw Set Point:	-2.958	X_WP:	0.000	Y_WP:	0.000	Y_WP:	0.500	X:	0.163	Y:	0.069	Z:	0.401	yaw:	169.497	yaw rate:	0.757	Roll:	-4.868	Pitch:	-3.414	Yaw:	238.352	Thrust:	45.836
Time:	5.610	Roll Set Point:	-0.015	Pitch Set Point:	0.029	Yaw Set Point:	-2.958	X_WP:	0.000	Y_WP:	0.000	Y_WP:	0.500	X:	0.163	Y:	0.069	Z:	0.401	yaw:	169.462	yaw rate:	-3.564	Roll:	-4.816	Pitch:	-3.498	Yaw:	237.579	Thrust:	46.154
Time:	5.625	Roll Set Point:	-0.015	Pitch Set Point:	0.029	Yaw Set Point:	-2.958	X_WP:	0.000	Y_WP:	0.000	Y_WP:	0.500	X:	0.163	Y:	0.069	Z:	0.401	yaw:	169.492	yaw rate:	3.023	Roll:	-4.928	Pitch:	-3.271	Yaw:	238.726	Thrust:	46.382
Time:	5.641	Roll Set Point:	-0.015	Pitch Set Point:	0.029	Yaw Set Point:	-2.958	X_WP:	0.000	Y_WP:	0.000	Y_WP:	0.500	X:	0.163	Y:	0.069	Z:	0.401	yaw:	169.493	yaw rate:	0.106	Roll:	-4.836	Pitch:	-3.432	Yaw:	238.234	Thrust:	46.462
Time:	5.656	Roll Set Point:	-0.015	Pitch Set Point:	0.029	Yaw Set Point:	-2.958	X_WP:	0.000	Y_WP:	0.000	Y_WP:	0.500	X:	0.163	Y:	0.069	Z:	0.401	yaw:	169.481	yaw rate:	-1.223	Roll:	-4.823	Pitch:	-3.481	Yaw:	237.998	Thrust:	46.578
Time:	5.672	Roll Set Point:	-0.015	Pitch Set Point:	0.029	Yaw Set Point:	-2.958	X_WP:	0.000	Y_WP:	0.000	Y_WP:	0.500	X:	0.163	Y:	0.069	Z:	0.401	yaw:	169.498	yaw rate:	1.728	Roll:	-4.922	Pitch:	-3.333	Yaw:	238.518	Thrust:	47.075
Time:	5.688	Roll Set Point:	-0.015	Pitch Set Point:	0.029	Yaw Set Point:	-2.958	X_WP:	0.000	Y_WP:	0.000	Y_WP:	0.500	X:	0.163	Y:	0.069	Z:	0.401	yaw:	169.498	yaw rate:	1.728	Roll:	-4.862	Pitch:	-3.408	Yaw:	238.224	Thrust:	46.970
Time:	5.703	Roll Set Point:	-0.015	Pitch Set Point:	0.029	Yaw Set Point:	-2.958	X_WP:	0.000	Y_WP:	0.000	Y_WP:	0.500	X:	0.163	Y:	0.069	Z:	0.401	yaw:	169.458	yaw rate:	-4.419	Roll:	-4.748	Pitch:	-3.553	Yaw:	237.494	Thrust:	47.176
Time:	5.719	Roll Set Point:	-0.015	Pitch Set Point:	0.029	Yaw Set Point:	-2.958	X_WP:	0.000	Y_WP:	0.000	Y_WP:	0.500	X:	0.163	Y:	0.069	Z:	0.401	yaw:	169.458	yaw rate:	-4.419	Roll:	-4.860	Pitch:	-3.413	Yaw:	238.170	Thrust:	47.417
Time:	5.735	Roll Set Point:	-0.015	Pitch Set Point:	0.029	Yaw Set Point:	-2.958	X_WP:	0.000	Y_WP:	0.000	Y_WP:	0.500	X:	0.163	Y:	0.069	Z:	0.401	yaw:	169.486	yaw rate:	0.412	Roll:	-4.938	Pitch:	-3.296	Yaw:	238.685	Thrust:	47.608
Time:	5.750	Roll Set Point:	-0.015	Pitch Set Point:	0.029	Yaw Set Point:	-2.958	X_WP:	0.000	Y_WP:	0.000	Y_WP:	0.500	X:	0.163	Y:	0.069	Z:	0.401	yaw:	169.486	yaw rate:	0.412	Roll:	-4.863	Pitch:	-3.410	Yaw:	238.212	Thrust:	47.854
Time:	5.781	Roll Set Point:	-0.015	Pitch Set Point:	0.029	Yaw Set Point:	-2.958	X_WP:	0.000	Y_WP:	0.000	Y_WP:	0.500	X:	0.163	Y:	0.069	Z:	0.401	yaw:	169.497	yaw rate:	0.249	Roll:	-5.438	Pitch:	-3.989	Yaw:	239.853	Thrust:	89.614
Time:	5.797	Roll Set Point:	-0.015	Pitch Set Point:	0.029	Yaw Set Point:	-2.958	X_WP:	0.000	Y_WP:	0.000	Y_WP:	0.500	X:	0.163	Y:	0.069	Z:	0.401	yaw:	169.497	yaw rate:	0.249	Roll:	-4.862	Pitch:	-3.410	Yaw:	238.226	Thrust:	48.159
Time:	5.812	Roll Set Point:	-0.015	Pitch Set Point:	0.028	Yaw Set Point:	-2.958	X_WP:	0.000	Y_WP:	0.000	Y_WP:	0.500	X:	0.163	Y:	0.069	Z:	0.401	yaw:	169.509	yaw rate:	1.701	Roll:	-4.944	Pitch:	-3.300	Yaw:	238.430	Thrust:	48.492
Time:	5.828	Roll Set Point:	-0.015	Pitch Set Point:	0.029	Yaw Set Point:	-2.958	X_WP:	0.000	Y_WP:	0.000	Y_WP:	0.500	X:	0.163	Y:	0.069	Z:	0.401	yaw:	169.495	yaw rate:	-1.349	Roll:	-4.783	Pitch:	-3.509	Yaw:	238.000	Thrust:	48.455
Time:	5.844	Roll Set Point:	-0.015	Pitch Set Point:	0.029	Yaw Set Point:	-2.958	X_WP:	0.000	Y_WP:	0.000	Y_WP:	0.500	X:	0.163	Y:	0.069	Z:	0.401	yaw:	169.483	yaw rate:	-1.215	Roll:	-4.862	Pitch:	-3.460	Yaw:	237.999	Thrust:	48.648
Time:	5.859	Roll Set Point:	-0.015	Pitch Set Point:	0.029	Yaw Set Point:	-2.958	X_WP:	0.000	Y_WP:	0.000	Y_WP:	0.500	X:	0.163	Y:	0.069	Z:	0.401	yaw:	169.494	yaw rate:	1.072	Roll:	-4.882	Pitch:	-3.360	Yaw:	238.403	Thrust:	48.989
Time:	5.875	Roll Set Point:	-0.015	Pitch Set Point:	0.029	Yaw Set Point:	-2.958	X_WP:	0.000	Y_WP:	0.000	Y_WP:	0.500	X:	0.163	Y:	0.069	Z:	0.401	yaw:	169.494	yaw rate:	1.072	Roll:	-4.861	Pitch:	-3.408	Yaw:	238.217	Thrust:	48.992
Time:	5.891	Roll Set Point:	-0.015	Pitch Set Point:	0.029	Yaw Set Point:	-2.958	X_WP:	0.000	Y_WP:	0.000	Y_WP:	0.500	X:	0.163	Y:	0.069	Z:	0.401	yaw:	169.487	yaw rate:	-0.653	Roll:	-4.860	Pitch:	-3.379	Yaw:	238.102	Thrust:	49.383
Time:	5.906	Roll Set Point:	-0.015	Pitch Set Point:	0.029	Yaw Set Point:	-2.958	X_WP:	0.000	Y_WP:	0.000	Y_WP:	0.500	X:	0.163	Y:	0.069	Z:	0.401	yaw:	169.490	yaw rate:	0.266	Roll:	-4.856	Pitch:	-3.428	Yaw:	238.260	Thrust:	49.371
Time:	5.922	Roll Set Point:	-0.015	Pitch Set Point:	0.028	Yaw Set Point:	-2.958	X_WP:	0.000	Y_WP:	0.000	Y_WP:	0.500	X:	0.163	Y:	0.069	Z:	0.401	yaw:	169.504	yaw rate:	3.015	Roll:	-4.875	Pitch:	-3.368	Yaw:	238.467	Thrust:	49.660
Time:	5.937	Roll Set Point:	-0.015	Pitch Set Point:	0.029	Yaw Set Point:	-2.958	X_WP:	0.000	Y_WP:	0.000	Y_WP:	0.500	X:	0.163	Y:	0.069	Z:	0.401	yaw:	169.481	yaw rate:	-2.268	Roll:	-4.855	Pitch:	-3.470	Yaw:	237.823	Thrust:	49.901
Time:	5.953	Roll Set Point:	-0.015	Pitch Set Point:	0.029	Yaw Set Point:	-2.958	X_WP:	0.000	Y_WP:	0.000	Y_WP:	0.500	X:	0.163	Y:	0.069	Z:	0.401	yaw:	169.484	yaw rate:	0.278	Roll:	-4.843	Pitch:	-3.422	Yaw:	238.253	Thrust:	49.906
Time:	5.969	Roll Set Point:	-0.015	Pitch Set Point:	0.029	Yaw Set Point:	-2.958	X_WP:	0.000	Y_WP:	0.000	Y_WP:	0.500	X:	0.163	Y:	0.069	Z:	0.401	yaw:	169.493	yaw rate:	0.950	Roll:	-4.890	Pitch:	-3.409	Yaw:	238.379	Thrust:	50.220
Time:	5.984	Roll Set Point:	-0.015	Pitch Set Point:	0.029	Yaw Set Point:	-2.958	X_WP:	0.000	Y_WP:	0.000	Y_WP:	0.500	X:	0.163	Y:	0.069	Z:	0.401	yaw:	169.464	yaw rate:	-2.906	Roll:	-4.789	Pitch:	-3.499	Yaw:	237.693	Thrust:	50.412
Time:	6.000	Roll Set Point:	-0.015	Pitch Set Point:	0.029	Yaw Set Point:	-2.958	X_WP:	0.000	Y_WP:	0.000	Y_WP:	0.500	X:	0.163	Y:	0.069	Z:	0.401	yaw:	169.494	yaw rate:	2.985	Roll:	-4.953	Pitch:	-3.254	Yaw:	238.721	Thrust:	50.606
Time:	6.016	Roll Set Point:	-0.223	Pitch Set Point:	-0.053	Yaw Set Point:	-2.958	X_WP:	0.219	Y_WP:	0.042	Y_WP:	0.500	X:	0.163	Y:	0.069	Z:	0.401	yaw:	169.505	yaw rate:	1.067	Roll:	30.000	Pitch:	30.000	Yaw:	238.415	Thrust:	50.733
Time:	6.031	Roll Set Point:	-0.223	Pitch Set Point:	-0.053	Yaw Set Point:	-2.958	X_WP:	0.219	Y_WP:	0.042	Y_WP:	0.500	X:	0.163	Y:	0.069	Z:	0.401	yaw:	169.505	yaw rate:	1.067	Roll:	1.163	Pitch:	-1.056	Yaw:	238.236	Thrust:	50.945
Time:	6.047	Roll Set Point:	-0.223	Pitch Set Point:	-0.053	Yaw Set Point:	-2.958	X_WP:	0.219	Y_WP:	0.042	Y_WP:	0.500	X:	0.163	Y:	0.069	Z:	0.401	yaw:	169.497	yaw rate:	2.630	Roll:	1.168	Pitch:	-1.046	Yaw:	238.099	Thrust:	51.077
Time:	6.063	Roll Set Point:	-0.223	Pitch Set Point:	-0.053	Yaw Set Point:	-2.958	X_WP:	0.219	Y_WP:	0.042	Y_WP:	0.500	X:	0.163	Y:	0.069	Z:	0.401	yaw:	169.492	yaw rate:	-0.516	Roll:	1.166	Pitch:	-1.052	Yaw:	238.133	Thrust:	51.451
Time:	6.078	Roll Set Point:	-0.223	Pitch Set Point:	-0.053	Yaw Set Point:	-2.958	X_WP:	0.219	Y_WP:	0.042	Y_WP:	0.500	X:	0.163	Y:	0.069	Z:	0.401	yaw:	169.492	yaw rate:	-0.034	Roll:	1.171	Pitch:	-1.056	Yaw:	238.214	Thrust:	51.527
Time:	6.094	Roll Set Point:	-0.223	Pitch Set Point:	-0.053	Yaw Set Point:	-2.958	X_WP:	0.219	Y_WP:	0.042	Y_WP:	0.500	X:	0.163	Y:	0.069	Z:	0.401	yaw:	169.467	yaw rate:	-2.479	Roll:	1.180	Pitch:	-1.023	Yaw:	237.764	Thrust:	51.509
Time:	6.109	Roll Set Point:	-0.223	Pitch Set Point:	-0.053	Yaw Set Point:	-2.958	X_WP:	0.219	Y_WP:	0.042	Y_WP:	0.500	X:	0.163	Y:	0.069	Z:	0.401	yaw:	169.467	yaw rate:	-2.479	Roll:	1.174	Pitch:	-1.056	Yaw:	238.186	Thrust:	51.962
Time:	6.125	Roll Set Point:	-0.223	Pitch Set Point:	-0.053	Yaw Set Point:	-2.958	X_WP:	0.219	Y_WP:	0.042	Y_WP:	0.500	X:	0.163	Y:	0.069	Z:	0.401	yaw:	169.498	yaw rate:	2.274	Roll:	1.168	Pitch:	-1.092	Yaw:	238.742	Thrust:	52.184
Time:	6.141	Roll Set Point:	-0.223	Pitch Set Point:	-0.053	Yaw Set Point:	-2.958	X_WP:	0.219	Y_WP:	0.042	Y_WP:	0.500	X:	0.163	Y:	0.069	Z:	0.401	yaw:	169.504	yaw rate:	0.635	Roll:	1.176	Pitch:	-1.065	Yaw:	238.347	Thrust:	52.352
Time:	6.156	Roll Set Point:	-0.223	Pitch Set Point:	-0.053	Yaw Set Point:	-2.958	X_WP:	0.219	Y_WP:	0.042	Y_WP:	0.500	X:	0.163	Y:	0.069	Z:	0.401	yaw:	169.504	yaw rate:	0.635	Roll:	1.182	Pitch:	-1.056	Yaw:	238.235	Thrust:	52.438
Time:	6.172	Roll Set Point:	-0.223	Pitch Set Point:	-0.053	Yaw Set Point:	-2.958	X_WP:	0.219	Y_WP:	0.042	Y_WP:	0.500	X:	0.163	Y:	0.069	Z:	0.401	yaw:	169.462	yaw rate:	-2.968	Roll:	1.204	Pitch:	-1.001	Yaw:	237.466	Thrust:	52.243
Time:	6.188	Roll Set Point:	-0.223	Pitch Set Point:	-0.053	Yaw Set Point:	-2.958	X_WP:	0.219	Y_WP:	0.042	Y_WP:	0.500	X:	0.163	Y:	0.069	Z:	0.401	yaw:	169.497	yaw rate:	3.483	Roll:	1.174	Pitch:	-1.097	Yaw:	238.809	Thrust:	52.920
Time:	6.203	Roll Set Point:	-0.223	Pitch Set Point:	-0.053	Yaw Set Point:	-2.958	X_WP:	0.219	Y_WP:	0.042	Y_WP:	0.500	X:	0.163	Y:	0.069	Z:	0.401	yaw:	169.478	yaw rate:	-1.933	Roll:	1.198	Pitch:	-1.033	Yaw:	237.875	Thrust:	52.994
Time:	6.219	Roll Set Point:	-0.223	Pitch Set Point:	-0.053	Yaw Set Point:	-2.958	X_WP:	0.219	Y_WP:	0.042	Y_WP:	0.500	X:	0.163	Y:	0.069	Z:	0.401	yaw:	169.506	yaw rate:	2.846	Roll:	1.183	Pitch:	-1.087	Yaw:	238.715	Thrust:	53.262
Time:	6.234	Roll Set Point:	-0.223	Pitch Set Point:	-0.053	Yaw Set Point:	-2.958	X_WP:	0.219	Y_WP:	0.042	Y_WP:	0.500	X:	0.163	Y:	0.069	Z:	0.401	yaw:	169.477	yaw rate:	-2.969	Roll:	1.200	Pitch:	-1.022	Yaw:	237.699	Thrust:	53.136
Time:	6.250	Roll Set Point:	-0.223	Pitch Set Point:	-0.053	Yaw Set Point:	-2.958	X_WP:	0.219	Y_WP:	0.042	Y_WP:	0.500	X:	0.163	Y:	0.069	Z:	0.401	yaw:	169.480	yaw rate:	0.349	Roll:	1.198	Pitch:	-1.058	Yaw:	238.260	Thrust:	53.658
Time:	6.266	Roll Set Point:	-0.223	Pitch Set Point:	-0.053	Yaw Set Point:	-2.958	X_WP:	0.219	Y_WP:	0.042	Y_WP:	0.500	X:	0.163	Y:	0.069	Z:	0.401	yaw:	169.480	yaw rate:	0.349	Roll:	1.199	Pitch:	-1.053	Yaw:	238.202	Thrust:	53.733
Time:	6.281	Roll Set Point:	-0.223	Pitch Set Point:	-0.053	Yaw Set Point:	-2.958	X_WP:	0.219	Y_WP:	0.042	Y_WP:	0.500	X:	0.163	Y:	0.069	Z:	0.401	yaw:	169.488	yaw rate:	0.803	Roll:	1.198	Pitch:	-1.068	Yaw:	238.347	Thrust:	54.025
Time:	6.297	Roll Set Point:	-0.223	Pitch Set Point:	-0.053	Yaw Set Point:	-2.958	X_WP:	0.219	Y_WP:	0.042	Y_WP:	0.500	X:	0.163	Y:	0.069	Z:	0.401	yaw:	169.465	yaw rate:	-3.827	Roll:	1.208	Pitch:	-1.026	Yaw:	237.792	Thrust:	54.028
