Time:	2.054	Roll Set Point:	-0.177	Pitch Set Point:	0.262	Yaw Set Point:	1.429	X_WP:	0.000	Y_WP:	0.000	Y_WP:	0.500	X:	-0.025	Y:	-0.208	Z:	1.091	yaw:	-81.861	yaw rate:	-18.299	Roll:	5.855	Pitch:	-1.566	Yaw:	-114.299	Thrust:	0.000
Time:	2.065	Roll Set Point:	-0.176	Pitch Set Point:	0.260	Yaw Set Point:	1.434	X_WP:	0.000	Y_WP:	0.000	Y_WP:	0.500	X:	-0.025	Y:	-0.207	Z:	1.091	yaw:	-82.161	yaw rate:	-30.008	Roll:	5.260	Pitch:	-0.024	Yaw:	-122.156	Thrust:	0.000
Time:	2.076	Roll Set Point:	-0.176	Pitch Set Point:	0.259	Yaw Set Point:	1.438	X_WP:	0.000	Y_WP:	0.000	Y_WP:	0.500	X:	-0.025	Y:	-0.206	Z:	1.091	yaw:	-82.392	yaw rate:	-23.090	Roll:	5.261	Pitch:	-0.593	Yaw:	-121.155	Thrust:	0.000
Time:	2.088	Roll Set Point:	-0.175	Pitch Set Point:	0.257	Yaw Set Point:	1.442	X_WP:	0.000	Y_WP:	0.000	Y_WP:	0.500	X:	-0.026	Y:	-0.206	Z:	1.090	yaw:	-82.632	yaw rate:	-23.999	Roll:	5.341	Pitch:	-0.515	Yaw:	-121.683	Thrust:	0.000
Time:	2.099	Roll Set Point:	-0.175	Pitch Set Point:	0.256	Yaw Set Point:	1.445	X_WP:	0.000	Y_WP:	0.000	Y_WP:	0.500	X:	-0.026	Y:	-0.205	Z:	1.090	yaw:	-82.810	yaw rate:	-17.853	Roll:	5.434	Pitch:	-0.595	Yaw:	-121.089	Thrust:	0.000
Time:	2.110	Roll Set Point:	-0.175	Pitch Set Point:	0.255	Yaw Set Point:	1.448	X_WP:	0.000	Y_WP:	0.000	Y_WP:	0.500	X:	-0.025	Y:	-0.205	Z:	1.090	yaw:	-82.982	yaw rate:	-17.119	Roll:	5.713	Pitch:	-0.188	Yaw:	-121.507	Thrust:	0.000
Time:	2.121	Roll Set Point:	-0.175	Pitch Set Point:	0.253	Yaw Set Point:	1.456	X_WP:	0.000	Y_WP:	0.000	Y_WP:	0.500	X:	-0.025	Y:	-0.205	Z:	1.090	yaw:	-83.418	yaw rate:	-43.682	Roll:	5.789	Pitch:	1.148	Yaw:	-128.752	Thrust:	0.000
Time:	2.133	Roll Set Point:	-0.173	Pitch Set Point:	0.254	Yaw Set Point:	1.449	X_WP:	0.000	Y_WP:	0.000	Y_WP:	0.500	X:	-0.026	Y:	-0.204	Z:	1.089	yaw:	-83.016	yaw rate:	49.974	Roll:	4.033	Pitch:	-3.792	Yaw:	-109.555	Thrust:	0.000
Time:	2.144	Roll Set Point:	-0.173	Pitch Set Point:	0.254	Yaw Set Point:	1.449	X_WP:	0.000	Y_WP:	0.000	Y_WP:	0.500	X:	-0.026	Y:	-0.204	Z:	1.089	yaw:	-83.016	yaw rate:	49.974	Roll:	5.819	Pitch:	-1.470	Yaw:	-118.119	Thrust:	0.000
Time:	2.155	Roll Set Point:	-0.173	Pitch Set Point:	0.252	Yaw Set Point:	1.456	X_WP:	0.000	Y_WP:	0.000	Y_WP:	0.500	X:	-0.026	Y:	-0.203	Z:	1.089	yaw:	-83.405	yaw rate:	-12.749	Roll:	5.093	Pitch:	0.642	Yaw:	-127.894	Thrust:	0.000
Time:	2.166	Roll Set Point:	-0.173	Pitch Set Point:	0.252	Yaw Set Point:	1.456	X_WP:	0.000	Y_WP:	0.000	Y_WP:	0.500	X:	-0.026	Y:	-0.203	Z:	1.089	yaw:	-83.405	yaw rate:	-12.749	Roll:	5.817	Pitch:	-1.433	Yaw:	-118.662	Thrust:	0.000
Time:	2.177	Roll Set Point:	-0.172	Pitch Set Point:	0.250	Yaw Set Point:	1.463	X_WP:	0.000	Y_WP:	0.000	Y_WP:	0.500	X:	-0.026	Y:	-0.202	Z:	1.089	yaw:	-83.808	yaw rate:	-40.245	Roll:	5.459	Pitch:	0.537	Yaw:	-128.777	Thrust:	0.000
Time:	2.188	Roll Set Point:	-0.173	Pitch Set Point:	0.249	Yaw Set Point:	1.465	X_WP:	0.000	Y_WP:	0.000	Y_WP:	0.500	X:	-0.026	Y:	-0.202	Z:	1.089	yaw:	-83.934	yaw rate:	-12.581	Roll:	5.757	Pitch:	-0.396	Yaw:	-122.386	Thrust:	0.000
Time:	2.200	Roll Set Point:	-0.172	Pitch Set Point:	0.247	Yaw Set Point:	1.472	X_WP:	0.000	Y_WP:	0.000	Y_WP:	0.500	X:	-0.026	Y:	-0.202	Z:	1.089	yaw:	-84.326	yaw rate:	-19.040	Roll:	5.166	Pitch:	0.298	Yaw:	-128.935	Thrust:	0.000
Time:	2.211	Roll Set Point:	-0.172	Pitch Set Point:	0.247	Yaw Set Point:	1.472	X_WP:	0.000	Y_WP:	0.000	Y_WP:	0.500	X:	-0.026	Y:	-0.202	Z:	1.089	yaw:	-84.326	yaw rate:	-19.040	Roll:	5.818	Pitch:	-1.351	Yaw:	-119.941	Thrust:	0.000
Time:	2.222	Roll Set Point:	-0.171	Pitch Set Point:	0.246	Yaw Set Point:	1.479	X_WP:	0.000	Y_WP:	0.000	Y_WP:	0.500	X:	-0.026	Y:	-0.201	Z:	1.089	yaw:	-84.768	yaw rate:	-44.187	Roll:	5.400	Pitch:	0.609	Yaw:	-131.035	Thrust:	0.000
Time:	2.233	Roll Set Point:	-0.171	Pitch Set Point:	0.244	Yaw Set Point:	1.487	X_WP:	0.000	Y_WP:	0.000	Y_WP:	0.500	X:	-0.027	Y:	-0.201	Z:	1.089	yaw:	-85.194	yaw rate:	-42.593	Roll:	5.689	Pitch:	0.630	Yaw:	-131.269	Thrust:	0.000
Time:	2.244	Roll Set Point:	-0.170	Pitch Set Point:	0.243	Yaw Set Point:	1.494	X_WP:	0.000	Y_WP:	0.000	Y_WP:	0.500	X:	-0.027	Y:	-0.200	Z:	1.090	yaw:	-85.572	yaw rate:	-37.871	Roll:	5.403	Pitch:	0.063	Yaw:	-130.677	Thrust:	0.000
Time:	2.255	Roll Set Point:	-0.170	Pitch Set Point:	0.241	Yaw Set Point:	1.498	X_WP:	0.000	Y_WP:	0.000	Y_WP:	0.500	X:	-0.027	Y:	-0.200	Z:	1.090	yaw:	-85.843	yaw rate:	-27.032	Roll:	5.587	Pitch:	-0.040	Yaw:	-128.480	Thrust:	0.000
Time:	2.266	Roll Set Point:	-0.169	Pitch Set Point:	0.240	Yaw Set Point:	1.506	X_WP:	0.000	Y_WP:	0.000	Y_WP:	0.500	X:	-0.028	Y:	-0.199	Z:	1.090	yaw:	-86.272	yaw rate:	-42.921	Roll:	5.460	Pitch:	0.614	Yaw:	-132.851	Thrust:	0.000
Time:	2.277	Roll Set Point:	-0.169	Pitch Set Point:	0.239	Yaw Set Point:	1.510	X_WP:	0.000	Y_WP:	0.000	Y_WP:	0.500	X:	-0.028	Y:	-0.199	Z:	1.090	yaw:	-86.533	yaw rate:	-26.104	Roll:	5.663	Pitch:	-0.019	Yaw:	-129.235	Thrust:	0.000
Time:	2.288	Roll Set Point:	-0.169	Pitch Set Point:	0.236	Yaw Set Point:	1.524	X_WP:	0.000	Y_WP:	0.000	Y_WP:	0.500	X:	-0.028	Y:	-0.198	Z:	1.090	yaw:	-87.326	yaw rate:	-79.272	Roll:	5.998	Pitch:	2.934	Yaw:	-142.912	Thrust:	0.000
Time:	2.299	Roll Set Point:	-0.169	Pitch Set Point:	0.237	Yaw Set Point:	1.519	X_WP:	0.000	Y_WP:	0.000	Y_WP:	0.500	X:	-0.028	Y:	-0.198	Z:	1.090	yaw:	-87.043	yaw rate:	28.313	Roll:	5.481	Pitch:	-2.888	Yaw:	-117.019	Thrust:	0.000
Time:	2.310	Roll Set Point:	-0.168	Pitch Set Point:	0.236	Yaw Set Point:	1.523	X_WP:	0.000	Y_WP:	0.000	Y_WP:	0.500	X:	-0.028	Y:	-0.198	Z:	1.090	yaw:	-87.257	yaw rate:	-21.426	Roll:	5.703	Pitch:	-0.244	Yaw:	-129.126	Thrust:	0.000
Time:	2.322	Roll Set Point:	-0.168	Pitch Set Point:	0.235	Yaw Set Point:	1.529	X_WP:	0.000	Y_WP:	0.000	Y_WP:	0.500	X:	-0.029	Y:	-0.198	Z:	1.091	yaw:	-87.631	yaw rate:	-16.411	Roll:	5.600	Pitch:	0.355	Yaw:	-132.923	Thrust:	0.000
Time:	2.333	Roll Set Point:	-0.168	Pitch Set Point:	0.234	Yaw Set Point:	1.532	X_WP:	0.000	Y_WP:	0.000	Y_WP:	0.500	X:	-0.029	Y:	-0.198	Z:	1.091	yaw:	-87.761	yaw rate:	-12.914	Roll:	5.673	Pitch:	-0.615	Yaw:	-127.806	Thrust:	0.000
Time:	2.344	Roll Set Point:	-0.168	Pitch Set Point:	0.233	Yaw Set Point:	1.535	X_WP:	0.000	Y_WP:	0.000	Y_WP:	0.500	X:	-0.029	Y:	-0.198	Z:	1.091	yaw:	-87.947	yaw rate:	-18.671	Roll:	5.870	Pitch:	-0.130	Yaw:	-129.440	Thrust:	0.000
Time:	2.355	Roll Set Point:	-0.168	Pitch Set Point:	0.233	Yaw Set Point:	1.536	X_WP:	0.000	Y_WP:	0.000	Y_WP:	0.500	X:	-0.029	Y:	-0.197	Z:	1.091	yaw:	-88.022	yaw rate:	-7.454	Roll:	5.775	Pitch:	-0.696	Yaw:	-126.877	Thrust:	0.000
Time:	2.366	Roll Set Point:	-0.168	Pitch Set Point:	0.233	Yaw Set Point:	1.536	X_WP:	0.000	Y_WP:	0.000	Y_WP:	0.500	X:	-0.029	Y:	-0.197	Z:	1.091	yaw:	-88.022	yaw rate:	-7.454	Roll:	5.848	Pitch:	-1.067	Yaw:	-125.112	Thrust:	0.000
Time:	2.377	Roll Set Point:	-0.168	Pitch Set Point:	0.232	Yaw Set Point:	1.542	X_WP:	0.000	Y_WP:	0.000	Y_WP:	0.500	X:	-0.029	Y:	-0.197	Z:	1.091	yaw:	-88.372	yaw rate:	-35.030	Roll:	6.134	Pitch:	0.990	Yaw:	-133.911	Thrust:	0.000
Time:	2.388	Roll Set Point:	-0.168	Pitch Set Point:	0.232	Yaw Set Point:	1.543	X_WP:	0.000	Y_WP:	0.000	Y_WP:	0.500	X:	-0.029	Y:	-0.197	Z:	1.091	yaw:	-88.381	yaw rate:	-0.922	Roll:	5.942	Pitch:	-0.896	Yaw:	-125.831	Thrust:	0.000
Time:	2.399	Roll Set Point:	-0.168	Pitch Set Point:	0.232	Yaw Set Point:	1.543	X_WP:	0.000	Y_WP:	0.000	Y_WP:	0.500	X:	-0.029	Y:	-0.198	Z:	1.091	yaw:	-88.421	yaw rate:	-4.010	Roll:	6.016	Pitch:	-0.697	Yaw:	-126.616	Thrust:	0.000
Time:	2.410	Roll Set Point:	-0.168	Pitch Set Point:	0.233	Yaw Set Point:	1.536	X_WP:	0.000	Y_WP:	0.000	Y_WP:	0.500	X:	-0.029	Y:	-0.198	Z:	1.091	yaw:	-88.006	yaw rate:	41.548	Roll:	5.779	Pitch:	-3.349	Yaw:	-115.223	Thrust:	0.000
Time:	2.422	Roll Set Point:	-0.169	Pitch Set Point:	0.234	Yaw Set Point:	1.533	X_WP:	0.000	Y_WP:	0.000	Y_WP:	0.500	X:	-0.028	Y:	-0.198	Z:	1.091	yaw:	-87.810	yaw rate:	4.040	Roll:	6.314	Pitch:	-1.637	Yaw:	-120.549	Thrust:	0.000
Time:	2.433	Roll Set Point:	-0.169	Pitch Set Point:	0.234	Yaw Set Point:	1.532	X_WP:	0.000	Y_WP:	0.000	Y_WP:	0.500	X:	-0.028	Y:	-0.198	Z:	1.090	yaw:	-87.803	yaw rate:	0.760	Roll:	6.095	Pitch:	-1.009	Yaw:	-124.752	Thrust:	0.000
Time:	2.444	Roll Set Point:	-0.169	Pitch Set Point:	0.234	Yaw Set Point:	1.532	X_WP:	0.000	Y_WP:	0.000	Y_WP:	0.500	X:	-0.028	Y:	-0.198	Z:	1.090	yaw:	-87.804	yaw rate:	-0.132	Roll:	6.000	Pitch:	-1.036	Yaw:	-124.835	Thrust:	0.000
Time:	2.458	Roll Set Point:	-0.169	Pitch Set Point:	0.234	Yaw Set Point:	1.532	X_WP:	0.000	Y_WP:	0.000	Y_WP:	0.500	X:	-0.028	Y:	-0.198	Z:	1.090	yaw:	-87.778	yaw rate:	2.573	Roll:	6.123	Pitch:	-1.102	Yaw:	-124.651	Thrust:	0.000
Time:	2.469	Roll Set Point:	-0.169	Pitch Set Point:	0.234	Yaw Set Point:	1.532	X_WP:	0.000	Y_WP:	0.000	Y_WP:	0.500	X:	-0.028	Y:	-0.199	Z:	1.090	yaw:	-87.767	yaw rate:	1.094	Roll:	6.156	Pitch:	-1.149	Yaw:	-124.492	Thrust:	0.000
Time:	2.480	Roll Set Point:	-0.170	Pitch Set Point:	0.234	Yaw Set Point:	1.533	X_WP:	0.000	Y_WP:	0.000	Y_WP:	0.500	X:	-0.028	Y:	-0.199	Z:	1.090	yaw:	-87.836	yaw rate:	-6.869	Roll:	6.328	Pitch:	-0.567	Yaw:	-126.479	Thrust:	0.000
Time:	2.491	Roll Set Point:	-0.170	Pitch Set Point:	0.234	Yaw Set Point:	1.534	X_WP:	0.000	Y_WP:	0.000	Y_WP:	0.500	X:	-0.028	Y:	-0.199	Z:	1.090	yaw:	-87.872	yaw rate:	-3.568	Roll:	6.231	Pitch:	-0.881	Yaw:	-125.745	Thrust:	0.000
Time:	2.502	Roll Set Point:	-0.170	Pitch Set Point:	0.235	Yaw Set Point:	1.533	X_WP:	0.000	Y_WP:	0.000	Y_WP:	0.500	X:	-0.028	Y:	-0.199	Z:	1.090	yaw:	-87.821	yaw rate:	5.070	Roll:	6.246	Pitch:	-1.229	Yaw:	-123.624	Thrust:	0.000
Time:	2.513	Roll Set Point:	-0.170	Pitch Set Point:	0.235	Yaw Set Point:	1.532	X_WP:	0.000	Y_WP:	0.000	Y_WP:	0.500	X:	-0.028	Y:	-0.199	Z:	1.090	yaw:	-87.784	yaw rate:	3.741	Roll:	6.287	Pitch:	-1.197	Yaw:	-123.887	Thrust:	0.000
Time:	2.524	Roll Set Point:	-0.171	Pitch Set Point:	0.236	Yaw Set Point:	1.528	X_WP:	0.000	Y_WP:	0.000	Y_WP:	0.500	X:	-0.027	Y:	-0.200	Z:	1.090	yaw:	-87.564	yaw rate:	21.960	Roll:	6.656	Pitch:	-1.677	Yaw:	-119.256	Thrust:	0.000
Time:	2.535	Roll Set Point:	-0.171	Pitch Set Point:	0.239	Yaw Set Point:	1.514	X_WP:	0.000	Y_WP:	0.000	Y_WP:	0.500	X:	-0.027	Y:	-0.200	Z:	1.091	yaw:	-86.753	yaw rate:	81.149	Roll:	5.686	Pitch:	-5.225	Yaw:	-104.072	Thrust:	0.000
Time:	2.546	Roll Set Point:	-0.172	Pitch Set Point:	0.237	Yaw Set Point:	1.527	X_WP:	0.000	Y_WP:	0.000	Y_WP:	0.500	X:	-0.027	Y:	-0.200	Z:	1.090	yaw:	-87.479	yaw rate:	-72.634	Roll:	6.886	Pitch:	2.444	Yaw:	-141.590	Thrust:	0.000
Time:	2.557	Roll Set Point:	-0.172	Pitch Set Point:	0.237	Yaw Set Point:	1.525	X_WP:	0.000	Y_WP:	0.000	Y_WP:	0.500	X:	-0.027	Y:	-0.201	Z:	1.090	yaw:	-87.401	yaw rate:	7.750	Roll:	6.331	Pitch:	-1.517	Yaw:	-122.402	Thrust:	0.000
Time:	2.568	Roll Set Point:	-0.172	Pitch Set Point:	0.237	Yaw Set Point:	1.526	X_WP:	0.000	Y_WP:	0.000	Y_WP:	0.500	X:	-0.027	Y:	-0.201	Z:	1.090	yaw:	-87.421	yaw rate:	-1.983	Roll:	6.323	Pitch:	-0.993	Yaw:	-124.740	Thrust:	0.000
Time:	2.579	Roll Set Point:	-0.172	Pitch Set Point:	0.237	Yaw Set Point:	1.527	X_WP:	0.000	Y_WP:	0.000	Y_WP:	0.500	X:	-0.028	Y:	-0.201	Z:	1.090	yaw:	-87.497	yaw rate:	-7.619	Roll:	6.321	Pitch:	-1.034	Yaw:	-126.184	Thrust:	0.000
Time:	2.590	Roll Set Point:	-0.172	Pitch Set Point:	0.237	Yaw Set Point:	1.529	X_WP:	0.000	Y_WP:	0.000	Y_WP:	0.500	X:	-0.028	Y:	-0.201	Z:	1.091	yaw:	-87.578	yaw rate:	-8.066	Roll:	6.248	Pitch:	-0.761	Yaw:	-126.403	Thrust:	0.000
Time:	2.601	Roll Set Point:	-0.172	Pitch Set Point:	0.237	Yaw Set Point:	1.527	X_WP:	0.000	Y_WP:	0.000	Y_WP:	0.500	X:	-0.027	Y:	-0.201	Z:	1.091	yaw:	-87.518	yaw rate:	6.031	Roll:	6.001	Pitch:	-1.076	Yaw:	-122.971	Thrust:	0.000
Time:	2.612	Roll Set Point:	-0.171	Pitch Set Point:	0.237	Yaw Set Point:	1.532	X_WP:	0.000	Y_WP:	0.000	Y_WP:	0.500	X:	-0.028	Y:	-0.201	Z:	1.091	yaw:	-87.770	yaw rate:	-25.210	Roll:	6.056	Pitch:	-0.816	Yaw:	-130.740	Thrust:	0.000
Time:	2.623	Roll Set Point:	-0.172	Pitch Set Point:	0.235	Yaw Set Point:	1.537	X_WP:	0.000	Y_WP:	0.000	Y_WP:	0.500	X:	-0.028	Y:	-0.201	Z:	1.091	yaw:	-88.051	yaw rate:	-28.075	Roll:	5.918	Pitch:	0.686	Yaw:	-131.810	Thrust:	0.000
Time:	2.634	Roll Set Point:	-0.172	Pitch Set Point:	0.232	Yaw Set Point:	1.552	X_WP:	0.000	Y_WP:	0.000	Y_WP:	0.500	X:	-0.028	Y:	-0.200	Z:	1.091	yaw:	-88.941	yaw rate:	-89.072	Roll:	6.666	Pitch:	3.583	Yaw:	-147.542	Thrust:	0.000
Time:	2.645	Roll Set Point:	-0.172	Pitch Set Point:	0.232	Yaw Set Point:	1.556	X_WP:	0.000	Y_WP:	0.000	Y_WP:	0.500	X:	-0.028	Y:	-0.200	Z:	1.091	yaw:	-89.163	yaw rate:	-22.114	Roll:	6.164	Pitch:	-0.050	Yaw:	-131.957	Thrust:	0.000
Time:	2.656	Roll Set Point:	-0.172	Pitch Set Point:	0.231	Yaw Set Point:	1.560	X_WP:	0.000	Y_WP:	0.000	Y_WP:	0.500	X:	-0.029	Y:	-0.200	Z:	1.091	yaw:	-89.369	yaw rate:	-20.658	Roll:	6.265	Pitch:	-0.053	Yaw:	-131.892	Thrust:	0.000
Time:	2.667	Roll Set Point:	-0.172	Pitch Set Point:	0.231	Yaw Set Point:	1.562	X_WP:	0.000	Y_WP:	0.000	Y_WP:	0.500	X:	-0.029	Y:	-0.201	Z:	1.091	yaw:	-89.487	yaw rate:	-11.829	Roll:	6.387	Pitch:	-0.337	Yaw:	-129.962	Thrust:	0.000
Time:	2.679	Roll Set Point:	-0.172	Pitch Set Point:	0.231	Yaw Set Point:	1.562	X_WP:	0.000	Y_WP:	0.000	Y_WP:	0.500	X:	-0.029	Y:	-0.201	Z:	1.091	yaw:	-89.490	yaw rate:	-0.271	Roll:	6.359	Pitch:	-0.989	Yaw:	-127.313	Thrust:	0.000
Time:	2.690	Roll Set Point:	-0.172	Pitch Set Point:	0.231	Yaw Set Point:	1.562	X_WP:	0.000	Y_WP:	0.000	Y_WP:	0.500	X:	-0.029	Y:	-0.201	Z:	1.091	yaw:	-89.512	yaw rate:	-2.216	Roll:	6.498	Pitch:	-0.882	Yaw:	-127.714	Thrust:	0.000
Time:	2.701	Roll Set Point:	-0.172	Pitch Set Point:	0.233	Yaw Set Point:	1.552	X_WP:	0.000	Y_WP:	0.000	Y_WP:	0.500	X:	-0.029	Y:	-0.201	Z:	1.091	yaw:	-88.949	yaw rate:	56.312	Roll:	5.854	Pitch:	-4.101	Yaw:	-113.075	Thrust:	0.000
Time:	2.712	Roll Set Point:	-0.173	Pitch Set Point:	0.232	Yaw Set Point:	1.560	X_WP:	0.000	Y_WP:	0.000	Y_WP:	0.500	X:	-0.028	Y:	-0.201	Z:	1.091	yaw:	-89.370	yaw rate:	-42.127	Roll:	6.937	Pitch:	1.629	Yaw:	-137.009	Thrust:	0.000
Time:	2.723	Roll Set Point:	-0.173	Pitch Set Point:	0.232	Yaw Set Point:	1.561	X_WP:	0.000	Y_WP:	0.000	Y_WP:	0.500	X:	-0.028	Y:	-0.201	Z:	1.091	yaw:	-89.438	yaw rate:	-6.743	Roll:	6.459	Pitch:	-0.528	Yaw:	-128.685	Thrust:	0.000
Time:	2.734	Roll Set Point:	-0.173	Pitch Set Point:	0.232	Yaw Set Point:	1.562	X_WP:	0.000	Y_WP:	0.000	Y_WP:	0.500	X:	-0.028	Y:	-0.202	Z:	1.091	yaw:	-89.473	yaw rate:	-3.555	Roll:	6.425	Pitch:	-0.772	Yaw:	-127.978	Thrust:	0.000
Time:	2.745	Roll Set Point:	-0.173	Pitch Set Point:	0.232	Yaw Set Point:	1.563	X_WP:	0.000	Y_WP:	0.000	Y_WP:	0.500	X:	-0.028	Y:	-0.202	Z:	1.091	yaw:	-89.534	yaw rate:	-6.084	Roll:	6.434	Pitch:	-0.515	Yaw:	-128.663	Thrust:	0.000
Time:	2.756	Roll Set Point:	-0.173	Pitch Set Point:	0.231	Yaw Set Point:	1.564	X_WP:	0.000	Y_WP:	0.000	Y_WP:	0.500	X:	-0.028	Y:	-0.202	Z:	1.091	yaw:	-89.624	yaw rate:	-9.013	Roll:	6.479	Pitch:	-0.331	Yaw:	-129.485	Thrust:	0.000
Time:	2.767	Roll Set Point:	-0.173	Pitch Set Point:	0.233	Yaw Set Point:	1.557	X_WP:	0.000	Y_WP:	0.000	Y_WP:	0.500	X:	-0.028	Y:	-0.202	Z:	1.091	yaw:	-89.201	yaw rate:	42.321	Roll:	5.794	Pitch:	-3.456	Yaw:	-116.931	Thrust:	0.000
Time:	2.778	Roll Set Point:	-0.174	Pitch Set Point:	0.231	Yaw Set Point:	1.567	X_WP:	0.000	Y_WP:	0.000	Y_WP:	0.500	X:	-0.028	Y:	-0.202	Z:	1.090	yaw:	-89.757	yaw rate:	-55.553	Roll:	6.848	Pitch:	2.341	Yaw:	-140.723	Thrust:	0.000
Time:	2.789	Roll Set Point:	-0.174	Pitch Set Point:	0.231	Yaw Set Point:	1.566	X_WP:	0.000	Y_WP:	0.000	Y_WP:	0.500	X:	-0.028	Y:	-0.202	Z:	1.090	yaw:	-89.733	yaw rate:	2.407	Roll:	6.233	Pitch:	-0.985	Yaw:	-126.926	Thrust:	0.000
Time:	2.800	Roll Set Point:	-0.173	Pitch Set Point:	0.233	Yaw Set Point:	1.559	X_WP:	0.000	Y_WP:	0.000	Y_WP:	0.500	X:	-0.028	Y:	-0.202	Z:	1.090	yaw:	-89.351	yaw rate:	38.184	Roll:	5.825	Pitch:	-3.154	Yaw:	-117.896	Thrust:	0.000
Time:	2.811	Roll Set Point:	-0.174	Pitch Set Point:	0.231	Yaw Set Point:	1.567	X_WP:	0.000	Y_WP:	0.000	Y_WP:	0.500	X:	-0.028	Y:	-0.202	Z:	1.090	yaw:	-89.763	yaw rate:	-41.227	Roll:	6.756	Pitch:	1.603	Yaw:	-137.327	Thrust:	0.000
Time:	2.822	Roll Set Point:	-0.174	Pitch Set Point:	0.231	Yaw Set Point:	1.567	X_WP:	0.000	Y_WP:	0.000	Y_WP:	0.500	X:	-0.028	Y:	-0.202	Z:	1.090	yaw:	-89.808	yaw rate:	-4.509	Roll:	6.224	Pitch:	-0.659	Yaw:	-128.670	Thrust:	0.000
Time:	2.833	Roll Set Point:	-0.174	Pitch Set Point:	0.231	Yaw Set Point:	1.568	X_WP:	0.000	Y_WP:	0.000	Y_WP:	0.500	X:	-0.028	Y:	-0.202	Z:	1.090	yaw:	-89.840	yaw rate:	-3.209	Roll:	6.186	Pitch:	-0.713	Yaw:	-128.408	Thrust:	0.000
Time:	2.844	Roll Set Point:	-0.174	Pitch Set Point:	0.231	Yaw Set Point:	1.569	X_WP:	0.000	Y_WP:	0.000	Y_WP:	0.500	X:	-0.028	Y:	-0.202	Z:	1.090	yaw:	-89.882	yaw rate:	-4.141	Roll:	6.242	Pitch:	-0.716	Yaw:	-128.690	Thrust:	0.000
Time:	2.855	Roll Set Point:	-0.174	Pitch Set Point:	0.230	Yaw Set Point:	1.569	X_WP:	0.000	Y_WP:	0.000	Y_WP:	0.500	X:	-0.028	Y:	-0.202	Z:	1.090	yaw:	-89.917	yaw rate:	-3.496	Roll:	6.228	Pitch:	-0.703	Yaw:	-128.583	Thrust:	0.000
Time:	2.866	Roll Set Point:	-0.174	Pitch Set Point:	0.230	Yaw Set Point:	1.570	X_WP:	0.000	Y_WP:	0.000	Y_WP:	0.500	X:	-0.028	Y:	-0.202	Z:	1.090	yaw:	-89.982	yaw rate:	-6.532	Roll:	6.325	Pitch:	-0.622	Yaw:	-129.395	Thrust:	0.000
Time:	2.877	Roll Set Point:	-0.174	Pitch Set Point:	0.230	Yaw Set Point:	1.571	X_WP:	0.000	Y_WP:	0.000	Y_WP:	0.500	X:	-0.028	Y:	-0.202	Z:	1.090	yaw:	-90.020	yaw rate:	-3.850	Roll:	6.333	Pitch:	-0.675	Yaw:	-128.811	Thrust:	0.000
Time:	2.888	Roll Set Point:	-0.174	Pitch Set Point:	0.230	Yaw Set Point:	1.571	X_WP:	0.000	Y_WP:	0.000	Y_WP:	0.500	X:	-0.028	Y:	-0.202	Z:	1.090	yaw:	-90.025	yaw rate:	-0.498	Roll:	6.342	Pitch:	-0.882	Yaw:	-128.025	Thrust:	0.000
Time:	2.899	Roll Set Point:	-0.174	Pitch Set Point:	0.230	Yaw Set Point:	1.571	X_WP:	0.000	Y_WP:	0.000	Y_WP:	0.500	X:	-0.028	Y:	-0.202	Z:	1.090	yaw:	-90.007	yaw rate:	1.823	Roll:	6.302	Pitch:	-0.951	Yaw:	-127.447	Thrust:	0.000
Time:	2.910	Roll Set Point:	-0.174	Pitch Set Point:	0.230	Yaw Set Point:	1.571	X_WP:	0.000	Y_WP:	0.000	Y_WP:	0.500	X:	-0.028	Y:	-0.202	Z:	1.090	yaw:	-90.006	yaw rate:	0.086	Roll:	6.383	Pitch:	-0.883	Yaw:	-127.859	Thrust:	0.000
Time:	2.921	Roll Set Point:	-0.174	Pitch Set Point:	0.230	Yaw Set Point:	1.570	X_WP:	0.000	Y_WP:	0.000	Y_WP:	0.500	X:	-0.028	Y:	-0.202	Z:	1.090	yaw:	-89.959	yaw rate:	4.762	Roll:	6.339	Pitch:	-1.126	Yaw:	-126.681	Thrust:	0.000
Time:	2.932	Roll Set Point:	-0.174	Pitch Set Point:	0.231	Yaw Set Point:	1.570	X_WP:	0.000	Y_WP:	0.000	Y_WP:	0.500	X:	-0.028	Y:	-0.202	Z:	1.090	yaw:	-89.946	yaw rate:	1.283	Roll:	6.376	Pitch:	-0.950	Yaw:	-127.490	Thrust:	0.000
Time:	2.944	Roll Set Point:	-0.174	Pitch Set Point:	0.232	Yaw Set Point:	1.563	X_WP:	0.000	Y_WP:	0.000	Y_WP:	0.500	X:	-0.028	Y:	-0.202	Z:	1.091	yaw:	-89.565	yaw rate:	38.075	Roll:	5.875	Pitch:	-3.073	Yaw:	-119.176	Thrust:	0.000
Time:	2.956	Roll Set Point:	-0.174	Pitch Set Point:	0.232	Yaw Set Point:	1.564	X_WP:	0.000	Y_WP:	0.000	Y_WP:	0.500	X:	-0.028	Y:	-0.202	Z:	1.091	yaw:	-89.603	yaw rate:	-3.835	Roll:	6.278	Pitch:	-0.738	Yaw:	-128.226	Thrust:	0.000
Time:	2.967	Roll Set Point:	-0.174	Pitch Set Point:	0.232	Yaw Set Point:	1.564	X_WP:	0.000	Y_WP:	0.000	Y_WP:	0.500	X:	-0.028	Y:	-0.202	Z:	1.091	yaw:	-89.621	yaw rate:	-1.720	Roll:	6.228	Pitch:	-0.968	Yaw:	-127.744	Thrust:	0.000
Time:	2.978	Roll Set Point:	-0.174	Pitch Set Point:	0.232	Yaw Set Point:	1.565	X_WP:	0.000	Y_WP:	0.000	Y_WP:	0.500	X:	-0.028	Y:	-0.202	Z:	1.091	yaw:	-89.668	yaw rate:	-4.688	Roll:	6.286	Pitch:	-0.632	Yaw:	-128.518	Thrust:	0.000
Time:	2.989	Roll Set Point:	-0.174	Pitch Set Point:	0.231	Yaw Set Point:	1.567	X_WP:	0.000	Y_WP:	0.000	Y_WP:	0.500	X:	-0.028	Y:	-0.202	Z:	1.091	yaw:	-89.765	yaw rate:	-9.714	Roll:	6.273	Pitch:	-0.495	Yaw:	-129.847	Thrust:	0.000
Time:	3.000	Roll Set Point:	-0.173	Pitch Set Point:	0.231	Yaw Set Point:	1.567	X_WP:	0.000	Y_WP:	0.000	Y_WP:	0.500	X:	-0.028	Y:	-0.202	Z:	1.091	yaw:	-89.761	yaw rate:	0.334	Roll:	6.231	Pitch:	-0.979	Yaw:	-127.463	Thrust:	0.000
Time:	3.011	Roll Set Point:	-0.173	Pitch Set Point:	0.231	Yaw Set Point:	1.567	X_WP:	0.000	Y_WP:	0.000	Y_WP:	0.500	X:	-0.028	Y:	-0.202	Z:	1.091	yaw:	-89.805	yaw rate:	-4.361	Roll:	6.235	Pitch:	-0.762	Yaw:	-128.632	Thrust:	0.000
Time:	3.022	Roll Set Point:	-0.173	Pitch Set Point:	0.231	Yaw Set Point:	1.568	X_WP:	0.000	Y_WP:	0.000	Y_WP:	0.500	X:	-0.028	Y:	-0.202	Z:	1.091	yaw:	-89.833	yaw rate:	-2.803	Roll:	6.224	Pitch:	-0.829	Yaw:	-128.301	Thrust:	0.000
Time:	3.033	Roll Set Point:	-0.173	Pitch Set Point:	0.231	Yaw Set Point:	1.568	X_WP:	0.000	Y_WP:	0.000	Y_WP:	0.500	X:	-0.029	Y:	-0.202	Z:	1.091	yaw:	-89.837	yaw rate:	-0.424	Roll:	6.107	Pitch:	-1.062	Yaw:	-127.744	Thrust:	0.000
Time:	3.044	Roll Set Point:	-0.173	Pitch Set Point:	0.231	Yaw Set Point:	1.568	X_WP:	0.000	Y_WP:	0.000	Y_WP:	0.500	X:	-0.029	Y:	-0.202	Z:	1.091	yaw:	-89.824	yaw rate:	1.347	Roll:	6.127	Pitch:	-1.026	Yaw:	-127.304	Thrust:	0.000
Time:	3.055	Roll Set Point:	-0.173	Pitch Set Point:	0.231	Yaw Set Point:	1.567	X_WP:	0.000	Y_WP:	0.000	Y_WP:	0.500	X:	-0.029	Y:	-0.202	Z:	1.092	yaw:	-89.803	yaw rate:	2.123	Roll:	6.116	Pitch:	-1.140	Yaw:	-127.091	Thrust:	0.000
Time:	3.066	Roll Set Point:	-0.173	Pitch Set Point:	0.231	Yaw Set Point:	1.567	X_WP:	0.000	Y_WP:	0.000	Y_WP:	0.500	X:	-0.029	Y:	-0.202	Z:	1.092	yaw:	-89.766	yaw rate:	3.620	Roll:	6.112	Pitch:	-1.110	Yaw:	-126.683	Thrust:	0.000
Time:	3.077	Roll Set Point:	-0.173	Pitch Set Point:	0.231	Yaw Set Point:	1.566	X_WP:	0.000	Y_WP:	0.000	Y_WP:	0.500	X:	-0.029	Y:	-0.201	Z:	1.092	yaw:	-89.743	yaw rate:	2.346	Roll:	6.092	Pitch:	-1.113	Yaw:	-126.954	Thrust:	0.000
Time:	3.090	Roll Set Point:	-0.172	Pitch Set Point:	0.231	Yaw Set Point:	1.565	X_WP:	0.000	Y_WP:	0.000	Y_WP:	0.500	X:	-0.029	Y:	-0.201	Z:	1.092	yaw:	-89.681	yaw rate:	6.196	Roll:	6.054	Pitch:	-1.360	Yaw:	-126.572	Thrust:	0.000
Time:	3.102	Roll Set Point:	-0.172	Pitch Set Point:	0.231	Yaw Set Point:	1.564	X_WP:	0.000	Y_WP:	0.000	Y_WP:	0.500	X:	-0.029	Y:	-0.201	Z:	1.092	yaw:	-89.637	yaw rate:	4.438	Roll:	6.138	Pitch:	-1.227	Yaw:	-126.488	Thrust:	0.000
Time:	3.113	Roll Set Point:	-0.172	Pitch Set Point:	0.231	Yaw Set Point:	1.564	X_WP:	0.000	Y_WP:	0.000	Y_WP:	0.500	X:	-0.029	Y:	-0.201	Z:	1.092	yaw:	-89.629	yaw rate:	0.754	Roll:	5.988	Pitch:	-1.077	Yaw:	-127.171	Thrust:	0.000
Time:	3.124	Roll Set Point:	-0.172	Pitch Set Point:	0.231	Yaw Set Point:	1.565	X_WP:	0.000	Y_WP:	0.000	Y_WP:	0.500	X:	-0.029	Y:	-0.201	Z:	1.092	yaw:	-89.647	yaw rate:	-1.800	Roll:	5.994	Pitch:	-0.980	Yaw:	-127.801	Thrust:	0.000
Time:	3.135	Roll Set Point:	-0.172	Pitch Set Point:	0.231	Yaw Set Point:	1.565	X_WP:	0.000	Y_WP:	0.000	Y_WP:	0.500	X:	-0.029	Y:	-0.201	Z:	1.091	yaw:	-89.668	yaw rate:	-2.101	Roll:	6.129	Pitch:	-0.711	Yaw:	-127.909	Thrust:	0.000
Time:	3.146	Roll Set Point:	-0.171	Pitch Set Point:	0.231	Yaw Set Point:	1.565	X_WP:	0.000	Y_WP:	0.000	Y_WP:	0.500	X:	-0.029	Y:	-0.201	Z:	1.091	yaw:	-89.654	yaw rate:	1.433	Roll:	5.677	Pitch:	-1.494	Yaw:	-127.046	Thrust:	0.000
Time:	3.157	Roll Set Point:	-0.171	Pitch Set Point:	0.231	Yaw Set Point:	1.565	X_WP:	0.000	Y_WP:	0.000	Y_WP:	0.500	X:	-0.029	Y:	-0.200	Z:	1.091	yaw:	-89.647	yaw rate:	0.661	Roll:	5.970	Pitch:	-1.137	Yaw:	-127.214	Thrust:	0.000
Time:	3.168	Roll Set Point:	-0.171	Pitch Set Point:	0.231	Yaw Set Point:	1.564	X_WP:	0.000	Y_WP:	0.000	Y_WP:	0.500	X:	-0.029	Y:	-0.200	Z:	1.091	yaw:	-89.616	yaw rate:	3.064	Roll:	5.997	Pitch:	-1.123	Yaw:	-126.614	Thrust:	0.000
Time:	3.179	Roll Set Point:	-0.171	Pitch Set Point:	0.231	Yaw Set Point:	1.563	X_WP:	0.000	Y_WP:	0.000	Y_WP:	0.500	X:	-0.029	Y:	-0.200	Z:	1.091	yaw:	-89.543	yaw rate:	7.311	Roll:	5.903	Pitch:	-1.469	Yaw:	-125.498	Thrust:	0.000
Time:	3.190	Roll Set Point:	-0.170	Pitch Set Point:	0.231	Yaw Set Point:	1.562	X_WP:	0.000	Y_WP:	0.000	Y_WP:	0.500	X:	-0.029	Y:	-0.200	Z:	1.092	yaw:	-89.476	yaw rate:	6.770	Roll:	5.845	Pitch:	-1.404	Yaw:	-125.528	Thrust:	0.000
Time:	3.201	Roll Set Point:	-0.170	Pitch Set Point:	0.231	Yaw Set Point:	1.561	X_WP:	0.000	Y_WP:	0.000	Y_WP:	0.500	X:	-0.029	Y:	-0.200	Z:	1.092	yaw:	-89.461	yaw rate:	1.417	Roll:	5.734	Pitch:	-1.244	Yaw:	-126.781	Thrust:	0.000
Time:	3.212	Roll Set Point:	-0.170	Pitch Set Point:	0.230	Yaw Set Point:	1.562	X_WP:	0.000	Y_WP:	0.000	Y_WP:	0.500	X:	-0.029	Y:	-0.199	Z:	1.092	yaw:	-89.507	yaw rate:	-4.568	Roll:	5.961	Pitch:	-0.735	Yaw:	-128.266	Thrust:	0.000
Time:	3.223	Roll Set Point:	-0.169	Pitch Set Point:	0.230	Yaw Set Point:	1.562	X_WP:	0.000	Y_WP:	0.000	Y_WP:	0.500	X:	-0.029	Y:	-0.199	Z:	1.092	yaw:	-89.472	yaw rate:	3.547	Roll:	5.791	Pitch:	-1.426	Yaw:	-126.291	Thrust:	0.000
Time:	3.235	Roll Set Point:	-0.169	Pitch Set Point:	0.230	Yaw Set Point:	1.561	X_WP:	0.000	Y_WP:	0.000	Y_WP:	0.500	X:	-0.029	Y:	-0.199	Z:	1.092	yaw:	-89.427	yaw rate:	4.444	Roll:	5.973	Pitch:	-1.240	Yaw:	-126.303	Thrust:	0.000
Time:	3.246	Roll Set Point:	-0.169	Pitch Set Point:	0.231	Yaw Set Point:	1.560	X_WP:	0.000	Y_WP:	0.000	Y_WP:	0.500	X:	-0.030	Y:	-0.199	Z:	1.092	yaw:	-89.357	yaw rate:	7.065	Roll:	5.728	Pitch:	-1.526	Yaw:	-125.294	Thrust:	0.000
Time:	3.257	Roll Set Point:	-0.169	Pitch Set Point:	0.231	Yaw Set Point:	1.558	X_WP:	0.000	Y_WP:	0.000	Y_WP:	0.500	X:	-0.030	Y:	-0.199	Z:	1.092	yaw:	-89.250	yaw rate:	10.614	Roll:	5.872	Pitch:	-1.643	Yaw:	-124.293	Thrust:	0.000
Time:	3.268	Roll Set Point:	-0.168	Pitch Set Point:	0.231	Yaw Set Point:	1.557	X_WP:	0.000	Y_WP:	0.000	Y_WP:	0.500	X:	-0.030	Y:	-0.198	Z:	1.092	yaw:	-89.200	yaw rate:	5.011	Roll:	5.852	Pitch:	-1.396	Yaw:	-125.569	Thrust:	0.000
Time:	3.279	Roll Set Point:	-0.168	Pitch Set Point:	0.231	Yaw Set Point:	1.555	X_WP:	0.000	Y_WP:	0.000	Y_WP:	0.500	X:	-0.030	Y:	-0.198	Z:	1.092	yaw:	-89.085	yaw rate:	11.483	Roll:	5.722	Pitch:	-1.863	Yaw:	-123.869	Thrust:	0.000
Time:	3.290	Roll Set Point:	-0.168	Pitch Set Point:	0.231	Yaw Set Point:	1.554	X_WP:	0.000	Y_WP:	0.000	Y_WP:	0.500	X:	-0.030	Y:	-0.198	Z:	1.093	yaw:	-89.051	yaw rate:	3.452	Roll:	5.805	Pitch:	-1.443	Yaw:	-125.717	Thrust:	0.000
Time:	3.301	Roll Set Point:	-0.168	Pitch Set Point:	0.230	Yaw Set Point:	1.557	X_WP:	0.000	Y_WP:	0.000	Y_WP:	0.500	X:	-0.030	Y:	-0.198	Z:	1.093	yaw:	-89.209	yaw rate:	-15.789	Roll:	6.249	Pitch:	0.155	Yaw:	-130.510	Thrust:	0.000
Time:	3.313	Roll Set Point:	-0.167	Pitch Set Point:	0.232	Yaw Set Point:	1.549	X_WP:	0.000	Y_WP:	0.000	Y_WP:	0.500	X:	-0.030	Y:	-0.198	Z:	1.093	yaw:	-88.725	yaw rate:	48.348	Roll:	5.508	Pitch:	-4.129	Yaw:	-115.747	Thrust:	0.000
Time:	3.324	Roll Set Point:	-0.167	Pitch Set Point:	0.230	Yaw Set Point:	1.556	X_WP:	0.000	Y_WP:	0.000	Y_WP:	0.500	X:	-0.030	Y:	-0.197	Z:	1.093	yaw:	-89.159	yaw rate:	-40.382	Roll:	5.848	Pitch:	1.226	Yaw:	-136.973	Thrust:	0.000
Time:	3.335	Roll Set Point:	-0.166	Pitch Set Point:	0.232	Yaw Set Point:	1.547	X_WP:	0.000	Y_WP:	0.000	Y_WP:	0.500	X:	-0.030	Y:	-0.198	Z:	1.093	yaw:	-88.625	yaw rate:	53.406	Roll:	5.733	Pitch:	-4.176	Yaw:	-113.272	Thrust:	0.000
Time:	3.346	Roll Set Point:	-0.166	Pitch Set Point:	0.232	Yaw Set Point:	1.547	X_WP:	0.000	Y_WP:	0.000	Y_WP:	0.500	X:	-0.030	Y:	-0.198	Z:	1.093	yaw:	-88.625	yaw rate:	53.406	Roll:	6.119	Pitch:	-1.127	Yaw:	-125.951	Thrust:	0.000
Time:	3.357	Roll Set Point:	-0.166	Pitch Set Point:	0.232	Yaw Set Point:	1.547	X_WP:	0.000	Y_WP:	0.000	Y_WP:	0.500	X:	-0.030	Y:	-0.197	Z:	1.093	yaw:	-88.625	yaw rate:	3.921	Roll:	5.601	Pitch:	-1.238	Yaw:	-125.933	Thrust:	0.000
Time:	3.368	Roll Set Point:	-0.166	Pitch Set Point:	0.232	Yaw Set Point:	1.547	X_WP:	0.000	Y_WP:	0.000	Y_WP:	0.500	X:	-0.030	Y:	-0.197	Z:	1.093	yaw:	-88.625	yaw rate:	3.921	Roll:	6.109	Pitch:	-1.131	Yaw:	-125.949	Thrust:	0.000
Time:	3.379	Roll Set Point:	-0.166	Pitch Set Point:	0.232	Yaw Set Point:	1.546	X_WP:	0.000	Y_WP:	0.000	Y_WP:	0.500	X:	-0.030	Y:	-0.197	Z:	1.093	yaw:	-88.604	yaw rate:	42.344	Roll:	5.746	Pitch:	-1.193	Yaw:	-125.447	Thrust:	0.000
Time:	3.390	Roll Set Point:	-0.166	Pitch Set Point:	0.232	Yaw Set Point:	1.546	X_WP:	0.000	Y_WP:	0.000	Y_WP:	0.500	X:	-0.030	Y:	-0.197	Z:	1.093	yaw:	-88.604	yaw rate:	42.344	Roll:	6.102	Pitch:	-1.134	Yaw:	-125.920	Thrust:	0.000
Time:	3.401	Roll Set Point:	-0.166	Pitch Set Point:	0.230	Yaw Set Point:	1.553	X_WP:	0.000	Y_WP:	0.000	Y_WP:	0.500	X:	-0.030	Y:	-0.197	Z:	1.093	yaw:	-88.968	yaw rate:	-36.357	Roll:	5.984	Pitch:	1.053	Yaw:	-135.073	Thrust:	0.000
Time:	3.412	Roll Set Point:	-0.166	Pitch Set Point:	0.230	Yaw Set Point:	1.552	X_WP:	0.000	Y_WP:	0.000	Y_WP:	0.500	X:	-0.030	Y:	-0.197	Z:	1.093	yaw:	-88.936	yaw rate:	3.227	Roll:	5.958	Pitch:	-1.212	Yaw:	-125.624	Thrust:	0.000
Time:	3.424	Roll Set Point:	-0.166	Pitch Set Point:	0.230	Yaw Set Point:	1.552	X_WP:	0.000	Y_WP:	0.000	Y_WP:	0.500	X:	-0.030	Y:	-0.197	Z:	1.093	yaw:	-88.900	yaw rate:	3.560	Roll:	5.972	Pitch:	-1.217	Yaw:	-125.542	Thrust:	0.000
Time:	3.434	Roll Set Point:	-0.166	Pitch Set Point:	0.231	Yaw Set Point:	1.550	X_WP:	0.000	Y_WP:	0.000	Y_WP:	0.500	X:	-0.030	Y:	-0.197	Z:	1.093	yaw:	-88.825	yaw rate:	7.524	Roll:	5.987	Pitch:	-1.419	Yaw:	-124.410	Thrust:	0.000
Time:	3.446	Roll Set Point:	-0.166	Pitch Set Point:	0.231	Yaw Set Point:	1.549	X_WP:	0.000	Y_WP:	0.000	Y_WP:	0.500	X:	-0.030	Y:	-0.197	Z:	1.094	yaw:	-88.734	yaw rate:	9.059	Roll:	6.026	Pitch:	-1.477	Yaw:	-123.950	Thrust:	0.000
Time:	3.457	Roll Set Point:	-0.166	Pitch Set Point:	0.229	Yaw Set Point:	1.558	X_WP:	0.000	Y_WP:	0.000	Y_WP:	0.500	X:	-0.030	Y:	-0.196	Z:	1.094	yaw:	-89.285	yaw rate:	-55.028	Roll:	6.385	Pitch:	1.625	Yaw:	-139.924	Thrust:	0.000
Time:	3.468	Roll Set Point:	-0.166	Pitch Set Point:	0.229	Yaw Set Point:	1.558	X_WP:	0.000	Y_WP:	0.000	Y_WP:	0.500	X:	-0.030	Y:	-0.196	Z:	1.094	yaw:	-89.247	yaw rate:	3.756	Roll:	6.075	Pitch:	-1.163	Yaw:	-125.918	Thrust:	0.000
Time:	3.479	Roll Set Point:	-0.166	Pitch Set Point:	0.232	Yaw Set Point:	1.546	X_WP:	0.000	Y_WP:	0.000	Y_WP:	0.500	X:	-0.030	Y:	-0.197	Z:	1.094	yaw:	-88.565	yaw rate:	68.184	Roll:	5.772	Pitch:	-4.833	Yaw:	-109.724	Thrust:	0.000
Time:	3.490	Roll Set Point:	-0.166	Pitch Set Point:	0.229	Yaw Set Point:	1.557	X_WP:	0.000	Y_WP:	0.000	Y_WP:	0.500	X:	-0.030	Y:	-0.196	Z:	1.094	yaw:	-89.181	yaw rate:	-61.565	Roll:	6.332	Pitch:	2.309	Yaw:	-141.338	Thrust:	0.000
Time:	3.501	Roll Set Point:	-0.166	Pitch Set Point:	0.230	Yaw Set Point:	1.555	X_WP:	0.000	Y_WP:	0.000	Y_WP:	0.500	X:	-0.030	Y:	-0.196	Z:	1.094	yaw:	-89.102	yaw rate:	7.865	Roll:	6.077	Pitch:	-1.517	Yaw:	-124.749	Thrust:	0.000
Time:	3.512	Roll Set Point:	-0.166	Pitch Set Point:	0.231	Yaw Set Point:	1.550	X_WP:	0.000	Y_WP:	0.000	Y_WP:	0.500	X:	-0.030	Y:	-0.197	Z:	1.094	yaw:	-88.787	yaw rate:	31.482	Roll:	6.309	Pitch:	-2.396	Yaw:	-118.703	Thrust:	0.000
Time:	3.523	Roll Set Point:	-0.166	Pitch Set Point:	0.230	Yaw Set Point:	1.554	X_WP:	0.000	Y_WP:	0.000	Y_WP:	0.500	X:	-0.030	Y:	-0.197	Z:	1.094	yaw:	-89.013	yaw rate:	-22.605	Roll:	6.264	Pitch:	-0.453	Yaw:	-131.865	Thrust:	0.000
Time:	3.534	Roll Set Point:	-0.166	Pitch Set Point:	0.233	Yaw Set Point:	1.541	X_WP:	0.000	Y_WP:	0.000	Y_WP:	0.500	X:	-0.030	Y:	-0.197	Z:	1.094	yaw:	-88.273	yaw rate:	74.053	Roll:	6.065	Pitch:	-4.895	Yaw:	-107.928	Thrust:	0.000
Time:	3.545	Roll Set Point:	-0.166	Pitch Set Point:	0.234	Yaw Set Point:	1.538	X_WP:	0.000	Y_WP:	0.000	Y_WP:	0.500	X:	-0.030	Y:	-0.197	Z:	1.093	yaw:	-88.135	yaw rate:	13.764	Roll:	6.443	Pitch:	-2.236	Yaw:	-122.000	Thrust:	0.000
Time:	3.556	Roll Set Point:	-0.166	Pitch Set Point:	0.238	Yaw Set Point:	1.526	X_WP:	0.000	Y_WP:	0.000	Y_WP:	0.500	X:	-0.030	Y:	-0.198	Z:	1.093	yaw:	-87.412	yaw rate:	72.297	Roll:	6.488	Pitch:	-5.523	Yaw:	-107.043	Thrust:	0.000
Time:	3.567	Roll Set Point:	-0.167	Pitch Set Point:	0.240	Yaw Set Point:	1.520	X_WP:	0.000	Y_WP:	0.000	Y_WP:	0.500	X:	-0.030	Y:	-0.199	Z:	1.093	yaw:	-87.099	yaw rate:	31.376	Roll:	7.599	Pitch:	-3.079	Yaw:	-116.397	Thrust:	0.000
Time:	3.578	Roll Set Point:	-0.167	Pitch Set Point:	0.238	Yaw Set Point:	1.533	X_WP:	0.000	Y_WP:	0.000	Y_WP:	0.500	X:	-0.031	Y:	-0.200	Z:	1.094	yaw:	-87.839	yaw rate:	-74.011	Roll:	7.585	Pitch:	1.867	Yaw:	-142.462	Thrust:	0.000
Time:	3.589	Roll Set Point:	-0.168	Pitch Set Point:	0.240	Yaw Set Point:	1.528	X_WP:	0.000	Y_WP:	0.000	Y_WP:	0.500	X:	-0.031	Y:	-0.201	Z:	1.094	yaw:	-87.544	yaw rate:	29.470	Roll:	7.415	Pitch:	-2.903	Yaw:	-117.468	Thrust:	0.000
Time:	3.600	Roll Set Point:	-0.169	Pitch Set Point:	0.242	Yaw Set Point:	1.525	X_WP:	0.000	Y_WP:	0.000	Y_WP:	0.500	X:	-0.031	Y:	-0.202	Z:	1.095	yaw:	-87.351	yaw rate:	19.268	Roll:	7.380	Pitch:	-2.969	Yaw:	-119.598	Thrust:	0.000
Time:	3.611	Roll Set Point:	-0.169	Pitch Set Point:	0.245	Yaw Set Point:	1.519	X_WP:	0.000	Y_WP:	0.000	Y_WP:	0.500	X:	-0.032	Y:	-0.203	Z:	1.095	yaw:	-87.011	yaw rate:	33.987	Roll:	7.410	Pitch:	-3.510	Yaw:	-115.629	Thrust:	0.000
Time:	3.622	Roll Set Point:	-0.171	Pitch Set Point:	0.248	Yaw Set Point:	1.512	X_WP:	0.000	Y_WP:	0.000	Y_WP:	0.500	X:	-0.032	Y:	-0.204	Z:	1.096	yaw:	-86.626	yaw rate:	38.586	Roll:	8.492	Pitch:	-3.705	Yaw:	-113.971	Thrust:	0.000
Time:	3.634	Roll Set Point:	-0.171	Pitch Set Point:	0.250	Yaw Set Point:	1.508	X_WP:	0.000	Y_WP:	0.000	Y_WP:	0.500	X:	-0.032	Y:	-0.205	Z:	1.097	yaw:	-86.394	yaw rate:	23.206	Roll:	7.286	Pitch:	-3.319	Yaw:	-117.985	Thrust:	0.000
Time:	3.645	Roll Set Point:	-0.173	Pitch Set Point:	0.254	Yaw Set Point:	1.500	X_WP:	0.000	Y_WP:	0.000	Y_WP:	0.500	X:	-0.032	Y:	-0.208	Z:	1.098	yaw:	-85.937	yaw rate:	16.934	Roll:	9.557	Pitch:	-4.277	Yaw:	-111.392	Thrust:	0.000
Time:	3.656	Roll Set Point:	-0.173	Pitch Set Point:	0.254	Yaw Set Point:	1.500	X_WP:	0.000	Y_WP:	0.000	Y_WP:	0.500	X:	-0.032	Y:	-0.208	Z:	1.098	yaw:	-85.937	yaw rate:	16.934	Roll:	6.356	Pitch:	-1.493	Yaw:	-122.192	Thrust:	0.000
Time:	3.667	Roll Set Point:	-0.174	Pitch Set Point:	0.258	Yaw Set Point:	1.495	X_WP:	0.000	Y_WP:	0.000	Y_WP:	0.500	X:	-0.032	Y:	-0.209	Z:	1.099	yaw:	-85.645	yaw rate:	29.183	Roll:	8.576	Pitch:	-4.058	Yaw:	-114.884	Thrust:	0.000
Time:	3.678	Roll Set Point:	-0.176	Pitch Set Point:	0.259	Yaw Set Point:	1.494	X_WP:	0.000	Y_WP:	0.000	Y_WP:	0.500	X:	-0.032	Y:	-0.211	Z:	1.100	yaw:	-85.628	yaw rate:	1.712	Roll:	8.873	Pitch:	-1.177	Yaw:	-121.359	Thrust:	0.000
Time:	3.689	Roll Set Point:	-0.177	Pitch Set Point:	0.261	Yaw Set Point:	1.494	X_WP:	0.000	Y_WP:	0.000	Y_WP:	0.500	X:	-0.032	Y:	-0.212	Z:	1.100	yaw:	-85.595	yaw rate:	3.295	Roll:	8.553	Pitch:	-2.178	Yaw:	-120.938	Thrust:	0.000
Time:	3.700	Roll Set Point:	-0.179	Pitch Set Point:	0.263	Yaw Set Point:	1.491	X_WP:	0.000	Y_WP:	0.000	Y_WP:	0.500	X:	-0.032	Y:	-0.214	Z:	1.100	yaw:	-85.416	yaw rate:	17.967	Roll:	9.352	Pitch:	-1.872	Yaw:	-117.204	Thrust:	0.000
Time:	3.711	Roll Set Point:	-0.182	Pitch Set Point:	0.266	Yaw Set Point:	1.487	X_WP:	0.000	Y_WP:	0.000	Y_WP:	0.500	X:	-0.031	Y:	-0.216	Z:	1.100	yaw:	-85.196	yaw rate:	22.009	Roll:	9.489	Pitch:	-2.390	Yaw:	-115.937	Thrust:	0.000
Time:	3.722	Roll Set Point:	-0.186	Pitch Set Point:	0.271	Yaw Set Point:	1.476	X_WP:	0.000	Y_WP:	0.000	Y_WP:	0.500	X:	-0.030	Y:	-0.220	Z:	1.100	yaw:	-84.585	yaw rate:	61.093	Roll:	11.443	Pitch:	-4.021	Yaw:	-105.803	Thrust:	0.000
Time:	3.733	Roll Set Point:	-0.189	Pitch Set Point:	0.275	Yaw Set Point:	1.468	X_WP:	0.000	Y_WP:	0.000	Y_WP:	0.500	X:	-0.029	Y:	-0.223	Z:	1.101	yaw:	-84.131	yaw rate:	45.400	Roll:	10.354	Pitch:	-3.444	Yaw:	-108.897	Thrust:	0.000
Time:	3.744	Roll Set Point:	-0.193	Pitch Set Point:	0.278	Yaw Set Point:	1.460	X_WP:	0.000	Y_WP:	0.000	Y_WP:	0.500	X:	-0.028	Y:	-0.225	Z:	1.101	yaw:	-83.675	yaw rate:	45.512	Roll:	10.718	Pitch:	-3.362	Yaw:	-108.236	Thrust:	0.000
Time:	3.755	Roll Set Point:	-0.198	Pitch Set Point:	0.286	Yaw Set Point:	1.442	X_WP:	0.000	Y_WP:	0.000	Y_WP:	0.500	X:	-0.027	Y:	-0.230	Z:	1.101	yaw:	-82.618	yaw rate:	105.784	Roll:	12.539	Pitch:	-6.642	Yaw:	-92.487	Thrust:	0.000
Time:	3.766	Roll Set Point:	-0.202	Pitch Set Point:	0.290	Yaw Set Point:	1.434	X_WP:	0.000	Y_WP:	0.000	Y_WP:	0.500	X:	-0.026	Y:	-0.233	Z:	1.102	yaw:	-82.137	yaw rate:	48.078	Roll:	11.267	Pitch:	-3.498	Yaw:	-105.461	Thrust:	0.000
Time:	3.777	Roll Set Point:	-0.206	Pitch Set Point:	0.295	Yaw Set Point:	1.425	X_WP:	0.000	Y_WP:	0.000	Y_WP:	0.500	X:	-0.024	Y:	-0.236	Z:	1.102	yaw:	-81.637	yaw rate:	49.985	Roll:	11.478	Pitch:	-3.624	Yaw:	-104.326	Thrust:	0.000
Time:	3.788	Roll Set Point:	-0.210	Pitch Set Point:	0.299	Yaw Set Point:	1.416	X_WP:	0.000	Y_WP:	0.000	Y_WP:	0.500	X:	-0.023	Y:	-0.239	Z:	1.102	yaw:	-81.143	yaw rate:	49.407	Roll:	11.575	Pitch:	-3.913	Yaw:	-103.771	Thrust:	0.000
Time:	3.799	Roll Set Point:	-0.214	Pitch Set Point:	0.304	Yaw Set Point:	1.408	X_WP:	0.000	Y_WP:	0.000	Y_WP:	0.500	X:	-0.022	Y:	-0.243	Z:	1.103	yaw:	-80.693	yaw rate:	44.951	Roll:	11.942	Pitch:	-3.494	Yaw:	-104.215	Thrust:	0.000
Time:	3.810	Roll Set Point:	-0.219	Pitch Set Point:	0.308	Yaw Set Point:	1.401	X_WP:	0.000	Y_WP:	0.000	Y_WP:	0.500	X:	-0.020	Y:	-0.246	Z:	1.103	yaw:	-80.298	yaw rate:	39.585	Roll:	12.118	Pitch:	-3.285	Yaw:	-104.920	Thrust:	0.000
Time:	3.822	Roll Set Point:	-0.226	Pitch Set Point:	0.314	Yaw Set Point:	1.390	X_WP:	0.000	Y_WP:	0.000	Y_WP:	0.500	X:	-0.018	Y:	-0.251	Z:	1.103	yaw:	-79.631	yaw rate:	66.657	Roll:	14.747	Pitch:	-4.303	Yaw:	-97.566	Thrust:	0.000
Time:	3.833	Roll Set Point:	-0.231	Pitch Set Point:	0.317	Yaw Set Point:	1.391	X_WP:	0.000	Y_WP:	0.000	Y_WP:	0.500	X:	-0.017	Y:	-0.255	Z:	1.104	yaw:	-79.706	yaw rate:	-7.457	Roll:	13.220	Pitch:	-0.233	Yaw:	-115.266	Thrust:	0.000
Time:	3.844	Roll Set Point:	-0.235	Pitch Set Point:	0.321	Yaw Set Point:	1.385	X_WP:	0.000	Y_WP:	0.000	Y_WP:	0.500	X:	-0.015	Y:	-0.258	Z:	1.104	yaw:	-79.338	yaw rate:	36.736	Roll:	12.463	Pitch:	-3.260	Yaw:	-104.237	Thrust:	0.000
Time:	3.855	Roll Set Point:	-0.240	Pitch Set Point:	0.328	Yaw Set Point:	1.369	X_WP:	0.000	Y_WP:	0.000	Y_WP:	0.500	X:	-0.014	Y:	-0.262	Z:	1.104	yaw:	-78.462	yaw rate:	87.649	Roll:	12.115	Pitch:	-7.000	Yaw:	-91.001	Thrust:	0.000
Time:	3.866	Roll Set Point:	-0.244	Pitch Set Point:	0.329	Yaw Set Point:	1.371	X_WP:	0.000	Y_WP:	0.000	Y_WP:	0.500	X:	-0.013	Y:	-0.265	Z:	1.105	yaw:	-78.581	yaw rate:	-11.919	Roll:	13.283	Pitch:	-0.010	Yaw:	-114.754	Thrust:	0.000
Time:	3.877	Roll Set Point:	-0.251	Pitch Set Point:	0.336	Yaw Set Point:	1.361	X_WP:	0.000	Y_WP:	0.000	Y_WP:	0.500	X:	-0.010	Y:	-0.270	Z:	1.105	yaw:	-77.992	yaw rate:	58.901	Roll:	15.336	Pitch:	-4.576	Yaw:	-97.119	Thrust:	0.000
Time:	3.888	Roll Set Point:	-0.256	Pitch Set Point:	0.342	Yaw Set Point:	1.350	X_WP:	0.000	Y_WP:	0.000	Y_WP:	0.500	X:	-0.009	Y:	-0.273	Z:	1.105	yaw:	-77.323	yaw rate:	66.922	Roll:	12.936	Pitch:	-5.630	Yaw:	-94.239	Thrust:	0.000
Time:	3.899	Roll Set Point:	-0.261	Pitch Set Point:	0.347	Yaw Set Point:	1.342	X_WP:	0.000	Y_WP:	0.000	Y_WP:	0.500	X:	-0.007	Y:	-0.277	Z:	1.105	yaw:	-76.894	yaw rate:	42.890	Roll:	13.084	Pitch:	-4.157	Yaw:	-99.396	Thrust:	0.000
Time:	3.910	Roll Set Point:	-0.266	Pitch Set Point:	0.350	Yaw Set Point:	1.338	X_WP:	0.000	Y_WP:	0.000	Y_WP:	0.500	X:	-0.006	Y:	-0.280	Z:	1.106	yaw:	-76.666	yaw rate:	22.790	Roll:	13.508	Pitch:	-2.704	Yaw:	-103.857	Thrust:	0.000
Time:	3.921	Roll Set Point:	-0.273	Pitch Set Point:	0.357	Yaw Set Point:	1.328	X_WP:	0.000	Y_WP:	0.000	Y_WP:	0.500	X:	-0.003	Y:	-0.285	Z:	1.106	yaw:	-76.101	yaw rate:	56.486	Roll:	15.906	Pitch:	-4.677	Yaw:	-95.054	Thrust:	0.000
Time:	3.932	Roll Set Point:	-0.278	Pitch Set Point:	0.361	Yaw Set Point:	1.322	X_WP:	0.000	Y_WP:	0.000	Y_WP:	0.500	X:	-0.002	Y:	-0.289	Z:	1.106	yaw:	-75.757	yaw rate:	34.410	Roll:	13.578	Pitch:	-3.689	Yaw:	-99.815	Thrust:	0.000
Time:	3.943	Roll Set Point:	-0.283	Pitch Set Point:	0.363	Yaw Set Point:	1.326	X_WP:	0.000	Y_WP:	0.000	Y_WP:	0.500	X:	0.000	Y:	-0.292	Z:	1.107	yaw:	-75.980	yaw rate:	-22.334	Roll:	14.525	Pitch:	0.739	Yaw:	-113.595	Thrust:	0.000
Time:	3.956	Roll Set Point:	-0.289	Pitch Set Point:	0.365	Yaw Set Point:	1.328	X_WP:	0.000	Y_WP:	0.000	Y_WP:	0.500	X:	0.002	Y:	-0.296	Z:	1.107	yaw:	-76.113	yaw rate:	-13.268	Roll:	14.647	Pitch:	-0.566	Yaw:	-111.546	Thrust:	0.000
Time:	3.967	Roll Set Point:	-0.301	Pitch Set Point:	0.377	Yaw Set Point:	1.308	X_WP:	0.000	Y_WP:	0.000	Y_WP:	0.500	X:	0.006	Y:	-0.304	Z:	1.108	yaw:	-74.944	yaw rate:	31.424	Roll:	19.107	Pitch:	-8.506	Yaw:	-79.201	Thrust:	0.000
Time:	3.978	Roll Set Point:	-0.301	Pitch Set Point:	0.377	Yaw Set Point:	1.308	X_WP:	0.000	Y_WP:	0.000	Y_WP:	0.500	X:	0.006	Y:	-0.304	Z:	1.108	yaw:	-74.944	yaw rate:	31.424	Roll:	8.967	Pitch:	-2.318	Yaw:	-106.846	Thrust:	0.000
Time:	3.989	Roll Set Point:	-0.306	Pitch Set Point:	0.381	Yaw Set Point:	1.305	X_WP:	0.000	Y_WP:	0.000	Y_WP:	0.500	X:	0.008	Y:	-0.307	Z:	1.108	yaw:	-74.765	yaw rate:	17.873	Roll:	14.330	Pitch:	-2.289	Yaw:	-102.342	Thrust:	0.000
Time:	4.000	Roll Set Point:	-0.311	Pitch Set Point:	0.383	Yaw Set Point:	1.305	X_WP:	0.000	Y_WP:	0.000	Y_WP:	0.500	X:	0.009	Y:	-0.310	Z:	1.108	yaw:	-74.790	yaw rate:	-2.486	Roll:	14.302	Pitch:	-0.994	Yaw:	-107.226	Thrust:	0.000
Time:	4.011	Roll Set Point:	-0.318	Pitch Set Point:	0.391	Yaw Set Point:	1.292	X_WP:	0.000	Y_WP:	0.000	Y_WP:	0.500	X:	0.012	Y:	-0.315	Z:	1.109	yaw:	-74.003	yaw rate:	78.670	Roll:	16.349	Pitch:	-6.864	Yaw:	-86.809	Thrust:	0.000
Time:	4.022	Roll Set Point:	-0.323	Pitch Set Point:	0.396	Yaw Set Point:	1.284	X_WP:	0.000	Y_WP:	0.000	Y_WP:	0.500	X:	0.014	Y:	-0.318	Z:	1.109	yaw:	-73.542	yaw rate:	46.133	Roll:	13.983	Pitch:	-5.001	Yaw:	-93.939	Thrust:	0.000
Time:	4.034	Roll Set Point:	-0.332	Pitch Set Point:	0.407	Yaw Set Point:	1.264	X_WP:	0.000	Y_WP:	0.000	Y_WP:	0.500	X:	0.017	Y:	-0.325	Z:	1.110	yaw:	-72.428	yaw rate:	57.069	Roll:	17.563	Pitch:	-9.248	Yaw:	-78.901	Thrust:	0.000
Time:	4.045	Roll Set Point:	-0.337	Pitch Set Point:	0.409	Yaw Set Point:	1.264	X_WP:	0.000	Y_WP:	0.000	Y_WP:	0.500	X:	0.019	Y:	-0.328	Z:	1.110	yaw:	-72.428	yaw rate:	0.042	Roll:	14.788	Pitch:	-1.249	Yaw:	-103.324	Thrust:	0.000
Time:	4.056	Roll Set Point:	-0.337	Pitch Set Point:	0.409	Yaw Set Point:	1.264	X_WP:	0.000	Y_WP:	0.000	Y_WP:	0.500	X:	0.019	Y:	-0.328	Z:	1.110	yaw:	-72.428	yaw rate:	0.042	Roll:	9.642	Pitch:	-2.551	Yaw:	-103.340	Thrust:	0.000
Time:	4.067	Roll Set Point:	-0.344	Pitch Set Point:	0.413	Yaw Set Point:	1.261	X_WP:	0.000	Y_WP:	0.000	Y_WP:	0.500	X:	0.021	Y:	-0.332	Z:	1.111	yaw:	-72.244	yaw rate:	18.426	Roll:	16.792	Pitch:	-2.483	Yaw:	-98.699	Thrust:	0.000
Time:	4.079	Roll Set Point:	-0.348	Pitch Set Point:	0.420	Yaw Set Point:	1.246	X_WP:	0.000	Y_WP:	0.000	Y_WP:	0.500	X:	0.023	Y:	-0.335	Z:	1.111	yaw:	-71.407	yaw rate:	83.707	Roll:	13.302	Pitch:	-8.296	Yaw:	-83.786	Thrust:	0.000
Time:	4.090	Roll Set Point:	-0.353	Pitch Set Point:	0.425	Yaw Set Point:	1.237	X_WP:	0.000	Y_WP:	0.000	Y_WP:	0.500	X:	0.025	Y:	-0.338	Z:	1.112	yaw:	-70.902	yaw rate:	50.439	Roll:	13.935	Pitch:	-6.072	Yaw:	-89.204	Thrust:	0.000
Time:	4.101	Roll Set Point:	-0.357	Pitch Set Point:	0.429	Yaw Set Point:	1.233	X_WP:	0.000	Y_WP:	0.000	Y_WP:	0.500	X:	0.027	Y:	-0.341	Z:	1.112	yaw:	-70.625	yaw rate:	27.716	Roll:	14.238	Pitch:	-4.169	Yaw:	-94.235	Thrust:	0.000
Time:	4.112	Roll Set Point:	-0.363	Pitch Set Point:	0.434	Yaw Set Point:	1.227	X_WP:	0.000	Y_WP:	0.000	Y_WP:	0.500	X:	0.029	Y:	-0.345	Z:	1.112	yaw:	-70.316	yaw rate:	30.898	Roll:	16.241	Pitch:	-4.177	Yaw:	-93.055	Thrust:	0.000
Time:	4.123	Roll Set Point:	-0.368	Pitch Set Point:	0.437	Yaw Set Point:	1.222	X_WP:	0.000	Y_WP:	0.000	Y_WP:	0.500	X:	0.031	Y:	-0.348	Z:	1.113	yaw:	-70.023	yaw rate:	29.298	Roll:	14.256	Pitch:	-4.387	Yaw:	-93.022	Thrust:	0.000
Time:	4.134	Roll Set Point:	-0.371	Pitch Set Point:	0.447	Yaw Set Point:	1.201	X_WP:	0.000	Y_WP:	0.000	Y_WP:	0.500	X:	0.032	Y:	-0.351	Z:	1.113	yaw:	-68.807	yaw rate:	121.641	Roll:	12.520	Pitch:	-13.193	Yaw:	-69.412	Thrust:	0.000
Time:	4.145	Roll Set Point:	-0.376	Pitch Set Point:	0.447	Yaw Set Point:	1.204	X_WP:	0.000	Y_WP:	0.000	Y_WP:	0.500	X:	0.034	Y:	-0.353	Z:	1.113	yaw:	-69.005	yaw rate:	-19.843	Roll:	14.944	Pitch:	-0.212	Yaw:	-103.265	Thrust:	0.000
Time:	4.156	Roll Set Point:	-0.380	Pitch Set Point:	0.452	Yaw Set Point:	1.197	X_WP:	0.000	Y_WP:	0.000	Y_WP:	0.500	X:	0.036	Y:	-0.355	Z:	1.113	yaw:	-68.610	yaw rate:	39.538	Roll:	13.922	Pitch:	-5.707	Yaw:	-88.589	Thrust:	0.000
Time:	4.167	Roll Set Point:	-0.386	Pitch Set Point:	0.456	Yaw Set Point:	1.194	X_WP:	0.000	Y_WP:	0.000	Y_WP:	0.500	X:	0.038	Y:	-0.359	Z:	1.114	yaw:	-68.389	yaw rate:	22.062	Roll:	16.351	Pitch:	-3.684	Yaw:	-92.477	Thrust:	0.000
Time:	4.178	Roll Set Point:	-0.389	Pitch Set Point:	0.460	Yaw Set Point:	1.187	X_WP:	0.000	Y_WP:	0.000	Y_WP:	0.500	X:	0.040	Y:	-0.361	Z:	1.114	yaw:	-68.004	yaw rate:	38.537	Roll:	13.775	Pitch:	-5.913	Yaw:	-87.981	Thrust:	0.000
Time:	4.189	Roll Set Point:	-0.392	Pitch Set Point:	0.466	Yaw Set Point:	1.174	X_WP:	0.000	Y_WP:	0.000	Y_WP:	0.500	X:	0.041	Y:	-0.364	Z:	1.114	yaw:	-67.281	yaw rate:	72.310	Roll:	12.834	Pitch:	-9.390	Yaw:	-79.031	Thrust:	0.000
Time:	4.200	Roll Set Point:	-0.396	Pitch Set Point:	0.468	Yaw Set Point:	1.174	X_WP:	0.000	Y_WP:	0.000	Y_WP:	0.500	X:	0.042	Y:	-0.366	Z:	1.114	yaw:	-67.275	yaw rate:	0.583	Roll:	14.395	Pitch:	-2.413	Yaw:	-96.001	Thrust:	0.000
Time:	4.211	Roll Set Point:	-0.400	Pitch Set Point:	0.474	Yaw Set Point:	1.163	X_WP:	0.000	Y_WP:	0.000	Y_WP:	0.500	X:	0.044	Y:	-0.369	Z:	1.115	yaw:	-66.659	yaw rate:	61.597	Roll:	14.590	Pitch:	-8.343	Yaw:	-80.658	Thrust:	0.000
Time:	4.222	Roll Set Point:	-0.403	Pitch Set Point:	0.477	Yaw Set Point:	1.160	X_WP:	0.000	Y_WP:	0.000	Y_WP:	0.500	X:	0.045	Y:	-0.371	Z:	1.115	yaw:	-66.464	yaw rate:	19.540	Roll:	13.647	Pitch:	-4.737	Yaw:	-90.369	Thrust:	0.000
Time:	4.233	Roll Set Point:	-0.406	Pitch Set Point:	0.480	Yaw Set Point:	1.156	X_WP:	0.000	Y_WP:	0.000	Y_WP:	0.500	X:	0.047	Y:	-0.372	Z:	1.115	yaw:	-66.227	yaw rate:	23.621	Roll:	13.435	Pitch:	-5.206	Yaw:	-89.068	Thrust:	0.000
Time:	4.244	Roll Set Point:	-0.409	Pitch Set Point:	0.482	Yaw Set Point:	1.154	X_WP:	0.000	Y_WP:	0.000	Y_WP:	0.500	X:	0.048	Y:	-0.374	Z:	1.116	yaw:	-66.141	yaw rate:	8.631	Roll:	13.650	Pitch:	-3.885	Yaw:	-92.508	Thrust:	0.000
Time:	4.255	Roll Set Point:	-0.411	Pitch Set Point:	0.485	Yaw Set Point:	1.151	X_WP:	0.000	Y_WP:	0.000	Y_WP:	0.500	X:	0.048	Y:	-0.376	Z:	1.116	yaw:	-65.947	yaw rate:	19.433	Roll:	13.300	Pitch:	-5.024	Yaw:	-89.671	Thrust:	0.000
Time:	4.266	Roll Set Point:	-0.414	Pitch Set Point:	0.488	Yaw Set Point:	1.146	X_WP:	0.000	Y_WP:	0.000	Y_WP:	0.500	X:	0.049	Y:	-0.377	Z:	1.116	yaw:	-65.657	yaw rate:	28.963	Roll:	12.980	Pitch:	-6.029	Yaw:	-87.006	Thrust:	0.000
Time:	4.277	Roll Set Point:	-0.418	Pitch Set Point:	0.490	Yaw Set Point:	1.145	X_WP:	0.000	Y_WP:	0.000	Y_WP:	0.500	X:	0.051	Y:	-0.380	Z:	1.116	yaw:	-65.602	yaw rate:	5.533	Roll:	14.946	Pitch:	-3.597	Yaw:	-92.481	Thrust:	0.000
Time:	4.289	Roll Set Point:	-0.420	Pitch Set Point:	0.493	Yaw Set Point:	1.141	X_WP:	0.000	Y_WP:	0.000	Y_WP:	0.500	X:	0.052	Y:	-0.381	Z:	1.116	yaw:	-65.366	yaw rate:	23.530	Roll:	13.259	Pitch:	-5.412	Yaw:	-87.908	Thrust:	0.000
Time:	4.300	Roll Set Point:	-0.422	Pitch Set Point:	0.498	Yaw Set Point:	1.133	X_WP:	0.000	Y_WP:	0.000	Y_WP:	0.500	X:	0.053	Y:	-0.383	Z:	1.116	yaw:	-64.927	yaw rate:	43.962	Roll:	12.591	Pitch:	-7.731	Yaw:	-82.419	Thrust:	0.000
Time:	4.311	Roll Set Point:	-0.424	Pitch Set Point:	0.500	Yaw Set Point:	1.130	X_WP:	0.000	Y_WP:	0.000	Y_WP:	0.500	X:	0.054	Y:	-0.384	Z:	1.116	yaw:	-64.761	yaw rate:	16.573	Roll:	13.438	Pitch:	-4.872	Yaw:	-88.684	Thrust:	0.000
Time:	4.322	Roll Set Point:	-0.428	Pitch Set Point:	0.504	Yaw Set Point:	1.124	X_WP:	0.000	Y_WP:	0.000	Y_WP:	0.500	X:	0.055	Y:	-0.387	Z:	1.116	yaw:	-64.426	yaw rate:	33.470	Roll:	14.245	Pitch:	-6.457	Yaw:	-84.242	Thrust:	0.000
Time:	4.333	Roll Set Point:	-0.430	Pitch Set Point:	0.507	Yaw Set Point:	1.119	X_WP:	0.000	Y_WP:	0.000	Y_WP:	0.500	X:	0.056	Y:	-0.388	Z:	1.117	yaw:	-64.114	yaw rate:	31.259	Roll:	12.920	Pitch:	-6.444	Yaw:	-84.308	Thrust:	0.000
Time:	4.345	Roll Set Point:	-0.435	Pitch Set Point:	0.509	Yaw Set Point:	1.118	X_WP:	0.000	Y_WP:	0.000	Y_WP:	0.500	X:	0.058	Y:	-0.391	Z:	1.117	yaw:	-64.079	yaw rate:	16.221	Roll:	15.753	Pitch:	-3.359	Yaw:	-91.109	Thrust:	0.000
Time:	4.356	Roll Set Point:	-0.436	Pitch Set Point:	0.512	Yaw Set Point:	1.114	X_WP:	0.000	Y_WP:	0.000	Y_WP:	0.500	X:	0.059	Y:	-0.392	Z:	1.117	yaw:	-63.801	yaw rate:	27.703	Roll:	12.765	Pitch:	-6.344	Yaw:	-84.707	Thrust:	0.000
Time:	4.367	Roll Set Point:	-0.438	Pitch Set Point:	0.514	Yaw Set Point:	1.112	X_WP:	0.000	Y_WP:	0.000	Y_WP:	0.500	X:	0.059	Y:	-0.393	Z:	1.117	yaw:	-63.724	yaw rate:	7.762	Roll:	13.359	Pitch:	-4.400	Yaw:	-89.340	Thrust:	0.000
Time:	4.378	Roll Set Point:	-0.438	Pitch Set Point:	0.514	Yaw Set Point:	1.112	X_WP:	0.000	Y_WP:	0.000	Y_WP:	0.500	X:	0.059	Y:	-0.393	Z:	1.117	yaw:	-63.724	yaw rate:	7.762	Roll:	11.403	Pitch:	-3.788	Yaw:	-91.176	Thrust:	0.000
Time:	4.389	Roll Set Point:	-0.441	Pitch Set Point:	0.517	Yaw Set Point:	1.108	X_WP:	0.000	Y_WP:	0.000	Y_WP:	0.500	X:	0.060	Y:	-0.395	Z:	1.117	yaw:	-63.459	yaw rate:	26.499	Roll:	13.615	Pitch:	-6.420	Yaw:	-84.521	Thrust:	0.000
Time:	4.400	Roll Set Point:	-0.444	Pitch Set Point:	0.521	Yaw Set Point:	1.104	X_WP:	0.000	Y_WP:	0.000	Y_WP:	0.500	X:	0.062	Y:	-0.397	Z:	1.117	yaw:	-63.260	yaw rate:	-21.860	Roll:	14.779	Pitch:	-5.714	Yaw:	-85.835	Thrust:	0.000
Time:	4.411	Roll Set Point:	-0.445	Pitch Set Point:	0.524	Yaw Set Point:	1.098	X_WP:	0.000	Y_WP:	0.000	Y_WP:	0.500	X:	0.062	Y:	-0.398	Z:	1.117	yaw:	-62.928	yaw rate:	33.256	Roll:	12.390	Pitch:	-7.306	Yaw:	-82.455	Thrust:	0.000
Time:	4.422	Roll Set Point:	-0.448	Pitch Set Point:	0.526	Yaw Set Point:	1.097	X_WP:	0.000	Y_WP:	0.000	Y_WP:	0.500	X:	0.063	Y:	-0.400	Z:	1.117	yaw:	-62.835	yaw rate:	9.237	Roll:	14.064	Pitch:	-4.833	Yaw:	-87.711	Thrust:	0.000
Time:	4.433	Roll Set Point:	-0.449	Pitch Set Point:	0.529	Yaw Set Point:	1.092	X_WP:	0.000	Y_WP:	0.000	Y_WP:	0.500	X:	0.064	Y:	-0.401	Z:	1.117	yaw:	-62.546	yaw rate:	28.947	Roll:	12.639	Pitch:	-6.915	Yaw:	-82.668	Thrust:	0.000
Time:	4.444	Roll Set Point:	-0.451	Pitch Set Point:	0.531	Yaw Set Point:	1.091	X_WP:	0.000	Y_WP:	0.000	Y_WP:	0.500	X:	0.064	Y:	-0.402	Z:	1.117	yaw:	-62.506	yaw rate:	3.995	Roll:	13.372	Pitch:	-4.339	Yaw:	-88.531	Thrust:	0.000
Time:	4.455	Roll Set Point:	-0.452	Pitch Set Point:	0.533	Yaw Set Point:	1.087	X_WP:	0.000	Y_WP:	0.000	Y_WP:	0.500	X:	0.065	Y:	-0.403	Z:	1.117	yaw:	-62.279	yaw rate:	22.732	Roll:	12.915	Pitch:	-6.386	Yaw:	-83.765	Thrust:	0.000
Time:	4.466	Roll Set Point:	-0.454	Pitch Set Point:	0.535	Yaw Set Point:	1.084	X_WP:	0.000	Y_WP:	0.000	Y_WP:	0.500	X:	0.066	Y:	-0.404	Z:	1.117	yaw:	-62.110	yaw rate:	16.893	Roll:	13.072	Pitch:	-5.685	Yaw:	-84.904	Thrust:	0.000
Time:	4.477	Roll Set Point:	-0.456	Pitch Set Point:	0.539	Yaw Set Point:	1.080	X_WP:	0.000	Y_WP:	0.000	Y_WP:	0.500	X:	0.067	Y:	-0.406	Z:	1.117	yaw:	-61.879	yaw rate:	23.056	Roll:	13.947	Pitch:	-6.425	Yaw:	-83.152	Thrust:	0.000
Time:	4.488	Roll Set Point:	-0.458	Pitch Set Point:	0.541	Yaw Set Point:	1.077	X_WP:	0.000	Y_WP:	0.000	Y_WP:	0.500	X:	0.068	Y:	-0.407	Z:	1.117	yaw:	-61.704	yaw rate:	17.472	Roll:	13.287	Pitch:	-5.818	Yaw:	-84.214	Thrust:	0.000
Time:	4.499	Roll Set Point:	-0.460	Pitch Set Point:	0.543	Yaw Set Point:	1.075	X_WP:	0.000	Y_WP:	0.000	Y_WP:	0.500	X:	0.068	Y:	-0.408	Z:	1.117	yaw:	-61.580	yaw rate:	12.473	Roll:	13.362	Pitch:	-5.446	Yaw:	-85.224	Thrust:	0.000
Time:	4.510	Roll Set Point:	-0.463	Pitch Set Point:	0.542	Yaw Set Point:	1.078	X_WP:	0.000	Y_WP:	0.000	Y_WP:	0.500	X:	0.069	Y:	-0.410	Z:	1.118	yaw:	-61.768	yaw rate:	-18.842	Roll:	14.607	Pitch:	-1.905	Yaw:	-92.921	Thrust:	0.000
Time:	4.521	Roll Set Point:	-0.464	Pitch Set Point:	0.545	Yaw Set Point:	1.074	X_WP:	0.000	Y_WP:	0.000	Y_WP:	0.500	X:	0.070	Y:	-0.411	Z:	1.118	yaw:	-61.508	yaw rate:	26.025	Roll:	13.129	Pitch:	-6.816	Yaw:	-81.889	Thrust:	0.000
Time:	4.532	Roll Set Point:	-0.465	Pitch Set Point:	0.550	Yaw Set Point:	1.064	X_WP:	0.000	Y_WP:	0.000	Y_WP:	0.500	X:	0.071	Y:	-0.412	Z:	1.118	yaw:	-60.977	yaw rate:	53.037	Roll:	12.204	Pitch:	-9.976	Yaw:	-74.793	Thrust:	0.000
Time:	4.543	Roll Set Point:	-0.468	Pitch Set Point:	0.552	Yaw Set Point:	1.063	X_WP:	0.000	Y_WP:	0.000	Y_WP:	0.500	X:	0.072	Y:	-0.414	Z:	1.118	yaw:	-60.889	yaw rate:	8.857	Roll:	14.793	Pitch:	-4.975	Yaw:	-85.123	Thrust:	0.000
Time:	4.554	Roll Set Point:	-0.470	Pitch Set Point:	0.557	Yaw Set Point:	1.055	X_WP:	0.000	Y_WP:	0.000	Y_WP:	0.500	X:	0.073	Y:	-0.415	Z:	1.118	yaw:	-60.471	yaw rate:	41.777	Roll:	12.739	Pitch:	-8.809	Yaw:	-76.717	Thrust:	0.000
Time:	4.565	Roll Set Point:	-0.471	Pitch Set Point:	0.558	Yaw Set Point:	1.053	X_WP:	0.000	Y_WP:	0.000	Y_WP:	0.500	X:	0.073	Y:	-0.416	Z:	1.118	yaw:	-60.347	yaw rate:	12.377	Roll:	13.594	Pitch:	-5.683	Yaw:	-83.516	Thrust:	0.000
Time:	4.576	Roll Set Point:	-0.473	Pitch Set Point:	0.561	Yaw Set Point:	1.050	X_WP:	0.000	Y_WP:	0.000	Y_WP:	0.500	X:	0.074	Y:	-0.418	Z:	1.118	yaw:	-60.149	yaw rate:	19.827	Roll:	13.530	Pitch:	-6.491	Yaw:	-81.484	Thrust:	0.000
Time:	4.587	Roll Set Point:	-0.475	Pitch Set Point:	0.563	Yaw Set Point:	1.047	X_WP:	0.000	Y_WP:	0.000	Y_WP:	0.500	X:	0.075	Y:	-0.419	Z:	1.118	yaw:	-60.004	yaw rate:	14.539	Roll:	13.633	Pitch:	-6.036	Yaw:	-82.536	Thrust:	0.000
Time:	4.599	Roll Set Point:	-0.478	Pitch Set Point:	0.567	Yaw Set Point:	1.043	X_WP:	0.000	Y_WP:	0.000	Y_WP:	0.500	X:	0.076	Y:	-0.421	Z:	1.118	yaw:	-59.765	yaw rate:	23.872	Roll:	14.477	Pitch:	-6.911	Yaw:	-80.006	Thrust:	0.000
Time:	4.610	Roll Set Point:	-0.480	Pitch Set Point:	0.568	Yaw Set Point:	1.041	X_WP:	0.000	Y_WP:	0.000	Y_WP:	0.500	X:	0.077	Y:	-0.422	Z:	1.119	yaw:	-59.667	yaw rate:	9.757	Roll:	14.073	Pitch:	-5.448	Yaw:	-83.202	Thrust:	0.000
Time:	4.621	Roll Set Point:	-0.482	Pitch Set Point:	0.571	Yaw Set Point:	1.037	X_WP:	0.000	Y_WP:	0.000	Y_WP:	0.500	X:	0.078	Y:	-0.423	Z:	1.119	yaw:	-59.425	yaw rate:	24.256	Roll:	13.489	Pitch:	-7.097	Yaw:	-79.409	Thrust:	0.000
Time:	4.632	Roll Set Point:	-0.484	Pitch Set Point:	0.573	Yaw Set Point:	1.036	X_WP:	0.000	Y_WP:	0.000	Y_WP:	0.500	X:	0.079	Y:	-0.424	Z:	1.119	yaw:	-59.336	yaw rate:	8.839	Roll:	14.249	Pitch:	-5.301	Yaw:	-82.962	Thrust:	0.000
Time:	4.643	Roll Set Point:	-0.487	Pitch Set Point:	0.577	Yaw Set Point:	1.030	X_WP:	0.000	Y_WP:	0.000	Y_WP:	0.500	X:	0.080	Y:	-0.426	Z:	1.119	yaw:	-58.989	yaw rate:	34.711	Roll:	14.708	Pitch:	-8.041	Yaw:	-76.332	Thrust:	0.000
Time:	4.654	Roll Set Point:	-0.489	Pitch Set Point:	0.580	Yaw Set Point:	1.025	X_WP:	0.000	Y_WP:	0.000	Y_WP:	0.500	X:	0.082	Y:	-0.428	Z:	1.119	yaw:	-58.743	yaw rate:	24.636	Roll:	13.899	Pitch:	-7.035	Yaw:	-78.359	Thrust:	0.000
Time:	4.665	Roll Set Point:	-0.492	Pitch Set Point:	0.583	Yaw Set Point:	1.021	X_WP:	0.000	Y_WP:	0.000	Y_WP:	0.500	X:	0.083	Y:	-0.429	Z:	1.119	yaw:	-58.500	yaw rate:	24.306	Roll:	13.992	Pitch:	-7.146	Yaw:	-78.141	Thrust:	0.000
Time:	4.676	Roll Set Point:	-0.494	Pitch Set Point:	0.586	Yaw Set Point:	1.016	X_WP:	0.000	Y_WP:	0.000	Y_WP:	0.500	X:	0.084	Y:	-0.430	Z:	1.119	yaw:	-58.223	yaw rate:	27.699	Roll:	13.844	Pitch:	-7.458	Yaw:	-76.909	Thrust:	0.000
Time:	4.687	Roll Set Point:	-0.497	Pitch Set Point:	0.587	Yaw Set Point:	1.016	X_WP:	0.000	Y_WP:	0.000	Y_WP:	0.500	X:	0.085	Y:	-0.432	Z:	1.119	yaw:	-58.200	yaw rate:	2.294	Roll:	14.863	Pitch:	-4.632	Yaw:	-82.921	Thrust:	0.000
Time:	4.698	Roll Set Point:	-0.500	Pitch Set Point:	0.591	Yaw Set Point:	1.010	X_WP:	0.000	Y_WP:	0.000	Y_WP:	0.500	X:	0.087	Y:	-0.434	Z:	1.120	yaw:	-57.880	yaw rate:	32.009	Roll:	15.169	Pitch:	-8.060	Yaw:	-75.448	Thrust:	0.000
Time:	4.709	Roll Set Point:	-0.502	Pitch Set Point:	0.594	Yaw Set Point:	1.004	X_WP:	0.000	Y_WP:	0.000	Y_WP:	0.500	X:	0.088	Y:	-0.435	Z:	1.120	yaw:	-57.532	yaw rate:	34.746	Roll:	13.435	Pitch:	-8.299	Yaw:	-74.288	Thrust:	0.000
Time:	4.720	Roll Set Point:	-0.504	Pitch Set Point:	0.597	Yaw Set Point:	1.001	X_WP:	0.000	Y_WP:	0.000	Y_WP:	0.500	X:	0.089	Y:	-0.436	Z:	1.120	yaw:	-57.339	yaw rate:	19.377	Roll:	14.406	Pitch:	-6.742	Yaw:	-77.667	Thrust:	0.000
Time:	4.731	Roll Set Point:	-0.508	Pitch Set Point:	0.595	Yaw Set Point:	1.006	X_WP:	0.000	Y_WP:	0.000	Y_WP:	0.500	X:	0.090	Y:	-0.437	Z:	1.120	yaw:	-57.652	yaw rate:	-31.315	Roll:	16.279	Pitch:	-0.782	Yaw:	-90.139	Thrust:	0.000
Time:	4.742	Roll Set Point:	-0.510	Pitch Set Point:	0.603	Yaw Set Point:	0.991	X_WP:	0.000	Y_WP:	0.000	Y_WP:	0.500	X:	0.092	Y:	-0.439	Z:	1.120	yaw:	-56.778	yaw rate:	87.399	Roll:	12.846	Pitch:	-14.549	Yaw:	-60.749	Thrust:	0.000
Time:	4.753	Roll Set Point:	-0.512	Pitch Set Point:	0.605	Yaw Set Point:	0.988	X_WP:	0.000	Y_WP:	0.000	Y_WP:	0.500	X:	0.093	Y:	-0.441	Z:	1.120	yaw:	-56.616	yaw rate:	16.149	Roll:	14.375	Pitch:	-6.565	Yaw:	-77.458	Thrust:	0.000
Time:	4.764	Roll Set Point:	-0.514	Pitch Set Point:	0.608	Yaw Set Point:	0.984	X_WP:	0.000	Y_WP:	0.000	Y_WP:	0.500	X:	0.094	Y:	-0.442	Z:	1.120	yaw:	-56.396	yaw rate:	22.036	Roll:	14.088	Pitch:	-7.207	Yaw:	-75.677	Thrust:	0.000
Time:	4.775	Roll Set Point:	-0.517	Pitch Set Point:	0.610	Yaw Set Point:	0.982	X_WP:	0.000	Y_WP:	0.000	Y_WP:	0.500	X:	0.095	Y:	-0.443	Z:	1.120	yaw:	-56.254	yaw rate:	14.187	Roll:	14.602	Pitch:	-6.438	Yaw:	-77.370	Thrust:	0.000
Time:	4.786	Roll Set Point:	-0.519	Pitch Set Point:	0.612	Yaw Set Point:	0.979	X_WP:	0.000	Y_WP:	0.000	Y_WP:	0.500	X:	0.097	Y:	-0.444	Z:	1.120	yaw:	-56.096	yaw rate:	15.784	Roll:	14.260	Pitch:	-6.640	Yaw:	-76.799	Thrust:	0.000
Time:	4.797	Roll Set Point:	-0.522	Pitch Set Point:	0.615	Yaw Set Point:	0.974	X_WP:	0.000	Y_WP:	0.000	Y_WP:	0.500	X:	0.098	Y:	-0.446	Z:	1.120	yaw:	-55.820	yaw rate:	27.593	Roll:	15.069	Pitch:	-7.800	Yaw:	-73.607	Thrust:	0.000
Time:	4.808	Roll Set Point:	-0.524	Pitch Set Point:	0.617	Yaw Set Point:	0.970	X_WP:	0.000	Y_WP:	0.000	Y_WP:	0.500	X:	0.099	Y:	-0.447	Z:	1.121	yaw:	-55.588	yaw rate:	23.223	Roll:	13.976	Pitch:	-7.579	Yaw:	-74.302	Thrust:	0.000
Time:	4.819	Roll Set Point:	-0.527	Pitch Set Point:	0.616	Yaw Set Point:	0.974	X_WP:	0.000	Y_WP:	0.000	Y_WP:	0.500	X:	0.100	Y:	-0.448	Z:	1.121	yaw:	-55.805	yaw rate:	-21.652	Roll:	15.886	Pitch:	-2.257	Yaw:	-85.272	Thrust:	0.000
Time:	4.830	Roll Set Point:	-0.529	Pitch Set Point:	0.619	Yaw Set Point:	0.970	X_WP:	0.000	Y_WP:	0.000	Y_WP:	0.500	X:	0.101	Y:	-0.449	Z:	1.121	yaw:	-55.568	yaw rate:	23.650	Roll:	13.786	Pitch:	-7.754	Yaw:	-74.180	Thrust:	0.000
Time:	4.841	Roll Set Point:	-0.531	Pitch Set Point:	0.618	Yaw Set Point:	0.973	X_WP:	0.000	Y_WP:	0.000	Y_WP:	0.500	X:	0.102	Y:	-0.450	Z:	1.120	yaw:	-55.744	yaw rate:	-17.566	Roll:	15.423	Pitch:	-2.950	Yaw:	-84.208	Thrust:	0.000
Time:	4.852	Roll Set Point:	-0.532	Pitch Set Point:	0.624	Yaw Set Point:	0.961	X_WP:	0.000	Y_WP:	0.000	Y_WP:	0.500	X:	0.103	Y:	-0.451	Z:	1.121	yaw:	-55.062	yaw rate:	68.219	Roll:	12.049	Pitch:	-13.075	Yaw:	-62.894	Thrust:	0.000
Time:	4.863	Roll Set Point:	-0.536	Pitch Set Point:	0.622	Yaw Set Point:	0.968	X_WP:	0.000	Y_WP:	0.000	Y_WP:	0.500	X:	0.104	Y:	-0.452	Z:	1.120	yaw:	-55.472	yaw rate:	-41.059	Roll:	17.193	Pitch:	-0.123	Yaw:	-89.387	Thrust:	0.000
Time:	4.874	Roll Set Point:	-0.536	Pitch Set Point:	0.628	Yaw Set Point:	0.957	X_WP:	0.000	Y_WP:	0.000	Y_WP:	0.500	X:	0.105	Y:	-0.453	Z:	1.120	yaw:	-54.858	yaw rate:	61.456	Roll:	12.145	Pitch:	-12.435	Yaw:	-64.173	Thrust:	0.000
Time:	4.885	Roll Set Point:	-0.539	Pitch Set Point:	0.626	Yaw Set Point:	0.963	X_WP:	0.000	Y_WP:	0.000	Y_WP:	0.500	X:	0.106	Y:	-0.454	Z:	1.120	yaw:	-55.175	yaw rate:	-31.728	Roll:	15.948	Pitch:	-1.281	Yaw:	-86.765	Thrust:	0.000
Time:	4.896	Roll Set Point:	-0.541	Pitch Set Point:	0.624	Yaw Set Point:	0.968	X_WP:	0.000	Y_WP:	0.000	Y_WP:	0.500	X:	0.106	Y:	-0.454	Z:	1.120	yaw:	-55.453	yaw rate:	-27.853	Roll:	15.554	Pitch:	-1.888	Yaw:	-86.244	Thrust:	0.000
Time:	4.907	Roll Set Point:	-0.542	Pitch Set Point:	0.629	Yaw Set Point:	0.958	X_WP:	0.000	Y_WP:	0.000	Y_WP:	0.500	X:	0.108	Y:	-0.455	Z:	1.120	yaw:	-54.909	yaw rate:	54.423	Roll:	13.096	Pitch:	-11.406	Yaw:	-65.961	Thrust:	0.000
Time:	4.918	Roll Set Point:	-0.544	Pitch Set Point:	0.629	Yaw Set Point:	0.959	X_WP:	0.000	Y_WP:	0.000	Y_WP:	0.500	X:	0.108	Y:	-0.456	Z:	1.120	yaw:	-54.958	yaw rate:	-4.836	Roll:	14.754	Pitch:	-4.563	Yaw:	-80.086	Thrust:	0.000
Time:	4.929	Roll Set Point:	-0.546	Pitch Set Point:	0.629	Yaw Set Point:	0.961	X_WP:	0.000	Y_WP:	0.000	Y_WP:	0.500	X:	0.109	Y:	-0.457	Z:	1.120	yaw:	-55.038	yaw rate:	-8.047	Roll:	14.834	Pitch:	-4.135	Yaw:	-80.964	Thrust:	0.000
Time:	4.940	Roll Set Point:	-0.546	Pitch Set Point:	0.633	Yaw Set Point:	0.952	X_WP:	0.000	Y_WP:	0.000	Y_WP:	0.500	X:	0.110	Y:	-0.457	Z:	1.120	yaw:	-54.560	yaw rate:	47.823	Roll:	12.512	Pitch:	-10.932	Yaw:	-67.034	Thrust:	0.000
Time:	4.951	Roll Set Point:	-0.548	Pitch Set Point:	0.633	Yaw Set Point:	0.954	X_WP:	0.000	Y_WP:	0.000	Y_WP:	0.500	X:	0.110	Y:	-0.458	Z:	1.120	yaw:	-54.654	yaw rate:	-9.381	Roll:	14.920	Pitch:	-4.098	Yaw:	-80.743	Thrust:	0.000
Time:	4.963	Roll Set Point:	-0.550	Pitch Set Point:	0.633	Yaw Set Point:	0.955	X_WP:	0.000	Y_WP:	0.000	Y_WP:	0.500	X:	0.111	Y:	-0.459	Z:	1.120	yaw:	-54.722	yaw rate:	-6.889	Roll:	15.362	Pitch:	-4.208	Yaw:	-80.249	Thrust:	0.000
