Time:	2.058	Roll Set Point:	0.008	Pitch Set Point:	-0.108	Yaw Set Point:	-0.061	X_WP:	0.000	Y_WP:	0.000	Y_WP:	0.500	X:	-0.006	Y:	0.054	Z:	0.050	yaw:	3.489	yaw rate:	0.183	Roll:	-0.045	Pitch:	1.085	Yaw:	4.871	Thrust:	24.727
Time:	2.069	Roll Set Point:	0.008	Pitch Set Point:	-0.108	Yaw Set Point:	-0.061	X_WP:	0.000	Y_WP:	0.000	Y_WP:	0.500	X:	-0.006	Y:	0.054	Z:	0.050	yaw:	3.477	yaw rate:	-1.220	Roll:	-0.064	Pitch:	1.083	Yaw:	4.578	Thrust:	25.388
Time:	2.080	Roll Set Point:	0.008	Pitch Set Point:	-0.108	Yaw Set Point:	-0.061	X_WP:	0.000	Y_WP:	0.000	Y_WP:	0.500	X:	-0.006	Y:	0.054	Z:	0.050	yaw:	3.484	yaw rate:	0.773	Roll:	-0.018	Pitch:	1.082	Yaw:	5.075	Thrust:	25.850
Time:	2.091	Roll Set Point:	0.008	Pitch Set Point:	-0.108	Yaw Set Point:	-0.060	X_WP:	0.000	Y_WP:	0.000	Y_WP:	0.500	X:	-0.006	Y:	0.054	Z:	0.051	yaw:	3.447	yaw rate:	-3.734	Roll:	-0.323	Pitch:	1.151	Yaw:	3.969	Thrust:	26.081
Time:	2.102	Roll Set Point:	0.008	Pitch Set Point:	-0.108	Yaw Set Point:	-0.063	X_WP:	0.000	Y_WP:	0.000	Y_WP:	0.500	X:	-0.006	Y:	0.054	Z:	0.050	yaw:	3.631	yaw rate:	18.439	Roll:	0.366	Pitch:	1.274	Yaw:	9.499	Thrust:	28.697
Time:	2.113	Roll Set Point:	0.008	Pitch Set Point:	-0.109	Yaw Set Point:	-0.065	X_WP:	0.000	Y_WP:	0.000	Y_WP:	0.500	X:	-0.006	Y:	0.054	Z:	0.050	yaw:	3.734	yaw rate:	10.231	Roll:	0.135	Pitch:	1.188	Yaw:	7.713	Thrust:	27.728
Time:	2.124	Roll Set Point:	0.008	Pitch Set Point:	-0.108	Yaw Set Point:	-0.062	X_WP:	0.000	Y_WP:	0.000	Y_WP:	0.500	X:	-0.006	Y:	0.054	Z:	0.050	yaw:	3.553	yaw rate:	-18.041	Roll:	-0.447	Pitch:	0.967	Yaw:	0.964	Thrust:	28.240
Time:	2.135	Roll Set Point:	0.008	Pitch Set Point:	-0.108	Yaw Set Point:	-0.060	X_WP:	0.000	Y_WP:	0.000	Y_WP:	0.500	X:	-0.006	Y:	0.054	Z:	0.050	yaw:	3.412	yaw rate:	-14.120	Roll:	-0.122	Pitch:	1.175	Yaw:	1.509	Thrust:	28.042
Time:	2.146	Roll Set Point:	0.009	Pitch Set Point:	-0.108	Yaw Set Point:	-0.051	X_WP:	0.000	Y_WP:	0.000	Y_WP:	0.500	X:	-0.006	Y:	0.054	Z:	0.050	yaw:	2.908	yaw rate:	-50.375	Roll:	-1.218	Pitch:	0.522	Yaw:	-7.788	Thrust:	30.309
Time:	2.157	Roll Set Point:	0.008	Pitch Set Point:	-0.108	Yaw Set Point:	-0.051	X_WP:	0.000	Y_WP:	0.000	Y_WP:	0.500	X:	-0.006	Y:	0.054	Z:	0.050	yaw:	2.944	yaw rate:	3.591	Roll:	0.422	Pitch:	1.479	Yaw:	5.083	Thrust:	29.023
Time:	2.168	Roll Set Point:	0.008	Pitch Set Point:	-0.108	Yaw Set Point:	-0.061	X_WP:	0.000	Y_WP:	0.000	Y_WP:	0.500	X:	-0.005	Y:	0.054	Z:	0.050	yaw:	3.477	yaw rate:	53.293	Roll:	0.943	Pitch:	1.351	Yaw:	17.636	Thrust:	31.277
Time:	2.179	Roll Set Point:	0.008	Pitch Set Point:	-0.108	Yaw Set Point:	-0.060	X_WP:	0.000	Y_WP:	0.000	Y_WP:	0.500	X:	-0.006	Y:	0.054	Z:	0.050	yaw:	3.462	yaw rate:	-1.562	Roll:	-0.357	Pitch:	1.182	Yaw:	4.607	Thrust:	31.484
Time:	2.190	Roll Set Point:	0.008	Pitch Set Point:	-0.108	Yaw Set Point:	-0.059	X_WP:	0.000	Y_WP:	0.000	Y_WP:	0.500	X:	-0.006	Y:	0.054	Z:	0.050	yaw:	3.403	yaw rate:	-5.822	Roll:	0.039	Pitch:	1.144	Yaw:	3.528	Thrust:	31.487
Time:	2.202	Roll Set Point:	0.008	Pitch Set Point:	-0.108	Yaw Set Point:	-0.057	X_WP:	0.000	Y_WP:	0.000	Y_WP:	0.500	X:	-0.006	Y:	0.054	Z:	0.050	yaw:	3.261	yaw rate:	-14.275	Roll:	-0.643	Pitch:	0.767	Yaw:	1.335	Thrust:	33.785
Time:	2.213	Roll Set Point:	0.008	Pitch Set Point:	-0.109	Yaw Set Point:	-0.061	X_WP:	0.000	Y_WP:	0.000	Y_WP:	0.500	X:	-0.006	Y:	0.054	Z:	0.050	yaw:	3.480	yaw rate:	21.963	Roll:	0.646	Pitch:	1.659	Yaw:	10.256	Thrust:	31.974
Time:	2.224	Roll Set Point:	0.008	Pitch Set Point:	-0.108	Yaw Set Point:	-0.056	X_WP:	0.000	Y_WP:	0.000	Y_WP:	0.500	X:	-0.006	Y:	0.054	Z:	0.050	yaw:	3.219	yaw rate:	-26.163	Roll:	-0.412	Pitch:	0.687	Yaw:	-1.519	Thrust:	34.172
Time:	2.235	Roll Set Point:	0.009	Pitch Set Point:	-0.108	Yaw Set Point:	-0.052	X_WP:	0.000	Y_WP:	0.000	Y_WP:	0.500	X:	-0.006	Y:	0.054	Z:	0.050	yaw:	2.960	yaw rate:	-25.912	Roll:	-0.706	Pitch:	1.346	Yaw:	-1.809	Thrust:	33.728
Time:	2.246	Roll Set Point:	0.008	Pitch Set Point:	-0.108	Yaw Set Point:	-0.060	X_WP:	0.000	Y_WP:	0.000	Y_WP:	0.500	X:	-0.006	Y:	0.054	Z:	0.050	yaw:	3.438	yaw rate:	47.879	Roll:	0.795	Pitch:	1.439	Yaw:	16.387	Thrust:	34.563
Time:	2.257	Roll Set Point:	0.008	Pitch Set Point:	-0.109	Yaw Set Point:	-0.062	X_WP:	0.000	Y_WP:	0.000	Y_WP:	0.500	X:	-0.006	Y:	0.054	Z:	0.050	yaw:	3.554	yaw rate:	11.591	Roll:	0.101	Pitch:	1.279	Yaw:	7.948	Thrust:	35.830
Time:	2.268	Roll Set Point:	0.008	Pitch Set Point:	-0.108	Yaw Set Point:	-0.059	X_WP:	0.000	Y_WP:	0.000	Y_WP:	0.500	X:	-0.006	Y:	0.054	Z:	0.050	yaw:	3.368	yaw rate:	-18.652	Roll:	-0.306	Pitch:	1.105	Yaw:	0.522	Thrust:	35.299
Time:	2.279	Roll Set Point:	0.008	Pitch Set Point:	-0.108	Yaw Set Point:	-0.061	X_WP:	0.000	Y_WP:	0.000	Y_WP:	0.500	X:	-0.006	Y:	0.054	Z:	0.050	yaw:	3.506	yaw rate:	13.846	Roll:	0.124	Pitch:	1.279	Yaw:	8.443	Thrust:	37.380
Time:	2.290	Roll Set Point:	0.009	Pitch Set Point:	-0.108	Yaw Set Point:	-0.052	X_WP:	0.000	Y_WP:	0.000	Y_WP:	0.500	X:	-0.006	Y:	0.054	Z:	0.050	yaw:	2.991	yaw rate:	-51.541	Roll:	-1.095	Pitch:	0.606	Yaw:	-7.784	Thrust:	37.855
Time:	2.301	Roll Set Point:	0.008	Pitch Set Point:	-0.108	Yaw Set Point:	-0.058	X_WP:	0.000	Y_WP:	0.000	Y_WP:	0.500	X:	-0.006	Y:	0.054	Z:	0.050	yaw:	3.349	yaw rate:	35.875	Roll:	0.840	Pitch:	1.792	Yaw:	13.478	Thrust:	36.608
Time:	2.312	Roll Set Point:	0.007	Pitch Set Point:	-0.108	Yaw Set Point:	-0.062	X_WP:	0.000	Y_WP:	0.000	Y_WP:	0.500	X:	-0.005	Y:	0.054	Z:	0.050	yaw:	3.548	yaw rate:	19.861	Roll:	0.463	Pitch:	1.232	Yaw:	9.967	Thrust:	38.889
Time:	2.323	Roll Set Point:	0.009	Pitch Set Point:	-0.108	Yaw Set Point:	-0.047	X_WP:	0.000	Y_WP:	0.000	Y_WP:	0.500	X:	-0.006	Y:	0.054	Z:	0.050	yaw:	2.707	yaw rate:	-84.085	Roll:	-1.864	Pitch:	0.672	Yaw:	-15.867	Thrust:	39.976
Time:	2.334	Roll Set Point:	0.008	Pitch Set Point:	-0.108	Yaw Set Point:	-0.061	X_WP:	0.000	Y_WP:	0.000	Y_WP:	0.500	X:	-0.006	Y:	0.054	Z:	0.050	yaw:	3.478	yaw rate:	77.042	Roll:	1.199	Pitch:	1.770	Yaw:	23.463	Thrust:	38.929
Time:	2.345	Roll Set Point:	0.008	Pitch Set Point:	-0.108	Yaw Set Point:	-0.056	X_WP:	0.000	Y_WP:	0.000	Y_WP:	0.500	X:	-0.006	Y:	0.054	Z:	0.051	yaw:	3.214	yaw rate:	-26.360	Roll:	-0.328	Pitch:	1.260	Yaw:	-1.418	Thrust:	39.113
Time:	2.356	Roll Set Point:	0.008	Pitch Set Point:	-0.108	Yaw Set Point:	-0.059	X_WP:	0.000	Y_WP:	0.000	Y_WP:	0.500	X:	-0.006	Y:	0.054	Z:	0.050	yaw:	3.370	yaw rate:	15.624	Roll:	0.161	Pitch:	1.201	Yaw:	8.767	Thrust:	40.914
Time:	2.367	Roll Set Point:	0.008	Pitch Set Point:	-0.108	Yaw Set Point:	-0.059	X_WP:	0.000	Y_WP:	0.000	Y_WP:	0.500	X:	-0.006	Y:	0.054	Z:	0.050	yaw:	3.380	yaw rate:	0.935	Roll:	0.092	Pitch:	1.312	Yaw:	5.303	Thrust:	41.737
Time:	2.378	Roll Set Point:	0.008	Pitch Set Point:	-0.108	Yaw Set Point:	-0.063	X_WP:	0.000	Y_WP:	0.000	Y_WP:	0.500	X:	-0.006	Y:	0.054	Z:	0.050	yaw:	3.592	yaw rate:	21.201	Roll:	-0.036	Pitch:	1.019	Yaw:	10.472	Thrust:	43.367
Time:	2.389	Roll Set Point:	0.009	Pitch Set Point:	-0.108	Yaw Set Point:	-0.051	X_WP:	0.000	Y_WP:	0.000	Y_WP:	0.500	X:	-0.006	Y:	0.054	Z:	0.051	yaw:	2.948	yaw rate:	-64.339	Roll:	-0.952	Pitch:	1.261	Yaw:	-10.767	Thrust:	40.755
Time:	2.400	Roll Set Point:	0.008	Pitch Set Point:	-0.108	Yaw Set Point:	-0.059	X_WP:	0.000	Y_WP:	0.000	Y_WP:	0.500	X:	-0.006	Y:	0.054	Z:	0.050	yaw:	3.354	yaw rate:	40.615	Roll:	0.792	Pitch:	1.455	Yaw:	14.723	Thrust:	43.346
Time:	2.411	Roll Set Point:	0.008	Pitch Set Point:	-0.108	Yaw Set Point:	-0.062	X_WP:	0.000	Y_WP:	0.000	Y_WP:	0.500	X:	-0.006	Y:	0.054	Z:	0.050	yaw:	3.530	yaw rate:	17.530	Roll:	0.125	Pitch:	1.168	Yaw:	9.502	Thrust:	45.133
Time:	2.422	Roll Set Point:	0.008	Pitch Set Point:	-0.108	Yaw Set Point:	-0.054	X_WP:	0.000	Y_WP:	0.000	Y_WP:	0.500	X:	-0.006	Y:	0.054	Z:	0.050	yaw:	3.102	yaw rate:	-42.735	Roll:	-0.659	Pitch:	1.112	Yaw:	-5.386	Thrust:	43.906
Time:	2.433	Roll Set Point:	0.008	Pitch Set Point:	-0.108	Yaw Set Point:	-0.054	X_WP:	0.000	Y_WP:	0.000	Y_WP:	0.500	X:	-0.005	Y:	0.054	Z:	0.050	yaw:	3.068	yaw rate:	-3.453	Roll:	0.051	Pitch:	1.297	Yaw:	3.902	Thrust:	44.291
Time:	2.444	Roll Set Point:	0.008	Pitch Set Point:	-0.108	Yaw Set Point:	-0.054	X_WP:	0.000	Y_WP:	0.000	Y_WP:	0.500	X:	-0.006	Y:	0.054	Z:	0.050	yaw:	3.105	yaw rate:	3.766	Roll:	-0.185	Pitch:	1.061	Yaw:	5.680	Thrust:	47.023
Time:	2.455	Roll Set Point:	0.007	Pitch Set Point:	-0.108	Yaw Set Point:	-0.065	X_WP:	0.000	Y_WP:	0.000	Y_WP:	0.500	X:	-0.005	Y:	0.054	Z:	0.050	yaw:	3.722	yaw rate:	61.606	Roll:	1.068	Pitch:	1.695	Yaw:	20.282	Thrust:	45.179
Time:	2.466	Roll Set Point:	0.008	Pitch Set Point:	-0.108	Yaw Set Point:	-0.060	X_WP:	0.000	Y_WP:	0.000	Y_WP:	0.500	X:	-0.006	Y:	0.054	Z:	0.050	yaw:	3.453	yaw rate:	-26.819	Roll:	-0.634	Pitch:	0.948	Yaw:	-1.068	Thrust:	47.079
Time:	2.477	Roll Set Point:	0.007	Pitch Set Point:	-0.108	Yaw Set Point:	-0.063	X_WP:	0.000	Y_WP:	0.000	Y_WP:	0.500	X:	-0.005	Y:	0.054	Z:	0.050	yaw:	3.582	yaw rate:	12.848	Roll:	0.472	Pitch:	1.577	Yaw:	8.540	Thrust:	46.981
Time:	2.488	Roll Set Point:	0.008	Pitch Set Point:	-0.108	Yaw Set Point:	-0.054	X_WP:	0.000	Y_WP:	0.000	Y_WP:	0.500	X:	-0.006	Y:	0.054	Z:	0.050	yaw:	3.096	yaw rate:	-48.620	Roll:	-1.067	Pitch:	1.143	Yaw:	-6.717	Thrust:	48.017
Time:	2.499	Roll Set Point:	0.007	Pitch Set Point:	-0.108	Yaw Set Point:	-0.067	X_WP:	0.000	Y_WP:	0.000	Y_WP:	0.500	X:	-0.005	Y:	0.054	Z:	0.050	yaw:	3.818	yaw rate:	72.267	Roll:	1.216	Pitch:	1.477	Yaw:	23.000	Thrust:	48.759
Time:	2.510	Roll Set Point:	0.007	Pitch Set Point:	-0.108	Yaw Set Point:	-0.066	X_WP:	0.000	Y_WP:	0.000	Y_WP:	0.500	X:	-0.005	Y:	0.054	Z:	0.050	yaw:	3.777	yaw rate:	-4.118	Roll:	0.154	Pitch:	1.396	Yaw:	4.826	Thrust:	48.698
Time:	2.521	Roll Set Point:	0.007	Pitch Set Point:	-0.108	Yaw Set Point:	-0.067	X_WP:	0.000	Y_WP:	0.000	Y_WP:	0.500	X:	-0.005	Y:	0.054	Z:	0.050	yaw:	3.817	yaw rate:	4.028	Roll:	-0.040	Pitch:	1.234	Yaw:	6.831	Thrust:	49.294
Time:	2.532	Roll Set Point:	0.007	Pitch Set Point:	-0.108	Yaw Set Point:	-0.067	X_WP:	0.000	Y_WP:	0.000	Y_WP:	0.500	X:	-0.005	Y:	0.054	Z:	0.050	yaw:	3.827	yaw rate:	0.943	Roll:	0.212	Pitch:	1.520	Yaw:	6.126	Thrust:	51.413
Time:	2.543	Roll Set Point:	0.006	Pitch Set Point:	-0.108	Yaw Set Point:	-0.069	X_WP:	0.000	Y_WP:	0.000	Y_WP:	0.500	X:	-0.005	Y:	0.054	Z:	0.050	yaw:	3.956	yaw rate:	12.935	Roll:	0.255	Pitch:	1.258	Yaw:	9.168	Thrust:	50.180
Time:	2.555	Roll Set Point:	0.007	Pitch Set Point:	-0.108	Yaw Set Point:	-0.067	X_WP:	0.000	Y_WP:	0.000	Y_WP:	0.500	X:	-0.005	Y:	0.054	Z:	0.050	yaw:	3.813	yaw rate:	64.632	Roll:	-0.540	Pitch:	1.083	Yaw:	2.683	Thrust:	52.732
Time:	2.566	Roll Set Point:	0.006	Pitch Set Point:	-0.108	Yaw Set Point:	-0.069	X_WP:	0.000	Y_WP:	0.000	Y_WP:	0.500	X:	-0.005	Y:	0.054	Z:	0.050	yaw:	3.966	yaw rate:	15.267	Roll:	0.428	Pitch:	1.664	Yaw:	9.764	Thrust:	52.220
Time:	2.577	Roll Set Point:	0.006	Pitch Set Point:	-0.108	Yaw Set Point:	-0.069	X_WP:	0.000	Y_WP:	0.000	Y_WP:	0.500	X:	-0.005	Y:	0.054	Z:	0.050	yaw:	3.966	yaw rate:	15.267	Roll:	-0.038	Pitch:	1.365	Yaw:	6.155	Thrust:	52.644
Time:	2.588	Roll Set Point:	0.007	Pitch Set Point:	-0.108	Yaw Set Point:	-0.066	X_WP:	0.000	Y_WP:	0.000	Y_WP:	0.500	X:	-0.005	Y:	0.054	Z:	0.050	yaw:	3.757	yaw rate:	31.270	Roll:	-0.424	Pitch:	1.229	Yaw:	0.914	Thrust:	53.571
Time:	2.600	Roll Set Point:	0.007	Pitch Set Point:	-0.108	Yaw Set Point:	-0.070	X_WP:	0.000	Y_WP:	0.000	Y_WP:	0.500	X:	-0.005	Y:	0.054	Z:	0.051	yaw:	3.984	yaw rate:	22.754	Roll:	0.190	Pitch:	1.430	Yaw:	11.266	Thrust:	55.310
Time:	2.611	Roll Set Point:	0.007	Pitch Set Point:	-0.108	Yaw Set Point:	-0.070	X_WP:	0.000	Y_WP:	0.000	Y_WP:	0.500	X:	-0.005	Y:	0.054	Z:	0.050	yaw:	3.989	yaw rate:	0.463	Roll:	-0.009	Pitch:	1.406	Yaw:	6.344	Thrust:	55.532
Time:	2.622	Roll Set Point:	0.007	Pitch Set Point:	-0.108	Yaw Set Point:	-0.063	X_WP:	0.000	Y_WP:	0.000	Y_WP:	0.500	X:	-0.005	Y:	0.054	Z:	0.050	yaw:	3.591	yaw rate:	-39.795	Roll:	-0.832	Pitch:	1.214	Yaw:	-3.753	Thrust:	54.180
Time:	2.633	Roll Set Point:	0.006	Pitch Set Point:	-0.108	Yaw Set Point:	-0.075	X_WP:	0.000	Y_WP:	0.000	Y_WP:	0.500	X:	-0.005	Y:	0.054	Z:	0.050	yaw:	4.290	yaw rate:	69.908	Roll:	1.104	Pitch:	1.758	Yaw:	23.278	Thrust:	55.991
Time:	2.644	Roll Set Point:	0.006	Pitch Set Point:	-0.108	Yaw Set Point:	-0.077	X_WP:	0.000	Y_WP:	0.000	Y_WP:	0.500	X:	-0.005	Y:	0.054	Z:	0.051	yaw:	4.385	yaw rate:	9.454	Roll:	0.343	Pitch:	1.367	Yaw:	9.076	Thrust:	55.655
Time:	2.655	Roll Set Point:	0.006	Pitch Set Point:	-0.108	Yaw Set Point:	-0.075	X_WP:	0.000	Y_WP:	0.000	Y_WP:	0.500	X:	-0.005	Y:	0.054	Z:	0.051	yaw:	4.315	yaw rate:	-7.024	Roll:	-0.081	Pitch:	1.419	Yaw:	5.083	Thrust:	56.615
Time:	2.666	Roll Set Point:	0.006	Pitch Set Point:	-0.109	Yaw Set Point:	-0.080	X_WP:	0.000	Y_WP:	0.000	Y_WP:	0.500	X:	-0.005	Y:	0.054	Z:	0.051	yaw:	4.587	yaw rate:	27.271	Roll:	0.405	Pitch:	1.659	Yaw:	13.621	Thrust:	56.341
Time:	2.677	Roll Set Point:	0.006	Pitch Set Point:	-0.109	Yaw Set Point:	-0.084	X_WP:	0.000	Y_WP:	0.000	Y_WP:	0.500	X:	-0.005	Y:	0.054	Z:	0.051	yaw:	4.836	yaw rate:	24.869	Roll:	0.259	Pitch:	1.384	Yaw:	13.416	Thrust:	58.719
Time:	2.688	Roll Set Point:	0.005	Pitch Set Point:	-0.109	Yaw Set Point:	-0.083	X_WP:	0.000	Y_WP:	0.000	Y_WP:	0.500	X:	-0.005	Y:	0.054	Z:	0.051	yaw:	4.769	yaw rate:	-6.686	Roll:	-0.019	Pitch:	1.603	Yaw:	5.851	Thrust:	57.393
Time:	2.699	Roll Set Point:	0.006	Pitch Set Point:	-0.109	Yaw Set Point:	-0.085	X_WP:	0.000	Y_WP:	0.000	Y_WP:	0.500	X:	-0.005	Y:	0.054	Z:	0.051	yaw:	4.859	yaw rate:	8.971	Roll:	0.022	Pitch:	1.460	Yaw:	9.711	Thrust:	57.376
Time:	2.710	Roll Set Point:	0.005	Pitch Set Point:	-0.108	Yaw Set Point:	-0.083	X_WP:	0.000	Y_WP:	0.000	Y_WP:	0.500	X:	-0.005	Y:	0.054	Z:	0.052	yaw:	4.745	yaw rate:	-11.367	Roll:	-0.066	Pitch:	1.106	Yaw:	4.744	Thrust:	57.668
Time:	2.721	Roll Set Point:	0.005	Pitch Set Point:	-0.109	Yaw Set Point:	-0.096	X_WP:	0.000	Y_WP:	0.000	Y_WP:	0.500	X:	-0.005	Y:	0.054	Z:	0.052	yaw:	5.485	yaw rate:	73.952	Roll:	1.122	Pitch:	1.583	Yaw:	26.046	Thrust:	60.205
Time:	2.732	Roll Set Point:	0.005	Pitch Set Point:	-0.108	Yaw Set Point:	-0.090	X_WP:	0.000	Y_WP:	0.000	Y_WP:	0.500	X:	-0.005	Y:	0.054	Z:	0.052	yaw:	5.179	yaw rate:	-30.571	Roll:	-0.480	Pitch:	1.341	Yaw:	0.830	Thrust:	59.063
Time:	2.743	Roll Set Point:	0.005	Pitch Set Point:	-0.109	Yaw Set Point:	-0.090	X_WP:	0.000	Y_WP:	0.000	Y_WP:	0.500	X:	-0.005	Y:	0.054	Z:	0.053	yaw:	5.151	yaw rate:	-2.752	Roll:	-0.015	Pitch:	1.623	Yaw:	7.415	Thrust:	59.649
Time:	2.754	Roll Set Point:	0.005	Pitch Set Point:	-0.109	Yaw Set Point:	-0.091	X_WP:	0.000	Y_WP:	0.000	Y_WP:	0.500	X:	-0.005	Y:	0.054	Z:	0.053	yaw:	5.190	yaw rate:	3.858	Roll:	0.046	Pitch:	1.339	Yaw:	9.058	Thrust:	60.019
Time:	2.765	Roll Set Point:	0.005	Pitch Set Point:	-0.108	Yaw Set Point:	-0.092	X_WP:	0.000	Y_WP:	0.000	Y_WP:	0.500	X:	-0.005	Y:	0.054	Z:	0.054	yaw:	5.284	yaw rate:	9.438	Roll:	0.168	Pitch:	1.278	Yaw:	10.534	Thrust:	60.441
Time:	2.776	Roll Set Point:	0.004	Pitch Set Point:	-0.108	Yaw Set Point:	-0.098	X_WP:	0.000	Y_WP:	0.000	Y_WP:	0.500	X:	-0.005	Y:	0.054	Z:	0.054	yaw:	5.636	yaw rate:	35.194	Roll:	0.598	Pitch:	1.327	Yaw:	17.160	Thrust:	62.416
Time:	2.787	Roll Set Point:	0.004	Pitch Set Point:	-0.108	Yaw Set Point:	-0.098	X_WP:	0.000	Y_WP:	0.000	Y_WP:	0.500	X:	-0.005	Y:	0.054	Z:	0.055	yaw:	5.621	yaw rate:	-1.499	Roll:	0.134	Pitch:	1.197	Yaw:	8.451	Thrust:	61.031
Time:	2.798	Roll Set Point:	0.004	Pitch Set Point:	-0.107	Yaw Set Point:	-0.102	X_WP:	0.000	Y_WP:	0.000	Y_WP:	0.500	X:	-0.005	Y:	0.054	Z:	0.055	yaw:	5.828	yaw rate:	20.692	Roll:	0.176	Pitch:	1.127	Yaw:	14.029	Thrust:	62.477
Time:	2.809	Roll Set Point:	0.004	Pitch Set Point:	-0.107	Yaw Set Point:	-0.096	X_WP:	0.000	Y_WP:	0.000	Y_WP:	0.500	X:	-0.005	Y:	0.053	Z:	0.056	yaw:	5.506	yaw rate:	-32.215	Roll:	-0.143	Pitch:	1.028	Yaw:	1.043	Thrust:	60.068
Time:	2.820	Roll Set Point:	0.004	Pitch Set Point:	-0.106	Yaw Set Point:	-0.098	X_WP:	0.000	Y_WP:	0.000	Y_WP:	0.500	X:	-0.005	Y:	0.053	Z:	0.057	yaw:	5.634	yaw rate:	12.826	Roll:	-0.003	Pitch:	1.073	Yaw:	11.935	Thrust:	63.692
Time:	2.832	Roll Set Point:	0.004	Pitch Set Point:	-0.105	Yaw Set Point:	-0.097	X_WP:	0.000	Y_WP:	0.000	Y_WP:	0.500	X:	-0.005	Y:	0.053	Z:	0.058	yaw:	5.546	yaw rate:	-8.850	Roll:	-0.042	Pitch:	0.934	Yaw:	6.688	Thrust:	61.978
Time:	2.843	Roll Set Point:	0.004	Pitch Set Point:	-0.105	Yaw Set Point:	-0.098	X_WP:	0.000	Y_WP:	0.000	Y_WP:	0.500	X:	-0.005	Y:	0.052	Z:	0.058	yaw:	5.609	yaw rate:	6.275	Roll:	-0.054	Pitch:	0.725	Yaw:	10.387	Thrust:	63.542
Time:	2.854	Roll Set Point:	0.004	Pitch Set Point:	-0.104	Yaw Set Point:	-0.100	X_WP:	0.000	Y_WP:	0.000	Y_WP:	0.500	X:	-0.005	Y:	0.052	Z:	0.059	yaw:	5.727	yaw rate:	11.825	Roll:	-0.104	Pitch:	0.776	Yaw:	11.891	Thrust:	64.225
Time:	2.865	Roll Set Point:	0.004	Pitch Set Point:	-0.102	Yaw Set Point:	-0.095	X_WP:	0.000	Y_WP:	0.000	Y_WP:	0.500	X:	-0.005	Y:	0.051	Z:	0.061	yaw:	5.423	yaw rate:	-30.417	Roll:	-0.388	Pitch:	0.392	Yaw:	1.454	Thrust:	61.625
Time:	2.876	Roll Set Point:	0.005	Pitch Set Point:	-0.101	Yaw Set Point:	-0.096	X_WP:	0.000	Y_WP:	0.000	Y_WP:	0.500	X:	-0.005	Y:	0.050	Z:	0.062	yaw:	5.474	yaw rate:	5.141	Roll:	-0.189	Pitch:	0.570	Yaw:	9.967	Thrust:	64.199
Time:	2.887	Roll Set Point:	0.004	Pitch Set Point:	-0.100	Yaw Set Point:	-0.096	X_WP:	0.000	Y_WP:	0.000	Y_WP:	0.500	X:	-0.005	Y:	0.050	Z:	0.063	yaw:	5.494	yaw rate:	2.028	Roll:	0.068	Pitch:	0.594	Yaw:	9.256	Thrust:	64.293
Time:	2.898	Roll Set Point:	0.005	Pitch Set Point:	-0.098	Yaw Set Point:	-0.096	X_WP:	0.000	Y_WP:	0.000	Y_WP:	0.500	X:	-0.005	Y:	0.049	Z:	0.063	yaw:	5.501	yaw rate:	0.647	Roll:	-0.449	Pitch:	0.295	Yaw:	8.995	Thrust:	68.578
Time:	2.909	Roll Set Point:	0.005	Pitch Set Point:	-0.097	Yaw Set Point:	-0.096	X_WP:	0.000	Y_WP:	0.000	Y_WP:	0.500	X:	-0.005	Y:	0.048	Z:	0.065	yaw:	5.480	yaw rate:	-2.055	Roll:	-0.175	Pitch:	0.438	Yaw:	8.259	Thrust:	63.938
Time:	2.920	Roll Set Point:	0.005	Pitch Set Point:	-0.095	Yaw Set Point:	-0.098	X_WP:	0.000	Y_WP:	0.000	Y_WP:	0.500	X:	-0.005	Y:	0.048	Z:	0.066	yaw:	5.643	yaw rate:	16.296	Roll:	0.114	Pitch:	0.094	Yaw:	12.856	Thrust:	64.719
Time:	2.931	Roll Set Point:	0.005	Pitch Set Point:	-0.093	Yaw Set Point:	-0.093	X_WP:	0.000	Y_WP:	0.000	Y_WP:	0.500	X:	-0.005	Y:	0.046	Z:	0.068	yaw:	5.345	yaw rate:	-29.808	Roll:	-0.588	Pitch:	-0.648	Yaw:	1.490	Thrust:	63.751
Time:	2.942	Roll Set Point:	0.005	Pitch Set Point:	-0.091	Yaw Set Point:	-0.099	X_WP:	0.000	Y_WP:	0.000	Y_WP:	0.500	X:	-0.005	Y:	0.045	Z:	0.069	yaw:	5.683	yaw rate:	33.806	Roll:	0.195	Pitch:	0.142	Yaw:	17.062	Thrust:	65.165
Time:	2.953	Roll Set Point:	0.006	Pitch Set Point:	-0.089	Yaw Set Point:	-0.104	X_WP:	0.000	Y_WP:	0.000	Y_WP:	0.500	X:	-0.005	Y:	0.044	Z:	0.070	yaw:	5.954	yaw rate:	27.058	Roll:	-0.259	Pitch:	-0.039	Yaw:	15.838	Thrust:	66.826
Time:	2.964	Roll Set Point:	0.006	Pitch Set Point:	-0.087	Yaw Set Point:	-0.100	X_WP:	0.000	Y_WP:	0.000	Y_WP:	0.500	X:	-0.005	Y:	0.043	Z:	0.072	yaw:	5.711	yaw rate:	-24.247	Roll:	-0.459	Pitch:	-0.260	Yaw:	3.338	Thrust:	65.994
Time:	2.976	Roll Set Point:	0.006	Pitch Set Point:	-0.085	Yaw Set Point:	-0.099	X_WP:	0.000	Y_WP:	0.000	Y_WP:	0.500	X:	-0.005	Y:	0.042	Z:	0.073	yaw:	5.700	yaw rate:	-1.108	Roll:	-0.208	Pitch:	-0.424	Yaw:	8.799	Thrust:	66.883
Time:	2.987	Roll Set Point:	0.007	Pitch Set Point:	-0.081	Yaw Set Point:	-0.097	X_WP:	0.000	Y_WP:	0.000	Y_WP:	0.500	X:	-0.005	Y:	0.040	Z:	0.076	yaw:	5.582	yaw rate:	-11.817	Roll:	-0.704	Pitch:	-1.352	Yaw:	6.092	Thrust:	63.319
Time:	2.998	Roll Set Point:	0.007	Pitch Set Point:	-0.079	Yaw Set Point:	-0.092	X_WP:	0.000	Y_WP:	0.000	Y_WP:	0.500	X:	-0.006	Y:	0.039	Z:	0.077	yaw:	5.285	yaw rate:	-29.720	Roll:	-0.907	Pitch:	-0.619	Yaw:	1.410	Thrust:	65.933
Time:	3.010	Roll Set Point:	0.007	Pitch Set Point:	-0.076	Yaw Set Point:	-0.099	X_WP:	0.000	Y_WP:	0.000	Y_WP:	0.500	X:	-0.006	Y:	0.038	Z:	0.079	yaw:	5.682	yaw rate:	39.731	Roll:	0.050	Pitch:	-0.455	Yaw:	17.782	Thrust:	73.074
Time:	3.021	Roll Set Point:	0.008	Pitch Set Point:	-0.074	Yaw Set Point:	-0.102	X_WP:	0.000	Y_WP:	0.000	Y_WP:	0.500	X:	-0.006	Y:	0.037	Z:	0.081	yaw:	5.830	yaw rate:	14.804	Roll:	-0.206	Pitch:	-0.481	Yaw:	12.758	Thrust:	66.579
Time:	3.032	Roll Set Point:	0.008	Pitch Set Point:	-0.070	Yaw Set Point:	-0.102	X_WP:	0.000	Y_WP:	0.000	Y_WP:	0.500	X:	-0.006	Y:	0.035	Z:	0.084	yaw:	5.834	yaw rate:	0.336	Roll:	-0.683	Pitch:	-1.926	Yaw:	9.330	Thrust:	61.915
Time:	3.043	Roll Set Point:	0.009	Pitch Set Point:	-0.067	Yaw Set Point:	-0.097	X_WP:	0.000	Y_WP:	0.000	Y_WP:	0.500	X:	-0.006	Y:	0.033	Z:	0.086	yaw:	5.562	yaw rate:	-27.111	Roll:	-0.792	Pitch:	-1.242	Yaw:	2.416	Thrust:	67.379
Time:	3.054	Roll Set Point:	0.009	Pitch Set Point:	-0.064	Yaw Set Point:	-0.101	X_WP:	0.000	Y_WP:	0.000	Y_WP:	0.500	X:	-0.006	Y:	0.032	Z:	0.088	yaw:	5.786	yaw rate:	22.388	Roll:	-0.282	Pitch:	-0.982	Yaw:	14.496	Thrust:	67.427
Time:	3.065	Roll Set Point:	0.010	Pitch Set Point:	-0.060	Yaw Set Point:	-0.101	X_WP:	0.000	Y_WP:	0.000	Y_WP:	0.500	X:	-0.006	Y:	0.030	Z:	0.090	yaw:	5.761	yaw rate:	-2.546	Roll:	-0.879	Pitch:	-1.557	Yaw:	8.542	Thrust:	67.661
Time:	3.076	Roll Set Point:	0.010	Pitch Set Point:	-0.058	Yaw Set Point:	-0.110	X_WP:	0.000	Y_WP:	0.000	Y_WP:	0.500	X:	-0.006	Y:	0.029	Z:	0.092	yaw:	6.308	yaw rate:	54.748	Roll:	0.289	Pitch:	-0.802	Yaw:	22.906	Thrust:	66.755
Time:	3.087	Roll Set Point:	0.011	Pitch Set Point:	-0.053	Yaw Set Point:	-0.098	X_WP:	0.000	Y_WP:	0.000	Y_WP:	0.500	X:	-0.007	Y:	0.026	Z:	0.096	yaw:	5.639	yaw rate:	-66.939	Roll:	-1.435	Pitch:	-2.936	Yaw:	-6.913	Thrust:	61.758
Time:	3.098	Roll Set Point:	0.011	Pitch Set Point:	-0.050	Yaw Set Point:	-0.105	X_WP:	0.000	Y_WP:	0.000	Y_WP:	0.500	X:	-0.007	Y:	0.025	Z:	0.099	yaw:	6.023	yaw rate:	38.368	Roll:	-0.310	Pitch:	-1.118	Yaw:	18.619	Thrust:	67.095
Time:	3.109	Roll Set Point:	0.012	Pitch Set Point:	-0.046	Yaw Set Point:	-0.100	X_WP:	0.000	Y_WP:	0.000	Y_WP:	0.500	X:	-0.007	Y:	0.023	Z:	0.101	yaw:	5.735	yaw rate:	-28.801	Roll:	-0.943	Pitch:	-1.696	Yaw:	2.273	Thrust:	68.122
Time:	3.120	Roll Set Point:	0.012	Pitch Set Point:	-0.043	Yaw Set Point:	-0.108	X_WP:	0.000	Y_WP:	0.000	Y_WP:	0.500	X:	-0.007	Y:	0.021	Z:	0.103	yaw:	6.207	yaw rate:	47.233	Roll:	-0.588	Pitch:	-1.727	Yaw:	20.958	Thrust:	68.186
Time:	3.131	Roll Set Point:	0.013	Pitch Set Point:	-0.040	Yaw Set Point:	-0.104	X_WP:	0.000	Y_WP:	0.000	Y_WP:	0.500	X:	-0.007	Y:	0.020	Z:	0.106	yaw:	5.940	yaw rate:	-26.730	Roll:	-0.550	Pitch:	-1.240	Yaw:	3.161	Thrust:	68.853
Time:	3.142	Roll Set Point:	0.013	Pitch Set Point:	-0.036	Yaw Set Point:	-0.102	X_WP:	0.000	Y_WP:	0.000	Y_WP:	0.500	X:	-0.008	Y:	0.018	Z:	0.109	yaw:	5.869	yaw rate:	-7.075	Roll:	-0.869	Pitch:	-2.022	Yaw:	7.590	Thrust:	66.516
Time:	3.153	Roll Set Point:	0.014	Pitch Set Point:	-0.033	Yaw Set Point:	-0.098	X_WP:	0.000	Y_WP:	0.000	Y_WP:	0.500	X:	-0.008	Y:	0.016	Z:	0.112	yaw:	5.617	yaw rate:	-25.146	Roll:	-1.021	Pitch:	-1.730	Yaw:	2.996	Thrust:	68.308
Time:	3.164	Roll Set Point:	0.015	Pitch Set Point:	-0.027	Yaw Set Point:	-0.102	X_WP:	0.000	Y_WP:	0.000	Y_WP:	0.500	X:	-0.008	Y:	0.013	Z:	0.115	yaw:	5.820	yaw rate:	20.298	Roll:	-0.995	Pitch:	-3.334	Yaw:	14.047	Thrust:	64.358
Time:	3.175	Roll Set Point:	0.016	Pitch Set Point:	-0.024	Yaw Set Point:	-0.094	X_WP:	0.000	Y_WP:	0.000	Y_WP:	0.500	X:	-0.009	Y:	0.011	Z:	0.118	yaw:	5.408	yaw rate:	-41.261	Roll:	-1.203	Pitch:	-1.978	Yaw:	-1.144	Thrust:	69.193
Time:	3.186	Roll Set Point:	0.017	Pitch Set Point:	-0.020	Yaw Set Point:	-0.085	X_WP:	0.000	Y_WP:	0.000	Y_WP:	0.500	X:	-0.009	Y:	0.010	Z:	0.121	yaw:	4.865	yaw rate:	-54.272	Roll:	-1.240	Pitch:	-2.261	Yaw:	-5.020	Thrust:	68.743
Time:	3.197	Roll Set Point:	0.018	Pitch Set Point:	-0.017	Yaw Set Point:	-0.095	X_WP:	0.000	Y_WP:	0.000	Y_WP:	0.500	X:	-0.009	Y:	0.008	Z:	0.124	yaw:	5.464	yaw rate:	59.883	Roll:	-0.375	Pitch:	-1.585	Yaw:	22.915	Thrust:	68.770
Time:	3.208	Roll Set Point:	0.018	Pitch Set Point:	-0.011	Yaw Set Point:	-0.095	X_WP:	0.000	Y_WP:	0.000	Y_WP:	0.500	X:	-0.010	Y:	0.005	Z:	0.128	yaw:	5.418	yaw rate:	-4.630	Roll:	-1.095	Pitch:	-3.381	Yaw:	7.570	Thrust:	62.868
Time:	3.219	Roll Set Point:	0.020	Pitch Set Point:	-0.008	Yaw Set Point:	-0.078	X_WP:	0.000	Y_WP:	0.000	Y_WP:	0.500	X:	-0.010	Y:	0.003	Z:	0.131	yaw:	4.483	yaw rate:	-93.477	Roll:	-1.473	Pitch:	-2.421	Yaw:	-14.895	Thrust:	69.230
Time:	3.230	Roll Set Point:	0.020	Pitch Set Point:	-0.004	Yaw Set Point:	-0.083	X_WP:	0.000	Y_WP:	0.000	Y_WP:	0.500	X:	-0.010	Y:	0.002	Z:	0.134	yaw:	4.738	yaw rate:	25.555	Roll:	-0.750	Pitch:	-1.655	Yaw:	13.774	Thrust:	70.159
Time:	3.241	Roll Set Point:	0.021	Pitch Set Point:	-0.001	Yaw Set Point:	-0.078	X_WP:	0.000	Y_WP:	0.000	Y_WP:	0.500	X:	-0.011	Y:	-0.000	Z:	0.136	yaw:	4.443	yaw rate:	-29.582	Roll:	-0.930	Pitch:	-2.317	Yaw:	0.283	Thrust:	69.898
Time:	3.252	Roll Set Point:	0.022	Pitch Set Point:	0.002	Yaw Set Point:	-0.082	X_WP:	0.000	Y_WP:	0.000	Y_WP:	0.500	X:	-0.011	Y:	-0.002	Z:	0.140	yaw:	4.697	yaw rate:	25.414	Roll:	-0.695	Pitch:	-1.888	Yaw:	13.693	Thrust:	69.514
Time:	3.263	Roll Set Point:	0.023	Pitch Set Point:	0.008	Yaw Set Point:	-0.072	X_WP:	0.000	Y_WP:	0.000	Y_WP:	0.500	X:	-0.011	Y:	-0.004	Z:	0.144	yaw:	4.102	yaw rate:	-59.464	Roll:	-1.565	Pitch:	-3.903	Yaw:	-7.282	Thrust:	63.067
Time:	3.274	Roll Set Point:	0.024	Pitch Set Point:	0.011	Yaw Set Point:	-0.073	X_WP:	0.000	Y_WP:	0.000	Y_WP:	0.500	X:	-0.012	Y:	-0.006	Z:	0.147	yaw:	4.179	yaw rate:	7.725	Roll:	-0.790	Pitch:	-1.740	Yaw:	8.772	Thrust:	70.326
Time:	3.285	Roll Set Point:	0.025	Pitch Set Point:	0.014	Yaw Set Point:	-0.072	X_WP:	0.000	Y_WP:	0.000	Y_WP:	0.500	X:	-0.012	Y:	-0.008	Z:	0.151	yaw:	4.117	yaw rate:	-6.201	Roll:	-1.011	Pitch:	-2.096	Yaw:	5.380	Thrust:	69.742
Time:	3.296	Roll Set Point:	0.026	Pitch Set Point:	0.018	Yaw Set Point:	-0.063	X_WP:	0.000	Y_WP:	0.000	Y_WP:	0.500	X:	-0.013	Y:	-0.009	Z:	0.154	yaw:	3.633	yaw rate:	-48.429	Roll:	-1.256	Pitch:	-2.488	Yaw:	-5.317	Thrust:	69.637
Time:	3.307	Roll Set Point:	0.027	Pitch Set Point:	0.022	Yaw Set Point:	-0.066	X_WP:	0.000	Y_WP:	0.000	Y_WP:	0.500	X:	-0.013	Y:	-0.012	Z:	0.159	yaw:	3.755	yaw rate:	12.219	Roll:	-1.183	Pitch:	-3.132	Yaw:	9.247	Thrust:	63.855
Time:	3.318	Roll Set Point:	0.027	Pitch Set Point:	0.024	Yaw Set Point:	-0.066	X_WP:	0.000	Y_WP:	0.000	Y_WP:	0.500	X:	-0.013	Y:	-0.012	Z:	0.160	yaw:	3.755	yaw rate:	-0.018	Roll:	-0.610	Pitch:	-0.767	Yaw:	6.342	Thrust:	76.867
Time:	3.330	Roll Set Point:	0.028	Pitch Set Point:	0.027	Yaw Set Point:	-0.070	X_WP:	0.000	Y_WP:	0.000	Y_WP:	0.500	X:	-0.013	Y:	-0.014	Z:	0.164	yaw:	4.026	yaw rate:	27.100	Roll:	-0.887	Pitch:	-1.785	Yaw:	13.170	Thrust:	69.693
Time:	3.341	Roll Set Point:	0.029	Pitch Set Point:	0.031	Yaw Set Point:	-0.062	X_WP:	0.000	Y_WP:	0.000	Y_WP:	0.500	X:	-0.014	Y:	-0.016	Z:	0.169	yaw:	3.577	yaw rate:	-44.933	Roll:	-1.180	Pitch:	-3.406	Yaw:	-4.569	Thrust:	61.960
Time:	3.352	Roll Set Point:	0.029	Pitch Set Point:	0.034	Yaw Set Point:	-0.058	X_WP:	0.000	Y_WP:	0.000	Y_WP:	0.500	X:	-0.014	Y:	-0.018	Z:	0.172	yaw:	3.324	yaw rate:	-25.243	Roll:	-0.959	Pitch:	-2.198	Yaw:	-0.230	Thrust:	71.166
Time:	3.363	Roll Set Point:	0.030	Pitch Set Point:	0.037	Yaw Set Point:	-0.062	X_WP:	0.000	Y_WP:	0.000	Y_WP:	0.500	X:	-0.014	Y:	-0.019	Z:	0.176	yaw:	3.527	yaw rate:	20.222	Roll:	-0.666	Pitch:	-1.529	Yaw:	10.772	Thrust:	70.477
Time:	3.374	Roll Set Point:	0.031	Pitch Set Point:	0.039	Yaw Set Point:	-0.058	X_WP:	0.000	Y_WP:	0.000	Y_WP:	0.500	X:	-0.015	Y:	-0.020	Z:	0.180	yaw:	3.309	yaw rate:	-21.722	Roll:	-0.980	Pitch:	-1.879	Yaw:	0.855	Thrust:	73.639
Time:	3.385	Roll Set Point:	0.031	Pitch Set Point:	0.042	Yaw Set Point:	-0.055	X_WP:	0.000	Y_WP:	0.000	Y_WP:	0.500	X:	-0.015	Y:	-0.022	Z:	0.183	yaw:	3.130	yaw rate:	-17.950	Roll:	-0.808	Pitch:	-2.082	Yaw:	1.212	Thrust:	70.978
Time:	3.396	Roll Set Point:	0.032	Pitch Set Point:	0.046	Yaw Set Point:	-0.046	X_WP:	0.000	Y_WP:	0.000	Y_WP:	0.500	X:	-0.015	Y:	-0.023	Z:	0.189	yaw:	2.660	yaw rate:	-47.000	Roll:	-0.946	Pitch:	-2.901	Yaw:	-6.340	Thrust:	61.702
Time:	3.407	Roll Set Point:	0.032	Pitch Set Point:	0.048	Yaw Set Point:	-0.053	X_WP:	0.000	Y_WP:	0.000	Y_WP:	0.500	X:	-0.016	Y:	-0.025	Z:	0.193	yaw:	3.056	yaw rate:	39.631	Roll:	-0.974	Pitch:	-1.493	Yaw:	14.777	Thrust:	69.897
Time:	3.418	Roll Set Point:	0.033	Pitch Set Point:	0.050	Yaw Set Point:	-0.054	X_WP:	0.000	Y_WP:	0.000	Y_WP:	0.500	X:	-0.016	Y:	-0.026	Z:	0.197	yaw:	3.115	yaw rate:	5.886	Roll:	-0.914	Pitch:	-1.658	Yaw:	6.849	Thrust:	69.432
Time:	3.429	Roll Set Point:	0.033	Pitch Set Point:	0.052	Yaw Set Point:	-0.050	X_WP:	0.000	Y_WP:	0.000	Y_WP:	0.500	X:	-0.016	Y:	-0.027	Z:	0.201	yaw:	2.857	yaw rate:	-25.847	Roll:	-0.526	Pitch:	-1.648	Yaw:	-1.044	Thrust:	69.119
Time:	3.441	Roll Set Point:	0.034	Pitch Set Point:	0.055	Yaw Set Point:	-0.042	X_WP:	0.000	Y_WP:	0.000	Y_WP:	0.500	X:	-0.016	Y:	-0.028	Z:	0.205	yaw:	2.411	yaw rate:	-44.538	Roll:	-0.515	Pitch:	-1.866	Yaw:	-6.103	Thrust:	69.343
Time:	3.452	Roll Set Point:	0.034	Pitch Set Point:	0.057	Yaw Set Point:	-0.045	X_WP:	0.000	Y_WP:	0.000	Y_WP:	0.500	X:	-0.016	Y:	-0.029	Z:	0.211	yaw:	2.565	yaw rate:	15.394	Roll:	-0.908	Pitch:	-2.074	Yaw:	8.339	Thrust:	60.161
Time:	3.463	Roll Set Point:	0.034	Pitch Set Point:	0.060	Yaw Set Point:	-0.036	X_WP:	0.000	Y_WP:	0.000	Y_WP:	0.500	X:	-0.017	Y:	-0.030	Z:	0.215	yaw:	2.070	yaw rate:	-49.552	Roll:	-0.423	Pitch:	-2.058	Yaw:	-7.770	Thrust:	69.755
Time:	3.474	Roll Set Point:	0.035	Pitch Set Point:	0.062	Yaw Set Point:	-0.036	X_WP:	0.000	Y_WP:	0.000	Y_WP:	0.500	X:	-0.017	Y:	-0.031	Z:	0.220	yaw:	2.038	yaw rate:	-3.134	Roll:	-0.779	Pitch:	-1.517	Yaw:	3.205	Thrust:	68.519
Time:	3.485	Roll Set Point:	0.035	Pitch Set Point:	0.063	Yaw Set Point:	-0.034	X_WP:	0.000	Y_WP:	0.000	Y_WP:	0.500	X:	-0.017	Y:	-0.032	Z:	0.224	yaw:	1.968	yaw rate:	-7.055	Roll:	-0.558	Pitch:	-1.274	Yaw:	2.176	Thrust:	68.225
Time:	3.496	Roll Set Point:	0.035	Pitch Set Point:	0.064	Yaw Set Point:	-0.041	X_WP:	0.000	Y_WP:	0.000	Y_WP:	0.500	X:	-0.017	Y:	-0.032	Z:	0.228	yaw:	2.336	yaw rate:	36.797	Roll:	-1.012	Pitch:	-0.784	Yaw:	13.098	Thrust:	69.072
Time:	3.507	Roll Set Point:	0.035	Pitch Set Point:	0.066	Yaw Set Point:	-0.035	X_WP:	0.000	Y_WP:	0.000	Y_WP:	0.500	X:	-0.017	Y:	-0.033	Z:	0.233	yaw:	1.989	yaw rate:	-34.642	Roll:	-0.161	Pitch:	-1.543	Yaw:	-4.342	Thrust:	69.116
Time:	3.518	Roll Set Point:	0.035	Pitch Set Point:	0.068	Yaw Set Point:	-0.026	X_WP:	0.000	Y_WP:	0.000	Y_WP:	0.500	X:	-0.017	Y:	-0.034	Z:	0.240	yaw:	1.503	yaw rate:	-48.627	Roll:	-0.327	Pitch:	-1.998	Yaw:	-8.343	Thrust:	58.498
Time:	3.529	Roll Set Point:	0.036	Pitch Set Point:	0.069	Yaw Set Point:	-0.037	X_WP:	0.000	Y_WP:	0.000	Y_WP:	0.500	X:	-0.017	Y:	-0.035	Z:	0.244	yaw:	2.093	yaw rate:	58.982	Roll:	-0.878	Pitch:	-0.760	Yaw:	18.023	Thrust:	68.378
Time:	3.540	Roll Set Point:	0.036	Pitch Set Point:	0.070	Yaw Set Point:	-0.036	X_WP:	0.000	Y_WP:	0.000	Y_WP:	0.500	X:	-0.017	Y:	-0.035	Z:	0.249	yaw:	2.075	yaw rate:	-1.796	Roll:	-0.662	Pitch:	-1.195	Yaw:	3.574	Thrust:	68.441
Time:	3.551	Roll Set Point:	0.036	Pitch Set Point:	0.072	Yaw Set Point:	-0.038	X_WP:	0.000	Y_WP:	0.000	Y_WP:	0.500	X:	-0.017	Y:	-0.036	Z:	0.256	yaw:	2.188	yaw rate:	11.281	Roll:	-0.402	Pitch:	-1.189	Yaw:	6.835	Thrust:	57.938
Time:	3.562	Roll Set Point:	0.036	Pitch Set Point:	0.072	Yaw Set Point:	-0.031	X_WP:	0.000	Y_WP:	0.000	Y_WP:	0.500	X:	-0.017	Y:	-0.036	Z:	0.261	yaw:	1.779	yaw rate:	-40.843	Roll:	-0.141	Pitch:	-0.966	Yaw:	-6.107	Thrust:	67.067
Time:	3.573	Roll Set Point:	0.035	Pitch Set Point:	0.073	Yaw Set Point:	-0.029	X_WP:	0.000	Y_WP:	0.000	Y_WP:	0.500	X:	-0.017	Y:	-0.037	Z:	0.265	yaw:	1.672	yaw rate:	-10.734	Roll:	-0.308	Pitch:	-1.072	Yaw:	0.889	Thrust:	68.613
Time:	3.584	Roll Set Point:	0.035	Pitch Set Point:	0.074	Yaw Set Point:	-0.032	X_WP:	0.000	Y_WP:	0.000	Y_WP:	0.500	X:	-0.017	Y:	-0.037	Z:	0.270	yaw:	1.847	yaw rate:	17.469	Roll:	-0.368	Pitch:	-0.713	Yaw:	7.828	Thrust:	67.334
Time:	3.595	Roll Set Point:	0.035	Pitch Set Point:	0.075	Yaw Set Point:	-0.032	X_WP:	0.000	Y_WP:	0.000	Y_WP:	0.500	X:	-0.017	Y:	-0.038	Z:	0.275	yaw:	1.831	yaw rate:	-1.585	Roll:	-0.142	Pitch:	-0.613	Yaw:	3.335	Thrust:	69.901
Time:	3.606	Roll Set Point:	0.035	Pitch Set Point:	0.075	Yaw Set Point:	-0.028	X_WP:	0.000	Y_WP:	0.000	Y_WP:	0.500	X:	-0.017	Y:	-0.038	Z:	0.280	yaw:	1.629	yaw rate:	-20.122	Roll:	-0.175	Pitch:	-0.710	Yaw:	-1.406	Thrust:	67.055
Time:	3.617	Roll Set Point:	0.034	Pitch Set Point:	0.076	Yaw Set Point:	-0.025	X_WP:	0.000	Y_WP:	0.000	Y_WP:	0.500	X:	-0.017	Y:	-0.038	Z:	0.287	yaw:	1.422	yaw rate:	-20.797	Roll:	-0.128	Pitch:	-0.948	Yaw:	-1.860	Thrust:	57.442
Time:	3.628	Roll Set Point:	0.034	Pitch Set Point:	0.076	Yaw Set Point:	-0.023	X_WP:	0.000	Y_WP:	0.000	Y_WP:	0.500	X:	-0.016	Y:	-0.038	Z:	0.292	yaw:	1.342	yaw rate:	-7.977	Roll:	-0.045	Pitch:	-0.657	Yaw:	1.090	Thrust:	67.942
Time:	3.639	Roll Set Point:	0.034	Pitch Set Point:	0.076	Yaw Set Point:	-0.028	X_WP:	0.000	Y_WP:	0.000	Y_WP:	0.500	X:	-0.016	Y:	-0.038	Z:	0.296	yaw:	1.582	yaw rate:	24.016	Roll:	-0.593	Pitch:	-0.367	Yaw:	9.024	Thrust:	67.120
Time:	3.650	Roll Set Point:	0.033	Pitch Set Point:	0.076	Yaw Set Point:	-0.030	X_WP:	0.000	Y_WP:	0.000	Y_WP:	0.500	X:	-0.016	Y:	-0.038	Z:	0.301	yaw:	1.718	yaw rate:	13.643	Roll:	-0.138	Pitch:	-0.181	Yaw:	6.735	Thrust:	67.570
Time:	3.661	Roll Set Point:	0.033	Pitch Set Point:	0.077	Yaw Set Point:	-0.017	X_WP:	0.000	Y_WP:	0.000	Y_WP:	0.500	X:	-0.016	Y:	-0.039	Z:	0.306	yaw:	0.996	yaw rate:	-72.221	Roll:	0.375	Pitch:	-0.961	Yaw:	-14.692	Thrust:	66.106
Time:	3.673	Roll Set Point:	0.032	Pitch Set Point:	0.077	Yaw Set Point:	-0.018	X_WP:	0.000	Y_WP:	0.000	Y_WP:	0.500	X:	-0.016	Y:	-0.039	Z:	0.311	yaw:	1.032	yaw rate:	3.563	Roll:	0.157	Pitch:	-0.173	Yaw:	3.390	Thrust:	68.162
Time:	3.684	Roll Set Point:	0.031	Pitch Set Point:	0.077	Yaw Set Point:	-0.018	X_WP:	0.000	Y_WP:	0.000	Y_WP:	0.500	X:	-0.015	Y:	-0.038	Z:	0.318	yaw:	1.034	yaw rate:	0.272	Roll:	0.144	Pitch:	-0.272	Yaw:	2.611	Thrust:	56.347
Time:	3.695	Roll Set Point:	0.031	Pitch Set Point:	0.076	Yaw Set Point:	-0.017	X_WP:	0.000	Y_WP:	0.000	Y_WP:	0.500	X:	-0.015	Y:	-0.038	Z:	0.323	yaw:	0.962	yaw rate:	-7.281	Roll:	-0.041	Pitch:	-0.034	Yaw:	0.719	Thrust:	66.985
Time:	3.706	Roll Set Point:	0.030	Pitch Set Point:	0.076	Yaw Set Point:	-0.016	X_WP:	0.000	Y_WP:	0.000	Y_WP:	0.500	X:	-0.015	Y:	-0.038	Z:	0.328	yaw:	0.945	yaw rate:	-1.680	Roll:	0.012	Pitch:	-0.091	Yaw:	2.020	Thrust:	66.957
Time:	3.717	Roll Set Point:	0.029	Pitch Set Point:	0.076	Yaw Set Point:	-0.014	X_WP:	0.000	Y_WP:	0.000	Y_WP:	0.500	X:	-0.014	Y:	-0.038	Z:	0.333	yaw:	0.801	yaw rate:	-14.367	Roll:	0.452	Pitch:	-0.112	Yaw:	-1.189	Thrust:	66.010
Time:	3.728	Roll Set Point:	0.029	Pitch Set Point:	0.075	Yaw Set Point:	-0.010	X_WP:	0.000	Y_WP:	0.000	Y_WP:	0.500	X:	-0.014	Y:	-0.038	Z:	0.340	yaw:	0.593	yaw rate:	-20.846	Roll:	0.255	Pitch:	0.074	Yaw:	-3.018	Thrust:	56.831
Time:	3.739	Roll Set Point:	0.028	Pitch Set Point:	0.074	Yaw Set Point:	-0.007	X_WP:	0.000	Y_WP:	0.000	Y_WP:	0.500	X:	-0.014	Y:	-0.037	Z:	0.345	yaw:	0.418	yaw rate:	-17.475	Roll:	0.537	Pitch:	0.197	Yaw:	-2.461	Thrust:	66.644
Time:	3.750	Roll Set Point:	0.027	Pitch Set Point:	0.074	Yaw Set Point:	-0.016	X_WP:	0.000	Y_WP:	0.000	Y_WP:	0.500	X:	-0.013	Y:	-0.037	Z:	0.350	yaw:	0.907	yaw rate:	48.916	Roll:	-0.150	Pitch:	0.387	Yaw:	13.981	Thrust:	66.178
Time:	3.762	Roll Set Point:	0.026	Pitch Set Point:	0.073	Yaw Set Point:	-0.007	X_WP:	0.000	Y_WP:	0.000	Y_WP:	0.500	X:	-0.013	Y:	-0.037	Z:	0.355	yaw:	0.407	yaw rate:	-50.044	Roll:	0.429	Pitch:	-0.098	Yaw:	-9.119	Thrust:	75.660
Time:	3.773	Roll Set Point:	0.026	Pitch Set Point:	0.072	Yaw Set Point:	-0.016	X_WP:	0.000	Y_WP:	0.000	Y_WP:	0.500	X:	-0.013	Y:	-0.036	Z:	0.359	yaw:	0.912	yaw rate:	50.564	Roll:	-0.332	Pitch:	0.588	Yaw:	14.379	Thrust:	67.106
Time:	3.784	Roll Set Point:	0.024	Pitch Set Point:	0.071	Yaw Set Point:	-0.005	X_WP:	0.000	Y_WP:	0.000	Y_WP:	0.500	X:	-0.012	Y:	-0.036	Z:	0.366	yaw:	0.305	yaw rate:	-60.704	Roll:	1.244	Pitch:	0.215	Yaw:	-12.842	Thrust:	57.574
Time:	3.795	Roll Set Point:	0.023	Pitch Set Point:	0.070	Yaw Set Point:	-0.005	X_WP:	0.000	Y_WP:	0.000	Y_WP:	0.500	X:	-0.011	Y:	-0.035	Z:	0.371	yaw:	0.260	yaw rate:	-4.485	Roll:	0.466	Pitch:	0.470	Yaw:	0.397	Thrust:	65.769
Time:	3.806	Roll Set Point:	0.022	Pitch Set Point:	0.069	Yaw Set Point:	-0.008	X_WP:	0.000	Y_WP:	0.000	Y_WP:	0.500	X:	-0.011	Y:	-0.035	Z:	0.376	yaw:	0.483	yaw rate:	22.221	Roll:	0.260	Pitch:	0.719	Yaw:	7.051	Thrust:	66.493
Time:	3.817	Roll Set Point:	0.021	Pitch Set Point:	0.068	Yaw Set Point:	0.000	X_WP:	0.000	Y_WP:	0.000	Y_WP:	0.500	X:	-0.011	Y:	-0.034	Z:	0.381	yaw:	-0.024	yaw rate:	-50.618	Roll:	0.577	Pitch:	0.183	Yaw:	-10.914	Thrust:	66.930
Time:	3.828	Roll Set Point:	0.021	Pitch Set Point:	0.067	Yaw Set Point:	-0.011	X_WP:	0.000	Y_WP:	0.000	Y_WP:	0.500	X:	-0.010	Y:	-0.033	Z:	0.386	yaw:	0.605	yaw rate:	62.828	Roll:	-0.163	Pitch:	0.927	Yaw:	16.881	Thrust:	66.170
Time:	3.840	Roll Set Point:	0.018	Pitch Set Point:	0.064	Yaw Set Point:	-0.002	X_WP:	0.000	Y_WP:	0.000	Y_WP:	0.500	X:	-0.009	Y:	-0.032	Z:	0.398	yaw:	0.102	yaw rate:	-49.848	Roll:	2.027	Pitch:	1.654	Yaw:	-10.042	Thrust:	42.455
Time:	3.851	Roll Set Point:	0.017	Pitch Set Point:	0.063	Yaw Set Point:	-0.007	X_WP:	0.000	Y_WP:	0.000	Y_WP:	0.500	X:	-0.008	Y:	-0.031	Z:	0.402	yaw:	0.401	yaw rate:	29.907	Roll:	0.274	Pitch:	1.016	Yaw:	8.762	Thrust:	66.431
Time:	3.862	Roll Set Point:	0.016	Pitch Set Point:	0.061	Yaw Set Point:	-0.001	X_WP:	0.000	Y_WP:	0.000	Y_WP:	0.500	X:	-0.008	Y:	-0.031	Z:	0.407	yaw:	0.041	yaw rate:	-36.014	Roll:	0.826	Pitch:	0.635	Yaw:	-7.388	Thrust:	65.624
Time:	3.873	Roll Set Point:	0.014	Pitch Set Point:	0.059	Yaw Set Point:	0.001	X_WP:	0.000	Y_WP:	0.000	Y_WP:	0.500	X:	-0.007	Y:	-0.030	Z:	0.414	yaw:	-0.034	yaw rate:	-7.450	Roll:	0.910	Pitch:	1.354	Yaw:	-0.712	Thrust:	56.453
Time:	3.884	Roll Set Point:	0.014	Pitch Set Point:	0.059	Yaw Set Point:	0.001	X_WP:	0.000	Y_WP:	0.000	Y_WP:	0.500	X:	-0.007	Y:	-0.030	Z:	0.414	yaw:	-0.034	yaw rate:	-7.450	Roll:	-0.264	Pitch:	-0.223	Yaw:	1.056	Thrust:	84.739
Time:	3.895	Roll Set Point:	0.013	Pitch Set Point:	0.058	Yaw Set Point:	-0.005	X_WP:	0.000	Y_WP:	0.000	Y_WP:	0.500	X:	-0.007	Y:	-0.029	Z:	0.418	yaw:	0.302	yaw rate:	33.565	Roll:	0.321	Pitch:	0.838	Yaw:	9.492	Thrust:	65.455
Time:	3.906	Roll Set Point:	0.012	Pitch Set Point:	0.056	Yaw Set Point:	-0.001	X_WP:	0.000	Y_WP:	0.000	Y_WP:	0.500	X:	-0.006	Y:	-0.028	Z:	0.423	yaw:	0.043	yaw rate:	-25.898	Roll:	0.976	Pitch:	0.954	Yaw:	-4.984	Thrust:	65.236
Time:	3.917	Roll Set Point:	0.011	Pitch Set Point:	0.055	Yaw Set Point:	0.003	X_WP:	0.000	Y_WP:	0.000	Y_WP:	0.500	X:	-0.005	Y:	-0.027	Z:	0.428	yaw:	-0.166	yaw rate:	-20.871	Roll:	0.720	Pitch:	0.977	Yaw:	-4.082	Thrust:	66.306
Time:	3.928	Roll Set Point:	0.010	Pitch Set Point:	0.053	Yaw Set Point:	-0.004	X_WP:	0.000	Y_WP:	0.000	Y_WP:	0.500	X:	-0.005	Y:	-0.027	Z:	0.432	yaw:	0.218	yaw rate:	38.338	Roll:	0.395	Pitch:	1.025	Yaw:	10.490	Thrust:	65.193
Time:	3.939	Roll Set Point:	0.008	Pitch Set Point:	0.051	Yaw Set Point:	-0.003	X_WP:	0.000	Y_WP:	0.000	Y_WP:	0.500	X:	-0.004	Y:	-0.026	Z:	0.439	yaw:	0.176	yaw rate:	-4.190	Roll:	1.127	Pitch:	1.680	Yaw:	0.349	Thrust:	56.430
Time:	3.951	Roll Set Point:	0.007	Pitch Set Point:	0.049	Yaw Set Point:	-0.005	X_WP:	0.000	Y_WP:	0.000	Y_WP:	0.500	X:	-0.003	Y:	-0.025	Z:	0.444	yaw:	0.286	yaw rate:	11.012	Roll:	0.617	Pitch:	1.253	Yaw:	3.999	Thrust:	73.696
Time:	3.962	Roll Set Point:	0.006	Pitch Set Point:	0.048	Yaw Set Point:	0.001	X_WP:	0.000	Y_WP:	0.000	Y_WP:	0.500	X:	-0.003	Y:	-0.024	Z:	0.448	yaw:	-0.050	yaw rate:	-33.625	Roll:	0.842	Pitch:	0.951	Yaw:	-6.971	Thrust:	65.300
Time:	3.973	Roll Set Point:	0.005	Pitch Set Point:	0.046	Yaw Set Point:	0.000	X_WP:	0.000	Y_WP:	0.000	Y_WP:	0.500	X:	-0.002	Y:	-0.023	Z:	0.452	yaw:	-0.027	yaw rate:	2.371	Roll:	0.351	Pitch:	0.953	Yaw:	1.628	Thrust:	65.067
Time:	3.984	Roll Set Point:	0.003	Pitch Set Point:	0.043	Yaw Set Point:	-0.003	X_WP:	0.000	Y_WP:	0.000	Y_WP:	0.500	X:	-0.001	Y:	-0.022	Z:	0.459	yaw:	0.168	yaw rate:	19.479	Roll:	1.554	Pitch:	2.210	Yaw:	5.961	Thrust:	54.955
Time:	3.996	Roll Set Point:	0.000	Pitch Set Point:	0.040	Yaw Set Point:	0.009	X_WP:	0.000	Y_WP:	0.000	Y_WP:	0.500	X:	-0.000	Y:	-0.020	Z:	0.468	yaw:	-0.515	yaw rate:	-59.358	Roll:	1.817	Pitch:	2.165	Yaw:	-14.349	Thrust:	56.435
Time:	4.007	Roll Set Point:	0.000	Pitch Set Point:	0.040	Yaw Set Point:	0.009	X_WP:	0.000	Y_WP:	0.000	Y_WP:	0.500	X:	-0.000	Y:	-0.020	Z:	0.468	yaw:	-0.515	yaw rate:	-59.358	Roll:	-0.126	Pitch:	-0.064	Yaw:	0.378	Thrust:	82.408
Time:	4.019	Roll Set Point:	-0.003	Pitch Set Point:	0.036	Yaw Set Point:	-0.005	X_WP:	0.000	Y_WP:	0.000	Y_WP:	0.500	X:	0.001	Y:	-0.018	Z:	0.480	yaw:	0.284	yaw rate:	7.876	Roll:	1.772	Pitch:	3.277	Yaw:	19.128	Thrust:	45.773
Time:	4.030	Roll Set Point:	-0.004	Pitch Set Point:	0.034	Yaw Set Point:	-0.002	X_WP:	0.000	Y_WP:	0.000	Y_WP:	0.500	X:	0.002	Y:	-0.017	Z:	0.484	yaw:	0.141	yaw rate:	-14.368	Roll:	1.168	Pitch:	1.358	Yaw:	-2.114	Thrust:	62.967
Time:	4.041	Roll Set Point:	-0.006	Pitch Set Point:	0.032	Yaw Set Point:	-0.005	X_WP:	0.000	Y_WP:	0.000	Y_WP:	0.500	X:	0.003	Y:	-0.016	Z:	0.489	yaw:	0.270	yaw rate:	12.922	Roll:	0.904	Pitch:	1.534	Yaw:	4.545	Thrust:	63.710
Time:	4.052	Roll Set Point:	-0.007	Pitch Set Point:	0.030	Yaw Set Point:	-0.007	X_WP:	0.000	Y_WP:	0.000	Y_WP:	0.500	X:	0.003	Y:	-0.015	Z:	0.493	yaw:	0.428	yaw rate:	15.818	Roll:	0.740	Pitch:	1.241	Yaw:	5.445	Thrust:	63.998
Time:	4.063	Roll Set Point:	-0.008	Pitch Set Point:	0.028	Yaw Set Point:	-0.001	X_WP:	0.000	Y_WP:	0.000	Y_WP:	0.500	X:	0.004	Y:	-0.014	Z:	0.498	yaw:	0.044	yaw rate:	-38.346	Roll:	1.083	Pitch:	1.463	Yaw:	-7.907	Thrust:	62.693
Time:	4.074	Roll Set Point:	-0.010	Pitch Set Point:	0.026	Yaw Set Point:	0.003	X_WP:	0.000	Y_WP:	0.000	Y_WP:	0.500	X:	0.005	Y:	-0.013	Z:	0.504	yaw:	-0.166	yaw rate:	-21.079	Roll:	1.236	Pitch:	2.172	Yaw:	-4.136	Thrust:	54.984
Time:	4.086	Roll Set Point:	-0.011	Pitch Set Point:	0.024	Yaw Set Point:	0.003	X_WP:	0.000	Y_WP:	0.000	Y_WP:	0.500	X:	0.006	Y:	-0.012	Z:	0.508	yaw:	-0.185	yaw rate:	-1.906	Roll:	1.024	Pitch:	1.377	Yaw:	0.526	Thrust:	71.206
Time:	4.097	Roll Set Point:	-0.012	Pitch Set Point:	0.022	Yaw Set Point:	0.010	X_WP:	0.000	Y_WP:	0.000	Y_WP:	0.500	X:	0.006	Y:	-0.011	Z:	0.512	yaw:	-0.582	yaw rate:	-39.645	Roll:	0.919	Pitch:	1.409	Yaw:	-9.121	Thrust:	63.956
Time:	4.108	Roll Set Point:	-0.014	Pitch Set Point:	0.020	Yaw Set Point:	-0.001	X_WP:	0.000	Y_WP:	0.000	Y_WP:	0.500	X:	0.007	Y:	-0.010	Z:	0.516	yaw:	0.035	yaw rate:	61.718	Roll:	1.157	Pitch:	1.777	Yaw:	15.766	Thrust:	63.641
Time:	4.120	Roll Set Point:	-0.015	Pitch Set Point:	0.019	Yaw Set Point:	0.000	X_WP:	0.000	Y_WP:	0.000	Y_WP:	0.500	X:	0.007	Y:	-0.009	Z:	0.521	yaw:	-0.021	yaw rate:	-5.592	Roll:	0.655	Pitch:	1.251	Yaw:	-0.051	Thrust:	71.205
Time:	4.131	Roll Set Point:	-0.017	Pitch Set Point:	0.016	Yaw Set Point:	-0.002	X_WP:	0.000	Y_WP:	0.000	Y_WP:	0.500	X:	0.009	Y:	-0.008	Z:	0.527	yaw:	0.092	yaw rate:	11.265	Roll:	1.812	Pitch:	2.362	Yaw:	3.902	Thrust:	55.451
Time:	4.142	Roll Set Point:	-0.019	Pitch Set Point:	0.014	Yaw Set Point:	-0.001	X_WP:	0.000	Y_WP:	0.000	Y_WP:	0.500	X:	0.009	Y:	-0.007	Z:	0.531	yaw:	0.059	yaw rate:	-3.334	Roll:	1.451	Pitch:	1.861	Yaw:	0.390	Thrust:	62.734
Time:	4.153	Roll Set Point:	-0.019	Pitch Set Point:	0.012	Yaw Set Point:	-0.001	X_WP:	0.000	Y_WP:	0.000	Y_WP:	0.500	X:	0.010	Y:	-0.006	Z:	0.534	yaw:	0.040	yaw rate:	-1.917	Roll:	0.428	Pitch:	1.466	Yaw:	0.700	Thrust:	63.651
Time:	4.164	Roll Set Point:	-0.021	Pitch Set Point:	0.010	Yaw Set Point:	0.005	X_WP:	0.000	Y_WP:	0.000	Y_WP:	0.500	X:	0.010	Y:	-0.005	Z:	0.538	yaw:	-0.305	yaw rate:	-34.439	Roll:	1.013	Pitch:	1.728	Yaw:	-7.499	Thrust:	63.042
Time:	4.175	Roll Set Point:	-0.022	Pitch Set Point:	0.008	Yaw Set Point:	0.006	X_WP:	0.000	Y_WP:	0.000	Y_WP:	0.500	X:	0.011	Y:	-0.004	Z:	0.542	yaw:	-0.349	yaw rate:	-4.394	Roll:	1.068	Pitch:	1.719	Yaw:	-0.427	Thrust:	62.812
Time:	4.186	Roll Set Point:	-0.023	Pitch Set Point:	0.006	Yaw Set Point:	0.016	X_WP:	0.000	Y_WP:	0.000	Y_WP:	0.500	X:	0.011	Y:	-0.003	Z:	0.546	yaw:	-0.908	yaw rate:	-55.958	Roll:	1.099	Pitch:	1.931	Yaw:	-13.483	Thrust:	62.941
Time:	4.197	Roll Set Point:	-0.025	Pitch Set Point:	0.004	Yaw Set Point:	0.015	X_WP:	0.000	Y_WP:	0.000	Y_WP:	0.500	X:	0.012	Y:	-0.002	Z:	0.551	yaw:	-0.835	yaw rate:	7.314	Roll:	1.457	Pitch:	2.192	Yaw:	1.664	Thrust:	54.863
Time:	4.208	Roll Set Point:	-0.026	Pitch Set Point:	0.001	Yaw Set Point:	0.013	X_WP:	0.000	Y_WP:	0.000	Y_WP:	0.500	X:	0.013	Y:	-0.001	Z:	0.555	yaw:	-0.742	yaw rate:	9.333	Roll:	1.198	Pitch:	2.213	Yaw:	2.270	Thrust:	63.067
Time:	4.219	Roll Set Point:	-0.028	Pitch Set Point:	-0.001	Yaw Set Point:	0.009	X_WP:	0.000	Y_WP:	0.000	Y_WP:	0.500	X:	0.014	Y:	0.000	Z:	0.559	yaw:	-0.539	yaw rate:	20.317	Roll:	1.435	Pitch:	1.834	Yaw:	5.158	Thrust:	62.124
Time:	4.230	Roll Set Point:	-0.029	Pitch Set Point:	-0.003	Yaw Set Point:	0.019	X_WP:	0.000	Y_WP:	0.000	Y_WP:	0.500	X:	0.015	Y:	0.001	Z:	0.562	yaw:	-1.070	yaw rate:	-53.099	Roll:	1.071	Pitch:	1.745	Yaw:	-12.984	Thrust:	62.904
Time:	4.241	Roll Set Point:	-0.031	Pitch Set Point:	-0.006	Yaw Set Point:	0.018	X_WP:	0.000	Y_WP:	0.000	Y_WP:	0.500	X:	0.016	Y:	0.003	Z:	0.567	yaw:	-1.031	yaw rate:	3.854	Roll:	1.740	Pitch:	2.920	Yaw:	0.557	Thrust:	55.259
Time:	4.253	Roll Set Point:	-0.032	Pitch Set Point:	-0.008	Yaw Set Point:	0.012	X_WP:	0.000	Y_WP:	0.000	Y_WP:	0.500	X:	0.016	Y:	0.004	Z:	0.571	yaw:	-0.691	yaw rate:	34.019	Roll:	1.278	Pitch:	1.809	Yaw:	8.188	Thrust:	62.299
Time:	4.264	Roll Set Point:	-0.034	Pitch Set Point:	-0.010	Yaw Set Point:	0.012	X_WP:	0.000	Y_WP:	0.000	Y_WP:	0.500	X:	0.017	Y:	0.005	Z:	0.574	yaw:	-0.713	yaw rate:	-2.248	Roll:	1.443	Pitch:	2.153	Yaw:	-0.451	Thrust:	62.695
Time:	4.275	Roll Set Point:	-0.035	Pitch Set Point:	-0.012	Yaw Set Point:	0.019	X_WP:	0.000	Y_WP:	0.000	Y_WP:	0.500	X:	0.018	Y:	0.006	Z:	0.577	yaw:	-1.076	yaw rate:	-36.239	Roll:	1.217	Pitch:	1.889	Yaw:	-9.051	Thrust:	61.940
Time:	4.286	Roll Set Point:	-0.036	Pitch Set Point:	-0.014	Yaw Set Point:	0.013	X_WP:	0.000	Y_WP:	0.000	Y_WP:	0.500	X:	0.018	Y:	0.007	Z:	0.581	yaw:	-0.732	yaw rate:	34.386	Roll:	1.099	Pitch:	1.957	Yaw:	7.708	Thrust:	69.469
Time:	4.298	Roll Set Point:	-0.039	Pitch Set Point:	-0.017	Yaw Set Point:	0.013	X_WP:	0.000	Y_WP:	0.000	Y_WP:	0.500	X:	0.019	Y:	0.008	Z:	0.585	yaw:	-0.760	yaw rate:	-2.822	Roll:	1.926	Pitch:	2.603	Yaw:	-0.663	Thrust:	55.971
Time:	4.309	Roll Set Point:	-0.040	Pitch Set Point:	-0.019	Yaw Set Point:	0.017	X_WP:	0.000	Y_WP:	0.000	Y_WP:	0.500	X:	0.020	Y:	0.009	Z:	0.588	yaw:	-1.001	yaw rate:	-24.116	Roll:	1.055	Pitch:	2.277	Yaw:	-6.071	Thrust:	62.675
Time:	4.320	Roll Set Point:	-0.041	Pitch Set Point:	-0.021	Yaw Set Point:	0.024	X_WP:	0.000	Y_WP:	0.000	Y_WP:	0.500	X:	0.021	Y:	0.010	Z:	0.591	yaw:	-1.403	yaw rate:	-40.118	Roll:	1.177	Pitch:	2.143	Yaw:	-10.423	Thrust:	62.411
Time:	4.331	Roll Set Point:	-0.042	Pitch Set Point:	-0.023	Yaw Set Point:	0.027	X_WP:	0.000	Y_WP:	0.000	Y_WP:	0.500	X:	0.021	Y:	0.011	Z:	0.594	yaw:	-1.541	yaw rate:	-13.861	Roll:	1.104	Pitch:	2.316	Yaw:	-4.379	Thrust:	62.490
Time:	4.342	Roll Set Point:	-0.044	Pitch Set Point:	-0.025	Yaw Set Point:	0.016	X_WP:	0.000	Y_WP:	0.000	Y_WP:	0.500	X:	0.022	Y:	0.012	Z:	0.597	yaw:	-0.938	yaw rate:	60.267	Roll:	2.141	Pitch:	1.950	Yaw:	14.039	Thrust:	62.405
Time:	4.353	Roll Set Point:	-0.045	Pitch Set Point:	-0.027	Yaw Set Point:	0.014	X_WP:	0.000	Y_WP:	0.000	Y_WP:	0.500	X:	0.023	Y:	0.013	Z:	0.600	yaw:	-0.799	yaw rate:	13.968	Roll:	1.152	Pitch:	2.028	Yaw:	3.250	Thrust:	62.228
Time:	4.364	Roll Set Point:	-0.047	Pitch Set Point:	-0.030	Yaw Set Point:	0.019	X_WP:	0.000	Y_WP:	0.000	Y_WP:	0.500	X:	0.024	Y:	0.015	Z:	0.604	yaw:	-1.086	yaw rate:	-28.744	Roll:	1.982	Pitch:	3.162	Yaw:	-7.299	Thrust:	56.675
Time:	4.375	Roll Set Point:	-0.048	Pitch Set Point:	-0.032	Yaw Set Point:	0.019	X_WP:	0.000	Y_WP:	0.000	Y_WP:	0.500	X:	0.024	Y:	0.016	Z:	0.607	yaw:	-1.097	yaw rate:	-1.103	Roll:	1.132	Pitch:	2.139	Yaw:	-0.755	Thrust:	62.951
Time:	4.386	Roll Set Point:	-0.050	Pitch Set Point:	-0.034	Yaw Set Point:	0.022	X_WP:	0.000	Y_WP:	0.000	Y_WP:	0.500	X:	0.025	Y:	0.017	Z:	0.609	yaw:	-1.269	yaw rate:	-17.181	Roll:	1.502	Pitch:	2.373	Yaw:	-4.828	Thrust:	61.420
Time:	4.397	Roll Set Point:	-0.051	Pitch Set Point:	-0.036	Yaw Set Point:	0.018	X_WP:	0.000	Y_WP:	0.000	Y_WP:	0.500	X:	0.026	Y:	0.018	Z:	0.612	yaw:	-1.023	yaw rate:	24.564	Roll:	1.613	Pitch:	1.985	Yaw:	5.418	Thrust:	63.392
Time:	4.408	Roll Set Point:	-0.053	Pitch Set Point:	-0.038	Yaw Set Point:	0.017	X_WP:	0.000	Y_WP:	0.000	Y_WP:	0.500	X:	0.027	Y:	0.019	Z:	0.614	yaw:	-0.988	yaw rate:	3.561	Roll:	1.922	Pitch:	2.415	Yaw:	0.489	Thrust:	61.447
Time:	4.419	Roll Set Point:	-0.055	Pitch Set Point:	-0.041	Yaw Set Point:	0.021	X_WP:	0.000	Y_WP:	0.000	Y_WP:	0.500	X:	0.028	Y:	0.020	Z:	0.618	yaw:	-1.222	yaw rate:	-23.409	Roll:	1.682	Pitch:	3.377	Yaw:	-6.243	Thrust:	58.012
Time:	4.430	Roll Set Point:	-0.056	Pitch Set Point:	-0.043	Yaw Set Point:	0.029	X_WP:	0.000	Y_WP:	0.000	Y_WP:	0.500	X:	0.028	Y:	0.021	Z:	0.620	yaw:	-1.683	yaw rate:	-46.063	Roll:	1.087	Pitch:	2.413	Yaw:	-12.244	Thrust:	62.477
Time:	4.442	Roll Set Point:	-0.057	Pitch Set Point:	-0.045	Yaw Set Point:	0.022	X_WP:	0.000	Y_WP:	0.000	Y_WP:	0.500	X:	0.029	Y:	0.022	Z:	0.622	yaw:	-1.256	yaw rate:	42.626	Roll:	1.695	Pitch:	2.080	Yaw:	8.637	Thrust:	70.346
Time:	4.453	Roll Set Point:	-0.059	Pitch Set Point:	-0.047	Yaw Set Point:	0.030	X_WP:	0.000	Y_WP:	0.000	Y_WP:	0.500	X:	0.030	Y:	0.023	Z:	0.624	yaw:	-1.721	yaw rate:	-46.514	Roll:	1.273	Pitch:	2.505	Yaw:	-12.412	Thrust:	62.567
Time:	4.464	Roll Set Point:	-0.060	Pitch Set Point:	-0.049	Yaw Set Point:	0.017	X_WP:	0.000	Y_WP:	0.000	Y_WP:	0.500	X:	0.030	Y:	0.024	Z:	0.626	yaw:	-0.972	yaw rate:	74.901	Roll:	2.212	Pitch:	2.038	Yaw:	17.423	Thrust:	62.260
Time:	4.475	Roll Set Point:	-0.063	Pitch Set Point:	-0.052	Yaw Set Point:	0.016	X_WP:	0.000	Y_WP:	0.000	Y_WP:	0.500	X:	0.032	Y:	0.026	Z:	0.629	yaw:	-0.943	yaw rate:	2.966	Roll:	2.229	Pitch:	3.105	Yaw:	0.380	Thrust:	58.551
Time:	4.487	Roll Set Point:	-0.064	Pitch Set Point:	-0.054	Yaw Set Point:	0.023	X_WP:	0.000	Y_WP:	0.000	Y_WP:	0.500	X:	0.032	Y:	0.027	Z:	0.631	yaw:	-1.300	yaw rate:	-35.697	Roll:	1.081	Pitch:	2.714	Yaw:	-8.488	Thrust:	69.874
Time:	4.498	Roll Set Point:	-0.065	Pitch Set Point:	-0.056	Yaw Set Point:	0.030	X_WP:	0.000	Y_WP:	0.000	Y_WP:	0.500	X:	0.033	Y:	0.027	Z:	0.633	yaw:	-1.742	yaw rate:	-44.248	Roll:	1.178	Pitch:	2.435	Yaw:	-11.791	Thrust:	63.343
Time:	4.509	Roll Set Point:	-0.066	Pitch Set Point:	-0.058	Yaw Set Point:	0.021	X_WP:	0.000	Y_WP:	0.000	Y_WP:	0.500	X:	0.033	Y:	0.028	Z:	0.635	yaw:	-1.178	yaw rate:	56.419	Roll:	2.092	Pitch:	2.090	Yaw:	12.725	Thrust:	62.653
Time:	4.520	Roll Set Point:	-0.068	Pitch Set Point:	-0.059	Yaw Set Point:	0.023	X_WP:	0.000	Y_WP:	0.000	Y_WP:	0.500	X:	0.034	Y:	0.029	Z:	0.637	yaw:	-1.301	yaw rate:	-12.319	Roll:	1.566	Pitch:	2.317	Yaw:	-3.751	Thrust:	62.325
Time:	4.531	Roll Set Point:	-0.069	Pitch Set Point:	-0.062	Yaw Set Point:	0.020	X_WP:	0.000	Y_WP:	0.000	Y_WP:	0.500	X:	0.035	Y:	0.030	Z:	0.638	yaw:	-1.126	yaw rate:	17.536	Roll:	1.958	Pitch:	2.629	Yaw:	3.559	Thrust:	61.481
Time:	4.542	Roll Set Point:	-0.070	Pitch Set Point:	-0.063	Yaw Set Point:	0.022	X_WP:	0.000	Y_WP:	0.000	Y_WP:	0.500	X:	0.035	Y:	0.031	Z:	0.640	yaw:	-1.270	yaw rate:	-14.373	Roll:	1.296	Pitch:	2.324	Yaw:	-4.220	Thrust:	62.103
Time:	4.554	Roll Set Point:	-0.074	Pitch Set Point:	-0.068	Yaw Set Point:	0.017	X_WP:	0.000	Y_WP:	0.000	Y_WP:	0.500	X:	0.037	Y:	0.034	Z:	0.644	yaw:	-0.990	yaw rate:	45.820	Roll:	3.447	Pitch:	4.497	Yaw:	5.753	Thrust:	60.425
Time:	4.565	Roll Set Point:	-0.075	Pitch Set Point:	-0.070	Yaw Set Point:	0.022	X_WP:	0.000	Y_WP:	0.000	Y_WP:	0.500	X:	0.038	Y:	0.034	Z:	0.646	yaw:	-1.239	yaw rate:	-24.966	Roll:	1.103	Pitch:	2.315	Yaw:	-6.702	Thrust:	61.257
Time:	4.576	Roll Set Point:	-0.076	Pitch Set Point:	-0.072	Yaw Set Point:	0.018	X_WP:	0.000	Y_WP:	0.000	Y_WP:	0.500	X:	0.038	Y:	0.035	Z:	0.647	yaw:	-1.019	yaw rate:	22.002	Roll:	2.054	Pitch:	2.609	Yaw:	4.750	Thrust:	61.265
Time:	4.587	Roll Set Point:	-0.076	Pitch Set Point:	-0.072	Yaw Set Point:	0.018	X_WP:	0.000	Y_WP:	0.000	Y_WP:	0.500	X:	0.038	Y:	0.035	Z:	0.647	yaw:	-1.019	yaw rate:	22.002	Roll:	0.736	Pitch:	1.108	Yaw:	-0.477	Thrust:	67.647
Time:	4.599	Roll Set Point:	-0.078	Pitch Set Point:	-0.074	Yaw Set Point:	0.017	X_WP:	0.000	Y_WP:	0.000	Y_WP:	0.500	X:	0.039	Y:	0.037	Z:	0.649	yaw:	-1.001	yaw rate:	1.813	Roll:	1.882	Pitch:	3.003	Yaw:	-0.025	Thrust:	58.835
Time:	4.610	Roll Set Point:	-0.079	Pitch Set Point:	-0.076	Yaw Set Point:	0.024	X_WP:	0.000	Y_WP:	0.000	Y_WP:	0.500	X:	0.040	Y:	0.037	Z:	0.651	yaw:	-1.373	yaw rate:	-37.178	Roll:	1.340	Pitch:	2.754	Yaw:	-9.803	Thrust:	60.979
Time:	4.621	Roll Set Point:	-0.080	Pitch Set Point:	-0.077	Yaw Set Point:	0.013	X_WP:	0.000	Y_WP:	0.000	Y_WP:	0.500	X:	0.040	Y:	0.038	Z:	0.652	yaw:	-0.751	yaw rate:	62.176	Roll:	2.269	Pitch:	2.023	Yaw:	14.643	Thrust:	61.455
Time:	4.632	Roll Set Point:	-0.081	Pitch Set Point:	-0.079	Yaw Set Point:	0.017	X_WP:	0.000	Y_WP:	0.000	Y_WP:	0.500	X:	0.041	Y:	0.039	Z:	0.654	yaw:	-0.981	yaw rate:	-22.996	Roll:	1.558	Pitch:	2.747	Yaw:	-5.898	Thrust:	61.288
Time:	4.644	Roll Set Point:	-0.082	Pitch Set Point:	-0.081	Yaw Set Point:	0.018	X_WP:	0.000	Y_WP:	0.000	Y_WP:	0.500	X:	0.041	Y:	0.040	Z:	0.655	yaw:	-1.055	yaw rate:	-7.325	Roll:	1.362	Pitch:	2.501	Yaw:	-2.070	Thrust:	67.498
Time:	4.655	Roll Set Point:	-0.083	Pitch Set Point:	-0.083	Yaw Set Point:	0.026	X_WP:	0.000	Y_WP:	0.000	Y_WP:	0.500	X:	0.042	Y:	0.041	Z:	0.657	yaw:	-1.467	yaw rate:	-41.200	Roll:	1.538	Pitch:	3.133	Yaw:	-10.884	Thrust:	59.078
Time:	4.667	Roll Set Point:	-0.086	Pitch Set Point:	-0.086	Yaw Set Point:	0.016	X_WP:	0.000	Y_WP:	0.000	Y_WP:	0.500	X:	0.043	Y:	0.043	Z:	0.659	yaw:	-0.897	yaw rate:	-15.945	Roll:	3.028	Pitch:	3.332	Yaw:	12.160	Thrust:	63.749
Time:	4.678	Roll Set Point:	-0.086	Pitch Set Point:	-0.086	Yaw Set Point:	0.016	X_WP:	0.000	Y_WP:	0.000	Y_WP:	0.500	X:	0.043	Y:	0.043	Z:	0.659	yaw:	-0.897	yaw rate:	-15.945	Roll:	0.869	Pitch:	1.289	Yaw:	-0.339	Thrust:	65.396
Time:	4.689	Roll Set Point:	-0.087	Pitch Set Point:	-0.088	Yaw Set Point:	0.016	X_WP:	0.000	Y_WP:	0.000	Y_WP:	0.500	X:	0.044	Y:	0.043	Z:	0.660	yaw:	-0.937	yaw rate:	-4.035	Roll:	1.270	Pitch:	2.403	Yaw:	-1.356	Thrust:	60.963
Time:	4.700	Roll Set Point:	-0.088	Pitch Set Point:	-0.090	Yaw Set Point:	0.023	X_WP:	0.000	Y_WP:	0.000	Y_WP:	0.500	X:	0.044	Y:	0.044	Z:	0.661	yaw:	-1.321	yaw rate:	-38.384	Roll:	1.485	Pitch:	3.061	Yaw:	-10.049	Thrust:	59.226
Time:	4.711	Roll Set Point:	-0.089	Pitch Set Point:	-0.091	Yaw Set Point:	0.012	X_WP:	0.000	Y_WP:	0.000	Y_WP:	0.500	X:	0.045	Y:	0.045	Z:	0.662	yaw:	-0.667	yaw rate:	65.394	Roll:	2.670	Pitch:	1.995	Yaw:	15.492	Thrust:	60.764
Time:	4.722	Roll Set Point:	-0.090	Pitch Set Point:	-0.092	Yaw Set Point:	0.012	X_WP:	0.000	Y_WP:	0.000	Y_WP:	0.500	X:	0.045	Y:	0.046	Z:	0.663	yaw:	-0.699	yaw rate:	-3.199	Roll:	1.593	Pitch:	2.484	Yaw:	-0.837	Thrust:	61.235
Time:	4.733	Roll Set Point:	-0.090	Pitch Set Point:	-0.094	Yaw Set Point:	0.027	X_WP:	0.000	Y_WP:	0.000	Y_WP:	0.500	X:	0.046	Y:	0.046	Z:	0.664	yaw:	-1.561	yaw rate:	-86.210	Roll:	0.071	Pitch:	3.360	Yaw:	-21.747	Thrust:	60.543
Time:	4.745	Roll Set Point:	-0.093	Pitch Set Point:	-0.097	Yaw Set Point:	0.015	X_WP:	0.000	Y_WP:	0.000	Y_WP:	0.500	X:	0.047	Y:	0.048	Z:	0.666	yaw:	-0.868	yaw rate:	6.206	Roll:	3.449	Pitch:	3.142	Yaw:	15.098	Thrust:	62.362
Time:	4.756	Roll Set Point:	-0.093	Pitch Set Point:	-0.097	Yaw Set Point:	0.015	X_WP:	0.000	Y_WP:	0.000	Y_WP:	0.500	X:	0.047	Y:	0.048	Z:	0.666	yaw:	-0.868	yaw rate:	6.206	Roll:	0.971	Pitch:	1.432	Yaw:	-0.327	Thrust:	63.372
Time:	4.767	Roll Set Point:	-0.093	Pitch Set Point:	-0.098	Yaw Set Point:	0.015	X_WP:	0.000	Y_WP:	0.000	Y_WP:	0.500	X:	0.047	Y:	0.048	Z:	0.666	yaw:	-0.881	yaw rate:	-1.316	Roll:	1.312	Pitch:	1.921	Yaw:	-0.659	Thrust:	61.429
Time:	4.778	Roll Set Point:	-0.094	Pitch Set Point:	-0.099	Yaw Set Point:	0.010	X_WP:	0.000	Y_WP:	0.000	Y_WP:	0.500	X:	0.047	Y:	0.049	Z:	0.667	yaw:	-0.576	yaw rate:	30.545	Roll:	1.852	Pitch:	2.058	Yaw:	7.327	Thrust:	60.344
Time:	4.789	Roll Set Point:	-0.094	Pitch Set Point:	-0.101	Yaw Set Point:	0.030	X_WP:	0.000	Y_WP:	0.000	Y_WP:	0.500	X:	0.048	Y:	0.050	Z:	0.667	yaw:	-1.703	yaw rate:	-112.720	Roll:	-0.163	Pitch:	3.986	Yaw:	-28.255	Thrust:	61.246
Time:	4.800	Roll Set Point:	-0.095	Pitch Set Point:	-0.102	Yaw Set Point:	0.021	X_WP:	0.000	Y_WP:	0.000	Y_WP:	0.500	X:	0.048	Y:	0.051	Z:	0.668	yaw:	-1.192	yaw rate:	51.113	Roll:	2.583	Pitch:	2.142	Yaw:	11.340	Thrust:	59.952
Time:	4.811	Roll Set Point:	-0.096	Pitch Set Point:	-0.103	Yaw Set Point:	0.012	X_WP:	0.000	Y_WP:	0.000	Y_WP:	0.500	X:	0.048	Y:	0.051	Z:	0.668	yaw:	-0.708	yaw rate:	48.355	Roll:	1.888	Pitch:	1.737	Yaw:	11.356	Thrust:	60.816
Time:	4.822	Roll Set Point:	-0.096	Pitch Set Point:	-0.104	Yaw Set Point:	0.017	X_WP:	0.000	Y_WP:	0.000	Y_WP:	0.500	X:	0.049	Y:	0.052	Z:	0.668	yaw:	-0.990	yaw rate:	-28.191	Roll:	1.068	Pitch:	2.789	Yaw:	-7.210	Thrust:	61.520
Time:	4.833	Roll Set Point:	-0.097	Pitch Set Point:	-0.105	Yaw Set Point:	0.011	X_WP:	0.000	Y_WP:	0.000	Y_WP:	0.500	X:	0.049	Y:	0.052	Z:	0.668	yaw:	-0.658	yaw rate:	33.189	Roll:	2.040	Pitch:	1.913	Yaw:	7.820	Thrust:	60.860
Time:	4.844	Roll Set Point:	-0.097	Pitch Set Point:	-0.107	Yaw Set Point:	0.028	X_WP:	0.000	Y_WP:	0.000	Y_WP:	0.500	X:	0.049	Y:	0.053	Z:	0.669	yaw:	-1.599	yaw rate:	-94.140	Roll:	0.129	Pitch:	3.948	Yaw:	-23.721	Thrust:	60.066
Time:	4.855	Roll Set Point:	-0.098	Pitch Set Point:	-0.108	Yaw Set Point:	0.016	X_WP:	0.000	Y_WP:	0.000	Y_WP:	0.500	X:	0.049	Y:	0.053	Z:	0.669	yaw:	-0.909	yaw rate:	69.079	Roll:	2.280	Pitch:	1.462	Yaw:	15.980	Thrust:	61.888
Time:	4.866	Roll Set Point:	-0.099	Pitch Set Point:	-0.109	Yaw Set Point:	0.017	X_WP:	0.000	Y_WP:	0.000	Y_WP:	0.500	X:	0.050	Y:	0.054	Z:	0.669	yaw:	-0.949	yaw rate:	-4.028	Roll:	1.588	Pitch:	2.518	Yaw:	-1.433	Thrust:	61.086
Time:	4.878	Roll Set Point:	-0.099	Pitch Set Point:	-0.111	Yaw Set Point:	0.017	X_WP:	0.000	Y_WP:	0.000	Y_WP:	0.500	X:	0.050	Y:	0.055	Z:	0.668	yaw:	-0.990	yaw rate:	-1.103	Roll:	1.286	Pitch:	2.991	Yaw:	-1.279	Thrust:	72.815
Time:	4.890	Roll Set Point:	-0.099	Pitch Set Point:	-0.111	Yaw Set Point:	0.017	X_WP:	0.000	Y_WP:	0.000	Y_WP:	0.500	X:	0.050	Y:	0.055	Z:	0.668	yaw:	-0.990	yaw rate:	-1.103	Roll:	1.092	Pitch:	1.639	Yaw:	-0.544	Thrust:	60.583
Time:	4.901	Roll Set Point:	-0.100	Pitch Set Point:	-0.113	Yaw Set Point:	0.017	X_WP:	0.000	Y_WP:	0.000	Y_WP:	0.500	X:	0.050	Y:	0.056	Z:	0.667	yaw:	-0.993	yaw rate:	23.583	Roll:	1.865	Pitch:	3.254	Yaw:	-0.615	Thrust:	63.029
Time:	4.912	Roll Set Point:	-0.100	Pitch Set Point:	-0.113	Yaw Set Point:	0.017	X_WP:	0.000	Y_WP:	0.000	Y_WP:	0.500	X:	0.050	Y:	0.056	Z:	0.667	yaw:	-0.993	yaw rate:	23.583	Roll:	1.113	Pitch:	1.674	Yaw:	-0.552	Thrust:	60.455
Time:	4.923	Roll Set Point:	-0.100	Pitch Set Point:	-0.113	Yaw Set Point:	0.019	X_WP:	0.000	Y_WP:	0.000	Y_WP:	0.500	X:	0.051	Y:	0.056	Z:	0.667	yaw:	-1.070	yaw rate:	-7.715	Roll:	1.198	Pitch:	2.240	Yaw:	-2.502	Thrust:	61.190
Time:	4.935	Roll Set Point:	-0.100	Pitch Set Point:	-0.114	Yaw Set Point:	0.019	X_WP:	0.000	Y_WP:	0.000	Y_WP:	0.500	X:	0.051	Y:	0.057	Z:	0.667	yaw:	-1.089	yaw rate:	-1.853	Roll:	1.040	Pitch:	2.239	Yaw:	-1.023	Thrust:	68.065
Time:	4.946	Roll Set Point:	-0.101	Pitch Set Point:	-0.116	Yaw Set Point:	0.020	X_WP:	0.000	Y_WP:	0.000	Y_WP:	0.500	X:	0.051	Y:	0.058	Z:	0.665	yaw:	-1.120	yaw rate:	9.496	Roll:	1.859	Pitch:	3.173	Yaw:	-1.474	Thrust:	65.137
Time:	4.958	Roll Set Point:	-0.101	Pitch Set Point:	-0.116	Yaw Set Point:	0.019	X_WP:	0.000	Y_WP:	0.000	Y_WP:	0.500	X:	0.051	Y:	0.058	Z:	0.665	yaw:	-1.102	yaw rate:	1.774	Roll:	1.180	Pitch:	2.118	Yaw:	-0.262	Thrust:	67.505
Time:	4.969	Roll Set Point:	-0.101	Pitch Set Point:	-0.117	Yaw Set Point:	0.019	X_WP:	0.000	Y_WP:	0.000	Y_WP:	0.500	X:	0.051	Y:	0.058	Z:	0.664	yaw:	-1.086	yaw rate:	1.609	Roll:	1.067	Pitch:	2.075	Yaw:	-0.322	Thrust:	62.212
Time:	4.981	Roll Set Point:	-0.100	Pitch Set Point:	-0.117	Yaw Set Point:	0.028	X_WP:	0.000	Y_WP:	0.000	Y_WP:	0.500	X:	0.051	Y:	0.058	Z:	0.663	yaw:	-1.579	yaw rate:	-49.302	Roll:	0.308	Pitch:	2.501	Yaw:	-12.049	Thrust:	62.456
Time:	4.992	Roll Set Point:	-0.100	Pitch Set Point:	-0.119	Yaw Set Point:	0.030	X_WP:	0.000	Y_WP:	0.000	Y_WP:	0.500	X:	0.051	Y:	0.059	Z:	0.662	yaw:	-1.738	yaw rate:	-15.882	Roll:	1.032	Pitch:	2.995	Yaw:	-5.394	Thrust:	68.872
Time:	5.003	Roll Set Point:	-0.101	Pitch Set Point:	-0.120	Yaw Set Point:	0.030	X_WP:	0.000	Y_WP:	0.000	Y_WP:	0.500	X:	0.051	Y:	0.059	Z:	0.662	yaw:	-1.733	yaw rate:	0.491	Roll:	1.312	Pitch:	2.223	Yaw:	-1.507	Thrust:	61.505
Time:	5.014	Roll Set Point:	-0.101	Pitch Set Point:	-0.120	Yaw Set Point:	0.025	X_WP:	0.000	Y_WP:	0.000	Y_WP:	0.500	X:	0.051	Y:	0.059	Z:	0.661	yaw:	-1.435	yaw rate:	29.745	Roll:	1.729	Pitch:	1.718	Yaw:	5.845	Thrust:	62.066
