Time:	2.060	Roll Set Point:	-0.028	Pitch Set Point:	0.008	Yaw Set Point:	-0.056	X_WP:	0.000	Y_WP:	0.000	Y_WP:	0.500	X:	0.014	Y:	-0.003	Z:	0.050	yaw:	3.185	yaw rate:	-0.469	Roll:	0.396	Pitch:	-0.120	Yaw:	4.448	Thrust:	24.771
Time:	2.071	Roll Set Point:	-0.027	Pitch Set Point:	0.007	Yaw Set Point:	-0.055	X_WP:	0.000	Y_WP:	0.000	Y_WP:	0.500	X:	0.014	Y:	-0.003	Z:	0.050	yaw:	3.178	yaw rate:	-0.745	Roll:	0.362	Pitch:	-0.108	Yaw:	4.273	Thrust:	25.450
Time:	2.082	Roll Set Point:	-0.028	Pitch Set Point:	0.008	Yaw Set Point:	-0.056	X_WP:	0.000	Y_WP:	0.000	Y_WP:	0.500	X:	0.014	Y:	-0.003	Z:	0.050	yaw:	3.201	yaw rate:	2.301	Roll:	0.425	Pitch:	-0.137	Yaw:	5.040	Thrust:	25.883
Time:	2.093	Roll Set Point:	-0.027	Pitch Set Point:	0.008	Yaw Set Point:	-0.056	X_WP:	0.000	Y_WP:	0.000	Y_WP:	0.500	X:	0.014	Y:	-0.003	Z:	0.050	yaw:	3.196	yaw rate:	-0.529	Roll:	0.368	Pitch:	-0.118	Yaw:	4.373	Thrust:	26.655
Time:	2.104	Roll Set Point:	-0.028	Pitch Set Point:	0.007	Yaw Set Point:	-0.055	X_WP:	0.000	Y_WP:	0.000	Y_WP:	0.500	X:	0.014	Y:	-0.003	Z:	0.050	yaw:	3.163	yaw rate:	-3.220	Roll:	0.432	Pitch:	-0.104	Yaw:	3.700	Thrust:	27.086
Time:	2.115	Roll Set Point:	-0.027	Pitch Set Point:	0.008	Yaw Set Point:	-0.055	X_WP:	0.000	Y_WP:	0.000	Y_WP:	0.500	X:	0.014	Y:	-0.003	Z:	0.050	yaw:	3.169	yaw rate:	0.569	Roll:	0.354	Pitch:	-0.134	Yaw:	4.621	Thrust:	27.803
Time:	2.126	Roll Set Point:	-0.027	Pitch Set Point:	0.008	Yaw Set Point:	-0.056	X_WP:	0.000	Y_WP:	0.000	Y_WP:	0.500	X:	0.014	Y:	-0.003	Z:	0.050	yaw:	3.188	yaw rate:	1.935	Roll:	0.428	Pitch:	-0.129	Yaw:	4.985	Thrust:	28.362
Time:	2.138	Roll Set Point:	-0.027	Pitch Set Point:	0.008	Yaw Set Point:	-0.056	X_WP:	0.000	Y_WP:	0.000	Y_WP:	0.500	X:	0.014	Y:	-0.003	Z:	0.050	yaw:	3.188	yaw rate:	2.184	Roll:	0.396	Pitch:	-0.120	Yaw:	4.530	Thrust:	29.274
Time:	2.149	Roll Set Point:	-0.027	Pitch Set Point:	0.008	Yaw Set Point:	-0.056	X_WP:	0.000	Y_WP:	0.000	Y_WP:	0.500	X:	0.014	Y:	-0.003	Z:	0.050	yaw:	3.188	yaw rate:	2.184	Roll:	0.401	Pitch:	-0.122	Yaw:	4.549	Thrust:	29.550
Time:	2.160	Roll Set Point:	-0.028	Pitch Set Point:	0.007	Yaw Set Point:	-0.055	X_WP:	0.000	Y_WP:	0.000	Y_WP:	0.500	X:	0.014	Y:	-0.003	Z:	0.050	yaw:	3.171	yaw rate:	-1.704	Roll:	0.425	Pitch:	-0.088	Yaw:	4.132	Thrust:	30.167
Time:	2.171	Roll Set Point:	-0.027	Pitch Set Point:	0.007	Yaw Set Point:	-0.055	X_WP:	0.000	Y_WP:	0.000	Y_WP:	0.500	X:	0.014	Y:	-0.003	Z:	0.050	yaw:	3.169	yaw rate:	-0.171	Roll:	0.390	Pitch:	-0.138	Yaw:	4.507	Thrust:	30.799
Time:	2.182	Roll Set Point:	-0.028	Pitch Set Point:	0.008	Yaw Set Point:	-0.056	X_WP:	0.000	Y_WP:	0.000	Y_WP:	0.500	X:	0.014	Y:	-0.003	Z:	0.050	yaw:	3.183	yaw rate:	1.355	Roll:	0.436	Pitch:	-0.133	Yaw:	4.900	Thrust:	31.316
Time:	2.193	Roll Set Point:	-0.027	Pitch Set Point:	0.008	Yaw Set Point:	-0.056	X_WP:	0.000	Y_WP:	0.000	Y_WP:	0.500	X:	0.014	Y:	-0.003	Z:	0.050	yaw:	3.192	yaw rate:	0.910	Roll:	0.369	Pitch:	-0.139	Yaw:	4.820	Thrust:	31.760
Time:	2.204	Roll Set Point:	-0.027	Pitch Set Point:	0.008	Yaw Set Point:	-0.056	X_WP:	0.000	Y_WP:	0.000	Y_WP:	0.500	X:	0.014	Y:	-0.003	Z:	0.050	yaw:	3.186	yaw rate:	-0.571	Roll:	0.403	Pitch:	-0.114	Yaw:	4.472	Thrust:	32.642
Time:	2.218	Roll Set Point:	-0.027	Pitch Set Point:	0.008	Yaw Set Point:	-0.056	X_WP:	0.000	Y_WP:	0.000	Y_WP:	0.500	X:	0.014	Y:	-0.003	Z:	0.050	yaw:	3.203	yaw rate:	1.745	Roll:	0.414	Pitch:	-0.132	Yaw:	5.017	Thrust:	35.346
Time:	2.229	Roll Set Point:	-0.027	Pitch Set Point:	0.008	Yaw Set Point:	-0.055	X_WP:	0.000	Y_WP:	0.000	Y_WP:	0.500	X:	0.014	Y:	-0.003	Z:	0.050	yaw:	3.162	yaw rate:	-4.153	Roll:	0.409	Pitch:	-0.112	Yaw:	3.613	Thrust:	33.823
Time:	2.240	Roll Set Point:	-0.028	Pitch Set Point:	0.008	Yaw Set Point:	-0.055	X_WP:	0.000	Y_WP:	0.000	Y_WP:	0.500	X:	0.014	Y:	-0.003	Z:	0.050	yaw:	3.165	yaw rate:	0.289	Roll:	0.425	Pitch:	-0.111	Yaw:	4.684	Thrust:	34.267
Time:	2.252	Roll Set Point:	-0.027	Pitch Set Point:	0.008	Yaw Set Point:	-0.056	X_WP:	0.000	Y_WP:	0.000	Y_WP:	0.500	X:	0.014	Y:	-0.003	Z:	0.050	yaw:	3.201	yaw rate:	3.651	Roll:	0.367	Pitch:	-0.166	Yaw:	5.536	Thrust:	34.967
Time:	2.262	Roll Set Point:	-0.028	Pitch Set Point:	0.008	Yaw Set Point:	-0.055	X_WP:	0.000	Y_WP:	0.000	Y_WP:	0.500	X:	0.014	Y:	-0.003	Z:	0.050	yaw:	3.176	yaw rate:	-2.501	Roll:	0.462	Pitch:	-0.093	Yaw:	4.050	Thrust:	35.447
Time:	2.274	Roll Set Point:	-0.027	Pitch Set Point:	0.008	Yaw Set Point:	-0.056	X_WP:	0.000	Y_WP:	0.000	Y_WP:	0.500	X:	0.014	Y:	-0.003	Z:	0.050	yaw:	3.195	yaw rate:	1.882	Roll:	0.380	Pitch:	-0.133	Yaw:	5.141	Thrust:	36.107
Time:	2.285	Roll Set Point:	-0.027	Pitch Set Point:	0.008	Yaw Set Point:	-0.055	X_WP:	0.000	Y_WP:	0.000	Y_WP:	0.500	X:	0.014	Y:	-0.003	Z:	0.050	yaw:	3.161	yaw rate:	-3.441	Roll:	0.375	Pitch:	-0.106	Yaw:	3.842	Thrust:	36.780
Time:	2.296	Roll Set Point:	-0.027	Pitch Set Point:	0.007	Yaw Set Point:	-0.056	X_WP:	0.000	Y_WP:	0.000	Y_WP:	0.500	X:	0.014	Y:	-0.003	Z:	0.050	yaw:	3.191	yaw rate:	3.074	Roll:	0.452	Pitch:	-0.122	Yaw:	5.443	Thrust:	37.232
Time:	2.307	Roll Set Point:	-0.027	Pitch Set Point:	0.008	Yaw Set Point:	-0.056	X_WP:	0.000	Y_WP:	0.000	Y_WP:	0.500	X:	0.014	Y:	-0.003	Z:	0.050	yaw:	3.189	yaw rate:	-0.221	Roll:	0.402	Pitch:	-0.143	Yaw:	4.670	Thrust:	37.811
Time:	2.318	Roll Set Point:	-0.028	Pitch Set Point:	0.008	Yaw Set Point:	-0.056	X_WP:	0.000	Y_WP:	0.000	Y_WP:	0.500	X:	0.014	Y:	-0.003	Z:	0.050	yaw:	3.187	yaw rate:	-0.191	Roll:	0.434	Pitch:	-0.142	Yaw:	4.687	Thrust:	38.510
Time:	2.329	Roll Set Point:	-0.027	Pitch Set Point:	0.008	Yaw Set Point:	-0.056	X_WP:	0.000	Y_WP:	0.000	Y_WP:	0.500	X:	0.014	Y:	-0.003	Z:	0.050	yaw:	3.188	yaw rate:	0.110	Roll:	0.400	Pitch:	-0.099	Yaw:	4.771	Thrust:	39.076
Time:	2.340	Roll Set Point:	-0.027	Pitch Set Point:	0.008	Yaw Set Point:	-0.056	X_WP:	0.000	Y_WP:	0.000	Y_WP:	0.500	X:	0.014	Y:	-0.003	Z:	0.050	yaw:	3.181	yaw rate:	-0.766	Roll:	0.408	Pitch:	-0.125	Yaw:	4.566	Thrust:	39.664
Time:	2.351	Roll Set Point:	-0.028	Pitch Set Point:	0.008	Yaw Set Point:	-0.055	X_WP:	0.000	Y_WP:	0.000	Y_WP:	0.500	X:	0.014	Y:	-0.003	Z:	0.050	yaw:	3.159	yaw rate:	-2.202	Roll:	0.430	Pitch:	-0.125	Yaw:	4.206	Thrust:	40.279
Time:	2.362	Roll Set Point:	-0.028	Pitch Set Point:	0.008	Yaw Set Point:	-0.056	X_WP:	0.000	Y_WP:	0.000	Y_WP:	0.500	X:	0.014	Y:	-0.003	Z:	0.050	yaw:	3.188	yaw rate:	2.973	Roll:	0.416	Pitch:	-0.135	Yaw:	5.489	Thrust:	40.901
Time:	2.373	Roll Set Point:	-0.028	Pitch Set Point:	0.008	Yaw Set Point:	-0.056	X_WP:	0.000	Y_WP:	0.000	Y_WP:	0.500	X:	0.014	Y:	-0.003	Z:	0.050	yaw:	3.186	yaw rate:	-0.297	Roll:	0.419	Pitch:	-0.134	Yaw:	4.720	Thrust:	41.451
Time:	2.384	Roll Set Point:	-0.028	Pitch Set Point:	0.008	Yaw Set Point:	-0.055	X_WP:	0.000	Y_WP:	0.000	Y_WP:	0.500	X:	0.014	Y:	-0.003	Z:	0.050	yaw:	3.151	yaw rate:	-3.495	Roll:	0.418	Pitch:	-0.129	Yaw:	3.925	Thrust:	41.955
Time:	2.395	Roll Set Point:	-0.027	Pitch Set Point:	0.008	Yaw Set Point:	-0.055	X_WP:	0.000	Y_WP:	0.000	Y_WP:	0.500	X:	0.014	Y:	-0.003	Z:	0.050	yaw:	3.164	yaw rate:	1.314	Roll:	0.407	Pitch:	-0.110	Yaw:	5.097	Thrust:	42.807
Time:	2.406	Roll Set Point:	-0.028	Pitch Set Point:	0.008	Yaw Set Point:	-0.056	X_WP:	0.000	Y_WP:	0.000	Y_WP:	0.500	X:	0.014	Y:	-0.003	Z:	0.050	yaw:	3.190	yaw rate:	2.612	Roll:	0.424	Pitch:	-0.128	Yaw:	5.454	Thrust:	43.161
Time:	2.417	Roll Set Point:	-0.027	Pitch Set Point:	0.008	Yaw Set Point:	-0.056	X_WP:	0.000	Y_WP:	0.000	Y_WP:	0.500	X:	0.014	Y:	-0.003	Z:	0.050	yaw:	3.199	yaw rate:	0.962	Roll:	0.394	Pitch:	-0.160	Yaw:	5.088	Thrust:	43.885
Time:	2.428	Roll Set Point:	-0.028	Pitch Set Point:	0.008	Yaw Set Point:	-0.056	X_WP:	0.000	Y_WP:	0.000	Y_WP:	0.500	X:	0.014	Y:	-0.003	Z:	0.050	yaw:	3.183	yaw rate:	-1.680	Roll:	0.461	Pitch:	-0.103	Yaw:	4.449	Thrust:	44.504
Time:	2.439	Roll Set Point:	-0.027	Pitch Set Point:	0.008	Yaw Set Point:	-0.056	X_WP:	0.000	Y_WP:	0.000	Y_WP:	0.500	X:	0.014	Y:	-0.003	Z:	0.050	yaw:	3.193	yaw rate:	1.003	Roll:	0.378	Pitch:	-0.141	Yaw:	5.113	Thrust:	44.895
Time:	2.450	Roll Set Point:	-0.027	Pitch Set Point:	0.008	Yaw Set Point:	-0.056	X_WP:	0.000	Y_WP:	0.000	Y_WP:	0.500	X:	0.014	Y:	-0.003	Z:	0.050	yaw:	3.208	yaw rate:	1.560	Roll:	0.441	Pitch:	-0.125	Yaw:	5.279	Thrust:	45.759
Time:	2.461	Roll Set Point:	-0.028	Pitch Set Point:	0.008	Yaw Set Point:	-0.056	X_WP:	0.000	Y_WP:	0.000	Y_WP:	0.500	X:	0.014	Y:	-0.003	Z:	0.050	yaw:	3.202	yaw rate:	-0.581	Roll:	0.437	Pitch:	-0.146	Yaw:	4.775	Thrust:	46.239
Time:	2.472	Roll Set Point:	-0.027	Pitch Set Point:	0.007	Yaw Set Point:	-0.055	X_WP:	0.000	Y_WP:	0.000	Y_WP:	0.500	X:	0.014	Y:	-0.003	Z:	0.050	yaw:	3.156	yaw rate:	-4.598	Roll:	0.411	Pitch:	-0.062	Yaw:	3.766	Thrust:	46.792
Time:	2.483	Roll Set Point:	-0.028	Pitch Set Point:	0.008	Yaw Set Point:	-0.055	X_WP:	0.000	Y_WP:	0.000	Y_WP:	0.500	X:	0.014	Y:	-0.003	Z:	0.050	yaw:	3.162	yaw rate:	0.596	Roll:	0.442	Pitch:	-0.155	Yaw:	5.024	Thrust:	47.475
Time:	2.494	Roll Set Point:	-0.028	Pitch Set Point:	0.008	Yaw Set Point:	-0.055	X_WP:	0.000	Y_WP:	0.000	Y_WP:	0.500	X:	0.014	Y:	-0.003	Z:	0.050	yaw:	3.155	yaw rate:	-0.725	Roll:	0.433	Pitch:	-0.131	Yaw:	4.710	Thrust:	47.875
Time:	2.506	Roll Set Point:	-0.028	Pitch Set Point:	0.008	Yaw Set Point:	-0.055	X_WP:	0.000	Y_WP:	0.000	Y_WP:	0.500	X:	0.014	Y:	-0.003	Z:	0.050	yaw:	3.171	yaw rate:	1.587	Roll:	0.427	Pitch:	-0.148	Yaw:	5.307	Thrust:	50.824
Time:	2.517	Roll Set Point:	-0.027	Pitch Set Point:	0.008	Yaw Set Point:	-0.056	X_WP:	0.000	Y_WP:	0.000	Y_WP:	0.500	X:	0.014	Y:	-0.003	Z:	0.050	yaw:	3.188	yaw rate:	1.671	Roll:	0.402	Pitch:	-0.107	Yaw:	5.351	Thrust:	49.441
Time:	2.528	Roll Set Point:	-0.028	Pitch Set Point:	0.008	Yaw Set Point:	-0.055	X_WP:	0.000	Y_WP:	0.000	Y_WP:	0.500	X:	0.014	Y:	-0.003	Z:	0.050	yaw:	3.174	yaw rate:	-1.416	Roll:	0.445	Pitch:	-0.158	Yaw:	4.614	Thrust:	49.959
Time:	2.539	Roll Set Point:	-0.027	Pitch Set Point:	0.008	Yaw Set Point:	-0.056	X_WP:	0.000	Y_WP:	0.000	Y_WP:	0.500	X:	0.014	Y:	-0.003	Z:	0.050	yaw:	3.186	yaw rate:	1.249	Roll:	0.406	Pitch:	-0.112	Yaw:	5.271	Thrust:	50.349
Time:	2.550	Roll Set Point:	-0.028	Pitch Set Point:	0.008	Yaw Set Point:	-0.056	X_WP:	0.000	Y_WP:	0.000	Y_WP:	0.500	X:	0.014	Y:	-0.003	Z:	0.050	yaw:	3.180	yaw rate:	-0.614	Roll:	0.447	Pitch:	-0.124	Yaw:	4.834	Thrust:	51.038
Time:	2.561	Roll Set Point:	-0.027	Pitch Set Point:	0.008	Yaw Set Point:	-0.056	X_WP:	0.000	Y_WP:	0.000	Y_WP:	0.500	X:	0.014	Y:	-0.003	Z:	0.050	yaw:	3.191	yaw rate:	1.071	Roll:	0.399	Pitch:	-0.152	Yaw:	5.260	Thrust:	51.703
Time:	2.572	Roll Set Point:	-0.028	Pitch Set Point:	0.008	Yaw Set Point:	-0.055	X_WP:	0.000	Y_WP:	0.000	Y_WP:	0.500	X:	0.014	Y:	-0.003	Z:	0.050	yaw:	3.172	yaw rate:	-1.841	Roll:	0.467	Pitch:	-0.111	Yaw:	4.556	Thrust:	52.233
Time:	2.583	Roll Set Point:	-0.027	Pitch Set Point:	0.008	Yaw Set Point:	-0.056	X_WP:	0.000	Y_WP:	0.000	Y_WP:	0.500	X:	0.014	Y:	-0.003	Z:	0.050	yaw:	3.187	yaw rate:	1.503	Roll:	0.407	Pitch:	-0.166	Yaw:	5.382	Thrust:	52.581
Time:	2.595	Roll Set Point:	-0.028	Pitch Set Point:	0.008	Yaw Set Point:	-0.056	X_WP:	0.000	Y_WP:	0.000	Y_WP:	0.500	X:	0.014	Y:	-0.003	Z:	0.050	yaw:	3.183	yaw rate:	-0.457	Roll:	0.460	Pitch:	-0.127	Yaw:	4.925	Thrust:	53.380
Time:	2.607	Roll Set Point:	-0.028	Pitch Set Point:	0.008	Yaw Set Point:	-0.056	X_WP:	0.000	Y_WP:	0.000	Y_WP:	0.500	X:	0.014	Y:	-0.003	Z:	0.050	yaw:	3.183	yaw rate:	0.057	Roll:	0.424	Pitch:	-0.120	Yaw:	5.111	Thrust:	56.657
Time:	2.618	Roll Set Point:	-0.028	Pitch Set Point:	0.008	Yaw Set Point:	-0.056	X_WP:	0.000	Y_WP:	0.000	Y_WP:	0.500	X:	0.014	Y:	-0.003	Z:	0.050	yaw:	3.183	yaw rate:	-0.059	Roll:	0.438	Pitch:	-0.118	Yaw:	5.041	Thrust:	54.614
Time:	2.629	Roll Set Point:	-0.027	Pitch Set Point:	0.007	Yaw Set Point:	-0.055	X_WP:	0.000	Y_WP:	0.000	Y_WP:	0.500	X:	0.014	Y:	-0.003	Z:	0.050	yaw:	3.172	yaw rate:	-1.105	Roll:	0.418	Pitch:	-0.116	Yaw:	4.793	Thrust:	55.265
Time:	2.640	Roll Set Point:	-0.028	Pitch Set Point:	0.008	Yaw Set Point:	-0.055	X_WP:	0.000	Y_WP:	0.000	Y_WP:	0.500	X:	0.014	Y:	-0.003	Z:	0.050	yaw:	3.180	yaw rate:	0.813	Roll:	0.450	Pitch:	-0.163	Yaw:	5.269	Thrust:	55.686
Time:	2.651	Roll Set Point:	-0.027	Pitch Set Point:	0.008	Yaw Set Point:	-0.056	X_WP:	0.000	Y_WP:	0.000	Y_WP:	0.500	X:	0.014	Y:	-0.003	Z:	0.050	yaw:	3.188	yaw rate:	0.787	Roll:	0.420	Pitch:	-0.140	Yaw:	5.287	Thrust:	56.363
Time:	2.662	Roll Set Point:	-0.028	Pitch Set Point:	0.008	Yaw Set Point:	-0.055	X_WP:	0.000	Y_WP:	0.000	Y_WP:	0.500	X:	0.014	Y:	-0.003	Z:	0.050	yaw:	3.173	yaw rate:	-1.439	Roll:	0.487	Pitch:	-0.104	Yaw:	4.751	Thrust:	57.007
Time:	2.673	Roll Set Point:	-0.027	Pitch Set Point:	0.008	Yaw Set Point:	-0.055	X_WP:	0.000	Y_WP:	0.000	Y_WP:	0.500	X:	0.014	Y:	-0.003	Z:	0.050	yaw:	3.173	yaw rate:	-0.039	Roll:	0.389	Pitch:	-0.145	Yaw:	5.094	Thrust:	57.525
Time:	2.684	Roll Set Point:	-0.028	Pitch Set Point:	0.008	Yaw Set Point:	-0.055	X_WP:	0.000	Y_WP:	0.000	Y_WP:	0.500	X:	0.014	Y:	-0.003	Z:	0.050	yaw:	3.179	yaw rate:	0.579	Roll:	0.462	Pitch:	-0.123	Yaw:	5.261	Thrust:	58.173
Time:	2.696	Roll Set Point:	-0.027	Pitch Set Point:	0.008	Yaw Set Point:	-0.056	X_WP:	0.000	Y_WP:	0.000	Y_WP:	0.500	X:	0.014	Y:	-0.003	Z:	0.050	yaw:	3.194	yaw rate:	1.517	Roll:	0.423	Pitch:	-0.144	Yaw:	5.551	Thrust:	61.929
Time:	2.708	Roll Set Point:	-0.028	Pitch Set Point:	0.008	Yaw Set Point:	-0.056	X_WP:	0.000	Y_WP:	0.000	Y_WP:	0.500	X:	0.014	Y:	-0.003	Z:	0.050	yaw:	3.184	yaw rate:	-1.020	Roll:	0.457	Pitch:	-0.129	Yaw:	4.997	Thrust:	62.420
Time:	2.719	Roll Set Point:	-0.027	Pitch Set Point:	0.008	Yaw Set Point:	-0.056	X_WP:	0.000	Y_WP:	0.000	Y_WP:	0.500	X:	0.014	Y:	-0.003	Z:	0.050	yaw:	3.194	yaw rate:	1.078	Roll:	0.403	Pitch:	-0.154	Yaw:	5.439	Thrust:	59.899
Time:	2.730	Roll Set Point:	-0.027	Pitch Set Point:	0.008	Yaw Set Point:	-0.056	X_WP:	0.000	Y_WP:	0.000	Y_WP:	0.500	X:	0.014	Y:	-0.003	Z:	0.050	yaw:	3.181	yaw rate:	-1.308	Roll:	0.440	Pitch:	-0.121	Yaw:	4.867	Thrust:	60.523
Time:	2.741	Roll Set Point:	-0.028	Pitch Set Point:	0.008	Yaw Set Point:	-0.056	X_WP:	0.000	Y_WP:	0.000	Y_WP:	0.500	X:	0.014	Y:	-0.003	Z:	0.050	yaw:	3.210	yaw rate:	2.867	Roll:	0.485	Pitch:	-0.154	Yaw:	5.910	Thrust:	61.144
Time:	2.752	Roll Set Point:	-0.028	Pitch Set Point:	0.008	Yaw Set Point:	-0.055	X_WP:	0.000	Y_WP:	0.000	Y_WP:	0.500	X:	0.014	Y:	-0.003	Z:	0.050	yaw:	3.169	yaw rate:	-4.102	Roll:	0.427	Pitch:	-0.102	Yaw:	4.211	Thrust:	61.808
Time:	2.763	Roll Set Point:	-0.028	Pitch Set Point:	0.008	Yaw Set Point:	-0.055	X_WP:	0.000	Y_WP:	0.000	Y_WP:	0.500	X:	0.014	Y:	-0.003	Z:	0.050	yaw:	3.160	yaw rate:	-0.902	Roll:	0.465	Pitch:	-0.127	Yaw:	4.970	Thrust:	62.275
Time:	2.775	Roll Set Point:	-0.028	Pitch Set Point:	0.008	Yaw Set Point:	-0.056	X_WP:	0.000	Y_WP:	0.000	Y_WP:	0.500	X:	0.014	Y:	-0.003	Z:	0.050	yaw:	3.184	yaw rate:	1.723	Roll:	0.437	Pitch:	-0.155	Yaw:	5.810	Thrust:	64.967
Time:	2.786	Roll Set Point:	-0.028	Pitch Set Point:	0.008	Yaw Set Point:	-0.056	X_WP:	0.000	Y_WP:	0.000	Y_WP:	0.500	X:	0.014	Y:	-0.003	Z:	0.050	yaw:	3.201	yaw rate:	1.738	Roll:	0.437	Pitch:	-0.134	Yaw:	5.694	Thrust:	65.183
Time:	2.797	Roll Set Point:	-0.027	Pitch Set Point:	0.008	Yaw Set Point:	-0.055	X_WP:	0.000	Y_WP:	0.000	Y_WP:	0.500	X:	0.014	Y:	-0.003	Z:	0.050	yaw:	3.173	yaw rate:	-2.846	Roll:	0.434	Pitch:	-0.122	Yaw:	4.561	Thrust:	63.912
Time:	2.808	Roll Set Point:	-0.028	Pitch Set Point:	0.008	Yaw Set Point:	-0.055	X_WP:	0.000	Y_WP:	0.000	Y_WP:	0.500	X:	0.014	Y:	-0.003	Z:	0.050	yaw:	3.156	yaw rate:	-1.656	Roll:	0.500	Pitch:	-0.180	Yaw:	4.835	Thrust:	64.684
Time:	2.819	Roll Set Point:	-0.028	Pitch Set Point:	0.008	Yaw Set Point:	-0.055	X_WP:	0.000	Y_WP:	0.000	Y_WP:	0.500	X:	0.014	Y:	-0.003	Z:	0.050	yaw:	3.165	yaw rate:	0.868	Roll:	0.411	Pitch:	-0.090	Yaw:	5.458	Thrust:	65.366
Time:	2.830	Roll Set Point:	-0.027	Pitch Set Point:	0.008	Yaw Set Point:	-0.056	X_WP:	0.000	Y_WP:	0.000	Y_WP:	0.500	X:	0.014	Y:	-0.003	Z:	0.050	yaw:	3.196	yaw rate:	3.102	Roll:	0.437	Pitch:	-0.167	Yaw:	6.044	Thrust:	65.906
Time:	2.841	Roll Set Point:	-0.028	Pitch Set Point:	0.008	Yaw Set Point:	-0.055	X_WP:	0.000	Y_WP:	0.000	Y_WP:	0.500	X:	0.014	Y:	-0.003	Z:	0.050	yaw:	3.152	yaw rate:	-4.365	Roll:	0.517	Pitch:	-0.139	Yaw:	4.224	Thrust:	66.481
Time:	2.852	Roll Set Point:	-0.028	Pitch Set Point:	0.008	Yaw Set Point:	-0.055	X_WP:	0.000	Y_WP:	0.000	Y_WP:	0.500	X:	0.014	Y:	-0.003	Z:	0.050	yaw:	3.150	yaw rate:	-0.273	Roll:	0.391	Pitch:	-0.101	Yaw:	5.202	Thrust:	67.259
Time:	2.863	Roll Set Point:	-0.028	Pitch Set Point:	0.008	Yaw Set Point:	-0.056	X_WP:	0.000	Y_WP:	0.000	Y_WP:	0.500	X:	0.014	Y:	-0.003	Z:	0.050	yaw:	3.193	yaw rate:	4.322	Roll:	0.462	Pitch:	-0.149	Yaw:	6.366	Thrust:	67.465
Time:	2.875	Roll Set Point:	-0.028	Pitch Set Point:	0.008	Yaw Set Point:	-0.055	X_WP:	0.000	Y_WP:	0.000	Y_WP:	0.500	X:	0.014	Y:	-0.003	Z:	0.050	yaw:	3.162	yaw rate:	-3.076	Roll:	0.447	Pitch:	-0.144	Yaw:	4.725	Thrust:	72.261
Time:	2.886	Roll Set Point:	-0.028	Pitch Set Point:	0.007	Yaw Set Point:	-0.055	X_WP:	0.000	Y_WP:	0.000	Y_WP:	0.500	X:	0.014	Y:	-0.003	Z:	0.050	yaw:	3.148	yaw rate:	-1.399	Roll:	0.473	Pitch:	-0.079	Yaw:	4.969	Thrust:	68.929
Time:	2.897	Roll Set Point:	-0.027	Pitch Set Point:	0.008	Yaw Set Point:	-0.056	X_WP:	0.000	Y_WP:	0.000	Y_WP:	0.500	X:	0.014	Y:	-0.003	Z:	0.050	yaw:	3.195	yaw rate:	4.705	Roll:	0.390	Pitch:	-0.199	Yaw:	6.496	Thrust:	69.526
Time:	2.908	Roll Set Point:	-0.027	Pitch Set Point:	0.008	Yaw Set Point:	-0.056	X_WP:	0.000	Y_WP:	0.000	Y_WP:	0.500	X:	0.014	Y:	-0.003	Z:	0.050	yaw:	3.209	yaw rate:	1.399	Roll:	0.449	Pitch:	-0.138	Yaw:	5.742	Thrust:	70.027
Time:	2.919	Roll Set Point:	-0.027	Pitch Set Point:	0.008	Yaw Set Point:	-0.056	X_WP:	0.000	Y_WP:	0.000	Y_WP:	0.500	X:	0.014	Y:	-0.003	Z:	0.050	yaw:	3.194	yaw rate:	-1.502	Roll:	0.482	Pitch:	-0.129	Yaw:	5.049	Thrust:	70.782
Time:	2.930	Roll Set Point:	-0.027	Pitch Set Point:	0.008	Yaw Set Point:	-0.055	X_WP:	0.000	Y_WP:	0.000	Y_WP:	0.500	X:	0.014	Y:	-0.003	Z:	0.050	yaw:	3.162	yaw rate:	-3.222	Roll:	0.446	Pitch:	-0.133	Yaw:	4.605	Thrust:	71.204
Time:	2.941	Roll Set Point:	-0.028	Pitch Set Point:	0.008	Yaw Set Point:	-0.056	X_WP:	0.000	Y_WP:	0.000	Y_WP:	0.500	X:	0.014	Y:	-0.003	Z:	0.050	yaw:	3.186	yaw rate:	2.431	Roll:	0.492	Pitch:	-0.152	Yaw:	5.993	Thrust:	71.811
Time:	2.952	Roll Set Point:	-0.027	Pitch Set Point:	0.008	Yaw Set Point:	-0.056	X_WP:	0.000	Y_WP:	0.000	Y_WP:	0.500	X:	0.014	Y:	-0.003	Z:	0.050	yaw:	3.190	yaw rate:	0.410	Roll:	0.426	Pitch:	-0.122	Yaw:	5.529	Thrust:	72.361
Time:	2.963	Roll Set Point:	-0.028	Pitch Set Point:	0.008	Yaw Set Point:	-0.055	X_WP:	0.000	Y_WP:	0.000	Y_WP:	0.500	X:	0.014	Y:	-0.003	Z:	0.050	yaw:	3.173	yaw rate:	-1.749	Roll:	0.474	Pitch:	-0.131	Yaw:	5.007	Thrust:	73.193
Time:	2.975	Roll Set Point:	-0.028	Pitch Set Point:	0.008	Yaw Set Point:	-0.056	X_WP:	0.000	Y_WP:	0.000	Y_WP:	0.500	X:	0.014	Y:	-0.003	Z:	0.050	yaw:	3.188	yaw rate:	1.484	Roll:	0.450	Pitch:	-0.147	Yaw:	5.808	Thrust:	73.695
Time:	2.986	Roll Set Point:	-0.028	Pitch Set Point:	0.008	Yaw Set Point:	-0.055	X_WP:	0.000	Y_WP:	0.000	Y_WP:	0.500	X:	0.014	Y:	-0.003	Z:	0.050	yaw:	3.158	yaw rate:	-2.974	Roll:	0.477	Pitch:	-0.155	Yaw:	4.721	Thrust:	74.299
Time:	2.997	Roll Set Point:	-0.027	Pitch Set Point:	0.008	Yaw Set Point:	-0.055	X_WP:	0.000	Y_WP:	0.000	Y_WP:	0.500	X:	0.014	Y:	-0.003	Z:	0.050	yaw:	3.178	yaw rate:	2.046	Roll:	0.426	Pitch:	-0.120	Yaw:	5.951	Thrust:	74.835
Time:	3.008	Roll Set Point:	-0.028	Pitch Set Point:	0.008	Yaw Set Point:	-0.056	X_WP:	0.000	Y_WP:	0.000	Y_WP:	0.500	X:	0.014	Y:	-0.003	Z:	0.050	yaw:	3.185	yaw rate:	0.702	Roll:	0.481	Pitch:	-0.136	Yaw:	5.655	Thrust:	75.397
Time:	3.019	Roll Set Point:	-0.027	Pitch Set Point:	0.008	Yaw Set Point:	-0.056	X_WP:	0.000	Y_WP:	0.000	Y_WP:	0.500	X:	0.014	Y:	-0.003	Z:	0.050	yaw:	3.200	yaw rate:	1.444	Roll:	0.428	Pitch:	-0.154	Yaw:	5.862	Thrust:	76.003
Time:	3.030	Roll Set Point:	-0.028	Pitch Set Point:	0.008	Yaw Set Point:	-0.055	X_WP:	0.000	Y_WP:	0.000	Y_WP:	0.500	X:	0.014	Y:	-0.003	Z:	0.050	yaw:	3.155	yaw rate:	-4.519	Roll:	0.486	Pitch:	-0.123	Yaw:	4.401	Thrust:	76.613
Time:	3.041	Roll Set Point:	-0.027	Pitch Set Point:	0.008	Yaw Set Point:	-0.056	X_WP:	0.000	Y_WP:	0.000	Y_WP:	0.500	X:	0.014	Y:	-0.003	Z:	0.050	yaw:	3.193	yaw rate:	3.891	Roll:	0.445	Pitch:	-0.151	Yaw:	6.465	Thrust:	78.654
Time:	3.052	Roll Set Point:	-0.028	Pitch Set Point:	0.008	Yaw Set Point:	-0.055	X_WP:	0.000	Y_WP:	0.000	Y_WP:	0.500	X:	0.014	Y:	-0.003	Z:	0.050	yaw:	3.163	yaw rate:	-3.043	Roll:	0.484	Pitch:	-0.150	Yaw:	4.783	Thrust:	77.795
Time:	3.063	Roll Set Point:	-0.028	Pitch Set Point:	0.008	Yaw Set Point:	-0.056	X_WP:	0.000	Y_WP:	0.000	Y_WP:	0.500	X:	0.014	Y:	-0.003	Z:	0.050	yaw:	3.181	yaw rate:	1.810	Roll:	0.478	Pitch:	-0.140	Yaw:	5.975	Thrust:	78.559
Time:	3.074	Roll Set Point:	-0.027	Pitch Set Point:	0.008	Yaw Set Point:	-0.056	X_WP:	0.000	Y_WP:	0.000	Y_WP:	0.500	X:	0.014	Y:	-0.003	Z:	0.050	yaw:	3.184	yaw rate:	0.240	Roll:	0.444	Pitch:	-0.136	Yaw:	5.605	Thrust:	79.065
Time:	3.085	Roll Set Point:	-0.028	Pitch Set Point:	0.008	Yaw Set Point:	-0.055	X_WP:	0.000	Y_WP:	0.000	Y_WP:	0.500	X:	0.014	Y:	-0.003	Z:	0.050	yaw:	3.162	yaw rate:	-2.173	Roll:	0.481	Pitch:	-0.123	Yaw:	5.001	Thrust:	79.529
Time:	3.096	Roll Set Point:	-0.028	Pitch Set Point:	0.007	Yaw Set Point:	-0.055	X_WP:	0.000	Y_WP:	0.000	Y_WP:	0.500	X:	0.014	Y:	-0.003	Z:	0.050	yaw:	3.150	yaw rate:	-1.156	Roll:	0.509	Pitch:	-0.129	Yaw:	5.225	Thrust:	80.147
Time:	3.107	Roll Set Point:	-0.027	Pitch Set Point:	0.008	Yaw Set Point:	-0.055	X_WP:	0.000	Y_WP:	0.000	Y_WP:	0.500	X:	0.014	Y:	-0.003	Z:	0.050	yaw:	3.168	yaw rate:	1.805	Roll:	0.400	Pitch:	-0.170	Yaw:	5.956	Thrust:	80.749
Time:	3.118	Roll Set Point:	-0.027	Pitch Set Point:	0.008	Yaw Set Point:	-0.056	X_WP:	0.000	Y_WP:	0.000	Y_WP:	0.500	X:	0.014	Y:	-0.003	Z:	0.050	yaw:	3.189	yaw rate:	2.073	Roll:	0.452	Pitch:	-0.138	Yaw:	6.047	Thrust:	81.565
Time:	3.129	Roll Set Point:	-0.027	Pitch Set Point:	0.008	Yaw Set Point:	-0.056	X_WP:	0.000	Y_WP:	0.000	Y_WP:	0.500	X:	0.014	Y:	-0.003	Z:	0.050	yaw:	3.205	yaw rate:	1.574	Roll:	0.487	Pitch:	-0.158	Yaw:	5.952	Thrust:	81.926
Time:	3.140	Roll Set Point:	-0.027	Pitch Set Point:	0.008	Yaw Set Point:	-0.055	X_WP:	0.000	Y_WP:	0.000	Y_WP:	0.500	X:	0.014	Y:	-0.003	Z:	0.050	yaw:	3.178	yaw rate:	-2.701	Roll:	0.471	Pitch:	-0.139	Yaw:	4.899	Thrust:	82.606
Time:	3.151	Roll Set Point:	-0.028	Pitch Set Point:	0.008	Yaw Set Point:	-0.055	X_WP:	0.000	Y_WP:	0.000	Y_WP:	0.500	X:	0.014	Y:	-0.003	Z:	0.050	yaw:	3.177	yaw rate:	-0.063	Roll:	0.484	Pitch:	-0.131	Yaw:	5.524	Thrust:	83.330
Time:	3.162	Roll Set Point:	-0.027	Pitch Set Point:	0.008	Yaw Set Point:	-0.056	X_WP:	0.000	Y_WP:	0.000	Y_WP:	0.500	X:	0.014	Y:	-0.003	Z:	0.050	yaw:	3.184	yaw rate:	0.640	Roll:	0.450	Pitch:	-0.163	Yaw:	5.699	Thrust:	83.595
Time:	3.173	Roll Set Point:	-0.028	Pitch Set Point:	0.008	Yaw Set Point:	-0.055	X_WP:	0.000	Y_WP:	0.000	Y_WP:	0.500	X:	0.014	Y:	-0.003	Z:	0.050	yaw:	3.159	yaw rate:	-2.466	Roll:	0.490	Pitch:	-0.108	Yaw:	4.928	Thrust:	84.429
Time:	3.184	Roll Set Point:	-0.027	Pitch Set Point:	0.008	Yaw Set Point:	-0.055	X_WP:	0.000	Y_WP:	0.000	Y_WP:	0.500	X:	0.014	Y:	-0.003	Z:	0.050	yaw:	3.176	yaw rate:	1.695	Roll:	0.421	Pitch:	-0.160	Yaw:	5.940	Thrust:	85.103
Time:	3.195	Roll Set Point:	-0.028	Pitch Set Point:	0.008	Yaw Set Point:	-0.056	X_WP:	0.000	Y_WP:	0.000	Y_WP:	0.500	X:	0.014	Y:	-0.003	Z:	0.050	yaw:	3.191	yaw rate:	1.473	Roll:	0.541	Pitch:	-0.139	Yaw:	5.905	Thrust:	85.289
Time:	3.206	Roll Set Point:	-0.028	Pitch Set Point:	0.008	Yaw Set Point:	-0.055	X_WP:	0.000	Y_WP:	0.000	Y_WP:	0.500	X:	0.014	Y:	-0.003	Z:	0.050	yaw:	3.172	yaw rate:	-1.876	Roll:	0.451	Pitch:	-0.139	Yaw:	5.090	Thrust:	86.366
Time:	3.217	Roll Set Point:	-0.028	Pitch Set Point:	0.008	Yaw Set Point:	-0.056	X_WP:	0.000	Y_WP:	0.000	Y_WP:	0.500	X:	0.014	Y:	-0.003	Z:	0.050	yaw:	3.184	yaw rate:	1.177	Roll:	0.490	Pitch:	-0.165	Yaw:	5.827	Thrust:	86.749
Time:	3.229	Roll Set Point:	-0.028	Pitch Set Point:	0.008	Yaw Set Point:	-0.056	X_WP:	0.000	Y_WP:	0.000	Y_WP:	0.500	X:	0.014	Y:	-0.003	Z:	0.050	yaw:	3.191	yaw rate:	0.706	Roll:	0.479	Pitch:	-0.133	Yaw:	5.725	Thrust:	87.332
Time:	3.240	Roll Set Point:	-0.028	Pitch Set Point:	0.007	Yaw Set Point:	-0.055	X_WP:	0.000	Y_WP:	0.000	Y_WP:	0.500	X:	0.014	Y:	-0.003	Z:	0.050	yaw:	3.176	yaw rate:	-1.439	Roll:	0.470	Pitch:	-0.119	Yaw:	5.201	Thrust:	88.240
Time:	3.251	Roll Set Point:	-0.027	Pitch Set Point:	0.008	Yaw Set Point:	-0.055	X_WP:	0.000	Y_WP:	0.000	Y_WP:	0.500	X:	0.014	Y:	-0.003	Z:	0.050	yaw:	3.175	yaw rate:	-0.162	Roll:	0.449	Pitch:	-0.168	Yaw:	5.523	Thrust:	89.979
Time:	3.262	Roll Set Point:	-0.027	Pitch Set Point:	0.007	Yaw Set Point:	-0.055	X_WP:	0.000	Y_WP:	0.000	Y_WP:	0.500	X:	0.014	Y:	-0.003	Z:	0.050	yaw:	3.176	yaw rate:	0.179	Roll:	0.477	Pitch:	-0.122	Yaw:	5.581	Thrust:	89.173
Time:	3.273	Roll Set Point:	-0.027	Pitch Set Point:	0.008	Yaw Set Point:	-0.056	X_WP:	0.000	Y_WP:	0.000	Y_WP:	0.500	X:	0.014	Y:	-0.003	Z:	0.050	yaw:	3.213	yaw rate:	3.613	Roll:	0.468	Pitch:	-0.172	Yaw:	6.446	Thrust:	89.727
Time:	3.284	Roll Set Point:	-0.028	Pitch Set Point:	0.008	Yaw Set Point:	-0.055	X_WP:	0.000	Y_WP:	0.000	Y_WP:	0.500	X:	0.014	Y:	-0.003	Z:	0.050	yaw:	3.168	yaw rate:	-4.421	Roll:	0.505	Pitch:	-0.125	Yaw:	4.477	Thrust:	90.292
Time:	3.295	Roll Set Point:	-0.027	Pitch Set Point:	0.008	Yaw Set Point:	-0.055	X_WP:	0.000	Y_WP:	0.000	Y_WP:	0.500	X:	0.014	Y:	-0.003	Z:	0.050	yaw:	3.168	yaw rate:	-0.041	Roll:	0.469	Pitch:	-0.170	Yaw:	5.517	Thrust:	90.927
Time:	3.306	Roll Set Point:	-0.027	Pitch Set Point:	0.008	Yaw Set Point:	-0.056	X_WP:	0.000	Y_WP:	0.000	Y_WP:	0.500	X:	0.014	Y:	-0.003	Z:	0.050	yaw:	3.195	yaw rate:	2.662	Roll:	0.471	Pitch:	-0.129	Yaw:	6.197	Thrust:	91.873
Time:	3.317	Roll Set Point:	-0.028	Pitch Set Point:	0.008	Yaw Set Point:	-0.055	X_WP:	0.000	Y_WP:	0.000	Y_WP:	0.500	X:	0.014	Y:	-0.003	Z:	0.050	yaw:	3.175	yaw rate:	-1.941	Roll:	0.518	Pitch:	-0.148	Yaw:	5.075	Thrust:	92.135
Time:	3.328	Roll Set Point:	-0.027	Pitch Set Point:	0.008	Yaw Set Point:	-0.056	X_WP:	0.000	Y_WP:	0.000	Y_WP:	0.500	X:	0.014	Y:	-0.003	Z:	0.050	yaw:	3.182	yaw rate:	0.728	Roll:	0.440	Pitch:	-0.156	Yaw:	5.719	Thrust:	92.699
Time:	3.339	Roll Set Point:	-0.028	Pitch Set Point:	0.008	Yaw Set Point:	-0.056	X_WP:	0.000	Y_WP:	0.000	Y_WP:	0.500	X:	0.014	Y:	-0.003	Z:	0.050	yaw:	3.202	yaw rate:	1.928	Roll:	0.505	Pitch:	-0.165	Yaw:	6.033	Thrust:	93.432
Time:	3.351	Roll Set Point:	-0.027	Pitch Set Point:	0.008	Yaw Set Point:	-0.055	X_WP:	0.000	Y_WP:	0.000	Y_WP:	0.500	X:	0.014	Y:	-0.003	Z:	0.050	yaw:	3.180	yaw rate:	-2.184	Roll:	0.461	Pitch:	-0.125	Yaw:	5.093	Thrust:	96.911
Time:	3.361	Roll Set Point:	-0.028	Pitch Set Point:	0.008	Yaw Set Point:	-0.056	X_WP:	0.000	Y_WP:	0.000	Y_WP:	0.500	X:	0.014	Y:	-0.003	Z:	0.050	yaw:	3.190	yaw rate:	1.042	Roll:	0.526	Pitch:	-0.150	Yaw:	5.766	Thrust:	91.318
Time:	3.373	Roll Set Point:	-0.027	Pitch Set Point:	0.008	Yaw Set Point:	-0.056	X_WP:	0.000	Y_WP:	0.000	Y_WP:	0.500	X:	0.014	Y:	-0.003	Z:	0.050	yaw:	3.183	yaw rate:	-0.746	Roll:	0.464	Pitch:	-0.144	Yaw:	5.485	Thrust:	100.000
Time:	3.384	Roll Set Point:	-0.027	Pitch Set Point:	0.008	Yaw Set Point:	-0.055	X_WP:	0.000	Y_WP:	0.000	Y_WP:	0.500	X:	0.014	Y:	-0.003	Z:	0.050	yaw:	3.173	yaw rate:	-1.015	Roll:	0.481	Pitch:	-0.144	Yaw:	5.305	Thrust:	96.460
Time:	3.395	Roll Set Point:	-0.028	Pitch Set Point:	0.008	Yaw Set Point:	-0.056	X_WP:	0.000	Y_WP:	0.000	Y_WP:	0.500	X:	0.014	Y:	-0.003	Z:	0.050	yaw:	3.184	yaw rate:	1.167	Roll:	0.502	Pitch:	-0.156	Yaw:	5.828	Thrust:	96.471
Time:	3.406	Roll Set Point:	-0.027	Pitch Set Point:	0.008	Yaw Set Point:	-0.056	X_WP:	0.000	Y_WP:	0.000	Y_WP:	0.500	X:	0.014	Y:	-0.003	Z:	0.050	yaw:	3.182	yaw rate:	-0.272	Roll:	0.477	Pitch:	-0.142	Yaw:	5.478	Thrust:	96.731
Time:	3.417	Roll Set Point:	-0.027	Pitch Set Point:	0.008	Yaw Set Point:	-0.056	X_WP:	0.000	Y_WP:	0.000	Y_WP:	0.500	X:	0.014	Y:	-0.003	Z:	0.050	yaw:	3.185	yaw rate:	0.292	Roll:	0.494	Pitch:	-0.152	Yaw:	5.619	Thrust:	97.494
Time:	3.429	Roll Set Point:	-0.028	Pitch Set Point:	0.007	Yaw Set Point:	-0.055	X_WP:	0.000	Y_WP:	0.000	Y_WP:	0.500	X:	0.014	Y:	-0.003	Z:	0.050	yaw:	3.158	yaw rate:	-2.648	Roll:	0.497	Pitch:	-0.131	Yaw:	4.965	Thrust:	100.000
Time:	3.440	Roll Set Point:	-0.028	Pitch Set Point:	0.007	Yaw Set Point:	-0.055	X_WP:	0.000	Y_WP:	0.000	Y_WP:	0.500	X:	0.014	Y:	-0.003	Z:	0.050	yaw:	3.172	yaw rate:	1.411	Roll:	0.491	Pitch:	-0.148	Yaw:	5.865	Thrust:	98.537
Time:	3.451	Roll Set Point:	-0.027	Pitch Set Point:	0.007	Yaw Set Point:	-0.055	X_WP:	0.000	Y_WP:	0.000	Y_WP:	0.500	X:	0.014	Y:	-0.003	Z:	0.050	yaw:	3.180	yaw rate:	0.768	Roll:	0.483	Pitch:	-0.150	Yaw:	5.733	Thrust:	99.927
Time:	3.462	Roll Set Point:	-0.028	Pitch Set Point:	0.008	Yaw Set Point:	-0.055	X_WP:	0.000	Y_WP:	0.000	Y_WP:	0.500	X:	0.014	Y:	-0.003	Z:	0.050	yaw:	3.166	yaw rate:	-1.429	Roll:	0.494	Pitch:	-0.177	Yaw:	5.184	Thrust:	99.790
Time:	3.473	Roll Set Point:	-0.027	Pitch Set Point:	0.007	Yaw Set Point:	-0.055	X_WP:	0.000	Y_WP:	0.000	Y_WP:	0.500	X:	0.014	Y:	-0.003	Z:	0.050	yaw:	3.153	yaw rate:	-1.289	Roll:	0.478	Pitch:	-0.113	Yaw:	5.199	Thrust:	100.000
Time:	3.484	Roll Set Point:	-0.027	Pitch Set Point:	0.008	Yaw Set Point:	-0.056	X_WP:	0.000	Y_WP:	0.000	Y_WP:	0.500	X:	0.014	Y:	-0.003	Z:	0.050	yaw:	3.190	yaw rate:	3.718	Roll:	0.493	Pitch:	-0.169	Yaw:	6.439	Thrust:	100.000
Time:	3.495	Roll Set Point:	-0.027	Pitch Set Point:	0.008	Yaw Set Point:	-0.056	X_WP:	0.000	Y_WP:	0.000	Y_WP:	0.500	X:	0.014	Y:	-0.003	Z:	0.050	yaw:	3.197	yaw rate:	0.683	Roll:	0.488	Pitch:	-0.165	Yaw:	5.728	Thrust:	100.000
Time:	3.506	Roll Set Point:	-0.028	Pitch Set Point:	0.008	Yaw Set Point:	-0.055	X_WP:	0.000	Y_WP:	0.000	Y_WP:	0.500	X:	0.014	Y:	-0.003	Z:	0.050	yaw:	3.177	yaw rate:	-1.946	Roll:	0.542	Pitch:	-0.141	Yaw:	5.077	Thrust:	100.000
Time:	3.518	Roll Set Point:	-0.027	Pitch Set Point:	0.007	Yaw Set Point:	-0.055	X_WP:	0.000	Y_WP:	0.000	Y_WP:	0.500	X:	0.014	Y:	-0.003	Z:	0.050	yaw:	3.160	yaw rate:	-1.707	Roll:	0.451	Pitch:	-0.119	Yaw:	5.144	Thrust:	100.000
Time:	3.529	Roll Set Point:	-0.028	Pitch Set Point:	0.008	Yaw Set Point:	-0.055	X_WP:	0.000	Y_WP:	0.000	Y_WP:	0.500	X:	0.014	Y:	-0.003	Z:	0.050	yaw:	3.178	yaw rate:	1.805	Roll:	0.524	Pitch:	-0.174	Yaw:	6.002	Thrust:	100.000
Time:	3.540	Roll Set Point:	-0.028	Pitch Set Point:	0.008	Yaw Set Point:	-0.056	X_WP:	0.000	Y_WP:	0.000	Y_WP:	0.500	X:	0.014	Y:	-0.003	Z:	0.050	yaw:	3.184	yaw rate:	0.558	Roll:	0.489	Pitch:	-0.161	Yaw:	5.681	Thrust:	100.000
Time:	3.551	Roll Set Point:	-0.028	Pitch Set Point:	0.008	Yaw Set Point:	-0.055	X_WP:	0.000	Y_WP:	0.000	Y_WP:	0.500	X:	0.014	Y:	-0.003	Z:	0.050	yaw:	3.172	yaw rate:	-1.175	Roll:	0.502	Pitch:	-0.150	Yaw:	5.253	Thrust:	100.000
Time:	3.563	Roll Set Point:	-0.028	Pitch Set Point:	0.008	Yaw Set Point:	-0.056	X_WP:	0.000	Y_WP:	0.000	Y_WP:	0.500	X:	0.014	Y:	-0.003	Z:	0.050	yaw:	3.181	yaw rate:	0.927	Roll:	0.494	Pitch:	-0.158	Yaw:	5.805	Thrust:	100.000
Time:	3.574	Roll Set Point:	-0.027	Pitch Set Point:	0.008	Yaw Set Point:	-0.056	X_WP:	0.000	Y_WP:	0.000	Y_WP:	0.500	X:	0.014	Y:	-0.003	Z:	0.050	yaw:	3.184	yaw rate:	0.267	Roll:	0.495	Pitch:	-0.135	Yaw:	5.621	Thrust:	100.000
Time:	3.585	Roll Set Point:	-0.028	Pitch Set Point:	0.008	Yaw Set Point:	-0.055	X_WP:	0.000	Y_WP:	0.000	Y_WP:	0.500	X:	0.014	Y:	-0.003	Z:	0.050	yaw:	3.174	yaw rate:	-1.019	Roll:	0.509	Pitch:	-0.150	Yaw:	5.292	Thrust:	100.000
Time:	3.599	Roll Set Point:	-0.028	Pitch Set Point:	0.007	Yaw Set Point:	-0.055	X_WP:	0.000	Y_WP:	0.000	Y_WP:	0.500	X:	0.014	Y:	-0.003	Z:	0.050	yaw:	3.162	yaw rate:	-1.207	Roll:	0.537	Pitch:	-0.150	Yaw:	5.593	Thrust:	100.000
Time:	3.610	Roll Set Point:	-0.027	Pitch Set Point:	0.008	Yaw Set Point:	-0.056	X_WP:	0.000	Y_WP:	0.000	Y_WP:	0.500	X:	0.014	Y:	-0.003	Z:	0.050	yaw:	3.206	yaw rate:	3.944	Roll:	0.485	Pitch:	-0.190	Yaw:	6.641	Thrust:	100.000
Time:	3.621	Roll Set Point:	-0.027	Pitch Set Point:	0.008	Yaw Set Point:	-0.055	X_WP:	0.000	Y_WP:	0.000	Y_WP:	0.500	X:	0.014	Y:	-0.003	Z:	0.050	yaw:	3.167	yaw rate:	-3.964	Roll:	0.504	Pitch:	-0.134	Yaw:	4.583	Thrust:	100.000
Time:	3.632	Roll Set Point:	-0.028	Pitch Set Point:	0.008	Yaw Set Point:	-0.055	X_WP:	0.000	Y_WP:	0.000	Y_WP:	0.500	X:	0.014	Y:	-0.003	Z:	0.050	yaw:	3.173	yaw rate:	0.619	Roll:	0.521	Pitch:	-0.148	Yaw:	5.680	Thrust:	100.000
Time:	3.643	Roll Set Point:	-0.028	Pitch Set Point:	0.008	Yaw Set Point:	-0.055	X_WP:	0.000	Y_WP:	0.000	Y_WP:	0.500	X:	0.014	Y:	-0.003	Z:	0.050	yaw:	3.179	yaw rate:	0.606	Roll:	0.486	Pitch:	-0.164	Yaw:	5.683	Thrust:	100.000
Time:	3.655	Roll Set Point:	-0.027	Pitch Set Point:	0.008	Yaw Set Point:	-0.055	X_WP:	0.000	Y_WP:	0.000	Y_WP:	0.500	X:	0.014	Y:	-0.003	Z:	0.050	yaw:	3.178	yaw rate:	-0.113	Roll:	0.483	Pitch:	-0.136	Yaw:	5.516	Thrust:	100.000
Time:	3.666	Roll Set Point:	-0.028	Pitch Set Point:	0.008	Yaw Set Point:	-0.056	X_WP:	0.000	Y_WP:	0.000	Y_WP:	0.500	X:	0.014	Y:	-0.003	Z:	0.050	yaw:	3.185	yaw rate:	0.748	Roll:	0.556	Pitch:	-0.180	Yaw:	5.726	Thrust:	100.000
Time:	3.677	Roll Set Point:	-0.027	Pitch Set Point:	0.008	Yaw Set Point:	-0.056	X_WP:	0.000	Y_WP:	0.000	Y_WP:	0.500	X:	0.014	Y:	-0.003	Z:	0.050	yaw:	3.185	yaw rate:	-0.058	Roll:	0.467	Pitch:	-0.142	Yaw:	5.538	Thrust:	100.000
Time:	3.688	Roll Set Point:	-0.028	Pitch Set Point:	0.008	Yaw Set Point:	-0.055	X_WP:	0.000	Y_WP:	0.000	Y_WP:	0.500	X:	0.014	Y:	-0.003	Z:	0.050	yaw:	3.165	yaw rate:	-1.959	Roll:	0.511	Pitch:	-0.140	Yaw:	5.057	Thrust:	100.000
Time:	3.699	Roll Set Point:	-0.027	Pitch Set Point:	0.008	Yaw Set Point:	-0.056	X_WP:	0.000	Y_WP:	0.000	Y_WP:	0.500	X:	0.014	Y:	-0.003	Z:	0.050	yaw:	3.196	yaw rate:	3.072	Roll:	0.496	Pitch:	-0.178	Yaw:	6.293	Thrust:	100.000
Time:	3.710	Roll Set Point:	-0.027	Pitch Set Point:	0.008	Yaw Set Point:	-0.056	X_WP:	0.000	Y_WP:	0.000	Y_WP:	0.500	X:	0.014	Y:	-0.003	Z:	0.050	yaw:	3.191	yaw rate:	-0.502	Roll:	0.508	Pitch:	-0.152	Yaw:	5.497	Thrust:	100.000
Time:	3.721	Roll Set Point:	-0.028	Pitch Set Point:	0.008	Yaw Set Point:	-0.055	X_WP:	0.000	Y_WP:	0.000	Y_WP:	0.500	X:	0.014	Y:	-0.003	Z:	0.050	yaw:	3.169	yaw rate:	-2.123	Roll:	0.529	Pitch:	-0.143	Yaw:	5.024	Thrust:	100.000
Time:	3.732	Roll Set Point:	-0.028	Pitch Set Point:	0.008	Yaw Set Point:	-0.055	X_WP:	0.000	Y_WP:	0.000	Y_WP:	0.500	X:	0.014	Y:	-0.003	Z:	0.050	yaw:	3.158	yaw rate:	-1.125	Roll:	0.519	Pitch:	-0.143	Yaw:	5.246	Thrust:	100.000
Time:	3.743	Roll Set Point:	-0.027	Pitch Set Point:	0.008	Yaw Set Point:	-0.056	X_WP:	0.000	Y_WP:	0.000	Y_WP:	0.500	X:	0.014	Y:	-0.003	Z:	0.050	yaw:	3.203	yaw rate:	4.430	Roll:	0.480	Pitch:	-0.195	Yaw:	6.626	Thrust:	100.000
Time:	3.754	Roll Set Point:	-0.027	Pitch Set Point:	0.008	Yaw Set Point:	-0.056	X_WP:	0.000	Y_WP:	0.000	Y_WP:	0.500	X:	0.014	Y:	-0.003	Z:	0.050	yaw:	3.183	yaw rate:	-1.937	Roll:	0.492	Pitch:	-0.120	Yaw:	5.084	Thrust:	100.000
Time:	3.765	Roll Set Point:	-0.028	Pitch Set Point:	0.008	Yaw Set Point:	-0.055	X_WP:	0.000	Y_WP:	0.000	Y_WP:	0.500	X:	0.014	Y:	-0.003	Z:	0.050	yaw:	3.179	yaw rate:	-0.461	Roll:	0.547	Pitch:	-0.173	Yaw:	5.434	Thrust:	100.000
Time:	3.776	Roll Set Point:	-0.027	Pitch Set Point:	0.008	Yaw Set Point:	-0.056	X_WP:	0.000	Y_WP:	0.000	Y_WP:	0.500	X:	0.014	Y:	-0.003	Z:	0.050	yaw:	3.185	yaw rate:	0.650	Roll:	0.481	Pitch:	-0.138	Yaw:	5.705	Thrust:	100.000
Time:	3.787	Roll Set Point:	-0.027	Pitch Set Point:	0.008	Yaw Set Point:	-0.056	X_WP:	0.000	Y_WP:	0.000	Y_WP:	0.500	X:	0.014	Y:	-0.003	Z:	0.050	yaw:	3.182	yaw rate:	-0.303	Roll:	0.523	Pitch:	-0.170	Yaw:	5.483	Thrust:	100.000
Time:	3.799	Roll Set Point:	-0.028	Pitch Set Point:	0.008	Yaw Set Point:	-0.055	X_WP:	0.000	Y_WP:	0.000	Y_WP:	0.500	X:	0.014	Y:	-0.003	Z:	0.050	yaw:	3.150	yaw rate:	-3.194	Roll:	0.557	Pitch:	-0.132	Yaw:	4.743	Thrust:	100.000
Time:	3.810	Roll Set Point:	-0.028	Pitch Set Point:	0.008	Yaw Set Point:	-0.055	X_WP:	0.000	Y_WP:	0.000	Y_WP:	0.500	X:	0.014	Y:	-0.003	Z:	0.050	yaw:	3.178	yaw rate:	2.778	Roll:	0.508	Pitch:	-0.185	Yaw:	6.200	Thrust:	100.000
Time:	3.821	Roll Set Point:	-0.027	Pitch Set Point:	0.008	Yaw Set Point:	-0.055	X_WP:	0.000	Y_WP:	0.000	Y_WP:	0.500	X:	0.014	Y:	-0.003	Z:	0.050	yaw:	3.178	yaw rate:	0.007	Roll:	0.479	Pitch:	-0.139	Yaw:	5.539	Thrust:	100.000
Time:	3.832	Roll Set Point:	-0.028	Pitch Set Point:	0.008	Yaw Set Point:	-0.056	X_WP:	0.000	Y_WP:	0.000	Y_WP:	0.500	X:	0.014	Y:	-0.003	Z:	0.050	yaw:	3.186	yaw rate:	0.782	Roll:	0.550	Pitch:	-0.151	Yaw:	5.781	Thrust:	100.000
Time:	3.844	Roll Set Point:	-0.028	Pitch Set Point:	0.008	Yaw Set Point:	-0.056	X_WP:	0.000	Y_WP:	0.000	Y_WP:	0.500	X:	0.014	Y:	-0.003	Z:	0.050	yaw:	3.192	yaw rate:	4.170	Roll:	0.506	Pitch:	-0.175	Yaw:	5.765	Thrust:	100.000
Time:	3.855	Roll Set Point:	-0.027	Pitch Set Point:	0.008	Yaw Set Point:	-0.056	X_WP:	0.000	Y_WP:	0.000	Y_WP:	0.500	X:	0.014	Y:	-0.003	Z:	0.050	yaw:	3.190	yaw rate:	-0.205	Roll:	0.495	Pitch:	-0.166	Yaw:	5.511	Thrust:	100.000
Time:	3.866	Roll Set Point:	-0.027	Pitch Set Point:	0.008	Yaw Set Point:	-0.055	X_WP:	0.000	Y_WP:	0.000	Y_WP:	0.500	X:	0.014	Y:	-0.003	Z:	0.050	yaw:	3.179	yaw rate:	-1.037	Roll:	0.526	Pitch:	-0.150	Yaw:	5.296	Thrust:	100.000
Time:	3.877	Roll Set Point:	-0.028	Pitch Set Point:	0.008	Yaw Set Point:	-0.055	X_WP:	0.000	Y_WP:	0.000	Y_WP:	0.500	X:	0.014	Y:	-0.003	Z:	0.050	yaw:	3.165	yaw rate:	-1.413	Roll:	0.539	Pitch:	-0.152	Yaw:	5.187	Thrust:	100.000
Time:	3.888	Roll Set Point:	-0.028	Pitch Set Point:	0.008	Yaw Set Point:	-0.055	X_WP:	0.000	Y_WP:	0.000	Y_WP:	0.500	X:	0.014	Y:	-0.003	Z:	0.050	yaw:	3.168	yaw rate:	0.305	Roll:	0.522	Pitch:	-0.145	Yaw:	5.599	Thrust:	100.000
Time:	3.899	Roll Set Point:	-0.028	Pitch Set Point:	0.008	Yaw Set Point:	-0.056	X_WP:	0.000	Y_WP:	0.000	Y_WP:	0.500	X:	0.014	Y:	-0.003	Z:	0.050	yaw:	3.189	yaw rate:	2.015	Roll:	0.512	Pitch:	-0.175	Yaw:	6.033	Thrust:	100.000
Time:	3.910	Roll Set Point:	-0.027	Pitch Set Point:	0.008	Yaw Set Point:	-0.056	X_WP:	0.000	Y_WP:	0.000	Y_WP:	0.500	X:	0.014	Y:	-0.003	Z:	0.050	yaw:	3.185	yaw rate:	-0.345	Roll:	0.496	Pitch:	-0.160	Yaw:	5.468	Thrust:	100.000
Time:	3.921	Roll Set Point:	-0.028	Pitch Set Point:	0.008	Yaw Set Point:	-0.055	X_WP:	0.000	Y_WP:	0.000	Y_WP:	0.500	X:	0.014	Y:	-0.003	Z:	0.050	yaw:	3.158	yaw rate:	-2.726	Roll:	0.559	Pitch:	-0.141	Yaw:	4.865	Thrust:	100.000
Time:	3.932	Roll Set Point:	-0.028	Pitch Set Point:	0.008	Yaw Set Point:	-0.056	X_WP:	0.000	Y_WP:	0.000	Y_WP:	0.500	X:	0.014	Y:	-0.003	Z:	0.050	yaw:	3.189	yaw rate:	3.161	Roll:	0.523	Pitch:	-0.168	Yaw:	6.307	Thrust:	100.000
Time:	3.943	Roll Set Point:	-0.028	Pitch Set Point:	0.008	Yaw Set Point:	-0.055	X_WP:	0.000	Y_WP:	0.000	Y_WP:	0.500	X:	0.014	Y:	-0.003	Z:	0.050	yaw:	3.172	yaw rate:	-1.781	Roll:	0.512	Pitch:	-0.142	Yaw:	5.109	Thrust:	100.000
Time:	3.954	Roll Set Point:	-0.027	Pitch Set Point:	0.008	Yaw Set Point:	-0.056	X_WP:	0.000	Y_WP:	0.000	Y_WP:	0.500	X:	0.014	Y:	-0.003	Z:	0.050	yaw:	3.203	yaw rate:	3.122	Roll:	0.489	Pitch:	-0.202	Yaw:	6.316	Thrust:	100.000
Time:	3.965	Roll Set Point:	-0.028	Pitch Set Point:	0.008	Yaw Set Point:	-0.055	X_WP:	0.000	Y_WP:	0.000	Y_WP:	0.500	X:	0.014	Y:	-0.003	Z:	0.050	yaw:	3.172	yaw rate:	-3.082	Roll:	0.558	Pitch:	-0.128	Yaw:	4.810	Thrust:	100.000
Time:	3.977	Roll Set Point:	-0.027	Pitch Set Point:	0.008	Yaw Set Point:	-0.055	X_WP:	0.000	Y_WP:	0.000	Y_WP:	0.500	X:	0.014	Y:	-0.003	Z:	0.050	yaw:	3.165	yaw rate:	-0.703	Roll:	0.519	Pitch:	-0.155	Yaw:	5.413	Thrust:	100.000
Time:	3.988	Roll Set Point:	-0.027	Pitch Set Point:	0.008	Yaw Set Point:	-0.056	X_WP:	0.000	Y_WP:	0.000	Y_WP:	0.500	X:	0.014	Y:	-0.003	Z:	0.050	yaw:	3.192	yaw rate:	2.737	Roll:	0.520	Pitch:	-0.165	Yaw:	6.232	Thrust:	100.000
Time:	3.999	Roll Set Point:	-0.027	Pitch Set Point:	0.008	Yaw Set Point:	-0.056	X_WP:	0.000	Y_WP:	0.000	Y_WP:	0.500	X:	0.014	Y:	-0.003	Z:	0.050	yaw:	3.188	yaw rate:	-0.396	Roll:	0.537	Pitch:	-0.182	Yaw:	5.465	Thrust:	100.000
Time:	4.010	Roll Set Point:	-0.027	Pitch Set Point:	0.008	Yaw Set Point:	-0.056	X_WP:	0.000	Y_WP:	0.000	Y_WP:	0.500	X:	0.014	Y:	-0.003	Z:	0.050	yaw:	3.198	yaw rate:	0.931	Roll:	0.496	Pitch:	-0.154	Yaw:	5.786	Thrust:	100.000
Time:	4.021	Roll Set Point:	-0.028	Pitch Set Point:	0.007	Yaw Set Point:	-0.055	X_WP:	0.000	Y_WP:	0.000	Y_WP:	0.500	X:	0.014	Y:	-0.003	Z:	0.050	yaw:	3.158	yaw rate:	-3.950	Roll:	0.599	Pitch:	-0.127	Yaw:	4.576	Thrust:	100.000
Time:	4.032	Roll Set Point:	-0.027	Pitch Set Point:	0.008	Yaw Set Point:	-0.055	X_WP:	0.000	Y_WP:	0.000	Y_WP:	0.500	X:	0.014	Y:	-0.003	Z:	0.050	yaw:	3.168	yaw rate:	0.994	Roll:	0.468	Pitch:	-0.184	Yaw:	5.764	Thrust:	100.000
Time:	4.043	Roll Set Point:	-0.027	Pitch Set Point:	0.008	Yaw Set Point:	-0.056	X_WP:	0.000	Y_WP:	0.000	Y_WP:	0.500	X:	0.014	Y:	-0.003	Z:	0.050	yaw:	3.202	yaw rate:	3.392	Roll:	0.539	Pitch:	-0.183	Yaw:	6.378	Thrust:	100.000
Time:	4.054	Roll Set Point:	-0.027	Pitch Set Point:	0.008	Yaw Set Point:	-0.055	X_WP:	0.000	Y_WP:	0.000	Y_WP:	0.500	X:	0.014	Y:	-0.003	Z:	0.050	yaw:	3.179	yaw rate:	-2.264	Roll:	0.519	Pitch:	-0.140	Yaw:	5.005	Thrust:	100.000
Time:	4.066	Roll Set Point:	-0.027	Pitch Set Point:	0.008	Yaw Set Point:	-0.056	X_WP:	0.000	Y_WP:	0.000	Y_WP:	0.500	X:	0.014	Y:	-0.003	Z:	0.050	yaw:	3.189	yaw rate:	0.997	Roll:	0.560	Pitch:	-0.165	Yaw:	5.832	Thrust:	100.000
Time:	4.078	Roll Set Point:	-0.028	Pitch Set Point:	0.008	Yaw Set Point:	-0.055	X_WP:	0.000	Y_WP:	0.000	Y_WP:	0.500	X:	0.014	Y:	-0.003	Z:	0.050	yaw:	3.169	yaw rate:	-2.041	Roll:	0.578	Pitch:	-0.200	Yaw:	5.184	Thrust:	100.000
Time:	4.089	Roll Set Point:	-0.027	Pitch Set Point:	0.008	Yaw Set Point:	-0.055	X_WP:	0.000	Y_WP:	0.000	Y_WP:	0.500	X:	0.014	Y:	-0.003	Z:	0.050	yaw:	3.172	yaw rate:	0.338	Roll:	0.503	Pitch:	-0.139	Yaw:	5.615	Thrust:	100.000
Time:	4.101	Roll Set Point:	-0.027	Pitch Set Point:	0.008	Yaw Set Point:	-0.056	X_WP:	0.000	Y_WP:	0.000	Y_WP:	0.500	X:	0.014	Y:	-0.003	Z:	0.050	yaw:	3.193	yaw rate:	2.076	Roll:	0.521	Pitch:	-0.163	Yaw:	6.083	Thrust:	100.000
Time:	4.112	Roll Set Point:	-0.027	Pitch Set Point:	0.008	Yaw Set Point:	-0.056	X_WP:	0.000	Y_WP:	0.000	Y_WP:	0.500	X:	0.014	Y:	-0.003	Z:	0.050	yaw:	3.198	yaw rate:	0.505	Roll:	0.533	Pitch:	-0.158	Yaw:	5.723	Thrust:	100.000
Time:	4.123	Roll Set Point:	-0.027	Pitch Set Point:	0.007	Yaw Set Point:	-0.055	X_WP:	0.000	Y_WP:	0.000	Y_WP:	0.500	X:	0.014	Y:	-0.003	Z:	0.050	yaw:	3.144	yaw rate:	-5.446	Roll:	0.566	Pitch:	-0.131	Yaw:	4.206	Thrust:	100.000
Time:	4.135	Roll Set Point:	-0.027	Pitch Set Point:	0.008	Yaw Set Point:	-0.056	X_WP:	0.000	Y_WP:	0.000	Y_WP:	0.500	X:	0.014	Y:	-0.003	Z:	0.050	yaw:	3.214	yaw rate:	6.982	Roll:	0.518	Pitch:	-0.220	Yaw:	7.225	Thrust:	100.000
Time:	4.146	Roll Set Point:	-0.027	Pitch Set Point:	0.008	Yaw Set Point:	-0.055	X_WP:	0.000	Y_WP:	0.000	Y_WP:	0.500	X:	0.014	Y:	-0.003	Z:	0.050	yaw:	3.179	yaw rate:	-3.431	Roll:	0.525	Pitch:	-0.145	Yaw:	4.727	Thrust:	100.000
Time:	4.157	Roll Set Point:	-0.027	Pitch Set Point:	0.008	Yaw Set Point:	-0.056	X_WP:	0.000	Y_WP:	0.000	Y_WP:	0.500	X:	0.014	Y:	-0.003	Z:	0.050	yaw:	3.188	yaw rate:	0.924	Roll:	0.542	Pitch:	-0.156	Yaw:	5.774	Thrust:	100.000
Time:	4.168	Roll Set Point:	-0.028	Pitch Set Point:	0.008	Yaw Set Point:	-0.056	X_WP:	0.000	Y_WP:	0.000	Y_WP:	0.500	X:	0.014	Y:	-0.003	Z:	0.050	yaw:	3.187	yaw rate:	-0.110	Roll:	0.577	Pitch:	-0.144	Yaw:	5.527	Thrust:	100.000
Time:	4.179	Roll Set Point:	-0.027	Pitch Set Point:	0.008	Yaw Set Point:	-0.055	X_WP:	0.000	Y_WP:	0.000	Y_WP:	0.500	X:	0.014	Y:	-0.003	Z:	0.050	yaw:	3.159	yaw rate:	-2.811	Roll:	0.527	Pitch:	-0.167	Yaw:	4.847	Thrust:	100.000
Time:	4.190	Roll Set Point:	-0.027	Pitch Set Point:	0.007	Yaw Set Point:	-0.055	X_WP:	0.000	Y_WP:	0.000	Y_WP:	0.500	X:	0.014	Y:	-0.003	Z:	0.050	yaw:	3.170	yaw rate:	1.082	Roll:	0.538	Pitch:	-0.148	Yaw:	5.786	Thrust:	100.000
Time:	4.201	Roll Set Point:	-0.027	Pitch Set Point:	0.008	Yaw Set Point:	-0.056	X_WP:	0.000	Y_WP:	0.000	Y_WP:	0.500	X:	0.014	Y:	-0.003	Z:	0.050	yaw:	3.184	yaw rate:	1.422	Roll:	0.518	Pitch:	-0.188	Yaw:	5.886	Thrust:	100.000
Time:	4.212	Roll Set Point:	-0.027	Pitch Set Point:	0.008	Yaw Set Point:	-0.056	X_WP:	0.000	Y_WP:	0.000	Y_WP:	0.500	X:	0.014	Y:	-0.003	Z:	0.050	yaw:	3.186	yaw rate:	0.214	Roll:	0.549	Pitch:	-0.179	Yaw:	5.603	Thrust:	100.000
Time:	4.223	Roll Set Point:	-0.027	Pitch Set Point:	0.008	Yaw Set Point:	-0.056	X_WP:	0.000	Y_WP:	0.000	Y_WP:	0.500	X:	0.014	Y:	-0.003	Z:	0.050	yaw:	3.180	yaw rate:	-0.624	Roll:	0.537	Pitch:	-0.143	Yaw:	5.395	Thrust:	100.000
Time:	4.234	Roll Set Point:	-0.027	Pitch Set Point:	0.008	Yaw Set Point:	-0.056	X_WP:	0.000	Y_WP:	0.000	Y_WP:	0.500	X:	0.014	Y:	-0.003	Z:	0.050	yaw:	3.186	yaw rate:	0.631	Roll:	0.523	Pitch:	-0.164	Yaw:	5.702	Thrust:	100.000
Time:	4.246	Roll Set Point:	-0.027	Pitch Set Point:	0.007	Yaw Set Point:	-0.055	X_WP:	0.000	Y_WP:	0.000	Y_WP:	0.500	X:	0.014	Y:	-0.003	Z:	0.050	yaw:	3.162	yaw rate:	-2.490	Roll:	0.584	Pitch:	-0.149	Yaw:	5.076	Thrust:	100.000
Time:	4.257	Roll Set Point:	-0.028	Pitch Set Point:	0.008	Yaw Set Point:	-0.055	X_WP:	0.000	Y_WP:	0.000	Y_WP:	0.500	X:	0.014	Y:	-0.003	Z:	0.050	yaw:	3.160	yaw rate:	-1.724	Roll:	0.568	Pitch:	-0.217	Yaw:	5.499	Thrust:	100.000
Time:	4.268	Roll Set Point:	-0.027	Pitch Set Point:	0.008	Yaw Set Point:	-0.055	X_WP:	0.000	Y_WP:	0.000	Y_WP:	0.500	X:	0.014	Y:	-0.003	Z:	0.050	yaw:	3.167	yaw rate:	0.728	Roll:	0.530	Pitch:	-0.143	Yaw:	5.698	Thrust:	100.000
Time:	4.279	Roll Set Point:	-0.027	Pitch Set Point:	0.008	Yaw Set Point:	-0.056	X_WP:	0.000	Y_WP:	0.000	Y_WP:	0.500	X:	0.014	Y:	-0.003	Z:	0.050	yaw:	3.183	yaw rate:	1.625	Roll:	0.498	Pitch:	-0.161	Yaw:	5.933	Thrust:	100.000
Time:	4.290	Roll Set Point:	-0.027	Pitch Set Point:	0.007	Yaw Set Point:	-0.055	X_WP:	0.000	Y_WP:	0.000	Y_WP:	0.500	X:	0.014	Y:	-0.003	Z:	0.050	yaw:	3.158	yaw rate:	-2.471	Roll:	0.588	Pitch:	-0.146	Yaw:	4.931	Thrust:	100.000
Time:	4.301	Roll Set Point:	-0.027	Pitch Set Point:	0.008	Yaw Set Point:	-0.056	X_WP:	0.000	Y_WP:	0.000	Y_WP:	0.500	X:	0.014	Y:	-0.003	Z:	0.050	yaw:	3.190	yaw rate:	3.111	Roll:	0.518	Pitch:	-0.199	Yaw:	6.294	Thrust:	100.000
Time:	4.313	Roll Set Point:	-0.028	Pitch Set Point:	0.007	Yaw Set Point:	-0.055	X_WP:	0.000	Y_WP:	0.000	Y_WP:	0.500	X:	0.014	Y:	-0.003	Z:	0.050	yaw:	3.168	yaw rate:	-2.199	Roll:	0.597	Pitch:	-0.129	Yaw:	5.047	Thrust:	100.000
Time:	4.324	Roll Set Point:	-0.027	Pitch Set Point:	0.008	Yaw Set Point:	-0.055	X_WP:	0.000	Y_WP:	0.000	Y_WP:	0.500	X:	0.014	Y:	-0.003	Z:	0.050	yaw:	3.164	yaw rate:	-0.320	Roll:	0.537	Pitch:	-0.192	Yaw:	5.500	Thrust:	100.000
Time:	4.335	Roll Set Point:	-0.027	Pitch Set Point:	0.008	Yaw Set Point:	-0.055	X_WP:	0.000	Y_WP:	0.000	Y_WP:	0.500	X:	0.014	Y:	-0.003	Z:	0.050	yaw:	3.172	yaw rate:	0.747	Roll:	0.544	Pitch:	-0.171	Yaw:	5.709	Thrust:	100.000
Time:	4.347	Roll Set Point:	-0.027	Pitch Set Point:	0.007	Yaw Set Point:	-0.056	X_WP:	0.000	Y_WP:	0.000	Y_WP:	0.500	X:	0.014	Y:	-0.003	Z:	0.050	yaw:	3.194	yaw rate:	2.258	Roll:	0.565	Pitch:	-0.157	Yaw:	6.126	Thrust:	100.000
Time:	4.358	Roll Set Point:	-0.027	Pitch Set Point:	0.007	Yaw Set Point:	-0.055	X_WP:	0.000	Y_WP:	0.000	Y_WP:	0.500	X:	0.014	Y:	-0.003	Z:	0.050	yaw:	3.154	yaw rate:	-4.042	Roll:	0.515	Pitch:	-0.158	Yaw:	4.639	Thrust:	100.000
Time:	4.370	Roll Set Point:	-0.028	Pitch Set Point:	0.008	Yaw Set Point:	-0.055	X_WP:	0.000	Y_WP:	0.000	Y_WP:	0.500	X:	0.014	Y:	-0.003	Z:	0.050	yaw:	3.175	yaw rate:	2.092	Roll:	0.611	Pitch:	-0.194	Yaw:	6.044	Thrust:	100.000
Time:	4.381	Roll Set Point:	-0.027	Pitch Set Point:	0.007	Yaw Set Point:	-0.055	X_WP:	0.000	Y_WP:	0.000	Y_WP:	0.500	X:	0.014	Y:	-0.003	Z:	0.050	yaw:	3.161	yaw rate:	-1.423	Roll:	0.526	Pitch:	-0.148	Yaw:	5.220	Thrust:	100.000
Time:	4.392	Roll Set Point:	-0.027	Pitch Set Point:	0.007	Yaw Set Point:	-0.056	X_WP:	0.000	Y_WP:	0.000	Y_WP:	0.500	X:	0.014	Y:	-0.003	Z:	0.050	yaw:	3.185	yaw rate:	2.451	Roll:	0.562	Pitch:	-0.174	Yaw:	6.132	Thrust:	100.000
Time:	4.403	Roll Set Point:	-0.027	Pitch Set Point:	0.008	Yaw Set Point:	-0.055	X_WP:	0.000	Y_WP:	0.000	Y_WP:	0.500	X:	0.014	Y:	-0.003	Z:	0.050	yaw:	3.154	yaw rate:	-3.112	Roll:	0.527	Pitch:	-0.172	Yaw:	4.768	Thrust:	100.000
Time:	4.414	Roll Set Point:	-0.027	Pitch Set Point:	0.008	Yaw Set Point:	-0.055	X_WP:	0.000	Y_WP:	0.000	Y_WP:	0.500	X:	0.014	Y:	-0.003	Z:	0.050	yaw:	3.166	yaw rate:	1.160	Roll:	0.566	Pitch:	-0.177	Yaw:	5.799	Thrust:	100.000
Time:	4.425	Roll Set Point:	-0.027	Pitch Set Point:	0.008	Yaw Set Point:	-0.056	X_WP:	0.000	Y_WP:	0.000	Y_WP:	0.500	X:	0.014	Y:	-0.003	Z:	0.050	yaw:	3.202	yaw rate:	3.650	Roll:	0.562	Pitch:	-0.159	Yaw:	6.440	Thrust:	100.000
Time:	4.437	Roll Set Point:	-0.028	Pitch Set Point:	0.008	Yaw Set Point:	-0.055	X_WP:	0.000	Y_WP:	0.000	Y_WP:	0.500	X:	0.014	Y:	-0.003	Z:	0.050	yaw:	3.173	yaw rate:	-2.944	Roll:	0.589	Pitch:	-0.189	Yaw:	4.915	Thrust:	100.000
Time:	4.448	Roll Set Point:	-0.028	Pitch Set Point:	0.008	Yaw Set Point:	-0.056	X_WP:	0.000	Y_WP:	0.000	Y_WP:	0.500	X:	0.014	Y:	-0.003	Z:	0.050	yaw:	3.180	yaw rate:	0.761	Roll:	0.554	Pitch:	-0.177	Yaw:	5.726	Thrust:	100.000
Time:	4.459	Roll Set Point:	-0.027	Pitch Set Point:	0.008	Yaw Set Point:	-0.055	X_WP:	0.000	Y_WP:	0.000	Y_WP:	0.500	X:	0.014	Y:	-0.003	Z:	0.050	yaw:	3.179	yaw rate:	-0.114	Roll:	0.545	Pitch:	-0.159	Yaw:	5.512	Thrust:	100.000
Time:	4.470	Roll Set Point:	-0.027	Pitch Set Point:	0.008	Yaw Set Point:	-0.055	X_WP:	0.000	Y_WP:	0.000	Y_WP:	0.500	X:	0.014	Y:	-0.003	Z:	0.050	yaw:	3.158	yaw rate:	-2.075	Roll:	0.534	Pitch:	-0.156	Yaw:	5.020	Thrust:	100.000
Time:	4.481	Roll Set Point:	-0.027	Pitch Set Point:	0.008	Yaw Set Point:	-0.056	X_WP:	0.000	Y_WP:	0.000	Y_WP:	0.500	X:	0.014	Y:	-0.003	Z:	0.050	yaw:	3.189	yaw rate:	3.093	Roll:	0.556	Pitch:	-0.175	Yaw:	6.308	Thrust:	100.000
Time:	4.493	Roll Set Point:	-0.027	Pitch Set Point:	0.008	Yaw Set Point:	-0.056	X_WP:	0.000	Y_WP:	0.000	Y_WP:	0.500	X:	0.014	Y:	-0.003	Z:	0.050	yaw:	3.197	yaw rate:	0.751	Roll:	0.572	Pitch:	-0.207	Yaw:	5.787	Thrust:	100.000
Time:	4.505	Roll Set Point:	-0.028	Pitch Set Point:	0.008	Yaw Set Point:	-0.056	X_WP:	0.000	Y_WP:	0.000	Y_WP:	0.500	X:	0.014	Y:	-0.003	Z:	0.050	yaw:	3.186	yaw rate:	-1.064	Roll:	0.612	Pitch:	-0.152	Yaw:	5.423	Thrust:	100.000
Time:	4.516	Roll Set Point:	-0.027	Pitch Set Point:	0.008	Yaw Set Point:	-0.056	X_WP:	0.000	Y_WP:	0.000	Y_WP:	0.500	X:	0.014	Y:	-0.003	Z:	0.050	yaw:	3.180	yaw rate:	0.309	Roll:	0.548	Pitch:	-0.179	Yaw:	5.430	Thrust:	100.000
Time:	4.528	Roll Set Point:	-0.028	Pitch Set Point:	0.008	Yaw Set Point:	-0.055	X_WP:	0.000	Y_WP:	0.000	Y_WP:	0.500	X:	0.014	Y:	-0.003	Z:	0.050	yaw:	3.171	yaw rate:	-0.905	Roll:	0.598	Pitch:	-0.156	Yaw:	5.379	Thrust:	100.000
Time:	4.539	Roll Set Point:	-0.027	Pitch Set Point:	0.008	Yaw Set Point:	-0.055	X_WP:	0.000	Y_WP:	0.000	Y_WP:	0.500	X:	0.014	Y:	-0.003	Z:	0.050	yaw:	3.161	yaw rate:	-1.046	Roll:	0.499	Pitch:	-0.179	Yaw:	5.268	Thrust:	100.000
Time:	4.550	Roll Set Point:	-0.028	Pitch Set Point:	0.008	Yaw Set Point:	-0.055	X_WP:	0.000	Y_WP:	0.000	Y_WP:	0.500	X:	0.014	Y:	-0.003	Z:	0.050	yaw:	3.180	yaw rate:	1.907	Roll:	0.611	Pitch:	-0.172	Yaw:	5.996	Thrust:	100.000
Time:	4.561	Roll Set Point:	-0.028	Pitch Set Point:	0.008	Yaw Set Point:	-0.055	X_WP:	0.000	Y_WP:	0.000	Y_WP:	0.500	X:	0.014	Y:	-0.003	Z:	0.050	yaw:	3.172	yaw rate:	-0.795	Roll:	0.576	Pitch:	-0.152	Yaw:	5.341	Thrust:	100.000
Time:	4.572	Roll Set Point:	-0.027	Pitch Set Point:	0.008	Yaw Set Point:	-0.055	X_WP:	0.000	Y_WP:	0.000	Y_WP:	0.500	X:	0.014	Y:	-0.003	Z:	0.050	yaw:	3.169	yaw rate:	-0.240	Roll:	0.547	Pitch:	-0.186	Yaw:	5.471	Thrust:	100.000
Time:	4.583	Roll Set Point:	-0.028	Pitch Set Point:	0.008	Yaw Set Point:	-0.055	X_WP:	0.000	Y_WP:	0.000	Y_WP:	0.500	X:	0.014	Y:	-0.003	Z:	0.050	yaw:	3.143	yaw rate:	-2.627	Roll:	0.574	Pitch:	-0.173	Yaw:	4.868	Thrust:	100.000
Time:	4.594	Roll Set Point:	-0.028	Pitch Set Point:	0.008	Yaw Set Point:	-0.055	X_WP:	0.000	Y_WP:	0.000	Y_WP:	0.500	X:	0.014	Y:	-0.003	Z:	0.050	yaw:	3.167	yaw rate:	2.378	Roll:	0.574	Pitch:	-0.172	Yaw:	6.089	Thrust:	100.000
Time:	4.606	Roll Set Point:	-0.027	Pitch Set Point:	0.008	Yaw Set Point:	-0.056	X_WP:	0.000	Y_WP:	0.000	Y_WP:	0.500	X:	0.014	Y:	-0.003	Z:	0.050	yaw:	3.188	yaw rate:	2.093	Roll:	0.569	Pitch:	-0.188	Yaw:	6.108	Thrust:	100.000
Time:	4.617	Roll Set Point:	-0.027	Pitch Set Point:	0.008	Yaw Set Point:	-0.056	X_WP:	0.000	Y_WP:	0.000	Y_WP:	0.500	X:	0.014	Y:	-0.003	Z:	0.050	yaw:	3.182	yaw rate:	-0.623	Roll:	0.537	Pitch:	-0.172	Yaw:	5.401	Thrust:	100.000
Time:	4.628	Roll Set Point:	-0.027	Pitch Set Point:	0.008	Yaw Set Point:	-0.056	X_WP:	0.000	Y_WP:	0.000	Y_WP:	0.500	X:	0.014	Y:	-0.003	Z:	0.050	yaw:	3.192	yaw rate:	0.987	Roll:	0.592	Pitch:	-0.179	Yaw:	5.797	Thrust:	100.000
Time:	4.639	Roll Set Point:	-0.027	Pitch Set Point:	0.008	Yaw Set Point:	-0.057	X_WP:	0.000	Y_WP:	0.000	Y_WP:	0.500	X:	0.014	Y:	-0.003	Z:	0.050	yaw:	3.272	yaw rate:	8.069	Roll:	0.466	Pitch:	-0.160	Yaw:	7.587	Thrust:	100.000
Time:	4.650	Roll Set Point:	-0.027	Pitch Set Point:	0.008	Yaw Set Point:	-0.056	X_WP:	0.000	Y_WP:	0.000	Y_WP:	0.500	X:	0.014	Y:	-0.003	Z:	0.050	yaw:	3.186	yaw rate:	-8.631	Roll:	0.650	Pitch:	-0.180	Yaw:	3.503	Thrust:	100.000
Time:	4.661	Roll Set Point:	-0.028	Pitch Set Point:	0.008	Yaw Set Point:	-0.055	X_WP:	0.000	Y_WP:	0.000	Y_WP:	0.500	X:	0.014	Y:	-0.003	Z:	0.050	yaw:	3.175	yaw rate:	-1.048	Roll:	0.619	Pitch:	-0.170	Yaw:	5.288	Thrust:	100.000
Time:	4.672	Roll Set Point:	-0.027	Pitch Set Point:	0.008	Yaw Set Point:	-0.055	X_WP:	0.000	Y_WP:	0.000	Y_WP:	0.500	X:	0.014	Y:	-0.003	Z:	0.050	yaw:	3.175	yaw rate:	-0.060	Roll:	0.543	Pitch:	-0.185	Yaw:	5.522	Thrust:	100.000
Time:	4.683	Roll Set Point:	-0.027	Pitch Set Point:	0.008	Yaw Set Point:	-0.055	X_WP:	0.000	Y_WP:	0.000	Y_WP:	0.500	X:	0.014	Y:	-0.003	Z:	0.050	yaw:	3.165	yaw rate:	-0.973	Roll:	0.572	Pitch:	-0.149	Yaw:	5.291	Thrust:	100.000
Time:	4.694	Roll Set Point:	-0.028	Pitch Set Point:	0.008	Yaw Set Point:	-0.056	X_WP:	0.000	Y_WP:	0.000	Y_WP:	0.500	X:	0.014	Y:	-0.003	Z:	0.050	yaw:	3.189	yaw rate:	2.391	Roll:	0.614	Pitch:	-0.189	Yaw:	6.124	Thrust:	100.000
Time:	4.705	Roll Set Point:	-0.027	Pitch Set Point:	0.008	Yaw Set Point:	-0.056	X_WP:	0.000	Y_WP:	0.000	Y_WP:	0.500	X:	0.014	Y:	-0.003	Z:	0.050	yaw:	3.184	yaw rate:	-0.475	Roll:	0.498	Pitch:	-0.175	Yaw:	5.436	Thrust:	100.000
Time:	4.716	Roll Set Point:	-0.027	Pitch Set Point:	0.008	Yaw Set Point:	-0.055	X_WP:	0.000	Y_WP:	0.000	Y_WP:	0.500	X:	0.014	Y:	-0.003	Z:	0.050	yaw:	3.177	yaw rate:	-0.677	Roll:	0.611	Pitch:	-0.170	Yaw:	5.379	Thrust:	100.000
Time:	4.727	Roll Set Point:	-0.027	Pitch Set Point:	0.008	Yaw Set Point:	-0.056	X_WP:	0.000	Y_WP:	0.000	Y_WP:	0.500	X:	0.014	Y:	-0.003	Z:	0.050	yaw:	3.219	yaw rate:	4.188	Roll:	0.569	Pitch:	-0.195	Yaw:	6.592	Thrust:	100.000
Time:	4.738	Roll Set Point:	-0.028	Pitch Set Point:	0.008	Yaw Set Point:	-0.055	X_WP:	0.000	Y_WP:	0.000	Y_WP:	0.500	X:	0.014	Y:	-0.003	Z:	0.050	yaw:	3.176	yaw rate:	-4.308	Roll:	0.619	Pitch:	-0.160	Yaw:	4.520	Thrust:	100.000
Time:	4.749	Roll Set Point:	-0.027	Pitch Set Point:	0.008	Yaw Set Point:	-0.056	X_WP:	0.000	Y_WP:	0.000	Y_WP:	0.500	X:	0.014	Y:	-0.003	Z:	0.050	yaw:	3.180	yaw rate:	0.412	Roll:	0.530	Pitch:	-0.165	Yaw:	5.639	Thrust:	100.000
Time:	4.760	Roll Set Point:	-0.027	Pitch Set Point:	0.008	Yaw Set Point:	-0.056	X_WP:	0.000	Y_WP:	0.000	Y_WP:	0.500	X:	0.014	Y:	-0.003	Z:	0.050	yaw:	3.201	yaw rate:	2.063	Roll:	0.528	Pitch:	-0.202	Yaw:	6.062	Thrust:	100.000
Time:	4.771	Roll Set Point:	-0.027	Pitch Set Point:	0.008	Yaw Set Point:	-0.056	X_WP:	0.000	Y_WP:	0.000	Y_WP:	0.500	X:	0.014	Y:	-0.003	Z:	0.050	yaw:	3.181	yaw rate:	-1.992	Roll:	0.648	Pitch:	-0.166	Yaw:	5.081	Thrust:	100.000
Time:	4.782	Roll Set Point:	-0.028	Pitch Set Point:	0.008	Yaw Set Point:	-0.055	X_WP:	0.000	Y_WP:	0.000	Y_WP:	0.500	X:	0.014	Y:	-0.003	Z:	0.050	yaw:	3.159	yaw rate:	-2.235	Roll:	0.600	Pitch:	-0.153	Yaw:	4.985	Thrust:	100.000
Time:	4.793	Roll Set Point:	-0.027	Pitch Set Point:	0.008	Yaw Set Point:	-0.056	X_WP:	0.000	Y_WP:	0.000	Y_WP:	0.500	X:	0.014	Y:	-0.003	Z:	0.050	yaw:	3.192	yaw rate:	3.295	Roll:	0.539	Pitch:	-0.199	Yaw:	6.341	Thrust:	100.000
Time:	4.804	Roll Set Point:	-0.027	Pitch Set Point:	0.008	Yaw Set Point:	-0.056	X_WP:	0.000	Y_WP:	0.000	Y_WP:	0.500	X:	0.014	Y:	-0.003	Z:	0.050	yaw:	3.212	yaw rate:	2.060	Roll:	0.600	Pitch:	-0.193	Yaw:	6.077	Thrust:	100.000
Time:	4.815	Roll Set Point:	-0.027	Pitch Set Point:	0.008	Yaw Set Point:	-0.055	X_WP:	0.000	Y_WP:	0.000	Y_WP:	0.500	X:	0.014	Y:	-0.003	Z:	0.050	yaw:	3.158	yaw rate:	-5.423	Roll:	0.573	Pitch:	-0.139	Yaw:	4.228	Thrust:	100.000
Time:	4.827	Roll Set Point:	-0.027	Pitch Set Point:	0.008	Yaw Set Point:	-0.056	X_WP:	0.000	Y_WP:	0.000	Y_WP:	0.500	X:	0.014	Y:	-0.003	Z:	0.050	yaw:	3.185	yaw rate:	2.687	Roll:	0.545	Pitch:	-0.179	Yaw:	6.188	Thrust:	100.000
Time:	4.838	Roll Set Point:	-0.027	Pitch Set Point:	0.008	Yaw Set Point:	-0.056	X_WP:	0.000	Y_WP:	0.000	Y_WP:	0.500	X:	0.014	Y:	-0.003	Z:	0.050	yaw:	3.189	yaw rate:	0.408	Roll:	0.623	Pitch:	-0.187	Yaw:	5.653	Thrust:	100.000
Time:	4.849	Roll Set Point:	-0.027	Pitch Set Point:	0.008	Yaw Set Point:	-0.055	X_WP:	0.000	Y_WP:	0.000	Y_WP:	0.500	X:	0.014	Y:	-0.003	Z:	0.050	yaw:	3.171	yaw rate:	-1.818	Roll:	0.562	Pitch:	-0.179	Yaw:	5.099	Thrust:	100.000
Time:	4.860	Roll Set Point:	-0.027	Pitch Set Point:	0.008	Yaw Set Point:	-0.056	X_WP:	0.000	Y_WP:	0.000	Y_WP:	0.500	X:	0.014	Y:	-0.003	Z:	0.050	yaw:	3.193	yaw rate:	2.248	Roll:	0.588	Pitch:	-0.201	Yaw:	6.095	Thrust:	100.000
Time:	4.871	Roll Set Point:	-0.027	Pitch Set Point:	0.008	Yaw Set Point:	-0.055	X_WP:	0.000	Y_WP:	0.000	Y_WP:	0.500	X:	0.014	Y:	-0.003	Z:	0.050	yaw:	3.176	yaw rate:	-1.744	Roll:	0.602	Pitch:	-0.130	Yaw:	5.123	Thrust:	100.000
Time:	4.882	Roll Set Point:	-0.027	Pitch Set Point:	0.008	Yaw Set Point:	-0.056	X_WP:	0.000	Y_WP:	0.000	Y_WP:	0.500	X:	0.014	Y:	-0.003	Z:	0.050	yaw:	3.192	yaw rate:	1.587	Roll:	0.586	Pitch:	-0.210	Yaw:	5.936	Thrust:	100.000
Time:	4.893	Roll Set Point:	-0.027	Pitch Set Point:	0.008	Yaw Set Point:	-0.055	X_WP:	0.000	Y_WP:	0.000	Y_WP:	0.500	X:	0.014	Y:	-0.003	Z:	0.050	yaw:	3.158	yaw rate:	-3.406	Roll:	0.582	Pitch:	-0.161	Yaw:	4.703	Thrust:	100.000
Time:	4.904	Roll Set Point:	-0.027	Pitch Set Point:	0.008	Yaw Set Point:	-0.055	X_WP:	0.000	Y_WP:	0.000	Y_WP:	0.500	X:	0.014	Y:	-0.003	Z:	0.050	yaw:	3.168	yaw rate:	0.994	Roll:	0.602	Pitch:	-0.199	Yaw:	5.762	Thrust:	100.000
Time:	4.915	Roll Set Point:	-0.027	Pitch Set Point:	0.008	Yaw Set Point:	-0.056	X_WP:	0.000	Y_WP:	0.000	Y_WP:	0.500	X:	0.014	Y:	-0.003	Z:	0.050	yaw:	3.186	yaw rate:	1.805	Roll:	0.569	Pitch:	-0.176	Yaw:	5.979	Thrust:	100.000
Time:	4.926	Roll Set Point:	-0.028	Pitch Set Point:	0.008	Yaw Set Point:	-0.056	X_WP:	0.000	Y_WP:	0.000	Y_WP:	0.500	X:	0.014	Y:	-0.003	Z:	0.050	yaw:	3.183	yaw rate:	-0.287	Roll:	0.619	Pitch:	-0.180	Yaw:	5.479	Thrust:	100.000
Time:	4.938	Roll Set Point:	-0.027	Pitch Set Point:	0.008	Yaw Set Point:	-0.056	X_WP:	0.000	Y_WP:	0.000	Y_WP:	0.500	X:	0.014	Y:	-0.003	Z:	0.050	yaw:	3.187	yaw rate:	0.458	Roll:	0.578	Pitch:	-0.166	Yaw:	5.751	Thrust:	100.000
Time:	4.950	Roll Set Point:	-0.028	Pitch Set Point:	0.008	Yaw Set Point:	-0.055	X_WP:	0.000	Y_WP:	0.000	Y_WP:	0.500	X:	0.014	Y:	-0.003	Z:	0.050	yaw:	3.158	yaw rate:	-2.946	Roll:	0.661	Pitch:	-0.171	Yaw:	4.813	Thrust:	100.000
Time:	4.961	Roll Set Point:	-0.027	Pitch Set Point:	0.008	Yaw Set Point:	-0.055	X_WP:	0.000	Y_WP:	0.000	Y_WP:	0.500	X:	0.014	Y:	-0.003	Z:	0.050	yaw:	3.169	yaw rate:	1.080	Roll:	0.546	Pitch:	-0.197	Yaw:	5.864	Thrust:	100.000
Time:	4.972	Roll Set Point:	-0.028	Pitch Set Point:	0.008	Yaw Set Point:	-0.056	X_WP:	0.000	Y_WP:	0.000	Y_WP:	0.500	X:	0.014	Y:	-0.003	Z:	0.050	yaw:	3.184	yaw rate:	1.537	Roll:	0.660	Pitch:	-0.213	Yaw:	5.919	Thrust:	100.000
Time:	4.983	Roll Set Point:	-0.027	Pitch Set Point:	0.008	Yaw Set Point:	-0.056	X_WP:	0.000	Y_WP:	0.000	Y_WP:	0.500	X:	0.014	Y:	-0.003	Z:	0.050	yaw:	3.183	yaw rate:	-0.157	Roll:	0.512	Pitch:	-0.178	Yaw:	5.499	Thrust:	100.000
Time:	4.994	Roll Set Point:	-0.028	Pitch Set Point:	0.008	Yaw Set Point:	-0.055	X_WP:	0.000	Y_WP:	0.000	Y_WP:	0.500	X:	0.014	Y:	-0.003	Z:	0.050	yaw:	3.178	yaw rate:	-0.441	Roll:	0.633	Pitch:	-0.144	Yaw:	5.433	Thrust:	100.000
Time:	5.005	Roll Set Point:	-0.028	Pitch Set Point:	0.008	Yaw Set Point:	-0.056	X_WP:	0.000	Y_WP:	0.000	Y_WP:	0.500	X:	0.014	Y:	-0.003	Z:	0.050	yaw:	3.210	yaw rate:	3.150	Roll:	0.588	Pitch:	-0.202	Yaw:	6.332	Thrust:	100.000
Time:	5.016	Roll Set Point:	-0.027	Pitch Set Point:	0.008	Yaw Set Point:	-0.056	X_WP:	0.000	Y_WP:	0.000	Y_WP:	0.500	X:	0.014	Y:	-0.003	Z:	0.050	yaw:	3.205	yaw rate:	-0.441	Roll:	0.562	Pitch:	-0.186	Yaw:	5.476	Thrust:	100.000
Time:	5.027	Roll Set Point:	-0.027	Pitch Set Point:	0.008	Yaw Set Point:	-0.056	X_WP:	0.000	Y_WP:	0.000	Y_WP:	0.500	X:	0.014	Y:	-0.003	Z:	0.050	yaw:	3.184	yaw rate:	-2.122	Roll:	0.612	Pitch:	-0.168	Yaw:	5.046	Thrust:	100.000
