Time:	2.173	Roll Set Point:	-0.012	Pitch Set Point:	-0.038	Yaw Set Point:	-0.029	X_WP:	0.000	Y_WP:	0.000	Y_WP:	0.500	X:	0.006	Y:	0.019	Z:	0.049	yaw:	1.643	yaw rate:	2.375	Roll:	0.181	Pitch:	0.541	Yaw:	2.293	Thrust:	24.815
Time:	2.199	Roll Set Point:	-0.012	Pitch Set Point:	-0.038	Yaw Set Point:	-0.028	X_WP:	0.000	Y_WP:	0.000	Y_WP:	0.500	X:	0.006	Y:	0.019	Z:	0.049	yaw:	1.630	yaw rate:	-1.302	Roll:	0.186	Pitch:	0.546	Yaw:	2.159	Thrust:	26.307
Time:	2.233	Roll Set Point:	-0.012	Pitch Set Point:	-0.038	Yaw Set Point:	-0.029	X_WP:	0.000	Y_WP:	0.000	Y_WP:	0.500	X:	0.006	Y:	0.019	Z:	0.049	yaw:	1.640	yaw rate:	1.057	Roll:	0.207	Pitch:	0.557	Yaw:	2.410	Thrust:	28.485
Time:	2.248	Roll Set Point:	-0.012	Pitch Set Point:	-0.038	Yaw Set Point:	-0.029	X_WP:	0.000	Y_WP:	0.000	Y_WP:	0.500	X:	0.006	Y:	0.019	Z:	0.049	yaw:	1.641	yaw rate:	0.749	Roll:	0.134	Pitch:	0.522	Yaw:	2.325	Thrust:	27.294
Time:	2.264	Roll Set Point:	-0.012	Pitch Set Point:	-0.038	Yaw Set Point:	-0.029	X_WP:	0.000	Y_WP:	0.000	Y_WP:	0.500	X:	0.006	Y:	0.019	Z:	0.049	yaw:	1.636	yaw rate:	-0.448	Roll:	0.188	Pitch:	0.563	Yaw:	2.248	Thrust:	28.061
Time:	2.288	Roll Set Point:	-0.012	Pitch Set Point:	-0.038	Yaw Set Point:	-0.028	X_WP:	0.000	Y_WP:	0.000	Y_WP:	0.500	X:	0.006	Y:	0.019	Z:	0.049	yaw:	1.631	yaw rate:	-0.509	Roll:	0.177	Pitch:	0.536	Yaw:	2.291	Thrust:	31.604
Time:	2.343	Roll Set Point:	-0.012	Pitch Set Point:	-0.038	Yaw Set Point:	-0.029	X_WP:	0.000	Y_WP:	0.000	Y_WP:	0.500	X:	0.006	Y:	0.019	Z:	0.049	yaw:	1.648	yaw rate:	1.736	Roll:	0.188	Pitch:	0.555	Yaw:	2.573	Thrust:	42.727
Time:	2.363	Roll Set Point:	-0.012	Pitch Set Point:	-0.038	Yaw Set Point:	-0.028	X_WP:	0.000	Y_WP:	0.000	Y_WP:	0.500	X:	0.006	Y:	0.019	Z:	0.049	yaw:	1.620	yaw rate:	-2.876	Roll:	0.208	Pitch:	0.566	Yaw:	1.966	Thrust:	32.408
Time:	2.407	Roll Set Point:	-0.012	Pitch Set Point:	-0.037	Yaw Set Point:	-0.027	X_WP:	0.000	Y_WP:	0.000	Y_WP:	0.500	X:	0.006	Y:	0.019	Z:	0.049	yaw:	1.542	yaw rate:	-7.804	Roll:	0.150	Pitch:	0.519	Yaw:	1.891	Thrust:	43.909
Time:	2.439	Roll Set Point:	-0.012	Pitch Set Point:	-0.037	Yaw Set Point:	-0.028	X_WP:	0.000	Y_WP:	0.000	Y_WP:	0.500	X:	0.006	Y:	0.019	Z:	0.049	yaw:	1.588	yaw rate:	4.660	Roll:	0.191	Pitch:	0.550	Yaw:	2.762	Thrust:	40.482
Time:	2.455	Roll Set Point:	-0.012	Pitch Set Point:	-0.037	Yaw Set Point:	-0.029	X_WP:	0.000	Y_WP:	0.000	Y_WP:	0.500	X:	0.006	Y:	0.019	Z:	0.049	yaw:	1.656	yaw rate:	6.752	Roll:	0.245	Pitch:	0.621	Yaw:	3.651	Thrust:	32.422
Time:	2.473	Roll Set Point:	-0.012	Pitch Set Point:	-0.037	Yaw Set Point:	-0.028	X_WP:	0.000	Y_WP:	0.000	Y_WP:	0.500	X:	0.006	Y:	0.019	Z:	0.049	yaw:	1.595	yaw rate:	-6.049	Roll:	0.194	Pitch:	0.405	Yaw:	1.462	Thrust:	35.687
Time:	2.575	Roll Set Point:	-0.012	Pitch Set Point:	-0.037	Yaw Set Point:	-0.030	X_WP:	0.000	Y_WP:	0.000	Y_WP:	0.500	X:	0.006	Y:	0.019	Z:	0.049	yaw:	1.724	yaw rate:	12.851	Roll:	0.218	Pitch:	0.609	Yaw:	3.434	Thrust:	91.887
Time:	2.607	Roll Set Point:	-0.013	Pitch Set Point:	-0.037	Yaw Set Point:	-0.031	X_WP:	0.000	Y_WP:	0.000	Y_WP:	0.500	X:	0.006	Y:	0.019	Z:	0.049	yaw:	1.759	yaw rate:	32.503	Roll:	0.335	Pitch:	0.433	Yaw:	2.982	Thrust:	47.363
Time:	2.621	Roll Set Point:	-0.013	Pitch Set Point:	-0.037	Yaw Set Point:	-0.030	X_WP:	0.000	Y_WP:	0.000	Y_WP:	0.500	X:	0.006	Y:	0.019	Z:	0.049	yaw:	1.708	yaw rate:	-5.121	Roll:	0.226	Pitch:	0.542	Yaw:	1.541	Thrust:	35.438
Time:	2.647	Roll Set Point:	-0.013	Pitch Set Point:	-0.037	Yaw Set Point:	-0.030	X_WP:	0.000	Y_WP:	0.000	Y_WP:	0.500	X:	0.006	Y:	0.019	Z:	0.049	yaw:	1.708	yaw rate:	-5.121	Roll:	0.199	Pitch:	0.551	Yaw:	2.609	Thrust:	45.984
Time:	2.667	Roll Set Point:	-0.013	Pitch Set Point:	-0.037	Yaw Set Point:	-0.027	X_WP:	0.000	Y_WP:	0.000	Y_WP:	0.500	X:	0.006	Y:	0.018	Z:	0.049	yaw:	1.550	yaw rate:	-15.786	Roll:	0.179	Pitch:	0.422	Yaw:	0.288	Thrust:	42.179
Time:	2.692	Roll Set Point:	-0.013	Pitch Set Point:	-0.037	Yaw Set Point:	-0.032	X_WP:	0.000	Y_WP:	0.000	Y_WP:	0.500	X:	0.006	Y:	0.018	Z:	0.049	yaw:	1.856	yaw rate:	-0.027	Roll:	0.433	Pitch:	0.503	Yaw:	6.032	Thrust:	47.824
Time:	2.723	Roll Set Point:	-0.013	Pitch Set Point:	-0.037	Yaw Set Point:	-0.032	X_WP:	0.000	Y_WP:	0.000	Y_WP:	0.500	X:	0.006	Y:	0.018	Z:	0.049	yaw:	1.856	yaw rate:	-0.027	Roll:	0.211	Pitch:	0.552	Yaw:	2.915	Thrust:	54.125
Time:	2.755	Roll Set Point:	-0.014	Pitch Set Point:	-0.037	Yaw Set Point:	-0.038	X_WP:	0.000	Y_WP:	0.000	Y_WP:	0.500	X:	0.007	Y:	0.018	Z:	0.049	yaw:	2.178	yaw rate:	32.236	Roll:	0.452	Pitch:	0.580	Yaw:	6.027	Thrust:	58.721
Time:	2.781	Roll Set Point:	-0.014	Pitch Set Point:	-0.036	Yaw Set Point:	-0.037	X_WP:	0.000	Y_WP:	0.000	Y_WP:	0.500	X:	0.007	Y:	0.018	Z:	0.049	yaw:	2.093	yaw rate:	-8.500	Roll:	0.256	Pitch:	0.390	Yaw:	2.377	Thrust:	53.105
Time:	2.802	Roll Set Point:	-0.015	Pitch Set Point:	-0.036	Yaw Set Point:	-0.043	X_WP:	0.000	Y_WP:	0.000	Y_WP:	0.500	X:	0.007	Y:	0.018	Z:	0.049	yaw:	2.442	yaw rate:	34.883	Roll:	0.633	Pitch:	0.481	Yaw:	8.011	Thrust:	48.874
Time:	2.827	Roll Set Point:	-0.015	Pitch Set Point:	-0.036	Yaw Set Point:	-0.038	X_WP:	0.000	Y_WP:	0.000	Y_WP:	0.500	X:	0.007	Y:	0.018	Z:	0.049	yaw:	2.176	yaw rate:	-26.583	Roll:	0.296	Pitch:	0.373	Yaw:	0.469	Thrust:	52.239
Time:	2.853	Roll Set Point:	-0.016	Pitch Set Point:	-0.035	Yaw Set Point:	-0.029	X_WP:	0.000	Y_WP:	0.000	Y_WP:	0.500	X:	0.008	Y:	0.018	Z:	0.049	yaw:	1.655	yaw rate:	-52.097	Roll:	0.398	Pitch:	0.383	Yaw:	-2.552	Thrust:	58.526
Time:	2.878	Roll Set Point:	-0.017	Pitch Set Point:	-0.034	Yaw Set Point:	-0.029	X_WP:	0.000	Y_WP:	0.000	Y_WP:	0.500	X:	0.008	Y:	0.017	Z:	0.049	yaw:	1.658	yaw rate:	13.216	Roll:	0.477	Pitch:	0.054	Yaw:	2.706	Thrust:	57.135
Time:	2.892	Roll Set Point:	-0.018	Pitch Set Point:	-0.032	Yaw Set Point:	-0.012	X_WP:	0.000	Y_WP:	0.000	Y_WP:	0.500	X:	0.009	Y:	0.016	Z:	0.049	yaw:	0.710	yaw rate:	-94.746	Roll:	0.832	Pitch:	-0.373	Yaw:	-16.455	Thrust:	42.601
Time:	2.914	Roll Set Point:	-0.018	Pitch Set Point:	-0.032	Yaw Set Point:	-0.012	X_WP:	0.000	Y_WP:	0.000	Y_WP:	0.500	X:	0.009	Y:	0.016	Z:	0.049	yaw:	0.710	yaw rate:	-94.746	Roll:	0.271	Pitch:	0.490	Yaw:	1.319	Thrust:	54.409
Time:	2.951	Roll Set Point:	-0.018	Pitch Set Point:	-0.032	Yaw Set Point:	0.003	X_WP:	0.000	Y_WP:	0.000	Y_WP:	0.500	X:	0.009	Y:	0.016	Z:	0.050	yaw:	-0.180	yaw rate:	-88.970	Roll:	0.239	Pitch:	0.379	Yaw:	-5.762	Thrust:	79.913
Time:	2.974	Roll Set Point:	-0.019	Pitch Set Point:	-0.030	Yaw Set Point:	-0.002	X_WP:	0.000	Y_WP:	0.000	Y_WP:	0.500	X:	0.010	Y:	0.015	Z:	0.050	yaw:	0.129	yaw rate:	30.883	Roll:	0.883	Pitch:	-0.255	Yaw:	4.049	Thrust:	59.490
Time:	2.993	Roll Set Point:	-0.024	Pitch Set Point:	-0.025	Yaw Set Point:	0.018	X_WP:	0.000	Y_WP:	0.000	Y_WP:	0.500	X:	0.012	Y:	0.012	Z:	0.051	yaw:	-1.035	yaw rate:	-42.073	Roll:	2.259	Pitch:	-1.734	Yaw:	-17.142	Thrust:	52.500
Time:	3.010	Roll Set Point:	-0.024	Pitch Set Point:	-0.025	Yaw Set Point:	0.018	X_WP:	0.000	Y_WP:	0.000	Y_WP:	0.500	X:	0.012	Y:	0.012	Z:	0.051	yaw:	-1.035	yaw rate:	-42.073	Roll:	0.356	Pitch:	0.382	Yaw:	-1.182	Thrust:	52.375
Time:	3.046	Roll Set Point:	-0.030	Pitch Set Point:	-0.017	Yaw Set Point:	0.023	X_WP:	0.000	Y_WP:	0.000	Y_WP:	0.500	X:	0.015	Y:	0.008	Z:	0.053	yaw:	-1.291	yaw rate:	19.290	Roll:	1.747	Pitch:	-1.394	Yaw:	-3.120	Thrust:	82.045
Time:	3.074	Roll Set Point:	-0.030	Pitch Set Point:	-0.017	Yaw Set Point:	0.023	X_WP:	0.000	Y_WP:	0.000	Y_WP:	0.500	X:	0.015	Y:	0.008	Z:	0.053	yaw:	-1.291	yaw rate:	19.290	Roll:	0.443	Pitch:	0.294	Yaw:	-1.393	Thrust:	73.164
Time:	3.106	Roll Set Point:	-0.034	Pitch Set Point:	-0.010	Yaw Set Point:	0.021	X_WP:	0.000	Y_WP:	0.000	Y_WP:	0.500	X:	0.017	Y:	0.005	Z:	0.056	yaw:	-1.208	yaw rate:	8.372	Roll:	1.791	Pitch:	-1.587	Yaw:	-0.549	Thrust:	77.853
Time:	3.149	Roll Set Point:	-0.038	Pitch Set Point:	-0.003	Yaw Set Point:	0.020	X_WP:	0.000	Y_WP:	0.000	Y_WP:	0.500	X:	0.019	Y:	0.001	Z:	0.058	yaw:	-1.169	yaw rate:	3.872	Roll:	1.251	Pitch:	-1.411	Yaw:	-0.805	Thrust:	100.000
Time:	3.166	Roll Set Point:	-0.042	Pitch Set Point:	0.008	Yaw Set Point:	0.025	X_WP:	0.000	Y_WP:	0.000	Y_WP:	0.500	X:	0.021	Y:	-0.004	Z:	0.061	yaw:	-1.444	yaw rate:	-27.481	Roll:	3.213	Pitch:	-5.579	Yaw:	-6.287	Thrust:	46.387
Time:	3.181	Roll Set Point:	-0.047	Pitch Set Point:	0.020	Yaw Set Point:	0.018	X_WP:	0.000	Y_WP:	0.000	Y_WP:	0.500	X:	0.024	Y:	-0.010	Z:	0.064	yaw:	-1.043	yaw rate:	-0.435	Roll:	3.522	Pitch:	-7.068	Yaw:	5.287	Thrust:	47.525
Time:	3.208	Roll Set Point:	-0.047	Pitch Set Point:	0.020	Yaw Set Point:	0.018	X_WP:	0.000	Y_WP:	0.000	Y_WP:	0.500	X:	0.024	Y:	-0.010	Z:	0.064	yaw:	-1.043	yaw rate:	-0.435	Roll:	0.710	Pitch:	-0.244	Yaw:	-1.132	Thrust:	76.015
Time:	3.225	Roll Set Point:	-0.051	Pitch Set Point:	0.032	Yaw Set Point:	0.019	X_WP:	0.000	Y_WP:	0.000	Y_WP:	0.500	X:	0.026	Y:	-0.016	Z:	0.066	yaw:	-1.092	yaw rate:	-4.882	Roll:	2.806	Pitch:	-6.132	Yaw:	-2.068	Thrust:	52.622
Time:	3.261	Roll Set Point:	-0.054	Pitch Set Point:	0.038	Yaw Set Point:	0.015	X_WP:	0.000	Y_WP:	0.000	Y_WP:	0.500	X:	0.027	Y:	-0.019	Z:	0.067	yaw:	-0.877	yaw rate:	21.501	Roll:	1.375	Pitch:	-2.024	Yaw:	0.758	Thrust:	98.157
Time:	3.279	Roll Set Point:	-0.059	Pitch Set Point:	0.055	Yaw Set Point:	0.013	X_WP:	0.000	Y_WP:	0.000	Y_WP:	0.500	X:	0.029	Y:	-0.028	Z:	0.070	yaw:	-0.757	yaw rate:	11.937	Roll:	3.193	Pitch:	-8.641	Yaw:	0.970	Thrust:	54.547
Time:	3.302	Roll Set Point:	-0.061	Pitch Set Point:	0.062	Yaw Set Point:	0.008	X_WP:	0.000	Y_WP:	0.000	Y_WP:	0.500	X:	0.030	Y:	-0.031	Z:	0.070	yaw:	-0.447	yaw rate:	31.084	Roll:	1.717	Pitch:	-3.540	Yaw:	3.162	Thrust:	72.807
Time:	3.339	Roll Set Point:	-0.064	Pitch Set Point:	0.075	Yaw Set Point:	0.001	X_WP:	0.000	Y_WP:	0.000	Y_WP:	0.500	X:	0.032	Y:	-0.038	Z:	0.072	yaw:	-0.054	yaw rate:	39.252	Roll:	1.691	Pitch:	-4.090	Yaw:	3.040	Thrust:	100.000
Time:	3.369	Roll Set Point:	-0.075	Pitch Set Point:	0.117	Yaw Set Point:	-0.003	X_WP:	0.000	Y_WP:	0.000	Y_WP:	0.500	X:	0.038	Y:	-0.058	Z:	0.074	yaw:	0.172	yaw rate:	-2.655	Roll:	4.132	Pitch:	-13.438	Yaw:	2.537	Thrust:	88.432
Time:	3.386	Roll Set Point:	-0.075	Pitch Set Point:	0.117	Yaw Set Point:	-0.003	X_WP:	0.000	Y_WP:	0.000	Y_WP:	0.500	X:	0.038	Y:	-0.058	Z:	0.074	yaw:	0.172	yaw rate:	-2.655	Roll:	1.115	Pitch:	-1.681	Yaw:	0.428	Thrust:	63.593
Time:	3.480	Roll Set Point:	-0.083	Pitch Set Point:	0.146	Yaw Set Point:	-0.008	X_WP:	0.000	Y_WP:	0.000	Y_WP:	0.500	X:	0.042	Y:	-0.073	Z:	0.075	yaw:	0.461	yaw rate:	-16.852	Roll:	2.017	Pitch:	-4.744	Yaw:	2.493	Thrust:	100.000
Time:	3.495	Roll Set Point:	-0.098	Pitch Set Point:	0.202	Yaw Set Point:	-0.014	X_WP:	0.000	Y_WP:	0.000	Y_WP:	0.500	X:	0.050	Y:	-0.100	Z:	0.075	yaw:	0.796	yaw rate:	33.504	Roll:	9.117	Pitch:	-30.000	Yaw:	7.113	Thrust:	61.380
Time:	3.510	Roll Set Point:	-0.100	Pitch Set Point:	0.214	Yaw Set Point:	-0.029	X_WP:	0.000	Y_WP:	0.000	Y_WP:	0.500	X:	0.052	Y:	-0.106	Z:	0.075	yaw:	1.654	yaw rate:	85.743	Roll:	1.720	Pitch:	-10.733	Yaw:	17.407	Thrust:	61.621
Time:	3.525	Roll Set Point:	-0.103	Pitch Set Point:	0.226	Yaw Set Point:	-0.031	X_WP:	0.000	Y_WP:	0.000	Y_WP:	0.500	X:	0.053	Y:	-0.112	Z:	0.074	yaw:	1.770	yaw rate:	11.577	Roll:	2.977	Pitch:	-10.240	Yaw:	4.668	Thrust:	63.089
Time:	3.558	Roll Set Point:	-0.106	Pitch Set Point:	0.234	Yaw Set Point:	-0.020	X_WP:	0.000	Y_WP:	0.000	Y_WP:	0.500	X:	0.054	Y:	-0.116	Z:	0.074	yaw:	1.131	yaw rate:	-63.876	Roll:	3.957	Pitch:	-5.128	Yaw:	-3.054	Thrust:	100.000
Time:	3.578	Roll Set Point:	-0.117	Pitch Set Point:	0.277	Yaw Set Point:	-0.032	X_WP:	0.000	Y_WP:	0.000	Y_WP:	0.500	X:	0.061	Y:	-0.138	Z:	0.072	yaw:	1.837	yaw rate:	77.455	Roll:	3.625	Pitch:	-23.730	Yaw:	12.515	Thrust:	78.577
Time:	3.602	Roll Set Point:	-0.117	Pitch Set Point:	0.277	Yaw Set Point:	-0.032	X_WP:	0.000	Y_WP:	0.000	Y_WP:	0.500	X:	0.061	Y:	-0.138	Z:	0.072	yaw:	1.837	yaw rate:	77.455	Roll:	1.678	Pitch:	-4.064	Yaw:	2.896	Thrust:	88.872
Time:	3.616	Roll Set Point:	-0.127	Pitch Set Point:	0.307	Yaw Set Point:	-0.020	X_WP:	0.000	Y_WP:	0.000	Y_WP:	0.500	X:	0.065	Y:	-0.153	Z:	0.070	yaw:	1.133	yaw rate:	-80.558	Roll:	8.239	Pitch:	-20.970	Yaw:	-11.348	Thrust:	68.229
Time:	3.630	Roll Set Point:	-0.130	Pitch Set Point:	0.321	Yaw Set Point:	-0.021	X_WP:	0.000	Y_WP:	0.000	Y_WP:	0.500	X:	0.067	Y:	-0.160	Z:	0.069	yaw:	1.226	yaw rate:	9.374	Roll:	3.822	Pitch:	-13.129	Yaw:	3.668	Thrust:	66.396
Time:	3.651	Roll Set Point:	-0.138	Pitch Set Point:	0.343	Yaw Set Point:	-0.019	X_WP:	0.000	Y_WP:	0.000	Y_WP:	0.500	X:	0.071	Y:	-0.171	Z:	0.068	yaw:	1.110	yaw rate:	-11.660	Roll:	5.090	Pitch:	-14.230	Yaw:	0.420	Thrust:	87.441
Time:	3.668	Roll Set Point:	-0.138	Pitch Set Point:	0.343	Yaw Set Point:	-0.019	X_WP:	0.000	Y_WP:	0.000	Y_WP:	0.500	X:	0.071	Y:	-0.171	Z:	0.068	yaw:	1.110	yaw rate:	-11.660	Roll:	1.994	Pitch:	-5.038	Yaw:	1.816	Thrust:	73.563
Time:	3.682	Roll Set Point:	-0.145	Pitch Set Point:	0.373	Yaw Set Point:	-0.029	X_WP:	0.000	Y_WP:	0.000	Y_WP:	0.500	X:	0.075	Y:	-0.185	Z:	0.066	yaw:	1.669	yaw rate:	55.425	Roll:	5.100	Pitch:	-22.392	Yaw:	12.991	Thrust:	73.030
Time:	3.698	Roll Set Point:	-0.145	Pitch Set Point:	0.373	Yaw Set Point:	-0.029	X_WP:	0.000	Y_WP:	0.000	Y_WP:	0.500	X:	0.075	Y:	-0.185	Z:	0.066	yaw:	1.669	yaw rate:	55.425	Roll:	2.074	Pitch:	-5.483	Yaw:	2.580	Thrust:	69.394
Time:	3.712	Roll Set Point:	-0.153	Pitch Set Point:	0.395	Yaw Set Point:	-0.020	X_WP:	0.000	Y_WP:	0.000	Y_WP:	0.500	X:	0.079	Y:	-0.197	Z:	0.063	yaw:	1.140	yaw rate:	-19.383	Roll:	7.607	Pitch:	-18.453	Yaw:	-7.362	Thrust:	79.631
Time:	3.726	Roll Set Point:	-0.157	Pitch Set Point:	0.410	Yaw Set Point:	-0.022	X_WP:	0.000	Y_WP:	0.000	Y_WP:	0.500	X:	0.081	Y:	-0.204	Z:	0.060	yaw:	1.285	yaw rate:	14.532	Roll:	4.429	Pitch:	-14.809	Yaw:	4.752	Thrust:	76.821
Time:	3.741	Roll Set Point:	-0.162	Pitch Set Point:	0.424	Yaw Set Point:	-0.023	X_WP:	0.000	Y_WP:	0.000	Y_WP:	0.500	X:	0.083	Y:	-0.211	Z:	0.056	yaw:	1.291	yaw rate:	0.516	Roll:	4.795	Pitch:	-14.617	Yaw:	2.163	Thrust:	83.150
Time:	3.755	Roll Set Point:	-0.166	Pitch Set Point:	0.439	Yaw Set Point:	-0.024	X_WP:	0.000	Y_WP:	0.000	Y_WP:	0.500	X:	0.086	Y:	-0.219	Z:	0.051	yaw:	1.403	yaw rate:	11.193	Roll:	4.475	Pitch:	-15.434	Yaw:	4.305	Thrust:	85.383
Time:	3.785	Roll Set Point:	-0.201	Pitch Set Point:	0.444	Yaw Set Point:	0.084	X_WP:	0.000	Y_WP:	0.000	Y_WP:	0.500	X:	0.091	Y:	-0.226	Z:	0.047	yaw:	-4.802	yaw rate:	-259.135	Roll:	19.946	Pitch:	-5.034	Yaw:	-60.132	Thrust:	100.000
Time:	3.801	Roll Set Point:	-0.207	Pitch Set Point:	0.442	Yaw Set Point:	0.110	X_WP:	0.000	Y_WP:	0.000	Y_WP:	0.500	X:	0.091	Y:	-0.227	Z:	0.049	yaw:	-6.311	yaw rate:	-150.905	Roll:	9.520	Pitch:	-3.750	Yaw:	-33.161	Thrust:	73.554
Time:	3.816	Roll Set Point:	-0.215	Pitch Set Point:	0.440	Yaw Set Point:	0.149	X_WP:	0.000	Y_WP:	0.000	Y_WP:	0.500	X:	0.091	Y:	-0.228	Z:	0.050	yaw:	-8.564	yaw rate:	-225.349	Roll:	13.111	Pitch:	-1.964	Yaw:	-50.958	Thrust:	73.010
Time:	3.837	Roll Set Point:	-0.231	Pitch Set Point:	0.433	Yaw Set Point:	0.222	X_WP:	0.000	Y_WP:	0.000	Y_WP:	0.500	X:	0.092	Y:	-0.229	Z:	0.050	yaw:	-12.703	yaw rate:	-413.867	Roll:	17.689	Pitch:	0.722	Yaw:	-71.521	Thrust:	94.670
Time:	3.866	Roll Set Point:	-0.231	Pitch Set Point:	0.433	Yaw Set Point:	0.222	X_WP:	0.000	Y_WP:	0.000	Y_WP:	0.500	X:	0.092	Y:	-0.229	Z:	0.050	yaw:	-12.703	yaw rate:	-413.867	Roll:	4.211	Pitch:	-6.150	Yaw:	-17.507	Thrust:	100.000
Time:	3.887	Roll Set Point:	-0.247	Pitch Set Point:	0.427	Yaw Set Point:	0.281	X_WP:	0.000	Y_WP:	0.000	Y_WP:	0.500	X:	0.093	Y:	-0.231	Z:	0.045	yaw:	-16.080	yaw rate:	-337.739	Roll:	19.216	Pitch:	0.482	Yaw:	-64.371	Thrust:	100.000
Time:	3.907	Roll Set Point:	-0.250	Pitch Set Point:	0.429	Yaw Set Point:	0.285	X_WP:	0.000	Y_WP:	0.000	Y_WP:	0.500	X:	0.094	Y:	-0.233	Z:	0.046	yaw:	-16.348	yaw rate:	-26.785	Roll:	6.210	Pitch:	-6.309	Yaw:	-26.372	Thrust:	100.000
Time:	3.921	Roll Set Point:	-0.252	Pitch Set Point:	0.434	Yaw Set Point:	0.283	X_WP:	0.000	Y_WP:	0.000	Y_WP:	0.500	X:	0.095	Y:	-0.235	Z:	0.045	yaw:	-16.227	yaw rate:	-14.293	Roll:	6.073	Pitch:	-8.686	Yaw:	-20.512	Thrust:	77.504
Time:	3.935	Roll Set Point:	-0.253	Pitch Set Point:	0.434	Yaw Set Point:	0.288	X_WP:	0.000	Y_WP:	0.000	Y_WP:	0.500	X:	0.095	Y:	-0.235	Z:	0.045	yaw:	-16.474	yaw rate:	-24.734	Roll:	5.807	Pitch:	-5.298	Yaw:	-27.809	Thrust:	77.816
Time:	3.950	Roll Set Point:	-0.254	Pitch Set Point:	0.434	Yaw Set Point:	0.286	X_WP:	0.000	Y_WP:	0.000	Y_WP:	0.500	X:	0.096	Y:	-0.235	Z:	0.045	yaw:	-16.410	yaw rate:	6.425	Roll:	4.664	Pitch:	-5.974	Yaw:	-21.988	Thrust:	77.666
Time:	3.972	Roll Set Point:	-0.254	Pitch Set Point:	0.434	Yaw Set Point:	0.287	X_WP:	0.000	Y_WP:	0.000	Y_WP:	0.500	X:	0.096	Y:	-0.235	Z:	0.045	yaw:	-16.438	yaw rate:	-2.752	Roll:	4.973	Pitch:	-6.038	Yaw:	-23.835	Thrust:	100.000
Time:	3.985	Roll Set Point:	-0.253	Pitch Set Point:	0.434	Yaw Set Point:	0.285	X_WP:	0.000	Y_WP:	0.000	Y_WP:	0.500	X:	0.096	Y:	-0.235	Z:	0.045	yaw:	-16.319	yaw rate:	11.850	Roll:	3.906	Pitch:	-6.069	Yaw:	-20.810	Thrust:	76.268
Time:	4.007	Roll Set Point:	-0.253	Pitch Set Point:	0.434	Yaw Set Point:	0.282	X_WP:	0.000	Y_WP:	0.000	Y_WP:	0.500	X:	0.096	Y:	-0.235	Z:	0.045	yaw:	-16.163	yaw rate:	15.586	Roll:	4.237	Pitch:	-6.271	Yaw:	-21.528	Thrust:	100.000
Time:	4.021	Roll Set Point:	-0.254	Pitch Set Point:	0.434	Yaw Set Point:	0.287	X_WP:	0.000	Y_WP:	0.000	Y_WP:	0.500	X:	0.096	Y:	-0.235	Z:	0.045	yaw:	-16.426	yaw rate:	-31.321	Roll:	5.700	Pitch:	-5.346	Yaw:	-28.438	Thrust:	81.067
Time:	4.056	Roll Set Point:	-0.254	Pitch Set Point:	0.434	Yaw Set Point:	0.287	X_WP:	0.000	Y_WP:	0.000	Y_WP:	0.500	X:	0.096	Y:	-0.235	Z:	0.045	yaw:	-16.426	yaw rate:	-31.321	Roll:	4.903	Pitch:	-6.202	Yaw:	-24.623	Thrust:	100.000
Time:	4.078	Roll Set Point:	-0.253	Pitch Set Point:	0.434	Yaw Set Point:	0.281	X_WP:	0.000	Y_WP:	0.000	Y_WP:	0.500	X:	0.096	Y:	-0.235	Z:	0.045	yaw:	-16.078	yaw rate:	34.826	Roll:	3.934	Pitch:	-6.672	Yaw:	-19.500	Thrust:	100.000
Time:	4.093	Roll Set Point:	-0.254	Pitch Set Point:	0.434	Yaw Set Point:	0.284	X_WP:	0.000	Y_WP:	0.000	Y_WP:	0.500	X:	0.096	Y:	-0.235	Z:	0.045	yaw:	-16.288	yaw rate:	23.002	Roll:	5.563	Pitch:	-5.331	Yaw:	-27.292	Thrust:	87.760
Time:	4.108	Roll Set Point:	-0.254	Pitch Set Point:	0.434	Yaw Set Point:	0.286	X_WP:	0.000	Y_WP:	0.000	Y_WP:	0.500	X:	0.096	Y:	-0.235	Z:	0.045	yaw:	-16.379	yaw rate:	-9.076	Roll:	4.984	Pitch:	-5.945	Yaw:	-25.429	Thrust:	87.828
Time:	4.124	Roll Set Point:	-0.254	Pitch Set Point:	0.434	Yaw Set Point:	0.286	X_WP:	0.000	Y_WP:	0.000	Y_WP:	0.500	X:	0.096	Y:	-0.235	Z:	0.045	yaw:	-16.379	yaw rate:	-9.076	Roll:	4.745	Pitch:	-6.005	Yaw:	-24.006	Thrust:	93.510
Time:	4.147	Roll Set Point:	-0.254	Pitch Set Point:	0.433	Yaw Set Point:	0.290	X_WP:	0.000	Y_WP:	0.000	Y_WP:	0.500	X:	0.096	Y:	-0.235	Z:	0.045	yaw:	-16.616	yaw rate:	-23.725	Roll:	5.481	Pitch:	-5.601	Yaw:	-27.659	Thrust:	100.000
Time:	4.165	Roll Set Point:	-0.255	Pitch Set Point:	0.433	Yaw Set Point:	0.290	X_WP:	0.000	Y_WP:	0.000	Y_WP:	0.500	X:	0.096	Y:	-0.235	Z:	0.045	yaw:	-16.603	yaw rate:	1.286	Roll:	4.810	Pitch:	-6.026	Yaw:	-24.482	Thrust:	100.000
Time:	4.201	Roll Set Point:	-0.252	Pitch Set Point:	0.435	Yaw Set Point:	0.279	X_WP:	0.000	Y_WP:	0.000	Y_WP:	0.500	X:	0.096	Y:	-0.235	Z:	0.045	yaw:	-15.991	yaw rate:	61.215	Roll:	3.948	Pitch:	-7.125	Yaw:	-20.854	Thrust:	100.000
Time:	4.215	Roll Set Point:	-0.253	Pitch Set Point:	0.434	Yaw Set Point:	0.282	X_WP:	0.000	Y_WP:	0.000	Y_WP:	0.500	X:	0.096	Y:	-0.235	Z:	0.045	yaw:	-16.183	yaw rate:	12.136	Roll:	5.507	Pitch:	-5.399	Yaw:	-27.348	Thrust:	92.471
Time:	4.230	Roll Set Point:	-0.255	Pitch Set Point:	0.433	Yaw Set Point:	0.291	X_WP:	0.000	Y_WP:	0.000	Y_WP:	0.500	X:	0.096	Y:	-0.235	Z:	0.045	yaw:	-16.681	yaw rate:	-49.724	Roll:	6.901	Pitch:	-4.758	Yaw:	-33.440	Thrust:	93.209
Time:	4.249	Roll Set Point:	-0.253	Pitch Set Point:	0.434	Yaw Set Point:	0.281	X_WP:	0.000	Y_WP:	0.000	Y_WP:	0.500	X:	0.096	Y:	-0.235	Z:	0.045	yaw:	-16.102	yaw rate:	57.884	Roll:	2.752	Pitch:	-7.311	Yaw:	-15.986	Thrust:	100.000
Time:	4.282	Roll Set Point:	-0.253	Pitch Set Point:	0.434	Yaw Set Point:	0.281	X_WP:	0.000	Y_WP:	0.000	Y_WP:	0.500	X:	0.096	Y:	-0.235	Z:	0.045	yaw:	-16.102	yaw rate:	57.884	Roll:	5.003	Pitch:	-6.390	Yaw:	-26.259	Thrust:	100.000
Time:	4.298	Roll Set Point:	-0.253	Pitch Set Point:	0.434	Yaw Set Point:	0.281	X_WP:	0.000	Y_WP:	0.000	Y_WP:	0.500	X:	0.096	Y:	-0.235	Z:	0.045	yaw:	-16.122	yaw rate:	43.813	Roll:	4.832	Pitch:	-6.091	Yaw:	-24.703	Thrust:	100.000
Time:	4.325	Roll Set Point:	-0.254	Pitch Set Point:	0.433	Yaw Set Point:	0.290	X_WP:	0.000	Y_WP:	0.000	Y_WP:	0.500	X:	0.096	Y:	-0.235	Z:	0.045	yaw:	-16.620	yaw rate:	-49.875	Roll:	6.178	Pitch:	-5.419	Yaw:	-31.397	Thrust:	100.000
Time:	4.341	Roll Set Point:	-0.254	Pitch Set Point:	0.434	Yaw Set Point:	0.286	X_WP:	0.000	Y_WP:	0.000	Y_WP:	0.500	X:	0.096	Y:	-0.235	Z:	0.045	yaw:	-16.387	yaw rate:	23.331	Roll:	4.191	Pitch:	-6.671	Yaw:	-21.124	Thrust:	100.000
Time:	4.355	Roll Set Point:	-0.253	Pitch Set Point:	0.434	Yaw Set Point:	0.281	X_WP:	0.000	Y_WP:	0.000	Y_WP:	0.500	X:	0.096	Y:	-0.235	Z:	0.045	yaw:	-16.117	yaw rate:	57.960	Roll:	3.504	Pitch:	-6.805	Yaw:	-19.349	Thrust:	92.815
Time:	4.370	Roll Set Point:	-0.253	Pitch Set Point:	0.434	Yaw Set Point:	0.283	X_WP:	0.000	Y_WP:	0.000	Y_WP:	0.500	X:	0.096	Y:	-0.235	Z:	0.045	yaw:	-16.243	yaw rate:	-12.577	Roll:	5.395	Pitch:	-5.769	Yaw:	-26.963	Thrust:	99.415
Time:	4.400	Roll Set Point:	-0.253	Pitch Set Point:	0.434	Yaw Set Point:	0.283	X_WP:	0.000	Y_WP:	0.000	Y_WP:	0.500	X:	0.096	Y:	-0.235	Z:	0.045	yaw:	-16.243	yaw rate:	-12.577	Roll:	5.036	Pitch:	-6.394	Yaw:	-27.037	Thrust:	100.000
Time:	4.417	Roll Set Point:	-0.253	Pitch Set Point:	0.434	Yaw Set Point:	0.283	X_WP:	0.000	Y_WP:	0.000	Y_WP:	0.500	X:	0.096	Y:	-0.235	Z:	0.045	yaw:	-16.190	yaw rate:	39.631	Roll:	4.569	Pitch:	-6.271	Yaw:	-24.347	Thrust:	100.000
Time:	4.431	Roll Set Point:	-0.252	Pitch Set Point:	0.435	Yaw Set Point:	0.277	X_WP:	0.000	Y_WP:	0.000	Y_WP:	0.500	X:	0.096	Y:	-0.235	Z:	0.045	yaw:	-15.855	yaw rate:	33.440	Roll:	3.396	Pitch:	-7.205	Yaw:	-18.094	Thrust:	96.539
Time:	4.452	Roll Set Point:	-0.254	Pitch Set Point:	0.434	Yaw Set Point:	0.285	X_WP:	0.000	Y_WP:	0.000	Y_WP:	0.500	X:	0.096	Y:	-0.235	Z:	0.045	yaw:	-16.345	yaw rate:	-49.011	Roll:	6.414	Pitch:	-5.245	Yaw:	-32.321	Thrust:	100.000
Time:	4.466	Roll Set Point:	-0.254	Pitch Set Point:	0.434	Yaw Set Point:	0.287	X_WP:	0.000	Y_WP:	0.000	Y_WP:	0.500	X:	0.096	Y:	-0.235	Z:	0.045	yaw:	-16.421	yaw rate:	-7.601	Roll:	5.139	Pitch:	-5.834	Yaw:	-26.696	Thrust:	100.000
Time:	4.482	Roll Set Point:	-0.254	Pitch Set Point:	0.434	Yaw Set Point:	0.287	X_WP:	0.000	Y_WP:	0.000	Y_WP:	0.500	X:	0.096	Y:	-0.235	Z:	0.045	yaw:	-16.421	yaw rate:	-7.601	Roll:	4.858	Pitch:	-6.143	Yaw:	-25.707	Thrust:	100.000
Time:	4.495	Roll Set Point:	-0.254	Pitch Set Point:	0.434	Yaw Set Point:	0.287	X_WP:	0.000	Y_WP:	0.000	Y_WP:	0.500	X:	0.096	Y:	-0.235	Z:	0.045	yaw:	-16.421	yaw rate:	21.603	Roll:	4.754	Pitch:	-6.075	Yaw:	-25.253	Thrust:	94.219
Time:	4.509	Roll Set Point:	-0.254	Pitch Set Point:	0.434	Yaw Set Point:	0.289	X_WP:	0.000	Y_WP:	0.000	Y_WP:	0.500	X:	0.096	Y:	-0.235	Z:	0.045	yaw:	-16.556	yaw rate:	-13.457	Roll:	5.367	Pitch:	-5.793	Yaw:	-28.217	Thrust:	100.000
Time:	4.523	Roll Set Point:	-0.255	Pitch Set Point:	0.433	Yaw Set Point:	0.289	X_WP:	0.000	Y_WP:	0.000	Y_WP:	0.500	X:	0.096	Y:	-0.235	Z:	0.045	yaw:	-16.582	yaw rate:	-2.631	Roll:	5.249	Pitch:	-5.830	Yaw:	-26.316	Thrust:	100.000
Time:	4.536	Roll Set Point:	-0.254	Pitch Set Point:	0.434	Yaw Set Point:	0.286	X_WP:	0.000	Y_WP:	0.000	Y_WP:	0.500	X:	0.096	Y:	-0.235	Z:	0.045	yaw:	-16.408	yaw rate:	17.345	Roll:	3.944	Pitch:	-6.856	Yaw:	-21.984	Thrust:	96.164
Time:	4.553	Roll Set Point:	-0.253	Pitch Set Point:	0.434	Yaw Set Point:	0.284	X_WP:	0.000	Y_WP:	0.000	Y_WP:	0.500	X:	0.096	Y:	-0.235	Z:	0.045	yaw:	-16.268	yaw rate:	14.067	Roll:	4.242	Pitch:	-6.470	Yaw:	-23.963	Thrust:	100.000
Time:	4.576	Roll Set Point:	-0.253	Pitch Set Point:	0.434	Yaw Set Point:	0.284	X_WP:	0.000	Y_WP:	0.000	Y_WP:	0.500	X:	0.096	Y:	-0.235	Z:	0.045	yaw:	-16.299	yaw rate:	-3.088	Roll:	5.189	Pitch:	-6.466	Yaw:	-27.720	Thrust:	100.000
Time:	4.590	Roll Set Point:	-0.252	Pitch Set Point:	0.435	Yaw Set Point:	0.279	X_WP:	0.000	Y_WP:	0.000	Y_WP:	0.500	X:	0.096	Y:	-0.235	Z:	0.045	yaw:	-15.965	yaw rate:	33.334	Roll:	3.325	Pitch:	-6.864	Yaw:	-18.881	Thrust:	100.000
Time:	4.612	Roll Set Point:	-0.253	Pitch Set Point:	0.434	Yaw Set Point:	0.281	X_WP:	0.000	Y_WP:	0.000	Y_WP:	0.500	X:	0.096	Y:	-0.235	Z:	0.045	yaw:	-16.075	yaw rate:	-10.955	Roll:	5.353	Pitch:	-6.163	Yaw:	-28.018	Thrust:	100.000
Time:	4.629	Roll Set Point:	-0.254	Pitch Set Point:	0.433	Yaw Set Point:	0.290	X_WP:	0.000	Y_WP:	0.000	Y_WP:	0.500	X:	0.096	Y:	-0.235	Z:	0.045	yaw:	-16.604	yaw rate:	-52.927	Roll:	6.724	Pitch:	-5.131	Yaw:	-34.471	Thrust:	100.000
Time:	4.653	Roll Set Point:	-0.252	Pitch Set Point:	0.434	Yaw Set Point:	0.280	X_WP:	0.000	Y_WP:	0.000	Y_WP:	0.500	X:	0.096	Y:	-0.235	Z:	0.045	yaw:	-16.030	yaw rate:	56.239	Roll:	3.666	Pitch:	-7.425	Yaw:	-20.954	Thrust:	100.000
Time:	4.667	Roll Set Point:	-0.254	Pitch Set Point:	0.434	Yaw Set Point:	0.288	X_WP:	0.000	Y_WP:	0.000	Y_WP:	0.500	X:	0.096	Y:	-0.235	Z:	0.045	yaw:	-16.488	yaw rate:	-45.798	Roll:	6.887	Pitch:	-4.830	Yaw:	-34.371	Thrust:	100.000
Time:	4.686	Roll Set Point:	-0.254	Pitch Set Point:	0.434	Yaw Set Point:	0.288	X_WP:	0.000	Y_WP:	0.000	Y_WP:	0.500	X:	0.096	Y:	-0.235	Z:	0.045	yaw:	-16.488	yaw rate:	-45.798	Roll:	5.004	Pitch:	-6.292	Yaw:	-26.832	Thrust:	100.000
Time:	4.704	Roll Set Point:	-0.255	Pitch Set Point:	0.433	Yaw Set Point:	0.291	X_WP:	0.000	Y_WP:	0.000	Y_WP:	0.500	X:	0.096	Y:	-0.235	Z:	0.045	yaw:	-16.665	yaw rate:	-17.630	Roll:	5.584	Pitch:	-5.905	Yaw:	-29.385	Thrust:	100.000
Time:	4.720	Roll Set Point:	-0.254	Pitch Set Point:	0.434	Yaw Set Point:	0.287	X_WP:	0.000	Y_WP:	0.000	Y_WP:	0.500	X:	0.096	Y:	-0.235	Z:	0.045	yaw:	-16.458	yaw rate:	20.694	Roll:	4.203	Pitch:	-6.771	Yaw:	-22.811	Thrust:	100.000
Time:	4.737	Roll Set Point:	-0.254	Pitch Set Point:	0.434	Yaw Set Point:	0.285	X_WP:	0.000	Y_WP:	0.000	Y_WP:	0.500	X:	0.096	Y:	-0.235	Z:	0.045	yaw:	-16.304	yaw rate:	15.359	Roll:	4.506	Pitch:	-6.533	Yaw:	-23.815	Thrust:	100.000
Time:	4.759	Roll Set Point:	-0.253	Pitch Set Point:	0.434	Yaw Set Point:	0.281	X_WP:	0.000	Y_WP:	0.000	Y_WP:	0.500	X:	0.096	Y:	-0.235	Z:	0.045	yaw:	-16.097	yaw rate:	20.666	Roll:	4.512	Pitch:	-6.941	Yaw:	-24.435	Thrust:	100.000
Time:	4.776	Roll Set Point:	-0.254	Pitch Set Point:	0.433	Yaw Set Point:	0.290	X_WP:	0.000	Y_WP:	0.000	Y_WP:	0.500	X:	0.096	Y:	-0.235	Z:	0.045	yaw:	-16.622	yaw rate:	-6.080	Roll:	6.911	Pitch:	-5.090	Yaw:	-34.680	Thrust:	100.000
Time:	4.794	Roll Set Point:	-0.254	Pitch Set Point:	0.433	Yaw Set Point:	0.290	X_WP:	0.000	Y_WP:	0.000	Y_WP:	0.500	X:	0.096	Y:	-0.235	Z:	0.045	yaw:	-16.622	yaw rate:	-6.080	Roll:	5.059	Pitch:	-6.305	Yaw:	-26.618	Thrust:	100.000
Time:	4.813	Roll Set Point:	-0.254	Pitch Set Point:	0.434	Yaw Set Point:	0.287	X_WP:	0.000	Y_WP:	0.000	Y_WP:	0.500	X:	0.096	Y:	-0.235	Z:	0.045	yaw:	-16.433	yaw rate:	18.951	Roll:	4.524	Pitch:	-6.804	Yaw:	-24.481	Thrust:	100.000
Time:	4.829	Roll Set Point:	-0.255	Pitch Set Point:	0.433	Yaw Set Point:	0.291	X_WP:	0.000	Y_WP:	0.000	Y_WP:	0.500	X:	0.096	Y:	-0.235	Z:	0.045	yaw:	-16.687	yaw rate:	-25.461	Roll:	6.176	Pitch:	-5.511	Yaw:	-30.740	Thrust:	100.000
Time:	4.847	Roll Set Point:	-0.253	Pitch Set Point:	0.434	Yaw Set Point:	0.284	X_WP:	0.000	Y_WP:	0.000	Y_WP:	0.500	X:	0.096	Y:	-0.235	Z:	0.045	yaw:	-16.296	yaw rate:	39.115	Roll:	3.590	Pitch:	-7.315	Yaw:	-21.189	Thrust:	100.000
Time:	4.867	Roll Set Point:	-0.253	Pitch Set Point:	0.434	Yaw Set Point:	0.281	X_WP:	0.000	Y_WP:	0.000	Y_WP:	0.500	X:	0.096	Y:	-0.235	Z:	0.045	yaw:	-16.114	yaw rate:	32.850	Roll:	4.628	Pitch:	-6.783	Yaw:	-24.127	Thrust:	100.000
Time:	4.889	Roll Set Point:	-0.253	Pitch Set Point:	0.434	Yaw Set Point:	0.281	X_WP:	0.000	Y_WP:	0.000	Y_WP:	0.500	X:	0.096	Y:	-0.235	Z:	0.045	yaw:	-16.114	yaw rate:	32.850	Roll:	5.152	Pitch:	-6.593	Yaw:	-26.911	Thrust:	100.000
Time:	4.908	Roll Set Point:	-0.254	Pitch Set Point:	0.433	Yaw Set Point:	0.289	X_WP:	0.000	Y_WP:	0.000	Y_WP:	0.500	X:	0.096	Y:	-0.235	Z:	0.045	yaw:	-16.555	yaw rate:	-44.127	Roll:	6.516	Pitch:	-5.545	Yaw:	-32.989	Thrust:	100.000
Time:	4.924	Roll Set Point:	-0.255	Pitch Set Point:	0.433	Yaw Set Point:	0.293	X_WP:	0.000	Y_WP:	0.000	Y_WP:	0.500	X:	0.096	Y:	-0.235	Z:	0.045	yaw:	-16.800	yaw rate:	-79.294	Roll:	5.991	Pitch:	-5.670	Yaw:	-30.671	Thrust:	100.000
Time:	4.940	Roll Set Point:	-0.255	Pitch Set Point:	0.433	Yaw Set Point:	0.292	X_WP:	0.000	Y_WP:	0.000	Y_WP:	0.500	X:	0.096	Y:	-0.235	Z:	0.045	yaw:	-16.704	yaw rate:	9.665	Roll:	4.728	Pitch:	-6.481	Yaw:	-24.953	Thrust:	100.000
Time:	4.954	Roll Set Point:	-0.255	Pitch Set Point:	0.433	Yaw Set Point:	0.292	X_WP:	0.000	Y_WP:	0.000	Y_WP:	0.500	X:	0.096	Y:	-0.235	Z:	0.045	yaw:	-16.748	yaw rate:	-4.463	Roll:	5.156	Pitch:	-6.327	Yaw:	-27.025	Thrust:	100.000
Time:	4.976	Roll Set Point:	-0.254	Pitch Set Point:	0.434	Yaw Set Point:	0.287	X_WP:	0.000	Y_WP:	0.000	Y_WP:	0.500	X:	0.096	Y:	-0.235	Z:	0.045	yaw:	-16.468	yaw rate:	28.082	Roll:	4.369	Pitch:	-7.025	Yaw:	-23.713	Thrust:	100.000
Time:	4.991	Roll Set Point:	-0.252	Pitch Set Point:	0.435	Yaw Set Point:	0.279	X_WP:	0.000	Y_WP:	0.000	Y_WP:	0.500	X:	0.096	Y:	-0.235	Z:	0.045	yaw:	-15.960	yaw rate:	50.780	Roll:	3.042	Pitch:	-7.800	Yaw:	-17.206	Thrust:	100.000
Time:	5.011	Roll Set Point:	-0.254	Pitch Set Point:	0.434	Yaw Set Point:	0.287	X_WP:	0.000	Y_WP:	0.000	Y_WP:	0.500	X:	0.096	Y:	-0.235	Z:	0.045	yaw:	-16.452	yaw rate:	-49.232	Roll:	6.554	Pitch:	-5.558	Yaw:	-33.410	Thrust:	100.000
Time:	5.026	Roll Set Point:	-0.253	Pitch Set Point:	0.434	Yaw Set Point:	0.281	X_WP:	0.000	Y_WP:	0.000	Y_WP:	0.500	X:	0.096	Y:	-0.235	Z:	0.045	yaw:	-16.107	yaw rate:	34.550	Roll:	3.652	Pitch:	-7.227	Yaw:	-19.483	Thrust:	100.000
Time:	5.044	Roll Set Point:	-0.254	Pitch Set Point:	0.434	Yaw Set Point:	0.286	X_WP:	0.000	Y_WP:	0.000	Y_WP:	0.500	X:	0.096	Y:	-0.235	Z:	0.045	yaw:	-16.414	yaw rate:	-30.697	Roll:	6.159	Pitch:	-5.788	Yaw:	-30.980	Thrust:	100.000
Time:	5.060	Roll Set Point:	-0.253	Pitch Set Point:	0.434	Yaw Set Point:	0.281	X_WP:	0.000	Y_WP:	0.000	Y_WP:	0.500	X:	0.096	Y:	-0.235	Z:	0.045	yaw:	-16.121	yaw rate:	51.764	Roll:	4.097	Pitch:	-7.091	Yaw:	-20.429	Thrust:	100.000
Time:	5.076	Roll Set Point:	-0.254	Pitch Set Point:	0.433	Yaw Set Point:	0.289	X_WP:	0.000	Y_WP:	0.000	Y_WP:	0.500	X:	0.096	Y:	-0.235	Z:	0.045	yaw:	-16.561	yaw rate:	-44.054	Roll:	6.691	Pitch:	-5.368	Yaw:	-33.303	Thrust:	100.000
Time:	5.092	Roll Set Point:	-0.255	Pitch Set Point:	0.433	Yaw Set Point:	0.293	X_WP:	0.000	Y_WP:	0.000	Y_WP:	0.500	X:	0.096	Y:	-0.235	Z:	0.045	yaw:	-16.773	yaw rate:	-21.174	Roll:	6.057	Pitch:	-5.673	Yaw:	-30.113	Thrust:	100.000
Time:	5.115	Roll Set Point:	-0.254	Pitch Set Point:	0.434	Yaw Set Point:	0.288	X_WP:	0.000	Y_WP:	0.000	Y_WP:	0.500	X:	0.096	Y:	-0.235	Z:	0.045	yaw:	-16.494	yaw rate:	27.853	Roll:	3.858	Pitch:	-7.134	Yaw:	-24.481	Thrust:	100.000
Time:	5.135	Roll Set Point:	-0.254	Pitch Set Point:	0.433	Yaw Set Point:	0.288	X_WP:	0.000	Y_WP:	0.000	Y_WP:	0.500	X:	0.096	Y:	-0.235	Z:	0.045	yaw:	-16.516	yaw rate:	-2.155	Roll:	5.648	Pitch:	-6.371	Yaw:	-27.353	Thrust:	100.000
Time:	5.172	Roll Set Point:	-0.254	Pitch Set Point:	0.433	Yaw Set Point:	0.290	X_WP:	0.000	Y_WP:	0.000	Y_WP:	0.500	X:	0.096	Y:	-0.235	Z:	0.045	yaw:	-16.592	yaw rate:	-45.878	Roll:	5.849	Pitch:	-7.058	Yaw:	-31.123	Thrust:	100.000
Time:	5.186	Roll Set Point:	-0.255	Pitch Set Point:	0.433	Yaw Set Point:	0.294	X_WP:	0.000	Y_WP:	0.000	Y_WP:	0.500	X:	0.096	Y:	-0.235	Z:	0.045	yaw:	-16.834	yaw rate:	-24.243	Roll:	6.164	Pitch:	-5.637	Yaw:	-30.834	Thrust:	100.000
Time:	5.202	Roll Set Point:	-0.254	Pitch Set Point:	0.434	Yaw Set Point:	0.286	X_WP:	0.000	Y_WP:	0.000	Y_WP:	0.500	X:	0.096	Y:	-0.235	Z:	0.045	yaw:	-16.379	yaw rate:	45.535	Roll:	3.326	Pitch:	-7.522	Yaw:	-18.649	Thrust:	100.000
Time:	5.222	Roll Set Point:	-0.255	Pitch Set Point:	0.433	Yaw Set Point:	0.291	X_WP:	0.000	Y_WP:	0.000	Y_WP:	0.500	X:	0.096	Y:	-0.235	Z:	0.045	yaw:	-16.671	yaw rate:	-29.190	Roll:	6.324	Pitch:	-5.973	Yaw:	-31.098	Thrust:	100.000
Time:	5.238	Roll Set Point:	-0.254	Pitch Set Point:	0.433	Yaw Set Point:	0.289	X_WP:	0.000	Y_WP:	0.000	Y_WP:	0.500	X:	0.096	Y:	-0.235	Z:	0.045	yaw:	-16.544	yaw rate:	-23.797	Roll:	4.630	Pitch:	-6.555	Yaw:	-24.229	Thrust:	100.000
Time:	5.258	Roll Set Point:	-0.255	Pitch Set Point:	0.433	Yaw Set Point:	0.293	X_WP:	0.000	Y_WP:	0.000	Y_WP:	0.500	X:	0.096	Y:	-0.235	Z:	0.045	yaw:	-16.809	yaw rate:	-26.564	Roll:	6.158	Pitch:	-5.949	Yaw:	-30.949	Thrust:	100.000
Time:	5.273	Roll Set Point:	-0.255	Pitch Set Point:	0.433	Yaw Set Point:	0.293	X_WP:	0.000	Y_WP:	0.000	Y_WP:	0.500	X:	0.096	Y:	-0.235	Z:	0.045	yaw:	-16.806	yaw rate:	0.351	Roll:	5.198	Pitch:	-6.307	Yaw:	-26.412	Thrust:	100.000
Time:	5.291	Roll Set Point:	-0.255	Pitch Set Point:	0.433	Yaw Set Point:	0.293	X_WP:	0.000	Y_WP:	0.000	Y_WP:	0.500	X:	0.096	Y:	-0.235	Z:	0.045	yaw:	-16.806	yaw rate:	0.351	Roll:	5.273	Pitch:	-6.407	Yaw:	-27.075	Thrust:	100.000
Time:	5.305	Roll Set Point:	-0.255	Pitch Set Point:	0.433	Yaw Set Point:	0.291	X_WP:	0.000	Y_WP:	0.000	Y_WP:	0.500	X:	0.096	Y:	-0.235	Z:	0.045	yaw:	-16.678	yaw rate:	-54.133	Roll:	4.437	Pitch:	-6.743	Yaw:	-23.720	Thrust:	100.000
Time:	5.327	Roll Set Point:	-0.254	Pitch Set Point:	0.434	Yaw Set Point:	0.285	X_WP:	0.000	Y_WP:	0.000	Y_WP:	0.500	X:	0.096	Y:	-0.235	Z:	0.045	yaw:	-16.322	yaw rate:	35.663	Roll:	4.456	Pitch:	-7.149	Yaw:	-22.567	Thrust:	100.000
Time:	5.352	Roll Set Point:	-0.253	Pitch Set Point:	0.434	Yaw Set Point:	0.284	X_WP:	0.000	Y_WP:	0.000	Y_WP:	0.500	X:	0.096	Y:	-0.235	Z:	0.045	yaw:	-16.282	yaw rate:	3.928	Roll:	5.385	Pitch:	-6.828	Yaw:	-27.554	Thrust:	100.000
Time:	5.379	Roll Set Point:	-0.253	Pitch Set Point:	0.434	Yaw Set Point:	0.284	X_WP:	0.000	Y_WP:	0.000	Y_WP:	0.500	X:	0.096	Y:	-0.235	Z:	0.045	yaw:	-16.282	yaw rate:	3.928	Roll:	5.622	Pitch:	-6.782	Yaw:	-28.149	Thrust:	100.000
Time:	5.393	Roll Set Point:	-0.255	Pitch Set Point:	0.433	Yaw Set Point:	0.292	X_WP:	0.000	Y_WP:	0.000	Y_WP:	0.500	X:	0.096	Y:	-0.235	Z:	0.045	yaw:	-16.709	yaw rate:	1.497	Roll:	6.839	Pitch:	-5.066	Yaw:	-34.099	Thrust:	100.000
Time:	5.418	Roll Set Point:	-0.254	Pitch Set Point:	0.434	Yaw Set Point:	0.285	X_WP:	0.000	Y_WP:	0.000	Y_WP:	0.500	X:	0.096	Y:	-0.235	Z:	0.045	yaw:	-16.357	yaw rate:	35.249	Roll:	4.607	Pitch:	-7.245	Yaw:	-24.170	Thrust:	100.000
Time:	5.437	Roll Set Point:	-0.254	Pitch Set Point:	0.434	Yaw Set Point:	0.285	X_WP:	0.000	Y_WP:	0.000	Y_WP:	0.500	X:	0.096	Y:	-0.235	Z:	0.045	yaw:	-16.357	yaw rate:	35.249	Roll:	5.332	Pitch:	-6.514	Yaw:	-26.649	Thrust:	100.000
Time:	5.455	Roll Set Point:	-0.255	Pitch Set Point:	0.433	Yaw Set Point:	0.291	X_WP:	0.000	Y_WP:	0.000	Y_WP:	0.500	X:	0.096	Y:	-0.235	Z:	0.045	yaw:	-16.674	yaw rate:	-31.757	Roll:	6.388	Pitch:	-5.656	Yaw:	-31.568	Thrust:	100.000
Time:	5.469	Roll Set Point:	-0.255	Pitch Set Point:	0.433	Yaw Set Point:	0.292	X_WP:	0.000	Y_WP:	0.000	Y_WP:	0.500	X:	0.096	Y:	-0.235	Z:	0.045	yaw:	-16.721	yaw rate:	9.748	Roll:	5.387	Pitch:	-6.141	Yaw:	-27.019	Thrust:	100.000
Time:	5.483	Roll Set Point:	-0.255	Pitch Set Point:	0.433	Yaw Set Point:	0.292	X_WP:	0.000	Y_WP:	0.000	Y_WP:	0.500	X:	0.096	Y:	-0.235	Z:	0.045	yaw:	-16.706	yaw rate:	1.455	Roll:	5.060	Pitch:	-6.283	Yaw:	-25.863	Thrust:	100.000
Time:	5.498	Roll Set Point:	-0.253	Pitch Set Point:	0.434	Yaw Set Point:	0.285	X_WP:	0.000	Y_WP:	0.000	Y_WP:	0.500	X:	0.096	Y:	-0.235	Z:	0.045	yaw:	-16.311	yaw rate:	39.515	Roll:	3.645	Pitch:	-7.474	Yaw:	-18.904	Thrust:	100.000
Time:	5.523	Roll Set Point:	-0.255	Pitch Set Point:	0.433	Yaw Set Point:	0.293	X_WP:	0.000	Y_WP:	0.000	Y_WP:	0.500	X:	0.096	Y:	-0.235	Z:	0.045	yaw:	-16.815	yaw rate:	-50.395	Roll:	7.268	Pitch:	-5.714	Yaw:	-33.755	Thrust:	100.000
Time:	5.536	Roll Set Point:	-0.255	Pitch Set Point:	0.433	Yaw Set Point:	0.293	X_WP:	0.000	Y_WP:	0.000	Y_WP:	0.500	X:	0.096	Y:	-0.235	Z:	0.045	yaw:	-16.816	yaw rate:	-35.253	Roll:	5.493	Pitch:	-6.250	Yaw:	-26.097	Thrust:	100.000
Time:	5.560	Roll Set Point:	-0.255	Pitch Set Point:	0.433	Yaw Set Point:	0.292	X_WP:	0.000	Y_WP:	0.000	Y_WP:	0.500	X:	0.096	Y:	-0.235	Z:	0.045	yaw:	-16.732	yaw rate:	8.387	Roll:	5.182	Pitch:	-6.810	Yaw:	-27.262	Thrust:	100.000
Time:	5.576	Roll Set Point:	-0.255	Pitch Set Point:	0.433	Yaw Set Point:	0.292	X_WP:	0.000	Y_WP:	0.000	Y_WP:	0.500	X:	0.096	Y:	-0.235	Z:	0.045	yaw:	-16.732	yaw rate:	8.387	Roll:	5.220	Pitch:	-6.338	Yaw:	-26.571	Thrust:	100.000
Time:	5.603	Roll Set Point:	-0.255	Pitch Set Point:	0.433	Yaw Set Point:	0.289	X_WP:	0.000	Y_WP:	0.000	Y_WP:	0.500	X:	0.096	Y:	-0.235	Z:	0.045	yaw:	-16.559	yaw rate:	17.299	Roll:	5.376	Pitch:	-6.970	Yaw:	-26.862	Thrust:	100.000
Time:	5.624	Roll Set Point:	-0.255	Pitch Set Point:	0.433	Yaw Set Point:	0.294	X_WP:	0.000	Y_WP:	0.000	Y_WP:	0.500	X:	0.096	Y:	-0.235	Z:	0.045	yaw:	-16.826	yaw rate:	-10.460	Roll:	6.129	Pitch:	-5.972	Yaw:	-31.026	Thrust:	100.000
Time:	5.640	Roll Set Point:	-0.254	Pitch Set Point:	0.434	Yaw Set Point:	0.285	X_WP:	0.000	Y_WP:	0.000	Y_WP:	0.500	X:	0.096	Y:	-0.235	Z:	0.045	yaw:	-16.313	yaw rate:	51.343	Roll:	3.279	Pitch:	-7.602	Yaw:	-17.611	Thrust:	100.000
Time:	5.681	Roll Set Point:	-0.255	Pitch Set Point:	0.433	Yaw Set Point:	0.292	X_WP:	0.000	Y_WP:	0.000	Y_WP:	0.500	X:	0.096	Y:	-0.235	Z:	0.045	yaw:	-16.749	yaw rate:	-43.622	Roll:	6.536	Pitch:	-6.870	Yaw:	-34.385	Thrust:	100.000
Time:	5.696	Roll Set Point:	-0.254	Pitch Set Point:	0.434	Yaw Set Point:	0.286	X_WP:	0.000	Y_WP:	0.000	Y_WP:	0.500	X:	0.096	Y:	-0.235	Z:	0.045	yaw:	-16.377	yaw rate:	33.356	Roll:	5.150	Pitch:	-7.294	Yaw:	-19.406	Thrust:	100.000
Time:	5.712	Roll Set Point:	-0.254	Pitch Set Point:	0.434	Yaw Set Point:	0.285	X_WP:	0.000	Y_WP:	0.000	Y_WP:	0.500	X:	0.096	Y:	-0.235	Z:	0.045	yaw:	-16.320	yaw rate:	5.694	Roll:	5.006	Pitch:	-6.448	Yaw:	-25.067	Thrust:	100.000
Time:	5.737	Roll Set Point:	-0.255	Pitch Set Point:	0.433	Yaw Set Point:	0.291	X_WP:	0.000	Y_WP:	0.000	Y_WP:	0.500	X:	0.096	Y:	-0.235	Z:	0.045	yaw:	-16.700	yaw rate:	-37.980	Roll:	6.412	Pitch:	-6.174	Yaw:	-32.298	Thrust:	100.000
Time:	5.766	Roll Set Point:	-0.255	Pitch Set Point:	0.433	Yaw Set Point:	0.291	X_WP:	0.000	Y_WP:	0.000	Y_WP:	0.500	X:	0.096	Y:	-0.235	Z:	0.045	yaw:	-16.700	yaw rate:	-37.980	Roll:	5.668	Pitch:	-6.830	Yaw:	-29.133	Thrust:	100.000
Time:	5.779	Roll Set Point:	-0.254	Pitch Set Point:	0.434	Yaw Set Point:	0.286	X_WP:	0.000	Y_WP:	0.000	Y_WP:	0.500	X:	0.096	Y:	-0.235	Z:	0.045	yaw:	-16.369	yaw rate:	33.148	Roll:	3.674	Pitch:	-7.235	Yaw:	-18.804	Thrust:	100.000
Time:	5.793	Roll Set Point:	-0.255	Pitch Set Point:	0.433	Yaw Set Point:	0.292	X_WP:	0.000	Y_WP:	0.000	Y_WP:	0.500	X:	0.096	Y:	-0.235	Z:	0.045	yaw:	-16.737	yaw rate:	-36.813	Roll:	6.734	Pitch:	-5.229	Yaw:	-33.042	Thrust:	100.000
Time:	5.836	Roll Set Point:	-0.254	Pitch Set Point:	0.434	Yaw Set Point:	0.286	X_WP:	0.000	Y_WP:	0.000	Y_WP:	0.500	X:	0.096	Y:	-0.235	Z:	0.045	yaw:	-16.375	yaw rate:	36.134	Roll:	5.647	Pitch:	-7.679	Yaw:	-29.040	Thrust:	100.000
Time:	5.852	Roll Set Point:	-0.255	Pitch Set Point:	0.433	Yaw Set Point:	0.292	X_WP:	0.000	Y_WP:	0.000	Y_WP:	0.500	X:	0.096	Y:	-0.235	Z:	0.045	yaw:	-16.714	yaw rate:	1.561	Roll:	6.468	Pitch:	-5.492	Yaw:	-32.078	Thrust:	100.000
Time:	5.866	Roll Set Point:	-0.255	Pitch Set Point:	0.433	Yaw Set Point:	0.294	X_WP:	0.000	Y_WP:	0.000	Y_WP:	0.500	X:	0.096	Y:	-0.235	Z:	0.045	yaw:	-16.832	yaw rate:	-11.760	Roll:	5.816	Pitch:	-5.875	Yaw:	-28.503	Thrust:	100.000
Time:	5.897	Roll Set Point:	-0.255	Pitch Set Point:	0.433	Yaw Set Point:	0.294	X_WP:	0.000	Y_WP:	0.000	Y_WP:	0.500	X:	0.096	Y:	-0.235	Z:	0.045	yaw:	-16.832	yaw rate:	-11.760	Roll:	5.760	Pitch:	-6.856	Yaw:	-29.718	Thrust:	100.000
Time:	5.910	Roll Set Point:	-0.255	Pitch Set Point:	0.433	Yaw Set Point:	0.293	X_WP:	0.000	Y_WP:	0.000	Y_WP:	0.500	X:	0.096	Y:	-0.235	Z:	0.045	yaw:	-16.810	yaw rate:	2.101	Roll:	5.011	Pitch:	-6.336	Yaw:	-25.639	Thrust:	100.000
Time:	5.924	Roll Set Point:	-0.255	Pitch Set Point:	0.433	Yaw Set Point:	0.292	X_WP:	0.000	Y_WP:	0.000	Y_WP:	0.500	X:	0.096	Y:	-0.235	Z:	0.045	yaw:	-16.721	yaw rate:	8.871	Roll:	4.666	Pitch:	-6.548	Yaw:	-24.501	Thrust:	100.000
Time:	5.942	Roll Set Point:	-0.255	Pitch Set Point:	0.433	Yaw Set Point:	0.292	X_WP:	0.000	Y_WP:	0.000	Y_WP:	0.500	X:	0.096	Y:	-0.235	Z:	0.045	yaw:	-16.721	yaw rate:	8.871	Roll:	5.256	Pitch:	-6.376	Yaw:	-26.957	Thrust:	100.000
Time:	5.956	Roll Set Point:	-0.255	Pitch Set Point:	0.433	Yaw Set Point:	0.292	X_WP:	0.000	Y_WP:	0.000	Y_WP:	0.500	X:	0.096	Y:	-0.235	Z:	0.045	yaw:	-16.735	yaw rate:	4.127	Roll:	5.260	Pitch:	-6.272	Yaw:	-26.426	Thrust:	100.000
Time:	5.970	Roll Set Point:	-0.255	Pitch Set Point:	0.433	Yaw Set Point:	0.293	X_WP:	0.000	Y_WP:	0.000	Y_WP:	0.500	X:	0.096	Y:	-0.235	Z:	0.045	yaw:	-16.799	yaw rate:	-6.452	Roll:	5.503	Pitch:	-6.016	Yaw:	-27.467	Thrust:	100.000
Time:	5.995	Roll Set Point:	-0.255	Pitch Set Point:	0.433	Yaw Set Point:	0.292	X_WP:	0.000	Y_WP:	0.000	Y_WP:	0.500	X:	0.096	Y:	-0.235	Z:	0.045	yaw:	-16.732	yaw rate:	6.778	Roll:	5.341	Pitch:	-6.824	Yaw:	-27.667	Thrust:	100.000
Time:	6.016	Roll Set Point:	-0.039	Pitch Set Point:	0.208	Yaw Set Point:	0.294	X_WP:	0.142	Y_WP:	-0.277	Y_WP:	0.500	X:	0.096	Y:	-0.235	Z:	0.045	yaw:	-16.819	yaw rate:	-8.783	Roll:	-30.000	Pitch:	30.000	Yaw:	-28.787	Thrust:	100.000
Time:	6.032	Roll Set Point:	-0.039	Pitch Set Point:	0.208	Yaw Set Point:	0.286	X_WP:	0.142	Y_WP:	-0.277	Y_WP:	0.500	X:	0.096	Y:	-0.235	Z:	0.045	yaw:	-16.366	yaw rate:	34.180	Roll:	-0.662	Pitch:	0.718	Yaw:	-18.665	Thrust:	100.000
Time:	6.047	Roll Set Point:	-0.039	Pitch Set Point:	0.208	Yaw Set Point:	0.290	X_WP:	0.142	Y_WP:	-0.277	Y_WP:	0.500	X:	0.096	Y:	-0.235	Z:	0.045	yaw:	-16.618	yaw rate:	-25.184	Roll:	-1.201	Pitch:	-0.047	Yaw:	-30.708	Thrust:	100.000
Time:	6.068	Roll Set Point:	-0.039	Pitch Set Point:	0.208	Yaw Set Point:	0.292	X_WP:	0.142	Y_WP:	-0.277	Y_WP:	0.500	X:	0.096	Y:	-0.235	Z:	0.045	yaw:	-16.727	yaw rate:	-1.547	Roll:	-0.866	Pitch:	-0.121	Yaw:	-29.056	Thrust:	100.000
Time:	6.081	Roll Set Point:	-0.039	Pitch Set Point:	0.208	Yaw Set Point:	0.286	X_WP:	0.142	Y_WP:	-0.277	Y_WP:	0.500	X:	0.096	Y:	-0.235	Z:	0.045	yaw:	-16.386	yaw rate:	34.067	Roll:	-0.929	Pitch:	0.724	Yaw:	-18.644	Thrust:	100.000
Time:	6.095	Roll Set Point:	-0.039	Pitch Set Point:	0.209	Yaw Set Point:	0.294	X_WP:	0.142	Y_WP:	-0.277	Y_WP:	0.500	X:	0.096	Y:	-0.235	Z:	0.045	yaw:	-16.830	yaw rate:	-44.350	Roll:	-1.364	Pitch:	-0.268	Yaw:	-34.577	Thrust:	100.000
Time:	6.119	Roll Set Point:	-0.039	Pitch Set Point:	0.209	Yaw Set Point:	0.294	X_WP:	0.142	Y_WP:	-0.277	Y_WP:	0.500	X:	0.096	Y:	-0.235	Z:	0.045	yaw:	-16.830	yaw rate:	-44.350	Roll:	-0.751	Pitch:	-0.116	Yaw:	-28.311	Thrust:	100.000
Time:	6.133	Roll Set Point:	-0.039	Pitch Set Point:	0.208	Yaw Set Point:	0.292	X_WP:	0.142	Y_WP:	-0.277	Y_WP:	0.500	X:	0.096	Y:	-0.235	Z:	0.045	yaw:	-16.735	yaw rate:	-39.146	Roll:	-1.062	Pitch:	0.375	Yaw:	-24.403	Thrust:	100.000
Time:	6.148	Roll Set Point:	-0.039	Pitch Set Point:	0.208	Yaw Set Point:	0.292	X_WP:	0.142	Y_WP:	-0.277	Y_WP:	0.500	X:	0.096	Y:	-0.235	Z:	0.045	yaw:	-16.731	yaw rate:	0.410	Roll:	-1.135	Pitch:	0.272	Yaw:	-26.297	Thrust:	100.000
Time:	6.167	Roll Set Point:	-0.039	Pitch Set Point:	0.208	Yaw Set Point:	0.292	X_WP:	0.142	Y_WP:	-0.277	Y_WP:	0.500	X:	0.096	Y:	-0.235	Z:	0.045	yaw:	-16.705	yaw rate:	2.532	Roll:	-0.896	Pitch:	0.062	Yaw:	-26.787	Thrust:	100.000
Time:	6.186	Roll Set Point:	-0.039	Pitch Set Point:	0.209	Yaw Set Point:	0.294	X_WP:	0.142	Y_WP:	-0.277	Y_WP:	0.500	X:	0.096	Y:	-0.235	Z:	0.045	yaw:	-16.818	yaw rate:	-46.660	Roll:	-1.018	Pitch:	-0.002	Yaw:	-28.845	Thrust:	100.000
Time:	6.215	Roll Set Point:	-0.039	Pitch Set Point:	0.208	Yaw Set Point:	0.292	X_WP:	0.142	Y_WP:	-0.277	Y_WP:	0.500	X:	0.096	Y:	-0.235	Z:	0.045	yaw:	-16.719	yaw rate:	9.957	Roll:	-0.563	Pitch:	-0.228	Yaw:	-28.030	Thrust:	100.000
Time:	6.241	Roll Set Point:	-0.040	Pitch Set Point:	0.208	Yaw Set Point:	0.284	X_WP:	0.142	Y_WP:	-0.277	Y_WP:	0.500	X:	0.096	Y:	-0.235	Z:	0.045	yaw:	-16.274	yaw rate:	44.475	Roll:	-0.586	Pitch:	0.111	Yaw:	-23.470	Thrust:	100.000
Time:	6.256	Roll Set Point:	-0.039	Pitch Set Point:	0.208	Yaw Set Point:	0.293	X_WP:	0.142	Y_WP:	-0.277	Y_WP:	0.500	X:	0.096	Y:	-0.235	Z:	0.045	yaw:	-16.796	yaw rate:	3.669	Roll:	-1.333	Pitch:	-0.336	Yaw:	-35.543	Thrust:	100.000
Time:	6.271	Roll Set Point:	-0.039	Pitch Set Point:	0.208	Yaw Set Point:	0.285	X_WP:	0.142	Y_WP:	-0.277	Y_WP:	0.500	X:	0.096	Y:	-0.235	Z:	0.045	yaw:	-16.351	yaw rate:	44.432	Roll:	-0.842	Pitch:	0.719	Yaw:	-18.103	Thrust:	100.000
Time:	6.298	Roll Set Point:	-0.039	Pitch Set Point:	0.209	Yaw Set Point:	0.293	X_WP:	0.142	Y_WP:	-0.277	Y_WP:	0.500	X:	0.096	Y:	-0.235	Z:	0.045	yaw:	-16.784	yaw rate:	-43.255	Roll:	-0.839	Pitch:	-0.446	Yaw:	-32.993	Thrust:	100.000
Time:	6.312	Roll Set Point:	-0.039	Pitch Set Point:	0.208	Yaw Set Point:	0.292	X_WP:	0.142	Y_WP:	-0.277	Y_WP:	0.500	X:	0.096	Y:	-0.235	Z:	0.045	yaw:	-16.708	yaw rate:	7.625	Roll:	-1.070	Pitch:	0.322	Yaw:	-25.008	Thrust:	100.000
Time:	6.326	Roll Set Point:	-0.039	Pitch Set Point:	0.208	Yaw Set Point:	0.292	X_WP:	0.142	Y_WP:	-0.277	Y_WP:	0.500	X:	0.096	Y:	-0.235	Z:	0.045	yaw:	-16.724	yaw rate:	-1.595	Roll:	-1.160	Pitch:	0.256	Yaw:	-26.455	Thrust:	100.000
Time:	6.342	Roll Set Point:	-0.039	Pitch Set Point:	0.208	Yaw Set Point:	0.292	X_WP:	0.142	Y_WP:	-0.277	Y_WP:	0.500	X:	0.096	Y:	-0.235	Z:	0.045	yaw:	-16.724	yaw rate:	-1.595	Roll:	-1.106	Pitch:	0.234	Yaw:	-26.559	Thrust:	100.000
Time:	6.357	Roll Set Point:	-0.039	Pitch Set Point:	0.208	Yaw Set Point:	0.291	X_WP:	0.142	Y_WP:	-0.277	Y_WP:	0.500	X:	0.096	Y:	-0.235	Z:	0.045	yaw:	-16.655	yaw rate:	-31.413	Roll:	-1.018	Pitch:	0.265	Yaw:	-25.064	Thrust:	100.000
Time:	6.372	Roll Set Point:	-0.039	Pitch Set Point:	0.208	Yaw Set Point:	0.293	X_WP:	0.142	Y_WP:	-0.277	Y_WP:	0.500	X:	0.096	Y:	-0.235	Z:	0.045	yaw:	-16.783	yaw rate:	-12.776	Roll:	-1.194	Pitch:	0.092	Yaw:	-28.665	Thrust:	100.000
Time:	6.386	Roll Set Point:	-0.039	Pitch Set Point:	0.208	Yaw Set Point:	0.292	X_WP:	0.142	Y_WP:	-0.277	Y_WP:	0.500	X:	0.096	Y:	-0.235	Z:	0.045	yaw:	-16.730	yaw rate:	5.252	Roll:	-1.117	Pitch:	0.340	Yaw:	-25.187	Thrust:	100.000
Time:	6.416	Roll Set Point:	-0.039	Pitch Set Point:	0.208	Yaw Set Point:	0.290	X_WP:	0.142	Y_WP:	-0.277	Y_WP:	0.500	X:	0.096	Y:	-0.235	Z:	0.045	yaw:	-16.622	yaw rate:	10.805	Roll:	-0.702	Pitch:	-0.201	Yaw:	-28.284	Thrust:	100.000
Time:	6.434	Roll Set Point:	-0.039	Pitch Set Point:	0.208	Yaw Set Point:	0.292	X_WP:	0.142	Y_WP:	-0.277	Y_WP:	0.500	X:	0.096	Y:	-0.235	Z:	0.045	yaw:	-16.703	yaw rate:	-8.105	Roll:	-0.942	Pitch:	0.054	Yaw:	-28.107	Thrust:	100.000
Time:	6.453	Roll Set Point:	-0.039	Pitch Set Point:	0.208	Yaw Set Point:	0.286	X_WP:	0.142	Y_WP:	-0.277	Y_WP:	0.500	X:	0.096	Y:	-0.235	Z:	0.045	yaw:	-16.377	yaw rate:	41.180	Roll:	-0.836	Pitch:	0.382	Yaw:	-22.199	Thrust:	100.000
Time:	6.468	Roll Set Point:	-0.040	Pitch Set Point:	0.208	Yaw Set Point:	0.285	X_WP:	0.142	Y_WP:	-0.277	Y_WP:	0.500	X:	0.096	Y:	-0.235	Z:	0.045	yaw:	-16.308	yaw rate:	6.885	Roll:	-1.084	Pitch:	0.334	Yaw:	-24.294	Thrust:	100.000
Time:	6.483	Roll Set Point:	-0.039	Pitch Set Point:	0.209	Yaw Set Point:	0.294	X_WP:	0.142	Y_WP:	-0.277	Y_WP:	0.500	X:	0.096	Y:	-0.235	Z:	0.045	yaw:	-16.831	yaw rate:	-52.292	Roll:	-1.350	Pitch:	-0.338	Yaw:	-35.243	Thrust:	100.000
Time:	6.508	Roll Set Point:	-0.039	Pitch Set Point:	0.209	Yaw Set Point:	0.292	X_WP:	0.142	Y_WP:	-0.277	Y_WP:	0.500	X:	0.096	Y:	-0.235	Z:	0.045	yaw:	-16.758	yaw rate:	7.340	Roll:	-0.799	Pitch:	-0.066	Yaw:	-27.645	Thrust:	100.000
Time:	6.528	Roll Set Point:	-0.039	Pitch Set Point:	0.209	Yaw Set Point:	0.292	X_WP:	0.142	Y_WP:	-0.277	Y_WP:	0.500	X:	0.096	Y:	-0.235	Z:	0.045	yaw:	-16.758	yaw rate:	7.340	Roll:	-0.926	Pitch:	0.064	Yaw:	-27.409	Thrust:	100.000
Time:	6.555	Roll Set Point:	-0.039	Pitch Set Point:	0.209	Yaw Set Point:	0.294	X_WP:	0.142	Y_WP:	-0.277	Y_WP:	0.500	X:	0.096	Y:	-0.235	Z:	0.045	yaw:	-16.830	yaw rate:	-21.033	Roll:	-0.784	Pitch:	-0.197	Yaw:	-29.611	Thrust:	100.000
Time:	6.585	Roll Set Point:	-0.039	Pitch Set Point:	0.209	Yaw Set Point:	0.294	X_WP:	0.142	Y_WP:	-0.277	Y_WP:	0.500	X:	0.096	Y:	-0.235	Z:	0.045	yaw:	-16.830	yaw rate:	-21.033	Roll:	-0.633	Pitch:	-0.291	Yaw:	-29.314	Thrust:	100.000
Time:	6.605	Roll Set Point:	-0.039	Pitch Set Point:	0.209	Yaw Set Point:	0.294	X_WP:	0.142	Y_WP:	-0.277	Y_WP:	0.500	X:	0.096	Y:	-0.235	Z:	0.045	yaw:	-16.845	yaw rate:	-0.848	Roll:	-1.014	Pitch:	0.054	Yaw:	-27.735	Thrust:	100.000
Time:	6.619	Roll Set Point:	-0.039	Pitch Set Point:	0.209	Yaw Set Point:	0.294	X_WP:	0.142	Y_WP:	-0.277	Y_WP:	0.500	X:	0.096	Y:	-0.235	Z:	0.045	yaw:	-16.825	yaw rate:	2.012	Roll:	-1.158	Pitch:	0.341	Yaw:	-25.924	Thrust:	100.000
Time:	6.636	Roll Set Point:	-0.039	Pitch Set Point:	0.209	Yaw Set Point:	0.293	X_WP:	0.142	Y_WP:	-0.277	Y_WP:	0.500	X:	0.096	Y:	-0.235	Z:	0.045	yaw:	-16.811	yaw rate:	1.395	Roll:	-1.068	Pitch:	0.190	Yaw:	-26.668	Thrust:	100.000
Time:	6.650	Roll Set Point:	-0.039	Pitch Set Point:	0.208	Yaw Set Point:	0.292	X_WP:	0.142	Y_WP:	-0.277	Y_WP:	0.500	X:	0.096	Y:	-0.235	Z:	0.045	yaw:	-16.723	yaw rate:	8.886	Roll:	-1.081	Pitch:	0.349	Yaw:	-24.499	Thrust:	100.000
Time:	6.668	Roll Set Point:	-0.039	Pitch Set Point:	0.208	Yaw Set Point:	0.292	X_WP:	0.142	Y_WP:	-0.277	Y_WP:	0.500	X:	0.096	Y:	-0.235	Z:	0.045	yaw:	-16.707	yaw rate:	1.566	Roll:	-1.045	Pitch:	0.165	Yaw:	-26.710	Thrust:	100.000
Time:	6.684	Roll Set Point:	-0.039	Pitch Set Point:	0.209	Yaw Set Point:	0.293	X_WP:	0.142	Y_WP:	-0.277	Y_WP:	0.500	X:	0.096	Y:	-0.235	Z:	0.045	yaw:	-16.814	yaw rate:	-10.694	Roll:	-1.158	Pitch:	0.095	Yaw:	-28.430	Thrust:	100.000
Time:	6.704	Roll Set Point:	-0.039	Pitch Set Point:	0.208	Yaw Set Point:	0.291	X_WP:	0.142	Y_WP:	-0.277	Y_WP:	0.500	X:	0.096	Y:	-0.235	Z:	0.045	yaw:	-16.701	yaw rate:	11.330	Roll:	-1.114	Pitch:	0.215	Yaw:	-25.850	Thrust:	100.000
Time:	6.718	Roll Set Point:	-0.039	Pitch Set Point:	0.208	Yaw Set Point:	0.291	X_WP:	0.142	Y_WP:	-0.277	Y_WP:	0.500	X:	0.096	Y:	-0.235	Z:	0.045	yaw:	-16.670	yaw rate:	11.540	Roll:	-0.972	Pitch:	0.294	Yaw:	-25.515	Thrust:	100.000
Time:	6.733	Roll Set Point:	-0.039	Pitch Set Point:	0.208	Yaw Set Point:	0.293	X_WP:	0.142	Y_WP:	-0.277	Y_WP:	0.500	X:	0.096	Y:	-0.235	Z:	0.045	yaw:	-16.785	yaw rate:	-11.515	Roll:	-1.218	Pitch:	0.118	Yaw:	-28.449	Thrust:	100.000
Time:	6.749	Roll Set Point:	-0.039	Pitch Set Point:	0.208	Yaw Set Point:	0.293	X_WP:	0.142	Y_WP:	-0.277	Y_WP:	0.500	X:	0.096	Y:	-0.235	Z:	0.045	yaw:	-16.785	yaw rate:	-11.515	Roll:	-1.153	Pitch:	0.220	Yaw:	-26.645	Thrust:	100.000
Time:	6.767	Roll Set Point:	-0.039	Pitch Set Point:	0.208	Yaw Set Point:	0.292	X_WP:	0.142	Y_WP:	-0.277	Y_WP:	0.500	X:	0.096	Y:	-0.235	Z:	0.045	yaw:	-16.725	yaw rate:	5.995	Roll:	-1.035	Pitch:	0.212	Yaw:	-26.093	Thrust:	100.000
Time:	6.781	Roll Set Point:	-0.039	Pitch Set Point:	0.208	Yaw Set Point:	0.286	X_WP:	0.142	Y_WP:	-0.277	Y_WP:	0.500	X:	0.096	Y:	-0.235	Z:	0.045	yaw:	-16.358	yaw rate:	38.110	Roll:	-0.954	Pitch:	0.726	Yaw:	-18.799	Thrust:	100.000
Time:	6.795	Roll Set Point:	-0.039	Pitch Set Point:	0.209	Yaw Set Point:	0.294	X_WP:	0.142	Y_WP:	-0.277	Y_WP:	0.500	X:	0.096	Y:	-0.235	Z:	0.045	yaw:	-16.827	yaw rate:	-46.900	Roll:	-1.451	Pitch:	-0.264	Yaw:	-35.049	Thrust:	100.000
Time:	6.813	Roll Set Point:	-0.039	Pitch Set Point:	0.209	Yaw Set Point:	0.294	X_WP:	0.142	Y_WP:	-0.277	Y_WP:	0.500	X:	0.096	Y:	-0.235	Z:	0.045	yaw:	-16.827	yaw rate:	-46.900	Roll:	-1.100	Pitch:	0.188	Yaw:	-27.104	Thrust:	100.000
Time:	6.833	Roll Set Point:	-0.039	Pitch Set Point:	0.208	Yaw Set Point:	0.292	X_WP:	0.142	Y_WP:	-0.277	Y_WP:	0.500	X:	0.096	Y:	-0.235	Z:	0.045	yaw:	-16.718	yaw rate:	-17.636	Roll:	-0.969	Pitch:	0.148	Yaw:	-25.931	Thrust:	100.000
Time:	6.848	Roll Set Point:	-0.040	Pitch Set Point:	0.208	Yaw Set Point:	0.285	X_WP:	0.142	Y_WP:	-0.277	Y_WP:	0.500	X:	0.096	Y:	-0.235	Z:	0.045	yaw:	-16.319	yaw rate:	39.918	Roll:	-0.928	Pitch:	0.695	Yaw:	-18.845	Thrust:	100.000
Time:	6.863	Roll Set Point:	-0.040	Pitch Set Point:	0.208	Yaw Set Point:	0.285	X_WP:	0.142	Y_WP:	-0.277	Y_WP:	0.500	X:	0.096	Y:	-0.235	Z:	0.045	yaw:	-16.319	yaw rate:	39.918	Roll:	-1.193	Pitch:	0.274	Yaw:	-25.794	Thrust:	100.000
Time:	6.880	Roll Set Point:	-0.039	Pitch Set Point:	0.208	Yaw Set Point:	0.292	X_WP:	0.142	Y_WP:	-0.277	Y_WP:	0.500	X:	0.096	Y:	-0.235	Z:	0.045	yaw:	-16.722	yaw rate:	-40.329	Roll:	-1.290	Pitch:	-0.175	Yaw:	-33.138	Thrust:	100.000
Time:	6.899	Roll Set Point:	-0.039	Pitch Set Point:	0.209	Yaw Set Point:	0.293	X_WP:	0.142	Y_WP:	-0.277	Y_WP:	0.500	X:	0.096	Y:	-0.235	Z:	0.045	yaw:	-16.793	yaw rate:	-7.092	Roll:	-1.088	Pitch:	0.036	Yaw:	-28.384	Thrust:	100.000
Time:	6.912	Roll Set Point:	-0.040	Pitch Set Point:	0.208	Yaw Set Point:	0.285	X_WP:	0.142	Y_WP:	-0.277	Y_WP:	0.500	X:	0.096	Y:	-0.235	Z:	0.045	yaw:	-16.341	yaw rate:	48.249	Roll:	-0.939	Pitch:	0.901	Yaw:	-16.345	Thrust:	100.000
Time:	6.930	Roll Set Point:	-0.040	Pitch Set Point:	0.208	Yaw Set Point:	0.285	X_WP:	0.142	Y_WP:	-0.277	Y_WP:	0.500	X:	0.096	Y:	-0.235	Z:	0.045	yaw:	-16.341	yaw rate:	48.249	Roll:	-1.110	Pitch:	0.175	Yaw:	-26.426	Thrust:	100.000
Time:	6.953	Roll Set Point:	-0.039	Pitch Set Point:	0.208	Yaw Set Point:	0.291	X_WP:	0.142	Y_WP:	-0.277	Y_WP:	0.500	X:	0.096	Y:	-0.235	Z:	0.045	yaw:	-16.672	yaw rate:	-33.109	Roll:	-1.042	Pitch:	-0.208	Yaw:	-31.650	Thrust:	100.000
Time:	6.973	Roll Set Point:	-0.039	Pitch Set Point:	0.208	Yaw Set Point:	0.292	X_WP:	0.142	Y_WP:	-0.277	Y_WP:	0.500	X:	0.096	Y:	-0.235	Z:	0.045	yaw:	-16.736	yaw rate:	0.291	Roll:	-1.072	Pitch:	0.051	Yaw:	-28.059	Thrust:	100.000
Time:	7.004	Roll Set Point:	-0.039	Pitch Set Point:	0.208	Yaw Set Point:	0.292	X_WP:	0.142	Y_WP:	-0.277	Y_WP:	0.500	X:	0.096	Y:	-0.235	Z:	0.045	yaw:	-16.736	yaw rate:	0.291	Roll:	-0.703	Pitch:	-0.273	Yaw:	-29.585	Thrust:	100.000
Time:	7.020	Roll Set Point:	-0.039	Pitch Set Point:	0.208	Yaw Set Point:	0.293	X_WP:	0.142	Y_WP:	-0.277	Y_WP:	0.500	X:	0.096	Y:	-0.235	Z:	0.045	yaw:	-16.783	yaw rate:	-4.714	Roll:	-1.176	Pitch:	0.180	Yaw:	-27.412	Thrust:	100.000
Time:	7.045	Roll Set Point:	-0.039	Pitch Set Point:	0.209	Yaw Set Point:	0.294	X_WP:	0.142	Y_WP:	-0.277	Y_WP:	0.500	X:	0.096	Y:	-0.235	Z:	0.045	yaw:	-16.819	yaw rate:	-9.416	Roll:	-0.931	Pitch:	-0.058	Yaw:	-28.686	Thrust:	100.000
Time:	7.069	Roll Set Point:	-0.039	Pitch Set Point:	0.208	Yaw Set Point:	0.292	X_WP:	0.142	Y_WP:	-0.277	Y_WP:	0.500	X:	0.096	Y:	-0.235	Z:	0.045	yaw:	-16.736	yaw rate:	8.350	Roll:	-0.866	Pitch:	-0.009	Yaw:	-27.507	Thrust:	100.000
Time:	7.111	Roll Set Point:	-0.039	Pitch Set Point:	0.208	Yaw Set Point:	0.292	X_WP:	0.142	Y_WP:	-0.277	Y_WP:	0.500	X:	0.096	Y:	-0.235	Z:	0.045	yaw:	-16.736	yaw rate:	8.350	Roll:	-0.426	Pitch:	-0.635	Yaw:	-31.790	Thrust:	100.000
Time:	7.127	Roll Set Point:	-0.039	Pitch Set Point:	0.208	Yaw Set Point:	0.292	X_WP:	0.142	Y_WP:	-0.277	Y_WP:	0.500	X:	0.096	Y:	-0.235	Z:	0.045	yaw:	-16.757	yaw rate:	-3.569	Roll:	-1.152	Pitch:	0.223	Yaw:	-26.949	Thrust:	100.000
Time:	7.145	Roll Set Point:	-0.039	Pitch Set Point:	0.208	Yaw Set Point:	0.292	X_WP:	0.142	Y_WP:	-0.277	Y_WP:	0.500	X:	0.096	Y:	-0.235	Z:	0.045	yaw:	-16.757	yaw rate:	-3.569	Roll:	-1.138	Pitch:	0.209	Yaw:	-26.806	Thrust:	100.000
Time:	7.164	Roll Set Point:	-0.039	Pitch Set Point:	0.209	Yaw Set Point:	0.292	X_WP:	0.142	Y_WP:	-0.277	Y_WP:	0.500	X:	0.096	Y:	-0.235	Z:	0.045	yaw:	-16.724	yaw rate:	3.224	Roll:	-1.030	Pitch:	0.130	Yaw:	-26.941	Thrust:	100.000
Time:	7.178	Roll Set Point:	-0.039	Pitch Set Point:	0.208	Yaw Set Point:	0.286	X_WP:	0.142	Y_WP:	-0.277	Y_WP:	0.500	X:	0.096	Y:	-0.235	Z:	0.045	yaw:	-16.399	yaw rate:	34.673	Roll:	-1.045	Pitch:	0.702	Yaw:	-19.630	Thrust:	100.000
Time:	7.192	Roll Set Point:	-0.039	Pitch Set Point:	0.209	Yaw Set Point:	0.294	X_WP:	0.142	Y_WP:	-0.277	Y_WP:	0.500	X:	0.096	Y:	-0.235	Z:	0.045	yaw:	-16.836	yaw rate:	-43.705	Roll:	-1.474	Pitch:	-0.205	Yaw:	-34.466	Thrust:	100.000
Time:	7.211	Roll Set Point:	-0.039	Pitch Set Point:	0.209	Yaw Set Point:	0.294	X_WP:	0.142	Y_WP:	-0.277	Y_WP:	0.500	X:	0.096	Y:	-0.235	Z:	0.045	yaw:	-16.836	yaw rate:	-43.705	Roll:	-1.119	Pitch:	0.144	Yaw:	-27.317	Thrust:	100.000
Time:	7.244	Roll Set Point:	-0.039	Pitch Set Point:	0.208	Yaw Set Point:	0.291	X_WP:	0.142	Y_WP:	-0.277	Y_WP:	0.500	X:	0.096	Y:	-0.235	Z:	0.045	yaw:	-16.651	yaw rate:	18.460	Roll:	-0.651	Pitch:	-0.217	Yaw:	-28.407	Thrust:	100.000
Time:	7.258	Roll Set Point:	-0.039	Pitch Set Point:	0.208	Yaw Set Point:	0.292	X_WP:	0.142	Y_WP:	-0.277	Y_WP:	0.500	X:	0.096	Y:	-0.235	Z:	0.045	yaw:	-16.738	yaw rate:	-3.258	Roll:	-1.256	Pitch:	0.212	Yaw:	-27.801	Thrust:	100.000
Time:	7.285	Roll Set Point:	-0.039	Pitch Set Point:	0.208	Yaw Set Point:	0.292	X_WP:	0.142	Y_WP:	-0.277	Y_WP:	0.500	X:	0.096	Y:	-0.235	Z:	0.045	yaw:	-16.738	yaw rate:	-3.258	Roll:	-0.872	Pitch:	-0.114	Yaw:	-28.785	Thrust:	100.000
Time:	7.304	Roll Set Point:	-0.039	Pitch Set Point:	0.208	Yaw Set Point:	0.286	X_WP:	0.142	Y_WP:	-0.277	Y_WP:	0.500	X:	0.096	Y:	-0.235	Z:	0.045	yaw:	-16.367	yaw rate:	37.162	Roll:	-0.936	Pitch:	0.477	Yaw:	-21.555	Thrust:	100.000
Time:	7.318	Roll Set Point:	-0.039	Pitch Set Point:	0.208	Yaw Set Point:	0.291	X_WP:	0.142	Y_WP:	-0.277	Y_WP:	0.500	X:	0.096	Y:	-0.235	Z:	0.045	yaw:	-16.648	yaw rate:	-26.330	Roll:	-1.391	Pitch:	-0.005	Yaw:	-31.303	Thrust:	100.000
Time:	7.334	Roll Set Point:	-0.039	Pitch Set Point:	0.209	Yaw Set Point:	0.293	X_WP:	0.142	Y_WP:	-0.277	Y_WP:	0.500	X:	0.096	Y:	-0.235	Z:	0.045	yaw:	-16.814	yaw rate:	-16.586	Roll:	-1.295	Pitch:	0.084	Yaw:	-29.383	Thrust:	100.000
Time:	7.377	Roll Set Point:	-0.040	Pitch Set Point:	0.208	Yaw Set Point:	0.285	X_WP:	0.142	Y_WP:	-0.277	Y_WP:	0.500	X:	0.096	Y:	-0.235	Z:	0.045	yaw:	-16.347	yaw rate:	46.692	Roll:	-0.378	Pitch:	-0.409	Yaw:	-28.613	Thrust:	100.000
Time:	7.400	Roll Set Point:	-0.039	Pitch Set Point:	0.208	Yaw Set Point:	0.291	X_WP:	0.142	Y_WP:	-0.277	Y_WP:	0.500	X:	0.096	Y:	-0.235	Z:	0.045	yaw:	-16.665	yaw rate:	-31.780	Roll:	-1.101	Pitch:	-0.192	Yaw:	-31.488	Thrust:	100.000
Time:	7.417	Roll Set Point:	-0.039	Pitch Set Point:	0.208	Yaw Set Point:	0.291	X_WP:	0.142	Y_WP:	-0.277	Y_WP:	0.500	X:	0.096	Y:	-0.235	Z:	0.045	yaw:	-16.699	yaw rate:	3.927	Roll:	-1.205	Pitch:	0.202	Yaw:	-27.239	Thrust:	100.000
Time:	7.433	Roll Set Point:	-0.039	Pitch Set Point:	0.209	Yaw Set Point:	0.294	X_WP:	0.142	Y_WP:	-0.277	Y_WP:	0.500	X:	0.096	Y:	-0.235	Z:	0.045	yaw:	-16.843	yaw rate:	-14.388	Roll:	-1.261	Pitch:	0.095	Yaw:	-29.074	Thrust:	100.000
Time:	7.449	Roll Set Point:	-0.039	Pitch Set Point:	0.209	Yaw Set Point:	0.293	X_WP:	0.142	Y_WP:	-0.277	Y_WP:	0.500	X:	0.096	Y:	-0.235	Z:	0.045	yaw:	-16.766	yaw rate:	7.712	Roll:	-1.169	Pitch:	0.346	Yaw:	-25.360	Thrust:	100.000
Time:	7.487	Roll Set Point:	-0.039	Pitch Set Point:	0.208	Yaw Set Point:	0.286	X_WP:	0.142	Y_WP:	-0.277	Y_WP:	0.500	X:	0.096	Y:	-0.235	Z:	0.045	yaw:	-16.363	yaw rate:	40.333	Roll:	-0.753	Pitch:	0.110	Yaw:	-27.420	Thrust:	100.000
Time:	7.502	Roll Set Point:	-0.040	Pitch Set Point:	0.208	Yaw Set Point:	0.284	X_WP:	0.142	Y_WP:	-0.277	Y_WP:	0.500	X:	0.096	Y:	-0.235	Z:	0.045	yaw:	-16.279	yaw rate:	44.385	Roll:	-0.959	Pitch:	0.072	Yaw:	-24.290	Thrust:	100.000
Time:	7.518	Roll Set Point:	-0.039	Pitch Set Point:	0.208	Yaw Set Point:	0.292	X_WP:	0.142	Y_WP:	-0.277	Y_WP:	0.500	X:	0.096	Y:	-0.235	Z:	0.045	yaw:	-16.742	yaw rate:	-46.295	Roll:	-1.431	Pitch:	-0.207	Yaw:	-34.099	Thrust:	100.000
Time:	7.535	Roll Set Point:	-0.039	Pitch Set Point:	0.208	Yaw Set Point:	0.292	X_WP:	0.142	Y_WP:	-0.277	Y_WP:	0.500	X:	0.096	Y:	-0.235	Z:	0.045	yaw:	-16.744	yaw rate:	-0.118	Roll:	-1.195	Pitch:	0.235	Yaw:	-26.806	Thrust:	100.000
Time:	7.552	Roll Set Point:	-0.039	Pitch Set Point:	0.208	Yaw Set Point:	0.291	X_WP:	0.142	Y_WP:	-0.277	Y_WP:	0.500	X:	0.096	Y:	-0.235	Z:	0.045	yaw:	-16.651	yaw rate:	9.262	Roll:	-1.137	Pitch:	0.288	Yaw:	-25.236	Thrust:	100.000
Time:	7.571	Roll Set Point:	-0.039	Pitch Set Point:	0.208	Yaw Set Point:	0.292	X_WP:	0.142	Y_WP:	-0.277	Y_WP:	0.500	X:	0.096	Y:	-0.235	Z:	0.045	yaw:	-16.703	yaw rate:	-5.202	Roll:	-1.182	Pitch:	0.151	Yaw:	-27.686	Thrust:	100.000
Time:	7.585	Roll Set Point:	-0.039	Pitch Set Point:	0.208	Yaw Set Point:	0.292	X_WP:	0.142	Y_WP:	-0.277	Y_WP:	0.500	X:	0.096	Y:	-0.235	Z:	0.045	yaw:	-16.725	yaw rate:	10.078	Roll:	-1.250	Pitch:	0.305	Yaw:	-26.737	Thrust:	100.000
Time:	7.601	Roll Set Point:	-0.039	Pitch Set Point:	0.208	Yaw Set Point:	0.292	X_WP:	0.142	Y_WP:	-0.277	Y_WP:	0.500	X:	0.096	Y:	-0.235	Z:	0.045	yaw:	-16.725	yaw rate:	10.078	Roll:	-1.218	Pitch:	0.268	Yaw:	-26.360	Thrust:	100.000
