Time:	2.179	Roll Set Point:	-2.129	Pitch Set Point:	0.741	Yaw Set Point:	0.734	X_WP:	0.000	Y_WP:	0.000	Y_WP:	0.500	X:	0.922	Y:	-0.779	Z:	0.040	yaw:	-42.028	yaw rate:	0.831	Roll:	30.000	Pitch:	1.115	Yaw:	-58.682	Thrust:	25.293
Time:	2.203	Roll Set Point:	-2.129	Pitch Set Point:	0.742	Yaw Set Point:	0.733	X_WP:	0.000	Y_WP:	0.000	Y_WP:	0.500	X:	0.922	Y:	-0.779	Z:	0.040	yaw:	-41.978	yaw rate:	5.019	Roll:	30.000	Pitch:	0.326	Yaw:	-58.401	Thrust:	26.645
Time:	2.226	Roll Set Point:	-2.130	Pitch Set Point:	0.748	Yaw Set Point:	0.728	X_WP:	0.000	Y_WP:	0.000	Y_WP:	0.500	X:	0.922	Y:	-0.780	Z:	0.040	yaw:	-41.684	yaw rate:	34.382	Roll:	30.000	Pitch:	-3.771	Yaw:	-55.542	Thrust:	27.291
Time:	2.251	Roll Set Point:	-2.129	Pitch Set Point:	0.748	Yaw Set Point:	0.727	X_WP:	0.000	Y_WP:	0.000	Y_WP:	0.500	X:	0.922	Y:	-0.779	Z:	0.040	yaw:	-41.663	yaw rate:	-1.890	Roll:	30.000	Pitch:	0.713	Yaw:	-59.000	Thrust:	29.473
Time:	2.274	Roll Set Point:	-2.129	Pitch Set Point:	0.748	Yaw Set Point:	0.728	X_WP:	0.000	Y_WP:	0.000	Y_WP:	0.500	X:	0.922	Y:	-0.779	Z:	0.040	yaw:	-41.686	yaw rate:	-9.478	Roll:	30.000	Pitch:	1.263	Yaw:	-59.862	Thrust:	30.612
Time:	2.299	Roll Set Point:	-2.130	Pitch Set Point:	0.763	Yaw Set Point:	0.715	X_WP:	0.000	Y_WP:	0.000	Y_WP:	0.500	X:	0.923	Y:	-0.780	Z:	0.041	yaw:	-40.987	yaw rate:	62.780	Roll:	30.000	Pitch:	-9.702	Yaw:	-51.586	Thrust:	31.363
Time:	2.319	Roll Set Point:	-2.129	Pitch Set Point:	0.749	Yaw Set Point:	0.726	X_WP:	0.000	Y_WP:	0.000	Y_WP:	0.500	X:	0.922	Y:	-0.779	Z:	0.040	yaw:	-41.616	yaw rate:	-4.626	Roll:	30.000	Pitch:	12.121	Yaw:	-68.053	Thrust:	32.734
Time:	2.342	Roll Set Point:	-2.130	Pitch Set Point:	0.762	Yaw Set Point:	0.716	X_WP:	0.000	Y_WP:	0.000	Y_WP:	0.500	X:	0.923	Y:	-0.780	Z:	0.041	yaw:	-41.023	yaw rate:	59.317	Roll:	30.000	Pitch:	-8.696	Yaw:	-52.916	Thrust:	33.552
Time:	2.362	Roll Set Point:	-2.129	Pitch Set Point:	0.750	Yaw Set Point:	0.726	X_WP:	0.000	Y_WP:	0.000	Y_WP:	0.500	X:	0.922	Y:	-0.779	Z:	0.040	yaw:	-41.607	yaw rate:	-6.375	Roll:	30.000	Pitch:	11.599	Yaw:	-68.193	Thrust:	34.671
Time:	2.386	Roll Set Point:	-2.129	Pitch Set Point:	0.747	Yaw Set Point:	0.728	X_WP:	0.000	Y_WP:	0.000	Y_WP:	0.500	X:	0.922	Y:	-0.779	Z:	0.040	yaw:	-41.708	yaw rate:	-9.138	Roll:	30.000	Pitch:	2.444	Yaw:	-62.480	Thrust:	37.200
Time:	2.409	Roll Set Point:	-2.129	Pitch Set Point:	0.749	Yaw Set Point:	0.726	X_WP:	0.000	Y_WP:	0.000	Y_WP:	0.500	X:	0.922	Y:	-0.779	Z:	0.040	yaw:	-41.617	yaw rate:	-62.321	Roll:	30.000	Pitch:	-0.556	Yaw:	-60.334	Thrust:	37.777
Time:	2.428	Roll Set Point:	-2.129	Pitch Set Point:	0.749	Yaw Set Point:	0.727	X_WP:	0.000	Y_WP:	0.000	Y_WP:	0.500	X:	0.922	Y:	-0.779	Z:	0.040	yaw:	-41.632	yaw rate:	-1.518	Roll:	30.000	Pitch:	1.173	Yaw:	-61.457	Thrust:	37.199
Time:	2.450	Roll Set Point:	-2.129	Pitch Set Point:	0.749	Yaw Set Point:	0.727	X_WP:	0.000	Y_WP:	0.000	Y_WP:	0.500	X:	0.922	Y:	-0.779	Z:	0.040	yaw:	-41.628	yaw rate:	-0.359	Roll:	30.000	Pitch:	0.823	Yaw:	-61.891	Thrust:	39.757
Time:	2.475	Roll Set Point:	-2.129	Pitch Set Point:	0.749	Yaw Set Point:	0.727	X_WP:	0.000	Y_WP:	0.000	Y_WP:	0.500	X:	0.922	Y:	-0.779	Z:	0.040	yaw:	-41.628	yaw rate:	1.748	Roll:	30.000	Pitch:	0.884	Yaw:	-62.955	Thrust:	43.668
Time:	2.495	Roll Set Point:	-2.129	Pitch Set Point:	0.750	Yaw Set Point:	0.726	X_WP:	0.000	Y_WP:	0.000	Y_WP:	0.500	X:	0.922	Y:	-0.779	Z:	0.040	yaw:	-41.609	yaw rate:	1.837	Roll:	30.000	Pitch:	0.564	Yaw:	-61.871	Thrust:	40.410
Time:	2.517	Roll Set Point:	-2.129	Pitch Set Point:	0.749	Yaw Set Point:	0.726	X_WP:	0.000	Y_WP:	0.000	Y_WP:	0.500	X:	0.922	Y:	-0.779	Z:	0.040	yaw:	-41.625	yaw rate:	1.250	Roll:	30.000	Pitch:	1.149	Yaw:	-62.625	Thrust:	43.542
Time:	2.540	Roll Set Point:	-2.130	Pitch Set Point:	0.763	Yaw Set Point:	0.715	X_WP:	0.000	Y_WP:	0.000	Y_WP:	0.500	X:	0.923	Y:	-0.780	Z:	0.041	yaw:	-40.995	yaw rate:	64.339	Roll:	30.000	Pitch:	-9.264	Yaw:	-54.728	Thrust:	44.994
Time:	2.561	Roll Set Point:	-2.129	Pitch Set Point:	0.749	Yaw Set Point:	0.727	X_WP:	0.000	Y_WP:	0.000	Y_WP:	0.500	X:	0.922	Y:	-0.779	Z:	0.040	yaw:	-41.627	yaw rate:	0.565	Roll:	30.000	Pitch:	12.200	Yaw:	-70.386	Thrust:	44.864
Time:	2.583	Roll Set Point:	-2.129	Pitch Set Point:	0.749	Yaw Set Point:	0.726	X_WP:	0.000	Y_WP:	0.000	Y_WP:	0.500	X:	0.922	Y:	-0.779	Z:	0.040	yaw:	-41.622	yaw rate:	4.202	Roll:	30.000	Pitch:	0.822	Yaw:	-62.366	Thrust:	46.683
Time:	2.606	Roll Set Point:	-2.130	Pitch Set Point:	0.762	Yaw Set Point:	0.716	X_WP:	0.000	Y_WP:	0.000	Y_WP:	0.500	X:	0.923	Y:	-0.780	Z:	0.041	yaw:	-41.012	yaw rate:	61.655	Roll:	30.000	Pitch:	-8.557	Yaw:	-55.449	Thrust:	49.837
Time:	2.629	Roll Set Point:	-2.129	Pitch Set Point:	0.750	Yaw Set Point:	0.726	X_WP:	0.000	Y_WP:	0.000	Y_WP:	0.500	X:	0.922	Y:	-0.779	Z:	0.040	yaw:	-41.589	yaw rate:	-57.717	Roll:	30.000	Pitch:	10.031	Yaw:	-69.227	Thrust:	50.942
Time:	2.649	Roll Set Point:	-2.129	Pitch Set Point:	0.749	Yaw Set Point:	0.726	X_WP:	0.000	Y_WP:	0.000	Y_WP:	0.500	X:	0.922	Y:	-0.779	Z:	0.040	yaw:	-41.625	yaw rate:	0.783	Roll:	30.000	Pitch:	1.538	Yaw:	-62.700	Thrust:	49.171
Time:	2.673	Roll Set Point:	-2.129	Pitch Set Point:	0.748	Yaw Set Point:	0.728	X_WP:	0.000	Y_WP:	0.000	Y_WP:	0.500	X:	0.922	Y:	-0.779	Z:	0.040	yaw:	-41.686	yaw rate:	-2.755	Roll:	30.000	Pitch:	1.846	Yaw:	-63.597	Thrust:	54.599
Time:	2.696	Roll Set Point:	-2.130	Pitch Set Point:	0.763	Yaw Set Point:	0.716	X_WP:	0.000	Y_WP:	0.000	Y_WP:	0.500	X:	0.923	Y:	-0.780	Z:	0.041	yaw:	-40.998	yaw rate:	65.822	Roll:	30.000	Pitch:	-10.403	Yaw:	-53.781	Thrust:	53.084
Time:	2.716	Roll Set Point:	-2.129	Pitch Set Point:	0.748	Yaw Set Point:	0.727	X_WP:	0.000	Y_WP:	0.000	Y_WP:	0.500	X:	0.922	Y:	-0.779	Z:	0.040	yaw:	-41.676	yaw rate:	-67.770	Roll:	30.000	Pitch:	12.886	Yaw:	-70.979	Thrust:	53.072
Time:	2.740	Roll Set Point:	-2.129	Pitch Set Point:	0.749	Yaw Set Point:	0.727	X_WP:	0.000	Y_WP:	0.000	Y_WP:	0.500	X:	0.922	Y:	-0.779	Z:	0.040	yaw:	-41.655	yaw rate:	-4.779	Roll:	30.000	Pitch:	0.617	Yaw:	-62.647	Thrust:	57.771
Time:	2.760	Roll Set Point:	-2.129	Pitch Set Point:	0.749	Yaw Set Point:	0.727	X_WP:	0.000	Y_WP:	0.000	Y_WP:	0.500	X:	0.922	Y:	-0.779	Z:	0.040	yaw:	-41.634	yaw rate:	2.144	Roll:	30.000	Pitch:	0.540	Yaw:	-61.864	Thrust:	54.089
Time:	2.782	Roll Set Point:	-2.129	Pitch Set Point:	0.749	Yaw Set Point:	0.727	X_WP:	0.000	Y_WP:	0.000	Y_WP:	0.500	X:	0.922	Y:	-0.779	Z:	0.040	yaw:	-41.654	yaw rate:	-0.524	Roll:	30.000	Pitch:	1.252	Yaw:	-62.913	Thrust:	58.876
Time:	2.808	Roll Set Point:	-2.129	Pitch Set Point:	0.750	Yaw Set Point:	0.725	X_WP:	0.000	Y_WP:	0.000	Y_WP:	0.500	X:	0.922	Y:	-0.779	Z:	0.040	yaw:	-41.568	yaw rate:	-57.919	Roll:	30.000	Pitch:	-0.317	Yaw:	-62.272	Thrust:	64.799
Time:	2.830	Roll Set Point:	-2.129	Pitch Set Point:	0.749	Yaw Set Point:	0.727	X_WP:	0.000	Y_WP:	0.000	Y_WP:	0.500	X:	0.922	Y:	-0.779	Z:	0.040	yaw:	-41.645	yaw rate:	-3.860	Roll:	30.000	Pitch:	2.150	Yaw:	-63.556	Thrust:	61.437
Time:	2.851	Roll Set Point:	-2.129	Pitch Set Point:	0.749	Yaw Set Point:	0.727	X_WP:	0.000	Y_WP:	0.000	Y_WP:	0.500	X:	0.922	Y:	-0.779	Z:	0.040	yaw:	-41.628	yaw rate:	1.731	Roll:	30.000	Pitch:	0.616	Yaw:	-62.014	Thrust:	59.294
Time:	2.874	Roll Set Point:	-2.129	Pitch Set Point:	0.748	Yaw Set Point:	0.727	X_WP:	0.000	Y_WP:	0.000	Y_WP:	0.500	X:	0.922	Y:	-0.779	Z:	0.040	yaw:	-41.661	yaw rate:	-1.559	Roll:	30.000	Pitch:	1.459	Yaw:	-63.158	Thrust:	64.687
Time:	2.894	Roll Set Point:	-2.130	Pitch Set Point:	0.763	Yaw Set Point:	0.716	X_WP:	0.000	Y_WP:	0.000	Y_WP:	0.500	X:	0.923	Y:	-0.780	Z:	0.041	yaw:	-41.002	yaw rate:	65.846	Roll:	30.000	Pitch:	-11.224	Yaw:	-52.673	Thrust:	59.929
Time:	2.918	Roll Set Point:	-2.129	Pitch Set Point:	0.749	Yaw Set Point:	0.726	X_WP:	0.000	Y_WP:	0.000	Y_WP:	0.500	X:	0.922	Y:	-0.779	Z:	0.040	yaw:	-41.620	yaw rate:	4.272	Roll:	30.000	Pitch:	10.313	Yaw:	-69.684	Thrust:	68.896
Time:	2.941	Roll Set Point:	-2.129	Pitch Set Point:	0.749	Yaw Set Point:	0.727	X_WP:	0.000	Y_WP:	0.000	Y_WP:	0.500	X:	0.922	Y:	-0.779	Z:	0.040	yaw:	-41.627	yaw rate:	-0.697	Roll:	30.000	Pitch:	1.040	Yaw:	-62.822	Thrust:	68.610
Time:	2.965	Roll Set Point:	-2.129	Pitch Set Point:	0.748	Yaw Set Point:	0.728	X_WP:	0.000	Y_WP:	0.000	Y_WP:	0.500	X:	0.922	Y:	-0.779	Z:	0.040	yaw:	-41.689	yaw rate:	0.857	Roll:	30.000	Pitch:	1.918	Yaw:	-63.611	Thrust:	70.796
Time:	2.988	Roll Set Point:	-2.129	Pitch Set Point:	0.748	Yaw Set Point:	0.727	X_WP:	0.000	Y_WP:	0.000	Y_WP:	0.500	X:	0.922	Y:	-0.779	Z:	0.040	yaw:	-41.681	yaw rate:	-3.271	Roll:	30.000	Pitch:	0.842	Yaw:	-62.822	Thrust:	70.058
Time:	3.009	Roll Set Point:	-2.129	Pitch Set Point:	0.750	Yaw Set Point:	0.726	X_WP:	0.000	Y_WP:	0.000	Y_WP:	0.500	X:	0.922	Y:	-0.779	Z:	0.040	yaw:	-41.606	yaw rate:	-57.189	Roll:	30.000	Pitch:	-0.297	Yaw:	-61.386	Thrust:	70.370
Time:	3.029	Roll Set Point:	-2.129	Pitch Set Point:	0.749	Yaw Set Point:	0.727	X_WP:	0.000	Y_WP:	0.000	Y_WP:	0.500	X:	0.922	Y:	-0.779	Z:	0.040	yaw:	-41.657	yaw rate:	-6.811	Roll:	30.000	Pitch:	1.880	Yaw:	-62.761	Thrust:	66.356
Time:	3.052	Roll Set Point:	-2.130	Pitch Set Point:	0.764	Yaw Set Point:	0.715	X_WP:	0.000	Y_WP:	0.000	Y_WP:	0.500	X:	0.923	Y:	-0.780	Z:	0.041	yaw:	-40.945	yaw rate:	71.214	Roll:	30.000	Pitch:	-10.323	Yaw:	-53.973	Thrust:	75.284
Time:	3.073	Roll Set Point:	-2.129	Pitch Set Point:	0.749	Yaw Set Point:	0.727	X_WP:	0.000	Y_WP:	0.000	Y_WP:	0.500	X:	0.922	Y:	-0.779	Z:	0.040	yaw:	-41.651	yaw rate:	-6.052	Roll:	30.000	Pitch:	12.949	Yaw:	-71.133	Thrust:	72.655
Time:	3.093	Roll Set Point:	-2.129	Pitch Set Point:	0.749	Yaw Set Point:	0.727	X_WP:	0.000	Y_WP:	0.000	Y_WP:	0.500	X:	0.922	Y:	-0.779	Z:	0.040	yaw:	-41.639	yaw rate:	0.022	Roll:	30.000	Pitch:	0.714	Yaw:	-61.889	Thrust:	69.520
Time:	3.115	Roll Set Point:	-2.130	Pitch Set Point:	0.762	Yaw Set Point:	0.716	X_WP:	0.000	Y_WP:	0.000	Y_WP:	0.500	X:	0.923	Y:	-0.780	Z:	0.041	yaw:	-41.013	yaw rate:	59.737	Roll:	30.000	Pitch:	-9.362	Yaw:	-54.535	Thrust:	76.878
Time:	3.137	Roll Set Point:	-2.129	Pitch Set Point:	0.750	Yaw Set Point:	0.726	X_WP:	0.000	Y_WP:	0.000	Y_WP:	0.500	X:	0.922	Y:	-0.779	Z:	0.040	yaw:	-41.590	yaw rate:	-57.750	Roll:	30.000	Pitch:	10.307	Yaw:	-69.336	Thrust:	78.334
Time:	3.158	Roll Set Point:	-2.129	Pitch Set Point:	0.749	Yaw Set Point:	0.726	X_WP:	0.000	Y_WP:	0.000	Y_WP:	0.500	X:	0.922	Y:	-0.779	Z:	0.040	yaw:	-41.622	yaw rate:	0.589	Roll:	30.000	Pitch:	1.496	Yaw:	-62.718	Thrust:	75.244
Time:	3.178	Roll Set Point:	-2.130	Pitch Set Point:	0.764	Yaw Set Point:	0.715	X_WP:	0.000	Y_WP:	0.000	Y_WP:	0.500	X:	0.923	Y:	-0.780	Z:	0.041	yaw:	-40.949	yaw rate:	3.365	Roll:	30.000	Pitch:	-11.198	Yaw:	-52.109	Thrust:	74.329
Time:	3.198	Roll Set Point:	-2.129	Pitch Set Point:	0.750	Yaw Set Point:	0.726	X_WP:	0.000	Y_WP:	0.000	Y_WP:	0.500	X:	0.922	Y:	-0.779	Z:	0.040	yaw:	-41.611	yaw rate:	4.633	Roll:	30.000	Pitch:	13.064	Yaw:	-70.870	Thrust:	75.780
Time:	3.219	Roll Set Point:	-2.129	Pitch Set Point:	0.749	Yaw Set Point:	0.727	X_WP:	0.000	Y_WP:	0.000	Y_WP:	0.500	X:	0.922	Y:	-0.779	Z:	0.040	yaw:	-41.639	yaw rate:	-2.770	Roll:	30.000	Pitch:	1.412	Yaw:	-62.786	Thrust:	81.208
Time:	3.245	Roll Set Point:	-2.129	Pitch Set Point:	0.749	Yaw Set Point:	0.727	X_WP:	0.000	Y_WP:	0.000	Y_WP:	0.500	X:	0.922	Y:	-0.779	Z:	0.040	yaw:	-41.648	yaw rate:	-4.696	Roll:	30.000	Pitch:	1.102	Yaw:	-63.462	Thrust:	94.387
Time:	3.271	Roll Set Point:	-2.129	Pitch Set Point:	0.749	Yaw Set Point:	0.727	X_WP:	0.000	Y_WP:	0.000	Y_WP:	0.500	X:	0.922	Y:	-0.779	Z:	0.040	yaw:	-41.634	yaw rate:	1.854	Roll:	30.000	Pitch:	0.769	Yaw:	-63.107	Thrust:	94.377
Time:	3.291	Roll Set Point:	-2.129	Pitch Set Point:	0.749	Yaw Set Point:	0.727	X_WP:	0.000	Y_WP:	0.000	Y_WP:	0.500	X:	0.922	Y:	-0.779	Z:	0.040	yaw:	-41.629	yaw rate:	-0.011	Roll:	30.000	Pitch:	0.856	Yaw:	-62.167	Thrust:	82.046
Time:	3.313	Roll Set Point:	-2.130	Pitch Set Point:	0.762	Yaw Set Point:	0.716	X_WP:	0.000	Y_WP:	0.000	Y_WP:	0.500	X:	0.923	Y:	-0.780	Z:	0.041	yaw:	-41.010	yaw rate:	64.426	Roll:	30.000	Pitch:	-9.944	Yaw:	-53.807	Thrust:	83.793
Time:	3.338	Roll Set Point:	-2.129	Pitch Set Point:	0.749	Yaw Set Point:	0.727	X_WP:	0.000	Y_WP:	0.000	Y_WP:	0.500	X:	0.922	Y:	-0.779	Z:	0.040	yaw:	-41.635	yaw rate:	-62.468	Roll:	30.000	Pitch:	9.918	Yaw:	-69.642	Thrust:	97.884
Time:	3.359	Roll Set Point:	-2.130	Pitch Set Point:	0.763	Yaw Set Point:	0.716	X_WP:	0.000	Y_WP:	0.000	Y_WP:	0.500	X:	0.923	Y:	-0.780	Z:	0.041	yaw:	-40.998	yaw rate:	64.113	Roll:	30.000	Pitch:	-10.575	Yaw:	-53.242	Thrust:	84.573
Time:	3.382	Roll Set Point:	-2.129	Pitch Set Point:	0.748	Yaw Set Point:	0.727	X_WP:	0.000	Y_WP:	0.000	Y_WP:	0.500	X:	0.922	Y:	-0.779	Z:	0.040	yaw:	-41.662	yaw rate:	-10.101	Roll:	30.000	Pitch:	10.878	Yaw:	-70.266	Thrust:	97.801
Time:	3.407	Roll Set Point:	-2.129	Pitch Set Point:	0.749	Yaw Set Point:	0.727	X_WP:	0.000	Y_WP:	0.000	Y_WP:	0.500	X:	0.922	Y:	-0.779	Z:	0.040	yaw:	-41.648	yaw rate:	-1.834	Roll:	30.000	Pitch:	0.760	Yaw:	-63.023	Thrust:	98.473
Time:	3.427	Roll Set Point:	-2.129	Pitch Set Point:	0.749	Yaw Set Point:	0.727	X_WP:	0.000	Y_WP:	0.000	Y_WP:	0.500	X:	0.922	Y:	-0.779	Z:	0.040	yaw:	-41.647	yaw rate:	0.098	Roll:	30.000	Pitch:	0.963	Yaw:	-62.048	Thrust:	88.841
Time:	3.449	Roll Set Point:	-2.129	Pitch Set Point:	0.749	Yaw Set Point:	0.727	X_WP:	0.000	Y_WP:	0.000	Y_WP:	0.500	X:	0.922	Y:	-0.779	Z:	0.040	yaw:	-41.643	yaw rate:	1.541	Roll:	30.000	Pitch:	0.919	Yaw:	-62.518	Thrust:	94.551
Time:	3.475	Roll Set Point:	-2.129	Pitch Set Point:	0.749	Yaw Set Point:	0.727	X_WP:	0.000	Y_WP:	0.000	Y_WP:	0.500	X:	0.922	Y:	-0.779	Z:	0.040	yaw:	-41.634	yaw rate:	-6.172	Roll:	30.000	Pitch:	0.852	Yaw:	-63.257	Thrust:	100.000
Time:	3.501	Roll Set Point:	-2.129	Pitch Set Point:	0.750	Yaw Set Point:	0.726	X_WP:	0.000	Y_WP:	0.000	Y_WP:	0.500	X:	0.922	Y:	-0.779	Z:	0.040	yaw:	-41.599	yaw rate:	4.765	Roll:	30.000	Pitch:	0.474	Yaw:	-62.841	Thrust:	100.000
Time:	3.526	Roll Set Point:	-2.129	Pitch Set Point:	0.750	Yaw Set Point:	0.726	X_WP:	0.000	Y_WP:	0.000	Y_WP:	0.500	X:	0.922	Y:	-0.779	Z:	0.040	yaw:	-41.595	yaw rate:	3.071	Roll:	30.000	Pitch:	0.896	Yaw:	-62.948	Thrust:	100.000
Time:	3.547	Roll Set Point:	-2.130	Pitch Set Point:	0.763	Yaw Set Point:	0.716	X_WP:	0.000	Y_WP:	0.000	Y_WP:	0.500	X:	0.923	Y:	-0.780	Z:	0.041	yaw:	-41.003	yaw rate:	59.161	Roll:	30.000	Pitch:	-9.032	Yaw:	-54.647	Thrust:	98.769
Time:	3.571	Roll Set Point:	-2.129	Pitch Set Point:	0.749	Yaw Set Point:	0.727	X_WP:	0.000	Y_WP:	0.000	Y_WP:	0.500	X:	0.922	Y:	-0.779	Z:	0.040	yaw:	-41.646	yaw rate:	-3.665	Roll:	30.000	Pitch:	10.983	Yaw:	-70.058	Thrust:	100.000
Time:	3.592	Roll Set Point:	-2.129	Pitch Set Point:	0.750	Yaw Set Point:	0.726	X_WP:	0.000	Y_WP:	0.000	Y_WP:	0.500	X:	0.922	Y:	-0.779	Z:	0.040	yaw:	-41.588	yaw rate:	-56.446	Roll:	30.000	Pitch:	-0.065	Yaw:	-61.563	Thrust:	98.496
Time:	3.613	Roll Set Point:	-2.129	Pitch Set Point:	0.750	Yaw Set Point:	0.726	X_WP:	0.000	Y_WP:	0.000	Y_WP:	0.500	X:	0.922	Y:	-0.779	Z:	0.040	yaw:	-41.597	yaw rate:	1.478	Roll:	30.000	Pitch:	1.080	Yaw:	-62.399	Thrust:	99.655
Time:	3.641	Roll Set Point:	-2.129	Pitch Set Point:	0.749	Yaw Set Point:	0.727	X_WP:	0.000	Y_WP:	0.000	Y_WP:	0.500	X:	0.922	Y:	-0.779	Z:	0.040	yaw:	-41.648	yaw rate:	1.564	Roll:	30.000	Pitch:	1.691	Yaw:	-64.155	Thrust:	100.000
Time:	3.669	Roll Set Point:	-2.129	Pitch Set Point:	0.750	Yaw Set Point:	0.726	X_WP:	0.000	Y_WP:	0.000	Y_WP:	0.500	X:	0.922	Y:	-0.779	Z:	0.040	yaw:	-41.607	yaw rate:	0.892	Roll:	30.000	Pitch:	0.459	Yaw:	-63.328	Thrust:	100.000
Time:	3.695	Roll Set Point:	-2.129	Pitch Set Point:	0.749	Yaw Set Point:	0.726	X_WP:	0.000	Y_WP:	0.000	Y_WP:	0.500	X:	0.922	Y:	-0.779	Z:	0.040	yaw:	-41.623	yaw rate:	-61.700	Roll:	30.000	Pitch:	1.227	Yaw:	-63.597	Thrust:	100.000
Time:	3.725	Roll Set Point:	-2.129	Pitch Set Point:	0.749	Yaw Set Point:	0.727	X_WP:	0.000	Y_WP:	0.000	Y_WP:	0.500	X:	0.922	Y:	-0.779	Z:	0.040	yaw:	-41.654	yaw rate:	-5.906	Roll:	30.000	Pitch:	1.424	Yaw:	-64.453	Thrust:	100.000
Time:	3.754	Roll Set Point:	-2.129	Pitch Set Point:	0.749	Yaw Set Point:	0.726	X_WP:	0.000	Y_WP:	0.000	Y_WP:	0.500	X:	0.922	Y:	-0.779	Z:	0.040	yaw:	-41.620	yaw rate:	-61.232	Roll:	30.000	Pitch:	0.596	Yaw:	-63.510	Thrust:	100.000
Time:	3.782	Roll Set Point:	-2.130	Pitch Set Point:	0.763	Yaw Set Point:	0.715	X_WP:	0.000	Y_WP:	0.000	Y_WP:	0.500	X:	0.923	Y:	-0.780	Z:	0.041	yaw:	-40.963	yaw rate:	65.855	Roll:	30.000	Pitch:	-7.920	Yaw:	-56.265	Thrust:	100.000
Time:	3.810	Roll Set Point:	-2.130	Pitch Set Point:	0.762	Yaw Set Point:	0.716	X_WP:	0.000	Y_WP:	0.000	Y_WP:	0.500	X:	0.923	Y:	-0.780	Z:	0.041	yaw:	-41.016	yaw rate:	64.941	Roll:	30.000	Pitch:	1.292	Yaw:	-63.474	Thrust:	100.000
Time:	3.841	Roll Set Point:	-2.129	Pitch Set Point:	0.748	Yaw Set Point:	0.727	X_WP:	0.000	Y_WP:	0.000	Y_WP:	0.500	X:	0.922	Y:	-0.779	Z:	0.040	yaw:	-41.666	yaw rate:	-5.975	Roll:	30.000	Pitch:	8.657	Yaw:	-69.856	Thrust:	100.000
Time:	3.869	Roll Set Point:	-2.129	Pitch Set Point:	0.750	Yaw Set Point:	0.726	X_WP:	0.000	Y_WP:	0.000	Y_WP:	0.500	X:	0.922	Y:	-0.779	Z:	0.040	yaw:	-41.579	yaw rate:	6.133	Roll:	30.000	Pitch:	-0.056	Yaw:	-63.198	Thrust:	100.000
Time:	3.892	Roll Set Point:	-2.129	Pitch Set Point:	0.749	Yaw Set Point:	0.726	X_WP:	0.000	Y_WP:	0.000	Y_WP:	0.500	X:	0.922	Y:	-0.779	Z:	0.040	yaw:	-41.623	yaw rate:	-4.442	Roll:	30.000	Pitch:	1.703	Yaw:	-63.059	Thrust:	100.000
Time:	3.916	Roll Set Point:	-2.129	Pitch Set Point:	0.748	Yaw Set Point:	0.727	X_WP:	0.000	Y_WP:	0.000	Y_WP:	0.500	X:	0.922	Y:	-0.779	Z:	0.040	yaw:	-41.660	yaw rate:	-3.129	Roll:	30.000	Pitch:	1.559	Yaw:	-63.423	Thrust:	100.000
Time:	3.941	Roll Set Point:	-2.129	Pitch Set Point:	0.749	Yaw Set Point:	0.727	X_WP:	0.000	Y_WP:	0.000	Y_WP:	0.500	X:	0.922	Y:	-0.779	Z:	0.040	yaw:	-41.643	yaw rate:	0.032	Roll:	30.000	Pitch:	0.766	Yaw:	-62.794	Thrust:	100.000
Time:	3.962	Roll Set Point:	-2.130	Pitch Set Point:	0.763	Yaw Set Point:	0.715	X_WP:	0.000	Y_WP:	0.000	Y_WP:	0.500	X:	0.923	Y:	-0.780	Z:	0.041	yaw:	-40.980	yaw rate:	66.310	Roll:	30.000	Pitch:	-10.712	Yaw:	-53.188	Thrust:	100.000
Time:	3.983	Roll Set Point:	-2.129	Pitch Set Point:	0.749	Yaw Set Point:	0.727	X_WP:	0.000	Y_WP:	0.000	Y_WP:	0.500	X:	0.922	Y:	-0.779	Z:	0.040	yaw:	-41.629	yaw rate:	-6.689	Roll:	30.000	Pitch:	11.548	Yaw:	-70.230	Thrust:	100.000
Time:	4.008	Roll Set Point:	-2.129	Pitch Set Point:	0.749	Yaw Set Point:	0.727	X_WP:	0.000	Y_WP:	0.000	Y_WP:	0.500	X:	0.922	Y:	-0.779	Z:	0.040	yaw:	-41.636	yaw rate:	1.369	Roll:	30.000	Pitch:	1.110	Yaw:	-63.132	Thrust:	100.000
Time:	4.030	Roll Set Point:	-2.129	Pitch Set Point:	0.740	Yaw Set Point:	0.734	X_WP:	0.000	Y_WP:	0.000	Y_WP:	0.500	X:	0.922	Y:	-0.779	Z:	0.040	yaw:	-42.064	yaw rate:	-5.459	Roll:	30.000	Pitch:	7.936	Yaw:	-68.204	Thrust:	100.000
Time:	4.052	Roll Set Point:	-2.129	Pitch Set Point:	0.741	Yaw Set Point:	0.733	X_WP:	0.000	Y_WP:	0.000	Y_WP:	0.500	X:	0.922	Y:	-0.779	Z:	0.040	yaw:	-42.018	yaw rate:	4.542	Roll:	30.000	Pitch:	0.459	Yaw:	-62.432	Thrust:	100.000
Time:	4.076	Roll Set Point:	-2.129	Pitch Set Point:	0.741	Yaw Set Point:	0.733	X_WP:	0.000	Y_WP:	0.000	Y_WP:	0.500	X:	0.922	Y:	-0.779	Z:	0.040	yaw:	-42.019	yaw rate:	-0.151	Roll:	30.000	Pitch:	1.260	Yaw:	-63.601	Thrust:	100.000
Time:	4.103	Roll Set Point:	-2.129	Pitch Set Point:	0.740	Yaw Set Point:	0.734	X_WP:	0.000	Y_WP:	0.000	Y_WP:	0.500	X:	0.922	Y:	-0.779	Z:	0.040	yaw:	-42.051	yaw rate:	-3.492	Roll:	30.000	Pitch:	1.716	Yaw:	-64.246	Thrust:	100.000
Time:	4.127	Roll Set Point:	-2.129	Pitch Set Point:	0.741	Yaw Set Point:	0.734	X_WP:	0.000	Y_WP:	0.000	Y_WP:	0.500	X:	0.922	Y:	-0.779	Z:	0.040	yaw:	-42.036	yaw rate:	-1.045	Roll:	30.000	Pitch:	1.042	Yaw:	-63.353	Thrust:	100.000
Time:	4.148	Roll Set Point:	-2.129	Pitch Set Point:	0.749	Yaw Set Point:	0.727	X_WP:	0.000	Y_WP:	0.000	Y_WP:	0.500	X:	0.922	Y:	-0.779	Z:	0.040	yaw:	-41.648	yaw rate:	38.869	Roll:	30.000	Pitch:	-5.468	Yaw:	-57.535	Thrust:	100.000
Time:	4.170	Roll Set Point:	-2.129	Pitch Set Point:	0.749	Yaw Set Point:	0.727	X_WP:	0.000	Y_WP:	0.000	Y_WP:	0.500	X:	0.922	Y:	-0.779	Z:	0.040	yaw:	-41.651	yaw rate:	-0.054	Roll:	30.000	Pitch:	1.079	Yaw:	-62.705	Thrust:	100.000
Time:	4.192	Roll Set Point:	-2.129	Pitch Set Point:	0.749	Yaw Set Point:	0.726	X_WP:	0.000	Y_WP:	0.000	Y_WP:	0.500	X:	0.922	Y:	-0.779	Z:	0.040	yaw:	-41.615	yaw rate:	3.586	Roll:	30.000	Pitch:	0.431	Yaw:	-62.097	Thrust:	100.000
Time:	4.214	Roll Set Point:	-2.130	Pitch Set Point:	0.763	Yaw Set Point:	0.715	X_WP:	0.000	Y_WP:	0.000	Y_WP:	0.500	X:	0.923	Y:	-0.780	Z:	0.041	yaw:	-40.979	yaw rate:	70.577	Roll:	30.000	Pitch:	-10.240	Yaw:	-53.804	Thrust:	100.000
Time:	4.238	Roll Set Point:	-2.129	Pitch Set Point:	0.749	Yaw Set Point:	0.726	X_WP:	0.000	Y_WP:	0.000	Y_WP:	0.500	X:	0.922	Y:	-0.779	Z:	0.040	yaw:	-41.622	yaw rate:	4.347	Roll:	30.000	Pitch:	10.425	Yaw:	-69.974	Thrust:	100.000
Time:	4.262	Roll Set Point:	-2.130	Pitch Set Point:	0.762	Yaw Set Point:	0.716	X_WP:	0.000	Y_WP:	0.000	Y_WP:	0.500	X:	0.923	Y:	-0.780	Z:	0.041	yaw:	-41.015	yaw rate:	60.670	Roll:	30.000	Pitch:	-8.206	Yaw:	-55.718	Thrust:	100.000
Time:	4.287	Roll Set Point:	-2.129	Pitch Set Point:	0.749	Yaw Set Point:	0.727	X_WP:	0.000	Y_WP:	0.000	Y_WP:	0.500	X:	0.922	Y:	-0.779	Z:	0.040	yaw:	-41.651	yaw rate:	-4.754	Roll:	30.000	Pitch:	10.318	Yaw:	-69.838	Thrust:	100.000
Time:	4.309	Roll Set Point:	-2.129	Pitch Set Point:	0.749	Yaw Set Point:	0.727	X_WP:	0.000	Y_WP:	0.000	Y_WP:	0.500	X:	0.922	Y:	-0.779	Z:	0.040	yaw:	-41.638	yaw rate:	-4.155	Roll:	30.000	Pitch:	0.818	Yaw:	-62.504	Thrust:	100.000
Time:	4.329	Roll Set Point:	-2.129	Pitch Set Point:	0.749	Yaw Set Point:	0.727	X_WP:	0.000	Y_WP:	0.000	Y_WP:	0.500	X:	0.922	Y:	-0.779	Z:	0.040	yaw:	-41.634	yaw rate:	0.403	Roll:	30.000	Pitch:	0.947	Yaw:	-61.989	Thrust:	100.000
Time:	4.350	Roll Set Point:	-2.129	Pitch Set Point:	0.749	Yaw Set Point:	0.727	X_WP:	0.000	Y_WP:	0.000	Y_WP:	0.500	X:	0.922	Y:	-0.779	Z:	0.040	yaw:	-41.632	yaw rate:	-3.567	Roll:	30.000	Pitch:	0.977	Yaw:	-62.426	Thrust:	100.000
Time:	4.373	Roll Set Point:	-2.129	Pitch Set Point:	0.748	Yaw Set Point:	0.727	X_WP:	0.000	Y_WP:	0.000	Y_WP:	0.500	X:	0.922	Y:	-0.779	Z:	0.040	yaw:	-41.663	yaw rate:	-3.175	Roll:	30.000	Pitch:	1.550	Yaw:	-63.148	Thrust:	100.000
Time:	4.395	Roll Set Point:	-2.129	Pitch Set Point:	0.749	Yaw Set Point:	0.727	X_WP:	0.000	Y_WP:	0.000	Y_WP:	0.500	X:	0.922	Y:	-0.779	Z:	0.040	yaw:	-41.626	yaw rate:	-3.787	Roll:	30.000	Pitch:	0.373	Yaw:	-61.875	Thrust:	100.000
Time:	4.417	Roll Set Point:	-2.130	Pitch Set Point:	0.763	Yaw Set Point:	0.715	X_WP:	0.000	Y_WP:	0.000	Y_WP:	0.500	X:	0.923	Y:	-0.780	Z:	0.041	yaw:	-40.977	yaw rate:	68.407	Roll:	30.000	Pitch:	-9.472	Yaw:	-54.193	Thrust:	100.000
Time:	4.440	Roll Set Point:	-2.129	Pitch Set Point:	0.749	Yaw Set Point:	0.727	X_WP:	0.000	Y_WP:	0.000	Y_WP:	0.500	X:	0.922	Y:	-0.779	Z:	0.040	yaw:	-41.633	yaw rate:	1.535	Roll:	30.000	Pitch:	11.452	Yaw:	-70.250	Thrust:	100.000
Time:	4.461	Roll Set Point:	-2.129	Pitch Set Point:	0.750	Yaw Set Point:	0.726	X_WP:	0.000	Y_WP:	0.000	Y_WP:	0.500	X:	0.922	Y:	-0.779	Z:	0.040	yaw:	-41.588	yaw rate:	4.497	Roll:	30.000	Pitch:	0.239	Yaw:	-61.721	Thrust:	100.000
Time:	4.485	Roll Set Point:	-2.129	Pitch Set Point:	0.749	Yaw Set Point:	0.727	X_WP:	0.000	Y_WP:	0.000	Y_WP:	0.500	X:	0.922	Y:	-0.779	Z:	0.040	yaw:	-41.648	yaw rate:	-2.026	Roll:	30.000	Pitch:	1.969	Yaw:	-63.451	Thrust:	100.000
Time:	4.505	Roll Set Point:	-2.129	Pitch Set Point:	0.749	Yaw Set Point:	0.727	X_WP:	0.000	Y_WP:	0.000	Y_WP:	0.500	X:	0.922	Y:	-0.779	Z:	0.040	yaw:	-41.626	yaw rate:	5.123	Roll:	30.000	Pitch:	0.670	Yaw:	-62.166	Thrust:	100.000
Time:	4.527	Roll Set Point:	-2.130	Pitch Set Point:	0.762	Yaw Set Point:	0.716	X_WP:	0.000	Y_WP:	0.000	Y_WP:	0.500	X:	0.923	Y:	-0.780	Z:	0.041	yaw:	-41.025	yaw rate:	60.142	Roll:	30.000	Pitch:	-9.183	Yaw:	-54.463	Thrust:	100.000
Time:	4.550	Roll Set Point:	-2.130	Pitch Set Point:	0.763	Yaw Set Point:	0.715	X_WP:	0.000	Y_WP:	0.000	Y_WP:	0.500	X:	0.923	Y:	-0.780	Z:	0.041	yaw:	-40.966	yaw rate:	-0.260	Roll:	30.000	Pitch:	-0.309	Yaw:	-61.149	Thrust:	100.000
Time:	4.575	Roll Set Point:	-2.129	Pitch Set Point:	0.748	Yaw Set Point:	0.727	X_WP:	0.000	Y_WP:	0.000	Y_WP:	0.500	X:	0.922	Y:	-0.779	Z:	0.040	yaw:	-41.680	yaw rate:	-2.475	Roll:	30.000	Pitch:	11.303	Yaw:	-70.720	Thrust:	100.000
Time:	4.601	Roll Set Point:	-2.129	Pitch Set Point:	0.749	Yaw Set Point:	0.727	X_WP:	0.000	Y_WP:	0.000	Y_WP:	0.500	X:	0.922	Y:	-0.779	Z:	0.040	yaw:	-41.633	yaw rate:	-3.868	Roll:	30.000	Pitch:	0.421	Yaw:	-62.763	Thrust:	100.000
Time:	4.626	Roll Set Point:	-2.130	Pitch Set Point:	0.763	Yaw Set Point:	0.715	X_WP:	0.000	Y_WP:	0.000	Y_WP:	0.500	X:	0.923	Y:	-0.780	Z:	0.041	yaw:	-40.989	yaw rate:	61.061	Roll:	30.000	Pitch:	-8.746	Yaw:	-55.291	Thrust:	100.000
Time:	4.648	Roll Set Point:	-2.130	Pitch Set Point:	0.764	Yaw Set Point:	0.714	X_WP:	0.000	Y_WP:	0.000	Y_WP:	0.500	X:	0.923	Y:	-0.780	Z:	0.041	yaw:	-40.933	yaw rate:	5.654	Roll:	30.000	Pitch:	-0.305	Yaw:	-61.011	Thrust:	100.000
Time:	4.672	Roll Set Point:	-2.130	Pitch Set Point:	0.762	Yaw Set Point:	0.716	X_WP:	0.000	Y_WP:	0.000	Y_WP:	0.500	X:	0.923	Y:	-0.780	Z:	0.041	yaw:	-41.023	yaw rate:	55.564	Roll:	30.000	Pitch:	2.014	Yaw:	-63.161	Thrust:	100.000
Time:	4.697	Roll Set Point:	-2.129	Pitch Set Point:	0.750	Yaw Set Point:	0.726	X_WP:	0.000	Y_WP:	0.000	Y_WP:	0.500	X:	0.922	Y:	-0.779	Z:	0.040	yaw:	-41.570	yaw rate:	-59.633	Roll:	30.000	Pitch:	8.796	Yaw:	-68.765	Thrust:	100.000
Time:	4.718	Roll Set Point:	-2.129	Pitch Set Point:	0.749	Yaw Set Point:	0.726	X_WP:	0.000	Y_WP:	0.000	Y_WP:	0.500	X:	0.922	Y:	-0.779	Z:	0.040	yaw:	-41.618	yaw rate:	-4.738	Roll:	30.000	Pitch:	1.866	Yaw:	-62.743	Thrust:	100.000
Time:	4.742	Roll Set Point:	-2.129	Pitch Set Point:	0.749	Yaw Set Point:	0.726	X_WP:	0.000	Y_WP:	0.000	Y_WP:	0.500	X:	0.922	Y:	-0.779	Z:	0.040	yaw:	-41.624	yaw rate:	-2.538	Roll:	30.000	Pitch:	1.160	Yaw:	-63.108	Thrust:	100.000
Time:	4.763	Roll Set Point:	-2.129	Pitch Set Point:	0.750	Yaw Set Point:	0.726	X_WP:	0.000	Y_WP:	0.000	Y_WP:	0.500	X:	0.922	Y:	-0.779	Z:	0.040	yaw:	-41.605	yaw rate:	2.218	Roll:	30.000	Pitch:	0.683	Yaw:	-62.063	Thrust:	100.000
Time:	4.787	Roll Set Point:	-2.130	Pitch Set Point:	0.762	Yaw Set Point:	0.716	X_WP:	0.000	Y_WP:	0.000	Y_WP:	0.500	X:	0.923	Y:	-0.780	Z:	0.041	yaw:	-41.016	yaw rate:	58.844	Roll:	30.000	Pitch:	-8.419	Yaw:	-55.246	Thrust:	100.000
Time:	4.813	Roll Set Point:	-2.129	Pitch Set Point:	0.750	Yaw Set Point:	0.726	X_WP:	0.000	Y_WP:	0.000	Y_WP:	0.500	X:	0.922	Y:	-0.779	Z:	0.040	yaw:	-41.577	yaw rate:	4.109	Roll:	30.000	Pitch:	8.758	Yaw:	-68.896	Thrust:	100.000
Time:	4.837	Roll Set Point:	-2.130	Pitch Set Point:	0.763	Yaw Set Point:	0.715	X_WP:	0.000	Y_WP:	0.000	Y_WP:	0.500	X:	0.923	Y:	-0.780	Z:	0.041	yaw:	-40.963	yaw rate:	4.170	Roll:	30.000	Pitch:	-8.317	Yaw:	-55.565	Thrust:	100.000
Time:	4.860	Roll Set Point:	-2.130	Pitch Set Point:	0.762	Yaw Set Point:	0.716	X_WP:	0.000	Y_WP:	0.000	Y_WP:	0.500	X:	0.923	Y:	-0.780	Z:	0.041	yaw:	-41.026	yaw rate:	62.099	Roll:	30.000	Pitch:	1.719	Yaw:	-62.621	Thrust:	100.000
Time:	4.883	Roll Set Point:	-2.129	Pitch Set Point:	0.751	Yaw Set Point:	0.725	X_WP:	0.000	Y_WP:	0.000	Y_WP:	0.500	X:	0.922	Y:	-0.779	Z:	0.040	yaw:	-41.553	yaw rate:	-57.517	Roll:	30.000	Pitch:	9.017	Yaw:	-68.611	Thrust:	100.000
Time:	4.905	Roll Set Point:	-2.129	Pitch Set Point:	0.750	Yaw Set Point:	0.726	X_WP:	0.000	Y_WP:	0.000	Y_WP:	0.500	X:	0.922	Y:	-0.779	Z:	0.040	yaw:	-41.610	yaw rate:	1.056	Roll:	30.000	Pitch:	1.974	Yaw:	-63.184	Thrust:	100.000
Time:	4.928	Roll Set Point:	-2.129	Pitch Set Point:	0.749	Yaw Set Point:	0.726	X_WP:	0.000	Y_WP:	0.000	Y_WP:	0.500	X:	0.922	Y:	-0.779	Z:	0.040	yaw:	-41.623	yaw rate:	-1.352	Roll:	30.000	Pitch:	1.287	Yaw:	-62.727	Thrust:	100.000
Time:	4.952	Roll Set Point:	-2.129	Pitch Set Point:	0.750	Yaw Set Point:	0.726	X_WP:	0.000	Y_WP:	0.000	Y_WP:	0.500	X:	0.922	Y:	-0.779	Z:	0.040	yaw:	-41.583	yaw rate:	-59.289	Roll:	30.000	Pitch:	0.441	Yaw:	-62.439	Thrust:	100.000
Time:	4.974	Roll Set Point:	-2.129	Pitch Set Point:	0.749	Yaw Set Point:	0.726	X_WP:	0.000	Y_WP:	0.000	Y_WP:	0.500	X:	0.922	Y:	-0.779	Z:	0.040	yaw:	-41.621	yaw rate:	-1.821	Roll:	30.000	Pitch:	1.637	Yaw:	-63.062	Thrust:	100.000
Time:	4.995	Roll Set Point:	-2.129	Pitch Set Point:	0.750	Yaw Set Point:	0.726	X_WP:	0.000	Y_WP:	0.000	Y_WP:	0.500	X:	0.922	Y:	-0.779	Z:	0.040	yaw:	-41.570	yaw rate:	5.044	Roll:	30.000	Pitch:	0.145	Yaw:	-61.627	Thrust:	100.000
Time:	5.016	Roll Set Point:	-2.129	Pitch Set Point:	0.749	Yaw Set Point:	0.726	X_WP:	0.000	Y_WP:	0.000	Y_WP:	0.500	X:	0.922	Y:	-0.779	Z:	0.040	yaw:	-41.619	yaw rate:	-0.599	Roll:	30.000	Pitch:	1.875	Yaw:	-62.843	Thrust:	100.000
Time:	5.040	Roll Set Point:	-2.129	Pitch Set Point:	0.749	Yaw Set Point:	0.727	X_WP:	0.000	Y_WP:	0.000	Y_WP:	0.500	X:	0.922	Y:	-0.779	Z:	0.040	yaw:	-41.630	yaw rate:	-2.613	Roll:	30.000	Pitch:	1.259	Yaw:	-63.074	Thrust:	100.000
Time:	5.062	Roll Set Point:	-2.129	Pitch Set Point:	0.749	Yaw Set Point:	0.727	X_WP:	0.000	Y_WP:	0.000	Y_WP:	0.500	X:	0.922	Y:	-0.779	Z:	0.040	yaw:	-41.658	yaw rate:	-2.776	Roll:	30.000	Pitch:	1.531	Yaw:	-62.907	Thrust:	100.000
Time:	5.087	Roll Set Point:	-2.129	Pitch Set Point:	0.749	Yaw Set Point:	0.726	X_WP:	0.000	Y_WP:	0.000	Y_WP:	0.500	X:	0.922	Y:	-0.779	Z:	0.040	yaw:	-41.615	yaw rate:	3.520	Roll:	30.000	Pitch:	0.426	Yaw:	-62.343	Thrust:	100.000
Time:	5.111	Roll Set Point:	-2.129	Pitch Set Point:	0.750	Yaw Set Point:	0.726	X_WP:	0.000	Y_WP:	0.000	Y_WP:	0.500	X:	0.922	Y:	-0.779	Z:	0.040	yaw:	-41.581	yaw rate:	-60.998	Roll:	30.000	Pitch:	0.574	Yaw:	-62.724	Thrust:	100.000
Time:	5.133	Roll Set Point:	-2.129	Pitch Set Point:	0.749	Yaw Set Point:	0.726	X_WP:	0.000	Y_WP:	0.000	Y_WP:	0.500	X:	0.922	Y:	-0.779	Z:	0.040	yaw:	-41.613	yaw rate:	1.779	Roll:	30.000	Pitch:	1.596	Yaw:	-62.995	Thrust:	100.000
Time:	5.160	Roll Set Point:	-2.129	Pitch Set Point:	0.748	Yaw Set Point:	0.727	X_WP:	0.000	Y_WP:	0.000	Y_WP:	0.500	X:	0.922	Y:	-0.779	Z:	0.040	yaw:	-41.661	yaw rate:	-4.820	Roll:	30.000	Pitch:	1.774	Yaw:	-63.955	Thrust:	100.000
Time:	5.181	Roll Set Point:	-2.129	Pitch Set Point:	0.750	Yaw Set Point:	0.726	X_WP:	0.000	Y_WP:	0.000	Y_WP:	0.500	X:	0.922	Y:	-0.779	Z:	0.040	yaw:	-41.603	yaw rate:	1.938	Roll:	30.000	Pitch:	0.116	Yaw:	-61.700	Thrust:	100.000
Time:	5.205	Roll Set Point:	-2.129	Pitch Set Point:	0.749	Yaw Set Point:	0.727	X_WP:	0.000	Y_WP:	0.000	Y_WP:	0.500	X:	0.922	Y:	-0.779	Z:	0.040	yaw:	-41.652	yaw rate:	-4.943	Roll:	30.000	Pitch:	1.875	Yaw:	-63.349	Thrust:	100.000
Time:	5.228	Roll Set Point:	-2.129	Pitch Set Point:	0.750	Yaw Set Point:	0.726	X_WP:	0.000	Y_WP:	0.000	Y_WP:	0.500	X:	0.922	Y:	-0.779	Z:	0.040	yaw:	-41.612	yaw rate:	1.699	Roll:	30.000	Pitch:	0.444	Yaw:	-62.383	Thrust:	100.000
Time:	5.250	Roll Set Point:	-2.129	Pitch Set Point:	0.748	Yaw Set Point:	0.727	X_WP:	0.000	Y_WP:	0.000	Y_WP:	0.500	X:	0.922	Y:	-0.779	Z:	0.040	yaw:	-41.671	yaw rate:	-4.998	Roll:	30.000	Pitch:	2.072	Yaw:	-63.215	Thrust:	100.000
Time:	5.274	Roll Set Point:	-2.129	Pitch Set Point:	0.749	Yaw Set Point:	0.727	X_WP:	0.000	Y_WP:	0.000	Y_WP:	0.500	X:	0.922	Y:	-0.779	Z:	0.040	yaw:	-41.626	yaw rate:	2.345	Roll:	30.000	Pitch:	0.403	Yaw:	-62.344	Thrust:	100.000
Time:	5.295	Roll Set Point:	-2.130	Pitch Set Point:	0.763	Yaw Set Point:	0.715	X_WP:	0.000	Y_WP:	0.000	Y_WP:	0.500	X:	0.923	Y:	-0.780	Z:	0.041	yaw:	-40.962	yaw rate:	66.401	Roll:	30.000	Pitch:	-10.369	Yaw:	-53.734	Thrust:	100.000
Time:	5.317	Roll Set Point:	-2.129	Pitch Set Point:	0.749	Yaw Set Point:	0.726	X_WP:	0.000	Y_WP:	0.000	Y_WP:	0.500	X:	0.922	Y:	-0.779	Z:	0.040	yaw:	-41.623	yaw rate:	0.070	Roll:	30.000	Pitch:	11.841	Yaw:	-70.463	Thrust:	100.000
Time:	5.344	Roll Set Point:	-2.129	Pitch Set Point:	0.750	Yaw Set Point:	0.726	X_WP:	0.000	Y_WP:	0.000	Y_WP:	0.500	X:	0.922	Y:	-0.779	Z:	0.040	yaw:	-41.591	yaw rate:	-56.532	Roll:	30.000	Pitch:	0.653	Yaw:	-63.081	Thrust:	100.000
Time:	5.368	Roll Set Point:	-2.130	Pitch Set Point:	0.763	Yaw Set Point:	0.715	X_WP:	0.000	Y_WP:	0.000	Y_WP:	0.500	X:	0.923	Y:	-0.780	Z:	0.041	yaw:	-40.990	yaw rate:	64.599	Roll:	30.000	Pitch:	-7.867	Yaw:	-55.742	Thrust:	100.000
Time:	5.392	Roll Set Point:	-2.129	Pitch Set Point:	0.749	Yaw Set Point:	0.727	X_WP:	0.000	Y_WP:	0.000	Y_WP:	0.500	X:	0.922	Y:	-0.779	Z:	0.040	yaw:	-41.628	yaw rate:	2.088	Roll:	30.000	Pitch:	10.609	Yaw:	-69.874	Thrust:	100.000
Time:	5.416	Roll Set Point:	-2.129	Pitch Set Point:	0.749	Yaw Set Point:	0.726	X_WP:	0.000	Y_WP:	0.000	Y_WP:	0.500	X:	0.922	Y:	-0.779	Z:	0.040	yaw:	-41.616	yaw rate:	1.680	Roll:	30.000	Pitch:	0.897	Yaw:	-62.682	Thrust:	100.000
Time:	5.442	Roll Set Point:	-2.130	Pitch Set Point:	0.763	Yaw Set Point:	0.716	X_WP:	0.000	Y_WP:	0.000	Y_WP:	0.500	X:	0.923	Y:	-0.780	Z:	0.041	yaw:	-40.996	yaw rate:	65.222	Roll:	30.000	Pitch:	-7.748	Yaw:	-56.258	Thrust:	100.000
Time:	5.466	Roll Set Point:	-2.129	Pitch Set Point:	0.750	Yaw Set Point:	0.726	X_WP:	0.000	Y_WP:	0.000	Y_WP:	0.500	X:	0.922	Y:	-0.779	Z:	0.040	yaw:	-41.601	yaw rate:	3.353	Roll:	30.000	Pitch:	10.285	Yaw:	-69.471	Thrust:	100.000
Time:	5.492	Roll Set Point:	-2.129	Pitch Set Point:	0.750	Yaw Set Point:	0.726	X_WP:	0.000	Y_WP:	0.000	Y_WP:	0.500	X:	0.922	Y:	-0.779	Z:	0.040	yaw:	-41.608	yaw rate:	-0.717	Roll:	30.000	Pitch:	1.217	Yaw:	-63.384	Thrust:	100.000
Time:	5.514	Roll Set Point:	-2.129	Pitch Set Point:	0.749	Yaw Set Point:	0.727	X_WP:	0.000	Y_WP:	0.000	Y_WP:	0.500	X:	0.922	Y:	-0.779	Z:	0.040	yaw:	-41.652	yaw rate:	-5.784	Roll:	30.000	Pitch:	1.840	Yaw:	-62.917	Thrust:	100.000
Time:	5.540	Roll Set Point:	-2.130	Pitch Set Point:	0.763	Yaw Set Point:	0.715	X_WP:	0.000	Y_WP:	0.000	Y_WP:	0.500	X:	0.923	Y:	-0.780	Z:	0.041	yaw:	-40.984	yaw rate:	61.997	Roll:	30.000	Pitch:	-8.267	Yaw:	-55.970	Thrust:	100.000
Time:	5.561	Roll Set Point:	-2.129	Pitch Set Point:	0.750	Yaw Set Point:	0.726	X_WP:	0.000	Y_WP:	0.000	Y_WP:	0.500	X:	0.922	Y:	-0.779	Z:	0.040	yaw:	-41.600	yaw rate:	-62.965	Roll:	30.000	Pitch:	11.576	Yaw:	-69.954	Thrust:	100.000
Time:	5.581	Roll Set Point:	-2.129	Pitch Set Point:	0.749	Yaw Set Point:	0.727	X_WP:	0.000	Y_WP:	0.000	Y_WP:	0.500	X:	0.922	Y:	-0.779	Z:	0.040	yaw:	-41.657	yaw rate:	-2.370	Roll:	30.000	Pitch:	2.086	Yaw:	-62.994	Thrust:	100.000
Time:	5.605	Roll Set Point:	-2.130	Pitch Set Point:	0.763	Yaw Set Point:	0.716	X_WP:	0.000	Y_WP:	0.000	Y_WP:	0.500	X:	0.923	Y:	-0.780	Z:	0.041	yaw:	-41.003	yaw rate:	65.377	Roll:	30.000	Pitch:	-9.658	Yaw:	-54.189	Thrust:	100.000
Time:	5.628	Roll Set Point:	-2.129	Pitch Set Point:	0.749	Yaw Set Point:	0.726	X_WP:	0.000	Y_WP:	0.000	Y_WP:	0.500	X:	0.922	Y:	-0.779	Z:	0.040	yaw:	-41.615	yaw rate:	2.445	Roll:	30.000	Pitch:	10.608	Yaw:	-69.659	Thrust:	100.000
Time:	5.651	Roll Set Point:	-2.129	Pitch Set Point:	0.751	Yaw Set Point:	0.725	X_WP:	0.000	Y_WP:	0.000	Y_WP:	0.500	X:	0.922	Y:	-0.779	Z:	0.040	yaw:	-41.519	yaw rate:	-57.545	Roll:	30.000	Pitch:	-0.438	Yaw:	-61.617	Thrust:	100.000
Time:	5.677	Roll Set Point:	-2.130	Pitch Set Point:	0.765	Yaw Set Point:	0.714	X_WP:	0.000	Y_WP:	0.000	Y_WP:	0.500	X:	0.923	Y:	-0.780	Z:	0.041	yaw:	-40.909	yaw rate:	68.882	Roll:	30.000	Pitch:	-7.306	Yaw:	-56.507	Thrust:	100.000
Time:	5.704	Roll Set Point:	-2.130	Pitch Set Point:	0.762	Yaw Set Point:	0.716	X_WP:	0.000	Y_WP:	0.000	Y_WP:	0.500	X:	0.923	Y:	-0.780	Z:	0.041	yaw:	-41.008	yaw rate:	57.954	Roll:	30.000	Pitch:	2.121	Yaw:	-63.541	Thrust:	100.000
Time:	5.726	Roll Set Point:	-2.129	Pitch Set Point:	0.750	Yaw Set Point:	0.726	X_WP:	0.000	Y_WP:	0.000	Y_WP:	0.500	X:	0.922	Y:	-0.779	Z:	0.040	yaw:	-41.571	yaw rate:	-62.889	Roll:	30.000	Pitch:	10.243	Yaw:	-69.142	Thrust:	100.000
Time:	5.750	Roll Set Point:	-2.130	Pitch Set Point:	0.763	Yaw Set Point:	0.716	X_WP:	0.000	Y_WP:	0.000	Y_WP:	0.500	X:	0.923	Y:	-0.780	Z:	0.041	yaw:	-41.002	yaw rate:	60.050	Roll:	30.000	Pitch:	-7.766	Yaw:	-55.609	Thrust:	100.000
Time:	5.775	Roll Set Point:	-2.129	Pitch Set Point:	0.749	Yaw Set Point:	0.726	X_WP:	0.000	Y_WP:	0.000	Y_WP:	0.500	X:	0.922	Y:	-0.779	Z:	0.040	yaw:	-41.616	yaw rate:	-8.168	Roll:	30.000	Pitch:	9.751	Yaw:	-69.500	Thrust:	100.000
Time:	5.803	Roll Set Point:	-2.130	Pitch Set Point:	0.762	Yaw Set Point:	0.716	X_WP:	0.000	Y_WP:	0.000	Y_WP:	0.500	X:	0.923	Y:	-0.780	Z:	0.041	yaw:	-41.007	yaw rate:	65.039	Roll:	30.000	Pitch:	-7.114	Yaw:	-57.219	Thrust:	100.000
Time:	5.825	Roll Set Point:	-2.130	Pitch Set Point:	0.763	Yaw Set Point:	0.715	X_WP:	0.000	Y_WP:	0.000	Y_WP:	0.500	X:	0.923	Y:	-0.780	Z:	0.041	yaw:	-40.977	yaw rate:	3.063	Roll:	30.000	Pitch:	0.221	Yaw:	-61.272	Thrust:	100.000
Time:	5.850	Roll Set Point:	-2.130	Pitch Set Point:	0.765	Yaw Set Point:	0.714	X_WP:	0.000	Y_WP:	0.000	Y_WP:	0.500	X:	0.923	Y:	-0.780	Z:	0.041	yaw:	-40.903	yaw rate:	4.715	Roll:	30.000	Pitch:	-0.408	Yaw:	-61.127	Thrust:	100.000
Time:	5.874	Roll Set Point:	-2.129	Pitch Set Point:	0.750	Yaw Set Point:	0.726	X_WP:	0.000	Y_WP:	0.000	Y_WP:	0.500	X:	0.922	Y:	-0.779	Z:	0.040	yaw:	-41.611	yaw rate:	-61.293	Roll:	30.000	Pitch:	11.262	Yaw:	-70.557	Thrust:	100.000
Time:	5.897	Roll Set Point:	-2.130	Pitch Set Point:	0.763	Yaw Set Point:	0.715	X_WP:	0.000	Y_WP:	0.000	Y_WP:	0.500	X:	0.923	Y:	-0.780	Z:	0.041	yaw:	-40.991	yaw rate:	66.072	Roll:	30.000	Pitch:	-8.904	Yaw:	-54.810	Thrust:	100.000
Time:	5.920	Roll Set Point:	-2.129	Pitch Set Point:	0.750	Yaw Set Point:	0.726	X_WP:	0.000	Y_WP:	0.000	Y_WP:	0.500	X:	0.922	Y:	-0.779	Z:	0.040	yaw:	-41.581	yaw rate:	-58.963	Roll:	30.000	Pitch:	10.460	Yaw:	-69.410	Thrust:	100.000
Time:	5.944	Roll Set Point:	-2.130	Pitch Set Point:	0.763	Yaw Set Point:	0.716	X_WP:	0.000	Y_WP:	0.000	Y_WP:	0.500	X:	0.923	Y:	-0.780	Z:	0.041	yaw:	-40.995	yaw rate:	63.697	Roll:	30.000	Pitch:	-7.788	Yaw:	-55.918	Thrust:	100.000
Time:	5.969	Roll Set Point:	-2.130	Pitch Set Point:	0.763	Yaw Set Point:	0.716	X_WP:	0.000	Y_WP:	0.000	Y_WP:	0.500	X:	0.923	Y:	-0.780	Z:	0.041	yaw:	-41.001	yaw rate:	56.967	Roll:	30.000	Pitch:	0.860	Yaw:	-62.326	Thrust:	100.000
Time:	5.992	Roll Set Point:	-2.129	Pitch Set Point:	0.750	Yaw Set Point:	0.726	X_WP:	0.000	Y_WP:	0.000	Y_WP:	0.500	X:	0.922	Y:	-0.779	Z:	0.040	yaw:	-41.592	yaw rate:	-59.068	Roll:	30.000	Pitch:	10.879	Yaw:	-69.485	Thrust:	100.000
Time:	6.012	Roll Set Point:	-0.981	Pitch Set Point:	0.803	Yaw Set Point:	0.715	X_WP:	0.894	Y_WP:	-0.724	Y_WP:	0.500	X:	0.923	Y:	-0.780	Z:	0.041	yaw:	-40.954	yaw rate:	5.344	Roll:	-30.000	Pitch:	-30.000	Yaw:	-52.869	Thrust:	100.000
Time:	6.038	Roll Set Point:	-0.980	Pitch Set Point:	0.803	Yaw Set Point:	0.716	X_WP:	0.894	Y_WP:	-0.724	Y_WP:	0.500	X:	0.923	Y:	-0.780	Z:	0.041	yaw:	-41.019	yaw rate:	61.940	Roll:	2.621	Pitch:	-0.332	Yaw:	-63.055	Thrust:	100.000
Time:	6.060	Roll Set Point:	-0.981	Pitch Set Point:	0.802	Yaw Set Point:	0.727	X_WP:	0.894	Y_WP:	-0.724	Y_WP:	0.500	X:	0.922	Y:	-0.779	Z:	0.040	yaw:	-41.637	yaw rate:	-5.926	Roll:	2.734	Pitch:	0.057	Yaw:	-69.764	Thrust:	100.000
Time:	6.083	Roll Set Point:	-0.981	Pitch Set Point:	0.803	Yaw Set Point:	0.715	X_WP:	0.894	Y_WP:	-0.724	Y_WP:	0.500	X:	0.923	Y:	-0.780	Z:	0.041	yaw:	-40.954	yaw rate:	4.545	Roll:	2.374	Pitch:	-0.915	Yaw:	-53.767	Thrust:	100.000
Time:	6.108	Roll Set Point:	-0.981	Pitch Set Point:	0.803	Yaw Set Point:	0.715	X_WP:	0.894	Y_WP:	-0.724	Y_WP:	0.500	X:	0.923	Y:	-0.780	Z:	0.041	yaw:	-40.988	yaw rate:	-3.397	Roll:	2.612	Pitch:	-0.375	Yaw:	-62.511	Thrust:	100.000
Time:	6.132	Roll Set Point:	-0.980	Pitch Set Point:	0.803	Yaw Set Point:	0.714	X_WP:	0.894	Y_WP:	-0.724	Y_WP:	0.500	X:	0.923	Y:	-0.780	Z:	0.041	yaw:	-40.936	yaw rate:	1.358	Roll:	2.571	Pitch:	-0.437	Yaw:	-61.522	Thrust:	100.000
Time:	6.165	Roll Set Point:	-0.981	Pitch Set Point:	0.802	Yaw Set Point:	0.727	X_WP:	0.894	Y_WP:	-0.724	Y_WP:	0.500	X:	0.922	Y:	-0.779	Z:	0.040	yaw:	-41.676	yaw rate:	-6.379	Roll:	2.964	Pitch:	0.093	Yaw:	-70.652	Thrust:	100.000
Time:	6.195	Roll Set Point:	-0.980	Pitch Set Point:	0.802	Yaw Set Point:	0.726	X_WP:	0.894	Y_WP:	-0.724	Y_WP:	0.500	X:	0.922	Y:	-0.779	Z:	0.040	yaw:	-41.570	yaw rate:	-59.412	Roll:	2.820	Pitch:	-0.387	Yaw:	-63.141	Thrust:	100.000
Time:	6.218	Roll Set Point:	-0.981	Pitch Set Point:	0.802	Yaw Set Point:	0.726	X_WP:	0.894	Y_WP:	-0.724	Y_WP:	0.500	X:	0.922	Y:	-0.779	Z:	0.040	yaw:	-41.568	yaw rate:	-58.979	Roll:	2.664	Pitch:	-0.376	Yaw:	-62.739	Thrust:	100.000
Time:	6.246	Roll Set Point:	-0.981	Pitch Set Point:	0.802	Yaw Set Point:	0.727	X_WP:	0.894	Y_WP:	-0.724	Y_WP:	0.500	X:	0.922	Y:	-0.779	Z:	0.040	yaw:	-41.652	yaw rate:	-5.029	Roll:	2.757	Pitch:	-0.307	Yaw:	-64.560	Thrust:	100.000
Time:	6.271	Roll Set Point:	-0.981	Pitch Set Point:	0.802	Yaw Set Point:	0.727	X_WP:	0.894	Y_WP:	-0.724	Y_WP:	0.500	X:	0.922	Y:	-0.779	Z:	0.040	yaw:	-41.649	yaw rate:	0.292	Roll:	2.627	Pitch:	-0.379	Yaw:	-63.136	Thrust:	100.000
Time:	6.294	Roll Set Point:	-0.980	Pitch Set Point:	0.803	Yaw Set Point:	0.715	X_WP:	0.894	Y_WP:	-0.724	Y_WP:	0.500	X:	0.923	Y:	-0.780	Z:	0.041	yaw:	-40.990	yaw rate:	65.441	Roll:	2.295	Pitch:	-0.949	Yaw:	-53.842	Thrust:	100.000
Time:	6.318	Roll Set Point:	-0.981	Pitch Set Point:	0.802	Yaw Set Point:	0.727	X_WP:	0.894	Y_WP:	-0.724	Y_WP:	0.500	X:	0.922	Y:	-0.779	Z:	0.040	yaw:	-41.653	yaw rate:	-2.625	Roll:	2.787	Pitch:	0.067	Yaw:	-70.136	Thrust:	100.000
Time:	6.347	Roll Set Point:	-0.981	Pitch Set Point:	0.802	Yaw Set Point:	0.726	X_WP:	0.894	Y_WP:	-0.724	Y_WP:	0.500	X:	0.922	Y:	-0.779	Z:	0.040	yaw:	-41.610	yaw rate:	-59.529	Roll:	2.759	Pitch:	-0.361	Yaw:	-63.424	Thrust:	100.000
Time:	6.372	Roll Set Point:	-0.981	Pitch Set Point:	0.802	Yaw Set Point:	0.728	X_WP:	0.894	Y_WP:	-0.724	Y_WP:	0.500	X:	0.922	Y:	-0.779	Z:	0.040	yaw:	-41.691	yaw rate:	-10.113	Roll:	2.664	Pitch:	-0.337	Yaw:	-64.076	Thrust:	100.000
Time:	6.394	Roll Set Point:	-0.981	Pitch Set Point:	0.802	Yaw Set Point:	0.726	X_WP:	0.894	Y_WP:	-0.724	Y_WP:	0.500	X:	0.922	Y:	-0.779	Z:	0.040	yaw:	-41.588	yaw rate:	-59.841	Roll:	2.488	Pitch:	-0.489	Yaw:	-61.378	Thrust:	100.000
Time:	6.416	Roll Set Point:	-0.980	Pitch Set Point:	0.803	Yaw Set Point:	0.715	X_WP:	0.894	Y_WP:	-0.724	Y_WP:	0.500	X:	0.923	Y:	-0.780	Z:	0.041	yaw:	-40.942	yaw rate:	64.545	Roll:	2.303	Pitch:	-0.961	Yaw:	-53.525	Thrust:	100.000
Time:	6.442	Roll Set Point:	-0.980	Pitch Set Point:	0.803	Yaw Set Point:	0.716	X_WP:	0.894	Y_WP:	-0.724	Y_WP:	0.500	X:	0.923	Y:	-0.780	Z:	0.041	yaw:	-40.999	yaw rate:	56.598	Roll:	2.636	Pitch:	-0.371	Yaw:	-63.029	Thrust:	100.000
Time:	6.469	Roll Set Point:	-0.980	Pitch Set Point:	0.803	Yaw Set Point:	0.715	X_WP:	0.894	Y_WP:	-0.724	Y_WP:	0.500	X:	0.923	Y:	-0.780	Z:	0.041	yaw:	-40.958	yaw rate:	67.191	Roll:	2.722	Pitch:	-0.407	Yaw:	-62.314	Thrust:	100.000
Time:	6.515	Roll Set Point:	-0.980	Pitch Set Point:	0.803	Yaw Set Point:	0.715	X_WP:	0.894	Y_WP:	-0.724	Y_WP:	0.500	X:	0.923	Y:	-0.780	Z:	0.041	yaw:	-40.980	yaw rate:	69.079	Roll:	3.322	Pitch:	-0.216	Yaw:	-66.383	Thrust:	100.000
Time:	6.543	Roll Set Point:	-0.981	Pitch Set Point:	0.802	Yaw Set Point:	0.727	X_WP:	0.894	Y_WP:	-0.724	Y_WP:	0.500	X:	0.922	Y:	-0.779	Z:	0.040	yaw:	-41.667	yaw rate:	-8.368	Roll:	2.965	Pitch:	0.039	Yaw:	-70.217	Thrust:	100.000
Time:	6.569	Roll Set Point:	-0.981	Pitch Set Point:	0.802	Yaw Set Point:	0.726	X_WP:	0.894	Y_WP:	-0.724	Y_WP:	0.500	X:	0.922	Y:	-0.779	Z:	0.040	yaw:	-41.622	yaw rate:	0.597	Roll:	2.618	Pitch:	-0.424	Yaw:	-62.993	Thrust:	100.000
Time:	6.592	Roll Set Point:	-0.980	Pitch Set Point:	0.802	Yaw Set Point:	0.726	X_WP:	0.894	Y_WP:	-0.724	Y_WP:	0.500	X:	0.922	Y:	-0.779	Z:	0.040	yaw:	-41.576	yaw rate:	4.651	Roll:	2.558	Pitch:	-0.451	Yaw:	-62.139	Thrust:	100.000
Time:	6.614	Roll Set Point:	-0.981	Pitch Set Point:	0.802	Yaw Set Point:	0.727	X_WP:	0.894	Y_WP:	-0.724	Y_WP:	0.500	X:	0.922	Y:	-0.779	Z:	0.040	yaw:	-41.648	yaw rate:	-3.667	Roll:	2.595	Pitch:	-0.365	Yaw:	-63.514	Thrust:	100.000
Time:	6.639	Roll Set Point:	-0.981	Pitch Set Point:	0.802	Yaw Set Point:	0.727	X_WP:	0.894	Y_WP:	-0.724	Y_WP:	0.500	X:	0.922	Y:	-0.779	Z:	0.040	yaw:	-41.674	yaw rate:	-2.610	Roll:	2.616	Pitch:	-0.388	Yaw:	-63.381	Thrust:	100.000
Time:	6.661	Roll Set Point:	-0.980	Pitch Set Point:	0.803	Yaw Set Point:	0.715	X_WP:	0.894	Y_WP:	-0.724	Y_WP:	0.500	X:	0.923	Y:	-0.780	Z:	0.041	yaw:	-40.983	yaw rate:	61.214	Roll:	2.260	Pitch:	-0.991	Yaw:	-53.442	Thrust:	100.000
Time:	6.683	Roll Set Point:	-0.980	Pitch Set Point:	0.802	Yaw Set Point:	0.726	X_WP:	0.894	Y_WP:	-0.724	Y_WP:	0.500	X:	0.922	Y:	-0.779	Z:	0.040	yaw:	-41.579	yaw rate:	-59.583	Roll:	2.682	Pitch:	0.024	Yaw:	-69.652	Thrust:	100.000
Time:	6.708	Roll Set Point:	-0.980	Pitch Set Point:	0.802	Yaw Set Point:	0.726	X_WP:	0.894	Y_WP:	-0.724	Y_WP:	0.500	X:	0.922	Y:	-0.779	Z:	0.040	yaw:	-41.585	yaw rate:	-57.906	Roll:	2.668	Pitch:	-0.393	Yaw:	-63.345	Thrust:	100.000
Time:	6.733	Roll Set Point:	-0.981	Pitch Set Point:	0.802	Yaw Set Point:	0.726	X_WP:	0.894	Y_WP:	-0.724	Y_WP:	0.500	X:	0.922	Y:	-0.779	Z:	0.040	yaw:	-41.602	yaw rate:	3.443	Roll:	2.578	Pitch:	-0.417	Yaw:	-63.098	Thrust:	100.000
Time:	6.753	Roll Set Point:	-0.981	Pitch Set Point:	0.802	Yaw Set Point:	0.727	X_WP:	0.894	Y_WP:	-0.724	Y_WP:	0.500	X:	0.922	Y:	-0.779	Z:	0.040	yaw:	-41.641	yaw rate:	-4.058	Roll:	2.474	Pitch:	-0.419	Yaw:	-62.668	Thrust:	100.000
Time:	6.778	Roll Set Point:	-0.981	Pitch Set Point:	0.803	Yaw Set Point:	0.715	X_WP:	0.894	Y_WP:	-0.724	Y_WP:	0.500	X:	0.923	Y:	-0.780	Z:	0.041	yaw:	-40.940	yaw rate:	1.757	Roll:	2.413	Pitch:	-0.934	Yaw:	-54.350	Thrust:	100.000
Time:	6.803	Roll Set Point:	-0.981	Pitch Set Point:	0.802	Yaw Set Point:	0.727	X_WP:	0.894	Y_WP:	-0.724	Y_WP:	0.500	X:	0.922	Y:	-0.779	Z:	0.040	yaw:	-41.628	yaw rate:	-5.434	Roll:	2.842	Pitch:	0.040	Yaw:	-70.218	Thrust:	100.000
Time:	6.827	Roll Set Point:	-0.980	Pitch Set Point:	0.803	Yaw Set Point:	0.715	X_WP:	0.894	Y_WP:	-0.724	Y_WP:	0.500	X:	0.923	Y:	-0.780	Z:	0.041	yaw:	-40.949	yaw rate:	67.936	Roll:	2.355	Pitch:	-0.943	Yaw:	-54.344	Thrust:	100.000
Time:	6.853	Roll Set Point:	-0.980	Pitch Set Point:	0.803	Yaw Set Point:	0.716	X_WP:	0.894	Y_WP:	-0.724	Y_WP:	0.500	X:	0.923	Y:	-0.780	Z:	0.041	yaw:	-41.016	yaw rate:	57.488	Roll:	2.680	Pitch:	-0.377	Yaw:	-63.163	Thrust:	100.000
Time:	6.882	Roll Set Point:	-0.981	Pitch Set Point:	0.803	Yaw Set Point:	0.715	X_WP:	0.894	Y_WP:	-0.724	Y_WP:	0.500	X:	0.923	Y:	-0.780	Z:	0.041	yaw:	-40.956	yaw rate:	-0.952	Roll:	2.769	Pitch:	-0.443	Yaw:	-62.352	Thrust:	100.000
Time:	6.907	Roll Set Point:	-0.981	Pitch Set Point:	0.803	Yaw Set Point:	0.714	X_WP:	0.894	Y_WP:	-0.724	Y_WP:	0.500	X:	0.923	Y:	-0.780	Z:	0.041	yaw:	-40.936	yaw rate:	8.581	Roll:	2.635	Pitch:	-0.447	Yaw:	-62.072	Thrust:	100.000
Time:	6.937	Roll Set Point:	-0.981	Pitch Set Point:	0.802	Yaw Set Point:	0.726	X_WP:	0.894	Y_WP:	-0.724	Y_WP:	0.500	X:	0.922	Y:	-0.779	Z:	0.040	yaw:	-41.608	yaw rate:	-66.625	Roll:	2.902	Pitch:	0.014	Yaw:	-69.959	Thrust:	100.000
Time:	6.963	Roll Set Point:	-0.981	Pitch Set Point:	0.802	Yaw Set Point:	0.727	X_WP:	0.894	Y_WP:	-0.724	Y_WP:	0.500	X:	0.922	Y:	-0.779	Z:	0.040	yaw:	-41.640	yaw rate:	-1.549	Roll:	2.708	Pitch:	-0.397	Yaw:	-63.774	Thrust:	100.000
Time:	6.988	Roll Set Point:	-0.981	Pitch Set Point:	0.802	Yaw Set Point:	0.727	X_WP:	0.894	Y_WP:	-0.724	Y_WP:	0.500	X:	0.922	Y:	-0.779	Z:	0.040	yaw:	-41.637	yaw rate:	0.353	Roll:	2.599	Pitch:	-0.431	Yaw:	-62.857	Thrust:	100.000
Time:	7.012	Roll Set Point:	-0.980	Pitch Set Point:	0.802	Yaw Set Point:	0.726	X_WP:	0.894	Y_WP:	-0.724	Y_WP:	0.500	X:	0.922	Y:	-0.779	Z:	0.040	yaw:	-41.583	yaw rate:	-61.423	Roll:	2.599	Pitch:	-0.456	Yaw:	-62.523	Thrust:	100.000
Time:	7.035	Roll Set Point:	-0.981	Pitch Set Point:	0.802	Yaw Set Point:	0.727	X_WP:	0.894	Y_WP:	-0.724	Y_WP:	0.500	X:	0.922	Y:	-0.779	Z:	0.040	yaw:	-41.628	yaw rate:	-2.221	Roll:	2.565	Pitch:	-0.420	Yaw:	-63.251	Thrust:	100.000
Time:	7.058	Roll Set Point:	-0.980	Pitch Set Point:	0.803	Yaw Set Point:	0.715	X_WP:	0.894	Y_WP:	-0.724	Y_WP:	0.500	X:	0.923	Y:	-0.780	Z:	0.041	yaw:	-40.985	yaw rate:	64.142	Roll:	2.347	Pitch:	-0.913	Yaw:	-54.551	Thrust:	100.000
Time:	7.078	Roll Set Point:	-0.981	Pitch Set Point:	0.802	Yaw Set Point:	0.725	X_WP:	0.894	Y_WP:	-0.724	Y_WP:	0.500	X:	0.922	Y:	-0.779	Z:	0.040	yaw:	-41.567	yaw rate:	-58.207	Roll:	2.661	Pitch:	0.009	Yaw:	-69.559	Thrust:	100.000
Time:	7.102	Roll Set Point:	-0.980	Pitch Set Point:	0.802	Yaw Set Point:	0.726	X_WP:	0.894	Y_WP:	-0.724	Y_WP:	0.500	X:	0.922	Y:	-0.779	Z:	0.040	yaw:	-41.593	yaw rate:	-63.276	Roll:	2.560	Pitch:	-0.428	Yaw:	-63.088	Thrust:	100.000
Time:	7.125	Roll Set Point:	-0.981	Pitch Set Point:	0.802	Yaw Set Point:	0.727	X_WP:	0.894	Y_WP:	-0.724	Y_WP:	0.500	X:	0.922	Y:	-0.779	Z:	0.040	yaw:	-41.636	yaw rate:	-2.003	Roll:	2.472	Pitch:	-0.437	Yaw:	-62.803	Thrust:	100.000
Time:	7.146	Roll Set Point:	-0.981	Pitch Set Point:	0.802	Yaw Set Point:	0.726	X_WP:	0.894	Y_WP:	-0.724	Y_WP:	0.500	X:	0.922	Y:	-0.779	Z:	0.040	yaw:	-41.625	yaw rate:	-2.011	Roll:	2.572	Pitch:	-0.462	Yaw:	-62.607	Thrust:	100.000
Time:	7.169	Roll Set Point:	-0.981	Pitch Set Point:	0.802	Yaw Set Point:	0.727	X_WP:	0.894	Y_WP:	-0.724	Y_WP:	0.500	X:	0.922	Y:	-0.779	Z:	0.040	yaw:	-41.631	yaw rate:	-0.579	Roll:	2.554	Pitch:	-0.443	Yaw:	-62.806	Thrust:	100.000
Time:	7.191	Roll Set Point:	-0.981	Pitch Set Point:	0.802	Yaw Set Point:	0.727	X_WP:	0.894	Y_WP:	-0.724	Y_WP:	0.500	X:	0.922	Y:	-0.779	Z:	0.040	yaw:	-41.634	yaw rate:	-0.759	Roll:	2.497	Pitch:	-0.467	Yaw:	-62.476	Thrust:	100.000
Time:	7.214	Roll Set Point:	-0.981	Pitch Set Point:	0.802	Yaw Set Point:	0.726	X_WP:	0.894	Y_WP:	-0.724	Y_WP:	0.500	X:	0.922	Y:	-0.779	Z:	0.040	yaw:	-41.625	yaw rate:	2.352	Roll:	2.571	Pitch:	-0.455	Yaw:	-62.632	Thrust:	100.000
Time:	7.238	Roll Set Point:	-0.980	Pitch Set Point:	0.802	Yaw Set Point:	0.726	X_WP:	0.894	Y_WP:	-0.724	Y_WP:	0.500	X:	0.922	Y:	-0.779	Z:	0.040	yaw:	-41.580	yaw rate:	4.509	Roll:	2.579	Pitch:	-0.476	Yaw:	-62.492	Thrust:	100.000
Time:	7.264	Roll Set Point:	-0.981	Pitch Set Point:	0.802	Yaw Set Point:	0.727	X_WP:	0.894	Y_WP:	-0.724	Y_WP:	0.500	X:	0.922	Y:	-0.779	Z:	0.040	yaw:	-41.641	yaw rate:	-4.173	Roll:	2.666	Pitch:	-0.393	Yaw:	-63.889	Thrust:	100.000
Time:	7.285	Roll Set Point:	-0.981	Pitch Set Point:	0.802	Yaw Set Point:	0.727	X_WP:	0.894	Y_WP:	-0.724	Y_WP:	0.500	X:	0.922	Y:	-0.779	Z:	0.040	yaw:	-41.645	yaw rate:	0.528	Roll:	2.517	Pitch:	-0.465	Yaw:	-62.525	Thrust:	100.000
Time:	7.310	Roll Set Point:	-0.981	Pitch Set Point:	0.802	Yaw Set Point:	0.726	X_WP:	0.894	Y_WP:	-0.724	Y_WP:	0.500	X:	0.922	Y:	-0.779	Z:	0.040	yaw:	-41.622	yaw rate:	-1.619	Roll:	2.604	Pitch:	-0.464	Yaw:	-62.776	Thrust:	100.000
Time:	7.337	Roll Set Point:	-0.981	Pitch Set Point:	0.802	Yaw Set Point:	0.727	X_WP:	0.894	Y_WP:	-0.724	Y_WP:	0.500	X:	0.922	Y:	-0.779	Z:	0.040	yaw:	-41.648	yaw rate:	-6.799	Roll:	2.711	Pitch:	-0.410	Yaw:	-63.920	Thrust:	100.000
Time:	7.358	Roll Set Point:	-0.981	Pitch Set Point:	0.802	Yaw Set Point:	0.726	X_WP:	0.894	Y_WP:	-0.724	Y_WP:	0.500	X:	0.922	Y:	-0.779	Z:	0.040	yaw:	-41.616	yaw rate:	5.248	Roll:	2.468	Pitch:	-0.499	Yaw:	-61.925	Thrust:	100.000
Time:	7.380	Roll Set Point:	-0.981	Pitch Set Point:	0.802	Yaw Set Point:	0.727	X_WP:	0.894	Y_WP:	-0.724	Y_WP:	0.500	X:	0.922	Y:	-0.779	Z:	0.040	yaw:	-41.633	yaw rate:	-1.738	Roll:	2.522	Pitch:	-0.461	Yaw:	-62.652	Thrust:	100.000
Time:	7.404	Roll Set Point:	-0.981	Pitch Set Point:	0.802	Yaw Set Point:	0.727	X_WP:	0.894	Y_WP:	-0.724	Y_WP:	0.500	X:	0.922	Y:	-0.779	Z:	0.040	yaw:	-41.659	yaw rate:	-2.510	Roll:	2.580	Pitch:	-0.437	Yaw:	-63.253	Thrust:	100.000
Time:	7.425	Roll Set Point:	-0.981	Pitch Set Point:	0.802	Yaw Set Point:	0.727	X_WP:	0.894	Y_WP:	-0.724	Y_WP:	0.500	X:	0.922	Y:	-0.779	Z:	0.040	yaw:	-41.656	yaw rate:	4.427	Roll:	2.460	Pitch:	-0.487	Yaw:	-62.241	Thrust:	100.000
Time:	7.445	Roll Set Point:	-0.981	Pitch Set Point:	0.802	Yaw Set Point:	0.726	X_WP:	0.894	Y_WP:	-0.724	Y_WP:	0.500	X:	0.922	Y:	-0.779	Z:	0.040	yaw:	-41.608	yaw rate:	3.969	Roll:	2.443	Pitch:	-0.527	Yaw:	-61.598	Thrust:	100.000
Time:	7.468	Roll Set Point:	-0.981	Pitch Set Point:	0.802	Yaw Set Point:	0.727	X_WP:	0.894	Y_WP:	-0.724	Y_WP:	0.500	X:	0.922	Y:	-0.779	Z:	0.040	yaw:	-41.655	yaw rate:	-5.205	Roll:	2.548	Pitch:	-0.438	Yaw:	-63.225	Thrust:	100.000
Time:	7.492	Roll Set Point:	-0.981	Pitch Set Point:	0.802	Yaw Set Point:	0.727	X_WP:	0.894	Y_WP:	-0.724	Y_WP:	0.500	X:	0.922	Y:	-0.779	Z:	0.040	yaw:	-41.648	yaw rate:	-4.961	Roll:	2.609	Pitch:	-0.461	Yaw:	-62.992	Thrust:	100.000
Time:	7.512	Roll Set Point:	-0.981	Pitch Set Point:	0.802	Yaw Set Point:	0.727	X_WP:	0.894	Y_WP:	-0.724	Y_WP:	0.500	X:	0.922	Y:	-0.779	Z:	0.040	yaw:	-41.670	yaw rate:	-2.191	Roll:	2.466	Pitch:	-0.471	Yaw:	-62.481	Thrust:	100.000
Time:	7.537	Roll Set Point:	-0.981	Pitch Set Point:	0.802	Yaw Set Point:	0.727	X_WP:	0.894	Y_WP:	-0.724	Y_WP:	0.500	X:	0.922	Y:	-0.779	Z:	0.040	yaw:	-41.631	yaw rate:	-6.716	Roll:	2.582	Pitch:	-0.491	Yaw:	-62.626	Thrust:	100.000
Time:	7.559	Roll Set Point:	-0.980	Pitch Set Point:	0.803	Yaw Set Point:	0.715	X_WP:	0.894	Y_WP:	-0.724	Y_WP:	0.500	X:	0.923	Y:	-0.780	Z:	0.041	yaw:	-40.994	yaw rate:	60.232	Roll:	2.298	Pitch:	-0.979	Yaw:	-54.104	Thrust:	100.000
Time:	7.582	Roll Set Point:	-0.981	Pitch Set Point:	0.802	Yaw Set Point:	0.726	X_WP:	0.894	Y_WP:	-0.724	Y_WP:	0.500	X:	0.922	Y:	-0.779	Z:	0.040	yaw:	-41.597	yaw rate:	-2.068	Roll:	2.729	Pitch:	-0.035	Yaw:	-69.646	Thrust:	100.000
Time:	7.605	Roll Set Point:	-0.981	Pitch Set Point:	0.802	Yaw Set Point:	0.727	X_WP:	0.894	Y_WP:	-0.724	Y_WP:	0.500	X:	0.922	Y:	-0.779	Z:	0.040	yaw:	-41.665	yaw rate:	-1.059	Roll:	2.574	Pitch:	-0.420	Yaw:	-63.648	Thrust:	100.000
Time:	7.631	Roll Set Point:	-0.981	Pitch Set Point:	0.803	Yaw Set Point:	0.715	X_WP:	0.894	Y_WP:	-0.724	Y_WP:	0.500	X:	0.923	Y:	-0.780	Z:	0.041	yaw:	-40.960	yaw rate:	5.601	Roll:	2.504	Pitch:	-0.931	Yaw:	-55.583	Thrust:	100.000
Time:	7.652	Roll Set Point:	-0.980	Pitch Set Point:	0.802	Yaw Set Point:	0.726	X_WP:	0.894	Y_WP:	-0.724	Y_WP:	0.500	X:	0.922	Y:	-0.779	Z:	0.040	yaw:	-41.583	yaw rate:	-62.340	Roll:	2.638	Pitch:	0.013	Yaw:	-70.111	Thrust:	100.000
Time:	7.676	Roll Set Point:	-0.981	Pitch Set Point:	0.802	Yaw Set Point:	0.727	X_WP:	0.894	Y_WP:	-0.724	Y_WP:	0.500	X:	0.922	Y:	-0.779	Z:	0.040	yaw:	-41.633	yaw rate:	-3.004	Roll:	2.604	Pitch:	-0.447	Yaw:	-63.318	Thrust:	100.000
Time:	7.699	Roll Set Point:	-0.981	Pitch Set Point:	0.802	Yaw Set Point:	0.727	X_WP:	0.894	Y_WP:	-0.724	Y_WP:	0.500	X:	0.922	Y:	-0.779	Z:	0.040	yaw:	-41.633	yaw rate:	0.060	Roll:	2.555	Pitch:	-0.478	Yaw:	-62.942	Thrust:	100.000
Time:	7.719	Roll Set Point:	-0.981	Pitch Set Point:	0.803	Yaw Set Point:	0.716	X_WP:	0.894	Y_WP:	-0.724	Y_WP:	0.500	X:	0.923	Y:	-0.780	Z:	0.041	yaw:	-41.040	yaw rate:	57.418	Roll:	2.266	Pitch:	-0.997	Yaw:	-53.568	Thrust:	100.000
Time:	7.743	Roll Set Point:	-0.981	Pitch Set Point:	0.802	Yaw Set Point:	0.727	X_WP:	0.894	Y_WP:	-0.724	Y_WP:	0.500	X:	0.922	Y:	-0.779	Z:	0.040	yaw:	-41.648	yaw rate:	-4.316	Roll:	2.759	Pitch:	-0.055	Yaw:	-69.583	Thrust:	100.000
Time:	7.764	Roll Set Point:	-0.980	Pitch Set Point:	0.803	Yaw Set Point:	0.715	X_WP:	0.894	Y_WP:	-0.724	Y_WP:	0.500	X:	0.923	Y:	-0.780	Z:	0.041	yaw:	-40.985	yaw rate:	66.842	Roll:	2.219	Pitch:	-1.058	Yaw:	-53.189	Thrust:	100.000
Time:	7.786	Roll Set Point:	-0.981	Pitch Set Point:	0.802	Yaw Set Point:	0.727	X_WP:	0.894	Y_WP:	-0.724	Y_WP:	0.500	X:	0.922	Y:	-0.779	Z:	0.040	yaw:	-41.649	yaw rate:	-66.413	Roll:	2.699	Pitch:	0.034	Yaw:	-70.528	Thrust:	100.000
Time:	7.812	Roll Set Point:	-0.981	Pitch Set Point:	0.802	Yaw Set Point:	0.726	X_WP:	0.894	Y_WP:	-0.724	Y_WP:	0.500	X:	0.922	Y:	-0.779	Z:	0.040	yaw:	-41.582	yaw rate:	-59.398	Roll:	2.672	Pitch:	-0.507	Yaw:	-62.498	Thrust:	100.000
Time:	7.836	Roll Set Point:	-0.981	Pitch Set Point:	0.802	Yaw Set Point:	0.726	X_WP:	0.894	Y_WP:	-0.724	Y_WP:	0.500	X:	0.922	Y:	-0.779	Z:	0.040	yaw:	-41.609	yaw rate:	0.400	Roll:	2.596	Pitch:	-0.469	Yaw:	-63.211	Thrust:	100.000
Time:	7.859	Roll Set Point:	-0.981	Pitch Set Point:	0.802	Yaw Set Point:	0.727	X_WP:	0.894	Y_WP:	-0.724	Y_WP:	0.500	X:	0.922	Y:	-0.779	Z:	0.040	yaw:	-41.628	yaw rate:	1.084	Roll:	2.559	Pitch:	-0.476	Yaw:	-62.956	Thrust:	100.000
Time:	7.883	Roll Set Point:	-0.981	Pitch Set Point:	0.802	Yaw Set Point:	0.726	X_WP:	0.894	Y_WP:	-0.724	Y_WP:	0.500	X:	0.922	Y:	-0.779	Z:	0.040	yaw:	-41.607	yaw rate:	4.242	Roll:	2.604	Pitch:	-0.500	Yaw:	-62.677	Thrust:	100.000
Time:	7.909	Roll Set Point:	-0.981	Pitch Set Point:	0.802	Yaw Set Point:	0.727	X_WP:	0.894	Y_WP:	-0.724	Y_WP:	0.500	X:	0.922	Y:	-0.779	Z:	0.040	yaw:	-41.644	yaw rate:	-8.822	Roll:	2.677	Pitch:	-0.446	Yaw:	-63.734	Thrust:	100.000
Time:	7.928	Roll Set Point:	-0.981	Pitch Set Point:	0.802	Yaw Set Point:	0.727	X_WP:	0.894	Y_WP:	-0.724	Y_WP:	0.500	X:	0.922	Y:	-0.779	Z:	0.040	yaw:	-41.644	yaw rate:	0.002	Roll:	2.401	Pitch:	-0.518	Yaw:	-62.059	Thrust:	100.000
Time:	7.950	Roll Set Point:	-0.981	Pitch Set Point:	0.802	Yaw Set Point:	0.727	X_WP:	0.894	Y_WP:	-0.724	Y_WP:	0.500	X:	0.922	Y:	-0.779	Z:	0.040	yaw:	-41.654	yaw rate:	-6.156	Roll:	2.521	Pitch:	-0.492	Yaw:	-62.706	Thrust:	100.000
Time:	7.973	Roll Set Point:	-0.981	Pitch Set Point:	0.802	Yaw Set Point:	0.726	X_WP:	0.894	Y_WP:	-0.724	Y_WP:	0.500	X:	0.922	Y:	-0.779	Z:	0.040	yaw:	-41.622	yaw rate:	-1.308	Roll:	2.546	Pitch:	-0.523	Yaw:	-62.258	Thrust:	100.000
Time:	7.998	Roll Set Point:	-0.981	Pitch Set Point:	0.802	Yaw Set Point:	0.726	X_WP:	0.894	Y_WP:	-0.724	Y_WP:	0.500	X:	0.922	Y:	-0.779	Z:	0.040	yaw:	-41.610	yaw rate:	1.136	Roll:	2.605	Pitch:	-0.497	Yaw:	-62.994	Thrust:	100.000
Time:	8.025	Roll Set Point:	-0.981	Pitch Set Point:	0.802	Yaw Set Point:	0.727	X_WP:	0.894	Y_WP:	-0.724	Y_WP:	0.500	X:	0.922	Y:	-0.779	Z:	0.040	yaw:	-41.631	yaw rate:	-3.873	Roll:	2.638	Pitch:	-0.465	Yaw:	-63.672	Thrust:	100.000
Time:	8.049	Roll Set Point:	-0.981	Pitch Set Point:	0.802	Yaw Set Point:	0.726	X_WP:	0.894	Y_WP:	-0.724	Y_WP:	0.500	X:	0.922	Y:	-0.779	Z:	0.040	yaw:	-41.605	yaw rate:	2.939	Roll:	2.661	Pitch:	-0.506	Yaw:	-62.729	Thrust:	100.000
Time:	8.075	Roll Set Point:	-0.981	Pitch Set Point:	0.802	Yaw Set Point:	0.727	X_WP:	0.894	Y_WP:	-0.724	Y_WP:	0.500	X:	0.922	Y:	-0.779	Z:	0.040	yaw:	-41.635	yaw rate:	0.212	Roll:	2.620	Pitch:	-0.470	Yaw:	-63.469	Thrust:	100.000
Time:	8.096	Roll Set Point:	-0.980	Pitch Set Point:	0.802	Yaw Set Point:	0.726	X_WP:	0.894	Y_WP:	-0.724	Y_WP:	0.500	X:	0.922	Y:	-0.779	Z:	0.040	yaw:	-41.583	yaw rate:	-58.742	Roll:	2.401	Pitch:	-0.556	Yaw:	-61.507	Thrust:	100.000
Time:	8.120	Roll Set Point:	-0.981	Pitch Set Point:	0.802	Yaw Set Point:	0.727	X_WP:	0.894	Y_WP:	-0.724	Y_WP:	0.500	X:	0.922	Y:	-0.779	Z:	0.040	yaw:	-41.627	yaw rate:	-3.722	Roll:	2.660	Pitch:	-0.470	Yaw:	-63.518	Thrust:	100.000
Time:	8.143	Roll Set Point:	-0.981	Pitch Set Point:	0.802	Yaw Set Point:	0.727	X_WP:	0.894	Y_WP:	-0.724	Y_WP:	0.500	X:	0.922	Y:	-0.779	Z:	0.040	yaw:	-41.628	yaw rate:	0.231	Roll:	2.554	Pitch:	-0.504	Yaw:	-62.854	Thrust:	100.000
Time:	8.170	Roll Set Point:	-0.981	Pitch Set Point:	0.802	Yaw Set Point:	0.727	X_WP:	0.894	Y_WP:	-0.724	Y_WP:	0.500	X:	0.922	Y:	-0.779	Z:	0.040	yaw:	-41.643	yaw rate:	-1.148	Roll:	2.689	Pitch:	-0.472	Yaw:	-63.508	Thrust:	100.000
Time:	8.193	Roll Set Point:	-0.980	Pitch Set Point:	0.803	Yaw Set Point:	0.716	X_WP:	0.894	Y_WP:	-0.724	Y_WP:	0.500	X:	0.923	Y:	-0.780	Z:	0.041	yaw:	-41.000	yaw rate:	62.795	Roll:	2.250	Pitch:	-0.991	Yaw:	-54.571	Thrust:	100.000
Time:	8.215	Roll Set Point:	-0.981	Pitch Set Point:	0.802	Yaw Set Point:	0.727	X_WP:	0.894	Y_WP:	-0.724	Y_WP:	0.500	X:	0.922	Y:	-0.779	Z:	0.040	yaw:	-41.629	yaw rate:	-62.829	Roll:	2.735	Pitch:	-0.007	Yaw:	-70.145	Thrust:	100.000
Time:	8.238	Roll Set Point:	-0.981	Pitch Set Point:	0.802	Yaw Set Point:	0.727	X_WP:	0.894	Y_WP:	-0.724	Y_WP:	0.500	X:	0.922	Y:	-0.779	Z:	0.040	yaw:	-41.632	yaw rate:	-4.046	Roll:	2.607	Pitch:	-0.502	Yaw:	-62.987	Thrust:	100.000
Time:	8.259	Roll Set Point:	-0.981	Pitch Set Point:	0.802	Yaw Set Point:	0.727	X_WP:	0.894	Y_WP:	-0.724	Y_WP:	0.500	X:	0.922	Y:	-0.779	Z:	0.040	yaw:	-41.642	yaw rate:	-1.299	Roll:	2.481	Pitch:	-0.517	Yaw:	-62.576	Thrust:	100.000
Time:	8.282	Roll Set Point:	-0.981	Pitch Set Point:	0.802	Yaw Set Point:	0.727	X_WP:	0.894	Y_WP:	-0.724	Y_WP:	0.500	X:	0.922	Y:	-0.779	Z:	0.040	yaw:	-41.649	yaw rate:	-0.137	Roll:	2.578	Pitch:	-0.501	Yaw:	-62.861	Thrust:	100.000
Time:	8.305	Roll Set Point:	-0.981	Pitch Set Point:	0.802	Yaw Set Point:	0.726	X_WP:	0.894	Y_WP:	-0.724	Y_WP:	0.500	X:	0.922	Y:	-0.779	Z:	0.040	yaw:	-41.602	yaw rate:	4.729	Roll:	2.519	Pitch:	-0.559	Yaw:	-62.168	Thrust:	100.000
Time:	8.328	Roll Set Point:	-0.981	Pitch Set Point:	0.802	Yaw Set Point:	0.726	X_WP:	0.894	Y_WP:	-0.724	Y_WP:	0.500	X:	0.922	Y:	-0.779	Z:	0.040	yaw:	-41.609	yaw rate:	1.702	Roll:	2.501	Pitch:	-0.516	Yaw:	-62.500	Thrust:	100.000
