Time:	2.143	Roll Set Point:	-0.234	Pitch Set Point:	-0.122	Yaw Set Point:	-0.578	X_WP:	0.000	Y_WP:	0.000	Y_WP:	0.500	X:	0.099	Y:	0.096	Z:	0.398	yaw:	33.114	yaw rate:	6.712	Roll:	3.925	Pitch:	0.754	Yaw:	46.236	Thrust:	5.584
Time:	2.159	Roll Set Point:	-0.234	Pitch Set Point:	-0.122	Yaw Set Point:	-0.578	X_WP:	0.000	Y_WP:	0.000	Y_WP:	0.500	X:	0.099	Y:	0.096	Z:	0.398	yaw:	33.114	yaw rate:	6.712	Roll:	3.930	Pitch:	0.755	Yaw:	46.417	Thrust:	5.775
Time:	2.174	Roll Set Point:	-0.234	Pitch Set Point:	-0.122	Yaw Set Point:	-0.577	X_WP:	0.000	Y_WP:	0.000	Y_WP:	0.500	X:	0.099	Y:	0.096	Z:	0.399	yaw:	33.084	yaw rate:	-1.802	Roll:	3.874	Pitch:	0.684	Yaw:	46.060	Thrust:	5.754
Time:	2.190	Roll Set Point:	-0.234	Pitch Set Point:	-0.122	Yaw Set Point:	-0.577	X_WP:	0.000	Y_WP:	0.000	Y_WP:	0.500	X:	0.099	Y:	0.096	Z:	0.399	yaw:	33.050	yaw rate:	-3.409	Roll:	3.923	Pitch:	0.805	Yaw:	46.118	Thrust:	6.083
Time:	2.205	Roll Set Point:	-0.234	Pitch Set Point:	-0.122	Yaw Set Point:	-0.578	X_WP:	0.000	Y_WP:	0.000	Y_WP:	0.500	X:	0.099	Y:	0.096	Z:	0.398	yaw:	33.106	yaw rate:	5.516	Roll:	4.012	Pitch:	0.800	Yaw:	47.870	Thrust:	6.597
Time:	2.221	Roll Set Point:	-0.234	Pitch Set Point:	-0.122	Yaw Set Point:	-0.577	X_WP:	0.000	Y_WP:	0.000	Y_WP:	0.500	X:	0.099	Y:	0.096	Z:	0.399	yaw:	33.051	yaw rate:	-5.451	Roll:	3.917	Pitch:	0.808	Yaw:	46.138	Thrust:	6.291
Time:	2.237	Roll Set Point:	-0.234	Pitch Set Point:	-0.122	Yaw Set Point:	-0.578	X_WP:	0.000	Y_WP:	0.000	Y_WP:	0.500	X:	0.099	Y:	0.096	Z:	0.399	yaw:	33.133	yaw rate:	8.178	Roll:	3.905	Pitch:	0.558	Yaw:	48.715	Thrust:	6.545
Time:	2.252	Roll Set Point:	-0.234	Pitch Set Point:	-0.122	Yaw Set Point:	-0.578	X_WP:	0.000	Y_WP:	0.000	Y_WP:	0.500	X:	0.099	Y:	0.096	Z:	0.398	yaw:	33.114	yaw rate:	-1.901	Roll:	4.014	Pitch:	0.781	Yaw:	47.181	Thrust:	7.309
Time:	2.268	Roll Set Point:	-0.234	Pitch Set Point:	-0.122	Yaw Set Point:	-0.577	X_WP:	0.000	Y_WP:	0.000	Y_WP:	0.500	X:	0.099	Y:	0.096	Z:	0.399	yaw:	33.072	yaw rate:	-4.229	Roll:	3.973	Pitch:	0.908	Yaw:	46.912	Thrust:	6.950
Time:	2.284	Roll Set Point:	-0.234	Pitch Set Point:	-0.122	Yaw Set Point:	-0.577	X_WP:	0.000	Y_WP:	0.000	Y_WP:	0.500	X:	0.099	Y:	0.096	Z:	0.399	yaw:	33.064	yaw rate:	-0.770	Roll:	3.963	Pitch:	0.813	Yaw:	47.600	Thrust:	7.284
Time:	2.299	Roll Set Point:	-0.235	Pitch Set Point:	-0.121	Yaw Set Point:	-0.577	X_WP:	0.000	Y_WP:	0.000	Y_WP:	0.500	X:	0.099	Y:	0.096	Z:	0.399	yaw:	33.062	yaw rate:	-0.184	Roll:	3.962	Pitch:	0.600	Yaw:	47.695	Thrust:	7.361
Time:	2.315	Roll Set Point:	-0.235	Pitch Set Point:	-0.121	Yaw Set Point:	-0.577	X_WP:	0.000	Y_WP:	0.000	Y_WP:	0.500	X:	0.099	Y:	0.096	Z:	0.399	yaw:	33.062	yaw rate:	-0.184	Roll:	3.981	Pitch:	0.763	Yaw:	47.726	Thrust:	7.671
Time:	2.330	Roll Set Point:	-0.234	Pitch Set Point:	-0.122	Yaw Set Point:	-0.577	X_WP:	0.000	Y_WP:	0.000	Y_WP:	0.500	X:	0.099	Y:	0.096	Z:	0.398	yaw:	33.082	yaw rate:	1.992	Roll:	3.992	Pitch:	0.824	Yaw:	48.087	Thrust:	8.131
Time:	2.346	Roll Set Point:	-0.235	Pitch Set Point:	-0.122	Yaw Set Point:	-0.578	X_WP:	0.000	Y_WP:	0.000	Y_WP:	0.500	X:	0.099	Y:	0.096	Z:	0.399	yaw:	33.103	yaw rate:	2.082	Roll:	4.031	Pitch:	0.723	Yaw:	48.132	Thrust:	7.948
Time:	2.362	Roll Set Point:	-0.234	Pitch Set Point:	-0.122	Yaw Set Point:	-0.577	X_WP:	0.000	Y_WP:	0.000	Y_WP:	0.500	X:	0.099	Y:	0.096	Z:	0.399	yaw:	33.070	yaw rate:	-3.284	Roll:	3.973	Pitch:	0.857	Yaw:	47.187	Thrust:	8.241
Time:	2.377	Roll Set Point:	-0.234	Pitch Set Point:	-0.122	Yaw Set Point:	-0.577	X_WP:	0.000	Y_WP:	0.000	Y_WP:	0.500	X:	0.099	Y:	0.096	Z:	0.399	yaw:	33.080	yaw rate:	0.980	Roll:	3.982	Pitch:	0.699	Yaw:	47.918	Thrust:	8.359
Time:	2.393	Roll Set Point:	-0.234	Pitch Set Point:	-0.122	Yaw Set Point:	-0.578	X_WP:	0.000	Y_WP:	0.000	Y_WP:	0.500	X:	0.099	Y:	0.096	Z:	0.398	yaw:	33.109	yaw rate:	-5.900	Roll:	4.053	Pitch:	0.757	Yaw:	48.276	Thrust:	8.805
Time:	2.409	Roll Set Point:	-0.234	Pitch Set Point:	-0.122	Yaw Set Point:	-0.577	X_WP:	0.000	Y_WP:	0.000	Y_WP:	0.500	X:	0.099	Y:	0.096	Z:	0.399	yaw:	33.076	yaw rate:	-3.301	Roll:	3.988	Pitch:	0.832	Yaw:	47.191	Thrust:	8.662
Time:	2.424	Roll Set Point:	-0.234	Pitch Set Point:	-0.122	Yaw Set Point:	-0.577	X_WP:	0.000	Y_WP:	0.000	Y_WP:	0.500	X:	0.099	Y:	0.096	Z:	0.398	yaw:	33.078	yaw rate:	0.234	Roll:	4.023	Pitch:	0.775	Yaw:	47.785	Thrust:	9.180
Time:	2.454	Roll Set Point:	-0.234	Pitch Set Point:	-0.121	Yaw Set Point:	-0.579	X_WP:	0.000	Y_WP:	0.000	Y_WP:	0.500	X:	0.099	Y:	0.096	Z:	0.399	yaw:	33.160	yaw rate:	8.208	Roll:	4.104	Pitch:	0.689	Yaw:	50.005	Thrust:	12.328
Time:	2.470	Roll Set Point:	-0.235	Pitch Set Point:	-0.122	Yaw Set Point:	-0.577	X_WP:	0.000	Y_WP:	0.000	Y_WP:	0.500	X:	0.099	Y:	0.096	Z:	0.399	yaw:	33.053	yaw rate:	-0.070	Roll:	4.062	Pitch:	0.956	Yaw:	45.917	Thrust:	9.421
Time:	2.485	Roll Set Point:	-0.234	Pitch Set Point:	-0.122	Yaw Set Point:	-0.577	X_WP:	0.000	Y_WP:	0.000	Y_WP:	0.500	X:	0.099	Y:	0.096	Z:	0.398	yaw:	33.076	yaw rate:	2.363	Roll:	4.013	Pitch:	0.808	Yaw:	48.142	Thrust:	9.855
Time:	2.501	Roll Set Point:	-0.234	Pitch Set Point:	-0.121	Yaw Set Point:	-0.579	X_WP:	0.000	Y_WP:	0.000	Y_WP:	0.500	X:	0.099	Y:	0.096	Z:	0.399	yaw:	33.153	yaw rate:	7.607	Roll:	4.021	Pitch:	0.512	Yaw:	49.132	Thrust:	9.290
Time:	2.522	Roll Set Point:	-0.234	Pitch Set Point:	-0.122	Yaw Set Point:	-0.577	X_WP:	0.000	Y_WP:	0.000	Y_WP:	0.500	X:	0.099	Y:	0.096	Z:	0.399	yaw:	33.071	yaw rate:	-8.113	Roll:	4.105	Pitch:	0.940	Yaw:	47.228	Thrust:	11.698
Time:	2.538	Roll Set Point:	-0.235	Pitch Set Point:	-0.122	Yaw Set Point:	-0.577	X_WP:	0.000	Y_WP:	0.000	Y_WP:	0.500	X:	0.099	Y:	0.096	Z:	0.399	yaw:	33.073	yaw rate:	0.151	Roll:	4.064	Pitch:	0.807	Yaw:	47.766	Thrust:	10.081
Time:	2.553	Roll Set Point:	-0.234	Pitch Set Point:	-0.122	Yaw Set Point:	-0.578	X_WP:	0.000	Y_WP:	0.000	Y_WP:	0.500	X:	0.099	Y:	0.096	Z:	0.399	yaw:	33.091	yaw rate:	1.775	Roll:	4.051	Pitch:	0.760	Yaw:	48.066	Thrust:	10.444
Time:	2.569	Roll Set Point:	-0.234	Pitch Set Point:	-0.122	Yaw Set Point:	-0.577	X_WP:	0.000	Y_WP:	0.000	Y_WP:	0.500	X:	0.099	Y:	0.096	Z:	0.399	yaw:	33.049	yaw rate:	-4.144	Roll:	4.025	Pitch:	0.790	Yaw:	47.009	Thrust:	10.444
Time:	2.584	Roll Set Point:	-0.234	Pitch Set Point:	-0.122	Yaw Set Point:	-0.577	X_WP:	0.000	Y_WP:	0.000	Y_WP:	0.500	X:	0.099	Y:	0.096	Z:	0.399	yaw:	33.060	yaw rate:	1.116	Roll:	4.092	Pitch:	0.811	Yaw:	47.911	Thrust:	10.740
Time:	2.600	Roll Set Point:	-0.234	Pitch Set Point:	-0.122	Yaw Set Point:	-0.577	X_WP:	0.000	Y_WP:	0.000	Y_WP:	0.500	X:	0.099	Y:	0.096	Z:	0.399	yaw:	33.060	yaw rate:	1.116	Roll:	4.072	Pitch:	0.783	Yaw:	47.723	Thrust:	10.907
Time:	2.616	Roll Set Point:	-0.235	Pitch Set Point:	-0.122	Yaw Set Point:	-0.578	X_WP:	0.000	Y_WP:	0.000	Y_WP:	0.500	X:	0.099	Y:	0.096	Z:	0.399	yaw:	33.107	yaw rate:	4.707	Roll:	4.120	Pitch:	0.691	Yaw:	48.578	Thrust:	11.138
Time:	2.631	Roll Set Point:	-0.234	Pitch Set Point:	-0.122	Yaw Set Point:	-0.577	X_WP:	0.000	Y_WP:	0.000	Y_WP:	0.500	X:	0.099	Y:	0.096	Z:	0.399	yaw:	33.084	yaw rate:	-2.047	Roll:	4.034	Pitch:	0.797	Yaw:	47.367	Thrust:	11.260
Time:	2.647	Roll Set Point:	-0.234	Pitch Set Point:	-0.122	Yaw Set Point:	-0.577	X_WP:	0.000	Y_WP:	0.000	Y_WP:	0.500	X:	0.099	Y:	0.096	Z:	0.399	yaw:	33.084	yaw rate:	-2.047	Roll:	4.088	Pitch:	0.784	Yaw:	47.760	Thrust:	11.491
Time:	2.663	Roll Set Point:	-0.234	Pitch Set Point:	-0.122	Yaw Set Point:	-0.577	X_WP:	0.000	Y_WP:	0.000	Y_WP:	0.500	X:	0.099	Y:	0.096	Z:	0.399	yaw:	33.058	yaw rate:	-1.482	Roll:	4.095	Pitch:	0.868	Yaw:	47.281	Thrust:	11.652
Time:	2.678	Roll Set Point:	-0.234	Pitch Set Point:	-0.122	Yaw Set Point:	-0.577	X_WP:	0.000	Y_WP:	0.000	Y_WP:	0.500	X:	0.099	Y:	0.096	Z:	0.399	yaw:	33.058	yaw rate:	-1.482	Roll:	4.098	Pitch:	0.789	Yaw:	47.721	Thrust:	11.860
Time:	2.694	Roll Set Point:	-0.234	Pitch Set Point:	-0.122	Yaw Set Point:	-0.578	X_WP:	0.000	Y_WP:	0.000	Y_WP:	0.500	X:	0.099	Y:	0.096	Z:	0.399	yaw:	33.090	yaw rate:	3.183	Roll:	4.122	Pitch:	0.717	Yaw:	48.302	Thrust:	12.021
Time:	2.709	Roll Set Point:	-0.234	Pitch Set Point:	-0.122	Yaw Set Point:	-0.577	X_WP:	0.000	Y_WP:	0.000	Y_WP:	0.500	X:	0.099	Y:	0.096	Z:	0.399	yaw:	33.073	yaw rate:	-0.259	Roll:	4.083	Pitch:	0.830	Yaw:	47.447	Thrust:	12.345
Time:	2.725	Roll Set Point:	-0.234	Pitch Set Point:	-0.122	Yaw Set Point:	-0.577	X_WP:	0.000	Y_WP:	0.000	Y_WP:	0.500	X:	0.099	Y:	0.096	Z:	0.399	yaw:	33.074	yaw rate:	0.134	Roll:	4.130	Pitch:	0.780	Yaw:	47.765	Thrust:	12.353
Time:	2.741	Roll Set Point:	-0.234	Pitch Set Point:	-0.122	Yaw Set Point:	-0.578	X_WP:	0.000	Y_WP:	0.000	Y_WP:	0.500	X:	0.099	Y:	0.096	Z:	0.399	yaw:	33.095	yaw rate:	2.059	Roll:	4.128	Pitch:	0.771	Yaw:	48.117	Thrust:	12.686
Time:	2.756	Roll Set Point:	-0.234	Pitch Set Point:	-0.122	Yaw Set Point:	-0.578	X_WP:	0.000	Y_WP:	0.000	Y_WP:	0.500	X:	0.099	Y:	0.096	Z:	0.398	yaw:	33.094	yaw rate:	-0.082	Roll:	4.122	Pitch:	0.780	Yaw:	47.760	Thrust:	12.884
Time:	2.772	Roll Set Point:	-0.234	Pitch Set Point:	-0.122	Yaw Set Point:	-0.577	X_WP:	0.000	Y_WP:	0.000	Y_WP:	0.500	X:	0.099	Y:	0.096	Z:	0.399	yaw:	33.050	yaw rate:	-4.370	Roll:	4.103	Pitch:	0.824	Yaw:	46.973	Thrust:	12.737
Time:	2.788	Roll Set Point:	-0.234	Pitch Set Point:	-0.122	Yaw Set Point:	-0.577	X_WP:	0.000	Y_WP:	0.000	Y_WP:	0.500	X:	0.099	Y:	0.096	Z:	0.399	yaw:	33.050	yaw rate:	-4.370	Roll:	4.135	Pitch:	0.795	Yaw:	47.712	Thrust:	13.204
Time:	2.803	Roll Set Point:	-0.234	Pitch Set Point:	-0.122	Yaw Set Point:	-0.577	X_WP:	0.000	Y_WP:	0.000	Y_WP:	0.500	X:	0.099	Y:	0.096	Z:	0.399	yaw:	33.060	yaw rate:	-2.610	Roll:	4.145	Pitch:	0.883	Yaw:	47.879	Thrust:	13.580
Time:	2.819	Roll Set Point:	-0.234	Pitch Set Point:	-0.122	Yaw Set Point:	-0.577	X_WP:	0.000	Y_WP:	0.000	Y_WP:	0.500	X:	0.099	Y:	0.096	Z:	0.399	yaw:	33.078	yaw rate:	1.848	Roll:	4.150	Pitch:	0.669	Yaw:	48.061	Thrust:	13.481
Time:	2.835	Roll Set Point:	-0.234	Pitch Set Point:	-0.122	Yaw Set Point:	-0.578	X_WP:	0.000	Y_WP:	0.000	Y_WP:	0.500	X:	0.099	Y:	0.096	Z:	0.398	yaw:	33.106	yaw rate:	2.788	Roll:	4.171	Pitch:	0.772	Yaw:	48.255	Thrust:	13.952
Time:	2.850	Roll Set Point:	-0.234	Pitch Set Point:	-0.122	Yaw Set Point:	-0.577	X_WP:	0.000	Y_WP:	0.000	Y_WP:	0.500	X:	0.099	Y:	0.096	Z:	0.399	yaw:	33.071	yaw rate:	-3.552	Roll:	4.137	Pitch:	0.876	Yaw:	47.138	Thrust:	13.746
Time:	2.866	Roll Set Point:	-0.234	Pitch Set Point:	-0.122	Yaw Set Point:	-0.577	X_WP:	0.000	Y_WP:	0.000	Y_WP:	0.500	X:	0.099	Y:	0.096	Z:	0.399	yaw:	33.065	yaw rate:	-0.529	Roll:	4.161	Pitch:	0.777	Yaw:	47.645	Thrust:	14.093
Time:	2.881	Roll Set Point:	-0.234	Pitch Set Point:	-0.122	Yaw Set Point:	-0.577	X_WP:	0.000	Y_WP:	0.000	Y_WP:	0.500	X:	0.099	Y:	0.096	Z:	0.399	yaw:	33.065	yaw rate:	-0.529	Roll:	4.167	Pitch:	0.800	Yaw:	47.731	Thrust:	14.333
Time:	2.897	Roll Set Point:	-0.234	Pitch Set Point:	-0.122	Yaw Set Point:	-0.578	X_WP:	0.000	Y_WP:	0.000	Y_WP:	0.500	X:	0.099	Y:	0.096	Z:	0.398	yaw:	33.100	yaw rate:	3.517	Roll:	4.184	Pitch:	0.788	Yaw:	48.369	Thrust:	14.786
Time:	2.913	Roll Set Point:	-0.234	Pitch Set Point:	-0.122	Yaw Set Point:	-0.577	X_WP:	0.000	Y_WP:	0.000	Y_WP:	0.500	X:	0.099	Y:	0.096	Z:	0.399	yaw:	33.080	yaw rate:	-2.079	Roll:	4.148	Pitch:	0.800	Yaw:	47.399	Thrust:	14.573
Time:	2.928	Roll Set Point:	-0.234	Pitch Set Point:	-0.122	Yaw Set Point:	-0.578	X_WP:	0.000	Y_WP:	0.000	Y_WP:	0.500	X:	0.099	Y:	0.096	Z:	0.399	yaw:	33.107	yaw rate:	2.716	Roll:	4.220	Pitch:	0.762	Yaw:	48.243	Thrust:	14.840
Time:	2.944	Roll Set Point:	-0.234	Pitch Set Point:	-0.122	Yaw Set Point:	-0.578	X_WP:	0.000	Y_WP:	0.000	Y_WP:	0.500	X:	0.099	Y:	0.096	Z:	0.399	yaw:	33.107	yaw rate:	2.716	Roll:	4.189	Pitch:	0.803	Yaw:	47.792	Thrust:	15.112
Time:	2.959	Roll Set Point:	-0.234	Pitch Set Point:	-0.122	Yaw Set Point:	-0.578	X_WP:	0.000	Y_WP:	0.000	Y_WP:	0.500	X:	0.099	Y:	0.096	Z:	0.399	yaw:	33.092	yaw rate:	2.259	Roll:	4.176	Pitch:	0.829	Yaw:	47.514	Thrust:	15.364
Time:	2.975	Roll Set Point:	-0.234	Pitch Set Point:	-0.122	Yaw Set Point:	-0.577	X_WP:	0.000	Y_WP:	0.000	Y_WP:	0.500	X:	0.099	Y:	0.096	Z:	0.399	yaw:	33.060	yaw rate:	-3.152	Roll:	4.188	Pitch:	0.865	Yaw:	47.196	Thrust:	15.327
Time:	2.991	Roll Set Point:	-0.234	Pitch Set Point:	-0.122	Yaw Set Point:	-0.577	X_WP:	0.000	Y_WP:	0.000	Y_WP:	0.500	X:	0.099	Y:	0.096	Z:	0.399	yaw:	33.078	yaw rate:	1.724	Roll:	4.205	Pitch:	0.785	Yaw:	48.037	Thrust:	15.719
Time:	3.006	Roll Set Point:	-0.234	Pitch Set Point:	-0.122	Yaw Set Point:	-0.578	X_WP:	0.000	Y_WP:	0.000	Y_WP:	0.500	X:	0.099	Y:	0.096	Z:	0.399	yaw:	33.091	yaw rate:	1.386	Roll:	4.222	Pitch:	0.788	Yaw:	47.999	Thrust:	15.924
Time:	3.022	Roll Set Point:	-0.234	Pitch Set Point:	-0.122	Yaw Set Point:	-0.578	X_WP:	0.000	Y_WP:	0.000	Y_WP:	0.500	X:	0.099	Y:	0.096	Z:	0.399	yaw:	33.090	yaw rate:	-0.166	Roll:	4.198	Pitch:	0.804	Yaw:	47.740	Thrust:	16.031
Time:	3.038	Roll Set Point:	-0.234	Pitch Set Point:	-0.122	Yaw Set Point:	-0.577	X_WP:	0.000	Y_WP:	0.000	Y_WP:	0.500	X:	0.099	Y:	0.096	Z:	0.399	yaw:	33.062	yaw rate:	-2.757	Roll:	4.230	Pitch:	0.858	Yaw:	47.264	Thrust:	16.232
Time:	3.053	Roll Set Point:	-0.234	Pitch Set Point:	-0.122	Yaw Set Point:	-0.577	X_WP:	0.000	Y_WP:	0.000	Y_WP:	0.500	X:	0.099	Y:	0.096	Z:	0.399	yaw:	33.083	yaw rate:	2.097	Roll:	4.233	Pitch:	0.784	Yaw:	48.107	Thrust:	16.433
Time:	3.069	Roll Set Point:	-0.234	Pitch Set Point:	-0.122	Yaw Set Point:	-0.577	X_WP:	0.000	Y_WP:	0.000	Y_WP:	0.500	X:	0.099	Y:	0.096	Z:	0.399	yaw:	33.066	yaw rate:	-1.756	Roll:	4.211	Pitch:	0.788	Yaw:	47.433	Thrust:	16.521
Time:	3.085	Roll Set Point:	-0.234	Pitch Set Point:	-0.122	Yaw Set Point:	-0.578	X_WP:	0.000	Y_WP:	0.000	Y_WP:	0.500	X:	0.099	Y:	0.096	Z:	0.398	yaw:	33.094	yaw rate:	2.820	Roll:	4.249	Pitch:	0.805	Yaw:	48.243	Thrust:	16.973
Time:	3.100	Roll Set Point:	-0.235	Pitch Set Point:	-0.122	Yaw Set Point:	-0.577	X_WP:	0.000	Y_WP:	0.000	Y_WP:	0.500	X:	0.099	Y:	0.096	Z:	0.399	yaw:	33.077	yaw rate:	-1.672	Roll:	4.253	Pitch:	0.814	Yaw:	47.470	Thrust:	16.823
Time:	3.116	Roll Set Point:	-0.235	Pitch Set Point:	-0.122	Yaw Set Point:	-0.577	X_WP:	0.000	Y_WP:	0.000	Y_WP:	0.500	X:	0.099	Y:	0.096	Z:	0.399	yaw:	33.077	yaw rate:	-1.672	Roll:	4.246	Pitch:	0.815	Yaw:	47.744	Thrust:	17.164
Time:	3.131	Roll Set Point:	-0.235	Pitch Set Point:	-0.122	Yaw Set Point:	-0.578	X_WP:	0.000	Y_WP:	0.000	Y_WP:	0.500	X:	0.099	Y:	0.096	Z:	0.399	yaw:	33.102	yaw rate:	5.323	Roll:	4.256	Pitch:	0.783	Yaw:	48.191	Thrust:	17.485
Time:	3.147	Roll Set Point:	-0.235	Pitch Set Point:	-0.122	Yaw Set Point:	-0.578	X_WP:	0.000	Y_WP:	0.000	Y_WP:	0.500	X:	0.099	Y:	0.096	Z:	0.399	yaw:	33.102	yaw rate:	5.323	Roll:	4.257	Pitch:	0.816	Yaw:	47.781	Thrust:	17.567
Time:	3.163	Roll Set Point:	-0.234	Pitch Set Point:	-0.122	Yaw Set Point:	-0.577	X_WP:	0.000	Y_WP:	0.000	Y_WP:	0.500	X:	0.099	Y:	0.096	Z:	0.399	yaw:	33.072	yaw rate:	-0.873	Roll:	4.239	Pitch:	0.888	Yaw:	47.239	Thrust:	17.764
Time:	3.178	Roll Set Point:	-0.234	Pitch Set Point:	-0.122	Yaw Set Point:	-0.577	X_WP:	0.000	Y_WP:	0.000	Y_WP:	0.500	X:	0.099	Y:	0.096	Z:	0.399	yaw:	33.072	yaw rate:	-0.873	Roll:	4.267	Pitch:	0.820	Yaw:	47.739	Thrust:	17.948
Time:	3.194	Roll Set Point:	-0.234	Pitch Set Point:	-0.122	Yaw Set Point:	-0.577	X_WP:	0.000	Y_WP:	0.000	Y_WP:	0.500	X:	0.099	Y:	0.096	Z:	0.399	yaw:	33.087	yaw rate:	-2.709	Roll:	4.287	Pitch:	0.811	Yaw:	48.015	Thrust:	18.155
Time:	3.210	Roll Set Point:	-0.234	Pitch Set Point:	-0.122	Yaw Set Point:	-0.577	X_WP:	0.000	Y_WP:	0.000	Y_WP:	0.500	X:	0.099	Y:	0.096	Z:	0.399	yaw:	33.083	yaw rate:	-0.356	Roll:	4.269	Pitch:	0.776	Yaw:	47.696	Thrust:	18.341
Time:	3.225	Roll Set Point:	-0.235	Pitch Set Point:	-0.122	Yaw Set Point:	-0.577	X_WP:	0.000	Y_WP:	0.000	Y_WP:	0.500	X:	0.099	Y:	0.096	Z:	0.399	yaw:	33.056	yaw rate:	-2.744	Roll:	4.296	Pitch:	0.888	Yaw:	47.258	Thrust:	18.449
Time:	3.241	Roll Set Point:	-0.234	Pitch Set Point:	-0.122	Yaw Set Point:	-0.577	X_WP:	0.000	Y_WP:	0.000	Y_WP:	0.500	X:	0.099	Y:	0.096	Z:	0.399	yaw:	33.055	yaw rate:	-0.103	Roll:	4.268	Pitch:	0.859	Yaw:	47.699	Thrust:	18.666
Time:	3.256	Roll Set Point:	-0.234	Pitch Set Point:	-0.122	Yaw Set Point:	-0.577	X_WP:	0.000	Y_WP:	0.000	Y_WP:	0.500	X:	0.099	Y:	0.096	Z:	0.399	yaw:	33.081	yaw rate:	2.656	Roll:	4.295	Pitch:	0.765	Yaw:	48.198	Thrust:	19.001
Time:	3.272	Roll Set Point:	-0.234	Pitch Set Point:	-0.122	Yaw Set Point:	-0.578	X_WP:	0.000	Y_WP:	0.000	Y_WP:	0.500	X:	0.099	Y:	0.096	Z:	0.399	yaw:	33.103	yaw rate:	2.175	Roll:	4.316	Pitch:	0.751	Yaw:	48.148	Thrust:	19.107
Time:	3.288	Roll Set Point:	-0.234	Pitch Set Point:	-0.122	Yaw Set Point:	-0.577	X_WP:	0.000	Y_WP:	0.000	Y_WP:	0.500	X:	0.099	Y:	0.096	Z:	0.399	yaw:	33.068	yaw rate:	-3.496	Roll:	4.305	Pitch:	0.979	Yaw:	47.149	Thrust:	19.299
Time:	3.303	Roll Set Point:	-0.235	Pitch Set Point:	-0.122	Yaw Set Point:	-0.578	X_WP:	0.000	Y_WP:	0.000	Y_WP:	0.500	X:	0.099	Y:	0.096	Z:	0.399	yaw:	33.104	yaw rate:	3.575	Roll:	4.331	Pitch:	0.711	Yaw:	48.383	Thrust:	19.465
Time:	3.319	Roll Set Point:	-0.235	Pitch Set Point:	-0.122	Yaw Set Point:	-0.577	X_WP:	0.000	Y_WP:	0.000	Y_WP:	0.500	X:	0.099	Y:	0.096	Z:	0.399	yaw:	33.077	yaw rate:	-2.658	Roll:	4.293	Pitch:	0.849	Yaw:	47.302	Thrust:	19.513
Time:	3.335	Roll Set Point:	-0.234	Pitch Set Point:	-0.122	Yaw Set Point:	-0.578	X_WP:	0.000	Y_WP:	0.000	Y_WP:	0.500	X:	0.099	Y:	0.096	Z:	0.399	yaw:	33.101	yaw rate:	2.353	Roll:	4.329	Pitch:	0.819	Yaw:	48.175	Thrust:	19.974
Time:	3.350	Roll Set Point:	-0.234	Pitch Set Point:	-0.122	Yaw Set Point:	-0.578	X_WP:	0.000	Y_WP:	0.000	Y_WP:	0.500	X:	0.099	Y:	0.096	Z:	0.399	yaw:	33.101	yaw rate:	2.353	Roll:	4.326	Pitch:	0.830	Yaw:	47.780	Thrust:	20.043
Time:	3.366	Roll Set Point:	-0.235	Pitch Set Point:	-0.122	Yaw Set Point:	-0.578	X_WP:	0.000	Y_WP:	0.000	Y_WP:	0.500	X:	0.099	Y:	0.096	Z:	0.399	yaw:	33.109	yaw rate:	2.846	Roll:	4.332	Pitch:	0.785	Yaw:	47.924	Thrust:	20.179
Time:	3.381	Roll Set Point:	-0.235	Pitch Set Point:	-0.122	Yaw Set Point:	-0.578	X_WP:	0.000	Y_WP:	0.000	Y_WP:	0.500	X:	0.099	Y:	0.096	Z:	0.399	yaw:	33.109	yaw rate:	2.846	Roll:	4.336	Pitch:	0.831	Yaw:	47.791	Thrust:	20.423
Time:	3.397	Roll Set Point:	-0.235	Pitch Set Point:	-0.122	Yaw Set Point:	-0.577	X_WP:	0.000	Y_WP:	0.000	Y_WP:	0.500	X:	0.099	Y:	0.096	Z:	0.399	yaw:	33.083	yaw rate:	-1.397	Roll:	4.342	Pitch:	0.877	Yaw:	47.332	Thrust:	20.606
Time:	3.413	Roll Set Point:	-0.235	Pitch Set Point:	-0.122	Yaw Set Point:	-0.577	X_WP:	0.000	Y_WP:	0.000	Y_WP:	0.500	X:	0.099	Y:	0.096	Z:	0.399	yaw:	33.080	yaw rate:	-0.300	Roll:	4.349	Pitch:	0.841	Yaw:	47.702	Thrust:	20.767
Time:	3.429	Roll Set Point:	-0.234	Pitch Set Point:	-0.122	Yaw Set Point:	-0.578	X_WP:	0.000	Y_WP:	0.000	Y_WP:	0.500	X:	0.099	Y:	0.096	Z:	0.399	yaw:	33.103	yaw rate:	2.227	Roll:	4.365	Pitch:	0.844	Yaw:	48.191	Thrust:	21.545
Time:	3.452	Roll Set Point:	-0.234	Pitch Set Point:	-0.122	Yaw Set Point:	-0.577	X_WP:	0.000	Y_WP:	0.000	Y_WP:	0.500	X:	0.099	Y:	0.096	Z:	0.399	yaw:	33.081	yaw rate:	-2.002	Roll:	4.560	Pitch:	0.874	Yaw:	48.314	Thrust:	29.204
Time:	3.468	Roll Set Point:	-0.234	Pitch Set Point:	-0.122	Yaw Set Point:	-0.577	X_WP:	0.000	Y_WP:	0.000	Y_WP:	0.500	X:	0.099	Y:	0.096	Z:	0.399	yaw:	33.081	yaw rate:	-2.002	Roll:	4.362	Pitch:	0.837	Yaw:	47.752	Thrust:	21.373
Time:	3.484	Roll Set Point:	-0.235	Pitch Set Point:	-0.122	Yaw Set Point:	-0.577	X_WP:	0.000	Y_WP:	0.000	Y_WP:	0.500	X:	0.099	Y:	0.096	Z:	0.399	yaw:	33.079	yaw rate:	1.916	Roll:	4.391	Pitch:	0.822	Yaw:	47.722	Thrust:	21.480
Time:	3.500	Roll Set Point:	-0.234	Pitch Set Point:	-0.122	Yaw Set Point:	-0.578	X_WP:	0.000	Y_WP:	0.000	Y_WP:	0.500	X:	0.099	Y:	0.096	Z:	0.398	yaw:	33.107	yaw rate:	2.761	Roll:	4.374	Pitch:	0.846	Yaw:	48.277	Thrust:	22.324
Time:	3.517	Roll Set Point:	-0.234	Pitch Set Point:	-0.122	Yaw Set Point:	-0.578	X_WP:	0.000	Y_WP:	0.000	Y_WP:	0.500	X:	0.099	Y:	0.096	Z:	0.398	yaw:	33.107	yaw rate:	2.761	Roll:	4.437	Pitch:	0.851	Yaw:	47.991	Thrust:	24.071
Time:	3.533	Roll Set Point:	-0.234	Pitch Set Point:	-0.122	Yaw Set Point:	-0.577	X_WP:	0.000	Y_WP:	0.000	Y_WP:	0.500	X:	0.099	Y:	0.096	Z:	0.399	yaw:	33.069	yaw rate:	-3.755	Roll:	4.377	Pitch:	0.905	Yaw:	47.107	Thrust:	22.027
Time:	3.549	Roll Set Point:	-0.234	Pitch Set Point:	-0.122	Yaw Set Point:	-0.577	X_WP:	0.000	Y_WP:	0.000	Y_WP:	0.500	X:	0.099	Y:	0.096	Z:	0.399	yaw:	33.084	yaw rate:	-0.239	Roll:	4.394	Pitch:	0.797	Yaw:	47.997	Thrust:	22.375
Time:	3.564	Roll Set Point:	-0.234	Pitch Set Point:	-0.122	Yaw Set Point:	-0.577	X_WP:	0.000	Y_WP:	0.000	Y_WP:	0.500	X:	0.099	Y:	0.096	Z:	0.399	yaw:	33.084	yaw rate:	-0.239	Roll:	4.394	Pitch:	0.843	Yaw:	47.756	Thrust:	22.517
Time:	3.580	Roll Set Point:	-0.234	Pitch Set Point:	-0.122	Yaw Set Point:	-0.577	X_WP:	0.000	Y_WP:	0.000	Y_WP:	0.500	X:	0.099	Y:	0.096	Z:	0.399	yaw:	33.084	yaw rate:	-0.269	Roll:	4.404	Pitch:	0.846	Yaw:	47.757	Thrust:	22.673
Time:	3.595	Roll Set Point:	-0.234	Pitch Set Point:	-0.122	Yaw Set Point:	-0.578	X_WP:	0.000	Y_WP:	0.000	Y_WP:	0.500	X:	0.099	Y:	0.096	Z:	0.399	yaw:	33.094	yaw rate:	1.066	Roll:	4.403	Pitch:	0.870	Yaw:	47.949	Thrust:	22.929
Time:	3.611	Roll Set Point:	-0.234	Pitch Set Point:	-0.122	Yaw Set Point:	-0.578	X_WP:	0.000	Y_WP:	0.000	Y_WP:	0.500	X:	0.099	Y:	0.096	Z:	0.399	yaw:	33.099	yaw rate:	0.436	Roll:	4.416	Pitch:	0.817	Yaw:	47.850	Thrust:	23.069
Time:	3.627	Roll Set Point:	-0.234	Pitch Set Point:	-0.122	Yaw Set Point:	-0.578	X_WP:	0.000	Y_WP:	0.000	Y_WP:	0.500	X:	0.099	Y:	0.096	Z:	0.399	yaw:	33.099	yaw rate:	0.436	Roll:	4.416	Pitch:	0.847	Yaw:	47.780	Thrust:	23.309
Time:	3.642	Roll Set Point:	-0.234	Pitch Set Point:	-0.122	Yaw Set Point:	-0.579	X_WP:	0.000	Y_WP:	0.000	Y_WP:	0.500	X:	0.099	Y:	0.096	Z:	0.399	yaw:	33.151	yaw rate:	5.262	Roll:	4.379	Pitch:	0.784	Yaw:	48.732	Thrust:	23.346
Time:	3.658	Roll Set Point:	-0.234	Pitch Set Point:	-0.122	Yaw Set Point:	-0.579	X_WP:	0.000	Y_WP:	0.000	Y_WP:	0.500	X:	0.099	Y:	0.096	Z:	0.399	yaw:	33.151	yaw rate:	5.262	Roll:	4.424	Pitch:	0.847	Yaw:	47.847	Thrust:	23.620
Time:	3.674	Roll Set Point:	-0.234	Pitch Set Point:	-0.122	Yaw Set Point:	-0.578	X_WP:	0.000	Y_WP:	0.000	Y_WP:	0.500	X:	0.099	Y:	0.096	Z:	0.399	yaw:	33.096	yaw rate:	-5.500	Roll:	4.466	Pitch:	0.928	Yaw:	46.852	Thrust:	23.957
Time:	3.689	Roll Set Point:	-0.234	Pitch Set Point:	-0.122	Yaw Set Point:	-0.578	X_WP:	0.000	Y_WP:	0.000	Y_WP:	0.500	X:	0.099	Y:	0.096	Z:	0.398	yaw:	33.107	yaw rate:	4.783	Roll:	4.436	Pitch:	0.802	Yaw:	47.977	Thrust:	24.120
Time:	3.705	Roll Set Point:	-0.234	Pitch Set Point:	-0.122	Yaw Set Point:	-0.578	X_WP:	0.000	Y_WP:	0.000	Y_WP:	0.500	X:	0.099	Y:	0.096	Z:	0.398	yaw:	33.126	yaw rate:	1.867	Roll:	4.446	Pitch:	0.811	Yaw:	48.131	Thrust:	24.294
Time:	3.721	Roll Set Point:	-0.235	Pitch Set Point:	-0.122	Yaw Set Point:	-0.578	X_WP:	0.000	Y_WP:	0.000	Y_WP:	0.500	X:	0.099	Y:	0.096	Z:	0.399	yaw:	33.096	yaw rate:	-3.049	Roll:	4.459	Pitch:	0.903	Yaw:	47.262	Thrust:	24.348
Time:	3.736	Roll Set Point:	-0.234	Pitch Set Point:	-0.122	Yaw Set Point:	-0.577	X_WP:	0.000	Y_WP:	0.000	Y_WP:	0.500	X:	0.099	Y:	0.096	Z:	0.399	yaw:	33.071	yaw rate:	-2.439	Roll:	4.422	Pitch:	0.984	Yaw:	47.330	Thrust:	24.517
Time:	3.752	Roll Set Point:	-0.234	Pitch Set Point:	-0.122	Yaw Set Point:	-0.577	X_WP:	0.000	Y_WP:	0.000	Y_WP:	0.500	X:	0.099	Y:	0.096	Z:	0.399	yaw:	33.036	yaw rate:	-3.511	Roll:	4.440	Pitch:	0.824	Yaw:	47.098	Thrust:	24.596
Time:	3.767	Roll Set Point:	-0.234	Pitch Set Point:	-0.122	Yaw Set Point:	-0.578	X_WP:	0.000	Y_WP:	0.000	Y_WP:	0.500	X:	0.099	Y:	0.096	Z:	0.398	yaw:	33.096	yaw rate:	5.945	Roll:	4.498	Pitch:	0.751	Yaw:	48.770	Thrust:	25.360
Time:	3.783	Roll Set Point:	-0.234	Pitch Set Point:	-0.122	Yaw Set Point:	-0.578	X_WP:	0.000	Y_WP:	0.000	Y_WP:	0.500	X:	0.099	Y:	0.096	Z:	0.398	yaw:	33.096	yaw rate:	5.945	Roll:	4.467	Pitch:	0.856	Yaw:	47.770	Thrust:	25.144
Time:	3.799	Roll Set Point:	-0.235	Pitch Set Point:	-0.122	Yaw Set Point:	-0.578	X_WP:	0.000	Y_WP:	0.000	Y_WP:	0.500	X:	0.099	Y:	0.096	Z:	0.399	yaw:	33.092	yaw rate:	-0.331	Roll:	4.475	Pitch:	0.866	Yaw:	47.712	Thrust:	25.169
Time:	3.815	Roll Set Point:	-0.234	Pitch Set Point:	-0.122	Yaw Set Point:	-0.577	X_WP:	0.000	Y_WP:	0.000	Y_WP:	0.500	X:	0.099	Y:	0.096	Z:	0.399	yaw:	33.068	yaw rate:	-2.410	Roll:	4.480	Pitch:	0.944	Yaw:	47.362	Thrust:	25.977
Time:	3.830	Roll Set Point:	-0.234	Pitch Set Point:	-0.122	Yaw Set Point:	-0.577	X_WP:	0.000	Y_WP:	0.000	Y_WP:	0.500	X:	0.099	Y:	0.096	Z:	0.399	yaw:	33.062	yaw rate:	-0.787	Roll:	4.442	Pitch:	0.829	Yaw:	47.570	Thrust:	24.926
Time:	3.854	Roll Set Point:	-0.235	Pitch Set Point:	-0.122	Yaw Set Point:	-0.577	X_WP:	0.000	Y_WP:	0.000	Y_WP:	0.500	X:	0.099	Y:	0.096	Z:	0.399	yaw:	33.087	yaw rate:	-0.780	Roll:	4.844	Pitch:	0.912	Yaw:	48.934	Thrust:	37.834
Time:	3.870	Roll Set Point:	-0.234	Pitch Set Point:	-0.122	Yaw Set Point:	-0.577	X_WP:	0.000	Y_WP:	0.000	Y_WP:	0.500	X:	0.099	Y:	0.096	Z:	0.399	yaw:	33.052	yaw rate:	-3.518	Roll:	4.466	Pitch:	0.921	Yaw:	47.123	Thrust:	26.049
Time:	3.886	Roll Set Point:	-0.235	Pitch Set Point:	-0.121	Yaw Set Point:	-0.578	X_WP:	0.000	Y_WP:	0.000	Y_WP:	0.500	X:	0.099	Y:	0.096	Z:	0.399	yaw:	33.095	yaw rate:	4.305	Roll:	4.510	Pitch:	0.732	Yaw:	48.493	Thrust:	26.444
Time:	3.901	Roll Set Point:	-0.235	Pitch Set Point:	-0.121	Yaw Set Point:	-0.578	X_WP:	0.000	Y_WP:	0.000	Y_WP:	0.500	X:	0.099	Y:	0.096	Z:	0.399	yaw:	33.095	yaw rate:	4.305	Roll:	4.505	Pitch:	0.863	Yaw:	47.772	Thrust:	26.512
Time:	3.917	Roll Set Point:	-0.234	Pitch Set Point:	-0.122	Yaw Set Point:	-0.578	X_WP:	0.000	Y_WP:	0.000	Y_WP:	0.500	X:	0.099	Y:	0.096	Z:	0.399	yaw:	33.097	yaw rate:	-1.854	Roll:	4.523	Pitch:	0.928	Yaw:	47.812	Thrust:	26.717
Time:	3.932	Roll Set Point:	-0.234	Pitch Set Point:	-0.122	Yaw Set Point:	-0.578	X_WP:	0.000	Y_WP:	0.000	Y_WP:	0.500	X:	0.099	Y:	0.096	Z:	0.399	yaw:	33.097	yaw rate:	-1.854	Roll:	4.510	Pitch:	0.866	Yaw:	47.775	Thrust:	26.894
Time:	3.948	Roll Set Point:	-0.234	Pitch Set Point:	-0.122	Yaw Set Point:	-0.577	X_WP:	0.000	Y_WP:	0.000	Y_WP:	0.500	X:	0.099	Y:	0.096	Z:	0.399	yaw:	33.087	yaw rate:	1.127	Roll:	4.495	Pitch:	0.834	Yaw:	47.583	Thrust:	27.024
Time:	3.964	Roll Set Point:	-0.235	Pitch Set Point:	-0.121	Yaw Set Point:	-0.577	X_WP:	0.000	Y_WP:	0.000	Y_WP:	0.500	X:	0.099	Y:	0.096	Z:	0.399	yaw:	33.063	yaw rate:	-2.372	Roll:	4.492	Pitch:	0.857	Yaw:	47.333	Thrust:	27.163
Time:	3.979	Roll Set Point:	-0.234	Pitch Set Point:	-0.122	Yaw Set Point:	-0.578	X_WP:	0.000	Y_WP:	0.000	Y_WP:	0.500	X:	0.099	Y:	0.096	Z:	0.398	yaw:	33.106	yaw rate:	4.260	Roll:	4.536	Pitch:	0.909	Yaw:	48.499	Thrust:	27.689
Time:	3.995	Roll Set Point:	-0.234	Pitch Set Point:	-0.122	Yaw Set Point:	-0.576	X_WP:	0.000	Y_WP:	0.000	Y_WP:	0.500	X:	0.099	Y:	0.096	Z:	0.399	yaw:	33.016	yaw rate:	-8.937	Roll:	4.474	Pitch:	1.053	Yaw:	46.165	Thrust:	27.396
Time:	4.011	Roll Set Point:	-0.234	Pitch Set Point:	-0.122	Yaw Set Point:	-0.578	X_WP:	0.000	Y_WP:	0.000	Y_WP:	0.500	X:	0.099	Y:	0.096	Z:	0.399	yaw:	33.092	yaw rate:	7.576	Roll:	4.534	Pitch:	0.704	Yaw:	49.037	Thrust:	28.012
Time:	4.026	Roll Set Point:	-0.235	Pitch Set Point:	-0.121	Yaw Set Point:	-0.577	X_WP:	0.000	Y_WP:	0.000	Y_WP:	0.500	X:	0.099	Y:	0.096	Z:	0.399	yaw:	33.078	yaw rate:	-1.414	Roll:	4.516	Pitch:	0.810	Yaw:	47.511	Thrust:	28.030
Time:	4.042	Roll Set Point:	-0.234	Pitch Set Point:	-0.122	Yaw Set Point:	-0.578	X_WP:	0.000	Y_WP:	0.000	Y_WP:	0.500	X:	0.099	Y:	0.096	Z:	0.399	yaw:	33.091	yaw rate:	1.325	Roll:	4.509	Pitch:	0.917	Yaw:	47.988	Thrust:	28.237
Time:	4.057	Roll Set Point:	-0.235	Pitch Set Point:	-0.122	Yaw Set Point:	-0.577	X_WP:	0.000	Y_WP:	0.000	Y_WP:	0.500	X:	0.099	Y:	0.096	Z:	0.399	yaw:	33.068	yaw rate:	-2.315	Roll:	4.529	Pitch:	0.961	Yaw:	47.350	Thrust:	28.397
Time:	4.073	Roll Set Point:	-0.234	Pitch Set Point:	-0.122	Yaw Set Point:	-0.577	X_WP:	0.000	Y_WP:	0.000	Y_WP:	0.500	X:	0.099	Y:	0.096	Z:	0.399	yaw:	33.078	yaw rate:	1.063	Roll:	4.502	Pitch:	0.840	Yaw:	47.927	Thrust:	28.615
Time:	4.089	Roll Set Point:	-0.234	Pitch Set Point:	-0.122	Yaw Set Point:	-0.577	X_WP:	0.000	Y_WP:	0.000	Y_WP:	0.500	X:	0.099	Y:	0.096	Z:	0.399	yaw:	33.078	yaw rate:	1.063	Roll:	4.510	Pitch:	0.878	Yaw:	47.749	Thrust:	28.793
Time:	4.104	Roll Set Point:	-0.234	Pitch Set Point:	-0.122	Yaw Set Point:	-0.577	X_WP:	0.000	Y_WP:	0.000	Y_WP:	0.500	X:	0.099	Y:	0.096	Z:	0.399	yaw:	33.054	yaw rate:	-0.344	Roll:	4.464	Pitch:	0.913	Yaw:	47.298	Thrust:	28.954
Time:	4.120	Roll Set Point:	-0.235	Pitch Set Point:	-0.122	Yaw Set Point:	-0.578	X_WP:	0.000	Y_WP:	0.000	Y_WP:	0.500	X:	0.099	Y:	0.096	Z:	0.399	yaw:	33.109	yaw rate:	5.552	Roll:	4.580	Pitch:	0.792	Yaw:	48.724	Thrust:	29.281
Time:	4.136	Roll Set Point:	-0.234	Pitch Set Point:	-0.122	Yaw Set Point:	-0.578	X_WP:	0.000	Y_WP:	0.000	Y_WP:	0.500	X:	0.099	Y:	0.096	Z:	0.399	yaw:	33.088	yaw rate:	-2.106	Roll:	4.466	Pitch:	0.911	Yaw:	47.410	Thrust:	29.323
Time:	4.151	Roll Set Point:	-0.234	Pitch Set Point:	-0.122	Yaw Set Point:	-0.577	X_WP:	0.000	Y_WP:	0.000	Y_WP:	0.500	X:	0.099	Y:	0.096	Z:	0.399	yaw:	33.075	yaw rate:	-1.332	Roll:	4.501	Pitch:	0.856	Yaw:	47.521	Thrust:	29.447
Time:	4.167	Roll Set Point:	-0.234	Pitch Set Point:	-0.122	Yaw Set Point:	-0.578	X_WP:	0.000	Y_WP:	0.000	Y_WP:	0.500	X:	0.099	Y:	0.096	Z:	0.398	yaw:	33.093	yaw rate:	1.805	Roll:	4.527	Pitch:	0.932	Yaw:	48.070	Thrust:	29.922
Time:	4.182	Roll Set Point:	-0.234	Pitch Set Point:	-0.122	Yaw Set Point:	-0.577	X_WP:	0.000	Y_WP:	0.000	Y_WP:	0.500	X:	0.099	Y:	0.096	Z:	0.399	yaw:	33.060	yaw rate:	-3.263	Roll:	4.498	Pitch:	0.975	Yaw:	47.180	Thrust:	29.821
Time:	4.198	Roll Set Point:	-0.235	Pitch Set Point:	-0.122	Yaw Set Point:	-0.577	X_WP:	0.000	Y_WP:	0.000	Y_WP:	0.500	X:	0.099	Y:	0.096	Z:	0.399	yaw:	33.065	yaw rate:	0.478	Roll:	4.527	Pitch:	0.803	Yaw:	47.812	Thrust:	30.200
Time:	4.214	Roll Set Point:	-0.234	Pitch Set Point:	-0.122	Yaw Set Point:	-0.577	X_WP:	0.000	Y_WP:	0.000	Y_WP:	0.500	X:	0.099	Y:	0.096	Z:	0.399	yaw:	33.057	yaw rate:	-0.809	Roll:	4.475	Pitch:	0.888	Yaw:	47.583	Thrust:	30.354
Time:	4.229	Roll Set Point:	-0.234	Pitch Set Point:	-0.122	Yaw Set Point:	-0.577	X_WP:	0.000	Y_WP:	0.000	Y_WP:	0.500	X:	0.099	Y:	0.096	Z:	0.399	yaw:	33.048	yaw rate:	-0.911	Roll:	4.517	Pitch:	0.899	Yaw:	47.553	Thrust:	30.198
Time:	4.245	Roll Set Point:	-0.234	Pitch Set Point:	-0.122	Yaw Set Point:	-0.577	X_WP:	0.000	Y_WP:	0.000	Y_WP:	0.500	X:	0.099	Y:	0.096	Z:	0.399	yaw:	33.054	yaw rate:	0.586	Roll:	4.538	Pitch:	0.952	Yaw:	47.810	Thrust:	30.954
Time:	4.261	Roll Set Point:	-0.234	Pitch Set Point:	-0.122	Yaw Set Point:	-0.577	X_WP:	0.000	Y_WP:	0.000	Y_WP:	0.500	X:	0.099	Y:	0.096	Z:	0.399	yaw:	33.054	yaw rate:	0.586	Roll:	4.518	Pitch:	0.893	Yaw:	47.736	Thrust:	31.239
Time:	4.275	Roll Set Point:	-0.234	Pitch Set Point:	-0.122	Yaw Set Point:	-0.578	X_WP:	0.000	Y_WP:	0.000	Y_WP:	0.500	X:	0.099	Y:	0.096	Z:	0.399	yaw:	33.093	yaw rate:	-0.284	Roll:	4.446	Pitch:	0.752	Yaw:	48.332	Thrust:	28.439
Time:	4.303	Roll Set Point:	-0.235	Pitch Set Point:	-0.122	Yaw Set Point:	-0.577	X_WP:	0.000	Y_WP:	0.000	Y_WP:	0.500	X:	0.099	Y:	0.096	Z:	0.399	yaw:	33.075	yaw rate:	0.461	Roll:	4.968	Pitch:	1.001	Yaw:	48.794	Thrust:	51.263
Time:	4.318	Roll Set Point:	-0.234	Pitch Set Point:	-0.122	Yaw Set Point:	-0.578	X_WP:	0.000	Y_WP:	0.000	Y_WP:	0.500	X:	0.099	Y:	0.096	Z:	0.399	yaw:	33.103	yaw rate:	2.823	Roll:	4.519	Pitch:	0.899	Yaw:	48.256	Thrust:	31.571
Time:	4.334	Roll Set Point:	-0.235	Pitch Set Point:	-0.122	Yaw Set Point:	-0.578	X_WP:	0.000	Y_WP:	0.000	Y_WP:	0.500	X:	0.099	Y:	0.096	Z:	0.399	yaw:	33.098	yaw rate:	-0.512	Roll:	4.515	Pitch:	0.865	Yaw:	47.694	Thrust:	31.710
Time:	4.350	Roll Set Point:	-0.235	Pitch Set Point:	-0.122	Yaw Set Point:	-0.578	X_WP:	0.000	Y_WP:	0.000	Y_WP:	0.500	X:	0.099	Y:	0.096	Z:	0.399	yaw:	33.098	yaw rate:	-0.512	Roll:	4.510	Pitch:	0.893	Yaw:	47.776	Thrust:	31.841
Time:	4.365	Roll Set Point:	-0.234	Pitch Set Point:	-0.121	Yaw Set Point:	-0.579	X_WP:	0.000	Y_WP:	0.000	Y_WP:	0.500	X:	0.099	Y:	0.096	Z:	0.399	yaw:	33.150	yaw rate:	5.212	Roll:	4.449	Pitch:	0.740	Yaw:	48.721	Thrust:	31.569
Time:	4.381	Roll Set Point:	-0.234	Pitch Set Point:	-0.122	Yaw Set Point:	-0.578	X_WP:	0.000	Y_WP:	0.000	Y_WP:	0.500	X:	0.099	Y:	0.096	Z:	0.399	yaw:	33.092	yaw rate:	-5.765	Roll:	4.554	Pitch:	1.071	Yaw:	46.807	Thrust:	32.644
Time:	4.396	Roll Set Point:	-0.234	Pitch Set Point:	-0.121	Yaw Set Point:	-0.579	X_WP:	0.000	Y_WP:	0.000	Y_WP:	0.500	X:	0.099	Y:	0.096	Z:	0.399	yaw:	33.157	yaw rate:	6.453	Roll:	4.476	Pitch:	0.728	Yaw:	48.939	Thrust:	32.127
Time:	4.412	Roll Set Point:	-0.234	Pitch Set Point:	-0.121	Yaw Set Point:	-0.579	X_WP:	0.000	Y_WP:	0.000	Y_WP:	0.500	X:	0.099	Y:	0.096	Z:	0.399	yaw:	33.157	yaw rate:	6.453	Roll:	4.510	Pitch:	0.893	Yaw:	47.861	Thrust:	32.637
Time:	4.428	Roll Set Point:	-0.234	Pitch Set Point:	-0.121	Yaw Set Point:	-0.578	X_WP:	0.000	Y_WP:	0.000	Y_WP:	0.500	X:	0.099	Y:	0.096	Z:	0.399	yaw:	33.145	yaw rate:	-1.223	Roll:	4.485	Pitch:	0.892	Yaw:	47.634	Thrust:	32.590
Time:	4.453	Roll Set Point:	-0.234	Pitch Set Point:	-0.122	Yaw Set Point:	-0.577	X_WP:	0.000	Y_WP:	0.000	Y_WP:	0.500	X:	0.099	Y:	0.096	Z:	0.399	yaw:	33.044	yaw rate:	-4.699	Roll:	4.892	Pitch:	1.154	Yaw:	47.641	Thrust:	50.309
Time:	4.469	Roll Set Point:	-0.234	Pitch Set Point:	-0.122	Yaw Set Point:	-0.577	X_WP:	0.000	Y_WP:	0.000	Y_WP:	0.500	X:	0.099	Y:	0.096	Z:	0.399	yaw:	33.044	yaw rate:	-4.699	Roll:	4.509	Pitch:	0.903	Yaw:	47.700	Thrust:	33.169
Time:	4.484	Roll Set Point:	-0.234	Pitch Set Point:	-0.122	Yaw Set Point:	-0.578	X_WP:	0.000	Y_WP:	0.000	Y_WP:	0.500	X:	0.099	Y:	0.096	Z:	0.399	yaw:	33.098	yaw rate:	1.753	Roll:	4.543	Pitch:	0.744	Yaw:	48.684	Thrust:	33.499
Time:	4.500	Roll Set Point:	-0.234	Pitch Set Point:	-0.122	Yaw Set Point:	-0.577	X_WP:	0.000	Y_WP:	0.000	Y_WP:	0.500	X:	0.099	Y:	0.096	Z:	0.399	yaw:	33.075	yaw rate:	-2.334	Roll:	4.524	Pitch:	1.030	Yaw:	47.352	Thrust:	33.466
Time:	4.516	Roll Set Point:	-0.234	Pitch Set Point:	-0.122	Yaw Set Point:	-0.577	X_WP:	0.000	Y_WP:	0.000	Y_WP:	0.500	X:	0.099	Y:	0.096	Z:	0.399	yaw:	33.075	yaw rate:	-2.334	Roll:	4.510	Pitch:	0.905	Yaw:	47.744	Thrust:	33.753
Time:	4.531	Roll Set Point:	-0.235	Pitch Set Point:	-0.121	Yaw Set Point:	-0.578	X_WP:	0.000	Y_WP:	0.000	Y_WP:	0.500	X:	0.099	Y:	0.096	Z:	0.399	yaw:	33.100	yaw rate:	0.059	Roll:	4.490	Pitch:	0.722	Yaw:	48.198	Thrust:	34.033
Time:	4.547	Roll Set Point:	-0.235	Pitch Set Point:	-0.121	Yaw Set Point:	-0.578	X_WP:	0.000	Y_WP:	0.000	Y_WP:	0.500	X:	0.099	Y:	0.096	Z:	0.399	yaw:	33.100	yaw rate:	0.059	Roll:	4.509	Pitch:	0.903	Yaw:	47.778	Thrust:	34.107
Time:	4.562	Roll Set Point:	-0.234	Pitch Set Point:	-0.122	Yaw Set Point:	-0.578	X_WP:	0.000	Y_WP:	0.000	Y_WP:	0.500	X:	0.099	Y:	0.096	Z:	0.399	yaw:	33.095	yaw rate:	-0.486	Roll:	4.525	Pitch:	1.037	Yaw:	47.690	Thrust:	34.334
Time:	4.578	Roll Set Point:	-0.234	Pitch Set Point:	-0.122	Yaw Set Point:	-0.577	X_WP:	0.000	Y_WP:	0.000	Y_WP:	0.500	X:	0.099	Y:	0.096	Z:	0.399	yaw:	33.084	yaw rate:	-1.258	Roll:	4.498	Pitch:	0.909	Yaw:	47.571	Thrust:	34.445
Time:	4.594	Roll Set Point:	-0.234	Pitch Set Point:	-0.122	Yaw Set Point:	-0.577	X_WP:	0.000	Y_WP:	0.000	Y_WP:	0.500	X:	0.099	Y:	0.096	Z:	0.399	yaw:	33.084	yaw rate:	-1.258	Roll:	4.510	Pitch:	0.909	Yaw:	47.756	Thrust:	34.692
Time:	4.609	Roll Set Point:	-0.234	Pitch Set Point:	-0.122	Yaw Set Point:	-0.577	X_WP:	0.000	Y_WP:	0.000	Y_WP:	0.500	X:	0.099	Y:	0.096	Z:	0.399	yaw:	33.081	yaw rate:	-0.248	Roll:	4.500	Pitch:	0.876	Yaw:	47.711	Thrust:	34.919
Time:	4.625	Roll Set Point:	-0.234	Pitch Set Point:	-0.122	Yaw Set Point:	-0.577	X_WP:	0.000	Y_WP:	0.000	Y_WP:	0.500	X:	0.099	Y:	0.096	Z:	0.399	yaw:	33.057	yaw rate:	-1.714	Roll:	4.506	Pitch:	1.005	Yaw:	47.308	Thrust:	34.756
Time:	4.641	Roll Set Point:	-0.234	Pitch Set Point:	-0.122	Yaw Set Point:	-0.577	X_WP:	0.000	Y_WP:	0.000	Y_WP:	0.500	X:	0.099	Y:	0.096	Z:	0.399	yaw:	33.080	yaw rate:	2.372	Roll:	4.523	Pitch:	0.855	Yaw:	48.149	Thrust:	35.553
Time:	4.656	Roll Set Point:	-0.234	Pitch Set Point:	-0.121	Yaw Set Point:	-0.579	X_WP:	0.000	Y_WP:	0.000	Y_WP:	0.500	X:	0.099	Y:	0.096	Z:	0.399	yaw:	33.163	yaw rate:	8.286	Roll:	4.491	Pitch:	0.725	Yaw:	49.256	Thrust:	35.284
Time:	4.672	Roll Set Point:	-0.234	Pitch Set Point:	-0.122	Yaw Set Point:	-0.578	X_WP:	0.000	Y_WP:	0.000	Y_WP:	0.500	X:	0.099	Y:	0.096	Z:	0.399	yaw:	33.093	yaw rate:	-7.066	Roll:	4.521	Pitch:	1.073	Yaw:	46.582	Thrust:	35.861
Time:	4.688	Roll Set Point:	-0.234	Pitch Set Point:	-0.122	Yaw Set Point:	-0.578	X_WP:	0.000	Y_WP:	0.000	Y_WP:	0.500	X:	0.099	Y:	0.096	Z:	0.399	yaw:	33.118	yaw rate:	2.543	Roll:	4.550	Pitch:	0.906	Yaw:	48.230	Thrust:	35.802
Time:	4.703	Roll Set Point:	-0.234	Pitch Set Point:	-0.122	Yaw Set Point:	-0.577	X_WP:	0.000	Y_WP:	0.000	Y_WP:	0.500	X:	0.099	Y:	0.096	Z:	0.399	yaw:	33.069	yaw rate:	-4.872	Roll:	4.474	Pitch:	0.985	Yaw:	46.920	Thrust:	35.939
Time:	4.719	Roll Set Point:	-0.234	Pitch Set Point:	-0.122	Yaw Set Point:	-0.577	X_WP:	0.000	Y_WP:	0.000	Y_WP:	0.500	X:	0.099	Y:	0.096	Z:	0.399	yaw:	33.054	yaw rate:	-1.516	Roll:	4.470	Pitch:	0.894	Yaw:	47.461	Thrust:	36.160
Time:	4.734	Roll Set Point:	-0.235	Pitch Set Point:	-0.122	Yaw Set Point:	-0.578	X_WP:	0.000	Y_WP:	0.000	Y_WP:	0.500	X:	0.099	Y:	0.096	Z:	0.399	yaw:	33.093	yaw rate:	3.839	Roll:	4.552	Pitch:	0.833	Yaw:	48.412	Thrust:	36.572
Time:	4.750	Roll Set Point:	-0.235	Pitch Set Point:	-0.122	Yaw Set Point:	-0.578	X_WP:	0.000	Y_WP:	0.000	Y_WP:	0.500	X:	0.099	Y:	0.096	Z:	0.399	yaw:	33.093	yaw rate:	3.839	Roll:	4.510	Pitch:	0.917	Yaw:	47.769	Thrust:	36.597
Time:	4.766	Roll Set Point:	-0.234	Pitch Set Point:	-0.122	Yaw Set Point:	-0.578	X_WP:	0.000	Y_WP:	0.000	Y_WP:	0.500	X:	0.099	Y:	0.096	Z:	0.399	yaw:	33.103	yaw rate:	3.287	Roll:	4.513	Pitch:	0.971	Yaw:	47.966	Thrust:	36.805
Time:	4.781	Roll Set Point:	-0.234	Pitch Set Point:	-0.122	Yaw Set Point:	-0.577	X_WP:	0.000	Y_WP:	0.000	Y_WP:	0.500	X:	0.099	Y:	0.096	Z:	0.399	yaw:	33.079	yaw rate:	-2.401	Roll:	4.501	Pitch:	0.916	Yaw:	47.352	Thrust:	36.969
Time:	4.797	Roll Set Point:	-0.234	Pitch Set Point:	-0.122	Yaw Set Point:	-0.577	X_WP:	0.000	Y_WP:	0.000	Y_WP:	0.500	X:	0.099	Y:	0.096	Z:	0.399	yaw:	33.079	yaw rate:	-2.401	Roll:	4.509	Pitch:	0.922	Yaw:	47.750	Thrust:	37.160
Time:	4.813	Roll Set Point:	-0.234	Pitch Set Point:	-0.122	Yaw Set Point:	-0.577	X_WP:	0.000	Y_WP:	0.000	Y_WP:	0.500	X:	0.099	Y:	0.096	Z:	0.399	yaw:	33.082	yaw rate:	0.276	Roll:	4.515	Pitch:	0.951	Yaw:	47.805	Thrust:	37.239
Time:	4.828	Roll Set Point:	-0.234	Pitch Set Point:	-0.122	Yaw Set Point:	-0.578	X_WP:	0.000	Y_WP:	0.000	Y_WP:	0.500	X:	0.099	Y:	0.096	Z:	0.399	yaw:	33.098	yaw rate:	1.592	Roll:	4.520	Pitch:	0.920	Yaw:	48.041	Thrust:	37.676
Time:	4.844	Roll Set Point:	-0.234	Pitch Set Point:	-0.122	Yaw Set Point:	-0.577	X_WP:	0.000	Y_WP:	0.000	Y_WP:	0.500	X:	0.099	Y:	0.096	Z:	0.399	yaw:	33.076	yaw rate:	-2.221	Roll:	4.473	Pitch:	0.913	Yaw:	47.379	Thrust:	37.749
Time:	4.859	Roll Set Point:	-0.234	Pitch Set Point:	-0.122	Yaw Set Point:	-0.577	X_WP:	0.000	Y_WP:	0.000	Y_WP:	0.500	X:	0.099	Y:	0.096	Z:	0.399	yaw:	33.076	yaw rate:	-2.221	Roll:	4.509	Pitch:	0.926	Yaw:	47.745	Thrust:	37.909
Time:	4.875	Roll Set Point:	-0.235	Pitch Set Point:	-0.122	Yaw Set Point:	-0.577	X_WP:	0.000	Y_WP:	0.000	Y_WP:	0.500	X:	0.099	Y:	0.096	Z:	0.399	yaw:	33.082	yaw rate:	0.581	Roll:	4.547	Pitch:	0.870	Yaw:	47.848	Thrust:	37.931
Time:	4.891	Roll Set Point:	-0.235	Pitch Set Point:	-0.122	Yaw Set Point:	-0.577	X_WP:	0.000	Y_WP:	0.000	Y_WP:	0.500	X:	0.099	Y:	0.096	Z:	0.399	yaw:	33.082	yaw rate:	0.581	Roll:	4.510	Pitch:	0.927	Yaw:	47.755	Thrust:	38.326
Time:	4.906	Roll Set Point:	-0.234	Pitch Set Point:	-0.122	Yaw Set Point:	-0.577	X_WP:	0.000	Y_WP:	0.000	Y_WP:	0.500	X:	0.099	Y:	0.096	Z:	0.399	yaw:	33.070	yaw rate:	-1.193	Roll:	4.474	Pitch:	1.092	Yaw:	47.537	Thrust:	38.548
Time:	4.922	Roll Set Point:	-0.234	Pitch Set Point:	-0.122	Yaw Set Point:	-0.577	X_WP:	0.000	Y_WP:	0.000	Y_WP:	0.500	X:	0.099	Y:	0.096	Z:	0.399	yaw:	33.036	yaw rate:	-5.849	Roll:	4.497	Pitch:	0.880	Yaw:	47.123	Thrust:	38.797
Time:	4.938	Roll Set Point:	-0.234	Pitch Set Point:	-0.122	Yaw Set Point:	-0.577	X_WP:	0.000	Y_WP:	0.000	Y_WP:	0.500	X:	0.099	Y:	0.096	Z:	0.399	yaw:	33.062	yaw rate:	2.636	Roll:	4.528	Pitch:	0.904	Yaw:	48.166	Thrust:	38.622
Time:	4.953	Roll Set Point:	-0.234	Pitch Set Point:	-0.122	Yaw Set Point:	-0.577	X_WP:	0.000	Y_WP:	0.000	Y_WP:	0.500	X:	0.099	Y:	0.096	Z:	0.399	yaw:	33.062	yaw rate:	2.636	Roll:	4.511	Pitch:	0.933	Yaw:	47.730	Thrust:	39.143
Time:	4.969	Roll Set Point:	-0.234	Pitch Set Point:	-0.122	Yaw Set Point:	-0.578	X_WP:	0.000	Y_WP:	0.000	Y_WP:	0.500	X:	0.099	Y:	0.096	Z:	0.399	yaw:	33.113	yaw rate:	3.110	Roll:	4.518	Pitch:	0.815	Yaw:	48.642	Thrust:	39.368
Time:	4.984	Roll Set Point:	-0.234	Pitch Set Point:	-0.122	Yaw Set Point:	-0.578	X_WP:	0.000	Y_WP:	0.000	Y_WP:	0.500	X:	0.099	Y:	0.096	Z:	0.399	yaw:	33.113	yaw rate:	3.110	Roll:	4.510	Pitch:	0.932	Yaw:	47.797	Thrust:	39.448
Time:	5.000	Roll Set Point:	-0.234	Pitch Set Point:	-0.122	Yaw Set Point:	-0.578	X_WP:	0.000	Y_WP:	0.000	Y_WP:	0.500	X:	0.099	Y:	0.096	Z:	0.398	yaw:	33.115	yaw rate:	0.223	Roll:	4.518	Pitch:	0.988	Yaw:	47.841	Thrust:	39.825
Time:	5.016	Roll Set Point:	-0.234	Pitch Set Point:	-0.122	Yaw Set Point:	-0.577	X_WP:	0.000	Y_WP:	0.000	Y_WP:	0.500	X:	0.099	Y:	0.096	Z:	0.399	yaw:	33.085	yaw rate:	-0.628	Roll:	4.492	Pitch:	1.022	Yaw:	47.248	Thrust:	39.766
Time:	5.031	Roll Set Point:	-0.234	Pitch Set Point:	-0.122	Yaw Set Point:	-0.577	X_WP:	0.000	Y_WP:	0.000	Y_WP:	0.500	X:	0.099	Y:	0.096	Z:	0.399	yaw:	33.082	yaw rate:	-0.240	Roll:	4.484	Pitch:	0.905	Yaw:	47.711	Thrust:	39.892
Time:	5.047	Roll Set Point:	-0.235	Pitch Set Point:	-0.122	Yaw Set Point:	-0.577	X_WP:	0.000	Y_WP:	0.000	Y_WP:	0.500	X:	0.099	Y:	0.096	Z:	0.399	yaw:	33.060	yaw rate:	-2.275	Roll:	4.544	Pitch:	0.901	Yaw:	47.345	Thrust:	40.307
Time:	5.063	Roll Set Point:	-0.235	Pitch Set Point:	-0.122	Yaw Set Point:	-0.577	X_WP:	0.000	Y_WP:	0.000	Y_WP:	0.500	X:	0.099	Y:	0.096	Z:	0.399	yaw:	33.060	yaw rate:	-2.275	Roll:	4.508	Pitch:	0.938	Yaw:	47.719	Thrust:	40.332
Time:	5.078	Roll Set Point:	-0.234	Pitch Set Point:	-0.122	Yaw Set Point:	-0.577	X_WP:	0.000	Y_WP:	0.000	Y_WP:	0.500	X:	0.099	Y:	0.096	Z:	0.399	yaw:	33.078	yaw rate:	-3.126	Roll:	4.519	Pitch:	0.960	Yaw:	48.052	Thrust:	40.517
Time:	5.094	Roll Set Point:	-0.234	Pitch Set Point:	-0.122	Yaw Set Point:	-0.577	X_WP:	0.000	Y_WP:	0.000	Y_WP:	0.500	X:	0.099	Y:	0.096	Z:	0.399	yaw:	33.078	yaw rate:	-3.126	Roll:	4.510	Pitch:	0.941	Yaw:	47.748	Thrust:	40.777
Time:	5.109	Roll Set Point:	-0.234	Pitch Set Point:	-0.122	Yaw Set Point:	-0.577	X_WP:	0.000	Y_WP:	0.000	Y_WP:	0.500	X:	0.099	Y:	0.096	Z:	0.399	yaw:	33.080	yaw rate:	2.480	Roll:	4.492	Pitch:	0.917	Yaw:	47.788	Thrust:	40.958
Time:	5.125	Roll Set Point:	-0.234	Pitch Set Point:	-0.122	Yaw Set Point:	-0.577	X_WP:	0.000	Y_WP:	0.000	Y_WP:	0.500	X:	0.099	Y:	0.096	Z:	0.398	yaw:	33.074	yaw rate:	-0.560	Roll:	4.529	Pitch:	1.034	Yaw:	47.649	Thrust:	41.377
Time:	5.141	Roll Set Point:	-0.234	Pitch Set Point:	-0.122	Yaw Set Point:	-0.577	X_WP:	0.000	Y_WP:	0.000	Y_WP:	0.500	X:	0.099	Y:	0.096	Z:	0.399	yaw:	33.079	yaw rate:	0.462	Roll:	4.503	Pitch:	0.861	Yaw:	47.827	Thrust:	41.110
Time:	5.156	Roll Set Point:	-0.234	Pitch Set Point:	-0.122	Yaw Set Point:	-0.577	X_WP:	0.000	Y_WP:	0.000	Y_WP:	0.500	X:	0.099	Y:	0.096	Z:	0.399	yaw:	33.077	yaw rate:	-0.160	Roll:	4.478	Pitch:	0.975	Yaw:	47.721	Thrust:	41.618
Time:	5.172	Roll Set Point:	-0.234	Pitch Set Point:	-0.122	Yaw Set Point:	-0.578	X_WP:	0.000	Y_WP:	0.000	Y_WP:	0.500	X:	0.099	Y:	0.096	Z:	0.399	yaw:	33.093	yaw rate:	1.576	Roll:	4.527	Pitch:	0.891	Yaw:	48.033	Thrust:	41.746
Time:	5.188	Roll Set Point:	-0.235	Pitch Set Point:	-0.122	Yaw Set Point:	-0.577	X_WP:	0.000	Y_WP:	0.000	Y_WP:	0.500	X:	0.099	Y:	0.096	Z:	0.398	yaw:	33.085	yaw rate:	-0.768	Roll:	4.547	Pitch:	0.993	Yaw:	47.630	Thrust:	42.018
Time:	5.203	Roll Set Point:	-0.234	Pitch Set Point:	-0.122	Yaw Set Point:	-0.577	X_WP:	0.000	Y_WP:	0.000	Y_WP:	0.500	X:	0.099	Y:	0.096	Z:	0.399	yaw:	33.073	yaw rate:	-1.281	Roll:	4.481	Pitch:	0.981	Yaw:	47.526	Thrust:	42.007
Time:	5.219	Roll Set Point:	-0.234	Pitch Set Point:	-0.122	Yaw Set Point:	-0.577	X_WP:	0.000	Y_WP:	0.000	Y_WP:	0.500	X:	0.099	Y:	0.096	Z:	0.399	yaw:	33.063	yaw rate:	-0.933	Roll:	4.493	Pitch:	0.902	Yaw:	47.571	Thrust:	42.221
Time:	5.234	Roll Set Point:	-0.234	Pitch Set Point:	-0.122	Yaw Set Point:	-0.577	X_WP:	0.000	Y_WP:	0.000	Y_WP:	0.500	X:	0.099	Y:	0.096	Z:	0.399	yaw:	33.063	yaw rate:	-0.933	Roll:	4.509	Pitch:	0.950	Yaw:	47.728	Thrust:	42.492
Time:	5.250	Roll Set Point:	-0.234	Pitch Set Point:	-0.122	Yaw Set Point:	-0.577	X_WP:	0.000	Y_WP:	0.000	Y_WP:	0.500	X:	0.099	Y:	0.096	Z:	0.399	yaw:	33.049	yaw rate:	-1.423	Roll:	4.517	Pitch:	1.005	Yaw:	47.469	Thrust:	42.685
Time:	5.266	Roll Set Point:	-0.235	Pitch Set Point:	-0.122	Yaw Set Point:	-0.578	X_WP:	0.000	Y_WP:	0.000	Y_WP:	0.500	X:	0.099	Y:	0.096	Z:	0.399	yaw:	33.094	yaw rate:	4.491	Roll:	4.535	Pitch:	0.847	Yaw:	48.523	Thrust:	42.902
Time:	5.281	Roll Set Point:	-0.234	Pitch Set Point:	-0.122	Yaw Set Point:	-0.577	X_WP:	0.000	Y_WP:	0.000	Y_WP:	0.500	X:	0.099	Y:	0.096	Z:	0.399	yaw:	33.066	yaw rate:	-2.500	Roll:	4.471	Pitch:	1.009	Yaw:	47.262	Thrust:	43.082
Time:	5.297	Roll Set Point:	-0.234	Pitch Set Point:	-0.122	Yaw Set Point:	-0.577	X_WP:	0.000	Y_WP:	0.000	Y_WP:	0.500	X:	0.099	Y:	0.096	Z:	0.399	yaw:	33.066	yaw rate:	-2.500	Roll:	4.509	Pitch:	0.954	Yaw:	47.731	Thrust:	43.241
Time:	5.313	Roll Set Point:	-0.235	Pitch Set Point:	-0.122	Yaw Set Point:	-0.577	X_WP:	0.000	Y_WP:	0.000	Y_WP:	0.500	X:	0.099	Y:	0.096	Z:	0.399	yaw:	33.087	yaw rate:	3.181	Roll:	4.537	Pitch:	0.906	Yaw:	48.114	Thrust:	43.577
Time:	5.328	Roll Set Point:	-0.235	Pitch Set Point:	-0.122	Yaw Set Point:	-0.577	X_WP:	0.000	Y_WP:	0.000	Y_WP:	0.500	X:	0.099	Y:	0.096	Z:	0.399	yaw:	33.087	yaw rate:	3.181	Roll:	4.510	Pitch:	0.955	Yaw:	47.761	Thrust:	43.638
Time:	5.344	Roll Set Point:	-0.234	Pitch Set Point:	-0.122	Yaw Set Point:	-0.578	X_WP:	0.000	Y_WP:	0.000	Y_WP:	0.500	X:	0.099	Y:	0.096	Z:	0.398	yaw:	33.109	yaw rate:	2.069	Roll:	4.513	Pitch:	1.000	Yaw:	48.153	Thrust:	43.905
Time:	5.359	Roll Set Point:	-0.234	Pitch Set Point:	-0.121	Yaw Set Point:	-0.577	X_WP:	0.000	Y_WP:	0.000	Y_WP:	0.500	X:	0.099	Y:	0.096	Z:	0.399	yaw:	33.084	yaw rate:	-2.436	Roll:	4.492	Pitch:	0.906	Yaw:	47.353	Thrust:	43.921
Time:	5.375	Roll Set Point:	-0.234	Pitch Set Point:	-0.121	Yaw Set Point:	-0.577	X_WP:	0.000	Y_WP:	0.000	Y_WP:	0.500	X:	0.099	Y:	0.096	Z:	0.399	yaw:	33.084	yaw rate:	-2.436	Roll:	4.509	Pitch:	0.958	Yaw:	47.757	Thrust:	44.196
Time:	5.391	Roll Set Point:	-0.235	Pitch Set Point:	-0.122	Yaw Set Point:	-0.577	X_WP:	0.000	Y_WP:	0.000	Y_WP:	0.500	X:	0.099	Y:	0.096	Z:	0.399	yaw:	33.078	yaw rate:	-0.660	Roll:	4.519	Pitch:	0.979	Yaw:	47.638	Thrust:	44.334
Time:	5.406	Roll Set Point:	-0.234	Pitch Set Point:	-0.122	Yaw Set Point:	-0.577	X_WP:	0.000	Y_WP:	0.000	Y_WP:	0.500	X:	0.099	Y:	0.096	Z:	0.399	yaw:	33.087	yaw rate:	0.890	Roll:	4.506	Pitch:	0.997	Yaw:	47.906	Thrust:	44.626
Time:	5.422	Roll Set Point:	-0.234	Pitch Set Point:	-0.122	Yaw Set Point:	-0.577	X_WP:	0.000	Y_WP:	0.000	Y_WP:	0.500	X:	0.099	Y:	0.096	Z:	0.399	yaw:	33.087	yaw rate:	0.890	Roll:	4.511	Pitch:	0.963	Yaw:	47.763	Thrust:	44.855
Time:	5.436	Roll Set Point:	-0.234	Pitch Set Point:	-0.122	Yaw Set Point:	-0.577	X_WP:	0.000	Y_WP:	0.000	Y_WP:	0.500	X:	0.099	Y:	0.096	Z:	0.399	yaw:	33.088	yaw rate:	2.543	Roll:	4.455	Pitch:	0.896	Yaw:	47.673	Thrust:	41.891
Time:	5.453	Roll Set Point:	-0.234	Pitch Set Point:	-0.122	Yaw Set Point:	-0.577	X_WP:	0.000	Y_WP:	0.000	Y_WP:	0.500	X:	0.099	Y:	0.096	Z:	0.399	yaw:	33.088	yaw rate:	2.543	Roll:	4.551	Pitch:	0.978	Yaw:	47.875	Thrust:	48.003
Time:	5.469	Roll Set Point:	-0.234	Pitch Set Point:	-0.122	Yaw Set Point:	-0.577	X_WP:	0.000	Y_WP:	0.000	Y_WP:	0.500	X:	0.099	Y:	0.096	Z:	0.399	yaw:	33.050	yaw rate:	-0.032	Roll:	4.514	Pitch:	1.100	Yaw:	47.069	Thrust:	45.265
Time:	5.484	Roll Set Point:	-0.234	Pitch Set Point:	-0.122	Yaw Set Point:	-0.578	X_WP:	0.000	Y_WP:	0.000	Y_WP:	0.500	X:	0.099	Y:	0.096	Z:	0.399	yaw:	33.099	yaw rate:	4.916	Roll:	4.511	Pitch:	0.838	Yaw:	48.603	Thrust:	45.745
Time:	5.500	Roll Set Point:	-0.234	Pitch Set Point:	-0.122	Yaw Set Point:	-0.578	X_WP:	0.000	Y_WP:	0.000	Y_WP:	0.500	X:	0.099	Y:	0.096	Z:	0.399	yaw:	33.097	yaw rate:	-0.244	Roll:	4.522	Pitch:	0.944	Yaw:	47.733	Thrust:	45.723
Time:	5.516	Roll Set Point:	-0.235	Pitch Set Point:	-0.122	Yaw Set Point:	-0.577	X_WP:	0.000	Y_WP:	0.000	Y_WP:	0.500	X:	0.099	Y:	0.096	Z:	0.399	yaw:	33.075	yaw rate:	-2.127	Roll:	4.536	Pitch:	1.088	Yaw:	47.388	Thrust:	45.929
Time:	5.531	Roll Set Point:	-0.234	Pitch Set Point:	-0.122	Yaw Set Point:	-0.577	X_WP:	0.000	Y_WP:	0.000	Y_WP:	0.500	X:	0.099	Y:	0.096	Z:	0.399	yaw:	33.080	yaw rate:	0.426	Roll:	4.495	Pitch:	0.939	Yaw:	47.822	Thrust:	46.124
Time:	5.547	Roll Set Point:	-0.234	Pitch Set Point:	-0.122	Yaw Set Point:	-0.577	X_WP:	0.000	Y_WP:	0.000	Y_WP:	0.500	X:	0.099	Y:	0.096	Z:	0.399	yaw:	33.075	yaw rate:	-0.499	Roll:	4.480	Pitch:	0.926	Yaw:	47.657	Thrust:	46.138
Time:	5.563	Roll Set Point:	-0.234	Pitch Set Point:	-0.122	Yaw Set Point:	-0.577	X_WP:	0.000	Y_WP:	0.000	Y_WP:	0.500	X:	0.099	Y:	0.096	Z:	0.399	yaw:	33.054	yaw rate:	-2.109	Roll:	4.485	Pitch:	1.004	Yaw:	47.365	Thrust:	46.443
Time:	5.578	Roll Set Point:	-0.234	Pitch Set Point:	-0.122	Yaw Set Point:	-0.577	X_WP:	0.000	Y_WP:	0.000	Y_WP:	0.500	X:	0.099	Y:	0.096	Z:	0.399	yaw:	33.054	yaw rate:	-2.109	Roll:	4.507	Pitch:	0.972	Yaw:	47.711	Thrust:	46.598
Time:	5.594	Roll Set Point:	-0.235	Pitch Set Point:	-0.122	Yaw Set Point:	-0.578	X_WP:	0.000	Y_WP:	0.000	Y_WP:	0.500	X:	0.099	Y:	0.096	Z:	0.399	yaw:	33.103	yaw rate:	4.908	Roll:	4.580	Pitch:	0.958	Yaw:	48.605	Thrust:	47.100
Time:	5.609	Roll Set Point:	-0.234	Pitch Set Point:	-0.122	Yaw Set Point:	-0.577	X_WP:	0.000	Y_WP:	0.000	Y_WP:	0.500	X:	0.099	Y:	0.096	Z:	0.399	yaw:	33.087	yaw rate:	-0.456	Roll:	4.474	Pitch:	0.937	Yaw:	47.507	Thrust:	46.975
Time:	5.625	Roll Set Point:	-0.234	Pitch Set Point:	-0.122	Yaw Set Point:	-0.578	X_WP:	0.000	Y_WP:	0.000	Y_WP:	0.500	X:	0.099	Y:	0.096	Z:	0.399	yaw:	33.111	yaw rate:	2.300	Roll:	4.509	Pitch:	0.966	Yaw:	48.179	Thrust:	47.349
Time:	5.641	Roll Set Point:	-0.234	Pitch Set Point:	-0.122	Yaw Set Point:	-0.578	X_WP:	0.000	Y_WP:	0.000	Y_WP:	0.500	X:	0.099	Y:	0.096	Z:	0.399	yaw:	33.111	yaw rate:	2.300	Roll:	4.510	Pitch:	0.975	Yaw:	47.794	Thrust:	47.451
Time:	5.656	Roll Set Point:	-0.234	Pitch Set Point:	-0.122	Yaw Set Point:	-0.577	X_WP:	0.000	Y_WP:	0.000	Y_WP:	0.500	X:	0.099	Y:	0.096	Z:	0.399	yaw:	33.059	yaw rate:	-3.501	Roll:	4.515	Pitch:	1.107	Yaw:	46.857	Thrust:	47.623
Time:	5.672	Roll Set Point:	-0.234	Pitch Set Point:	-0.122	Yaw Set Point:	-0.577	X_WP:	0.000	Y_WP:	0.000	Y_WP:	0.500	X:	0.099	Y:	0.096	Z:	0.398	yaw:	33.079	yaw rate:	2.080	Roll:	4.509	Pitch:	0.906	Yaw:	48.099	Thrust:	47.921
Time:	5.688	Roll Set Point:	-0.234	Pitch Set Point:	-0.121	Yaw Set Point:	-0.577	X_WP:	0.000	Y_WP:	0.000	Y_WP:	0.500	X:	0.099	Y:	0.096	Z:	0.399	yaw:	33.084	yaw rate:	0.416	Roll:	4.486	Pitch:	0.921	Yaw:	47.825	Thrust:	47.863
Time:	5.703	Roll Set Point:	-0.234	Pitch Set Point:	-0.121	Yaw Set Point:	-0.577	X_WP:	0.000	Y_WP:	0.000	Y_WP:	0.500	X:	0.099	Y:	0.096	Z:	0.399	yaw:	33.084	yaw rate:	0.416	Roll:	4.508	Pitch:	0.979	Yaw:	47.753	Thrust:	48.121
Time:	5.719	Roll Set Point:	-0.234	Pitch Set Point:	-0.122	Yaw Set Point:	-0.577	X_WP:	0.000	Y_WP:	0.000	Y_WP:	0.500	X:	0.099	Y:	0.096	Z:	0.399	yaw:	33.049	yaw rate:	-0.767	Roll:	4.534	Pitch:	1.117	Yaw:	47.128	Thrust:	48.455
Time:	5.734	Roll Set Point:	-0.234	Pitch Set Point:	-0.122	Yaw Set Point:	-0.577	X_WP:	0.000	Y_WP:	0.000	Y_WP:	0.500	X:	0.099	Y:	0.096	Z:	0.398	yaw:	33.078	yaw rate:	2.915	Roll:	4.485	Pitch:	0.926	Yaw:	48.234	Thrust:	48.664
Time:	5.750	Roll Set Point:	-0.234	Pitch Set Point:	-0.122	Yaw Set Point:	-0.577	X_WP:	0.000	Y_WP:	0.000	Y_WP:	0.500	X:	0.099	Y:	0.096	Z:	0.399	yaw:	33.063	yaw rate:	-1.512	Roll:	4.507	Pitch:	0.956	Yaw:	47.474	Thrust:	48.599
Time:	5.766	Roll Set Point:	-0.235	Pitch Set Point:	-0.122	Yaw Set Point:	-0.577	X_WP:	0.000	Y_WP:	0.000	Y_WP:	0.500	X:	0.099	Y:	0.096	Z:	0.399	yaw:	33.039	yaw rate:	-2.426	Roll:	4.528	Pitch:	1.048	Yaw:	47.287	Thrust:	48.893
Time:	5.781	Roll Set Point:	-0.234	Pitch Set Point:	-0.122	Yaw Set Point:	-0.577	X_WP:	0.000	Y_WP:	0.000	Y_WP:	0.500	X:	0.099	Y:	0.096	Z:	0.399	yaw:	33.081	yaw rate:	4.232	Roll:	4.531	Pitch:	0.978	Yaw:	48.461	Thrust:	49.297
Time:	5.797	Roll Set Point:	-0.234	Pitch Set Point:	-0.122	Yaw Set Point:	-0.577	X_WP:	0.000	Y_WP:	0.000	Y_WP:	0.500	X:	0.099	Y:	0.096	Z:	0.399	yaw:	33.081	yaw rate:	4.232	Roll:	4.510	Pitch:	0.988	Yaw:	47.752	Thrust:	49.342
Time:	5.813	Roll Set Point:	-0.234	Pitch Set Point:	-0.122	Yaw Set Point:	-0.577	X_WP:	0.000	Y_WP:	0.000	Y_WP:	0.500	X:	0.099	Y:	0.096	Z:	0.399	yaw:	33.071	yaw rate:	-2.229	Roll:	4.485	Pitch:	0.952	Yaw:	47.572	Thrust:	49.609
Time:	5.828	Roll Set Point:	-0.234	Pitch Set Point:	-0.122	Yaw Set Point:	-0.578	X_WP:	0.000	Y_WP:	0.000	Y_WP:	0.500	X:	0.099	Y:	0.096	Z:	0.399	yaw:	33.092	yaw rate:	2.102	Roll:	4.538	Pitch:	0.997	Yaw:	48.120	Thrust:	49.641
Time:	5.844	Roll Set Point:	-0.234	Pitch Set Point:	-0.122	Yaw Set Point:	-0.577	X_WP:	0.000	Y_WP:	0.000	Y_WP:	0.500	X:	0.099	Y:	0.096	Z:	0.399	yaw:	33.067	yaw rate:	-2.463	Roll:	4.509	Pitch:	1.045	Yaw:	47.321	Thrust:	49.888
Time:	5.859	Roll Set Point:	-0.234	Pitch Set Point:	-0.122	Yaw Set Point:	-0.577	X_WP:	0.000	Y_WP:	0.000	Y_WP:	0.500	X:	0.099	Y:	0.096	Z:	0.399	yaw:	33.069	yaw rate:	0.141	Roll:	4.494	Pitch:	0.948	Yaw:	47.759	Thrust:	50.122
Time:	5.875	Roll Set Point:	-0.234	Pitch Set Point:	-0.122	Yaw Set Point:	-0.577	X_WP:	0.000	Y_WP:	0.000	Y_WP:	0.500	X:	0.099	Y:	0.096	Z:	0.399	yaw:	33.069	yaw rate:	0.141	Roll:	4.510	Pitch:	0.993	Yaw:	47.735	Thrust:	50.290
Time:	5.891	Roll Set Point:	-0.235	Pitch Set Point:	-0.122	Yaw Set Point:	-0.578	X_WP:	0.000	Y_WP:	0.000	Y_WP:	0.500	X:	0.099	Y:	0.096	Z:	0.399	yaw:	33.096	yaw rate:	1.708	Roll:	4.536	Pitch:	0.901	Yaw:	48.225	Thrust:	50.450
Time:	5.906	Roll Set Point:	-0.234	Pitch Set Point:	-0.122	Yaw Set Point:	-0.577	X_WP:	0.000	Y_WP:	0.000	Y_WP:	0.500	X:	0.099	Y:	0.096	Z:	0.399	yaw:	33.069	yaw rate:	-2.632	Roll:	4.502	Pitch:	1.131	Yaw:	47.295	Thrust:	50.755
Time:	5.922	Roll Set Point:	-0.234	Pitch Set Point:	-0.122	Yaw Set Point:	-0.578	X_WP:	0.000	Y_WP:	0.000	Y_WP:	0.500	X:	0.099	Y:	0.096	Z:	0.399	yaw:	33.093	yaw rate:	2.346	Roll:	4.506	Pitch:	0.914	Yaw:	48.162	Thrust:	50.845
Time:	5.938	Roll Set Point:	-0.234	Pitch Set Point:	-0.122	Yaw Set Point:	-0.577	X_WP:	0.000	Y_WP:	0.000	Y_WP:	0.500	X:	0.099	Y:	0.096	Z:	0.398	yaw:	33.087	yaw rate:	-0.622	Roll:	4.497	Pitch:	0.978	Yaw:	47.656	Thrust:	51.143
Time:	5.953	Roll Set Point:	-0.234	Pitch Set Point:	-0.122	Yaw Set Point:	-0.577	X_WP:	0.000	Y_WP:	0.000	Y_WP:	0.500	X:	0.099	Y:	0.096	Z:	0.398	yaw:	33.087	yaw rate:	-0.622	Roll:	4.510	Pitch:	0.996	Yaw:	47.760	Thrust:	51.249
Time:	5.969	Roll Set Point:	-0.234	Pitch Set Point:	-0.122	Yaw Set Point:	-0.578	X_WP:	0.000	Y_WP:	0.000	Y_WP:	0.500	X:	0.099	Y:	0.096	Z:	0.399	yaw:	33.090	yaw rate:	0.375	Roll:	4.505	Pitch:	1.016	Yaw:	47.831	Thrust:	51.435
Time:	5.984	Roll Set Point:	-0.235	Pitch Set Point:	-0.122	Yaw Set Point:	-0.577	X_WP:	0.000	Y_WP:	0.000	Y_WP:	0.500	X:	0.099	Y:	0.096	Z:	0.399	yaw:	33.070	yaw rate:	-2.060	Roll:	4.516	Pitch:	1.007	Yaw:	47.388	Thrust:	51.455
Time:	6.000	Roll Set Point:	-0.081	Pitch Set Point:	-0.036	Yaw Set Point:	-0.577	X_WP:	0.082	Y_WP:	0.155	Y_WP:	0.500	X:	0.099	Y:	0.096	Z:	0.399	yaw:	33.070	yaw rate:	-2.060	Roll:	-30.000	Pitch:	-30.000	Yaw:	47.740	Thrust:	51.908
Time:	6.016	Roll Set Point:	-0.081	Pitch Set Point:	-0.036	Yaw Set Point:	-0.577	X_WP:	0.082	Y_WP:	0.155	Y_WP:	0.500	X:	0.099	Y:	0.096	Z:	0.399	yaw:	33.057	yaw rate:	-9.897	Roll:	0.085	Pitch:	-1.491	Yaw:	47.505	Thrust:	51.974
Time:	6.031	Roll Set Point:	-0.081	Pitch Set Point:	-0.036	Yaw Set Point:	-0.577	X_WP:	0.082	Y_WP:	0.155	Y_WP:	0.500	X:	0.099	Y:	0.096	Z:	0.399	yaw:	33.057	yaw rate:	-9.897	Roll:	0.061	Pitch:	-1.490	Yaw:	47.719	Thrust:	52.196
Time:	6.047	Roll Set Point:	-0.081	Pitch Set Point:	-0.036	Yaw Set Point:	-0.577	X_WP:	0.082	Y_WP:	0.155	Y_WP:	0.500	X:	0.099	Y:	0.096	Z:	0.399	yaw:	33.037	yaw rate:	-4.801	Roll:	0.054	Pitch:	-1.489	Yaw:	47.345	Thrust:	52.213
Time:	6.063	Roll Set Point:	-0.081	Pitch Set Point:	-0.036	Yaw Set Point:	-0.579	X_WP:	0.082	Y_WP:	0.155	Y_WP:	0.500	X:	0.099	Y:	0.096	Z:	0.399	yaw:	33.171	yaw rate:	13.473	Roll:	-0.046	Pitch:	-1.462	Yaw:	50.134	Thrust:	52.640
Time:	6.078	Roll Set Point:	-0.081	Pitch Set Point:	-0.036	Yaw Set Point:	-0.577	X_WP:	0.082	Y_WP:	0.155	Y_WP:	0.500	X:	0.099	Y:	0.096	Z:	0.399	yaw:	33.048	yaw rate:	-12.379	Roll:	0.172	Pitch:	-1.535	Yaw:	45.625	Thrust:	52.751
Time:	6.094	Roll Set Point:	-0.081	Pitch Set Point:	-0.036	Yaw Set Point:	-0.577	X_WP:	0.082	Y_WP:	0.155	Y_WP:	0.500	X:	0.099	Y:	0.096	Z:	0.399	yaw:	33.048	yaw rate:	-12.379	Roll:	0.060	Pitch:	-1.499	Yaw:	47.709	Thrust:	53.045
Time:	6.109	Roll Set Point:	-0.081	Pitch Set Point:	-0.036	Yaw Set Point:	-0.577	X_WP:	0.082	Y_WP:	0.155	Y_WP:	0.500	X:	0.099	Y:	0.096	Z:	0.399	yaw:	33.074	yaw rate:	2.643	Roll:	0.034	Pitch:	-1.498	Yaw:	48.183	Thrust:	53.207
Time:	6.125	Roll Set Point:	-0.081	Pitch Set Point:	-0.036	Yaw Set Point:	-0.578	X_WP:	0.082	Y_WP:	0.155	Y_WP:	0.500	X:	0.099	Y:	0.096	Z:	0.399	yaw:	33.133	yaw rate:	5.879	Roll:	-0.009	Pitch:	-1.485	Yaw:	48.810	Thrust:	53.384
Time:	6.141	Roll Set Point:	-0.081	Pitch Set Point:	-0.036	Yaw Set Point:	-0.578	X_WP:	0.082	Y_WP:	0.155	Y_WP:	0.500	X:	0.099	Y:	0.096	Z:	0.399	yaw:	33.133	yaw rate:	5.879	Roll:	0.055	Pitch:	-1.506	Yaw:	47.825	Thrust:	53.536
Time:	6.156	Roll Set Point:	-0.081	Pitch Set Point:	-0.036	Yaw Set Point:	-0.577	X_WP:	0.082	Y_WP:	0.155	Y_WP:	0.500	X:	0.099	Y:	0.096	Z:	0.399	yaw:	33.070	yaw rate:	-3.079	Roll:	0.118	Pitch:	-1.522	Yaw:	46.691	Thrust:	53.645
Time:	6.172	Roll Set Point:	-0.081	Pitch Set Point:	-0.036	Yaw Set Point:	-0.577	X_WP:	0.082	Y_WP:	0.155	Y_WP:	0.500	X:	0.099	Y:	0.096	Z:	0.399	yaw:	33.070	yaw rate:	-3.079	Roll:	0.053	Pitch:	-1.511	Yaw:	47.734	Thrust:	53.810
Time:	6.188	Roll Set Point:	-0.081	Pitch Set Point:	-0.036	Yaw Set Point:	-0.577	X_WP:	0.082	Y_WP:	0.155	Y_WP:	0.500	X:	0.099	Y:	0.096	Z:	0.399	yaw:	33.064	yaw rate:	0.711	Roll:	0.057	Pitch:	-1.516	Yaw:	47.637	Thrust:	54.176
Time:	6.203	Roll Set Point:	-0.081	Pitch Set Point:	-0.036	Yaw Set Point:	-0.577	X_WP:	0.082	Y_WP:	0.155	Y_WP:	0.500	X:	0.099	Y:	0.096	Z:	0.399	yaw:	33.064	yaw rate:	0.711	Roll:	0.053	Pitch:	-1.515	Yaw:	47.729	Thrust:	54.291
Time:	6.219	Roll Set Point:	-0.081	Pitch Set Point:	-0.036	Yaw Set Point:	-0.577	X_WP:	0.082	Y_WP:	0.155	Y_WP:	0.500	X:	0.099	Y:	0.096	Z:	0.399	yaw:	33.062	yaw rate:	0.929	Roll:	0.065	Pitch:	-1.521	Yaw:	47.685	Thrust:	54.552
Time:	6.235	Roll Set Point:	-0.081	Pitch Set Point:	-0.036	Yaw Set Point:	-0.579	X_WP:	0.082	Y_WP:	0.155	Y_WP:	0.500	X:	0.099	Y:	0.096	Z:	0.399	yaw:	33.156	yaw rate:	9.378	Roll:	-0.027	Pitch:	-1.491	Yaw:	49.428	Thrust:	54.610
Time:	6.250	Roll Set Point:	-0.081	Pitch Set Point:	-0.036	Yaw Set Point:	-0.579	X_WP:	0.082	Y_WP:	0.155	Y_WP:	0.500	X:	0.099	Y:	0.096	Z:	0.399	yaw:	33.170	yaw rate:	1.468	Roll:	0.031	Pitch:	-1.524	Yaw:	48.122	Thrust:	54.760
Time:	6.266	Roll Set Point:	-0.081	Pitch Set Point:	-0.036	Yaw Set Point:	-0.577	X_WP:	0.082	Y_WP:	0.156	Y_WP:	0.500	X:	0.099	Y:	0.096	Z:	0.399	yaw:	33.088	yaw rate:	-8.228	Roll:	0.133	Pitch:	-1.544	Yaw:	46.378	Thrust:	55.126
Time:	6.281	Roll Set Point:	-0.081	Pitch Set Point:	-0.036	Yaw Set Point:	-0.578	X_WP:	0.082	Y_WP:	0.156	Y_WP:	0.500	X:	0.099	Y:	0.096	Z:	0.399	yaw:	33.105	yaw rate:	1.697	Roll:	0.061	Pitch:	-1.531	Yaw:	48.070	Thrust:	55.272
Time:	6.297	Roll Set Point:	-0.081	Pitch Set Point:	-0.036	Yaw Set Point:	-0.578	X_WP:	0.082	Y_WP:	0.155	Y_WP:	0.500	X:	0.099	Y:	0.096	Z:	0.399	yaw:	33.120	yaw rate:	1.525	Roll:	-0.002	Pitch:	-1.509	Yaw:	48.065	Thrust:	55.075
Time:	6.313	Roll Set Point:	-0.081	Pitch Set Point:	-0.036	Yaw Set Point:	-0.578	X_WP:	0.082	Y_WP:	0.155	Y_WP:	0.500	X:	0.099	Y:	0.096	Z:	0.399	yaw:	33.120	yaw rate:	1.525	Roll:	0.047	Pitch:	-1.531	Yaw:	47.808	Thrust:	55.637
Time:	6.328	Roll Set Point:	-0.081	Pitch Set Point:	-0.036	Yaw Set Point:	-0.579	X_WP:	0.082	Y_WP:	0.155	Y_WP:	0.500	X:	0.099	Y:	0.096	Z:	0.399	yaw:	33.162	yaw rate:	4.171	Roll:	0.018	Pitch:	-1.531	Yaw:	48.564	Thrust:	56.008
Time:	6.344	Roll Set Point:	-0.081	Pitch Set Point:	-0.036	Yaw Set Point:	-0.577	X_WP:	0.082	Y_WP:	0.155	Y_WP:	0.500	X:	0.099	Y:	0.096	Z:	0.399	yaw:	33.083	yaw rate:	-7.875	Roll:	0.104	Pitch:	-1.551	Yaw:	46.436	Thrust:	56.103
Time:	6.360	Roll Set Point:	-0.081	Pitch Set Point:	-0.036	Yaw Set Point:	-0.578	X_WP:	0.082	Y_WP:	0.155	Y_WP:	0.500	X:	0.099	Y:	0.096	Z:	0.399	yaw:	33.132	yaw rate:	0.119	Roll:	0.014	Pitch:	-1.532	Yaw:	48.648	Thrust:	55.895
