Time:	2.136	Roll Set Point:	-0.262	Pitch Set Point:	-0.164	Yaw Set Point:	-0.063	X_WP:	0.000	Y_WP:	0.000	Y_WP:	0.500	X:	0.128	Y:	0.086	Z:	0.401	yaw:	3.606	yaw rate:	-5.824	Roll:	3.871	Pitch:	2.257	Yaw:	5.036	Thrust:	5.451
Time:	2.152	Roll Set Point:	-0.262	Pitch Set Point:	-0.164	Yaw Set Point:	-0.064	X_WP:	0.000	Y_WP:	0.000	Y_WP:	0.500	X:	0.128	Y:	0.086	Z:	0.401	yaw:	3.648	yaw rate:	4.181	Roll:	4.011	Pitch:	2.062	Yaw:	5.815	Thrust:	5.493
Time:	2.167	Roll Set Point:	-0.262	Pitch Set Point:	-0.164	Yaw Set Point:	-0.063	X_WP:	0.000	Y_WP:	0.000	Y_WP:	0.500	X:	0.128	Y:	0.086	Z:	0.401	yaw:	3.588	yaw rate:	-0.675	Roll:	3.776	Pitch:	2.482	Yaw:	4.045	Thrust:	5.805
Time:	2.183	Roll Set Point:	-0.262	Pitch Set Point:	-0.164	Yaw Set Point:	-0.064	X_WP:	0.000	Y_WP:	0.000	Y_WP:	0.500	X:	0.128	Y:	0.086	Z:	0.401	yaw:	3.680	yaw rate:	9.196	Roll:	4.021	Pitch:	2.012	Yaw:	6.738	Thrust:	6.209
Time:	2.199	Roll Set Point:	-0.262	Pitch Set Point:	-0.164	Yaw Set Point:	-0.064	X_WP:	0.000	Y_WP:	0.000	Y_WP:	0.500	X:	0.128	Y:	0.086	Z:	0.401	yaw:	3.641	yaw rate:	-3.961	Roll:	3.827	Pitch:	2.369	Yaw:	4.499	Thrust:	6.145
Time:	2.214	Roll Set Point:	-0.262	Pitch Set Point:	-0.164	Yaw Set Point:	-0.063	X_WP:	0.000	Y_WP:	0.000	Y_WP:	0.500	X:	0.128	Y:	0.086	Z:	0.401	yaw:	3.624	yaw rate:	-1.623	Roll:	3.886	Pitch:	2.337	Yaw:	4.888	Thrust:	6.352
Time:	2.230	Roll Set Point:	-0.262	Pitch Set Point:	-0.164	Yaw Set Point:	-0.063	X_WP:	0.000	Y_WP:	0.000	Y_WP:	0.500	X:	0.128	Y:	0.086	Z:	0.401	yaw:	3.619	yaw rate:	-0.510	Roll:	3.894	Pitch:	2.255	Yaw:	5.087	Thrust:	6.521
Time:	2.246	Roll Set Point:	-0.262	Pitch Set Point:	-0.164	Yaw Set Point:	-0.063	X_WP:	0.000	Y_WP:	0.000	Y_WP:	0.500	X:	0.128	Y:	0.086	Z:	0.401	yaw:	3.636	yaw rate:	1.722	Roll:	3.935	Pitch:	2.266	Yaw:	5.505	Thrust:	6.845
Time:	2.261	Roll Set Point:	-0.262	Pitch Set Point:	-0.164	Yaw Set Point:	-0.062	X_WP:	0.000	Y_WP:	0.000	Y_WP:	0.500	X:	0.128	Y:	0.086	Z:	0.401	yaw:	3.548	yaw rate:	-8.882	Roll:	3.775	Pitch:	2.506	Yaw:	3.627	Thrust:	6.836
Time:	2.277	Roll Set Point:	-0.262	Pitch Set Point:	-0.164	Yaw Set Point:	-0.063	X_WP:	0.000	Y_WP:	0.000	Y_WP:	0.500	X:	0.128	Y:	0.086	Z:	0.401	yaw:	3.590	yaw rate:	4.254	Roll:	4.024	Pitch:	2.129	Yaw:	5.904	Thrust:	7.091
Time:	2.293	Roll Set Point:	-0.262	Pitch Set Point:	-0.164	Yaw Set Point:	-0.063	X_WP:	0.000	Y_WP:	0.000	Y_WP:	0.500	X:	0.128	Y:	0.086	Z:	0.401	yaw:	3.613	yaw rate:	2.244	Roll:	3.924	Pitch:	2.287	Yaw:	5.617	Thrust:	7.430
Time:	2.308	Roll Set Point:	-0.262	Pitch Set Point:	-0.164	Yaw Set Point:	-0.063	X_WP:	0.000	Y_WP:	0.000	Y_WP:	0.500	X:	0.128	Y:	0.086	Z:	0.401	yaw:	3.627	yaw rate:	1.430	Roll:	3.995	Pitch:	2.221	Yaw:	5.521	Thrust:	7.327
Time:	2.324	Roll Set Point:	-0.262	Pitch Set Point:	-0.164	Yaw Set Point:	-0.063	X_WP:	0.000	Y_WP:	0.000	Y_WP:	0.500	X:	0.128	Y:	0.086	Z:	0.401	yaw:	3.627	yaw rate:	1.430	Roll:	3.937	Pitch:	2.291	Yaw:	5.301	Thrust:	7.678
Time:	2.339	Roll Set Point:	-0.262	Pitch Set Point:	-0.164	Yaw Set Point:	-0.063	X_WP:	0.000	Y_WP:	0.000	Y_WP:	0.500	X:	0.128	Y:	0.086	Z:	0.401	yaw:	3.622	yaw rate:	-0.498	Roll:	3.885	Pitch:	2.313	Yaw:	5.230	Thrust:	8.050
Time:	2.355	Roll Set Point:	-0.262	Pitch Set Point:	-0.164	Yaw Set Point:	-0.063	X_WP:	0.000	Y_WP:	0.000	Y_WP:	0.500	X:	0.128	Y:	0.086	Z:	0.401	yaw:	3.611	yaw rate:	-1.093	Roll:	3.937	Pitch:	2.285	Yaw:	5.136	Thrust:	7.921
Time:	2.371	Roll Set Point:	-0.262	Pitch Set Point:	-0.164	Yaw Set Point:	-0.063	X_WP:	0.000	Y_WP:	0.000	Y_WP:	0.500	X:	0.128	Y:	0.086	Z:	0.401	yaw:	3.625	yaw rate:	1.358	Roll:	3.977	Pitch:	2.329	Yaw:	5.584	Thrust:	8.290
Time:	2.386	Roll Set Point:	-0.262	Pitch Set Point:	-0.164	Yaw Set Point:	-0.063	X_WP:	0.000	Y_WP:	0.000	Y_WP:	0.500	X:	0.128	Y:	0.086	Z:	0.401	yaw:	3.625	yaw rate:	1.358	Roll:	3.957	Pitch:	2.304	Yaw:	5.377	Thrust:	8.429
Time:	2.402	Roll Set Point:	-0.262	Pitch Set Point:	-0.164	Yaw Set Point:	-0.063	X_WP:	0.000	Y_WP:	0.000	Y_WP:	0.500	X:	0.128	Y:	0.086	Z:	0.401	yaw:	3.618	yaw rate:	3.311	Roll:	3.916	Pitch:	2.320	Yaw:	5.276	Thrust:	8.630
Time:	2.418	Roll Set Point:	-0.262	Pitch Set Point:	-0.164	Yaw Set Point:	-0.064	X_WP:	0.000	Y_WP:	0.000	Y_WP:	0.500	X:	0.128	Y:	0.086	Z:	0.401	yaw:	3.661	yaw rate:	4.338	Roll:	4.089	Pitch:	2.102	Yaw:	6.195	Thrust:	8.775
Time:	2.433	Roll Set Point:	-0.262	Pitch Set Point:	-0.164	Yaw Set Point:	-0.063	X_WP:	0.000	Y_WP:	0.000	Y_WP:	0.500	X:	0.128	Y:	0.086	Z:	0.401	yaw:	3.598	yaw rate:	-6.296	Roll:	3.813	Pitch:	2.563	Yaw:	4.345	Thrust:	8.859
Time:	2.449	Roll Set Point:	-0.262	Pitch Set Point:	-0.164	Yaw Set Point:	-0.063	X_WP:	0.000	Y_WP:	0.000	Y_WP:	0.500	X:	0.128	Y:	0.086	Z:	0.401	yaw:	3.631	yaw rate:	3.252	Roll:	4.099	Pitch:	2.192	Yaw:	6.009	Thrust:	9.264
Time:	2.464	Roll Set Point:	-0.262	Pitch Set Point:	-0.164	Yaw Set Point:	-0.063	X_WP:	0.000	Y_WP:	0.000	Y_WP:	0.500	X:	0.128	Y:	0.086	Z:	0.401	yaw:	3.617	yaw rate:	-1.380	Roll:	3.921	Pitch:	2.338	Yaw:	5.235	Thrust:	9.386
Time:	2.480	Roll Set Point:	-0.262	Pitch Set Point:	-0.164	Yaw Set Point:	-0.063	X_WP:	0.000	Y_WP:	0.000	Y_WP:	0.500	X:	0.128	Y:	0.086	Z:	0.401	yaw:	3.615	yaw rate:	-0.166	Roll:	3.955	Pitch:	2.375	Yaw:	5.455	Thrust:	9.436
Time:	2.496	Roll Set Point:	-0.262	Pitch Set Point:	-0.164	Yaw Set Point:	-0.064	X_WP:	0.000	Y_WP:	0.000	Y_WP:	0.500	X:	0.128	Y:	0.086	Z:	0.401	yaw:	3.651	yaw rate:	3.559	Roll:	4.106	Pitch:	2.258	Yaw:	6.148	Thrust:	9.890
Time:	2.511	Roll Set Point:	-0.262	Pitch Set Point:	-0.164	Yaw Set Point:	-0.064	X_WP:	0.000	Y_WP:	0.000	Y_WP:	0.500	X:	0.128	Y:	0.086	Z:	0.401	yaw:	3.651	yaw rate:	3.559	Roll:	4.000	Pitch:	2.327	Yaw:	5.573	Thrust:	9.921
Time:	2.527	Roll Set Point:	-0.262	Pitch Set Point:	-0.164	Yaw Set Point:	-0.063	X_WP:	0.000	Y_WP:	0.000	Y_WP:	0.500	X:	0.128	Y:	0.086	Z:	0.401	yaw:	3.629	yaw rate:	1.006	Roll:	3.981	Pitch:	2.308	Yaw:	5.188	Thrust:	10.061
Time:	2.543	Roll Set Point:	-0.262	Pitch Set Point:	-0.164	Yaw Set Point:	-0.064	X_WP:	0.000	Y_WP:	0.000	Y_WP:	0.500	X:	0.128	Y:	0.086	Z:	0.401	yaw:	3.641	yaw rate:	1.222	Roll:	4.003	Pitch:	2.274	Yaw:	5.803	Thrust:	10.242
Time:	2.574	Roll Set Point:	-0.262	Pitch Set Point:	-0.164	Yaw Set Point:	-0.063	X_WP:	0.000	Y_WP:	0.000	Y_WP:	0.500	X:	0.128	Y:	0.086	Z:	0.401	yaw:	3.608	yaw rate:	-3.339	Roll:	4.120	Pitch:	2.510	Yaw:	5.813	Thrust:	15.312
Time:	2.589	Roll Set Point:	-0.262	Pitch Set Point:	-0.164	Yaw Set Point:	-0.064	X_WP:	0.000	Y_WP:	0.000	Y_WP:	0.500	X:	0.128	Y:	0.086	Z:	0.401	yaw:	3.662	yaw rate:	6.540	Roll:	4.149	Pitch:	2.112	Yaw:	6.581	Thrust:	10.836
Time:	2.605	Roll Set Point:	-0.262	Pitch Set Point:	-0.164	Yaw Set Point:	-0.063	X_WP:	0.000	Y_WP:	0.000	Y_WP:	0.500	X:	0.128	Y:	0.086	Z:	0.401	yaw:	3.615	yaw rate:	-4.723	Roll:	3.910	Pitch:	2.500	Yaw:	4.830	Thrust:	10.666
Time:	2.620	Roll Set Point:	-0.262	Pitch Set Point:	-0.164	Yaw Set Point:	-0.063	X_WP:	0.000	Y_WP:	0.000	Y_WP:	0.500	X:	0.128	Y:	0.086	Z:	0.401	yaw:	3.612	yaw rate:	-0.255	Roll:	4.024	Pitch:	2.393	Yaw:	5.594	Thrust:	11.070
Time:	2.636	Roll Set Point:	-0.262	Pitch Set Point:	-0.164	Yaw Set Point:	-0.063	X_WP:	0.000	Y_WP:	0.000	Y_WP:	0.500	X:	0.128	Y:	0.086	Z:	0.401	yaw:	3.612	yaw rate:	-0.255	Roll:	4.034	Pitch:	2.350	Yaw:	5.657	Thrust:	11.209
Time:	2.652	Roll Set Point:	-0.262	Pitch Set Point:	-0.164	Yaw Set Point:	-0.063	X_WP:	0.000	Y_WP:	0.000	Y_WP:	0.500	X:	0.128	Y:	0.086	Z:	0.401	yaw:	3.601	yaw rate:	-1.177	Roll:	4.005	Pitch:	2.428	Yaw:	5.463	Thrust:	11.321
Time:	2.667	Roll Set Point:	-0.262	Pitch Set Point:	-0.164	Yaw Set Point:	-0.064	X_WP:	0.000	Y_WP:	0.000	Y_WP:	0.500	X:	0.128	Y:	0.086	Z:	0.401	yaw:	3.665	yaw rate:	0.319	Roll:	4.168	Pitch:	2.086	Yaw:	6.848	Thrust:	11.757
Time:	2.683	Roll Set Point:	-0.262	Pitch Set Point:	-0.164	Yaw Set Point:	-0.064	X_WP:	0.000	Y_WP:	0.000	Y_WP:	0.500	X:	0.128	Y:	0.086	Z:	0.401	yaw:	3.657	yaw rate:	-0.842	Roll:	4.046	Pitch:	2.435	Yaw:	5.638	Thrust:	11.732
Time:	2.699	Roll Set Point:	-0.262	Pitch Set Point:	-0.164	Yaw Set Point:	-0.064	X_WP:	0.000	Y_WP:	0.000	Y_WP:	0.500	X:	0.128	Y:	0.086	Z:	0.401	yaw:	3.657	yaw rate:	-0.842	Roll:	4.057	Pitch:	2.359	Yaw:	5.797	Thrust:	11.949
Time:	2.714	Roll Set Point:	-0.262	Pitch Set Point:	-0.164	Yaw Set Point:	-0.063	X_WP:	0.000	Y_WP:	0.000	Y_WP:	0.500	X:	0.128	Y:	0.086	Z:	0.401	yaw:	3.591	yaw rate:	-6.547	Roll:	3.926	Pitch:	2.584	Yaw:	4.628	Thrust:	12.049
Time:	2.730	Roll Set Point:	-0.262	Pitch Set Point:	-0.164	Yaw Set Point:	-0.064	X_WP:	0.000	Y_WP:	0.000	Y_WP:	0.500	X:	0.128	Y:	0.086	Z:	0.401	yaw:	3.680	yaw rate:	5.410	Roll:	4.264	Pitch:	1.996	Yaw:	7.366	Thrust:	12.476
Time:	2.745	Roll Set Point:	-0.262	Pitch Set Point:	-0.164	Yaw Set Point:	-0.063	X_WP:	0.000	Y_WP:	0.000	Y_WP:	0.500	X:	0.128	Y:	0.086	Z:	0.401	yaw:	3.594	yaw rate:	-8.693	Roll:	3.866	Pitch:	2.721	Yaw:	4.313	Thrust:	12.368
Time:	2.761	Roll Set Point:	-0.262	Pitch Set Point:	-0.164	Yaw Set Point:	-0.063	X_WP:	0.000	Y_WP:	0.000	Y_WP:	0.500	X:	0.128	Y:	0.086	Z:	0.401	yaw:	3.600	yaw rate:	0.682	Roll:	4.110	Pitch:	2.351	Yaw:	5.913	Thrust:	12.663
Time:	2.777	Roll Set Point:	-0.262	Pitch Set Point:	-0.164	Yaw Set Point:	-0.063	X_WP:	0.000	Y_WP:	0.000	Y_WP:	0.500	X:	0.128	Y:	0.086	Z:	0.401	yaw:	3.632	yaw rate:	3.126	Roll:	4.183	Pitch:	2.243	Yaw:	6.386	Thrust:	12.995
Time:	2.792	Roll Set Point:	-0.262	Pitch Set Point:	-0.164	Yaw Set Point:	-0.064	X_WP:	0.000	Y_WP:	0.000	Y_WP:	0.500	X:	0.128	Y:	0.086	Z:	0.401	yaw:	3.691	yaw rate:	5.932	Roll:	4.124	Pitch:	2.193	Yaw:	6.958	Thrust:	13.221
Time:	2.808	Roll Set Point:	-0.262	Pitch Set Point:	-0.164	Yaw Set Point:	-0.063	X_WP:	0.000	Y_WP:	0.000	Y_WP:	0.500	X:	0.128	Y:	0.086	Z:	0.401	yaw:	3.603	yaw rate:	-8.841	Roll:	3.996	Pitch:	2.640	Yaw:	4.375	Thrust:	13.005
Time:	2.824	Roll Set Point:	-0.262	Pitch Set Point:	-0.164	Yaw Set Point:	-0.063	X_WP:	0.000	Y_WP:	0.000	Y_WP:	0.500	X:	0.128	Y:	0.086	Z:	0.401	yaw:	3.603	yaw rate:	0.021	Roll:	4.057	Pitch:	2.458	Yaw:	5.884	Thrust:	13.446
Time:	2.839	Roll Set Point:	-0.262	Pitch Set Point:	-0.164	Yaw Set Point:	-0.063	X_WP:	0.000	Y_WP:	0.000	Y_WP:	0.500	X:	0.128	Y:	0.086	Z:	0.401	yaw:	3.622	yaw rate:	1.973	Roll:	4.147	Pitch:	2.248	Yaw:	6.259	Thrust:	13.719
Time:	2.855	Roll Set Point:	-0.262	Pitch Set Point:	-0.164	Yaw Set Point:	-0.064	X_WP:	0.000	Y_WP:	0.000	Y_WP:	0.500	X:	0.128	Y:	0.086	Z:	0.401	yaw:	3.666	yaw rate:	4.406	Roll:	4.205	Pitch:	2.210	Yaw:	6.748	Thrust:	13.874
Time:	2.870	Roll Set Point:	-0.262	Pitch Set Point:	-0.164	Yaw Set Point:	-0.063	X_WP:	0.000	Y_WP:	0.000	Y_WP:	0.500	X:	0.128	Y:	0.086	Z:	0.401	yaw:	3.606	yaw rate:	-6.016	Roll:	3.990	Pitch:	2.693	Yaw:	4.936	Thrust:	13.827
Time:	2.886	Roll Set Point:	-0.262	Pitch Set Point:	-0.164	Yaw Set Point:	-0.062	X_WP:	0.000	Y_WP:	0.000	Y_WP:	0.500	X:	0.128	Y:	0.086	Z:	0.401	yaw:	3.581	yaw rate:	-2.575	Roll:	4.038	Pitch:	2.465	Yaw:	5.498	Thrust:	14.055
Time:	2.902	Roll Set Point:	-0.262	Pitch Set Point:	-0.164	Yaw Set Point:	-0.063	X_WP:	0.000	Y_WP:	0.000	Y_WP:	0.500	X:	0.128	Y:	0.086	Z:	0.401	yaw:	3.631	yaw rate:	5.039	Roll:	4.238	Pitch:	2.230	Yaw:	6.863	Thrust:	14.616
Time:	2.917	Roll Set Point:	-0.262	Pitch Set Point:	-0.164	Yaw Set Point:	-0.064	X_WP:	0.000	Y_WP:	0.000	Y_WP:	0.500	X:	0.128	Y:	0.086	Z:	0.401	yaw:	3.642	yaw rate:	1.122	Roll:	4.163	Pitch:	2.337	Yaw:	6.242	Thrust:	14.617
Time:	2.933	Roll Set Point:	-0.262	Pitch Set Point:	-0.164	Yaw Set Point:	-0.063	X_WP:	0.000	Y_WP:	0.000	Y_WP:	0.500	X:	0.128	Y:	0.086	Z:	0.401	yaw:	3.606	yaw rate:	-3.623	Roll:	4.050	Pitch:	2.523	Yaw:	5.417	Thrust:	14.620
Time:	2.949	Roll Set Point:	-0.262	Pitch Set Point:	-0.164	Yaw Set Point:	-0.063	X_WP:	0.000	Y_WP:	0.000	Y_WP:	0.500	X:	0.128	Y:	0.086	Z:	0.401	yaw:	3.606	yaw rate:	-3.623	Roll:	4.138	Pitch:	2.411	Yaw:	6.044	Thrust:	14.932
Time:	2.964	Roll Set Point:	-0.262	Pitch Set Point:	-0.164	Yaw Set Point:	-0.062	X_WP:	0.000	Y_WP:	0.000	Y_WP:	0.500	X:	0.128	Y:	0.086	Z:	0.401	yaw:	3.563	yaw rate:	-4.283	Roll:	4.068	Pitch:	2.574	Yaw:	5.285	Thrust:	14.998
Time:	2.980	Roll Set Point:	-0.262	Pitch Set Point:	-0.164	Yaw Set Point:	-0.063	X_WP:	0.000	Y_WP:	0.000	Y_WP:	0.500	X:	0.128	Y:	0.086	Z:	0.401	yaw:	3.622	yaw rate:	5.918	Roll:	4.248	Pitch:	2.275	Yaw:	7.097	Thrust:	15.415
Time:	2.995	Roll Set Point:	-0.262	Pitch Set Point:	-0.164	Yaw Set Point:	-0.063	X_WP:	0.000	Y_WP:	0.000	Y_WP:	0.500	X:	0.128	Y:	0.086	Z:	0.401	yaw:	3.624	yaw rate:	0.197	Roll:	4.166	Pitch:	2.397	Yaw:	6.161	Thrust:	15.446
Time:	3.011	Roll Set Point:	-0.262	Pitch Set Point:	-0.164	Yaw Set Point:	-0.063	X_WP:	0.000	Y_WP:	0.000	Y_WP:	0.500	X:	0.128	Y:	0.086	Z:	0.401	yaw:	3.624	yaw rate:	0.197	Roll:	4.161	Pitch:	2.423	Yaw:	6.150	Thrust:	15.688
Time:	3.027	Roll Set Point:	-0.262	Pitch Set Point:	-0.164	Yaw Set Point:	-0.064	X_WP:	0.000	Y_WP:	0.000	Y_WP:	0.500	X:	0.128	Y:	0.086	Z:	0.401	yaw:	3.658	yaw rate:	6.430	Roll:	4.212	Pitch:	2.346	Yaw:	6.771	Thrust:	15.912
Time:	3.042	Roll Set Point:	-0.262	Pitch Set Point:	-0.164	Yaw Set Point:	-0.064	X_WP:	0.000	Y_WP:	0.000	Y_WP:	0.500	X:	0.128	Y:	0.086	Z:	0.401	yaw:	3.646	yaw rate:	-1.194	Roll:	4.180	Pitch:	2.337	Yaw:	6.015	Thrust:	16.122
Time:	3.058	Roll Set Point:	-0.262	Pitch Set Point:	-0.164	Yaw Set Point:	-0.064	X_WP:	0.000	Y_WP:	0.000	Y_WP:	0.500	X:	0.128	Y:	0.086	Z:	0.401	yaw:	3.640	yaw rate:	-0.521	Roll:	4.162	Pitch:	2.517	Yaw:	6.142	Thrust:	16.057
Time:	3.074	Roll Set Point:	-0.262	Pitch Set Point:	-0.164	Yaw Set Point:	-0.063	X_WP:	0.000	Y_WP:	0.000	Y_WP:	0.500	X:	0.128	Y:	0.086	Z:	0.401	yaw:	3.588	yaw rate:	-5.202	Roll:	4.090	Pitch:	2.630	Yaw:	5.305	Thrust:	16.454
Time:	3.089	Roll Set Point:	-0.262	Pitch Set Point:	-0.164	Yaw Set Point:	-0.063	X_WP:	0.000	Y_WP:	0.000	Y_WP:	0.500	X:	0.128	Y:	0.086	Z:	0.401	yaw:	3.603	yaw rate:	1.506	Roll:	4.219	Pitch:	2.347	Yaw:	6.472	Thrust:	16.487
Time:	3.105	Roll Set Point:	-0.262	Pitch Set Point:	-0.164	Yaw Set Point:	-0.063	X_WP:	0.000	Y_WP:	0.000	Y_WP:	0.500	X:	0.128	Y:	0.086	Z:	0.401	yaw:	3.607	yaw rate:	0.345	Roll:	4.207	Pitch:	2.380	Yaw:	6.298	Thrust:	16.990
Time:	3.120	Roll Set Point:	-0.262	Pitch Set Point:	-0.164	Yaw Set Point:	-0.064	X_WP:	0.000	Y_WP:	0.000	Y_WP:	0.500	X:	0.128	Y:	0.086	Z:	0.401	yaw:	3.666	yaw rate:	5.948	Roll:	4.287	Pitch:	2.333	Yaw:	7.341	Thrust:	16.961
Time:	3.136	Roll Set Point:	-0.262	Pitch Set Point:	-0.164	Yaw Set Point:	-0.063	X_WP:	0.000	Y_WP:	0.000	Y_WP:	0.500	X:	0.128	Y:	0.086	Z:	0.401	yaw:	3.584	yaw rate:	-8.206	Roll:	4.049	Pitch:	2.684	Yaw:	4.880	Thrust:	16.961
Time:	3.152	Roll Set Point:	-0.262	Pitch Set Point:	-0.164	Yaw Set Point:	-0.063	X_WP:	0.000	Y_WP:	0.000	Y_WP:	0.500	X:	0.128	Y:	0.086	Z:	0.401	yaw:	3.584	yaw rate:	-8.206	Roll:	4.205	Pitch:	2.452	Yaw:	6.267	Thrust:	17.316
Time:	3.167	Roll Set Point:	-0.262	Pitch Set Point:	-0.164	Yaw Set Point:	-0.064	X_WP:	0.000	Y_WP:	0.000	Y_WP:	0.500	X:	0.128	Y:	0.086	Z:	0.401	yaw:	3.648	yaw rate:	7.686	Roll:	4.360	Pitch:	2.179	Yaw:	7.452	Thrust:	17.669
Time:	3.183	Roll Set Point:	-0.262	Pitch Set Point:	-0.164	Yaw Set Point:	-0.064	X_WP:	0.000	Y_WP:	0.000	Y_WP:	0.500	X:	0.128	Y:	0.086	Z:	0.401	yaw:	3.648	yaw rate:	7.686	Roll:	4.220	Pitch:	2.451	Yaw:	6.399	Thrust:	17.712
Time:	3.199	Roll Set Point:	-0.262	Pitch Set Point:	-0.164	Yaw Set Point:	-0.063	X_WP:	0.000	Y_WP:	0.000	Y_WP:	0.500	X:	0.128	Y:	0.086	Z:	0.401	yaw:	3.584	yaw rate:	-3.562	Roll:	4.091	Pitch:	2.757	Yaw:	5.250	Thrust:	17.755
Time:	3.214	Roll Set Point:	-0.262	Pitch Set Point:	-0.164	Yaw Set Point:	-0.063	X_WP:	0.000	Y_WP:	0.000	Y_WP:	0.500	X:	0.128	Y:	0.086	Z:	0.401	yaw:	3.589	yaw rate:	0.471	Roll:	4.218	Pitch:	2.431	Yaw:	6.433	Thrust:	18.134
Time:	3.230	Roll Set Point:	-0.262	Pitch Set Point:	-0.164	Yaw Set Point:	-0.064	X_WP:	0.000	Y_WP:	0.000	Y_WP:	0.500	X:	0.128	Y:	0.086	Z:	0.401	yaw:	3.655	yaw rate:	6.592	Roll:	4.365	Pitch:	2.245	Yaw:	7.571	Thrust:	18.374
Time:	3.245	Roll Set Point:	-0.262	Pitch Set Point:	-0.164	Yaw Set Point:	-0.064	X_WP:	0.000	Y_WP:	0.000	Y_WP:	0.500	X:	0.128	Y:	0.086	Z:	0.401	yaw:	3.659	yaw rate:	0.473	Roll:	4.244	Pitch:	2.464	Yaw:	6.572	Thrust:	18.604
Time:	3.261	Roll Set Point:	-0.262	Pitch Set Point:	-0.164	Yaw Set Point:	-0.064	X_WP:	0.000	Y_WP:	0.000	Y_WP:	0.500	X:	0.128	Y:	0.086	Z:	0.401	yaw:	3.669	yaw rate:	1.003	Roll:	4.256	Pitch:	2.458	Yaw:	6.697	Thrust:	18.583
Time:	3.277	Roll Set Point:	-0.262	Pitch Set Point:	-0.164	Yaw Set Point:	-0.063	X_WP:	0.000	Y_WP:	0.000	Y_WP:	0.500	X:	0.128	Y:	0.086	Z:	0.401	yaw:	3.607	yaw rate:	-6.210	Roll:	4.149	Pitch:	2.652	Yaw:	5.420	Thrust:	18.653
Time:	3.292	Roll Set Point:	-0.262	Pitch Set Point:	-0.164	Yaw Set Point:	-0.063	X_WP:	0.000	Y_WP:	0.000	Y_WP:	0.500	X:	0.128	Y:	0.086	Z:	0.401	yaw:	3.616	yaw rate:	0.847	Roll:	4.264	Pitch:	2.398	Yaw:	6.631	Thrust:	18.994
Time:	3.308	Roll Set Point:	-0.262	Pitch Set Point:	-0.164	Yaw Set Point:	-0.064	X_WP:	0.000	Y_WP:	0.000	Y_WP:	0.500	X:	0.128	Y:	0.086	Z:	0.401	yaw:	3.680	yaw rate:	6.446	Roll:	4.388	Pitch:	2.279	Yaw:	7.682	Thrust:	19.391
Time:	3.324	Roll Set Point:	-0.262	Pitch Set Point:	-0.164	Yaw Set Point:	-0.063	X_WP:	0.000	Y_WP:	0.000	Y_WP:	0.500	X:	0.128	Y:	0.086	Z:	0.401	yaw:	3.626	yaw rate:	-5.434	Roll:	4.150	Pitch:	2.686	Yaw:	5.635	Thrust:	19.280
Time:	3.339	Roll Set Point:	-0.262	Pitch Set Point:	-0.164	Yaw Set Point:	-0.063	X_WP:	0.000	Y_WP:	0.000	Y_WP:	0.500	X:	0.128	Y:	0.086	Z:	0.401	yaw:	3.626	yaw rate:	-5.434	Roll:	4.270	Pitch:	2.486	Yaw:	6.566	Thrust:	19.571
Time:	3.355	Roll Set Point:	-0.262	Pitch Set Point:	-0.164	Yaw Set Point:	-0.063	X_WP:	0.000	Y_WP:	0.000	Y_WP:	0.500	X:	0.128	Y:	0.086	Z:	0.401	yaw:	3.595	yaw rate:	-1.480	Roll:	4.247	Pitch:	2.564	Yaw:	6.032	Thrust:	19.754
Time:	3.370	Roll Set Point:	-0.262	Pitch Set Point:	-0.164	Yaw Set Point:	-0.064	X_WP:	0.000	Y_WP:	0.000	Y_WP:	0.500	X:	0.128	Y:	0.086	Z:	0.401	yaw:	3.660	yaw rate:	6.436	Roll:	4.356	Pitch:	2.329	Yaw:	7.729	Thrust:	20.026
Time:	3.386	Roll Set Point:	-0.262	Pitch Set Point:	-0.164	Yaw Set Point:	-0.063	X_WP:	0.000	Y_WP:	0.000	Y_WP:	0.500	X:	0.128	Y:	0.086	Z:	0.401	yaw:	3.595	yaw rate:	-6.445	Roll:	4.210	Pitch:	2.640	Yaw:	5.502	Thrust:	20.079
Time:	3.402	Roll Set Point:	-0.262	Pitch Set Point:	-0.164	Yaw Set Point:	-0.063	X_WP:	0.000	Y_WP:	0.000	Y_WP:	0.500	X:	0.128	Y:	0.086	Z:	0.401	yaw:	3.599	yaw rate:	0.364	Roll:	4.278	Pitch:	2.508	Yaw:	6.649	Thrust:	20.204
Time:	3.417	Roll Set Point:	-0.262	Pitch Set Point:	-0.164	Yaw Set Point:	-0.063	X_WP:	0.000	Y_WP:	0.000	Y_WP:	0.500	X:	0.128	Y:	0.086	Z:	0.401	yaw:	3.615	yaw rate:	1.581	Roll:	4.296	Pitch:	2.492	Yaw:	6.875	Thrust:	20.504
Time:	3.433	Roll Set Point:	-0.262	Pitch Set Point:	-0.164	Yaw Set Point:	-0.063	X_WP:	0.000	Y_WP:	0.000	Y_WP:	0.500	X:	0.128	Y:	0.086	Z:	0.401	yaw:	3.615	yaw rate:	1.581	Roll:	4.301	Pitch:	2.506	Yaw:	6.613	Thrust:	20.712
Time:	3.449	Roll Set Point:	-0.262	Pitch Set Point:	-0.164	Yaw Set Point:	-0.062	X_WP:	0.000	Y_WP:	0.000	Y_WP:	0.500	X:	0.128	Y:	0.086	Z:	0.401	yaw:	3.578	yaw rate:	-3.705	Roll:	4.281	Pitch:	2.542	Yaw:	5.945	Thrust:	20.890
Time:	3.464	Roll Set Point:	-0.262	Pitch Set Point:	-0.164	Yaw Set Point:	-0.062	X_WP:	0.000	Y_WP:	0.000	Y_WP:	0.500	X:	0.128	Y:	0.086	Z:	0.401	yaw:	3.578	yaw rate:	-3.705	Roll:	4.309	Pitch:	2.512	Yaw:	6.556	Thrust:	21.027
Time:	3.480	Roll Set Point:	-0.262	Pitch Set Point:	-0.164	Yaw Set Point:	-0.063	X_WP:	0.000	Y_WP:	0.000	Y_WP:	0.500	X:	0.128	Y:	0.086	Z:	0.401	yaw:	3.599	yaw rate:	2.131	Roll:	4.334	Pitch:	2.492	Yaw:	6.948	Thrust:	21.296
Time:	3.495	Roll Set Point:	-0.262	Pitch Set Point:	-0.164	Yaw Set Point:	-0.063	X_WP:	0.000	Y_WP:	0.000	Y_WP:	0.500	X:	0.128	Y:	0.086	Z:	0.401	yaw:	3.617	yaw rate:	1.785	Roll:	4.347	Pitch:	2.466	Yaw:	6.910	Thrust:	21.423
Time:	3.511	Roll Set Point:	-0.262	Pitch Set Point:	-0.164	Yaw Set Point:	-0.063	X_WP:	0.000	Y_WP:	0.000	Y_WP:	0.500	X:	0.128	Y:	0.086	Z:	0.401	yaw:	3.617	yaw rate:	1.785	Roll:	4.327	Pitch:	2.519	Yaw:	6.614	Thrust:	21.617
Time:	3.527	Roll Set Point:	-0.262	Pitch Set Point:	-0.164	Yaw Set Point:	-0.063	X_WP:	0.000	Y_WP:	0.000	Y_WP:	0.500	X:	0.128	Y:	0.086	Z:	0.401	yaw:	3.629	yaw rate:	-0.908	Roll:	4.368	Pitch:	2.479	Yaw:	6.827	Thrust:	21.791
Time:	3.542	Roll Set Point:	-0.262	Pitch Set Point:	-0.164	Yaw Set Point:	-0.063	X_WP:	0.000	Y_WP:	0.000	Y_WP:	0.500	X:	0.128	Y:	0.086	Z:	0.401	yaw:	3.629	yaw rate:	-0.908	Roll:	4.338	Pitch:	2.524	Yaw:	6.630	Thrust:	21.985
Time:	3.573	Roll Set Point:	-0.262	Pitch Set Point:	-0.164	Yaw Set Point:	-0.063	X_WP:	0.000	Y_WP:	0.000	Y_WP:	0.500	X:	0.128	Y:	0.086	Z:	0.401	yaw:	3.606	yaw rate:	1.133	Roll:	4.777	Pitch:	2.837	Yaw:	7.926	Thrust:	38.479
Time:	3.589	Roll Set Point:	-0.262	Pitch Set Point:	-0.164	Yaw Set Point:	-0.063	X_WP:	0.000	Y_WP:	0.000	Y_WP:	0.500	X:	0.128	Y:	0.086	Z:	0.401	yaw:	3.628	yaw rate:	-1.342	Roll:	4.365	Pitch:	2.447	Yaw:	7.008	Thrust:	22.413
Time:	3.604	Roll Set Point:	-0.262	Pitch Set Point:	-0.164	Yaw Set Point:	-0.063	X_WP:	0.000	Y_WP:	0.000	Y_WP:	0.500	X:	0.128	Y:	0.086	Z:	0.401	yaw:	3.587	yaw rate:	-4.131	Roll:	4.289	Pitch:	2.741	Yaw:	5.875	Thrust:	22.544
Time:	3.620	Roll Set Point:	-0.262	Pitch Set Point:	-0.164	Yaw Set Point:	-0.063	X_WP:	0.000	Y_WP:	0.000	Y_WP:	0.500	X:	0.128	Y:	0.086	Z:	0.401	yaw:	3.598	yaw rate:	1.151	Roll:	4.401	Pitch:	2.449	Yaw:	6.780	Thrust:	22.628
Time:	3.636	Roll Set Point:	-0.262	Pitch Set Point:	-0.164	Yaw Set Point:	-0.063	X_WP:	0.000	Y_WP:	0.000	Y_WP:	0.500	X:	0.128	Y:	0.086	Z:	0.401	yaw:	3.637	yaw rate:	3.867	Roll:	4.418	Pitch:	2.456	Yaw:	7.291	Thrust:	23.116
Time:	3.651	Roll Set Point:	-0.262	Pitch Set Point:	-0.164	Yaw Set Point:	-0.063	X_WP:	0.000	Y_WP:	0.000	Y_WP:	0.500	X:	0.128	Y:	0.086	Z:	0.401	yaw:	3.620	yaw rate:	-1.734	Roll:	4.358	Pitch:	2.503	Yaw:	6.322	Thrust:	23.016
Time:	3.667	Roll Set Point:	-0.262	Pitch Set Point:	-0.164	Yaw Set Point:	-0.063	X_WP:	0.000	Y_WP:	0.000	Y_WP:	0.500	X:	0.128	Y:	0.086	Z:	0.401	yaw:	3.608	yaw rate:	-1.208	Roll:	4.327	Pitch:	2.632	Yaw:	6.398	Thrust:	23.268
Time:	3.683	Roll Set Point:	-0.262	Pitch Set Point:	-0.164	Yaw Set Point:	-0.063	X_WP:	0.000	Y_WP:	0.000	Y_WP:	0.500	X:	0.128	Y:	0.086	Z:	0.401	yaw:	3.608	yaw rate:	-1.208	Roll:	4.378	Pitch:	2.551	Yaw:	6.600	Thrust:	23.472
Time:	3.698	Roll Set Point:	-0.262	Pitch Set Point:	-0.164	Yaw Set Point:	-0.063	X_WP:	0.000	Y_WP:	0.000	Y_WP:	0.500	X:	0.128	Y:	0.086	Z:	0.401	yaw:	3.586	yaw rate:	-2.180	Roll:	4.335	Pitch:	2.689	Yaw:	6.208	Thrust:	23.622
Time:	3.714	Roll Set Point:	-0.262	Pitch Set Point:	-0.164	Yaw Set Point:	-0.064	X_WP:	0.000	Y_WP:	0.000	Y_WP:	0.500	X:	0.128	Y:	0.086	Z:	0.401	yaw:	3.642	yaw rate:	1.370	Roll:	4.504	Pitch:	2.298	Yaw:	7.579	Thrust:	23.990
Time:	3.730	Roll Set Point:	-0.262	Pitch Set Point:	-0.164	Yaw Set Point:	-0.064	X_WP:	0.000	Y_WP:	0.000	Y_WP:	0.500	X:	0.128	Y:	0.086	Z:	0.401	yaw:	3.650	yaw rate:	0.821	Roll:	4.387	Pitch:	2.626	Yaw:	6.796	Thrust:	23.962
Time:	3.745	Roll Set Point:	-0.262	Pitch Set Point:	-0.164	Yaw Set Point:	-0.064	X_WP:	0.000	Y_WP:	0.000	Y_WP:	0.500	X:	0.128	Y:	0.086	Z:	0.401	yaw:	3.639	yaw rate:	-1.116	Roll:	4.386	Pitch:	2.591	Yaw:	6.453	Thrust:	24.273
Time:	3.761	Roll Set Point:	-0.262	Pitch Set Point:	-0.164	Yaw Set Point:	-0.063	X_WP:	0.000	Y_WP:	0.000	Y_WP:	0.500	X:	0.128	Y:	0.086	Z:	0.401	yaw:	3.621	yaw rate:	-1.726	Roll:	4.382	Pitch:	2.554	Yaw:	6.330	Thrust:	24.245
Time:	3.776	Roll Set Point:	-0.262	Pitch Set Point:	-0.164	Yaw Set Point:	-0.063	X_WP:	0.000	Y_WP:	0.000	Y_WP:	0.500	X:	0.128	Y:	0.086	Z:	0.401	yaw:	3.631	yaw rate:	0.966	Roll:	4.438	Pitch:	2.504	Yaw:	6.794	Thrust:	24.660
Time:	3.792	Roll Set Point:	-0.262	Pitch Set Point:	-0.164	Yaw Set Point:	-0.063	X_WP:	0.000	Y_WP:	0.000	Y_WP:	0.500	X:	0.128	Y:	0.086	Z:	0.401	yaw:	3.604	yaw rate:	-2.683	Roll:	4.399	Pitch:	2.691	Yaw:	6.145	Thrust:	24.710
Time:	3.808	Roll Set Point:	-0.262	Pitch Set Point:	-0.164	Yaw Set Point:	-0.063	X_WP:	0.000	Y_WP:	0.000	Y_WP:	0.500	X:	0.128	Y:	0.086	Z:	0.401	yaw:	3.618	yaw rate:	1.388	Roll:	4.408	Pitch:	2.572	Yaw:	6.847	Thrust:	24.950
Time:	3.823	Roll Set Point:	-0.262	Pitch Set Point:	-0.164	Yaw Set Point:	-0.064	X_WP:	0.000	Y_WP:	0.000	Y_WP:	0.500	X:	0.128	Y:	0.086	Z:	0.401	yaw:	3.677	yaw rate:	5.877	Roll:	4.539	Pitch:	2.374	Yaw:	7.681	Thrust:	25.318
Time:	3.839	Roll Set Point:	-0.262	Pitch Set Point:	-0.164	Yaw Set Point:	-0.064	X_WP:	0.000	Y_WP:	0.000	Y_WP:	0.500	X:	0.128	Y:	0.086	Z:	0.401	yaw:	3.657	yaw rate:	-1.980	Roll:	4.381	Pitch:	2.566	Yaw:	6.337	Thrust:	25.268
Time:	3.855	Roll Set Point:	-0.262	Pitch Set Point:	-0.164	Yaw Set Point:	-0.063	X_WP:	0.000	Y_WP:	0.000	Y_WP:	0.500	X:	0.128	Y:	0.086	Z:	0.401	yaw:	3.614	yaw rate:	-4.306	Roll:	4.363	Pitch:	2.798	Yaw:	5.887	Thrust:	25.478
Time:	3.870	Roll Set Point:	-0.262	Pitch Set Point:	-0.164	Yaw Set Point:	-0.062	X_WP:	0.000	Y_WP:	0.000	Y_WP:	0.500	X:	0.128	Y:	0.086	Z:	0.401	yaw:	3.564	yaw rate:	-5.005	Roll:	4.362	Pitch:	2.717	Yaw:	5.700	Thrust:	25.527
Time:	3.886	Roll Set Point:	-0.262	Pitch Set Point:	-0.164	Yaw Set Point:	-0.063	X_WP:	0.000	Y_WP:	0.000	Y_WP:	0.500	X:	0.128	Y:	0.086	Z:	0.401	yaw:	3.608	yaw rate:	4.391	Roll:	4.540	Pitch:	2.460	Yaw:	7.338	Thrust:	26.034
Time:	3.901	Roll Set Point:	-0.262	Pitch Set Point:	-0.164	Yaw Set Point:	-0.063	X_WP:	0.000	Y_WP:	0.000	Y_WP:	0.500	X:	0.128	Y:	0.086	Z:	0.401	yaw:	3.627	yaw rate:	1.874	Roll:	4.486	Pitch:	2.486	Yaw:	6.938	Thrust:	26.131
Time:	3.917	Roll Set Point:	-0.262	Pitch Set Point:	-0.164	Yaw Set Point:	-0.064	X_WP:	0.000	Y_WP:	0.000	Y_WP:	0.500	X:	0.128	Y:	0.086	Z:	0.401	yaw:	3.643	yaw rate:	1.637	Roll:	4.474	Pitch:	2.540	Yaw:	6.923	Thrust:	26.284
Time:	3.933	Roll Set Point:	-0.262	Pitch Set Point:	-0.164	Yaw Set Point:	-0.062	X_WP:	0.000	Y_WP:	0.000	Y_WP:	0.500	X:	0.128	Y:	0.086	Z:	0.401	yaw:	3.579	yaw rate:	-6.389	Roll:	4.351	Pitch:	2.856	Yaw:	5.495	Thrust:	26.226
Time:	3.948	Roll Set Point:	-0.262	Pitch Set Point:	-0.164	Yaw Set Point:	-0.063	X_WP:	0.000	Y_WP:	0.000	Y_WP:	0.500	X:	0.128	Y:	0.086	Z:	0.401	yaw:	3.632	yaw rate:	5.258	Roll:	4.535	Pitch:	2.447	Yaw:	7.513	Thrust:	26.768
Time:	3.964	Roll Set Point:	-0.262	Pitch Set Point:	-0.164	Yaw Set Point:	-0.063	X_WP:	0.000	Y_WP:	0.000	Y_WP:	0.500	X:	0.128	Y:	0.086	Z:	0.401	yaw:	3.632	yaw rate:	5.258	Roll:	4.460	Pitch:	2.605	Yaw:	6.636	Thrust:	26.857
Time:	3.980	Roll Set Point:	-0.262	Pitch Set Point:	-0.164	Yaw Set Point:	-0.063	X_WP:	0.000	Y_WP:	0.000	Y_WP:	0.500	X:	0.128	Y:	0.086	Z:	0.401	yaw:	3.617	yaw rate:	-4.296	Roll:	4.473	Pitch:	2.591	Yaw:	6.369	Thrust:	26.932
Time:	3.995	Roll Set Point:	-0.262	Pitch Set Point:	-0.164	Yaw Set Point:	-0.063	X_WP:	0.000	Y_WP:	0.000	Y_WP:	0.500	X:	0.128	Y:	0.086	Z:	0.401	yaw:	3.638	yaw rate:	2.106	Roll:	4.439	Pitch:	2.669	Yaw:	6.995	Thrust:	27.249
Time:	4.011	Roll Set Point:	-0.262	Pitch Set Point:	-0.164	Yaw Set Point:	-0.063	X_WP:	0.000	Y_WP:	0.000	Y_WP:	0.500	X:	0.128	Y:	0.086	Z:	0.401	yaw:	3.638	yaw rate:	2.106	Roll:	4.459	Pitch:	2.614	Yaw:	6.643	Thrust:	27.375
Time:	4.026	Roll Set Point:	-0.262	Pitch Set Point:	-0.164	Yaw Set Point:	-0.063	X_WP:	0.000	Y_WP:	0.000	Y_WP:	0.500	X:	0.128	Y:	0.086	Z:	0.401	yaw:	3.626	yaw rate:	-1.237	Roll:	4.432	Pitch:	2.582	Yaw:	6.418	Thrust:	27.408
Time:	4.042	Roll Set Point:	-0.262	Pitch Set Point:	-0.164	Yaw Set Point:	-0.063	X_WP:	0.000	Y_WP:	0.000	Y_WP:	0.500	X:	0.128	Y:	0.086	Z:	0.401	yaw:	3.628	yaw rate:	4.406	Roll:	4.491	Pitch:	2.591	Yaw:	6.655	Thrust:	27.825
Time:	4.058	Roll Set Point:	-0.262	Pitch Set Point:	-0.164	Yaw Set Point:	-0.063	X_WP:	0.000	Y_WP:	0.000	Y_WP:	0.500	X:	0.128	Y:	0.086	Z:	0.401	yaw:	3.633	yaw rate:	0.522	Roll:	4.470	Pitch:	2.645	Yaw:	6.722	Thrust:	27.933
Time:	4.073	Roll Set Point:	-0.262	Pitch Set Point:	-0.164	Yaw Set Point:	-0.063	X_WP:	0.000	Y_WP:	0.000	Y_WP:	0.500	X:	0.128	Y:	0.086	Z:	0.401	yaw:	3.616	yaw rate:	-1.652	Roll:	4.405	Pitch:	2.688	Yaw:	6.339	Thrust:	28.188
Time:	4.089	Roll Set Point:	-0.262	Pitch Set Point:	-0.164	Yaw Set Point:	-0.063	X_WP:	0.000	Y_WP:	0.000	Y_WP:	0.500	X:	0.128	Y:	0.086	Z:	0.401	yaw:	3.629	yaw rate:	1.260	Roll:	4.512	Pitch:	2.547	Yaw:	6.870	Thrust:	28.846
Time:	4.104	Roll Set Point:	-0.262	Pitch Set Point:	-0.164	Yaw Set Point:	-0.064	X_WP:	0.000	Y_WP:	0.000	Y_WP:	0.500	X:	0.128	Y:	0.086	Z:	0.401	yaw:	3.640	yaw rate:	1.101	Roll:	4.454	Pitch:	2.552	Yaw:	6.778	Thrust:	27.659
Time:	4.123	Roll Set Point:	-0.262	Pitch Set Point:	-0.164	Yaw Set Point:	-0.064	X_WP:	0.000	Y_WP:	0.000	Y_WP:	0.500	X:	0.128	Y:	0.086	Z:	0.401	yaw:	3.640	yaw rate:	1.101	Roll:	4.577	Pitch:	2.708	Yaw:	6.957	Thrust:	33.309
Time:	4.139	Roll Set Point:	-0.262	Pitch Set Point:	-0.164	Yaw Set Point:	-0.063	X_WP:	0.000	Y_WP:	0.000	Y_WP:	0.500	X:	0.128	Y:	0.086	Z:	0.401	yaw:	3.595	yaw rate:	2.278	Roll:	4.370	Pitch:	2.858	Yaw:	5.824	Thrust:	28.785
Time:	4.154	Roll Set Point:	-0.262	Pitch Set Point:	-0.164	Yaw Set Point:	-0.064	X_WP:	0.000	Y_WP:	0.000	Y_WP:	0.500	X:	0.128	Y:	0.086	Z:	0.401	yaw:	3.641	yaw rate:	4.681	Roll:	4.572	Pitch:	2.378	Yaw:	7.430	Thrust:	29.055
Time:	4.170	Roll Set Point:	-0.262	Pitch Set Point:	-0.164	Yaw Set Point:	-0.064	X_WP:	0.000	Y_WP:	0.000	Y_WP:	0.500	X:	0.128	Y:	0.086	Z:	0.401	yaw:	3.675	yaw rate:	3.358	Roll:	4.516	Pitch:	2.621	Yaw:	7.257	Thrust:	29.314
Time:	4.186	Roll Set Point:	-0.262	Pitch Set Point:	-0.164	Yaw Set Point:	-0.063	X_WP:	0.000	Y_WP:	0.000	Y_WP:	0.500	X:	0.128	Y:	0.086	Z:	0.401	yaw:	3.616	yaw rate:	-5.880	Roll:	4.394	Pitch:	2.837	Yaw:	5.629	Thrust:	29.216
Time:	4.201	Roll Set Point:	-0.262	Pitch Set Point:	-0.164	Yaw Set Point:	-0.063	X_WP:	0.000	Y_WP:	0.000	Y_WP:	0.500	X:	0.128	Y:	0.086	Z:	0.401	yaw:	3.616	yaw rate:	-5.880	Roll:	4.460	Pitch:	2.650	Yaw:	6.611	Thrust:	29.582
Time:	4.217	Roll Set Point:	-0.262	Pitch Set Point:	-0.164	Yaw Set Point:	-0.063	X_WP:	0.000	Y_WP:	0.000	Y_WP:	0.500	X:	0.128	Y:	0.086	Z:	0.401	yaw:	3.625	yaw rate:	0.913	Roll:	4.445	Pitch:	2.553	Yaw:	6.778	Thrust:	29.862
Time:	4.232	Roll Set Point:	-0.262	Pitch Set Point:	-0.164	Yaw Set Point:	-0.064	X_WP:	0.000	Y_WP:	0.000	Y_WP:	0.500	X:	0.128	Y:	0.086	Z:	0.401	yaw:	3.662	yaw rate:	3.626	Roll:	4.548	Pitch:	2.500	Yaw:	7.283	Thrust:	30.020
Time:	4.248	Roll Set Point:	-0.262	Pitch Set Point:	-0.164	Yaw Set Point:	-0.063	X_WP:	0.000	Y_WP:	0.000	Y_WP:	0.500	X:	0.128	Y:	0.086	Z:	0.401	yaw:	3.597	yaw rate:	-6.470	Roll:	4.324	Pitch:	2.977	Yaw:	5.506	Thrust:	30.104
Time:	4.264	Roll Set Point:	-0.262	Pitch Set Point:	-0.164	Yaw Set Point:	-0.063	X_WP:	0.000	Y_WP:	0.000	Y_WP:	0.500	X:	0.128	Y:	0.086	Z:	0.401	yaw:	3.618	yaw rate:	2.131	Roll:	4.473	Pitch:	2.636	Yaw:	6.969	Thrust:	30.297
Time:	4.279	Roll Set Point:	-0.262	Pitch Set Point:	-0.164	Yaw Set Point:	-0.063	X_WP:	0.000	Y_WP:	0.000	Y_WP:	0.500	X:	0.128	Y:	0.086	Z:	0.401	yaw:	3.620	yaw rate:	0.178	Roll:	4.455	Pitch:	2.549	Yaw:	6.647	Thrust:	30.658
Time:	4.295	Roll Set Point:	-0.262	Pitch Set Point:	-0.164	Yaw Set Point:	-0.063	X_WP:	0.000	Y_WP:	0.000	Y_WP:	0.500	X:	0.128	Y:	0.086	Z:	0.401	yaw:	3.620	yaw rate:	0.178	Roll:	4.459	Pitch:	2.667	Yaw:	6.617	Thrust:	30.717
Time:	4.311	Roll Set Point:	-0.262	Pitch Set Point:	-0.164	Yaw Set Point:	-0.064	X_WP:	0.000	Y_WP:	0.000	Y_WP:	0.500	X:	0.128	Y:	0.086	Z:	0.401	yaw:	3.683	yaw rate:	6.321	Roll:	4.582	Pitch:	2.509	Yaw:	7.765	Thrust:	30.913
Time:	4.326	Roll Set Point:	-0.262	Pitch Set Point:	-0.164	Yaw Set Point:	-0.064	X_WP:	0.000	Y_WP:	0.000	Y_WP:	0.500	X:	0.128	Y:	0.086	Z:	0.401	yaw:	3.646	yaw rate:	-3.705	Roll:	4.413	Pitch:	2.819	Yaw:	6.033	Thrust:	31.133
Time:	4.342	Roll Set Point:	-0.262	Pitch Set Point:	-0.164	Yaw Set Point:	-0.063	X_WP:	0.000	Y_WP:	0.000	Y_WP:	0.500	X:	0.128	Y:	0.086	Z:	0.401	yaw:	3.593	yaw rate:	-2.364	Roll:	4.339	Pitch:	2.817	Yaw:	5.696	Thrust:	31.174
Time:	4.357	Roll Set Point:	-0.262	Pitch Set Point:	-0.164	Yaw Set Point:	-0.064	X_WP:	0.000	Y_WP:	0.000	Y_WP:	0.500	X:	0.128	Y:	0.086	Z:	0.401	yaw:	3.668	yaw rate:	7.476	Roll:	4.616	Pitch:	2.417	Yaw:	7.937	Thrust:	31.569
Time:	4.373	Roll Set Point:	-0.262	Pitch Set Point:	-0.164	Yaw Set Point:	-0.063	X_WP:	0.000	Y_WP:	0.000	Y_WP:	0.500	X:	0.128	Y:	0.086	Z:	0.401	yaw:	3.632	yaw rate:	-3.577	Roll:	4.385	Pitch:	2.876	Yaw:	6.035	Thrust:	31.645
Time:	4.389	Roll Set Point:	-0.262	Pitch Set Point:	-0.164	Yaw Set Point:	-0.063	X_WP:	0.000	Y_WP:	0.000	Y_WP:	0.500	X:	0.128	Y:	0.086	Z:	0.401	yaw:	3.604	yaw rate:	-2.797	Roll:	4.388	Pitch:	2.746	Yaw:	6.127	Thrust:	31.668
Time:	4.404	Roll Set Point:	-0.262	Pitch Set Point:	-0.164	Yaw Set Point:	-0.063	X_WP:	0.000	Y_WP:	0.000	Y_WP:	0.500	X:	0.128	Y:	0.086	Z:	0.401	yaw:	3.615	yaw rate:	1.043	Roll:	4.512	Pitch:	2.625	Yaw:	6.785	Thrust:	32.135
Time:	4.420	Roll Set Point:	-0.262	Pitch Set Point:	-0.164	Yaw Set Point:	-0.063	X_WP:	0.000	Y_WP:	0.000	Y_WP:	0.500	X:	0.128	Y:	0.086	Z:	0.401	yaw:	3.634	yaw rate:	1.868	Roll:	4.501	Pitch:	2.622	Yaw:	6.949	Thrust:	32.209
Time:	4.436	Roll Set Point:	-0.262	Pitch Set Point:	-0.164	Yaw Set Point:	-0.063	X_WP:	0.000	Y_WP:	0.000	Y_WP:	0.500	X:	0.128	Y:	0.086	Z:	0.401	yaw:	3.622	yaw rate:	-1.123	Roll:	4.424	Pitch:	2.728	Yaw:	6.435	Thrust:	32.396
Time:	4.451	Roll Set Point:	-0.262	Pitch Set Point:	-0.164	Yaw Set Point:	-0.063	X_WP:	0.000	Y_WP:	0.000	Y_WP:	0.500	X:	0.128	Y:	0.086	Z:	0.401	yaw:	3.607	yaw rate:	-1.568	Roll:	4.440	Pitch:	2.779	Yaw:	6.333	Thrust:	32.571
Time:	4.467	Roll Set Point:	-0.262	Pitch Set Point:	-0.164	Yaw Set Point:	-0.063	X_WP:	0.000	Y_WP:	0.000	Y_WP:	0.500	X:	0.128	Y:	0.086	Z:	0.401	yaw:	3.607	yaw rate:	-1.568	Roll:	4.459	Pitch:	2.703	Yaw:	6.598	Thrust:	32.757
Time:	4.482	Roll Set Point:	-0.262	Pitch Set Point:	-0.164	Yaw Set Point:	-0.063	X_WP:	0.000	Y_WP:	0.000	Y_WP:	0.500	X:	0.128	Y:	0.086	Z:	0.401	yaw:	3.582	yaw rate:	-2.483	Roll:	4.409	Pitch:	2.750	Yaw:	6.148	Thrust:	32.853
Time:	4.498	Roll Set Point:	-0.262	Pitch Set Point:	-0.164	Yaw Set Point:	-0.063	X_WP:	0.000	Y_WP:	0.000	Y_WP:	0.500	X:	0.128	Y:	0.086	Z:	0.401	yaw:	3.631	yaw rate:	-1.444	Roll:	4.580	Pitch:	2.566	Yaw:	7.461	Thrust:	33.167
Time:	4.514	Roll Set Point:	-0.262	Pitch Set Point:	-0.164	Yaw Set Point:	-0.063	X_WP:	0.000	Y_WP:	0.000	Y_WP:	0.500	X:	0.128	Y:	0.086	Z:	0.401	yaw:	3.589	yaw rate:	-4.209	Roll:	4.320	Pitch:	2.914	Yaw:	5.870	Thrust:	33.378
Time:	4.529	Roll Set Point:	-0.262	Pitch Set Point:	-0.164	Yaw Set Point:	-0.063	X_WP:	0.000	Y_WP:	0.000	Y_WP:	0.500	X:	0.128	Y:	0.086	Z:	0.401	yaw:	3.599	yaw rate:	0.973	Roll:	4.540	Pitch:	2.598	Yaw:	6.750	Thrust:	33.414
Time:	4.545	Roll Set Point:	-0.262	Pitch Set Point:	-0.164	Yaw Set Point:	-0.063	X_WP:	0.000	Y_WP:	0.000	Y_WP:	0.500	X:	0.128	Y:	0.086	Z:	0.401	yaw:	3.637	yaw rate:	3.819	Roll:	4.502	Pitch:	2.619	Yaw:	7.284	Thrust:	33.862
Time:	4.573	Roll Set Point:	-0.262	Pitch Set Point:	-0.164	Yaw Set Point:	-0.063	X_WP:	0.000	Y_WP:	0.000	Y_WP:	0.500	X:	0.128	Y:	0.086	Z:	0.401	yaw:	3.626	yaw rate:	-1.137	Roll:	4.899	Pitch:	3.128	Yaw:	7.737	Thrust:	56.046
Time:	4.588	Roll Set Point:	-0.262	Pitch Set Point:	-0.164	Yaw Set Point:	-0.063	X_WP:	0.000	Y_WP:	0.000	Y_WP:	0.500	X:	0.128	Y:	0.086	Z:	0.401	yaw:	3.615	yaw rate:	-1.061	Roll:	4.430	Pitch:	2.734	Yaw:	6.433	Thrust:	34.060
Time:	4.604	Roll Set Point:	-0.262	Pitch Set Point:	-0.164	Yaw Set Point:	-0.063	X_WP:	0.000	Y_WP:	0.000	Y_WP:	0.500	X:	0.128	Y:	0.086	Z:	0.401	yaw:	3.636	yaw rate:	2.075	Roll:	4.484	Pitch:	2.674	Yaw:	6.987	Thrust:	34.279
Time:	4.620	Roll Set Point:	-0.262	Pitch Set Point:	-0.164	Yaw Set Point:	-0.063	X_WP:	0.000	Y_WP:	0.000	Y_WP:	0.500	X:	0.128	Y:	0.086	Z:	0.401	yaw:	3.597	yaw rate:	-3.934	Roll:	4.415	Pitch:	2.812	Yaw:	5.925	Thrust:	34.338
Time:	4.635	Roll Set Point:	-0.262	Pitch Set Point:	-0.164	Yaw Set Point:	-0.063	X_WP:	0.000	Y_WP:	0.000	Y_WP:	0.500	X:	0.128	Y:	0.086	Z:	0.401	yaw:	3.626	yaw rate:	2.973	Roll:	4.526	Pitch:	2.638	Yaw:	7.124	Thrust:	34.695
Time:	4.651	Roll Set Point:	-0.262	Pitch Set Point:	-0.164	Yaw Set Point:	-0.063	X_WP:	0.000	Y_WP:	0.000	Y_WP:	0.500	X:	0.128	Y:	0.086	Z:	0.401	yaw:	3.626	yaw rate:	2.973	Roll:	4.460	Pitch:	2.734	Yaw:	6.626	Thrust:	34.805
Time:	4.667	Roll Set Point:	-0.262	Pitch Set Point:	-0.164	Yaw Set Point:	-0.063	X_WP:	0.000	Y_WP:	0.000	Y_WP:	0.500	X:	0.128	Y:	0.086	Z:	0.401	yaw:	3.636	yaw rate:	0.992	Roll:	4.457	Pitch:	2.677	Yaw:	6.807	Thrust:	35.059
Time:	4.682	Roll Set Point:	-0.262	Pitch Set Point:	-0.164	Yaw Set Point:	-0.063	X_WP:	0.000	Y_WP:	0.000	Y_WP:	0.500	X:	0.128	Y:	0.086	Z:	0.401	yaw:	3.636	yaw rate:	0.992	Roll:	4.459	Pitch:	2.738	Yaw:	6.639	Thrust:	35.162
Time:	4.698	Roll Set Point:	-0.262	Pitch Set Point:	-0.164	Yaw Set Point:	-0.063	X_WP:	0.000	Y_WP:	0.000	Y_WP:	0.500	X:	0.128	Y:	0.086	Z:	0.401	yaw:	3.597	yaw rate:	-3.928	Roll:	4.360	Pitch:	2.945	Yaw:	5.927	Thrust:	35.228
Time:	4.713	Roll Set Point:	-0.262	Pitch Set Point:	-0.164	Yaw Set Point:	-0.063	X_WP:	0.000	Y_WP:	0.000	Y_WP:	0.500	X:	0.128	Y:	0.086	Z:	0.401	yaw:	3.597	yaw rate:	-3.928	Roll:	4.457	Pitch:	2.750	Yaw:	6.585	Thrust:	35.547
Time:	4.729	Roll Set Point:	-0.262	Pitch Set Point:	-0.164	Yaw Set Point:	-0.063	X_WP:	0.000	Y_WP:	0.000	Y_WP:	0.500	X:	0.128	Y:	0.086	Z:	0.401	yaw:	3.627	yaw rate:	3.025	Roll:	4.564	Pitch:	2.560	Yaw:	7.134	Thrust:	35.817
Time:	4.745	Roll Set Point:	-0.262	Pitch Set Point:	-0.164	Yaw Set Point:	-0.063	X_WP:	0.000	Y_WP:	0.000	Y_WP:	0.500	X:	0.128	Y:	0.086	Z:	0.401	yaw:	3.627	yaw rate:	3.025	Roll:	4.460	Pitch:	2.751	Yaw:	6.627	Thrust:	35.924
Time:	4.760	Roll Set Point:	-0.262	Pitch Set Point:	-0.164	Yaw Set Point:	-0.063	X_WP:	0.000	Y_WP:	0.000	Y_WP:	0.500	X:	0.128	Y:	0.086	Z:	0.401	yaw:	3.602	yaw rate:	-2.468	Roll:	4.398	Pitch:	2.925	Yaw:	6.179	Thrust:	36.098
Time:	4.776	Roll Set Point:	-0.262	Pitch Set Point:	-0.164	Yaw Set Point:	-0.063	X_WP:	0.000	Y_WP:	0.000	Y_WP:	0.500	X:	0.128	Y:	0.086	Z:	0.401	yaw:	3.602	yaw rate:	-2.468	Roll:	4.459	Pitch:	2.762	Yaw:	6.593	Thrust:	36.302
Time:	4.792	Roll Set Point:	-0.262	Pitch Set Point:	-0.164	Yaw Set Point:	-0.063	X_WP:	0.000	Y_WP:	0.000	Y_WP:	0.500	X:	0.128	Y:	0.086	Z:	0.401	yaw:	3.628	yaw rate:	-1.356	Roll:	4.480	Pitch:	2.629	Yaw:	7.058	Thrust:	36.524
Time:	4.807	Roll Set Point:	-0.262	Pitch Set Point:	-0.164	Yaw Set Point:	-0.063	X_WP:	0.000	Y_WP:	0.000	Y_WP:	0.500	X:	0.128	Y:	0.086	Z:	0.401	yaw:	3.619	yaw rate:	-0.927	Roll:	4.503	Pitch:	2.780	Yaw:	6.460	Thrust:	36.606
Time:	4.823	Roll Set Point:	-0.262	Pitch Set Point:	-0.164	Yaw Set Point:	-0.063	X_WP:	0.000	Y_WP:	0.000	Y_WP:	0.500	X:	0.128	Y:	0.086	Z:	0.401	yaw:	3.583	yaw rate:	-3.574	Roll:	4.332	Pitch:	2.974	Yaw:	5.967	Thrust:	36.711
Time:	4.838	Roll Set Point:	-0.262	Pitch Set Point:	-0.164	Yaw Set Point:	-0.064	X_WP:	0.000	Y_WP:	0.000	Y_WP:	0.500	X:	0.128	Y:	0.086	Z:	0.401	yaw:	3.676	yaw rate:	9.309	Roll:	4.642	Pitch:	2.414	Yaw:	8.255	Thrust:	37.232
Time:	4.854	Roll Set Point:	-0.262	Pitch Set Point:	-0.164	Yaw Set Point:	-0.064	X_WP:	0.000	Y_WP:	0.000	Y_WP:	0.500	X:	0.128	Y:	0.086	Z:	0.401	yaw:	3.676	yaw rate:	9.309	Roll:	4.462	Pitch:	2.770	Yaw:	6.696	Thrust:	37.224
Time:	4.870	Roll Set Point:	-0.262	Pitch Set Point:	-0.164	Yaw Set Point:	-0.063	X_WP:	0.000	Y_WP:	0.000	Y_WP:	0.500	X:	0.128	Y:	0.086	Z:	0.401	yaw:	3.621	yaw rate:	-4.308	Roll:	4.395	Pitch:	2.913	Yaw:	5.688	Thrust:	37.377
Time:	4.885	Roll Set Point:	-0.262	Pitch Set Point:	-0.164	Yaw Set Point:	-0.063	X_WP:	0.000	Y_WP:	0.000	Y_WP:	0.500	X:	0.128	Y:	0.086	Z:	0.401	yaw:	3.632	yaw rate:	1.114	Roll:	4.422	Pitch:	2.879	Yaw:	6.820	Thrust:	37.482
Time:	4.901	Roll Set Point:	-0.262	Pitch Set Point:	-0.164	Yaw Set Point:	-0.063	X_WP:	0.000	Y_WP:	0.000	Y_WP:	0.500	X:	0.128	Y:	0.086	Z:	0.401	yaw:	3.581	yaw rate:	-5.037	Roll:	4.420	Pitch:	2.862	Yaw:	5.719	Thrust:	37.789
Time:	4.917	Roll Set Point:	-0.262	Pitch Set Point:	-0.164	Yaw Set Point:	-0.064	X_WP:	0.000	Y_WP:	0.000	Y_WP:	0.500	X:	0.128	Y:	0.086	Z:	0.401	yaw:	3.649	yaw rate:	6.788	Roll:	4.551	Pitch:	2.498	Yaw:	7.795	Thrust:	38.083
Time:	4.932	Roll Set Point:	-0.262	Pitch Set Point:	-0.164	Yaw Set Point:	-0.064	X_WP:	0.000	Y_WP:	0.000	Y_WP:	0.500	X:	0.128	Y:	0.086	Z:	0.401	yaw:	3.649	yaw rate:	6.788	Roll:	4.460	Pitch:	2.785	Yaw:	6.658	Thrust:	38.152
Time:	4.948	Roll Set Point:	-0.262	Pitch Set Point:	-0.164	Yaw Set Point:	-0.063	X_WP:	0.000	Y_WP:	0.000	Y_WP:	0.500	X:	0.128	Y:	0.086	Z:	0.401	yaw:	3.614	yaw rate:	-3.578	Roll:	4.419	Pitch:	2.983	Yaw:	6.009	Thrust:	38.204
Time:	4.963	Roll Set Point:	-0.262	Pitch Set Point:	-0.164	Yaw Set Point:	-0.063	X_WP:	0.000	Y_WP:	0.000	Y_WP:	0.500	X:	0.128	Y:	0.086	Z:	0.401	yaw:	3.590	yaw rate:	-2.357	Roll:	4.387	Pitch:	2.886	Yaw:	6.180	Thrust:	38.528
Time:	4.979	Roll Set Point:	-0.262	Pitch Set Point:	-0.164	Yaw Set Point:	-0.064	X_WP:	0.000	Y_WP:	0.000	Y_WP:	0.500	X:	0.128	Y:	0.086	Z:	0.401	yaw:	3.650	yaw rate:	6.014	Roll:	4.589	Pitch:	2.532	Yaw:	7.667	Thrust:	38.894
Time:	4.995	Roll Set Point:	-0.262	Pitch Set Point:	-0.164	Yaw Set Point:	-0.063	X_WP:	0.000	Y_WP:	0.000	Y_WP:	0.500	X:	0.128	Y:	0.086	Z:	0.401	yaw:	3.622	yaw rate:	-2.848	Roll:	4.418	Pitch:	2.915	Yaw:	6.144	Thrust:	38.741
Time:	5.049	Roll Set Point:	-0.262	Pitch Set Point:	-0.164	Yaw Set Point:	-0.064	X_WP:	0.000	Y_WP:	0.000	Y_WP:	0.500	X:	0.128	Y:	0.086	Z:	0.401	yaw:	3.651	yaw rate:	1.778	Roll:	5.805	Pitch:	4.059	Yaw:	10.613	Thrust:	100.000
Time:	5.073	Roll Set Point:	-0.262	Pitch Set Point:	-0.164	Yaw Set Point:	-0.064	X_WP:	0.000	Y_WP:	0.000	Y_WP:	0.500	X:	0.128	Y:	0.086	Z:	0.401	yaw:	3.639	yaw rate:	0.079	Roll:	4.853	Pitch:	3.217	Yaw:	7.407	Thrust:	59.592
Time:	5.121	Roll Set Point:	-0.262	Pitch Set Point:	-0.164	Yaw Set Point:	-0.064	X_WP:	0.000	Y_WP:	0.000	Y_WP:	0.500	X:	0.128	Y:	0.086	Z:	0.401	yaw:	3.676	yaw rate:	9.891	Roll:	5.711	Pitch:	3.897	Yaw:	10.100	Thrust:	100.000
Time:	5.137	Roll Set Point:	-0.262	Pitch Set Point:	-0.164	Yaw Set Point:	-0.063	X_WP:	0.000	Y_WP:	0.000	Y_WP:	0.500	X:	0.128	Y:	0.086	Z:	0.401	yaw:	3.596	yaw rate:	-7.921	Roll:	4.336	Pitch:	3.131	Yaw:	5.349	Thrust:	40.453
Time:	5.168	Roll Set Point:	-0.262	Pitch Set Point:	-0.164	Yaw Set Point:	-0.063	X_WP:	0.000	Y_WP:	0.000	Y_WP:	0.500	X:	0.128	Y:	0.086	Z:	0.401	yaw:	3.610	yaw rate:	3.884	Roll:	5.056	Pitch:	3.338	Yaw:	8.283	Thrust:	74.298
Time:	5.187	Roll Set Point:	-0.262	Pitch Set Point:	-0.164	Yaw Set Point:	-0.063	X_WP:	0.000	Y_WP:	0.000	Y_WP:	0.500	X:	0.128	Y:	0.086	Z:	0.401	yaw:	3.610	yaw rate:	3.884	Roll:	4.459	Pitch:	2.917	Yaw:	6.923	Thrust:	45.938
Time:	5.204	Roll Set Point:	-0.262	Pitch Set Point:	-0.164	Yaw Set Point:	-0.063	X_WP:	0.000	Y_WP:	0.000	Y_WP:	0.500	X:	0.128	Y:	0.086	Z:	0.401	yaw:	3.624	yaw rate:	-0.468	Roll:	4.639	Pitch:	2.876	Yaw:	6.945	Thrust:	43.549
Time:	5.219	Roll Set Point:	-0.262	Pitch Set Point:	-0.164	Yaw Set Point:	-0.063	X_WP:	0.000	Y_WP:	0.000	Y_WP:	0.500	X:	0.128	Y:	0.086	Z:	0.401	yaw:	3.624	yaw rate:	-0.468	Roll:	4.459	Pitch:	2.826	Yaw:	6.623	Thrust:	40.379
Time:	5.235	Roll Set Point:	-0.262	Pitch Set Point:	-0.164	Yaw Set Point:	-0.063	X_WP:	0.000	Y_WP:	0.000	Y_WP:	0.500	X:	0.128	Y:	0.086	Z:	0.401	yaw:	3.587	yaw rate:	-0.130	Roll:	4.370	Pitch:	2.905	Yaw:	5.952	Thrust:	40.565
Time:	5.252	Roll Set Point:	-0.262	Pitch Set Point:	-0.164	Yaw Set Point:	-0.064	X_WP:	0.000	Y_WP:	0.000	Y_WP:	0.500	X:	0.128	Y:	0.086	Z:	0.401	yaw:	3.659	yaw rate:	7.130	Roll:	4.665	Pitch:	2.666	Yaw:	7.925	Thrust:	45.155
Time:	5.269	Roll Set Point:	-0.262	Pitch Set Point:	-0.164	Yaw Set Point:	-0.064	X_WP:	0.000	Y_WP:	0.000	Y_WP:	0.500	X:	0.128	Y:	0.086	Z:	0.401	yaw:	3.659	yaw rate:	7.130	Roll:	4.518	Pitch:	2.887	Yaw:	6.822	Thrust:	44.381
Time:	5.285	Roll Set Point:	-0.262	Pitch Set Point:	-0.164	Yaw Set Point:	-0.063	X_WP:	0.000	Y_WP:	0.000	Y_WP:	0.500	X:	0.128	Y:	0.086	Z:	0.401	yaw:	3.624	yaw rate:	1.472	Roll:	4.355	Pitch:	3.088	Yaw:	6.036	Thrust:	40.992
Time:	5.301	Roll Set Point:	-0.262	Pitch Set Point:	-0.164	Yaw Set Point:	-0.063	X_WP:	0.000	Y_WP:	0.000	Y_WP:	0.500	X:	0.128	Y:	0.086	Z:	0.401	yaw:	3.637	yaw rate:	1.366	Roll:	4.507	Pitch:	2.721	Yaw:	6.870	Thrust:	41.435
Time:	5.316	Roll Set Point:	-0.262	Pitch Set Point:	-0.164	Yaw Set Point:	-0.063	X_WP:	0.000	Y_WP:	0.000	Y_WP:	0.500	X:	0.128	Y:	0.086	Z:	0.401	yaw:	3.637	yaw rate:	1.366	Roll:	4.460	Pitch:	2.840	Yaw:	6.641	Thrust:	41.494
Time:	5.332	Roll Set Point:	-0.262	Pitch Set Point:	-0.164	Yaw Set Point:	-0.063	X_WP:	0.000	Y_WP:	0.000	Y_WP:	0.500	X:	0.128	Y:	0.086	Z:	0.401	yaw:	3.588	yaw rate:	-4.418	Roll:	4.387	Pitch:	2.980	Yaw:	5.741	Thrust:	41.619
Time:	5.348	Roll Set Point:	-0.262	Pitch Set Point:	-0.164	Yaw Set Point:	-0.063	X_WP:	0.000	Y_WP:	0.000	Y_WP:	0.500	X:	0.128	Y:	0.086	Z:	0.401	yaw:	3.588	yaw rate:	-4.418	Roll:	4.458	Pitch:	2.843	Yaw:	6.572	Thrust:	41.867
Time:	5.363	Roll Set Point:	-0.262	Pitch Set Point:	-0.164	Yaw Set Point:	-0.063	X_WP:	0.000	Y_WP:	0.000	Y_WP:	0.500	X:	0.128	Y:	0.086	Z:	0.401	yaw:	3.609	yaw rate:	-3.127	Roll:	4.476	Pitch:	2.799	Yaw:	6.962	Thrust:	42.146
Time:	5.379	Roll Set Point:	-0.262	Pitch Set Point:	-0.164	Yaw Set Point:	-0.063	X_WP:	0.000	Y_WP:	0.000	Y_WP:	0.500	X:	0.128	Y:	0.086	Z:	0.401	yaw:	3.612	yaw rate:	0.338	Roll:	4.515	Pitch:	2.749	Yaw:	6.663	Thrust:	42.081
Time:	5.394	Roll Set Point:	-0.262	Pitch Set Point:	-0.164	Yaw Set Point:	-0.063	X_WP:	0.000	Y_WP:	0.000	Y_WP:	0.500	X:	0.128	Y:	0.086	Z:	0.401	yaw:	3.633	yaw rate:	2.097	Roll:	4.451	Pitch:	2.869	Yaw:	6.987	Thrust:	42.476
Time:	5.410	Roll Set Point:	-0.262	Pitch Set Point:	-0.164	Yaw Set Point:	-0.063	X_WP:	0.000	Y_WP:	0.000	Y_WP:	0.500	X:	0.128	Y:	0.086	Z:	0.401	yaw:	3.633	yaw rate:	2.097	Roll:	4.459	Pitch:	2.841	Yaw:	6.636	Thrust:	42.607
Time:	5.426	Roll Set Point:	-0.262	Pitch Set Point:	-0.164	Yaw Set Point:	-0.063	X_WP:	0.000	Y_WP:	0.000	Y_WP:	0.500	X:	0.128	Y:	0.086	Z:	0.401	yaw:	3.608	yaw rate:	2.693	Roll:	4.416	Pitch:	2.891	Yaw:	6.171	Thrust:	42.730
Time:	5.441	Roll Set Point:	-0.262	Pitch Set Point:	-0.164	Yaw Set Point:	-0.063	X_WP:	0.000	Y_WP:	0.000	Y_WP:	0.500	X:	0.128	Y:	0.086	Z:	0.401	yaw:	3.608	yaw rate:	2.693	Roll:	4.458	Pitch:	2.842	Yaw:	6.600	Thrust:	42.984
Time:	5.457	Roll Set Point:	-0.262	Pitch Set Point:	-0.164	Yaw Set Point:	-0.064	X_WP:	0.000	Y_WP:	0.000	Y_WP:	0.500	X:	0.128	Y:	0.086	Z:	0.401	yaw:	3.648	yaw rate:	3.996	Roll:	4.540	Pitch:	2.698	Yaw:	7.325	Thrust:	43.209
Time:	5.473	Roll Set Point:	-0.262	Pitch Set Point:	-0.164	Yaw Set Point:	-0.063	X_WP:	0.000	Y_WP:	0.000	Y_WP:	0.500	X:	0.128	Y:	0.086	Z:	0.401	yaw:	3.626	yaw rate:	-2.205	Roll:	4.376	Pitch:	3.008	Yaw:	6.256	Thrust:	43.353
Time:	5.488	Roll Set Point:	-0.262	Pitch Set Point:	-0.164	Yaw Set Point:	-0.063	X_WP:	0.000	Y_WP:	0.000	Y_WP:	0.500	X:	0.128	Y:	0.086	Z:	0.401	yaw:	3.626	yaw rate:	-2.205	Roll:	4.458	Pitch:	2.843	Yaw:	6.625	Thrust:	43.540
Time:	5.504	Roll Set Point:	-0.262	Pitch Set Point:	-0.164	Yaw Set Point:	-0.062	X_WP:	0.000	Y_WP:	0.000	Y_WP:	0.500	X:	0.128	Y:	0.086	Z:	0.401	yaw:	3.578	yaw rate:	-4.801	Roll:	4.405	Pitch:	2.887	Yaw:	5.754	Thrust:	43.703
Time:	5.519	Roll Set Point:	-0.262	Pitch Set Point:	-0.164	Yaw Set Point:	-0.062	X_WP:	0.000	Y_WP:	0.000	Y_WP:	0.500	X:	0.128	Y:	0.086	Z:	0.401	yaw:	3.578	yaw rate:	-4.801	Roll:	4.457	Pitch:	2.844	Yaw:	6.558	Thrust:	43.910
Time:	5.536	Roll Set Point:	-0.262	Pitch Set Point:	-0.164	Yaw Set Point:	-0.063	X_WP:	0.000	Y_WP:	0.000	Y_WP:	0.500	X:	0.128	Y:	0.086	Z:	0.401	yaw:	3.633	yaw rate:	5.522	Roll:	4.582	Pitch:	2.729	Yaw:	7.581	Thrust:	45.372
Time:	5.550	Roll Set Point:	-0.262	Pitch Set Point:	-0.164	Yaw Set Point:	-0.063	X_WP:	0.000	Y_WP:	0.000	Y_WP:	0.500	X:	0.128	Y:	0.086	Z:	0.401	yaw:	3.609	yaw rate:	-2.394	Roll:	4.324	Pitch:	2.927	Yaw:	5.996	Thrust:	40.258
Time:	5.573	Roll Set Point:	-0.262	Pitch Set Point:	-0.164	Yaw Set Point:	-0.063	X_WP:	0.000	Y_WP:	0.000	Y_WP:	0.500	X:	0.128	Y:	0.086	Z:	0.401	yaw:	3.597	yaw rate:	-2.398	Roll:	4.765	Pitch:	3.109	Yaw:	7.257	Thrust:	64.674
Time:	5.589	Roll Set Point:	-0.262	Pitch Set Point:	-0.164	Yaw Set Point:	-0.063	X_WP:	0.000	Y_WP:	0.000	Y_WP:	0.500	X:	0.128	Y:	0.086	Z:	0.401	yaw:	3.592	yaw rate:	-0.419	Roll:	4.466	Pitch:	2.880	Yaw:	6.508	Thrust:	44.599
Time:	5.605	Roll Set Point:	-0.262	Pitch Set Point:	-0.164	Yaw Set Point:	-0.063	X_WP:	0.000	Y_WP:	0.000	Y_WP:	0.500	X:	0.128	Y:	0.086	Z:	0.401	yaw:	3.599	yaw rate:	0.620	Roll:	4.439	Pitch:	2.845	Yaw:	6.691	Thrust:	44.905
Time:	5.620	Roll Set Point:	-0.262	Pitch Set Point:	-0.164	Yaw Set Point:	-0.064	X_WP:	0.000	Y_WP:	0.000	Y_WP:	0.500	X:	0.128	Y:	0.086	Z:	0.401	yaw:	3.672	yaw rate:	7.378	Roll:	4.610	Pitch:	2.594	Yaw:	7.926	Thrust:	45.011
Time:	5.636	Roll Set Point:	-0.262	Pitch Set Point:	-0.164	Yaw Set Point:	-0.064	X_WP:	0.000	Y_WP:	0.000	Y_WP:	0.500	X:	0.128	Y:	0.086	Z:	0.401	yaw:	3.652	yaw rate:	-2.014	Roll:	4.412	Pitch:	2.940	Yaw:	6.325	Thrust:	45.262
Time:	5.651	Roll Set Point:	-0.262	Pitch Set Point:	-0.164	Yaw Set Point:	-0.063	X_WP:	0.000	Y_WP:	0.000	Y_WP:	0.500	X:	0.128	Y:	0.086	Z:	0.401	yaw:	3.608	yaw rate:	-4.416	Roll:	4.400	Pitch:	2.933	Yaw:	5.861	Thrust:	45.381
Time:	5.667	Roll Set Point:	-0.262	Pitch Set Point:	-0.164	Yaw Set Point:	-0.063	X_WP:	0.000	Y_WP:	0.000	Y_WP:	0.500	X:	0.128	Y:	0.086	Z:	0.401	yaw:	3.608	yaw rate:	-4.416	Roll:	4.459	Pitch:	2.842	Yaw:	6.600	Thrust:	45.582
Time:	5.683	Roll Set Point:	-0.262	Pitch Set Point:	-0.164	Yaw Set Point:	-0.063	X_WP:	0.000	Y_WP:	0.000	Y_WP:	0.500	X:	0.128	Y:	0.086	Z:	0.401	yaw:	3.606	yaw rate:	-0.206	Roll:	4.423	Pitch:	2.891	Yaw:	6.563	Thrust:	45.737
Time:	5.698	Roll Set Point:	-0.262	Pitch Set Point:	-0.164	Yaw Set Point:	-0.064	X_WP:	0.000	Y_WP:	0.000	Y_WP:	0.500	X:	0.128	Y:	0.086	Z:	0.401	yaw:	3.639	yaw rate:	1.326	Roll:	4.529	Pitch:	2.722	Yaw:	7.201	Thrust:	45.949
Time:	5.714	Roll Set Point:	-0.262	Pitch Set Point:	-0.164	Yaw Set Point:	-0.064	X_WP:	0.000	Y_WP:	0.000	Y_WP:	0.500	X:	0.128	Y:	0.086	Z:	0.401	yaw:	3.639	yaw rate:	1.326	Roll:	4.460	Pitch:	2.840	Yaw:	6.644	Thrust:	46.143
Time:	5.730	Roll Set Point:	-0.262	Pitch Set Point:	-0.164	Yaw Set Point:	-0.063	X_WP:	0.000	Y_WP:	0.000	Y_WP:	0.500	X:	0.128	Y:	0.086	Z:	0.401	yaw:	3.593	yaw rate:	-4.632	Roll:	4.399	Pitch:	2.962	Yaw:	5.803	Thrust:	46.275
Time:	5.745	Roll Set Point:	-0.262	Pitch Set Point:	-0.164	Yaw Set Point:	-0.063	X_WP:	0.000	Y_WP:	0.000	Y_WP:	0.500	X:	0.128	Y:	0.086	Z:	0.401	yaw:	3.599	yaw rate:	0.614	Roll:	4.482	Pitch:	2.835	Yaw:	6.691	Thrust:	46.540
Time:	5.761	Roll Set Point:	-0.262	Pitch Set Point:	-0.164	Yaw Set Point:	-0.063	X_WP:	0.000	Y_WP:	0.000	Y_WP:	0.500	X:	0.128	Y:	0.086	Z:	0.401	yaw:	3.599	yaw rate:	0.614	Roll:	4.459	Pitch:	2.843	Yaw:	6.588	Thrust:	46.699
Time:	5.777	Roll Set Point:	-0.262	Pitch Set Point:	-0.164	Yaw Set Point:	-0.064	X_WP:	0.000	Y_WP:	0.000	Y_WP:	0.500	X:	0.128	Y:	0.086	Z:	0.401	yaw:	3.647	yaw rate:	1.740	Roll:	4.483	Pitch:	2.729	Yaw:	7.458	Thrust:	47.003
Time:	5.792	Roll Set Point:	-0.262	Pitch Set Point:	-0.164	Yaw Set Point:	-0.064	X_WP:	0.000	Y_WP:	0.000	Y_WP:	0.500	X:	0.128	Y:	0.086	Z:	0.401	yaw:	3.658	yaw rate:	1.127	Roll:	4.518	Pitch:	2.786	Yaw:	6.859	Thrust:	47.074
Time:	5.808	Roll Set Point:	-0.262	Pitch Set Point:	-0.164	Yaw Set Point:	-0.062	X_WP:	0.000	Y_WP:	0.000	Y_WP:	0.500	X:	0.128	Y:	0.086	Z:	0.401	yaw:	3.570	yaw rate:	-8.822	Roll:	4.274	Pitch:	3.115	Yaw:	5.070	Thrust:	47.125
Time:	5.823	Roll Set Point:	-0.262	Pitch Set Point:	-0.164	Yaw Set Point:	-0.063	X_WP:	0.000	Y_WP:	0.000	Y_WP:	0.500	X:	0.128	Y:	0.086	Z:	0.401	yaw:	3.628	yaw rate:	5.828	Roll:	4.602	Pitch:	2.618	Yaw:	7.605	Thrust:	47.396
Time:	5.839	Roll Set Point:	-0.262	Pitch Set Point:	-0.164	Yaw Set Point:	-0.063	X_WP:	0.000	Y_WP:	0.000	Y_WP:	0.500	X:	0.128	Y:	0.086	Z:	0.401	yaw:	3.628	yaw rate:	5.828	Roll:	4.460	Pitch:	2.840	Yaw:	6.629	Thrust:	47.627
Time:	5.855	Roll Set Point:	-0.262	Pitch Set Point:	-0.164	Yaw Set Point:	-0.063	X_WP:	0.000	Y_WP:	0.000	Y_WP:	0.500	X:	0.128	Y:	0.086	Z:	0.401	yaw:	3.605	yaw rate:	-2.318	Roll:	4.419	Pitch:	2.909	Yaw:	6.208	Thrust:	47.837
Time:	5.870	Roll Set Point:	-0.262	Pitch Set Point:	-0.164	Yaw Set Point:	-0.063	X_WP:	0.000	Y_WP:	0.000	Y_WP:	0.500	X:	0.128	Y:	0.086	Z:	0.401	yaw:	3.605	yaw rate:	-2.318	Roll:	4.459	Pitch:	2.842	Yaw:	6.596	Thrust:	47.995
Time:	5.886	Roll Set Point:	-0.262	Pitch Set Point:	-0.164	Yaw Set Point:	-0.063	X_WP:	0.000	Y_WP:	0.000	Y_WP:	0.500	X:	0.128	Y:	0.086	Z:	0.401	yaw:	3.597	yaw rate:	-0.848	Roll:	4.415	Pitch:	2.919	Yaw:	6.442	Thrust:	48.148
Time:	5.902	Roll Set Point:	-0.262	Pitch Set Point:	-0.164	Yaw Set Point:	-0.063	X_WP:	0.000	Y_WP:	0.000	Y_WP:	0.500	X:	0.128	Y:	0.086	Z:	0.401	yaw:	3.597	yaw rate:	-0.848	Roll:	4.458	Pitch:	2.844	Yaw:	6.585	Thrust:	48.369
Time:	5.917	Roll Set Point:	-0.262	Pitch Set Point:	-0.164	Yaw Set Point:	-0.063	X_WP:	0.000	Y_WP:	0.000	Y_WP:	0.500	X:	0.128	Y:	0.086	Z:	0.401	yaw:	3.635	yaw rate:	3.791	Roll:	4.534	Pitch:	2.674	Yaw:	7.273	Thrust:	48.795
Time:	5.933	Roll Set Point:	-0.262	Pitch Set Point:	-0.164	Yaw Set Point:	-0.063	X_WP:	0.000	Y_WP:	0.000	Y_WP:	0.500	X:	0.128	Y:	0.086	Z:	0.401	yaw:	3.635	yaw rate:	3.791	Roll:	4.460	Pitch:	2.840	Yaw:	6.638	Thrust:	48.762
Time:	5.948	Roll Set Point:	-0.262	Pitch Set Point:	-0.164	Yaw Set Point:	-0.063	X_WP:	0.000	Y_WP:	0.000	Y_WP:	0.500	X:	0.128	Y:	0.086	Z:	0.401	yaw:	3.631	yaw rate:	-0.313	Roll:	4.460	Pitch:	2.888	Yaw:	6.580	Thrust:	48.743
Time:	5.964	Roll Set Point:	-0.262	Pitch Set Point:	-0.164	Yaw Set Point:	-0.064	X_WP:	0.000	Y_WP:	0.000	Y_WP:	0.500	X:	0.128	Y:	0.086	Z:	0.401	yaw:	3.653	yaw rate:	9.314	Roll:	4.493	Pitch:	2.742	Yaw:	7.025	Thrust:	49.109
Time:	5.980	Roll Set Point:	-0.262	Pitch Set Point:	-0.164	Yaw Set Point:	-0.063	X_WP:	0.000	Y_WP:	0.000	Y_WP:	0.500	X:	0.128	Y:	0.086	Z:	0.401	yaw:	3.618	yaw rate:	-3.456	Roll:	4.404	Pitch:	2.883	Yaw:	6.036	Thrust:	49.401
Time:	5.995	Roll Set Point:	-0.262	Pitch Set Point:	-0.164	Yaw Set Point:	-0.063	X_WP:	0.000	Y_WP:	0.000	Y_WP:	0.500	X:	0.128	Y:	0.086	Z:	0.401	yaw:	3.599	yaw rate:	-1.990	Roll:	4.413	Pitch:	2.995	Yaw:	6.254	Thrust:	49.376
Time:	6.011	Roll Set Point:	-0.129	Pitch Set Point:	-0.024	Yaw Set Point:	-0.063	X_WP:	0.124	Y_WP:	0.148	Y_WP:	0.500	X:	0.128	Y:	0.086	Z:	0.401	yaw:	3.623	yaw rate:	2.424	Roll:	-30.000	Pitch:	-30.000	Yaw:	7.027	Thrust:	49.744
Time:	6.027	Roll Set Point:	-0.129	Pitch Set Point:	-0.024	Yaw Set Point:	-0.063	X_WP:	0.124	Y_WP:	0.148	Y_WP:	0.500	X:	0.128	Y:	0.086	Z:	0.401	yaw:	3.598	yaw rate:	-2.490	Roll:	0.609	Pitch:	-1.222	Yaw:	6.169	Thrust:	49.693
Time:	6.042	Roll Set Point:	-0.129	Pitch Set Point:	-0.024	Yaw Set Point:	-0.063	X_WP:	0.124	Y_WP:	0.148	Y_WP:	0.500	X:	0.128	Y:	0.086	Z:	0.401	yaw:	3.613	yaw rate:	1.475	Roll:	0.560	Pitch:	-1.232	Yaw:	6.854	Thrust:	50.252
Time:	6.058	Roll Set Point:	-0.129	Pitch Set Point:	-0.024	Yaw Set Point:	-0.063	X_WP:	0.124	Y_WP:	0.148	Y_WP:	0.500	X:	0.128	Y:	0.086	Z:	0.401	yaw:	3.631	yaw rate:	1.801	Roll:	0.564	Pitch:	-1.231	Yaw:	6.934	Thrust:	50.117
Time:	6.073	Roll Set Point:	-0.129	Pitch Set Point:	-0.024	Yaw Set Point:	-0.063	X_WP:	0.124	Y_WP:	0.148	Y_WP:	0.500	X:	0.128	Y:	0.086	Z:	0.401	yaw:	3.584	yaw rate:	-4.636	Roll:	0.728	Pitch:	-1.225	Yaw:	5.790	Thrust:	50.338
Time:	6.089	Roll Set Point:	-0.129	Pitch Set Point:	-0.024	Yaw Set Point:	-0.063	X_WP:	0.124	Y_WP:	0.148	Y_WP:	0.500	X:	0.128	Y:	0.086	Z:	0.401	yaw:	3.584	yaw rate:	-4.636	Roll:	0.602	Pitch:	-1.235	Yaw:	6.567	Thrust:	50.599
Time:	6.105	Roll Set Point:	-0.129	Pitch Set Point:	-0.024	Yaw Set Point:	-0.064	X_WP:	0.124	Y_WP:	0.148	Y_WP:	0.500	X:	0.128	Y:	0.086	Z:	0.401	yaw:	3.669	yaw rate:	6.580	Roll:	0.419	Pitch:	-1.242	Yaw:	8.111	Thrust:	51.063
Time:	6.120	Roll Set Point:	-0.129	Pitch Set Point:	-0.024	Yaw Set Point:	-0.063	X_WP:	0.124	Y_WP:	0.148	Y_WP:	0.500	X:	0.128	Y:	0.086	Z:	0.401	yaw:	3.632	yaw rate:	-3.751	Roll:	0.712	Pitch:	-1.236	Yaw:	6.005	Thrust:	50.803
Time:	6.136	Roll Set Point:	-0.129	Pitch Set Point:	-0.024	Yaw Set Point:	-0.063	X_WP:	0.124	Y_WP:	0.148	Y_WP:	0.500	X:	0.128	Y:	0.086	Z:	0.401	yaw:	3.632	yaw rate:	-3.751	Roll:	0.600	Pitch:	-1.243	Yaw:	6.633	Thrust:	51.141
Time:	6.152	Roll Set Point:	-0.129	Pitch Set Point:	-0.024	Yaw Set Point:	-0.063	X_WP:	0.124	Y_WP:	0.148	Y_WP:	0.500	X:	0.128	Y:	0.086	Z:	0.401	yaw:	3.612	yaw rate:	-0.650	Roll:	0.624	Pitch:	-1.246	Yaw:	6.269	Thrust:	51.438
Time:	6.167	Roll Set Point:	-0.129	Pitch Set Point:	-0.024	Yaw Set Point:	-0.063	X_WP:	0.124	Y_WP:	0.148	Y_WP:	0.500	X:	0.128	Y:	0.086	Z:	0.401	yaw:	3.612	yaw rate:	-0.650	Roll:	0.601	Pitch:	-1.247	Yaw:	6.606	Thrust:	51.527
Time:	6.183	Roll Set Point:	-0.129	Pitch Set Point:	-0.024	Yaw Set Point:	-0.063	X_WP:	0.124	Y_WP:	0.148	Y_WP:	0.500	X:	0.128	Y:	0.086	Z:	0.401	yaw:	3.622	yaw rate:	1.053	Roll:	0.536	Pitch:	-1.249	Yaw:	6.797	Thrust:	51.649
Time:	6.198	Roll Set Point:	-0.129	Pitch Set Point:	-0.024	Yaw Set Point:	-0.063	X_WP:	0.124	Y_WP:	0.148	Y_WP:	0.500	X:	0.128	Y:	0.086	Z:	0.401	yaw:	3.622	yaw rate:	1.053	Roll:	0.621	Pitch:	-1.252	Yaw:	6.620	Thrust:	51.900
Time:	6.214	Roll Set Point:	-0.129	Pitch Set Point:	-0.024	Yaw Set Point:	-0.063	X_WP:	0.124	Y_WP:	0.148	Y_WP:	0.500	X:	0.128	Y:	0.086	Z:	0.401	yaw:	3.600	yaw rate:	-1.888	Roll:	0.663	Pitch:	-1.260	Yaw:	6.217	Thrust:	52.096
Time:	6.230	Roll Set Point:	-0.129	Pitch Set Point:	-0.024	Yaw Set Point:	-0.064	X_WP:	0.124	Y_WP:	0.148	Y_WP:	0.500	X:	0.128	Y:	0.086	Z:	0.401	yaw:	3.658	yaw rate:	5.764	Roll:	0.454	Pitch:	-1.252	Yaw:	7.635	Thrust:	52.329
Time:	6.245	Roll Set Point:	-0.129	Pitch Set Point:	-0.024	Yaw Set Point:	-0.063	X_WP:	0.124	Y_WP:	0.148	Y_WP:	0.500	X:	0.128	Y:	0.086	Z:	0.401	yaw:	3.622	yaw rate:	-3.620	Roll:	0.683	Pitch:	-1.261	Yaw:	6.013	Thrust:	52.423
Time:	6.261	Roll Set Point:	-0.129	Pitch Set Point:	-0.024	Yaw Set Point:	-0.063	X_WP:	0.124	Y_WP:	0.148	Y_WP:	0.500	X:	0.128	Y:	0.086	Z:	0.401	yaw:	3.601	yaw rate:	-2.057	Roll:	0.675	Pitch:	-1.262	Yaw:	6.250	Thrust:	52.642
Time:	6.277	Roll Set Point:	-0.129	Pitch Set Point:	-0.024	Yaw Set Point:	-0.063	X_WP:	0.124	Y_WP:	0.148	Y_WP:	0.500	X:	0.128	Y:	0.086	Z:	0.401	yaw:	3.619	yaw rate:	1.831	Roll:	0.559	Pitch:	-1.266	Yaw:	6.923	Thrust:	52.854
Time:	6.292	Roll Set Point:	-0.129	Pitch Set Point:	-0.024	Yaw Set Point:	-0.063	X_WP:	0.124	Y_WP:	0.148	Y_WP:	0.500	X:	0.128	Y:	0.086	Z:	0.401	yaw:	3.609	yaw rate:	-1.026	Roll:	0.578	Pitch:	-1.270	Yaw:	6.427	Thrust:	52.984
Time:	6.308	Roll Set Point:	-0.129	Pitch Set Point:	-0.024	Yaw Set Point:	-0.064	X_WP:	0.124	Y_WP:	0.148	Y_WP:	0.500	X:	0.128	Y:	0.086	Z:	0.401	yaw:	3.654	yaw rate:	4.479	Roll:	0.524	Pitch:	-1.268	Yaw:	7.415	Thrust:	53.205
Time:	6.323	Roll Set Point:	-0.129	Pitch Set Point:	-0.024	Yaw Set Point:	-0.062	X_WP:	0.124	Y_WP:	0.148	Y_WP:	0.500	X:	0.128	Y:	0.086	Z:	0.401	yaw:	3.567	yaw rate:	-8.643	Roll:	0.730	Pitch:	-1.269	Yaw:	5.096	Thrust:	53.267
Time:	6.339	Roll Set Point:	-0.129	Pitch Set Point:	-0.024	Yaw Set Point:	-0.064	X_WP:	0.124	Y_WP:	0.148	Y_WP:	0.500	X:	0.128	Y:	0.086	Z:	0.401	yaw:	3.646	yaw rate:	7.878	Roll:	0.528	Pitch:	-1.276	Yaw:	7.974	Thrust:	53.700
Time:	6.355	Roll Set Point:	-0.129	Pitch Set Point:	-0.024	Yaw Set Point:	-0.063	X_WP:	0.124	Y_WP:	0.148	Y_WP:	0.500	X:	0.128	Y:	0.086	Z:	0.401	yaw:	3.618	yaw rate:	-2.795	Roll:	0.624	Pitch:	-1.277	Yaw:	6.146	Thrust:	53.889
Time:	6.370	Roll Set Point:	-0.129	Pitch Set Point:	-0.024	Yaw Set Point:	-0.063	X_WP:	0.124	Y_WP:	0.148	Y_WP:	0.500	X:	0.128	Y:	0.086	Z:	0.401	yaw:	3.622	yaw rate:	0.354	Roll:	0.550	Pitch:	-1.276	Yaw:	6.676	Thrust:	53.816
Time:	6.386	Roll Set Point:	-0.129	Pitch Set Point:	-0.024	Yaw Set Point:	-0.063	X_WP:	0.124	Y_WP:	0.148	Y_WP:	0.500	X:	0.128	Y:	0.086	Z:	0.401	yaw:	3.613	yaw rate:	-0.849	Roll:	0.684	Pitch:	-1.279	Yaw:	6.465	Thrust:	54.115
Time:	6.402	Roll Set Point:	-0.129	Pitch Set Point:	-0.024	Yaw Set Point:	-0.063	X_WP:	0.124	Y_WP:	0.148	Y_WP:	0.500	X:	0.128	Y:	0.086	Z:	0.401	yaw:	3.617	yaw rate:	0.384	Roll:	0.542	Pitch:	-1.287	Yaw:	6.677	Thrust:	54.263
Time:	6.417	Roll Set Point:	-0.129	Pitch Set Point:	-0.024	Yaw Set Point:	-0.063	X_WP:	0.124	Y_WP:	0.148	Y_WP:	0.500	X:	0.128	Y:	0.086	Z:	0.401	yaw:	3.617	yaw rate:	0.384	Roll:	0.600	Pitch:	-1.286	Yaw:	6.613	Thrust:	54.503
Time:	6.433	Roll Set Point:	-0.129	Pitch Set Point:	-0.024	Yaw Set Point:	-0.063	X_WP:	0.124	Y_WP:	0.148	Y_WP:	0.500	X:	0.128	Y:	0.086	Z:	0.401	yaw:	3.587	yaw rate:	-3.962	Roll:	0.637	Pitch:	-1.291	Yaw:	6.059	Thrust:	54.600
Time:	6.448	Roll Set Point:	-0.129	Pitch Set Point:	-0.024	Yaw Set Point:	-0.063	X_WP:	0.124	Y_WP:	0.148	Y_WP:	0.500	X:	0.128	Y:	0.086	Z:	0.401	yaw:	3.633	yaw rate:	4.656	Roll:	0.550	Pitch:	-1.294	Yaw:	7.415	Thrust:	55.095
Time:	6.464	Roll Set Point:	-0.129	Pitch Set Point:	-0.024	Yaw Set Point:	-0.062	X_WP:	0.124	Y_WP:	0.148	Y_WP:	0.500	X:	0.128	Y:	0.086	Z:	0.401	yaw:	3.578	yaw rate:	-5.549	Roll:	0.659	Pitch:	-1.293	Yaw:	5.628	Thrust:	54.795
Time:	6.480	Roll Set Point:	-0.129	Pitch Set Point:	-0.024	Yaw Set Point:	-0.063	X_WP:	0.124	Y_WP:	0.148	Y_WP:	0.500	X:	0.128	Y:	0.086	Z:	0.401	yaw:	3.633	yaw rate:	5.550	Roll:	0.544	Pitch:	-1.295	Yaw:	7.565	Thrust:	55.379
