Time:	2.051	Roll Set Point:	0.076	Pitch Set Point:	-0.070	Yaw Set Point:	0.056	X_WP:	0.100	Y_WP:	0.000	Y_WP:	0.500	X:	0.013	Y:	0.037	Z:	0.058	yaw:	-3.208	yaw rate:	-0.486	Roll:	-2.573	Pitch:	0.938	Yaw:	-4.479	Thrust:	24.293
Time:	2.063	Roll Set Point:	0.076	Pitch Set Point:	-0.070	Yaw Set Point:	0.056	X_WP:	0.100	Y_WP:	0.000	Y_WP:	0.500	X:	0.013	Y:	0.037	Z:	0.058	yaw:	-3.201	yaw rate:	0.260	Roll:	-2.578	Pitch:	0.924	Yaw:	-4.326	Thrust:	24.669
Time:	2.077	Roll Set Point:	0.076	Pitch Set Point:	-0.070	Yaw Set Point:	0.056	X_WP:	0.100	Y_WP:	0.000	Y_WP:	0.500	X:	0.013	Y:	0.037	Z:	0.058	yaw:	-3.199	yaw rate:	0.153	Roll:	-2.588	Pitch:	0.957	Yaw:	-4.468	Thrust:	25.854
Time:	2.091	Roll Set Point:	0.075	Pitch Set Point:	-0.070	Yaw Set Point:	0.056	X_WP:	0.100	Y_WP:	0.000	Y_WP:	0.500	X:	0.013	Y:	0.037	Z:	0.058	yaw:	-3.194	yaw rate:	0.518	Roll:	-2.557	Pitch:	0.954	Yaw:	-4.420	Thrust:	26.556
Time:	2.109	Roll Set Point:	0.076	Pitch Set Point:	-0.070	Yaw Set Point:	0.056	X_WP:	0.100	Y_WP:	0.000	Y_WP:	0.500	X:	0.013	Y:	0.037	Z:	0.058	yaw:	-3.210	yaw rate:	-1.568	Roll:	-2.602	Pitch:	0.923	Yaw:	-4.799	Thrust:	28.045
Time:	2.120	Roll Set Point:	0.075	Pitch Set Point:	-0.070	Yaw Set Point:	0.056	X_WP:	0.100	Y_WP:	0.000	Y_WP:	0.500	X:	0.013	Y:	0.037	Z:	0.058	yaw:	-3.231	yaw rate:	-4.884	Roll:	-2.589	Pitch:	0.909	Yaw:	-5.064	Thrust:	27.069
Time:	2.131	Roll Set Point:	0.076	Pitch Set Point:	-0.070	Yaw Set Point:	0.056	X_WP:	0.100	Y_WP:	0.000	Y_WP:	0.500	X:	0.013	Y:	0.037	Z:	0.058	yaw:	-3.214	yaw rate:	1.731	Roll:	-2.598	Pitch:	0.973	Yaw:	-4.153	Thrust:	28.072
Time:	2.149	Roll Set Point:	0.076	Pitch Set Point:	-0.070	Yaw Set Point:	0.057	X_WP:	0.100	Y_WP:	0.000	Y_WP:	0.500	X:	0.013	Y:	0.037	Z:	0.058	yaw:	-3.257	yaw rate:	-4.264	Roll:	-2.743	Pitch:	0.859	Yaw:	-5.336	Thrust:	30.394
Time:	2.163	Roll Set Point:	0.075	Pitch Set Point:	-0.069	Yaw Set Point:	0.059	X_WP:	0.100	Y_WP:	0.000	Y_WP:	0.500	X:	0.013	Y:	0.037	Z:	0.058	yaw:	-3.397	yaw rate:	-18.426	Roll:	-2.550	Pitch:	0.715	Yaw:	-7.313	Thrust:	30.730
Time:	2.182	Roll Set Point:	0.076	Pitch Set Point:	-0.069	Yaw Set Point:	0.056	X_WP:	0.100	Y_WP:	0.000	Y_WP:	0.500	X:	0.013	Y:	0.037	Z:	0.058	yaw:	-3.231	yaw rate:	16.532	Roll:	-2.565	Pitch:	1.212	Yaw:	-2.438	Thrust:	33.051
Time:	2.196	Roll Set Point:	0.075	Pitch Set Point:	-0.069	Yaw Set Point:	0.059	X_WP:	0.100	Y_WP:	0.000	Y_WP:	0.500	X:	0.013	Y:	0.037	Z:	0.058	yaw:	-3.360	yaw rate:	4.248	Roll:	-2.604	Pitch:	0.669	Yaw:	-7.227	Thrust:	31.895
Time:	2.213	Roll Set Point:	0.075	Pitch Set Point:	-0.069	Yaw Set Point:	0.056	X_WP:	0.100	Y_WP:	0.000	Y_WP:	0.500	X:	0.013	Y:	0.037	Z:	0.058	yaw:	-3.232	yaw rate:	12.780	Roll:	-2.590	Pitch:	1.101	Yaw:	-2.700	Thrust:	34.005
Time:	2.224	Roll Set Point:	0.075	Pitch Set Point:	-0.069	Yaw Set Point:	0.056	X_WP:	0.100	Y_WP:	0.000	Y_WP:	0.500	X:	0.013	Y:	0.037	Z:	0.058	yaw:	-3.233	yaw rate:	-0.083	Roll:	-2.598	Pitch:	1.057	Yaw:	-4.689	Thrust:	31.824
Time:	2.235	Roll Set Point:	0.076	Pitch Set Point:	-0.069	Yaw Set Point:	0.056	X_WP:	0.100	Y_WP:	0.000	Y_WP:	0.500	X:	0.013	Y:	0.037	Z:	0.058	yaw:	-3.219	yaw rate:	1.373	Roll:	-2.656	Pitch:	0.913	Yaw:	-4.331	Thrust:	32.190
Time:	2.252	Roll Set Point:	0.075	Pitch Set Point:	-0.069	Yaw Set Point:	0.056	X_WP:	0.100	Y_WP:	0.000	Y_WP:	0.500	X:	0.013	Y:	0.037	Z:	0.058	yaw:	-3.229	yaw rate:	-0.956	Roll:	-2.606	Pitch:	0.947	Yaw:	-4.922	Thrust:	36.331
Time:	2.267	Roll Set Point:	0.075	Pitch Set Point:	-0.069	Yaw Set Point:	0.056	X_WP:	0.100	Y_WP:	0.000	Y_WP:	0.500	X:	0.013	Y:	0.037	Z:	0.058	yaw:	-3.217	yaw rate:	-18.492	Roll:	-2.598	Pitch:	0.907	Yaw:	-4.534	Thrust:	36.108
Time:	2.277	Roll Set Point:	0.075	Pitch Set Point:	-0.069	Yaw Set Point:	0.056	X_WP:	0.100	Y_WP:	0.000	Y_WP:	0.500	X:	0.013	Y:	0.037	Z:	0.058	yaw:	-3.186	yaw rate:	3.114	Roll:	-2.496	Pitch:	0.973	Yaw:	-3.866	Thrust:	33.301
Time:	2.288	Roll Set Point:	0.075	Pitch Set Point:	-0.069	Yaw Set Point:	0.055	X_WP:	0.100	Y_WP:	0.000	Y_WP:	0.500	X:	0.013	Y:	0.037	Z:	0.058	yaw:	-3.179	yaw rate:	0.695	Roll:	-2.684	Pitch:	0.987	Yaw:	-4.486	Thrust:	33.894
Time:	2.299	Roll Set Point:	0.075	Pitch Set Point:	-0.069	Yaw Set Point:	0.055	X_WP:	0.100	Y_WP:	0.000	Y_WP:	0.500	X:	0.013	Y:	0.037	Z:	0.059	yaw:	-3.135	yaw rate:	4.381	Roll:	-2.463	Pitch:	0.878	Yaw:	-3.502	Thrust:	34.196
Time:	2.314	Roll Set Point:	0.075	Pitch Set Point:	-0.070	Yaw Set Point:	0.051	X_WP:	0.100	Y_WP:	0.000	Y_WP:	0.500	X:	0.013	Y:	0.037	Z:	0.058	yaw:	-2.939	yaw rate:	19.632	Roll:	-2.429	Pitch:	1.607	Yaw:	-0.882	Thrust:	38.563
Time:	2.324	Roll Set Point:	0.075	Pitch Set Point:	-0.069	Yaw Set Point:	0.055	X_WP:	0.100	Y_WP:	0.000	Y_WP:	0.500	X:	0.013	Y:	0.037	Z:	0.058	yaw:	-3.139	yaw rate:	-19.993	Roll:	-2.912	Pitch:	0.264	Yaw:	-9.583	Thrust:	36.653
Time:	2.338	Roll Set Point:	0.075	Pitch Set Point:	-0.070	Yaw Set Point:	0.052	X_WP:	0.100	Y_WP:	0.000	Y_WP:	0.500	X:	0.013	Y:	0.037	Z:	0.058	yaw:	-2.968	yaw rate:	8.131	Roll:	-2.427	Pitch:	1.430	Yaw:	-1.296	Thrust:	39.851
Time:	2.351	Roll Set Point:	0.075	Pitch Set Point:	-0.069	Yaw Set Point:	0.054	X_WP:	0.100	Y_WP:	0.000	Y_WP:	0.500	X:	0.013	Y:	0.037	Z:	0.058	yaw:	-3.099	yaw rate:	-13.054	Roll:	-2.747	Pitch:	0.547	Yaw:	-7.268	Thrust:	39.344
Time:	2.369	Roll Set Point:	0.075	Pitch Set Point:	-0.070	Yaw Set Point:	0.049	X_WP:	0.100	Y_WP:	0.000	Y_WP:	0.500	X:	0.013	Y:	0.037	Z:	0.059	yaw:	-2.807	yaw rate:	29.180	Roll:	-2.392	Pitch:	1.637	Yaw:	0.272	Thrust:	44.259
Time:	2.380	Roll Set Point:	0.075	Pitch Set Point:	-0.069	Yaw Set Point:	0.055	X_WP:	0.100	Y_WP:	0.000	Y_WP:	0.500	X:	0.013	Y:	0.037	Z:	0.059	yaw:	-3.170	yaw rate:	-36.295	Roll:	-2.859	Pitch:	-0.221	Yaw:	-12.340	Thrust:	39.491
Time:	2.391	Roll Set Point:	0.075	Pitch Set Point:	-0.070	Yaw Set Point:	0.048	X_WP:	0.100	Y_WP:	0.000	Y_WP:	0.500	X:	0.013	Y:	0.037	Z:	0.059	yaw:	-2.732	yaw rate:	19.366	Roll:	-2.265	Pitch:	2.241	Yaw:	6.282	Thrust:	39.461
Time:	2.402	Roll Set Point:	0.075	Pitch Set Point:	-0.070	Yaw Set Point:	0.048	X_WP:	0.100	Y_WP:	0.000	Y_WP:	0.500	X:	0.013	Y:	0.037	Z:	0.059	yaw:	-2.732	yaw rate:	19.366	Roll:	-2.618	Pitch:	0.976	Yaw:	-4.131	Thrust:	38.788
Time:	2.415	Roll Set Point:	0.075	Pitch Set Point:	-0.070	Yaw Set Point:	0.047	X_WP:	0.100	Y_WP:	0.000	Y_WP:	0.500	X:	0.013	Y:	0.037	Z:	0.059	yaw:	-2.711	yaw rate:	2.102	Roll:	-2.584	Pitch:	1.011	Yaw:	-3.684	Thrust:	42.113
Time:	2.435	Roll Set Point:	0.075	Pitch Set Point:	-0.070	Yaw Set Point:	0.044	X_WP:	0.100	Y_WP:	0.000	Y_WP:	0.500	X:	0.013	Y:	0.037	Z:	0.059	yaw:	-2.505	yaw rate:	30.948	Roll:	-2.525	Pitch:	1.164	Yaw:	-1.254	Thrust:	52.767
Time:	2.449	Roll Set Point:	0.075	Pitch Set Point:	-0.070	Yaw Set Point:	0.044	X_WP:	0.100	Y_WP:	0.000	Y_WP:	0.500	X:	0.013	Y:	0.037	Z:	0.059	yaw:	-2.514	yaw rate:	-0.915	Roll:	-2.756	Pitch:	0.953	Yaw:	-4.132	Thrust:	46.305
Time:	2.459	Roll Set Point:	0.075	Pitch Set Point:	-0.069	Yaw Set Point:	0.046	X_WP:	0.100	Y_WP:	0.000	Y_WP:	0.500	X:	0.013	Y:	0.037	Z:	0.059	yaw:	-2.655	yaw rate:	-14.175	Roll:	-2.909	Pitch:	0.277	Yaw:	-7.429	Thrust:	41.660
Time:	2.470	Roll Set Point:	0.075	Pitch Set Point:	-0.070	Yaw Set Point:	0.043	X_WP:	0.100	Y_WP:	0.000	Y_WP:	0.500	X:	0.013	Y:	0.037	Z:	0.059	yaw:	-2.465	yaw rate:	19.038	Roll:	-2.191	Pitch:	1.611	Yaw:	0.710	Thrust:	42.006
Time:	2.484	Roll Set Point:	0.075	Pitch Set Point:	-0.070	Yaw Set Point:	0.039	X_WP:	0.100	Y_WP:	0.000	Y_WP:	0.500	X:	0.013	Y:	0.037	Z:	0.059	yaw:	-2.220	yaw rate:	8.155	Roll:	-2.625	Pitch:	1.641	Yaw:	0.988	Thrust:	47.352
Time:	2.495	Roll Set Point:	0.075	Pitch Set Point:	-0.069	Yaw Set Point:	0.044	X_WP:	0.100	Y_WP:	0.000	Y_WP:	0.500	X:	0.013	Y:	0.037	Z:	0.059	yaw:	-2.515	yaw rate:	-29.542	Roll:	-2.863	Pitch:	-0.180	Yaw:	-10.894	Thrust:	44.191
Time:	2.514	Roll Set Point:	0.075	Pitch Set Point:	-0.070	Yaw Set Point:	0.039	X_WP:	0.100	Y_WP:	0.000	Y_WP:	0.500	X:	0.013	Y:	0.037	Z:	0.059	yaw:	-2.238	yaw rate:	27.751	Roll:	-2.559	Pitch:	1.400	Yaw:	0.526	Thrust:	53.022
Time:	2.525	Roll Set Point:	0.075	Pitch Set Point:	-0.070	Yaw Set Point:	0.032	X_WP:	0.100	Y_WP:	0.000	Y_WP:	0.500	X:	0.013	Y:	0.036	Z:	0.059	yaw:	-1.816	yaw rate:	38.124	Roll:	-2.333	Pitch:	1.387	Yaw:	5.825	Thrust:	48.466
Time:	2.536	Roll Set Point:	0.075	Pitch Set Point:	-0.069	Yaw Set Point:	0.032	X_WP:	0.100	Y_WP:	0.000	Y_WP:	0.500	X:	0.013	Y:	0.036	Z:	0.059	yaw:	-1.806	yaw rate:	0.994	Roll:	-2.618	Pitch:	0.670	Yaw:	-2.696	Thrust:	44.641
Time:	2.550	Roll Set Point:	0.075	Pitch Set Point:	-0.069	Yaw Set Point:	0.028	X_WP:	0.100	Y_WP:	0.000	Y_WP:	0.500	X:	0.013	Y:	0.036	Z:	0.060	yaw:	-1.598	yaw rate:	20.840	Roll:	-2.537	Pitch:	1.302	Yaw:	0.967	Thrust:	50.825
Time:	2.562	Roll Set Point:	0.074	Pitch Set Point:	-0.069	Yaw Set Point:	0.024	X_WP:	0.100	Y_WP:	0.000	Y_WP:	0.500	X:	0.013	Y:	0.036	Z:	0.060	yaw:	-1.404	yaw rate:	19.413	Roll:	-2.361	Pitch:	1.066	Yaw:	1.791	Thrust:	48.967
Time:	2.576	Roll Set Point:	0.074	Pitch Set Point:	-0.069	Yaw Set Point:	0.022	X_WP:	0.100	Y_WP:	0.000	Y_WP:	0.500	X:	0.013	Y:	0.035	Z:	0.060	yaw:	-1.273	yaw rate:	13.057	Roll:	-2.466	Pitch:	0.960	Yaw:	0.336	Thrust:	50.403
Time:	2.598	Roll Set Point:	0.074	Pitch Set Point:	-0.069	Yaw Set Point:	0.016	X_WP:	0.100	Y_WP:	0.000	Y_WP:	0.500	X:	0.014	Y:	0.035	Z:	0.060	yaw:	-0.913	yaw rate:	35.990	Roll:	-2.314	Pitch:	1.448	Yaw:	1.998	Thrust:	69.247
Time:	2.610	Roll Set Point:	0.073	Pitch Set Point:	-0.069	Yaw Set Point:	0.007	X_WP:	0.100	Y_WP:	0.000	Y_WP:	0.500	X:	0.014	Y:	0.035	Z:	0.061	yaw:	-0.403	yaw rate:	26.463	Roll:	-2.153	Pitch:	1.196	Yaw:	10.602	Thrust:	48.409
Time:	2.620	Roll Set Point:	0.073	Pitch Set Point:	-0.068	Yaw Set Point:	0.003	X_WP:	0.100	Y_WP:	0.000	Y_WP:	0.500	X:	0.014	Y:	0.034	Z:	0.062	yaw:	-0.183	yaw rate:	21.985	Roll:	-2.374	Pitch:	0.606	Yaw:	4.792	Thrust:	45.434
Time:	2.631	Roll Set Point:	0.072	Pitch Set Point:	-0.068	Yaw Set Point:	-0.005	X_WP:	0.100	Y_WP:	0.000	Y_WP:	0.500	X:	0.014	Y:	0.034	Z:	0.062	yaw:	0.268	yaw rate:	45.135	Roll:	-1.977	Pitch:	1.459	Yaw:	10.471	Thrust:	47.029
Time:	2.649	Roll Set Point:	0.071	Pitch Set Point:	-0.067	Yaw Set Point:	-0.006	X_WP:	0.100	Y_WP:	0.000	Y_WP:	0.500	X:	0.014	Y:	0.033	Z:	0.063	yaw:	0.347	yaw rate:	7.908	Roll:	-2.236	Pitch:	0.583	Yaw:	1.020	Thrust:	61.879
Time:	2.661	Roll Set Point:	0.069	Pitch Set Point:	-0.065	Yaw Set Point:	-0.018	X_WP:	0.100	Y_WP:	0.000	Y_WP:	0.500	X:	0.015	Y:	0.032	Z:	0.064	yaw:	1.031	yaw rate:	17.037	Roll:	-1.136	Pitch:	0.357	Yaw:	15.580	Thrust:	48.152
Time:	2.681	Roll Set Point:	0.068	Pitch Set Point:	-0.064	Yaw Set Point:	-0.026	X_WP:	0.100	Y_WP:	0.000	Y_WP:	0.500	X:	0.016	Y:	0.031	Z:	0.065	yaw:	1.500	yaw rate:	46.933	Roll:	-1.836	Pitch:	1.234	Yaw:	7.608	Thrust:	67.591
Time:	2.692	Roll Set Point:	0.066	Pitch Set Point:	-0.062	Yaw Set Point:	-0.037	X_WP:	0.100	Y_WP:	0.000	Y_WP:	0.500	X:	0.016	Y:	0.030	Z:	0.066	yaw:	2.105	yaw rate:	17.664	Roll:	-1.232	Pitch:	0.082	Yaw:	16.168	Thrust:	50.299
Time:	2.703	Roll Set Point:	0.065	Pitch Set Point:	-0.062	Yaw Set Point:	-0.044	X_WP:	0.100	Y_WP:	0.000	Y_WP:	0.500	X:	0.017	Y:	0.029	Z:	0.067	yaw:	2.541	yaw rate:	43.567	Roll:	-1.241	Pitch:	1.048	Yaw:	12.997	Thrust:	50.242
Time:	2.717	Roll Set Point:	0.064	Pitch Set Point:	-0.060	Yaw Set Point:	-0.052	X_WP:	0.100	Y_WP:	0.000	Y_WP:	0.500	X:	0.017	Y:	0.028	Z:	0.068	yaw:	2.972	yaw rate:	43.135	Roll:	-1.588	Pitch:	0.529	Yaw:	11.990	Thrust:	56.623
Time:	2.735	Roll Set Point:	0.060	Pitch Set Point:	-0.057	Yaw Set Point:	-0.062	X_WP:	0.100	Y_WP:	0.000	Y_WP:	0.500	X:	0.019	Y:	0.026	Z:	0.069	yaw:	3.549	yaw rate:	57.638	Roll:	-0.857	Pitch:	-0.300	Yaw:	12.948	Thrust:	65.080
Time:	2.746	Roll Set Point:	0.058	Pitch Set Point:	-0.056	Yaw Set Point:	-0.068	X_WP:	0.100	Y_WP:	0.000	Y_WP:	0.500	X:	0.020	Y:	0.025	Z:	0.069	yaw:	3.908	yaw rate:	35.906	Roll:	-0.593	Pitch:	0.163	Yaw:	13.205	Thrust:	54.528
Time:	2.756	Roll Set Point:	0.056	Pitch Set Point:	-0.053	Yaw Set Point:	-0.073	X_WP:	0.100	Y_WP:	0.000	Y_WP:	0.500	X:	0.021	Y:	0.024	Z:	0.070	yaw:	4.181	yaw rate:	27.275	Roll:	-0.667	Pitch:	-0.628	Yaw:	12.250	Thrust:	51.132
Time:	2.768	Roll Set Point:	0.054	Pitch Set Point:	-0.052	Yaw Set Point:	-0.083	X_WP:	0.100	Y_WP:	0.000	Y_WP:	0.500	X:	0.022	Y:	0.023	Z:	0.071	yaw:	4.781	yaw rate:	60.059	Roll:	-0.501	Pitch:	0.733	Yaw:	20.579	Thrust:	50.425
Time:	2.783	Roll Set Point:	0.052	Pitch Set Point:	-0.051	Yaw Set Point:	-0.091	X_WP:	0.100	Y_WP:	0.000	Y_WP:	0.500	X:	0.023	Y:	0.022	Z:	0.072	yaw:	5.226	yaw rate:	44.511	Roll:	-1.217	Pitch:	0.104	Yaw:	14.864	Thrust:	62.318
Time:	2.801	Roll Set Point:	0.047	Pitch Set Point:	-0.046	Yaw Set Point:	-0.104	X_WP:	0.100	Y_WP:	0.000	Y_WP:	0.500	X:	0.025	Y:	0.019	Z:	0.073	yaw:	5.982	yaw rate:	39.362	Roll:	1.048	Pitch:	-1.431	Yaw:	19.092	Thrust:	67.815
Time:	2.812	Roll Set Point:	0.044	Pitch Set Point:	-0.043	Yaw Set Point:	-0.110	X_WP:	0.100	Y_WP:	0.000	Y_WP:	0.500	X:	0.027	Y:	0.017	Z:	0.074	yaw:	6.326	yaw rate:	34.337	Roll:	-0.638	Pitch:	-0.741	Yaw:	15.685	Thrust:	61.113
Time:	2.823	Roll Set Point:	0.040	Pitch Set Point:	-0.039	Yaw Set Point:	-0.112	X_WP:	0.100	Y_WP:	0.000	Y_WP:	0.500	X:	0.029	Y:	0.015	Z:	0.074	yaw:	6.441	yaw rate:	11.564	Roll:	0.460	Pitch:	-2.372	Yaw:	11.446	Thrust:	55.013
Time:	2.834	Roll Set Point:	0.031	Pitch Set Point:	-0.028	Yaw Set Point:	-0.106	X_WP:	0.100	Y_WP:	0.000	Y_WP:	0.500	X:	0.034	Y:	0.011	Z:	0.075	yaw:	6.095	yaw rate:	-34.608	Roll:	4.300	Pitch:	-8.224	Yaw:	0.053	Thrust:	54.677
Time:	2.852	Roll Set Point:	0.026	Pitch Set Point:	-0.022	Yaw Set Point:	-0.105	X_WP:	0.100	Y_WP:	0.000	Y_WP:	0.500	X:	0.037	Y:	0.008	Z:	0.075	yaw:	6.010	yaw rate:	-8.549	Roll:	0.565	Pitch:	-2.759	Yaw:	6.768	Thrust:	78.210
Time:	2.863	Roll Set Point:	0.013	Pitch Set Point:	-0.008	Yaw Set Point:	-0.096	X_WP:	0.100	Y_WP:	0.000	Y_WP:	0.500	X:	0.043	Y:	0.002	Z:	0.074	yaw:	5.504	yaw rate:	-24.742	Roll:	6.676	Pitch:	-10.512	Yaw:	-4.518	Thrust:	58.620
Time:	2.880	Roll Set Point:	0.006	Pitch Set Point:	-0.001	Yaw Set Point:	-0.093	X_WP:	0.100	Y_WP:	0.000	Y_WP:	0.500	X:	0.047	Y:	-0.002	Z:	0.074	yaw:	5.342	yaw rate:	-16.209	Roll:	2.249	Pitch:	-4.061	Yaw:	4.487	Thrust:	72.684
Time:	2.893	Roll Set Point:	-0.008	Pitch Set Point:	0.014	Yaw Set Point:	-0.082	X_WP:	0.100	Y_WP:	0.000	Y_WP:	0.500	X:	0.055	Y:	-0.009	Z:	0.073	yaw:	4.679	yaw rate:	-21.143	Roll:	6.254	Pitch:	-10.041	Yaw:	-6.035	Thrust:	74.031
Time:	2.906	Roll Set Point:	-0.016	Pitch Set Point:	0.023	Yaw Set Point:	-0.070	X_WP:	0.100	Y_WP:	0.000	Y_WP:	0.500	X:	0.059	Y:	-0.013	Z:	0.072	yaw:	4.023	yaw rate:	-65.639	Roll:	4.070	Pitch:	-6.853	Yaw:	-7.722	Thrust:	69.137
Time:	2.925	Roll Set Point:	-0.034	Pitch Set Point:	0.041	Yaw Set Point:	-0.053	X_WP:	0.100	Y_WP:	0.000	Y_WP:	0.500	X:	0.067	Y:	-0.021	Z:	0.071	yaw:	3.024	yaw rate:	-60.673	Roll:	6.124	Pitch:	-8.827	Yaw:	-9.186	Thrust:	93.796
Time:	2.935	Roll Set Point:	-0.034	Pitch Set Point:	0.041	Yaw Set Point:	-0.053	X_WP:	0.100	Y_WP:	0.000	Y_WP:	0.500	X:	0.067	Y:	-0.021	Z:	0.071	yaw:	3.024	yaw rate:	-60.673	Roll:	-1.123	Pitch:	-0.519	Yaw:	4.124	Thrust:	57.805
Time:	2.950	Roll Set Point:	-0.053	Pitch Set Point:	0.060	Yaw Set Point:	-0.031	X_WP:	0.100	Y_WP:	0.000	Y_WP:	0.500	X:	0.077	Y:	-0.030	Z:	0.069	yaw:	1.779	yaw rate:	-124.506	Roll:	12.528	Pitch:	-12.762	Yaw:	-20.053	Thrust:	78.781
Time:	2.963	Roll Set Point:	-0.075	Pitch Set Point:	0.079	Yaw Set Point:	-0.012	X_WP:	0.100	Y_WP:	0.000	Y_WP:	0.500	X:	0.088	Y:	-0.040	Z:	0.068	yaw:	0.678	yaw rate:	-83.175	Roll:	12.604	Pitch:	-14.541	Yaw:	-23.116	Thrust:	69.704
Time:	2.979	Roll Set Point:	-0.086	Pitch Set Point:	0.089	Yaw Set Point:	-0.005	X_WP:	0.100	Y_WP:	0.000	Y_WP:	0.500	X:	0.093	Y:	-0.044	Z:	0.068	yaw:	0.289	yaw rate:	-38.915	Roll:	7.812	Pitch:	-7.872	Yaw:	-6.267	Thrust:	78.515
Time:	2.997	Roll Set Point:	-0.098	Pitch Set Point:	0.099	Yaw Set Point:	0.006	X_WP:	0.100	Y_WP:	0.000	Y_WP:	0.500	X:	0.099	Y:	-0.049	Z:	0.068	yaw:	-0.323	yaw rate:	-61.184	Roll:	5.563	Pitch:	-5.950	Yaw:	-8.998	Thrust:	89.304
Time:	3.012	Roll Set Point:	-0.123	Pitch Set Point:	0.119	Yaw Set Point:	0.026	X_WP:	0.100	Y_WP:	0.000	Y_WP:	0.500	X:	0.111	Y:	-0.060	Z:	0.068	yaw:	-1.467	yaw rate:	-41.674	Roll:	11.710	Pitch:	-11.222	Yaw:	-22.767	Thrust:	82.339
Time:	3.022	Roll Set Point:	-0.136	Pitch Set Point:	0.130	Yaw Set Point:	0.039	X_WP:	0.100	Y_WP:	0.000	Y_WP:	0.500	X:	0.117	Y:	-0.065	Z:	0.068	yaw:	-2.213	yaw rate:	-74.559	Roll:	11.313	Pitch:	-9.825	Yaw:	-20.832	Thrust:	64.421
Time:	3.033	Roll Set Point:	-0.150	Pitch Set Point:	0.141	Yaw Set Point:	0.049	X_WP:	0.100	Y_WP:	0.000	Y_WP:	0.500	X:	0.123	Y:	-0.071	Z:	0.068	yaw:	-2.791	yaw rate:	-57.829	Roll:	12.894	Pitch:	-9.716	Yaw:	-17.726	Thrust:	63.940
Time:	3.049	Roll Set Point:	-0.178	Pitch Set Point:	0.162	Yaw Set Point:	0.063	X_WP:	0.100	Y_WP:	0.000	Y_WP:	0.500	X:	0.136	Y:	-0.082	Z:	0.070	yaw:	-3.584	yaw rate:	-79.316	Roll:	16.271	Pitch:	-12.956	Yaw:	-18.104	Thrust:	81.238
Time:	3.068	Roll Set Point:	-0.207	Pitch Set Point:	0.184	Yaw Set Point:	0.083	X_WP:	0.100	Y_WP:	0.000	Y_WP:	0.500	X:	0.150	Y:	-0.094	Z:	0.072	yaw:	-4.755	yaw rate:	-72.611	Roll:	16.066	Pitch:	-11.419	Yaw:	-23.288	Thrust:	91.186
Time:	3.079	Roll Set Point:	-0.223	Pitch Set Point:	0.194	Yaw Set Point:	0.092	X_WP:	0.100	Y_WP:	0.000	Y_WP:	0.500	X:	0.157	Y:	-0.100	Z:	0.073	yaw:	-5.297	yaw rate:	-54.151	Roll:	14.582	Pitch:	-10.336	Yaw:	-20.394	Thrust:	62.257
Time:	3.090	Roll Set Point:	-0.238	Pitch Set Point:	0.205	Yaw Set Point:	0.100	X_WP:	0.100	Y_WP:	0.000	Y_WP:	0.500	X:	0.164	Y:	-0.106	Z:	0.074	yaw:	-5.730	yaw rate:	-43.355	Roll:	14.636	Pitch:	-10.144	Yaw:	-18.457	Thrust:	58.852
Time:	3.101	Roll Set Point:	-0.253	Pitch Set Point:	0.216	Yaw Set Point:	0.106	X_WP:	0.100	Y_WP:	0.000	Y_WP:	0.500	X:	0.171	Y:	-0.112	Z:	0.076	yaw:	-6.099	yaw rate:	-36.850	Roll:	15.113	Pitch:	-10.245	Yaw:	-17.450	Thrust:	64.000
Time:	3.115	Roll Set Point:	-0.269	Pitch Set Point:	0.226	Yaw Set Point:	0.113	X_WP:	0.100	Y_WP:	0.000	Y_WP:	0.500	X:	0.178	Y:	-0.118	Z:	0.078	yaw:	-6.471	yaw rate:	-37.223	Roll:	13.207	Pitch:	-8.517	Yaw:	-16.493	Thrust:	72.878
Time:	3.134	Roll Set Point:	-0.316	Pitch Set Point:	0.258	Yaw Set Point:	0.130	X_WP:	0.100	Y_WP:	0.000	Y_WP:	0.500	X:	0.200	Y:	-0.136	Z:	0.084	yaw:	-7.444	yaw rate:	-34.882	Roll:	30.000	Pitch:	-17.297	Yaw:	-25.259	Thrust:	73.464
Time:	3.147	Roll Set Point:	-0.332	Pitch Set Point:	0.268	Yaw Set Point:	0.140	X_WP:	0.100	Y_WP:	0.000	Y_WP:	0.500	X:	0.207	Y:	-0.142	Z:	0.087	yaw:	-7.998	yaw rate:	-55.419	Roll:	12.502	Pitch:	-7.961	Yaw:	-21.498	Thrust:	80.737
Time:	3.159	Roll Set Point:	-0.364	Pitch Set Point:	0.288	Yaw Set Point:	0.145	X_WP:	0.100	Y_WP:	0.000	Y_WP:	0.500	X:	0.221	Y:	-0.153	Z:	0.092	yaw:	-8.334	yaw rate:	4.582	Roll:	26.989	Pitch:	-15.920	Yaw:	-19.253	Thrust:	54.818
Time:	3.171	Roll Set Point:	-0.364	Pitch Set Point:	0.288	Yaw Set Point:	0.145	X_WP:	0.100	Y_WP:	0.000	Y_WP:	0.500	X:	0.221	Y:	-0.153	Z:	0.092	yaw:	-8.334	yaw rate:	4.582	Roll:	4.005	Pitch:	-3.879	Yaw:	-11.964	Thrust:	69.681
Time:	3.183	Roll Set Point:	-0.395	Pitch Set Point:	0.308	Yaw Set Point:	0.152	X_WP:	0.100	Y_WP:	0.000	Y_WP:	0.500	X:	0.236	Y:	-0.165	Z:	0.097	yaw:	-8.723	yaw rate:	-28.175	Roll:	27.176	Pitch:	-15.050	Yaw:	-20.416	Thrust:	59.307
Time:	3.194	Roll Set Point:	-0.410	Pitch Set Point:	0.318	Yaw Set Point:	0.155	X_WP:	0.100	Y_WP:	0.000	Y_WP:	0.500	X:	0.243	Y:	-0.171	Z:	0.100	yaw:	-8.906	yaw rate:	-18.285	Roll:	17.020	Pitch:	-10.488	Yaw:	-17.167	Thrust:	58.070
Time:	3.205	Roll Set Point:	-0.426	Pitch Set Point:	0.327	Yaw Set Point:	0.159	X_WP:	0.100	Y_WP:	0.000	Y_WP:	0.500	X:	0.250	Y:	-0.177	Z:	0.103	yaw:	-9.134	yaw rate:	-22.800	Roll:	18.005	Pitch:	-10.032	Yaw:	-18.367	Thrust:	61.133
Time:	3.216	Roll Set Point:	-0.441	Pitch Set Point:	0.337	Yaw Set Point:	0.162	X_WP:	0.100	Y_WP:	0.000	Y_WP:	0.500	X:	0.257	Y:	-0.182	Z:	0.106	yaw:	-9.259	yaw rate:	-12.484	Roll:	17.550	Pitch:	-10.769	Yaw:	-16.353	Thrust:	58.849
Time:	3.227	Roll Set Point:	-0.455	Pitch Set Point:	0.347	Yaw Set Point:	0.163	X_WP:	0.100	Y_WP:	0.000	Y_WP:	0.500	X:	0.264	Y:	-0.188	Z:	0.109	yaw:	-9.326	yaw rate:	-6.731	Roll:	17.436	Pitch:	-11.452	Yaw:	-15.168	Thrust:	55.676
Time:	3.239	Roll Set Point:	-0.484	Pitch Set Point:	0.366	Yaw Set Point:	0.166	X_WP:	0.100	Y_WP:	0.000	Y_WP:	0.500	X:	0.277	Y:	-0.199	Z:	0.116	yaw:	-9.508	yaw rate:	-18.203	Roll:	29.746	Pitch:	-16.721	Yaw:	-17.962	Thrust:	49.979
Time:	3.251	Roll Set Point:	-0.498	Pitch Set Point:	0.376	Yaw Set Point:	0.166	X_WP:	0.100	Y_WP:	0.000	Y_WP:	0.500	X:	0.283	Y:	-0.204	Z:	0.119	yaw:	-9.493	yaw rate:	1.529	Roll:	16.559	Pitch:	-11.125	Yaw:	-13.544	Thrust:	65.287
Time:	3.263	Roll Set Point:	-0.511	Pitch Set Point:	0.385	Yaw Set Point:	0.165	X_WP:	0.100	Y_WP:	0.000	Y_WP:	0.500	X:	0.290	Y:	-0.210	Z:	0.122	yaw:	-9.477	yaw rate:	1.560	Roll:	16.649	Pitch:	-11.648	Yaw:	-13.556	Thrust:	59.831
Time:	3.273	Roll Set Point:	-0.525	Pitch Set Point:	0.394	Yaw Set Point:	0.166	X_WP:	0.100	Y_WP:	0.000	Y_WP:	0.500	X:	0.296	Y:	-0.215	Z:	0.125	yaw:	-9.533	yaw rate:	-5.600	Roll:	17.862	Pitch:	-11.134	Yaw:	-15.318	Thrust:	60.420
Time:	3.284	Roll Set Point:	-0.537	Pitch Set Point:	0.404	Yaw Set Point:	0.163	X_WP:	0.100	Y_WP:	0.000	Y_WP:	0.500	X:	0.302	Y:	-0.220	Z:	0.127	yaw:	-9.336	yaw rate:	19.707	Roll:	16.786	Pitch:	-13.207	Yaw:	-8.784	Thrust:	59.150
Time:	3.294	Roll Set Point:	-0.550	Pitch Set Point:	0.413	Yaw Set Point:	0.162	X_WP:	0.100	Y_WP:	0.000	Y_WP:	0.500	X:	0.308	Y:	-0.225	Z:	0.130	yaw:	-9.262	yaw rate:	7.398	Roll:	17.398	Pitch:	-12.383	Yaw:	-11.659	Thrust:	59.399
Time:	3.305	Roll Set Point:	-0.562	Pitch Set Point:	0.423	Yaw Set Point:	0.160	X_WP:	0.100	Y_WP:	0.000	Y_WP:	0.500	X:	0.314	Y:	-0.230	Z:	0.133	yaw:	-9.141	yaw rate:	12.128	Roll:	17.620	Pitch:	-12.771	Yaw:	-10.467	Thrust:	59.971
Time:	3.316	Roll Set Point:	-0.574	Pitch Set Point:	0.432	Yaw Set Point:	0.157	X_WP:	0.100	Y_WP:	0.000	Y_WP:	0.500	X:	0.320	Y:	-0.235	Z:	0.135	yaw:	-8.988	yaw rate:	15.266	Roll:	15.966	Pitch:	-12.492	Yaw:	-9.907	Thrust:	66.535
Time:	3.330	Roll Set Point:	-0.585	Pitch Set Point:	0.441	Yaw Set Point:	0.154	X_WP:	0.100	Y_WP:	0.000	Y_WP:	0.500	X:	0.325	Y:	-0.239	Z:	0.138	yaw:	-8.813	yaw rate:	17.488	Roll:	15.413	Pitch:	-11.934	Yaw:	-10.293	Thrust:	79.568
Time:	3.347	Roll Set Point:	-0.616	Pitch Set Point:	0.468	Yaw Set Point:	0.144	X_WP:	0.100	Y_WP:	0.000	Y_WP:	0.500	X:	0.341	Y:	-0.253	Z:	0.144	yaw:	-8.238	yaw rate:	53.460	Roll:	21.862	Pitch:	-19.204	Yaw:	-3.667	Thrust:	88.775
Time:	3.359	Roll Set Point:	-0.626	Pitch Set Point:	0.477	Yaw Set Point:	0.139	X_WP:	0.100	Y_WP:	0.000	Y_WP:	0.500	X:	0.346	Y:	-0.257	Z:	0.147	yaw:	-7.991	yaw rate:	24.718	Roll:	14.648	Pitch:	-13.119	Yaw:	-6.490	Thrust:	68.943
Time:	3.371	Roll Set Point:	-0.636	Pitch Set Point:	0.486	Yaw Set Point:	0.137	X_WP:	0.100	Y_WP:	0.000	Y_WP:	0.500	X:	0.351	Y:	-0.261	Z:	0.149	yaw:	-7.843	yaw rate:	14.824	Roll:	15.686	Pitch:	-13.004	Yaw:	-8.729	Thrust:	66.722
Time:	3.384	Roll Set Point:	-0.645	Pitch Set Point:	0.494	Yaw Set Point:	0.133	X_WP:	0.100	Y_WP:	0.000	Y_WP:	0.500	X:	0.356	Y:	-0.265	Z:	0.151	yaw:	-7.629	yaw rate:	21.364	Roll:	13.851	Pitch:	-12.094	Yaw:	-7.482	Thrust:	84.051
Time:	3.402	Roll Set Point:	-0.654	Pitch Set Point:	0.503	Yaw Set Point:	0.130	X_WP:	0.100	Y_WP:	0.000	Y_WP:	0.500	X:	0.361	Y:	-0.269	Z:	0.153	yaw:	-7.433	yaw rate:	19.588	Roll:	12.386	Pitch:	-10.878	Yaw:	-9.271	Thrust:	100.000
Time:	3.414	Roll Set Point:	-0.671	Pitch Set Point:	0.518	Yaw Set Point:	0.124	X_WP:	0.100	Y_WP:	0.000	Y_WP:	0.500	X:	0.369	Y:	-0.277	Z:	0.157	yaw:	-7.108	yaw rate:	33.888	Roll:	20.807	Pitch:	-19.510	Yaw:	-3.589	Thrust:	62.642
Time:	3.425	Roll Set Point:	-0.679	Pitch Set Point:	0.525	Yaw Set Point:	0.122	X_WP:	0.100	Y_WP:	0.000	Y_WP:	0.500	X:	0.373	Y:	-0.280	Z:	0.159	yaw:	-6.989	yaw rate:	11.843	Roll:	14.750	Pitch:	-12.625	Yaw:	-7.984	Thrust:	67.847
Time:	3.436	Roll Set Point:	-0.687	Pitch Set Point:	0.532	Yaw Set Point:	0.123	X_WP:	0.100	Y_WP:	0.000	Y_WP:	0.500	X:	0.377	Y:	-0.284	Z:	0.161	yaw:	-7.058	yaw rate:	-6.832	Roll:	15.976	Pitch:	-11.666	Yaw:	-12.537	Thrust:	67.759
Time:	3.450	Roll Set Point:	-0.701	Pitch Set Point:	0.546	Yaw Set Point:	0.117	X_WP:	0.100	Y_WP:	0.000	Y_WP:	0.500	X:	0.384	Y:	-0.291	Z:	0.166	yaw:	-6.703	yaw rate:	35.501	Roll:	17.323	Pitch:	-16.997	Yaw:	-4.126	Thrust:	78.662
Time:	3.466	Roll Set Point:	-0.707	Pitch Set Point:	0.553	Yaw Set Point:	0.114	X_WP:	0.100	Y_WP:	0.000	Y_WP:	0.500	X:	0.388	Y:	-0.294	Z:	0.168	yaw:	-6.517	yaw rate:	18.532	Roll:	12.934	Pitch:	-11.939	Yaw:	-7.701	Thrust:	91.920
Time:	3.479	Roll Set Point:	-0.719	Pitch Set Point:	0.565	Yaw Set Point:	0.110	X_WP:	0.100	Y_WP:	0.000	Y_WP:	0.500	X:	0.394	Y:	-0.299	Z:	0.173	yaw:	-6.294	yaw rate:	1.565	Roll:	15.744	Pitch:	-14.940	Yaw:	-5.818	Thrust:	80.743
Time:	3.491	Roll Set Point:	-0.723	Pitch Set Point:	0.572	Yaw Set Point:	0.100	X_WP:	0.100	Y_WP:	0.000	Y_WP:	0.500	X:	0.397	Y:	-0.302	Z:	0.175	yaw:	-5.711	yaw rate:	58.317	Roll:	10.130	Pitch:	-16.278	Yaw:	5.402	Thrust:	64.783
Time:	3.501	Roll Set Point:	-0.727	Pitch Set Point:	0.578	Yaw Set Point:	0.097	X_WP:	0.100	Y_WP:	0.000	Y_WP:	0.500	X:	0.400	Y:	-0.304	Z:	0.178	yaw:	-5.541	yaw rate:	17.014	Roll:	12.790	Pitch:	-12.953	Yaw:	-5.114	Thrust:	67.993
Time:	3.516	Roll Set Point:	-0.732	Pitch Set Point:	0.583	Yaw Set Point:	0.095	X_WP:	0.100	Y_WP:	0.000	Y_WP:	0.500	X:	0.402	Y:	-0.307	Z:	0.180	yaw:	-5.454	yaw rate:	8.637	Roll:	12.665	Pitch:	-11.365	Yaw:	-7.541	Thrust:	89.548
Time:	3.536	Roll Set Point:	-0.737	Pitch Set Point:	0.587	Yaw Set Point:	0.097	X_WP:	0.100	Y_WP:	0.000	Y_WP:	0.500	X:	0.404	Y:	-0.309	Z:	0.183	yaw:	-5.569	yaw rate:	-11.448	Roll:	12.832	Pitch:	-9.914	Yaw:	-11.506	Thrust:	100.000
Time:	3.547	Roll Set Point:	-0.745	Pitch Set Point:	0.596	Yaw Set Point:	0.093	X_WP:	0.100	Y_WP:	0.000	Y_WP:	0.500	X:	0.408	Y:	-0.313	Z:	0.188	yaw:	-5.321	yaw rate:	23.709	Roll:	13.254	Pitch:	-13.537	Yaw:	-3.104	Thrust:	67.436
Time:	3.558	Roll Set Point:	-0.750	Pitch Set Point:	0.604	Yaw Set Point:	0.085	X_WP:	0.100	Y_WP:	0.000	Y_WP:	0.500	X:	0.412	Y:	-0.316	Z:	0.194	yaw:	-4.875	yaw rate:	44.549	Roll:	12.274	Pitch:	-17.171	Yaw:	2.802	Thrust:	52.649
Time:	3.569	Roll Set Point:	-0.753	Pitch Set Point:	0.607	Yaw Set Point:	0.087	X_WP:	0.100	Y_WP:	0.000	Y_WP:	0.500	X:	0.413	Y:	-0.318	Z:	0.197	yaw:	-4.989	yaw rate:	-11.375	Roll:	13.097	Pitch:	-9.843	Yaw:	-10.953	Thrust:	66.111
Time:	3.583	Roll Set Point:	-0.756	Pitch Set Point:	0.610	Yaw Set Point:	0.087	X_WP:	0.100	Y_WP:	0.000	Y_WP:	0.500	X:	0.415	Y:	-0.319	Z:	0.201	yaw:	-4.970	yaw rate:	1.887	Roll:	11.771	Pitch:	-10.364	Yaw:	-8.179	Thrust:	82.488
Time:	3.593	Roll Set Point:	-0.756	Pitch Set Point:	0.614	Yaw Set Point:	0.079	X_WP:	0.100	Y_WP:	0.000	Y_WP:	0.500	X:	0.416	Y:	-0.320	Z:	0.204	yaw:	-4.550	yaw rate:	41.954	Roll:	8.790	Pitch:	-13.839	Yaw:	2.806	Thrust:	62.014
Time:	3.605	Roll Set Point:	-0.757	Pitch Set Point:	0.616	Yaw Set Point:	0.077	X_WP:	0.100	Y_WP:	0.000	Y_WP:	0.500	X:	0.417	Y:	-0.321	Z:	0.208	yaw:	-4.414	yaw rate:	13.644	Roll:	10.579	Pitch:	-11.115	Yaw:	-4.662	Thrust:	72.143
Time:	3.617	Roll Set Point:	-0.760	Pitch Set Point:	0.618	Yaw Set Point:	0.079	X_WP:	0.100	Y_WP:	0.000	Y_WP:	0.500	X:	0.418	Y:	-0.322	Z:	0.211	yaw:	-4.520	yaw rate:	-10.564	Roll:	12.182	Pitch:	-9.342	Yaw:	-10.179	Thrust:	64.811
Time:	3.627	Roll Set Point:	-0.762	Pitch Set Point:	0.619	Yaw Set Point:	0.080	X_WP:	0.100	Y_WP:	0.000	Y_WP:	0.500	X:	0.418	Y:	-0.323	Z:	0.215	yaw:	-4.595	yaw rate:	-7.526	Roll:	11.896	Pitch:	-9.065	Yaw:	-9.578	Thrust:	65.029
Time:	3.640	Roll Set Point:	-0.761	Pitch Set Point:	0.622	Yaw Set Point:	0.074	X_WP:	0.100	Y_WP:	0.000	Y_WP:	0.500	X:	0.419	Y:	-0.323	Z:	0.219	yaw:	-4.263	yaw rate:	33.143	Roll:	8.315	Pitch:	-12.108	Yaw:	-0.949	Thrust:	79.266
Time:	3.652	Roll Set Point:	-0.761	Pitch Set Point:	0.623	Yaw Set Point:	0.072	X_WP:	0.100	Y_WP:	0.000	Y_WP:	0.500	X:	0.419	Y:	-0.324	Z:	0.223	yaw:	-4.115	yaw rate:	14.881	Roll:	9.706	Pitch:	-10.716	Yaw:	-4.048	Thrust:	72.155
Time:	3.670	Roll Set Point:	-0.759	Pitch Set Point:	0.627	Yaw Set Point:	0.063	X_WP:	0.100	Y_WP:	0.000	Y_WP:	0.500	X:	0.420	Y:	-0.324	Z:	0.230	yaw:	-3.592	yaw rate:	43.863	Roll:	7.714	Pitch:	-12.513	Yaw:	1.038	Thrust:	92.422
Time:	3.681	Roll Set Point:	-0.758	Pitch Set Point:	0.627	Yaw Set Point:	0.060	X_WP:	0.100	Y_WP:	0.000	Y_WP:	0.500	X:	0.420	Y:	-0.324	Z:	0.238	yaw:	-3.421	yaw rate:	17.087	Roll:	8.688	Pitch:	-10.348	Yaw:	-2.856	Thrust:	60.805
Time:	3.693	Roll Set Point:	-0.757	Pitch Set Point:	0.628	Yaw Set Point:	0.058	X_WP:	0.100	Y_WP:	0.000	Y_WP:	0.500	X:	0.419	Y:	-0.323	Z:	0.242	yaw:	-3.337	yaw rate:	8.465	Roll:	8.996	Pitch:	-9.515	Yaw:	-4.261	Thrust:	67.560
Time:	3.710	Roll Set Point:	-0.757	Pitch Set Point:	0.626	Yaw Set Point:	0.061	X_WP:	0.100	Y_WP:	0.000	Y_WP:	0.500	X:	0.419	Y:	-0.323	Z:	0.247	yaw:	-3.480	yaw rate:	-14.301	Roll:	10.361	Pitch:	-7.862	Yaw:	-9.324	Thrust:	99.014
Time:	3.723	Roll Set Point:	-0.753	Pitch Set Point:	0.626	Yaw Set Point:	0.056	X_WP:	0.100	Y_WP:	0.000	Y_WP:	0.500	X:	0.418	Y:	-0.322	Z:	0.255	yaw:	-3.195	yaw rate:	23.929	Roll:	7.630	Pitch:	-9.795	Yaw:	-0.898	Thrust:	72.413
Time:	3.734	Roll Set Point:	-0.751	Pitch Set Point:	0.625	Yaw Set Point:	0.056	X_WP:	0.100	Y_WP:	0.000	Y_WP:	0.500	X:	0.417	Y:	-0.321	Z:	0.260	yaw:	-3.186	yaw rate:	0.921	Roll:	8.643	Pitch:	-8.222	Yaw:	-5.724	Thrust:	61.980
Time:	3.749	Roll Set Point:	-0.749	Pitch Set Point:	0.623	Yaw Set Point:	0.055	X_WP:	0.100	Y_WP:	0.000	Y_WP:	0.500	X:	0.416	Y:	-0.321	Z:	0.264	yaw:	-3.132	yaw rate:	5.372	Roll:	8.386	Pitch:	-8.658	Yaw:	-5.395	Thrust:	87.482
Time:	3.761	Roll Set Point:	-0.748	Pitch Set Point:	0.621	Yaw Set Point:	0.058	X_WP:	0.100	Y_WP:	0.000	Y_WP:	0.500	X:	0.415	Y:	-0.320	Z:	0.269	yaw:	-3.317	yaw rate:	-18.449	Roll:	9.775	Pitch:	-6.815	Yaw:	-10.206	Thrust:	72.556
Time:	3.773	Roll Set Point:	-0.746	Pitch Set Point:	0.619	Yaw Set Point:	0.058	X_WP:	0.100	Y_WP:	0.000	Y_WP:	0.500	X:	0.414	Y:	-0.319	Z:	0.274	yaw:	-3.322	yaw rate:	-0.459	Roll:	8.082	Pitch:	-7.407	Yaw:	-6.214	Thrust:	56.360
Time:	3.786	Roll Set Point:	-0.742	Pitch Set Point:	0.618	Yaw Set Point:	0.053	X_WP:	0.100	Y_WP:	0.000	Y_WP:	0.500	X:	0.413	Y:	-0.318	Z:	0.279	yaw:	-3.065	yaw rate:	25.635	Roll:	6.777	Pitch:	-9.454	Yaw:	-1.463	Thrust:	82.900
Time:	3.798	Roll Set Point:	-0.734	Pitch Set Point:	0.611	Yaw Set Point:	0.054	X_WP:	0.100	Y_WP:	0.000	Y_WP:	0.500	X:	0.409	Y:	-0.314	Z:	0.295	yaw:	-3.087	yaw rate:	3.414	Roll:	3.465	Pitch:	-3.622	Yaw:	-6.427	Thrust:	19.777
Time:	3.813	Roll Set Point:	-0.730	Pitch Set Point:	0.608	Yaw Set Point:	0.052	X_WP:	0.100	Y_WP:	0.000	Y_WP:	0.500	X:	0.407	Y:	-0.312	Z:	0.301	yaw:	-2.971	yaw rate:	11.601	Roll:	6.918	Pitch:	-8.019	Yaw:	-4.127	Thrust:	81.241
Time:	3.825	Roll Set Point:	-0.726	Pitch Set Point:	0.606	Yaw Set Point:	0.047	X_WP:	0.100	Y_WP:	0.000	Y_WP:	0.500	X:	0.406	Y:	-0.311	Z:	0.306	yaw:	-2.707	yaw rate:	26.387	Roll:	6.215	Pitch:	-8.837	Yaw:	-0.377	Thrust:	77.225
Time:	3.836	Roll Set Point:	-0.722	Pitch Set Point:	0.604	Yaw Set Point:	0.045	X_WP:	0.100	Y_WP:	0.000	Y_WP:	0.500	X:	0.404	Y:	-0.309	Z:	0.312	yaw:	-2.568	yaw rate:	13.919	Roll:	5.728	Pitch:	-7.680	Yaw:	-1.871	Thrust:	56.568
Time:	3.850	Roll Set Point:	-0.719	Pitch Set Point:	0.600	Yaw Set Point:	0.048	X_WP:	0.100	Y_WP:	0.000	Y_WP:	0.500	X:	0.402	Y:	-0.307	Z:	0.318	yaw:	-2.747	yaw rate:	-17.899	Roll:	8.100	Pitch:	-5.530	Yaw:	-9.319	Thrust:	72.578
Time:	3.861	Roll Set Point:	-0.715	Pitch Set Point:	0.597	Yaw Set Point:	0.047	X_WP:	0.100	Y_WP:	0.000	Y_WP:	0.500	X:	0.400	Y:	-0.306	Z:	0.324	yaw:	-2.704	yaw rate:	4.318	Roll:	6.711	Pitch:	-6.824	Yaw:	-4.596	Thrust:	63.520
Time:	3.874	Roll Set Point:	-0.711	Pitch Set Point:	0.593	Yaw Set Point:	0.050	X_WP:	0.100	Y_WP:	0.000	Y_WP:	0.500	X:	0.398	Y:	-0.304	Z:	0.330	yaw:	-2.848	yaw rate:	-14.436	Roll:	7.480	Pitch:	-5.626	Yaw:	-8.832	Thrust:	67.692
Time:	3.885	Roll Set Point:	-0.704	Pitch Set Point:	0.584	Yaw Set Point:	0.053	X_WP:	0.100	Y_WP:	0.000	Y_WP:	0.500	X:	0.394	Y:	-0.300	Z:	0.342	yaw:	-3.057	yaw rate:	-20.852	Roll:	4.368	Pitch:	-1.999	Yaw:	-10.707	Thrust:	34.723
Time:	3.896	Roll Set Point:	-0.700	Pitch Set Point:	0.581	Yaw Set Point:	0.053	X_WP:	0.100	Y_WP:	0.000	Y_WP:	0.500	X:	0.392	Y:	-0.298	Z:	0.349	yaw:	-3.011	yaw rate:	4.517	Roll:	5.818	Pitch:	-6.075	Yaw:	-4.790	Thrust:	53.005
Time:	3.913	Roll Set Point:	-0.695	Pitch Set Point:	0.577	Yaw Set Point:	0.049	X_WP:	0.100	Y_WP:	0.000	Y_WP:	0.500	X:	0.390	Y:	-0.296	Z:	0.355	yaw:	-2.821	yaw rate:	19.035	Roll:	5.349	Pitch:	-7.363	Yaw:	-3.069	Thrust:	85.681
Time:	3.926	Roll Set Point:	-0.685	Pitch Set Point:	0.569	Yaw Set Point:	0.049	X_WP:	0.100	Y_WP:	0.000	Y_WP:	0.500	X:	0.386	Y:	-0.292	Z:	0.368	yaw:	-2.806	yaw rate:	1.941	Roll:	4.398	Pitch:	-4.409	Yaw:	-5.767	Thrust:	60.243
Time:	3.939	Roll Set Point:	-0.681	Pitch Set Point:	0.565	Yaw Set Point:	0.050	X_WP:	0.100	Y_WP:	0.000	Y_WP:	0.500	X:	0.383	Y:	-0.290	Z:	0.375	yaw:	-2.880	yaw rate:	-7.410	Roll:	5.647	Pitch:	-5.061	Yaw:	-7.475	Thrust:	59.630
Time:	3.951	Roll Set Point:	-0.677	Pitch Set Point:	0.560	Yaw Set Point:	0.055	X_WP:	0.100	Y_WP:	0.000	Y_WP:	0.500	X:	0.381	Y:	-0.288	Z:	0.382	yaw:	-3.128	yaw rate:	-24.811	Roll:	7.491	Pitch:	-4.258	Yaw:	-11.470	Thrust:	67.519
Time:	3.962	Roll Set Point:	-0.667	Pitch Set Point:	0.552	Yaw Set Point:	0.052	X_WP:	0.100	Y_WP:	0.000	Y_WP:	0.500	X:	0.376	Y:	-0.283	Z:	0.395	yaw:	-2.989	yaw rate:	-2.175	Roll:	0.243	Pitch:	-2.886	Yaw:	-2.555	Thrust:	22.086
Time:	3.978	Roll Set Point:	-0.661	Pitch Set Point:	0.548	Yaw Set Point:	0.047	X_WP:	0.100	Y_WP:	0.000	Y_WP:	0.500	X:	0.374	Y:	-0.281	Z:	0.402	yaw:	-2.691	yaw rate:	29.752	Roll:	3.837	Pitch:	-7.230	Yaw:	-0.918	Thrust:	79.173
Time:	3.994	Roll Set Point:	-0.656	Pitch Set Point:	0.544	Yaw Set Point:	0.046	X_WP:	0.100	Y_WP:	0.000	Y_WP:	0.500	X:	0.372	Y:	-0.279	Z:	0.408	yaw:	-2.649	yaw rate:	4.164	Roll:	6.341	Pitch:	-6.440	Yaw:	-5.720	Thrust:	94.583
Time:	4.014	Roll Set Point:	-0.646	Pitch Set Point:	0.535	Yaw Set Point:	0.048	X_WP:	0.100	Y_WP:	0.000	Y_WP:	0.500	X:	0.367	Y:	-0.274	Z:	0.421	yaw:	-2.737	yaw rate:	-8.749	Roll:	3.817	Pitch:	-4.111	Yaw:	-8.063	Thrust:	100.000
Time:	4.027	Roll Set Point:	-0.635	Pitch Set Point:	0.528	Yaw Set Point:	0.044	X_WP:	0.100	Y_WP:	0.000	Y_WP:	0.500	X:	0.362	Y:	-0.270	Z:	0.434	yaw:	-2.497	yaw rate:	12.398	Roll:	2.341	Pitch:	-4.571	Yaw:	-0.770	Thrust:	56.092
Time:	4.040	Roll Set Point:	-0.629	Pitch Set Point:	0.524	Yaw Set Point:	0.043	X_WP:	0.100	Y_WP:	0.000	Y_WP:	0.500	X:	0.359	Y:	-0.268	Z:	0.440	yaw:	-2.440	yaw rate:	5.743	Roll:	4.032	Pitch:	-5.383	Yaw:	-4.324	Thrust:	64.249
Time:	4.054	Roll Set Point:	-0.619	Pitch Set Point:	0.516	Yaw Set Point:	0.039	X_WP:	0.100	Y_WP:	0.000	Y_WP:	0.500	X:	0.354	Y:	-0.263	Z:	0.451	yaw:	-2.242	yaw rate:	19.828	Roll:	1.084	Pitch:	-3.741	Yaw:	-1.456	Thrust:	53.212
Time:	4.064	Roll Set Point:	-0.614	Pitch Set Point:	0.512	Yaw Set Point:	0.041	X_WP:	0.100	Y_WP:	0.000	Y_WP:	0.500	X:	0.352	Y:	-0.261	Z:	0.456	yaw:	-2.332	yaw rate:	-9.016	Roll:	4.586	Pitch:	-3.929	Yaw:	-7.187	Thrust:	52.813
Time:	4.083	Roll Set Point:	-0.607	Pitch Set Point:	0.509	Yaw Set Point:	0.034	X_WP:	0.100	Y_WP:	0.000	Y_WP:	0.500	X:	0.349	Y:	-0.259	Z:	0.462	yaw:	-1.961	yaw rate:	37.042	Roll:	4.173	Pitch:	-7.357	Yaw:	-0.532	Thrust:	100.000
Time:	4.093	Roll Set Point:	-0.597	Pitch Set Point:	0.501	Yaw Set Point:	0.032	X_WP:	0.100	Y_WP:	0.000	Y_WP:	0.500	X:	0.344	Y:	-0.254	Z:	0.472	yaw:	-1.850	yaw rate:	30.512	Roll:	0.053	Pitch:	-2.593	Yaw:	-1.528	Thrust:	36.307
Time:	4.110	Roll Set Point:	-0.592	Pitch Set Point:	0.497	Yaw Set Point:	0.031	X_WP:	0.100	Y_WP:	0.000	Y_WP:	0.500	X:	0.342	Y:	-0.253	Z:	0.478	yaw:	-1.776	yaw rate:	7.429	Roll:	3.772	Pitch:	-5.361	Yaw:	-3.758	Thrust:	72.773
Time:	4.126	Roll Set Point:	-0.588	Pitch Set Point:	0.493	Yaw Set Point:	0.036	X_WP:	0.100	Y_WP:	0.000	Y_WP:	0.500	X:	0.340	Y:	-0.251	Z:	0.483	yaw:	-2.037	yaw rate:	-26.091	Roll:	6.691	Pitch:	-5.350	Yaw:	-9.599	Thrust:	100.000
Time:	4.138	Roll Set Point:	-0.574	Pitch Set Point:	0.482	Yaw Set Point:	0.034	X_WP:	0.100	Y_WP:	0.000	Y_WP:	0.500	X:	0.333	Y:	-0.245	Z:	0.497	yaw:	-1.974	yaw rate:	-40.152	Roll:	-2.797	Pitch:	0.182	Yaw:	-3.076	Thrust:	12.180
Time:	4.151	Roll Set Point:	-0.568	Pitch Set Point:	0.479	Yaw Set Point:	0.029	X_WP:	0.100	Y_WP:	0.000	Y_WP:	0.500	X:	0.331	Y:	-0.243	Z:	0.502	yaw:	-1.644	yaw rate:	33.032	Roll:	2.955	Pitch:	-6.595	Yaw:	1.547	Thrust:	76.624
Time:	4.163	Roll Set Point:	-0.565	Pitch Set Point:	0.475	Yaw Set Point:	0.033	X_WP:	0.100	Y_WP:	0.000	Y_WP:	0.500	X:	0.328	Y:	-0.241	Z:	0.507	yaw:	-1.903	yaw rate:	-25.944	Roll:	5.456	Pitch:	-3.351	Yaw:	-10.585	Thrust:	53.931
Time:	4.175	Roll Set Point:	-0.560	Pitch Set Point:	0.472	Yaw Set Point:	0.029	X_WP:	0.100	Y_WP:	0.000	Y_WP:	0.500	X:	0.326	Y:	-0.239	Z:	0.512	yaw:	-1.649	yaw rate:	25.424	Roll:	2.855	Pitch:	-5.933	Yaw:	0.924	Thrust:	64.454
Time:	4.190	Roll Set Point:	-0.556	Pitch Set Point:	0.468	Yaw Set Point:	0.033	X_WP:	0.100	Y_WP:	0.000	Y_WP:	0.500	X:	0.324	Y:	-0.238	Z:	0.516	yaw:	-1.864	yaw rate:	-21.486	Roll:	5.545	Pitch:	-4.334	Yaw:	-8.999	Thrust:	72.598
Time:	4.200	Roll Set Point:	-0.552	Pitch Set Point:	0.465	Yaw Set Point:	0.032	X_WP:	0.100	Y_WP:	0.000	Y_WP:	0.500	X:	0.322	Y:	-0.236	Z:	0.521	yaw:	-1.840	yaw rate:	2.442	Roll:	3.651	Pitch:	-4.648	Yaw:	-3.941	Thrust:	56.035
Time:	4.215	Roll Set Point:	-0.547	Pitch Set Point:	0.461	Yaw Set Point:	0.033	X_WP:	0.100	Y_WP:	0.000	Y_WP:	0.500	X:	0.320	Y:	-0.234	Z:	0.526	yaw:	-1.870	yaw rate:	-3.000	Roll:	4.450	Pitch:	-4.910	Yaw:	-5.589	Thrust:	75.468
Time:	4.227	Roll Set Point:	-0.534	Pitch Set Point:	0.453	Yaw Set Point:	0.026	X_WP:	0.100	Y_WP:	0.000	Y_WP:	0.500	X:	0.314	Y:	-0.229	Z:	0.540	yaw:	-1.497	yaw rate:	14.212	Roll:	-1.645	Pitch:	-2.903	Yaw:	3.565	Thrust:	33.992
Time:	4.243	Roll Set Point:	-0.531	Pitch Set Point:	0.449	Yaw Set Point:	0.031	X_WP:	0.100	Y_WP:	0.000	Y_WP:	0.500	X:	0.312	Y:	-0.228	Z:	0.545	yaw:	-1.789	yaw rate:	-29.292	Roll:	5.511	Pitch:	-4.090	Yaw:	-10.056	Thrust:	81.892
Time:	4.257	Roll Set Point:	-0.527	Pitch Set Point:	0.446	Yaw Set Point:	0.031	X_WP:	0.100	Y_WP:	0.000	Y_WP:	0.500	X:	0.310	Y:	-0.226	Z:	0.550	yaw:	-1.752	yaw rate:	3.728	Roll:	4.826	Pitch:	-5.468	Yaw:	-4.030	Thrust:	73.591
Time:	4.269	Roll Set Point:	-0.519	Pitch Set Point:	0.442	Yaw Set Point:	0.024	X_WP:	0.100	Y_WP:	0.000	Y_WP:	0.500	X:	0.307	Y:	-0.223	Z:	0.560	yaw:	-1.373	yaw rate:	7.724	Roll:	-0.637	Pitch:	-4.561	Yaw:	4.280	Thrust:	38.071
Time:	4.285	Roll Set Point:	-0.516	Pitch Set Point:	0.439	Yaw Set Point:	0.026	X_WP:	0.100	Y_WP:	0.000	Y_WP:	0.500	X:	0.305	Y:	-0.222	Z:	0.565	yaw:	-1.474	yaw rate:	-10.123	Roll:	5.291	Pitch:	-5.342	Yaw:	-6.448	Thrust:	86.528
Time:	4.296	Roll Set Point:	-0.512	Pitch Set Point:	0.436	Yaw Set Point:	0.027	X_WP:	0.100	Y_WP:	0.000	Y_WP:	0.500	X:	0.303	Y:	-0.221	Z:	0.570	yaw:	-1.576	yaw rate:	-10.126	Roll:	4.071	Pitch:	-4.109	Yaw:	-6.491	Thrust:	47.452
Time:	4.312	Roll Set Point:	-0.509	Pitch Set Point:	0.434	Yaw Set Point:	0.026	X_WP:	0.100	Y_WP:	0.000	Y_WP:	0.500	X:	0.301	Y:	-0.220	Z:	0.575	yaw:	-1.488	yaw rate:	8.765	Roll:	3.747	Pitch:	-5.561	Yaw:	-3.134	Thrust:	71.258
Time:	4.326	Roll Set Point:	-0.498	Pitch Set Point:	0.427	Yaw Set Point:	0.025	X_WP:	0.100	Y_WP:	0.000	Y_WP:	0.500	X:	0.297	Y:	-0.216	Z:	0.590	yaw:	-1.431	yaw rate:	11.861	Roll:	1.684	Pitch:	-3.475	Yaw:	-3.736	Thrust:	62.730
Time:	4.336	Roll Set Point:	-0.498	Pitch Set Point:	0.427	Yaw Set Point:	0.025	X_WP:	0.100	Y_WP:	0.000	Y_WP:	0.500	X:	0.297	Y:	-0.216	Z:	0.590	yaw:	-1.431	yaw rate:	11.861	Roll:	6.232	Pitch:	-6.493	Yaw:	-3.730	Thrust:	60.172
Time:	4.350	Roll Set Point:	-0.491	Pitch Set Point:	0.423	Yaw Set Point:	0.019	X_WP:	0.100	Y_WP:	0.000	Y_WP:	0.500	X:	0.294	Y:	-0.214	Z:	0.599	yaw:	-1.099	yaw rate:	28.258	Roll:	0.730	Pitch:	-5.052	Yaw:	2.551	Thrust:	47.396
Time:	4.364	Roll Set Point:	-0.489	Pitch Set Point:	0.421	Yaw Set Point:	0.022	X_WP:	0.100	Y_WP:	0.000	Y_WP:	0.500	X:	0.292	Y:	-0.213	Z:	0.604	yaw:	-1.237	yaw rate:	-13.847	Roll:	4.784	Pitch:	-4.858	Yaw:	-6.787	Thrust:	64.125
Time:	4.380	Roll Set Point:	-0.486	Pitch Set Point:	0.419	Yaw Set Point:	0.022	X_WP:	0.100	Y_WP:	0.000	Y_WP:	0.500	X:	0.291	Y:	-0.212	Z:	0.608	yaw:	-1.235	yaw rate:	0.175	Roll:	4.329	Pitch:	-5.395	Yaw:	-4.489	Thrust:	78.262
Time:	4.393	Roll Set Point:	-0.483	Pitch Set Point:	0.418	Yaw Set Point:	0.020	X_WP:	0.100	Y_WP:	0.000	Y_WP:	0.500	X:	0.289	Y:	-0.211	Z:	0.613	yaw:	-1.142	yaw rate:	9.312	Roll:	4.351	Pitch:	-5.917	Yaw:	-2.082	Thrust:	72.492
Time:	4.404	Roll Set Point:	-0.476	Pitch Set Point:	0.415	Yaw Set Point:	0.013	X_WP:	0.100	Y_WP:	0.000	Y_WP:	0.500	X:	0.287	Y:	-0.209	Z:	0.621	yaw:	-0.747	yaw rate:	29.785	Roll:	-0.301	Pitch:	-5.355	Yaw:	5.905	Thrust:	35.446
Time:	4.418	Roll Set Point:	-0.474	Pitch Set Point:	0.413	Yaw Set Point:	0.015	X_WP:	0.100	Y_WP:	0.000	Y_WP:	0.500	X:	0.285	Y:	-0.208	Z:	0.625	yaw:	-0.883	yaw rate:	-13.609	Roll:	4.851	Pitch:	-5.094	Yaw:	-6.229	Thrust:	70.264
Time:	4.429	Roll Set Point:	-0.470	Pitch Set Point:	0.412	Yaw Set Point:	0.010	X_WP:	0.100	Y_WP:	0.000	Y_WP:	0.500	X:	0.284	Y:	-0.207	Z:	0.629	yaw:	-0.566	yaw rate:	31.756	Roll:	2.837	Pitch:	-6.443	Yaw:	4.237	Thrust:	52.552
Time:	4.441	Roll Set Point:	-0.465	Pitch Set Point:	0.409	Yaw Set Point:	0.007	X_WP:	0.100	Y_WP:	0.000	Y_WP:	0.500	X:	0.282	Y:	-0.205	Z:	0.637	yaw:	-0.412	yaw rate:	15.390	Roll:	1.516	Pitch:	-4.770	Yaw:	0.659	Thrust:	34.934
Time:	4.456	Roll Set Point:	-0.464	Pitch Set Point:	0.408	Yaw Set Point:	0.011	X_WP:	0.100	Y_WP:	0.000	Y_WP:	0.500	X:	0.281	Y:	-0.205	Z:	0.641	yaw:	-0.638	yaw rate:	-22.595	Roll:	5.357	Pitch:	-5.006	Yaw:	-7.514	Thrust:	76.229
Time:	4.467	Roll Set Point:	-0.461	Pitch Set Point:	0.406	Yaw Set Point:	0.009	X_WP:	0.100	Y_WP:	0.000	Y_WP:	0.500	X:	0.279	Y:	-0.204	Z:	0.645	yaw:	-0.538	yaw rate:	9.959	Roll:	3.230	Pitch:	-5.643	Yaw:	-0.328	Thrust:	46.667
Time:	4.481	Roll Set Point:	-0.458	Pitch Set Point:	0.406	Yaw Set Point:	0.004	X_WP:	0.100	Y_WP:	0.000	Y_WP:	0.500	X:	0.278	Y:	-0.203	Z:	0.648	yaw:	-0.232	yaw rate:	30.574	Roll:	2.567	Pitch:	-6.415	Yaw:	2.898	Thrust:	61.443
Time:	4.493	Roll Set Point:	-0.453	Pitch Set Point:	0.403	Yaw Set Point:	0.005	X_WP:	0.100	Y_WP:	0.000	Y_WP:	0.500	X:	0.276	Y:	-0.202	Z:	0.656	yaw:	-0.297	yaw rate:	8.530	Roll:	3.273	Pitch:	-4.800	Yaw:	-3.939	Thrust:	48.677
Time:	4.505	Roll Set Point:	-0.450	Pitch Set Point:	0.402	Yaw Set Point:	0.001	X_WP:	0.100	Y_WP:	0.000	Y_WP:	0.500	X:	0.275	Y:	-0.201	Z:	0.659	yaw:	-0.070	yaw rate:	22.697	Roll:	3.005	Pitch:	-6.118	Yaw:	2.432	Thrust:	57.445
Time:	4.521	Roll Set Point:	-0.449	Pitch Set Point:	0.401	Yaw Set Point:	0.002	X_WP:	0.100	Y_WP:	0.000	Y_WP:	0.500	X:	0.274	Y:	-0.201	Z:	0.663	yaw:	-0.134	yaw rate:	-6.392	Roll:	4.736	Pitch:	-5.715	Yaw:	-4.009	Thrust:	79.312
Time:	4.532	Roll Set Point:	-0.444	Pitch Set Point:	0.399	Yaw Set Point:	-0.001	X_WP:	0.100	Y_WP:	0.000	Y_WP:	0.500	X:	0.272	Y:	-0.200	Z:	0.669	yaw:	0.049	yaw rate:	18.244	Roll:	1.239	Pitch:	-5.272	Yaw:	2.453	Thrust:	33.525
Time:	4.549	Roll Set Point:	-0.442	Pitch Set Point:	0.398	Yaw Set Point:	-0.001	X_WP:	0.100	Y_WP:	0.000	Y_WP:	0.500	X:	0.271	Y:	-0.199	Z:	0.672	yaw:	0.069	yaw rate:	2.024	Roll:	4.493	Pitch:	-5.984	Yaw:	-2.601	Thrust:	88.845
Time:	4.562	Roll Set Point:	-0.437	Pitch Set Point:	0.397	Yaw Set Point:	-0.009	X_WP:	0.100	Y_WP:	0.000	Y_WP:	0.500	X:	0.269	Y:	-0.198	Z:	0.678	yaw:	0.507	yaw rate:	9.814	Roll:	1.173	Pitch:	-6.249	Yaw:	7.612	Thrust:	49.006
Time:	4.575	Roll Set Point:	-0.435	Pitch Set Point:	0.396	Yaw Set Point:	-0.006	X_WP:	0.100	Y_WP:	0.000	Y_WP:	0.500	X:	0.268	Y:	-0.198	Z:	0.680	yaw:	0.332	yaw rate:	-17.432	Roll:	4.612	Pitch:	-4.972	Yaw:	-5.332	Thrust:	51.130
Time:	4.587	Roll Set Point:	-0.433	Pitch Set Point:	0.395	Yaw Set Point:	-0.007	X_WP:	0.100	Y_WP:	0.000	Y_WP:	0.500	X:	0.267	Y:	-0.197	Z:	0.683	yaw:	0.378	yaw rate:	4.579	Roll:	4.077	Pitch:	-5.814	Yaw:	-0.592	Thrust:	65.229
Time:	4.599	Roll Set Point:	-0.431	Pitch Set Point:	0.395	Yaw Set Point:	-0.012	X_WP:	0.100	Y_WP:	0.000	Y_WP:	0.500	X:	0.266	Y:	-0.196	Z:	0.685	yaw:	0.663	yaw rate:	28.528	Roll:	2.650	Pitch:	-6.525	Yaw:	4.815	Thrust:	56.064
Time:	4.617	Roll Set Point:	-0.430	Pitch Set Point:	0.394	Yaw Set Point:	-0.008	X_WP:	0.100	Y_WP:	0.000	Y_WP:	0.500	X:	0.266	Y:	-0.196	Z:	0.688	yaw:	0.432	yaw rate:	-23.120	Roll:	5.274	Pitch:	-5.450	Yaw:	-5.929	Thrust:	90.988
Time:	4.628	Roll Set Point:	-0.426	Pitch Set Point:	0.392	Yaw Set Point:	-0.009	X_WP:	0.100	Y_WP:	0.000	Y_WP:	0.500	X:	0.264	Y:	-0.195	Z:	0.693	yaw:	0.510	yaw rate:	0.201	Roll:	2.517	Pitch:	-5.149	Yaw:	0.627	Thrust:	37.791
Time:	4.642	Roll Set Point:	-0.422	Pitch Set Point:	0.391	Yaw Set Point:	-0.014	X_WP:	0.100	Y_WP:	0.000	Y_WP:	0.500	X:	0.262	Y:	-0.194	Z:	0.697	yaw:	0.785	yaw rate:	27.503	Roll:	1.490	Pitch:	-5.793	Yaw:	4.331	Thrust:	49.966
Time:	4.658	Roll Set Point:	-0.419	Pitch Set Point:	0.389	Yaw Set Point:	-0.013	X_WP:	0.100	Y_WP:	0.000	Y_WP:	0.500	X:	0.261	Y:	-0.194	Z:	0.701	yaw:	0.724	yaw rate:	-0.063	Roll:	4.061	Pitch:	-5.668	Yaw:	-2.988	Thrust:	89.212
Time:	4.669	Roll Set Point:	-0.417	Pitch Set Point:	0.389	Yaw Set Point:	-0.014	X_WP:	0.100	Y_WP:	0.000	Y_WP:	0.500	X:	0.260	Y:	-0.193	Z:	0.703	yaw:	0.809	yaw rate:	8.474	Roll:	3.441	Pitch:	-5.898	Yaw:	1.212	Thrust:	47.962
Time:	4.684	Roll Set Point:	-0.416	Pitch Set Point:	0.388	Yaw Set Point:	-0.014	X_WP:	0.100	Y_WP:	0.000	Y_WP:	0.500	X:	0.259	Y:	-0.193	Z:	0.704	yaw:	0.792	yaw rate:	-1.649	Roll:	4.014	Pitch:	-5.515	Yaw:	-1.583	Thrust:	58.331
Time:	4.695	Roll Set Point:	-0.415	Pitch Set Point:	0.388	Yaw Set Point:	-0.014	X_WP:	0.100	Y_WP:	0.000	Y_WP:	0.500	X:	0.259	Y:	-0.193	Z:	0.706	yaw:	0.814	yaw rate:	2.136	Roll:	4.100	Pitch:	-5.834	Yaw:	-0.495	Thrust:	61.781
Time:	4.714	Roll Set Point:	-0.412	Pitch Set Point:	0.387	Yaw Set Point:	-0.019	X_WP:	0.100	Y_WP:	0.000	Y_WP:	0.500	X:	0.258	Y:	-0.192	Z:	0.707	yaw:	1.102	yaw rate:	28.800	Roll:	3.287	Pitch:	-6.519	Yaw:	2.573	Thrust:	83.690
Time:	4.727	Roll Set Point:	-0.409	Pitch Set Point:	0.385	Yaw Set Point:	-0.014	X_WP:	0.100	Y_WP:	0.000	Y_WP:	0.500	X:	0.256	Y:	-0.192	Z:	0.711	yaw:	0.812	yaw rate:	-0.830	Roll:	3.942	Pitch:	-4.501	Yaw:	-7.096	Thrust:	59.625
Time:	4.738	Roll Set Point:	-0.408	Pitch Set Point:	0.385	Yaw Set Point:	-0.015	X_WP:	0.100	Y_WP:	0.000	Y_WP:	0.500	X:	0.256	Y:	-0.191	Z:	0.712	yaw:	0.886	yaw rate:	7.453	Roll:	3.645	Pitch:	-5.979	Yaw:	1.095	Thrust:	49.032
Time:	4.751	Roll Set Point:	-0.407	Pitch Set Point:	0.384	Yaw Set Point:	-0.016	X_WP:	0.100	Y_WP:	0.000	Y_WP:	0.500	X:	0.255	Y:	-0.191	Z:	0.713	yaw:	0.927	yaw rate:	4.054	Roll:	4.027	Pitch:	-5.879	Yaw:	-0.493	Thrust:	67.816
Time:	4.762	Roll Set Point:	-0.406	Pitch Set Point:	0.384	Yaw Set Point:	-0.016	X_WP:	0.100	Y_WP:	0.000	Y_WP:	0.500	X:	0.254	Y:	-0.191	Z:	0.714	yaw:	0.943	yaw rate:	1.582	Roll:	3.929	Pitch:	-5.789	Yaw:	-0.219	Thrust:	52.066
Time:	4.775	Roll Set Point:	-0.404	Pitch Set Point:	0.384	Yaw Set Point:	-0.018	X_WP:	0.100	Y_WP:	0.000	Y_WP:	0.500	X:	0.254	Y:	-0.191	Z:	0.715	yaw:	1.006	yaw rate:	6.298	Roll:	3.747	Pitch:	-5.946	Yaw:	0.557	Thrust:	57.922
Time:	4.788	Roll Set Point:	-0.403	Pitch Set Point:	0.383	Yaw Set Point:	-0.017	X_WP:	0.100	Y_WP:	0.000	Y_WP:	0.500	X:	0.253	Y:	-0.190	Z:	0.716	yaw:	0.960	yaw rate:	-4.624	Roll:	4.420	Pitch:	-5.637	Yaw:	-1.885	Thrust:	63.436
Time:	4.800	Roll Set Point:	-0.402	Pitch Set Point:	0.383	Yaw Set Point:	-0.018	X_WP:	0.100	Y_WP:	0.000	Y_WP:	0.500	X:	0.253	Y:	-0.190	Z:	0.717	yaw:	1.012	yaw rate:	5.298	Roll:	3.726	Pitch:	-5.930	Yaw:	0.634	Thrust:	47.930
Time:	4.814	Roll Set Point:	-0.401	Pitch Set Point:	0.382	Yaw Set Point:	-0.018	X_WP:	0.100	Y_WP:	0.000	Y_WP:	0.500	X:	0.252	Y:	-0.190	Z:	0.718	yaw:	1.033	yaw rate:	2.101	Roll:	4.000	Pitch:	-5.880	Yaw:	-0.669	Thrust:	68.654
Time:	4.826	Roll Set Point:	-0.398	Pitch Set Point:	0.382	Yaw Set Point:	-0.024	X_WP:	0.100	Y_WP:	0.000	Y_WP:	0.500	X:	0.251	Y:	-0.189	Z:	0.720	yaw:	1.368	yaw rate:	27.363	Roll:	2.313	Pitch:	-6.502	Yaw:	8.402	Thrust:	42.689
Time:	4.836	Roll Set Point:	-0.398	Pitch Set Point:	0.382	Yaw Set Point:	-0.021	X_WP:	0.100	Y_WP:	0.000	Y_WP:	0.500	X:	0.251	Y:	-0.189	Z:	0.721	yaw:	1.212	yaw rate:	-15.617	Roll:	4.595	Pitch:	-5.305	Yaw:	-3.896	Thrust:	46.705
Time:	4.850	Roll Set Point:	-0.396	Pitch Set Point:	0.381	Yaw Set Point:	-0.022	X_WP:	0.100	Y_WP:	0.000	Y_WP:	0.500	X:	0.250	Y:	-0.189	Z:	0.723	yaw:	1.288	yaw rate:	7.625	Roll:	3.251	Pitch:	-5.963	Yaw:	0.966	Thrust:	58.066
Time:	4.861	Roll Set Point:	-0.395	Pitch Set Point:	0.381	Yaw Set Point:	-0.022	X_WP:	0.100	Y_WP:	0.000	Y_WP:	0.500	X:	0.250	Y:	-0.189	Z:	0.724	yaw:	1.289	yaw rate:	0.110	Roll:	4.081	Pitch:	-5.793	Yaw:	-0.073	Thrust:	47.513
Time:	4.872	Roll Set Point:	-0.394	Pitch Set Point:	0.381	Yaw Set Point:	-0.023	X_WP:	0.100	Y_WP:	0.000	Y_WP:	0.500	X:	0.249	Y:	-0.189	Z:	0.725	yaw:	1.301	yaw rate:	1.202	Roll:	3.778	Pitch:	-5.814	Yaw:	0.434	Thrust:	39.740
Time:	4.885	Roll Set Point:	-0.393	Pitch Set Point:	0.381	Yaw Set Point:	-0.025	X_WP:	0.100	Y_WP:	0.000	Y_WP:	0.500	X:	0.249	Y:	-0.189	Z:	0.726	yaw:	1.416	yaw rate:	11.459	Roll:	3.799	Pitch:	-6.271	Yaw:	1.581	Thrust:	66.563
Time:	4.897	Roll Set Point:	-0.392	Pitch Set Point:	0.381	Yaw Set Point:	-0.025	X_WP:	0.100	Y_WP:	0.000	Y_WP:	0.500	X:	0.248	Y:	-0.189	Z:	0.727	yaw:	1.418	yaw rate:	0.245	Roll:	3.996	Pitch:	-5.873	Yaw:	0.163	Thrust:	46.280
Time:	4.914	Roll Set Point:	-0.391	Pitch Set Point:	0.381	Yaw Set Point:	-0.026	X_WP:	0.100	Y_WP:	0.000	Y_WP:	0.500	X:	0.248	Y:	-0.189	Z:	0.728	yaw:	1.469	yaw rate:	5.084	Roll:	3.979	Pitch:	-6.154	Yaw:	0.299	Thrust:	65.972
Time:	4.926	Roll Set Point:	-0.389	Pitch Set Point:	0.381	Yaw Set Point:	-0.029	X_WP:	0.100	Y_WP:	0.000	Y_WP:	0.500	X:	0.247	Y:	-0.188	Z:	0.729	yaw:	1.634	yaw rate:	9.917	Roll:	3.361	Pitch:	-6.418	Yaw:	3.379	Thrust:	62.026
Time:	4.936	Roll Set Point:	-0.387	Pitch Set Point:	0.381	Yaw Set Point:	-0.034	X_WP:	0.100	Y_WP:	0.000	Y_WP:	0.500	X:	0.247	Y:	-0.188	Z:	0.729	yaw:	1.930	yaw rate:	29.644	Roll:	1.995	Pitch:	-6.624	Yaw:	7.896	Thrust:	46.419
Time:	4.951	Roll Set Point:	-0.386	Pitch Set Point:	0.381	Yaw Set Point:	-0.035	X_WP:	0.100	Y_WP:	0.000	Y_WP:	0.500	X:	0.246	Y:	-0.188	Z:	0.729	yaw:	1.979	yaw rate:	4.936	Roll:	4.018	Pitch:	-6.263	Yaw:	1.238	Thrust:	66.910
Time:	4.962	Roll Set Point:	-0.385	Pitch Set Point:	0.381	Yaw Set Point:	-0.036	X_WP:	0.100	Y_WP:	0.000	Y_WP:	0.500	X:	0.246	Y:	-0.188	Z:	0.729	yaw:	2.035	yaw rate:	5.558	Roll:	3.731	Pitch:	-6.164	Yaw:	2.142	Thrust:	52.008
Time:	4.975	Roll Set Point:	-0.384	Pitch Set Point:	0.381	Yaw Set Point:	-0.038	X_WP:	0.100	Y_WP:	0.000	Y_WP:	0.500	X:	0.246	Y:	-0.188	Z:	0.729	yaw:	2.162	yaw rate:	12.684	Roll:	3.483	Pitch:	-6.500	Yaw:	3.603	Thrust:	56.274
Time:	4.992	Roll Set Point:	-0.383	Pitch Set Point:	0.381	Yaw Set Point:	-0.036	X_WP:	0.100	Y_WP:	0.000	Y_WP:	0.500	X:	0.245	Y:	-0.188	Z:	0.727	yaw:	2.074	yaw rate:	11.675	Roll:	4.232	Pitch:	-6.110	Yaw:	-1.239	Thrust:	76.390
Time:	5.003	Roll Set Point:	-0.383	Pitch Set Point:	0.382	Yaw Set Point:	-0.037	X_WP:	0.100	Y_WP:	0.000	Y_WP:	0.500	X:	0.245	Y:	-0.188	Z:	0.727	yaw:	2.096	yaw rate:	2.176	Roll:	3.857	Pitch:	-6.107	Yaw:	1.749	Thrust:	51.902
Time:	5.017	Roll Set Point:	-0.382	Pitch Set Point:	0.382	Yaw Set Point:	-0.038	X_WP:	0.100	Y_WP:	0.000	Y_WP:	0.500	X:	0.245	Y:	-0.188	Z:	0.726	yaw:	2.179	yaw rate:	8.352	Roll:	3.766	Pitch:	-6.359	Yaw:	2.598	Thrust:	57.295
Time:	5.029	Roll Set Point:	-0.381	Pitch Set Point:	0.382	Yaw Set Point:	-0.043	X_WP:	0.100	Y_WP:	0.000	Y_WP:	0.500	X:	0.244	Y:	-0.188	Z:	0.725	yaw:	2.439	yaw rate:	25.961	Roll:	3.188	Pitch:	-6.776	Yaw:	6.607	Thrust:	61.582
Time:	5.041	Roll Set Point:	-0.380	Pitch Set Point:	0.382	Yaw Set Point:	-0.042	X_WP:	0.100	Y_WP:	0.000	Y_WP:	0.500	X:	0.244	Y:	-0.188	Z:	0.723	yaw:	2.378	yaw rate:	-6.072	Roll:	3.904	Pitch:	-6.177	Yaw:	0.037	Thrust:	61.232
Time:	5.057	Roll Set Point:	-0.379	Pitch Set Point:	0.383	Yaw Set Point:	-0.044	X_WP:	0.100	Y_WP:	0.000	Y_WP:	0.500	X:	0.244	Y:	-0.188	Z:	0.722	yaw:	2.515	yaw rate:	13.670	Roll:	3.790	Pitch:	-6.576	Yaw:	3.482	Thrust:	70.333
Time:	5.067	Roll Set Point:	-0.379	Pitch Set Point:	0.383	Yaw Set Point:	-0.044	X_WP:	0.100	Y_WP:	0.000	Y_WP:	0.500	X:	0.244	Y:	-0.188	Z:	0.721	yaw:	2.519	yaw rate:	0.475	Roll:	4.011	Pitch:	-6.205	Yaw:	1.877	Thrust:	50.628
Time:	5.082	Roll Set Point:	-0.377	Pitch Set Point:	0.383	Yaw Set Point:	-0.049	X_WP:	0.100	Y_WP:	0.000	Y_WP:	0.500	X:	0.243	Y:	-0.188	Z:	0.719	yaw:	2.813	yaw rate:	29.315	Roll:	2.923	Pitch:	-6.879	Yaw:	6.901	Thrust:	64.949
Time:	5.095	Roll Set Point:	-0.376	Pitch Set Point:	0.384	Yaw Set Point:	-0.052	X_WP:	0.100	Y_WP:	0.000	Y_WP:	0.500	X:	0.243	Y:	-0.188	Z:	0.717	yaw:	2.974	yaw rate:	30.490	Roll:	3.231	Pitch:	-6.829	Yaw:	5.245	Thrust:	63.835
Time:	5.113	Roll Set Point:	-0.377	Pitch Set Point:	0.384	Yaw Set Point:	-0.048	X_WP:	0.100	Y_WP:	0.000	Y_WP:	0.500	X:	0.243	Y:	-0.189	Z:	0.715	yaw:	2.731	yaw rate:	-24.278	Roll:	5.137	Pitch:	-6.036	Yaw:	-2.526	Thrust:	84.675
Time:	5.125	Roll Set Point:	-0.376	Pitch Set Point:	0.385	Yaw Set Point:	-0.049	X_WP:	0.100	Y_WP:	0.000	Y_WP:	0.500	X:	0.243	Y:	-0.189	Z:	0.712	yaw:	2.825	yaw rate:	9.449	Roll:	3.784	Pitch:	-6.739	Yaw:	3.977	Thrust:	67.472
Time:	5.138	Roll Set Point:	-0.375	Pitch Set Point:	0.385	Yaw Set Point:	-0.054	X_WP:	0.100	Y_WP:	0.000	Y_WP:	0.500	X:	0.243	Y:	-0.189	Z:	0.711	yaw:	3.067	yaw rate:	24.203	Roll:	2.886	Pitch:	-6.830	Yaw:	7.132	Thrust:	55.395
Time:	5.153	Roll Set Point:	-0.375	Pitch Set Point:	0.386	Yaw Set Point:	-0.051	X_WP:	0.100	Y_WP:	0.000	Y_WP:	0.500	X:	0.242	Y:	-0.189	Z:	0.708	yaw:	2.948	yaw rate:	7.058	Roll:	4.525	Pitch:	-6.449	Yaw:	-0.256	Thrust:	71.968
Time:	5.165	Roll Set Point:	-0.374	Pitch Set Point:	0.386	Yaw Set Point:	-0.052	X_WP:	0.100	Y_WP:	0.000	Y_WP:	0.500	X:	0.242	Y:	-0.190	Z:	0.706	yaw:	3.006	yaw rate:	5.753	Roll:	3.909	Pitch:	-6.512	Yaw:	3.748	Thrust:	55.220
Time:	5.183	Roll Set Point:	-0.374	Pitch Set Point:	0.386	Yaw Set Point:	-0.051	X_WP:	0.100	Y_WP:	0.000	Y_WP:	0.500	X:	0.242	Y:	-0.190	Z:	0.704	yaw:	2.930	yaw rate:	-7.577	Roll:	4.536	Pitch:	-6.298	Yaw:	0.217	Thrust:	83.286
Time:	5.194	Roll Set Point:	-0.374	Pitch Set Point:	0.387	Yaw Set Point:	-0.052	X_WP:	0.100	Y_WP:	0.000	Y_WP:	0.500	X:	0.242	Y:	-0.190	Z:	0.701	yaw:	2.971	yaw rate:	2.643	Roll:	4.103	Pitch:	-6.717	Yaw:	3.354	Thrust:	60.601
Time:	5.213	Roll Set Point:	-0.373	Pitch Set Point:	0.388	Yaw Set Point:	-0.055	X_WP:	0.100	Y_WP:	0.000	Y_WP:	0.500	X:	0.242	Y:	-0.190	Z:	0.700	yaw:	3.174	yaw rate:	20.269	Roll:	3.572	Pitch:	-6.869	Yaw:	4.840	Thrust:	75.263
Time:	5.226	Roll Set Point:	-0.373	Pitch Set Point:	0.389	Yaw Set Point:	-0.052	X_WP:	0.100	Y_WP:	0.000	Y_WP:	0.500	X:	0.242	Y:	-0.191	Z:	0.695	yaw:	2.981	yaw rate:	-4.445	Roll:	4.888	Pitch:	-6.610	Yaw:	-1.532	Thrust:	76.264
Time:	5.238	Roll Set Point:	-0.373	Pitch Set Point:	0.389	Yaw Set Point:	-0.053	X_WP:	0.100	Y_WP:	0.000	Y_WP:	0.500	X:	0.242	Y:	-0.191	Z:	0.694	yaw:	3.021	yaw rate:	3.976	Roll:	4.021	Pitch:	-6.602	Yaw:	3.542	Thrust:	49.741
Time:	5.252	Roll Set Point:	-0.373	Pitch Set Point:	0.390	Yaw Set Point:	-0.052	X_WP:	0.100	Y_WP:	0.000	Y_WP:	0.500	X:	0.242	Y:	-0.191	Z:	0.692	yaw:	2.994	yaw rate:	-2.689	Roll:	4.398	Pitch:	-6.459	Yaw:	1.576	Thrust:	65.379
Time:	5.263	Roll Set Point:	-0.373	Pitch Set Point:	0.390	Yaw Set Point:	-0.053	X_WP:	0.100	Y_WP:	0.000	Y_WP:	0.500	X:	0.242	Y:	-0.191	Z:	0.691	yaw:	3.035	yaw rate:	4.085	Roll:	4.009	Pitch:	-6.610	Yaw:	3.486	Thrust:	52.069
Time:	5.279	Roll Set Point:	-0.373	Pitch Set Point:	0.390	Yaw Set Point:	-0.051	X_WP:	0.100	Y_WP:	0.000	Y_WP:	0.500	X:	0.242	Y:	-0.192	Z:	0.689	yaw:	2.921	yaw rate:	-11.323	Roll:	4.779	Pitch:	-6.261	Yaw:	-0.062	Thrust:	67.206
Time:	5.292	Roll Set Point:	-0.373	Pitch Set Point:	0.391	Yaw Set Point:	-0.055	X_WP:	0.100	Y_WP:	0.000	Y_WP:	0.500	X:	0.242	Y:	-0.192	Z:	0.686	yaw:	3.134	yaw rate:	15.520	Roll:	3.584	Pitch:	-7.268	Yaw:	6.543	Thrust:	65.830
Time:	5.304	Roll Set Point:	-0.373	Pitch Set Point:	0.392	Yaw Set Point:	-0.050	X_WP:	0.100	Y_WP:	0.000	Y_WP:	0.500	X:	0.242	Y:	-0.192	Z:	0.684	yaw:	2.868	yaw rate:	-26.643	Roll:	5.506	Pitch:	-5.932	Yaw:	-3.495	Thrust:	51.314
Time:	5.317	Roll Set Point:	-0.373	Pitch Set Point:	0.392	Yaw Set Point:	-0.054	X_WP:	0.100	Y_WP:	0.000	Y_WP:	0.500	X:	0.242	Y:	-0.192	Z:	0.683	yaw:	3.094	yaw rate:	22.665	Roll:	3.343	Pitch:	-7.072	Yaw:	7.040	Thrust:	59.983
Time:	5.328	Roll Set Point:	-0.374	Pitch Set Point:	0.393	Yaw Set Point:	-0.049	X_WP:	0.100	Y_WP:	0.000	Y_WP:	0.500	X:	0.242	Y:	-0.193	Z:	0.680	yaw:	2.820	yaw rate:	-27.451	Roll:	5.429	Pitch:	-6.227	Yaw:	-4.037	Thrust:	56.936
Time:	5.341	Roll Set Point:	-0.374	Pitch Set Point:	0.393	Yaw Set Point:	-0.047	X_WP:	0.100	Y_WP:	0.000	Y_WP:	0.500	X:	0.242	Y:	-0.193	Z:	0.678	yaw:	2.720	yaw rate:	-9.937	Roll:	4.795	Pitch:	-6.324	Yaw:	-0.013	Thrust:	55.683
Time:	5.352	Roll Set Point:	-0.374	Pitch Set Point:	0.394	Yaw Set Point:	-0.048	X_WP:	0.100	Y_WP:	0.000	Y_WP:	0.500	X:	0.242	Y:	-0.194	Z:	0.676	yaw:	2.761	yaw rate:	4.111	Roll:	4.032	Pitch:	-6.744	Yaw:	3.204	Thrust:	51.540
Time:	5.364	Roll Set Point:	-0.374	Pitch Set Point:	0.394	Yaw Set Point:	-0.048	X_WP:	0.100	Y_WP:	0.000	Y_WP:	0.500	X:	0.242	Y:	-0.194	Z:	0.674	yaw:	2.725	yaw rate:	-3.651	Roll:	4.369	Pitch:	-6.475	Yaw:	1.401	Thrust:	51.991
Time:	5.385	Roll Set Point:	-0.374	Pitch Set Point:	0.395	Yaw Set Point:	-0.047	X_WP:	0.100	Y_WP:	0.000	Y_WP:	0.500	X:	0.242	Y:	-0.194	Z:	0.672	yaw:	2.680	yaw rate:	-4.518	Roll:	4.691	Pitch:	-6.713	Yaw:	0.322	Thrust:	90.974
Time:	5.397	Roll Set Point:	-0.374	Pitch Set Point:	0.396	Yaw Set Point:	-0.047	X_WP:	0.100	Y_WP:	0.000	Y_WP:	0.500	X:	0.242	Y:	-0.195	Z:	0.668	yaw:	2.694	yaw rate:	2.242	Roll:	4.222	Pitch:	-7.015	Yaw:	2.446	Thrust:	60.382
Time:	5.418	Roll Set Point:	-0.374	Pitch Set Point:	0.396	Yaw Set Point:	-0.047	X_WP:	0.100	Y_WP:	0.000	Y_WP:	0.500	X:	0.242	Y:	-0.195	Z:	0.666	yaw:	2.671	yaw rate:	-2.380	Roll:	4.423	Pitch:	-6.750	Yaw:	0.735	Thrust:	90.903
Time:	5.430	Roll Set Point:	-0.373	Pitch Set Point:	0.398	Yaw Set Point:	-0.051	X_WP:	0.100	Y_WP:	0.000	Y_WP:	0.500	X:	0.242	Y:	-0.196	Z:	0.659	yaw:	2.913	yaw rate:	1.458	Roll:	3.676	Pitch:	-7.845	Yaw:	7.177	Thrust:	74.963
Time:	5.451	Roll Set Point:	-0.374	Pitch Set Point:	0.398	Yaw Set Point:	-0.045	X_WP:	0.100	Y_WP:	0.000	Y_WP:	0.500	X:	0.241	Y:	-0.196	Z:	0.657	yaw:	2.586	yaw rate:	-32.757	Roll:	5.676	Pitch:	-6.167	Yaw:	-3.401	Thrust:	84.941
Time:	5.463	Roll Set Point:	-0.374	Pitch Set Point:	0.399	Yaw Set Point:	-0.043	X_WP:	0.100	Y_WP:	0.000	Y_WP:	0.500	X:	0.241	Y:	-0.197	Z:	0.651	yaw:	2.465	yaw rate:	-11.935	Roll:	4.909	Pitch:	-6.763	Yaw:	-0.694	Thrust:	72.211
Time:	5.482	Roll Set Point:	-0.374	Pitch Set Point:	0.400	Yaw Set Point:	-0.045	X_WP:	0.100	Y_WP:	0.000	Y_WP:	0.500	X:	0.241	Y:	-0.197	Z:	0.649	yaw:	2.586	yaw rate:	12.142	Roll:	3.955	Pitch:	-6.986	Yaw:	2.692	Thrust:	80.403
Time:	5.495	Roll Set Point:	-0.375	Pitch Set Point:	0.400	Yaw Set Point:	-0.038	X_WP:	0.100	Y_WP:	0.000	Y_WP:	0.500	X:	0.241	Y:	-0.198	Z:	0.644	yaw:	2.182	yaw rate:	-12.156	Roll:	5.785	Pitch:	-6.254	Yaw:	-6.531	Thrust:	71.252
Time:	5.515	Roll Set Point:	-0.375	Pitch Set Point:	0.401	Yaw Set Point:	-0.036	X_WP:	0.100	Y_WP:	0.000	Y_WP:	0.500	X:	0.241	Y:	-0.198	Z:	0.642	yaw:	2.059	yaw rate:	-12.246	Roll:	4.915	Pitch:	-6.531	Yaw:	-1.219	Thrust:	79.372
Time:	5.528	Roll Set Point:	-0.376	Pitch Set Point:	0.401	Yaw Set Point:	-0.030	X_WP:	0.100	Y_WP:	0.000	Y_WP:	0.500	X:	0.241	Y:	-0.199	Z:	0.638	yaw:	1.738	yaw rate:	-14.965	Roll:	5.574	Pitch:	-6.425	Yaw:	-5.349	Thrust:	71.890
Time:	5.548	Roll Set Point:	-0.376	Pitch Set Point:	0.402	Yaw Set Point:	-0.033	X_WP:	0.100	Y_WP:	0.000	Y_WP:	0.500	X:	0.241	Y:	-0.199	Z:	0.636	yaw:	1.884	yaw rate:	14.630	Roll:	3.670	Pitch:	-7.005	Yaw:	2.218	Thrust:	75.606
Time:	5.561	Roll Set Point:	-0.378	Pitch Set Point:	0.402	Yaw Set Point:	-0.021	X_WP:	0.100	Y_WP:	0.000	Y_WP:	0.500	X:	0.241	Y:	-0.200	Z:	0.632	yaw:	1.202	yaw rate:	-15.755	Roll:	6.567	Pitch:	-5.935	Yaw:	-12.453	Thrust:	72.043
Time:	5.575	Roll Set Point:	-0.378	Pitch Set Point:	0.403	Yaw Set Point:	-0.018	X_WP:	0.100	Y_WP:	0.000	Y_WP:	0.500	X:	0.241	Y:	-0.200	Z:	0.631	yaw:	1.042	yaw rate:	-15.995	Roll:	5.133	Pitch:	-6.219	Yaw:	-3.399	Thrust:	56.294
Time:	5.591	Roll Set Point:	-0.378	Pitch Set Point:	0.403	Yaw Set Point:	-0.016	X_WP:	0.100	Y_WP:	0.000	Y_WP:	0.500	X:	0.241	Y:	-0.200	Z:	0.631	yaw:	0.917	yaw rate:	-12.530	Roll:	5.000	Pitch:	-6.467	Yaw:	-2.786	Thrust:	72.647
Time:	5.604	Roll Set Point:	-0.379	Pitch Set Point:	0.403	Yaw Set Point:	-0.014	X_WP:	0.100	Y_WP:	0.000	Y_WP:	0.500	X:	0.241	Y:	-0.201	Z:	0.630	yaw:	0.775	yaw rate:	-14.179	Roll:	4.855	Pitch:	-6.373	Yaw:	-3.398	Thrust:	50.131
