Time:	2.109	Roll Set Point:	-0.235	Pitch Set Point:	-0.114	Yaw Set Point:	-0.585	X_WP:	0.000	Y_WP:	0.000	Y_WP:	0.500	X:	0.100	Y:	0.093	Z:	0.402	yaw:	33.496	yaw rate:	-0.912	Roll:	3.904	Pitch:	0.635	Yaw:	46.770	Thrust:	5.369
Time:	2.124	Roll Set Point:	-0.235	Pitch Set Point:	-0.114	Yaw Set Point:	-0.585	X_WP:	0.000	Y_WP:	0.000	Y_WP:	0.500	X:	0.100	Y:	0.093	Z:	0.402	yaw:	33.496	yaw rate:	-0.912	Roll:	3.909	Pitch:	0.636	Yaw:	46.953	Thrust:	5.552
Time:	2.140	Roll Set Point:	-0.235	Pitch Set Point:	-0.114	Yaw Set Point:	-0.585	X_WP:	0.000	Y_WP:	0.000	Y_WP:	0.500	X:	0.100	Y:	0.093	Z:	0.402	yaw:	33.505	yaw rate:	0.895	Roll:	3.918	Pitch:	0.618	Yaw:	47.298	Thrust:	5.747
Time:	2.156	Roll Set Point:	-0.235	Pitch Set Point:	-0.114	Yaw Set Point:	-0.584	X_WP:	0.000	Y_WP:	0.000	Y_WP:	0.500	X:	0.100	Y:	0.093	Z:	0.402	yaw:	33.478	yaw rate:	-2.207	Roll:	3.889	Pitch:	0.693	Yaw:	46.823	Thrust:	6.045
Time:	2.171	Roll Set Point:	-0.235	Pitch Set Point:	-0.115	Yaw Set Point:	-0.585	X_WP:	0.000	Y_WP:	0.000	Y_WP:	0.500	X:	0.100	Y:	0.093	Z:	0.402	yaw:	33.498	yaw rate:	2.085	Roll:	3.967	Pitch:	0.613	Yaw:	47.853	Thrust:	6.098
Time:	2.187	Roll Set Point:	-0.235	Pitch Set Point:	-0.114	Yaw Set Point:	-0.585	X_WP:	0.000	Y_WP:	0.000	Y_WP:	0.500	X:	0.100	Y:	0.093	Z:	0.402	yaw:	33.499	yaw rate:	0.066	Roll:	3.895	Pitch:	0.620	Yaw:	47.697	Thrust:	6.312
Time:	2.202	Roll Set Point:	-0.235	Pitch Set Point:	-0.114	Yaw Set Point:	-0.585	X_WP:	0.000	Y_WP:	0.000	Y_WP:	0.500	X:	0.100	Y:	0.093	Z:	0.402	yaw:	33.502	yaw rate:	0.279	Roll:	3.934	Pitch:	0.621	Yaw:	47.922	Thrust:	6.392
Time:	2.218	Roll Set Point:	-0.235	Pitch Set Point:	-0.115	Yaw Set Point:	-0.585	X_WP:	0.000	Y_WP:	0.000	Y_WP:	0.500	X:	0.100	Y:	0.093	Z:	0.402	yaw:	33.501	yaw rate:	-0.060	Roll:	3.986	Pitch:	0.685	Yaw:	48.045	Thrust:	6.794
Time:	2.234	Roll Set Point:	-0.235	Pitch Set Point:	-0.115	Yaw Set Point:	-0.584	X_WP:	0.000	Y_WP:	0.000	Y_WP:	0.500	X:	0.100	Y:	0.093	Z:	0.402	yaw:	33.481	yaw rate:	-1.977	Roll:	3.920	Pitch:	0.695	Yaw:	47.877	Thrust:	6.733
Time:	2.249	Roll Set Point:	-0.235	Pitch Set Point:	-0.114	Yaw Set Point:	-0.584	X_WP:	0.000	Y_WP:	0.000	Y_WP:	0.500	X:	0.100	Y:	0.093	Z:	0.402	yaw:	33.487	yaw rate:	0.595	Roll:	3.932	Pitch:	0.599	Yaw:	48.419	Thrust:	6.960
Time:	2.265	Roll Set Point:	-0.235	Pitch Set Point:	-0.114	Yaw Set Point:	-0.585	X_WP:	0.000	Y_WP:	0.000	Y_WP:	0.500	X:	0.100	Y:	0.093	Z:	0.402	yaw:	33.509	yaw rate:	2.130	Roll:	3.970	Pitch:	0.585	Yaw:	48.706	Thrust:	7.339
Time:	2.281	Roll Set Point:	-0.235	Pitch Set Point:	-0.114	Yaw Set Point:	-0.585	X_WP:	0.000	Y_WP:	0.000	Y_WP:	0.500	X:	0.100	Y:	0.093	Z:	0.402	yaw:	33.500	yaw rate:	-0.860	Roll:	3.972	Pitch:	0.673	Yaw:	48.193	Thrust:	7.342
Time:	2.296	Roll Set Point:	-0.235	Pitch Set Point:	-0.114	Yaw Set Point:	-0.585	X_WP:	0.000	Y_WP:	0.000	Y_WP:	0.500	X:	0.100	Y:	0.093	Z:	0.402	yaw:	33.500	yaw rate:	-0.860	Roll:	3.967	Pitch:	0.645	Yaw:	48.338	Thrust:	7.569
Time:	2.312	Roll Set Point:	-0.235	Pitch Set Point:	-0.114	Yaw Set Point:	-0.585	X_WP:	0.000	Y_WP:	0.000	Y_WP:	0.500	X:	0.100	Y:	0.093	Z:	0.402	yaw:	33.496	yaw rate:	-1.006	Roll:	3.961	Pitch:	0.645	Yaw:	48.265	Thrust:	7.696
Time:	2.327	Roll Set Point:	-0.235	Pitch Set Point:	-0.114	Yaw Set Point:	-0.585	X_WP:	0.000	Y_WP:	0.000	Y_WP:	0.500	X:	0.100	Y:	0.093	Z:	0.402	yaw:	33.491	yaw rate:	-0.492	Roll:	3.971	Pitch:	0.661	Yaw:	48.246	Thrust:	7.996
Time:	2.343	Roll Set Point:	-0.235	Pitch Set Point:	-0.114	Yaw Set Point:	-0.585	X_WP:	0.000	Y_WP:	0.000	Y_WP:	0.500	X:	0.100	Y:	0.093	Z:	0.402	yaw:	33.491	yaw rate:	-0.492	Roll:	3.982	Pitch:	0.648	Yaw:	48.323	Thrust:	8.114
Time:	2.359	Roll Set Point:	-0.235	Pitch Set Point:	-0.114	Yaw Set Point:	-0.585	X_WP:	0.000	Y_WP:	0.000	Y_WP:	0.500	X:	0.100	Y:	0.093	Z:	0.402	yaw:	33.502	yaw rate:	0.484	Roll:	3.998	Pitch:	0.637	Yaw:	48.514	Thrust:	8.298
Time:	2.374	Roll Set Point:	-0.235	Pitch Set Point:	-0.115	Yaw Set Point:	-0.584	X_WP:	0.000	Y_WP:	0.000	Y_WP:	0.500	X:	0.100	Y:	0.093	Z:	0.402	yaw:	33.486	yaw rate:	-1.597	Roll:	3.979	Pitch:	0.690	Yaw:	48.050	Thrust:	8.425
Time:	2.390	Roll Set Point:	-0.235	Pitch Set Point:	-0.114	Yaw Set Point:	-0.585	X_WP:	0.000	Y_WP:	0.000	Y_WP:	0.500	X:	0.100	Y:	0.093	Z:	0.402	yaw:	33.496	yaw rate:	1.001	Roll:	4.001	Pitch:	0.621	Yaw:	48.499	Thrust:	8.646
Time:	2.406	Roll Set Point:	-0.235	Pitch Set Point:	-0.114	Yaw Set Point:	-0.585	X_WP:	0.000	Y_WP:	0.000	Y_WP:	0.500	X:	0.100	Y:	0.093	Z:	0.402	yaw:	33.496	yaw rate:	1.001	Roll:	4.003	Pitch:	0.652	Yaw:	48.332	Thrust:	8.850
Time:	2.421	Roll Set Point:	-0.235	Pitch Set Point:	-0.114	Yaw Set Point:	-0.585	X_WP:	0.000	Y_WP:	0.000	Y_WP:	0.500	X:	0.100	Y:	0.093	Z:	0.402	yaw:	33.498	yaw rate:	-1.563	Roll:	3.995	Pitch:	0.628	Yaw:	48.369	Thrust:	9.006
Time:	2.437	Roll Set Point:	-0.235	Pitch Set Point:	-0.115	Yaw Set Point:	-0.585	X_WP:	0.000	Y_WP:	0.000	Y_WP:	0.500	X:	0.100	Y:	0.093	Z:	0.402	yaw:	33.492	yaw rate:	-0.575	Roll:	4.037	Pitch:	0.705	Yaw:	48.230	Thrust:	9.333
Time:	2.452	Roll Set Point:	-0.235	Pitch Set Point:	-0.115	Yaw Set Point:	-0.585	X_WP:	0.000	Y_WP:	0.000	Y_WP:	0.500	X:	0.100	Y:	0.093	Z:	0.402	yaw:	33.492	yaw rate:	-0.575	Roll:	4.020	Pitch:	0.655	Yaw:	48.329	Thrust:	9.407
Time:	2.469	Roll Set Point:	-0.235	Pitch Set Point:	-0.114	Yaw Set Point:	-0.585	X_WP:	0.000	Y_WP:	0.000	Y_WP:	0.500	X:	0.100	Y:	0.093	Z:	0.402	yaw:	33.504	yaw rate:	1.211	Roll:	4.044	Pitch:	0.616	Yaw:	48.661	Thrust:	9.889
Time:	2.486	Roll Set Point:	-0.235	Pitch Set Point:	-0.114	Yaw Set Point:	-0.585	X_WP:	0.000	Y_WP:	0.000	Y_WP:	0.500	X:	0.100	Y:	0.093	Z:	0.402	yaw:	33.504	yaw rate:	1.211	Roll:	4.043	Pitch:	0.657	Yaw:	48.447	Thrust:	10.057
Time:	2.502	Roll Set Point:	-0.235	Pitch Set Point:	-0.114	Yaw Set Point:	-0.585	X_WP:	0.000	Y_WP:	0.000	Y_WP:	0.500	X:	0.100	Y:	0.093	Z:	0.402	yaw:	33.499	yaw rate:	-0.453	Roll:	4.030	Pitch:	0.671	Yaw:	48.261	Thrust:	10.068
Time:	2.518	Roll Set Point:	-0.235	Pitch Set Point:	-0.114	Yaw Set Point:	-0.585	X_WP:	0.000	Y_WP:	0.000	Y_WP:	0.500	X:	0.100	Y:	0.093	Z:	0.402	yaw:	33.495	yaw rate:	-0.461	Roll:	4.034	Pitch:	0.667	Yaw:	48.304	Thrust:	10.111
Time:	2.547	Roll Set Point:	-0.235	Pitch Set Point:	-0.114	Yaw Set Point:	-0.585	X_WP:	0.000	Y_WP:	0.000	Y_WP:	0.500	X:	0.100	Y:	0.093	Z:	0.402	yaw:	33.495	yaw rate:	1.224	Roll:	4.169	Pitch:	0.675	Yaw:	49.656	Thrust:	14.516
Time:	2.562	Roll Set Point:	-0.235	Pitch Set Point:	-0.114	Yaw Set Point:	-0.585	X_WP:	0.000	Y_WP:	0.000	Y_WP:	0.500	X:	0.100	Y:	0.093	Z:	0.402	yaw:	33.495	yaw rate:	1.224	Roll:	4.051	Pitch:	0.659	Yaw:	48.334	Thrust:	10.507
Time:	2.578	Roll Set Point:	-0.235	Pitch Set Point:	-0.114	Yaw Set Point:	-0.585	X_WP:	0.000	Y_WP:	0.000	Y_WP:	0.500	X:	0.100	Y:	0.093	Z:	0.402	yaw:	33.506	yaw rate:	0.795	Roll:	4.058	Pitch:	0.619	Yaw:	48.516	Thrust:	10.744
Time:	2.593	Roll Set Point:	-0.235	Pitch Set Point:	-0.115	Yaw Set Point:	-0.584	X_WP:	0.000	Y_WP:	0.000	Y_WP:	0.500	X:	0.100	Y:	0.093	Z:	0.402	yaw:	33.489	yaw rate:	-1.639	Roll:	4.073	Pitch:	0.734	Yaw:	48.048	Thrust:	10.804
Time:	2.609	Roll Set Point:	-0.235	Pitch Set Point:	-0.114	Yaw Set Point:	-0.585	X_WP:	0.000	Y_WP:	0.000	Y_WP:	0.500	X:	0.100	Y:	0.093	Z:	0.402	yaw:	33.500	yaw rate:	1.029	Roll:	4.061	Pitch:	0.615	Yaw:	48.509	Thrust:	11.005
Time:	2.625	Roll Set Point:	-0.235	Pitch Set Point:	-0.114	Yaw Set Point:	-0.585	X_WP:	0.000	Y_WP:	0.000	Y_WP:	0.500	X:	0.100	Y:	0.093	Z:	0.402	yaw:	33.501	yaw rate:	0.092	Roll:	4.051	Pitch:	0.662	Yaw:	48.357	Thrust:	11.291
Time:	2.640	Roll Set Point:	-0.235	Pitch Set Point:	-0.114	Yaw Set Point:	-0.585	X_WP:	0.000	Y_WP:	0.000	Y_WP:	0.500	X:	0.100	Y:	0.093	Z:	0.402	yaw:	33.505	yaw rate:	0.455	Roll:	4.075	Pitch:	0.636	Yaw:	48.421	Thrust:	11.336
Time:	2.656	Roll Set Point:	-0.235	Pitch Set Point:	-0.114	Yaw Set Point:	-0.585	X_WP:	0.000	Y_WP:	0.000	Y_WP:	0.500	X:	0.100	Y:	0.093	Z:	0.402	yaw:	33.505	yaw rate:	0.455	Roll:	4.082	Pitch:	0.663	Yaw:	48.341	Thrust:	11.580
Time:	2.672	Roll Set Point:	-0.235	Pitch Set Point:	-0.114	Yaw Set Point:	-0.585	X_WP:	0.000	Y_WP:	0.000	Y_WP:	0.500	X:	0.100	Y:	0.093	Z:	0.402	yaw:	33.508	yaw rate:	1.841	Roll:	4.128	Pitch:	0.688	Yaw:	48.409	Thrust:	11.902
Time:	2.687	Roll Set Point:	-0.235	Pitch Set Point:	-0.114	Yaw Set Point:	-0.585	X_WP:	0.000	Y_WP:	0.000	Y_WP:	0.500	X:	0.100	Y:	0.093	Z:	0.402	yaw:	33.508	yaw rate:	1.841	Roll:	4.093	Pitch:	0.666	Yaw:	48.346	Thrust:	11.950
Time:	2.703	Roll Set Point:	-0.235	Pitch Set Point:	-0.114	Yaw Set Point:	-0.585	X_WP:	0.000	Y_WP:	0.000	Y_WP:	0.500	X:	0.100	Y:	0.093	Z:	0.402	yaw:	33.519	yaw rate:	1.075	Roll:	4.079	Pitch:	0.628	Yaw:	48.544	Thrust:	12.149
Time:	2.718	Roll Set Point:	-0.235	Pitch Set Point:	-0.115	Yaw Set Point:	-0.585	X_WP:	0.000	Y_WP:	0.000	Y_WP:	0.500	X:	0.100	Y:	0.093	Z:	0.402	yaw:	33.505	yaw rate:	2.113	Roll:	4.128	Pitch:	0.751	Yaw:	48.099	Thrust:	12.399
Time:	2.734	Roll Set Point:	-0.235	Pitch Set Point:	-0.114	Yaw Set Point:	-0.584	X_WP:	0.000	Y_WP:	0.000	Y_WP:	0.500	X:	0.100	Y:	0.093	Z:	0.402	yaw:	33.481	yaw rate:	-2.380	Roll:	4.069	Pitch:	0.673	Yaw:	47.913	Thrust:	12.315
Time:	2.750	Roll Set Point:	-0.235	Pitch Set Point:	-0.114	Yaw Set Point:	-0.585	X_WP:	0.000	Y_WP:	0.000	Y_WP:	0.500	X:	0.100	Y:	0.093	Z:	0.402	yaw:	33.505	yaw rate:	2.417	Roll:	4.120	Pitch:	0.609	Yaw:	48.749	Thrust:	12.789
Time:	2.765	Roll Set Point:	-0.235	Pitch Set Point:	-0.114	Yaw Set Point:	-0.585	X_WP:	0.000	Y_WP:	0.000	Y_WP:	0.500	X:	0.100	Y:	0.093	Z:	0.402	yaw:	33.511	yaw rate:	0.632	Roll:	4.123	Pitch:	0.657	Yaw:	48.459	Thrust:	12.995
Time:	2.796	Roll Set Point:	-0.235	Pitch Set Point:	-0.115	Yaw Set Point:	-0.584	X_WP:	0.000	Y_WP:	0.000	Y_WP:	0.500	X:	0.100	Y:	0.093	Z:	0.402	yaw:	33.483	yaw rate:	-1.435	Roll:	4.353	Pitch:	0.767	Yaw:	49.606	Thrust:	20.591
Time:	2.812	Roll Set Point:	-0.235	Pitch Set Point:	-0.114	Yaw Set Point:	-0.585	X_WP:	0.000	Y_WP:	0.000	Y_WP:	0.500	X:	0.100	Y:	0.093	Z:	0.402	yaw:	33.496	yaw rate:	1.342	Roll:	4.090	Pitch:	0.571	Yaw:	48.557	Thrust:	13.128
Time:	2.828	Roll Set Point:	-0.235	Pitch Set Point:	-0.114	Yaw Set Point:	-0.585	X_WP:	0.000	Y_WP:	0.000	Y_WP:	0.500	X:	0.100	Y:	0.093	Z:	0.402	yaw:	33.502	yaw rate:	0.611	Roll:	4.138	Pitch:	0.679	Yaw:	48.443	Thrust:	13.532
Time:	2.843	Roll Set Point:	-0.235	Pitch Set Point:	-0.114	Yaw Set Point:	-0.585	X_WP:	0.000	Y_WP:	0.000	Y_WP:	0.500	X:	0.100	Y:	0.093	Z:	0.402	yaw:	33.496	yaw rate:	-0.601	Roll:	4.152	Pitch:	0.702	Yaw:	48.231	Thrust:	13.573
Time:	2.859	Roll Set Point:	-0.235	Pitch Set Point:	-0.115	Yaw Set Point:	-0.584	X_WP:	0.000	Y_WP:	0.000	Y_WP:	0.500	X:	0.100	Y:	0.093	Z:	0.402	yaw:	33.481	yaw rate:	-1.550	Roll:	4.164	Pitch:	0.730	Yaw:	48.053	Thrust:	13.788
Time:	2.874	Roll Set Point:	-0.235	Pitch Set Point:	-0.115	Yaw Set Point:	-0.584	X_WP:	0.000	Y_WP:	0.000	Y_WP:	0.500	X:	0.100	Y:	0.093	Z:	0.402	yaw:	33.481	yaw rate:	-1.550	Roll:	4.151	Pitch:	0.677	Yaw:	48.309	Thrust:	13.967
Time:	2.890	Roll Set Point:	-0.235	Pitch Set Point:	-0.114	Yaw Set Point:	-0.585	X_WP:	0.000	Y_WP:	0.000	Y_WP:	0.500	X:	0.100	Y:	0.093	Z:	0.402	yaw:	33.512	yaw rate:	3.097	Roll:	4.157	Pitch:	0.592	Yaw:	48.873	Thrust:	14.124
Time:	2.906	Roll Set Point:	-0.235	Pitch Set Point:	-0.114	Yaw Set Point:	-0.585	X_WP:	0.000	Y_WP:	0.000	Y_WP:	0.500	X:	0.100	Y:	0.093	Z:	0.402	yaw:	33.513	yaw rate:	0.131	Roll:	4.133	Pitch:	0.633	Yaw:	48.377	Thrust:	14.447
Time:	2.921	Roll Set Point:	-0.235	Pitch Set Point:	-0.114	Yaw Set Point:	-0.585	X_WP:	0.000	Y_WP:	0.000	Y_WP:	0.500	X:	0.100	Y:	0.093	Z:	0.402	yaw:	33.503	yaw rate:	-0.955	Roll:	4.177	Pitch:	0.717	Yaw:	48.182	Thrust:	14.340
Time:	2.937	Roll Set Point:	-0.235	Pitch Set Point:	-0.114	Yaw Set Point:	-0.585	X_WP:	0.000	Y_WP:	0.000	Y_WP:	0.500	X:	0.100	Y:	0.093	Z:	0.402	yaw:	33.502	yaw rate:	2.233	Roll:	4.183	Pitch:	0.682	Yaw:	48.315	Thrust:	14.768
Time:	2.953	Roll Set Point:	-0.235	Pitch Set Point:	-0.114	Yaw Set Point:	-0.584	X_WP:	0.000	Y_WP:	0.000	Y_WP:	0.500	X:	0.100	Y:	0.093	Z:	0.402	yaw:	33.479	yaw rate:	-2.303	Roll:	4.156	Pitch:	0.739	Yaw:	47.922	Thrust:	14.970
Time:	2.968	Roll Set Point:	-0.235	Pitch Set Point:	-0.114	Yaw Set Point:	-0.584	X_WP:	0.000	Y_WP:	0.000	Y_WP:	0.500	X:	0.100	Y:	0.093	Z:	0.402	yaw:	33.479	yaw rate:	-2.303	Roll:	4.182	Pitch:	0.682	Yaw:	48.307	Thrust:	15.073
Time:	2.984	Roll Set Point:	-0.235	Pitch Set Point:	-0.114	Yaw Set Point:	-0.585	X_WP:	0.000	Y_WP:	0.000	Y_WP:	0.500	X:	0.100	Y:	0.093	Z:	0.402	yaw:	33.515	yaw rate:	2.135	Roll:	4.242	Pitch:	0.611	Yaw:	48.959	Thrust:	15.257
Time:	3.000	Roll Set Point:	-0.235	Pitch Set Point:	-0.114	Yaw Set Point:	-0.584	X_WP:	0.000	Y_WP:	0.000	Y_WP:	0.500	X:	0.100	Y:	0.093	Z:	0.402	yaw:	33.485	yaw rate:	-2.979	Roll:	4.153	Pitch:	0.740	Yaw:	47.817	Thrust:	15.408
Time:	3.015	Roll Set Point:	-0.235	Pitch Set Point:	-0.114	Yaw Set Point:	-0.585	X_WP:	0.000	Y_WP:	0.000	Y_WP:	0.500	X:	0.100	Y:	0.093	Z:	0.402	yaw:	33.502	yaw rate:	1.694	Roll:	4.214	Pitch:	0.629	Yaw:	48.624	Thrust:	15.636
Time:	3.031	Roll Set Point:	-0.235	Pitch Set Point:	-0.114	Yaw Set Point:	-0.585	X_WP:	0.000	Y_WP:	0.000	Y_WP:	0.500	X:	0.100	Y:	0.093	Z:	0.402	yaw:	33.502	yaw rate:	1.694	Roll:	4.204	Pitch:	0.683	Yaw:	48.342	Thrust:	15.824
Time:	3.046	Roll Set Point:	-0.235	Pitch Set Point:	-0.114	Yaw Set Point:	-0.584	X_WP:	0.000	Y_WP:	0.000	Y_WP:	0.500	X:	0.100	Y:	0.093	Z:	0.402	yaw:	33.489	yaw rate:	0.893	Roll:	4.195	Pitch:	0.724	Yaw:	48.107	Thrust:	15.903
Time:	3.062	Roll Set Point:	-0.235	Pitch Set Point:	-0.114	Yaw Set Point:	-0.585	X_WP:	0.000	Y_WP:	0.000	Y_WP:	0.500	X:	0.100	Y:	0.093	Z:	0.402	yaw:	33.515	yaw rate:	2.589	Roll:	4.230	Pitch:	0.654	Yaw:	48.792	Thrust:	16.243
Time:	3.078	Roll Set Point:	-0.235	Pitch Set Point:	-0.114	Yaw Set Point:	-0.585	X_WP:	0.000	Y_WP:	0.000	Y_WP:	0.500	X:	0.100	Y:	0.093	Z:	0.402	yaw:	33.506	yaw rate:	-0.942	Roll:	4.214	Pitch:	0.674	Yaw:	48.187	Thrust:	16.377
Time:	3.093	Roll Set Point:	-0.235	Pitch Set Point:	-0.114	Yaw Set Point:	-0.585	X_WP:	0.000	Y_WP:	0.000	Y_WP:	0.500	X:	0.100	Y:	0.093	Z:	0.402	yaw:	33.506	yaw rate:	0.076	Roll:	4.191	Pitch:	0.677	Yaw:	48.359	Thrust:	16.416
Time:	3.109	Roll Set Point:	-0.235	Pitch Set Point:	-0.115	Yaw Set Point:	-0.585	X_WP:	0.000	Y_WP:	0.000	Y_WP:	0.500	X:	0.100	Y:	0.093	Z:	0.402	yaw:	33.506	yaw rate:	-0.034	Roll:	4.290	Pitch:	0.750	Yaw:	48.340	Thrust:	16.917
Time:	3.125	Roll Set Point:	-0.235	Pitch Set Point:	-0.114	Yaw Set Point:	-0.585	X_WP:	0.000	Y_WP:	0.000	Y_WP:	0.500	X:	0.100	Y:	0.093	Z:	0.402	yaw:	33.492	yaw rate:	-1.415	Roll:	4.202	Pitch:	0.664	Yaw:	48.089	Thrust:	16.762
Time:	3.140	Roll Set Point:	-0.235	Pitch Set Point:	-0.114	Yaw Set Point:	-0.585	X_WP:	0.000	Y_WP:	0.000	Y_WP:	0.500	X:	0.100	Y:	0.093	Z:	0.402	yaw:	33.492	yaw rate:	-1.415	Roll:	4.241	Pitch:	0.690	Yaw:	48.327	Thrust:	17.093
Time:	3.156	Roll Set Point:	-0.235	Pitch Set Point:	-0.114	Yaw Set Point:	-0.585	X_WP:	0.000	Y_WP:	0.000	Y_WP:	0.500	X:	0.100	Y:	0.093	Z:	0.402	yaw:	33.520	yaw rate:	2.789	Roll:	4.245	Pitch:	0.631	Yaw:	48.832	Thrust:	17.321
Time:	3.171	Roll Set Point:	-0.235	Pitch Set Point:	-0.115	Yaw Set Point:	-0.584	X_WP:	0.000	Y_WP:	0.000	Y_WP:	0.500	X:	0.100	Y:	0.093	Z:	0.402	yaw:	33.475	yaw rate:	0.050	Roll:	4.242	Pitch:	0.820	Yaw:	47.556	Thrust:	17.400
Time:	3.187	Roll Set Point:	-0.235	Pitch Set Point:	-0.115	Yaw Set Point:	-0.585	X_WP:	0.000	Y_WP:	0.000	Y_WP:	0.500	X:	0.100	Y:	0.093	Z:	0.402	yaw:	33.490	yaw rate:	1.478	Roll:	4.279	Pitch:	0.662	Yaw:	48.571	Thrust:	17.692
Time:	3.203	Roll Set Point:	-0.235	Pitch Set Point:	-0.115	Yaw Set Point:	-0.585	X_WP:	0.000	Y_WP:	0.000	Y_WP:	0.500	X:	0.100	Y:	0.093	Z:	0.402	yaw:	33.490	yaw rate:	1.478	Roll:	4.262	Pitch:	0.694	Yaw:	48.323	Thrust:	17.822
Time:	3.218	Roll Set Point:	-0.235	Pitch Set Point:	-0.114	Yaw Set Point:	-0.585	X_WP:	0.000	Y_WP:	0.000	Y_WP:	0.500	X:	0.100	Y:	0.093	Z:	0.402	yaw:	33.499	yaw rate:	0.908	Roll:	4.251	Pitch:	0.658	Yaw:	48.488	Thrust:	18.178
Time:	3.234	Roll Set Point:	-0.235	Pitch Set Point:	-0.114	Yaw Set Point:	-0.585	X_WP:	0.000	Y_WP:	0.000	Y_WP:	0.500	X:	0.100	Y:	0.093	Z:	0.402	yaw:	33.508	yaw rate:	0.884	Roll:	4.285	Pitch:	0.691	Yaw:	48.506	Thrust:	18.028
Time:	3.250	Roll Set Point:	-0.235	Pitch Set Point:	-0.115	Yaw Set Point:	-0.584	X_WP:	0.000	Y_WP:	0.000	Y_WP:	0.500	X:	0.100	Y:	0.093	Z:	0.402	yaw:	33.477	yaw rate:	-3.101	Roll:	4.259	Pitch:	0.755	Yaw:	47.791	Thrust:	18.376
Time:	3.265	Roll Set Point:	-0.235	Pitch Set Point:	-0.114	Yaw Set Point:	-0.584	X_WP:	0.000	Y_WP:	0.000	Y_WP:	0.500	X:	0.100	Y:	0.093	Z:	0.402	yaw:	33.488	yaw rate:	1.103	Roll:	4.280	Pitch:	0.659	Yaw:	48.503	Thrust:	18.566
Time:	3.281	Roll Set Point:	-0.235	Pitch Set Point:	-0.114	Yaw Set Point:	-0.585	X_WP:	0.000	Y_WP:	0.000	Y_WP:	0.500	X:	0.100	Y:	0.093	Z:	0.402	yaw:	33.495	yaw rate:	0.613	Roll:	4.292	Pitch:	0.677	Yaw:	48.432	Thrust:	18.729
Time:	3.296	Roll Set Point:	-0.235	Pitch Set Point:	-0.114	Yaw Set Point:	-0.585	X_WP:	0.000	Y_WP:	0.000	Y_WP:	0.500	X:	0.100	Y:	0.093	Z:	0.402	yaw:	33.495	yaw rate:	0.613	Roll:	4.294	Pitch:	0.699	Yaw:	48.333	Thrust:	18.947
Time:	3.312	Roll Set Point:	-0.235	Pitch Set Point:	-0.115	Yaw Set Point:	-0.584	X_WP:	0.000	Y_WP:	0.000	Y_WP:	0.500	X:	0.100	Y:	0.093	Z:	0.402	yaw:	33.475	yaw rate:	-2.987	Roll:	4.300	Pitch:	0.784	Yaw:	47.968	Thrust:	19.089
Time:	3.328	Roll Set Point:	-0.235	Pitch Set Point:	-0.114	Yaw Set Point:	-0.584	X_WP:	0.000	Y_WP:	0.000	Y_WP:	0.500	X:	0.100	Y:	0.093	Z:	0.402	yaw:	33.480	yaw rate:	0.585	Roll:	4.300	Pitch:	0.662	Yaw:	48.405	Thrust:	19.385
Time:	3.343	Roll Set Point:	-0.235	Pitch Set Point:	-0.115	Yaw Set Point:	-0.585	X_WP:	0.000	Y_WP:	0.000	Y_WP:	0.500	X:	0.100	Y:	0.093	Z:	0.402	yaw:	33.493	yaw rate:	1.266	Roll:	4.335	Pitch:	0.691	Yaw:	48.542	Thrust:	19.578
Time:	3.359	Roll Set Point:	-0.235	Pitch Set Point:	-0.114	Yaw Set Point:	-0.584	X_WP:	0.000	Y_WP:	0.000	Y_WP:	0.500	X:	0.100	Y:	0.093	Z:	0.402	yaw:	33.487	yaw rate:	-0.596	Roll:	4.256	Pitch:	0.700	Yaw:	48.217	Thrust:	19.351
Time:	3.375	Roll Set Point:	-0.235	Pitch Set Point:	-0.114	Yaw Set Point:	-0.585	X_WP:	0.000	Y_WP:	0.000	Y_WP:	0.500	X:	0.100	Y:	0.093	Z:	0.402	yaw:	33.520	yaw rate:	3.314	Roll:	4.400	Pitch:	0.650	Yaw:	48.923	Thrust:	20.076
Time:	3.390	Roll Set Point:	-0.235	Pitch Set Point:	-0.114	Yaw Set Point:	-0.585	X_WP:	0.000	Y_WP:	0.000	Y_WP:	0.500	X:	0.100	Y:	0.093	Z:	0.402	yaw:	33.520	yaw rate:	3.314	Roll:	4.325	Pitch:	0.703	Yaw:	48.363	Thrust:	19.992
Time:	3.406	Roll Set Point:	-0.235	Pitch Set Point:	-0.114	Yaw Set Point:	-0.585	X_WP:	0.000	Y_WP:	0.000	Y_WP:	0.500	X:	0.100	Y:	0.093	Z:	0.402	yaw:	33.494	yaw rate:	-2.627	Roll:	4.268	Pitch:	0.730	Yaw:	47.889	Thrust:	20.020
Time:	3.421	Roll Set Point:	-0.235	Pitch Set Point:	-0.115	Yaw Set Point:	-0.584	X_WP:	0.000	Y_WP:	0.000	Y_WP:	0.500	X:	0.100	Y:	0.093	Z:	0.402	yaw:	33.487	yaw rate:	-0.751	Roll:	4.349	Pitch:	0.746	Yaw:	48.196	Thrust:	20.533
Time:	3.437	Roll Set Point:	-0.235	Pitch Set Point:	-0.114	Yaw Set Point:	-0.584	X_WP:	0.000	Y_WP:	0.000	Y_WP:	0.500	X:	0.100	Y:	0.093	Z:	0.402	yaw:	33.482	yaw rate:	-1.725	Roll:	4.332	Pitch:	0.688	Yaw:	48.231	Thrust:	20.448
Time:	3.453	Roll Set Point:	-0.235	Pitch Set Point:	-0.114	Yaw Set Point:	-0.585	X_WP:	0.000	Y_WP:	0.000	Y_WP:	0.500	X:	0.100	Y:	0.093	Z:	0.402	yaw:	33.494	yaw rate:	1.257	Roll:	4.345	Pitch:	0.677	Yaw:	48.540	Thrust:	20.789
Time:	3.468	Roll Set Point:	-0.235	Pitch Set Point:	-0.114	Yaw Set Point:	-0.585	X_WP:	0.000	Y_WP:	0.000	Y_WP:	0.500	X:	0.100	Y:	0.093	Z:	0.402	yaw:	33.519	yaw rate:	2.461	Roll:	4.386	Pitch:	0.674	Yaw:	48.774	Thrust:	21.119
Time:	3.484	Roll Set Point:	-0.235	Pitch Set Point:	-0.114	Yaw Set Point:	-0.585	X_WP:	0.000	Y_WP:	0.000	Y_WP:	0.500	X:	0.100	Y:	0.093	Z:	0.402	yaw:	33.502	yaw rate:	-1.661	Roll:	4.331	Pitch:	0.736	Yaw:	48.062	Thrust:	20.887
Time:	3.500	Roll Set Point:	-0.235	Pitch Set Point:	-0.115	Yaw Set Point:	-0.585	X_WP:	0.000	Y_WP:	0.000	Y_WP:	0.500	X:	0.100	Y:	0.093	Z:	0.402	yaw:	33.504	yaw rate:	0.132	Roll:	4.390	Pitch:	0.751	Yaw:	48.365	Thrust:	21.385
Time:	3.515	Roll Set Point:	-0.235	Pitch Set Point:	-0.114	Yaw Set Point:	-0.585	X_WP:	0.000	Y_WP:	0.000	Y_WP:	0.500	X:	0.100	Y:	0.093	Z:	0.402	yaw:	33.509	yaw rate:	0.566	Roll:	4.358	Pitch:	0.659	Yaw:	48.445	Thrust:	21.588
Time:	3.531	Roll Set Point:	-0.235	Pitch Set Point:	-0.114	Yaw Set Point:	-0.585	X_WP:	0.000	Y_WP:	0.000	Y_WP:	0.500	X:	0.100	Y:	0.093	Z:	0.402	yaw:	33.498	yaw rate:	-1.147	Roll:	4.328	Pitch:	0.710	Yaw:	48.142	Thrust:	21.477
Time:	3.546	Roll Set Point:	-0.235	Pitch Set Point:	-0.115	Yaw Set Point:	-0.584	X_WP:	0.000	Y_WP:	0.000	Y_WP:	0.500	X:	0.100	Y:	0.093	Z:	0.402	yaw:	33.488	yaw rate:	-1.004	Roll:	4.418	Pitch:	0.793	Yaw:	48.152	Thrust:	21.976
Time:	3.562	Roll Set Point:	-0.235	Pitch Set Point:	-0.114	Yaw Set Point:	-0.585	X_WP:	0.000	Y_WP:	0.000	Y_WP:	0.500	X:	0.100	Y:	0.093	Z:	0.402	yaw:	33.496	yaw rate:	0.824	Roll:	4.365	Pitch:	0.672	Yaw:	48.470	Thrust:	21.849
Time:	3.578	Roll Set Point:	-0.235	Pitch Set Point:	-0.114	Yaw Set Point:	-0.585	X_WP:	0.000	Y_WP:	0.000	Y_WP:	0.500	X:	0.100	Y:	0.093	Z:	0.402	yaw:	33.506	yaw rate:	0.980	Roll:	4.405	Pitch:	0.674	Yaw:	48.510	Thrust:	22.320
Time:	3.593	Roll Set Point:	-0.235	Pitch Set Point:	-0.114	Yaw Set Point:	-0.585	X_WP:	0.000	Y_WP:	0.000	Y_WP:	0.500	X:	0.100	Y:	0.093	Z:	0.402	yaw:	33.500	yaw rate:	-0.547	Roll:	4.368	Pitch:	0.699	Yaw:	48.246	Thrust:	22.501
Time:	3.609	Roll Set Point:	-0.235	Pitch Set Point:	-0.114	Yaw Set Point:	-0.585	X_WP:	0.000	Y_WP:	0.000	Y_WP:	0.500	X:	0.100	Y:	0.093	Z:	0.402	yaw:	33.490	yaw rate:	-1.023	Roll:	4.400	Pitch:	0.785	Yaw:	48.156	Thrust:	22.638
Time:	3.625	Roll Set Point:	-0.235	Pitch Set Point:	-0.114	Yaw Set Point:	-0.585	X_WP:	0.000	Y_WP:	0.000	Y_WP:	0.500	X:	0.100	Y:	0.093	Z:	0.402	yaw:	33.512	yaw rate:	2.193	Roll:	4.402	Pitch:	0.641	Yaw:	48.719	Thrust:	22.539
Time:	3.640	Roll Set Point:	-0.235	Pitch Set Point:	-0.114	Yaw Set Point:	-0.585	X_WP:	0.000	Y_WP:	0.000	Y_WP:	0.500	X:	0.100	Y:	0.093	Z:	0.402	yaw:	33.512	yaw rate:	2.193	Roll:	4.408	Pitch:	0.716	Yaw:	48.354	Thrust:	22.949
Time:	3.656	Roll Set Point:	-0.235	Pitch Set Point:	-0.115	Yaw Set Point:	-0.585	X_WP:	0.000	Y_WP:	0.000	Y_WP:	0.500	X:	0.100	Y:	0.093	Z:	0.402	yaw:	33.496	yaw rate:	-1.626	Roll:	4.423	Pitch:	0.796	Yaw:	48.059	Thrust:	23.315
Time:	3.671	Roll Set Point:	-0.235	Pitch Set Point:	-0.115	Yaw Set Point:	-0.585	X_WP:	0.000	Y_WP:	0.000	Y_WP:	0.500	X:	0.100	Y:	0.093	Z:	0.402	yaw:	33.496	yaw rate:	-1.626	Roll:	4.419	Pitch:	0.720	Yaw:	48.331	Thrust:	23.316
Time:	3.687	Roll Set Point:	-0.235	Pitch Set Point:	-0.114	Yaw Set Point:	-0.585	X_WP:	0.000	Y_WP:	0.000	Y_WP:	0.500	X:	0.100	Y:	0.093	Z:	0.402	yaw:	33.504	yaw rate:	0.774	Roll:	4.428	Pitch:	0.690	Yaw:	48.472	Thrust:	23.417
Time:	3.703	Roll Set Point:	-0.235	Pitch Set Point:	-0.114	Yaw Set Point:	-0.585	X_WP:	0.000	Y_WP:	0.000	Y_WP:	0.500	X:	0.100	Y:	0.093	Z:	0.402	yaw:	33.499	yaw rate:	-0.459	Roll:	4.406	Pitch:	0.719	Yaw:	48.259	Thrust:	23.606
Time:	3.718	Roll Set Point:	-0.235	Pitch Set Point:	-0.114	Yaw Set Point:	-0.585	X_WP:	0.000	Y_WP:	0.000	Y_WP:	0.500	X:	0.100	Y:	0.093	Z:	0.402	yaw:	33.499	yaw rate:	-0.459	Roll:	4.434	Pitch:	0.722	Yaw:	48.336	Thrust:	23.864
Time:	3.734	Roll Set Point:	-0.235	Pitch Set Point:	-0.114	Yaw Set Point:	-0.585	X_WP:	0.000	Y_WP:	0.000	Y_WP:	0.500	X:	0.100	Y:	0.093	Z:	0.402	yaw:	33.497	yaw rate:	-0.231	Roll:	4.459	Pitch:	0.727	Yaw:	48.310	Thrust:	24.277
Time:	3.750	Roll Set Point:	-0.235	Pitch Set Point:	-0.114	Yaw Set Point:	-0.585	X_WP:	0.000	Y_WP:	0.000	Y_WP:	0.500	X:	0.100	Y:	0.093	Z:	0.402	yaw:	33.497	yaw rate:	-0.231	Roll:	4.445	Pitch:	0.723	Yaw:	48.334	Thrust:	24.235
Time:	3.765	Roll Set Point:	-0.235	Pitch Set Point:	-0.114	Yaw Set Point:	-0.585	X_WP:	0.000	Y_WP:	0.000	Y_WP:	0.500	X:	0.100	Y:	0.093	Z:	0.402	yaw:	33.501	yaw rate:	0.399	Roll:	4.456	Pitch:	0.726	Yaw:	48.406	Thrust:	24.171
Time:	3.796	Roll Set Point:	-0.235	Pitch Set Point:	-0.114	Yaw Set Point:	-0.584	X_WP:	0.000	Y_WP:	0.000	Y_WP:	0.500	X:	0.100	Y:	0.093	Z:	0.402	yaw:	33.484	yaw rate:	-0.121	Roll:	4.986	Pitch:	0.820	Yaw:	49.710	Thrust:	43.594
Time:	3.812	Roll Set Point:	-0.235	Pitch Set Point:	-0.114	Yaw Set Point:	-0.585	X_WP:	0.000	Y_WP:	0.000	Y_WP:	0.500	X:	0.100	Y:	0.093	Z:	0.402	yaw:	33.503	yaw rate:	0.888	Roll:	4.497	Pitch:	0.721	Yaw:	48.651	Thrust:	24.705
Time:	3.827	Roll Set Point:	-0.235	Pitch Set Point:	-0.114	Yaw Set Point:	-0.585	X_WP:	0.000	Y_WP:	0.000	Y_WP:	0.500	X:	0.100	Y:	0.093	Z:	0.402	yaw:	33.509	yaw rate:	0.633	Roll:	4.474	Pitch:	0.696	Yaw:	48.456	Thrust:	24.932
Time:	3.843	Roll Set Point:	-0.235	Pitch Set Point:	-0.114	Yaw Set Point:	-0.585	X_WP:	0.000	Y_WP:	0.000	Y_WP:	0.500	X:	0.100	Y:	0.093	Z:	0.402	yaw:	33.509	yaw rate:	0.633	Roll:	4.472	Pitch:	0.727	Yaw:	48.350	Thrust:	25.146
Time:	3.859	Roll Set Point:	-0.235	Pitch Set Point:	-0.114	Yaw Set Point:	-0.585	X_WP:	0.000	Y_WP:	0.000	Y_WP:	0.500	X:	0.100	Y:	0.093	Z:	0.402	yaw:	33.506	yaw rate:	3.039	Roll:	4.451	Pitch:	0.714	Yaw:	48.289	Thrust:	25.516
Time:	3.874	Roll Set Point:	-0.235	Pitch Set Point:	-0.114	Yaw Set Point:	-0.585	X_WP:	0.000	Y_WP:	0.000	Y_WP:	0.500	X:	0.100	Y:	0.093	Z:	0.402	yaw:	33.506	yaw rate:	3.039	Roll:	4.482	Pitch:	0.728	Yaw:	48.346	Thrust:	25.515
Time:	3.890	Roll Set Point:	-0.235	Pitch Set Point:	-0.115	Yaw Set Point:	-0.585	X_WP:	0.000	Y_WP:	0.000	Y_WP:	0.500	X:	0.100	Y:	0.093	Z:	0.402	yaw:	33.501	yaw rate:	-0.484	Roll:	4.523	Pitch:	0.799	Yaw:	48.260	Thrust:	25.525
Time:	3.906	Roll Set Point:	-0.235	Pitch Set Point:	-0.114	Yaw Set Point:	-0.585	X_WP:	0.000	Y_WP:	0.000	Y_WP:	0.500	X:	0.100	Y:	0.093	Z:	0.402	yaw:	33.506	yaw rate:	0.507	Roll:	4.451	Pitch:	0.663	Yaw:	48.431	Thrust:	26.039
Time:	3.921	Roll Set Point:	-0.235	Pitch Set Point:	-0.114	Yaw Set Point:	-0.585	X_WP:	0.000	Y_WP:	0.000	Y_WP:	0.500	X:	0.100	Y:	0.093	Z:	0.402	yaw:	33.501	yaw rate:	-0.557	Roll:	4.469	Pitch:	0.739	Yaw:	48.245	Thrust:	26.004
Time:	3.937	Roll Set Point:	-0.235	Pitch Set Point:	-0.115	Yaw Set Point:	-0.585	X_WP:	0.000	Y_WP:	0.000	Y_WP:	0.500	X:	0.100	Y:	0.093	Z:	0.402	yaw:	33.493	yaw rate:	-0.728	Roll:	4.530	Pitch:	0.783	Yaw:	48.206	Thrust:	26.157
Time:	3.952	Roll Set Point:	-0.235	Pitch Set Point:	-0.115	Yaw Set Point:	-0.585	X_WP:	0.000	Y_WP:	0.000	Y_WP:	0.500	X:	0.100	Y:	0.093	Z:	0.402	yaw:	33.493	yaw rate:	-0.728	Roll:	4.490	Pitch:	0.734	Yaw:	48.328	Thrust:	26.428
Time:	3.968	Roll Set Point:	-0.235	Pitch Set Point:	-0.115	Yaw Set Point:	-0.585	X_WP:	0.000	Y_WP:	0.000	Y_WP:	0.500	X:	0.100	Y:	0.093	Z:	0.402	yaw:	33.506	yaw rate:	1.267	Roll:	4.501	Pitch:	0.721	Yaw:	48.558	Thrust:	26.605
Time:	3.984	Roll Set Point:	-0.235	Pitch Set Point:	-0.115	Yaw Set Point:	-0.585	X_WP:	0.000	Y_WP:	0.000	Y_WP:	0.500	X:	0.100	Y:	0.093	Z:	0.402	yaw:	33.506	yaw rate:	1.267	Roll:	4.490	Pitch:	0.736	Yaw:	48.346	Thrust:	26.795
Time:	3.999	Roll Set Point:	-0.235	Pitch Set Point:	-0.114	Yaw Set Point:	-0.585	X_WP:	0.000	Y_WP:	0.000	Y_WP:	0.500	X:	0.100	Y:	0.093	Z:	0.402	yaw:	33.501	yaw rate:	0.020	Roll:	4.476	Pitch:	0.713	Yaw:	48.260	Thrust:	27.113
Time:	4.015	Roll Set Point:	-0.235	Pitch Set Point:	-0.114	Yaw Set Point:	-0.585	X_WP:	0.000	Y_WP:	0.000	Y_WP:	0.500	X:	0.100	Y:	0.093	Z:	0.402	yaw:	33.500	yaw rate:	-0.101	Roll:	4.494	Pitch:	0.765	Yaw:	48.321	Thrust:	27.021
Time:	4.031	Roll Set Point:	-0.235	Pitch Set Point:	-0.115	Yaw Set Point:	-0.585	X_WP:	0.000	Y_WP:	0.000	Y_WP:	0.500	X:	0.100	Y:	0.093	Z:	0.402	yaw:	33.499	yaw rate:	-0.145	Roll:	4.499	Pitch:	0.744	Yaw:	48.311	Thrust:	27.318
Time:	4.046	Roll Set Point:	-0.235	Pitch Set Point:	-0.114	Yaw Set Point:	-0.585	X_WP:	0.000	Y_WP:	0.000	Y_WP:	0.500	X:	0.100	Y:	0.093	Z:	0.402	yaw:	33.517	yaw rate:	1.814	Roll:	4.472	Pitch:	0.659	Yaw:	48.666	Thrust:	27.744
Time:	4.062	Roll Set Point:	-0.235	Pitch Set Point:	-0.114	Yaw Set Point:	-0.585	X_WP:	0.000	Y_WP:	0.000	Y_WP:	0.500	X:	0.100	Y:	0.093	Z:	0.402	yaw:	33.490	yaw rate:	-2.713	Roll:	4.451	Pitch:	0.794	Yaw:	47.869	Thrust:	27.566
Time:	4.077	Roll Set Point:	-0.235	Pitch Set Point:	-0.115	Yaw Set Point:	-0.585	X_WP:	0.000	Y_WP:	0.000	Y_WP:	0.500	X:	0.100	Y:	0.093	Z:	0.402	yaw:	33.492	yaw rate:	0.244	Roll:	4.542	Pitch:	0.799	Yaw:	48.367	Thrust:	27.862
Time:	4.093	Roll Set Point:	-0.235	Pitch Set Point:	-0.115	Yaw Set Point:	-0.585	X_WP:	0.000	Y_WP:	0.000	Y_WP:	0.500	X:	0.100	Y:	0.093	Z:	0.402	yaw:	33.492	yaw rate:	0.244	Roll:	4.490	Pitch:	0.743	Yaw:	48.326	Thrust:	28.072
Time:	4.109	Roll Set Point:	-0.235	Pitch Set Point:	-0.114	Yaw Set Point:	-0.585	X_WP:	0.000	Y_WP:	0.000	Y_WP:	0.500	X:	0.100	Y:	0.093	Z:	0.402	yaw:	33.497	yaw rate:	-1.361	Roll:	4.467	Pitch:	0.653	Yaw:	48.418	Thrust:	28.256
Time:	4.124	Roll Set Point:	-0.235	Pitch Set Point:	-0.114	Yaw Set Point:	-0.585	X_WP:	0.000	Y_WP:	0.000	Y_WP:	0.500	X:	0.100	Y:	0.093	Z:	0.402	yaw:	33.497	yaw rate:	-1.361	Roll:	4.490	Pitch:	0.742	Yaw:	48.334	Thrust:	28.443
Time:	4.140	Roll Set Point:	-0.235	Pitch Set Point:	-0.114	Yaw Set Point:	-0.584	X_WP:	0.000	Y_WP:	0.000	Y_WP:	0.500	X:	0.100	Y:	0.093	Z:	0.402	yaw:	33.478	yaw rate:	-1.868	Roll:	4.497	Pitch:	0.819	Yaw:	47.991	Thrust:	28.702
Time:	4.156	Roll Set Point:	-0.235	Pitch Set Point:	-0.114	Yaw Set Point:	-0.584	X_WP:	0.000	Y_WP:	0.000	Y_WP:	0.500	X:	0.100	Y:	0.093	Z:	0.402	yaw:	33.478	yaw rate:	-1.868	Roll:	4.490	Pitch:	0.746	Yaw:	48.307	Thrust:	28.809
Time:	4.171	Roll Set Point:	-0.235	Pitch Set Point:	-0.114	Yaw Set Point:	-0.585	X_WP:	0.000	Y_WP:	0.000	Y_WP:	0.500	X:	0.100	Y:	0.093	Z:	0.402	yaw:	33.504	yaw rate:	2.569	Roll:	4.497	Pitch:	0.711	Yaw:	48.774	Thrust:	28.881
Time:	4.187	Roll Set Point:	-0.235	Pitch Set Point:	-0.114	Yaw Set Point:	-0.585	X_WP:	0.000	Y_WP:	0.000	Y_WP:	0.500	X:	0.100	Y:	0.093	Z:	0.402	yaw:	33.510	yaw rate:	0.823	Roll:	4.478	Pitch:	0.694	Yaw:	48.443	Thrust:	29.359
Time:	4.203	Roll Set Point:	-0.235	Pitch Set Point:	-0.114	Yaw Set Point:	-0.585	X_WP:	0.000	Y_WP:	0.000	Y_WP:	0.500	X:	0.100	Y:	0.093	Z:	0.402	yaw:	33.510	yaw rate:	0.823	Roll:	4.489	Pitch:	0.746	Yaw:	48.349	Thrust:	29.326
Time:	4.218	Roll Set Point:	-0.235	Pitch Set Point:	-0.115	Yaw Set Point:	-0.585	X_WP:	0.000	Y_WP:	0.000	Y_WP:	0.500	X:	0.100	Y:	0.093	Z:	0.402	yaw:	33.500	yaw rate:	2.054	Roll:	4.510	Pitch:	0.830	Yaw:	48.176	Thrust:	29.409
Time:	4.234	Roll Set Point:	-0.235	Pitch Set Point:	-0.114	Yaw Set Point:	-0.585	X_WP:	0.000	Y_WP:	0.000	Y_WP:	0.500	X:	0.100	Y:	0.093	Z:	0.402	yaw:	33.505	yaw rate:	0.537	Roll:	4.501	Pitch:	0.721	Yaw:	48.435	Thrust:	29.793
Time:	4.249	Roll Set Point:	-0.235	Pitch Set Point:	-0.114	Yaw Set Point:	-0.585	X_WP:	0.000	Y_WP:	0.000	Y_WP:	0.500	X:	0.100	Y:	0.093	Z:	0.402	yaw:	33.500	yaw rate:	-0.476	Roll:	4.445	Pitch:	0.707	Yaw:	48.259	Thrust:	29.911
Time:	4.265	Roll Set Point:	-0.235	Pitch Set Point:	-0.114	Yaw Set Point:	-0.585	X_WP:	0.000	Y_WP:	0.000	Y_WP:	0.500	X:	0.100	Y:	0.093	Z:	0.402	yaw:	33.500	yaw rate:	-0.476	Roll:	4.489	Pitch:	0.750	Yaw:	48.338	Thrust:	30.091
Time:	4.281	Roll Set Point:	-0.235	Pitch Set Point:	-0.115	Yaw Set Point:	-0.584	X_WP:	0.000	Y_WP:	0.000	Y_WP:	0.500	X:	0.100	Y:	0.093	Z:	0.402	yaw:	33.484	yaw rate:	-1.962	Roll:	4.528	Pitch:	0.864	Yaw:	48.042	Thrust:	30.200
Time:	4.296	Roll Set Point:	-0.235	Pitch Set Point:	-0.114	Yaw Set Point:	-0.585	X_WP:	0.000	Y_WP:	0.000	Y_WP:	0.500	X:	0.100	Y:	0.093	Z:	0.402	yaw:	33.495	yaw rate:	1.040	Roll:	4.480	Pitch:	0.696	Yaw:	48.504	Thrust:	30.496
Time:	4.312	Roll Set Point:	-0.235	Pitch Set Point:	-0.114	Yaw Set Point:	-0.584	X_WP:	0.000	Y_WP:	0.000	Y_WP:	0.500	X:	0.100	Y:	0.093	Z:	0.402	yaw:	33.488	yaw rate:	-0.687	Roll:	4.479	Pitch:	0.759	Yaw:	48.205	Thrust:	30.764
Time:	4.328	Roll Set Point:	-0.235	Pitch Set Point:	-0.114	Yaw Set Point:	-0.585	X_WP:	0.000	Y_WP:	0.000	Y_WP:	0.500	X:	0.100	Y:	0.093	Z:	0.402	yaw:	33.512	yaw rate:	2.383	Roll:	4.489	Pitch:	0.671	Yaw:	48.753	Thrust:	30.659
Time:	4.343	Roll Set Point:	-0.235	Pitch Set Point:	-0.114	Yaw Set Point:	-0.585	X_WP:	0.000	Y_WP:	0.000	Y_WP:	0.500	X:	0.100	Y:	0.093	Z:	0.402	yaw:	33.496	yaw rate:	-1.601	Roll:	4.488	Pitch:	0.827	Yaw:	48.067	Thrust:	30.980
Time:	4.359	Roll Set Point:	-0.235	Pitch Set Point:	-0.115	Yaw Set Point:	-0.585	X_WP:	0.000	Y_WP:	0.000	Y_WP:	0.500	X:	0.100	Y:	0.093	Z:	0.402	yaw:	33.513	yaw rate:	1.697	Roll:	4.536	Pitch:	0.752	Yaw:	48.637	Thrust:	31.238
Time:	4.374	Roll Set Point:	-0.235	Pitch Set Point:	-0.114	Yaw Set Point:	-0.585	X_WP:	0.000	Y_WP:	0.000	Y_WP:	0.500	X:	0.100	Y:	0.093	Z:	0.402	yaw:	33.507	yaw rate:	-0.558	Roll:	4.440	Pitch:	0.702	Yaw:	48.254	Thrust:	31.298
Time:	4.390	Roll Set Point:	-0.235	Pitch Set Point:	-0.114	Yaw Set Point:	-0.585	X_WP:	0.000	Y_WP:	0.000	Y_WP:	0.500	X:	0.100	Y:	0.093	Z:	0.402	yaw:	33.520	yaw rate:	1.351	Roll:	4.509	Pitch:	0.736	Yaw:	48.595	Thrust:	31.825
Time:	4.406	Roll Set Point:	-0.235	Pitch Set Point:	-0.115	Yaw Set Point:	-0.584	X_WP:	0.000	Y_WP:	0.000	Y_WP:	0.500	X:	0.100	Y:	0.093	Z:	0.402	yaw:	33.485	yaw rate:	-3.551	Roll:	4.503	Pitch:	0.893	Yaw:	47.717	Thrust:	31.539
Time:	4.421	Roll Set Point:	-0.235	Pitch Set Point:	-0.115	Yaw Set Point:	-0.584	X_WP:	0.000	Y_WP:	0.000	Y_WP:	0.500	X:	0.100	Y:	0.093	Z:	0.402	yaw:	33.485	yaw rate:	-3.551	Roll:	4.491	Pitch:	0.761	Yaw:	48.318	Thrust:	31.942
Time:	4.437	Roll Set Point:	-0.235	Pitch Set Point:	-0.115	Yaw Set Point:	-0.584	X_WP:	0.000	Y_WP:	0.000	Y_WP:	0.500	X:	0.100	Y:	0.093	Z:	0.402	yaw:	33.476	yaw rate:	-2.072	Roll:	4.455	Pitch:	0.753	Yaw:	48.156	Thrust:	32.219
Time:	4.453	Roll Set Point:	-0.235	Pitch Set Point:	-0.115	Yaw Set Point:	-0.584	X_WP:	0.000	Y_WP:	0.000	Y_WP:	0.500	X:	0.100	Y:	0.093	Z:	0.402	yaw:	33.476	yaw rate:	-2.072	Roll:	4.489	Pitch:	0.763	Yaw:	48.304	Thrust:	32.288
Time:	4.468	Roll Set Point:	-0.235	Pitch Set Point:	-0.114	Yaw Set Point:	-0.585	X_WP:	0.000	Y_WP:	0.000	Y_WP:	0.500	X:	0.100	Y:	0.093	Z:	0.402	yaw:	33.513	yaw rate:	0.960	Roll:	4.517	Pitch:	0.669	Yaw:	48.970	Thrust:	32.282
Time:	4.486	Roll Set Point:	-0.235	Pitch Set Point:	-0.115	Yaw Set Point:	-0.584	X_WP:	0.000	Y_WP:	0.000	Y_WP:	0.500	X:	0.100	Y:	0.093	Z:	0.402	yaw:	33.486	yaw rate:	-2.654	Roll:	4.572	Pitch:	0.875	Yaw:	48.186	Thrust:	37.110
Time:	4.503	Roll Set Point:	-0.235	Pitch Set Point:	-0.115	Yaw Set Point:	-0.584	X_WP:	0.000	Y_WP:	0.000	Y_WP:	0.500	X:	0.100	Y:	0.093	Z:	0.402	yaw:	33.486	yaw rate:	-2.654	Roll:	4.547	Pitch:	0.778	Yaw:	48.419	Thrust:	34.606
Time:	4.519	Roll Set Point:	-0.235	Pitch Set Point:	-0.114	Yaw Set Point:	-0.585	X_WP:	0.000	Y_WP:	0.000	Y_WP:	0.500	X:	0.100	Y:	0.093	Z:	0.402	yaw:	33.511	yaw rate:	2.439	Roll:	4.465	Pitch:	0.632	Yaw:	48.761	Thrust:	32.861
Time:	4.534	Roll Set Point:	-0.235	Pitch Set Point:	-0.114	Yaw Set Point:	-0.585	X_WP:	0.000	Y_WP:	0.000	Y_WP:	0.500	X:	0.100	Y:	0.093	Z:	0.402	yaw:	33.502	yaw rate:	-0.842	Roll:	4.497	Pitch:	0.793	Yaw:	48.200	Thrust:	33.498
Time:	4.550	Roll Set Point:	-0.235	Pitch Set Point:	-0.115	Yaw Set Point:	-0.585	X_WP:	0.000	Y_WP:	0.000	Y_WP:	0.500	X:	0.100	Y:	0.093	Z:	0.402	yaw:	33.500	yaw rate:	0.851	Roll:	4.496	Pitch:	0.823	Yaw:	48.307	Thrust:	33.200
Time:	4.565	Roll Set Point:	-0.235	Pitch Set Point:	-0.114	Yaw Set Point:	-0.584	X_WP:	0.000	Y_WP:	0.000	Y_WP:	0.500	X:	0.100	Y:	0.093	Z:	0.402	yaw:	33.489	yaw rate:	-1.108	Roll:	4.471	Pitch:	0.753	Yaw:	48.137	Thrust:	33.601
Time:	4.581	Roll Set Point:	-0.235	Pitch Set Point:	-0.114	Yaw Set Point:	-0.584	X_WP:	0.000	Y_WP:	0.000	Y_WP:	0.500	X:	0.100	Y:	0.093	Z:	0.402	yaw:	33.489	yaw rate:	-1.108	Roll:	4.490	Pitch:	0.768	Yaw:	48.323	Thrust:	33.755
Time:	4.597	Roll Set Point:	-0.235	Pitch Set Point:	-0.114	Yaw Set Point:	-0.585	X_WP:	0.000	Y_WP:	0.000	Y_WP:	0.500	X:	0.100	Y:	0.093	Z:	0.402	yaw:	33.490	yaw rate:	-2.244	Roll:	4.494	Pitch:	0.776	Yaw:	48.334	Thrust:	33.871
Time:	4.612	Roll Set Point:	-0.235	Pitch Set Point:	-0.115	Yaw Set Point:	-0.584	X_WP:	0.000	Y_WP:	0.000	Y_WP:	0.500	X:	0.100	Y:	0.093	Z:	0.402	yaw:	33.477	yaw rate:	-1.316	Roll:	4.484	Pitch:	0.822	Yaw:	48.085	Thrust:	34.079
Time:	4.628	Roll Set Point:	-0.235	Pitch Set Point:	-0.114	Yaw Set Point:	-0.585	X_WP:	0.000	Y_WP:	0.000	Y_WP:	0.500	X:	0.100	Y:	0.093	Z:	0.402	yaw:	33.502	yaw rate:	2.468	Roll:	4.494	Pitch:	0.702	Yaw:	48.753	Thrust:	34.431
Time:	4.644	Roll Set Point:	-0.235	Pitch Set Point:	-0.114	Yaw Set Point:	-0.585	X_WP:	0.000	Y_WP:	0.000	Y_WP:	0.500	X:	0.100	Y:	0.093	Z:	0.402	yaw:	33.500	yaw rate:	-0.146	Roll:	4.477	Pitch:	0.720	Yaw:	48.313	Thrust:	34.431
Time:	4.659	Roll Set Point:	-0.235	Pitch Set Point:	-0.114	Yaw Set Point:	-0.585	X_WP:	0.000	Y_WP:	0.000	Y_WP:	0.500	X:	0.100	Y:	0.093	Z:	0.402	yaw:	33.500	yaw rate:	-0.146	Roll:	4.489	Pitch:	0.771	Yaw:	48.337	Thrust:	34.666
Time:	4.675	Roll Set Point:	-0.235	Pitch Set Point:	-0.115	Yaw Set Point:	-0.585	X_WP:	0.000	Y_WP:	0.000	Y_WP:	0.500	X:	0.100	Y:	0.093	Z:	0.402	yaw:	33.501	yaw rate:	0.085	Roll:	4.538	Pitch:	0.839	Yaw:	48.353	Thrust:	34.931
Time:	4.690	Roll Set Point:	-0.235	Pitch Set Point:	-0.115	Yaw Set Point:	-0.585	X_WP:	0.000	Y_WP:	0.000	Y_WP:	0.500	X:	0.100	Y:	0.093	Z:	0.402	yaw:	33.501	yaw rate:	0.085	Roll:	4.491	Pitch:	0.774	Yaw:	48.339	Thrust:	35.036
Time:	4.706	Roll Set Point:	-0.235	Pitch Set Point:	-0.114	Yaw Set Point:	-0.585	X_WP:	0.000	Y_WP:	0.000	Y_WP:	0.500	X:	0.100	Y:	0.093	Z:	0.402	yaw:	33.502	yaw rate:	1.381	Roll:	4.440	Pitch:	0.743	Yaw:	48.356	Thrust:	35.323
Time:	4.722	Roll Set Point:	-0.235	Pitch Set Point:	-0.114	Yaw Set Point:	-0.585	X_WP:	0.000	Y_WP:	0.000	Y_WP:	0.500	X:	0.100	Y:	0.093	Z:	0.402	yaw:	33.502	yaw rate:	1.381	Roll:	4.489	Pitch:	0.775	Yaw:	48.340	Thrust:	35.402
Time:	4.737	Roll Set Point:	-0.235	Pitch Set Point:	-0.114	Yaw Set Point:	-0.585	X_WP:	0.000	Y_WP:	0.000	Y_WP:	0.500	X:	0.100	Y:	0.093	Z:	0.402	yaw:	33.500	yaw rate:	0.356	Roll:	4.515	Pitch:	0.796	Yaw:	48.303	Thrust:	35.286
Time:	4.753	Roll Set Point:	-0.235	Pitch Set Point:	-0.114	Yaw Set Point:	-0.585	X_WP:	0.000	Y_WP:	0.000	Y_WP:	0.500	X:	0.100	Y:	0.093	Z:	0.402	yaw:	33.500	yaw rate:	0.356	Roll:	4.490	Pitch:	0.777	Yaw:	48.337	Thrust:	35.767
Time:	4.769	Roll Set Point:	-0.235	Pitch Set Point:	-0.115	Yaw Set Point:	-0.585	X_WP:	0.000	Y_WP:	0.000	Y_WP:	0.500	X:	0.100	Y:	0.093	Z:	0.402	yaw:	33.505	yaw rate:	0.547	Roll:	4.505	Pitch:	0.795	Yaw:	48.437	Thrust:	36.152
Time:	4.796	Roll Set Point:	-0.235	Pitch Set Point:	-0.115	Yaw Set Point:	-0.584	X_WP:	0.000	Y_WP:	0.000	Y_WP:	0.500	X:	0.100	Y:	0.093	Z:	0.402	yaw:	33.486	yaw rate:	-1.210	Roll:	4.948	Pitch:	0.919	Yaw:	49.331	Thrust:	59.700
Time:	4.812	Roll Set Point:	-0.235	Pitch Set Point:	-0.115	Yaw Set Point:	-0.584	X_WP:	0.000	Y_WP:	0.000	Y_WP:	0.500	X:	0.100	Y:	0.093	Z:	0.402	yaw:	33.487	yaw rate:	0.104	Roll:	4.444	Pitch:	0.769	Yaw:	48.336	Thrust:	36.189
Time:	4.827	Roll Set Point:	-0.235	Pitch Set Point:	-0.114	Yaw Set Point:	-0.585	X_WP:	0.000	Y_WP:	0.000	Y_WP:	0.500	X:	0.100	Y:	0.093	Z:	0.402	yaw:	33.498	yaw rate:	1.129	Roll:	4.487	Pitch:	0.721	Yaw:	48.524	Thrust:	36.595
Time:	4.843	Roll Set Point:	-0.235	Pitch Set Point:	-0.114	Yaw Set Point:	-0.585	X_WP:	0.000	Y_WP:	0.000	Y_WP:	0.500	X:	0.100	Y:	0.093	Z:	0.402	yaw:	33.498	yaw rate:	1.129	Roll:	4.490	Pitch:	0.782	Yaw:	48.335	Thrust:	36.692
Time:	4.859	Roll Set Point:	-0.235	Pitch Set Point:	-0.114	Yaw Set Point:	-0.585	X_WP:	0.000	Y_WP:	0.000	Y_WP:	0.500	X:	0.100	Y:	0.093	Z:	0.402	yaw:	33.495	yaw rate:	-1.692	Roll:	4.510	Pitch:	0.806	Yaw:	48.281	Thrust:	36.774
Time:	4.874	Roll Set Point:	-0.235	Pitch Set Point:	-0.114	Yaw Set Point:	-0.585	X_WP:	0.000	Y_WP:	0.000	Y_WP:	0.500	X:	0.100	Y:	0.093	Z:	0.402	yaw:	33.495	yaw rate:	-1.692	Roll:	4.490	Pitch:	0.784	Yaw:	48.331	Thrust:	37.047
Time:	4.890	Roll Set Point:	-0.235	Pitch Set Point:	-0.115	Yaw Set Point:	-0.584	X_WP:	0.000	Y_WP:	0.000	Y_WP:	0.500	X:	0.100	Y:	0.093	Z:	0.402	yaw:	33.469	yaw rate:	-2.605	Roll:	4.481	Pitch:	0.858	Yaw:	47.858	Thrust:	37.255
Time:	4.906	Roll Set Point:	-0.235	Pitch Set Point:	-0.114	Yaw Set Point:	-0.585	X_WP:	0.000	Y_WP:	0.000	Y_WP:	0.500	X:	0.100	Y:	0.093	Z:	0.402	yaw:	33.514	yaw rate:	4.433	Roll:	4.490	Pitch:	0.631	Yaw:	49.099	Thrust:	37.566
Time:	4.921	Roll Set Point:	-0.235	Pitch Set Point:	-0.114	Yaw Set Point:	-0.584	X_WP:	0.000	Y_WP:	0.000	Y_WP:	0.500	X:	0.100	Y:	0.093	Z:	0.402	yaw:	33.484	yaw rate:	-2.934	Roll:	4.487	Pitch:	0.861	Yaw:	47.824	Thrust:	37.524
Time:	4.937	Roll Set Point:	-0.235	Pitch Set Point:	-0.114	Yaw Set Point:	-0.584	X_WP:	0.000	Y_WP:	0.000	Y_WP:	0.500	X:	0.100	Y:	0.093	Z:	0.402	yaw:	33.484	yaw rate:	-2.934	Roll:	4.490	Pitch:	0.787	Yaw:	48.315	Thrust:	37.783
Time:	4.952	Roll Set Point:	-0.235	Pitch Set Point:	-0.114	Yaw Set Point:	-0.584	X_WP:	0.000	Y_WP:	0.000	Y_WP:	0.500	X:	0.100	Y:	0.093	Z:	0.402	yaw:	33.488	yaw rate:	-1.112	Roll:	4.467	Pitch:	0.807	Yaw:	48.380	Thrust:	37.946
Time:	4.968	Roll Set Point:	-0.235	Pitch Set Point:	-0.114	Yaw Set Point:	-0.585	X_WP:	0.000	Y_WP:	0.000	Y_WP:	0.500	X:	0.100	Y:	0.093	Z:	0.402	yaw:	33.506	yaw rate:	1.808	Roll:	4.513	Pitch:	0.721	Yaw:	48.645	Thrust:	38.280
Time:	4.984	Roll Set Point:	-0.235	Pitch Set Point:	-0.115	Yaw Set Point:	-0.584	X_WP:	0.000	Y_WP:	0.000	Y_WP:	0.500	X:	0.100	Y:	0.093	Z:	0.402	yaw:	33.483	yaw rate:	-2.304	Roll:	4.517	Pitch:	0.879	Yaw:	47.969	Thrust:	39.040
Time:	4.999	Roll Set Point:	-0.235	Pitch Set Point:	-0.114	Yaw Set Point:	-0.585	X_WP:	0.000	Y_WP:	0.000	Y_WP:	0.500	X:	0.100	Y:	0.093	Z:	0.402	yaw:	33.506	yaw rate:	2.336	Roll:	4.468	Pitch:	0.702	Yaw:	48.694	Thrust:	37.073
Time:	5.027	Roll Set Point:	-0.235	Pitch Set Point:	-0.114	Yaw Set Point:	-0.584	X_WP:	0.000	Y_WP:	0.000	Y_WP:	0.500	X:	0.100	Y:	0.093	Z:	0.402	yaw:	33.479	yaw rate:	-0.718	Roll:	4.931	Pitch:	0.952	Yaw:	49.273	Thrust:	64.641
Time:	5.042	Roll Set Point:	-0.235	Pitch Set Point:	-0.114	Yaw Set Point:	-0.584	X_WP:	0.000	Y_WP:	0.000	Y_WP:	0.500	X:	0.100	Y:	0.093	Z:	0.402	yaw:	33.485	yaw rate:	0.582	Roll:	4.491	Pitch:	0.772	Yaw:	48.414	Thrust:	38.770
Time:	5.058	Roll Set Point:	-0.235	Pitch Set Point:	-0.115	Yaw Set Point:	-0.585	X_WP:	0.000	Y_WP:	0.000	Y_WP:	0.500	X:	0.100	Y:	0.093	Z:	0.402	yaw:	33.494	yaw rate:	0.899	Roll:	4.520	Pitch:	0.817	Yaw:	48.480	Thrust:	39.134
Time:	5.074	Roll Set Point:	-0.235	Pitch Set Point:	-0.115	Yaw Set Point:	-0.584	X_WP:	0.000	Y_WP:	0.000	Y_WP:	0.500	X:	0.100	Y:	0.093	Z:	0.402	yaw:	33.484	yaw rate:	-1.021	Roll:	4.459	Pitch:	0.798	Yaw:	48.144	Thrust:	39.203
Time:	5.089	Roll Set Point:	-0.235	Pitch Set Point:	-0.115	Yaw Set Point:	-0.584	X_WP:	0.000	Y_WP:	0.000	Y_WP:	0.500	X:	0.100	Y:	0.093	Z:	0.402	yaw:	33.484	yaw rate:	-1.021	Roll:	4.489	Pitch:	0.796	Yaw:	48.315	Thrust:	39.428
Time:	5.105	Roll Set Point:	-0.235	Pitch Set Point:	-0.114	Yaw Set Point:	-0.585	X_WP:	0.000	Y_WP:	0.000	Y_WP:	0.500	X:	0.100	Y:	0.093	Z:	0.402	yaw:	33.515	yaw rate:	0.750	Roll:	4.515	Pitch:	0.698	Yaw:	48.874	Thrust:	39.706
Time:	5.121	Roll Set Point:	-0.235	Pitch Set Point:	-0.114	Yaw Set Point:	-0.585	X_WP:	0.000	Y_WP:	0.000	Y_WP:	0.500	X:	0.100	Y:	0.093	Z:	0.402	yaw:	33.494	yaw rate:	-2.057	Roll:	4.490	Pitch:	0.856	Yaw:	47.985	Thrust:	39.670
Time:	5.136	Roll Set Point:	-0.235	Pitch Set Point:	-0.115	Yaw Set Point:	-0.585	X_WP:	0.000	Y_WP:	0.000	Y_WP:	0.500	X:	0.100	Y:	0.093	Z:	0.402	yaw:	33.489	yaw rate:	-0.491	Roll:	4.475	Pitch:	0.820	Yaw:	48.240	Thrust:	40.000
Time:	5.152	Roll Set Point:	-0.235	Pitch Set Point:	-0.114	Yaw Set Point:	-0.585	X_WP:	0.000	Y_WP:	0.000	Y_WP:	0.500	X:	0.100	Y:	0.093	Z:	0.402	yaw:	33.497	yaw rate:	0.778	Roll:	4.462	Pitch:	0.773	Yaw:	48.464	Thrust:	40.226
Time:	5.167	Roll Set Point:	-0.235	Pitch Set Point:	-0.114	Yaw Set Point:	-0.584	X_WP:	0.000	Y_WP:	0.000	Y_WP:	0.500	X:	0.100	Y:	0.093	Z:	0.402	yaw:	33.486	yaw rate:	-1.139	Roll:	4.514	Pitch:	0.825	Yaw:	48.127	Thrust:	40.374
Time:	5.183	Roll Set Point:	-0.235	Pitch Set Point:	-0.114	Yaw Set Point:	-0.585	X_WP:	0.000	Y_WP:	0.000	Y_WP:	0.500	X:	0.100	Y:	0.093	Z:	0.402	yaw:	33.503	yaw rate:	1.715	Roll:	4.490	Pitch:	0.739	Yaw:	48.629	Thrust:	40.470
Time:	5.199	Roll Set Point:	-0.235	Pitch Set Point:	-0.115	Yaw Set Point:	-0.585	X_WP:	0.000	Y_WP:	0.000	Y_WP:	0.500	X:	0.100	Y:	0.093	Z:	0.402	yaw:	33.497	yaw rate:	-0.634	Roll:	4.518	Pitch:	0.858	Yaw:	48.226	Thrust:	40.728
Time:	5.214	Roll Set Point:	-0.235	Pitch Set Point:	-0.114	Yaw Set Point:	-0.584	X_WP:	0.000	Y_WP:	0.000	Y_WP:	0.500	X:	0.100	Y:	0.093	Z:	0.402	yaw:	33.489	yaw rate:	-0.746	Roll:	4.460	Pitch:	0.785	Yaw:	48.197	Thrust:	40.742
Time:	5.230	Roll Set Point:	-0.235	Pitch Set Point:	-0.114	Yaw Set Point:	-0.585	X_WP:	0.000	Y_WP:	0.000	Y_WP:	0.500	X:	0.100	Y:	0.093	Z:	0.402	yaw:	33.497	yaw rate:	0.756	Roll:	4.485	Pitch:	0.783	Yaw:	48.460	Thrust:	41.218
Time:	5.246	Roll Set Point:	-0.235	Pitch Set Point:	-0.114	Yaw Set Point:	-0.585	X_WP:	0.000	Y_WP:	0.000	Y_WP:	0.500	X:	0.100	Y:	0.093	Z:	0.402	yaw:	33.496	yaw rate:	-0.064	Roll:	4.514	Pitch:	0.810	Yaw:	48.321	Thrust:	41.340
Time:	5.261	Roll Set Point:	-0.235	Pitch Set Point:	-0.114	Yaw Set Point:	-0.585	X_WP:	0.000	Y_WP:	0.000	Y_WP:	0.500	X:	0.100	Y:	0.093	Z:	0.402	yaw:	33.496	yaw rate:	-0.064	Roll:	4.490	Pitch:	0.804	Yaw:	48.332	Thrust:	41.447
Time:	5.277	Roll Set Point:	-0.235	Pitch Set Point:	-0.115	Yaw Set Point:	-0.584	X_WP:	0.000	Y_WP:	0.000	Y_WP:	0.500	X:	0.100	Y:	0.093	Z:	0.402	yaw:	33.479	yaw rate:	-0.918	Roll:	4.476	Pitch:	0.856	Yaw:	48.022	Thrust:	41.444
Time:	5.292	Roll Set Point:	-0.235	Pitch Set Point:	-0.115	Yaw Set Point:	-0.585	X_WP:	0.000	Y_WP:	0.000	Y_WP:	0.500	X:	0.100	Y:	0.093	Z:	0.402	yaw:	33.499	yaw rate:	1.983	Roll:	4.509	Pitch:	0.770	Yaw:	48.668	Thrust:	41.967
Time:	5.308	Roll Set Point:	-0.235	Pitch Set Point:	-0.114	Yaw Set Point:	-0.585	X_WP:	0.000	Y_WP:	0.000	Y_WP:	0.500	X:	0.100	Y:	0.093	Z:	0.402	yaw:	33.504	yaw rate:	0.542	Roll:	4.463	Pitch:	0.745	Yaw:	48.434	Thrust:	41.895
Time:	5.324	Roll Set Point:	-0.235	Pitch Set Point:	-0.114	Yaw Set Point:	-0.585	X_WP:	0.000	Y_WP:	0.000	Y_WP:	0.500	X:	0.100	Y:	0.093	Z:	0.402	yaw:	33.514	yaw rate:	0.964	Roll:	4.510	Pitch:	0.803	Yaw:	48.518	Thrust:	42.200
Time:	5.339	Roll Set Point:	-0.235	Pitch Set Point:	-0.114	Yaw Set Point:	-0.585	X_WP:	0.000	Y_WP:	0.000	Y_WP:	0.500	X:	0.100	Y:	0.093	Z:	0.402	yaw:	33.533	yaw rate:	1.873	Roll:	4.520	Pitch:	0.785	Yaw:	48.697	Thrust:	42.363
Time:	5.355	Roll Set Point:	-0.235	Pitch Set Point:	-0.114	Yaw Set Point:	-0.585	X_WP:	0.000	Y_WP:	0.000	Y_WP:	0.500	X:	0.100	Y:	0.093	Z:	0.402	yaw:	33.533	yaw rate:	1.873	Roll:	4.491	Pitch:	0.807	Yaw:	48.383	Thrust:	42.546
Time:	5.371	Roll Set Point:	-0.235	Pitch Set Point:	-0.114	Yaw Set Point:	-0.584	X_WP:	0.000	Y_WP:	0.000	Y_WP:	0.500	X:	0.100	Y:	0.093	Z:	0.402	yaw:	33.488	yaw rate:	-4.477	Roll:	4.438	Pitch:	0.906	Yaw:	47.570	Thrust:	42.530
Time:	5.386	Roll Set Point:	-0.235	Pitch Set Point:	-0.114	Yaw Set Point:	-0.585	X_WP:	0.000	Y_WP:	0.000	Y_WP:	0.500	X:	0.100	Y:	0.093	Z:	0.402	yaw:	33.508	yaw rate:	2.042	Roll:	4.518	Pitch:	0.757	Yaw:	48.691	Thrust:	43.248
Time:	5.402	Roll Set Point:	-0.235	Pitch Set Point:	-0.114	Yaw Set Point:	-0.584	X_WP:	0.000	Y_WP:	0.000	Y_WP:	0.500	X:	0.100	Y:	0.093	Z:	0.402	yaw:	33.487	yaw rate:	-2.157	Roll:	4.478	Pitch:	0.866	Yaw:	47.958	Thrust:	42.934
Time:	5.417	Roll Set Point:	-0.235	Pitch Set Point:	-0.114	Yaw Set Point:	-0.585	X_WP:	0.000	Y_WP:	0.000	Y_WP:	0.500	X:	0.100	Y:	0.093	Z:	0.402	yaw:	33.499	yaw rate:	0.394	Roll:	4.496	Pitch:	0.792	Yaw:	48.536	Thrust:	43.339
Time:	5.433	Roll Set Point:	-0.235	Pitch Set Point:	-0.114	Yaw Set Point:	-0.585	X_WP:	0.000	Y_WP:	0.000	Y_WP:	0.500	X:	0.100	Y:	0.093	Z:	0.402	yaw:	33.505	yaw rate:	0.602	Roll:	4.476	Pitch:	0.787	Yaw:	48.445	Thrust:	43.541
Time:	5.449	Roll Set Point:	-0.235	Pitch Set Point:	-0.114	Yaw Set Point:	-0.585	X_WP:	0.000	Y_WP:	0.000	Y_WP:	0.500	X:	0.100	Y:	0.093	Z:	0.402	yaw:	33.506	yaw rate:	0.176	Roll:	4.484	Pitch:	0.795	Yaw:	48.376	Thrust:	43.414
Time:	5.464	Roll Set Point:	-0.235	Pitch Set Point:	-0.115	Yaw Set Point:	-0.585	X_WP:	0.000	Y_WP:	0.000	Y_WP:	0.500	X:	0.100	Y:	0.093	Z:	0.402	yaw:	33.492	yaw rate:	-1.427	Roll:	4.516	Pitch:	0.888	Yaw:	48.091	Thrust:	44.001
Time:	5.480	Roll Set Point:	-0.235	Pitch Set Point:	-0.114	Yaw Set Point:	-0.585	X_WP:	0.000	Y_WP:	0.000	Y_WP:	0.500	X:	0.100	Y:	0.093	Z:	0.402	yaw:	33.501	yaw rate:	0.914	Roll:	4.469	Pitch:	0.770	Yaw:	48.489	Thrust:	43.860
Time:	5.496	Roll Set Point:	-0.235	Pitch Set Point:	-0.114	Yaw Set Point:	-0.585	X_WP:	0.000	Y_WP:	0.000	Y_WP:	0.500	X:	0.100	Y:	0.093	Z:	0.402	yaw:	33.493	yaw rate:	-0.879	Roll:	4.484	Pitch:	0.818	Yaw:	48.180	Thrust:	44.228
Time:	5.511	Roll Set Point:	-0.235	Pitch Set Point:	-0.114	Yaw Set Point:	-0.585	X_WP:	0.000	Y_WP:	0.000	Y_WP:	0.500	X:	0.100	Y:	0.093	Z:	0.402	yaw:	33.523	yaw rate:	3.092	Roll:	4.506	Pitch:	0.746	Yaw:	48.888	Thrust:	44.500
Time:	5.527	Roll Set Point:	-0.235	Pitch Set Point:	-0.115	Yaw Set Point:	-0.585	X_WP:	0.000	Y_WP:	0.000	Y_WP:	0.500	X:	0.100	Y:	0.093	Z:	0.402	yaw:	33.497	yaw rate:	-2.660	Roll:	4.487	Pitch:	0.930	Yaw:	47.887	Thrust:	44.323
Time:	5.543	Roll Set Point:	-0.235	Pitch Set Point:	-0.115	Yaw Set Point:	-0.584	X_WP:	0.000	Y_WP:	0.000	Y_WP:	0.500	X:	0.100	Y:	0.093	Z:	0.402	yaw:	33.482	yaw rate:	-1.528	Roll:	4.465	Pitch:	0.833	Yaw:	48.056	Thrust:	44.801
Time:	5.558	Roll Set Point:	-0.235	Pitch Set Point:	-0.114	Yaw Set Point:	-0.585	X_WP:	0.000	Y_WP:	0.000	Y_WP:	0.500	X:	0.100	Y:	0.093	Z:	0.402	yaw:	33.505	yaw rate:	2.368	Roll:	4.497	Pitch:	0.735	Yaw:	48.741	Thrust:	45.069
Time:	5.574	Roll Set Point:	-0.235	Pitch Set Point:	-0.114	Yaw Set Point:	-0.585	X_WP:	0.000	Y_WP:	0.000	Y_WP:	0.500	X:	0.100	Y:	0.093	Z:	0.402	yaw:	33.508	yaw rate:	0.258	Roll:	4.489	Pitch:	0.801	Yaw:	48.392	Thrust:	45.088
Time:	5.589	Roll Set Point:	-0.235	Pitch Set Point:	-0.114	Yaw Set Point:	-0.585	X_WP:	0.000	Y_WP:	0.000	Y_WP:	0.500	X:	0.100	Y:	0.093	Z:	0.402	yaw:	33.508	yaw rate:	0.258	Roll:	4.489	Pitch:	0.820	Yaw:	48.348	Thrust:	45.283
Time:	5.605	Roll Set Point:	-0.235	Pitch Set Point:	-0.115	Yaw Set Point:	-0.585	X_WP:	0.000	Y_WP:	0.000	Y_WP:	0.500	X:	0.100	Y:	0.093	Z:	0.402	yaw:	33.498	yaw rate:	-0.525	Roll:	4.517	Pitch:	0.912	Yaw:	48.168	Thrust:	45.436
Time:	5.621	Roll Set Point:	-0.235	Pitch Set Point:	-0.115	Yaw Set Point:	-0.585	X_WP:	0.000	Y_WP:	0.000	Y_WP:	0.500	X:	0.100	Y:	0.093	Z:	0.402	yaw:	33.498	yaw rate:	-0.525	Roll:	4.490	Pitch:	0.824	Yaw:	48.334	Thrust:	45.653
Time:	5.636	Roll Set Point:	-0.235	Pitch Set Point:	-0.114	Yaw Set Point:	-0.585	X_WP:	0.000	Y_WP:	0.000	Y_WP:	0.500	X:	0.100	Y:	0.093	Z:	0.402	yaw:	33.503	yaw rate:	-0.144	Roll:	4.489	Pitch:	0.787	Yaw:	48.421	Thrust:	45.981
Time:	5.652	Roll Set Point:	-0.235	Pitch Set Point:	-0.115	Yaw Set Point:	-0.584	X_WP:	0.000	Y_WP:	0.000	Y_WP:	0.500	X:	0.100	Y:	0.093	Z:	0.402	yaw:	33.488	yaw rate:	-1.413	Roll:	4.490	Pitch:	0.885	Yaw:	48.085	Thrust:	45.939
Time:	5.668	Roll Set Point:	-0.235	Pitch Set Point:	-0.114	Yaw Set Point:	-0.585	X_WP:	0.000	Y_WP:	0.000	Y_WP:	0.500	X:	0.100	Y:	0.093	Z:	0.402	yaw:	33.510	yaw rate:	2.146	Roll:	4.495	Pitch:	0.750	Yaw:	48.709	Thrust:	46.005
Time:	5.683	Roll Set Point:	-0.235	Pitch Set Point:	-0.114	Yaw Set Point:	-0.585	X_WP:	0.000	Y_WP:	0.000	Y_WP:	0.500	X:	0.100	Y:	0.093	Z:	0.402	yaw:	33.508	yaw rate:	-0.192	Roll:	4.459	Pitch:	0.809	Yaw:	48.316	Thrust:	46.484
Time:	5.699	Roll Set Point:	-0.235	Pitch Set Point:	-0.114	Yaw Set Point:	-0.585	X_WP:	0.000	Y_WP:	0.000	Y_WP:	0.500	X:	0.100	Y:	0.093	Z:	0.402	yaw:	33.501	yaw rate:	-0.665	Roll:	4.500	Pitch:	0.838	Yaw:	48.228	Thrust:	46.717
Time:	5.714	Roll Set Point:	-0.235	Pitch Set Point:	-0.114	Yaw Set Point:	-0.585	X_WP:	0.000	Y_WP:	0.000	Y_WP:	0.500	X:	0.100	Y:	0.093	Z:	0.402	yaw:	33.504	yaw rate:	0.305	Roll:	4.494	Pitch:	0.846	Yaw:	48.395	Thrust:	46.563
Time:	5.730	Roll Set Point:	-0.235	Pitch Set Point:	-0.114	Yaw Set Point:	-0.585	X_WP:	0.000	Y_WP:	0.000	Y_WP:	0.500	X:	0.100	Y:	0.093	Z:	0.402	yaw:	33.504	yaw rate:	0.305	Roll:	4.490	Pitch:	0.829	Yaw:	48.344	Thrust:	46.937
Time:	5.746	Roll Set Point:	-0.235	Pitch Set Point:	-0.114	Yaw Set Point:	-0.585	X_WP:	0.000	Y_WP:	0.000	Y_WP:	0.500	X:	0.100	Y:	0.093	Z:	0.402	yaw:	33.502	yaw rate:	0.630	Roll:	4.486	Pitch:	0.838	Yaw:	48.295	Thrust:	47.215
Time:	5.761	Roll Set Point:	-0.235	Pitch Set Point:	-0.114	Yaw Set Point:	-0.585	X_WP:	0.000	Y_WP:	0.000	Y_WP:	0.500	X:	0.100	Y:	0.093	Z:	0.402	yaw:	33.504	yaw rate:	0.187	Roll:	4.477	Pitch:	0.794	Yaw:	48.374	Thrust:	47.297
Time:	5.781	Roll Set Point:	-0.235	Pitch Set Point:	-0.115	Yaw Set Point:	-0.584	X_WP:	0.000	Y_WP:	0.000	Y_WP:	0.500	X:	0.100	Y:	0.093	Z:	0.402	yaw:	33.480	yaw rate:	-2.393	Roll:	4.625	Pitch:	0.940	Yaw:	48.394	Thrust:	56.384
Time:	5.797	Roll Set Point:	-0.235	Pitch Set Point:	-0.114	Yaw Set Point:	-0.584	X_WP:	0.000	Y_WP:	0.000	Y_WP:	0.500	X:	0.100	Y:	0.093	Z:	0.402	yaw:	33.487	yaw rate:	0.695	Roll:	4.500	Pitch:	0.839	Yaw:	48.435	Thrust:	49.575
Time:	5.812	Roll Set Point:	-0.235	Pitch Set Point:	-0.114	Yaw Set Point:	-0.584	X_WP:	0.000	Y_WP:	0.000	Y_WP:	0.500	X:	0.100	Y:	0.093	Z:	0.402	yaw:	33.487	yaw rate:	0.695	Roll:	4.489	Pitch:	0.835	Yaw:	48.319	Thrust:	47.852
Time:	5.828	Roll Set Point:	-0.235	Pitch Set Point:	-0.114	Yaw Set Point:	-0.585	X_WP:	0.000	Y_WP:	0.000	Y_WP:	0.500	X:	0.100	Y:	0.093	Z:	0.402	yaw:	33.504	yaw rate:	1.744	Roll:	4.499	Pitch:	0.773	Yaw:	48.635	Thrust:	48.167
Time:	5.843	Roll Set Point:	-0.235	Pitch Set Point:	-0.115	Yaw Set Point:	-0.585	X_WP:	0.000	Y_WP:	0.000	Y_WP:	0.500	X:	0.100	Y:	0.093	Z:	0.402	yaw:	33.492	yaw rate:	-1.160	Roll:	4.514	Pitch:	0.889	Yaw:	48.133	Thrust:	48.177
Time:	5.859	Roll Set Point:	-0.235	Pitch Set Point:	-0.115	Yaw Set Point:	-0.585	X_WP:	0.000	Y_WP:	0.000	Y_WP:	0.500	X:	0.100	Y:	0.093	Z:	0.402	yaw:	33.490	yaw rate:	-0.202	Roll:	4.467	Pitch:	0.842	Yaw:	48.290	Thrust:	48.297
Time:	5.875	Roll Set Point:	-0.235	Pitch Set Point:	-0.114	Yaw Set Point:	-0.585	X_WP:	0.000	Y_WP:	0.000	Y_WP:	0.500	X:	0.100	Y:	0.093	Z:	0.402	yaw:	33.508	yaw rate:	1.773	Roll:	4.491	Pitch:	0.799	Yaw:	48.646	Thrust:	48.722
Time:	5.890	Roll Set Point:	-0.235	Pitch Set Point:	-0.114	Yaw Set Point:	-0.585	X_WP:	0.000	Y_WP:	0.000	Y_WP:	0.500	X:	0.100	Y:	0.093	Z:	0.402	yaw:	33.508	yaw rate:	1.773	Roll:	4.490	Pitch:	0.838	Yaw:	48.349	Thrust:	48.773
Time:	5.906	Roll Set Point:	-0.235	Pitch Set Point:	-0.114	Yaw Set Point:	-0.584	X_WP:	0.000	Y_WP:	0.000	Y_WP:	0.500	X:	0.100	Y:	0.093	Z:	0.402	yaw:	33.487	yaw rate:	-2.126	Roll:	4.490	Pitch:	0.870	Yaw:	47.963	Thrust:	48.844
Time:	5.922	Roll Set Point:	-0.235	Pitch Set Point:	-0.114	Yaw Set Point:	-0.584	X_WP:	0.000	Y_WP:	0.000	Y_WP:	0.500	X:	0.100	Y:	0.093	Z:	0.402	yaw:	33.487	yaw rate:	-2.126	Roll:	4.490	Pitch:	0.840	Yaw:	48.319	Thrust:	49.133
Time:	5.937	Roll Set Point:	-0.235	Pitch Set Point:	-0.114	Yaw Set Point:	-0.585	X_WP:	0.000	Y_WP:	0.000	Y_WP:	0.500	X:	0.100	Y:	0.093	Z:	0.402	yaw:	33.497	yaw rate:	0.974	Roll:	4.474	Pitch:	0.811	Yaw:	48.496	Thrust:	49.208
Time:	5.953	Roll Set Point:	-0.235	Pitch Set Point:	-0.114	Yaw Set Point:	-0.585	X_WP:	0.000	Y_WP:	0.000	Y_WP:	0.500	X:	0.100	Y:	0.093	Z:	0.402	yaw:	33.497	yaw rate:	0.974	Roll:	4.489	Pitch:	0.841	Yaw:	48.333	Thrust:	49.500
Time:	5.968	Roll Set Point:	-0.235	Pitch Set Point:	-0.114	Yaw Set Point:	-0.585	X_WP:	0.000	Y_WP:	0.000	Y_WP:	0.500	X:	0.100	Y:	0.093	Z:	0.402	yaw:	33.498	yaw rate:	0.134	Roll:	4.524	Pitch:	0.823	Yaw:	48.357	Thrust:	49.934
Time:	5.984	Roll Set Point:	-0.235	Pitch Set Point:	-0.114	Yaw Set Point:	-0.585	X_WP:	0.000	Y_WP:	0.000	Y_WP:	0.500	X:	0.100	Y:	0.093	Z:	0.402	yaw:	33.498	yaw rate:	0.134	Roll:	4.490	Pitch:	0.843	Yaw:	48.335	Thrust:	49.868
Time:	6.000	Roll Set Point:	-0.235	Pitch Set Point:	-0.114	Yaw Set Point:	-0.585	X_WP:	0.000	Y_WP:	0.000	Y_WP:	0.500	X:	0.100	Y:	0.093	Z:	0.402	yaw:	33.496	yaw rate:	-0.160	Roll:	4.485	Pitch:	0.871	Yaw:	48.306	Thrust:	49.996
Time:	6.015	Roll Set Point:	-0.081	Pitch Set Point:	-0.033	Yaw Set Point:	-0.585	X_WP:	0.084	Y_WP:	0.153	Y_WP:	0.500	X:	0.100	Y:	0.093	Z:	0.402	yaw:	33.505	yaw rate:	0.863	Roll:	-30.000	Pitch:	-30.000	Yaw:	48.489	Thrust:	50.212
Time:	6.031	Roll Set Point:	-0.081	Pitch Set Point:	-0.033	Yaw Set Point:	-0.584	X_WP:	0.084	Y_WP:	0.153	Y_WP:	0.500	X:	0.100	Y:	0.093	Z:	0.402	yaw:	33.487	yaw rate:	-1.802	Roll:	0.056	Pitch:	-1.523	Yaw:	48.017	Thrust:	50.496
Time:	6.047	Roll Set Point:	-0.081	Pitch Set Point:	-0.033	Yaw Set Point:	-0.584	X_WP:	0.084	Y_WP:	0.153	Y_WP:	0.500	X:	0.100	Y:	0.093	Z:	0.402	yaw:	33.487	yaw rate:	-1.802	Roll:	0.019	Pitch:	-1.513	Yaw:	48.319	Thrust:	50.597
Time:	6.062	Roll Set Point:	-0.081	Pitch Set Point:	-0.033	Yaw Set Point:	-0.584	X_WP:	0.084	Y_WP:	0.153	Y_WP:	0.500	X:	0.100	Y:	0.093	Z:	0.402	yaw:	33.486	yaw rate:	-0.271	Roll:	0.023	Pitch:	-1.521	Yaw:	48.297	Thrust:	50.543
Time:	6.078	Roll Set Point:	-0.081	Pitch Set Point:	-0.033	Yaw Set Point:	-0.585	X_WP:	0.084	Y_WP:	0.153	Y_WP:	0.500	X:	0.100	Y:	0.093	Z:	0.402	yaw:	33.497	yaw rate:	1.128	Roll:	0.002	Pitch:	-1.513	Yaw:	48.522	Thrust:	51.165
Time:	6.093	Roll Set Point:	-0.081	Pitch Set Point:	-0.033	Yaw Set Point:	-0.585	X_WP:	0.084	Y_WP:	0.153	Y_WP:	0.500	X:	0.100	Y:	0.093	Z:	0.402	yaw:	33.501	yaw rate:	0.440	Roll:	0.008	Pitch:	-1.518	Yaw:	48.414	Thrust:	51.180
Time:	6.109	Roll Set Point:	-0.081	Pitch Set Point:	-0.033	Yaw Set Point:	-0.585	X_WP:	0.084	Y_WP:	0.153	Y_WP:	0.500	X:	0.100	Y:	0.093	Z:	0.402	yaw:	33.522	yaw rate:	2.110	Roll:	-0.005	Pitch:	-1.515	Yaw:	48.724	Thrust:	51.299
Time:	6.125	Roll Set Point:	-0.081	Pitch Set Point:	-0.033	Yaw Set Point:	-0.585	X_WP:	0.084	Y_WP:	0.153	Y_WP:	0.500	X:	0.100	Y:	0.093	Z:	0.402	yaw:	33.513	yaw rate:	-0.947	Roll:	0.029	Pitch:	-1.530	Yaw:	48.195	Thrust:	51.434
Time:	6.140	Roll Set Point:	-0.081	Pitch Set Point:	-0.033	Yaw Set Point:	-0.585	X_WP:	0.084	Y_WP:	0.153	Y_WP:	0.500	X:	0.100	Y:	0.093	Z:	0.402	yaw:	33.490	yaw rate:	-2.297	Roll:	0.062	Pitch:	-1.542	Yaw:	47.939	Thrust:	51.696
Time:	6.156	Roll Set Point:	-0.081	Pitch Set Point:	-0.033	Yaw Set Point:	-0.584	X_WP:	0.084	Y_WP:	0.153	Y_WP:	0.500	X:	0.100	Y:	0.093	Z:	0.402	yaw:	33.481	yaw rate:	-0.934	Roll:	-0.009	Pitch:	-1.520	Yaw:	48.154	Thrust:	51.867
Time:	6.172	Roll Set Point:	-0.081	Pitch Set Point:	-0.033	Yaw Set Point:	-0.585	X_WP:	0.084	Y_WP:	0.153	Y_WP:	0.500	X:	0.100	Y:	0.093	Z:	0.402	yaw:	33.497	yaw rate:	1.623	Roll:	-0.003	Pitch:	-1.530	Yaw:	48.605	Thrust:	52.172
Time:	6.187	Roll Set Point:	-0.081	Pitch Set Point:	-0.033	Yaw Set Point:	-0.585	X_WP:	0.084	Y_WP:	0.153	Y_WP:	0.500	X:	0.100	Y:	0.093	Z:	0.402	yaw:	33.491	yaw rate:	-0.571	Roll:	0.034	Pitch:	-1.539	Yaw:	48.230	Thrust:	52.048
Time:	6.203	Roll Set Point:	-0.081	Pitch Set Point:	-0.033	Yaw Set Point:	-0.585	X_WP:	0.084	Y_WP:	0.153	Y_WP:	0.500	X:	0.100	Y:	0.093	Z:	0.402	yaw:	33.496	yaw rate:	0.483	Roll:	0.016	Pitch:	-1.539	Yaw:	48.413	Thrust:	52.461
Time:	6.218	Roll Set Point:	-0.081	Pitch Set Point:	-0.033	Yaw Set Point:	-0.585	X_WP:	0.084	Y_WP:	0.153	Y_WP:	0.500	X:	0.100	Y:	0.093	Z:	0.402	yaw:	33.505	yaw rate:	0.920	Roll:	-0.020	Pitch:	-1.526	Yaw:	48.499	Thrust:	52.740
Time:	6.234	Roll Set Point:	-0.081	Pitch Set Point:	-0.033	Yaw Set Point:	-0.585	X_WP:	0.084	Y_WP:	0.153	Y_WP:	0.500	X:	0.100	Y:	0.093	Z:	0.402	yaw:	33.512	yaw rate:	0.675	Roll:	-0.008	Pitch:	-1.538	Yaw:	48.467	Thrust:	52.865
Time:	6.250	Roll Set Point:	-0.081	Pitch Set Point:	-0.033	Yaw Set Point:	-0.584	X_WP:	0.084	Y_WP:	0.153	Y_WP:	0.500	X:	0.100	Y:	0.093	Z:	0.402	yaw:	33.463	yaw rate:	-4.943	Roll:	0.082	Pitch:	-1.567	Yaw:	47.457	Thrust:	52.786
Time:	6.265	Roll Set Point:	-0.081	Pitch Set Point:	-0.033	Yaw Set Point:	-0.585	X_WP:	0.084	Y_WP:	0.153	Y_WP:	0.500	X:	0.100	Y:	0.093	Z:	0.402	yaw:	33.496	yaw rate:	3.355	Roll:	-0.012	Pitch:	-1.537	Yaw:	48.894	Thrust:	53.263
Time:	6.281	Roll Set Point:	-0.081	Pitch Set Point:	-0.033	Yaw Set Point:	-0.585	X_WP:	0.084	Y_WP:	0.153	Y_WP:	0.500	X:	0.100	Y:	0.093	Z:	0.402	yaw:	33.515	yaw rate:	1.864	Roll:	-0.022	Pitch:	-1.541	Yaw:	48.670	Thrust:	53.293
Time:	6.297	Roll Set Point:	-0.081	Pitch Set Point:	-0.033	Yaw Set Point:	-0.585	X_WP:	0.084	Y_WP:	0.153	Y_WP:	0.500	X:	0.100	Y:	0.093	Z:	0.402	yaw:	33.497	yaw rate:	-1.743	Roll:	0.009	Pitch:	-1.549	Yaw:	48.042	Thrust:	53.625
Time:	6.312	Roll Set Point:	-0.081	Pitch Set Point:	-0.033	Yaw Set Point:	-0.584	X_WP:	0.084	Y_WP:	0.153	Y_WP:	0.500	X:	0.100	Y:	0.093	Z:	0.402	yaw:	33.475	yaw rate:	-2.271	Roll:	0.052	Pitch:	-1.568	Yaw:	47.922	Thrust:	53.745
Time:	6.328	Roll Set Point:	-0.081	Pitch Set Point:	-0.033	Yaw Set Point:	-0.585	X_WP:	0.084	Y_WP:	0.153	Y_WP:	0.500	X:	0.100	Y:	0.093	Z:	0.402	yaw:	33.490	yaw rate:	1.561	Roll:	-0.002	Pitch:	-1.553	Yaw:	48.585	Thrust:	53.671
Time:	6.343	Roll Set Point:	-0.081	Pitch Set Point:	-0.033	Yaw Set Point:	-0.585	X_WP:	0.084	Y_WP:	0.153	Y_WP:	0.500	X:	0.100	Y:	0.093	Z:	0.402	yaw:	33.511	yaw rate:	2.035	Roll:	-0.016	Pitch:	-1.553	Yaw:	48.693	Thrust:	54.286
