Time:	2.455	Roll Set Point:	-0.017	Pitch Set Point:	0.032	Yaw Set Point:	-2.934	X_WP:	0.000	Y_WP:	0.000	Y_WP:	0.500	X:	0.163	Y:	0.067	Z:	0.404	yaw:	168.124	yaw rate:	-3.341	Roll:	-4.221	Pitch:	-2.870	Yaw:	234.745	Thrust:	5.307
Time:	2.486	Roll Set Point:	-0.017	Pitch Set Point:	0.032	Yaw Set Point:	-2.934	X_WP:	0.000	Y_WP:	0.000	Y_WP:	0.500	X:	0.163	Y:	0.067	Z:	0.404	yaw:	168.111	yaw rate:	-1.876	Roll:	-4.220	Pitch:	-2.898	Yaw:	236.450	Thrust:	5.677
Time:	2.517	Roll Set Point:	-0.017	Pitch Set Point:	0.032	Yaw Set Point:	-2.935	X_WP:	0.000	Y_WP:	0.000	Y_WP:	0.500	X:	0.163	Y:	0.067	Z:	0.404	yaw:	168.152	yaw rate:	4.109	Roll:	-4.270	Pitch:	-2.829	Yaw:	238.253	Thrust:	6.024
Time:	2.548	Roll Set Point:	-0.017	Pitch Set Point:	0.032	Yaw Set Point:	-2.935	X_WP:	0.000	Y_WP:	0.000	Y_WP:	0.500	X:	0.163	Y:	0.067	Z:	0.403	yaw:	168.136	yaw rate:	-1.542	Roll:	-4.259	Pitch:	-2.922	Yaw:	237.759	Thrust:	6.450
Time:	2.580	Roll Set Point:	-0.017	Pitch Set Point:	0.032	Yaw Set Point:	-2.934	X_WP:	0.000	Y_WP:	0.000	Y_WP:	0.500	X:	0.163	Y:	0.067	Z:	0.404	yaw:	168.097	yaw rate:	-3.949	Roll:	-4.211	Pitch:	-2.956	Yaw:	237.503	Thrust:	6.721
Time:	2.611	Roll Set Point:	-0.017	Pitch Set Point:	0.032	Yaw Set Point:	-2.933	X_WP:	0.000	Y_WP:	0.000	Y_WP:	0.500	X:	0.163	Y:	0.067	Z:	0.404	yaw:	168.074	yaw rate:	-8.009	Roll:	-4.253	Pitch:	-2.919	Yaw:	237.611	Thrust:	7.078
Time:	2.642	Roll Set Point:	-0.017	Pitch Set Point:	0.032	Yaw Set Point:	-2.935	X_WP:	0.000	Y_WP:	0.000	Y_WP:	0.500	X:	0.163	Y:	0.067	Z:	0.403	yaw:	168.144	yaw rate:	7.006	Roll:	-4.360	Pitch:	-2.844	Yaw:	238.486	Thrust:	7.640
Time:	2.673	Roll Set Point:	-0.017	Pitch Set Point:	0.032	Yaw Set Point:	-2.934	X_WP:	0.000	Y_WP:	0.000	Y_WP:	0.500	X:	0.163	Y:	0.067	Z:	0.403	yaw:	168.118	yaw rate:	-2.692	Roll:	-4.279	Pitch:	-2.959	Yaw:	237.640	Thrust:	7.727
Time:	2.705	Roll Set Point:	-0.018	Pitch Set Point:	0.033	Yaw Set Point:	-2.926	X_WP:	0.000	Y_WP:	0.000	Y_WP:	0.500	X:	0.162	Y:	0.067	Z:	0.404	yaw:	167.621	yaw rate:	-49.660	Roll:	-3.670	Pitch:	-3.388	Yaw:	233.009	Thrust:	7.731
Time:	2.736	Roll Set Point:	-0.018	Pitch Set Point:	0.033	Yaw Set Point:	-2.926	X_WP:	0.000	Y_WP:	0.000	Y_WP:	0.500	X:	0.162	Y:	0.067	Z:	0.404	yaw:	167.639	yaw rate:	1.838	Roll:	-4.295	Pitch:	-2.954	Yaw:	237.348	Thrust:	8.606
Time:	2.767	Roll Set Point:	-0.018	Pitch Set Point:	0.033	Yaw Set Point:	-2.926	X_WP:	0.000	Y_WP:	0.000	Y_WP:	0.500	X:	0.162	Y:	0.067	Z:	0.404	yaw:	167.658	yaw rate:	1.825	Roll:	-4.328	Pitch:	-2.952	Yaw:	237.373	Thrust:	8.929
Time:	2.798	Roll Set Point:	-0.018	Pitch Set Point:	0.033	Yaw Set Point:	-2.926	X_WP:	0.000	Y_WP:	0.000	Y_WP:	0.500	X:	0.162	Y:	0.067	Z:	0.404	yaw:	167.641	yaw rate:	-1.637	Roll:	-4.298	Pitch:	-2.985	Yaw:	237.060	Thrust:	9.232
Time:	2.830	Roll Set Point:	-0.018	Pitch Set Point:	0.033	Yaw Set Point:	-2.926	X_WP:	0.000	Y_WP:	0.000	Y_WP:	0.500	X:	0.162	Y:	0.067	Z:	0.404	yaw:	167.659	yaw rate:	1.796	Roll:	-4.348	Pitch:	-2.964	Yaw:	237.372	Thrust:	9.644
Time:	2.861	Roll Set Point:	-0.018	Pitch Set Point:	0.033	Yaw Set Point:	-2.926	X_WP:	0.000	Y_WP:	0.000	Y_WP:	0.500	X:	0.162	Y:	0.067	Z:	0.404	yaw:	167.641	yaw rate:	-1.853	Roll:	-4.310	Pitch:	-3.009	Yaw:	237.041	Thrust:	9.971
Time:	2.892	Roll Set Point:	-0.018	Pitch Set Point:	0.033	Yaw Set Point:	-2.926	X_WP:	0.000	Y_WP:	0.000	Y_WP:	0.500	X:	0.162	Y:	0.066	Z:	0.404	yaw:	167.629	yaw rate:	-1.147	Roll:	-4.339	Pitch:	-3.004	Yaw:	237.084	Thrust:	10.359
Time:	2.924	Roll Set Point:	-0.018	Pitch Set Point:	0.033	Yaw Set Point:	-2.926	X_WP:	0.000	Y_WP:	0.000	Y_WP:	0.500	X:	0.162	Y:	0.067	Z:	0.404	yaw:	167.650	yaw rate:	6.544	Roll:	-4.378	Pitch:	-3.001	Yaw:	237.379	Thrust:	10.692
Time:	2.955	Roll Set Point:	-0.018	Pitch Set Point:	0.033	Yaw Set Point:	-2.926	X_WP:	0.000	Y_WP:	0.000	Y_WP:	0.500	X:	0.162	Y:	0.067	Z:	0.404	yaw:	167.643	yaw rate:	-0.643	Roll:	-4.371	Pitch:	-3.016	Yaw:	237.146	Thrust:	11.102
Time:	2.986	Roll Set Point:	-0.018	Pitch Set Point:	0.033	Yaw Set Point:	-2.926	X_WP:	0.000	Y_WP:	0.000	Y_WP:	0.500	X:	0.162	Y:	0.067	Z:	0.404	yaw:	167.630	yaw rate:	-1.294	Roll:	-4.357	Pitch:	-3.052	Yaw:	237.073	Thrust:	11.370
Time:	3.017	Roll Set Point:	-0.018	Pitch Set Point:	0.033	Yaw Set Point:	-2.926	X_WP:	0.000	Y_WP:	0.000	Y_WP:	0.500	X:	0.162	Y:	0.067	Z:	0.404	yaw:	167.640	yaw rate:	0.915	Roll:	-4.409	Pitch:	-3.012	Yaw:	237.271	Thrust:	11.866
Time:	3.049	Roll Set Point:	-0.018	Pitch Set Point:	0.033	Yaw Set Point:	-2.926	X_WP:	0.000	Y_WP:	0.000	Y_WP:	0.500	X:	0.162	Y:	0.067	Z:	0.404	yaw:	167.623	yaw rate:	-1.673	Roll:	-4.391	Pitch:	-3.079	Yaw:	237.030	Thrust:	12.102
Time:	3.080	Roll Set Point:	-0.018	Pitch Set Point:	0.033	Yaw Set Point:	-2.926	X_WP:	0.000	Y_WP:	0.000	Y_WP:	0.500	X:	0.162	Y:	0.067	Z:	0.404	yaw:	167.656	yaw rate:	3.372	Roll:	-4.444	Pitch:	-3.005	Yaw:	237.500	Thrust:	12.561
Time:	3.111	Roll Set Point:	-0.018	Pitch Set Point:	0.033	Yaw Set Point:	-2.926	X_WP:	0.000	Y_WP:	0.000	Y_WP:	0.500	X:	0.162	Y:	0.067	Z:	0.404	yaw:	167.645	yaw rate:	1.554	Roll:	-4.409	Pitch:	-3.063	Yaw:	237.102	Thrust:	12.829
Time:	3.142	Roll Set Point:	-0.018	Pitch Set Point:	0.033	Yaw Set Point:	-2.926	X_WP:	0.000	Y_WP:	0.000	Y_WP:	0.500	X:	0.162	Y:	0.067	Z:	0.404	yaw:	167.649	yaw rate:	0.467	Roll:	-4.444	Pitch:	-3.055	Yaw:	237.247	Thrust:	13.325
Time:	3.174	Roll Set Point:	-0.018	Pitch Set Point:	0.033	Yaw Set Point:	-2.927	X_WP:	0.000	Y_WP:	0.000	Y_WP:	0.500	X:	0.162	Y:	0.067	Z:	0.404	yaw:	167.676	yaw rate:	5.311	Roll:	-4.489	Pitch:	-3.064	Yaw:	237.475	Thrust:	13.578
Time:	3.205	Roll Set Point:	-0.018	Pitch Set Point:	0.033	Yaw Set Point:	-2.926	X_WP:	0.000	Y_WP:	0.000	Y_WP:	0.500	X:	0.162	Y:	0.066	Z:	0.404	yaw:	167.624	yaw rate:	-5.230	Roll:	-4.403	Pitch:	-3.103	Yaw:	236.731	Thrust:	13.885
Time:	3.236	Roll Set Point:	-0.018	Pitch Set Point:	0.033	Yaw Set Point:	-2.926	X_WP:	0.000	Y_WP:	0.000	Y_WP:	0.500	X:	0.162	Y:	0.067	Z:	0.404	yaw:	167.641	yaw rate:	0.168	Roll:	-4.483	Pitch:	-3.086	Yaw:	237.335	Thrust:	14.386
Time:	3.267	Roll Set Point:	-0.018	Pitch Set Point:	0.033	Yaw Set Point:	-2.926	X_WP:	0.000	Y_WP:	0.000	Y_WP:	0.500	X:	0.162	Y:	0.067	Z:	0.404	yaw:	167.659	yaw rate:	1.837	Roll:	-4.504	Pitch:	-3.068	Yaw:	237.375	Thrust:	14.706
Time:	3.299	Roll Set Point:	-0.018	Pitch Set Point:	0.033	Yaw Set Point:	-2.926	X_WP:	0.000	Y_WP:	0.000	Y_WP:	0.500	X:	0.162	Y:	0.067	Z:	0.404	yaw:	167.626	yaw rate:	-3.286	Roll:	-4.466	Pitch:	-3.149	Yaw:	236.900	Thrust:	14.998
Time:	3.330	Roll Set Point:	-0.018	Pitch Set Point:	0.033	Yaw Set Point:	-2.926	X_WP:	0.000	Y_WP:	0.000	Y_WP:	0.500	X:	0.162	Y:	0.067	Z:	0.404	yaw:	167.661	yaw rate:	3.459	Roll:	-4.537	Pitch:	-3.079	Yaw:	237.514	Thrust:	15.416
Time:	3.362	Roll Set Point:	-0.018	Pitch Set Point:	0.033	Yaw Set Point:	-2.926	X_WP:	0.000	Y_WP:	0.000	Y_WP:	0.500	X:	0.162	Y:	0.067	Z:	0.404	yaw:	167.624	yaw rate:	-3.062	Roll:	-4.492	Pitch:	-3.150	Yaw:	236.918	Thrust:	15.848
Time:	3.393	Roll Set Point:	-0.018	Pitch Set Point:	0.033	Yaw Set Point:	-2.926	X_WP:	0.000	Y_WP:	0.000	Y_WP:	0.500	X:	0.162	Y:	0.067	Z:	0.404	yaw:	167.671	yaw rate:	4.620	Roll:	-4.561	Pitch:	-3.098	Yaw:	237.625	Thrust:	16.210
Time:	3.424	Roll Set Point:	-0.018	Pitch Set Point:	0.033	Yaw Set Point:	-2.926	X_WP:	0.000	Y_WP:	0.000	Y_WP:	0.500	X:	0.162	Y:	0.067	Z:	0.404	yaw:	167.648	yaw rate:	-1.361	Roll:	-4.537	Pitch:	-3.146	Yaw:	237.018	Thrust:	16.475
Time:	3.455	Roll Set Point:	-0.018	Pitch Set Point:	0.033	Yaw Set Point:	-2.926	X_WP:	0.000	Y_WP:	0.000	Y_WP:	0.500	X:	0.162	Y:	0.067	Z:	0.404	yaw:	167.651	yaw rate:	-3.323	Roll:	-4.549	Pitch:	-3.129	Yaw:	237.239	Thrust:	16.800
Time:	3.487	Roll Set Point:	-0.018	Pitch Set Point:	0.033	Yaw Set Point:	-2.926	X_WP:	0.000	Y_WP:	0.000	Y_WP:	0.500	X:	0.162	Y:	0.067	Z:	0.404	yaw:	167.659	yaw rate:	0.781	Roll:	-4.573	Pitch:	-3.155	Yaw:	237.287	Thrust:	17.286
Time:	3.518	Roll Set Point:	-0.018	Pitch Set Point:	0.033	Yaw Set Point:	-2.926	X_WP:	0.000	Y_WP:	0.000	Y_WP:	0.500	X:	0.162	Y:	0.066	Z:	0.404	yaw:	167.658	yaw rate:	-0.139	Roll:	-4.566	Pitch:	-3.111	Yaw:	237.205	Thrust:	17.453
Time:	3.549	Roll Set Point:	-0.018	Pitch Set Point:	0.033	Yaw Set Point:	-2.925	X_WP:	0.000	Y_WP:	0.000	Y_WP:	0.500	X:	0.162	Y:	0.067	Z:	0.404	yaw:	167.614	yaw rate:	-4.364	Roll:	-4.534	Pitch:	-3.249	Yaw:	236.792	Thrust:	18.013
Time:	3.580	Roll Set Point:	-0.018	Pitch Set Point:	0.033	Yaw Set Point:	-2.925	X_WP:	0.000	Y_WP:	0.000	Y_WP:	0.500	X:	0.162	Y:	0.067	Z:	0.404	yaw:	167.612	yaw rate:	-0.192	Roll:	-4.600	Pitch:	-3.173	Yaw:	237.140	Thrust:	18.218
Time:	3.612	Roll Set Point:	-0.018	Pitch Set Point:	0.033	Yaw Set Point:	-2.926	X_WP:	0.000	Y_WP:	0.000	Y_WP:	0.500	X:	0.162	Y:	0.067	Z:	0.404	yaw:	167.648	yaw rate:	3.608	Roll:	-4.648	Pitch:	-3.129	Yaw:	237.508	Thrust:	18.682
Time:	3.643	Roll Set Point:	-0.018	Pitch Set Point:	0.033	Yaw Set Point:	-2.926	X_WP:	0.000	Y_WP:	0.000	Y_WP:	0.500	X:	0.162	Y:	0.066	Z:	0.404	yaw:	167.628	yaw rate:	-1.966	Roll:	-4.593	Pitch:	-3.204	Yaw:	237.014	Thrust:	18.995
Time:	3.674	Roll Set Point:	-0.018	Pitch Set Point:	0.033	Yaw Set Point:	-2.925	X_WP:	0.000	Y_WP:	0.000	Y_WP:	0.500	X:	0.162	Y:	0.067	Z:	0.404	yaw:	167.616	yaw rate:	-1.284	Roll:	-4.609	Pitch:	-3.222	Yaw:	237.053	Thrust:	19.378
Time:	3.705	Roll Set Point:	-0.018	Pitch Set Point:	0.033	Yaw Set Point:	-2.926	X_WP:	0.000	Y_WP:	0.000	Y_WP:	0.500	X:	0.162	Y:	0.067	Z:	0.404	yaw:	167.624	yaw rate:	0.810	Roll:	-4.651	Pitch:	-3.210	Yaw:	237.240	Thrust:	19.730
Time:	3.737	Roll Set Point:	-0.018	Pitch Set Point:	0.033	Yaw Set Point:	-2.926	X_WP:	0.000	Y_WP:	0.000	Y_WP:	0.500	X:	0.162	Y:	0.067	Z:	0.404	yaw:	167.634	yaw rate:	1.051	Roll:	-4.670	Pitch:	-3.205	Yaw:	237.275	Thrust:	20.102
Time:	3.768	Roll Set Point:	-0.018	Pitch Set Point:	0.033	Yaw Set Point:	-2.926	X_WP:	0.000	Y_WP:	0.000	Y_WP:	0.500	X:	0.162	Y:	0.067	Z:	0.404	yaw:	167.635	yaw rate:	0.068	Roll:	-4.665	Pitch:	-3.200	Yaw:	237.194	Thrust:	20.467
Time:	3.799	Roll Set Point:	-0.018	Pitch Set Point:	0.033	Yaw Set Point:	-2.925	X_WP:	0.000	Y_WP:	0.000	Y_WP:	0.500	X:	0.162	Y:	0.067	Z:	0.404	yaw:	167.616	yaw rate:	-4.828	Roll:	-4.663	Pitch:	-3.274	Yaw:	237.000	Thrust:	20.817
Time:	3.830	Roll Set Point:	-0.018	Pitch Set Point:	0.033	Yaw Set Point:	-2.926	X_WP:	0.000	Y_WP:	0.000	Y_WP:	0.500	X:	0.162	Y:	0.067	Z:	0.404	yaw:	167.656	yaw rate:	4.008	Roll:	-4.716	Pitch:	-3.160	Yaw:	237.553	Thrust:	21.171
Time:	3.862	Roll Set Point:	-0.018	Pitch Set Point:	0.033	Yaw Set Point:	-2.925	X_WP:	0.000	Y_WP:	0.000	Y_WP:	0.500	X:	0.162	Y:	0.067	Z:	0.404	yaw:	167.605	yaw rate:	-5.050	Roll:	-4.639	Pitch:	-3.337	Yaw:	236.723	Thrust:	21.528
Time:	3.893	Roll Set Point:	-0.018	Pitch Set Point:	0.033	Yaw Set Point:	-2.926	X_WP:	0.000	Y_WP:	0.000	Y_WP:	0.500	X:	0.162	Y:	0.067	Z:	0.404	yaw:	167.665	yaw rate:	5.962	Roll:	-4.767	Pitch:	-3.170	Yaw:	237.729	Thrust:	21.959
Time:	3.924	Roll Set Point:	-0.018	Pitch Set Point:	0.033	Yaw Set Point:	-2.926	X_WP:	0.000	Y_WP:	0.000	Y_WP:	0.500	X:	0.162	Y:	0.067	Z:	0.404	yaw:	167.650	yaw rate:	-0.456	Roll:	-4.714	Pitch:	-3.296	Yaw:	237.089	Thrust:	22.199
Time:	3.955	Roll Set Point:	-0.018	Pitch Set Point:	0.033	Yaw Set Point:	-2.925	X_WP:	0.000	Y_WP:	0.000	Y_WP:	0.500	X:	0.162	Y:	0.067	Z:	0.404	yaw:	167.613	yaw rate:	-3.706	Roll:	-4.701	Pitch:	-3.286	Yaw:	236.847	Thrust:	22.610
Time:	3.987	Roll Set Point:	-0.018	Pitch Set Point:	0.033	Yaw Set Point:	-2.925	X_WP:	0.000	Y_WP:	0.000	Y_WP:	0.500	X:	0.162	Y:	0.067	Z:	0.404	yaw:	167.608	yaw rate:	-3.931	Roll:	-4.728	Pitch:	-3.288	Yaw:	237.108	Thrust:	22.987
Time:	4.018	Roll Set Point:	-0.018	Pitch Set Point:	0.033	Yaw Set Point:	-2.926	X_WP:	0.000	Y_WP:	0.000	Y_WP:	0.500	X:	0.162	Y:	0.067	Z:	0.404	yaw:	167.655	yaw rate:	4.673	Roll:	-4.803	Pitch:	-3.235	Yaw:	237.607	Thrust:	23.366
Time:	4.049	Roll Set Point:	-0.018	Pitch Set Point:	0.033	Yaw Set Point:	-2.926	X_WP:	0.000	Y_WP:	0.000	Y_WP:	0.500	X:	0.162	Y:	0.067	Z:	0.404	yaw:	167.638	yaw rate:	-1.740	Roll:	-4.744	Pitch:	-3.283	Yaw:	237.046	Thrust:	23.678
Time:	4.076	Roll Set Point:	-0.018	Pitch Set Point:	0.033	Yaw Set Point:	-2.925	X_WP:	0.000	Y_WP:	0.000	Y_WP:	0.500	X:	0.162	Y:	0.067	Z:	0.404	yaw:	167.607	yaw rate:	-3.051	Roll:	-4.663	Pitch:	-3.320	Yaw:	236.410	Thrust:	21.382
Time:	4.108	Roll Set Point:	-0.018	Pitch Set Point:	0.033	Yaw Set Point:	-2.926	X_WP:	0.000	Y_WP:	0.000	Y_WP:	0.500	X:	0.162	Y:	0.067	Z:	0.404	yaw:	167.642	yaw rate:	-2.240	Roll:	-4.824	Pitch:	-3.259	Yaw:	237.537	Thrust:	24.746
Time:	4.139	Roll Set Point:	-0.018	Pitch Set Point:	0.033	Yaw Set Point:	-2.926	X_WP:	0.000	Y_WP:	0.000	Y_WP:	0.500	X:	0.162	Y:	0.067	Z:	0.404	yaw:	167.631	yaw rate:	-1.124	Roll:	-4.783	Pitch:	-3.349	Yaw:	237.088	Thrust:	24.779
Time:	4.170	Roll Set Point:	-0.018	Pitch Set Point:	0.033	Yaw Set Point:	-2.926	X_WP:	0.000	Y_WP:	0.000	Y_WP:	0.500	X:	0.162	Y:	0.067	Z:	0.404	yaw:	167.660	yaw rate:	2.965	Roll:	-4.841	Pitch:	-3.253	Yaw:	237.475	Thrust:	25.153
Time:	4.201	Roll Set Point:	-0.018	Pitch Set Point:	0.033	Yaw Set Point:	-2.926	X_WP:	0.000	Y_WP:	0.000	Y_WP:	0.500	X:	0.162	Y:	0.067	Z:	0.404	yaw:	167.654	yaw rate:	-0.649	Roll:	-4.820	Pitch:	-3.382	Yaw:	237.157	Thrust:	25.509
Time:	4.233	Roll Set Point:	-0.018	Pitch Set Point:	0.033	Yaw Set Point:	-2.927	X_WP:	0.000	Y_WP:	0.000	Y_WP:	0.500	X:	0.162	Y:	0.067	Z:	0.404	yaw:	167.682	yaw rate:	2.764	Roll:	-4.850	Pitch:	-3.269	Yaw:	237.484	Thrust:	25.956
Time:	4.264	Roll Set Point:	-0.018	Pitch Set Point:	0.033	Yaw Set Point:	-2.926	X_WP:	0.000	Y_WP:	0.000	Y_WP:	0.500	X:	0.162	Y:	0.067	Z:	0.404	yaw:	167.626	yaw rate:	-5.531	Roll:	-4.795	Pitch:	-3.434	Yaw:	236.712	Thrust:	26.128
Time:	4.295	Roll Set Point:	-0.018	Pitch Set Point:	0.033	Yaw Set Point:	-2.926	X_WP:	0.000	Y_WP:	0.000	Y_WP:	0.500	X:	0.162	Y:	0.067	Z:	0.404	yaw:	167.655	yaw rate:	2.836	Roll:	-4.885	Pitch:	-3.282	Yaw:	237.453	Thrust:	26.617
Time:	4.326	Roll Set Point:	-0.018	Pitch Set Point:	0.033	Yaw Set Point:	-2.926	X_WP:	0.000	Y_WP:	0.000	Y_WP:	0.500	X:	0.162	Y:	0.067	Z:	0.404	yaw:	167.638	yaw rate:	-1.683	Roll:	-4.848	Pitch:	-3.430	Yaw:	237.051	Thrust:	26.962
Time:	4.362	Roll Set Point:	-0.018	Pitch Set Point:	0.033	Yaw Set Point:	-2.926	X_WP:	0.000	Y_WP:	0.000	Y_WP:	0.500	X:	0.162	Y:	0.067	Z:	0.404	yaw:	167.663	yaw rate:	3.202	Roll:	-5.005	Pitch:	-3.373	Yaw:	237.887	Thrust:	30.672
Time:	4.394	Roll Set Point:	-0.018	Pitch Set Point:	0.033	Yaw Set Point:	-2.925	X_WP:	0.000	Y_WP:	0.000	Y_WP:	0.500	X:	0.162	Y:	0.067	Z:	0.404	yaw:	167.618	yaw rate:	-3.417	Roll:	-4.839	Pitch:	-3.472	Yaw:	236.787	Thrust:	27.637
Time:	4.425	Roll Set Point:	-0.017	Pitch Set Point:	0.032	Yaw Set Point:	-2.932	X_WP:	0.000	Y_WP:	0.000	Y_WP:	0.500	X:	0.162	Y:	0.066	Z:	0.404	yaw:	167.995	yaw rate:	31.612	Roll:	-5.320	Pitch:	-2.653	Yaw:	240.845	Thrust:	27.576
Time:	4.456	Roll Set Point:	-0.017	Pitch Set Point:	0.032	Yaw Set Point:	-2.931	X_WP:	0.000	Y_WP:	0.000	Y_WP:	0.500	X:	0.162	Y:	0.066	Z:	0.404	yaw:	167.949	yaw rate:	-4.564	Roll:	-4.900	Pitch:	-3.463	Yaw:	237.240	Thrust:	28.311
Time:	4.487	Roll Set Point:	-0.017	Pitch Set Point:	0.032	Yaw Set Point:	-2.932	X_WP:	0.000	Y_WP:	0.000	Y_WP:	0.500	X:	0.162	Y:	0.066	Z:	0.404	yaw:	167.988	yaw rate:	3.863	Roll:	-4.967	Pitch:	-3.270	Yaw:	238.004	Thrust:	28.800
Time:	4.519	Roll Set Point:	-0.017	Pitch Set Point:	0.032	Yaw Set Point:	-2.931	X_WP:	0.000	Y_WP:	0.000	Y_WP:	0.500	X:	0.162	Y:	0.066	Z:	0.404	yaw:	167.948	yaw rate:	-3.934	Roll:	-4.919	Pitch:	-3.461	Yaw:	237.296	Thrust:	29.031
Time:	4.550	Roll Set Point:	-0.018	Pitch Set Point:	0.033	Yaw Set Point:	-2.926	X_WP:	0.000	Y_WP:	0.000	Y_WP:	0.500	X:	0.162	Y:	0.067	Z:	0.404	yaw:	167.656	yaw rate:	-29.246	Roll:	-4.619	Pitch:	-3.941	Yaw:	234.770	Thrust:	30.043
Time:	4.597	Roll Set Point:	-0.015	Pitch Set Point:	0.029	Yaw Set Point:	-2.958	X_WP:	0.000	Y_WP:	0.000	Y_WP:	0.500	X:	0.163	Y:	0.069	Z:	0.401	yaw:	169.453	yaw rate:	179.722	Roll:	-6.531	Pitch:	-2.784	Yaw:	251.327	Thrust:	45.060
Time:	4.628	Roll Set Point:	-0.015	Pitch Set Point:	0.029	Yaw Set Point:	-2.957	X_WP:	0.000	Y_WP:	0.000	Y_WP:	0.500	X:	0.163	Y:	0.069	Z:	0.401	yaw:	169.448	yaw rate:	-5.005	Roll:	-5.085	Pitch:	-3.366	Yaw:	239.681	Thrust:	30.331
Time:	4.659	Roll Set Point:	-0.015	Pitch Set Point:	0.028	Yaw Set Point:	-2.959	X_WP:	0.000	Y_WP:	0.000	Y_WP:	0.500	X:	0.163	Y:	0.069	Z:	0.401	yaw:	169.535	yaw rate:	8.686	Roll:	-5.224	Pitch:	-3.111	Yaw:	240.571	Thrust:	30.239
Time:	4.691	Roll Set Point:	-0.015	Pitch Set Point:	0.028	Yaw Set Point:	-2.959	X_WP:	0.000	Y_WP:	0.000	Y_WP:	0.500	X:	0.163	Y:	0.068	Z:	0.401	yaw:	169.549	yaw rate:	-17.284	Roll:	-5.121	Pitch:	-3.318	Yaw:	239.975	Thrust:	31.207
Time:	4.722	Roll Set Point:	-0.015	Pitch Set Point:	0.028	Yaw Set Point:	-2.959	X_WP:	0.000	Y_WP:	0.000	Y_WP:	0.500	X:	0.163	Y:	0.069	Z:	0.401	yaw:	169.541	yaw rate:	1.560	Roll:	-5.087	Pitch:	-3.409	Yaw:	239.775	Thrust:	31.392
Time:	4.753	Roll Set Point:	-0.015	Pitch Set Point:	0.028	Yaw Set Point:	-2.959	X_WP:	0.000	Y_WP:	0.000	Y_WP:	0.500	X:	0.163	Y:	0.068	Z:	0.401	yaw:	169.563	yaw rate:	0.513	Roll:	-5.138	Pitch:	-3.332	Yaw:	240.066	Thrust:	31.873
Time:	4.784	Roll Set Point:	-0.015	Pitch Set Point:	0.028	Yaw Set Point:	-2.959	X_WP:	0.000	Y_WP:	0.000	Y_WP:	0.500	X:	0.163	Y:	0.069	Z:	0.401	yaw:	169.533	yaw rate:	-2.945	Roll:	-5.092	Pitch:	-3.458	Yaw:	239.592	Thrust:	32.063
Time:	4.816	Roll Set Point:	-0.015	Pitch Set Point:	0.028	Yaw Set Point:	-2.959	X_WP:	0.000	Y_WP:	0.000	Y_WP:	0.500	X:	0.163	Y:	0.069	Z:	0.401	yaw:	169.550	yaw rate:	1.645	Roll:	-5.154	Pitch:	-3.364	Yaw:	239.999	Thrust:	32.696
Time:	4.847	Roll Set Point:	-0.015	Pitch Set Point:	0.028	Yaw Set Point:	-2.959	X_WP:	0.000	Y_WP:	0.000	Y_WP:	0.500	X:	0.163	Y:	0.068	Z:	0.402	yaw:	169.531	yaw rate:	-1.846	Roll:	-5.224	Pitch:	-3.270	Yaw:	239.681	Thrust:	32.195
Time:	4.878	Roll Set Point:	-0.015	Pitch Set Point:	0.028	Yaw Set Point:	-2.959	X_WP:	0.000	Y_WP:	0.000	Y_WP:	0.500	X:	0.163	Y:	0.069	Z:	0.401	yaw:	169.564	yaw rate:	3.246	Roll:	-5.110	Pitch:	-3.504	Yaw:	240.153	Thrust:	34.016
Time:	4.909	Roll Set Point:	-0.015	Pitch Set Point:	0.028	Yaw Set Point:	-2.959	X_WP:	0.000	Y_WP:	0.000	Y_WP:	0.500	X:	0.163	Y:	0.069	Z:	0.401	yaw:	169.533	yaw rate:	-3.040	Roll:	-5.128	Pitch:	-3.489	Yaw:	239.584	Thrust:	33.673
Time:	4.941	Roll Set Point:	-0.014	Pitch Set Point:	0.027	Yaw Set Point:	-2.967	X_WP:	0.000	Y_WP:	0.000	Y_WP:	0.500	X:	0.163	Y:	0.068	Z:	0.402	yaw:	169.979	yaw rate:	44.613	Roll:	-5.890	Pitch:	-2.615	Yaw:	244.198	Thrust:	33.229
Time:	4.972	Roll Set Point:	-0.014	Pitch Set Point:	0.027	Yaw Set Point:	-2.967	X_WP:	0.000	Y_WP:	0.000	Y_WP:	0.500	X:	0.163	Y:	0.068	Z:	0.402	yaw:	169.974	yaw rate:	-0.707	Roll:	-5.187	Pitch:	-3.424	Yaw:	240.403	Thrust:	34.340
Time:	5.003	Roll Set Point:	-0.014	Pitch Set Point:	0.027	Yaw Set Point:	-2.967	X_WP:	0.000	Y_WP:	0.000	Y_WP:	0.500	X:	0.163	Y:	0.068	Z:	0.402	yaw:	169.981	yaw rate:	0.706	Roll:	-5.273	Pitch:	-3.367	Yaw:	240.522	Thrust:	34.826
Time:	5.034	Roll Set Point:	-0.014	Pitch Set Point:	0.027	Yaw Set Point:	-2.967	X_WP:	0.000	Y_WP:	0.000	Y_WP:	0.500	X:	0.163	Y:	0.068	Z:	0.402	yaw:	169.971	yaw rate:	-1.008	Roll:	-5.223	Pitch:	-3.451	Yaw:	240.365	Thrust:	35.136
Time:	5.066	Roll Set Point:	-0.014	Pitch Set Point:	0.027	Yaw Set Point:	-2.967	X_WP:	0.000	Y_WP:	0.000	Y_WP:	0.500	X:	0.163	Y:	0.068	Z:	0.402	yaw:	169.987	yaw rate:	4.848	Roll:	-5.283	Pitch:	-3.386	Yaw:	240.611	Thrust:	35.488
Time:	5.097	Roll Set Point:	-0.014	Pitch Set Point:	0.027	Yaw Set Point:	-2.966	X_WP:	0.000	Y_WP:	0.000	Y_WP:	0.500	X:	0.163	Y:	0.068	Z:	0.402	yaw:	169.948	yaw rate:	-1.133	Roll:	-5.224	Pitch:	-3.470	Yaw:	240.088	Thrust:	35.787
Time:	5.128	Roll Set Point:	-0.014	Pitch Set Point:	0.027	Yaw Set Point:	-2.966	X_WP:	0.000	Y_WP:	0.000	Y_WP:	0.500	X:	0.163	Y:	0.068	Z:	0.402	yaw:	169.965	yaw rate:	1.697	Roll:	-5.309	Pitch:	-3.419	Yaw:	240.586	Thrust:	36.340
Time:	5.159	Roll Set Point:	-0.014	Pitch Set Point:	0.027	Yaw Set Point:	-2.966	X_WP:	0.000	Y_WP:	0.000	Y_WP:	0.500	X:	0.163	Y:	0.068	Z:	0.402	yaw:	169.941	yaw rate:	-2.384	Roll:	-5.279	Pitch:	-3.470	Yaw:	240.208	Thrust:	36.592
Time:	5.191	Roll Set Point:	-0.014	Pitch Set Point:	0.028	Yaw Set Point:	-2.966	X_WP:	0.000	Y_WP:	0.000	Y_WP:	0.500	X:	0.163	Y:	0.068	Z:	0.402	yaw:	169.928	yaw rate:	-1.282	Roll:	-5.291	Pitch:	-3.475	Yaw:	240.279	Thrust:	36.881
Time:	5.222	Roll Set Point:	-0.015	Pitch Set Point:	0.028	Yaw Set Point:	-2.965	X_WP:	0.000	Y_WP:	0.000	Y_WP:	0.500	X:	0.163	Y:	0.068	Z:	0.401	yaw:	169.905	yaw rate:	4.204	Roll:	-5.128	Pitch:	-3.587	Yaw:	240.160	Thrust:	37.915
Time:	5.269	Roll Set Point:	-0.015	Pitch Set Point:	0.028	Yaw Set Point:	-2.965	X_WP:	0.000	Y_WP:	0.000	Y_WP:	0.500	X:	0.163	Y:	0.069	Z:	0.401	yaw:	169.903	yaw rate:	-0.193	Roll:	-5.860	Pitch:	-3.857	Yaw:	241.906	Thrust:	53.879
Time:	5.316	Roll Set Point:	-0.015	Pitch Set Point:	0.027	Yaw Set Point:	-2.966	X_WP:	0.000	Y_WP:	0.000	Y_WP:	0.500	X:	0.163	Y:	0.069	Z:	0.401	yaw:	169.934	yaw rate:	0.812	Roll:	-5.830	Pitch:	-3.834	Yaw:	242.137	Thrust:	54.613
Time:	5.361	Roll Set Point:	-0.015	Pitch Set Point:	0.027	Yaw Set Point:	-2.966	X_WP:	0.000	Y_WP:	0.000	Y_WP:	0.500	X:	0.163	Y:	0.069	Z:	0.401	yaw:	169.928	yaw rate:	2.101	Roll:	-5.852	Pitch:	-3.761	Yaw:	241.743	Thrust:	53.043
Time:	5.408	Roll Set Point:	-0.015	Pitch Set Point:	0.028	Yaw Set Point:	-2.966	X_WP:	0.000	Y_WP:	0.000	Y_WP:	0.500	X:	0.163	Y:	0.068	Z:	0.401	yaw:	169.919	yaw rate:	-0.088	Roll:	-5.866	Pitch:	-3.845	Yaw:	241.897	Thrust:	55.584
Time:	5.439	Roll Set Point:	-0.015	Pitch Set Point:	0.028	Yaw Set Point:	-2.965	X_WP:	0.000	Y_WP:	0.000	Y_WP:	0.500	X:	0.163	Y:	0.069	Z:	0.401	yaw:	169.901	yaw rate:	-1.414	Roll:	-5.345	Pitch:	-3.582	Yaw:	240.198	Thrust:	39.143
Time:	5.486	Roll Set Point:	-0.015	Pitch Set Point:	0.028	Yaw Set Point:	-2.966	X_WP:	0.000	Y_WP:	0.000	Y_WP:	0.500	X:	0.163	Y:	0.069	Z:	0.401	yaw:	169.916	yaw rate:	-1.071	Roll:	-5.930	Pitch:	-3.842	Yaw:	242.015	Thrust:	56.651
Time:	5.517	Roll Set Point:	-0.015	Pitch Set Point:	0.028	Yaw Set Point:	-2.965	X_WP:	0.000	Y_WP:	0.000	Y_WP:	0.500	X:	0.163	Y:	0.069	Z:	0.401	yaw:	169.907	yaw rate:	-2.211	Roll:	-5.376	Pitch:	-3.540	Yaw:	240.286	Thrust:	39.926
Time:	5.548	Roll Set Point:	-0.015	Pitch Set Point:	0.028	Yaw Set Point:	-2.965	X_WP:	0.000	Y_WP:	0.000	Y_WP:	0.500	X:	0.163	Y:	0.069	Z:	0.401	yaw:	169.909	yaw rate:	-1.693	Roll:	-5.424	Pitch:	-3.514	Yaw:	240.380	Thrust:	40.411
Time:	5.580	Roll Set Point:	-0.015	Pitch Set Point:	0.028	Yaw Set Point:	-2.965	X_WP:	0.000	Y_WP:	0.000	Y_WP:	0.500	X:	0.163	Y:	0.069	Z:	0.401	yaw:	169.908	yaw rate:	-0.067	Roll:	-5.387	Pitch:	-3.555	Yaw:	240.353	Thrust:	40.618
Time:	5.611	Roll Set Point:	-0.015	Pitch Set Point:	0.028	Yaw Set Point:	-2.966	X_WP:	0.000	Y_WP:	0.000	Y_WP:	0.500	X:	0.163	Y:	0.069	Z:	0.401	yaw:	169.917	yaw rate:	-1.278	Roll:	-5.468	Pitch:	-3.496	Yaw:	240.446	Thrust:	41.077
Time:	5.642	Roll Set Point:	-0.014	Pitch Set Point:	0.027	Yaw Set Point:	-2.966	X_WP:	0.000	Y_WP:	0.000	Y_WP:	0.500	X:	0.163	Y:	0.069	Z:	0.401	yaw:	169.933	yaw rate:	1.603	Roll:	-5.450	Pitch:	-3.553	Yaw:	240.530	Thrust:	41.415
Time:	5.673	Roll Set Point:	-0.015	Pitch Set Point:	0.028	Yaw Set Point:	-2.966	X_WP:	0.000	Y_WP:	0.000	Y_WP:	0.500	X:	0.163	Y:	0.069	Z:	0.401	yaw:	169.920	yaw rate:	-1.706	Roll:	-5.435	Pitch:	-3.550	Yaw:	240.270	Thrust:	41.839
Time:	5.705	Roll Set Point:	-0.015	Pitch Set Point:	0.028	Yaw Set Point:	-2.965	X_WP:	0.000	Y_WP:	0.000	Y_WP:	0.500	X:	0.163	Y:	0.069	Z:	0.401	yaw:	169.909	yaw rate:	-0.965	Roll:	-5.449	Pitch:	-3.585	Yaw:	240.275	Thrust:	42.139
Time:	5.736	Roll Set Point:	-0.014	Pitch Set Point:	0.027	Yaw Set Point:	-2.966	X_WP:	0.000	Y_WP:	0.000	Y_WP:	0.500	X:	0.163	Y:	0.069	Z:	0.401	yaw:	169.933	yaw rate:	2.367	Roll:	-5.515	Pitch:	-3.521	Yaw:	240.595	Thrust:	42.559
Time:	5.767	Roll Set Point:	-0.015	Pitch Set Point:	0.028	Yaw Set Point:	-2.966	X_WP:	0.000	Y_WP:	0.000	Y_WP:	0.500	X:	0.163	Y:	0.069	Z:	0.401	yaw:	169.924	yaw rate:	1.060	Roll:	-5.473	Pitch:	-3.602	Yaw:	240.307	Thrust:	42.839
Time:	5.798	Roll Set Point:	-0.014	Pitch Set Point:	0.027	Yaw Set Point:	-2.966	X_WP:	0.000	Y_WP:	0.000	Y_WP:	0.500	X:	0.163	Y:	0.069	Z:	0.401	yaw:	169.941	yaw rate:	2.208	Roll:	-5.522	Pitch:	-3.557	Yaw:	240.552	Thrust:	43.315
Time:	5.830	Roll Set Point:	-0.015	Pitch Set Point:	0.028	Yaw Set Point:	-2.966	X_WP:	0.000	Y_WP:	0.000	Y_WP:	0.500	X:	0.163	Y:	0.069	Z:	0.401	yaw:	169.912	yaw rate:	-0.657	Roll:	-5.442	Pitch:	-3.635	Yaw:	240.121	Thrust:	43.633
Time:	5.861	Roll Set Point:	-0.015	Pitch Set Point:	0.028	Yaw Set Point:	-2.965	X_WP:	0.000	Y_WP:	0.000	Y_WP:	0.500	X:	0.163	Y:	0.068	Z:	0.401	yaw:	169.904	yaw rate:	-0.735	Roll:	-5.472	Pitch:	-3.584	Yaw:	240.295	Thrust:	44.038
Time:	5.892	Roll Set Point:	-0.015	Pitch Set Point:	0.027	Yaw Set Point:	-2.966	X_WP:	0.000	Y_WP:	0.000	Y_WP:	0.500	X:	0.163	Y:	0.069	Z:	0.401	yaw:	169.929	yaw rate:	2.481	Roll:	-5.496	Pitch:	-3.620	Yaw:	240.599	Thrust:	44.450
Time:	5.923	Roll Set Point:	-0.014	Pitch Set Point:	0.027	Yaw Set Point:	-2.966	X_WP:	0.000	Y_WP:	0.000	Y_WP:	0.500	X:	0.163	Y:	0.069	Z:	0.401	yaw:	169.927	yaw rate:	-0.232	Roll:	-5.486	Pitch:	-3.580	Yaw:	240.368	Thrust:	44.741
Time:	5.955	Roll Set Point:	-0.014	Pitch Set Point:	0.027	Yaw Set Point:	-2.966	X_WP:	0.000	Y_WP:	0.000	Y_WP:	0.500	X:	0.163	Y:	0.069	Z:	0.401	yaw:	169.940	yaw rate:	-0.211	Roll:	-5.510	Pitch:	-3.610	Yaw:	240.514	Thrust:	45.090
Time:	5.986	Roll Set Point:	-0.015	Pitch Set Point:	0.028	Yaw Set Point:	-2.965	X_WP:	0.000	Y_WP:	0.000	Y_WP:	0.500	X:	0.163	Y:	0.069	Z:	0.401	yaw:	169.905	yaw rate:	-3.262	Roll:	-5.440	Pitch:	-3.698	Yaw:	240.068	Thrust:	45.514
Time:	6.033	Roll Set Point:	-0.200	Pitch Set Point:	-0.018	Yaw Set Point:	-2.966	X_WP:	0.190	Y_WP:	0.012	Y_WP:	0.500	X:	0.163	Y:	0.068	Z:	0.401	yaw:	169.916	yaw rate:	-0.850	Roll:	30.000	Pitch:	13.796	Yaw:	241.995	Thrust:	66.088
Time:	6.080	Roll Set Point:	-0.199	Pitch Set Point:	-0.017	Yaw Set Point:	-2.966	X_WP:	0.189	Y_WP:	0.012	Y_WP:	0.500	X:	0.163	Y:	0.069	Z:	0.401	yaw:	169.946	yaw rate:	2.988	Roll:	-1.195	Pitch:	-3.099	Yaw:	242.144	Thrust:	66.767
Time:	6.111	Roll Set Point:	-0.197	Pitch Set Point:	-0.016	Yaw Set Point:	-2.966	X_WP:	0.187	Y_WP:	0.011	Y_WP:	0.500	X:	0.163	Y:	0.068	Z:	0.401	yaw:	169.914	yaw rate:	2.155	Roll:	-1.007	Pitch:	-2.937	Yaw:	240.106	Thrust:	46.469
Time:	6.158	Roll Set Point:	-0.196	Pitch Set Point:	-0.015	Yaw Set Point:	-2.966	X_WP:	0.186	Y_WP:	0.010	Y_WP:	0.500	X:	0.163	Y:	0.068	Z:	0.401	yaw:	169.941	yaw rate:	1.578	Roll:	-1.245	Pitch:	-3.118	Yaw:	242.118	Thrust:	67.724
Time:	6.189	Roll Set Point:	-0.194	Pitch Set Point:	-0.014	Yaw Set Point:	-2.966	X_WP:	0.184	Y_WP:	0.010	Y_WP:	0.500	X:	0.163	Y:	0.069	Z:	0.401	yaw:	169.934	yaw rate:	0.474	Roll:	-1.218	Pitch:	-3.005	Yaw:	240.346	Thrust:	47.362
Time:	6.220	Roll Set Point:	-0.193	Pitch Set Point:	-0.014	Yaw Set Point:	-2.966	X_WP:	0.183	Y_WP:	0.009	Y_WP:	0.500	X:	0.163	Y:	0.069	Z:	0.401	yaw:	169.933	yaw rate:	-0.159	Roll:	-0.758	Pitch:	-2.721	Yaw:	240.382	Thrust:	47.744
Time:	6.252	Roll Set Point:	-0.192	Pitch Set Point:	-0.013	Yaw Set Point:	-2.966	X_WP:	0.182	Y_WP:	0.009	Y_WP:	0.500	X:	0.163	Y:	0.069	Z:	0.401	yaw:	169.924	yaw rate:	-0.829	Roll:	-0.960	Pitch:	-2.824	Yaw:	240.312	Thrust:	48.032
Time:	6.283	Roll Set Point:	-0.191	Pitch Set Point:	-0.013	Yaw Set Point:	-2.966	X_WP:	0.181	Y_WP:	0.009	Y_WP:	0.500	X:	0.163	Y:	0.069	Z:	0.401	yaw:	169.922	yaw rate:	-0.242	Roll:	-0.992	Pitch:	-2.828	Yaw:	240.361	Thrust:	48.474
Time:	6.330	Roll Set Point:	-0.189	Pitch Set Point:	-0.012	Yaw Set Point:	-2.966	X_WP:	0.179	Y_WP:	0.008	Y_WP:	0.500	X:	0.163	Y:	0.069	Z:	0.401	yaw:	169.941	yaw rate:	1.439	Roll:	-1.568	Pitch:	-3.256	Yaw:	242.075	Thrust:	70.511
Time:	6.377	Roll Set Point:	-0.188	Pitch Set Point:	-0.011	Yaw Set Point:	-2.966	X_WP:	0.178	Y_WP:	0.008	Y_WP:	0.500	X:	0.163	Y:	0.069	Z:	0.401	yaw:	169.933	yaw rate:	-2.801	Roll:	-1.364	Pitch:	-3.152	Yaw:	241.916	Thrust:	71.099
Time:	6.408	Roll Set Point:	-0.187	Pitch Set Point:	-0.011	Yaw Set Point:	-2.966	X_WP:	0.177	Y_WP:	0.008	Y_WP:	0.500	X:	0.163	Y:	0.069	Z:	0.401	yaw:	169.935	yaw rate:	0.254	Roll:	-1.138	Pitch:	-2.860	Yaw:	240.421	Thrust:	49.615
Time:	6.446	Roll Set Point:	-0.186	Pitch Set Point:	-0.010	Yaw Set Point:	-2.966	X_WP:	0.175	Y_WP:	0.007	Y_WP:	0.500	X:	0.163	Y:	0.069	Z:	0.401	yaw:	169.911	yaw rate:	-2.426	Roll:	-1.181	Pitch:	-2.956	Yaw:	240.858	Thrust:	59.249
Time:	6.480	Roll Set Point:	-0.185	Pitch Set Point:	-0.010	Yaw Set Point:	-2.966	X_WP:	0.174	Y_WP:	0.007	Y_WP:	0.500	X:	0.163	Y:	0.069	Z:	0.401	yaw:	169.919	yaw rate:	0.790	Roll:	-1.308	Pitch:	-2.946	Yaw:	240.743	Thrust:	54.740
Time:	6.511	Roll Set Point:	-0.184	Pitch Set Point:	-0.010	Yaw Set Point:	-2.966	X_WP:	0.173	Y_WP:	0.007	Y_WP:	0.500	X:	0.163	Y:	0.069	Z:	0.401	yaw:	169.922	yaw rate:	0.785	Roll:	-1.027	Pitch:	-2.788	Yaw:	240.411	Thrust:	50.710
Time:	6.543	Roll Set Point:	-0.183	Pitch Set Point:	-0.009	Yaw Set Point:	-2.966	X_WP:	0.172	Y_WP:	0.007	Y_WP:	0.500	X:	0.163	Y:	0.069	Z:	0.401	yaw:	169.926	yaw rate:	0.392	Roll:	-1.086	Pitch:	-2.806	Yaw:	240.418	Thrust:	51.008
Time:	6.574	Roll Set Point:	-0.182	Pitch Set Point:	-0.009	Yaw Set Point:	-2.965	X_WP:	0.171	Y_WP:	0.007	Y_WP:	0.500	X:	0.163	Y:	0.069	Z:	0.401	yaw:	169.904	yaw rate:	-2.259	Roll:	-1.156	Pitch:	-2.821	Yaw:	240.166	Thrust:	51.428
Time:	6.605	Roll Set Point:	-0.180	Pitch Set Point:	-0.009	Yaw Set Point:	-2.966	X_WP:	0.169	Y_WP:	0.006	Y_WP:	0.500	X:	0.163	Y:	0.069	Z:	0.401	yaw:	169.928	yaw rate:	2.383	Roll:	-1.468	Pitch:	-2.908	Yaw:	240.588	Thrust:	51.805
Time:	6.636	Roll Set Point:	-0.178	Pitch Set Point:	-0.008	Yaw Set Point:	-2.966	X_WP:	0.167	Y_WP:	0.006	Y_WP:	0.500	X:	0.163	Y:	0.069	Z:	0.401	yaw:	169.935	yaw rate:	0.274	Roll:	-2.045	Pitch:	-3.036	Yaw:	240.469	Thrust:	52.227
Time:	6.683	Roll Set Point:	-0.176	Pitch Set Point:	-0.008	Yaw Set Point:	-2.966	X_WP:	0.165	Y_WP:	0.006	Y_WP:	0.500	X:	0.163	Y:	0.069	Z:	0.401	yaw:	169.958	yaw rate:	2.452	Roll:	-2.092	Pitch:	-3.334	Yaw:	242.118	Thrust:	76.191
Time:	6.714	Roll Set Point:	-0.175	Pitch Set Point:	-0.007	Yaw Set Point:	-2.966	X_WP:	0.164	Y_WP:	0.006	Y_WP:	0.500	X:	0.163	Y:	0.069	Z:	0.401	yaw:	169.927	yaw rate:	-3.111	Roll:	-1.439	Pitch:	-2.837	Yaw:	240.124	Thrust:	52.648
Time:	6.746	Roll Set Point:	-0.173	Pitch Set Point:	-0.007	Yaw Set Point:	-2.966	X_WP:	0.162	Y_WP:	0.006	Y_WP:	0.500	X:	0.163	Y:	0.069	Z:	0.401	yaw:	169.926	yaw rate:	-0.081	Roll:	-1.707	Pitch:	-2.881	Yaw:	240.380	Thrust:	53.259
Time:	6.777	Roll Set Point:	-0.171	Pitch Set Point:	-0.007	Yaw Set Point:	-2.966	X_WP:	0.160	Y_WP:	0.006	Y_WP:	0.500	X:	0.163	Y:	0.069	Z:	0.401	yaw:	169.931	yaw rate:	0.138	Roll:	-1.984	Pitch:	-2.893	Yaw:	240.440	Thrust:	53.628
Time:	6.808	Roll Set Point:	-0.170	Pitch Set Point:	-0.007	Yaw Set Point:	-2.966	X_WP:	0.159	Y_WP:	0.006	Y_WP:	0.500	X:	0.163	Y:	0.069	Z:	0.401	yaw:	169.927	yaw rate:	-0.455	Roll:	-1.583	Pitch:	-2.824	Yaw:	240.350	Thrust:	54.027
Time:	6.839	Roll Set Point:	-0.169	Pitch Set Point:	-0.006	Yaw Set Point:	-2.966	X_WP:	0.158	Y_WP:	0.006	Y_WP:	0.500	X:	0.163	Y:	0.068	Z:	0.401	yaw:	169.926	yaw rate:	-0.100	Roll:	-1.633	Pitch:	-2.820	Yaw:	240.378	Thrust:	54.355
Time:	6.871	Roll Set Point:	-0.166	Pitch Set Point:	-0.006	Yaw Set Point:	-2.966	X_WP:	0.156	Y_WP:	0.007	Y_WP:	0.500	X:	0.163	Y:	0.069	Z:	0.401	yaw:	169.958	yaw rate:	4.031	Roll:	-2.211	Pitch:	-2.847	Yaw:	240.704	Thrust:	54.917
Time:	6.902	Roll Set Point:	-0.165	Pitch Set Point:	-0.006	Yaw Set Point:	-2.966	X_WP:	0.154	Y_WP:	0.007	Y_WP:	0.500	X:	0.163	Y:	0.069	Z:	0.401	yaw:	169.920	yaw rate:	-0.785	Roll:	-2.000	Pitch:	-2.814	Yaw:	240.061	Thrust:	54.986
Time:	6.933	Roll Set Point:	-0.164	Pitch Set Point:	-0.006	Yaw Set Point:	-2.966	X_WP:	0.153	Y_WP:	0.007	Y_WP:	0.500	X:	0.163	Y:	0.069	Z:	0.401	yaw:	169.926	yaw rate:	0.571	Roll:	-1.583	Pitch:	-2.786	Yaw:	240.435	Thrust:	55.469
Time:	6.964	Roll Set Point:	-0.163	Pitch Set Point:	-0.006	Yaw Set Point:	-2.966	X_WP:	0.152	Y_WP:	0.007	Y_WP:	0.500	X:	0.163	Y:	0.069	Z:	0.401	yaw:	169.947	yaw rate:	2.068	Roll:	-1.884	Pitch:	-2.785	Yaw:	240.589	Thrust:	55.858
Time:	6.996	Roll Set Point:	-0.160	Pitch Set Point:	-0.006	Yaw Set Point:	-2.966	X_WP:	0.149	Y_WP:	0.008	Y_WP:	0.500	X:	0.163	Y:	0.069	Z:	0.401	yaw:	169.942	yaw rate:	0.515	Roll:	-2.438	Pitch:	-2.752	Yaw:	240.372	Thrust:	56.271
Time:	7.027	Roll Set Point:	-0.159	Pitch Set Point:	-0.006	Yaw Set Point:	-2.966	X_WP:	0.148	Y_WP:	0.008	Y_WP:	0.500	X:	0.163	Y:	0.069	Z:	0.401	yaw:	169.929	yaw rate:	-1.303	Roll:	-2.249	Pitch:	-2.729	Yaw:	240.282	Thrust:	56.575
Time:	7.058	Roll Set Point:	-0.157	Pitch Set Point:	-0.007	Yaw Set Point:	-2.966	X_WP:	0.146	Y_WP:	0.009	Y_WP:	0.500	X:	0.163	Y:	0.069	Z:	0.401	yaw:	169.941	yaw rate:	1.210	Roll:	-2.336	Pitch:	-2.698	Yaw:	240.510	Thrust:	56.916
Time:	7.089	Roll Set Point:	-0.155	Pitch Set Point:	-0.007	Yaw Set Point:	-2.966	X_WP:	0.145	Y_WP:	0.009	Y_WP:	0.500	X:	0.163	Y:	0.069	Z:	0.401	yaw:	169.941	yaw rate:	0.010	Roll:	-2.117	Pitch:	-2.701	Yaw:	240.409	Thrust:	57.455
Time:	7.121	Roll Set Point:	-0.153	Pitch Set Point:	-0.007	Yaw Set Point:	-2.966	X_WP:	0.143	Y_WP:	0.010	Y_WP:	0.500	X:	0.163	Y:	0.069	Z:	0.401	yaw:	169.923	yaw rate:	-1.878	Roll:	-2.420	Pitch:	-2.642	Yaw:	240.225	Thrust:	57.624
Time:	7.152	Roll Set Point:	-0.151	Pitch Set Point:	-0.007	Yaw Set Point:	-2.966	X_WP:	0.141	Y_WP:	0.010	Y_WP:	0.500	X:	0.163	Y:	0.069	Z:	0.401	yaw:	169.924	yaw rate:	0.686	Roll:	-2.744	Pitch:	-2.553	Yaw:	240.393	Thrust:	58.143
Time:	7.183	Roll Set Point:	-0.150	Pitch Set Point:	-0.008	Yaw Set Point:	-2.966	X_WP:	0.140	Y_WP:	0.011	Y_WP:	0.500	X:	0.163	Y:	0.069	Z:	0.401	yaw:	169.936	yaw rate:	2.763	Roll:	-2.033	Pitch:	-2.672	Yaw:	240.505	Thrust:	58.345
Time:	7.214	Roll Set Point:	-0.148	Pitch Set Point:	-0.008	Yaw Set Point:	-2.966	X_WP:	0.138	Y_WP:	0.012	Y_WP:	0.500	X:	0.163	Y:	0.069	Z:	0.401	yaw:	169.946	yaw rate:	0.992	Roll:	-2.612	Pitch:	-2.530	Yaw:	240.498	Thrust:	58.918
Time:	7.246	Roll Set Point:	-0.147	Pitch Set Point:	-0.008	Yaw Set Point:	-2.966	X_WP:	0.136	Y_WP:	0.012	Y_WP:	0.500	X:	0.163	Y:	0.069	Z:	0.401	yaw:	169.920	yaw rate:	-2.579	Roll:	-2.404	Pitch:	-2.558	Yaw:	240.163	Thrust:	59.146
Time:	7.278	Roll Set Point:	-0.145	Pitch Set Point:	-0.009	Yaw Set Point:	-2.966	X_WP:	0.135	Y_WP:	0.013	Y_WP:	0.500	X:	0.163	Y:	0.069	Z:	0.401	yaw:	169.932	yaw rate:	0.478	Roll:	-2.657	Pitch:	-2.492	Yaw:	240.545	Thrust:	60.561
Time:	7.311	Roll Set Point:	-0.142	Pitch Set Point:	-0.010	Yaw Set Point:	-2.966	X_WP:	0.132	Y_WP:	0.014	Y_WP:	0.500	X:	0.163	Y:	0.069	Z:	0.401	yaw:	169.923	yaw rate:	-0.479	Roll:	-3.101	Pitch:	-2.385	Yaw:	240.536	Thrust:	63.742
Time:	7.361	Roll Set Point:	-0.140	Pitch Set Point:	-0.011	Yaw Set Point:	-2.965	X_WP:	0.130	Y_WP:	0.016	Y_WP:	0.500	X:	0.163	Y:	0.069	Z:	0.401	yaw:	169.903	yaw rate:	-4.176	Roll:	-3.301	Pitch:	-3.041	Yaw:	242.150	Thrust:	93.620
Time:	7.393	Roll Set Point:	-0.139	Pitch Set Point:	-0.011	Yaw Set Point:	-2.966	X_WP:	0.129	Y_WP:	0.016	Y_WP:	0.500	X:	0.163	Y:	0.069	Z:	0.401	yaw:	169.919	yaw rate:	0.507	Roll:	-2.462	Pitch:	-2.451	Yaw:	240.505	Thrust:	60.715
Time:	7.425	Roll Set Point:	-0.138	Pitch Set Point:	-0.012	Yaw Set Point:	-2.966	X_WP:	0.128	Y_WP:	0.017	Y_WP:	0.500	X:	0.163	Y:	0.069	Z:	0.401	yaw:	169.918	yaw rate:	-0.122	Roll:	-2.482	Pitch:	-2.496	Yaw:	240.489	Thrust:	63.221
Time:	7.472	Roll Set Point:	-0.135	Pitch Set Point:	-0.013	Yaw Set Point:	-2.966	X_WP:	0.126	Y_WP:	0.018	Y_WP:	0.500	X:	0.163	Y:	0.069	Z:	0.401	yaw:	169.921	yaw rate:	0.357	Roll:	-3.410	Pitch:	-2.773	Yaw:	241.962	Thrust:	89.407
Time:	7.503	Roll Set Point:	-0.135	Pitch Set Point:	-0.013	Yaw Set Point:	-2.965	X_WP:	0.125	Y_WP:	0.019	Y_WP:	0.500	X:	0.163	Y:	0.069	Z:	0.401	yaw:	169.909	yaw rate:	-1.426	Roll:	-2.379	Pitch:	-2.455	Yaw:	240.265	Thrust:	61.740
Time:	7.534	Roll Set Point:	-0.134	Pitch Set Point:	-0.014	Yaw Set Point:	-2.966	X_WP:	0.124	Y_WP:	0.020	Y_WP:	0.500	X:	0.163	Y:	0.069	Z:	0.401	yaw:	169.919	yaw rate:	0.942	Roll:	-2.644	Pitch:	-2.315	Yaw:	240.458	Thrust:	62.269
Time:	7.566	Roll Set Point:	-0.133	Pitch Set Point:	-0.014	Yaw Set Point:	-2.966	X_WP:	0.123	Y_WP:	0.020	Y_WP:	0.500	X:	0.163	Y:	0.069	Z:	0.401	yaw:	169.929	yaw rate:	1.009	Roll:	-2.619	Pitch:	-2.314	Yaw:	240.472	Thrust:	62.414
Time:	7.597	Roll Set Point:	-0.131	Pitch Set Point:	-0.015	Yaw Set Point:	-2.965	X_WP:	0.123	Y_WP:	0.021	Y_WP:	0.500	X:	0.163	Y:	0.069	Z:	0.401	yaw:	169.895	yaw rate:	-1.814	Roll:	-2.620	Pitch:	-2.306	Yaw:	240.062	Thrust:	62.893
Time:	7.628	Roll Set Point:	-0.131	Pitch Set Point:	-0.015	Yaw Set Point:	-2.966	X_WP:	0.122	Y_WP:	0.022	Y_WP:	0.500	X:	0.163	Y:	0.069	Z:	0.401	yaw:	169.918	yaw rate:	0.341	Roll:	-2.651	Pitch:	-2.279	Yaw:	240.562	Thrust:	63.226
Time:	7.659	Roll Set Point:	-0.130	Pitch Set Point:	-0.016	Yaw Set Point:	-2.966	X_WP:	0.121	Y_WP:	0.023	Y_WP:	0.500	X:	0.163	Y:	0.069	Z:	0.401	yaw:	169.938	yaw rate:	4.308	Roll:	-2.515	Pitch:	-2.358	Yaw:	240.580	Thrust:	63.678
Time:	7.691	Roll Set Point:	-0.129	Pitch Set Point:	-0.016	Yaw Set Point:	-2.966	X_WP:	0.120	Y_WP:	0.023	Y_WP:	0.500	X:	0.163	Y:	0.069	Z:	0.401	yaw:	169.919	yaw rate:	-1.967	Roll:	-2.645	Pitch:	-2.273	Yaw:	240.212	Thrust:	64.005
Time:	7.738	Roll Set Point:	-0.128	Pitch Set Point:	-0.017	Yaw Set Point:	-2.966	X_WP:	0.119	Y_WP:	0.024	Y_WP:	0.500	X:	0.163	Y:	0.069	Z:	0.401	yaw:	169.946	yaw rate:	1.686	Roll:	-3.246	Pitch:	-2.791	Yaw:	242.132	Thrust:	93.800
Time:	7.769	Roll Set Point:	-0.127	Pitch Set Point:	-0.018	Yaw Set Point:	-2.966	X_WP:	0.119	Y_WP:	0.025	Y_WP:	0.500	X:	0.163	Y:	0.068	Z:	0.401	yaw:	169.931	yaw rate:	-1.516	Roll:	-2.439	Pitch:	-2.402	Yaw:	240.267	Thrust:	64.799
Time:	7.800	Roll Set Point:	-0.126	Pitch Set Point:	-0.018	Yaw Set Point:	-2.966	X_WP:	0.118	Y_WP:	0.026	Y_WP:	0.500	X:	0.163	Y:	0.069	Z:	0.401	yaw:	169.920	yaw rate:	-1.117	Roll:	-2.816	Pitch:	-2.130	Yaw:	240.286	Thrust:	65.054
Time:	7.831	Roll Set Point:	-0.125	Pitch Set Point:	-0.019	Yaw Set Point:	-2.966	X_WP:	0.117	Y_WP:	0.026	Y_WP:	0.500	X:	0.163	Y:	0.068	Z:	0.401	yaw:	169.929	yaw rate:	-0.690	Roll:	-2.754	Pitch:	-2.168	Yaw:	240.463	Thrust:	65.473
Time:	7.863	Roll Set Point:	-0.125	Pitch Set Point:	-0.020	Yaw Set Point:	-2.965	X_WP:	0.117	Y_WP:	0.027	Y_WP:	0.500	X:	0.163	Y:	0.069	Z:	0.401	yaw:	169.906	yaw rate:	-2.294	Roll:	-2.629	Pitch:	-2.250	Yaw:	240.166	Thrust:	65.837
Time:	7.894	Roll Set Point:	-0.124	Pitch Set Point:	-0.020	Yaw Set Point:	-2.966	X_WP:	0.116	Y_WP:	0.028	Y_WP:	0.500	X:	0.163	Y:	0.069	Z:	0.401	yaw:	169.938	yaw rate:	3.254	Roll:	-2.787	Pitch:	-2.123	Yaw:	240.677	Thrust:	66.246
Time:	7.925	Roll Set Point:	-0.123	Pitch Set Point:	-0.021	Yaw Set Point:	-2.966	X_WP:	0.115	Y_WP:	0.029	Y_WP:	0.500	X:	0.163	Y:	0.069	Z:	0.401	yaw:	169.924	yaw rate:	-1.400	Roll:	-2.774	Pitch:	-2.126	Yaw:	240.271	Thrust:	66.637
Time:	7.956	Roll Set Point:	-0.122	Pitch Set Point:	-0.021	Yaw Set Point:	-2.966	X_WP:	0.115	Y_WP:	0.029	Y_WP:	0.500	X:	0.163	Y:	0.069	Z:	0.401	yaw:	169.933	yaw rate:	0.890	Roll:	-2.699	Pitch:	-2.183	Yaw:	240.471	Thrust:	66.966
Time:	7.988	Roll Set Point:	-0.121	Pitch Set Point:	-0.022	Yaw Set Point:	-2.966	X_WP:	0.114	Y_WP:	0.030	Y_WP:	0.500	X:	0.163	Y:	0.069	Z:	0.401	yaw:	169.918	yaw rate:	-1.505	Roll:	-2.960	Pitch:	-1.942	Yaw:	240.246	Thrust:	67.206
Time:	8.019	Roll Set Point:	-0.121	Pitch Set Point:	-0.023	Yaw Set Point:	-2.966	X_WP:	0.113	Y_WP:	0.031	Y_WP:	0.500	X:	0.163	Y:	0.069	Z:	0.401	yaw:	169.941	yaw rate:	2.237	Roll:	-2.766	Pitch:	-2.104	Yaw:	240.595	Thrust:	67.765
Time:	8.050	Roll Set Point:	-0.120	Pitch Set Point:	-0.024	Yaw Set Point:	-2.965	X_WP:	0.113	Y_WP:	0.032	Y_WP:	0.500	X:	0.163	Y:	0.069	Z:	0.401	yaw:	169.909	yaw rate:	-3.191	Roll:	-2.881	Pitch:	-1.989	Yaw:	240.098	Thrust:	68.078
Time:	8.081	Roll Set Point:	-0.119	Pitch Set Point:	-0.024	Yaw Set Point:	-2.965	X_WP:	0.112	Y_WP:	0.033	Y_WP:	0.500	X:	0.163	Y:	0.069	Z:	0.401	yaw:	169.905	yaw rate:	-0.367	Roll:	-2.691	Pitch:	-2.167	Yaw:	240.327	Thrust:	68.458
Time:	8.113	Roll Set Point:	-0.118	Pitch Set Point:	-0.026	Yaw Set Point:	-2.966	X_WP:	0.111	Y_WP:	0.034	Y_WP:	0.500	X:	0.163	Y:	0.069	Z:	0.401	yaw:	169.926	yaw rate:	-1.616	Roll:	-3.264	Pitch:	-1.571	Yaw:	240.556	Thrust:	68.701
Time:	8.144	Roll Set Point:	-0.117	Pitch Set Point:	-0.026	Yaw Set Point:	-2.966	X_WP:	0.111	Y_WP:	0.035	Y_WP:	0.500	X:	0.163	Y:	0.069	Z:	0.401	yaw:	169.929	yaw rate:	0.336	Roll:	-2.894	Pitch:	-1.933	Yaw:	240.419	Thrust:	69.230
Time:	8.175	Roll Set Point:	-0.116	Pitch Set Point:	-0.027	Yaw Set Point:	-2.966	X_WP:	0.110	Y_WP:	0.036	Y_WP:	0.500	X:	0.163	Y:	0.069	Z:	0.401	yaw:	169.928	yaw rate:	0.004	Roll:	-3.033	Pitch:	-1.765	Yaw:	240.378	Thrust:	69.509
Time:	8.206	Roll Set Point:	-0.116	Pitch Set Point:	-0.028	Yaw Set Point:	-2.966	X_WP:	0.109	Y_WP:	0.037	Y_WP:	0.500	X:	0.163	Y:	0.069	Z:	0.401	yaw:	169.938	yaw rate:	1.024	Roll:	-2.916	Pitch:	-1.883	Yaw:	240.492	Thrust:	70.044
Time:	8.253	Roll Set Point:	-0.114	Pitch Set Point:	-0.030	Yaw Set Point:	-2.966	X_WP:	0.108	Y_WP:	0.039	Y_WP:	0.500	X:	0.163	Y:	0.069	Z:	0.401	yaw:	169.915	yaw rate:	-2.438	Roll:	-3.702	Pitch:	-2.183	Yaw:	241.802	Thrust:	100.000
Time:	8.284	Roll Set Point:	-0.114	Pitch Set Point:	-0.031	Yaw Set Point:	-2.966	X_WP:	0.108	Y_WP:	0.040	Y_WP:	0.500	X:	0.163	Y:	0.069	Z:	0.401	yaw:	169.924	yaw rate:	0.955	Roll:	-2.953	Pitch:	-1.794	Yaw:	240.465	Thrust:	70.700
Time:	8.316	Roll Set Point:	-0.113	Pitch Set Point:	-0.032	Yaw Set Point:	-2.966	X_WP:	0.107	Y_WP:	0.041	Y_WP:	0.500	X:	0.163	Y:	0.069	Z:	0.401	yaw:	169.922	yaw rate:	-0.512	Roll:	-3.098	Pitch:	-1.585	Yaw:	240.360	Thrust:	70.986
Time:	8.362	Roll Set Point:	-0.112	Pitch Set Point:	-0.033	Yaw Set Point:	-2.966	X_WP:	0.107	Y_WP:	0.042	Y_WP:	0.500	X:	0.163	Y:	0.069	Z:	0.401	yaw:	169.925	yaw rate:	0.311	Roll:	-3.444	Pitch:	-2.376	Yaw:	241.862	Thrust:	100.000
Time:	8.393	Roll Set Point:	-0.111	Pitch Set Point:	-0.034	Yaw Set Point:	-2.966	X_WP:	0.106	Y_WP:	0.044	Y_WP:	0.500	X:	0.163	Y:	0.069	Z:	0.401	yaw:	169.923	yaw rate:	0.274	Roll:	-3.272	Pitch:	-1.275	Yaw:	240.367	Thrust:	71.720
Time:	8.424	Roll Set Point:	-0.110	Pitch Set Point:	-0.036	Yaw Set Point:	-2.966	X_WP:	0.105	Y_WP:	0.046	Y_WP:	0.500	X:	0.163	Y:	0.069	Z:	0.401	yaw:	169.942	yaw rate:	0.939	Roll:	-3.289	Pitch:	-1.185	Yaw:	240.570	Thrust:	72.203
Time:	8.455	Roll Set Point:	-0.109	Pitch Set Point:	-0.037	Yaw Set Point:	-2.966	X_WP:	0.105	Y_WP:	0.047	Y_WP:	0.500	X:	0.163	Y:	0.069	Z:	0.401	yaw:	169.920	yaw rate:	1.601	Roll:	-3.181	Pitch:	-1.310	Yaw:	240.194	Thrust:	72.461
Time:	8.487	Roll Set Point:	-0.108	Pitch Set Point:	-0.039	Yaw Set Point:	-2.966	X_WP:	0.104	Y_WP:	0.049	Y_WP:	0.500	X:	0.163	Y:	0.069	Z:	0.401	yaw:	169.922	yaw rate:	0.397	Roll:	-3.195	Pitch:	-1.247	Yaw:	240.394	Thrust:	72.932
Time:	8.533	Roll Set Point:	-0.107	Pitch Set Point:	-0.041	Yaw Set Point:	-2.965	X_WP:	0.103	Y_WP:	0.051	Y_WP:	0.500	X:	0.163	Y:	0.069	Z:	0.401	yaw:	169.909	yaw rate:	-0.636	Roll:	-3.698	Pitch:	-1.927	Yaw:	241.855	Thrust:	100.000
Time:	8.565	Roll Set Point:	-0.107	Pitch Set Point:	-0.042	Yaw Set Point:	-2.966	X_WP:	0.103	Y_WP:	0.052	Y_WP:	0.500	X:	0.163	Y:	0.068	Z:	0.401	yaw:	169.933	yaw rate:	1.307	Roll:	-3.169	Pitch:	-1.193	Yaw:	240.598	Thrust:	73.740
Time:	8.596	Roll Set Point:	-0.106	Pitch Set Point:	-0.043	Yaw Set Point:	-2.966	X_WP:	0.103	Y_WP:	0.054	Y_WP:	0.500	X:	0.163	Y:	0.069	Z:	0.401	yaw:	169.914	yaw rate:	-1.069	Roll:	-3.145	Pitch:	-1.194	Yaw:	240.208	Thrust:	73.916
Time:	8.627	Roll Set Point:	-0.106	Pitch Set Point:	-0.044	Yaw Set Point:	-2.966	X_WP:	0.102	Y_WP:	0.055	Y_WP:	0.500	X:	0.163	Y:	0.069	Z:	0.401	yaw:	169.940	yaw rate:	2.573	Roll:	-3.076	Pitch:	-1.318	Yaw:	240.621	Thrust:	74.359
Time:	8.658	Roll Set Point:	-0.105	Pitch Set Point:	-0.046	Yaw Set Point:	-2.966	X_WP:	0.102	Y_WP:	0.056	Y_WP:	0.500	X:	0.163	Y:	0.069	Z:	0.401	yaw:	169.920	yaw rate:	-0.985	Roll:	-3.147	Pitch:	-1.117	Yaw:	240.210	Thrust:	74.668
Time:	8.690	Roll Set Point:	-0.105	Pitch Set Point:	-0.047	Yaw Set Point:	-2.966	X_WP:	0.102	Y_WP:	0.058	Y_WP:	0.500	X:	0.163	Y:	0.069	Z:	0.401	yaw:	169.932	yaw rate:	-0.447	Roll:	-3.160	Pitch:	-1.037	Yaw:	240.500	Thrust:	75.105
Time:	8.721	Roll Set Point:	-0.104	Pitch Set Point:	-0.048	Yaw Set Point:	-2.966	X_WP:	0.102	Y_WP:	0.059	Y_WP:	0.500	X:	0.163	Y:	0.069	Z:	0.401	yaw:	169.912	yaw rate:	-1.613	Roll:	-3.152	Pitch:	-1.002	Yaw:	240.195	Thrust:	75.452
Time:	8.752	Roll Set Point:	-0.104	Pitch Set Point:	-0.049	Yaw Set Point:	-2.966	X_WP:	0.101	Y_WP:	0.060	Y_WP:	0.500	X:	0.163	Y:	0.069	Z:	0.401	yaw:	169.921	yaw rate:	0.965	Roll:	-3.024	Pitch:	-1.339	Yaw:	240.461	Thrust:	75.874
Time:	8.783	Roll Set Point:	-0.103	Pitch Set Point:	-0.051	Yaw Set Point:	-2.966	X_WP:	0.101	Y_WP:	0.062	Y_WP:	0.500	X:	0.163	Y:	0.069	Z:	0.401	yaw:	169.922	yaw rate:	0.935	Roll:	-3.223	Pitch:	-0.669	Yaw:	240.390	Thrust:	76.169
Time:	8.815	Roll Set Point:	-0.103	Pitch Set Point:	-0.052	Yaw Set Point:	-2.966	X_WP:	0.101	Y_WP:	0.063	Y_WP:	0.500	X:	0.163	Y:	0.069	Z:	0.401	yaw:	169.923	yaw rate:	-1.353	Roll:	-3.094	Pitch:	-1.022	Yaw:	240.390	Thrust:	76.615
Time:	8.846	Roll Set Point:	-0.103	Pitch Set Point:	-0.054	Yaw Set Point:	-2.966	X_WP:	0.101	Y_WP:	0.065	Y_WP:	0.500	X:	0.163	Y:	0.069	Z:	0.401	yaw:	169.919	yaw rate:	1.586	Roll:	-3.205	Pitch:	-0.527	Yaw:	240.341	Thrust:	76.903
Time:	8.877	Roll Set Point:	-0.102	Pitch Set Point:	-0.055	Yaw Set Point:	-2.966	X_WP:	0.101	Y_WP:	0.066	Y_WP:	0.500	X:	0.163	Y:	0.069	Z:	0.401	yaw:	169.940	yaw rate:	2.167	Roll:	-3.090	Pitch:	-0.894	Yaw:	240.588	Thrust:	77.325
Time:	8.909	Roll Set Point:	-0.102	Pitch Set Point:	-0.057	Yaw Set Point:	-2.966	X_WP:	0.101	Y_WP:	0.068	Y_WP:	0.500	X:	0.163	Y:	0.069	Z:	0.401	yaw:	169.939	yaw rate:	-0.158	Roll:	-3.127	Pitch:	-0.643	Yaw:	240.391	Thrust:	77.681
Time:	8.940	Roll Set Point:	-0.102	Pitch Set Point:	-0.058	Yaw Set Point:	-2.966	X_WP:	0.101	Y_WP:	0.069	Y_WP:	0.500	X:	0.163	Y:	0.069	Z:	0.401	yaw:	169.928	yaw rate:	-1.063	Roll:	-3.105	Pitch:	-0.624	Yaw:	240.301	Thrust:	78.054
Time:	8.971	Roll Set Point:	-0.102	Pitch Set Point:	-0.060	Yaw Set Point:	-2.966	X_WP:	0.101	Y_WP:	0.070	Y_WP:	0.500	X:	0.163	Y:	0.069	Z:	0.401	yaw:	169.913	yaw rate:	-1.483	Roll:	-3.054	Pitch:	-0.839	Yaw:	240.245	Thrust:	78.412
Time:	9.002	Roll Set Point:	-0.101	Pitch Set Point:	-0.061	Yaw Set Point:	-2.966	X_WP:	0.101	Y_WP:	0.072	Y_WP:	0.500	X:	0.163	Y:	0.069	Z:	0.401	yaw:	169.934	yaw rate:	2.077	Roll:	-3.074	Pitch:	-0.617	Yaw:	240.572	Thrust:	78.778
Time:	9.049	Roll Set Point:	-0.101	Pitch Set Point:	-0.063	Yaw Set Point:	-2.966	X_WP:	0.101	Y_WP:	0.074	Y_WP:	0.500	X:	0.163	Y:	0.069	Z:	0.401	yaw:	169.919	yaw rate:	0.357	Roll:	-3.634	Pitch:	-1.222	Yaw:	241.855	Thrust:	100.000
Time:	9.080	Roll Set Point:	-0.101	Pitch Set Point:	-0.064	Yaw Set Point:	-2.966	X_WP:	0.101	Y_WP:	0.075	Y_WP:	0.500	X:	0.163	Y:	0.069	Z:	0.401	yaw:	169.944	yaw rate:	2.555	Roll:	-3.017	Pitch:	-0.803	Yaw:	240.626	Thrust:	79.522
Time:	9.112	Roll Set Point:	-0.101	Pitch Set Point:	-0.065	Yaw Set Point:	-2.966	X_WP:	0.101	Y_WP:	0.076	Y_WP:	0.500	X:	0.163	Y:	0.069	Z:	0.401	yaw:	169.931	yaw rate:	0.855	Roll:	-3.030	Pitch:	-0.509	Yaw:	240.280	Thrust:	79.985
Time:	9.143	Roll Set Point:	-0.101	Pitch Set Point:	-0.066	Yaw Set Point:	-2.966	X_WP:	0.101	Y_WP:	0.077	Y_WP:	0.500	X:	0.163	Y:	0.069	Z:	0.401	yaw:	169.927	yaw rate:	1.315	Roll:	-3.000	Pitch:	-0.791	Yaw:	240.357	Thrust:	80.201
Time:	9.174	Roll Set Point:	-0.101	Pitch Set Point:	-0.067	Yaw Set Point:	-2.966	X_WP:	0.102	Y_WP:	0.078	Y_WP:	0.500	X:	0.163	Y:	0.069	Z:	0.401	yaw:	169.937	yaw rate:	0.934	Roll:	-2.995	Pitch:	-0.761	Yaw:	240.480	Thrust:	80.644
Time:	9.205	Roll Set Point:	-0.101	Pitch Set Point:	-0.068	Yaw Set Point:	-2.966	X_WP:	0.102	Y_WP:	0.079	Y_WP:	0.500	X:	0.163	Y:	0.069	Z:	0.401	yaw:	169.931	yaw rate:	-0.575	Roll:	-2.993	Pitch:	-0.416	Yaw:	240.345	Thrust:	81.025
Time:	9.237	Roll Set Point:	-0.101	Pitch Set Point:	-0.069	Yaw Set Point:	-2.966	X_WP:	0.102	Y_WP:	0.080	Y_WP:	0.500	X:	0.163	Y:	0.069	Z:	0.401	yaw:	169.913	yaw rate:	-1.774	Roll:	-2.979	Pitch:	-0.713	Yaw:	240.220	Thrust:	81.320
Time:	9.268	Roll Set Point:	-0.101	Pitch Set Point:	-0.070	Yaw Set Point:	-2.966	X_WP:	0.102	Y_WP:	0.081	Y_WP:	0.500	X:	0.163	Y:	0.069	Z:	0.401	yaw:	169.924	yaw rate:	-0.280	Roll:	-2.972	Pitch:	-0.555	Yaw:	240.473	Thrust:	81.810
Time:	9.299	Roll Set Point:	-0.101	Pitch Set Point:	-0.071	Yaw Set Point:	-2.965	X_WP:	0.102	Y_WP:	0.082	Y_WP:	0.500	X:	0.163	Y:	0.069	Z:	0.401	yaw:	169.909	yaw rate:	-1.426	Roll:	-2.960	Pitch:	-0.575	Yaw:	240.244	Thrust:	82.126
Time:	9.330	Roll Set Point:	-0.101	Pitch Set Point:	-0.072	Yaw Set Point:	-2.965	X_WP:	0.103	Y_WP:	0.083	Y_WP:	0.500	X:	0.163	Y:	0.069	Z:	0.401	yaw:	169.908	yaw rate:	-0.186	Roll:	-2.951	Pitch:	-0.527	Yaw:	240.346	Thrust:	82.434
Time:	9.362	Roll Set Point:	-0.101	Pitch Set Point:	-0.072	Yaw Set Point:	-2.965	X_WP:	0.103	Y_WP:	0.083	Y_WP:	0.500	X:	0.163	Y:	0.069	Z:	0.401	yaw:	169.911	yaw rate:	0.297	Roll:	-2.975	Pitch:	-0.929	Yaw:	240.400	Thrust:	83.121
Time:	9.393	Roll Set Point:	-0.101	Pitch Set Point:	-0.074	Yaw Set Point:	-2.966	X_WP:	0.103	Y_WP:	0.084	Y_WP:	0.500	X:	0.163	Y:	0.068	Z:	0.401	yaw:	169.919	yaw rate:	-0.957	Roll:	-2.921	Pitch:	-0.289	Yaw:	240.450	Thrust:	83.247
Time:	9.424	Roll Set Point:	-0.101	Pitch Set Point:	-0.074	Yaw Set Point:	-2.966	X_WP:	0.103	Y_WP:	0.085	Y_WP:	0.500	X:	0.163	Y:	0.069	Z:	0.401	yaw:	169.914	yaw rate:	0.603	Roll:	-2.947	Pitch:	-0.692	Yaw:	240.324	Thrust:	83.572
Time:	9.456	Roll Set Point:	-0.101	Pitch Set Point:	-0.075	Yaw Set Point:	-2.966	X_WP:	0.103	Y_WP:	0.086	Y_WP:	0.500	X:	0.163	Y:	0.068	Z:	0.401	yaw:	169.929	yaw rate:	1.555	Roll:	-2.930	Pitch:	-0.598	Yaw:	240.522	Thrust:	84.013
Time:	9.487	Roll Set Point:	-0.101	Pitch Set Point:	-0.076	Yaw Set Point:	-2.966	X_WP:	0.103	Y_WP:	0.086	Y_WP:	0.500	X:	0.163	Y:	0.069	Z:	0.401	yaw:	169.934	yaw rate:	2.059	Roll:	-2.944	Pitch:	-0.699	Yaw:	240.443	Thrust:	84.378
Time:	9.518	Roll Set Point:	-0.101	Pitch Set Point:	-0.076	Yaw Set Point:	-2.966	X_WP:	0.104	Y_WP:	0.087	Y_WP:	0.500	X:	0.163	Y:	0.069	Z:	0.401	yaw:	169.923	yaw rate:	-1.115	Roll:	-2.930	Pitch:	-0.636	Yaw:	240.287	Thrust:	84.626
Time:	9.549	Roll Set Point:	-0.101	Pitch Set Point:	-0.077	Yaw Set Point:	-2.966	X_WP:	0.104	Y_WP:	0.087	Y_WP:	0.500	X:	0.163	Y:	0.069	Z:	0.401	yaw:	169.917	yaw rate:	-0.742	Roll:	-2.921	Pitch:	-0.576	Yaw:	240.324	Thrust:	85.026
Time:	9.581	Roll Set Point:	-0.101	Pitch Set Point:	-0.077	Yaw Set Point:	-2.966	X_WP:	0.104	Y_WP:	0.088	Y_WP:	0.500	X:	0.163	Y:	0.069	Z:	0.401	yaw:	169.917	yaw rate:	-1.969	Roll:	-2.936	Pitch:	-0.715	Yaw:	240.371	Thrust:	85.517
Time:	9.612	Roll Set Point:	-0.101	Pitch Set Point:	-0.077	Yaw Set Point:	-2.966	X_WP:	0.104	Y_WP:	0.088	Y_WP:	0.500	X:	0.163	Y:	0.069	Z:	0.401	yaw:	169.917	yaw rate:	-0.022	Roll:	-2.933	Pitch:	-0.702	Yaw:	240.372	Thrust:	85.831
Time:	9.655	Roll Set Point:	-0.102	Pitch Set Point:	-0.078	Yaw Set Point:	-2.966	X_WP:	0.104	Y_WP:	0.089	Y_WP:	0.500	X:	0.163	Y:	0.069	Z:	0.401	yaw:	169.933	yaw rate:	2.754	Roll:	-3.361	Pitch:	-0.931	Yaw:	241.736	Thrust:	100.000
Time:	9.687	Roll Set Point:	-0.102	Pitch Set Point:	-0.079	Yaw Set Point:	-2.965	X_WP:	0.105	Y_WP:	0.090	Y_WP:	0.500	X:	0.163	Y:	0.069	Z:	0.401	yaw:	169.903	yaw rate:	-3.798	Roll:	-2.899	Pitch:	-0.524	Yaw:	240.107	Thrust:	86.540
Time:	9.718	Roll Set Point:	-0.102	Pitch Set Point:	-0.080	Yaw Set Point:	-2.966	X_WP:	0.105	Y_WP:	0.090	Y_WP:	0.500	X:	0.163	Y:	0.068	Z:	0.401	yaw:	169.918	yaw rate:	-2.317	Roll:	-2.891	Pitch:	-0.498	Yaw:	240.506	Thrust:	86.915
Time:	9.749	Roll Set Point:	-0.102	Pitch Set Point:	-0.080	Yaw Set Point:	-2.966	X_WP:	0.105	Y_WP:	0.091	Y_WP:	0.500	X:	0.163	Y:	0.069	Z:	0.401	yaw:	169.956	yaw rate:	3.788	Roll:	-2.904	Pitch:	-0.616	Yaw:	240.749	Thrust:	87.504
Time:	9.781	Roll Set Point:	-0.102	Pitch Set Point:	-0.081	Yaw Set Point:	-2.966	X_WP:	0.105	Y_WP:	0.092	Y_WP:	0.500	X:	0.163	Y:	0.068	Z:	0.401	yaw:	169.938	yaw rate:	2.847	Roll:	-2.849	Pitch:	-0.295	Yaw:	240.251	Thrust:	87.513
Time:	9.812	Roll Set Point:	-0.102	Pitch Set Point:	-0.082	Yaw Set Point:	-2.966	X_WP:	0.106	Y_WP:	0.092	Y_WP:	0.500	X:	0.163	Y:	0.069	Z:	0.401	yaw:	169.911	yaw rate:	-1.436	Roll:	-2.839	Pitch:	-0.293	Yaw:	240.134	Thrust:	87.989
Time:	9.843	Roll Set Point:	-0.102	Pitch Set Point:	-0.082	Yaw Set Point:	-2.966	X_WP:	0.106	Y_WP:	0.093	Y_WP:	0.500	X:	0.163	Y:	0.069	Z:	0.401	yaw:	169.922	yaw rate:	-0.261	Roll:	-2.871	Pitch:	-0.473	Yaw:	240.475	Thrust:	88.462
Time:	9.890	Roll Set Point:	-0.103	Pitch Set Point:	-0.084	Yaw Set Point:	-2.966	X_WP:	0.106	Y_WP:	0.094	Y_WP:	0.500	X:	0.163	Y:	0.069	Z:	0.401	yaw:	169.922	yaw rate:	-0.037	Roll:	-3.381	Pitch:	-0.755	Yaw:	241.941	Thrust:	100.000
Time:	9.921	Roll Set Point:	-0.103	Pitch Set Point:	-0.086	Yaw Set Point:	-2.966	X_WP:	0.107	Y_WP:	0.096	Y_WP:	0.500	X:	0.163	Y:	0.069	Z:	0.401	yaw:	169.931	yaw rate:	0.502	Roll:	-2.593	Pitch:	0.498	Yaw:	240.477	Thrust:	89.150
Time:	9.952	Roll Set Point:	-0.104	Pitch Set Point:	-0.087	Yaw Set Point:	-2.966	X_WP:	0.108	Y_WP:	0.097	Y_WP:	0.500	X:	0.163	Y:	0.069	Z:	0.401	yaw:	169.945	yaw rate:	1.366	Roll:	-2.708	Pitch:	0.014	Yaw:	240.528	Thrust:	89.503
Time:	9.984	Roll Set Point:	-0.104	Pitch Set Point:	-0.089	Yaw Set Point:	-2.967	X_WP:	0.109	Y_WP:	0.099	Y_WP:	0.500	X:	0.163	Y:	0.068	Z:	0.401	yaw:	170.020	yaw rate:	0.847	Roll:	-2.588	Pitch:	0.324	Yaw:	241.149	Thrust:	89.963
Time:	10.015	Roll Set Point:	-0.104	Pitch Set Point:	-0.085	Yaw Set Point:	-2.956	X_WP:	0.109	Y_WP:	0.096	Y_WP:	0.500	X:	0.162	Y:	0.065	Z:	0.405	yaw:	169.374	yaw rate:	-64.600	Roll:	-2.282	Pitch:	-0.558	Yaw:	234.205	Thrust:	85.279
Time:	10.046	Roll Set Point:	-0.104	Pitch Set Point:	-0.088	Yaw Set Point:	-2.956	X_WP:	0.109	Y_WP:	0.098	Y_WP:	0.500	X:	0.162	Y:	0.065	Z:	0.405	yaw:	169.390	yaw rate:	-2.127	Roll:	-2.933	Pitch:	0.840	Yaw:	239.766	Thrust:	90.390
Time:	10.077	Roll Set Point:	-0.104	Pitch Set Point:	-0.090	Yaw Set Point:	-2.957	X_WP:	0.110	Y_WP:	0.100	Y_WP:	0.500	X:	0.162	Y:	0.065	Z:	0.405	yaw:	169.404	yaw rate:	1.464	Roll:	-2.438	Pitch:	0.525	Yaw:	239.781	Thrust:	90.808
Time:	10.109	Roll Set Point:	-0.105	Pitch Set Point:	-0.091	Yaw Set Point:	-2.956	X_WP:	0.111	Y_WP:	0.101	Y_WP:	0.500	X:	0.162	Y:	0.065	Z:	0.405	yaw:	169.394	yaw rate:	-0.804	Roll:	-2.490	Pitch:	0.338	Yaw:	239.559	Thrust:	91.205
Time:	10.140	Roll Set Point:	-0.106	Pitch Set Point:	-0.092	Yaw Set Point:	-2.957	X_WP:	0.112	Y_WP:	0.102	Y_WP:	0.500	X:	0.162	Y:	0.065	Z:	0.405	yaw:	169.401	yaw rate:	0.696	Roll:	-2.444	Pitch:	0.398	Yaw:	239.713	Thrust:	91.419
Time:	10.187	Roll Set Point:	-0.107	Pitch Set Point:	-0.095	Yaw Set Point:	-2.956	X_WP:	0.113	Y_WP:	0.104	Y_WP:	0.500	X:	0.162	Y:	0.065	Z:	0.405	yaw:	169.385	yaw rate:	-1.648	Roll:	-2.933	Pitch:	-0.042	Yaw:	241.101	Thrust:	100.000
Time:	10.217	Roll Set Point:	-0.108	Pitch Set Point:	-0.096	Yaw Set Point:	-2.957	X_WP:	0.115	Y_WP:	0.106	Y_WP:	0.500	X:	0.162	Y:	0.065	Z:	0.405	yaw:	169.427	yaw rate:	2.996	Roll:	-2.107	Pitch:	0.852	Yaw:	239.934	Thrust:	88.610
Time:	10.246	Roll Set Point:	-0.109	Pitch Set Point:	-0.098	Yaw Set Point:	-2.957	X_WP:	0.116	Y_WP:	0.107	Y_WP:	0.500	X:	0.162	Y:	0.065	Z:	0.405	yaw:	169.414	yaw rate:	3.073	Roll:	-2.037	Pitch:	0.877	Yaw:	239.371	Thrust:	87.614
Time:	10.282	Roll Set Point:	-0.110	Pitch Set Point:	-0.100	Yaw Set Point:	-2.956	X_WP:	0.117	Y_WP:	0.109	Y_WP:	0.500	X:	0.162	Y:	0.065	Z:	0.405	yaw:	169.386	yaw rate:	4.455	Roll:	-2.359	Pitch:	0.454	Yaw:	239.904	Thrust:	100.000
Time:	10.313	Roll Set Point:	-0.111	Pitch Set Point:	-0.102	Yaw Set Point:	-2.956	X_WP:	0.119	Y_WP:	0.110	Y_WP:	0.500	X:	0.162	Y:	0.065	Z:	0.405	yaw:	169.390	yaw rate:	0.422	Roll:	-1.929	Pitch:	0.952	Yaw:	239.674	Thrust:	93.246
Time:	10.343	Roll Set Point:	-0.112	Pitch Set Point:	-0.102	Yaw Set Point:	-2.957	X_WP:	0.120	Y_WP:	0.111	Y_WP:	0.500	X:	0.162	Y:	0.065	Z:	0.405	yaw:	169.398	yaw rate:	0.797	Roll:	-2.271	Pitch:	0.404	Yaw:	239.566	Thrust:	89.305
Time:	10.376	Roll Set Point:	-0.113	Pitch Set Point:	-0.104	Yaw Set Point:	-2.957	X_WP:	0.121	Y_WP:	0.112	Y_WP:	0.500	X:	0.162	Y:	0.065	Z:	0.405	yaw:	169.402	yaw rate:	0.368	Roll:	-2.164	Pitch:	0.575	Yaw:	239.888	Thrust:	99.796
Time:	10.408	Roll Set Point:	-0.114	Pitch Set Point:	-0.105	Yaw Set Point:	-2.957	X_WP:	0.122	Y_WP:	0.113	Y_WP:	0.500	X:	0.162	Y:	0.065	Z:	0.405	yaw:	169.406	yaw rate:	1.430	Roll:	-1.945	Pitch:	0.795	Yaw:	239.711	Thrust:	94.830
Time:	10.439	Roll Set Point:	-0.114	Pitch Set Point:	-0.105	Yaw Set Point:	-2.957	X_WP:	0.123	Y_WP:	0.114	Y_WP:	0.500	X:	0.162	Y:	0.065	Z:	0.405	yaw:	169.395	yaw rate:	-1.079	Roll:	-2.306	Pitch:	0.335	Yaw:	239.509	Thrust:	93.446
Time:	10.470	Roll Set Point:	-0.115	Pitch Set Point:	-0.107	Yaw Set Point:	-2.957	X_WP:	0.124	Y_WP:	0.114	Y_WP:	0.500	X:	0.162	Y:	0.065	Z:	0.405	yaw:	169.418	yaw rate:	-2.157	Roll:	-2.008	Pitch:	0.673	Yaw:	239.873	Thrust:	95.020
Time:	10.501	Roll Set Point:	-0.116	Pitch Set Point:	-0.107	Yaw Set Point:	-2.957	X_WP:	0.124	Y_WP:	0.115	Y_WP:	0.500	X:	0.162	Y:	0.065	Z:	0.405	yaw:	169.398	yaw rate:	-2.074	Roll:	-2.254	Pitch:	0.383	Yaw:	239.475	Thrust:	95.482
Time:	10.532	Roll Set Point:	-0.116	Pitch Set Point:	-0.108	Yaw Set Point:	-2.956	X_WP:	0.125	Y_WP:	0.115	Y_WP:	0.500	X:	0.162	Y:	0.065	Z:	0.405	yaw:	169.393	yaw rate:	-2.546	Roll:	-2.102	Pitch:	0.545	Yaw:	239.604	Thrust:	95.732
Time:	10.564	Roll Set Point:	-0.117	Pitch Set Point:	-0.108	Yaw Set Point:	-2.957	X_WP:	0.126	Y_WP:	0.116	Y_WP:	0.500	X:	0.162	Y:	0.065	Z:	0.405	yaw:	169.407	yaw rate:	0.954	Roll:	-2.176	Pitch:	0.457	Yaw:	239.781	Thrust:	96.148
Time:	10.595	Roll Set Point:	-0.117	Pitch Set Point:	-0.109	Yaw Set Point:	-2.957	X_WP:	0.126	Y_WP:	0.116	Y_WP:	0.500	X:	0.162	Y:	0.065	Z:	0.405	yaw:	169.399	yaw rate:	-0.832	Roll:	-2.282	Pitch:	0.346	Yaw:	239.584	Thrust:	96.677
Time:	10.626	Roll Set Point:	-0.118	Pitch Set Point:	-0.109	Yaw Set Point:	-2.957	X_WP:	0.127	Y_WP:	0.116	Y_WP:	0.500	X:	0.162	Y:	0.065	Z:	0.405	yaw:	169.414	yaw rate:	1.479	Roll:	-2.268	Pitch:	0.360	Yaw:	239.793	Thrust:	96.784
Time:	10.657	Roll Set Point:	-0.118	Pitch Set Point:	-0.111	Yaw Set Point:	-2.931	X_WP:	0.128	Y_WP:	0.120	Y_WP:	0.500	X:	0.163	Y:	0.068	Z:	0.402	yaw:	167.939	yaw rate:	-5.704	Roll:	-2.831	Pitch:	-0.207	Yaw:	225.262	Thrust:	100.000
Time:	10.689	Roll Set Point:	-0.118	Pitch Set Point:	-0.112	Yaw Set Point:	-2.931	X_WP:	0.129	Y_WP:	0.120	Y_WP:	0.500	X:	0.163	Y:	0.068	Z:	0.402	yaw:	167.941	yaw rate:	0.198	Roll:	-2.279	Pitch:	0.358	Yaw:	237.632	Thrust:	97.798
Time:	10.720	Roll Set Point:	-0.119	Pitch Set Point:	-0.112	Yaw Set Point:	-2.931	X_WP:	0.129	Y_WP:	0.120	Y_WP:	0.500	X:	0.163	Y:	0.068	Z:	0.402	yaw:	167.924	yaw rate:	-1.742	Roll:	-2.329	Pitch:	0.312	Yaw:	237.445	Thrust:	98.072
Time:	10.751	Roll Set Point:	-0.119	Pitch Set Point:	-0.112	Yaw Set Point:	-2.931	X_WP:	0.129	Y_WP:	0.120	Y_WP:	0.500	X:	0.163	Y:	0.068	Z:	0.402	yaw:	167.925	yaw rate:	0.127	Roll:	-2.346	Pitch:	0.294	Yaw:	237.604	Thrust:	98.456
Time:	10.783	Roll Set Point:	-0.119	Pitch Set Point:	-0.112	Yaw Set Point:	-2.930	X_WP:	0.129	Y_WP:	0.120	Y_WP:	0.500	X:	0.163	Y:	0.068	Z:	0.402	yaw:	167.895	yaw rate:	-2.994	Roll:	-2.404	Pitch:	0.241	Yaw:	237.304	Thrust:	98.960
Time:	10.814	Roll Set Point:	-0.119	Pitch Set Point:	-0.112	Yaw Set Point:	-2.930	X_WP:	0.129	Y_WP:	0.120	Y_WP:	0.500	X:	0.163	Y:	0.068	Z:	0.402	yaw:	167.902	yaw rate:	0.665	Roll:	-2.386	Pitch:	0.260	Yaw:	237.614	Thrust:	99.046
Time:	10.845	Roll Set Point:	-0.119	Pitch Set Point:	-0.112	Yaw Set Point:	-2.931	X_WP:	0.129	Y_WP:	0.120	Y_WP:	0.500	X:	0.163	Y:	0.068	Z:	0.402	yaw:	167.911	yaw rate:	0.931	Roll:	-2.414	Pitch:	0.236	Yaw:	237.654	Thrust:	99.688
Time:	10.876	Roll Set Point:	-0.119	Pitch Set Point:	-0.112	Yaw Set Point:	-2.931	X_WP:	0.129	Y_WP:	0.120	Y_WP:	0.500	X:	0.163	Y:	0.068	Z:	0.402	yaw:	167.913	yaw rate:	-0.163	Roll:	-2.427	Pitch:	0.228	Yaw:	237.590	Thrust:	99.784
Time:	10.907	Roll Set Point:	-0.119	Pitch Set Point:	-0.112	Yaw Set Point:	-2.931	X_WP:	0.129	Y_WP:	0.120	Y_WP:	0.500	X:	0.163	Y:	0.068	Z:	0.402	yaw:	167.910	yaw rate:	-2.318	Roll:	-2.438	Pitch:	0.220	Yaw:	237.542	Thrust:	100.000
Time:	10.939	Roll Set Point:	-0.119	Pitch Set Point:	-0.112	Yaw Set Point:	-2.931	X_WP:	0.129	Y_WP:	0.120	Y_WP:	0.500	X:	0.163	Y:	0.068	Z:	0.402	yaw:	167.929	yaw rate:	1.886	Roll:	-2.416	Pitch:	0.244	Yaw:	237.756	Thrust:	100.000
Time:	10.970	Roll Set Point:	-0.119	Pitch Set Point:	-0.112	Yaw Set Point:	-2.931	X_WP:	0.129	Y_WP:	0.120	Y_WP:	0.500	X:	0.163	Y:	0.068	Z:	0.402	yaw:	167.913	yaw rate:	-3.194	Roll:	-2.437	Pitch:	0.227	Yaw:	237.441	Thrust:	100.000
Time:	11.001	Roll Set Point:	-0.119	Pitch Set Point:	-0.112	Yaw Set Point:	-2.931	X_WP:	0.129	Y_WP:	0.120	Y_WP:	0.500	X:	0.163	Y:	0.068	Z:	0.402	yaw:	167.923	yaw rate:	1.030	Roll:	-2.427	Pitch:	0.243	Yaw:	237.676	Thrust:	100.000
