Time:	2.058	Roll Set Point:	-0.011	Pitch Set Point:	-0.039	Yaw Set Point:	-0.165	X_WP:	0.000	Y_WP:	0.000	Y_WP:	0.500	X:	0.004	Y:	0.020	Z:	0.050	yaw:	9.477	yaw rate:	-1.636	Roll:	0.213	Pitch:	0.551	Yaw:	13.232	Thrust:	24.751
Time:	2.069	Roll Set Point:	-0.011	Pitch Set Point:	-0.039	Yaw Set Point:	-0.166	X_WP:	0.000	Y_WP:	0.000	Y_WP:	0.500	X:	0.004	Y:	0.020	Z:	0.050	yaw:	9.499	yaw rate:	2.235	Roll:	0.239	Pitch:	0.531	Yaw:	13.829	Thrust:	25.264
Time:	2.080	Roll Set Point:	-0.011	Pitch Set Point:	-0.039	Yaw Set Point:	-0.166	X_WP:	0.000	Y_WP:	0.000	Y_WP:	0.500	X:	0.004	Y:	0.020	Z:	0.050	yaw:	9.506	yaw rate:	0.705	Roll:	0.205	Pitch:	0.546	Yaw:	13.514	Thrust:	25.892
Time:	2.091	Roll Set Point:	-0.012	Pitch Set Point:	-0.039	Yaw Set Point:	-0.166	X_WP:	0.000	Y_WP:	0.000	Y_WP:	0.500	X:	0.004	Y:	0.020	Z:	0.050	yaw:	9.532	yaw rate:	2.546	Roll:	0.291	Pitch:	0.549	Yaw:	14.023	Thrust:	26.646
Time:	2.102	Roll Set Point:	-0.011	Pitch Set Point:	-0.039	Yaw Set Point:	-0.164	X_WP:	0.000	Y_WP:	0.000	Y_WP:	0.500	X:	0.004	Y:	0.020	Z:	0.050	yaw:	9.400	yaw rate:	-13.136	Roll:	-0.229	Pitch:	0.518	Yaw:	10.154	Thrust:	27.271
Time:	2.113	Roll Set Point:	-0.011	Pitch Set Point:	-0.039	Yaw Set Point:	-0.160	X_WP:	0.000	Y_WP:	0.000	Y_WP:	0.500	X:	0.004	Y:	0.020	Z:	0.050	yaw:	9.161	yaw rate:	-23.913	Roll:	0.341	Pitch:	0.447	Yaw:	7.298	Thrust:	27.862
Time:	2.124	Roll Set Point:	-0.011	Pitch Set Point:	-0.039	Yaw Set Point:	-0.164	X_WP:	0.000	Y_WP:	0.000	Y_WP:	0.500	X:	0.004	Y:	0.020	Z:	0.050	yaw:	9.369	yaw rate:	20.795	Roll:	0.296	Pitch:	0.645	Yaw:	18.236	Thrust:	28.290
Time:	2.135	Roll Set Point:	-0.012	Pitch Set Point:	-0.039	Yaw Set Point:	-0.164	X_WP:	0.000	Y_WP:	0.000	Y_WP:	0.500	X:	0.004	Y:	0.020	Z:	0.050	yaw:	9.401	yaw rate:	3.141	Roll:	0.397	Pitch:	0.624	Yaw:	14.125	Thrust:	28.516
Time:	2.146	Roll Set Point:	-0.011	Pitch Set Point:	-0.039	Yaw Set Point:	-0.159	X_WP:	0.000	Y_WP:	0.000	Y_WP:	0.500	X:	0.004	Y:	0.020	Z:	0.050	yaw:	9.086	yaw rate:	-31.500	Roll:	-0.344	Pitch:	0.554	Yaw:	5.499	Thrust:	28.915
Time:	2.157	Roll Set Point:	-0.011	Pitch Set Point:	-0.039	Yaw Set Point:	-0.164	X_WP:	0.000	Y_WP:	0.000	Y_WP:	0.500	X:	0.004	Y:	0.020	Z:	0.050	yaw:	9.387	yaw rate:	30.185	Roll:	0.504	Pitch:	0.445	Yaw:	20.597	Thrust:	30.686
Time:	2.168	Roll Set Point:	-0.011	Pitch Set Point:	-0.039	Yaw Set Point:	-0.161	X_WP:	0.000	Y_WP:	0.000	Y_WP:	0.500	X:	0.004	Y:	0.020	Z:	0.050	yaw:	9.239	yaw rate:	-14.873	Roll:	0.096	Pitch:	0.650	Yaw:	9.897	Thrust:	30.777
Time:	2.180	Roll Set Point:	-0.011	Pitch Set Point:	-0.039	Yaw Set Point:	-0.160	X_WP:	0.000	Y_WP:	0.000	Y_WP:	0.500	X:	0.004	Y:	0.020	Z:	0.050	yaw:	9.183	yaw rate:	-5.524	Roll:	0.153	Pitch:	0.571	Yaw:	11.914	Thrust:	31.158
Time:	2.191	Roll Set Point:	-0.011	Pitch Set Point:	-0.039	Yaw Set Point:	-0.163	X_WP:	0.000	Y_WP:	0.000	Y_WP:	0.500	X:	0.004	Y:	0.020	Z:	0.050	yaw:	9.326	yaw rate:	14.212	Roll:	0.350	Pitch:	0.536	Yaw:	16.836	Thrust:	32.011
Time:	2.202	Roll Set Point:	-0.011	Pitch Set Point:	-0.039	Yaw Set Point:	-0.159	X_WP:	0.000	Y_WP:	0.000	Y_WP:	0.500	X:	0.004	Y:	0.020	Z:	0.050	yaw:	9.134	yaw rate:	-19.125	Roll:	0.256	Pitch:	0.878	Yaw:	8.682	Thrust:	33.739
Time:	2.213	Roll Set Point:	-0.011	Pitch Set Point:	-0.039	Yaw Set Point:	-0.161	X_WP:	0.000	Y_WP:	0.000	Y_WP:	0.500	X:	0.004	Y:	0.020	Z:	0.050	yaw:	9.235	yaw rate:	10.032	Roll:	-0.035	Pitch:	0.337	Yaw:	15.778	Thrust:	32.048
Time:	2.225	Roll Set Point:	-0.011	Pitch Set Point:	-0.039	Yaw Set Point:	-0.158	X_WP:	0.000	Y_WP:	0.000	Y_WP:	0.500	X:	0.004	Y:	0.020	Z:	0.050	yaw:	9.053	yaw rate:	-18.155	Roll:	0.082	Pitch:	0.459	Yaw:	9.277	Thrust:	34.546
Time:	2.236	Roll Set Point:	-0.011	Pitch Set Point:	-0.039	Yaw Set Point:	-0.166	X_WP:	0.000	Y_WP:	0.000	Y_WP:	0.500	X:	0.004	Y:	0.020	Z:	0.050	yaw:	9.489	yaw rate:	43.562	Roll:	0.787	Pitch:	0.572	Yaw:	24.162	Thrust:	35.212
Time:	2.247	Roll Set Point:	-0.012	Pitch Set Point:	-0.039	Yaw Set Point:	-0.169	X_WP:	0.000	Y_WP:	0.000	Y_WP:	0.500	X:	0.004	Y:	0.020	Z:	0.050	yaw:	9.695	yaw rate:	20.681	Roll:	0.422	Pitch:	0.334	Yaw:	19.056	Thrust:	33.977
Time:	2.258	Roll Set Point:	-0.011	Pitch Set Point:	-0.039	Yaw Set Point:	-0.161	X_WP:	0.000	Y_WP:	0.000	Y_WP:	0.500	X:	0.004	Y:	0.020	Z:	0.050	yaw:	9.206	yaw rate:	-48.989	Roll:	-0.317	Pitch:	0.745	Yaw:	1.873	Thrust:	36.040
Time:	2.269	Roll Set Point:	-0.011	Pitch Set Point:	-0.039	Yaw Set Point:	-0.165	X_WP:	0.000	Y_WP:	0.000	Y_WP:	0.500	X:	0.004	Y:	0.020	Z:	0.050	yaw:	9.474	yaw rate:	26.829	Roll:	0.466	Pitch:	0.587	Yaw:	20.279	Thrust:	35.568
Time:	2.280	Roll Set Point:	-0.011	Pitch Set Point:	-0.039	Yaw Set Point:	-0.160	X_WP:	0.000	Y_WP:	0.000	Y_WP:	0.500	X:	0.004	Y:	0.020	Z:	0.050	yaw:	9.169	yaw rate:	-30.472	Roll:	-0.016	Pitch:	0.571	Yaw:	6.289	Thrust:	36.811
Time:	2.291	Roll Set Point:	-0.011	Pitch Set Point:	-0.039	Yaw Set Point:	-0.165	X_WP:	0.000	Y_WP:	0.000	Y_WP:	0.500	X:	0.004	Y:	0.020	Z:	0.050	yaw:	9.439	yaw rate:	26.957	Roll:	0.439	Pitch:	0.368	Yaw:	20.332	Thrust:	37.836
Time:	2.302	Roll Set Point:	-0.011	Pitch Set Point:	-0.039	Yaw Set Point:	-0.164	X_WP:	0.000	Y_WP:	0.000	Y_WP:	0.500	X:	0.004	Y:	0.020	Z:	0.050	yaw:	9.398	yaw rate:	-4.037	Roll:	0.037	Pitch:	0.567	Yaw:	12.955	Thrust:	36.909
Time:	2.313	Roll Set Point:	-0.011	Pitch Set Point:	-0.039	Yaw Set Point:	-0.156	X_WP:	0.000	Y_WP:	0.000	Y_WP:	0.500	X:	0.004	Y:	0.020	Z:	0.050	yaw:	8.953	yaw rate:	-44.557	Roll:	-0.038	Pitch:	0.577	Yaw:	2.751	Thrust:	38.358
Time:	2.324	Roll Set Point:	-0.011	Pitch Set Point:	-0.039	Yaw Set Point:	-0.156	X_WP:	0.000	Y_WP:	0.000	Y_WP:	0.500	X:	0.004	Y:	0.020	Z:	0.050	yaw:	8.963	yaw rate:	1.001	Roll:	0.276	Pitch:	1.094	Yaw:	13.614	Thrust:	40.588
Time:	2.335	Roll Set Point:	-0.011	Pitch Set Point:	-0.039	Yaw Set Point:	-0.163	X_WP:	0.000	Y_WP:	0.000	Y_WP:	0.500	X:	0.004	Y:	0.020	Z:	0.050	yaw:	9.330	yaw rate:	36.677	Roll:	0.301	Pitch:	-0.035	Yaw:	22.628	Thrust:	39.167
Time:	2.346	Roll Set Point:	-0.011	Pitch Set Point:	-0.039	Yaw Set Point:	-0.162	X_WP:	0.000	Y_WP:	0.000	Y_WP:	0.500	X:	0.004	Y:	0.020	Z:	0.050	yaw:	9.292	yaw rate:	-3.706	Roll:	0.144	Pitch:	0.559	Yaw:	13.027	Thrust:	40.057
Time:	2.357	Roll Set Point:	-0.011	Pitch Set Point:	-0.039	Yaw Set Point:	-0.163	X_WP:	0.000	Y_WP:	0.000	Y_WP:	0.500	X:	0.004	Y:	0.020	Z:	0.050	yaw:	9.334	yaw rate:	4.104	Roll:	0.387	Pitch:	0.726	Yaw:	14.974	Thrust:	40.422
Time:	2.369	Roll Set Point:	-0.011	Pitch Set Point:	-0.039	Yaw Set Point:	-0.168	X_WP:	0.000	Y_WP:	0.000	Y_WP:	0.500	X:	0.004	Y:	0.020	Z:	0.050	yaw:	9.599	yaw rate:	26.591	Roll:	0.481	Pitch:	0.474	Yaw:	20.285	Thrust:	42.668
Time:	2.380	Roll Set Point:	-0.011	Pitch Set Point:	-0.039	Yaw Set Point:	-0.161	X_WP:	0.000	Y_WP:	0.000	Y_WP:	0.500	X:	0.004	Y:	0.020	Z:	0.050	yaw:	9.198	yaw rate:	-40.182	Roll:	-0.178	Pitch:	0.635	Yaw:	4.346	Thrust:	42.178
Time:	2.391	Roll Set Point:	-0.011	Pitch Set Point:	-0.039	Yaw Set Point:	-0.159	X_WP:	0.000	Y_WP:	0.000	Y_WP:	0.500	X:	0.004	Y:	0.020	Z:	0.050	yaw:	9.083	yaw rate:	-11.504	Roll:	0.049	Pitch:	0.739	Yaw:	11.027	Thrust:	44.503
Time:	2.402	Roll Set Point:	-0.011	Pitch Set Point:	-0.039	Yaw Set Point:	-0.166	X_WP:	0.000	Y_WP:	0.000	Y_WP:	0.500	X:	0.004	Y:	0.020	Z:	0.050	yaw:	9.514	yaw rate:	43.139	Roll:	0.669	Pitch:	0.336	Yaw:	24.627	Thrust:	41.430
Time:	2.413	Roll Set Point:	-0.011	Pitch Set Point:	-0.038	Yaw Set Point:	-0.164	X_WP:	0.000	Y_WP:	0.000	Y_WP:	0.500	X:	0.004	Y:	0.020	Z:	0.050	yaw:	9.411	yaw rate:	-10.295	Roll:	-0.038	Pitch:	0.383	Yaw:	11.800	Thrust:	44.107
Time:	2.424	Roll Set Point:	-0.011	Pitch Set Point:	-0.039	Yaw Set Point:	-0.152	X_WP:	0.000	Y_WP:	0.000	Y_WP:	0.500	X:	0.004	Y:	0.020	Z:	0.050	yaw:	8.719	yaw rate:	-69.177	Roll:	-0.363	Pitch:	1.052	Yaw:	-3.142	Thrust:	44.521
Time:	2.435	Roll Set Point:	-0.011	Pitch Set Point:	-0.039	Yaw Set Point:	-0.164	X_WP:	0.000	Y_WP:	0.000	Y_WP:	0.500	X:	0.004	Y:	0.020	Z:	0.050	yaw:	9.401	yaw rate:	68.125	Roll:	0.717	Pitch:	0.259	Yaw:	30.401	Thrust:	44.956
Time:	2.446	Roll Set Point:	-0.011	Pitch Set Point:	-0.039	Yaw Set Point:	-0.164	X_WP:	0.000	Y_WP:	0.000	Y_WP:	0.500	X:	0.004	Y:	0.020	Z:	0.050	yaw:	9.420	yaw rate:	1.982	Roll:	0.052	Pitch:	0.518	Yaw:	14.727	Thrust:	45.189
Time:	2.457	Roll Set Point:	-0.011	Pitch Set Point:	-0.039	Yaw Set Point:	-0.164	X_WP:	0.000	Y_WP:	0.000	Y_WP:	0.500	X:	0.004	Y:	0.020	Z:	0.050	yaw:	9.423	yaw rate:	0.224	Roll:	0.493	Pitch:	0.735	Yaw:	14.315	Thrust:	46.312
Time:	2.468	Roll Set Point:	-0.011	Pitch Set Point:	-0.039	Yaw Set Point:	-0.168	X_WP:	0.000	Y_WP:	0.000	Y_WP:	0.500	X:	0.004	Y:	0.020	Z:	0.050	yaw:	9.620	yaw rate:	19.749	Roll:	0.416	Pitch:	0.501	Yaw:	19.232	Thrust:	46.909
Time:	2.480	Roll Set Point:	-0.011	Pitch Set Point:	-0.038	Yaw Set Point:	-0.164	X_WP:	0.000	Y_WP:	0.000	Y_WP:	0.500	X:	0.004	Y:	0.020	Z:	0.050	yaw:	9.376	yaw rate:	-24.437	Roll:	-0.184	Pitch:	0.336	Yaw:	8.941	Thrust:	49.651
Time:	2.491	Roll Set Point:	-0.011	Pitch Set Point:	-0.039	Yaw Set Point:	-0.163	X_WP:	0.000	Y_WP:	0.000	Y_WP:	0.500	X:	0.004	Y:	0.020	Z:	0.050	yaw:	9.364	yaw rate:	-1.144	Roll:	0.337	Pitch:	0.811	Yaw:	13.927	Thrust:	47.529
Time:	2.502	Roll Set Point:	-0.011	Pitch Set Point:	-0.039	Yaw Set Point:	-0.159	X_WP:	0.000	Y_WP:	0.000	Y_WP:	0.500	X:	0.004	Y:	0.020	Z:	0.050	yaw:	9.101	yaw rate:	-26.304	Roll:	-0.041	Pitch:	0.898	Yaw:	7.550	Thrust:	49.180
Time:	2.514	Roll Set Point:	-0.011	Pitch Set Point:	-0.038	Yaw Set Point:	-0.161	X_WP:	0.000	Y_WP:	0.000	Y_WP:	0.500	X:	0.004	Y:	0.020	Z:	0.050	yaw:	9.247	yaw rate:	14.617	Roll:	0.166	Pitch:	0.059	Yaw:	17.473	Thrust:	48.552
Time:	2.525	Roll Set Point:	-0.011	Pitch Set Point:	-0.039	Yaw Set Point:	-0.168	X_WP:	0.000	Y_WP:	0.000	Y_WP:	0.500	X:	0.004	Y:	0.020	Z:	0.050	yaw:	9.627	yaw rate:	37.928	Roll:	0.524	Pitch:	0.593	Yaw:	23.548	Thrust:	50.903
Time:	2.536	Roll Set Point:	-0.011	Pitch Set Point:	-0.039	Yaw Set Point:	-0.168	X_WP:	0.000	Y_WP:	0.000	Y_WP:	0.500	X:	0.004	Y:	0.020	Z:	0.050	yaw:	9.598	yaw rate:	-2.909	Roll:	0.180	Pitch:	0.756	Yaw:	13.817	Thrust:	49.214
Time:	2.547	Roll Set Point:	-0.011	Pitch Set Point:	-0.039	Yaw Set Point:	-0.168	X_WP:	0.000	Y_WP:	0.000	Y_WP:	0.500	X:	0.004	Y:	0.020	Z:	0.050	yaw:	9.621	yaw rate:	2.342	Roll:	0.157	Pitch:	0.779	Yaw:	15.091	Thrust:	50.823
Time:	2.558	Roll Set Point:	-0.011	Pitch Set Point:	-0.039	Yaw Set Point:	-0.168	X_WP:	0.000	Y_WP:	0.000	Y_WP:	0.500	X:	0.004	Y:	0.020	Z:	0.050	yaw:	9.627	yaw rate:	0.625	Roll:	0.192	Pitch:	0.603	Yaw:	14.693	Thrust:	51.375
Time:	2.569	Roll Set Point:	-0.011	Pitch Set Point:	-0.039	Yaw Set Point:	-0.164	X_WP:	0.000	Y_WP:	0.000	Y_WP:	0.500	X:	0.004	Y:	0.020	Z:	0.050	yaw:	9.418	yaw rate:	-20.877	Roll:	0.031	Pitch:	0.463	Yaw:	9.298	Thrust:	52.699
Time:	2.580	Roll Set Point:	-0.011	Pitch Set Point:	-0.039	Yaw Set Point:	-0.164	X_WP:	0.000	Y_WP:	0.000	Y_WP:	0.500	X:	0.004	Y:	0.020	Z:	0.050	yaw:	9.410	yaw rate:	-0.829	Roll:	0.106	Pitch:	0.689	Yaw:	14.052	Thrust:	52.694
Time:	2.591	Roll Set Point:	-0.011	Pitch Set Point:	-0.039	Yaw Set Point:	-0.164	X_WP:	0.000	Y_WP:	0.000	Y_WP:	0.500	X:	0.004	Y:	0.020	Z:	0.050	yaw:	9.391	yaw rate:	-1.956	Roll:	0.222	Pitch:	0.511	Yaw:	13.754	Thrust:	53.629
Time:	2.602	Roll Set Point:	-0.010	Pitch Set Point:	-0.039	Yaw Set Point:	-0.163	X_WP:	0.000	Y_WP:	0.000	Y_WP:	0.500	X:	0.004	Y:	0.020	Z:	0.050	yaw:	9.316	yaw rate:	-7.479	Roll:	0.111	Pitch:	0.651	Yaw:	12.338	Thrust:	53.772
Time:	2.613	Roll Set Point:	-0.010	Pitch Set Point:	-0.039	Yaw Set Point:	-0.171	X_WP:	0.000	Y_WP:	0.000	Y_WP:	0.500	X:	0.004	Y:	0.020	Z:	0.050	yaw:	9.802	yaw rate:	48.658	Roll:	0.399	Pitch:	0.742	Yaw:	26.344	Thrust:	54.132
Time:	2.624	Roll Set Point:	-0.010	Pitch Set Point:	-0.039	Yaw Set Point:	-0.164	X_WP:	0.000	Y_WP:	0.000	Y_WP:	0.500	X:	0.003	Y:	0.020	Z:	0.050	yaw:	9.405	yaw rate:	-39.719	Roll:	-0.192	Pitch:	0.327	Yaw:	4.801	Thrust:	55.601
Time:	2.635	Roll Set Point:	-0.010	Pitch Set Point:	-0.039	Yaw Set Point:	-0.168	X_WP:	0.000	Y_WP:	0.000	Y_WP:	0.500	X:	0.003	Y:	0.020	Z:	0.050	yaw:	9.638	yaw rate:	23.243	Roll:	0.271	Pitch:	0.461	Yaw:	20.077	Thrust:	55.721
Time:	2.646	Roll Set Point:	-0.010	Pitch Set Point:	-0.039	Yaw Set Point:	-0.166	X_WP:	0.000	Y_WP:	0.000	Y_WP:	0.500	X:	0.004	Y:	0.020	Z:	0.050	yaw:	9.483	yaw rate:	-15.468	Roll:	0.206	Pitch:	0.622	Yaw:	10.662	Thrust:	57.323
Time:	2.659	Roll Set Point:	-0.011	Pitch Set Point:	-0.040	Yaw Set Point:	-0.168	X_WP:	0.000	Y_WP:	0.000	Y_WP:	0.500	X:	0.004	Y:	0.020	Z:	0.050	yaw:	9.651	yaw rate:	16.850	Roll:	0.572	Pitch:	1.272	Yaw:	18.164	Thrust:	62.451
Time:	2.670	Roll Set Point:	-0.011	Pitch Set Point:	-0.039	Yaw Set Point:	-0.174	X_WP:	0.000	Y_WP:	0.000	Y_WP:	0.500	X:	0.004	Y:	0.020	Z:	0.050	yaw:	9.983	yaw rate:	33.151	Roll:	0.185	Pitch:	0.209	Yaw:	22.910	Thrust:	56.713
Time:	2.681	Roll Set Point:	-0.010	Pitch Set Point:	-0.039	Yaw Set Point:	-0.166	X_WP:	0.000	Y_WP:	0.000	Y_WP:	0.500	X:	0.003	Y:	0.020	Z:	0.050	yaw:	9.537	yaw rate:	-44.608	Roll:	-0.176	Pitch:	0.477	Yaw:	3.829	Thrust:	57.008
Time:	2.692	Roll Set Point:	-0.011	Pitch Set Point:	-0.039	Yaw Set Point:	-0.173	X_WP:	0.000	Y_WP:	0.000	Y_WP:	0.500	X:	0.004	Y:	0.020	Z:	0.050	yaw:	9.921	yaw rate:	38.372	Roll:	0.578	Pitch:	0.619	Yaw:	24.062	Thrust:	58.889
Time:	2.703	Roll Set Point:	-0.010	Pitch Set Point:	-0.040	Yaw Set Point:	-0.167	X_WP:	0.000	Y_WP:	0.000	Y_WP:	0.500	X:	0.004	Y:	0.020	Z:	0.050	yaw:	9.553	yaw rate:	-36.730	Roll:	0.051	Pitch:	1.024	Yaw:	5.723	Thrust:	60.110
Time:	2.714	Roll Set Point:	-0.010	Pitch Set Point:	-0.040	Yaw Set Point:	-0.155	X_WP:	0.000	Y_WP:	0.000	Y_WP:	0.500	X:	0.003	Y:	0.020	Z:	0.050	yaw:	8.894	yaw rate:	-65.959	Roll:	-0.412	Pitch:	0.592	Yaw:	-2.135	Thrust:	58.789
Time:	2.725	Roll Set Point:	-0.010	Pitch Set Point:	-0.039	Yaw Set Point:	-0.165	X_WP:	0.000	Y_WP:	0.000	Y_WP:	0.500	X:	0.004	Y:	0.020	Z:	0.051	yaw:	9.454	yaw rate:	56.053	Roll:	0.692	Pitch:	0.169	Yaw:	27.609	Thrust:	58.783
Time:	2.736	Roll Set Point:	-0.010	Pitch Set Point:	-0.039	Yaw Set Point:	-0.170	X_WP:	0.000	Y_WP:	0.000	Y_WP:	0.500	X:	0.004	Y:	0.020	Z:	0.051	yaw:	9.748	yaw rate:	29.411	Roll:	0.423	Pitch:	0.654	Yaw:	21.695	Thrust:	60.514
Time:	2.747	Roll Set Point:	-0.010	Pitch Set Point:	-0.039	Yaw Set Point:	-0.160	X_WP:	0.000	Y_WP:	0.000	Y_WP:	0.500	X:	0.004	Y:	0.020	Z:	0.051	yaw:	9.176	yaw rate:	-57.209	Roll:	-0.221	Pitch:	0.416	Yaw:	0.383	Thrust:	60.218
Time:	2.758	Roll Set Point:	-0.010	Pitch Set Point:	-0.039	Yaw Set Point:	-0.161	X_WP:	0.000	Y_WP:	0.000	Y_WP:	0.500	X:	0.003	Y:	0.020	Z:	0.052	yaw:	9.235	yaw rate:	5.844	Roll:	0.189	Pitch:	0.718	Yaw:	15.384	Thrust:	60.703
Time:	2.770	Roll Set Point:	-0.010	Pitch Set Point:	-0.040	Yaw Set Point:	-0.151	X_WP:	0.000	Y_WP:	0.000	Y_WP:	0.500	X:	0.003	Y:	0.020	Z:	0.052	yaw:	8.627	yaw rate:	-60.812	Roll:	-0.303	Pitch:	0.936	Yaw:	-0.128	Thrust:	64.574
Time:	2.781	Roll Set Point:	-0.009	Pitch Set Point:	-0.039	Yaw Set Point:	-0.148	X_WP:	0.000	Y_WP:	0.000	Y_WP:	0.500	X:	0.003	Y:	0.020	Z:	0.053	yaw:	8.505	yaw rate:	-12.150	Roll:	-0.062	Pitch:	0.184	Yaw:	10.102	Thrust:	60.715
Time:	2.792	Roll Set Point:	-0.009	Pitch Set Point:	-0.039	Yaw Set Point:	-0.152	X_WP:	0.000	Y_WP:	0.000	Y_WP:	0.500	X:	0.003	Y:	0.020	Z:	0.053	yaw:	8.686	yaw rate:	18.113	Roll:	0.252	Pitch:	0.652	Yaw:	17.531	Thrust:	63.342
Time:	2.803	Roll Set Point:	-0.009	Pitch Set Point:	-0.039	Yaw Set Point:	-0.148	X_WP:	0.000	Y_WP:	0.000	Y_WP:	0.500	X:	0.003	Y:	0.020	Z:	0.054	yaw:	8.508	yaw rate:	-17.838	Roll:	0.007	Pitch:	0.413	Yaw:	8.739	Thrust:	60.964
Time:	2.814	Roll Set Point:	-0.009	Pitch Set Point:	-0.039	Yaw Set Point:	-0.144	X_WP:	0.000	Y_WP:	0.000	Y_WP:	0.500	X:	0.003	Y:	0.020	Z:	0.054	yaw:	8.261	yaw rate:	-24.711	Roll:	0.048	Pitch:	0.806	Yaw:	6.784	Thrust:	62.290
Time:	2.825	Roll Set Point:	-0.009	Pitch Set Point:	-0.039	Yaw Set Point:	-0.142	X_WP:	0.000	Y_WP:	0.000	Y_WP:	0.500	X:	0.003	Y:	0.020	Z:	0.055	yaw:	8.114	yaw rate:	-14.676	Roll:	-0.195	Pitch:	0.172	Yaw:	8.940	Thrust:	61.308
Time:	2.836	Roll Set Point:	-0.008	Pitch Set Point:	-0.038	Yaw Set Point:	-0.138	X_WP:	0.000	Y_WP:	0.000	Y_WP:	0.500	X:	0.003	Y:	0.020	Z:	0.056	yaw:	7.918	yaw rate:	-19.625	Roll:	-0.239	Pitch:	0.528	Yaw:	7.500	Thrust:	63.055
Time:	2.847	Roll Set Point:	-0.008	Pitch Set Point:	-0.038	Yaw Set Point:	-0.137	X_WP:	0.000	Y_WP:	0.000	Y_WP:	0.500	X:	0.003	Y:	0.019	Z:	0.057	yaw:	7.874	yaw rate:	-4.376	Roll:	-0.009	Pitch:	0.402	Yaw:	11.059	Thrust:	63.912
Time:	2.858	Roll Set Point:	-0.008	Pitch Set Point:	-0.038	Yaw Set Point:	-0.133	X_WP:	0.000	Y_WP:	0.000	Y_WP:	0.500	X:	0.003	Y:	0.019	Z:	0.058	yaw:	7.642	yaw rate:	-23.172	Roll:	-0.286	Pitch:	0.281	Yaw:	6.273	Thrust:	62.465
Time:	2.869	Roll Set Point:	-0.007	Pitch Set Point:	-0.037	Yaw Set Point:	-0.127	X_WP:	0.000	Y_WP:	0.000	Y_WP:	0.500	X:	0.002	Y:	0.019	Z:	0.059	yaw:	7.294	yaw rate:	-34.780	Roll:	-0.413	Pitch:	0.140	Yaw:	3.033	Thrust:	63.615
Time:	2.880	Roll Set Point:	-0.006	Pitch Set Point:	-0.037	Yaw Set Point:	-0.119	X_WP:	0.000	Y_WP:	0.000	Y_WP:	0.500	X:	0.002	Y:	0.019	Z:	0.060	yaw:	6.819	yaw rate:	-47.543	Roll:	-0.365	Pitch:	0.279	Yaw:	-0.659	Thrust:	63.733
Time:	2.894	Roll Set Point:	-0.006	Pitch Set Point:	-0.037	Yaw Set Point:	-0.118	X_WP:	0.000	Y_WP:	0.000	Y_WP:	0.500	X:	0.002	Y:	0.018	Z:	0.061	yaw:	6.745	yaw rate:	-7.422	Roll:	-0.184	Pitch:	0.488	Yaw:	9.236	Thrust:	72.550
Time:	2.907	Roll Set Point:	-0.005	Pitch Set Point:	-0.035	Yaw Set Point:	-0.114	X_WP:	0.000	Y_WP:	0.000	Y_WP:	0.500	X:	0.002	Y:	0.018	Z:	0.062	yaw:	6.543	yaw rate:	-20.133	Roll:	-0.497	Pitch:	-0.419	Yaw:	6.384	Thrust:	73.375
Time:	2.920	Roll Set Point:	-0.005	Pitch Set Point:	-0.035	Yaw Set Point:	-0.122	X_WP:	0.000	Y_WP:	0.000	Y_WP:	0.500	X:	0.002	Y:	0.017	Z:	0.064	yaw:	6.984	yaw rate:	44.026	Roll:	0.114	Pitch:	0.270	Yaw:	19.897	Thrust:	71.284
Time:	2.932	Roll Set Point:	-0.004	Pitch Set Point:	-0.034	Yaw Set Point:	-0.114	X_WP:	0.000	Y_WP:	0.000	Y_WP:	0.500	X:	0.001	Y:	0.017	Z:	0.066	yaw:	6.524	yaw rate:	-45.950	Roll:	-0.703	Pitch:	-0.085	Yaw:	0.332	Thrust:	69.184
Time:	2.944	Roll Set Point:	-0.003	Pitch Set Point:	-0.032	Yaw Set Point:	-0.113	X_WP:	0.000	Y_WP:	0.000	Y_WP:	0.500	X:	0.001	Y:	0.016	Z:	0.067	yaw:	6.469	yaw rate:	-5.565	Roll:	-0.697	Pitch:	-0.539	Yaw:	9.025	Thrust:	68.666
Time:	2.955	Roll Set Point:	-0.002	Pitch Set Point:	-0.031	Yaw Set Point:	-0.112	X_WP:	0.000	Y_WP:	0.000	Y_WP:	0.500	X:	0.000	Y:	0.016	Z:	0.069	yaw:	6.405	yaw rate:	-6.362	Roll:	-0.523	Pitch:	-0.377	Yaw:	8.537	Thrust:	64.941
Time:	2.966	Roll Set Point:	-0.002	Pitch Set Point:	-0.030	Yaw Set Point:	-0.116	X_WP:	0.000	Y_WP:	0.000	Y_WP:	0.500	X:	0.000	Y:	0.015	Z:	0.071	yaw:	6.621	yaw rate:	21.608	Roll:	-0.152	Pitch:	-0.091	Yaw:	15.488	Thrust:	64.920
Time:	2.977	Roll Set Point:	-0.002	Pitch Set Point:	-0.029	Yaw Set Point:	-0.113	X_WP:	0.000	Y_WP:	0.000	Y_WP:	0.500	X:	0.000	Y:	0.015	Z:	0.072	yaw:	6.501	yaw rate:	-12.024	Roll:	-0.372	Pitch:	-0.395	Yaw:	7.325	Thrust:	65.108
Time:	2.989	Roll Set Point:	-0.000	Pitch Set Point:	-0.027	Yaw Set Point:	-0.110	X_WP:	0.000	Y_WP:	0.000	Y_WP:	0.500	X:	-0.001	Y:	0.014	Z:	0.075	yaw:	6.303	yaw rate:	-19.737	Roll:	-0.962	Pitch:	-0.678	Yaw:	5.710	Thrust:	66.546
Time:	3.000	Roll Set Point:	0.000	Pitch Set Point:	-0.026	Yaw Set Point:	-0.106	X_WP:	0.000	Y_WP:	0.000	Y_WP:	0.500	X:	-0.001	Y:	0.013	Z:	0.077	yaw:	6.096	yaw rate:	-20.706	Roll:	-0.653	Pitch:	-0.511	Yaw:	4.700	Thrust:	65.470
Time:	3.011	Roll Set Point:	0.000	Pitch Set Point:	-0.025	Yaw Set Point:	-0.115	X_WP:	0.000	Y_WP:	0.000	Y_WP:	0.500	X:	-0.001	Y:	0.012	Z:	0.079	yaw:	6.579	yaw rate:	48.250	Roll:	-0.018	Pitch:	-0.565	Yaw:	21.742	Thrust:	64.752
Time:	3.022	Roll Set Point:	0.002	Pitch Set Point:	-0.023	Yaw Set Point:	-0.101	X_WP:	0.000	Y_WP:	0.000	Y_WP:	0.500	X:	-0.001	Y:	0.012	Z:	0.081	yaw:	5.781	yaw rate:	-79.757	Roll:	-1.230	Pitch:	-0.863	Yaw:	-9.714	Thrust:	65.023
Time:	3.033	Roll Set Point:	0.002	Pitch Set Point:	-0.022	Yaw Set Point:	-0.102	X_WP:	0.000	Y_WP:	0.000	Y_WP:	0.500	X:	-0.002	Y:	0.011	Z:	0.083	yaw:	5.853	yaw rate:	7.171	Roll:	-0.556	Pitch:	-0.693	Yaw:	10.979	Thrust:	65.279
Time:	3.044	Roll Set Point:	0.003	Pitch Set Point:	-0.020	Yaw Set Point:	-0.112	X_WP:	0.000	Y_WP:	0.000	Y_WP:	0.500	X:	-0.002	Y:	0.010	Z:	0.087	yaw:	6.395	yaw rate:	54.195	Roll:	-0.568	Pitch:	-0.958	Yaw:	22.896	Thrust:	59.519
Time:	3.055	Roll Set Point:	0.005	Pitch Set Point:	-0.018	Yaw Set Point:	-0.100	X_WP:	0.000	Y_WP:	0.000	Y_WP:	0.500	X:	-0.003	Y:	0.009	Z:	0.090	yaw:	5.740	yaw rate:	-65.449	Roll:	-1.260	Pitch:	-1.066	Yaw:	-6.418	Thrust:	64.467
Time:	3.066	Roll Set Point:	0.005	Pitch Set Point:	-0.017	Yaw Set Point:	-0.104	X_WP:	0.000	Y_WP:	0.000	Y_WP:	0.500	X:	-0.003	Y:	0.008	Z:	0.092	yaw:	5.969	yaw rate:	22.854	Roll:	-0.522	Pitch:	-0.794	Yaw:	14.862	Thrust:	64.950
Time:	3.077	Roll Set Point:	0.006	Pitch Set Point:	-0.015	Yaw Set Point:	-0.104	X_WP:	0.000	Y_WP:	0.000	Y_WP:	0.500	X:	-0.003	Y:	0.007	Z:	0.095	yaw:	5.938	yaw rate:	-3.132	Roll:	-0.965	Pitch:	-1.013	Yaw:	8.650	Thrust:	65.519
Time:	3.088	Roll Set Point:	0.007	Pitch Set Point:	-0.013	Yaw Set Point:	-0.105	X_WP:	0.000	Y_WP:	0.000	Y_WP:	0.500	X:	-0.004	Y:	0.006	Z:	0.099	yaw:	5.994	yaw rate:	5.595	Roll:	-1.046	Pitch:	-1.382	Yaw:	10.800	Thrust:	58.206
Time:	3.099	Roll Set Point:	0.008	Pitch Set Point:	-0.011	Yaw Set Point:	-0.097	X_WP:	0.000	Y_WP:	0.000	Y_WP:	0.500	X:	-0.004	Y:	0.005	Z:	0.102	yaw:	5.547	yaw rate:	-44.643	Roll:	-0.896	Pitch:	-1.244	Yaw:	-1.718	Thrust:	65.664
Time:	3.111	Roll Set Point:	0.010	Pitch Set Point:	-0.008	Yaw Set Point:	-0.104	X_WP:	0.000	Y_WP:	0.000	Y_WP:	0.500	X:	-0.005	Y:	0.004	Z:	0.108	yaw:	5.975	yaw rate:	16.636	Roll:	-1.723	Pitch:	-1.999	Yaw:	18.867	Thrust:	60.903
Time:	3.122	Roll Set Point:	0.011	Pitch Set Point:	-0.006	Yaw Set Point:	-0.101	X_WP:	0.000	Y_WP:	0.000	Y_WP:	0.500	X:	-0.006	Y:	0.003	Z:	0.110	yaw:	5.796	yaw rate:	-17.925	Roll:	-0.875	Pitch:	-1.122	Yaw:	4.941	Thrust:	65.168
Time:	3.133	Roll Set Point:	0.012	Pitch Set Point:	-0.005	Yaw Set Point:	-0.098	X_WP:	0.000	Y_WP:	0.000	Y_WP:	0.500	X:	-0.006	Y:	0.002	Z:	0.113	yaw:	5.605	yaw rate:	-19.079	Roll:	-1.025	Pitch:	-1.075	Yaw:	4.401	Thrust:	65.364
Time:	3.144	Roll Set Point:	0.014	Pitch Set Point:	-0.002	Yaw Set Point:	-0.097	X_WP:	0.000	Y_WP:	0.000	Y_WP:	0.500	X:	-0.007	Y:	0.001	Z:	0.118	yaw:	5.574	yaw rate:	-3.139	Roll:	-1.455	Pitch:	-1.831	Yaw:	8.137	Thrust:	58.669
Time:	3.155	Roll Set Point:	0.014	Pitch Set Point:	-0.002	Yaw Set Point:	-0.097	X_WP:	0.000	Y_WP:	0.000	Y_WP:	0.500	X:	-0.007	Y:	0.001	Z:	0.118	yaw:	5.574	yaw rate:	-3.139	Roll:	-0.185	Pitch:	0.085	Yaw:	8.888	Thrust:	78.357
Time:	3.166	Roll Set Point:	0.015	Pitch Set Point:	0.000	Yaw Set Point:	-0.087	X_WP:	0.000	Y_WP:	0.000	Y_WP:	0.500	X:	-0.008	Y:	-0.000	Z:	0.121	yaw:	5.007	yaw rate:	-56.737	Roll:	-1.345	Pitch:	-1.553	Yaw:	-5.373	Thrust:	66.696
Time:	3.177	Roll Set Point:	0.016	Pitch Set Point:	0.001	Yaw Set Point:	-0.098	X_WP:	0.000	Y_WP:	0.000	Y_WP:	0.500	X:	-0.008	Y:	-0.001	Z:	0.124	yaw:	5.631	yaw rate:	62.398	Roll:	-0.862	Pitch:	-0.715	Yaw:	23.776	Thrust:	66.847
Time:	3.188	Roll Set Point:	0.018	Pitch Set Point:	0.003	Yaw Set Point:	-0.098	X_WP:	0.000	Y_WP:	0.000	Y_WP:	0.500	X:	-0.009	Y:	-0.002	Z:	0.128	yaw:	5.589	yaw rate:	-4.143	Roll:	-1.642	Pitch:	-1.530	Yaw:	7.924	Thrust:	60.789
Time:	3.199	Roll Set Point:	0.019	Pitch Set Point:	0.005	Yaw Set Point:	-0.095	X_WP:	0.000	Y_WP:	0.000	Y_WP:	0.500	X:	-0.009	Y:	-0.003	Z:	0.131	yaw:	5.432	yaw rate:	-15.685	Roll:	-1.335	Pitch:	-1.176	Yaw:	4.965	Thrust:	67.196
Time:	3.210	Roll Set Point:	0.020	Pitch Set Point:	0.006	Yaw Set Point:	-0.091	X_WP:	0.000	Y_WP:	0.000	Y_WP:	0.500	X:	-0.010	Y:	-0.004	Z:	0.134	yaw:	5.238	yaw rate:	-19.411	Roll:	-1.423	Pitch:	-1.263	Yaw:	3.813	Thrust:	67.781
Time:	3.221	Roll Set Point:	0.022	Pitch Set Point:	0.008	Yaw Set Point:	-0.085	X_WP:	0.000	Y_WP:	0.000	Y_WP:	0.500	X:	-0.011	Y:	-0.005	Z:	0.137	yaw:	4.862	yaw rate:	-37.607	Roll:	-1.399	Pitch:	-1.437	Yaw:	-1.041	Thrust:	67.718
Time:	3.232	Roll Set Point:	0.023	Pitch Set Point:	0.009	Yaw Set Point:	-0.089	X_WP:	0.000	Y_WP:	0.000	Y_WP:	0.500	X:	-0.011	Y:	-0.005	Z:	0.141	yaw:	5.087	yaw rate:	22.480	Roll:	-1.123	Pitch:	-0.773	Yaw:	13.542	Thrust:	67.637
Time:	3.243	Roll Set Point:	0.024	Pitch Set Point:	0.012	Yaw Set Point:	-0.081	X_WP:	0.000	Y_WP:	0.000	Y_WP:	0.500	X:	-0.012	Y:	-0.006	Z:	0.145	yaw:	4.658	yaw rate:	-42.917	Roll:	-1.772	Pitch:	-2.222	Yaw:	-2.579	Thrust:	61.590
Time:	3.254	Roll Set Point:	0.026	Pitch Set Point:	0.013	Yaw Set Point:	-0.086	X_WP:	0.000	Y_WP:	0.000	Y_WP:	0.500	X:	-0.013	Y:	-0.007	Z:	0.148	yaw:	4.905	yaw rate:	24.757	Roll:	-1.421	Pitch:	-0.705	Yaw:	13.829	Thrust:	68.702
Time:	3.266	Roll Set Point:	0.027	Pitch Set Point:	0.014	Yaw Set Point:	-0.084	X_WP:	0.000	Y_WP:	0.000	Y_WP:	0.500	X:	-0.013	Y:	-0.008	Z:	0.151	yaw:	4.809	yaw rate:	-9.640	Roll:	-1.449	Pitch:	-1.118	Yaw:	5.531	Thrust:	68.369
Time:	3.277	Roll Set Point:	0.028	Pitch Set Point:	0.015	Yaw Set Point:	-0.084	X_WP:	0.000	Y_WP:	0.000	Y_WP:	0.500	X:	-0.014	Y:	-0.008	Z:	0.155	yaw:	4.813	yaw rate:	0.384	Roll:	-1.307	Pitch:	-1.029	Yaw:	7.914	Thrust:	68.483
Time:	3.288	Roll Set Point:	0.029	Pitch Set Point:	0.016	Yaw Set Point:	-0.084	X_WP:	0.000	Y_WP:	0.000	Y_WP:	0.500	X:	-0.014	Y:	-0.009	Z:	0.158	yaw:	4.826	yaw rate:	1.340	Roll:	-1.406	Pitch:	-1.044	Yaw:	8.160	Thrust:	68.494
Time:	3.299	Roll Set Point:	0.031	Pitch Set Point:	0.018	Yaw Set Point:	-0.079	X_WP:	0.000	Y_WP:	0.000	Y_WP:	0.500	X:	-0.015	Y:	-0.010	Z:	0.163	yaw:	4.525	yaw rate:	-30.140	Roll:	-1.895	Pitch:	-1.474	Yaw:	0.261	Thrust:	61.838
Time:	3.310	Roll Set Point:	0.032	Pitch Set Point:	0.019	Yaw Set Point:	-0.079	X_WP:	0.000	Y_WP:	0.000	Y_WP:	0.500	X:	-0.016	Y:	-0.010	Z:	0.166	yaw:	4.517	yaw rate:	-0.802	Roll:	-1.293	Pitch:	-0.966	Yaw:	7.219	Thrust:	69.313
Time:	3.321	Roll Set Point:	0.034	Pitch Set Point:	0.020	Yaw Set Point:	-0.076	X_WP:	0.000	Y_WP:	0.000	Y_WP:	0.500	X:	-0.017	Y:	-0.011	Z:	0.169	yaw:	4.343	yaw rate:	-17.420	Roll:	-1.619	Pitch:	-1.059	Yaw:	3.021	Thrust:	68.749
Time:	3.332	Roll Set Point:	0.035	Pitch Set Point:	0.021	Yaw Set Point:	-0.076	X_WP:	0.000	Y_WP:	0.000	Y_WP:	0.500	X:	-0.017	Y:	-0.011	Z:	0.173	yaw:	4.363	yaw rate:	2.030	Roll:	-1.451	Pitch:	-0.855	Yaw:	7.678	Thrust:	69.142
Time:	3.343	Roll Set Point:	0.036	Pitch Set Point:	0.022	Yaw Set Point:	-0.069	X_WP:	0.000	Y_WP:	0.000	Y_WP:	0.500	X:	-0.018	Y:	-0.012	Z:	0.176	yaw:	3.981	yaw rate:	-38.188	Roll:	-1.495	Pitch:	-1.358	Yaw:	-2.401	Thrust:	69.243
Time:	3.354	Roll Set Point:	0.038	Pitch Set Point:	0.024	Yaw Set Point:	-0.069	X_WP:	0.000	Y_WP:	0.000	Y_WP:	0.500	X:	-0.019	Y:	-0.012	Z:	0.181	yaw:	3.973	yaw rate:	-0.836	Roll:	-2.299	Pitch:	-1.061	Yaw:	6.448	Thrust:	62.726
Time:	3.365	Roll Set Point:	0.040	Pitch Set Point:	0.024	Yaw Set Point:	-0.065	X_WP:	0.000	Y_WP:	0.000	Y_WP:	0.500	X:	-0.020	Y:	-0.013	Z:	0.185	yaw:	3.701	yaw rate:	-27.211	Roll:	-1.794	Pitch:	-1.013	Yaw:	-0.189	Thrust:	68.929
Time:	3.376	Roll Set Point:	0.041	Pitch Set Point:	0.025	Yaw Set Point:	-0.067	X_WP:	0.000	Y_WP:	0.000	Y_WP:	0.500	X:	-0.020	Y:	-0.013	Z:	0.188	yaw:	3.852	yaw rate:	15.138	Roll:	-1.525	Pitch:	-0.669	Yaw:	10.074	Thrust:	69.458
Time:	3.387	Roll Set Point:	0.042	Pitch Set Point:	0.026	Yaw Set Point:	-0.063	X_WP:	0.000	Y_WP:	0.000	Y_WP:	0.500	X:	-0.021	Y:	-0.013	Z:	0.192	yaw:	3.624	yaw rate:	-22.777	Roll:	-1.494	Pitch:	-0.781	Yaw:	0.769	Thrust:	69.737
Time:	3.398	Roll Set Point:	0.044	Pitch Set Point:	0.026	Yaw Set Point:	-0.068	X_WP:	0.000	Y_WP:	0.000	Y_WP:	0.500	X:	-0.021	Y:	-0.014	Z:	0.195	yaw:	3.872	yaw rate:	24.833	Roll:	-1.593	Pitch:	-0.416	Yaw:	12.402	Thrust:	69.783
Time:	3.409	Roll Set Point:	0.045	Pitch Set Point:	0.027	Yaw Set Point:	-0.065	X_WP:	0.000	Y_WP:	0.000	Y_WP:	0.500	X:	-0.022	Y:	-0.014	Z:	0.201	yaw:	3.746	yaw rate:	-12.626	Roll:	-2.118	Pitch:	-0.862	Yaw:	3.335	Thrust:	61.746
Time:	3.420	Roll Set Point:	0.046	Pitch Set Point:	0.027	Yaw Set Point:	-0.065	X_WP:	0.000	Y_WP:	0.000	Y_WP:	0.500	X:	-0.023	Y:	-0.014	Z:	0.204	yaw:	3.734	yaw rate:	-1.177	Roll:	-1.425	Pitch:	-0.507	Yaw:	6.038	Thrust:	68.761
Time:	3.431	Roll Set Point:	0.047	Pitch Set Point:	0.027	Yaw Set Point:	-0.064	X_WP:	0.000	Y_WP:	0.000	Y_WP:	0.500	X:	-0.023	Y:	-0.014	Z:	0.208	yaw:	3.672	yaw rate:	-6.276	Roll:	-1.388	Pitch:	-0.425	Yaw:	4.740	Thrust:	68.740
Time:	3.442	Roll Set Point:	0.049	Pitch Set Point:	0.027	Yaw Set Point:	-0.060	X_WP:	0.000	Y_WP:	0.000	Y_WP:	0.500	X:	-0.024	Y:	-0.014	Z:	0.212	yaw:	3.416	yaw rate:	-25.559	Roll:	-1.630	Pitch:	-0.714	Yaw:	-0.191	Thrust:	69.143
Time:	3.454	Roll Set Point:	0.050	Pitch Set Point:	0.028	Yaw Set Point:	-0.051	X_WP:	0.000	Y_WP:	0.000	Y_WP:	0.500	X:	-0.025	Y:	-0.015	Z:	0.218	yaw:	2.948	yaw rate:	-46.795	Roll:	-1.946	Pitch:	-1.006	Yaw:	-4.893	Thrust:	69.258
Time:	3.465	Roll Set Point:	0.051	Pitch Set Point:	0.028	Yaw Set Point:	-0.057	X_WP:	0.000	Y_WP:	0.000	Y_WP:	0.500	X:	-0.025	Y:	-0.015	Z:	0.222	yaw:	3.246	yaw rate:	29.828	Roll:	-1.585	Pitch:	0.037	Yaw:	12.716	Thrust:	69.144
Time:	3.476	Roll Set Point:	0.052	Pitch Set Point:	0.028	Yaw Set Point:	-0.053	X_WP:	0.000	Y_WP:	0.000	Y_WP:	0.500	X:	-0.026	Y:	-0.015	Z:	0.226	yaw:	3.012	yaw rate:	-23.425	Roll:	-1.537	Pitch:	-0.470	Yaw:	-0.252	Thrust:	69.253
Time:	3.487	Roll Set Point:	0.053	Pitch Set Point:	0.028	Yaw Set Point:	-0.053	X_WP:	0.000	Y_WP:	0.000	Y_WP:	0.500	X:	-0.026	Y:	-0.015	Z:	0.230	yaw:	3.049	yaw rate:	3.684	Roll:	-1.391	Pitch:	-0.122	Yaw:	6.234	Thrust:	68.337
Time:	3.498	Roll Set Point:	0.054	Pitch Set Point:	0.028	Yaw Set Point:	-0.050	X_WP:	0.000	Y_WP:	0.000	Y_WP:	0.500	X:	-0.027	Y:	-0.014	Z:	0.234	yaw:	2.872	yaw rate:	-17.694	Roll:	-1.647	Pitch:	-0.301	Yaw:	0.913	Thrust:	68.566
Time:	3.509	Roll Set Point:	0.056	Pitch Set Point:	0.027	Yaw Set Point:	-0.048	X_WP:	0.000	Y_WP:	0.000	Y_WP:	0.500	X:	-0.028	Y:	-0.014	Z:	0.240	yaw:	2.755	yaw rate:	-11.665	Roll:	-1.916	Pitch:	-0.227	Yaw:	2.181	Thrust:	60.167
Time:	3.521	Roll Set Point:	0.057	Pitch Set Point:	0.028	Yaw Set Point:	-0.036	X_WP:	0.000	Y_WP:	0.000	Y_WP:	0.500	X:	-0.028	Y:	-0.014	Z:	0.244	yaw:	2.072	yaw rate:	-68.390	Roll:	-1.539	Pitch:	-1.013	Yaw:	-11.644	Thrust:	72.337
Time:	3.532	Roll Set Point:	0.058	Pitch Set Point:	0.027	Yaw Set Point:	-0.038	X_WP:	0.000	Y_WP:	0.000	Y_WP:	0.500	X:	-0.029	Y:	-0.014	Z:	0.248	yaw:	2.186	yaw rate:	11.466	Roll:	-1.477	Pitch:	0.230	Yaw:	6.877	Thrust:	68.401
Time:	3.543	Roll Set Point:	0.059	Pitch Set Point:	0.026	Yaw Set Point:	-0.044	X_WP:	0.000	Y_WP:	0.000	Y_WP:	0.500	X:	-0.029	Y:	-0.014	Z:	0.253	yaw:	2.517	yaw rate:	33.043	Roll:	-1.545	Pitch:	0.418	Yaw:	12.460	Thrust:	68.044
Time:	3.554	Roll Set Point:	0.060	Pitch Set Point:	0.027	Yaw Set Point:	-0.038	X_WP:	0.000	Y_WP:	0.000	Y_WP:	0.500	X:	-0.030	Y:	-0.014	Z:	0.259	yaw:	2.175	yaw rate:	-34.131	Roll:	-2.025	Pitch:	-0.470	Yaw:	-3.942	Thrust:	59.476
Time:	3.565	Roll Set Point:	0.061	Pitch Set Point:	0.026	Yaw Set Point:	-0.040	X_WP:	0.000	Y_WP:	0.000	Y_WP:	0.500	X:	-0.030	Y:	-0.013	Z:	0.263	yaw:	2.273	yaw rate:	9.803	Roll:	-1.531	Pitch:	0.464	Yaw:	6.607	Thrust:	68.185
Time:	3.576	Roll Set Point:	0.061	Pitch Set Point:	0.025	Yaw Set Point:	-0.038	X_WP:	0.000	Y_WP:	0.000	Y_WP:	0.500	X:	-0.030	Y:	-0.013	Z:	0.268	yaw:	2.178	yaw rate:	-9.560	Roll:	-1.282	Pitch:	0.196	Yaw:	1.875	Thrust:	66.661
Time:	3.587	Roll Set Point:	0.062	Pitch Set Point:	0.025	Yaw Set Point:	-0.034	X_WP:	0.000	Y_WP:	0.000	Y_WP:	0.500	X:	-0.031	Y:	-0.013	Z:	0.273	yaw:	1.923	yaw rate:	-25.518	Roll:	-1.377	Pitch:	-0.123	Yaw:	-2.254	Thrust:	67.250
Time:	3.598	Roll Set Point:	0.063	Pitch Set Point:	0.023	Yaw Set Point:	-0.038	X_WP:	0.000	Y_WP:	0.000	Y_WP:	0.500	X:	-0.031	Y:	-0.012	Z:	0.280	yaw:	2.156	yaw rate:	23.342	Roll:	-1.751	Pitch:	0.931	Yaw:	9.664	Thrust:	57.250
Time:	3.609	Roll Set Point:	0.064	Pitch Set Point:	0.023	Yaw Set Point:	-0.029	X_WP:	0.000	Y_WP:	0.000	Y_WP:	0.500	X:	-0.032	Y:	-0.012	Z:	0.284	yaw:	1.689	yaw rate:	-46.667	Roll:	-1.287	Pitch:	-0.276	Yaw:	-7.616	Thrust:	67.250
Time:	3.620	Roll Set Point:	0.064	Pitch Set Point:	0.022	Yaw Set Point:	-0.034	X_WP:	0.000	Y_WP:	0.000	Y_WP:	0.500	X:	-0.032	Y:	-0.011	Z:	0.289	yaw:	1.947	yaw rate:	25.810	Roll:	-1.366	Pitch:	0.687	Yaw:	9.935	Thrust:	67.051
Time:	3.631	Roll Set Point:	0.065	Pitch Set Point:	0.021	Yaw Set Point:	-0.031	X_WP:	0.000	Y_WP:	0.000	Y_WP:	0.500	X:	-0.032	Y:	-0.011	Z:	0.293	yaw:	1.755	yaw rate:	-19.227	Roll:	-1.396	Pitch:	0.250	Yaw:	-1.025	Thrust:	66.849
Time:	3.642	Roll Set Point:	0.065	Pitch Set Point:	0.021	Yaw Set Point:	-0.021	X_WP:	0.000	Y_WP:	0.000	Y_WP:	0.500	X:	-0.033	Y:	-0.011	Z:	0.298	yaw:	1.215	yaw rate:	-53.987	Roll:	-1.220	Pitch:	-0.101	Yaw:	-10.008	Thrust:	66.405
Time:	3.653	Roll Set Point:	0.066	Pitch Set Point:	0.018	Yaw Set Point:	-0.031	X_WP:	0.000	Y_WP:	0.000	Y_WP:	0.500	X:	-0.033	Y:	-0.010	Z:	0.305	yaw:	1.771	yaw rate:	55.541	Roll:	-1.484	Pitch:	1.876	Yaw:	16.765	Thrust:	56.462
Time:	3.664	Roll Set Point:	0.066	Pitch Set Point:	0.018	Yaw Set Point:	-0.022	X_WP:	0.000	Y_WP:	0.000	Y_WP:	0.500	X:	-0.033	Y:	-0.009	Z:	0.310	yaw:	1.246	yaw rate:	-52.423	Roll:	-1.297	Pitch:	-0.080	Yaw:	-9.600	Thrust:	66.269
Time:	3.675	Roll Set Point:	0.067	Pitch Set Point:	0.016	Yaw Set Point:	-0.027	X_WP:	0.000	Y_WP:	0.000	Y_WP:	0.500	X:	-0.033	Y:	-0.009	Z:	0.315	yaw:	1.553	yaw rate:	30.623	Roll:	-1.295	Pitch:	1.128	Yaw:	10.529	Thrust:	66.069
Time:	3.686	Roll Set Point:	0.067	Pitch Set Point:	0.015	Yaw Set Point:	-0.028	X_WP:	0.000	Y_WP:	0.000	Y_WP:	0.500	X:	-0.033	Y:	-0.008	Z:	0.320	yaw:	1.588	yaw rate:	3.577	Roll:	-1.217	Pitch:	0.735	Yaw:	4.169	Thrust:	66.072
Time:	3.697	Roll Set Point:	0.067	Pitch Set Point:	0.014	Yaw Set Point:	-0.023	X_WP:	0.000	Y_WP:	0.000	Y_WP:	0.500	X:	-0.034	Y:	-0.007	Z:	0.325	yaw:	1.309	yaw rate:	-27.895	Roll:	-1.213	Pitch:	0.719	Yaw:	-3.690	Thrust:	66.090
Time:	3.708	Roll Set Point:	0.068	Pitch Set Point:	0.012	Yaw Set Point:	-0.026	X_WP:	0.000	Y_WP:	0.000	Y_WP:	0.500	X:	-0.034	Y:	-0.007	Z:	0.329	yaw:	1.517	yaw rate:	20.760	Roll:	-1.144	Pitch:	0.943	Yaw:	8.149	Thrust:	66.239
Time:	3.719	Roll Set Point:	0.068	Pitch Set Point:	0.011	Yaw Set Point:	-0.013	X_WP:	0.000	Y_WP:	0.000	Y_WP:	0.500	X:	-0.034	Y:	-0.006	Z:	0.336	yaw:	0.751	yaw rate:	-76.626	Roll:	-1.209	Pitch:	0.450	Yaw:	-16.036	Thrust:	56.903
Time:	3.730	Roll Set Point:	0.068	Pitch Set Point:	0.009	Yaw Set Point:	-0.021	X_WP:	0.000	Y_WP:	0.000	Y_WP:	0.500	X:	-0.034	Y:	-0.005	Z:	0.341	yaw:	1.214	yaw rate:	46.294	Roll:	-1.156	Pitch:	1.751	Yaw:	13.785	Thrust:	66.175
Time:	3.741	Roll Set Point:	0.068	Pitch Set Point:	0.008	Yaw Set Point:	-0.012	X_WP:	0.000	Y_WP:	0.000	Y_WP:	0.500	X:	-0.034	Y:	-0.004	Z:	0.346	yaw:	0.709	yaw rate:	-50.457	Roll:	-1.017	Pitch:	0.452	Yaw:	-9.885	Thrust:	66.271
Time:	3.752	Roll Set Point:	0.068	Pitch Set Point:	0.006	Yaw Set Point:	-0.018	X_WP:	0.000	Y_WP:	0.000	Y_WP:	0.500	X:	-0.034	Y:	-0.003	Z:	0.351	yaw:	1.005	yaw rate:	29.607	Roll:	-1.146	Pitch:	1.570	Yaw:	9.534	Thrust:	66.059
Time:	3.763	Roll Set Point:	0.068	Pitch Set Point:	0.005	Yaw Set Point:	-0.009	X_WP:	0.000	Y_WP:	0.000	Y_WP:	0.500	X:	-0.034	Y:	-0.003	Z:	0.355	yaw:	0.511	yaw rate:	-49.460	Roll:	-0.942	Pitch:	0.439	Yaw:	-9.925	Thrust:	66.306
Time:	3.775	Roll Set Point:	0.068	Pitch Set Point:	0.001	Yaw Set Point:	-0.012	X_WP:	0.000	Y_WP:	0.000	Y_WP:	0.500	X:	-0.034	Y:	-0.001	Z:	0.367	yaw:	0.671	yaw rate:	-2.313	Roll:	-0.647	Pitch:	3.213	Yaw:	5.626	Thrust:	47.326
Time:	3.786	Roll Set Point:	0.068	Pitch Set Point:	-0.000	Yaw Set Point:	-0.003	X_WP:	0.000	Y_WP:	0.000	Y_WP:	0.500	X:	-0.034	Y:	0.000	Z:	0.372	yaw:	0.187	yaw rate:	-48.409	Roll:	-0.940	Pitch:	0.590	Yaw:	-10.127	Thrust:	65.773
Time:	3.797	Roll Set Point:	0.068	Pitch Set Point:	-0.000	Yaw Set Point:	-0.003	X_WP:	0.000	Y_WP:	0.000	Y_WP:	0.500	X:	-0.034	Y:	0.000	Z:	0.372	yaw:	0.187	yaw rate:	-48.409	Roll:	-1.006	Pitch:	0.036	Yaw:	1.364	Thrust:	84.927
Time:	3.808	Roll Set Point:	0.067	Pitch Set Point:	-0.002	Yaw Set Point:	-0.010	X_WP:	0.000	Y_WP:	0.000	Y_WP:	0.500	X:	-0.034	Y:	0.001	Z:	0.376	yaw:	0.600	yaw rate:	41.295	Roll:	-0.702	Pitch:	2.063	Yaw:	11.742	Thrust:	65.629
Time:	3.819	Roll Set Point:	0.067	Pitch Set Point:	-0.005	Yaw Set Point:	-0.009	X_WP:	0.000	Y_WP:	0.000	Y_WP:	0.500	X:	-0.033	Y:	0.002	Z:	0.383	yaw:	0.521	yaw rate:	-7.830	Roll:	-0.673	Pitch:	2.078	Yaw:	-0.028	Thrust:	56.386
Time:	3.831	Roll Set Point:	0.067	Pitch Set Point:	-0.007	Yaw Set Point:	-0.012	X_WP:	0.000	Y_WP:	0.000	Y_WP:	0.500	X:	-0.033	Y:	0.003	Z:	0.388	yaw:	0.683	yaw rate:	16.200	Roll:	-0.836	Pitch:	1.484	Yaw:	5.682	Thrust:	75.057
Time:	3.843	Roll Set Point:	0.065	Pitch Set Point:	-0.011	Yaw Set Point:	-0.011	X_WP:	0.000	Y_WP:	0.000	Y_WP:	0.500	X:	-0.033	Y:	0.005	Z:	0.399	yaw:	0.612	yaw rate:	12.617	Roll:	-0.110	Pitch:	3.270	Yaw:	0.500	Thrust:	48.210
Time:	3.854	Roll Set Point:	0.065	Pitch Set Point:	-0.013	Yaw Set Point:	-0.005	X_WP:	0.000	Y_WP:	0.000	Y_WP:	0.500	X:	-0.032	Y:	0.007	Z:	0.404	yaw:	0.301	yaw rate:	-31.117	Roll:	-0.562	Pitch:	1.641	Yaw:	-5.863	Thrust:	65.211
Time:	3.865	Roll Set Point:	0.064	Pitch Set Point:	-0.015	Yaw Set Point:	0.002	X_WP:	0.000	Y_WP:	0.000	Y_WP:	0.500	X:	-0.032	Y:	0.007	Z:	0.408	yaw:	-0.130	yaw rate:	-43.095	Roll:	-0.697	Pitch:	1.125	Yaw:	-9.308	Thrust:	65.626
Time:	3.877	Roll Set Point:	0.064	Pitch Set Point:	-0.017	Yaw Set Point:	-0.005	X_WP:	0.000	Y_WP:	0.000	Y_WP:	0.500	X:	-0.032	Y:	0.008	Z:	0.413	yaw:	0.278	yaw rate:	40.834	Roll:	-0.306	Pitch:	2.084	Yaw:	10.567	Thrust:	72.452
Time:	3.888	Roll Set Point:	0.063	Pitch Set Point:	-0.019	Yaw Set Point:	-0.005	X_WP:	0.000	Y_WP:	0.000	Y_WP:	0.500	X:	-0.032	Y:	0.009	Z:	0.418	yaw:	0.309	yaw rate:	3.059	Roll:	-0.471	Pitch:	1.783	Yaw:	2.260	Thrust:	65.031
Time:	3.899	Roll Set Point:	0.063	Pitch Set Point:	-0.020	Yaw Set Point:	0.005	X_WP:	0.000	Y_WP:	0.000	Y_WP:	0.500	X:	-0.031	Y:	0.010	Z:	0.422	yaw:	-0.315	yaw rate:	-62.339	Roll:	-0.811	Pitch:	1.123	Yaw:	-14.134	Thrust:	65.557
Time:	3.910	Roll Set Point:	0.062	Pitch Set Point:	-0.023	Yaw Set Point:	0.003	X_WP:	0.000	Y_WP:	0.000	Y_WP:	0.500	X:	-0.031	Y:	0.012	Z:	0.429	yaw:	-0.181	yaw rate:	13.373	Roll:	0.043	Pitch:	2.887	Yaw:	4.023	Thrust:	55.884
Time:	3.921	Roll Set Point:	0.060	Pitch Set Point:	-0.026	Yaw Set Point:	-0.008	X_WP:	0.000	Y_WP:	0.000	Y_WP:	0.500	X:	-0.030	Y:	0.013	Z:	0.433	yaw:	0.447	yaw rate:	62.820	Roll:	0.037	Pitch:	2.519	Yaw:	16.637	Thrust:	64.848
Time:	3.933	Roll Set Point:	0.060	Pitch Set Point:	-0.028	Yaw Set Point:	-0.004	X_WP:	0.000	Y_WP:	0.000	Y_WP:	0.500	X:	-0.030	Y:	0.014	Z:	0.438	yaw:	0.242	yaw rate:	-20.560	Roll:	-0.226	Pitch:	1.944	Yaw:	-3.440	Thrust:	64.396
Time:	3.944	Roll Set Point:	0.059	Pitch Set Point:	-0.030	Yaw Set Point:	-0.001	X_WP:	0.000	Y_WP:	0.000	Y_WP:	0.500	X:	-0.029	Y:	0.015	Z:	0.442	yaw:	0.033	yaw rate:	-20.833	Roll:	-0.349	Pitch:	1.985	Yaw:	-3.796	Thrust:	64.830
Time:	3.955	Roll Set Point:	0.058	Pitch Set Point:	-0.031	Yaw Set Point:	0.001	X_WP:	0.000	Y_WP:	0.000	Y_WP:	0.500	X:	-0.029	Y:	0.016	Z:	0.446	yaw:	-0.077	yaw rate:	-10.994	Roll:	-0.208	Pitch:	1.401	Yaw:	-1.614	Thrust:	64.668
Time:	3.966	Roll Set Point:	0.056	Pitch Set Point:	-0.035	Yaw Set Point:	-0.002	X_WP:	0.000	Y_WP:	0.000	Y_WP:	0.500	X:	-0.028	Y:	0.017	Z:	0.453	yaw:	0.107	yaw rate:	18.366	Roll:	0.509	Pitch:	3.213	Yaw:	5.612	Thrust:	54.889
Time:	3.977	Roll Set Point:	0.055	Pitch Set Point:	-0.037	Yaw Set Point:	0.002	X_WP:	0.000	Y_WP:	0.000	Y_WP:	0.500	X:	-0.028	Y:	0.018	Z:	0.457	yaw:	-0.122	yaw rate:	-22.930	Roll:	-0.076	Pitch:	2.104	Yaw:	-4.511	Thrust:	63.975
Time:	3.988	Roll Set Point:	0.054	Pitch Set Point:	-0.039	Yaw Set Point:	-0.001	X_WP:	0.000	Y_WP:	0.000	Y_WP:	0.500	X:	-0.027	Y:	0.019	Z:	0.462	yaw:	0.030	yaw rate:	15.182	Roll:	0.243	Pitch:	2.291	Yaw:	4.747	Thrust:	63.764
Time:	3.999	Roll Set Point:	0.053	Pitch Set Point:	-0.041	Yaw Set Point:	0.003	X_WP:	0.000	Y_WP:	0.000	Y_WP:	0.500	X:	-0.026	Y:	0.020	Z:	0.466	yaw:	-0.197	yaw rate:	-22.681	Roll:	-0.279	Pitch:	1.980	Yaw:	-4.557	Thrust:	63.920
Time:	4.010	Roll Set Point:	0.052	Pitch Set Point:	-0.044	Yaw Set Point:	0.002	X_WP:	0.000	Y_WP:	0.000	Y_WP:	0.500	X:	-0.026	Y:	0.022	Z:	0.472	yaw:	-0.124	yaw rate:	7.337	Roll:	0.243	Pitch:	2.930	Yaw:	2.670	Thrust:	55.928
Time:	4.021	Roll Set Point:	0.050	Pitch Set Point:	-0.045	Yaw Set Point:	0.008	X_WP:	0.000	Y_WP:	0.000	Y_WP:	0.500	X:	-0.025	Y:	0.023	Z:	0.477	yaw:	-0.479	yaw rate:	-35.491	Roll:	0.080	Pitch:	2.024	Yaw:	-7.992	Thrust:	63.527
Time:	4.032	Roll Set Point:	0.049	Pitch Set Point:	-0.047	Yaw Set Point:	0.008	X_WP:	0.000	Y_WP:	0.000	Y_WP:	0.500	X:	-0.024	Y:	0.024	Z:	0.481	yaw:	-0.475	yaw rate:	0.355	Roll:	0.248	Pitch:	2.140	Yaw:	0.524	Thrust:	63.663
Time:	4.043	Roll Set Point:	0.048	Pitch Set Point:	-0.049	Yaw Set Point:	0.010	X_WP:	0.000	Y_WP:	0.000	Y_WP:	0.500	X:	-0.024	Y:	0.025	Z:	0.485	yaw:	-0.560	yaw rate:	-8.454	Roll:	0.095	Pitch:	2.288	Yaw:	-1.702	Thrust:	63.806
Time:	4.054	Roll Set Point:	0.046	Pitch Set Point:	-0.052	Yaw Set Point:	0.011	X_WP:	0.000	Y_WP:	0.000	Y_WP:	0.500	X:	-0.023	Y:	0.026	Z:	0.491	yaw:	-0.609	yaw rate:	-4.872	Roll:	0.745	Pitch:	3.107	Yaw:	-0.910	Thrust:	55.466
Time:	4.065	Roll Set Point:	0.045	Pitch Set Point:	-0.054	Yaw Set Point:	0.021	X_WP:	0.000	Y_WP:	0.000	Y_WP:	0.500	X:	-0.022	Y:	0.027	Z:	0.495	yaw:	-1.182	yaw rate:	-57.332	Roll:	-0.107	Pitch:	1.681	Yaw:	-14.165	Thrust:	64.120
Time:	4.076	Roll Set Point:	0.043	Pitch Set Point:	-0.056	Yaw Set Point:	0.008	X_WP:	0.000	Y_WP:	0.000	Y_WP:	0.500	X:	-0.021	Y:	0.028	Z:	0.499	yaw:	-0.451	yaw rate:	73.104	Roll:	1.185	Pitch:	2.897	Yaw:	17.784	Thrust:	63.019
Time:	4.087	Roll Set Point:	0.042	Pitch Set Point:	-0.058	Yaw Set Point:	0.009	X_WP:	0.000	Y_WP:	0.000	Y_WP:	0.500	X:	-0.021	Y:	0.029	Z:	0.503	yaw:	-0.521	yaw rate:	-7.025	Roll:	0.177	Pitch:	2.529	Yaw:	-1.313	Thrust:	63.949
Time:	4.098	Roll Set Point:	0.041	Pitch Set Point:	-0.059	Yaw Set Point:	0.020	X_WP:	0.000	Y_WP:	0.000	Y_WP:	0.500	X:	-0.020	Y:	0.030	Z:	0.507	yaw:	-1.146	yaw rate:	-62.481	Roll:	-0.365	Pitch:	1.637	Yaw:	-14.652	Thrust:	68.048
Time:	4.109	Roll Set Point:	0.039	Pitch Set Point:	-0.062	Yaw Set Point:	0.008	X_WP:	0.000	Y_WP:	0.000	Y_WP:	0.500	X:	-0.019	Y:	0.031	Z:	0.511	yaw:	-0.479	yaw rate:	66.710	Roll:	1.463	Pitch:	2.991	Yaw:	16.247	Thrust:	64.416
Time:	4.121	Roll Set Point:	0.037	Pitch Set Point:	-0.064	Yaw Set Point:	0.017	X_WP:	0.000	Y_WP:	0.000	Y_WP:	0.500	X:	-0.018	Y:	0.032	Z:	0.517	yaw:	-0.947	yaw rate:	-46.811	Roll:	0.459	Pitch:	2.907	Yaw:	-11.355	Thrust:	55.568
Time:	4.132	Roll Set Point:	0.036	Pitch Set Point:	-0.066	Yaw Set Point:	0.014	X_WP:	0.000	Y_WP:	0.000	Y_WP:	0.500	X:	-0.018	Y:	0.033	Z:	0.520	yaw:	-0.822	yaw rate:	12.493	Roll:	0.677	Pitch:	2.555	Yaw:	2.893	Thrust:	64.326
Time:	4.143	Roll Set Point:	0.035	Pitch Set Point:	-0.068	Yaw Set Point:	0.025	X_WP:	0.000	Y_WP:	0.000	Y_WP:	0.500	X:	-0.017	Y:	0.034	Z:	0.524	yaw:	-1.453	yaw rate:	-63.147	Roll:	-0.083	Pitch:	1.903	Yaw:	-15.946	Thrust:	63.936
Time:	4.155	Roll Set Point:	0.033	Pitch Set Point:	-0.070	Yaw Set Point:	0.022	X_WP:	0.000	Y_WP:	0.000	Y_WP:	0.500	X:	-0.016	Y:	0.035	Z:	0.527	yaw:	-1.282	yaw rate:	17.163	Roll:	0.717	Pitch:	2.610	Yaw:	3.108	Thrust:	71.969
Time:	4.168	Roll Set Point:	0.031	Pitch Set Point:	-0.072	Yaw Set Point:	0.019	X_WP:	0.000	Y_WP:	0.000	Y_WP:	0.500	X:	-0.015	Y:	0.036	Z:	0.531	yaw:	-1.065	yaw rate:	21.650	Roll:	0.799	Pitch:	2.359	Yaw:	4.115	Thrust:	80.030
Time:	4.179	Roll Set Point:	0.028	Pitch Set Point:	-0.074	Yaw Set Point:	0.018	X_WP:	0.000	Y_WP:	0.000	Y_WP:	0.500	X:	-0.014	Y:	0.037	Z:	0.536	yaw:	-1.021	yaw rate:	4.467	Roll:	1.414	Pitch:	3.298	Yaw:	0.692	Thrust:	56.862
Time:	4.191	Roll Set Point:	0.027	Pitch Set Point:	-0.076	Yaw Set Point:	0.027	X_WP:	0.000	Y_WP:	0.000	Y_WP:	0.500	X:	-0.013	Y:	0.038	Z:	0.540	yaw:	-1.571	yaw rate:	-55.027	Roll:	-0.030	Pitch:	1.982	Yaw:	-13.018	Thrust:	72.134
Time:	4.202	Roll Set Point:	0.026	Pitch Set Point:	-0.078	Yaw Set Point:	0.021	X_WP:	0.000	Y_WP:	0.000	Y_WP:	0.500	X:	-0.012	Y:	0.039	Z:	0.543	yaw:	-1.216	yaw rate:	35.508	Roll:	1.162	Pitch:	2.649	Yaw:	7.778	Thrust:	62.957
Time:	4.213	Roll Set Point:	0.024	Pitch Set Point:	-0.080	Yaw Set Point:	0.021	X_WP:	0.000	Y_WP:	0.000	Y_WP:	0.500	X:	-0.012	Y:	0.040	Z:	0.547	yaw:	-1.216	yaw rate:	-0.056	Roll:	0.931	Pitch:	2.792	Yaw:	-0.669	Thrust:	62.778
Time:	4.224	Roll Set Point:	0.022	Pitch Set Point:	-0.081	Yaw Set Point:	0.027	X_WP:	0.000	Y_WP:	0.000	Y_WP:	0.500	X:	-0.011	Y:	0.041	Z:	0.550	yaw:	-1.561	yaw rate:	-34.414	Roll:	0.511	Pitch:	2.216	Yaw:	-9.310	Thrust:	62.754
Time:	4.235	Roll Set Point:	0.020	Pitch Set Point:	-0.083	Yaw Set Point:	0.029	X_WP:	0.000	Y_WP:	0.000	Y_WP:	0.500	X:	-0.009	Y:	0.042	Z:	0.555	yaw:	-1.665	yaw rate:	-10.411	Roll:	1.377	Pitch:	3.023	Yaw:	-3.764	Thrust:	55.851
Time:	4.246	Roll Set Point:	0.018	Pitch Set Point:	-0.085	Yaw Set Point:	0.019	X_WP:	0.000	Y_WP:	0.000	Y_WP:	0.500	X:	-0.008	Y:	0.043	Z:	0.559	yaw:	-1.099	yaw rate:	56.608	Roll:	1.958	Pitch:	3.024	Yaw:	12.929	Thrust:	61.489
Time:	4.257	Roll Set Point:	0.017	Pitch Set Point:	-0.087	Yaw Set Point:	0.029	X_WP:	0.000	Y_WP:	0.000	Y_WP:	0.500	X:	-0.008	Y:	0.043	Z:	0.562	yaw:	-1.648	yaw rate:	-54.900	Roll:	0.110	Pitch:	2.280	Yaw:	-14.311	Thrust:	61.632
Time:	4.268	Roll Set Point:	0.014	Pitch Set Point:	-0.089	Yaw Set Point:	0.023	X_WP:	0.000	Y_WP:	0.000	Y_WP:	0.500	X:	-0.007	Y:	0.044	Z:	0.566	yaw:	-1.314	yaw rate:	33.349	Roll:	1.656	Pitch:	2.808	Yaw:	7.096	Thrust:	61.395
Time:	4.279	Roll Set Point:	0.012	Pitch Set Point:	-0.091	Yaw Set Point:	0.026	X_WP:	0.000	Y_WP:	0.000	Y_WP:	0.500	X:	-0.005	Y:	0.045	Z:	0.571	yaw:	-1.476	yaw rate:	-16.170	Roll:	1.546	Pitch:	2.998	Yaw:	-4.889	Thrust:	53.473
Time:	4.290	Roll Set Point:	0.010	Pitch Set Point:	-0.092	Yaw Set Point:	0.025	X_WP:	0.000	Y_WP:	0.000	Y_WP:	0.500	X:	-0.005	Y:	0.046	Z:	0.574	yaw:	-1.425	yaw rate:	5.113	Roll:	0.949	Pitch:	2.284	Yaw:	0.229	Thrust:	61.350
Time:	4.301	Roll Set Point:	0.009	Pitch Set Point:	-0.093	Yaw Set Point:	0.029	X_WP:	0.000	Y_WP:	0.000	Y_WP:	0.500	X:	-0.004	Y:	0.047	Z:	0.578	yaw:	-1.674	yaw rate:	-24.955	Roll:	0.996	Pitch:	2.745	Yaw:	-7.263	Thrust:	60.628
Time:	4.312	Roll Set Point:	0.006	Pitch Set Point:	-0.095	Yaw Set Point:	0.022	X_WP:	0.000	Y_WP:	0.000	Y_WP:	0.500	X:	-0.003	Y:	0.048	Z:	0.581	yaw:	-1.277	yaw rate:	39.760	Roll:	1.742	Pitch:	2.638	Yaw:	8.647	Thrust:	60.707
Time:	4.323	Roll Set Point:	0.004	Pitch Set Point:	-0.096	Yaw Set Point:	0.016	X_WP:	0.000	Y_WP:	0.000	Y_WP:	0.500	X:	-0.002	Y:	0.048	Z:	0.584	yaw:	-0.892	yaw rate:	38.449	Roll:	2.084	Pitch:	2.621	Yaw:	8.868	Thrust:	61.015
Time:	4.334	Roll Set Point:	0.002	Pitch Set Point:	-0.099	Yaw Set Point:	0.026	X_WP:	0.000	Y_WP:	0.000	Y_WP:	0.500	X:	-0.000	Y:	0.049	Z:	0.589	yaw:	-1.461	yaw rate:	-56.902	Roll:	0.812	Pitch:	3.181	Yaw:	-14.563	Thrust:	53.779
Time:	4.345	Roll Set Point:	0.001	Pitch Set Point:	-0.100	Yaw Set Point:	0.028	X_WP:	0.000	Y_WP:	0.000	Y_WP:	0.500	X:	0.000	Y:	0.050	Z:	0.592	yaw:	-1.617	yaw rate:	-15.630	Roll:	1.042	Pitch:	2.427	Yaw:	-4.990	Thrust:	60.616
Time:	4.356	Roll Set Point:	-0.001	Pitch Set Point:	-0.101	Yaw Set Point:	0.027	X_WP:	0.000	Y_WP:	0.000	Y_WP:	0.500	X:	0.001	Y:	0.051	Z:	0.596	yaw:	-1.573	yaw rate:	4.434	Roll:	1.252	Pitch:	2.638	Yaw:	-0.172	Thrust:	60.729
Time:	4.368	Roll Set Point:	-0.003	Pitch Set Point:	-0.102	Yaw Set Point:	0.027	X_WP:	0.000	Y_WP:	0.000	Y_WP:	0.500	X:	0.002	Y:	0.051	Z:	0.598	yaw:	-1.558	yaw rate:	1.511	Roll:	1.386	Pitch:	2.243	Yaw:	-0.818	Thrust:	65.663
Time:	4.379	Roll Set Point:	-0.005	Pitch Set Point:	-0.104	Yaw Set Point:	0.028	X_WP:	0.000	Y_WP:	0.000	Y_WP:	0.500	X:	0.003	Y:	0.052	Z:	0.601	yaw:	-1.580	yaw rate:	-2.159	Roll:	1.397	Pitch:	2.788	Yaw:	-1.758	Thrust:	60.563
Time:	4.390	Roll Set Point:	-0.007	Pitch Set Point:	-0.105	Yaw Set Point:	0.035	X_WP:	0.000	Y_WP:	0.000	Y_WP:	0.500	X:	0.004	Y:	0.053	Z:	0.606	yaw:	-2.002	yaw rate:	-42.237	Roll:	1.214	Pitch:	2.956	Yaw:	-11.867	Thrust:	55.248
Time:	4.401	Roll Set Point:	-0.009	Pitch Set Point:	-0.107	Yaw Set Point:	0.033	X_WP:	0.000	Y_WP:	0.000	Y_WP:	0.500	X:	0.005	Y:	0.053	Z:	0.608	yaw:	-1.865	yaw rate:	13.679	Roll:	1.569	Pitch:	2.730	Yaw:	1.589	Thrust:	61.611
Time:	4.412	Roll Set Point:	-0.011	Pitch Set Point:	-0.108	Yaw Set Point:	0.032	X_WP:	0.000	Y_WP:	0.000	Y_WP:	0.500	X:	0.006	Y:	0.054	Z:	0.611	yaw:	-1.833	yaw rate:	3.225	Roll:	1.489	Pitch:	2.604	Yaw:	-0.855	Thrust:	60.688
Time:	4.423	Roll Set Point:	-0.012	Pitch Set Point:	-0.109	Yaw Set Point:	0.032	X_WP:	0.000	Y_WP:	0.000	Y_WP:	0.500	X:	0.007	Y:	0.055	Z:	0.613	yaw:	-1.855	yaw rate:	-2.195	Roll:	1.445	Pitch:	2.672	Yaw:	-2.179	Thrust:	60.904
Time:	4.434	Roll Set Point:	-0.014	Pitch Set Point:	-0.110	Yaw Set Point:	0.041	X_WP:	0.000	Y_WP:	0.000	Y_WP:	0.500	X:	0.008	Y:	0.055	Z:	0.616	yaw:	-2.343	yaw rate:	-48.839	Roll:	0.812	Pitch:	2.441	Yaw:	-13.939	Thrust:	61.061
Time:	4.446	Roll Set Point:	-0.016	Pitch Set Point:	-0.112	Yaw Set Point:	0.038	X_WP:	0.000	Y_WP:	0.000	Y_WP:	0.500	X:	0.009	Y:	0.056	Z:	0.619	yaw:	-2.190	yaw rate:	15.321	Roll:	2.085	Pitch:	2.991	Yaw:	1.281	Thrust:	65.212
Time:	4.457	Roll Set Point:	-0.019	Pitch Set Point:	-0.113	Yaw Set Point:	0.033	X_WP:	0.000	Y_WP:	0.000	Y_WP:	0.500	X:	0.010	Y:	0.056	Z:	0.621	yaw:	-1.904	yaw rate:	28.622	Roll:	2.108	Pitch:	2.748	Yaw:	5.043	Thrust:	61.217
Time:	4.468	Roll Set Point:	-0.020	Pitch Set Point:	-0.114	Yaw Set Point:	0.039	X_WP:	0.000	Y_WP:	0.000	Y_WP:	0.500	X:	0.011	Y:	0.057	Z:	0.624	yaw:	-2.230	yaw rate:	-32.662	Roll:	0.861	Pitch:	2.337	Yaw:	-9.967	Thrust:	61.366
Time:	4.479	Roll Set Point:	-0.022	Pitch Set Point:	-0.115	Yaw Set Point:	0.035	X_WP:	0.000	Y_WP:	0.000	Y_WP:	0.500	X:	0.012	Y:	0.057	Z:	0.625	yaw:	-1.999	yaw rate:	23.096	Roll:	1.765	Pitch:	2.756	Yaw:	3.582	Thrust:	62.133
Time:	4.490	Roll Set Point:	-0.023	Pitch Set Point:	-0.116	Yaw Set Point:	0.044	X_WP:	0.000	Y_WP:	0.000	Y_WP:	0.500	X:	0.013	Y:	0.058	Z:	0.627	yaw:	-2.512	yaw rate:	-51.239	Roll:	0.764	Pitch:	2.661	Yaw:	-14.786	Thrust:	61.573
Time:	4.502	Roll Set Point:	-0.026	Pitch Set Point:	-0.118	Yaw Set Point:	0.038	X_WP:	0.000	Y_WP:	0.000	Y_WP:	0.500	X:	0.014	Y:	0.059	Z:	0.630	yaw:	-2.171	yaw rate:	34.119	Roll:	2.862	Pitch:	2.975	Yaw:	5.615	Thrust:	61.708
Time:	4.513	Roll Set Point:	-0.027	Pitch Set Point:	-0.119	Yaw Set Point:	0.044	X_WP:	0.000	Y_WP:	0.000	Y_WP:	0.500	X:	0.015	Y:	0.059	Z:	0.632	yaw:	-2.506	yaw rate:	-33.510	Roll:	0.973	Pitch:	2.727	Yaw:	-10.586	Thrust:	61.771
Time:	4.524	Roll Set Point:	-0.030	Pitch Set Point:	-0.120	Yaw Set Point:	0.036	X_WP:	0.000	Y_WP:	0.000	Y_WP:	0.500	X:	0.016	Y:	0.060	Z:	0.634	yaw:	-2.048	yaw rate:	45.744	Roll:	2.614	Pitch:	2.689	Yaw:	8.855	Thrust:	61.702
Time:	4.535	Roll Set Point:	-0.031	Pitch Set Point:	-0.121	Yaw Set Point:	0.035	X_WP:	0.000	Y_WP:	0.000	Y_WP:	0.500	X:	0.017	Y:	0.060	Z:	0.636	yaw:	-2.030	yaw rate:	1.845	Roll:	1.707	Pitch:	2.648	Yaw:	-1.548	Thrust:	61.749
Time:	4.546	Roll Set Point:	-0.034	Pitch Set Point:	-0.122	Yaw Set Point:	0.033	X_WP:	0.000	Y_WP:	0.000	Y_WP:	0.500	X:	0.018	Y:	0.061	Z:	0.637	yaw:	-1.902	yaw rate:	12.756	Roll:	2.139	Pitch:	2.564	Yaw:	1.212	Thrust:	61.363
Time:	4.557	Roll Set Point:	-0.035	Pitch Set Point:	-0.123	Yaw Set Point:	0.038	X_WP:	0.000	Y_WP:	0.000	Y_WP:	0.500	X:	0.018	Y:	0.061	Z:	0.639	yaw:	-2.204	yaw rate:	-30.202	Roll:	0.876	Pitch:	2.657	Yaw:	-9.414	Thrust:	62.049
Time:	4.568	Roll Set Point:	-0.037	Pitch Set Point:	-0.124	Yaw Set Point:	0.044	X_WP:	0.000	Y_WP:	0.000	Y_WP:	0.500	X:	0.020	Y:	0.062	Z:	0.641	yaw:	-2.513	yaw rate:	-30.835	Roll:	1.830	Pitch:	2.911	Yaw:	-10.003	Thrust:	58.916
Time:	4.579	Roll Set Point:	-0.039	Pitch Set Point:	-0.125	Yaw Set Point:	0.038	X_WP:	0.000	Y_WP:	0.000	Y_WP:	0.500	X:	0.021	Y:	0.062	Z:	0.642	yaw:	-2.197	yaw rate:	31.602	Roll:	2.371	Pitch:	2.743	Yaw:	5.237	Thrust:	61.854
Time:	4.590	Roll Set Point:	-0.040	Pitch Set Point:	-0.126	Yaw Set Point:	0.046	X_WP:	0.000	Y_WP:	0.000	Y_WP:	0.500	X:	0.021	Y:	0.063	Z:	0.644	yaw:	-2.628	yaw rate:	-43.096	Roll:	1.050	Pitch:	2.718	Yaw:	-13.087	Thrust:	61.675
Time:	4.601	Roll Set Point:	-0.043	Pitch Set Point:	-0.127	Yaw Set Point:	0.035	X_WP:	0.000	Y_WP:	0.000	Y_WP:	0.500	X:	0.022	Y:	0.063	Z:	0.645	yaw:	-1.991	yaw rate:	63.697	Roll:	3.022	Pitch:	2.450	Yaw:	13.168	Thrust:	61.885
Time:	4.612	Roll Set Point:	-0.044	Pitch Set Point:	-0.128	Yaw Set Point:	0.048	X_WP:	0.000	Y_WP:	0.000	Y_WP:	0.500	X:	0.023	Y:	0.063	Z:	0.646	yaw:	-2.742	yaw rate:	-75.168	Roll:	0.853	Pitch:	2.980	Yaw:	-20.850	Thrust:	59.700
Time:	4.623	Roll Set Point:	-0.046	Pitch Set Point:	-0.129	Yaw Set Point:	0.039	X_WP:	0.000	Y_WP:	0.000	Y_WP:	0.500	X:	0.024	Y:	0.064	Z:	0.648	yaw:	-2.209	yaw rate:	53.311	Roll:	3.093	Pitch:	2.704	Yaw:	10.341	Thrust:	61.678
Time:	4.634	Roll Set Point:	-0.048	Pitch Set Point:	-0.129	Yaw Set Point:	0.037	X_WP:	0.000	Y_WP:	0.000	Y_WP:	0.500	X:	0.025	Y:	0.064	Z:	0.649	yaw:	-2.121	yaw rate:	8.814	Roll:	1.971	Pitch:	2.382	Yaw:	-0.097	Thrust:	61.232
Time:	4.645	Roll Set Point:	-0.050	Pitch Set Point:	-0.130	Yaw Set Point:	0.035	X_WP:	0.000	Y_WP:	0.000	Y_WP:	0.500	X:	0.026	Y:	0.065	Z:	0.650	yaw:	-1.979	yaw rate:	14.186	Roll:	2.063	Pitch:	2.474	Yaw:	1.365	Thrust:	61.601
Time:	4.656	Roll Set Point:	-0.051	Pitch Set Point:	-0.131	Yaw Set Point:	0.039	X_WP:	0.000	Y_WP:	0.000	Y_WP:	0.500	X:	0.027	Y:	0.065	Z:	0.651	yaw:	-2.256	yaw rate:	-27.700	Roll:	1.287	Pitch:	2.759	Yaw:	-8.971	Thrust:	62.097
Time:	4.667	Roll Set Point:	-0.052	Pitch Set Point:	-0.131	Yaw Set Point:	0.040	X_WP:	0.000	Y_WP:	0.000	Y_WP:	0.500	X:	0.028	Y:	0.065	Z:	0.652	yaw:	-2.296	yaw rate:	-3.996	Roll:	1.794	Pitch:	2.524	Yaw:	-3.410	Thrust:	62.003
Time:	4.678	Roll Set Point:	-0.054	Pitch Set Point:	-0.132	Yaw Set Point:	0.050	X_WP:	0.000	Y_WP:	0.000	Y_WP:	0.500	X:	0.028	Y:	0.065	Z:	0.653	yaw:	-2.846	yaw rate:	-54.988	Roll:	1.128	Pitch:	2.906	Yaw:	-16.290	Thrust:	60.175
Time:	4.689	Roll Set Point:	-0.055	Pitch Set Point:	-0.133	Yaw Set Point:	0.051	X_WP:	0.000	Y_WP:	0.000	Y_WP:	0.500	X:	0.029	Y:	0.066	Z:	0.653	yaw:	-2.902	yaw rate:	-5.613	Roll:	1.771	Pitch:	2.575	Yaw:	-4.659	Thrust:	62.404
Time:	4.700	Roll Set Point:	-0.057	Pitch Set Point:	-0.134	Yaw Set Point:	0.044	X_WP:	0.000	Y_WP:	0.000	Y_WP:	0.500	X:	0.030	Y:	0.066	Z:	0.654	yaw:	-2.550	yaw rate:	35.255	Roll:	2.822	Pitch:	2.648	Yaw:	5.523	Thrust:	61.498
Time:	4.711	Roll Set Point:	-0.059	Pitch Set Point:	-0.134	Yaw Set Point:	0.046	X_WP:	0.000	Y_WP:	0.000	Y_WP:	0.500	X:	0.031	Y:	0.066	Z:	0.655	yaw:	-2.648	yaw rate:	-9.830	Roll:	1.599	Pitch:	2.579	Yaw:	-5.326	Thrust:	61.770
Time:	4.722	Roll Set Point:	-0.060	Pitch Set Point:	-0.135	Yaw Set Point:	0.051	X_WP:	0.000	Y_WP:	0.000	Y_WP:	0.500	X:	0.032	Y:	0.067	Z:	0.656	yaw:	-2.943	yaw rate:	-29.542	Roll:	1.736	Pitch:	2.613	Yaw:	-10.428	Thrust:	60.450
Time:	4.733	Roll Set Point:	-0.062	Pitch Set Point:	-0.135	Yaw Set Point:	0.052	X_WP:	0.000	Y_WP:	0.000	Y_WP:	0.500	X:	0.033	Y:	0.067	Z:	0.656	yaw:	-2.958	yaw rate:	-1.441	Roll:	1.853	Pitch:	2.581	Yaw:	-3.790	Thrust:	62.323
Time:	4.744	Roll Set Point:	-0.064	Pitch Set Point:	-0.136	Yaw Set Point:	0.045	X_WP:	0.000	Y_WP:	0.000	Y_WP:	0.500	X:	0.033	Y:	0.067	Z:	0.656	yaw:	-2.600	yaw rate:	35.753	Roll:	2.698	Pitch:	2.414	Yaw:	5.527	Thrust:	61.580
Time:	4.755	Roll Set Point:	-0.066	Pitch Set Point:	-0.136	Yaw Set Point:	0.041	X_WP:	0.000	Y_WP:	0.000	Y_WP:	0.500	X:	0.034	Y:	0.067	Z:	0.657	yaw:	-2.366	yaw rate:	23.427	Roll:	2.549	Pitch:	2.018	Yaw:	2.919	Thrust:	62.146
Time:	4.766	Roll Set Point:	-0.066	Pitch Set Point:	-0.136	Yaw Set Point:	0.044	X_WP:	0.000	Y_WP:	0.000	Y_WP:	0.500	X:	0.035	Y:	0.067	Z:	0.657	yaw:	-2.525	yaw rate:	-15.897	Roll:	1.181	Pitch:	2.508	Yaw:	-6.637	Thrust:	62.370
Time:	4.777	Roll Set Point:	-0.068	Pitch Set Point:	-0.137	Yaw Set Point:	0.048	X_WP:	0.000	Y_WP:	0.000	Y_WP:	0.500	X:	0.036	Y:	0.067	Z:	0.657	yaw:	-2.722	yaw rate:	-19.725	Roll:	2.100	Pitch:	2.559	Yaw:	-7.839	Thrust:	62.089
Time:	4.788	Roll Set Point:	-0.069	Pitch Set Point:	-0.137	Yaw Set Point:	0.053	X_WP:	0.000	Y_WP:	0.000	Y_WP:	0.500	X:	0.036	Y:	0.068	Z:	0.657	yaw:	-3.034	yaw rate:	-31.219	Roll:	1.281	Pitch:	2.804	Yaw:	-11.014	Thrust:	61.893
Time:	4.799	Roll Set Point:	-0.070	Pitch Set Point:	-0.137	Yaw Set Point:	0.052	X_WP:	0.000	Y_WP:	0.000	Y_WP:	0.500	X:	0.037	Y:	0.068	Z:	0.658	yaw:	-3.005	yaw rate:	2.947	Roll:	2.023	Pitch:	2.386	Yaw:	-2.876	Thrust:	61.812
Time:	4.810	Roll Set Point:	-0.071	Pitch Set Point:	-0.138	Yaw Set Point:	0.051	X_WP:	0.000	Y_WP:	0.000	Y_WP:	0.500	X:	0.037	Y:	0.068	Z:	0.658	yaw:	-2.928	yaw rate:	7.667	Roll:	1.907	Pitch:	2.291	Yaw:	-1.657	Thrust:	61.843
Time:	4.821	Roll Set Point:	-0.074	Pitch Set Point:	-0.138	Yaw Set Point:	0.040	X_WP:	0.000	Y_WP:	0.000	Y_WP:	0.500	X:	0.038	Y:	0.068	Z:	0.658	yaw:	-2.307	yaw rate:	62.165	Roll:	3.296	Pitch:	2.053	Yaw:	12.103	Thrust:	62.275
Time:	4.832	Roll Set Point:	-0.075	Pitch Set Point:	-0.138	Yaw Set Point:	0.039	X_WP:	0.000	Y_WP:	0.000	Y_WP:	0.500	X:	0.039	Y:	0.068	Z:	0.658	yaw:	-2.255	yaw rate:	5.166	Roll:	2.466	Pitch:	2.251	Yaw:	-1.334	Thrust:	62.228
Time:	4.843	Roll Set Point:	-0.076	Pitch Set Point:	-0.138	Yaw Set Point:	0.043	X_WP:	0.000	Y_WP:	0.000	Y_WP:	0.500	X:	0.039	Y:	0.068	Z:	0.657	yaw:	-2.453	yaw rate:	-19.794	Roll:	1.284	Pitch:	2.548	Yaw:	-7.556	Thrust:	62.380
Time:	4.855	Roll Set Point:	-0.076	Pitch Set Point:	-0.138	Yaw Set Point:	0.053	X_WP:	0.000	Y_WP:	0.000	Y_WP:	0.500	X:	0.040	Y:	0.068	Z:	0.657	yaw:	-3.031	yaw rate:	-57.831	Roll:	0.577	Pitch:	2.519	Yaw:	-17.355	Thrust:	62.356
Time:	4.866	Roll Set Point:	-0.077	Pitch Set Point:	-0.139	Yaw Set Point:	0.055	X_WP:	0.000	Y_WP:	0.000	Y_WP:	0.500	X:	0.040	Y:	0.068	Z:	0.657	yaw:	-3.166	yaw rate:	-13.497	Roll:	1.672	Pitch:	2.698	Yaw:	-7.066	Thrust:	62.084
Time:	4.877	Roll Set Point:	-0.079	Pitch Set Point:	-0.139	Yaw Set Point:	0.056	X_WP:	0.000	Y_WP:	0.000	Y_WP:	0.500	X:	0.041	Y:	0.068	Z:	0.657	yaw:	-3.200	yaw rate:	-3.352	Roll:	2.218	Pitch:	2.347	Yaw:	-4.716	Thrust:	62.957
Time:	4.888	Roll Set Point:	-0.080	Pitch Set Point:	-0.139	Yaw Set Point:	0.056	X_WP:	0.000	Y_WP:	0.000	Y_WP:	0.500	X:	0.042	Y:	0.068	Z:	0.656	yaw:	-3.200	yaw rate:	-0.003	Roll:	1.736	Pitch:	2.264	Yaw:	-3.934	Thrust:	62.093
Time:	4.899	Roll Set Point:	-0.082	Pitch Set Point:	-0.139	Yaw Set Point:	0.046	X_WP:	0.000	Y_WP:	0.000	Y_WP:	0.500	X:	0.042	Y:	0.069	Z:	0.656	yaw:	-2.624	yaw rate:	57.580	Roll:	3.357	Pitch:	1.799	Yaw:	10.521	Thrust:	61.801
Time:	4.910	Roll Set Point:	-0.081	Pitch Set Point:	-0.139	Yaw Set Point:	0.057	X_WP:	0.000	Y_WP:	0.000	Y_WP:	0.500	X:	0.043	Y:	0.068	Z:	0.656	yaw:	-3.249	yaw rate:	-62.496	Roll:	0.067	Pitch:	2.673	Yaw:	-18.863	Thrust:	62.413
Time:	4.921	Roll Set Point:	-0.083	Pitch Set Point:	-0.139	Yaw Set Point:	0.055	X_WP:	0.000	Y_WP:	0.000	Y_WP:	0.500	X:	0.043	Y:	0.068	Z:	0.655	yaw:	-3.129	yaw rate:	11.939	Roll:	2.297	Pitch:	2.206	Yaw:	-1.031	Thrust:	61.931
Time:	4.932	Roll Set Point:	-0.084	Pitch Set Point:	-0.139	Yaw Set Point:	0.042	X_WP:	0.000	Y_WP:	0.000	Y_WP:	0.500	X:	0.044	Y:	0.068	Z:	0.655	yaw:	-2.384	yaw rate:	74.504	Roll:	3.344	Pitch:	1.515	Yaw:	14.843	Thrust:	62.659
Time:	4.943	Roll Set Point:	-0.086	Pitch Set Point:	-0.139	Yaw Set Point:	0.044	X_WP:	0.000	Y_WP:	0.000	Y_WP:	0.500	X:	0.044	Y:	0.068	Z:	0.654	yaw:	-2.540	yaw rate:	-15.512	Roll:	1.868	Pitch:	2.346	Yaw:	-6.750	Thrust:	62.945
Time:	4.954	Roll Set Point:	-0.086	Pitch Set Point:	-0.139	Yaw Set Point:	0.054	X_WP:	0.000	Y_WP:	0.000	Y_WP:	0.500	X:	0.045	Y:	0.068	Z:	0.653	yaw:	-3.074	yaw rate:	-53.438	Roll:	0.828	Pitch:	2.493	Yaw:	-16.507	Thrust:	62.666
Time:	4.965	Roll Set Point:	-0.087	Pitch Set Point:	-0.139	Yaw Set Point:	0.049	X_WP:	0.000	Y_WP:	0.000	Y_WP:	0.500	X:	0.045	Y:	0.068	Z:	0.653	yaw:	-2.805	yaw rate:	26.881	Roll:	2.176	Pitch:	1.927	Yaw:	2.907	Thrust:	62.435
Time:	4.976	Roll Set Point:	-0.088	Pitch Set Point:	-0.138	Yaw Set Point:	0.047	X_WP:	0.000	Y_WP:	0.000	Y_WP:	0.500	X:	0.045	Y:	0.068	Z:	0.652	yaw:	-2.703	yaw rate:	10.207	Roll:	2.032	Pitch:	1.938	Yaw:	-0.907	Thrust:	62.107
Time:	4.987	Roll Set Point:	-0.088	Pitch Set Point:	-0.138	Yaw Set Point:	0.056	X_WP:	0.000	Y_WP:	0.000	Y_WP:	0.500	X:	0.046	Y:	0.068	Z:	0.651	yaw:	-3.204	yaw rate:	-50.123	Roll:	1.095	Pitch:	2.493	Yaw:	-15.946	Thrust:	63.936
Time:	4.998	Roll Set Point:	-0.090	Pitch Set Point:	-0.138	Yaw Set Point:	0.045	X_WP:	0.000	Y_WP:	0.000	Y_WP:	0.500	X:	0.047	Y:	0.068	Z:	0.650	yaw:	-2.560	yaw rate:	64.378	Roll:	3.278	Pitch:	1.564	Yaw:	12.161	Thrust:	62.235
Time:	5.009	Roll Set Point:	-0.091	Pitch Set Point:	-0.138	Yaw Set Point:	0.045	X_WP:	0.000	Y_WP:	0.000	Y_WP:	0.500	X:	0.047	Y:	0.068	Z:	0.649	yaw:	-2.598	yaw rate:	-3.778	Roll:	1.881	Pitch:	2.127	Yaw:	-4.108	Thrust:	62.204
