Time:	2.055	Roll Set Point:	0.245	Pitch Set Point:	1.227	Yaw Set Point:	1.725	X_WP:	0.000	Y_WP:	0.000	Y_WP:	0.500	X:	-0.838	Y:	-0.470	Z:	1.197	yaw:	-98.816	yaw rate:	2.935	Roll:	17.205	Pitch:	-21.932	Yaw:	-137.974	Thrust:	0.000
Time:	2.066	Roll Set Point:	0.240	Pitch Set Point:	1.230	Yaw Set Point:	1.732	X_WP:	0.000	Y_WP:	0.000	Y_WP:	0.500	X:	-0.843	Y:	-0.474	Z:	1.196	yaw:	-99.232	yaw rate:	-41.556	Roll:	30.000	Pitch:	-21.862	Yaw:	-148.800	Thrust:	0.000
Time:	2.077	Roll Set Point:	0.235	Pitch Set Point:	1.231	Yaw Set Point:	1.739	X_WP:	0.000	Y_WP:	0.000	Y_WP:	0.500	X:	-0.846	Y:	-0.476	Z:	1.197	yaw:	-99.633	yaw rate:	-40.096	Roll:	30.000	Pitch:	-19.380	Yaw:	-149.393	Thrust:	0.000
Time:	2.088	Roll Set Point:	0.239	Pitch Set Point:	1.239	Yaw Set Point:	1.734	X_WP:	0.000	Y_WP:	0.000	Y_WP:	0.500	X:	-0.849	Y:	-0.479	Z:	1.197	yaw:	-99.343	yaw rate:	29.001	Roll:	16.485	Pitch:	-30.000	Yaw:	-132.969	Thrust:	0.000
Time:	2.099	Roll Set Point:	0.226	Pitch Set Point:	1.234	Yaw Set Point:	1.751	X_WP:	0.000	Y_WP:	0.000	Y_WP:	0.500	X:	-0.853	Y:	-0.481	Z:	1.197	yaw:	-100.329	yaw rate:	-98.616	Roll:	30.000	Pitch:	-9.647	Yaw:	-165.023	Thrust:	0.000
Time:	2.111	Roll Set Point:	0.219	Pitch Set Point:	1.234	Yaw Set Point:	1.761	X_WP:	0.000	Y_WP:	0.000	Y_WP:	0.500	X:	-0.857	Y:	-0.484	Z:	1.196	yaw:	-100.920	yaw rate:	-59.092	Roll:	30.000	Pitch:	-18.251	Yaw:	-156.058	Thrust:	0.000
Time:	2.122	Roll Set Point:	0.218	Pitch Set Point:	1.237	Yaw Set Point:	1.764	X_WP:	0.000	Y_WP:	0.000	Y_WP:	0.500	X:	-0.860	Y:	-0.486	Z:	1.196	yaw:	-101.091	yaw rate:	-17.062	Roll:	26.100	Pitch:	-23.069	Yaw:	-147.405	Thrust:	0.000
Time:	2.133	Roll Set Point:	0.209	Pitch Set Point:	1.234	Yaw Set Point:	1.776	X_WP:	0.000	Y_WP:	0.000	Y_WP:	0.500	X:	-0.863	Y:	-0.488	Z:	1.196	yaw:	-101.783	yaw rate:	-69.255	Roll:	30.000	Pitch:	-13.557	Yaw:	-160.791	Thrust:	0.000
Time:	2.144	Roll Set Point:	0.206	Pitch Set Point:	1.236	Yaw Set Point:	1.782	X_WP:	0.000	Y_WP:	0.000	Y_WP:	0.500	X:	-0.868	Y:	-0.491	Z:	1.196	yaw:	-102.119	yaw rate:	-33.547	Roll:	30.000	Pitch:	-21.705	Yaw:	-152.741	Thrust:	0.000
Time:	2.155	Roll Set Point:	0.209	Pitch Set Point:	1.242	Yaw Set Point:	1.780	X_WP:	0.000	Y_WP:	0.000	Y_WP:	0.500	X:	-0.871	Y:	-0.492	Z:	1.196	yaw:	-101.962	yaw rate:	15.691	Roll:	19.481	Pitch:	-28.973	Yaw:	-140.834	Thrust:	0.000
Time:	2.166	Roll Set Point:	0.205	Pitch Set Point:	1.242	Yaw Set Point:	1.786	X_WP:	0.000	Y_WP:	0.000	Y_WP:	0.500	X:	-0.874	Y:	-0.494	Z:	1.195	yaw:	-102.305	yaw rate:	-34.284	Roll:	29.796	Pitch:	-19.493	Yaw:	-153.188	Thrust:	0.000
Time:	2.177	Roll Set Point:	0.210	Pitch Set Point:	1.251	Yaw Set Point:	1.779	X_WP:	0.000	Y_WP:	0.000	Y_WP:	0.500	X:	-0.877	Y:	-0.496	Z:	1.196	yaw:	-101.952	yaw rate:	35.295	Roll:	16.012	Pitch:	-30.000	Yaw:	-136.205	Thrust:	0.000
Time:	2.188	Roll Set Point:	0.206	Pitch Set Point:	1.249	Yaw Set Point:	1.786	X_WP:	0.000	Y_WP:	0.000	Y_WP:	0.500	X:	-0.879	Y:	-0.497	Z:	1.195	yaw:	-102.350	yaw rate:	-39.868	Roll:	30.000	Pitch:	-18.408	Yaw:	-154.581	Thrust:	0.000
Time:	2.199	Roll Set Point:	0.202	Pitch Set Point:	1.250	Yaw Set Point:	1.794	X_WP:	0.000	Y_WP:	0.000	Y_WP:	0.500	X:	-0.883	Y:	-0.499	Z:	1.194	yaw:	-102.764	yaw rate:	-41.413	Roll:	30.000	Pitch:	-20.030	Yaw:	-155.521	Thrust:	0.000
Time:	2.210	Roll Set Point:	0.205	Pitch Set Point:	1.256	Yaw Set Point:	1.791	X_WP:	0.000	Y_WP:	0.000	Y_WP:	0.500	X:	-0.886	Y:	-0.500	Z:	1.194	yaw:	-102.597	yaw rate:	16.731	Roll:	19.464	Pitch:	-29.041	Yaw:	-141.488	Thrust:	0.000
Time:	2.221	Roll Set Point:	0.203	Pitch Set Point:	1.257	Yaw Set Point:	1.794	X_WP:	0.000	Y_WP:	0.000	Y_WP:	0.500	X:	-0.889	Y:	-0.502	Z:	1.194	yaw:	-102.800	yaw rate:	-20.283	Roll:	27.461	Pitch:	-22.112	Yaw:	-150.557	Thrust:	0.000
Time:	2.232	Roll Set Point:	0.198	Pitch Set Point:	1.257	Yaw Set Point:	1.801	X_WP:	0.000	Y_WP:	0.000	Y_WP:	0.500	X:	-0.892	Y:	-0.503	Z:	1.194	yaw:	-103.181	yaw rate:	-38.082	Roll:	30.000	Pitch:	-18.774	Yaw:	-155.312	Thrust:	0.000
Time:	2.243	Roll Set Point:	0.193	Pitch Set Point:	1.254	Yaw Set Point:	1.810	X_WP:	0.000	Y_WP:	0.000	Y_WP:	0.500	X:	-0.894	Y:	-0.504	Z:	1.193	yaw:	-103.699	yaw rate:	-51.801	Roll:	30.000	Pitch:	-15.921	Yaw:	-159.293	Thrust:	0.000
Time:	2.255	Roll Set Point:	0.195	Pitch Set Point:	1.260	Yaw Set Point:	1.809	X_WP:	0.000	Y_WP:	0.000	Y_WP:	0.500	X:	-0.898	Y:	-0.506	Z:	1.193	yaw:	-103.648	yaw rate:	5.114	Roll:	23.640	Pitch:	-28.361	Yaw:	-145.761	Thrust:	0.000
Time:	2.266	Roll Set Point:	0.200	Pitch Set Point:	1.266	Yaw Set Point:	1.804	X_WP:	0.000	Y_WP:	0.000	Y_WP:	0.500	X:	-0.901	Y:	-0.507	Z:	1.193	yaw:	-103.341	yaw rate:	30.641	Roll:	16.594	Pitch:	-30.000	Yaw:	-139.201	Thrust:	0.000
Time:	2.277	Roll Set Point:	0.196	Pitch Set Point:	1.265	Yaw Set Point:	1.810	X_WP:	0.000	Y_WP:	0.000	Y_WP:	0.500	X:	-0.903	Y:	-0.508	Z:	1.193	yaw:	-103.688	yaw rate:	-34.678	Roll:	30.000	Pitch:	-18.740	Yaw:	-155.199	Thrust:	0.000
Time:	2.288	Roll Set Point:	0.206	Pitch Set Point:	1.276	Yaw Set Point:	1.798	X_WP:	0.000	Y_WP:	0.000	Y_WP:	0.500	X:	-0.905	Y:	-0.509	Z:	1.193	yaw:	-103.011	yaw rate:	67.677	Roll:	8.632	Pitch:	-30.000	Yaw:	-129.932	Thrust:	0.000
Time:	2.299	Roll Set Point:	0.210	Pitch Set Point:	1.282	Yaw Set Point:	1.794	X_WP:	0.000	Y_WP:	0.000	Y_WP:	0.500	X:	-0.907	Y:	-0.509	Z:	1.193	yaw:	-102.778	yaw rate:	23.295	Roll:	17.545	Pitch:	-30.000	Yaw:	-140.199	Thrust:	0.000
Time:	2.310	Roll Set Point:	0.218	Pitch Set Point:	1.290	Yaw Set Point:	1.785	X_WP:	0.000	Y_WP:	0.000	Y_WP:	0.500	X:	-0.910	Y:	-0.510	Z:	1.193	yaw:	-102.264	yaw rate:	51.391	Roll:	11.248	Pitch:	-30.000	Yaw:	-132.764	Thrust:	0.000
Time:	2.321	Roll Set Point:	0.224	Pitch Set Point:	1.299	Yaw Set Point:	1.779	X_WP:	0.000	Y_WP:	0.000	Y_WP:	0.500	X:	-0.913	Y:	-0.511	Z:	1.193	yaw:	-101.908	yaw rate:	35.654	Roll:	15.520	Pitch:	-30.000	Yaw:	-136.054	Thrust:	0.000
Time:	2.332	Roll Set Point:	0.225	Pitch Set Point:	1.301	Yaw Set Point:	1.779	X_WP:	0.000	Y_WP:	0.000	Y_WP:	0.500	X:	-0.915	Y:	-0.512	Z:	1.194	yaw:	-101.927	yaw rate:	-1.880	Roll:	22.740	Pitch:	-25.723	Yaw:	-144.968	Thrust:	0.000
Time:	2.343	Roll Set Point:	0.226	Pitch Set Point:	1.304	Yaw Set Point:	1.778	X_WP:	0.000	Y_WP:	0.000	Y_WP:	0.500	X:	-0.917	Y:	-0.513	Z:	1.194	yaw:	-101.891	yaw rate:	3.552	Roll:	21.851	Pitch:	-27.052	Yaw:	-143.631	Thrust:	0.000
Time:	2.354	Roll Set Point:	0.230	Pitch Set Point:	1.309	Yaw Set Point:	1.775	X_WP:	0.000	Y_WP:	0.000	Y_WP:	0.500	X:	-0.919	Y:	-0.514	Z:	1.194	yaw:	-101.719	yaw rate:	17.215	Roll:	18.465	Pitch:	-29.430	Yaw:	-140.146	Thrust:	0.000
Time:	2.365	Roll Set Point:	0.234	Pitch Set Point:	1.314	Yaw Set Point:	1.771	X_WP:	0.000	Y_WP:	0.000	Y_WP:	0.500	X:	-0.921	Y:	-0.514	Z:	1.194	yaw:	-101.474	yaw rate:	24.448	Roll:	16.976	Pitch:	-30.000	Yaw:	-138.072	Thrust:	0.000
Time:	2.376	Roll Set Point:	0.235	Pitch Set Point:	1.319	Yaw Set Point:	1.770	X_WP:	0.000	Y_WP:	0.000	Y_WP:	0.500	X:	-0.924	Y:	-0.516	Z:	1.194	yaw:	-101.391	yaw rate:	8.310	Roll:	21.495	Pitch:	-28.867	Yaw:	-141.813	Thrust:	0.000
Time:	2.387	Roll Set Point:	0.237	Pitch Set Point:	1.322	Yaw Set Point:	1.769	X_WP:	0.000	Y_WP:	0.000	Y_WP:	0.500	X:	-0.925	Y:	-0.517	Z:	1.194	yaw:	-101.346	yaw rate:	4.552	Roll:	21.251	Pitch:	-26.983	Yaw:	-142.629	Thrust:	0.000
Time:	2.398	Roll Set Point:	0.242	Pitch Set Point:	1.328	Yaw Set Point:	1.764	X_WP:	0.000	Y_WP:	0.000	Y_WP:	0.500	X:	-0.927	Y:	-0.517	Z:	1.194	yaw:	-101.042	yaw rate:	30.387	Roll:	15.138	Pitch:	-30.000	Yaw:	-136.079	Thrust:	0.000
Time:	2.409	Roll Set Point:	0.241	Pitch Set Point:	1.329	Yaw Set Point:	1.765	X_WP:	0.000	Y_WP:	0.000	Y_WP:	0.500	X:	-0.929	Y:	-0.518	Z:	1.194	yaw:	-101.140	yaw rate:	-9.762	Roll:	24.174	Pitch:	-24.446	Yaw:	-145.741	Thrust:	0.000
Time:	2.420	Roll Set Point:	0.240	Pitch Set Point:	1.331	Yaw Set Point:	1.767	X_WP:	0.000	Y_WP:	0.000	Y_WP:	0.500	X:	-0.931	Y:	-0.519	Z:	1.194	yaw:	-101.233	yaw rate:	-9.330	Roll:	24.771	Pitch:	-24.885	Yaw:	-145.768	Thrust:	0.000
Time:	2.431	Roll Set Point:	0.246	Pitch Set Point:	1.337	Yaw Set Point:	1.761	X_WP:	0.000	Y_WP:	0.000	Y_WP:	0.500	X:	-0.932	Y:	-0.520	Z:	1.194	yaw:	-100.870	yaw rate:	36.241	Roll:	13.840	Pitch:	-30.000	Yaw:	-134.445	Thrust:	0.000
Time:	2.442	Roll Set Point:	0.245	Pitch Set Point:	1.338	Yaw Set Point:	1.762	X_WP:	0.000	Y_WP:	0.000	Y_WP:	0.500	X:	-0.934	Y:	-0.521	Z:	1.194	yaw:	-100.973	yaw rate:	-10.274	Roll:	24.312	Pitch:	-24.233	Yaw:	-145.630	Thrust:	0.000
Time:	2.453	Roll Set Point:	0.253	Pitch Set Point:	1.348	Yaw Set Point:	1.752	X_WP:	0.000	Y_WP:	0.000	Y_WP:	0.500	X:	-0.935	Y:	-0.522	Z:	1.194	yaw:	-100.395	yaw rate:	57.835	Roll:	9.453	Pitch:	-30.000	Yaw:	-128.618	Thrust:	0.000
Time:	2.464	Roll Set Point:	0.245	Pitch Set Point:	1.342	Yaw Set Point:	1.763	X_WP:	0.000	Y_WP:	0.000	Y_WP:	0.500	X:	-0.937	Y:	-0.523	Z:	1.194	yaw:	-101.023	yaw rate:	-62.796	Roll:	30.000	Pitch:	-14.565	Yaw:	-158.166	Thrust:	0.000
Time:	2.475	Roll Set Point:	0.245	Pitch Set Point:	1.344	Yaw Set Point:	1.764	X_WP:	0.000	Y_WP:	0.000	Y_WP:	0.500	X:	-0.939	Y:	-0.523	Z:	1.195	yaw:	-101.044	yaw rate:	-2.141	Roll:	22.608	Pitch:	-26.093	Yaw:	-143.803	Thrust:	0.000
Time:	2.488	Roll Set Point:	0.251	Pitch Set Point:	1.353	Yaw Set Point:	1.757	X_WP:	0.000	Y_WP:	0.000	Y_WP:	0.500	X:	-0.941	Y:	-0.525	Z:	1.195	yaw:	-100.681	yaw rate:	36.318	Roll:	16.229	Pitch:	-30.000	Yaw:	-135.884	Thrust:	0.000
Time:	2.499	Roll Set Point:	0.244	Pitch Set Point:	1.349	Yaw Set Point:	1.766	X_WP:	0.000	Y_WP:	0.000	Y_WP:	0.500	X:	-0.943	Y:	-0.526	Z:	1.195	yaw:	-101.158	yaw rate:	-47.697	Roll:	30.000	Pitch:	-17.231	Yaw:	-154.769	Thrust:	0.000
Time:	2.510	Roll Set Point:	0.246	Pitch Set Point:	1.352	Yaw Set Point:	1.764	X_WP:	0.000	Y_WP:	0.000	Y_WP:	0.500	X:	-0.944	Y:	-0.527	Z:	1.195	yaw:	-101.089	yaw rate:	6.932	Roll:	21.143	Pitch:	-27.853	Yaw:	-141.708	Thrust:	0.000
Time:	2.521	Roll Set Point:	0.242	Pitch Set Point:	1.352	Yaw Set Point:	1.768	X_WP:	0.000	Y_WP:	0.000	Y_WP:	0.500	X:	-0.946	Y:	-0.528	Z:	1.195	yaw:	-101.317	yaw rate:	-22.832	Roll:	27.906	Pitch:	-21.546	Yaw:	-149.091	Thrust:	0.000
Time:	2.532	Roll Set Point:	0.240	Pitch Set Point:	1.352	Yaw Set Point:	1.771	X_WP:	0.000	Y_WP:	0.000	Y_WP:	0.500	X:	-0.947	Y:	-0.529	Z:	1.195	yaw:	-101.488	yaw rate:	-17.142	Roll:	27.036	Pitch:	-22.743	Yaw:	-147.984	Thrust:	0.000
Time:	2.543	Roll Set Point:	0.239	Pitch Set Point:	1.354	Yaw Set Point:	1.772	X_WP:	0.000	Y_WP:	0.000	Y_WP:	0.500	X:	-0.949	Y:	-0.531	Z:	1.195	yaw:	-101.519	yaw rate:	-3.042	Roll:	24.209	Pitch:	-26.061	Yaw:	-144.679	Thrust:	0.000
Time:	2.554	Roll Set Point:	0.238	Pitch Set Point:	1.355	Yaw Set Point:	1.774	X_WP:	0.000	Y_WP:	0.000	Y_WP:	0.500	X:	-0.950	Y:	-0.532	Z:	1.195	yaw:	-101.625	yaw rate:	-10.599	Roll:	25.237	Pitch:	-23.452	Yaw:	-146.618	Thrust:	0.000
Time:	2.565	Roll Set Point:	0.236	Pitch Set Point:	1.355	Yaw Set Point:	1.776	X_WP:	0.000	Y_WP:	0.000	Y_WP:	0.500	X:	-0.951	Y:	-0.532	Z:	1.195	yaw:	-101.743	yaw rate:	-11.818	Roll:	25.425	Pitch:	-23.285	Yaw:	-147.071	Thrust:	0.000
Time:	2.576	Roll Set Point:	0.231	Pitch Set Point:	1.353	Yaw Set Point:	1.782	X_WP:	0.000	Y_WP:	0.000	Y_WP:	0.500	X:	-0.952	Y:	-0.533	Z:	1.194	yaw:	-102.075	yaw rate:	-33.196	Roll:	30.000	Pitch:	-18.795	Yaw:	-152.609	Thrust:	0.000
Time:	2.587	Roll Set Point:	0.243	Pitch Set Point:	1.365	Yaw Set Point:	1.767	X_WP:	0.000	Y_WP:	0.000	Y_WP:	0.500	X:	-0.953	Y:	-0.535	Z:	1.194	yaw:	-101.269	yaw rate:	80.610	Roll:	5.461	Pitch:	-30.000	Yaw:	-124.472	Thrust:	0.000
Time:	2.599	Roll Set Point:	0.233	Pitch Set Point:	1.358	Yaw Set Point:	1.779	X_WP:	0.000	Y_WP:	0.000	Y_WP:	0.500	X:	-0.954	Y:	-0.535	Z:	1.194	yaw:	-101.925	yaw rate:	-65.617	Roll:	30.000	Pitch:	-12.390	Yaw:	-160.063	Thrust:	0.000
Time:	2.610	Roll Set Point:	0.236	Pitch Set Point:	1.362	Yaw Set Point:	1.775	X_WP:	0.000	Y_WP:	0.000	Y_WP:	0.500	X:	-0.954	Y:	-0.536	Z:	1.193	yaw:	-101.684	yaw rate:	24.096	Roll:	17.230	Pitch:	-29.676	Yaw:	-138.465	Thrust:	0.000
Time:	2.621	Roll Set Point:	0.234	Pitch Set Point:	1.362	Yaw Set Point:	1.777	X_WP:	0.000	Y_WP:	0.000	Y_WP:	0.500	X:	-0.955	Y:	-0.537	Z:	1.193	yaw:	-101.805	yaw rate:	-12.045	Roll:	25.714	Pitch:	-22.853	Yaw:	-147.211	Thrust:	0.000
Time:	2.632	Roll Set Point:	0.235	Pitch Set Point:	1.365	Yaw Set Point:	1.775	X_WP:	0.000	Y_WP:	0.000	Y_WP:	0.500	X:	-0.956	Y:	-0.538	Z:	1.193	yaw:	-101.697	yaw rate:	10.795	Roll:	20.305	Pitch:	-27.329	Yaw:	-141.644	Thrust:	0.000
Time:	2.643	Roll Set Point:	0.233	Pitch Set Point:	1.365	Yaw Set Point:	1.778	X_WP:	0.000	Y_WP:	0.000	Y_WP:	0.500	X:	-0.957	Y:	-0.539	Z:	1.193	yaw:	-101.848	yaw rate:	-15.140	Roll:	27.193	Pitch:	-22.892	Yaw:	-148.011	Thrust:	0.000
Time:	2.655	Roll Set Point:	0.236	Pitch Set Point:	1.370	Yaw Set Point:	1.774	X_WP:	0.000	Y_WP:	0.000	Y_WP:	0.500	X:	-0.958	Y:	-0.540	Z:	1.193	yaw:	-101.629	yaw rate:	21.898	Roll:	18.197	Pitch:	-29.558	Yaw:	-139.543	Thrust:	0.000
Time:	2.667	Roll Set Point:	0.232	Pitch Set Point:	1.369	Yaw Set Point:	1.778	X_WP:	0.000	Y_WP:	0.000	Y_WP:	0.500	X:	-0.959	Y:	-0.541	Z:	1.193	yaw:	-101.877	yaw rate:	-24.823	Roll:	28.817	Pitch:	-21.427	Yaw:	-150.055	Thrust:	0.000
Time:	2.678	Roll Set Point:	0.230	Pitch Set Point:	1.369	Yaw Set Point:	1.780	X_WP:	0.000	Y_WP:	0.000	Y_WP:	0.500	X:	-0.960	Y:	-0.542	Z:	1.193	yaw:	-102.003	yaw rate:	-12.532	Roll:	25.954	Pitch:	-23.010	Yaw:	-147.603	Thrust:	0.000
Time:	2.689	Roll Set Point:	0.229	Pitch Set Point:	1.369	Yaw Set Point:	1.782	X_WP:	0.000	Y_WP:	0.000	Y_WP:	0.500	X:	-0.961	Y:	-0.543	Z:	1.193	yaw:	-102.115	yaw rate:	-11.275	Roll:	25.697	Pitch:	-23.305	Yaw:	-147.462	Thrust:	0.000
Time:	2.700	Roll Set Point:	0.225	Pitch Set Point:	1.368	Yaw Set Point:	1.786	X_WP:	0.000	Y_WP:	0.000	Y_WP:	0.500	X:	-0.962	Y:	-0.544	Z:	1.194	yaw:	-102.328	yaw rate:	-21.269	Roll:	28.090	Pitch:	-21.265	Yaw:	-150.125	Thrust:	0.000
Time:	2.711	Roll Set Point:	0.226	Pitch Set Point:	1.370	Yaw Set Point:	1.785	X_WP:	0.000	Y_WP:	0.000	Y_WP:	0.500	X:	-0.963	Y:	-0.545	Z:	1.194	yaw:	-102.292	yaw rate:	3.642	Roll:	22.294	Pitch:	-26.012	Yaw:	-144.168	Thrust:	0.000
Time:	2.722	Roll Set Point:	0.227	Pitch Set Point:	1.372	Yaw Set Point:	1.784	X_WP:	0.000	Y_WP:	0.000	Y_WP:	0.500	X:	-0.964	Y:	-0.545	Z:	1.194	yaw:	-102.194	yaw rate:	9.726	Roll:	20.710	Pitch:	-27.100	Yaw:	-142.588	Thrust:	0.000
Time:	2.733	Roll Set Point:	0.229	Pitch Set Point:	1.376	Yaw Set Point:	1.781	X_WP:	0.000	Y_WP:	0.000	Y_WP:	0.500	X:	-0.965	Y:	-0.546	Z:	1.194	yaw:	-102.043	yaw rate:	15.144	Roll:	20.190	Pitch:	-28.501	Yaw:	-141.090	Thrust:	0.000
Time:	2.744	Roll Set Point:	0.234	Pitch Set Point:	1.381	Yaw Set Point:	1.775	X_WP:	0.000	Y_WP:	0.000	Y_WP:	0.500	X:	-0.965	Y:	-0.547	Z:	1.195	yaw:	-101.712	yaw rate:	33.103	Roll:	15.573	Pitch:	-30.000	Yaw:	-136.341	Thrust:	0.000
Time:	2.755	Roll Set Point:	0.231	Pitch Set Point:	1.380	Yaw Set Point:	1.778	X_WP:	0.000	Y_WP:	0.000	Y_WP:	0.500	X:	-0.966	Y:	-0.548	Z:	1.195	yaw:	-101.854	yaw rate:	-14.261	Roll:	25.882	Pitch:	-22.267	Yaw:	-147.804	Thrust:	0.000
Time:	2.766	Roll Set Point:	0.234	Pitch Set Point:	1.383	Yaw Set Point:	1.775	X_WP:	0.000	Y_WP:	0.000	Y_WP:	0.500	X:	-0.966	Y:	-0.548	Z:	1.195	yaw:	-101.674	yaw rate:	18.020	Roll:	18.743	Pitch:	-28.949	Yaw:	-139.877	Thrust:	0.000
Time:	2.777	Roll Set Point:	0.232	Pitch Set Point:	1.385	Yaw Set Point:	1.775	X_WP:	0.000	Y_WP:	0.000	Y_WP:	0.500	X:	-0.967	Y:	-0.550	Z:	1.195	yaw:	-101.726	yaw rate:	-5.152	Roll:	25.313	Pitch:	-24.149	Yaw:	-145.465	Thrust:	0.000
Time:	2.788	Roll Set Point:	0.229	Pitch Set Point:	1.383	Yaw Set Point:	1.779	X_WP:	0.000	Y_WP:	0.000	Y_WP:	0.500	X:	-0.967	Y:	-0.550	Z:	1.195	yaw:	-101.919	yaw rate:	-19.281	Roll:	27.038	Pitch:	-21.177	Yaw:	-149.088	Thrust:	0.000
Time:	2.799	Roll Set Point:	0.226	Pitch Set Point:	1.382	Yaw Set Point:	1.782	X_WP:	0.000	Y_WP:	0.000	Y_WP:	0.500	X:	-0.968	Y:	-0.551	Z:	1.196	yaw:	-102.112	yaw rate:	-19.351	Roll:	27.871	Pitch:	-21.171	Yaw:	-149.374	Thrust:	0.000
Time:	2.810	Roll Set Point:	0.230	Pitch Set Point:	1.387	Yaw Set Point:	1.776	X_WP:	0.000	Y_WP:	0.000	Y_WP:	0.500	X:	-0.968	Y:	-0.552	Z:	1.196	yaw:	-101.763	yaw rate:	34.910	Roll:	15.510	Pitch:	-30.000	Yaw:	-136.032	Thrust:	0.000
Time:	2.821	Roll Set Point:	0.228	Pitch Set Point:	1.387	Yaw Set Point:	1.778	X_WP:	0.000	Y_WP:	0.000	Y_WP:	0.500	X:	-0.969	Y:	-0.553	Z:	1.196	yaw:	-101.878	yaw rate:	-11.451	Roll:	26.241	Pitch:	-22.670	Yaw:	-147.172	Thrust:	0.000
Time:	2.832	Roll Set Point:	0.226	Pitch Set Point:	1.387	Yaw Set Point:	1.780	X_WP:	0.000	Y_WP:	0.000	Y_WP:	0.500	X:	-0.969	Y:	-0.554	Z:	1.196	yaw:	-101.974	yaw rate:	-9.644	Roll:	25.868	Pitch:	-22.863	Yaw:	-146.878	Thrust:	0.000
Time:	2.843	Roll Set Point:	0.224	Pitch Set Point:	1.389	Yaw Set Point:	1.780	X_WP:	0.000	Y_WP:	0.000	Y_WP:	0.500	X:	-0.970	Y:	-0.556	Z:	1.197	yaw:	-102.001	yaw rate:	-2.721	Roll:	25.597	Pitch:	-24.401	Yaw:	-145.272	Thrust:	0.000
Time:	2.854	Roll Set Point:	0.218	Pitch Set Point:	1.385	Yaw Set Point:	1.787	X_WP:	0.000	Y_WP:	0.000	Y_WP:	0.500	X:	-0.970	Y:	-0.557	Z:	1.197	yaw:	-102.380	yaw rate:	-37.931	Roll:	30.000	Pitch:	-16.801	Yaw:	-154.159	Thrust:	0.000
Time:	2.865	Roll Set Point:	0.219	Pitch Set Point:	1.388	Yaw Set Point:	1.784	X_WP:	0.000	Y_WP:	0.000	Y_WP:	0.500	X:	-0.970	Y:	-0.559	Z:	1.197	yaw:	-102.242	yaw rate:	13.893	Roll:	21.109	Pitch:	-27.547	Yaw:	-141.652	Thrust:	0.000
Time:	2.877	Roll Set Point:	0.211	Pitch Set Point:	1.385	Yaw Set Point:	1.792	X_WP:	0.000	Y_WP:	0.000	Y_WP:	0.500	X:	-0.971	Y:	-0.561	Z:	1.198	yaw:	-102.657	yaw rate:	-41.528	Roll:	30.000	Pitch:	-16.564	Yaw:	-154.777	Thrust:	0.000
Time:	2.888	Roll Set Point:	0.206	Pitch Set Point:	1.383	Yaw Set Point:	1.796	X_WP:	0.000	Y_WP:	0.000	Y_WP:	0.500	X:	-0.971	Y:	-0.562	Z:	1.198	yaw:	-102.917	yaw rate:	-26.033	Roll:	30.000	Pitch:	-18.760	Yaw:	-152.077	Thrust:	0.000
Time:	2.899	Roll Set Point:	0.208	Pitch Set Point:	1.386	Yaw Set Point:	1.793	X_WP:	0.000	Y_WP:	0.000	Y_WP:	0.500	X:	-0.971	Y:	-0.563	Z:	1.198	yaw:	-102.742	yaw rate:	17.472	Roll:	20.736	Pitch:	-27.707	Yaw:	-141.501	Thrust:	0.000
Time:	2.910	Roll Set Point:	0.193	Pitch Set Point:	1.375	Yaw Set Point:	1.809	X_WP:	0.000	Y_WP:	0.000	Y_WP:	0.500	X:	-0.971	Y:	-0.565	Z:	1.198	yaw:	-103.672	yaw rate:	-92.941	Roll:	30.000	Pitch:	-4.137	Yaw:	-168.975	Thrust:	0.000
Time:	2.921	Roll Set Point:	0.197	Pitch Set Point:	1.380	Yaw Set Point:	1.803	X_WP:	0.000	Y_WP:	0.000	Y_WP:	0.500	X:	-0.971	Y:	-0.565	Z:	1.198	yaw:	-103.316	yaw rate:	35.636	Roll:	16.402	Pitch:	-30.000	Yaw:	-138.004	Thrust:	0.000
Time:	2.932	Roll Set Point:	0.194	Pitch Set Point:	1.379	Yaw Set Point:	1.806	X_WP:	0.000	Y_WP:	0.000	Y_WP:	0.500	X:	-0.971	Y:	-0.567	Z:	1.199	yaw:	-103.464	yaw rate:	-14.818	Roll:	28.459	Pitch:	-20.483	Yaw:	-150.189	Thrust:	0.000
Time:	2.943	Roll Set Point:	0.190	Pitch Set Point:	1.378	Yaw Set Point:	1.808	X_WP:	0.000	Y_WP:	0.000	Y_WP:	0.500	X:	-0.971	Y:	-0.568	Z:	1.199	yaw:	-103.604	yaw rate:	-13.989	Roll:	27.996	Pitch:	-20.128	Yaw:	-150.182	Thrust:	0.000
Time:	2.954	Roll Set Point:	0.194	Pitch Set Point:	1.383	Yaw Set Point:	1.802	X_WP:	0.000	Y_WP:	0.000	Y_WP:	0.500	X:	-0.971	Y:	-0.569	Z:	1.199	yaw:	-103.272	yaw rate:	33.114	Roll:	17.146	Pitch:	-30.000	Yaw:	-138.517	Thrust:	0.000
Time:	2.965	Roll Set Point:	0.200	Pitch Set Point:	1.391	Yaw Set Point:	1.793	X_WP:	0.000	Y_WP:	0.000	Y_WP:	0.500	X:	-0.971	Y:	-0.570	Z:	1.200	yaw:	-102.743	yaw rate:	52.955	Roll:	12.691	Pitch:	-30.000	Yaw:	-133.128	Thrust:	0.000
Time:	2.976	Roll Set Point:	0.192	Pitch Set Point:	1.385	Yaw Set Point:	1.802	X_WP:	0.000	Y_WP:	0.000	Y_WP:	0.500	X:	-0.971	Y:	-0.571	Z:	1.200	yaw:	-103.272	yaw rate:	-52.948	Roll:	30.000	Pitch:	-12.312	Yaw:	-158.994	Thrust:	0.000
Time:	2.988	Roll Set Point:	0.194	Pitch Set Point:	1.390	Yaw Set Point:	1.798	X_WP:	0.000	Y_WP:	0.000	Y_WP:	0.500	X:	-0.970	Y:	-0.573	Z:	1.200	yaw:	-102.991	yaw rate:	28.169	Roll:	18.915	Pitch:	-29.017	Yaw:	-139.321	Thrust:	0.000
Time:	2.999	Roll Set Point:	0.182	Pitch Set Point:	1.380	Yaw Set Point:	1.811	X_WP:	0.000	Y_WP:	0.000	Y_WP:	0.500	X:	-0.970	Y:	-0.574	Z:	1.201	yaw:	-103.740	yaw rate:	-74.932	Roll:	30.000	Pitch:	-7.206	Yaw:	-164.800	Thrust:	0.000
Time:	3.010	Roll Set Point:	0.195	Pitch Set Point:	1.394	Yaw Set Point:	1.793	X_WP:	0.000	Y_WP:	0.000	Y_WP:	0.500	X:	-0.970	Y:	-0.575	Z:	1.201	yaw:	-102.758	yaw rate:	98.168	Roll:	3.288	Pitch:	-30.000	Yaw:	-122.378	Thrust:	0.000
Time:	3.021	Roll Set Point:	0.198	Pitch Set Point:	1.399	Yaw Set Point:	1.789	X_WP:	0.000	Y_WP:	0.000	Y_WP:	0.500	X:	-0.970	Y:	-0.576	Z:	1.201	yaw:	-102.487	yaw rate:	27.156	Roll:	18.342	Pitch:	-29.449	Yaw:	-138.867	Thrust:	0.000
Time:	3.032	Roll Set Point:	0.186	Pitch Set Point:	1.390	Yaw Set Point:	1.801	X_WP:	0.000	Y_WP:	0.000	Y_WP:	0.500	X:	-0.970	Y:	-0.578	Z:	1.201	yaw:	-103.178	yaw rate:	-69.105	Roll:	30.000	Pitch:	-8.498	Yaw:	-162.702	Thrust:	0.000
Time:	3.043	Roll Set Point:	0.193	Pitch Set Point:	1.398	Yaw Set Point:	1.791	X_WP:	0.000	Y_WP:	0.000	Y_WP:	0.500	X:	-0.969	Y:	-0.579	Z:	1.201	yaw:	-102.613	yaw rate:	56.453	Roll:	11.932	Pitch:	-30.000	Yaw:	-132.073	Thrust:	0.000
Time:	3.054	Roll Set Point:	0.184	Pitch Set Point:	1.393	Yaw Set Point:	1.799	X_WP:	0.000	Y_WP:	0.000	Y_WP:	0.500	X:	-0.969	Y:	-0.581	Z:	1.202	yaw:	-103.091	yaw rate:	-47.812	Roll:	30.000	Pitch:	-12.636	Yaw:	-157.497	Thrust:	0.000
Time:	3.065	Roll Set Point:	0.187	Pitch Set Point:	1.398	Yaw Set Point:	1.794	X_WP:	0.000	Y_WP:	0.000	Y_WP:	0.500	X:	-0.969	Y:	-0.582	Z:	1.202	yaw:	-102.789	yaw rate:	30.234	Roll:	17.884	Pitch:	-29.777	Yaw:	-138.552	Thrust:	0.000
Time:	3.076	Roll Set Point:	0.178	Pitch Set Point:	1.392	Yaw Set Point:	1.802	X_WP:	0.000	Y_WP:	0.000	Y_WP:	0.500	X:	-0.969	Y:	-0.584	Z:	1.201	yaw:	-103.273	yaw rate:	-48.395	Roll:	30.000	Pitch:	-12.634	Yaw:	-157.888	Thrust:	0.000
Time:	3.087	Roll Set Point:	0.185	Pitch Set Point:	1.401	Yaw Set Point:	1.793	X_WP:	0.000	Y_WP:	0.000	Y_WP:	0.500	X:	-0.969	Y:	-0.585	Z:	1.202	yaw:	-102.734	yaw rate:	53.935	Roll:	13.179	Pitch:	-30.000	Yaw:	-132.811	Thrust:	0.000
Time:	3.098	Roll Set Point:	0.182	Pitch Set Point:	1.403	Yaw Set Point:	1.793	X_WP:	0.000	Y_WP:	0.000	Y_WP:	0.500	X:	-0.968	Y:	-0.587	Z:	1.202	yaw:	-102.706	yaw rate:	2.774	Roll:	26.342	Pitch:	-23.103	Yaw:	-144.959	Thrust:	0.000
Time:	3.109	Roll Set Point:	0.181	Pitch Set Point:	1.404	Yaw Set Point:	1.792	X_WP:	0.000	Y_WP:	0.000	Y_WP:	0.500	X:	-0.968	Y:	-0.589	Z:	1.201	yaw:	-102.668	yaw rate:	3.761	Roll:	24.762	Pitch:	-24.034	Yaw:	-144.665	Thrust:	0.000
Time:	3.120	Roll Set Point:	0.175	Pitch Set Point:	1.401	Yaw Set Point:	1.798	X_WP:	0.000	Y_WP:	0.000	Y_WP:	0.500	X:	-0.968	Y:	-0.591	Z:	1.201	yaw:	-102.991	yaw rate:	-32.233	Roll:	30.000	Pitch:	-16.017	Yaw:	-153.659	Thrust:	0.000
Time:	3.131	Roll Set Point:	0.161	Pitch Set Point:	1.389	Yaw Set Point:	1.813	X_WP:	0.000	Y_WP:	0.000	Y_WP:	0.500	X:	-0.968	Y:	-0.592	Z:	1.201	yaw:	-103.880	yaw rate:	-88.899	Roll:	30.000	Pitch:	-3.717	Yaw:	-168.350	Thrust:	0.000
Time:	3.142	Roll Set Point:	0.158	Pitch Set Point:	1.392	Yaw Set Point:	1.812	X_WP:	0.000	Y_WP:	0.000	Y_WP:	0.500	X:	-0.967	Y:	-0.595	Z:	1.201	yaw:	-103.817	yaw rate:	6.296	Roll:	26.612	Pitch:	-23.184	Yaw:	-145.667	Thrust:	0.000
Time:	3.153	Roll Set Point:	0.156	Pitch Set Point:	1.393	Yaw Set Point:	1.812	X_WP:	0.000	Y_WP:	0.000	Y_WP:	0.500	X:	-0.966	Y:	-0.597	Z:	1.200	yaw:	-103.800	yaw rate:	1.620	Roll:	26.237	Pitch:	-22.207	Yaw:	-146.754	Thrust:	0.000
Time:	3.164	Roll Set Point:	0.146	Pitch Set Point:	1.385	Yaw Set Point:	1.822	X_WP:	0.000	Y_WP:	0.000	Y_WP:	0.500	X:	-0.966	Y:	-0.598	Z:	1.200	yaw:	-104.411	yaw rate:	-61.056	Roll:	30.000	Pitch:	-9.010	Yaw:	-162.488	Thrust:	0.000
Time:	3.175	Roll Set Point:	0.154	Pitch Set Point:	1.396	Yaw Set Point:	1.810	X_WP:	0.000	Y_WP:	0.000	Y_WP:	0.500	X:	-0.966	Y:	-0.600	Z:	1.200	yaw:	-103.692	yaw rate:	71.916	Roll:	11.078	Pitch:	-30.000	Yaw:	-129.916	Thrust:	0.000
Time:	3.186	Roll Set Point:	0.153	Pitch Set Point:	1.399	Yaw Set Point:	1.808	X_WP:	0.000	Y_WP:	0.000	Y_WP:	0.500	X:	-0.965	Y:	-0.602	Z:	1.200	yaw:	-103.585	yaw rate:	10.682	Roll:	24.403	Pitch:	-24.510	Yaw:	-144.304	Thrust:	0.000
Time:	3.197	Roll Set Point:	0.136	Pitch Set Point:	1.384	Yaw Set Point:	1.827	X_WP:	0.000	Y_WP:	0.000	Y_WP:	0.500	X:	-0.965	Y:	-0.604	Z:	1.200	yaw:	-104.678	yaw rate:	-109.292	Roll:	30.000	Pitch:	2.554	Yaw:	-174.316	Thrust:	0.000
Time:	3.208	Roll Set Point:	0.137	Pitch Set Point:	1.390	Yaw Set Point:	1.822	X_WP:	0.000	Y_WP:	0.000	Y_WP:	0.500	X:	-0.964	Y:	-0.607	Z:	1.200	yaw:	-104.377	yaw rate:	30.103	Roll:	22.040	Pitch:	-27.548	Yaw:	-140.779	Thrust:	0.000
Time:	3.219	Roll Set Point:	0.137	Pitch Set Point:	1.393	Yaw Set Point:	1.819	X_WP:	0.000	Y_WP:	0.000	Y_WP:	0.500	X:	-0.963	Y:	-0.608	Z:	1.199	yaw:	-104.199	yaw rate:	17.838	Roll:	23.142	Pitch:	-25.544	Yaw:	-143.474	Thrust:	0.000
Time:	3.230	Roll Set Point:	0.126	Pitch Set Point:	1.385	Yaw Set Point:	1.830	X_WP:	0.000	Y_WP:	0.000	Y_WP:	0.500	X:	-0.963	Y:	-0.611	Z:	1.199	yaw:	-104.840	yaw rate:	-64.123	Roll:	30.000	Pitch:	-6.771	Yaw:	-163.811	Thrust:	0.000
Time:	3.242	Roll Set Point:	0.123	Pitch Set Point:	1.391	Yaw Set Point:	1.826	X_WP:	0.000	Y_WP:	0.000	Y_WP:	0.500	X:	-0.961	Y:	-0.616	Z:	1.199	yaw:	-104.619	yaw rate:	-47.870	Roll:	26.660	Pitch:	-23.803	Yaw:	-143.663	Thrust:	0.000
Time:	3.253	Roll Set Point:	0.123	Pitch Set Point:	1.391	Yaw Set Point:	1.826	X_WP:	0.000	Y_WP:	0.000	Y_WP:	0.500	X:	-0.961	Y:	-0.616	Z:	1.199	yaw:	-104.619	yaw rate:	-47.870	Roll:	24.725	Pitch:	-22.886	Yaw:	-148.281	Thrust:	0.000
Time:	3.264	Roll Set Point:	0.109	Pitch Set Point:	1.382	Yaw Set Point:	1.838	X_WP:	0.000	Y_WP:	0.000	Y_WP:	0.500	X:	-0.960	Y:	-0.620	Z:	1.199	yaw:	-105.298	yaw rate:	-99.348	Roll:	30.000	Pitch:	-3.450	Yaw:	-165.347	Thrust:	0.000
Time:	3.275	Roll Set Point:	0.111	Pitch Set Point:	1.388	Yaw Set Point:	1.832	X_WP:	0.000	Y_WP:	0.000	Y_WP:	0.500	X:	-0.959	Y:	-0.622	Z:	1.199	yaw:	-104.977	yaw rate:	32.123	Roll:	21.598	Pitch:	-27.962	Yaw:	-141.157	Thrust:	0.000
Time:	3.286	Roll Set Point:	0.111	Pitch Set Point:	1.388	Yaw Set Point:	1.832	X_WP:	0.000	Y_WP:	0.000	Y_WP:	0.500	X:	-0.959	Y:	-0.622	Z:	1.199	yaw:	-104.977	yaw rate:	32.123	Roll:	25.029	Pitch:	-22.628	Yaw:	-148.781	Thrust:	0.000
Time:	3.297	Roll Set Point:	0.110	Pitch Set Point:	1.391	Yaw Set Point:	1.830	X_WP:	0.000	Y_WP:	0.000	Y_WP:	0.500	X:	-0.959	Y:	-0.624	Z:	1.199	yaw:	-104.860	yaw rate:	11.701	Roll:	25.365	Pitch:	-23.412	Yaw:	-145.840	Thrust:	0.000
Time:	3.308	Roll Set Point:	0.103	Pitch Set Point:	1.389	Yaw Set Point:	1.834	X_WP:	0.000	Y_WP:	0.000	Y_WP:	0.500	X:	-0.957	Y:	-0.628	Z:	1.199	yaw:	-105.060	yaw rate:	-20.037	Roll:	30.000	Pitch:	-14.728	Yaw:	-153.648	Thrust:	0.000
Time:	3.319	Roll Set Point:	0.096	Pitch Set Point:	1.386	Yaw Set Point:	1.839	X_WP:	0.000	Y_WP:	0.000	Y_WP:	0.500	X:	-0.957	Y:	-0.630	Z:	1.198	yaw:	-105.354	yaw rate:	-29.407	Roll:	30.000	Pitch:	-13.357	Yaw:	-156.288	Thrust:	0.000
Time:	3.330	Roll Set Point:	0.093	Pitch Set Point:	1.387	Yaw Set Point:	1.839	X_WP:	0.000	Y_WP:	0.000	Y_WP:	0.500	X:	-0.956	Y:	-0.632	Z:	1.198	yaw:	-105.363	yaw rate:	-0.880	Roll:	28.843	Pitch:	-20.296	Yaw:	-149.525	Thrust:	0.000
Time:	3.341	Roll Set Point:	0.082	Pitch Set Point:	1.379	Yaw Set Point:	1.850	X_WP:	0.000	Y_WP:	0.000	Y_WP:	0.500	X:	-0.955	Y:	-0.635	Z:	1.198	yaw:	-105.972	yaw rate:	-60.887	Roll:	30.000	Pitch:	-5.459	Yaw:	-164.593	Thrust:	0.000
Time:	3.353	Roll Set Point:	0.083	Pitch Set Point:	1.387	Yaw Set Point:	1.843	X_WP:	0.000	Y_WP:	0.000	Y_WP:	0.500	X:	-0.954	Y:	-0.639	Z:	1.198	yaw:	-105.569	yaw rate:	40.302	Roll:	22.720	Pitch:	-28.422	Yaw:	-140.042	Thrust:	0.000
Time:	3.364	Roll Set Point:	0.077	Pitch Set Point:	1.384	Yaw Set Point:	1.846	X_WP:	0.000	Y_WP:	0.000	Y_WP:	0.500	X:	-0.954	Y:	-0.641	Z:	1.198	yaw:	-105.793	yaw rate:	-22.398	Roll:	30.000	Pitch:	-14.741	Yaw:	-155.237	Thrust:	0.000
Time:	3.375	Roll Set Point:	0.075	Pitch Set Point:	1.387	Yaw Set Point:	1.845	X_WP:	0.000	Y_WP:	0.000	Y_WP:	0.500	X:	-0.953	Y:	-0.644	Z:	1.198	yaw:	-105.722	yaw rate:	7.078	Roll:	28.090	Pitch:	-21.509	Yaw:	-148.141	Thrust:	0.000
Time:	3.386	Roll Set Point:	0.065	Pitch Set Point:	1.380	Yaw Set Point:	1.854	X_WP:	0.000	Y_WP:	0.000	Y_WP:	0.500	X:	-0.952	Y:	-0.647	Z:	1.198	yaw:	-106.246	yaw rate:	-52.409	Roll:	30.000	Pitch:	-6.746	Yaw:	-162.993	Thrust:	0.000
Time:	3.397	Roll Set Point:	0.060	Pitch Set Point:	1.380	Yaw Set Point:	1.856	X_WP:	0.000	Y_WP:	0.000	Y_WP:	0.500	X:	-0.951	Y:	-0.650	Z:	1.198	yaw:	-106.332	yaw rate:	-8.563	Roll:	30.000	Pitch:	-17.353	Yaw:	-152.705	Thrust:	0.000
Time:	3.408	Roll Set Point:	0.041	Pitch Set Point:	1.359	Yaw Set Point:	1.879	X_WP:	0.000	Y_WP:	0.000	Y_WP:	0.500	X:	-0.950	Y:	-0.652	Z:	1.198	yaw:	-107.658	yaw rate:	-132.649	Roll:	30.000	Pitch:	13.896	Yaw:	-183.945	Thrust:	0.000
Time:	3.419	Roll Set Point:	0.035	Pitch Set Point:	1.359	Yaw Set Point:	1.881	X_WP:	0.000	Y_WP:	0.000	Y_WP:	0.500	X:	-0.949	Y:	-0.656	Z:	1.198	yaw:	-107.775	yaw rate:	-11.642	Roll:	30.000	Pitch:	-14.770	Yaw:	-155.444	Thrust:	0.000
Time:	3.430	Roll Set Point:	0.041	Pitch Set Point:	1.372	Yaw Set Point:	1.869	X_WP:	0.000	Y_WP:	0.000	Y_WP:	0.500	X:	-0.948	Y:	-0.658	Z:	1.198	yaw:	-107.071	yaw rate:	70.313	Roll:	16.732	Pitch:	-30.000	Yaw:	-134.969	Thrust:	0.000
Time:	3.441	Roll Set Point:	0.030	Pitch Set Point:	1.363	Yaw Set Point:	1.880	X_WP:	0.000	Y_WP:	0.000	Y_WP:	0.500	X:	-0.948	Y:	-0.661	Z:	1.198	yaw:	-107.689	yaw rate:	-61.720	Roll:	30.000	Pitch:	-3.629	Yaw:	-167.217	Thrust:	0.000
Time:	3.452	Roll Set Point:	0.026	Pitch Set Point:	1.362	Yaw Set Point:	1.881	X_WP:	0.000	Y_WP:	0.000	Y_WP:	0.500	X:	-0.947	Y:	-0.663	Z:	1.198	yaw:	-107.793	yaw rate:	-10.480	Roll:	30.000	Pitch:	-15.580	Yaw:	-155.202	Thrust:	0.000
Time:	3.463	Roll Set Point:	0.036	Pitch Set Point:	1.384	Yaw Set Point:	1.860	X_WP:	0.000	Y_WP:	0.000	Y_WP:	0.500	X:	-0.946	Y:	-0.668	Z:	1.198	yaw:	-106.597	yaw rate:	119.687	Roll:	10.145	Pitch:	-30.000	Yaw:	-122.631	Thrust:	0.000
Time:	3.474	Roll Set Point:	0.017	Pitch Set Point:	1.362	Yaw Set Point:	1.884	X_WP:	0.000	Y_WP:	0.000	Y_WP:	0.500	X:	-0.945	Y:	-0.670	Z:	1.198	yaw:	-107.965	yaw rate:	-136.833	Roll:	30.000	Pitch:	15.651	Yaw:	-185.433	Thrust:	0.000
Time:	3.485	Roll Set Point:	0.019	Pitch Set Point:	1.369	Yaw Set Point:	1.879	X_WP:	0.000	Y_WP:	0.000	Y_WP:	0.500	X:	-0.945	Y:	-0.672	Z:	1.198	yaw:	-107.635	yaw rate:	32.952	Roll:	23.888	Pitch:	-27.364	Yaw:	-144.694	Thrust:	0.000
Time:	3.496	Roll Set Point:	0.019	Pitch Set Point:	1.375	Yaw Set Point:	1.874	X_WP:	0.000	Y_WP:	0.000	Y_WP:	0.500	X:	-0.944	Y:	-0.675	Z:	1.199	yaw:	-107.367	yaw rate:	26.868	Roll:	26.469	Pitch:	-25.269	Yaw:	-145.740	Thrust:	0.000
Time:	3.507	Roll Set Point:	0.025	Pitch Set Point:	1.386	Yaw Set Point:	1.862	X_WP:	0.000	Y_WP:	0.000	Y_WP:	0.500	X:	-0.944	Y:	-0.677	Z:	1.199	yaw:	-106.689	yaw rate:	67.790	Roll:	16.985	Pitch:	-30.000	Yaw:	-135.044	Thrust:	0.000
Time:	3.518	Roll Set Point:	0.022	Pitch Set Point:	1.389	Yaw Set Point:	1.861	X_WP:	0.000	Y_WP:	0.000	Y_WP:	0.500	X:	-0.943	Y:	-0.680	Z:	1.199	yaw:	-106.609	yaw rate:	7.978	Roll:	30.000	Pitch:	-20.251	Yaw:	-149.175	Thrust:	0.000
Time:	3.529	Roll Set Point:	0.015	Pitch Set Point:	1.385	Yaw Set Point:	1.867	X_WP:	0.000	Y_WP:	0.000	Y_WP:	0.500	X:	-0.942	Y:	-0.682	Z:	1.198	yaw:	-106.944	yaw rate:	-33.519	Roll:	30.000	Pitch:	-10.494	Yaw:	-159.482	Thrust:	0.000
Time:	3.540	Roll Set Point:	0.016	Pitch Set Point:	1.390	Yaw Set Point:	1.862	X_WP:	0.000	Y_WP:	0.000	Y_WP:	0.500	X:	-0.942	Y:	-0.684	Z:	1.198	yaw:	-106.664	yaw rate:	28.048	Roll:	25.022	Pitch:	-26.289	Yaw:	-144.457	Thrust:	0.000
Time:	3.551	Roll Set Point:	0.017	Pitch Set Point:	1.396	Yaw Set Point:	1.857	X_WP:	0.000	Y_WP:	0.000	Y_WP:	0.500	X:	-0.941	Y:	-0.686	Z:	1.198	yaw:	-106.402	yaw rate:	26.162	Roll:	25.131	Pitch:	-26.004	Yaw:	-144.583	Thrust:	0.000
Time:	3.562	Roll Set Point:	0.008	Pitch Set Point:	1.387	Yaw Set Point:	1.867	X_WP:	0.000	Y_WP:	0.000	Y_WP:	0.500	X:	-0.941	Y:	-0.688	Z:	1.198	yaw:	-106.949	yaw rate:	-54.708	Roll:	30.000	Pitch:	-5.200	Yaw:	-164.526	Thrust:	0.000
Time:	3.573	Roll Set Point:	0.005	Pitch Set Point:	1.389	Yaw Set Point:	1.866	X_WP:	0.000	Y_WP:	0.000	Y_WP:	0.500	X:	-0.940	Y:	-0.691	Z:	1.198	yaw:	-106.935	yaw rate:	1.442	Roll:	30.000	Pitch:	-18.474	Yaw:	-151.174	Thrust:	0.000
Time:	3.584	Roll Set Point:	0.004	Pitch Set Point:	1.391	Yaw Set Point:	1.865	X_WP:	0.000	Y_WP:	0.000	Y_WP:	0.500	X:	-0.940	Y:	-0.693	Z:	1.198	yaw:	-106.875	yaw rate:	5.990	Roll:	29.160	Pitch:	-20.910	Yaw:	-150.008	Thrust:	0.000
Time:	3.595	Roll Set Point:	-0.000	Pitch Set Point:	1.390	Yaw Set Point:	1.868	X_WP:	0.000	Y_WP:	0.000	Y_WP:	0.500	X:	-0.939	Y:	-0.695	Z:	1.197	yaw:	-107.020	yaw rate:	-14.560	Roll:	30.000	Pitch:	-15.139	Yaw:	-155.090	Thrust:	0.000
Time:	3.606	Roll Set Point:	-0.002	Pitch Set Point:	1.391	Yaw Set Point:	1.867	X_WP:	0.000	Y_WP:	0.000	Y_WP:	0.500	X:	-0.939	Y:	-0.697	Z:	1.197	yaw:	-106.995	yaw rate:	2.585	Roll:	30.000	Pitch:	-19.725	Yaw:	-150.984	Thrust:	0.000
Time:	3.617	Roll Set Point:	-0.007	Pitch Set Point:	1.392	Yaw Set Point:	1.868	X_WP:	0.000	Y_WP:	0.000	Y_WP:	0.500	X:	-0.938	Y:	-0.700	Z:	1.197	yaw:	-107.052	yaw rate:	-5.768	Roll:	30.000	Pitch:	-16.485	Yaw:	-153.049	Thrust:	0.000
Time:	3.628	Roll Set Point:	-0.010	Pitch Set Point:	1.392	Yaw Set Point:	1.869	X_WP:	0.000	Y_WP:	0.000	Y_WP:	0.500	X:	-0.938	Y:	-0.703	Z:	1.196	yaw:	-107.106	yaw rate:	-5.323	Roll:	30.000	Pitch:	-17.450	Yaw:	-153.016	Thrust:	0.000
Time:	3.639	Roll Set Point:	-0.013	Pitch Set Point:	1.392	Yaw Set Point:	1.870	X_WP:	0.000	Y_WP:	0.000	Y_WP:	0.500	X:	-0.937	Y:	-0.705	Z:	1.196	yaw:	-107.162	yaw rate:	-5.633	Roll:	30.000	Pitch:	-17.136	Yaw:	-153.170	Thrust:	0.000
Time:	3.650	Roll Set Point:	-0.015	Pitch Set Point:	1.393	Yaw Set Point:	1.870	X_WP:	0.000	Y_WP:	0.000	Y_WP:	0.500	X:	-0.937	Y:	-0.707	Z:	1.195	yaw:	-107.149	yaw rate:	1.271	Roll:	30.000	Pitch:	-18.877	Yaw:	-151.512	Thrust:	0.000
Time:	3.661	Roll Set Point:	-0.018	Pitch Set Point:	1.393	Yaw Set Point:	1.871	X_WP:	0.000	Y_WP:	0.000	Y_WP:	0.500	X:	-0.936	Y:	-0.709	Z:	1.195	yaw:	-107.202	yaw rate:	-5.282	Roll:	30.000	Pitch:	-17.363	Yaw:	-153.142	Thrust:	0.000
Time:	3.673	Roll Set Point:	-0.021	Pitch Set Point:	1.393	Yaw Set Point:	1.872	X_WP:	0.000	Y_WP:	0.000	Y_WP:	0.500	X:	-0.935	Y:	-0.711	Z:	1.194	yaw:	-107.253	yaw rate:	-5.093	Roll:	30.000	Pitch:	-16.842	Yaw:	-153.169	Thrust:	0.000
Time:	3.684	Roll Set Point:	-0.026	Pitch Set Point:	1.394	Yaw Set Point:	1.873	X_WP:	0.000	Y_WP:	0.000	Y_WP:	0.500	X:	-0.935	Y:	-0.714	Z:	1.194	yaw:	-107.322	yaw rate:	-6.874	Roll:	30.000	Pitch:	-15.663	Yaw:	-153.685	Thrust:	0.000
Time:	3.695	Roll Set Point:	-0.027	Pitch Set Point:	1.396	Yaw Set Point:	1.872	X_WP:	0.000	Y_WP:	0.000	Y_WP:	0.500	X:	-0.934	Y:	-0.716	Z:	1.193	yaw:	-107.232	yaw rate:	8.930	Roll:	29.382	Pitch:	-20.517	Yaw:	-149.808	Thrust:	0.000
Time:	3.706	Roll Set Point:	-0.031	Pitch Set Point:	1.395	Yaw Set Point:	1.874	X_WP:	0.000	Y_WP:	0.000	Y_WP:	0.500	X:	-0.933	Y:	-0.718	Z:	1.193	yaw:	-107.367	yaw rate:	-13.498	Roll:	30.000	Pitch:	-14.522	Yaw:	-155.320	Thrust:	0.000
Time:	3.717	Roll Set Point:	-0.033	Pitch Set Point:	1.397	Yaw Set Point:	1.873	X_WP:	0.000	Y_WP:	0.000	Y_WP:	0.500	X:	-0.933	Y:	-0.721	Z:	1.193	yaw:	-107.289	yaw rate:	7.787	Roll:	29.878	Pitch:	-20.081	Yaw:	-150.161	Thrust:	0.000
Time:	3.728	Roll Set Point:	-0.037	Pitch Set Point:	1.395	Yaw Set Point:	1.875	X_WP:	0.000	Y_WP:	0.000	Y_WP:	0.500	X:	-0.932	Y:	-0.723	Z:	1.192	yaw:	-107.442	yaw rate:	-15.268	Roll:	30.000	Pitch:	-13.551	Yaw:	-155.851	Thrust:	0.000
Time:	3.739	Roll Set Point:	-0.045	Pitch Set Point:	1.392	Yaw Set Point:	1.880	X_WP:	0.000	Y_WP:	0.000	Y_WP:	0.500	X:	-0.930	Y:	-0.726	Z:	1.192	yaw:	-107.727	yaw rate:	-28.517	Roll:	30.000	Pitch:	-8.881	Yaw:	-159.379	Thrust:	0.000
Time:	3.750	Roll Set Point:	-0.049	Pitch Set Point:	1.390	Yaw Set Point:	1.883	X_WP:	0.000	Y_WP:	0.000	Y_WP:	0.500	X:	-0.930	Y:	-0.729	Z:	1.191	yaw:	-107.898	yaw rate:	-17.062	Roll:	30.000	Pitch:	-12.939	Yaw:	-156.910	Thrust:	0.000
Time:	3.761	Roll Set Point:	-0.051	Pitch Set Point:	1.392	Yaw Set Point:	1.881	X_WP:	0.000	Y_WP:	0.000	Y_WP:	0.500	X:	-0.929	Y:	-0.731	Z:	1.191	yaw:	-107.788	yaw rate:	11.014	Roll:	29.608	Pitch:	-20.103	Yaw:	-150.092	Thrust:	0.000
Time:	3.772	Roll Set Point:	-0.056	Pitch Set Point:	1.390	Yaw Set Point:	1.884	X_WP:	0.000	Y_WP:	0.000	Y_WP:	0.500	X:	-0.928	Y:	-0.733	Z:	1.190	yaw:	-107.933	yaw rate:	-14.487	Roll:	30.000	Pitch:	-12.961	Yaw:	-156.347	Thrust:	0.000
Time:	3.783	Roll Set Point:	-0.061	Pitch Set Point:	1.390	Yaw Set Point:	1.884	X_WP:	0.000	Y_WP:	0.000	Y_WP:	0.500	X:	-0.926	Y:	-0.737	Z:	1.190	yaw:	-107.971	yaw rate:	-3.786	Roll:	30.000	Pitch:	-14.155	Yaw:	-153.860	Thrust:	0.000
Time:	3.794	Roll Set Point:	-0.066	Pitch Set Point:	1.387	Yaw Set Point:	1.888	X_WP:	0.000	Y_WP:	0.000	Y_WP:	0.500	X:	-0.925	Y:	-0.739	Z:	1.189	yaw:	-108.155	yaw rate:	-18.481	Roll:	30.000	Pitch:	-11.401	Yaw:	-157.591	Thrust:	0.000
Time:	3.805	Roll Set Point:	-0.064	Pitch Set Point:	1.395	Yaw Set Point:	1.881	X_WP:	0.000	Y_WP:	0.000	Y_WP:	0.500	X:	-0.924	Y:	-0.741	Z:	1.189	yaw:	-107.767	yaw rate:	38.844	Roll:	25.152	Pitch:	-26.895	Yaw:	-143.502	Thrust:	0.000
Time:	3.816	Roll Set Point:	-0.071	Pitch Set Point:	1.389	Yaw Set Point:	1.887	X_WP:	0.000	Y_WP:	0.000	Y_WP:	0.500	X:	-0.922	Y:	-0.744	Z:	1.188	yaw:	-108.091	yaw rate:	-32.453	Roll:	30.000	Pitch:	-7.262	Yaw:	-160.833	Thrust:	0.000
Time:	3.827	Roll Set Point:	-0.078	Pitch Set Point:	1.386	Yaw Set Point:	1.890	X_WP:	0.000	Y_WP:	0.000	Y_WP:	0.500	X:	-0.920	Y:	-0.747	Z:	1.188	yaw:	-108.264	yaw rate:	-17.300	Roll:	30.000	Pitch:	-9.254	Yaw:	-157.478	Thrust:	0.000
Time:	3.838	Roll Set Point:	-0.082	Pitch Set Point:	1.385	Yaw Set Point:	1.891	X_WP:	0.000	Y_WP:	0.000	Y_WP:	0.500	X:	-0.918	Y:	-0.749	Z:	1.187	yaw:	-108.359	yaw rate:	-9.410	Roll:	30.000	Pitch:	-12.698	Yaw:	-155.737	Thrust:	0.000
Time:	3.849	Roll Set Point:	-0.086	Pitch Set Point:	1.384	Yaw Set Point:	1.892	X_WP:	0.000	Y_WP:	0.000	Y_WP:	0.500	X:	-0.916	Y:	-0.752	Z:	1.187	yaw:	-108.402	yaw rate:	-4.309	Roll:	30.000	Pitch:	-13.869	Yaw:	-154.586	Thrust:	0.000
Time:	3.860	Roll Set Point:	-0.091	Pitch Set Point:	1.381	Yaw Set Point:	1.894	X_WP:	0.000	Y_WP:	0.000	Y_WP:	0.500	X:	-0.914	Y:	-0.754	Z:	1.186	yaw:	-108.517	yaw rate:	-11.490	Roll:	30.000	Pitch:	-11.524	Yaw:	-156.450	Thrust:	0.000
Time:	3.871	Roll Set Point:	-0.093	Pitch Set Point:	1.382	Yaw Set Point:	1.893	X_WP:	0.000	Y_WP:	0.000	Y_WP:	0.500	X:	-0.912	Y:	-0.756	Z:	1.186	yaw:	-108.436	yaw rate:	8.099	Roll:	30.000	Pitch:	-16.635	Yaw:	-151.689	Thrust:	0.000
Time:	3.883	Roll Set Point:	-0.103	Pitch Set Point:	1.381	Yaw Set Point:	1.893	X_WP:	0.000	Y_WP:	0.000	Y_WP:	0.500	X:	-0.907	Y:	-0.762	Z:	1.185	yaw:	-108.451	yaw rate:	15.292	Roll:	30.000	Pitch:	-8.158	Yaw:	-154.162	Thrust:	0.000
Time:	3.894	Roll Set Point:	-0.106	Pitch Set Point:	1.380	Yaw Set Point:	1.893	X_WP:	0.000	Y_WP:	0.000	Y_WP:	0.500	X:	-0.904	Y:	-0.764	Z:	1.184	yaw:	-108.449	yaw rate:	0.176	Roll:	30.000	Pitch:	-13.810	Yaw:	-153.593	Thrust:	0.000
Time:	3.906	Roll Set Point:	-0.110	Pitch Set Point:	1.379	Yaw Set Point:	1.893	X_WP:	0.000	Y_WP:	0.000	Y_WP:	0.500	X:	-0.902	Y:	-0.766	Z:	1.184	yaw:	-108.457	yaw rate:	-0.794	Roll:	30.000	Pitch:	-13.806	Yaw:	-154.009	Thrust:	0.000
Time:	3.917	Roll Set Point:	-0.115	Pitch Set Point:	1.377	Yaw Set Point:	1.894	X_WP:	0.000	Y_WP:	0.000	Y_WP:	0.500	X:	-0.900	Y:	-0.769	Z:	1.183	yaw:	-108.523	yaw rate:	-6.555	Roll:	30.000	Pitch:	-11.673	Yaw:	-155.288	Thrust:	0.000
Time:	3.928	Roll Set Point:	-0.117	Pitch Set Point:	1.383	Yaw Set Point:	1.888	X_WP:	0.000	Y_WP:	0.000	Y_WP:	0.500	X:	-0.896	Y:	-0.772	Z:	1.183	yaw:	-108.181	yaw rate:	34.173	Roll:	28.013	Pitch:	-20.359	Yaw:	-145.144	Thrust:	0.000
Time:	3.939	Roll Set Point:	-0.126	Pitch Set Point:	1.374	Yaw Set Point:	1.896	X_WP:	0.000	Y_WP:	0.000	Y_WP:	0.500	X:	-0.894	Y:	-0.775	Z:	1.182	yaw:	-108.658	yaw rate:	-47.681	Roll:	30.000	Pitch:	0.017	Yaw:	-165.238	Thrust:	0.000
Time:	3.950	Roll Set Point:	-0.132	Pitch Set Point:	1.370	Yaw Set Point:	1.899	X_WP:	0.000	Y_WP:	0.000	Y_WP:	0.500	X:	-0.891	Y:	-0.777	Z:	1.182	yaw:	-108.796	yaw rate:	-13.788	Roll:	30.000	Pitch:	-8.914	Yaw:	-157.386	Thrust:	0.000
Time:	3.961	Roll Set Point:	-0.135	Pitch Set Point:	1.372	Yaw Set Point:	1.897	X_WP:	0.000	Y_WP:	0.000	Y_WP:	0.500	X:	-0.888	Y:	-0.780	Z:	1.182	yaw:	-108.676	yaw rate:	12.007	Roll:	30.000	Pitch:	-15.898	Yaw:	-151.096	Thrust:	0.000
Time:	3.972	Roll Set Point:	-0.141	Pitch Set Point:	1.366	Yaw Set Point:	1.901	X_WP:	0.000	Y_WP:	0.000	Y_WP:	0.500	X:	-0.886	Y:	-0.782	Z:	1.182	yaw:	-108.934	yaw rate:	-25.845	Roll:	30.000	Pitch:	-5.064	Yaw:	-160.441	Thrust:	0.000
Time:	3.983	Roll Set Point:	-0.149	Pitch Set Point:	1.363	Yaw Set Point:	1.903	X_WP:	0.000	Y_WP:	0.000	Y_WP:	0.500	X:	-0.882	Y:	-0.786	Z:	1.182	yaw:	-109.052	yaw rate:	-11.818	Roll:	30.000	Pitch:	-5.814	Yaw:	-157.276	Thrust:	0.000
Time:	3.994	Roll Set Point:	-0.154	Pitch Set Point:	1.360	Yaw Set Point:	1.905	X_WP:	0.000	Y_WP:	0.000	Y_WP:	0.500	X:	-0.879	Y:	-0.789	Z:	1.182	yaw:	-109.135	yaw rate:	-8.267	Roll:	30.000	Pitch:	-9.183	Yaw:	-156.549	Thrust:	0.000
Time:	4.006	Roll Set Point:	-0.162	Pitch Set Point:	1.355	Yaw Set Point:	1.909	X_WP:	0.000	Y_WP:	0.000	Y_WP:	0.500	X:	-0.876	Y:	-0.791	Z:	1.181	yaw:	-109.402	yaw rate:	-26.713	Roll:	30.000	Pitch:	-3.778	Yaw:	-161.286	Thrust:	0.000
Time:	4.019	Roll Set Point:	-0.167	Pitch Set Point:	1.353	Yaw Set Point:	1.910	X_WP:	0.000	Y_WP:	0.000	Y_WP:	0.500	X:	-0.873	Y:	-0.794	Z:	1.181	yaw:	-109.451	yaw rate:	-4.940	Roll:	30.000	Pitch:	-10.648	Yaw:	-156.422	Thrust:	0.000
Time:	4.030	Roll Set Point:	-0.173	Pitch Set Point:	1.348	Yaw Set Point:	1.914	X_WP:	0.000	Y_WP:	0.000	Y_WP:	0.500	X:	-0.870	Y:	-0.797	Z:	1.181	yaw:	-109.654	yaw rate:	-20.270	Roll:	30.000	Pitch:	-5.784	Yaw:	-159.958	Thrust:	0.000
Time:	4.041	Roll Set Point:	-0.184	Pitch Set Point:	1.339	Yaw Set Point:	1.920	X_WP:	0.000	Y_WP:	0.000	Y_WP:	0.500	X:	-0.865	Y:	-0.801	Z:	1.181	yaw:	-110.035	yaw rate:	-38.126	Roll:	30.000	Pitch:	3.931	Yaw:	-164.894	Thrust:	0.000
Time:	4.052	Roll Set Point:	-0.190	Pitch Set Point:	1.335	Yaw Set Point:	1.923	X_WP:	0.000	Y_WP:	0.000	Y_WP:	0.500	X:	-0.862	Y:	-0.803	Z:	1.181	yaw:	-110.175	yaw rate:	-13.950	Roll:	30.000	Pitch:	-5.614	Yaw:	-159.350	Thrust:	0.000
Time:	4.064	Roll Set Point:	-0.195	Pitch Set Point:	1.332	Yaw Set Point:	1.924	X_WP:	0.000	Y_WP:	0.000	Y_WP:	0.500	X:	-0.858	Y:	-0.806	Z:	1.181	yaw:	-110.239	yaw rate:	-6.466	Roll:	30.000	Pitch:	-7.333	Yaw:	-157.664	Thrust:	0.000
Time:	4.075	Roll Set Point:	-0.200	Pitch Set Point:	1.331	Yaw Set Point:	1.924	X_WP:	0.000	Y_WP:	0.000	Y_WP:	0.500	X:	-0.855	Y:	-0.809	Z:	1.181	yaw:	-110.235	yaw rate:	0.452	Roll:	30.000	Pitch:	-9.269	Yaw:	-156.016	Thrust:	0.000
Time:	4.086	Roll Set Point:	-0.216	Pitch Set Point:	1.309	Yaw Set Point:	1.942	X_WP:	0.000	Y_WP:	0.000	Y_WP:	0.500	X:	-0.849	Y:	-0.813	Z:	1.180	yaw:	-111.251	yaw rate:	-101.583	Roll:	30.000	Pitch:	24.545	Yaw:	-181.653	Thrust:	0.000
Time:	4.097	Roll Set Point:	-0.216	Pitch Set Point:	1.319	Yaw Set Point:	1.931	X_WP:	0.000	Y_WP:	0.000	Y_WP:	0.500	X:	-0.845	Y:	-0.816	Z:	1.180	yaw:	-110.658	yaw rate:	59.244	Roll:	25.921	Pitch:	-25.168	Yaw:	-142.651	Thrust:	0.000
Time:	4.108	Roll Set Point:	-0.223	Pitch Set Point:	1.313	Yaw Set Point:	1.936	X_WP:	0.000	Y_WP:	0.000	Y_WP:	0.500	X:	-0.841	Y:	-0.818	Z:	1.180	yaw:	-110.896	yaw rate:	-23.796	Roll:	30.000	Pitch:	-0.892	Yaw:	-162.694	Thrust:	0.000
Time:	4.119	Roll Set Point:	-0.229	Pitch Set Point:	1.310	Yaw Set Point:	1.936	X_WP:	0.000	Y_WP:	0.000	Y_WP:	0.500	X:	-0.837	Y:	-0.821	Z:	1.179	yaw:	-110.950	yaw rate:	-5.340	Roll:	30.000	Pitch:	-5.952	Yaw:	-158.388	Thrust:	0.000
Time:	4.130	Roll Set Point:	-0.235	Pitch Set Point:	1.305	Yaw Set Point:	1.939	X_WP:	0.000	Y_WP:	0.000	Y_WP:	0.500	X:	-0.833	Y:	-0.824	Z:	1.179	yaw:	-111.086	yaw rate:	-13.601	Roll:	30.000	Pitch:	-3.123	Yaw:	-160.539	Thrust:	0.000
Time:	4.141	Roll Set Point:	-0.238	Pitch Set Point:	1.307	Yaw Set Point:	1.935	X_WP:	0.000	Y_WP:	0.000	Y_WP:	0.500	X:	-0.829	Y:	-0.827	Z:	1.179	yaw:	-110.864	yaw rate:	22.194	Roll:	30.000	Pitch:	-13.289	Yaw:	-151.733	Thrust:	0.000
Time:	4.152	Roll Set Point:	-0.253	Pitch Set Point:	1.287	Yaw Set Point:	1.951	X_WP:	0.000	Y_WP:	0.000	Y_WP:	0.500	X:	-0.823	Y:	-0.830	Z:	1.179	yaw:	-111.763	yaw rate:	-89.972	Roll:	30.000	Pitch:	23.906	Yaw:	-179.613	Thrust:	0.000
Time:	4.163	Roll Set Point:	-0.259	Pitch Set Point:	1.283	Yaw Set Point:	1.952	X_WP:	0.000	Y_WP:	0.000	Y_WP:	0.500	X:	-0.819	Y:	-0.833	Z:	1.178	yaw:	-111.854	yaw rate:	-9.048	Roll:	30.000	Pitch:	-3.207	Yaw:	-160.531	Thrust:	0.000
Time:	4.174	Roll Set Point:	-0.265	Pitch Set Point:	1.280	Yaw Set Point:	1.953	X_WP:	0.000	Y_WP:	0.000	Y_WP:	0.500	X:	-0.814	Y:	-0.836	Z:	1.178	yaw:	-111.896	yaw rate:	-4.230	Roll:	30.000	Pitch:	-4.454	Yaw:	-159.469	Thrust:	0.000
Time:	4.185	Roll Set Point:	-0.271	Pitch Set Point:	1.277	Yaw Set Point:	1.954	X_WP:	0.000	Y_WP:	0.000	Y_WP:	0.500	X:	-0.810	Y:	-0.839	Z:	1.178	yaw:	-111.929	yaw rate:	-3.270	Roll:	30.000	Pitch:	-4.276	Yaw:	-159.275	Thrust:	0.000
Time:	4.196	Roll Set Point:	-0.276	Pitch Set Point:	1.276	Yaw Set Point:	1.952	X_WP:	0.000	Y_WP:	0.000	Y_WP:	0.500	X:	-0.806	Y:	-0.842	Z:	1.178	yaw:	-111.869	yaw rate:	5.960	Roll:	30.000	Pitch:	-7.014	Yaw:	-156.987	Thrust:	0.000
Time:	4.207	Roll Set Point:	-0.281	Pitch Set Point:	1.274	Yaw Set Point:	1.952	X_WP:	0.000	Y_WP:	0.000	Y_WP:	0.500	X:	-0.801	Y:	-0.844	Z:	1.178	yaw:	-111.847	yaw rate:	2.268	Roll:	30.000	Pitch:	-5.418	Yaw:	-157.834	Thrust:	0.000
Time:	4.218	Roll Set Point:	-0.293	Pitch Set Point:	1.259	Yaw Set Point:	1.962	X_WP:	0.000	Y_WP:	0.000	Y_WP:	0.500	X:	-0.794	Y:	-0.848	Z:	1.178	yaw:	-112.396	yaw rate:	-54.888	Roll:	30.000	Pitch:	16.235	Yaw:	-172.168	Thrust:	0.000
Time:	4.229	Roll Set Point:	-0.302	Pitch Set Point:	1.246	Yaw Set Point:	1.971	X_WP:	0.000	Y_WP:	0.000	Y_WP:	0.500	X:	-0.789	Y:	-0.851	Z:	1.178	yaw:	-112.942	yaw rate:	-54.647	Roll:	30.000	Pitch:	12.676	Yaw:	-172.866	Thrust:	0.000
Time:	4.240	Roll Set Point:	-0.305	Pitch Set Point:	1.249	Yaw Set Point:	1.965	X_WP:	0.000	Y_WP:	0.000	Y_WP:	0.500	X:	-0.784	Y:	-0.854	Z:	1.178	yaw:	-112.602	yaw rate:	34.034	Roll:	29.636	Pitch:	-13.529	Yaw:	-151.344	Thrust:	0.000
Time:	4.251	Roll Set Point:	-0.314	Pitch Set Point:	1.236	Yaw Set Point:	1.974	X_WP:	0.000	Y_WP:	0.000	Y_WP:	0.500	X:	-0.779	Y:	-0.856	Z:	1.178	yaw:	-113.129	yaw rate:	-52.773	Roll:	30.000	Pitch:	12.726	Yaw:	-172.689	Thrust:	0.000
Time:	4.262	Roll Set Point:	-0.325	Pitch Set Point:	1.223	Yaw Set Point:	1.982	X_WP:	0.000	Y_WP:	0.000	Y_WP:	0.500	X:	-0.771	Y:	-0.860	Z:	1.178	yaw:	-113.562	yaw rate:	-43.299	Roll:	30.000	Pitch:	15.038	Yaw:	-171.046	Thrust:	0.000
Time:	4.273	Roll Set Point:	-0.330	Pitch Set Point:	1.222	Yaw Set Point:	1.981	X_WP:	0.000	Y_WP:	0.000	Y_WP:	0.500	X:	-0.766	Y:	-0.863	Z:	1.178	yaw:	-113.476	yaw rate:	8.637	Roll:	30.000	Pitch:	-4.556	Yaw:	-158.587	Thrust:	0.000
Time:	4.284	Roll Set Point:	-0.338	Pitch Set Point:	1.211	Yaw Set Point:	1.987	X_WP:	0.000	Y_WP:	0.000	Y_WP:	0.500	X:	-0.761	Y:	-0.865	Z:	1.178	yaw:	-113.844	yaw rate:	-36.791	Roll:	30.000	Pitch:	9.375	Yaw:	-169.882	Thrust:	0.000
Time:	4.295	Roll Set Point:	-0.341	Pitch Set Point:	1.215	Yaw Set Point:	1.981	X_WP:	0.000	Y_WP:	0.000	Y_WP:	0.500	X:	-0.756	Y:	-0.868	Z:	1.178	yaw:	-113.505	yaw rate:	33.869	Roll:	29.765	Pitch:	-11.644	Yaw:	-152.654	Thrust:	0.000
Time:	4.307	Roll Set Point:	-0.350	Pitch Set Point:	1.199	Yaw Set Point:	1.992	X_WP:	0.000	Y_WP:	0.000	Y_WP:	0.500	X:	-0.750	Y:	-0.870	Z:	1.178	yaw:	-114.135	yaw rate:	-62.950	Roll:	30.000	Pitch:	15.849	Yaw:	-175.491	Thrust:	0.000
Time:	4.318	Roll Set Point:	-0.352	Pitch Set Point:	1.214	Yaw Set Point:	1.973	X_WP:	0.000	Y_WP:	0.000	Y_WP:	0.500	X:	-0.742	Y:	-0.874	Z:	1.178	yaw:	-113.068	yaw rate:	106.655	Roll:	22.994	Pitch:	-28.663	Yaw:	-134.817	Thrust:	0.000
Time:	4.330	Roll Set Point:	-0.361	Pitch Set Point:	1.198	Yaw Set Point:	1.985	X_WP:	0.000	Y_WP:	0.000	Y_WP:	0.500	X:	-0.737	Y:	-0.876	Z:	1.178	yaw:	-113.715	yaw rate:	-64.729	Roll:	30.000	Pitch:	16.602	Yaw:	-175.289	Thrust:	0.000
Time:	4.342	Roll Set Point:	-0.371	Pitch Set Point:	1.177	Yaw Set Point:	2.000	X_WP:	0.000	Y_WP:	0.000	Y_WP:	0.500	X:	-0.730	Y:	-0.878	Z:	1.178	yaw:	-114.580	yaw rate:	-86.436	Roll:	30.000	Pitch:	26.231	Yaw:	-182.662	Thrust:	0.000
Time:	4.353	Roll Set Point:	-0.378	Pitch Set Point:	1.171	Yaw Set Point:	2.002	X_WP:	0.000	Y_WP:	0.000	Y_WP:	0.500	X:	-0.725	Y:	-0.880	Z:	1.178	yaw:	-114.694	yaw rate:	-11.463	Roll:	30.000	Pitch:	4.411	Yaw:	-165.072	Thrust:	0.000
Time:	4.364	Roll Set Point:	-0.385	Pitch Set Point:	1.157	Yaw Set Point:	2.010	X_WP:	0.000	Y_WP:	0.000	Y_WP:	0.500	X:	-0.719	Y:	-0.882	Z:	1.178	yaw:	-115.159	yaw rate:	-46.449	Roll:	30.000	Pitch:	14.576	Yaw:	-174.002	Thrust:	0.000
Time:	4.375	Roll Set Point:	-0.394	Pitch Set Point:	1.145	Yaw Set Point:	2.016	X_WP:	0.000	Y_WP:	0.000	Y_WP:	0.500	X:	-0.710	Y:	-0.885	Z:	1.179	yaw:	-115.493	yaw rate:	-33.376	Roll:	30.000	Pitch:	16.641	Yaw:	-171.385	Thrust:	0.000
Time:	4.386	Roll Set Point:	-0.396	Pitch Set Point:	1.158	Yaw Set Point:	2.000	X_WP:	0.000	Y_WP:	0.000	Y_WP:	0.500	X:	-0.704	Y:	-0.887	Z:	1.179	yaw:	-114.606	yaw rate:	88.631	Roll:	25.604	Pitch:	-24.918	Yaw:	-141.173	Thrust:	0.000
Time:	4.397	Roll Set Point:	-0.401	Pitch Set Point:	1.155	Yaw Set Point:	1.998	X_WP:	0.000	Y_WP:	0.000	Y_WP:	0.500	X:	-0.698	Y:	-0.889	Z:	1.179	yaw:	-114.493	yaw rate:	11.300	Roll:	30.000	Pitch:	-1.422	Yaw:	-159.376	Thrust:	0.000
Time:	4.408	Roll Set Point:	-0.406	Pitch Set Point:	1.152	Yaw Set Point:	1.998	X_WP:	0.000	Y_WP:	0.000	Y_WP:	0.500	X:	-0.692	Y:	-0.891	Z:	1.179	yaw:	-114.452	yaw rate:	4.140	Roll:	30.000	Pitch:	0.444	Yaw:	-161.035	Thrust:	0.000
Time:	4.419	Roll Set Point:	-0.415	Pitch Set Point:	1.132	Yaw Set Point:	2.012	X_WP:	0.000	Y_WP:	0.000	Y_WP:	0.500	X:	-0.685	Y:	-0.893	Z:	1.179	yaw:	-115.255	yaw rate:	-80.305	Roll:	30.000	Pitch:	26.498	Yaw:	-182.230	Thrust:	0.000
Time:	4.430	Roll Set Point:	-0.423	Pitch Set Point:	1.122	Yaw Set Point:	2.014	X_WP:	0.000	Y_WP:	0.000	Y_WP:	0.500	X:	-0.676	Y:	-0.896	Z:	1.180	yaw:	-115.387	yaw rate:	-13.241	Roll:	30.000	Pitch:	11.802	Yaw:	-166.461	Thrust:	0.000
Time:	4.441	Roll Set Point:	-0.428	Pitch Set Point:	1.120	Yaw Set Point:	2.012	X_WP:	0.000	Y_WP:	0.000	Y_WP:	0.500	X:	-0.670	Y:	-0.898	Z:	1.180	yaw:	-115.252	yaw rate:	13.533	Roll:	30.000	Pitch:	-1.265	Yaw:	-159.915	Thrust:	0.000
Time:	4.452	Roll Set Point:	-0.430	Pitch Set Point:	1.131	Yaw Set Point:	1.998	X_WP:	0.000	Y_WP:	0.000	Y_WP:	0.500	X:	-0.664	Y:	-0.900	Z:	1.180	yaw:	-114.495	yaw rate:	75.729	Roll:	27.056	Pitch:	-19.385	Yaw:	-144.146	Thrust:	0.000
Time:	4.463	Roll Set Point:	-0.436	Pitch Set Point:	1.123	Yaw Set Point:	2.001	X_WP:	0.000	Y_WP:	0.000	Y_WP:	0.500	X:	-0.658	Y:	-0.902	Z:	1.181	yaw:	-114.665	yaw rate:	-16.974	Roll:	30.000	Pitch:	8.028	Yaw:	-166.337	Thrust:	0.000
Time:	4.474	Roll Set Point:	-0.443	Pitch Set Point:	1.113	Yaw Set Point:	2.007	X_WP:	0.000	Y_WP:	0.000	Y_WP:	0.500	X:	-0.652	Y:	-0.904	Z:	1.181	yaw:	-114.992	yaw rate:	-32.728	Roll:	30.000	Pitch:	12.959	Yaw:	-170.536	Thrust:	0.000
Time:	4.485	Roll Set Point:	-0.455	Pitch Set Point:	1.080	Yaw Set Point:	2.030	X_WP:	0.000	Y_WP:	0.000	Y_WP:	0.500	X:	-0.642	Y:	-0.906	Z:	1.182	yaw:	-116.306	yaw rate:	-131.463	Roll:	30.000	Pitch:	30.000	Yaw:	-195.788	Thrust:	0.000
Time:	4.496	Roll Set Point:	-0.457	Pitch Set Point:	1.097	Yaw Set Point:	2.011	X_WP:	0.000	Y_WP:	0.000	Y_WP:	0.500	X:	-0.636	Y:	-0.909	Z:	1.182	yaw:	-115.226	yaw rate:	108.081	Roll:	26.105	Pitch:	-27.556	Yaw:	-137.433	Thrust:	0.000
Time:	4.507	Roll Set Point:	-0.461	Pitch Set Point:	1.100	Yaw Set Point:	2.004	X_WP:	0.000	Y_WP:	0.000	Y_WP:	0.500	X:	-0.630	Y:	-0.911	Z:	1.183	yaw:	-114.847	yaw rate:	37.863	Roll:	29.163	Pitch:	-7.249	Yaw:	-153.577	Thrust:	0.000
Time:	4.518	Roll Set Point:	-0.468	Pitch Set Point:	1.083	Yaw Set Point:	2.016	X_WP:	0.000	Y_WP:	0.000	Y_WP:	0.500	X:	-0.624	Y:	-0.912	Z:	1.183	yaw:	-115.493	yaw rate:	-64.610	Roll:	30.000	Pitch:	23.636	Yaw:	-178.803	Thrust:	0.000
Time:	4.529	Roll Set Point:	-0.474	Pitch Set Point:	1.075	Yaw Set Point:	2.018	X_WP:	0.000	Y_WP:	0.000	Y_WP:	0.500	X:	-0.617	Y:	-0.914	Z:	1.183	yaw:	-115.631	yaw rate:	-13.746	Roll:	30.000	Pitch:	8.991	Yaw:	-166.919	Thrust:	0.000
Time:	4.540	Roll Set Point:	-0.482	Pitch Set Point:	1.067	Yaw Set Point:	2.019	X_WP:	0.000	Y_WP:	0.000	Y_WP:	0.500	X:	-0.608	Y:	-0.917	Z:	1.183	yaw:	-115.688	yaw rate:	-5.782	Roll:	29.370	Pitch:	11.896	Yaw:	-165.110	Thrust:	0.000
Time:	4.552	Roll Set Point:	-0.487	Pitch Set Point:	1.057	Yaw Set Point:	2.024	X_WP:	0.000	Y_WP:	0.000	Y_WP:	0.500	X:	-0.601	Y:	-0.918	Z:	1.184	yaw:	-115.958	yaw rate:	-27.007	Roll:	30.000	Pitch:	11.999	Yaw:	-170.197	Thrust:	0.000
Time:	4.564	Roll Set Point:	-0.492	Pitch Set Point:	1.053	Yaw Set Point:	2.023	X_WP:	0.000	Y_WP:	0.000	Y_WP:	0.500	X:	-0.595	Y:	-0.919	Z:	1.184	yaw:	-115.898	yaw rate:	6.042	Roll:	29.545	Pitch:	3.058	Yaw:	-162.913	Thrust:	0.000
Time:	4.575	Roll Set Point:	-0.497	Pitch Set Point:	1.049	Yaw Set Point:	2.022	X_WP:	0.000	Y_WP:	0.000	Y_WP:	0.500	X:	-0.588	Y:	-0.921	Z:	1.184	yaw:	-115.832	yaw rate:	6.649	Roll:	29.077	Pitch:	3.776	Yaw:	-162.366	Thrust:	0.000
Time:	4.586	Roll Set Point:	-0.502	Pitch Set Point:	1.041	Yaw Set Point:	2.024	X_WP:	0.000	Y_WP:	0.000	Y_WP:	0.500	X:	-0.582	Y:	-0.922	Z:	1.184	yaw:	-115.975	yaw rate:	-14.304	Roll:	29.711	Pitch:	10.301	Yaw:	-167.532	Thrust:	0.000
Time:	4.597	Roll Set Point:	-0.509	Pitch Set Point:	1.032	Yaw Set Point:	2.026	X_WP:	0.000	Y_WP:	0.000	Y_WP:	0.500	X:	-0.572	Y:	-0.924	Z:	1.185	yaw:	-116.074	yaw rate:	-9.907	Roll:	27.900	Pitch:	13.980	Yaw:	-166.627	Thrust:	0.000
Time:	4.608	Roll Set Point:	-0.513	Pitch Set Point:	1.030	Yaw Set Point:	2.022	X_WP:	0.000	Y_WP:	0.000	Y_WP:	0.500	X:	-0.566	Y:	-0.925	Z:	1.185	yaw:	-115.870	yaw rate:	20.343	Roll:	28.289	Pitch:	0.053	Yaw:	-159.161	Thrust:	0.000
Time:	4.619	Roll Set Point:	-0.518	Pitch Set Point:	1.021	Yaw Set Point:	2.026	X_WP:	0.000	Y_WP:	0.000	Y_WP:	0.500	X:	-0.559	Y:	-0.926	Z:	1.185	yaw:	-116.095	yaw rate:	-22.509	Roll:	29.314	Pitch:	13.188	Yaw:	-169.648	Thrust:	0.000
Time:	4.630	Roll Set Point:	-0.523	Pitch Set Point:	1.013	Yaw Set Point:	2.028	X_WP:	0.000	Y_WP:	0.000	Y_WP:	0.500	X:	-0.553	Y:	-0.927	Z:	1.186	yaw:	-116.211	yaw rate:	-11.587	Roll:	28.708	Pitch:	9.802	Yaw:	-167.218	Thrust:	0.000
Time:	4.641	Roll Set Point:	-0.528	Pitch Set Point:	0.995	Yaw Set Point:	2.039	X_WP:	0.000	Y_WP:	0.000	Y_WP:	0.500	X:	-0.546	Y:	-0.927	Z:	1.186	yaw:	-116.835	yaw rate:	-62.345	Roll:	27.885	Pitch:	25.577	Yaw:	-180.136	Thrust:	0.000
Time:	4.652	Roll Set Point:	-0.533	Pitch Set Point:	1.000	Yaw Set Point:	2.028	X_WP:	0.000	Y_WP:	0.000	Y_WP:	0.500	X:	-0.536	Y:	-0.928	Z:	1.186	yaw:	-116.189	yaw rate:	64.569	Roll:	26.176	Pitch:	-7.255	Yaw:	-149.111	Thrust:	0.000
Time:	4.663	Roll Set Point:	-0.538	Pitch Set Point:	0.991	Yaw Set Point:	2.031	X_WP:	0.000	Y_WP:	0.000	Y_WP:	0.500	X:	-0.530	Y:	-0.929	Z:	1.185	yaw:	-116.371	yaw rate:	-18.199	Roll:	27.554	Pitch:	12.722	Yaw:	-169.010	Thrust:	0.000
Time:	4.674	Roll Set Point:	-0.541	Pitch Set Point:	0.993	Yaw Set Point:	2.024	X_WP:	0.000	Y_WP:	0.000	Y_WP:	0.500	X:	-0.523	Y:	-0.929	Z:	1.185	yaw:	-115.958	yaw rate:	41.308	Roll:	26.727	Pitch:	-4.707	Yaw:	-154.308	Thrust:	0.000
Time:	4.685	Roll Set Point:	-0.545	Pitch Set Point:	0.993	Yaw Set Point:	2.018	X_WP:	0.000	Y_WP:	0.000	Y_WP:	0.500	X:	-0.516	Y:	-0.930	Z:	1.185	yaw:	-115.620	yaw rate:	33.741	Roll:	26.792	Pitch:	-2.413	Yaw:	-155.634	Thrust:	0.000
Time:	4.696	Roll Set Point:	-0.551	Pitch Set Point:	0.989	Yaw Set Point:	2.015	X_WP:	0.000	Y_WP:	0.000	Y_WP:	0.500	X:	-0.507	Y:	-0.930	Z:	1.184	yaw:	-115.423	yaw rate:	19.728	Roll:	25.570	Pitch:	6.074	Yaw:	-158.684	Thrust:	0.000
Time:	4.707	Roll Set Point:	-0.555	Pitch Set Point:	0.993	Yaw Set Point:	2.005	X_WP:	0.000	Y_WP:	0.000	Y_WP:	0.500	X:	-0.500	Y:	-0.931	Z:	1.183	yaw:	-114.873	yaw rate:	54.999	Roll:	26.404	Pitch:	-8.721	Yaw:	-149.543	Thrust:	0.000
Time:	4.719	Roll Set Point:	-0.559	Pitch Set Point:	0.985	Yaw Set Point:	2.008	X_WP:	0.000	Y_WP:	0.000	Y_WP:	0.500	X:	-0.495	Y:	-0.932	Z:	1.183	yaw:	-115.056	yaw rate:	-18.236	Roll:	28.613	Pitch:	11.942	Yaw:	-167.182	Thrust:	0.000
Time:	4.730	Roll Set Point:	-0.563	Pitch Set Point:	0.975	Yaw Set Point:	2.013	X_WP:	0.000	Y_WP:	0.000	Y_WP:	0.500	X:	-0.489	Y:	-0.933	Z:	1.182	yaw:	-115.340	yaw rate:	-28.490	Roll:	28.772	Pitch:	14.899	Yaw:	-170.014	Thrust:	0.000
Time:	4.741	Roll Set Point:	-0.567	Pitch Set Point:	0.969	Yaw Set Point:	2.015	X_WP:	0.000	Y_WP:	0.000	Y_WP:	0.500	X:	-0.483	Y:	-0.933	Z:	1.181	yaw:	-115.458	yaw rate:	-11.782	Roll:	28.697	Pitch:	10.043	Yaw:	-166.213	Thrust:	0.000
Time:	4.752	Roll Set Point:	-0.573	Pitch Set Point:	0.956	Yaw Set Point:	2.021	X_WP:	0.000	Y_WP:	0.000	Y_WP:	0.500	X:	-0.475	Y:	-0.935	Z:	1.179	yaw:	-115.793	yaw rate:	-33.493	Roll:	27.428	Pitch:	20.820	Yaw:	-171.834	Thrust:	0.000
Time:	4.763	Roll Set Point:	-0.577	Pitch Set Point:	0.949	Yaw Set Point:	2.024	X_WP:	0.000	Y_WP:	0.000	Y_WP:	0.500	X:	-0.470	Y:	-0.936	Z:	1.178	yaw:	-115.946	yaw rate:	-15.304	Roll:	28.242	Pitch:	11.469	Yaw:	-167.730	Thrust:	0.000
Time:	4.774	Roll Set Point:	-0.581	Pitch Set Point:	0.942	Yaw Set Point:	2.026	X_WP:	0.000	Y_WP:	0.000	Y_WP:	0.500	X:	-0.464	Y:	-0.936	Z:	1.177	yaw:	-116.058	yaw rate:	-11.131	Roll:	27.939	Pitch:	10.532	Yaw:	-166.895	Thrust:	0.000
Time:	4.785	Roll Set Point:	-0.584	Pitch Set Point:	0.935	Yaw Set Point:	2.028	X_WP:	0.000	Y_WP:	0.000	Y_WP:	0.500	X:	-0.459	Y:	-0.937	Z:	1.176	yaw:	-116.196	yaw rate:	-13.838	Roll:	27.540	Pitch:	11.392	Yaw:	-167.731	Thrust:	0.000
Time:	4.796	Roll Set Point:	-0.587	Pitch Set Point:	0.922	Yaw Set Point:	2.035	X_WP:	0.000	Y_WP:	0.000	Y_WP:	0.500	X:	-0.453	Y:	-0.937	Z:	1.175	yaw:	-116.621	yaw rate:	-42.518	Roll:	26.883	Pitch:	19.737	Yaw:	-175.132	Thrust:	0.000
Time:	4.807	Roll Set Point:	-0.593	Pitch Set Point:	0.929	Yaw Set Point:	2.022	X_WP:	0.000	Y_WP:	0.000	Y_WP:	0.500	X:	-0.445	Y:	-0.937	Z:	1.174	yaw:	-115.855	yaw rate:	76.652	Roll:	26.209	Pitch:	-9.828	Yaw:	-145.775	Thrust:	0.000
Time:	4.818	Roll Set Point:	-0.596	Pitch Set Point:	0.927	Yaw Set Point:	2.020	X_WP:	0.000	Y_WP:	0.000	Y_WP:	0.500	X:	-0.440	Y:	-0.938	Z:	1.173	yaw:	-115.723	yaw rate:	13.133	Roll:	27.213	Pitch:	4.009	Yaw:	-160.669	Thrust:	0.000
Time:	4.829	Roll Set Point:	-0.599	Pitch Set Point:	0.926	Yaw Set Point:	2.016	X_WP:	0.000	Y_WP:	0.000	Y_WP:	0.500	X:	-0.434	Y:	-0.938	Z:	1.172	yaw:	-115.517	yaw rate:	20.649	Roll:	27.228	Pitch:	1.633	Yaw:	-158.596	Thrust:	0.000
Time:	4.840	Roll Set Point:	-0.602	Pitch Set Point:	0.908	Yaw Set Point:	2.029	X_WP:	0.000	Y_WP:	0.000	Y_WP:	0.500	X:	-0.429	Y:	-0.938	Z:	1.171	yaw:	-116.238	yaw rate:	-72.137	Roll:	26.053	Pitch:	27.863	Yaw:	-181.628	Thrust:	0.000
Time:	4.851	Roll Set Point:	-0.606	Pitch Set Point:	0.914	Yaw Set Point:	2.018	X_WP:	0.000	Y_WP:	0.000	Y_WP:	0.500	X:	-0.424	Y:	-0.938	Z:	1.171	yaw:	-115.641	yaw rate:	59.697	Roll:	28.083	Pitch:	-8.548	Yaw:	-149.501	Thrust:	0.000
Time:	4.862	Roll Set Point:	-0.609	Pitch Set Point:	0.912	Yaw Set Point:	2.017	X_WP:	0.000	Y_WP:	0.000	Y_WP:	0.500	X:	-0.419	Y:	-0.939	Z:	1.170	yaw:	-115.544	yaw rate:	9.697	Roll:	27.342	Pitch:	5.158	Yaw:	-161.235	Thrust:	0.000
Time:	4.873	Roll Set Point:	-0.613	Pitch Set Point:	0.894	Yaw Set Point:	2.027	X_WP:	0.000	Y_WP:	0.000	Y_WP:	0.500	X:	-0.411	Y:	-0.939	Z:	1.169	yaw:	-116.139	yaw rate:	-59.435	Roll:	24.686	Pitch:	28.075	Yaw:	-178.464	Thrust:	0.000
Time:	4.884	Roll Set Point:	-0.617	Pitch Set Point:	0.904	Yaw Set Point:	2.013	X_WP:	0.000	Y_WP:	0.000	Y_WP:	0.500	X:	-0.406	Y:	-0.940	Z:	1.168	yaw:	-115.358	yaw rate:	78.051	Roll:	28.614	Pitch:	-13.667	Yaw:	-144.732	Thrust:	0.000
Time:	4.895	Roll Set Point:	-0.620	Pitch Set Point:	0.887	Yaw Set Point:	2.026	X_WP:	0.000	Y_WP:	0.000	Y_WP:	0.500	X:	-0.401	Y:	-0.940	Z:	1.167	yaw:	-116.069	yaw rate:	-71.111	Roll:	25.934	Pitch:	28.061	Yaw:	-181.143	Thrust:	0.000
Time:	4.906	Roll Set Point:	-0.625	Pitch Set Point:	0.881	Yaw Set Point:	2.026	X_WP:	0.000	Y_WP:	0.000	Y_WP:	0.500	X:	-0.393	Y:	-0.941	Z:	1.166	yaw:	-116.059	yaw rate:	0.987	Roll:	26.067	Pitch:	11.871	Yaw:	-164.020	Thrust:	0.000
Time:	4.917	Roll Set Point:	-0.629	Pitch Set Point:	0.884	Yaw Set Point:	2.019	X_WP:	0.000	Y_WP:	0.000	Y_WP:	0.500	X:	-0.388	Y:	-0.942	Z:	1.165	yaw:	-115.669	yaw rate:	38.996	Roll:	28.459	Pitch:	-1.813	Yaw:	-154.455	Thrust:	0.000
Time:	4.928	Roll Set Point:	-0.632	Pitch Set Point:	0.887	Yaw Set Point:	2.012	X_WP:	0.000	Y_WP:	0.000	Y_WP:	0.500	X:	-0.384	Y:	-0.942	Z:	1.165	yaw:	-115.295	yaw rate:	37.399	Roll:	28.206	Pitch:	-1.889	Yaw:	-154.311	Thrust:	0.000
