Time:	2.054	Roll Set Point:	0.075	Pitch Set Point:	0.258	Yaw Set Point:	0.053	X_WP:	0.100	Y_WP:	0.000	Y_WP:	0.500	X:	0.009	Y:	-0.127	Z:	0.056	yaw:	-3.022	yaw rate:	44.616	Roll:	-2.436	Pitch:	-3.806	Yaw:	-4.219	Thrust:	24.423
Time:	2.069	Roll Set Point:	0.075	Pitch Set Point:	0.258	Yaw Set Point:	0.053	X_WP:	0.100	Y_WP:	0.000	Y_WP:	0.500	X:	0.009	Y:	-0.127	Z:	0.056	yaw:	-3.026	yaw rate:	-0.430	Roll:	-2.447	Pitch:	-3.825	Yaw:	-4.323	Thrust:	25.240
Time:	2.080	Roll Set Point:	0.075	Pitch Set Point:	0.258	Yaw Set Point:	0.053	X_WP:	0.100	Y_WP:	0.000	Y_WP:	0.500	X:	0.009	Y:	-0.127	Z:	0.056	yaw:	-3.036	yaw rate:	-1.427	Roll:	-2.387	Pitch:	-3.852	Yaw:	-4.466	Thrust:	25.657
Time:	2.091	Roll Set Point:	0.075	Pitch Set Point:	0.258	Yaw Set Point:	0.053	X_WP:	0.100	Y_WP:	0.000	Y_WP:	0.500	X:	0.009	Y:	-0.127	Z:	0.056	yaw:	-3.020	yaw rate:	1.577	Roll:	-2.519	Pitch:	-3.793	Yaw:	-3.858	Thrust:	26.090
Time:	2.103	Roll Set Point:	0.074	Pitch Set Point:	0.259	Yaw Set Point:	0.059	X_WP:	0.100	Y_WP:	0.000	Y_WP:	0.500	X:	0.009	Y:	-0.127	Z:	0.056	yaw:	-3.361	yaw rate:	-34.086	Roll:	-1.114	Pitch:	-5.101	Yaw:	-11.862	Thrust:	26.844
Time:	2.114	Roll Set Point:	0.075	Pitch Set Point:	0.258	Yaw Set Point:	0.055	X_WP:	0.100	Y_WP:	0.000	Y_WP:	0.500	X:	0.009	Y:	-0.127	Z:	0.056	yaw:	-3.129	yaw rate:	23.221	Roll:	-3.452	Pitch:	-2.777	Yaw:	1.084	Thrust:	27.514
Time:	2.126	Roll Set Point:	0.074	Pitch Set Point:	0.258	Yaw Set Point:	0.058	X_WP:	0.100	Y_WP:	0.000	Y_WP:	0.500	X:	0.009	Y:	-0.127	Z:	0.056	yaw:	-3.295	yaw rate:	-16.605	Roll:	-1.595	Pitch:	-4.505	Yaw:	-8.601	Thrust:	27.583
Time:	2.139	Roll Set Point:	0.074	Pitch Set Point:	0.259	Yaw Set Point:	0.058	X_WP:	0.100	Y_WP:	0.000	Y_WP:	0.500	X:	0.009	Y:	-0.127	Z:	0.056	yaw:	-3.343	yaw rate:	-4.781	Roll:	-2.467	Pitch:	-4.250	Yaw:	-5.729	Thrust:	29.566
Time:	2.150	Roll Set Point:	0.074	Pitch Set Point:	0.259	Yaw Set Point:	0.059	X_WP:	0.100	Y_WP:	0.000	Y_WP:	0.500	X:	0.009	Y:	-0.127	Z:	0.056	yaw:	-3.390	yaw rate:	-4.790	Roll:	-2.296	Pitch:	-4.031	Yaw:	-5.923	Thrust:	29.278
Time:	2.161	Roll Set Point:	0.074	Pitch Set Point:	0.259	Yaw Set Point:	0.058	X_WP:	0.100	Y_WP:	0.000	Y_WP:	0.500	X:	0.009	Y:	-0.127	Z:	0.056	yaw:	-3.345	yaw rate:	4.499	Roll:	-2.718	Pitch:	-3.794	Yaw:	-3.658	Thrust:	29.525
Time:	2.172	Roll Set Point:	0.074	Pitch Set Point:	0.259	Yaw Set Point:	0.058	X_WP:	0.100	Y_WP:	0.000	Y_WP:	0.500	X:	0.009	Y:	-0.127	Z:	0.056	yaw:	-3.341	yaw rate:	0.480	Roll:	-2.359	Pitch:	-3.786	Yaw:	-4.674	Thrust:	30.282
Time:	2.184	Roll Set Point:	0.074	Pitch Set Point:	0.259	Yaw Set Point:	0.058	X_WP:	0.100	Y_WP:	0.000	Y_WP:	0.500	X:	0.009	Y:	-0.127	Z:	0.056	yaw:	-3.321	yaw rate:	1.937	Roll:	-2.525	Pitch:	-3.953	Yaw:	-4.364	Thrust:	31.466
Time:	2.194	Roll Set Point:	0.074	Pitch Set Point:	0.259	Yaw Set Point:	0.058	X_WP:	0.100	Y_WP:	0.000	Y_WP:	0.500	X:	0.009	Y:	-0.127	Z:	0.056	yaw:	-3.348	yaw rate:	-2.677	Roll:	-2.387	Pitch:	-3.944	Yaw:	-5.479	Thrust:	31.094
Time:	2.207	Roll Set Point:	0.075	Pitch Set Point:	0.258	Yaw Set Point:	0.055	X_WP:	0.100	Y_WP:	0.000	Y_WP:	0.500	X:	0.009	Y:	-0.127	Z:	0.056	yaw:	-3.159	yaw rate:	18.939	Roll:	-3.288	Pitch:	-2.901	Yaw:	-0.638	Thrust:	33.048
Time:	2.218	Roll Set Point:	0.074	Pitch Set Point:	0.258	Yaw Set Point:	0.058	X_WP:	0.100	Y_WP:	0.000	Y_WP:	0.500	X:	0.009	Y:	-0.127	Z:	0.056	yaw:	-3.315	yaw rate:	-15.596	Roll:	-1.756	Pitch:	-4.810	Yaw:	-8.504	Thrust:	33.024
Time:	2.229	Roll Set Point:	0.075	Pitch Set Point:	0.258	Yaw Set Point:	0.054	X_WP:	0.100	Y_WP:	0.000	Y_WP:	0.500	X:	0.009	Y:	-0.127	Z:	0.056	yaw:	-3.090	yaw rate:	22.476	Roll:	-3.361	Pitch:	-2.974	Yaw:	0.724	Thrust:	33.345
Time:	2.241	Roll Set Point:	0.075	Pitch Set Point:	0.258	Yaw Set Point:	0.054	X_WP:	0.100	Y_WP:	0.000	Y_WP:	0.500	X:	0.009	Y:	-0.127	Z:	0.056	yaw:	-3.106	yaw rate:	-1.568	Roll:	-2.556	Pitch:	-4.036	Yaw:	-4.900	Thrust:	34.273
Time:	2.252	Roll Set Point:	0.075	Pitch Set Point:	0.258	Yaw Set Point:	0.055	X_WP:	0.100	Y_WP:	0.000	Y_WP:	0.500	X:	0.009	Y:	-0.127	Z:	0.056	yaw:	-3.134	yaw rate:	-2.794	Roll:	-2.363	Pitch:	-3.853	Yaw:	-5.249	Thrust:	33.873
Time:	2.268	Roll Set Point:	0.074	Pitch Set Point:	0.259	Yaw Set Point:	0.061	X_WP:	0.100	Y_WP:	0.000	Y_WP:	0.500	X:	0.009	Y:	-0.127	Z:	0.056	yaw:	-3.521	yaw rate:	-38.748	Roll:	-1.062	Pitch:	-5.182	Yaw:	-11.368	Thrust:	39.605
Time:	2.280	Roll Set Point:	0.074	Pitch Set Point:	0.259	Yaw Set Point:	0.059	X_WP:	0.100	Y_WP:	0.000	Y_WP:	0.500	X:	0.009	Y:	-0.127	Z:	0.056	yaw:	-3.361	yaw rate:	15.976	Roll:	-3.508	Pitch:	-3.511	Yaw:	-1.311	Thrust:	37.618
Time:	2.291	Roll Set Point:	0.074	Pitch Set Point:	0.259	Yaw Set Point:	0.058	X_WP:	0.100	Y_WP:	0.000	Y_WP:	0.500	X:	0.009	Y:	-0.127	Z:	0.056	yaw:	-3.349	yaw rate:	1.235	Roll:	-2.608	Pitch:	-4.020	Yaw:	-4.632	Thrust:	35.913
Time:	2.304	Roll Set Point:	0.074	Pitch Set Point:	0.259	Yaw Set Point:	0.059	X_WP:	0.100	Y_WP:	0.000	Y_WP:	0.500	X:	0.009	Y:	-0.127	Z:	0.056	yaw:	-3.356	yaw rate:	18.343	Roll:	-2.550	Pitch:	-3.900	Yaw:	-5.149	Thrust:	39.622
Time:	2.315	Roll Set Point:	0.075	Pitch Set Point:	0.258	Yaw Set Point:	0.055	X_WP:	0.100	Y_WP:	0.000	Y_WP:	0.500	X:	0.009	Y:	-0.127	Z:	0.056	yaw:	-3.139	yaw rate:	21.734	Roll:	-3.406	Pitch:	-2.962	Yaw:	0.502	Thrust:	37.228
Time:	2.326	Roll Set Point:	0.074	Pitch Set Point:	0.259	Yaw Set Point:	0.061	X_WP:	0.100	Y_WP:	0.000	Y_WP:	0.500	X:	0.009	Y:	-0.127	Z:	0.056	yaw:	-3.496	yaw rate:	-35.706	Roll:	-0.623	Pitch:	-5.630	Yaw:	-13.641	Thrust:	37.422
Time:	2.338	Roll Set Point:	0.075	Pitch Set Point:	0.258	Yaw Set Point:	0.055	X_WP:	0.100	Y_WP:	0.000	Y_WP:	0.500	X:	0.009	Y:	-0.127	Z:	0.056	yaw:	-3.127	yaw rate:	36.915	Roll:	-4.397	Pitch:	-2.381	Yaw:	3.338	Thrust:	40.204
Time:	2.351	Roll Set Point:	0.074	Pitch Set Point:	0.259	Yaw Set Point:	0.059	X_WP:	0.100	Y_WP:	0.000	Y_WP:	0.500	X:	0.009	Y:	-0.127	Z:	0.056	yaw:	-3.374	yaw rate:	-24.746	Roll:	-1.531	Pitch:	-5.161	Yaw:	-10.435	Thrust:	40.477
Time:	2.363	Roll Set Point:	0.074	Pitch Set Point:	0.259	Yaw Set Point:	0.058	X_WP:	0.100	Y_WP:	0.000	Y_WP:	0.500	X:	0.009	Y:	-0.127	Z:	0.056	yaw:	-3.349	yaw rate:	2.483	Roll:	-2.607	Pitch:	-4.025	Yaw:	-4.460	Thrust:	40.369
Time:	2.374	Roll Set Point:	0.074	Pitch Set Point:	0.259	Yaw Set Point:	0.058	X_WP:	0.100	Y_WP:	0.000	Y_WP:	0.500	X:	0.009	Y:	-0.127	Z:	0.056	yaw:	-3.345	yaw rate:	0.474	Roll:	-2.618	Pitch:	-3.960	Yaw:	-4.936	Thrust:	41.160
Time:	2.385	Roll Set Point:	0.074	Pitch Set Point:	0.259	Yaw Set Point:	0.059	X_WP:	0.100	Y_WP:	0.000	Y_WP:	0.500	X:	0.009	Y:	-0.127	Z:	0.056	yaw:	-3.376	yaw rate:	-3.080	Roll:	-2.364	Pitch:	-4.084	Yaw:	-5.814	Thrust:	40.977
Time:	2.395	Roll Set Point:	0.074	Pitch Set Point:	0.259	Yaw Set Point:	0.059	X_WP:	0.100	Y_WP:	0.000	Y_WP:	0.500	X:	0.009	Y:	-0.127	Z:	0.056	yaw:	-3.400	yaw rate:	-2.407	Roll:	-2.398	Pitch:	-4.102	Yaw:	-5.693	Thrust:	40.282
Time:	2.407	Roll Set Point:	0.074	Pitch Set Point:	0.259	Yaw Set Point:	0.059	X_WP:	0.100	Y_WP:	0.000	Y_WP:	0.500	X:	0.009	Y:	-0.127	Z:	0.056	yaw:	-3.358	yaw rate:	4.150	Roll:	-2.729	Pitch:	-3.906	Yaw:	-4.141	Thrust:	42.927
Time:	2.418	Roll Set Point:	0.074	Pitch Set Point:	0.258	Yaw Set Point:	0.059	X_WP:	0.100	Y_WP:	0.000	Y_WP:	0.500	X:	0.009	Y:	-0.127	Z:	0.056	yaw:	-3.357	yaw rate:	0.105	Roll:	-2.653	Pitch:	-4.028	Yaw:	-5.052	Thrust:	42.865
Time:	2.438	Roll Set Point:	0.074	Pitch Set Point:	0.258	Yaw Set Point:	0.058	X_WP:	0.100	Y_WP:	0.000	Y_WP:	0.500	X:	0.009	Y:	-0.127	Z:	0.056	yaw:	-3.338	yaw rate:	1.910	Roll:	-2.598	Pitch:	-3.915	Yaw:	-4.571	Thrust:	42.053
Time:	2.450	Roll Set Point:	0.074	Pitch Set Point:	0.258	Yaw Set Point:	0.058	X_WP:	0.100	Y_WP:	0.000	Y_WP:	0.500	X:	0.009	Y:	-0.127	Z:	0.056	yaw:	-3.339	yaw rate:	3.751	Roll:	-2.745	Pitch:	-4.304	Yaw:	-5.484	Thrust:	62.383
Time:	2.461	Roll Set Point:	0.074	Pitch Set Point:	0.258	Yaw Set Point:	0.055	X_WP:	0.100	Y_WP:	0.000	Y_WP:	0.500	X:	0.009	Y:	-0.127	Z:	0.056	yaw:	-3.178	yaw rate:	16.021	Roll:	-3.116	Pitch:	-3.182	Yaw:	-1.136	Thrust:	44.532
Time:	2.473	Roll Set Point:	0.074	Pitch Set Point:	0.259	Yaw Set Point:	0.059	X_WP:	0.100	Y_WP:	0.000	Y_WP:	0.500	X:	0.009	Y:	-0.127	Z:	0.056	yaw:	-3.396	yaw rate:	-21.755	Roll:	-1.691	Pitch:	-5.197	Yaw:	-9.950	Thrust:	47.064
Time:	2.485	Roll Set Point:	0.074	Pitch Set Point:	0.258	Yaw Set Point:	0.056	X_WP:	0.100	Y_WP:	0.000	Y_WP:	0.500	X:	0.009	Y:	-0.127	Z:	0.056	yaw:	-3.226	yaw rate:	17.041	Roll:	-3.135	Pitch:	-3.214	Yaw:	-1.112	Thrust:	46.527
Time:	2.496	Roll Set Point:	0.074	Pitch Set Point:	0.258	Yaw Set Point:	0.059	X_WP:	0.100	Y_WP:	0.000	Y_WP:	0.500	X:	0.009	Y:	-0.127	Z:	0.056	yaw:	-3.407	yaw rate:	-18.158	Roll:	-1.856	Pitch:	-4.936	Yaw:	-9.529	Thrust:	45.702
Time:	2.508	Roll Set Point:	0.074	Pitch Set Point:	0.258	Yaw Set Point:	0.059	X_WP:	0.100	Y_WP:	0.000	Y_WP:	0.500	X:	0.009	Y:	-0.127	Z:	0.056	yaw:	-3.404	yaw rate:	0.365	Roll:	-2.572	Pitch:	-4.097	Yaw:	-5.196	Thrust:	48.839
Time:	2.519	Roll Set Point:	0.074	Pitch Set Point:	0.258	Yaw Set Point:	0.060	X_WP:	0.100	Y_WP:	0.000	Y_WP:	0.500	X:	0.009	Y:	-0.127	Z:	0.056	yaw:	-3.458	yaw rate:	-5.404	Roll:	-2.169	Pitch:	-4.070	Yaw:	-6.603	Thrust:	46.210
Time:	2.530	Roll Set Point:	0.074	Pitch Set Point:	0.258	Yaw Set Point:	0.057	X_WP:	0.100	Y_WP:	0.000	Y_WP:	0.500	X:	0.009	Y:	-0.126	Z:	0.056	yaw:	-3.268	yaw rate:	18.914	Roll:	-3.335	Pitch:	-3.070	Yaw:	-0.345	Thrust:	47.650
Time:	2.543	Roll Set Point:	0.074	Pitch Set Point:	0.258	Yaw Set Point:	0.058	X_WP:	0.100	Y_WP:	0.000	Y_WP:	0.500	X:	0.009	Y:	-0.126	Z:	0.056	yaw:	-3.300	yaw rate:	-3.108	Roll:	-2.459	Pitch:	-4.250	Yaw:	-5.845	Thrust:	53.917
Time:	2.554	Roll Set Point:	0.074	Pitch Set Point:	0.258	Yaw Set Point:	0.059	X_WP:	0.100	Y_WP:	0.000	Y_WP:	0.500	X:	0.009	Y:	-0.126	Z:	0.056	yaw:	-3.364	yaw rate:	-6.494	Roll:	-2.229	Pitch:	-4.158	Yaw:	-6.770	Thrust:	48.923
Time:	2.568	Roll Set Point:	0.074	Pitch Set Point:	0.257	Yaw Set Point:	0.058	X_WP:	0.100	Y_WP:	0.000	Y_WP:	0.500	X:	0.009	Y:	-0.126	Z:	0.056	yaw:	-3.313	yaw rate:	5.161	Roll:	-2.772	Pitch:	-3.863	Yaw:	-4.297	Thrust:	50.647
Time:	2.582	Roll Set Point:	0.073	Pitch Set Point:	0.258	Yaw Set Point:	0.062	X_WP:	0.100	Y_WP:	0.000	Y_WP:	0.500	X:	0.009	Y:	-0.126	Z:	0.056	yaw:	-3.535	yaw rate:	-8.084	Roll:	-2.092	Pitch:	-4.943	Yaw:	-9.673	Thrust:	61.782
Time:	2.593	Roll Set Point:	0.074	Pitch Set Point:	0.258	Yaw Set Point:	0.061	X_WP:	0.100	Y_WP:	0.000	Y_WP:	0.500	X:	0.009	Y:	-0.126	Z:	0.056	yaw:	-3.512	yaw rate:	2.354	Roll:	-2.913	Pitch:	-4.173	Yaw:	-4.969	Thrust:	53.469
Time:	2.606	Roll Set Point:	0.074	Pitch Set Point:	0.257	Yaw Set Point:	0.058	X_WP:	0.100	Y_WP:	0.000	Y_WP:	0.500	X:	0.009	Y:	-0.126	Z:	0.057	yaw:	-3.321	yaw rate:	19.105	Roll:	-3.207	Pitch:	-3.036	Yaw:	-1.120	Thrust:	53.380
Time:	2.617	Roll Set Point:	0.074	Pitch Set Point:	0.258	Yaw Set Point:	0.060	X_WP:	0.100	Y_WP:	0.000	Y_WP:	0.500	X:	0.009	Y:	-0.126	Z:	0.057	yaw:	-3.463	yaw rate:	-14.201	Roll:	-2.141	Pitch:	-4.926	Yaw:	-8.802	Thrust:	52.064
Time:	2.627	Roll Set Point:	0.074	Pitch Set Point:	0.258	Yaw Set Point:	0.060	X_WP:	0.100	Y_WP:	0.000	Y_WP:	0.500	X:	0.009	Y:	-0.126	Z:	0.057	yaw:	-3.445	yaw rate:	1.801	Roll:	-2.620	Pitch:	-3.890	Yaw:	-4.944	Thrust:	50.927
Time:	2.638	Roll Set Point:	0.074	Pitch Set Point:	0.257	Yaw Set Point:	0.059	X_WP:	0.100	Y_WP:	0.000	Y_WP:	0.500	X:	0.009	Y:	-0.126	Z:	0.057	yaw:	-3.397	yaw rate:	4.714	Roll:	-2.899	Pitch:	-3.700	Yaw:	-4.248	Thrust:	51.942
Time:	2.650	Roll Set Point:	0.073	Pitch Set Point:	0.257	Yaw Set Point:	0.062	X_WP:	0.100	Y_WP:	0.000	Y_WP:	0.500	X:	0.009	Y:	-0.126	Z:	0.057	yaw:	-3.560	yaw rate:	-16.307	Roll:	-1.808	Pitch:	-4.299	Yaw:	-9.337	Thrust:	53.346
Time:	2.660	Roll Set Point:	0.073	Pitch Set Point:	0.257	Yaw Set Point:	0.064	X_WP:	0.100	Y_WP:	0.000	Y_WP:	0.500	X:	0.009	Y:	-0.126	Z:	0.057	yaw:	-3.684	yaw rate:	-12.378	Roll:	-2.076	Pitch:	-4.222	Yaw:	-8.832	Thrust:	53.826
Time:	2.671	Roll Set Point:	0.073	Pitch Set Point:	0.257	Yaw Set Point:	0.066	X_WP:	0.100	Y_WP:	0.000	Y_WP:	0.500	X:	0.009	Y:	-0.126	Z:	0.057	yaw:	-3.791	yaw rate:	-10.638	Roll:	-2.169	Pitch:	-4.203	Yaw:	-8.482	Thrust:	54.072
Time:	2.683	Roll Set Point:	0.072	Pitch Set Point:	0.256	Yaw Set Point:	0.067	X_WP:	0.100	Y_WP:	0.000	Y_WP:	0.500	X:	0.010	Y:	-0.125	Z:	0.058	yaw:	-3.823	yaw rate:	-3.267	Roll:	-1.610	Pitch:	-2.998	Yaw:	-6.790	Thrust:	56.304
Time:	2.694	Roll Set Point:	0.072	Pitch Set Point:	0.256	Yaw Set Point:	0.073	X_WP:	0.100	Y_WP:	0.000	Y_WP:	0.500	X:	0.009	Y:	-0.125	Z:	0.058	yaw:	-4.205	yaw rate:	-38.206	Roll:	-1.233	Pitch:	-5.413	Yaw:	-15.586	Thrust:	56.084
Time:	2.707	Roll Set Point:	0.071	Pitch Set Point:	0.256	Yaw Set Point:	0.077	X_WP:	0.100	Y_WP:	0.000	Y_WP:	0.500	X:	0.010	Y:	-0.125	Z:	0.058	yaw:	-4.406	yaw rate:	-20.072	Roll:	-1.361	Pitch:	-4.111	Yaw:	-11.292	Thrust:	58.521
Time:	2.717	Roll Set Point:	0.070	Pitch Set Point:	0.255	Yaw Set Point:	0.081	X_WP:	0.100	Y_WP:	0.000	Y_WP:	0.500	X:	0.010	Y:	-0.124	Z:	0.058	yaw:	-4.651	yaw rate:	-24.531	Roll:	-1.134	Pitch:	-4.196	Yaw:	-13.045	Thrust:	56.214
Time:	2.728	Roll Set Point:	0.070	Pitch Set Point:	0.255	Yaw Set Point:	0.084	X_WP:	0.100	Y_WP:	0.000	Y_WP:	0.500	X:	0.010	Y:	-0.124	Z:	0.059	yaw:	-4.824	yaw rate:	-17.306	Roll:	-1.467	Pitch:	-3.847	Yaw:	-11.745	Thrust:	55.453
Time:	2.741	Roll Set Point:	0.069	Pitch Set Point:	0.254	Yaw Set Point:	0.087	X_WP:	0.100	Y_WP:	0.000	Y_WP:	0.500	X:	0.010	Y:	-0.124	Z:	0.059	yaw:	-5.006	yaw rate:	-18.133	Roll:	-1.602	Pitch:	-4.009	Yaw:	-11.562	Thrust:	63.152
Time:	2.752	Roll Set Point:	0.068	Pitch Set Point:	0.254	Yaw Set Point:	0.092	X_WP:	0.100	Y_WP:	0.000	Y_WP:	0.500	X:	0.010	Y:	-0.123	Z:	0.059	yaw:	-5.255	yaw rate:	-24.968	Roll:	-1.361	Pitch:	-4.124	Yaw:	-13.825	Thrust:	59.086
Time:	2.769	Roll Set Point:	0.068	Pitch Set Point:	0.252	Yaw Set Point:	0.094	X_WP:	0.100	Y_WP:	0.000	Y_WP:	0.500	X:	0.010	Y:	-0.122	Z:	0.060	yaw:	-5.373	yaw rate:	-11.769	Roll:	-1.605	Pitch:	-2.392	Yaw:	-11.009	Thrust:	59.344
Time:	2.782	Roll Set Point:	0.067	Pitch Set Point:	0.250	Yaw Set Point:	0.099	X_WP:	0.100	Y_WP:	0.000	Y_WP:	0.500	X:	0.010	Y:	-0.121	Z:	0.060	yaw:	-5.648	yaw rate:	7.904	Roll:	-2.001	Pitch:	-3.335	Yaw:	-13.222	Thrust:	79.315
Time:	2.794	Roll Set Point:	0.067	Pitch Set Point:	0.250	Yaw Set Point:	0.104	X_WP:	0.100	Y_WP:	0.000	Y_WP:	0.500	X:	0.010	Y:	-0.120	Z:	0.061	yaw:	-5.955	yaw rate:	-30.684	Roll:	-1.273	Pitch:	-4.083	Yaw:	-16.140	Thrust:	62.698
Time:	2.806	Roll Set Point:	0.067	Pitch Set Point:	0.248	Yaw Set Point:	0.103	X_WP:	0.100	Y_WP:	0.000	Y_WP:	0.500	X:	0.010	Y:	-0.120	Z:	0.061	yaw:	-5.880	yaw rate:	7.498	Roll:	-2.778	Pitch:	-2.044	Yaw:	-7.416	Thrust:	61.549
Time:	2.816	Roll Set Point:	0.066	Pitch Set Point:	0.246	Yaw Set Point:	0.106	X_WP:	0.100	Y_WP:	0.000	Y_WP:	0.500	X:	0.010	Y:	-0.119	Z:	0.061	yaw:	-6.058	yaw rate:	-17.788	Roll:	-1.510	Pitch:	-2.752	Yaw:	-13.572	Thrust:	60.292
Time:	2.828	Roll Set Point:	0.065	Pitch Set Point:	0.245	Yaw Set Point:	0.110	X_WP:	0.100	Y_WP:	0.000	Y_WP:	0.500	X:	0.011	Y:	-0.118	Z:	0.062	yaw:	-6.324	yaw rate:	-26.667	Roll:	-1.242	Pitch:	-2.960	Yaw:	-15.701	Thrust:	60.225
Time:	2.839	Roll Set Point:	0.064	Pitch Set Point:	0.240	Yaw Set Point:	0.113	X_WP:	0.100	Y_WP:	0.000	Y_WP:	0.500	X:	0.011	Y:	-0.116	Z:	0.063	yaw:	-6.471	yaw rate:	-14.656	Roll:	-1.054	Pitch:	0.816	Yaw:	-13.452	Thrust:	59.370
Time:	2.852	Roll Set Point:	0.064	Pitch Set Point:	0.237	Yaw Set Point:	0.109	X_WP:	0.100	Y_WP:	0.000	Y_WP:	0.500	X:	0.012	Y:	-0.114	Z:	0.063	yaw:	-6.232	yaw rate:	23.933	Roll:	-2.732	Pitch:	-0.781	Yaw:	-4.798	Thrust:	71.241
Time:	2.872	Roll Set Point:	0.063	Pitch Set Point:	0.234	Yaw Set Point:	0.109	X_WP:	0.100	Y_WP:	0.000	Y_WP:	0.500	X:	0.012	Y:	-0.113	Z:	0.063	yaw:	-6.257	yaw rate:	-2.569	Roll:	-1.882	Pitch:	-2.406	Yaw:	-10.841	Thrust:	93.858
Time:	2.886	Roll Set Point:	0.061	Pitch Set Point:	0.227	Yaw Set Point:	0.106	X_WP:	0.100	Y_WP:	0.000	Y_WP:	0.500	X:	0.014	Y:	-0.109	Z:	0.065	yaw:	-6.095	yaw rate:	2.236	Roll:	-1.897	Pitch:	2.559	Yaw:	-7.077	Thrust:	73.178
Time:	2.906	Roll Set Point:	0.060	Pitch Set Point:	0.222	Yaw Set Point:	0.104	X_WP:	0.100	Y_WP:	0.000	Y_WP:	0.500	X:	0.014	Y:	-0.107	Z:	0.066	yaw:	-5.974	yaw rate:	12.137	Roll:	-2.302	Pitch:	-1.453	Yaw:	-8.642	Thrust:	96.922
Time:	2.918	Roll Set Point:	0.055	Pitch Set Point:	0.208	Yaw Set Point:	0.102	X_WP:	0.100	Y_WP:	0.000	Y_WP:	0.500	X:	0.017	Y:	-0.100	Z:	0.068	yaw:	-5.869	yaw rate:	6.952	Roll:	1.835	Pitch:	11.385	Yaw:	-6.918	Thrust:	58.740
Time:	2.928	Roll Set Point:	0.052	Pitch Set Point:	0.203	Yaw Set Point:	0.102	X_WP:	0.100	Y_WP:	0.000	Y_WP:	0.500	X:	0.019	Y:	-0.098	Z:	0.069	yaw:	-5.820	yaw rate:	4.902	Roll:	-0.239	Pitch:	3.019	Yaw:	-7.942	Thrust:	59.362
Time:	2.941	Roll Set Point:	0.050	Pitch Set Point:	0.197	Yaw Set Point:	0.099	X_WP:	0.100	Y_WP:	0.000	Y_WP:	0.500	X:	0.020	Y:	-0.095	Z:	0.071	yaw:	-5.693	yaw rate:	12.676	Roll:	-0.723	Pitch:	2.785	Yaw:	-6.563	Thrust:	67.458
Time:	2.953	Roll Set Point:	0.048	Pitch Set Point:	0.191	Yaw Set Point:	0.096	X_WP:	0.100	Y_WP:	0.000	Y_WP:	0.500	X:	0.021	Y:	-0.092	Z:	0.072	yaw:	-5.503	yaw rate:	19.025	Roll:	-0.456	Pitch:	3.367	Yaw:	-4.540	Thrust:	63.325
Time:	2.968	Roll Set Point:	0.045	Pitch Set Point:	0.184	Yaw Set Point:	0.094	X_WP:	0.100	Y_WP:	0.000	Y_WP:	0.500	X:	0.023	Y:	-0.089	Z:	0.074	yaw:	-5.392	yaw rate:	11.095	Roll:	-0.149	Pitch:	4.292	Yaw:	-6.928	Thrust:	69.119
Time:	2.982	Roll Set Point:	0.043	Pitch Set Point:	0.178	Yaw Set Point:	0.091	X_WP:	0.100	Y_WP:	0.000	Y_WP:	0.500	X:	0.025	Y:	-0.086	Z:	0.076	yaw:	-5.235	yaw rate:	15.691	Roll:	-1.049	Pitch:	1.394	Yaw:	-6.220	Thrust:	81.192
Time:	2.993	Roll Set Point:	0.037	Pitch Set Point:	0.163	Yaw Set Point:	0.082	X_WP:	0.100	Y_WP:	0.000	Y_WP:	0.500	X:	0.028	Y:	-0.079	Z:	0.080	yaw:	-4.708	yaw rate:	32.149	Roll:	2.433	Pitch:	13.950	Yaw:	4.743	Thrust:	53.541
Time:	3.004	Roll Set Point:	0.034	Pitch Set Point:	0.156	Yaw Set Point:	0.082	X_WP:	0.100	Y_WP:	0.000	Y_WP:	0.500	X:	0.030	Y:	-0.075	Z:	0.083	yaw:	-4.701	yaw rate:	0.786	Roll:	1.200	Pitch:	4.786	Yaw:	-7.645	Thrust:	61.154
Time:	3.015	Roll Set Point:	0.026	Pitch Set Point:	0.141	Yaw Set Point:	0.075	X_WP:	0.100	Y_WP:	0.000	Y_WP:	0.500	X:	0.034	Y:	-0.068	Z:	0.088	yaw:	-4.274	yaw rate:	42.675	Roll:	4.604	Pitch:	15.517	Yaw:	2.939	Thrust:	48.335
Time:	3.027	Roll Set Point:	0.023	Pitch Set Point:	0.133	Yaw Set Point:	0.071	X_WP:	0.100	Y_WP:	0.000	Y_WP:	0.500	X:	0.036	Y:	-0.064	Z:	0.090	yaw:	-4.089	yaw rate:	18.527	Roll:	1.073	Pitch:	6.802	Yaw:	-2.552	Thrust:	57.671
Time:	3.038	Roll Set Point:	0.019	Pitch Set Point:	0.124	Yaw Set Point:	0.064	X_WP:	0.100	Y_WP:	0.000	Y_WP:	0.500	X:	0.038	Y:	-0.060	Z:	0.093	yaw:	-3.668	yaw rate:	42.069	Roll:	1.343	Pitch:	7.910	Yaw:	3.606	Thrust:	57.935
Time:	3.049	Roll Set Point:	0.015	Pitch Set Point:	0.116	Yaw Set Point:	0.060	X_WP:	0.100	Y_WP:	0.000	Y_WP:	0.500	X:	0.041	Y:	-0.056	Z:	0.096	yaw:	-3.464	yaw rate:	20.425	Roll:	2.011	Pitch:	6.753	Yaw:	-1.527	Thrust:	60.600
Time:	3.060	Roll Set Point:	0.011	Pitch Set Point:	0.108	Yaw Set Point:	0.060	X_WP:	0.100	Y_WP:	0.000	Y_WP:	0.500	X:	0.043	Y:	-0.052	Z:	0.099	yaw:	-3.461	yaw rate:	0.286	Roll:	2.532	Pitch:	7.313	Yaw:	-5.986	Thrust:	55.226
Time:	3.071	Roll Set Point:	0.007	Pitch Set Point:	0.100	Yaw Set Point:	0.057	X_WP:	0.100	Y_WP:	0.000	Y_WP:	0.500	X:	0.045	Y:	-0.048	Z:	0.102	yaw:	-3.283	yaw rate:	17.817	Roll:	2.447	Pitch:	7.852	Yaw:	-1.651	Thrust:	58.493
Time:	3.082	Roll Set Point:	0.002	Pitch Set Point:	0.091	Yaw Set Point:	0.054	X_WP:	0.100	Y_WP:	0.000	Y_WP:	0.500	X:	0.048	Y:	-0.044	Z:	0.105	yaw:	-3.066	yaw rate:	21.629	Roll:	2.764	Pitch:	7.948	Yaw:	-0.741	Thrust:	61.053
Time:	3.092	Roll Set Point:	-0.002	Pitch Set Point:	0.082	Yaw Set Point:	0.045	X_WP:	0.100	Y_WP:	0.000	Y_WP:	0.500	X:	0.050	Y:	-0.040	Z:	0.108	yaw:	-2.572	yaw rate:	49.447	Roll:	2.679	Pitch:	9.501	Yaw:	8.027	Thrust:	54.337
Time:	3.105	Roll Set Point:	-0.007	Pitch Set Point:	0.075	Yaw Set Point:	0.048	X_WP:	0.100	Y_WP:	0.000	Y_WP:	0.500	X:	0.052	Y:	-0.036	Z:	0.111	yaw:	-2.727	yaw rate:	-15.524	Roll:	3.266	Pitch:	6.110	Yaw:	-8.498	Thrust:	67.776
Time:	3.116	Roll Set Point:	-0.016	Pitch Set Point:	0.057	Yaw Set Point:	0.041	X_WP:	0.100	Y_WP:	0.000	Y_WP:	0.500	X:	0.057	Y:	-0.028	Z:	0.117	yaw:	-2.364	yaw rate:	36.309	Roll:	7.795	Pitch:	17.579	Yaw:	3.978	Thrust:	50.834
Time:	3.127	Roll Set Point:	-0.021	Pitch Set Point:	0.049	Yaw Set Point:	0.033	X_WP:	0.100	Y_WP:	0.000	Y_WP:	0.500	X:	0.060	Y:	-0.024	Z:	0.120	yaw:	-1.889	yaw rate:	47.461	Roll:	3.324	Pitch:	9.721	Yaw:	7.843	Thrust:	57.144
Time:	3.137	Roll Set Point:	-0.026	Pitch Set Point:	0.040	Yaw Set Point:	0.030	X_WP:	0.100	Y_WP:	0.000	Y_WP:	0.500	X:	0.063	Y:	-0.019	Z:	0.123	yaw:	-1.700	yaw rate:	18.950	Roll:	4.975	Pitch:	9.735	Yaw:	1.339	Thrust:	55.409
Time:	3.148	Roll Set Point:	-0.031	Pitch Set Point:	0.032	Yaw Set Point:	0.027	X_WP:	0.100	Y_WP:	0.000	Y_WP:	0.500	X:	0.065	Y:	-0.015	Z:	0.126	yaw:	-1.555	yaw rate:	14.503	Roll:	4.316	Pitch:	7.982	Yaw:	-0.305	Thrust:	64.159
Time:	3.159	Roll Set Point:	-0.036	Pitch Set Point:	0.024	Yaw Set Point:	0.028	X_WP:	0.100	Y_WP:	0.000	Y_WP:	0.500	X:	0.068	Y:	-0.012	Z:	0.129	yaw:	-1.586	yaw rate:	-3.087	Roll:	4.019	Pitch:	7.846	Yaw:	-4.317	Thrust:	61.884
Time:	3.170	Roll Set Point:	-0.041	Pitch Set Point:	0.016	Yaw Set Point:	0.024	X_WP:	0.100	Y_WP:	0.000	Y_WP:	0.500	X:	0.071	Y:	-0.008	Z:	0.132	yaw:	-1.390	yaw rate:	19.545	Roll:	4.534	Pitch:	8.500	Yaw:	1.321	Thrust:	62.135
Time:	3.182	Roll Set Point:	-0.047	Pitch Set Point:	0.008	Yaw Set Point:	0.020	X_WP:	0.100	Y_WP:	0.000	Y_WP:	0.500	X:	0.073	Y:	-0.004	Z:	0.134	yaw:	-1.152	yaw rate:	23.874	Roll:	4.606	Pitch:	8.168	Yaw:	2.367	Thrust:	65.575
Time:	3.193	Roll Set Point:	-0.052	Pitch Set Point:	0.000	Yaw Set Point:	0.017	X_WP:	0.100	Y_WP:	0.000	Y_WP:	0.500	X:	0.076	Y:	0.000	Z:	0.137	yaw:	-0.966	yaw rate:	18.534	Roll:	4.595	Pitch:	8.344	Yaw:	1.663	Thrust:	63.372
Time:	3.205	Roll Set Point:	-0.058	Pitch Set Point:	-0.008	Yaw Set Point:	0.010	X_WP:	0.100	Y_WP:	0.000	Y_WP:	0.500	X:	0.079	Y:	0.004	Z:	0.140	yaw:	-0.600	yaw rate:	36.657	Roll:	4.918	Pitch:	8.000	Yaw:	5.620	Thrust:	69.396
Time:	3.216	Roll Set Point:	-0.063	Pitch Set Point:	-0.015	Yaw Set Point:	0.008	X_WP:	0.100	Y_WP:	0.000	Y_WP:	0.500	X:	0.081	Y:	0.008	Z:	0.142	yaw:	-0.450	yaw rate:	14.920	Roll:	5.190	Pitch:	8.630	Yaw:	1.521	Thrust:	61.404
Time:	3.227	Roll Set Point:	-0.068	Pitch Set Point:	-0.023	Yaw Set Point:	0.005	X_WP:	0.100	Y_WP:	0.000	Y_WP:	0.500	X:	0.084	Y:	0.011	Z:	0.145	yaw:	-0.269	yaw rate:	18.102	Roll:	5.091	Pitch:	8.198	Yaw:	2.783	Thrust:	65.090
Time:	3.238	Roll Set Point:	-0.079	Pitch Set Point:	-0.036	Yaw Set Point:	0.001	X_WP:	0.100	Y_WP:	0.000	Y_WP:	0.500	X:	0.089	Y:	0.018	Z:	0.150	yaw:	-0.076	yaw rate:	19.340	Roll:	11.089	Pitch:	15.701	Yaw:	3.090	Thrust:	54.842
Time:	3.249	Roll Set Point:	-0.084	Pitch Set Point:	-0.044	Yaw Set Point:	-0.005	X_WP:	0.100	Y_WP:	0.000	Y_WP:	0.500	X:	0.092	Y:	0.022	Z:	0.152	yaw:	0.285	yaw rate:	36.123	Roll:	5.735	Pitch:	8.184	Yaw:	7.137	Thrust:	69.077
Time:	3.260	Roll Set Point:	-0.089	Pitch Set Point:	-0.050	Yaw Set Point:	-0.003	X_WP:	0.100	Y_WP:	0.000	Y_WP:	0.500	X:	0.095	Y:	0.025	Z:	0.155	yaw:	0.179	yaw rate:	-10.667	Roll:	5.130	Pitch:	7.331	Yaw:	-3.674	Thrust:	66.573
Time:	3.271	Roll Set Point:	-0.095	Pitch Set Point:	-0.057	Yaw Set Point:	-0.008	X_WP:	0.100	Y_WP:	0.000	Y_WP:	0.500	X:	0.097	Y:	0.028	Z:	0.157	yaw:	0.465	yaw rate:	28.666	Roll:	5.573	Pitch:	7.397	Yaw:	6.061	Thrust:	66.088
Time:	3.283	Roll Set Point:	-0.100	Pitch Set Point:	-0.063	Yaw Set Point:	-0.012	X_WP:	0.100	Y_WP:	0.000	Y_WP:	0.500	X:	0.100	Y:	0.032	Z:	0.160	yaw:	0.705	yaw rate:	23.977	Roll:	6.014	Pitch:	7.409	Yaw:	4.952	Thrust:	69.837
Time:	3.293	Roll Set Point:	-0.105	Pitch Set Point:	-0.069	Yaw Set Point:	-0.013	X_WP:	0.100	Y_WP:	0.000	Y_WP:	0.500	X:	0.102	Y:	0.035	Z:	0.162	yaw:	0.737	yaw rate:	3.211	Roll:	5.622	Pitch:	7.686	Yaw:	0.492	Thrust:	64.104
Time:	3.305	Roll Set Point:	-0.111	Pitch Set Point:	-0.076	Yaw Set Point:	-0.018	X_WP:	0.100	Y_WP:	0.000	Y_WP:	0.500	X:	0.105	Y:	0.038	Z:	0.165	yaw:	1.055	yaw rate:	31.740	Roll:	6.289	Pitch:	7.497	Yaw:	7.228	Thrust:	69.980
Time:	3.316	Roll Set Point:	-0.116	Pitch Set Point:	-0.081	Yaw Set Point:	-0.017	X_WP:	0.100	Y_WP:	0.000	Y_WP:	0.500	X:	0.107	Y:	0.041	Z:	0.168	yaw:	0.994	yaw rate:	-6.046	Roll:	5.240	Pitch:	6.309	Yaw:	-1.429	Thrust:	66.824
Time:	3.327	Roll Set Point:	-0.121	Pitch Set Point:	-0.087	Yaw Set Point:	-0.020	X_WP:	0.100	Y_WP:	0.000	Y_WP:	0.500	X:	0.110	Y:	0.043	Z:	0.170	yaw:	1.156	yaw rate:	16.197	Roll:	5.743	Pitch:	6.942	Yaw:	4.080	Thrust:	66.906
Time:	3.338	Roll Set Point:	-0.126	Pitch Set Point:	-0.092	Yaw Set Point:	-0.022	X_WP:	0.100	Y_WP:	0.000	Y_WP:	0.500	X:	0.112	Y:	0.046	Z:	0.173	yaw:	1.260	yaw rate:	10.412	Roll:	6.662	Pitch:	7.364	Yaw:	2.857	Thrust:	67.095
Time:	3.349	Roll Set Point:	-0.136	Pitch Set Point:	-0.102	Yaw Set Point:	-0.025	X_WP:	0.100	Y_WP:	0.000	Y_WP:	0.500	X:	0.117	Y:	0.051	Z:	0.179	yaw:	1.421	yaw rate:	16.129	Roll:	11.712	Pitch:	12.117	Yaw:	4.687	Thrust:	51.520
Time:	3.360	Roll Set Point:	-0.141	Pitch Set Point:	-0.107	Yaw Set Point:	-0.028	X_WP:	0.100	Y_WP:	0.000	Y_WP:	0.500	X:	0.120	Y:	0.054	Z:	0.182	yaw:	1.577	yaw rate:	15.537	Roll:	5.673	Pitch:	5.944	Yaw:	4.526	Thrust:	66.957
Time:	3.371	Roll Set Point:	-0.146	Pitch Set Point:	-0.111	Yaw Set Point:	-0.032	X_WP:	0.100	Y_WP:	0.000	Y_WP:	0.500	X:	0.122	Y:	0.056	Z:	0.185	yaw:	1.857	yaw rate:	28.063	Roll:	6.437	Pitch:	5.983	Yaw:	7.897	Thrust:	66.794
Time:	3.382	Roll Set Point:	-0.150	Pitch Set Point:	-0.115	Yaw Set Point:	-0.031	X_WP:	0.100	Y_WP:	0.000	Y_WP:	0.500	X:	0.124	Y:	0.058	Z:	0.187	yaw:	1.758	yaw rate:	-9.976	Roll:	5.269	Pitch:	5.540	Yaw:	-1.222	Thrust:	70.545
Time:	3.393	Roll Set Point:	-0.155	Pitch Set Point:	-0.119	Yaw Set Point:	-0.031	X_WP:	0.100	Y_WP:	0.000	Y_WP:	0.500	X:	0.126	Y:	0.060	Z:	0.191	yaw:	1.801	yaw rate:	4.308	Roll:	5.389	Pitch:	5.730	Yaw:	2.190	Thrust:	66.849
Time:	3.405	Roll Set Point:	-0.159	Pitch Set Point:	-0.123	Yaw Set Point:	-0.034	X_WP:	0.100	Y_WP:	0.000	Y_WP:	0.500	X:	0.129	Y:	0.062	Z:	0.194	yaw:	1.939	yaw rate:	13.843	Roll:	5.814	Pitch:	5.203	Yaw:	4.452	Thrust:	70.146
Time:	3.417	Roll Set Point:	-0.164	Pitch Set Point:	-0.127	Yaw Set Point:	-0.038	X_WP:	0.100	Y_WP:	0.000	Y_WP:	0.500	X:	0.131	Y:	0.064	Z:	0.197	yaw:	2.173	yaw rate:	23.422	Roll:	5.958	Pitch:	5.081	Yaw:	6.963	Thrust:	70.413
Time:	3.427	Roll Set Point:	-0.168	Pitch Set Point:	-0.130	Yaw Set Point:	-0.038	X_WP:	0.100	Y_WP:	0.000	Y_WP:	0.500	X:	0.133	Y:	0.066	Z:	0.200	yaw:	2.187	yaw rate:	1.328	Roll:	5.441	Pitch:	5.284	Yaw:	2.119	Thrust:	63.571
Time:	3.438	Roll Set Point:	-0.172	Pitch Set Point:	-0.133	Yaw Set Point:	-0.037	X_WP:	0.100	Y_WP:	0.000	Y_WP:	0.500	X:	0.135	Y:	0.067	Z:	0.204	yaw:	2.102	yaw rate:	-8.433	Roll:	4.931	Pitch:	4.781	Yaw:	-0.378	Thrust:	66.662
Time:	3.449	Roll Set Point:	-0.176	Pitch Set Point:	-0.136	Yaw Set Point:	-0.038	X_WP:	0.100	Y_WP:	0.000	Y_WP:	0.500	X:	0.137	Y:	0.069	Z:	0.207	yaw:	2.168	yaw rate:	6.525	Roll:	5.109	Pitch:	4.496	Yaw:	3.142	Thrust:	70.171
Time:	3.460	Roll Set Point:	-0.179	Pitch Set Point:	-0.139	Yaw Set Point:	-0.038	X_WP:	0.100	Y_WP:	0.000	Y_WP:	0.500	X:	0.138	Y:	0.070	Z:	0.210	yaw:	2.180	yaw rate:	1.226	Roll:	5.238	Pitch:	4.588	Yaw:	2.039	Thrust:	66.485
Time:	3.472	Roll Set Point:	-0.187	Pitch Set Point:	-0.144	Yaw Set Point:	-0.039	X_WP:	0.100	Y_WP:	0.000	Y_WP:	0.500	X:	0.142	Y:	0.073	Z:	0.218	yaw:	2.226	yaw rate:	4.625	Roll:	9.207	Pitch:	6.967	Yaw:	2.918	Thrust:	50.808
Time:	3.483	Roll Set Point:	-0.190	Pitch Set Point:	-0.146	Yaw Set Point:	-0.044	X_WP:	0.100	Y_WP:	0.000	Y_WP:	0.500	X:	0.144	Y:	0.074	Z:	0.222	yaw:	2.543	yaw rate:	31.665	Roll:	5.786	Pitch:	3.736	Yaw:	9.382	Thrust:	65.685
Time:	3.493	Roll Set Point:	-0.193	Pitch Set Point:	-0.148	Yaw Set Point:	-0.040	X_WP:	0.100	Y_WP:	0.000	Y_WP:	0.500	X:	0.145	Y:	0.075	Z:	0.225	yaw:	2.278	yaw rate:	-26.443	Roll:	3.931	Pitch:	4.120	Yaw:	-4.874	Thrust:	61.859
Time:	3.505	Roll Set Point:	-0.197	Pitch Set Point:	-0.150	Yaw Set Point:	-0.043	X_WP:	0.100	Y_WP:	0.000	Y_WP:	0.500	X:	0.147	Y:	0.076	Z:	0.229	yaw:	2.481	yaw rate:	20.261	Roll:	5.025	Pitch:	3.109	Yaw:	6.495	Thrust:	72.279
Time:	3.517	Roll Set Point:	-0.202	Pitch Set Point:	-0.153	Yaw Set Point:	-0.044	X_WP:	0.100	Y_WP:	0.000	Y_WP:	0.500	X:	0.149	Y:	0.078	Z:	0.237	yaw:	2.495	yaw rate:	8.027	Roll:	7.156	Pitch:	4.807	Yaw:	2.495	Thrust:	52.645
Time:	3.528	Roll Set Point:	-0.205	Pitch Set Point:	-0.155	Yaw Set Point:	-0.047	X_WP:	0.100	Y_WP:	0.000	Y_WP:	0.500	X:	0.151	Y:	0.079	Z:	0.241	yaw:	2.678	yaw rate:	18.270	Roll:	4.958	Pitch:	2.920	Yaw:	6.821	Thrust:	64.875
Time:	3.540	Roll Set Point:	-0.208	Pitch Set Point:	-0.156	Yaw Set Point:	-0.047	X_WP:	0.100	Y_WP:	0.000	Y_WP:	0.500	X:	0.152	Y:	0.079	Z:	0.246	yaw:	2.711	yaw rate:	3.318	Roll:	4.292	Pitch:	2.901	Yaw:	3.164	Thrust:	64.503
Time:	3.551	Roll Set Point:	-0.210	Pitch Set Point:	-0.157	Yaw Set Point:	-0.044	X_WP:	0.100	Y_WP:	0.000	Y_WP:	0.500	X:	0.153	Y:	0.080	Z:	0.250	yaw:	2.505	yaw rate:	-20.617	Roll:	2.978	Pitch:	2.924	Yaw:	-2.458	Thrust:	72.628
Time:	3.562	Roll Set Point:	-0.212	Pitch Set Point:	-0.158	Yaw Set Point:	-0.046	X_WP:	0.100	Y_WP:	0.000	Y_WP:	0.500	X:	0.154	Y:	0.080	Z:	0.254	yaw:	2.647	yaw rate:	14.234	Roll:	4.360	Pitch:	2.449	Yaw:	5.853	Thrust:	68.953
Time:	3.575	Roll Set Point:	-0.214	Pitch Set Point:	-0.158	Yaw Set Point:	-0.044	X_WP:	0.100	Y_WP:	0.000	Y_WP:	0.500	X:	0.155	Y:	0.080	Z:	0.258	yaw:	2.541	yaw rate:	-10.625	Roll:	3.012	Pitch:	2.228	Yaw:	-0.036	Thrust:	76.299
Time:	3.586	Roll Set Point:	-0.216	Pitch Set Point:	-0.159	Yaw Set Point:	-0.042	X_WP:	0.100	Y_WP:	0.000	Y_WP:	0.500	X:	0.156	Y:	0.081	Z:	0.262	yaw:	2.428	yaw rate:	-11.240	Roll:	3.091	Pitch:	2.636	Yaw:	-0.468	Thrust:	65.421
Time:	3.598	Roll Set Point:	-0.218	Pitch Set Point:	-0.159	Yaw Set Point:	-0.044	X_WP:	0.100	Y_WP:	0.000	Y_WP:	0.500	X:	0.157	Y:	0.081	Z:	0.266	yaw:	2.494	yaw rate:	6.602	Roll:	3.681	Pitch:	2.059	Yaw:	3.745	Thrust:	69.198
Time:	3.611	Roll Set Point:	-0.220	Pitch Set Point:	-0.159	Yaw Set Point:	-0.044	X_WP:	0.100	Y_WP:	0.000	Y_WP:	0.500	X:	0.158	Y:	0.081	Z:	0.270	yaw:	2.542	yaw rate:	4.763	Roll:	3.073	Pitch:	1.758	Yaw:	2.947	Thrust:	88.113
Time:	3.623	Roll Set Point:	-0.223	Pitch Set Point:	-0.160	Yaw Set Point:	-0.046	X_WP:	0.100	Y_WP:	0.000	Y_WP:	0.500	X:	0.160	Y:	0.081	Z:	0.278	yaw:	2.657	yaw rate:	11.514	Roll:	5.413	Pitch:	1.779	Yaw:	5.253	Thrust:	48.746
Time:	3.636	Roll Set Point:	-0.224	Pitch Set Point:	-0.159	Yaw Set Point:	-0.043	X_WP:	0.100	Y_WP:	0.000	Y_WP:	0.500	X:	0.160	Y:	0.081	Z:	0.282	yaw:	2.451	yaw rate:	-20.647	Roll:	2.151	Pitch:	1.846	Yaw:	-2.084	Thrust:	72.555
Time:	3.647	Roll Set Point:	-0.225	Pitch Set Point:	-0.159	Yaw Set Point:	-0.043	X_WP:	0.100	Y_WP:	0.000	Y_WP:	0.500	X:	0.161	Y:	0.081	Z:	0.287	yaw:	2.478	yaw rate:	2.708	Roll:	2.678	Pitch:	1.366	Yaw:	2.961	Thrust:	72.301
Time:	3.659	Roll Set Point:	-0.226	Pitch Set Point:	-0.159	Yaw Set Point:	-0.043	X_WP:	0.100	Y_WP:	0.000	Y_WP:	0.500	X:	0.161	Y:	0.081	Z:	0.291	yaw:	2.447	yaw rate:	-3.033	Roll:	2.565	Pitch:	1.466	Yaw:	1.565	Thrust:	64.463
Time:	3.671	Roll Set Point:	-0.227	Pitch Set Point:	-0.158	Yaw Set Point:	-0.043	X_WP:	0.100	Y_WP:	0.000	Y_WP:	0.500	X:	0.162	Y:	0.081	Z:	0.295	yaw:	2.487	yaw rate:	4.000	Roll:	2.419	Pitch:	1.248	Yaw:	2.949	Thrust:	79.574
Time:	3.681	Roll Set Point:	-0.228	Pitch Set Point:	-0.157	Yaw Set Point:	-0.043	X_WP:	0.100	Y_WP:	0.000	Y_WP:	0.500	X:	0.162	Y:	0.080	Z:	0.305	yaw:	2.480	yaw rate:	-13.712	Roll:	3.141	Pitch:	0.111	Yaw:	2.224	Thrust:	39.002
Time:	3.692	Roll Set Point:	-0.228	Pitch Set Point:	-0.157	Yaw Set Point:	-0.043	X_WP:	0.100	Y_WP:	0.000	Y_WP:	0.500	X:	0.162	Y:	0.080	Z:	0.305	yaw:	2.480	yaw rate:	-13.712	Roll:	1.594	Pitch:	1.785	Yaw:	2.409	Thrust:	78.787
Time:	3.704	Roll Set Point:	-0.229	Pitch Set Point:	-0.156	Yaw Set Point:	-0.043	X_WP:	0.100	Y_WP:	0.000	Y_WP:	0.500	X:	0.163	Y:	0.079	Z:	0.314	yaw:	2.476	yaw rate:	4.051	Roll:	2.548	Pitch:	0.202	Yaw:	2.123	Thrust:	57.826
Time:	3.715	Roll Set Point:	-0.230	Pitch Set Point:	-0.154	Yaw Set Point:	-0.043	X_WP:	0.100	Y_WP:	0.000	Y_WP:	0.500	X:	0.163	Y:	0.078	Z:	0.324	yaw:	2.464	yaw rate:	-1.174	Roll:	2.219	Pitch:	-0.240	Yaw:	2.077	Thrust:	41.899
Time:	3.726	Roll Set Point:	-0.230	Pitch Set Point:	-0.153	Yaw Set Point:	-0.043	X_WP:	0.100	Y_WP:	0.000	Y_WP:	0.500	X:	0.163	Y:	0.078	Z:	0.328	yaw:	2.470	yaw rate:	0.607	Roll:	1.795	Pitch:	0.581	Yaw:	2.571	Thrust:	57.598
Time:	3.738	Roll Set Point:	-0.230	Pitch Set Point:	-0.152	Yaw Set Point:	-0.044	X_WP:	0.100	Y_WP:	0.000	Y_WP:	0.500	X:	0.163	Y:	0.077	Z:	0.333	yaw:	2.502	yaw rate:	3.122	Roll:	1.675	Pitch:	0.500	Yaw:	3.009	Thrust:	69.224
Time:	3.750	Roll Set Point:	-0.230	Pitch Set Point:	-0.151	Yaw Set Point:	-0.042	X_WP:	0.100	Y_WP:	0.000	Y_WP:	0.500	X:	0.163	Y:	0.077	Z:	0.338	yaw:	2.432	yaw rate:	-6.983	Roll:	1.386	Pitch:	0.570	Yaw:	0.724	Thrust:	69.320
Time:	3.761	Roll Set Point:	-0.230	Pitch Set Point:	-0.149	Yaw Set Point:	-0.044	X_WP:	0.100	Y_WP:	0.000	Y_WP:	0.500	X:	0.163	Y:	0.076	Z:	0.343	yaw:	2.501	yaw rate:	6.920	Roll:	1.559	Pitch:	0.290	Yaw:	4.069	Thrust:	61.673
Time:	3.772	Roll Set Point:	-0.230	Pitch Set Point:	-0.148	Yaw Set Point:	-0.043	X_WP:	0.100	Y_WP:	0.000	Y_WP:	0.500	X:	0.163	Y:	0.075	Z:	0.348	yaw:	2.489	yaw rate:	-1.232	Roll:	1.382	Pitch:	0.355	Yaw:	2.145	Thrust:	60.933
Time:	3.785	Roll Set Point:	-0.229	Pitch Set Point:	-0.147	Yaw Set Point:	-0.043	X_WP:	0.100	Y_WP:	0.000	Y_WP:	0.500	X:	0.163	Y:	0.075	Z:	0.353	yaw:	2.452	yaw rate:	-3.672	Roll:	1.362	Pitch:	0.544	Yaw:	1.488	Thrust:	73.949
Time:	3.796	Roll Set Point:	-0.229	Pitch Set Point:	-0.146	Yaw Set Point:	-0.042	X_WP:	0.100	Y_WP:	0.000	Y_WP:	0.500	X:	0.163	Y:	0.074	Z:	0.358	yaw:	2.422	yaw rate:	-2.980	Roll:	0.966	Pitch:	-0.058	Yaw:	1.640	Thrust:	65.164
Time:	3.807	Roll Set Point:	-0.229	Pitch Set Point:	-0.144	Yaw Set Point:	-0.042	X_WP:	0.100	Y_WP:	0.000	Y_WP:	0.500	X:	0.163	Y:	0.073	Z:	0.363	yaw:	2.412	yaw rate:	-0.999	Roll:	1.113	Pitch:	0.202	Yaw:	2.156	Thrust:	56.883
Time:	3.818	Roll Set Point:	-0.228	Pitch Set Point:	-0.143	Yaw Set Point:	-0.041	X_WP:	0.100	Y_WP:	0.000	Y_WP:	0.500	X:	0.163	Y:	0.073	Z:	0.368	yaw:	2.370	yaw rate:	-4.215	Roll:	1.113	Pitch:	0.112	Yaw:	1.309	Thrust:	61.262
Time:	3.830	Roll Set Point:	-0.227	Pitch Set Point:	-0.140	Yaw Set Point:	-0.040	X_WP:	0.100	Y_WP:	0.000	Y_WP:	0.500	X:	0.162	Y:	0.071	Z:	0.377	yaw:	2.285	yaw rate:	-8.473	Roll:	0.200	Pitch:	-1.311	Yaw:	0.191	Thrust:	41.840
Time:	3.842	Roll Set Point:	-0.226	Pitch Set Point:	-0.139	Yaw Set Point:	-0.040	X_WP:	0.100	Y_WP:	0.000	Y_WP:	0.500	X:	0.162	Y:	0.071	Z:	0.382	yaw:	2.307	yaw rate:	2.133	Roll:	0.908	Pitch:	0.078	Yaw:	2.505	Thrust:	72.233
Time:	3.853	Roll Set Point:	-0.226	Pitch Set Point:	-0.137	Yaw Set Point:	-0.039	X_WP:	0.100	Y_WP:	0.000	Y_WP:	0.500	X:	0.162	Y:	0.070	Z:	0.387	yaw:	2.220	yaw rate:	-8.674	Roll:	0.702	Pitch:	0.007	Yaw:	0.068	Thrust:	65.089
Time:	3.866	Roll Set Point:	-0.225	Pitch Set Point:	-0.136	Yaw Set Point:	-0.038	X_WP:	0.100	Y_WP:	0.000	Y_WP:	0.500	X:	0.161	Y:	0.069	Z:	0.392	yaw:	2.205	yaw rate:	-1.514	Roll:	0.768	Pitch:	0.062	Yaw:	1.600	Thrust:	73.468
Time:	3.879	Roll Set Point:	-0.224	Pitch Set Point:	-0.134	Yaw Set Point:	-0.038	X_WP:	0.100	Y_WP:	0.000	Y_WP:	0.500	X:	0.161	Y:	0.068	Z:	0.396	yaw:	2.202	yaw rate:	-0.257	Roll:	0.876	Pitch:	0.080	Yaw:	1.935	Thrust:	81.253
Time:	3.890	Roll Set Point:	-0.224	Pitch Set Point:	-0.133	Yaw Set Point:	-0.038	X_WP:	0.100	Y_WP:	0.000	Y_WP:	0.500	X:	0.161	Y:	0.068	Z:	0.401	yaw:	2.161	yaw rate:	-4.139	Roll:	0.794	Pitch:	0.163	Yaw:	1.084	Thrust:	57.217
Time:	3.903	Roll Set Point:	-0.223	Pitch Set Point:	-0.132	Yaw Set Point:	-0.035	X_WP:	0.100	Y_WP:	0.000	Y_WP:	0.500	X:	0.160	Y:	0.067	Z:	0.406	yaw:	2.033	yaw rate:	-12.751	Roll:	0.436	Pitch:	0.209	Yaw:	-0.779	Thrust:	77.748
Time:	3.915	Roll Set Point:	-0.221	Pitch Set Point:	-0.129	Yaw Set Point:	-0.035	X_WP:	0.100	Y_WP:	0.000	Y_WP:	0.500	X:	0.159	Y:	0.065	Z:	0.415	yaw:	1.997	yaw rate:	-3.673	Roll:	-0.189	Pitch:	-1.438	Yaw:	0.973	Thrust:	56.014
Time:	3.941	Roll Set Point:	-0.220	Pitch Set Point:	-0.127	Yaw Set Point:	-0.036	X_WP:	0.100	Y_WP:	0.000	Y_WP:	0.500	X:	0.159	Y:	0.065	Z:	0.420	yaw:	2.062	yaw rate:	6.545	Roll:	0.865	Pitch:	0.160	Yaw:	1.456	Thrust:	100.000
Time:	3.956	Roll Set Point:	-0.218	Pitch Set Point:	-0.123	Yaw Set Point:	-0.037	X_WP:	0.100	Y_WP:	0.000	Y_WP:	0.500	X:	0.158	Y:	0.063	Z:	0.433	yaw:	2.145	yaw rate:	25.331	Roll:	-0.563	Pitch:	-2.201	Yaw:	3.106	Thrust:	69.251
Time:	3.978	Roll Set Point:	-0.217	Pitch Set Point:	-0.121	Yaw Set Point:	-0.032	X_WP:	0.100	Y_WP:	0.000	Y_WP:	0.500	X:	0.157	Y:	0.062	Z:	0.438	yaw:	1.840	yaw rate:	-30.519	Roll:	0.233	Pitch:	0.432	Yaw:	-2.909	Thrust:	100.000
Time:	3.990	Roll Set Point:	-0.215	Pitch Set Point:	-0.119	Yaw Set Point:	-0.032	X_WP:	0.100	Y_WP:	0.000	Y_WP:	0.500	X:	0.156	Y:	0.060	Z:	0.447	yaw:	1.835	yaw rate:	-2.868	Roll:	-0.653	Pitch:	-1.580	Yaw:	1.522	Thrust:	46.725
Time:	4.006	Roll Set Point:	-0.213	Pitch Set Point:	-0.116	Yaw Set Point:	-0.031	X_WP:	0.100	Y_WP:	0.000	Y_WP:	0.500	X:	0.155	Y:	0.059	Z:	0.456	yaw:	1.778	yaw rate:	-5.702	Roll:	-0.311	Pitch:	-0.831	Yaw:	0.241	Thrust:	91.527
Time:	4.017	Roll Set Point:	-0.211	Pitch Set Point:	-0.114	Yaw Set Point:	-0.033	X_WP:	0.100	Y_WP:	0.000	Y_WP:	0.500	X:	0.155	Y:	0.058	Z:	0.465	yaw:	1.916	yaw rate:	18.067	Roll:	-0.227	Pitch:	-1.521	Yaw:	4.695	Thrust:	45.666
Time:	4.028	Roll Set Point:	-0.210	Pitch Set Point:	-0.112	Yaw Set Point:	-0.029	X_WP:	0.100	Y_WP:	0.000	Y_WP:	0.500	X:	0.154	Y:	0.057	Z:	0.469	yaw:	1.639	yaw rate:	-27.644	Roll:	-0.533	Pitch:	0.186	Yaw:	-5.408	Thrust:	58.138
Time:	4.039	Roll Set Point:	-0.208	Pitch Set Point:	-0.111	Yaw Set Point:	-0.028	X_WP:	0.100	Y_WP:	0.000	Y_WP:	0.500	X:	0.153	Y:	0.056	Z:	0.474	yaw:	1.615	yaw rate:	-2.416	Roll:	0.153	Pitch:	0.009	Yaw:	0.811	Thrust:	56.908
Time:	4.050	Roll Set Point:	-0.208	Pitch Set Point:	-0.110	Yaw Set Point:	-0.029	X_WP:	0.100	Y_WP:	0.000	Y_WP:	0.500	X:	0.153	Y:	0.056	Z:	0.479	yaw:	1.645	yaw rate:	3.005	Roll:	0.268	Pitch:	-0.057	Yaw:	2.073	Thrust:	60.686
Time:	4.061	Roll Set Point:	-0.206	Pitch Set Point:	-0.109	Yaw Set Point:	-0.028	X_WP:	0.100	Y_WP:	0.000	Y_WP:	0.500	X:	0.152	Y:	0.055	Z:	0.484	yaw:	1.583	yaw rate:	-6.175	Roll:	0.115	Pitch:	0.165	Yaw:	-0.139	Thrust:	51.945
Time:	4.074	Roll Set Point:	-0.206	Pitch Set Point:	-0.108	Yaw Set Point:	-0.028	X_WP:	0.100	Y_WP:	0.000	Y_WP:	0.500	X:	0.152	Y:	0.055	Z:	0.489	yaw:	1.595	yaw rate:	1.121	Roll:	0.338	Pitch:	0.257	Yaw:	1.451	Thrust:	71.283
Time:	4.085	Roll Set Point:	-0.205	Pitch Set Point:	-0.107	Yaw Set Point:	-0.028	X_WP:	0.100	Y_WP:	0.000	Y_WP:	0.500	X:	0.152	Y:	0.054	Z:	0.495	yaw:	1.608	yaw rate:	1.370	Roll:	0.446	Pitch:	-0.159	Yaw:	1.723	Thrust:	54.365
Time:	4.097	Roll Set Point:	-0.204	Pitch Set Point:	-0.106	Yaw Set Point:	-0.027	X_WP:	0.100	Y_WP:	0.000	Y_WP:	0.500	X:	0.151	Y:	0.054	Z:	0.500	yaw:	1.555	yaw rate:	-5.349	Roll:	-0.030	Pitch:	0.569	Yaw:	0.083	Thrust:	51.411
Time:	4.107	Roll Set Point:	-0.203	Pitch Set Point:	-0.106	Yaw Set Point:	-0.027	X_WP:	0.100	Y_WP:	0.000	Y_WP:	0.500	X:	0.151	Y:	0.053	Z:	0.505	yaw:	1.542	yaw rate:	-1.318	Roll:	0.265	Pitch:	0.331	Yaw:	1.026	Thrust:	58.113
Time:	4.118	Roll Set Point:	-0.202	Pitch Set Point:	-0.105	Yaw Set Point:	-0.026	X_WP:	0.100	Y_WP:	0.000	Y_WP:	0.500	X:	0.150	Y:	0.053	Z:	0.511	yaw:	1.485	yaw rate:	-5.642	Roll:	0.146	Pitch:	0.371	Yaw:	-0.095	Thrust:	53.346
Time:	4.130	Roll Set Point:	-0.200	Pitch Set Point:	-0.104	Yaw Set Point:	-0.024	X_WP:	0.100	Y_WP:	0.000	Y_WP:	0.500	X:	0.149	Y:	0.052	Z:	0.521	yaw:	1.391	yaw rate:	-9.397	Roll:	-0.791	Pitch:	-0.140	Yaw:	-1.001	Thrust:	31.741
Time:	4.148	Roll Set Point:	-0.198	Pitch Set Point:	-0.102	Yaw Set Point:	-0.025	X_WP:	0.100	Y_WP:	0.000	Y_WP:	0.500	X:	0.148	Y:	0.052	Z:	0.531	yaw:	1.410	yaw rate:	-8.482	Roll:	-0.056	Pitch:	0.036	Yaw:	0.909	Thrust:	100.000
Time:	4.159	Roll Set Point:	-0.197	Pitch Set Point:	-0.102	Yaw Set Point:	-0.023	X_WP:	0.100	Y_WP:	0.000	Y_WP:	0.500	X:	0.148	Y:	0.051	Z:	0.536	yaw:	1.333	yaw rate:	-7.717	Roll:	0.201	Pitch:	0.579	Yaw:	-0.784	Thrust:	57.800
Time:	4.172	Roll Set Point:	-0.197	Pitch Set Point:	-0.101	Yaw Set Point:	-0.024	X_WP:	0.100	Y_WP:	0.000	Y_WP:	0.500	X:	0.148	Y:	0.051	Z:	0.541	yaw:	1.377	yaw rate:	4.375	Roll:	0.394	Pitch:	0.460	Yaw:	1.993	Thrust:	53.740
Time:	4.182	Roll Set Point:	-0.196	Pitch Set Point:	-0.100	Yaw Set Point:	-0.024	X_WP:	0.100	Y_WP:	0.000	Y_WP:	0.500	X:	0.147	Y:	0.051	Z:	0.545	yaw:	1.371	yaw rate:	-0.566	Roll:	0.315	Pitch:	0.446	Yaw:	1.007	Thrust:	58.109
Time:	4.193	Roll Set Point:	-0.195	Pitch Set Point:	-0.100	Yaw Set Point:	-0.022	X_WP:	0.100	Y_WP:	0.000	Y_WP:	0.500	X:	0.147	Y:	0.051	Z:	0.550	yaw:	1.259	yaw rate:	-11.210	Roll:	0.186	Pitch:	0.778	Yaw:	-1.733	Thrust:	52.798
Time:	4.205	Roll Set Point:	-0.194	Pitch Set Point:	-0.099	Yaw Set Point:	-0.023	X_WP:	0.100	Y_WP:	0.000	Y_WP:	0.500	X:	0.147	Y:	0.050	Z:	0.554	yaw:	1.313	yaw rate:	5.390	Roll:	0.453	Pitch:	0.415	Yaw:	2.134	Thrust:	63.353
Time:	4.216	Roll Set Point:	-0.194	Pitch Set Point:	-0.099	Yaw Set Point:	-0.025	X_WP:	0.100	Y_WP:	0.000	Y_WP:	0.500	X:	0.146	Y:	0.050	Z:	0.558	yaw:	1.459	yaw rate:	14.588	Roll:	0.905	Pitch:	0.593	Yaw:	4.713	Thrust:	55.256
Time:	4.227	Roll Set Point:	-0.193	Pitch Set Point:	-0.099	Yaw Set Point:	-0.020	X_WP:	0.100	Y_WP:	0.000	Y_WP:	0.500	X:	0.146	Y:	0.050	Z:	0.562	yaw:	1.172	yaw rate:	-28.715	Roll:	-0.383	Pitch:	0.721	Yaw:	-6.235	Thrust:	51.355
Time:	4.238	Roll Set Point:	-0.192	Pitch Set Point:	-0.098	Yaw Set Point:	-0.020	X_WP:	0.100	Y_WP:	0.000	Y_WP:	0.500	X:	0.146	Y:	0.049	Z:	0.566	yaw:	1.134	yaw rate:	-3.798	Roll:	0.384	Pitch:	0.622	Yaw:	-0.096	Thrust:	55.965
Time:	4.249	Roll Set Point:	-0.191	Pitch Set Point:	-0.097	Yaw Set Point:	-0.021	X_WP:	0.100	Y_WP:	0.000	Y_WP:	0.500	X:	0.145	Y:	0.049	Z:	0.573	yaw:	1.175	yaw rate:	4.143	Roll:	-0.552	Pitch:	-0.142	Yaw:	1.773	Thrust:	46.450
Time:	4.260	Roll Set Point:	-0.190	Pitch Set Point:	-0.097	Yaw Set Point:	-0.019	X_WP:	0.100	Y_WP:	0.000	Y_WP:	0.500	X:	0.145	Y:	0.049	Z:	0.576	yaw:	1.093	yaw rate:	-8.249	Roll:	0.551	Pitch:	1.063	Yaw:	-1.259	Thrust:	53.614
Time:	4.272	Roll Set Point:	-0.189	Pitch Set Point:	-0.096	Yaw Set Point:	-0.020	X_WP:	0.100	Y_WP:	0.000	Y_WP:	0.500	X:	0.144	Y:	0.049	Z:	0.580	yaw:	1.121	yaw rate:	2.849	Roll:	0.230	Pitch:	0.337	Yaw:	1.352	Thrust:	57.072
Time:	4.282	Roll Set Point:	-0.189	Pitch Set Point:	-0.096	Yaw Set Point:	-0.018	X_WP:	0.100	Y_WP:	0.000	Y_WP:	0.500	X:	0.144	Y:	0.049	Z:	0.583	yaw:	1.051	yaw rate:	-7.081	Roll:	0.519	Pitch:	1.114	Yaw:	-1.019	Thrust:	61.995
Time:	4.293	Roll Set Point:	-0.188	Pitch Set Point:	-0.096	Yaw Set Point:	-0.017	X_WP:	0.100	Y_WP:	0.000	Y_WP:	0.500	X:	0.144	Y:	0.048	Z:	0.585	yaw:	0.966	yaw rate:	-8.469	Roll:	0.321	Pitch:	0.837	Yaw:	-1.392	Thrust:	60.139
Time:	4.305	Roll Set Point:	-0.187	Pitch Set Point:	-0.096	Yaw Set Point:	-0.017	X_WP:	0.100	Y_WP:	0.000	Y_WP:	0.500	X:	0.143	Y:	0.048	Z:	0.588	yaw:	0.947	yaw rate:	-1.911	Roll:	0.340	Pitch:	0.744	Yaw:	0.101	Thrust:	62.498
Time:	4.316	Roll Set Point:	-0.187	Pitch Set Point:	-0.095	Yaw Set Point:	-0.016	X_WP:	0.100	Y_WP:	0.000	Y_WP:	0.500	X:	0.143	Y:	0.048	Z:	0.590	yaw:	0.899	yaw rate:	-4.737	Roll:	0.410	Pitch:	0.902	Yaw:	-0.617	Thrust:	55.266
Time:	4.327	Roll Set Point:	-0.186	Pitch Set Point:	-0.095	Yaw Set Point:	-0.015	X_WP:	0.100	Y_WP:	0.000	Y_WP:	0.500	X:	0.142	Y:	0.048	Z:	0.595	yaw:	0.880	yaw rate:	-3.090	Roll:	-0.240	Pitch:	0.374	Yaw:	0.030	Thrust:	54.903
Time:	4.337	Roll Set Point:	-0.186	Pitch Set Point:	-0.095	Yaw Set Point:	-0.015	X_WP:	0.100	Y_WP:	0.000	Y_WP:	0.500	X:	0.142	Y:	0.048	Z:	0.595	yaw:	0.880	yaw rate:	-3.090	Roll:	1.115	Pitch:	1.111	Yaw:	0.555	Thrust:	62.052
Time:	4.349	Roll Set Point:	-0.185	Pitch Set Point:	-0.095	Yaw Set Point:	-0.014	X_WP:	0.100	Y_WP:	0.000	Y_WP:	0.500	X:	0.142	Y:	0.048	Z:	0.597	yaw:	0.789	yaw rate:	-9.156	Roll:	0.391	Pitch:	0.987	Yaw:	-1.696	Thrust:	67.448
Time:	4.360	Roll Set Point:	-0.185	Pitch Set Point:	-0.094	Yaw Set Point:	-0.013	X_WP:	0.100	Y_WP:	0.000	Y_WP:	0.500	X:	0.142	Y:	0.047	Z:	0.599	yaw:	0.727	yaw rate:	-6.153	Roll:	0.403	Pitch:	0.840	Yaw:	-1.216	Thrust:	56.806
Time:	4.372	Roll Set Point:	-0.184	Pitch Set Point:	-0.094	Yaw Set Point:	-0.013	X_WP:	0.100	Y_WP:	0.000	Y_WP:	0.500	X:	0.142	Y:	0.047	Z:	0.601	yaw:	0.748	yaw rate:	2.089	Roll:	0.493	Pitch:	0.837	Yaw:	0.807	Thrust:	60.648
Time:	4.382	Roll Set Point:	-0.183	Pitch Set Point:	-0.093	Yaw Set Point:	-0.012	X_WP:	0.100	Y_WP:	0.000	Y_WP:	0.500	X:	0.141	Y:	0.047	Z:	0.604	yaw:	0.681	yaw rate:	-8.265	Roll:	-0.464	Pitch:	0.396	Yaw:	-1.348	Thrust:	57.566
Time:	4.393	Roll Set Point:	-0.182	Pitch Set Point:	-0.093	Yaw Set Point:	-0.011	X_WP:	0.100	Y_WP:	0.000	Y_WP:	0.500	X:	0.141	Y:	0.047	Z:	0.606	yaw:	0.642	yaw rate:	-3.812	Roll:	0.628	Pitch:	1.127	Yaw:	-0.735	Thrust:	61.710
Time:	4.404	Roll Set Point:	-0.181	Pitch Set Point:	-0.093	Yaw Set Point:	-0.012	X_WP:	0.100	Y_WP:	0.000	Y_WP:	0.500	X:	0.140	Y:	0.047	Z:	0.608	yaw:	0.661	yaw rate:	1.814	Roll:	-0.094	Pitch:	0.566	Yaw:	0.628	Thrust:	55.726
Time:	4.415	Roll Set Point:	-0.181	Pitch Set Point:	-0.093	Yaw Set Point:	-0.010	X_WP:	0.100	Y_WP:	0.000	Y_WP:	0.500	X:	0.140	Y:	0.047	Z:	0.610	yaw:	0.563	yaw rate:	-9.798	Roll:	0.353	Pitch:	0.986	Yaw:	-2.262	Thrust:	61.573
Time:	4.426	Roll Set Point:	-0.180	Pitch Set Point:	-0.093	Yaw Set Point:	-0.010	X_WP:	0.100	Y_WP:	0.000	Y_WP:	0.500	X:	0.140	Y:	0.047	Z:	0.611	yaw:	0.560	yaw rate:	-0.255	Roll:	0.462	Pitch:	0.841	Yaw:	0.022	Thrust:	59.360
Time:	4.438	Roll Set Point:	-0.180	Pitch Set Point:	-0.092	Yaw Set Point:	-0.009	X_WP:	0.100	Y_WP:	0.000	Y_WP:	0.500	X:	0.140	Y:	0.046	Z:	0.612	yaw:	0.515	yaw rate:	-4.482	Roll:	0.419	Pitch:	0.859	Yaw:	-1.039	Thrust:	68.862
Time:	4.450	Roll Set Point:	-0.179	Pitch Set Point:	-0.092	Yaw Set Point:	-0.009	X_WP:	0.100	Y_WP:	0.000	Y_WP:	0.500	X:	0.139	Y:	0.046	Z:	0.613	yaw:	0.523	yaw rate:	0.779	Roll:	0.482	Pitch:	0.898	Yaw:	0.158	Thrust:	65.595
Time:	4.460	Roll Set Point:	-0.179	Pitch Set Point:	-0.092	Yaw Set Point:	-0.008	X_WP:	0.100	Y_WP:	0.000	Y_WP:	0.500	X:	0.139	Y:	0.046	Z:	0.614	yaw:	0.432	yaw rate:	-9.097	Roll:	0.345	Pitch:	0.876	Yaw:	-2.337	Thrust:	58.671
Time:	4.471	Roll Set Point:	-0.178	Pitch Set Point:	-0.092	Yaw Set Point:	-0.008	X_WP:	0.100	Y_WP:	0.000	Y_WP:	0.500	X:	0.139	Y:	0.046	Z:	0.615	yaw:	0.454	yaw rate:	2.197	Roll:	0.511	Pitch:	0.829	Yaw:	0.443	Thrust:	61.919
Time:	4.482	Roll Set Point:	-0.178	Pitch Set Point:	-0.091	Yaw Set Point:	-0.008	X_WP:	0.100	Y_WP:	0.000	Y_WP:	0.500	X:	0.139	Y:	0.046	Z:	0.616	yaw:	0.431	yaw rate:	-2.255	Roll:	0.070	Pitch:	0.621	Yaw:	-0.636	Thrust:	54.517
Time:	4.492	Roll Set Point:	-0.177	Pitch Set Point:	-0.091	Yaw Set Point:	-0.006	X_WP:	0.100	Y_WP:	0.000	Y_WP:	0.500	X:	0.138	Y:	0.046	Z:	0.617	yaw:	0.370	yaw rate:	-6.108	Roll:	0.642	Pitch:	1.170	Yaw:	-1.676	Thrust:	62.223
Time:	4.504	Roll Set Point:	-0.177	Pitch Set Point:	-0.091	Yaw Set Point:	-0.007	X_WP:	0.100	Y_WP:	0.000	Y_WP:	0.500	X:	0.138	Y:	0.046	Z:	0.618	yaw:	0.373	yaw rate:	0.257	Roll:	0.256	Pitch:	0.620	Yaw:	-0.197	Thrust:	68.409
Time:	4.515	Roll Set Point:	-0.176	Pitch Set Point:	-0.091	Yaw Set Point:	-0.006	X_WP:	0.100	Y_WP:	0.000	Y_WP:	0.500	X:	0.138	Y:	0.045	Z:	0.620	yaw:	0.331	yaw rate:	-4.237	Roll:	-0.120	Pitch:	0.574	Yaw:	-1.250	Thrust:	57.663
Time:	4.526	Roll Set Point:	-0.175	Pitch Set Point:	-0.091	Yaw Set Point:	-0.005	X_WP:	0.100	Y_WP:	0.000	Y_WP:	0.500	X:	0.138	Y:	0.045	Z:	0.621	yaw:	0.270	yaw rate:	-6.016	Roll:	0.539	Pitch:	1.223	Yaw:	-1.790	Thrust:	58.058
Time:	4.538	Roll Set Point:	-0.175	Pitch Set Point:	-0.090	Yaw Set Point:	-0.004	X_WP:	0.100	Y_WP:	0.000	Y_WP:	0.500	X:	0.137	Y:	0.045	Z:	0.622	yaw:	0.242	yaw rate:	-2.817	Roll:	0.519	Pitch:	0.846	Yaw:	-1.042	Thrust:	67.783
Time:	4.548	Roll Set Point:	-0.174	Pitch Set Point:	-0.090	Yaw Set Point:	-0.005	X_WP:	0.100	Y_WP:	0.000	Y_WP:	0.500	X:	0.137	Y:	0.045	Z:	0.623	yaw:	0.299	yaw rate:	5.689	Roll:	0.517	Pitch:	0.726	Yaw:	1.161	Thrust:	57.579
Time:	4.559	Roll Set Point:	-0.174	Pitch Set Point:	-0.090	Yaw Set Point:	-0.003	X_WP:	0.100	Y_WP:	0.000	Y_WP:	0.500	X:	0.137	Y:	0.045	Z:	0.623	yaw:	0.199	yaw rate:	-9.963	Roll:	0.354	Pitch:	0.931	Yaw:	-2.788	Thrust:	60.783
Time:	4.571	Roll Set Point:	-0.174	Pitch Set Point:	-0.090	Yaw Set Point:	-0.004	X_WP:	0.100	Y_WP:	0.000	Y_WP:	0.500	X:	0.137	Y:	0.045	Z:	0.624	yaw:	0.205	yaw rate:	0.536	Roll:	0.501	Pitch:	0.821	Yaw:	-0.287	Thrust:	60.636
Time:	4.582	Roll Set Point:	-0.173	Pitch Set Point:	-0.090	Yaw Set Point:	-0.003	X_WP:	0.100	Y_WP:	0.000	Y_WP:	0.500	X:	0.137	Y:	0.045	Z:	0.625	yaw:	0.171	yaw rate:	-3.381	Roll:	0.433	Pitch:	0.867	Yaw:	-1.261	Thrust:	60.400
Time:	4.593	Roll Set Point:	-0.173	Pitch Set Point:	-0.089	Yaw Set Point:	-0.002	X_WP:	0.100	Y_WP:	0.000	Y_WP:	0.500	X:	0.136	Y:	0.045	Z:	0.626	yaw:	0.139	yaw rate:	-3.166	Roll:	0.420	Pitch:	0.836	Yaw:	-1.260	Thrust:	60.536
Time:	4.604	Roll Set Point:	-0.172	Pitch Set Point:	-0.089	Yaw Set Point:	-0.003	X_WP:	0.100	Y_WP:	0.000	Y_WP:	0.500	X:	0.136	Y:	0.044	Z:	0.627	yaw:	0.159	yaw rate:	2.000	Roll:	0.285	Pitch:	0.501	Yaw:	-0.002	Thrust:	59.972
Time:	4.615	Roll Set Point:	-0.172	Pitch Set Point:	-0.089	Yaw Set Point:	-0.002	X_WP:	0.100	Y_WP:	0.000	Y_WP:	0.500	X:	0.136	Y:	0.044	Z:	0.627	yaw:	0.142	yaw rate:	-1.690	Roll:	0.724	Pitch:	1.044	Yaw:	-0.900	Thrust:	57.128
Time:	4.626	Roll Set Point:	-0.171	Pitch Set Point:	-0.088	Yaw Set Point:	-0.004	X_WP:	0.100	Y_WP:	0.000	Y_WP:	0.500	X:	0.136	Y:	0.044	Z:	0.628	yaw:	0.225	yaw rate:	8.271	Roll:	0.386	Pitch:	0.472	Yaw:	1.831	Thrust:	56.228
Time:	4.639	Roll Set Point:	-0.171	Pitch Set Point:	-0.088	Yaw Set Point:	-0.002	X_WP:	0.100	Y_WP:	0.000	Y_WP:	0.500	X:	0.136	Y:	0.044	Z:	0.629	yaw:	0.100	yaw rate:	-12.525	Roll:	0.599	Pitch:	1.112	Yaw:	-3.083	Thrust:	73.089
Time:	4.649	Roll Set Point:	-0.171	Pitch Set Point:	-0.088	Yaw Set Point:	-0.003	X_WP:	0.100	Y_WP:	0.000	Y_WP:	0.500	X:	0.135	Y:	0.044	Z:	0.630	yaw:	0.160	yaw rate:	6.040	Roll:	0.632	Pitch:	0.695	Yaw:	1.058	Thrust:	63.098
Time:	4.660	Roll Set Point:	-0.170	Pitch Set Point:	-0.088	Yaw Set Point:	-0.003	X_WP:	0.100	Y_WP:	0.000	Y_WP:	0.500	X:	0.135	Y:	0.044	Z:	0.631	yaw:	0.153	yaw rate:	-0.686	Roll:	0.246	Pitch:	0.531	Yaw:	-0.625	Thrust:	56.442
Time:	4.672	Roll Set Point:	-0.170	Pitch Set Point:	-0.088	Yaw Set Point:	-0.001	X_WP:	0.100	Y_WP:	0.000	Y_WP:	0.500	X:	0.135	Y:	0.044	Z:	0.631	yaw:	0.078	yaw rate:	-7.576	Roll:	0.679	Pitch:	1.030	Yaw:	-2.298	Thrust:	66.214
Time:	4.683	Roll Set Point:	-0.170	Pitch Set Point:	-0.087	Yaw Set Point:	-0.002	X_WP:	0.100	Y_WP:	0.000	Y_WP:	0.500	X:	0.135	Y:	0.044	Z:	0.632	yaw:	0.102	yaw rate:	2.411	Roll:	0.608	Pitch:	0.707	Yaw:	-0.037	Thrust:	62.428
Time:	4.695	Roll Set Point:	-0.169	Pitch Set Point:	-0.086	Yaw Set Point:	-0.001	X_WP:	0.100	Y_WP:	0.000	Y_WP:	0.500	X:	0.134	Y:	0.043	Z:	0.634	yaw:	0.085	yaw rate:	-20.936	Roll:	-0.332	Pitch:	0.176	Yaw:	-0.981	Thrust:	55.306
Time:	4.707	Roll Set Point:	-0.169	Pitch Set Point:	-0.086	Yaw Set Point:	-0.001	X_WP:	0.100	Y_WP:	0.000	Y_WP:	0.500	X:	0.134	Y:	0.043	Z:	0.634	yaw:	0.085	yaw rate:	-20.936	Roll:	0.907	Pitch:	1.029	Yaw:	-0.672	Thrust:	71.034
Time:	4.718	Roll Set Point:	-0.168	Pitch Set Point:	-0.086	Yaw Set Point:	-0.001	X_WP:	0.100	Y_WP:	0.000	Y_WP:	0.500	X:	0.134	Y:	0.043	Z:	0.635	yaw:	0.046	yaw rate:	1.965	Roll:	0.126	Pitch:	0.354	Yaw:	-1.563	Thrust:	56.396
Time:	4.729	Roll Set Point:	-0.168	Pitch Set Point:	-0.086	Yaw Set Point:	-0.001	X_WP:	0.100	Y_WP:	0.000	Y_WP:	0.500	X:	0.134	Y:	0.043	Z:	0.635	yaw:	0.052	yaw rate:	0.598	Roll:	0.551	Pitch:	0.709	Yaw:	-0.444	Thrust:	55.903
Time:	4.741	Roll Set Point:	-0.168	Pitch Set Point:	-0.085	Yaw Set Point:	-0.005	X_WP:	0.100	Y_WP:	0.000	Y_WP:	0.500	X:	0.134	Y:	0.043	Z:	0.636	yaw:	0.262	yaw rate:	21.014	Roll:	1.113	Pitch:	0.728	Yaw:	4.332	Thrust:	62.985
Time:	4.752	Roll Set Point:	-0.167	Pitch Set Point:	-0.085	Yaw Set Point:	-0.002	X_WP:	0.100	Y_WP:	0.000	Y_WP:	0.500	X:	0.133	Y:	0.042	Z:	0.636	yaw:	0.097	yaw rate:	-16.449	Roll:	-0.054	Pitch:	0.611	Yaw:	-4.461	Thrust:	58.395
Time:	4.764	Roll Set Point:	-0.167	Pitch Set Point:	-0.085	Yaw Set Point:	-0.001	X_WP:	0.100	Y_WP:	0.000	Y_WP:	0.500	X:	0.133	Y:	0.042	Z:	0.637	yaw:	0.046	yaw rate:	-5.137	Roll:	0.473	Pitch:	0.760	Yaw:	-1.809	Thrust:	64.729
Time:	4.775	Roll Set Point:	-0.166	Pitch Set Point:	-0.084	Yaw Set Point:	-0.001	X_WP:	0.100	Y_WP:	0.000	Y_WP:	0.500	X:	0.133	Y:	0.042	Z:	0.637	yaw:	0.078	yaw rate:	3.259	Roll:	0.563	Pitch:	0.669	Yaw:	0.091	Thrust:	60.298
Time:	4.786	Roll Set Point:	-0.166	Pitch Set Point:	-0.084	Yaw Set Point:	-0.005	X_WP:	0.100	Y_WP:	0.000	Y_WP:	0.500	X:	0.133	Y:	0.042	Z:	0.638	yaw:	0.288	yaw rate:	20.971	Roll:	1.135	Pitch:	0.698	Yaw:	4.957	Thrust:	58.267
Time:	4.802	Roll Set Point:	-0.166	Pitch Set Point:	-0.084	Yaw Set Point:	-0.004	X_WP:	0.100	Y_WP:	0.000	Y_WP:	0.500	X:	0.133	Y:	0.042	Z:	0.638	yaw:	0.254	yaw rate:	-3.412	Roll:	0.485	Pitch:	0.730	Yaw:	-1.153	Thrust:	70.863
Time:	4.815	Roll Set Point:	-0.165	Pitch Set Point:	-0.083	Yaw Set Point:	-0.001	X_WP:	0.100	Y_WP:	0.000	Y_WP:	0.500	X:	0.132	Y:	0.041	Z:	0.639	yaw:	0.068	yaw rate:	-18.623	Roll:	-0.032	Pitch:	0.391	Yaw:	-4.089	Thrust:	81.726
Time:	4.827	Roll Set Point:	-0.164	Pitch Set Point:	-0.082	Yaw Set Point:	-0.002	X_WP:	0.100	Y_WP:	0.000	Y_WP:	0.500	X:	0.132	Y:	0.041	Z:	0.639	yaw:	0.129	yaw rate:	7.394	Roll:	0.282	Pitch:	0.280	Yaw:	0.887	Thrust:	62.420
Time:	4.838	Roll Set Point:	-0.164	Pitch Set Point:	-0.082	Yaw Set Point:	-0.002	X_WP:	0.100	Y_WP:	0.000	Y_WP:	0.500	X:	0.132	Y:	0.041	Z:	0.639	yaw:	0.129	yaw rate:	7.394	Roll:	0.873	Pitch:	1.022	Yaw:	-0.508	Thrust:	59.202
Time:	4.848	Roll Set Point:	-0.164	Pitch Set Point:	-0.082	Yaw Set Point:	-0.001	X_WP:	0.100	Y_WP:	0.000	Y_WP:	0.500	X:	0.132	Y:	0.041	Z:	0.640	yaw:	0.049	yaw rate:	-8.033	Roll:	0.374	Pitch:	0.737	Yaw:	-2.475	Thrust:	61.051
Time:	4.859	Roll Set Point:	-0.164	Pitch Set Point:	-0.082	Yaw Set Point:	-0.001	X_WP:	0.100	Y_WP:	0.000	Y_WP:	0.500	X:	0.132	Y:	0.041	Z:	0.640	yaw:	0.068	yaw rate:	1.867	Roll:	0.554	Pitch:	0.678	Yaw:	-0.116	Thrust:	55.886
Time:	4.871	Roll Set Point:	-0.163	Pitch Set Point:	-0.081	Yaw Set Point:	0.000	X_WP:	0.100	Y_WP:	0.000	Y_WP:	0.500	X:	0.131	Y:	0.041	Z:	0.640	yaw:	-0.009	yaw rate:	-0.396	Roll:	0.018	Pitch:	0.396	Yaw:	-2.446	Thrust:	62.259
Time:	4.882	Roll Set Point:	-0.163	Pitch Set Point:	-0.081	Yaw Set Point:	0.000	X_WP:	0.100	Y_WP:	0.000	Y_WP:	0.500	X:	0.131	Y:	0.041	Z:	0.640	yaw:	-0.009	yaw rate:	-0.396	Roll:	0.860	Pitch:	1.022	Yaw:	-0.668	Thrust:	55.248
Time:	4.892	Roll Set Point:	-0.162	Pitch Set Point:	-0.080	Yaw Set Point:	-0.002	X_WP:	0.100	Y_WP:	0.000	Y_WP:	0.500	X:	0.131	Y:	0.040	Z:	0.641	yaw:	0.114	yaw rate:	3.725	Roll:	-0.056	Pitch:	-0.043	Yaw:	2.546	Thrust:	52.230
Time:	4.905	Roll Set Point:	-0.162	Pitch Set Point:	-0.080	Yaw Set Point:	-0.005	X_WP:	0.100	Y_WP:	0.000	Y_WP:	0.500	X:	0.131	Y:	0.040	Z:	0.642	yaw:	0.290	yaw rate:	17.626	Roll:	0.810	Pitch:	0.718	Yaw:	3.286	Thrust:	63.917
Time:	4.916	Roll Set Point:	-0.161	Pitch Set Point:	-0.080	Yaw Set Point:	-0.002	X_WP:	0.100	Y_WP:	0.000	Y_WP:	0.500	X:	0.131	Y:	0.040	Z:	0.643	yaw:	0.118	yaw rate:	-17.209	Roll:	-0.104	Pitch:	0.608	Yaw:	-4.460	Thrust:	55.370
Time:	4.927	Roll Set Point:	-0.161	Pitch Set Point:	-0.079	Yaw Set Point:	-0.002	X_WP:	0.100	Y_WP:	0.000	Y_WP:	0.500	X:	0.130	Y:	0.040	Z:	0.643	yaw:	0.100	yaw rate:	-1.850	Roll:	0.409	Pitch:	0.715	Yaw:	-0.977	Thrust:	55.421
Time:	4.939	Roll Set Point:	-0.160	Pitch Set Point:	-0.079	Yaw Set Point:	-0.002	X_WP:	0.100	Y_WP:	0.000	Y_WP:	0.500	X:	0.130	Y:	0.040	Z:	0.644	yaw:	0.128	yaw rate:	2.829	Roll:	0.485	Pitch:	0.639	Yaw:	0.165	Thrust:	55.210
Time:	4.952	Roll Set Point:	-0.160	Pitch Set Point:	-0.079	Yaw Set Point:	-0.003	X_WP:	0.100	Y_WP:	0.000	Y_WP:	0.500	X:	0.130	Y:	0.039	Z:	0.644	yaw:	0.150	yaw rate:	2.163	Roll:	0.415	Pitch:	0.691	Yaw:	-0.213	Thrust:	70.152
Time:	4.973	Roll Set Point:	-0.160	Pitch Set Point:	-0.078	Yaw Set Point:	-0.007	X_WP:	0.100	Y_WP:	0.000	Y_WP:	0.500	X:	0.130	Y:	0.039	Z:	0.645	yaw:	0.428	yaw rate:	6.434	Roll:	0.699	Pitch:	0.539	Yaw:	2.993	Thrust:	100.000
Time:	4.986	Roll Set Point:	-0.159	Pitch Set Point:	-0.078	Yaw Set Point:	-0.003	X_WP:	0.100	Y_WP:	0.000	Y_WP:	0.500	X:	0.129	Y:	0.039	Z:	0.646	yaw:	0.183	yaw rate:	-24.527	Roll:	-0.002	Pitch:	0.698	Yaw:	-5.058	Thrust:	72.988
Time:	5.006	Roll Set Point:	-0.159	Pitch Set Point:	-0.078	Yaw Set Point:	-0.003	X_WP:	0.100	Y_WP:	0.000	Y_WP:	0.500	X:	0.129	Y:	0.039	Z:	0.646	yaw:	0.197	yaw rate:	1.375	Roll:	0.568	Pitch:	0.674	Yaw:	-0.752	Thrust:	100.000
Time:	5.020	Roll Set Point:	-0.158	Pitch Set Point:	-0.077	Yaw Set Point:	-0.004	X_WP:	0.100	Y_WP:	0.000	Y_WP:	0.500	X:	0.129	Y:	0.039	Z:	0.647	yaw:	0.220	yaw rate:	-4.859	Roll:	-0.225	Pitch:	0.233	Yaw:	-0.136	Thrust:	68.840
Time:	5.039	Roll Set Point:	-0.157	Pitch Set Point:	-0.077	Yaw Set Point:	-0.005	X_WP:	0.100	Y_WP:	0.000	Y_WP:	0.500	X:	0.129	Y:	0.038	Z:	0.647	yaw:	0.302	yaw rate:	8.247	Roll:	0.542	Pitch:	0.682	Yaw:	0.602	Thrust:	76.944
Time:	5.053	Roll Set Point:	-0.157	Pitch Set Point:	-0.076	Yaw Set Point:	-0.005	X_WP:	0.100	Y_WP:	0.000	Y_WP:	0.500	X:	0.128	Y:	0.038	Z:	0.647	yaw:	0.302	yaw rate:	0.036	Roll:	0.543	Pitch:	0.702	Yaw:	-0.560	Thrust:	95.507
Time:	5.070	Roll Set Point:	-0.156	Pitch Set Point:	-0.076	Yaw Set Point:	-0.005	X_WP:	0.100	Y_WP:	0.000	Y_WP:	0.500	X:	0.128	Y:	0.038	Z:	0.648	yaw:	0.279	yaw rate:	1.462	Roll:	0.097	Pitch:	0.578	Yaw:	-1.002	Thrust:	90.980
Time:	5.082	Roll Set Point:	-0.156	Pitch Set Point:	-0.076	Yaw Set Point:	-0.004	X_WP:	0.100	Y_WP:	0.000	Y_WP:	0.500	X:	0.128	Y:	0.038	Z:	0.649	yaw:	0.244	yaw rate:	-3.511	Roll:	0.426	Pitch:	0.778	Yaw:	-1.162	Thrust:	57.667
Time:	5.094	Roll Set Point:	-0.155	Pitch Set Point:	-0.075	Yaw Set Point:	-0.005	X_WP:	0.100	Y_WP:	0.000	Y_WP:	0.500	X:	0.127	Y:	0.038	Z:	0.652	yaw:	0.270	yaw rate:	2.608	Roll:	-0.059	Pitch:	0.533	Yaw:	0.148	Thrust:	48.358
Time:	5.106	Roll Set Point:	-0.155	Pitch Set Point:	-0.075	Yaw Set Point:	-0.005	X_WP:	0.100	Y_WP:	0.000	Y_WP:	0.500	X:	0.127	Y:	0.038	Z:	0.653	yaw:	0.300	yaw rate:	2.968	Roll:	0.493	Pitch:	0.752	Yaw:	0.443	Thrust:	54.494
Time:	5.117	Roll Set Point:	-0.154	Pitch Set Point:	-0.075	Yaw Set Point:	-0.009	X_WP:	0.100	Y_WP:	0.000	Y_WP:	0.500	X:	0.127	Y:	0.038	Z:	0.657	yaw:	0.513	yaw rate:	27.627	Roll:	0.606	Pitch:	0.898	Yaw:	4.623	Thrust:	44.602
Time:	5.129	Roll Set Point:	-0.154	Pitch Set Point:	-0.075	Yaw Set Point:	-0.005	X_WP:	0.100	Y_WP:	0.000	Y_WP:	0.500	X:	0.127	Y:	0.038	Z:	0.660	yaw:	0.281	yaw rate:	-23.159	Roll:	-0.167	Pitch:	0.779	Yaw:	-5.552	Thrust:	47.310
Time:	5.141	Roll Set Point:	-0.153	Pitch Set Point:	-0.075	Yaw Set Point:	-0.006	X_WP:	0.100	Y_WP:	0.000	Y_WP:	0.500	X:	0.127	Y:	0.038	Z:	0.662	yaw:	0.334	yaw rate:	5.234	Roll:	0.472	Pitch:	0.878	Yaw:	0.872	Thrust:	46.210
Time:	5.153	Roll Set Point:	-0.153	Pitch Set Point:	-0.075	Yaw Set Point:	-0.005	X_WP:	0.100	Y_WP:	0.000	Y_WP:	0.500	X:	0.126	Y:	0.038	Z:	0.665	yaw:	0.282	yaw rate:	-5.146	Roll:	0.299	Pitch:	0.952	Yaw:	-1.456	Thrust:	48.499
Time:	5.171	Roll Set Point:	-0.153	Pitch Set Point:	-0.075	Yaw Set Point:	-0.006	X_WP:	0.100	Y_WP:	0.000	Y_WP:	0.500	X:	0.126	Y:	0.038	Z:	0.668	yaw:	0.342	yaw rate:	5.958	Roll:	0.485	Pitch:	0.924	Yaw:	0.417	Thrust:	66.719
Time:	5.183	Roll Set Point:	-0.152	Pitch Set Point:	-0.075	Yaw Set Point:	-0.007	X_WP:	0.100	Y_WP:	0.000	Y_WP:	0.500	X:	0.126	Y:	0.038	Z:	0.671	yaw:	0.410	yaw rate:	6.791	Roll:	0.570	Pitch:	0.880	Yaw:	1.147	Thrust:	62.979
Time:	5.195	Roll Set Point:	-0.152	Pitch Set Point:	-0.075	Yaw Set Point:	-0.006	X_WP:	0.100	Y_WP:	0.000	Y_WP:	0.500	X:	0.126	Y:	0.038	Z:	0.677	yaw:	0.343	yaw rate:	-5.788	Roll:	0.119	Pitch:	1.027	Yaw:	-1.704	Thrust:	39.803
Time:	5.207	Roll Set Point:	-0.151	Pitch Set Point:	-0.075	Yaw Set Point:	-0.007	X_WP:	0.100	Y_WP:	0.000	Y_WP:	0.500	X:	0.126	Y:	0.038	Z:	0.679	yaw:	0.429	yaw rate:	8.571	Roll:	0.325	Pitch:	0.733	Yaw:	1.738	Thrust:	46.509
Time:	5.219	Roll Set Point:	-0.151	Pitch Set Point:	-0.075	Yaw Set Point:	-0.007	X_WP:	0.100	Y_WP:	0.000	Y_WP:	0.500	X:	0.125	Y:	0.038	Z:	0.685	yaw:	0.426	yaw rate:	-0.293	Roll:	0.351	Pitch:	1.273	Yaw:	-0.192	Thrust:	33.533
Time:	5.237	Roll Set Point:	-0.151	Pitch Set Point:	-0.075	Yaw Set Point:	-0.009	X_WP:	0.100	Y_WP:	0.000	Y_WP:	0.500	X:	0.125	Y:	0.038	Z:	0.687	yaw:	0.494	yaw rate:	6.859	Roll:	0.530	Pitch:	0.925	Yaw:	0.716	Thrust:	68.226
