Time:	2.156	Roll Set Point:	-0.015	Pitch Set Point:	0.029	Yaw Set Point:	-2.958	X_WP:	0.000	Y_WP:	0.000	Y_WP:	0.500	X:	0.163	Y:	0.069	Z:	0.401	yaw:	169.485	yaw rate:	-0.741	Roll:	-4.280	Pitch:	-2.821	Yaw:	236.645	Thrust:	5.451
Time:	2.172	Roll Set Point:	-0.015	Pitch Set Point:	0.029	Yaw Set Point:	-2.958	X_WP:	0.000	Y_WP:	0.000	Y_WP:	0.500	X:	0.163	Y:	0.069	Z:	0.401	yaw:	169.481	yaw rate:	-1.946	Roll:	-4.257	Pitch:	-2.829	Yaw:	237.505	Thrust:	5.585
Time:	2.187	Roll Set Point:	-0.015	Pitch Set Point:	0.029	Yaw Set Point:	-2.958	X_WP:	0.000	Y_WP:	0.000	Y_WP:	0.500	X:	0.163	Y:	0.069	Z:	0.401	yaw:	169.502	yaw rate:	2.067	Roll:	-4.340	Pitch:	-2.765	Yaw:	238.578	Thrust:	5.759
Time:	2.203	Roll Set Point:	-0.015	Pitch Set Point:	0.029	Yaw Set Point:	-2.958	X_WP:	0.000	Y_WP:	0.000	Y_WP:	0.500	X:	0.163	Y:	0.069	Z:	0.401	yaw:	169.478	yaw rate:	-2.411	Roll:	-4.239	Pitch:	-2.897	Yaw:	237.794	Thrust:	6.058
Time:	2.219	Roll Set Point:	-0.015	Pitch Set Point:	0.029	Yaw Set Point:	-2.958	X_WP:	0.000	Y_WP:	0.000	Y_WP:	0.500	X:	0.163	Y:	0.069	Z:	0.401	yaw:	169.485	yaw rate:	0.753	Roll:	-4.354	Pitch:	-2.812	Yaw:	238.335	Thrust:	6.283
Time:	2.234	Roll Set Point:	-0.015	Pitch Set Point:	0.029	Yaw Set Point:	-2.958	X_WP:	0.000	Y_WP:	0.000	Y_WP:	0.500	X:	0.163	Y:	0.069	Z:	0.401	yaw:	169.488	yaw rate:	0.287	Roll:	-4.297	Pitch:	-2.850	Yaw:	238.264	Thrust:	6.320
Time:	2.250	Roll Set Point:	-0.015	Pitch Set Point:	0.029	Yaw Set Point:	-2.958	X_WP:	0.000	Y_WP:	0.000	Y_WP:	0.500	X:	0.163	Y:	0.069	Z:	0.401	yaw:	169.477	yaw rate:	-1.114	Roll:	-4.307	Pitch:	-2.871	Yaw:	238.007	Thrust:	6.515
Time:	2.266	Roll Set Point:	-0.015	Pitch Set Point:	0.029	Yaw Set Point:	-2.958	X_WP:	0.000	Y_WP:	0.000	Y_WP:	0.500	X:	0.163	Y:	0.069	Z:	0.401	yaw:	169.489	yaw rate:	1.165	Roll:	-4.313	Pitch:	-2.800	Yaw:	238.408	Thrust:	6.759
Time:	2.281	Roll Set Point:	-0.015	Pitch Set Point:	0.029	Yaw Set Point:	-2.958	X_WP:	0.000	Y_WP:	0.000	Y_WP:	0.500	X:	0.163	Y:	0.069	Z:	0.401	yaw:	169.494	yaw rate:	0.514	Roll:	-4.365	Pitch:	-2.826	Yaw:	238.308	Thrust:	7.062
Time:	2.297	Roll Set Point:	-0.015	Pitch Set Point:	0.029	Yaw Set Point:	-2.958	X_WP:	0.000	Y_WP:	0.000	Y_WP:	0.500	X:	0.163	Y:	0.069	Z:	0.401	yaw:	169.494	yaw rate:	0.514	Roll:	-4.333	Pitch:	-2.854	Yaw:	238.219	Thrust:	7.123
Time:	2.312	Roll Set Point:	-0.015	Pitch Set Point:	0.029	Yaw Set Point:	-2.958	X_WP:	0.000	Y_WP:	0.000	Y_WP:	0.500	X:	0.163	Y:	0.069	Z:	0.401	yaw:	169.491	yaw rate:	-0.261	Roll:	-4.312	Pitch:	-2.892	Yaw:	238.173	Thrust:	7.239
Time:	2.328	Roll Set Point:	-0.015	Pitch Set Point:	0.029	Yaw Set Point:	-2.958	X_WP:	0.000	Y_WP:	0.000	Y_WP:	0.500	X:	0.163	Y:	0.069	Z:	0.401	yaw:	169.465	yaw rate:	-2.603	Roll:	-4.303	Pitch:	-2.941	Yaw:	237.756	Thrust:	7.486
Time:	2.344	Roll Set Point:	-0.015	Pitch Set Point:	0.029	Yaw Set Point:	-2.958	X_WP:	0.000	Y_WP:	0.000	Y_WP:	0.500	X:	0.163	Y:	0.069	Z:	0.401	yaw:	169.484	yaw rate:	1.863	Roll:	-4.384	Pitch:	-2.775	Yaw:	238.511	Thrust:	7.663
Time:	2.359	Roll Set Point:	-0.015	Pitch Set Point:	0.029	Yaw Set Point:	-2.958	X_WP:	0.000	Y_WP:	0.000	Y_WP:	0.500	X:	0.163	Y:	0.069	Z:	0.401	yaw:	169.498	yaw rate:	1.390	Roll:	-4.394	Pitch:	-2.854	Yaw:	238.462	Thrust:	7.941
Time:	2.375	Roll Set Point:	-0.015	Pitch Set Point:	0.029	Yaw Set Point:	-2.958	X_WP:	0.000	Y_WP:	0.000	Y_WP:	0.500	X:	0.163	Y:	0.069	Z:	0.401	yaw:	169.498	yaw rate:	1.390	Roll:	-4.361	Pitch:	-2.873	Yaw:	238.223	Thrust:	8.047
Time:	2.391	Roll Set Point:	-0.015	Pitch Set Point:	0.029	Yaw Set Point:	-2.958	X_WP:	0.000	Y_WP:	0.000	Y_WP:	0.500	X:	0.163	Y:	0.069	Z:	0.401	yaw:	169.480	yaw rate:	-1.735	Roll:	-4.306	Pitch:	-2.935	Yaw:	237.911	Thrust:	8.116
Time:	2.406	Roll Set Point:	-0.015	Pitch Set Point:	0.029	Yaw Set Point:	-2.958	X_WP:	0.000	Y_WP:	0.000	Y_WP:	0.500	X:	0.163	Y:	0.069	Z:	0.401	yaw:	169.471	yaw rate:	-0.909	Roll:	-4.394	Pitch:	-2.888	Yaw:	238.037	Thrust:	8.505
Time:	2.422	Roll Set Point:	-0.015	Pitch Set Point:	0.029	Yaw Set Point:	-2.958	X_WP:	0.000	Y_WP:	0.000	Y_WP:	0.500	X:	0.163	Y:	0.069	Z:	0.401	yaw:	169.471	yaw rate:	-0.909	Roll:	-4.378	Pitch:	-2.886	Yaw:	238.189	Thrust:	8.609
Time:	2.437	Roll Set Point:	-0.015	Pitch Set Point:	0.029	Yaw Set Point:	-2.958	X_WP:	0.000	Y_WP:	0.000	Y_WP:	0.500	X:	0.163	Y:	0.069	Z:	0.401	yaw:	169.485	yaw rate:	-1.321	Roll:	-4.375	Pitch:	-2.878	Yaw:	238.446	Thrust:	8.764
Time:	2.453	Roll Set Point:	-0.015	Pitch Set Point:	0.029	Yaw Set Point:	-2.958	X_WP:	0.000	Y_WP:	0.000	Y_WP:	0.500	X:	0.163	Y:	0.069	Z:	0.401	yaw:	169.492	yaw rate:	0.637	Roll:	-4.401	Pitch:	-2.857	Yaw:	238.325	Thrust:	8.904
Time:	2.469	Roll Set Point:	-0.015	Pitch Set Point:	0.029	Yaw Set Point:	-2.958	X_WP:	0.000	Y_WP:	0.000	Y_WP:	0.500	X:	0.163	Y:	0.069	Z:	0.401	yaw:	169.492	yaw rate:	0.637	Roll:	-4.395	Pitch:	-2.896	Yaw:	238.218	Thrust:	9.165
Time:	2.484	Roll Set Point:	-0.015	Pitch Set Point:	0.029	Yaw Set Point:	-2.958	X_WP:	0.000	Y_WP:	0.000	Y_WP:	0.500	X:	0.163	Y:	0.069	Z:	0.401	yaw:	169.491	yaw rate:	0.015	Roll:	-4.391	Pitch:	-2.910	Yaw:	238.198	Thrust:	9.520
Time:	2.500	Roll Set Point:	-0.015	Pitch Set Point:	0.029	Yaw Set Point:	-2.958	X_WP:	0.000	Y_WP:	0.000	Y_WP:	0.500	X:	0.163	Y:	0.069	Z:	0.401	yaw:	169.494	yaw rate:	0.332	Roll:	-4.472	Pitch:	-2.900	Yaw:	238.277	Thrust:	9.493
Time:	2.516	Roll Set Point:	-0.015	Pitch Set Point:	0.029	Yaw Set Point:	-2.958	X_WP:	0.000	Y_WP:	0.000	Y_WP:	0.500	X:	0.163	Y:	0.069	Z:	0.401	yaw:	169.494	yaw rate:	0.332	Roll:	-4.414	Pitch:	-2.908	Yaw:	238.221	Thrust:	9.724
Time:	2.531	Roll Set Point:	-0.015	Pitch Set Point:	0.029	Yaw Set Point:	-2.958	X_WP:	0.000	Y_WP:	0.000	Y_WP:	0.500	X:	0.163	Y:	0.069	Z:	0.401	yaw:	169.473	yaw rate:	-1.134	Roll:	-4.346	Pitch:	-2.951	Yaw:	237.848	Thrust:	9.794
Time:	2.547	Roll Set Point:	-0.015	Pitch Set Point:	0.029	Yaw Set Point:	-2.958	X_WP:	0.000	Y_WP:	0.000	Y_WP:	0.500	X:	0.163	Y:	0.069	Z:	0.401	yaw:	169.481	yaw rate:	0.763	Roll:	-4.427	Pitch:	-2.911	Yaw:	238.331	Thrust:	10.297
Time:	2.562	Roll Set Point:	-0.015	Pitch Set Point:	0.029	Yaw Set Point:	-2.958	X_WP:	0.000	Y_WP:	0.000	Y_WP:	0.500	X:	0.163	Y:	0.069	Z:	0.401	yaw:	169.489	yaw rate:	0.752	Roll:	-4.460	Pitch:	-2.902	Yaw:	238.339	Thrust:	10.195
Time:	2.577	Roll Set Point:	-0.015	Pitch Set Point:	0.029	Yaw Set Point:	-2.958	X_WP:	0.000	Y_WP:	0.000	Y_WP:	0.500	X:	0.163	Y:	0.069	Z:	0.401	yaw:	169.494	yaw rate:	0.567	Roll:	-4.451	Pitch:	-2.887	Yaw:	238.260	Thrust:	10.261
Time:	2.593	Roll Set Point:	-0.015	Pitch Set Point:	0.029	Yaw Set Point:	-2.958	X_WP:	0.000	Y_WP:	0.000	Y_WP:	0.500	X:	0.163	Y:	0.069	Z:	0.401	yaw:	169.494	yaw rate:	0.567	Roll:	-4.442	Pitch:	-2.927	Yaw:	238.221	Thrust:	10.654
Time:	2.609	Roll Set Point:	-0.015	Pitch Set Point:	0.029	Yaw Set Point:	-2.958	X_WP:	0.000	Y_WP:	0.000	Y_WP:	0.500	X:	0.163	Y:	0.069	Z:	0.401	yaw:	169.487	yaw rate:	0.938	Roll:	-4.416	Pitch:	-2.956	Yaw:	238.092	Thrust:	10.815
Time:	2.624	Roll Set Point:	-0.015	Pitch Set Point:	0.029	Yaw Set Point:	-2.958	X_WP:	0.000	Y_WP:	0.000	Y_WP:	0.500	X:	0.163	Y:	0.069	Z:	0.401	yaw:	169.476	yaw rate:	-1.100	Roll:	-4.449	Pitch:	-2.989	Yaw:	238.015	Thrust:	11.027
Time:	2.640	Roll Set Point:	-0.015	Pitch Set Point:	0.029	Yaw Set Point:	-2.958	X_WP:	0.000	Y_WP:	0.000	Y_WP:	0.500	X:	0.163	Y:	0.069	Z:	0.401	yaw:	169.476	yaw rate:	-1.100	Roll:	-4.458	Pitch:	-2.940	Yaw:	238.193	Thrust:	11.200
Time:	2.656	Roll Set Point:	-0.015	Pitch Set Point:	0.029	Yaw Set Point:	-2.958	X_WP:	0.000	Y_WP:	0.000	Y_WP:	0.500	X:	0.163	Y:	0.069	Z:	0.401	yaw:	169.494	yaw rate:	1.794	Roll:	-4.487	Pitch:	-2.872	Yaw:	238.522	Thrust:	11.431
Time:	2.671	Roll Set Point:	-0.015	Pitch Set Point:	0.029	Yaw Set Point:	-2.958	X_WP:	0.000	Y_WP:	0.000	Y_WP:	0.500	X:	0.163	Y:	0.069	Z:	0.401	yaw:	169.472	yaw rate:	-0.915	Roll:	-4.406	Pitch:	-3.002	Yaw:	237.814	Thrust:	11.526
Time:	2.687	Roll Set Point:	-0.015	Pitch Set Point:	0.029	Yaw Set Point:	-2.958	X_WP:	0.000	Y_WP:	0.000	Y_WP:	0.500	X:	0.163	Y:	0.069	Z:	0.401	yaw:	169.472	yaw rate:	-0.915	Roll:	-4.475	Pitch:	-2.951	Yaw:	238.190	Thrust:	11.768
Time:	2.702	Roll Set Point:	-0.015	Pitch Set Point:	0.029	Yaw Set Point:	-2.958	X_WP:	0.000	Y_WP:	0.000	Y_WP:	0.500	X:	0.163	Y:	0.069	Z:	0.401	yaw:	169.497	yaw rate:	1.770	Roll:	-4.568	Pitch:	-2.881	Yaw:	238.661	Thrust:	12.037
Time:	2.718	Roll Set Point:	-0.015	Pitch Set Point:	0.029	Yaw Set Point:	-2.958	X_WP:	0.000	Y_WP:	0.000	Y_WP:	0.500	X:	0.163	Y:	0.069	Z:	0.401	yaw:	169.497	yaw rate:	1.770	Roll:	-4.489	Pitch:	-2.957	Yaw:	238.228	Thrust:	12.151
Time:	2.734	Roll Set Point:	-0.015	Pitch Set Point:	0.029	Yaw Set Point:	-2.958	X_WP:	0.000	Y_WP:	0.000	Y_WP:	0.500	X:	0.163	Y:	0.069	Z:	0.401	yaw:	169.496	yaw rate:	-0.000	Roll:	-4.477	Pitch:	-2.957	Yaw:	238.197	Thrust:	12.281
Time:	2.749	Roll Set Point:	-0.015	Pitch Set Point:	0.029	Yaw Set Point:	-2.958	X_WP:	0.000	Y_WP:	0.000	Y_WP:	0.500	X:	0.163	Y:	0.069	Z:	0.401	yaw:	169.496	yaw rate:	-0.000	Roll:	-4.500	Pitch:	-2.964	Yaw:	238.225	Thrust:	12.517
Time:	2.765	Roll Set Point:	-0.015	Pitch Set Point:	0.029	Yaw Set Point:	-2.958	X_WP:	0.000	Y_WP:	0.000	Y_WP:	0.500	X:	0.163	Y:	0.069	Z:	0.401	yaw:	169.494	yaw rate:	-0.233	Roll:	-4.503	Pitch:	-2.999	Yaw:	238.181	Thrust:	12.763
Time:	2.781	Roll Set Point:	-0.015	Pitch Set Point:	0.029	Yaw Set Point:	-2.958	X_WP:	0.000	Y_WP:	0.000	Y_WP:	0.500	X:	0.163	Y:	0.069	Z:	0.401	yaw:	169.486	yaw rate:	-0.754	Roll:	-4.490	Pitch:	-2.972	Yaw:	238.078	Thrust:	12.771
Time:	2.796	Roll Set Point:	-0.015	Pitch Set Point:	0.029	Yaw Set Point:	-2.958	X_WP:	0.000	Y_WP:	0.000	Y_WP:	0.500	X:	0.163	Y:	0.069	Z:	0.401	yaw:	169.486	yaw rate:	-0.754	Roll:	-4.516	Pitch:	-2.976	Yaw:	238.210	Thrust:	13.068
Time:	2.812	Roll Set Point:	-0.015	Pitch Set Point:	0.029	Yaw Set Point:	-2.958	X_WP:	0.000	Y_WP:	0.000	Y_WP:	0.500	X:	0.163	Y:	0.069	Z:	0.401	yaw:	169.495	yaw rate:	2.099	Roll:	-4.547	Pitch:	-2.973	Yaw:	238.377	Thrust:	13.242
Time:	2.827	Roll Set Point:	-0.015	Pitch Set Point:	0.029	Yaw Set Point:	-2.958	X_WP:	0.000	Y_WP:	0.000	Y_WP:	0.500	X:	0.163	Y:	0.069	Z:	0.401	yaw:	169.495	yaw rate:	2.099	Roll:	-4.529	Pitch:	-2.984	Yaw:	238.223	Thrust:	13.440
Time:	2.843	Roll Set Point:	-0.015	Pitch Set Point:	0.029	Yaw Set Point:	-2.958	X_WP:	0.000	Y_WP:	0.000	Y_WP:	0.500	X:	0.163	Y:	0.069	Z:	0.401	yaw:	169.500	yaw rate:	1.108	Roll:	-4.558	Pitch:	-2.950	Yaw:	238.302	Thrust:	13.673
Time:	2.859	Roll Set Point:	-0.015	Pitch Set Point:	0.029	Yaw Set Point:	-2.958	X_WP:	0.000	Y_WP:	0.000	Y_WP:	0.500	X:	0.163	Y:	0.069	Z:	0.401	yaw:	169.500	yaw rate:	1.108	Roll:	-4.541	Pitch:	-2.990	Yaw:	238.229	Thrust:	13.812
Time:	2.874	Roll Set Point:	-0.015	Pitch Set Point:	0.029	Yaw Set Point:	-2.958	X_WP:	0.000	Y_WP:	0.000	Y_WP:	0.500	X:	0.163	Y:	0.069	Z:	0.401	yaw:	169.475	yaw rate:	-0.657	Roll:	-4.467	Pitch:	-3.099	Yaw:	237.789	Thrust:	13.991
Time:	2.890	Roll Set Point:	-0.015	Pitch Set Point:	0.029	Yaw Set Point:	-2.958	X_WP:	0.000	Y_WP:	0.000	Y_WP:	0.500	X:	0.163	Y:	0.069	Z:	0.401	yaw:	169.475	yaw rate:	-0.657	Roll:	-4.550	Pitch:	-3.000	Yaw:	238.192	Thrust:	14.166
Time:	2.906	Roll Set Point:	-0.015	Pitch Set Point:	0.029	Yaw Set Point:	-2.958	X_WP:	0.000	Y_WP:	0.000	Y_WP:	0.500	X:	0.163	Y:	0.069	Z:	0.401	yaw:	169.482	yaw rate:	1.453	Roll:	-4.580	Pitch:	-2.970	Yaw:	238.312	Thrust:	14.448
Time:	2.921	Roll Set Point:	-0.015	Pitch Set Point:	0.029	Yaw Set Point:	-2.958	X_WP:	0.000	Y_WP:	0.000	Y_WP:	0.500	X:	0.163	Y:	0.069	Z:	0.401	yaw:	169.493	yaw rate:	1.113	Roll:	-4.565	Pitch:	-2.942	Yaw:	238.403	Thrust:	14.475
Time:	2.937	Roll Set Point:	-0.015	Pitch Set Point:	0.029	Yaw Set Point:	-2.958	X_WP:	0.000	Y_WP:	0.000	Y_WP:	0.500	X:	0.163	Y:	0.069	Z:	0.401	yaw:	169.493	yaw rate:	1.113	Roll:	-4.568	Pitch:	-3.010	Yaw:	238.219	Thrust:	14.741
Time:	2.952	Roll Set Point:	-0.015	Pitch Set Point:	0.029	Yaw Set Point:	-2.958	X_WP:	0.000	Y_WP:	0.000	Y_WP:	0.500	X:	0.163	Y:	0.069	Z:	0.401	yaw:	169.488	yaw rate:	0.619	Roll:	-4.554	Pitch:	-3.090	Yaw:	238.125	Thrust:	14.917
Time:	2.968	Roll Set Point:	-0.015	Pitch Set Point:	0.029	Yaw Set Point:	-2.958	X_WP:	0.000	Y_WP:	0.000	Y_WP:	0.500	X:	0.163	Y:	0.069	Z:	0.401	yaw:	169.491	yaw rate:	0.355	Roll:	-4.634	Pitch:	-2.979	Yaw:	238.276	Thrust:	15.164
Time:	2.984	Roll Set Point:	-0.015	Pitch Set Point:	0.029	Yaw Set Point:	-2.958	X_WP:	0.000	Y_WP:	0.000	Y_WP:	0.500	X:	0.163	Y:	0.069	Z:	0.401	yaw:	169.483	yaw rate:	-0.804	Roll:	-4.549	Pitch:	-3.055	Yaw:	238.071	Thrust:	15.288
Time:	2.999	Roll Set Point:	-0.015	Pitch Set Point:	0.029	Yaw Set Point:	-2.958	X_WP:	0.000	Y_WP:	0.000	Y_WP:	0.500	X:	0.163	Y:	0.069	Z:	0.401	yaw:	169.502	yaw rate:	1.887	Roll:	-4.607	Pitch:	-2.956	Yaw:	238.548	Thrust:	15.459
Time:	3.015	Roll Set Point:	-0.015	Pitch Set Point:	0.029	Yaw Set Point:	-2.958	X_WP:	0.000	Y_WP:	0.000	Y_WP:	0.500	X:	0.163	Y:	0.069	Z:	0.401	yaw:	169.502	yaw rate:	1.887	Roll:	-4.597	Pitch:	-3.029	Yaw:	238.232	Thrust:	15.670
Time:	3.031	Roll Set Point:	-0.015	Pitch Set Point:	0.029	Yaw Set Point:	-2.958	X_WP:	0.000	Y_WP:	0.000	Y_WP:	0.500	X:	0.163	Y:	0.069	Z:	0.401	yaw:	169.498	yaw rate:	-0.347	Roll:	-4.621	Pitch:	-3.064	Yaw:	238.169	Thrust:	15.936
Time:	3.046	Roll Set Point:	-0.015	Pitch Set Point:	0.029	Yaw Set Point:	-2.958	X_WP:	0.000	Y_WP:	0.000	Y_WP:	0.500	X:	0.163	Y:	0.069	Z:	0.401	yaw:	169.485	yaw rate:	0.050	Roll:	-4.558	Pitch:	-3.089	Yaw:	237.990	Thrust:	15.999
Time:	3.062	Roll Set Point:	-0.015	Pitch Set Point:	0.029	Yaw Set Point:	-2.958	X_WP:	0.000	Y_WP:	0.000	Y_WP:	0.500	X:	0.163	Y:	0.069	Z:	0.401	yaw:	169.475	yaw rate:	-1.082	Roll:	-4.586	Pitch:	-3.056	Yaw:	238.013	Thrust:	16.241
Time:	3.078	Roll Set Point:	-0.015	Pitch Set Point:	0.029	Yaw Set Point:	-2.958	X_WP:	0.000	Y_WP:	0.000	Y_WP:	0.500	X:	0.163	Y:	0.069	Z:	0.401	yaw:	169.487	yaw rate:	1.230	Roll:	-4.697	Pitch:	-3.004	Yaw:	238.417	Thrust:	16.294
Time:	3.093	Roll Set Point:	-0.015	Pitch Set Point:	0.029	Yaw Set Point:	-2.958	X_WP:	0.000	Y_WP:	0.000	Y_WP:	0.500	X:	0.163	Y:	0.069	Z:	0.401	yaw:	169.487	yaw rate:	1.230	Roll:	-4.627	Pitch:	-3.050	Yaw:	238.215	Thrust:	16.625
Time:	3.109	Roll Set Point:	-0.015	Pitch Set Point:	0.029	Yaw Set Point:	-2.958	X_WP:	0.000	Y_WP:	0.000	Y_WP:	0.500	X:	0.163	Y:	0.069	Z:	0.401	yaw:	169.471	yaw rate:	-1.796	Roll:	-4.603	Pitch:	-3.106	Yaw:	237.921	Thrust:	16.797
Time:	3.124	Roll Set Point:	-0.015	Pitch Set Point:	0.029	Yaw Set Point:	-2.958	X_WP:	0.000	Y_WP:	0.000	Y_WP:	0.500	X:	0.163	Y:	0.069	Z:	0.401	yaw:	169.471	yaw rate:	-1.796	Roll:	-4.636	Pitch:	-3.057	Yaw:	238.184	Thrust:	16.939
Time:	3.140	Roll Set Point:	-0.015	Pitch Set Point:	0.029	Yaw Set Point:	-2.958	X_WP:	0.000	Y_WP:	0.000	Y_WP:	0.500	X:	0.163	Y:	0.069	Z:	0.401	yaw:	169.489	yaw rate:	-0.023	Roll:	-4.678	Pitch:	-2.983	Yaw:	238.515	Thrust:	17.250
Time:	3.156	Roll Set Point:	-0.015	Pitch Set Point:	0.029	Yaw Set Point:	-2.958	X_WP:	0.000	Y_WP:	0.000	Y_WP:	0.500	X:	0.163	Y:	0.069	Z:	0.401	yaw:	169.484	yaw rate:	-0.488	Roll:	-4.623	Pitch:	-3.081	Yaw:	238.127	Thrust:	17.405
Time:	3.171	Roll Set Point:	-0.015	Pitch Set Point:	0.029	Yaw Set Point:	-2.958	X_WP:	0.000	Y_WP:	0.000	Y_WP:	0.500	X:	0.163	Y:	0.069	Z:	0.401	yaw:	169.484	yaw rate:	-0.488	Roll:	-4.655	Pitch:	-3.068	Yaw:	238.207	Thrust:	17.528
Time:	3.187	Roll Set Point:	-0.015	Pitch Set Point:	0.029	Yaw Set Point:	-2.958	X_WP:	0.000	Y_WP:	0.000	Y_WP:	0.500	X:	0.163	Y:	0.069	Z:	0.401	yaw:	169.500	yaw rate:	0.652	Roll:	-4.675	Pitch:	-3.048	Yaw:	238.495	Thrust:	17.622
Time:	3.203	Roll Set Point:	-0.015	Pitch Set Point:	0.029	Yaw Set Point:	-2.958	X_WP:	0.000	Y_WP:	0.000	Y_WP:	0.500	X:	0.163	Y:	0.069	Z:	0.401	yaw:	169.495	yaw rate:	-0.466	Roll:	-4.653	Pitch:	-3.082	Yaw:	238.144	Thrust:	17.849
Time:	3.218	Roll Set Point:	-0.015	Pitch Set Point:	0.029	Yaw Set Point:	-2.958	X_WP:	0.000	Y_WP:	0.000	Y_WP:	0.500	X:	0.163	Y:	0.069	Z:	0.401	yaw:	169.490	yaw rate:	-0.511	Roll:	-4.681	Pitch:	-3.105	Yaw:	238.130	Thrust:	18.170
Time:	3.234	Roll Set Point:	-0.015	Pitch Set Point:	0.029	Yaw Set Point:	-2.958	X_WP:	0.000	Y_WP:	0.000	Y_WP:	0.500	X:	0.163	Y:	0.069	Z:	0.401	yaw:	169.480	yaw rate:	-1.003	Roll:	-4.667	Pitch:	-3.115	Yaw:	238.033	Thrust:	18.351
Time:	3.249	Roll Set Point:	-0.015	Pitch Set Point:	0.029	Yaw Set Point:	-2.958	X_WP:	0.000	Y_WP:	0.000	Y_WP:	0.500	X:	0.163	Y:	0.069	Z:	0.401	yaw:	169.484	yaw rate:	0.386	Roll:	-4.669	Pitch:	-3.065	Yaw:	238.272	Thrust:	18.314
Time:	3.265	Roll Set Point:	-0.015	Pitch Set Point:	0.029	Yaw Set Point:	-2.958	X_WP:	0.000	Y_WP:	0.000	Y_WP:	0.500	X:	0.163	Y:	0.069	Z:	0.401	yaw:	169.481	yaw rate:	-0.330	Roll:	-4.686	Pitch:	-3.092	Yaw:	238.147	Thrust:	18.616
Time:	3.281	Roll Set Point:	-0.015	Pitch Set Point:	0.029	Yaw Set Point:	-2.958	X_WP:	0.000	Y_WP:	0.000	Y_WP:	0.500	X:	0.163	Y:	0.069	Z:	0.401	yaw:	169.481	yaw rate:	-0.330	Roll:	-4.695	Pitch:	-3.095	Yaw:	238.202	Thrust:	18.828
Time:	3.296	Roll Set Point:	-0.015	Pitch Set Point:	0.029	Yaw Set Point:	-2.958	X_WP:	0.000	Y_WP:	0.000	Y_WP:	0.500	X:	0.163	Y:	0.069	Z:	0.401	yaw:	169.500	yaw rate:	1.938	Roll:	-4.750	Pitch:	-3.060	Yaw:	238.554	Thrust:	19.101
Time:	3.312	Roll Set Point:	-0.015	Pitch Set Point:	0.029	Yaw Set Point:	-2.958	X_WP:	0.000	Y_WP:	0.000	Y_WP:	0.500	X:	0.163	Y:	0.069	Z:	0.401	yaw:	169.473	yaw rate:	-1.788	Roll:	-4.673	Pitch:	-3.170	Yaw:	237.748	Thrust:	19.185
Time:	3.328	Roll Set Point:	-0.015	Pitch Set Point:	0.029	Yaw Set Point:	-2.958	X_WP:	0.000	Y_WP:	0.000	Y_WP:	0.500	X:	0.163	Y:	0.069	Z:	0.401	yaw:	169.466	yaw rate:	-0.688	Roll:	-4.662	Pitch:	-3.142	Yaw:	238.064	Thrust:	19.451
Time:	3.343	Roll Set Point:	-0.015	Pitch Set Point:	0.029	Yaw Set Point:	-2.958	X_WP:	0.000	Y_WP:	0.000	Y_WP:	0.500	X:	0.163	Y:	0.069	Z:	0.401	yaw:	169.477	yaw rate:	1.017	Roll:	-4.727	Pitch:	-3.066	Yaw:	238.370	Thrust:	19.417
Time:	3.359	Roll Set Point:	-0.015	Pitch Set Point:	0.029	Yaw Set Point:	-2.958	X_WP:	0.000	Y_WP:	0.000	Y_WP:	0.500	X:	0.163	Y:	0.069	Z:	0.401	yaw:	169.483	yaw rate:	0.635	Roll:	-4.751	Pitch:	-3.100	Yaw:	238.311	Thrust:	19.936
Time:	3.374	Roll Set Point:	-0.015	Pitch Set Point:	0.029	Yaw Set Point:	-2.958	X_WP:	0.000	Y_WP:	0.000	Y_WP:	0.500	X:	0.163	Y:	0.069	Z:	0.401	yaw:	169.481	yaw rate:	-0.148	Roll:	-4.742	Pitch:	-3.115	Yaw:	238.177	Thrust:	19.825
Time:	3.390	Roll Set Point:	-0.015	Pitch Set Point:	0.029	Yaw Set Point:	-2.958	X_WP:	0.000	Y_WP:	0.000	Y_WP:	0.500	X:	0.163	Y:	0.069	Z:	0.401	yaw:	169.481	yaw rate:	-0.148	Roll:	-4.736	Pitch:	-3.121	Yaw:	238.203	Thrust:	20.129
Time:	3.406	Roll Set Point:	-0.015	Pitch Set Point:	0.029	Yaw Set Point:	-2.958	X_WP:	0.000	Y_WP:	0.000	Y_WP:	0.500	X:	0.163	Y:	0.069	Z:	0.401	yaw:	169.468	yaw rate:	-2.503	Roll:	-4.728	Pitch:	-3.172	Yaw:	237.952	Thrust:	20.433
Time:	3.421	Roll Set Point:	-0.015	Pitch Set Point:	0.029	Yaw Set Point:	-2.958	X_WP:	0.000	Y_WP:	0.000	Y_WP:	0.500	X:	0.163	Y:	0.069	Z:	0.401	yaw:	169.477	yaw rate:	0.985	Roll:	-4.716	Pitch:	-3.080	Yaw:	238.363	Thrust:	20.412
Time:	3.437	Roll Set Point:	-0.015	Pitch Set Point:	0.029	Yaw Set Point:	-2.958	X_WP:	0.000	Y_WP:	0.000	Y_WP:	0.500	X:	0.163	Y:	0.069	Z:	0.401	yaw:	169.497	yaw rate:	1.981	Roll:	-4.812	Pitch:	-3.078	Yaw:	238.558	Thrust:	20.689
Time:	3.453	Roll Set Point:	-0.015	Pitch Set Point:	0.029	Yaw Set Point:	-2.958	X_WP:	0.000	Y_WP:	0.000	Y_WP:	0.500	X:	0.163	Y:	0.069	Z:	0.401	yaw:	169.499	yaw rate:	0.132	Roll:	-4.772	Pitch:	-3.162	Yaw:	238.249	Thrust:	20.832
Time:	3.468	Roll Set Point:	-0.015	Pitch Set Point:	0.029	Yaw Set Point:	-2.958	X_WP:	0.000	Y_WP:	0.000	Y_WP:	0.500	X:	0.163	Y:	0.069	Z:	0.401	yaw:	169.498	yaw rate:	-0.107	Roll:	-4.737	Pitch:	-3.137	Yaw:	238.208	Thrust:	21.158
Time:	3.484	Roll Set Point:	-0.015	Pitch Set Point:	0.029	Yaw Set Point:	-2.958	X_WP:	0.000	Y_WP:	0.000	Y_WP:	0.500	X:	0.163	Y:	0.069	Z:	0.401	yaw:	169.484	yaw rate:	-1.343	Roll:	-4.771	Pitch:	-3.147	Yaw:	237.982	Thrust:	21.261
Time:	3.499	Roll Set Point:	-0.015	Pitch Set Point:	0.029	Yaw Set Point:	-2.958	X_WP:	0.000	Y_WP:	0.000	Y_WP:	0.500	X:	0.163	Y:	0.069	Z:	0.401	yaw:	169.495	yaw rate:	1.063	Roll:	-4.813	Pitch:	-3.126	Yaw:	238.400	Thrust:	21.475
Time:	3.515	Roll Set Point:	-0.015	Pitch Set Point:	0.028	Yaw Set Point:	-2.959	X_WP:	0.000	Y_WP:	0.000	Y_WP:	0.500	X:	0.163	Y:	0.069	Z:	0.401	yaw:	169.519	yaw rate:	2.472	Roll:	-4.827	Pitch:	-3.086	Yaw:	238.671	Thrust:	21.375
Time:	3.531	Roll Set Point:	-0.015	Pitch Set Point:	0.029	Yaw Set Point:	-2.958	X_WP:	0.000	Y_WP:	0.000	Y_WP:	0.500	X:	0.163	Y:	0.069	Z:	0.401	yaw:	169.485	yaw rate:	-3.436	Roll:	-4.701	Pitch:	-3.245	Yaw:	237.633	Thrust:	21.924
Time:	3.546	Roll Set Point:	-0.015	Pitch Set Point:	0.029	Yaw Set Point:	-2.958	X_WP:	0.000	Y_WP:	0.000	Y_WP:	0.500	X:	0.163	Y:	0.069	Z:	0.401	yaw:	169.487	yaw rate:	0.165	Roll:	-4.816	Pitch:	-3.157	Yaw:	238.238	Thrust:	22.047
Time:	3.562	Roll Set Point:	-0.015	Pitch Set Point:	0.029	Yaw Set Point:	-2.958	X_WP:	0.000	Y_WP:	0.000	Y_WP:	0.500	X:	0.163	Y:	0.069	Z:	0.401	yaw:	169.487	yaw rate:	0.165	Roll:	-4.799	Pitch:	-3.163	Yaw:	238.211	Thrust:	22.175
Time:	3.594	Roll Set Point:	-0.015	Pitch Set Point:	0.029	Yaw Set Point:	-2.958	X_WP:	0.000	Y_WP:	0.000	Y_WP:	0.500	X:	0.163	Y:	0.069	Z:	0.401	yaw:	169.479	yaw rate:	-0.231	Roll:	-5.329	Pitch:	-3.539	Yaw:	239.735	Thrust:	39.663
Time:	3.609	Roll Set Point:	-0.015	Pitch Set Point:	0.029	Yaw Set Point:	-2.958	X_WP:	0.000	Y_WP:	0.000	Y_WP:	0.500	X:	0.163	Y:	0.069	Z:	0.401	yaw:	169.479	yaw rate:	-0.231	Roll:	-4.810	Pitch:	-3.171	Yaw:	238.199	Thrust:	22.538
Time:	3.625	Roll Set Point:	-0.015	Pitch Set Point:	0.029	Yaw Set Point:	-2.958	X_WP:	0.000	Y_WP:	0.000	Y_WP:	0.500	X:	0.163	Y:	0.069	Z:	0.401	yaw:	169.473	yaw rate:	-1.126	Roll:	-4.828	Pitch:	-3.194	Yaw:	238.090	Thrust:	22.774
Time:	3.640	Roll Set Point:	-0.015	Pitch Set Point:	0.029	Yaw Set Point:	-2.958	X_WP:	0.000	Y_WP:	0.000	Y_WP:	0.500	X:	0.163	Y:	0.069	Z:	0.401	yaw:	169.498	yaw rate:	2.545	Roll:	-4.823	Pitch:	-3.097	Yaw:	238.653	Thrust:	23.008
Time:	3.656	Roll Set Point:	-0.015	Pitch Set Point:	0.029	Yaw Set Point:	-2.958	X_WP:	0.000	Y_WP:	0.000	Y_WP:	0.500	X:	0.163	Y:	0.069	Z:	0.401	yaw:	169.470	yaw rate:	-2.788	Roll:	-4.773	Pitch:	-3.279	Yaw:	237.720	Thrust:	22.857
Time:	3.672	Roll Set Point:	-0.015	Pitch Set Point:	0.029	Yaw Set Point:	-2.958	X_WP:	0.000	Y_WP:	0.000	Y_WP:	0.500	X:	0.163	Y:	0.069	Z:	0.401	yaw:	169.470	yaw rate:	-2.788	Roll:	-4.832	Pitch:	-3.187	Yaw:	238.188	Thrust:	23.286
Time:	3.687	Roll Set Point:	-0.015	Pitch Set Point:	0.029	Yaw Set Point:	-2.958	X_WP:	0.000	Y_WP:	0.000	Y_WP:	0.500	X:	0.163	Y:	0.069	Z:	0.401	yaw:	169.489	yaw rate:	2.231	Roll:	-4.914	Pitch:	-3.098	Yaw:	238.534	Thrust:	23.649
Time:	3.703	Roll Set Point:	-0.015	Pitch Set Point:	0.029	Yaw Set Point:	-2.958	X_WP:	0.000	Y_WP:	0.000	Y_WP:	0.500	X:	0.163	Y:	0.069	Z:	0.401	yaw:	169.473	yaw rate:	-1.656	Roll:	-4.778	Pitch:	-3.254	Yaw:	237.914	Thrust:	23.582
Time:	3.719	Roll Set Point:	-0.015	Pitch Set Point:	0.029	Yaw Set Point:	-2.958	X_WP:	0.000	Y_WP:	0.000	Y_WP:	0.500	X:	0.163	Y:	0.069	Z:	0.401	yaw:	169.473	yaw rate:	-1.656	Roll:	-4.850	Pitch:	-3.198	Yaw:	238.192	Thrust:	23.851
Time:	3.734	Roll Set Point:	-0.015	Pitch Set Point:	0.029	Yaw Set Point:	-2.958	X_WP:	0.000	Y_WP:	0.000	Y_WP:	0.500	X:	0.163	Y:	0.069	Z:	0.401	yaw:	169.466	yaw rate:	-3.533	Roll:	-4.828	Pitch:	-3.269	Yaw:	238.072	Thrust:	24.101
Time:	3.750	Roll Set Point:	-0.015	Pitch Set Point:	0.029	Yaw Set Point:	-2.958	X_WP:	0.000	Y_WP:	0.000	Y_WP:	0.500	X:	0.163	Y:	0.069	Z:	0.401	yaw:	169.466	yaw rate:	-3.533	Roll:	-4.860	Pitch:	-3.207	Yaw:	238.181	Thrust:	24.212
Time:	3.765	Roll Set Point:	-0.015	Pitch Set Point:	0.029	Yaw Set Point:	-2.958	X_WP:	0.000	Y_WP:	0.000	Y_WP:	0.500	X:	0.163	Y:	0.069	Z:	0.401	yaw:	169.501	yaw rate:	0.387	Roll:	-4.991	Pitch:	-3.070	Yaw:	238.821	Thrust:	24.438
Time:	3.781	Roll Set Point:	-0.015	Pitch Set Point:	0.029	Yaw Set Point:	-2.958	X_WP:	0.000	Y_WP:	0.000	Y_WP:	0.500	X:	0.163	Y:	0.069	Z:	0.401	yaw:	169.494	yaw rate:	-0.715	Roll:	-4.807	Pitch:	-3.236	Yaw:	238.101	Thrust:	24.433
Time:	3.797	Roll Set Point:	-0.015	Pitch Set Point:	0.029	Yaw Set Point:	-2.958	X_WP:	0.000	Y_WP:	0.000	Y_WP:	0.500	X:	0.163	Y:	0.069	Z:	0.401	yaw:	169.486	yaw rate:	-0.814	Roll:	-4.847	Pitch:	-3.273	Yaw:	238.074	Thrust:	24.893
Time:	3.812	Roll Set Point:	-0.015	Pitch Set Point:	0.029	Yaw Set Point:	-2.958	X_WP:	0.000	Y_WP:	0.000	Y_WP:	0.500	X:	0.163	Y:	0.069	Z:	0.401	yaw:	169.486	yaw rate:	-0.035	Roll:	-4.883	Pitch:	-3.200	Yaw:	238.203	Thrust:	25.002
Time:	3.828	Roll Set Point:	-0.015	Pitch Set Point:	0.029	Yaw Set Point:	-2.958	X_WP:	0.000	Y_WP:	0.000	Y_WP:	0.500	X:	0.163	Y:	0.069	Z:	0.401	yaw:	169.500	yaw rate:	1.429	Roll:	-4.906	Pitch:	-3.142	Yaw:	238.469	Thrust:	25.079
Time:	3.844	Roll Set Point:	-0.015	Pitch Set Point:	0.029	Yaw Set Point:	-2.958	X_WP:	0.000	Y_WP:	0.000	Y_WP:	0.500	X:	0.163	Y:	0.069	Z:	0.401	yaw:	169.475	yaw rate:	-2.491	Roll:	-4.776	Pitch:	-3.333	Yaw:	237.777	Thrust:	25.334
Time:	3.859	Roll Set Point:	-0.015	Pitch Set Point:	0.029	Yaw Set Point:	-2.958	X_WP:	0.000	Y_WP:	0.000	Y_WP:	0.500	X:	0.163	Y:	0.069	Z:	0.401	yaw:	169.475	yaw rate:	-2.491	Roll:	-4.865	Pitch:	-3.232	Yaw:	238.194	Thrust:	25.519
Time:	3.875	Roll Set Point:	-0.015	Pitch Set Point:	0.029	Yaw Set Point:	-2.958	X_WP:	0.000	Y_WP:	0.000	Y_WP:	0.500	X:	0.163	Y:	0.069	Z:	0.401	yaw:	169.470	yaw rate:	-0.396	Roll:	-4.880	Pitch:	-3.256	Yaw:	238.112	Thrust:	25.746
Time:	3.890	Roll Set Point:	-0.015	Pitch Set Point:	0.029	Yaw Set Point:	-2.958	X_WP:	0.000	Y_WP:	0.000	Y_WP:	0.500	X:	0.163	Y:	0.069	Z:	0.401	yaw:	169.470	yaw rate:	-0.396	Roll:	-4.865	Pitch:	-3.240	Yaw:	238.188	Thrust:	25.891
Time:	3.906	Roll Set Point:	-0.015	Pitch Set Point:	0.029	Yaw Set Point:	-2.958	X_WP:	0.000	Y_WP:	0.000	Y_WP:	0.500	X:	0.163	Y:	0.069	Z:	0.401	yaw:	169.485	yaw rate:	1.418	Roll:	-4.922	Pitch:	-3.156	Yaw:	238.446	Thrust:	26.044
Time:	3.922	Roll Set Point:	-0.015	Pitch Set Point:	0.029	Yaw Set Point:	-2.958	X_WP:	0.000	Y_WP:	0.000	Y_WP:	0.500	X:	0.163	Y:	0.069	Z:	0.401	yaw:	169.466	yaw rate:	-3.131	Roll:	-4.797	Pitch:	-3.358	Yaw:	237.871	Thrust:	26.195
Time:	3.937	Roll Set Point:	-0.015	Pitch Set Point:	0.029	Yaw Set Point:	-2.958	X_WP:	0.000	Y_WP:	0.000	Y_WP:	0.500	X:	0.163	Y:	0.069	Z:	0.401	yaw:	169.493	yaw rate:	2.689	Roll:	-4.930	Pitch:	-3.142	Yaw:	238.670	Thrust:	26.534
Time:	3.953	Roll Set Point:	-0.015	Pitch Set Point:	0.029	Yaw Set Point:	-2.958	X_WP:	0.000	Y_WP:	0.000	Y_WP:	0.500	X:	0.163	Y:	0.069	Z:	0.401	yaw:	169.483	yaw rate:	-1.022	Roll:	-4.856	Pitch:	-3.275	Yaw:	238.034	Thrust:	26.636
Time:	3.969	Roll Set Point:	-0.015	Pitch Set Point:	0.029	Yaw Set Point:	-2.958	X_WP:	0.000	Y_WP:	0.000	Y_WP:	0.500	X:	0.163	Y:	0.069	Z:	0.401	yaw:	169.478	yaw rate:	-0.440	Roll:	-4.846	Pitch:	-3.290	Yaw:	238.125	Thrust:	26.747
Time:	3.984	Roll Set Point:	-0.015	Pitch Set Point:	0.029	Yaw Set Point:	-2.958	X_WP:	0.000	Y_WP:	0.000	Y_WP:	0.500	X:	0.163	Y:	0.069	Z:	0.401	yaw:	169.478	yaw rate:	-0.440	Roll:	-4.866	Pitch:	-3.262	Yaw:	238.199	Thrust:	27.004
Time:	4.000	Roll Set Point:	-0.015	Pitch Set Point:	0.029	Yaw Set Point:	-2.958	X_WP:	0.000	Y_WP:	0.000	Y_WP:	0.500	X:	0.163	Y:	0.069	Z:	0.401	yaw:	169.492	yaw rate:	0.211	Roll:	-4.903	Pitch:	-3.224	Yaw:	238.445	Thrust:	27.203
Time:	4.015	Roll Set Point:	-0.015	Pitch Set Point:	0.029	Yaw Set Point:	-2.958	X_WP:	0.000	Y_WP:	0.000	Y_WP:	0.500	X:	0.163	Y:	0.069	Z:	0.401	yaw:	169.492	yaw rate:	0.211	Roll:	-4.867	Pitch:	-3.269	Yaw:	238.218	Thrust:	27.378
Time:	4.031	Roll Set Point:	-0.015	Pitch Set Point:	0.029	Yaw Set Point:	-2.958	X_WP:	0.000	Y_WP:	0.000	Y_WP:	0.500	X:	0.163	Y:	0.069	Z:	0.401	yaw:	169.489	yaw rate:	-0.343	Roll:	-4.820	Pitch:	-3.247	Yaw:	238.156	Thrust:	27.558
Time:	4.047	Roll Set Point:	-0.015	Pitch Set Point:	0.029	Yaw Set Point:	-2.958	X_WP:	0.000	Y_WP:	0.000	Y_WP:	0.500	X:	0.163	Y:	0.069	Z:	0.401	yaw:	169.468	yaw rate:	-3.569	Roll:	-4.821	Pitch:	-3.411	Yaw:	237.849	Thrust:	27.724
Time:	4.062	Roll Set Point:	-0.015	Pitch Set Point:	0.029	Yaw Set Point:	-2.958	X_WP:	0.000	Y_WP:	0.000	Y_WP:	0.500	X:	0.163	Y:	0.069	Z:	0.401	yaw:	169.469	yaw rate:	0.101	Roll:	-4.913	Pitch:	-3.235	Yaw:	238.203	Thrust:	27.979
Time:	4.078	Roll Set Point:	-0.015	Pitch Set Point:	0.029	Yaw Set Point:	-2.958	X_WP:	0.000	Y_WP:	0.000	Y_WP:	0.500	X:	0.163	Y:	0.069	Z:	0.401	yaw:	169.481	yaw rate:	1.195	Roll:	-4.880	Pitch:	-3.234	Yaw:	238.404	Thrust:	28.202
Time:	4.094	Roll Set Point:	-0.015	Pitch Set Point:	0.029	Yaw Set Point:	-2.958	X_WP:	0.000	Y_WP:	0.000	Y_WP:	0.500	X:	0.163	Y:	0.069	Z:	0.401	yaw:	169.481	yaw rate:	1.195	Roll:	-4.866	Pitch:	-3.288	Yaw:	238.204	Thrust:	28.322
Time:	4.109	Roll Set Point:	-0.015	Pitch Set Point:	0.029	Yaw Set Point:	-2.958	X_WP:	0.000	Y_WP:	0.000	Y_WP:	0.500	X:	0.163	Y:	0.069	Z:	0.401	yaw:	169.489	yaw rate:	0.748	Roll:	-4.893	Pitch:	-3.316	Yaw:	238.335	Thrust:	28.334
Time:	4.125	Roll Set Point:	-0.015	Pitch Set Point:	0.029	Yaw Set Point:	-2.958	X_WP:	0.000	Y_WP:	0.000	Y_WP:	0.500	X:	0.163	Y:	0.069	Z:	0.401	yaw:	169.466	yaw rate:	-2.272	Roll:	-4.798	Pitch:	-3.342	Yaw:	237.801	Thrust:	28.796
Time:	4.141	Roll Set Point:	-0.015	Pitch Set Point:	0.029	Yaw Set Point:	-2.958	X_WP:	0.000	Y_WP:	0.000	Y_WP:	0.500	X:	0.163	Y:	0.069	Z:	0.401	yaw:	169.493	yaw rate:	2.752	Roll:	-4.910	Pitch:	-3.212	Yaw:	238.681	Thrust:	28.872
Time:	4.156	Roll Set Point:	-0.015	Pitch Set Point:	0.029	Yaw Set Point:	-2.958	X_WP:	0.000	Y_WP:	0.000	Y_WP:	0.500	X:	0.163	Y:	0.069	Z:	0.401	yaw:	169.493	yaw rate:	2.752	Roll:	-4.866	Pitch:	-3.303	Yaw:	238.220	Thrust:	29.049
Time:	4.172	Roll Set Point:	-0.015	Pitch Set Point:	0.029	Yaw Set Point:	-2.958	X_WP:	0.000	Y_WP:	0.000	Y_WP:	0.500	X:	0.163	Y:	0.069	Z:	0.401	yaw:	169.486	yaw rate:	1.010	Roll:	-4.903	Pitch:	-3.339	Yaw:	238.091	Thrust:	29.153
Time:	4.187	Roll Set Point:	-0.015	Pitch Set Point:	0.029	Yaw Set Point:	-2.958	X_WP:	0.000	Y_WP:	0.000	Y_WP:	0.500	X:	0.163	Y:	0.069	Z:	0.401	yaw:	169.486	yaw rate:	1.010	Roll:	-4.867	Pitch:	-3.311	Yaw:	238.210	Thrust:	29.422
Time:	4.203	Roll Set Point:	-0.015	Pitch Set Point:	0.029	Yaw Set Point:	-2.958	X_WP:	0.000	Y_WP:	0.000	Y_WP:	0.500	X:	0.163	Y:	0.069	Z:	0.401	yaw:	169.505	yaw rate:	2.624	Roll:	-4.851	Pitch:	-3.245	Yaw:	238.546	Thrust:	29.733
Time:	4.219	Roll Set Point:	-0.015	Pitch Set Point:	0.029	Yaw Set Point:	-2.958	X_WP:	0.000	Y_WP:	0.000	Y_WP:	0.500	X:	0.163	Y:	0.069	Z:	0.401	yaw:	169.490	yaw rate:	-1.490	Roll:	-4.857	Pitch:	-3.357	Yaw:	237.962	Thrust:	29.778
Time:	4.234	Roll Set Point:	-0.015	Pitch Set Point:	0.029	Yaw Set Point:	-2.958	X_WP:	0.000	Y_WP:	0.000	Y_WP:	0.500	X:	0.163	Y:	0.069	Z:	0.401	yaw:	169.480	yaw rate:	-1.003	Roll:	-4.860	Pitch:	-3.355	Yaw:	238.033	Thrust:	29.839
Time:	4.250	Roll Set Point:	-0.015	Pitch Set Point:	0.029	Yaw Set Point:	-2.958	X_WP:	0.000	Y_WP:	0.000	Y_WP:	0.500	X:	0.163	Y:	0.069	Z:	0.401	yaw:	169.480	yaw rate:	-1.003	Roll:	-4.866	Pitch:	-3.327	Yaw:	238.201	Thrust:	30.162
Time:	4.266	Roll Set Point:	-0.015	Pitch Set Point:	0.029	Yaw Set Point:	-2.958	X_WP:	0.000	Y_WP:	0.000	Y_WP:	0.500	X:	0.163	Y:	0.069	Z:	0.401	yaw:	169.486	yaw rate:	-0.959	Roll:	-4.846	Pitch:	-3.309	Yaw:	238.315	Thrust:	30.455
Time:	4.281	Roll Set Point:	-0.015	Pitch Set Point:	0.029	Yaw Set Point:	-2.958	X_WP:	0.000	Y_WP:	0.000	Y_WP:	0.500	X:	0.163	Y:	0.069	Z:	0.401	yaw:	169.486	yaw rate:	-0.959	Roll:	-4.866	Pitch:	-3.334	Yaw:	238.210	Thrust:	30.537
Time:	4.297	Roll Set Point:	-0.015	Pitch Set Point:	0.029	Yaw Set Point:	-2.958	X_WP:	0.000	Y_WP:	0.000	Y_WP:	0.500	X:	0.163	Y:	0.069	Z:	0.401	yaw:	169.501	yaw rate:	1.541	Roll:	-4.923	Pitch:	-3.267	Yaw:	238.492	Thrust:	30.629
Time:	4.312	Roll Set Point:	-0.015	Pitch Set Point:	0.029	Yaw Set Point:	-2.958	X_WP:	0.000	Y_WP:	0.000	Y_WP:	0.500	X:	0.163	Y:	0.069	Z:	0.401	yaw:	169.461	yaw rate:	-2.245	Roll:	-4.767	Pitch:	-3.503	Yaw:	237.499	Thrust:	30.961
Time:	4.328	Roll Set Point:	-0.015	Pitch Set Point:	0.029	Yaw Set Point:	-2.958	X_WP:	0.000	Y_WP:	0.000	Y_WP:	0.500	X:	0.163	Y:	0.069	Z:	0.401	yaw:	169.495	yaw rate:	3.370	Roll:	-4.897	Pitch:	-3.234	Yaw:	238.787	Thrust:	31.114
Time:	4.344	Roll Set Point:	-0.015	Pitch Set Point:	0.029	Yaw Set Point:	-2.958	X_WP:	0.000	Y_WP:	0.000	Y_WP:	0.500	X:	0.163	Y:	0.069	Z:	0.401	yaw:	169.488	yaw rate:	-0.735	Roll:	-4.936	Pitch:	-3.343	Yaw:	238.092	Thrust:	31.296
Time:	4.359	Roll Set Point:	-0.015	Pitch Set Point:	0.029	Yaw Set Point:	-2.958	X_WP:	0.000	Y_WP:	0.000	Y_WP:	0.500	X:	0.163	Y:	0.069	Z:	0.401	yaw:	169.488	yaw rate:	-0.735	Roll:	-4.867	Pitch:	-3.352	Yaw:	238.212	Thrust:	31.462
Time:	4.375	Roll Set Point:	-0.015	Pitch Set Point:	0.029	Yaw Set Point:	-2.958	X_WP:	0.000	Y_WP:	0.000	Y_WP:	0.500	X:	0.163	Y:	0.069	Z:	0.401	yaw:	169.476	yaw rate:	-0.811	Roll:	-4.780	Pitch:	-3.486	Yaw:	237.992	Thrust:	31.619
Time:	4.391	Roll Set Point:	-0.015	Pitch Set Point:	0.029	Yaw Set Point:	-2.958	X_WP:	0.000	Y_WP:	0.000	Y_WP:	0.500	X:	0.163	Y:	0.069	Z:	0.401	yaw:	169.476	yaw rate:	-0.811	Roll:	-4.866	Pitch:	-3.364	Yaw:	238.198	Thrust:	31.888
Time:	4.406	Roll Set Point:	-0.015	Pitch Set Point:	0.029	Yaw Set Point:	-2.958	X_WP:	0.000	Y_WP:	0.000	Y_WP:	0.500	X:	0.163	Y:	0.069	Z:	0.401	yaw:	169.497	yaw rate:	2.176	Roll:	-4.930	Pitch:	-3.195	Yaw:	238.588	Thrust:	32.130
Time:	4.422	Roll Set Point:	-0.015	Pitch Set Point:	0.029	Yaw Set Point:	-2.958	X_WP:	0.000	Y_WP:	0.000	Y_WP:	0.500	X:	0.163	Y:	0.069	Z:	0.401	yaw:	169.469	yaw rate:	-2.636	Roll:	-4.817	Pitch:	-3.542	Yaw:	237.703	Thrust:	32.051
Time:	4.437	Roll Set Point:	-0.015	Pitch Set Point:	0.029	Yaw Set Point:	-2.958	X_WP:	0.000	Y_WP:	0.000	Y_WP:	0.500	X:	0.163	Y:	0.069	Z:	0.401	yaw:	169.455	yaw rate:	-1.349	Roll:	-4.820	Pitch:	-3.409	Yaw:	237.941	Thrust:	32.377
Time:	4.453	Roll Set Point:	-0.015	Pitch Set Point:	0.029	Yaw Set Point:	-2.958	X_WP:	0.000	Y_WP:	0.000	Y_WP:	0.500	X:	0.163	Y:	0.069	Z:	0.401	yaw:	169.467	yaw rate:	1.163	Roll:	-4.890	Pitch:	-3.307	Yaw:	238.378	Thrust:	32.578
Time:	4.469	Roll Set Point:	-0.015	Pitch Set Point:	0.029	Yaw Set Point:	-2.958	X_WP:	0.000	Y_WP:	0.000	Y_WP:	0.500	X:	0.163	Y:	0.069	Z:	0.401	yaw:	169.488	yaw rate:	2.123	Roll:	-4.922	Pitch:	-3.256	Yaw:	238.568	Thrust:	32.795
Time:	4.484	Roll Set Point:	-0.015	Pitch Set Point:	0.029	Yaw Set Point:	-2.958	X_WP:	0.000	Y_WP:	0.000	Y_WP:	0.500	X:	0.163	Y:	0.069	Z:	0.401	yaw:	169.487	yaw rate:	-0.093	Roll:	-4.858	Pitch:	-3.471	Yaw:	238.196	Thrust:	32.967
Time:	4.500	Roll Set Point:	-0.015	Pitch Set Point:	0.029	Yaw Set Point:	-2.958	X_WP:	0.000	Y_WP:	0.000	Y_WP:	0.500	X:	0.163	Y:	0.069	Z:	0.401	yaw:	169.487	yaw rate:	-0.093	Roll:	-4.866	Pitch:	-3.388	Yaw:	238.211	Thrust:	33.137
Time:	4.516	Roll Set Point:	-0.015	Pitch Set Point:	0.029	Yaw Set Point:	-2.958	X_WP:	0.000	Y_WP:	0.000	Y_WP:	0.500	X:	0.163	Y:	0.069	Z:	0.401	yaw:	169.501	yaw rate:	1.158	Roll:	-4.902	Pitch:	-3.309	Yaw:	238.473	Thrust:	33.356
Time:	4.531	Roll Set Point:	-0.015	Pitch Set Point:	0.029	Yaw Set Point:	-2.958	X_WP:	0.000	Y_WP:	0.000	Y_WP:	0.500	X:	0.163	Y:	0.069	Z:	0.401	yaw:	169.482	yaw rate:	-1.982	Roll:	-4.814	Pitch:	-3.424	Yaw:	237.871	Thrust:	33.454
Time:	4.547	Roll Set Point:	-0.015	Pitch Set Point:	0.029	Yaw Set Point:	-2.958	X_WP:	0.000	Y_WP:	0.000	Y_WP:	0.500	X:	0.163	Y:	0.069	Z:	0.401	yaw:	169.473	yaw rate:	-0.858	Roll:	-4.848	Pitch:	-3.505	Yaw:	238.052	Thrust:	33.783
Time:	4.562	Roll Set Point:	-0.015	Pitch Set Point:	0.029	Yaw Set Point:	-2.958	X_WP:	0.000	Y_WP:	0.000	Y_WP:	0.500	X:	0.163	Y:	0.069	Z:	0.401	yaw:	169.492	yaw rate:	1.870	Roll:	-4.892	Pitch:	-3.327	Yaw:	238.528	Thrust:	33.785
Time:	4.593	Roll Set Point:	-0.015	Pitch Set Point:	0.029	Yaw Set Point:	-2.958	X_WP:	0.000	Y_WP:	0.000	Y_WP:	0.500	X:	0.163	Y:	0.069	Z:	0.401	yaw:	169.493	yaw rate:	0.080	Roll:	-5.439	Pitch:	-3.946	Yaw:	239.703	Thrust:	61.125
Time:	4.608	Roll Set Point:	-0.015	Pitch Set Point:	0.029	Yaw Set Point:	-2.958	X_WP:	0.000	Y_WP:	0.000	Y_WP:	0.500	X:	0.163	Y:	0.069	Z:	0.401	yaw:	169.504	yaw rate:	1.725	Roll:	-4.884	Pitch:	-3.394	Yaw:	238.436	Thrust:	34.298
Time:	4.624	Roll Set Point:	-0.015	Pitch Set Point:	0.029	Yaw Set Point:	-2.958	X_WP:	0.000	Y_WP:	0.000	Y_WP:	0.500	X:	0.163	Y:	0.069	Z:	0.401	yaw:	169.504	yaw rate:	1.725	Roll:	-4.867	Pitch:	-3.405	Yaw:	238.234	Thrust:	34.402
Time:	4.640	Roll Set Point:	-0.015	Pitch Set Point:	0.029	Yaw Set Point:	-2.958	X_WP:	0.000	Y_WP:	0.000	Y_WP:	0.500	X:	0.163	Y:	0.069	Z:	0.401	yaw:	169.493	yaw rate:	2.011	Roll:	-4.834	Pitch:	-3.415	Yaw:	238.027	Thrust:	34.594
Time:	4.655	Roll Set Point:	-0.015	Pitch Set Point:	0.029	Yaw Set Point:	-2.958	X_WP:	0.000	Y_WP:	0.000	Y_WP:	0.500	X:	0.163	Y:	0.069	Z:	0.401	yaw:	169.499	yaw rate:	0.605	Roll:	-4.861	Pitch:	-3.405	Yaw:	238.329	Thrust:	34.939
Time:	4.671	Roll Set Point:	-0.015	Pitch Set Point:	0.029	Yaw Set Point:	-2.958	X_WP:	0.000	Y_WP:	0.000	Y_WP:	0.500	X:	0.163	Y:	0.069	Z:	0.401	yaw:	169.470	yaw rate:	-2.877	Roll:	-4.803	Pitch:	-3.487	Yaw:	237.706	Thrust:	34.746
Time:	4.687	Roll Set Point:	-0.015	Pitch Set Point:	0.029	Yaw Set Point:	-2.958	X_WP:	0.000	Y_WP:	0.000	Y_WP:	0.500	X:	0.163	Y:	0.069	Z:	0.401	yaw:	169.482	yaw rate:	1.198	Roll:	-4.905	Pitch:	-3.374	Yaw:	238.405	Thrust:	35.188
Time:	4.702	Roll Set Point:	-0.015	Pitch Set Point:	0.029	Yaw Set Point:	-2.958	X_WP:	0.000	Y_WP:	0.000	Y_WP:	0.500	X:	0.163	Y:	0.069	Z:	0.401	yaw:	169.482	yaw rate:	1.198	Roll:	-4.867	Pitch:	-3.409	Yaw:	238.208	Thrust:	35.423
Time:	4.718	Roll Set Point:	-0.015	Pitch Set Point:	0.029	Yaw Set Point:	-2.958	X_WP:	0.000	Y_WP:	0.000	Y_WP:	0.500	X:	0.163	Y:	0.069	Z:	0.401	yaw:	169.493	yaw rate:	1.080	Roll:	-4.904	Pitch:	-3.365	Yaw:	238.400	Thrust:	35.716
Time:	4.733	Roll Set Point:	-0.015	Pitch Set Point:	0.029	Yaw Set Point:	-2.958	X_WP:	0.000	Y_WP:	0.000	Y_WP:	0.500	X:	0.163	Y:	0.069	Z:	0.401	yaw:	169.493	yaw rate:	1.080	Roll:	-4.866	Pitch:	-3.405	Yaw:	238.217	Thrust:	35.687
Time:	4.749	Roll Set Point:	-0.015	Pitch Set Point:	0.029	Yaw Set Point:	-2.958	X_WP:	0.000	Y_WP:	0.000	Y_WP:	0.500	X:	0.163	Y:	0.069	Z:	0.401	yaw:	169.475	yaw rate:	-1.765	Roll:	-4.841	Pitch:	-3.474	Yaw:	237.904	Thrust:	35.867
Time:	4.765	Roll Set Point:	-0.015	Pitch Set Point:	0.029	Yaw Set Point:	-2.958	X_WP:	0.000	Y_WP:	0.000	Y_WP:	0.500	X:	0.163	Y:	0.069	Z:	0.401	yaw:	169.475	yaw rate:	-1.765	Roll:	-4.865	Pitch:	-3.407	Yaw:	238.191	Thrust:	36.040
Time:	4.780	Roll Set Point:	-0.015	Pitch Set Point:	0.029	Yaw Set Point:	-2.958	X_WP:	0.000	Y_WP:	0.000	Y_WP:	0.500	X:	0.163	Y:	0.069	Z:	0.401	yaw:	169.491	yaw rate:	1.553	Roll:	-4.840	Pitch:	-3.367	Yaw:	238.476	Thrust:	36.432
Time:	4.796	Roll Set Point:	-0.015	Pitch Set Point:	0.029	Yaw Set Point:	-2.958	X_WP:	0.000	Y_WP:	0.000	Y_WP:	0.500	X:	0.163	Y:	0.069	Z:	0.401	yaw:	169.497	yaw rate:	0.567	Roll:	-4.926	Pitch:	-3.360	Yaw:	238.319	Thrust:	36.486
Time:	4.812	Roll Set Point:	-0.015	Pitch Set Point:	0.029	Yaw Set Point:	-2.958	X_WP:	0.000	Y_WP:	0.000	Y_WP:	0.500	X:	0.163	Y:	0.069	Z:	0.401	yaw:	169.482	yaw rate:	1.524	Roll:	-4.809	Pitch:	-3.477	Yaw:	237.964	Thrust:	36.525
Time:	4.827	Roll Set Point:	-0.015	Pitch Set Point:	0.029	Yaw Set Point:	-2.958	X_WP:	0.000	Y_WP:	0.000	Y_WP:	0.500	X:	0.163	Y:	0.069	Z:	0.401	yaw:	169.494	yaw rate:	1.195	Roll:	-4.903	Pitch:	-3.386	Yaw:	238.426	Thrust:	37.066
Time:	4.843	Roll Set Point:	-0.015	Pitch Set Point:	0.029	Yaw Set Point:	-2.958	X_WP:	0.000	Y_WP:	0.000	Y_WP:	0.500	X:	0.163	Y:	0.069	Z:	0.401	yaw:	169.494	yaw rate:	1.195	Roll:	-4.867	Pitch:	-3.408	Yaw:	238.224	Thrust:	37.104
Time:	4.858	Roll Set Point:	-0.015	Pitch Set Point:	0.029	Yaw Set Point:	-2.958	X_WP:	0.000	Y_WP:	0.000	Y_WP:	0.500	X:	0.163	Y:	0.069	Z:	0.401	yaw:	169.499	yaw rate:	0.487	Roll:	-4.867	Pitch:	-3.353	Yaw:	238.301	Thrust:	37.017
Time:	4.874	Roll Set Point:	-0.015	Pitch Set Point:	0.029	Yaw Set Point:	-2.958	X_WP:	0.000	Y_WP:	0.000	Y_WP:	0.500	X:	0.163	Y:	0.069	Z:	0.401	yaw:	169.499	yaw rate:	0.487	Roll:	-4.866	Pitch:	-3.406	Yaw:	238.228	Thrust:	37.414
Time:	4.890	Roll Set Point:	-0.015	Pitch Set Point:	0.029	Yaw Set Point:	-2.958	X_WP:	0.000	Y_WP:	0.000	Y_WP:	0.500	X:	0.163	Y:	0.069	Z:	0.401	yaw:	169.493	yaw rate:	2.356	Roll:	-4.858	Pitch:	-3.454	Yaw:	238.125	Thrust:	37.672
Time:	4.905	Roll Set Point:	-0.015	Pitch Set Point:	0.029	Yaw Set Point:	-2.958	X_WP:	0.000	Y_WP:	0.000	Y_WP:	0.500	X:	0.163	Y:	0.069	Z:	0.401	yaw:	169.482	yaw rate:	-1.092	Roll:	-4.846	Pitch:	-3.390	Yaw:	238.022	Thrust:	37.727
Time:	4.921	Roll Set Point:	-0.015	Pitch Set Point:	0.029	Yaw Set Point:	-2.958	X_WP:	0.000	Y_WP:	0.000	Y_WP:	0.500	X:	0.163	Y:	0.069	Z:	0.401	yaw:	169.485	yaw rate:	0.291	Roll:	-4.900	Pitch:	-3.438	Yaw:	238.258	Thrust:	37.981
Time:	4.937	Roll Set Point:	-0.015	Pitch Set Point:	0.029	Yaw Set Point:	-2.958	X_WP:	0.000	Y_WP:	0.000	Y_WP:	0.500	X:	0.163	Y:	0.069	Z:	0.401	yaw:	169.485	yaw rate:	0.291	Roll:	-4.867	Pitch:	-3.407	Yaw:	238.209	Thrust:	38.158
Time:	4.952	Roll Set Point:	-0.015	Pitch Set Point:	0.029	Yaw Set Point:	-2.958	X_WP:	0.000	Y_WP:	0.000	Y_WP:	0.500	X:	0.163	Y:	0.069	Z:	0.401	yaw:	169.477	yaw rate:	-2.517	Roll:	-4.810	Pitch:	-3.440	Yaw:	238.051	Thrust:	38.223
Time:	4.968	Roll Set Point:	-0.015	Pitch Set Point:	0.029	Yaw Set Point:	-2.958	X_WP:	0.000	Y_WP:	0.000	Y_WP:	0.500	X:	0.163	Y:	0.069	Z:	0.401	yaw:	169.490	yaw rate:	1.327	Roll:	-4.912	Pitch:	-3.333	Yaw:	238.437	Thrust:	38.751
Time:	4.983	Roll Set Point:	-0.015	Pitch Set Point:	0.029	Yaw Set Point:	-2.958	X_WP:	0.000	Y_WP:	0.000	Y_WP:	0.500	X:	0.163	Y:	0.069	Z:	0.401	yaw:	169.490	yaw rate:	1.327	Roll:	-4.866	Pitch:	-3.406	Yaw:	238.215	Thrust:	38.718
Time:	4.999	Roll Set Point:	-0.015	Pitch Set Point:	0.029	Yaw Set Point:	-2.958	X_WP:	0.000	Y_WP:	0.000	Y_WP:	0.500	X:	0.163	Y:	0.069	Z:	0.401	yaw:	169.490	yaw rate:	1.489	Roll:	-4.843	Pitch:	-3.456	Yaw:	238.226	Thrust:	38.774
Time:	5.015	Roll Set Point:	-0.015	Pitch Set Point:	0.029	Yaw Set Point:	-2.958	X_WP:	0.000	Y_WP:	0.000	Y_WP:	0.500	X:	0.163	Y:	0.069	Z:	0.401	yaw:	169.474	yaw rate:	-1.634	Roll:	-4.858	Pitch:	-3.434	Yaw:	237.919	Thrust:	39.000
Time:	5.030	Roll Set Point:	-0.015	Pitch Set Point:	0.029	Yaw Set Point:	-2.958	X_WP:	0.000	Y_WP:	0.000	Y_WP:	0.500	X:	0.163	Y:	0.069	Z:	0.401	yaw:	169.474	yaw rate:	-1.634	Roll:	-4.866	Pitch:	-3.408	Yaw:	238.193	Thrust:	39.269
Time:	5.046	Roll Set Point:	-0.015	Pitch Set Point:	0.029	Yaw Set Point:	-2.958	X_WP:	0.000	Y_WP:	0.000	Y_WP:	0.500	X:	0.163	Y:	0.069	Z:	0.401	yaw:	169.493	yaw rate:	1.922	Roll:	-4.901	Pitch:	-3.318	Yaw:	238.542	Thrust:	39.604
Time:	5.062	Roll Set Point:	-0.015	Pitch Set Point:	0.029	Yaw Set Point:	-2.958	X_WP:	0.000	Y_WP:	0.000	Y_WP:	0.500	X:	0.163	Y:	0.069	Z:	0.401	yaw:	169.493	yaw rate:	1.922	Roll:	-4.866	Pitch:	-3.406	Yaw:	238.220	Thrust:	39.644
Time:	5.077	Roll Set Point:	-0.015	Pitch Set Point:	0.029	Yaw Set Point:	-2.958	X_WP:	0.000	Y_WP:	0.000	Y_WP:	0.500	X:	0.163	Y:	0.069	Z:	0.401	yaw:	169.481	yaw rate:	1.203	Roll:	-4.797	Pitch:	-3.480	Yaw:	238.004	Thrust:	39.718
Time:	5.093	Roll Set Point:	-0.015	Pitch Set Point:	0.029	Yaw Set Point:	-2.958	X_WP:	0.000	Y_WP:	0.000	Y_WP:	0.500	X:	0.163	Y:	0.069	Z:	0.401	yaw:	169.494	yaw rate:	1.283	Roll:	-4.951	Pitch:	-3.333	Yaw:	238.436	Thrust:	39.996
Time:	5.108	Roll Set Point:	-0.015	Pitch Set Point:	0.029	Yaw Set Point:	-2.958	X_WP:	0.000	Y_WP:	0.000	Y_WP:	0.500	X:	0.163	Y:	0.069	Z:	0.401	yaw:	169.492	yaw rate:	-0.241	Roll:	-4.851	Pitch:	-3.428	Yaw:	238.178	Thrust:	40.377
Time:	5.124	Roll Set Point:	-0.015	Pitch Set Point:	0.029	Yaw Set Point:	-2.958	X_WP:	0.000	Y_WP:	0.000	Y_WP:	0.500	X:	0.163	Y:	0.069	Z:	0.401	yaw:	169.474	yaw rate:	-1.788	Roll:	-4.832	Pitch:	-3.479	Yaw:	237.893	Thrust:	40.211
Time:	5.140	Roll Set Point:	-0.015	Pitch Set Point:	0.029	Yaw Set Point:	-2.958	X_WP:	0.000	Y_WP:	0.000	Y_WP:	0.500	X:	0.163	Y:	0.069	Z:	0.401	yaw:	169.494	yaw rate:	2.000	Roll:	-4.896	Pitch:	-3.355	Yaw:	238.556	Thrust:	40.573
Time:	5.155	Roll Set Point:	-0.015	Pitch Set Point:	0.029	Yaw Set Point:	-2.958	X_WP:	0.000	Y_WP:	0.000	Y_WP:	0.500	X:	0.163	Y:	0.069	Z:	0.401	yaw:	169.494	yaw rate:	2.000	Roll:	-4.866	Pitch:	-3.407	Yaw:	238.221	Thrust:	40.756
Time:	5.171	Roll Set Point:	-0.015	Pitch Set Point:	0.029	Yaw Set Point:	-2.958	X_WP:	0.000	Y_WP:	0.000	Y_WP:	0.500	X:	0.163	Y:	0.069	Z:	0.401	yaw:	169.492	yaw rate:	-0.700	Roll:	-4.836	Pitch:	-3.400	Yaw:	238.193	Thrust:	40.991
Time:	5.187	Roll Set Point:	-0.015	Pitch Set Point:	0.029	Yaw Set Point:	-2.958	X_WP:	0.000	Y_WP:	0.000	Y_WP:	0.500	X:	0.163	Y:	0.069	Z:	0.401	yaw:	169.488	yaw rate:	-0.460	Roll:	-4.889	Pitch:	-3.415	Yaw:	238.138	Thrust:	41.201
Time:	5.202	Roll Set Point:	-0.015	Pitch Set Point:	0.029	Yaw Set Point:	-2.958	X_WP:	0.000	Y_WP:	0.000	Y_WP:	0.500	X:	0.163	Y:	0.069	Z:	0.401	yaw:	169.495	yaw rate:	0.675	Roll:	-4.884	Pitch:	-3.376	Yaw:	238.332	Thrust:	41.129
Time:	5.218	Roll Set Point:	-0.015	Pitch Set Point:	0.029	Yaw Set Point:	-2.958	X_WP:	0.000	Y_WP:	0.000	Y_WP:	0.500	X:	0.163	Y:	0.069	Z:	0.401	yaw:	169.495	yaw rate:	0.675	Roll:	-4.868	Pitch:	-3.407	Yaw:	238.225	Thrust:	41.564
Time:	5.234	Roll Set Point:	-0.015	Pitch Set Point:	0.029	Yaw Set Point:	-2.958	X_WP:	0.000	Y_WP:	0.000	Y_WP:	0.500	X:	0.163	Y:	0.069	Z:	0.401	yaw:	169.486	yaw rate:	0.398	Roll:	-4.853	Pitch:	-3.466	Yaw:	238.064	Thrust:	41.875
Time:	5.249	Roll Set Point:	-0.015	Pitch Set Point:	0.029	Yaw Set Point:	-2.958	X_WP:	0.000	Y_WP:	0.000	Y_WP:	0.500	X:	0.163	Y:	0.069	Z:	0.401	yaw:	169.482	yaw rate:	-0.438	Roll:	-4.856	Pitch:	-3.360	Yaw:	238.130	Thrust:	41.628
Time:	5.265	Roll Set Point:	-0.015	Pitch Set Point:	0.029	Yaw Set Point:	-2.958	X_WP:	0.000	Y_WP:	0.000	Y_WP:	0.500	X:	0.163	Y:	0.069	Z:	0.401	yaw:	169.482	yaw rate:	-0.438	Roll:	-4.869	Pitch:	-3.410	Yaw:	238.213	Thrust:	42.270
Time:	5.280	Roll Set Point:	-0.015	Pitch Set Point:	0.029	Yaw Set Point:	-2.958	X_WP:	0.000	Y_WP:	0.000	Y_WP:	0.500	X:	0.163	Y:	0.069	Z:	0.401	yaw:	169.475	yaw rate:	-0.702	Roll:	-4.827	Pitch:	-3.467	Yaw:	238.067	Thrust:	42.150
Time:	5.296	Roll Set Point:	-0.015	Pitch Set Point:	0.029	Yaw Set Point:	-2.958	X_WP:	0.000	Y_WP:	0.000	Y_WP:	0.500	X:	0.163	Y:	0.069	Z:	0.401	yaw:	169.475	yaw rate:	-0.702	Roll:	-4.865	Pitch:	-3.408	Yaw:	238.194	Thrust:	42.431
Time:	5.312	Roll Set Point:	-0.015	Pitch Set Point:	0.029	Yaw Set Point:	-2.958	X_WP:	0.000	Y_WP:	0.000	Y_WP:	0.500	X:	0.163	Y:	0.069	Z:	0.401	yaw:	169.494	yaw rate:	1.966	Roll:	-4.956	Pitch:	-3.344	Yaw:	238.551	Thrust:	42.605
Time:	5.327	Roll Set Point:	-0.015	Pitch Set Point:	0.029	Yaw Set Point:	-2.958	X_WP:	0.000	Y_WP:	0.000	Y_WP:	0.500	X:	0.163	Y:	0.069	Z:	0.401	yaw:	169.505	yaw rate:	1.133	Roll:	-4.875	Pitch:	-3.335	Yaw:	238.413	Thrust:	42.797
Time:	5.343	Roll Set Point:	-0.015	Pitch Set Point:	0.029	Yaw Set Point:	-2.958	X_WP:	0.000	Y_WP:	0.000	Y_WP:	0.500	X:	0.163	Y:	0.069	Z:	0.401	yaw:	169.496	yaw rate:	-0.846	Roll:	-4.814	Pitch:	-3.463	Yaw:	238.083	Thrust:	42.890
Time:	5.359	Roll Set Point:	-0.015	Pitch Set Point:	0.029	Yaw Set Point:	-2.958	X_WP:	0.000	Y_WP:	0.000	Y_WP:	0.500	X:	0.163	Y:	0.069	Z:	0.401	yaw:	169.493	yaw rate:	-0.323	Roll:	-4.850	Pitch:	-3.417	Yaw:	238.168	Thrust:	43.305
Time:	5.374	Roll Set Point:	-0.015	Pitch Set Point:	0.029	Yaw Set Point:	-2.958	X_WP:	0.000	Y_WP:	0.000	Y_WP:	0.500	X:	0.163	Y:	0.069	Z:	0.401	yaw:	169.491	yaw rate:	-0.239	Roll:	-4.891	Pitch:	-3.416	Yaw:	238.177	Thrust:	43.462
Time:	5.390	Roll Set Point:	-0.015	Pitch Set Point:	0.029	Yaw Set Point:	-2.958	X_WP:	0.000	Y_WP:	0.000	Y_WP:	0.500	X:	0.163	Y:	0.069	Z:	0.401	yaw:	169.490	yaw rate:	-0.110	Roll:	-4.872	Pitch:	-3.381	Yaw:	238.196	Thrust:	43.412
Time:	5.405	Roll Set Point:	-0.015	Pitch Set Point:	0.029	Yaw Set Point:	-2.958	X_WP:	0.000	Y_WP:	0.000	Y_WP:	0.500	X:	0.163	Y:	0.069	Z:	0.401	yaw:	169.500	yaw rate:	0.997	Roll:	-4.854	Pitch:	-3.393	Yaw:	238.393	Thrust:	43.740
Time:	5.421	Roll Set Point:	-0.015	Pitch Set Point:	0.029	Yaw Set Point:	-2.958	X_WP:	0.000	Y_WP:	0.000	Y_WP:	0.500	X:	0.163	Y:	0.069	Z:	0.401	yaw:	169.469	yaw rate:	-3.029	Roll:	-4.806	Pitch:	-3.519	Yaw:	237.679	Thrust:	43.812
Time:	5.437	Roll Set Point:	-0.015	Pitch Set Point:	0.029	Yaw Set Point:	-2.958	X_WP:	0.000	Y_WP:	0.000	Y_WP:	0.500	X:	0.163	Y:	0.069	Z:	0.401	yaw:	169.469	yaw rate:	-3.029	Roll:	-4.865	Pitch:	-3.409	Yaw:	238.187	Thrust:	44.103
Time:	5.452	Roll Set Point:	-0.015	Pitch Set Point:	0.029	Yaw Set Point:	-2.958	X_WP:	0.000	Y_WP:	0.000	Y_WP:	0.500	X:	0.163	Y:	0.069	Z:	0.401	yaw:	169.494	yaw rate:	1.308	Roll:	-4.949	Pitch:	-3.310	Yaw:	238.642	Thrust:	44.457
Time:	5.468	Roll Set Point:	-0.015	Pitch Set Point:	0.029	Yaw Set Point:	-2.958	X_WP:	0.000	Y_WP:	0.000	Y_WP:	0.500	X:	0.163	Y:	0.069	Z:	0.401	yaw:	169.495	yaw rate:	0.077	Roll:	-4.863	Pitch:	-3.392	Yaw:	238.236	Thrust:	44.293
Time:	5.484	Roll Set Point:	-0.015	Pitch Set Point:	0.029	Yaw Set Point:	-2.958	X_WP:	0.000	Y_WP:	0.000	Y_WP:	0.500	X:	0.163	Y:	0.069	Z:	0.401	yaw:	169.483	yaw rate:	-1.211	Roll:	-4.801	Pitch:	-3.469	Yaw:	238.003	Thrust:	44.768
Time:	5.499	Roll Set Point:	-0.015	Pitch Set Point:	0.029	Yaw Set Point:	-2.958	X_WP:	0.000	Y_WP:	0.000	Y_WP:	0.500	X:	0.163	Y:	0.069	Z:	0.401	yaw:	169.483	yaw rate:	-1.211	Roll:	-4.865	Pitch:	-3.407	Yaw:	238.206	Thrust:	44.846
Time:	5.515	Roll Set Point:	-0.015	Pitch Set Point:	0.029	Yaw Set Point:	-2.958	X_WP:	0.000	Y_WP:	0.000	Y_WP:	0.500	X:	0.163	Y:	0.069	Z:	0.401	yaw:	169.494	yaw rate:	0.182	Roll:	-4.898	Pitch:	-3.352	Yaw:	238.407	Thrust:	45.034
Time:	5.530	Roll Set Point:	-0.015	Pitch Set Point:	0.029	Yaw Set Point:	-2.958	X_WP:	0.000	Y_WP:	0.000	Y_WP:	0.500	X:	0.163	Y:	0.069	Z:	0.401	yaw:	169.490	yaw rate:	-0.401	Roll:	-4.886	Pitch:	-3.407	Yaw:	238.149	Thrust:	45.159
Time:	5.546	Roll Set Point:	-0.015	Pitch Set Point:	0.029	Yaw Set Point:	-2.958	X_WP:	0.000	Y_WP:	0.000	Y_WP:	0.500	X:	0.163	Y:	0.069	Z:	0.401	yaw:	169.490	yaw rate:	-0.401	Roll:	-4.866	Pitch:	-3.406	Yaw:	238.216	Thrust:	45.399
Time:	5.562	Roll Set Point:	-0.015	Pitch Set Point:	0.029	Yaw Set Point:	-2.958	X_WP:	0.000	Y_WP:	0.000	Y_WP:	0.500	X:	0.163	Y:	0.069	Z:	0.401	yaw:	169.475	yaw rate:	0.186	Roll:	-4.812	Pitch:	-3.503	Yaw:	237.941	Thrust:	45.544
Time:	5.577	Roll Set Point:	-0.015	Pitch Set Point:	0.029	Yaw Set Point:	-2.958	X_WP:	0.000	Y_WP:	0.000	Y_WP:	0.500	X:	0.163	Y:	0.069	Z:	0.401	yaw:	169.496	yaw rate:	2.066	Roll:	-4.930	Pitch:	-3.329	Yaw:	238.563	Thrust:	45.671
Time:	5.593	Roll Set Point:	-0.015	Pitch Set Point:	0.029	Yaw Set Point:	-2.958	X_WP:	0.000	Y_WP:	0.000	Y_WP:	0.500	X:	0.163	Y:	0.069	Z:	0.401	yaw:	169.496	yaw rate:	2.066	Roll:	-4.868	Pitch:	-3.408	Yaw:	238.227	Thrust:	46.045
Time:	5.608	Roll Set Point:	-0.015	Pitch Set Point:	0.029	Yaw Set Point:	-2.958	X_WP:	0.000	Y_WP:	0.000	Y_WP:	0.500	X:	0.163	Y:	0.069	Z:	0.401	yaw:	169.501	yaw rate:	0.558	Roll:	-4.882	Pitch:	-3.353	Yaw:	238.322	Thrust:	46.016
Time:	5.624	Roll Set Point:	-0.015	Pitch Set Point:	0.029	Yaw Set Point:	-2.958	X_WP:	0.000	Y_WP:	0.000	Y_WP:	0.500	X:	0.163	Y:	0.069	Z:	0.401	yaw:	169.459	yaw rate:	-0.478	Roll:	-4.759	Pitch:	-3.580	Yaw:	237.468	Thrust:	46.310
Time:	5.640	Roll Set Point:	-0.015	Pitch Set Point:	0.029	Yaw Set Point:	-2.958	X_WP:	0.000	Y_WP:	0.000	Y_WP:	0.500	X:	0.163	Y:	0.069	Z:	0.401	yaw:	169.490	yaw rate:	3.098	Roll:	-4.941	Pitch:	-3.299	Yaw:	238.737	Thrust:	46.614
Time:	5.655	Roll Set Point:	-0.015	Pitch Set Point:	0.029	Yaw Set Point:	-2.958	X_WP:	0.000	Y_WP:	0.000	Y_WP:	0.500	X:	0.163	Y:	0.069	Z:	0.401	yaw:	169.490	yaw rate:	3.098	Roll:	-4.865	Pitch:	-3.406	Yaw:	238.213	Thrust:	46.622
Time:	5.671	Roll Set Point:	-0.015	Pitch Set Point:	0.029	Yaw Set Point:	-2.958	X_WP:	0.000	Y_WP:	0.000	Y_WP:	0.500	X:	0.163	Y:	0.069	Z:	0.401	yaw:	169.492	yaw rate:	0.657	Roll:	-4.871	Pitch:	-3.410	Yaw:	238.248	Thrust:	46.922
Time:	5.687	Roll Set Point:	-0.015	Pitch Set Point:	0.029	Yaw Set Point:	-2.958	X_WP:	0.000	Y_WP:	0.000	Y_WP:	0.500	X:	0.163	Y:	0.069	Z:	0.401	yaw:	169.492	yaw rate:	0.657	Roll:	-4.870	Pitch:	-3.410	Yaw:	238.226	Thrust:	47.289
Time:	5.702	Roll Set Point:	-0.015	Pitch Set Point:	0.029	Yaw Set Point:	-2.958	X_WP:	0.000	Y_WP:	0.000	Y_WP:	0.500	X:	0.163	Y:	0.069	Z:	0.401	yaw:	169.472	yaw rate:	-1.977	Roll:	-4.799	Pitch:	-3.486	Yaw:	237.847	Thrust:	47.030
Time:	5.718	Roll Set Point:	-0.015	Pitch Set Point:	0.029	Yaw Set Point:	-2.958	X_WP:	0.000	Y_WP:	0.000	Y_WP:	0.500	X:	0.163	Y:	0.069	Z:	0.401	yaw:	169.472	yaw rate:	-0.810	Roll:	-4.884	Pitch:	-3.361	Yaw:	238.190	Thrust:	47.481
Time:	5.733	Roll Set Point:	-0.015	Pitch Set Point:	0.029	Yaw Set Point:	-2.958	X_WP:	0.000	Y_WP:	0.000	Y_WP:	0.500	X:	0.163	Y:	0.069	Z:	0.401	yaw:	169.472	yaw rate:	-0.810	Roll:	-4.865	Pitch:	-3.408	Yaw:	238.190	Thrust:	47.635
Time:	5.749	Roll Set Point:	-0.015	Pitch Set Point:	0.029	Yaw Set Point:	-2.958	X_WP:	0.000	Y_WP:	0.000	Y_WP:	0.500	X:	0.163	Y:	0.069	Z:	0.401	yaw:	169.472	yaw rate:	-3.883	Roll:	-4.836	Pitch:	-3.454	Yaw:	238.196	Thrust:	47.794
Time:	5.765	Roll Set Point:	-0.015	Pitch Set Point:	0.029	Yaw Set Point:	-2.958	X_WP:	0.000	Y_WP:	0.000	Y_WP:	0.500	X:	0.163	Y:	0.069	Z:	0.401	yaw:	169.482	yaw rate:	0.968	Roll:	-4.939	Pitch:	-3.354	Yaw:	238.367	Thrust:	47.915
Time:	5.780	Roll Set Point:	-0.015	Pitch Set Point:	0.029	Yaw Set Point:	-2.958	X_WP:	0.000	Y_WP:	0.000	Y_WP:	0.500	X:	0.163	Y:	0.069	Z:	0.401	yaw:	169.495	yaw rate:	1.254	Roll:	-4.845	Pitch:	-3.359	Yaw:	238.432	Thrust:	48.316
Time:	5.796	Roll Set Point:	-0.015	Pitch Set Point:	0.029	Yaw Set Point:	-2.958	X_WP:	0.000	Y_WP:	0.000	Y_WP:	0.500	X:	0.163	Y:	0.069	Z:	0.401	yaw:	169.463	yaw rate:	-3.184	Roll:	-4.835	Pitch:	-3.491	Yaw:	237.644	Thrust:	48.254
Time:	5.812	Roll Set Point:	-0.015	Pitch Set Point:	0.029	Yaw Set Point:	-2.958	X_WP:	0.000	Y_WP:	0.000	Y_WP:	0.500	X:	0.163	Y:	0.069	Z:	0.401	yaw:	169.463	yaw rate:	-3.184	Roll:	-4.865	Pitch:	-3.408	Yaw:	238.177	Thrust:	48.559
Time:	5.827	Roll Set Point:	-0.015	Pitch Set Point:	0.029	Yaw Set Point:	-2.958	X_WP:	0.000	Y_WP:	0.000	Y_WP:	0.500	X:	0.163	Y:	0.069	Z:	0.401	yaw:	169.489	yaw rate:	-1.561	Roll:	-4.874	Pitch:	-3.358	Yaw:	238.657	Thrust:	48.823
Time:	5.843	Roll Set Point:	-0.015	Pitch Set Point:	0.029	Yaw Set Point:	-2.958	X_WP:	0.000	Y_WP:	0.000	Y_WP:	0.500	X:	0.163	Y:	0.069	Z:	0.401	yaw:	169.491	yaw rate:	0.136	Roll:	-4.932	Pitch:	-3.396	Yaw:	238.239	Thrust:	48.908
Time:	5.859	Roll Set Point:	-0.015	Pitch Set Point:	0.029	Yaw Set Point:	-2.958	X_WP:	0.000	Y_WP:	0.000	Y_WP:	0.500	X:	0.163	Y:	0.069	Z:	0.401	yaw:	169.483	yaw rate:	-0.796	Roll:	-4.803	Pitch:	-3.430	Yaw:	238.074	Thrust:	49.315
Time:	5.874	Roll Set Point:	-0.015	Pitch Set Point:	0.029	Yaw Set Point:	-2.958	X_WP:	0.000	Y_WP:	0.000	Y_WP:	0.500	X:	0.163	Y:	0.069	Z:	0.401	yaw:	169.486	yaw rate:	0.336	Roll:	-4.879	Pitch:	-3.387	Yaw:	238.264	Thrust:	49.004
Time:	5.890	Roll Set Point:	-0.015	Pitch Set Point:	0.029	Yaw Set Point:	-2.958	X_WP:	0.000	Y_WP:	0.000	Y_WP:	0.500	X:	0.163	Y:	0.069	Z:	0.401	yaw:	169.503	yaw rate:	1.690	Roll:	-4.896	Pitch:	-3.377	Yaw:	238.517	Thrust:	49.627
Time:	5.905	Roll Set Point:	-0.015	Pitch Set Point:	0.029	Yaw Set Point:	-2.958	X_WP:	0.000	Y_WP:	0.000	Y_WP:	0.500	X:	0.163	Y:	0.069	Z:	0.401	yaw:	169.502	yaw rate:	-0.060	Roll:	-4.903	Pitch:	-3.404	Yaw:	238.222	Thrust:	49.669
Time:	5.921	Roll Set Point:	-0.015	Pitch Set Point:	0.029	Yaw Set Point:	-2.958	X_WP:	0.000	Y_WP:	0.000	Y_WP:	0.500	X:	0.163	Y:	0.069	Z:	0.401	yaw:	169.486	yaw rate:	-1.620	Roll:	-4.785	Pitch:	-3.423	Yaw:	237.939	Thrust:	49.878
Time:	5.937	Roll Set Point:	-0.015	Pitch Set Point:	0.029	Yaw Set Point:	-2.958	X_WP:	0.000	Y_WP:	0.000	Y_WP:	0.500	X:	0.163	Y:	0.069	Z:	0.401	yaw:	169.470	yaw rate:	-1.574	Roll:	-4.849	Pitch:	-3.468	Yaw:	237.924	Thrust:	50.043
Time:	5.952	Roll Set Point:	-0.015	Pitch Set Point:	0.029	Yaw Set Point:	-2.958	X_WP:	0.000	Y_WP:	0.000	Y_WP:	0.500	X:	0.163	Y:	0.069	Z:	0.401	yaw:	169.493	yaw rate:	2.230	Roll:	-4.921	Pitch:	-3.346	Yaw:	238.595	Thrust:	50.222
Time:	5.968	Roll Set Point:	-0.015	Pitch Set Point:	0.029	Yaw Set Point:	-2.958	X_WP:	0.000	Y_WP:	0.000	Y_WP:	0.500	X:	0.163	Y:	0.069	Z:	0.401	yaw:	169.479	yaw rate:	-1.376	Roll:	-4.822	Pitch:	-3.466	Yaw:	237.966	Thrust:	50.422
Time:	5.984	Roll Set Point:	-0.015	Pitch Set Point:	0.029	Yaw Set Point:	-2.958	X_WP:	0.000	Y_WP:	0.000	Y_WP:	0.500	X:	0.163	Y:	0.069	Z:	0.401	yaw:	169.507	yaw rate:	2.785	Roll:	-4.979	Pitch:	-3.286	Yaw:	238.706	Thrust:	50.671
Time:	5.999	Roll Set Point:	-0.015	Pitch Set Point:	0.029	Yaw Set Point:	-2.958	X_WP:	0.000	Y_WP:	0.000	Y_WP:	0.500	X:	0.163	Y:	0.069	Z:	0.401	yaw:	169.507	yaw rate:	2.785	Roll:	-4.868	Pitch:	-3.405	Yaw:	238.239	Thrust:	50.789
Time:	6.015	Roll Set Point:	-0.225	Pitch Set Point:	-0.072	Yaw Set Point:	-2.958	X_WP:	0.225	Y_WP:	0.060	Y_WP:	0.500	X:	0.163	Y:	0.069	Z:	0.401	yaw:	169.480	yaw rate:	-1.035	Roll:	30.000	Pitch:	30.000	Yaw:	237.757	Thrust:	50.966
Time:	6.030	Roll Set Point:	-0.225	Pitch Set Point:	-0.072	Yaw Set Point:	-2.958	X_WP:	0.225	Y_WP:	0.060	Y_WP:	0.500	X:	0.163	Y:	0.069	Z:	0.401	yaw:	169.480	yaw rate:	-1.035	Roll:	1.225	Pitch:	-0.501	Yaw:	238.198	Thrust:	51.075
Time:	6.046	Roll Set Point:	-0.225	Pitch Set Point:	-0.072	Yaw Set Point:	-2.958	X_WP:	0.225	Y_WP:	0.060	Y_WP:	0.500	X:	0.163	Y:	0.069	Z:	0.401	yaw:	169.477	yaw rate:	-0.336	Roll:	1.227	Pitch:	-0.496	Yaw:	238.140	Thrust:	51.369
Time:	6.062	Roll Set Point:	-0.225	Pitch Set Point:	-0.072	Yaw Set Point:	-2.958	X_WP:	0.225	Y_WP:	0.060	Y_WP:	0.500	X:	0.163	Y:	0.069	Z:	0.401	yaw:	169.491	yaw rate:	1.392	Roll:	1.226	Pitch:	-0.522	Yaw:	238.450	Thrust:	51.583
Time:	6.077	Roll Set Point:	-0.225	Pitch Set Point:	-0.072	Yaw Set Point:	-2.958	X_WP:	0.225	Y_WP:	0.060	Y_WP:	0.500	X:	0.163	Y:	0.069	Z:	0.401	yaw:	169.491	yaw rate:	1.392	Roll:	1.231	Pitch:	-0.504	Yaw:	238.216	Thrust:	51.715
Time:	6.093	Roll Set Point:	-0.225	Pitch Set Point:	-0.071	Yaw Set Point:	-2.965	X_WP:	0.225	Y_WP:	0.060	Y_WP:	0.500	X:	0.163	Y:	0.069	Z:	0.401	yaw:	169.900	yaw rate:	42.057	Roll:	1.241	Pitch:	-1.017	Yaw:	245.634	Thrust:	51.643
Time:	6.109	Roll Set Point:	-0.225	Pitch Set Point:	-0.071	Yaw Set Point:	-2.965	X_WP:	0.225	Y_WP:	0.060	Y_WP:	0.500	X:	0.163	Y:	0.069	Z:	0.401	yaw:	169.900	yaw rate:	42.057	Roll:	1.236	Pitch:	-0.513	Yaw:	238.789	Thrust:	52.095
Time:	6.124	Roll Set Point:	-0.225	Pitch Set Point:	-0.072	Yaw Set Point:	-2.958	X_WP:	0.225	Y_WP:	0.060	Y_WP:	0.500	X:	0.163	Y:	0.069	Z:	0.401	yaw:	169.489	yaw rate:	0.505	Roll:	1.231	Pitch:	0.002	Yaw:	231.295	Thrust:	52.583
Time:	6.140	Roll Set Point:	-0.225	Pitch Set Point:	-0.072	Yaw Set Point:	-2.958	X_WP:	0.225	Y_WP:	0.060	Y_WP:	0.500	X:	0.163	Y:	0.069	Z:	0.401	yaw:	169.489	yaw rate:	0.505	Roll:	1.241	Pitch:	-0.504	Yaw:	238.214	Thrust:	52.455
Time:	6.155	Roll Set Point:	-0.225	Pitch Set Point:	-0.072	Yaw Set Point:	-2.958	X_WP:	0.225	Y_WP:	0.060	Y_WP:	0.500	X:	0.163	Y:	0.069	Z:	0.401	yaw:	169.486	yaw rate:	0.745	Roll:	1.243	Pitch:	-0.498	Yaw:	238.155	Thrust:	52.544
Time:	6.171	Roll Set Point:	-0.225	Pitch Set Point:	-0.072	Yaw Set Point:	-2.958	X_WP:	0.225	Y_WP:	0.060	Y_WP:	0.500	X:	0.163	Y:	0.069	Z:	0.401	yaw:	169.470	yaw rate:	-1.593	Roll:	1.245	Pitch:	-0.484	Yaw:	237.921	Thrust:	52.904
Time:	6.187	Roll Set Point:	-0.225	Pitch Set Point:	-0.072	Yaw Set Point:	-2.958	X_WP:	0.225	Y_WP:	0.060	Y_WP:	0.500	X:	0.163	Y:	0.069	Z:	0.401	yaw:	169.477	yaw rate:	0.720	Roll:	1.247	Pitch:	-0.510	Yaw:	238.318	Thrust:	52.919
Time:	6.202	Roll Set Point:	-0.225	Pitch Set Point:	-0.072	Yaw Set Point:	-2.958	X_WP:	0.225	Y_WP:	0.060	Y_WP:	0.500	X:	0.163	Y:	0.069	Z:	0.401	yaw:	169.490	yaw rate:	1.246	Roll:	1.250	Pitch:	-0.515	Yaw:	238.423	Thrust:	53.323
Time:	6.218	Roll Set Point:	-0.225	Pitch Set Point:	-0.072	Yaw Set Point:	-2.958	X_WP:	0.225	Y_WP:	0.060	Y_WP:	0.500	X:	0.163	Y:	0.069	Z:	0.401	yaw:	169.495	yaw rate:	0.564	Roll:	1.255	Pitch:	-0.509	Yaw:	238.317	Thrust:	53.208
Time:	6.234	Roll Set Point:	-0.225	Pitch Set Point:	-0.072	Yaw Set Point:	-2.958	X_WP:	0.225	Y_WP:	0.060	Y_WP:	0.500	X:	0.163	Y:	0.069	Z:	0.401	yaw:	169.495	yaw rate:	0.564	Roll:	1.255	Pitch:	-0.502	Yaw:	238.223	Thrust:	53.576
Time:	6.249	Roll Set Point:	-0.225	Pitch Set Point:	-0.072	Yaw Set Point:	-2.959	X_WP:	0.225	Y_WP:	0.060	Y_WP:	0.500	X:	0.163	Y:	0.069	Z:	0.401	yaw:	169.511	yaw rate:	2.829	Roll:	1.254	Pitch:	-0.520	Yaw:	238.510	Thrust:	53.894
Time:	6.265	Roll Set Point:	-0.225	Pitch Set Point:	-0.072	Yaw Set Point:	-2.958	X_WP:	0.225	Y_WP:	0.060	Y_WP:	0.500	X:	0.163	Y:	0.069	Z:	0.401	yaw:	169.484	yaw rate:	-2.701	Roll:	1.260	Pitch:	-0.472	Yaw:	237.755	Thrust:	53.886
Time:	6.280	Roll Set Point:	-0.225	Pitch Set Point:	-0.072	Yaw Set Point:	-2.958	X_WP:	0.225	Y_WP:	0.060	Y_WP:	0.500	X:	0.163	Y:	0.069	Z:	0.401	yaw:	169.484	yaw rate:	-2.701	Roll:	1.261	Pitch:	-0.503	Yaw:	238.210	Thrust:	54.234
