Time:	2.125	Roll Set Point:	-0.234	Pitch Set Point:	-0.122	Yaw Set Point:	-0.577	X_WP:	0.000	Y_WP:	0.000	Y_WP:	0.500	X:	0.099	Y:	0.096	Z:	0.399	yaw:	33.087	yaw rate:	-1.777	Roll:	3.924	Pitch:	0.753	Yaw:	46.198	Thrust:	5.569
Time:	2.141	Roll Set Point:	-0.234	Pitch Set Point:	-0.122	Yaw Set Point:	-0.578	X_WP:	0.000	Y_WP:	0.000	Y_WP:	0.500	X:	0.099	Y:	0.096	Z:	0.399	yaw:	33.107	yaw rate:	2.017	Roll:	3.949	Pitch:	0.744	Yaw:	46.745	Thrust:	5.858
Time:	2.156	Roll Set Point:	-0.234	Pitch Set Point:	-0.122	Yaw Set Point:	-0.577	X_WP:	0.000	Y_WP:	0.000	Y_WP:	0.500	X:	0.099	Y:	0.096	Z:	0.399	yaw:	33.051	yaw rate:	-5.641	Roll:	3.896	Pitch:	0.818	Yaw:	45.564	Thrust:	5.887
Time:	2.172	Roll Set Point:	-0.234	Pitch Set Point:	-0.122	Yaw Set Point:	-0.577	X_WP:	0.000	Y_WP:	0.000	Y_WP:	0.500	X:	0.099	Y:	0.096	Z:	0.399	yaw:	33.051	yaw rate:	-5.641	Roll:	3.939	Pitch:	0.758	Yaw:	46.690	Thrust:	6.140
Time:	2.187	Roll Set Point:	-0.234	Pitch Set Point:	-0.122	Yaw Set Point:	-0.577	X_WP:	0.000	Y_WP:	0.000	Y_WP:	0.500	X:	0.099	Y:	0.096	Z:	0.399	yaw:	33.080	yaw rate:	2.936	Roll:	3.956	Pitch:	0.757	Yaw:	47.402	Thrust:	6.367
Time:	2.203	Roll Set Point:	-0.234	Pitch Set Point:	-0.122	Yaw Set Point:	-0.578	X_WP:	0.000	Y_WP:	0.000	Y_WP:	0.500	X:	0.099	Y:	0.096	Z:	0.399	yaw:	33.104	yaw rate:	2.355	Roll:	3.955	Pitch:	0.692	Yaw:	47.519	Thrust:	6.545
Time:	2.219	Roll Set Point:	-0.234	Pitch Set Point:	-0.122	Yaw Set Point:	-0.578	X_WP:	0.000	Y_WP:	0.000	Y_WP:	0.500	X:	0.099	Y:	0.096	Z:	0.399	yaw:	33.104	yaw rate:	2.355	Roll:	3.955	Pitch:	0.759	Yaw:	47.302	Thrust:	6.708
Time:	2.248	Roll Set Point:	-0.234	Pitch Set Point:	-0.121	Yaw Set Point:	-0.579	X_WP:	0.000	Y_WP:	0.000	Y_WP:	0.500	X:	0.099	Y:	0.096	Z:	0.399	yaw:	33.179	yaw rate:	9.802	Roll:	4.001	Pitch:	0.676	Yaw:	49.365	Thrust:	7.965
Time:	2.264	Roll Set Point:	-0.234	Pitch Set Point:	-0.122	Yaw Set Point:	-0.577	X_WP:	0.000	Y_WP:	0.000	Y_WP:	0.500	X:	0.099	Y:	0.096	Z:	0.399	yaw:	33.043	yaw rate:	-13.604	Roll:	3.918	Pitch:	1.033	Yaw:	45.294	Thrust:	7.039
Time:	2.279	Roll Set Point:	-0.234	Pitch Set Point:	-0.122	Yaw Set Point:	-0.577	X_WP:	0.000	Y_WP:	0.000	Y_WP:	0.500	X:	0.099	Y:	0.096	Z:	0.399	yaw:	33.043	yaw rate:	-13.604	Roll:	3.970	Pitch:	0.765	Yaw:	47.700	Thrust:	7.276
Time:	2.295	Roll Set Point:	-0.234	Pitch Set Point:	-0.122	Yaw Set Point:	-0.578	X_WP:	0.000	Y_WP:	0.000	Y_WP:	0.500	X:	0.099	Y:	0.096	Z:	0.399	yaw:	33.096	yaw rate:	-1.426	Roll:	4.009	Pitch:	0.647	Yaw:	48.660	Thrust:	7.607
Time:	2.310	Roll Set Point:	-0.235	Pitch Set Point:	-0.122	Yaw Set Point:	-0.578	X_WP:	0.000	Y_WP:	0.000	Y_WP:	0.500	X:	0.099	Y:	0.096	Z:	0.399	yaw:	33.116	yaw rate:	2.022	Roll:	4.000	Pitch:	0.697	Yaw:	48.140	Thrust:	7.670
Time:	2.326	Roll Set Point:	-0.234	Pitch Set Point:	-0.122	Yaw Set Point:	-0.578	X_WP:	0.000	Y_WP:	0.000	Y_WP:	0.500	X:	0.099	Y:	0.096	Z:	0.399	yaw:	33.090	yaw rate:	-2.640	Roll:	3.967	Pitch:	0.840	Yaw:	47.327	Thrust:	7.815
Time:	2.342	Roll Set Point:	-0.234	Pitch Set Point:	-0.122	Yaw Set Point:	-0.577	X_WP:	0.000	Y_WP:	0.000	Y_WP:	0.500	X:	0.099	Y:	0.096	Z:	0.399	yaw:	33.078	yaw rate:	-1.154	Roll:	3.988	Pitch:	0.803	Yaw:	47.552	Thrust:	8.007
Time:	2.357	Roll Set Point:	-0.234	Pitch Set Point:	-0.122	Yaw Set Point:	-0.580	X_WP:	0.000	Y_WP:	0.000	Y_WP:	0.500	X:	0.099	Y:	0.096	Z:	0.399	yaw:	33.206	yaw rate:	12.741	Roll:	4.018	Pitch:	0.565	Yaw:	50.061	Thrust:	8.343
Time:	2.373	Roll Set Point:	-0.234	Pitch Set Point:	-0.122	Yaw Set Point:	-0.580	X_WP:	0.000	Y_WP:	0.000	Y_WP:	0.500	X:	0.099	Y:	0.096	Z:	0.399	yaw:	33.206	yaw rate:	12.741	Roll:	4.003	Pitch:	0.764	Yaw:	47.926	Thrust:	8.418
Time:	2.389	Roll Set Point:	-0.234	Pitch Set Point:	-0.122	Yaw Set Point:	-0.577	X_WP:	0.000	Y_WP:	0.000	Y_WP:	0.500	X:	0.099	Y:	0.096	Z:	0.399	yaw:	33.060	yaw rate:	-14.519	Roll:	3.959	Pitch:	0.987	Yaw:	45.299	Thrust:	8.457
Time:	2.404	Roll Set Point:	-0.234	Pitch Set Point:	-0.122	Yaw Set Point:	-0.577	X_WP:	0.000	Y_WP:	0.000	Y_WP:	0.500	X:	0.099	Y:	0.096	Z:	0.399	yaw:	33.083	yaw rate:	-2.309	Roll:	4.041	Pitch:	0.791	Yaw:	48.130	Thrust:	8.968
Time:	2.420	Roll Set Point:	-0.234	Pitch Set Point:	-0.122	Yaw Set Point:	-0.578	X_WP:	0.000	Y_WP:	0.000	Y_WP:	0.500	X:	0.099	Y:	0.096	Z:	0.399	yaw:	33.115	yaw rate:	3.183	Roll:	4.049	Pitch:	0.669	Yaw:	48.333	Thrust:	8.954
Time:	2.435	Roll Set Point:	-0.234	Pitch Set Point:	-0.122	Yaw Set Point:	-0.578	X_WP:	0.000	Y_WP:	0.000	Y_WP:	0.500	X:	0.099	Y:	0.096	Z:	0.399	yaw:	33.115	yaw rate:	3.183	Roll:	4.024	Pitch:	0.772	Yaw:	47.797	Thrust:	9.171
Time:	2.451	Roll Set Point:	-0.234	Pitch Set Point:	-0.122	Yaw Set Point:	-0.577	X_WP:	0.000	Y_WP:	0.000	Y_WP:	0.500	X:	0.099	Y:	0.096	Z:	0.399	yaw:	33.081	yaw rate:	-3.343	Roll:	4.005	Pitch:	0.822	Yaw:	47.192	Thrust:	9.334
Time:	2.467	Roll Set Point:	-0.234	Pitch Set Point:	-0.122	Yaw Set Point:	-0.577	X_WP:	0.000	Y_WP:	0.000	Y_WP:	0.500	X:	0.099	Y:	0.096	Z:	0.399	yaw:	33.075	yaw rate:	-2.517	Roll:	4.021	Pitch:	0.774	Yaw:	47.644	Thrust:	9.518
Time:	2.482	Roll Set Point:	-0.234	Pitch Set Point:	-0.122	Yaw Set Point:	-0.578	X_WP:	0.000	Y_WP:	0.000	Y_WP:	0.500	X:	0.099	Y:	0.096	Z:	0.399	yaw:	33.115	yaw rate:	3.971	Roll:	4.060	Pitch:	0.758	Yaw:	48.465	Thrust:	9.842
Time:	2.498	Roll Set Point:	-0.234	Pitch Set Point:	-0.122	Yaw Set Point:	-0.579	X_WP:	0.000	Y_WP:	0.000	Y_WP:	0.500	X:	0.099	Y:	0.096	Z:	0.399	yaw:	33.157	yaw rate:	4.225	Roll:	4.050	Pitch:	0.696	Yaw:	48.567	Thrust:	9.674
Time:	2.514	Roll Set Point:	-0.234	Pitch Set Point:	-0.122	Yaw Set Point:	-0.577	X_WP:	0.000	Y_WP:	0.000	Y_WP:	0.500	X:	0.099	Y:	0.096	Z:	0.399	yaw:	33.067	yaw rate:	-8.982	Roll:	4.013	Pitch:	0.863	Yaw:	46.228	Thrust:	10.290
Time:	2.529	Roll Set Point:	-0.234	Pitch Set Point:	-0.122	Yaw Set Point:	-0.577	X_WP:	0.000	Y_WP:	0.000	Y_WP:	0.500	X:	0.099	Y:	0.096	Z:	0.399	yaw:	33.071	yaw rate:	0.381	Roll:	4.061	Pitch:	0.784	Yaw:	47.803	Thrust:	10.187
Time:	2.545	Roll Set Point:	-0.234	Pitch Set Point:	-0.122	Yaw Set Point:	-0.578	X_WP:	0.000	Y_WP:	0.000	Y_WP:	0.500	X:	0.099	Y:	0.096	Z:	0.399	yaw:	33.104	yaw rate:	3.275	Roll:	4.094	Pitch:	0.806	Yaw:	48.333	Thrust:	10.782
Time:	2.560	Roll Set Point:	-0.234	Pitch Set Point:	-0.122	Yaw Set Point:	-0.577	X_WP:	0.000	Y_WP:	0.000	Y_WP:	0.500	X:	0.099	Y:	0.096	Z:	0.399	yaw:	33.074	yaw rate:	-2.946	Roll:	4.046	Pitch:	0.799	Yaw:	47.250	Thrust:	10.578
Time:	2.576	Roll Set Point:	-0.234	Pitch Set Point:	-0.122	Yaw Set Point:	-0.577	X_WP:	0.000	Y_WP:	0.000	Y_WP:	0.500	X:	0.099	Y:	0.096	Z:	0.399	yaw:	33.067	yaw rate:	-0.720	Roll:	4.039	Pitch:	0.808	Yaw:	47.613	Thrust:	10.881
Time:	2.592	Roll Set Point:	-0.234	Pitch Set Point:	-0.122	Yaw Set Point:	-0.577	X_WP:	0.000	Y_WP:	0.000	Y_WP:	0.500	X:	0.099	Y:	0.096	Z:	0.399	yaw:	33.067	yaw rate:	-0.720	Roll:	4.076	Pitch:	0.785	Yaw:	47.733	Thrust:	11.076
Time:	2.607	Roll Set Point:	-0.234	Pitch Set Point:	-0.122	Yaw Set Point:	-0.578	X_WP:	0.000	Y_WP:	0.000	Y_WP:	0.500	X:	0.099	Y:	0.096	Z:	0.399	yaw:	33.096	yaw rate:	0.103	Roll:	4.122	Pitch:	0.751	Yaw:	48.260	Thrust:	11.340
Time:	2.623	Roll Set Point:	-0.234	Pitch Set Point:	-0.122	Yaw Set Point:	-0.578	X_WP:	0.000	Y_WP:	0.000	Y_WP:	0.500	X:	0.099	Y:	0.096	Z:	0.399	yaw:	33.137	yaw rate:	4.041	Roll:	4.085	Pitch:	0.708	Yaw:	48.507	Thrust:	11.166
Time:	2.639	Roll Set Point:	-0.234	Pitch Set Point:	-0.122	Yaw Set Point:	-0.578	X_WP:	0.000	Y_WP:	0.000	Y_WP:	0.500	X:	0.099	Y:	0.096	Z:	0.399	yaw:	33.137	yaw rate:	4.041	Roll:	4.093	Pitch:	0.785	Yaw:	47.831	Thrust:	11.644
Time:	2.654	Roll Set Point:	-0.234	Pitch Set Point:	-0.122	Yaw Set Point:	-0.577	X_WP:	0.000	Y_WP:	0.000	Y_WP:	0.500	X:	0.099	Y:	0.096	Z:	0.399	yaw:	33.086	yaw rate:	-5.059	Roll:	4.070	Pitch:	0.842	Yaw:	46.911	Thrust:	12.066
Time:	2.670	Roll Set Point:	-0.234	Pitch Set Point:	-0.122	Yaw Set Point:	-0.577	X_WP:	0.000	Y_WP:	0.000	Y_WP:	0.500	X:	0.099	Y:	0.096	Z:	0.399	yaw:	33.086	yaw rate:	-5.059	Roll:	4.103	Pitch:	0.788	Yaw:	47.760	Thrust:	12.025
Time:	2.685	Roll Set Point:	-0.234	Pitch Set Point:	-0.122	Yaw Set Point:	-0.577	X_WP:	0.000	Y_WP:	0.000	Y_WP:	0.500	X:	0.099	Y:	0.096	Z:	0.399	yaw:	33.055	yaw rate:	-3.140	Roll:	4.130	Pitch:	0.877	Yaw:	47.190	Thrust:	12.201
Time:	2.701	Roll Set Point:	-0.234	Pitch Set Point:	-0.122	Yaw Set Point:	-0.577	X_WP:	0.000	Y_WP:	0.000	Y_WP:	0.500	X:	0.099	Y:	0.096	Z:	0.399	yaw:	33.055	yaw rate:	-3.140	Roll:	4.114	Pitch:	0.793	Yaw:	47.716	Thrust:	12.405
Time:	2.717	Roll Set Point:	-0.234	Pitch Set Point:	-0.121	Yaw Set Point:	-0.578	X_WP:	0.000	Y_WP:	0.000	Y_WP:	0.500	X:	0.099	Y:	0.095	Z:	0.399	yaw:	33.102	yaw rate:	3.962	Roll:	3.921	Pitch:	0.571	Yaw:	48.579	Thrust:	12.338
Time:	2.732	Roll Set Point:	-0.234	Pitch Set Point:	-0.121	Yaw Set Point:	-0.578	X_WP:	0.000	Y_WP:	0.000	Y_WP:	0.500	X:	0.099	Y:	0.095	Z:	0.399	yaw:	33.102	yaw rate:	3.962	Roll:	4.119	Pitch:	0.789	Yaw:	47.782	Thrust:	12.780
Time:	2.748	Roll Set Point:	-0.234	Pitch Set Point:	-0.122	Yaw Set Point:	-0.578	X_WP:	0.000	Y_WP:	0.000	Y_WP:	0.500	X:	0.099	Y:	0.096	Z:	0.399	yaw:	33.105	yaw rate:	0.587	Roll:	4.348	Pitch:	0.891	Yaw:	47.834	Thrust:	13.230
Time:	2.764	Roll Set Point:	-0.234	Pitch Set Point:	-0.122	Yaw Set Point:	-0.578	X_WP:	0.000	Y_WP:	0.000	Y_WP:	0.500	X:	0.099	Y:	0.096	Z:	0.399	yaw:	33.098	yaw rate:	-0.699	Roll:	4.137	Pitch:	0.787	Yaw:	47.660	Thrust:	13.175
Time:	2.779	Roll Set Point:	-0.234	Pitch Set Point:	-0.122	Yaw Set Point:	-0.577	X_WP:	0.000	Y_WP:	0.000	Y_WP:	0.500	X:	0.099	Y:	0.096	Z:	0.399	yaw:	33.086	yaw rate:	-1.271	Roll:	4.111	Pitch:	0.793	Yaw:	47.545	Thrust:	13.311
Time:	2.795	Roll Set Point:	-0.234	Pitch Set Point:	-0.122	Yaw Set Point:	-0.577	X_WP:	0.000	Y_WP:	0.000	Y_WP:	0.500	X:	0.099	Y:	0.096	Z:	0.399	yaw:	33.086	yaw rate:	-1.271	Roll:	4.145	Pitch:	0.795	Yaw:	47.759	Thrust:	13.545
Time:	2.811	Roll Set Point:	-0.234	Pitch Set Point:	-0.122	Yaw Set Point:	-0.578	X_WP:	0.000	Y_WP:	0.000	Y_WP:	0.500	X:	0.099	Y:	0.096	Z:	0.399	yaw:	33.101	yaw rate:	1.597	Roll:	4.149	Pitch:	0.775	Yaw:	48.049	Thrust:	13.680
Time:	2.826	Roll Set Point:	-0.234	Pitch Set Point:	-0.122	Yaw Set Point:	-0.577	X_WP:	0.000	Y_WP:	0.000	Y_WP:	0.500	X:	0.099	Y:	0.096	Z:	0.399	yaw:	33.067	yaw rate:	-7.840	Roll:	4.159	Pitch:	0.895	Yaw:	47.158	Thrust:	13.999
Time:	2.842	Roll Set Point:	-0.234	Pitch Set Point:	-0.122	Yaw Set Point:	-0.578	X_WP:	0.000	Y_WP:	0.000	Y_WP:	0.500	X:	0.099	Y:	0.096	Z:	0.399	yaw:	33.118	yaw rate:	5.121	Roll:	4.177	Pitch:	0.712	Yaw:	48.662	Thrust:	14.167
Time:	2.857	Roll Set Point:	-0.234	Pitch Set Point:	-0.122	Yaw Set Point:	-0.579	X_WP:	0.000	Y_WP:	0.000	Y_WP:	0.500	X:	0.099	Y:	0.096	Z:	0.399	yaw:	33.148	yaw rate:	2.952	Roll:	4.163	Pitch:	0.720	Yaw:	48.341	Thrust:	13.916
Time:	2.873	Roll Set Point:	-0.234	Pitch Set Point:	-0.122	Yaw Set Point:	-0.577	X_WP:	0.000	Y_WP:	0.000	Y_WP:	0.500	X:	0.099	Y:	0.096	Z:	0.399	yaw:	33.071	yaw rate:	-7.680	Roll:	4.158	Pitch:	0.943	Yaw:	46.458	Thrust:	14.795
Time:	2.889	Roll Set Point:	-0.234	Pitch Set Point:	-0.121	Yaw Set Point:	-0.579	X_WP:	0.000	Y_WP:	0.000	Y_WP:	0.500	X:	0.099	Y:	0.096	Z:	0.399	yaw:	33.190	yaw rate:	11.852	Roll:	4.205	Pitch:	0.596	Yaw:	49.891	Thrust:	14.595
Time:	2.904	Roll Set Point:	-0.234	Pitch Set Point:	-0.121	Yaw Set Point:	-0.579	X_WP:	0.000	Y_WP:	0.000	Y_WP:	0.500	X:	0.099	Y:	0.096	Z:	0.399	yaw:	33.190	yaw rate:	11.852	Roll:	4.183	Pitch:	0.798	Yaw:	47.904	Thrust:	14.871
Time:	2.920	Roll Set Point:	-0.234	Pitch Set Point:	-0.122	Yaw Set Point:	-0.578	X_WP:	0.000	Y_WP:	0.000	Y_WP:	0.500	X:	0.099	Y:	0.096	Z:	0.399	yaw:	33.099	yaw rate:	-0.369	Roll:	4.162	Pitch:	0.999	Yaw:	46.250	Thrust:	15.125
Time:	2.936	Roll Set Point:	-0.234	Pitch Set Point:	-0.122	Yaw Set Point:	-0.578	X_WP:	0.000	Y_WP:	0.000	Y_WP:	0.500	X:	0.099	Y:	0.096	Z:	0.399	yaw:	33.099	yaw rate:	-0.369	Roll:	4.198	Pitch:	0.807	Yaw:	47.808	Thrust:	15.445
Time:	2.950	Roll Set Point:	-0.234	Pitch Set Point:	-0.122	Yaw Set Point:	-0.579	X_WP:	0.000	Y_WP:	0.000	Y_WP:	0.500	X:	0.099	Y:	0.096	Z:	0.399	yaw:	33.176	yaw rate:	8.939	Roll:	4.190	Pitch:	0.624	Yaw:	49.176	Thrust:	14.387
Time:	2.969	Roll Set Point:	-0.234	Pitch Set Point:	-0.122	Yaw Set Point:	-0.578	X_WP:	0.000	Y_WP:	0.000	Y_WP:	0.500	X:	0.099	Y:	0.096	Z:	0.399	yaw:	33.093	yaw rate:	-8.332	Roll:	4.250	Pitch:	0.912	Yaw:	46.922	Thrust:	17.719
Time:	2.984	Roll Set Point:	-0.234	Pitch Set Point:	-0.122	Yaw Set Point:	-0.578	X_WP:	0.000	Y_WP:	0.000	Y_WP:	0.500	X:	0.099	Y:	0.096	Z:	0.399	yaw:	33.093	yaw rate:	-8.332	Roll:	4.209	Pitch:	0.808	Yaw:	47.769	Thrust:	15.821
Time:	3.000	Roll Set Point:	-0.234	Pitch Set Point:	-0.122	Yaw Set Point:	-0.577	X_WP:	0.000	Y_WP:	0.000	Y_WP:	0.500	X:	0.099	Y:	0.096	Z:	0.399	yaw:	33.081	yaw rate:	-3.382	Roll:	4.208	Pitch:	0.865	Yaw:	47.559	Thrust:	15.948
Time:	3.016	Roll Set Point:	-0.234	Pitch Set Point:	-0.122	Yaw Set Point:	-0.578	X_WP:	0.000	Y_WP:	0.000	Y_WP:	0.500	X:	0.099	Y:	0.096	Z:	0.399	yaw:	33.126	yaw rate:	4.469	Roll:	4.243	Pitch:	0.718	Yaw:	48.564	Thrust:	16.392
Time:	3.031	Roll Set Point:	-0.234	Pitch Set Point:	-0.122	Yaw Set Point:	-0.578	X_WP:	0.000	Y_WP:	0.000	Y_WP:	0.500	X:	0.099	Y:	0.096	Z:	0.399	yaw:	33.145	yaw rate:	1.907	Roll:	4.203	Pitch:	0.752	Yaw:	48.161	Thrust:	16.083
Time:	3.047	Roll Set Point:	-0.234	Pitch Set Point:	-0.122	Yaw Set Point:	-0.578	X_WP:	0.000	Y_WP:	0.000	Y_WP:	0.500	X:	0.099	Y:	0.096	Z:	0.399	yaw:	33.117	yaw rate:	-2.794	Roll:	4.261	Pitch:	0.906	Yaw:	47.335	Thrust:	16.904
Time:	3.062	Roll Set Point:	-0.234	Pitch Set Point:	-0.122	Yaw Set Point:	-0.578	X_WP:	0.000	Y_WP:	0.000	Y_WP:	0.500	X:	0.099	Y:	0.096	Z:	0.399	yaw:	33.090	yaw rate:	-2.694	Roll:	4.200	Pitch:	0.864	Yaw:	47.314	Thrust:	16.697
Time:	3.078	Roll Set Point:	-0.234	Pitch Set Point:	-0.122	Yaw Set Point:	-0.578	X_WP:	0.000	Y_WP:	0.000	Y_WP:	0.500	X:	0.099	Y:	0.096	Z:	0.399	yaw:	33.122	yaw rate:	3.156	Roll:	4.272	Pitch:	0.687	Yaw:	48.340	Thrust:	16.969
Time:	3.094	Roll Set Point:	-0.234	Pitch Set Point:	-0.122	Yaw Set Point:	-0.578	X_WP:	0.000	Y_WP:	0.000	Y_WP:	0.500	X:	0.099	Y:	0.096	Z:	0.399	yaw:	33.122	yaw rate:	3.156	Roll:	4.246	Pitch:	0.813	Yaw:	47.809	Thrust:	17.150
Time:	3.109	Roll Set Point:	-0.234	Pitch Set Point:	-0.122	Yaw Set Point:	-0.578	X_WP:	0.000	Y_WP:	0.000	Y_WP:	0.500	X:	0.099	Y:	0.096	Z:	0.399	yaw:	33.100	yaw rate:	3.735	Roll:	4.236	Pitch:	0.908	Yaw:	47.405	Thrust:	17.303
Time:	3.125	Roll Set Point:	-0.234	Pitch Set Point:	-0.122	Yaw Set Point:	-0.578	X_WP:	0.000	Y_WP:	0.000	Y_WP:	0.500	X:	0.099	Y:	0.096	Z:	0.399	yaw:	33.110	yaw rate:	0.997	Roll:	4.263	Pitch:	0.799	Yaw:	47.962	Thrust:	17.591
Time:	3.141	Roll Set Point:	-0.234	Pitch Set Point:	-0.122	Yaw Set Point:	-0.578	X_WP:	0.000	Y_WP:	0.000	Y_WP:	0.500	X:	0.099	Y:	0.096	Z:	0.399	yaw:	33.105	yaw rate:	-0.436	Roll:	4.265	Pitch:	0.851	Yaw:	47.710	Thrust:	17.801
Time:	3.156	Roll Set Point:	-0.234	Pitch Set Point:	-0.122	Yaw Set Point:	-0.577	X_WP:	0.000	Y_WP:	0.000	Y_WP:	0.500	X:	0.099	Y:	0.096	Z:	0.399	yaw:	33.066	yaw rate:	-3.876	Roll:	4.252	Pitch:	0.828	Yaw:	47.083	Thrust:	17.709
Time:	3.172	Roll Set Point:	-0.235	Pitch Set Point:	-0.122	Yaw Set Point:	-0.578	X_WP:	0.000	Y_WP:	0.000	Y_WP:	0.500	X:	0.099	Y:	0.096	Z:	0.399	yaw:	33.122	yaw rate:	5.583	Roll:	4.302	Pitch:	0.693	Yaw:	48.746	Thrust:	18.176
Time:	3.187	Roll Set Point:	-0.234	Pitch Set Point:	-0.122	Yaw Set Point:	-0.577	X_WP:	0.000	Y_WP:	0.000	Y_WP:	0.500	X:	0.099	Y:	0.096	Z:	0.399	yaw:	33.082	yaw rate:	-4.024	Roll:	4.246	Pitch:	0.969	Yaw:	47.080	Thrust:	18.178
Time:	3.203	Roll Set Point:	-0.234	Pitch Set Point:	-0.122	Yaw Set Point:	-0.577	X_WP:	0.000	Y_WP:	0.000	Y_WP:	0.500	X:	0.099	Y:	0.096	Z:	0.399	yaw:	33.082	yaw rate:	-4.024	Roll:	4.283	Pitch:	0.823	Yaw:	47.754	Thrust:	18.479
Time:	3.219	Roll Set Point:	-0.234	Pitch Set Point:	-0.122	Yaw Set Point:	-0.578	X_WP:	0.000	Y_WP:	0.000	Y_WP:	0.500	X:	0.099	Y:	0.096	Z:	0.399	yaw:	33.131	yaw rate:	4.216	Roll:	4.259	Pitch:	0.688	Yaw:	48.648	Thrust:	18.506
Time:	3.247	Roll Set Point:	-0.234	Pitch Set Point:	-0.122	Yaw Set Point:	-0.577	X_WP:	0.000	Y_WP:	0.000	Y_WP:	0.500	X:	0.099	Y:	0.096	Z:	0.399	yaw:	33.076	yaw rate:	-1.891	Roll:	4.625	Pitch:	0.956	Yaw:	48.551	Thrust:	30.087
Time:	3.263	Roll Set Point:	-0.234	Pitch Set Point:	-0.122	Yaw Set Point:	-0.577	X_WP:	0.000	Y_WP:	0.000	Y_WP:	0.500	X:	0.099	Y:	0.096	Z:	0.399	yaw:	33.056	yaw rate:	-2.017	Roll:	4.270	Pitch:	0.855	Yaw:	47.380	Thrust:	18.990
Time:	3.279	Roll Set Point:	-0.234	Pitch Set Point:	-0.122	Yaw Set Point:	-0.577	X_WP:	0.000	Y_WP:	0.000	Y_WP:	0.500	X:	0.099	Y:	0.096	Z:	0.399	yaw:	33.056	yaw rate:	-2.017	Roll:	4.304	Pitch:	0.828	Yaw:	47.718	Thrust:	19.238
Time:	3.294	Roll Set Point:	-0.234	Pitch Set Point:	-0.121	Yaw Set Point:	-0.579	X_WP:	0.000	Y_WP:	0.000	Y_WP:	0.500	X:	0.099	Y:	0.096	Z:	0.399	yaw:	33.178	yaw rate:	8.461	Roll:	4.332	Pitch:	0.575	Yaw:	49.929	Thrust:	19.438
Time:	3.310	Roll Set Point:	-0.234	Pitch Set Point:	-0.122	Yaw Set Point:	-0.578	X_WP:	0.000	Y_WP:	0.000	Y_WP:	0.500	X:	0.099	Y:	0.096	Z:	0.399	yaw:	33.096	yaw rate:	-8.142	Roll:	4.335	Pitch:	1.040	Yaw:	46.410	Thrust:	19.689
Time:	3.326	Roll Set Point:	-0.234	Pitch Set Point:	-0.122	Yaw Set Point:	-0.578	X_WP:	0.000	Y_WP:	0.000	Y_WP:	0.500	X:	0.099	Y:	0.096	Z:	0.399	yaw:	33.096	yaw rate:	-8.142	Roll:	4.321	Pitch:	0.830	Yaw:	47.774	Thrust:	19.809
Time:	3.341	Roll Set Point:	-0.234	Pitch Set Point:	-0.121	Yaw Set Point:	-0.580	X_WP:	0.000	Y_WP:	0.000	Y_WP:	0.500	X:	0.099	Y:	0.096	Z:	0.399	yaw:	33.205	yaw rate:	8.332	Roll:	4.323	Pitch:	0.601	Yaw:	49.741	Thrust:	19.946
Time:	3.357	Roll Set Point:	-0.234	Pitch Set Point:	-0.121	Yaw Set Point:	-0.580	X_WP:	0.000	Y_WP:	0.000	Y_WP:	0.500	X:	0.099	Y:	0.096	Z:	0.399	yaw:	33.205	yaw rate:	8.332	Roll:	4.331	Pitch:	0.826	Yaw:	47.925	Thrust:	20.187
Time:	3.372	Roll Set Point:	-0.234	Pitch Set Point:	-0.122	Yaw Set Point:	-0.577	X_WP:	0.000	Y_WP:	0.000	Y_WP:	0.500	X:	0.099	Y:	0.096	Z:	0.399	yaw:	33.079	yaw rate:	-9.703	Roll:	4.310	Pitch:	1.076	Yaw:	45.642	Thrust:	20.460
Time:	3.388	Roll Set Point:	-0.234	Pitch Set Point:	-0.122	Yaw Set Point:	-0.578	X_WP:	0.000	Y_WP:	0.000	Y_WP:	0.500	X:	0.099	Y:	0.096	Z:	0.399	yaw:	33.098	yaw rate:	1.950	Roll:	4.350	Pitch:	0.774	Yaw:	48.104	Thrust:	20.499
Time:	3.404	Roll Set Point:	-0.234	Pitch Set Point:	-0.122	Yaw Set Point:	-0.578	X_WP:	0.000	Y_WP:	0.000	Y_WP:	0.500	X:	0.099	Y:	0.096	Z:	0.399	yaw:	33.106	yaw rate:	0.719	Roll:	4.353	Pitch:	0.814	Yaw:	47.907	Thrust:	20.853
Time:	3.419	Roll Set Point:	-0.234	Pitch Set Point:	-0.121	Yaw Set Point:	-0.579	X_WP:	0.000	Y_WP:	0.000	Y_WP:	0.500	X:	0.099	Y:	0.096	Z:	0.399	yaw:	33.155	yaw rate:	4.896	Roll:	4.327	Pitch:	0.697	Yaw:	48.675	Thrust:	20.700
Time:	3.435	Roll Set Point:	-0.235	Pitch Set Point:	-0.122	Yaw Set Point:	-0.577	X_WP:	0.000	Y_WP:	0.000	Y_WP:	0.500	X:	0.099	Y:	0.096	Z:	0.399	yaw:	33.086	yaw rate:	-6.890	Roll:	4.386	Pitch:	0.983	Yaw:	46.605	Thrust:	21.391
Time:	3.451	Roll Set Point:	-0.235	Pitch Set Point:	-0.122	Yaw Set Point:	-0.577	X_WP:	0.000	Y_WP:	0.000	Y_WP:	0.500	X:	0.099	Y:	0.096	Z:	0.399	yaw:	33.086	yaw rate:	-6.890	Roll:	4.363	Pitch:	0.837	Yaw:	47.759	Thrust:	21.328
Time:	3.466	Roll Set Point:	-0.234	Pitch Set Point:	-0.122	Yaw Set Point:	-0.578	X_WP:	0.000	Y_WP:	0.000	Y_WP:	0.500	X:	0.099	Y:	0.096	Z:	0.399	yaw:	33.115	yaw rate:	2.914	Roll:	4.369	Pitch:	0.811	Yaw:	48.290	Thrust:	21.484
Time:	3.482	Roll Set Point:	-0.234	Pitch Set Point:	-0.122	Yaw Set Point:	-0.578	X_WP:	0.000	Y_WP:	0.000	Y_WP:	0.500	X:	0.099	Y:	0.096	Z:	0.399	yaw:	33.089	yaw rate:	-2.615	Roll:	4.360	Pitch:	0.877	Yaw:	47.321	Thrust:	21.612
Time:	3.497	Roll Set Point:	-0.234	Pitch Set Point:	-0.122	Yaw Set Point:	-0.579	X_WP:	0.000	Y_WP:	0.000	Y_WP:	0.500	X:	0.099	Y:	0.096	Z:	0.399	yaw:	33.152	yaw rate:	6.334	Roll:	4.384	Pitch:	0.764	Yaw:	48.913	Thrust:	21.810
Time:	3.513	Roll Set Point:	-0.234	Pitch Set Point:	-0.122	Yaw Set Point:	-0.578	X_WP:	0.000	Y_WP:	0.000	Y_WP:	0.500	X:	0.099	Y:	0.096	Z:	0.399	yaw:	33.089	yaw rate:	-6.324	Roll:	4.380	Pitch:	0.943	Yaw:	46.709	Thrust:	22.329
Time:	3.529	Roll Set Point:	-0.234	Pitch Set Point:	-0.122	Yaw Set Point:	-0.578	X_WP:	0.000	Y_WP:	0.000	Y_WP:	0.500	X:	0.099	Y:	0.096	Z:	0.399	yaw:	33.095	yaw rate:	0.584	Roll:	4.373	Pitch:	0.796	Yaw:	47.867	Thrust:	22.240
Time:	3.544	Roll Set Point:	-0.234	Pitch Set Point:	-0.122	Yaw Set Point:	-0.578	X_WP:	0.000	Y_WP:	0.000	Y_WP:	0.500	X:	0.099	Y:	0.096	Z:	0.399	yaw:	33.114	yaw rate:	1.949	Roll:	4.419	Pitch:	0.832	Yaw:	48.128	Thrust:	22.535
Time:	3.560	Roll Set Point:	-0.234	Pitch Set Point:	-0.122	Yaw Set Point:	-0.579	X_WP:	0.000	Y_WP:	0.000	Y_WP:	0.500	X:	0.099	Y:	0.096	Z:	0.399	yaw:	33.173	yaw rate:	5.910	Roll:	4.411	Pitch:	0.724	Yaw:	48.870	Thrust:	22.371
Time:	3.576	Roll Set Point:	-0.234	Pitch Set Point:	-0.122	Yaw Set Point:	-0.578	X_WP:	0.000	Y_WP:	0.000	Y_WP:	0.500	X:	0.099	Y:	0.096	Z:	0.399	yaw:	33.109	yaw rate:	-6.416	Roll:	4.409	Pitch:	0.954	Yaw:	46.722	Thrust:	23.078
Time:	3.591	Roll Set Point:	-0.234	Pitch Set Point:	-0.122	Yaw Set Point:	-0.578	X_WP:	0.000	Y_WP:	0.000	Y_WP:	0.500	X:	0.099	Y:	0.096	Z:	0.399	yaw:	33.128	yaw rate:	1.925	Roll:	4.398	Pitch:	0.839	Yaw:	48.139	Thrust:	23.133
Time:	3.607	Roll Set Point:	-0.234	Pitch Set Point:	-0.122	Yaw Set Point:	-0.577	X_WP:	0.000	Y_WP:	0.000	Y_WP:	0.500	X:	0.099	Y:	0.096	Z:	0.399	yaw:	33.060	yaw rate:	-6.864	Roll:	4.390	Pitch:	0.925	Yaw:	46.579	Thrust:	23.045
Time:	3.622	Roll Set Point:	-0.234	Pitch Set Point:	-0.122	Yaw Set Point:	-0.577	X_WP:	0.000	Y_WP:	0.000	Y_WP:	0.500	X:	0.099	Y:	0.096	Z:	0.399	yaw:	33.060	yaw rate:	-6.864	Roll:	4.419	Pitch:	0.849	Yaw:	47.719	Thrust:	23.375
Time:	3.638	Roll Set Point:	-0.234	Pitch Set Point:	-0.122	Yaw Set Point:	-0.578	X_WP:	0.000	Y_WP:	0.000	Y_WP:	0.500	X:	0.099	Y:	0.096	Z:	0.399	yaw:	33.120	yaw rate:	-3.283	Roll:	4.452	Pitch:	0.771	Yaw:	48.815	Thrust:	23.681
Time:	3.654	Roll Set Point:	-0.234	Pitch Set Point:	-0.122	Yaw Set Point:	-0.578	X_WP:	0.000	Y_WP:	0.000	Y_WP:	0.500	X:	0.099	Y:	0.096	Z:	0.399	yaw:	33.120	yaw rate:	-3.283	Roll:	4.432	Pitch:	0.850	Yaw:	47.810	Thrust:	23.831
Time:	3.669	Roll Set Point:	-0.234	Pitch Set Point:	-0.122	Yaw Set Point:	-0.577	X_WP:	0.000	Y_WP:	0.000	Y_WP:	0.500	X:	0.099	Y:	0.096	Z:	0.399	yaw:	33.083	yaw rate:	-1.489	Roll:	4.408	Pitch:	0.891	Yaw:	47.141	Thrust:	23.952
Time:	3.685	Roll Set Point:	-0.234	Pitch Set Point:	-0.122	Yaw Set Point:	-0.577	X_WP:	0.000	Y_WP:	0.000	Y_WP:	0.500	X:	0.099	Y:	0.096	Z:	0.399	yaw:	33.083	yaw rate:	-1.489	Roll:	4.440	Pitch:	0.852	Yaw:	47.753	Thrust:	24.143
Time:	3.701	Roll Set Point:	-0.234	Pitch Set Point:	-0.121	Yaw Set Point:	-0.579	X_WP:	0.000	Y_WP:	0.000	Y_WP:	0.500	X:	0.099	Y:	0.095	Z:	0.399	yaw:	33.164	yaw rate:	8.094	Roll:	4.240	Pitch:	0.617	Yaw:	49.224	Thrust:	23.842
Time:	3.716	Roll Set Point:	-0.234	Pitch Set Point:	-0.122	Yaw Set Point:	-0.577	X_WP:	0.000	Y_WP:	0.000	Y_WP:	0.500	X:	0.099	Y:	0.096	Z:	0.399	yaw:	33.073	yaw rate:	1.948	Roll:	4.661	Pitch:	1.147	Yaw:	46.225	Thrust:	25.108
Time:	3.732	Roll Set Point:	-0.234	Pitch Set Point:	-0.122	Yaw Set Point:	-0.577	X_WP:	0.000	Y_WP:	0.000	Y_WP:	0.500	X:	0.099	Y:	0.096	Z:	0.399	yaw:	33.070	yaw rate:	-0.282	Roll:	4.438	Pitch:	0.818	Yaw:	47.687	Thrust:	24.707
Time:	3.747	Roll Set Point:	-0.234	Pitch Set Point:	-0.122	Yaw Set Point:	-0.577	X_WP:	0.000	Y_WP:	0.000	Y_WP:	0.500	X:	0.099	Y:	0.096	Z:	0.399	yaw:	33.073	yaw rate:	0.284	Roll:	4.492	Pitch:	0.868	Yaw:	47.792	Thrust:	24.941
Time:	3.763	Roll Set Point:	-0.234	Pitch Set Point:	-0.122	Yaw Set Point:	-0.577	X_WP:	0.000	Y_WP:	0.000	Y_WP:	0.500	X:	0.099	Y:	0.096	Z:	0.399	yaw:	33.085	yaw rate:	1.195	Roll:	4.469	Pitch:	0.885	Yaw:	47.959	Thrust:	25.262
Time:	3.779	Roll Set Point:	-0.234	Pitch Set Point:	-0.122	Yaw Set Point:	-0.577	X_WP:	0.000	Y_WP:	0.000	Y_WP:	0.500	X:	0.099	Y:	0.096	Z:	0.399	yaw:	33.085	yaw rate:	1.195	Roll:	4.472	Pitch:	0.860	Yaw:	47.755	Thrust:	25.276
Time:	3.794	Roll Set Point:	-0.234	Pitch Set Point:	-0.122	Yaw Set Point:	-0.577	X_WP:	0.000	Y_WP:	0.000	Y_WP:	0.500	X:	0.099	Y:	0.096	Z:	0.399	yaw:	33.050	yaw rate:	-1.139	Roll:	4.426	Pitch:	0.842	Yaw:	47.128	Thrust:	25.346
Time:	3.810	Roll Set Point:	-0.234	Pitch Set Point:	-0.122	Yaw Set Point:	-0.577	X_WP:	0.000	Y_WP:	0.000	Y_WP:	0.500	X:	0.099	Y:	0.096	Z:	0.399	yaw:	33.050	yaw rate:	-1.139	Roll:	4.482	Pitch:	0.861	Yaw:	47.707	Thrust:	25.654
Time:	3.826	Roll Set Point:	-0.234	Pitch Set Point:	-0.122	Yaw Set Point:	-0.579	X_WP:	0.000	Y_WP:	0.000	Y_WP:	0.500	X:	0.099	Y:	0.096	Z:	0.399	yaw:	33.153	yaw rate:	5.385	Roll:	4.548	Pitch:	0.763	Yaw:	49.574	Thrust:	25.751
Time:	3.841	Roll Set Point:	-0.234	Pitch Set Point:	-0.122	Yaw Set Point:	-0.579	X_WP:	0.000	Y_WP:	0.000	Y_WP:	0.500	X:	0.099	Y:	0.096	Z:	0.399	yaw:	33.153	yaw rate:	5.385	Roll:	4.495	Pitch:	0.861	Yaw:	47.853	Thrust:	26.069
Time:	3.857	Roll Set Point:	-0.234	Pitch Set Point:	-0.122	Yaw Set Point:	-0.577	X_WP:	0.000	Y_WP:	0.000	Y_WP:	0.500	X:	0.099	Y:	0.096	Z:	0.399	yaw:	33.070	yaw rate:	-0.696	Roll:	4.469	Pitch:	0.928	Yaw:	46.340	Thrust:	26.446
Time:	3.872	Roll Set Point:	-0.234	Pitch Set Point:	-0.122	Yaw Set Point:	-0.577	X_WP:	0.000	Y_WP:	0.000	Y_WP:	0.500	X:	0.099	Y:	0.096	Z:	0.399	yaw:	33.064	yaw rate:	-0.554	Roll:	4.526	Pitch:	0.934	Yaw:	47.636	Thrust:	26.481
Time:	3.888	Roll Set Point:	-0.234	Pitch Set Point:	-0.122	Yaw Set Point:	-0.577	X_WP:	0.000	Y_WP:	0.000	Y_WP:	0.500	X:	0.099	Y:	0.096	Z:	0.399	yaw:	33.064	yaw rate:	-0.554	Roll:	4.510	Pitch:	0.868	Yaw:	47.729	Thrust:	26.642
Time:	3.904	Roll Set Point:	-0.234	Pitch Set Point:	-0.122	Yaw Set Point:	-0.577	X_WP:	0.000	Y_WP:	0.000	Y_WP:	0.500	X:	0.099	Y:	0.096	Z:	0.399	yaw:	33.074	yaw rate:	-0.932	Roll:	4.495	Pitch:	0.819	Yaw:	47.919	Thrust:	26.861
Time:	3.919	Roll Set Point:	-0.234	Pitch Set Point:	-0.122	Yaw Set Point:	-0.578	X_WP:	0.000	Y_WP:	0.000	Y_WP:	0.500	X:	0.099	Y:	0.096	Z:	0.399	yaw:	33.098	yaw rate:	2.320	Roll:	4.520	Pitch:	0.840	Yaw:	48.162	Thrust:	27.103
Time:	3.935	Roll Set Point:	-0.234	Pitch Set Point:	-0.122	Yaw Set Point:	-0.578	X_WP:	0.000	Y_WP:	0.000	Y_WP:	0.500	X:	0.099	Y:	0.096	Z:	0.399	yaw:	33.098	yaw rate:	2.320	Roll:	4.510	Pitch:	0.869	Yaw:	47.776	Thrust:	27.217
Time:	3.951	Roll Set Point:	-0.235	Pitch Set Point:	-0.122	Yaw Set Point:	-0.578	X_WP:	0.000	Y_WP:	0.000	Y_WP:	0.500	X:	0.099	Y:	0.096	Z:	0.399	yaw:	33.094	yaw rate:	1.907	Roll:	4.547	Pitch:	0.871	Yaw:	47.715	Thrust:	27.354
Time:	3.966	Roll Set Point:	-0.235	Pitch Set Point:	-0.122	Yaw Set Point:	-0.578	X_WP:	0.000	Y_WP:	0.000	Y_WP:	0.500	X:	0.099	Y:	0.096	Z:	0.399	yaw:	33.094	yaw rate:	1.907	Roll:	4.509	Pitch:	0.871	Yaw:	47.768	Thrust:	27.549
Time:	3.982	Roll Set Point:	-0.234	Pitch Set Point:	-0.122	Yaw Set Point:	-0.577	X_WP:	0.000	Y_WP:	0.000	Y_WP:	0.500	X:	0.099	Y:	0.096	Z:	0.399	yaw:	33.036	yaw rate:	-7.433	Roll:	4.429	Pitch:	0.964	Yaw:	46.707	Thrust:	27.654
Time:	3.997	Roll Set Point:	-0.234	Pitch Set Point:	-0.122	Yaw Set Point:	-0.577	X_WP:	0.000	Y_WP:	0.000	Y_WP:	0.500	X:	0.099	Y:	0.096	Z:	0.399	yaw:	33.036	yaw rate:	-7.433	Roll:	4.508	Pitch:	0.875	Yaw:	47.689	Thrust:	27.970
Time:	4.013	Roll Set Point:	-0.234	Pitch Set Point:	-0.122	Yaw Set Point:	-0.577	X_WP:	0.000	Y_WP:	0.000	Y_WP:	0.500	X:	0.099	Y:	0.096	Z:	0.399	yaw:	33.082	yaw rate:	-0.517	Roll:	4.572	Pitch:	0.820	Yaw:	48.538	Thrust:	28.336
Time:	4.029	Roll Set Point:	-0.234	Pitch Set Point:	-0.122	Yaw Set Point:	-0.578	X_WP:	0.000	Y_WP:	0.000	Y_WP:	0.500	X:	0.099	Y:	0.096	Z:	0.399	yaw:	33.093	yaw rate:	1.017	Roll:	4.490	Pitch:	0.843	Yaw:	47.939	Thrust:	28.327
Time:	4.044	Roll Set Point:	-0.234	Pitch Set Point:	-0.122	Yaw Set Point:	-0.578	X_WP:	0.000	Y_WP:	0.000	Y_WP:	0.500	X:	0.099	Y:	0.096	Z:	0.399	yaw:	33.112	yaw rate:	1.964	Roll:	4.505	Pitch:	0.871	Yaw:	48.125	Thrust:	28.674
Time:	4.060	Roll Set Point:	-0.234	Pitch Set Point:	-0.122	Yaw Set Point:	-0.578	X_WP:	0.000	Y_WP:	0.000	Y_WP:	0.500	X:	0.099	Y:	0.096	Z:	0.399	yaw:	33.112	yaw rate:	1.964	Roll:	4.509	Pitch:	0.877	Yaw:	47.796	Thrust:	28.735
Time:	4.076	Roll Set Point:	-0.234	Pitch Set Point:	-0.122	Yaw Set Point:	-0.578	X_WP:	0.000	Y_WP:	0.000	Y_WP:	0.500	X:	0.099	Y:	0.096	Z:	0.399	yaw:	33.103	yaw rate:	1.816	Roll:	4.532	Pitch:	0.895	Yaw:	47.630	Thrust:	28.868
Time:	4.091	Roll Set Point:	-0.234	Pitch Set Point:	-0.122	Yaw Set Point:	-0.579	X_WP:	0.000	Y_WP:	0.000	Y_WP:	0.500	X:	0.099	Y:	0.096	Z:	0.399	yaw:	33.178	yaw rate:	7.486	Roll:	4.508	Pitch:	0.735	Yaw:	49.140	Thrust:	28.940
Time:	4.107	Roll Set Point:	-0.234	Pitch Set Point:	-0.122	Yaw Set Point:	-0.577	X_WP:	0.000	Y_WP:	0.000	Y_WP:	0.500	X:	0.099	Y:	0.096	Z:	0.399	yaw:	33.085	yaw rate:	-9.278	Roll:	4.483	Pitch:	1.035	Yaw:	46.210	Thrust:	29.440
Time:	4.122	Roll Set Point:	-0.234	Pitch Set Point:	-0.122	Yaw Set Point:	-0.577	X_WP:	0.000	Y_WP:	0.000	Y_WP:	0.500	X:	0.099	Y:	0.096	Z:	0.399	yaw:	33.078	yaw rate:	-0.689	Roll:	4.496	Pitch:	0.879	Yaw:	47.629	Thrust:	29.442
Time:	4.138	Roll Set Point:	-0.234	Pitch Set Point:	-0.122	Yaw Set Point:	-0.578	X_WP:	0.000	Y_WP:	0.000	Y_WP:	0.500	X:	0.099	Y:	0.096	Z:	0.399	yaw:	33.112	yaw rate:	3.401	Roll:	4.569	Pitch:	0.869	Yaw:	48.367	Thrust:	29.832
Time:	4.154	Roll Set Point:	-0.234	Pitch Set Point:	-0.122	Yaw Set Point:	-0.578	X_WP:	0.000	Y_WP:	0.000	Y_WP:	0.500	X:	0.099	Y:	0.096	Z:	0.399	yaw:	33.112	yaw rate:	3.401	Roll:	4.510	Pitch:	0.883	Yaw:	47.796	Thrust:	29.874
Time:	4.169	Roll Set Point:	-0.234	Pitch Set Point:	-0.122	Yaw Set Point:	-0.577	X_WP:	0.000	Y_WP:	0.000	Y_WP:	0.500	X:	0.099	Y:	0.096	Z:	0.399	yaw:	33.074	yaw rate:	-4.488	Roll:	4.445	Pitch:	0.892	Yaw:	47.100	Thrust:	29.997
Time:	4.185	Roll Set Point:	-0.234	Pitch Set Point:	-0.122	Yaw Set Point:	-0.577	X_WP:	0.000	Y_WP:	0.000	Y_WP:	0.500	X:	0.099	Y:	0.096	Z:	0.399	yaw:	33.074	yaw rate:	-4.488	Roll:	4.508	Pitch:	0.885	Yaw:	47.739	Thrust:	30.202
Time:	4.201	Roll Set Point:	-0.234	Pitch Set Point:	-0.122	Yaw Set Point:	-0.577	X_WP:	0.000	Y_WP:	0.000	Y_WP:	0.500	X:	0.099	Y:	0.096	Z:	0.399	yaw:	33.071	yaw rate:	-4.134	Roll:	4.535	Pitch:	0.954	Yaw:	47.701	Thrust:	30.424
Time:	4.216	Roll Set Point:	-0.234	Pitch Set Point:	-0.122	Yaw Set Point:	-0.577	X_WP:	0.000	Y_WP:	0.000	Y_WP:	0.500	X:	0.099	Y:	0.096	Z:	0.399	yaw:	33.071	yaw rate:	-4.134	Roll:	4.510	Pitch:	0.889	Yaw:	47.739	Thrust:	30.635
Time:	4.247	Roll Set Point:	-0.234	Pitch Set Point:	-0.122	Yaw Set Point:	-0.579	X_WP:	0.000	Y_WP:	0.000	Y_WP:	0.500	X:	0.099	Y:	0.096	Z:	0.399	yaw:	33.159	yaw rate:	8.833	Roll:	5.105	Pitch:	0.915	Yaw:	50.126	Thrust:	55.362
Time:	4.263	Roll Set Point:	-0.234	Pitch Set Point:	-0.122	Yaw Set Point:	-0.578	X_WP:	0.000	Y_WP:	0.000	Y_WP:	0.500	X:	0.099	Y:	0.096	Z:	0.399	yaw:	33.110	yaw rate:	4.081	Roll:	4.481	Pitch:	0.980	Yaw:	46.965	Thrust:	30.906
Time:	4.278	Roll Set Point:	-0.234	Pitch Set Point:	-0.122	Yaw Set Point:	-0.578	X_WP:	0.000	Y_WP:	0.000	Y_WP:	0.500	X:	0.099	Y:	0.096	Z:	0.399	yaw:	33.093	yaw rate:	-1.708	Roll:	4.493	Pitch:	0.949	Yaw:	47.486	Thrust:	31.251
Time:	4.294	Roll Set Point:	-0.234	Pitch Set Point:	-0.122	Yaw Set Point:	-0.579	X_WP:	0.000	Y_WP:	0.000	Y_WP:	0.500	X:	0.099	Y:	0.096	Z:	0.399	yaw:	33.147	yaw rate:	5.409	Roll:	4.506	Pitch:	0.769	Yaw:	48.750	Thrust:	31.084
Time:	4.310	Roll Set Point:	-0.234	Pitch Set Point:	-0.122	Yaw Set Point:	-0.577	X_WP:	0.000	Y_WP:	0.000	Y_WP:	0.500	X:	0.099	Y:	0.096	Z:	0.399	yaw:	33.046	yaw rate:	-10.056	Roll:	4.481	Pitch:	1.069	Yaw:	46.020	Thrust:	31.723
Time:	4.325	Roll Set Point:	-0.234	Pitch Set Point:	-0.122	Yaw Set Point:	-0.577	X_WP:	0.000	Y_WP:	0.000	Y_WP:	0.500	X:	0.099	Y:	0.096	Z:	0.399	yaw:	33.079	yaw rate:	3.207	Roll:	4.535	Pitch:	0.786	Yaw:	48.286	Thrust:	31.773
Time:	4.341	Roll Set Point:	-0.234	Pitch Set Point:	-0.122	Yaw Set Point:	-0.578	X_WP:	0.000	Y_WP:	0.000	Y_WP:	0.500	X:	0.099	Y:	0.096	Z:	0.399	yaw:	33.094	yaw rate:	1.512	Roll:	4.518	Pitch:	0.933	Yaw:	48.023	Thrust:	32.018
Time:	4.356	Roll Set Point:	-0.234	Pitch Set Point:	-0.122	Yaw Set Point:	-0.578	X_WP:	0.000	Y_WP:	0.000	Y_WP:	0.500	X:	0.099	Y:	0.096	Z:	0.399	yaw:	33.120	yaw rate:	2.646	Roll:	4.521	Pitch:	0.866	Yaw:	48.250	Thrust:	32.197
Time:	4.372	Roll Set Point:	-0.234	Pitch Set Point:	-0.122	Yaw Set Point:	-0.577	X_WP:	0.000	Y_WP:	0.000	Y_WP:	0.500	X:	0.099	Y:	0.096	Z:	0.399	yaw:	33.087	yaw rate:	-3.355	Roll:	4.486	Pitch:	0.930	Yaw:	47.198	Thrust:	32.265
Time:	4.388	Roll Set Point:	-0.234	Pitch Set Point:	-0.122	Yaw Set Point:	-0.578	X_WP:	0.000	Y_WP:	0.000	Y_WP:	0.500	X:	0.099	Y:	0.096	Z:	0.399	yaw:	33.094	yaw rate:	0.739	Roll:	4.531	Pitch:	0.912	Yaw:	47.895	Thrust:	32.651
Time:	4.403	Roll Set Point:	-0.234	Pitch Set Point:	-0.122	Yaw Set Point:	-0.578	X_WP:	0.000	Y_WP:	0.000	Y_WP:	0.500	X:	0.099	Y:	0.096	Z:	0.399	yaw:	33.091	yaw rate:	-0.302	Roll:	4.503	Pitch:	0.877	Yaw:	47.717	Thrust:	32.666
Time:	4.419	Roll Set Point:	-0.234	Pitch Set Point:	-0.122	Yaw Set Point:	-0.578	X_WP:	0.000	Y_WP:	0.000	Y_WP:	0.500	X:	0.099	Y:	0.096	Z:	0.399	yaw:	33.096	yaw rate:	0.459	Roll:	4.509	Pitch:	0.879	Yaw:	47.850	Thrust:	32.978
Time:	4.435	Roll Set Point:	-0.234	Pitch Set Point:	-0.122	Yaw Set Point:	-0.578	X_WP:	0.000	Y_WP:	0.000	Y_WP:	0.500	X:	0.099	Y:	0.096	Z:	0.399	yaw:	33.096	yaw rate:	0.459	Roll:	4.510	Pitch:	0.900	Yaw:	47.772	Thrust:	33.095
Time:	4.450	Roll Set Point:	-0.234	Pitch Set Point:	-0.122	Yaw Set Point:	-0.577	X_WP:	0.000	Y_WP:	0.000	Y_WP:	0.500	X:	0.099	Y:	0.096	Z:	0.399	yaw:	33.056	yaw rate:	-2.746	Roll:	4.499	Pitch:	1.006	Yaw:	47.051	Thrust:	33.096
Time:	4.466	Roll Set Point:	-0.234	Pitch Set Point:	-0.122	Yaw Set Point:	-0.578	X_WP:	0.000	Y_WP:	0.000	Y_WP:	0.500	X:	0.099	Y:	0.096	Z:	0.399	yaw:	33.094	yaw rate:	3.831	Roll:	4.520	Pitch:	0.819	Yaw:	48.413	Thrust:	33.515
Time:	4.481	Roll Set Point:	-0.234	Pitch Set Point:	-0.122	Yaw Set Point:	-0.578	X_WP:	0.000	Y_WP:	0.000	Y_WP:	0.500	X:	0.099	Y:	0.096	Z:	0.399	yaw:	33.098	yaw rate:	0.381	Roll:	4.522	Pitch:	0.888	Yaw:	47.840	Thrust:	33.741
Time:	4.497	Roll Set Point:	-0.234	Pitch Set Point:	-0.122	Yaw Set Point:	-0.579	X_WP:	0.000	Y_WP:	0.000	Y_WP:	0.500	X:	0.099	Y:	0.096	Z:	0.399	yaw:	33.169	yaw rate:	7.057	Roll:	4.487	Pitch:	0.771	Yaw:	49.057	Thrust:	33.729
Time:	4.513	Roll Set Point:	-0.234	Pitch Set Point:	-0.122	Yaw Set Point:	-0.578	X_WP:	0.000	Y_WP:	0.000	Y_WP:	0.500	X:	0.099	Y:	0.096	Z:	0.399	yaw:	33.097	yaw rate:	-7.153	Roll:	4.519	Pitch:	1.012	Yaw:	46.576	Thrust:	34.119
Time:	4.528	Roll Set Point:	-0.234	Pitch Set Point:	-0.122	Yaw Set Point:	-0.577	X_WP:	0.000	Y_WP:	0.000	Y_WP:	0.500	X:	0.099	Y:	0.096	Z:	0.399	yaw:	33.082	yaw rate:	-1.479	Roll:	4.503	Pitch:	0.997	Yaw:	47.506	Thrust:	34.255
Time:	4.544	Roll Set Point:	-0.234	Pitch Set Point:	-0.122	Yaw Set Point:	-0.577	X_WP:	0.000	Y_WP:	0.000	Y_WP:	0.500	X:	0.099	Y:	0.096	Z:	0.399	yaw:	33.074	yaw rate:	-0.779	Roll:	4.512	Pitch:	0.874	Yaw:	47.613	Thrust:	34.436
Time:	4.560	Roll Set Point:	-0.234	Pitch Set Point:	-0.121	Yaw Set Point:	-0.579	X_WP:	0.000	Y_WP:	0.000	Y_WP:	0.500	X:	0.099	Y:	0.096	Z:	0.399	yaw:	33.165	yaw rate:	9.084	Roll:	4.502	Pitch:	0.737	Yaw:	49.392	Thrust:	34.405
Time:	4.575	Roll Set Point:	-0.234	Pitch Set Point:	-0.122	Yaw Set Point:	-0.577	X_WP:	0.000	Y_WP:	0.000	Y_WP:	0.500	X:	0.099	Y:	0.096	Z:	0.399	yaw:	33.086	yaw rate:	-7.891	Roll:	4.509	Pitch:	1.068	Yaw:	46.438	Thrust:	35.173
Time:	4.591	Roll Set Point:	-0.234	Pitch Set Point:	-0.122	Yaw Set Point:	-0.577	X_WP:	0.000	Y_WP:	0.000	Y_WP:	0.500	X:	0.099	Y:	0.096	Z:	0.399	yaw:	33.086	yaw rate:	-7.891	Roll:	4.509	Pitch:	0.911	Yaw:	47.760	Thrust:	35.001
Time:	4.606	Roll Set Point:	-0.234	Pitch Set Point:	-0.122	Yaw Set Point:	-0.578	X_WP:	0.000	Y_WP:	0.000	Y_WP:	0.500	X:	0.099	Y:	0.096	Z:	0.399	yaw:	33.093	yaw rate:	-1.713	Roll:	4.522	Pitch:	0.899	Yaw:	47.877	Thrust:	34.997
Time:	4.622	Roll Set Point:	-0.234	Pitch Set Point:	-0.122	Yaw Set Point:	-0.577	X_WP:	0.000	Y_WP:	0.000	Y_WP:	0.500	X:	0.099	Y:	0.096	Z:	0.399	yaw:	33.048	yaw rate:	-4.449	Roll:	4.483	Pitch:	0.973	Yaw:	46.961	Thrust:	35.299
Time:	4.638	Roll Set Point:	-0.234	Pitch Set Point:	-0.122	Yaw Set Point:	-0.577	X_WP:	0.000	Y_WP:	0.000	Y_WP:	0.500	X:	0.099	Y:	0.096	Z:	0.399	yaw:	33.077	yaw rate:	2.895	Roll:	4.510	Pitch:	0.878	Yaw:	48.232	Thrust:	35.712
Time:	4.653	Roll Set Point:	-0.234	Pitch Set Point:	-0.122	Yaw Set Point:	-0.577	X_WP:	0.000	Y_WP:	0.000	Y_WP:	0.500	X:	0.099	Y:	0.096	Z:	0.399	yaw:	33.085	yaw rate:	0.810	Roll:	4.518	Pitch:	0.880	Yaw:	47.894	Thrust:	35.701
Time:	4.669	Roll Set Point:	-0.234	Pitch Set Point:	-0.122	Yaw Set Point:	-0.579	X_WP:	0.000	Y_WP:	0.000	Y_WP:	0.500	X:	0.099	Y:	0.096	Z:	0.399	yaw:	33.179	yaw rate:	9.400	Roll:	4.536	Pitch:	0.815	Yaw:	49.465	Thrust:	35.892
Time:	4.685	Roll Set Point:	-0.234	Pitch Set Point:	-0.122	Yaw Set Point:	-0.579	X_WP:	0.000	Y_WP:	0.000	Y_WP:	0.500	X:	0.099	Y:	0.096	Z:	0.399	yaw:	33.179	yaw rate:	9.400	Roll:	4.510	Pitch:	0.914	Yaw:	47.890	Thrust:	36.135
Time:	4.700	Roll Set Point:	-0.234	Pitch Set Point:	-0.122	Yaw Set Point:	-0.578	X_WP:	0.000	Y_WP:	0.000	Y_WP:	0.500	X:	0.099	Y:	0.096	Z:	0.399	yaw:	33.110	yaw rate:	-6.916	Roll:	4.509	Pitch:	1.017	Yaw:	46.635	Thrust:	36.560
Time:	4.716	Roll Set Point:	-0.234	Pitch Set Point:	-0.122	Yaw Set Point:	-0.578	X_WP:	0.000	Y_WP:	0.000	Y_WP:	0.500	X:	0.099	Y:	0.096	Z:	0.399	yaw:	33.125	yaw rate:	3.014	Roll:	4.508	Pitch:	0.876	Yaw:	48.061	Thrust:	36.501
Time:	4.731	Roll Set Point:	-0.234	Pitch Set Point:	-0.122	Yaw Set Point:	-0.578	X_WP:	0.000	Y_WP:	0.000	Y_WP:	0.500	X:	0.099	Y:	0.096	Z:	0.399	yaw:	33.125	yaw rate:	3.014	Roll:	4.510	Pitch:	0.918	Yaw:	47.814	Thrust:	36.709
Time:	4.747	Roll Set Point:	-0.234	Pitch Set Point:	-0.122	Yaw Set Point:	-0.578	X_WP:	0.000	Y_WP:	0.000	Y_WP:	0.500	X:	0.099	Y:	0.096	Z:	0.399	yaw:	33.108	yaw rate:	4.990	Roll:	4.512	Pitch:	0.974	Yaw:	47.502	Thrust:	36.879
Time:	4.763	Roll Set Point:	-0.234	Pitch Set Point:	-0.122	Yaw Set Point:	-0.578	X_WP:	0.000	Y_WP:	0.000	Y_WP:	0.500	X:	0.099	Y:	0.096	Z:	0.399	yaw:	33.108	yaw rate:	4.990	Roll:	4.510	Pitch:	0.922	Yaw:	47.790	Thrust:	37.089
Time:	4.778	Roll Set Point:	-0.234	Pitch Set Point:	-0.122	Yaw Set Point:	-0.578	X_WP:	0.000	Y_WP:	0.000	Y_WP:	0.500	X:	0.099	Y:	0.096	Z:	0.399	yaw:	33.122	yaw rate:	-1.329	Roll:	4.513	Pitch:	0.869	Yaw:	48.053	Thrust:	37.265
Time:	4.794	Roll Set Point:	-0.234	Pitch Set Point:	-0.122	Yaw Set Point:	-0.577	X_WP:	0.000	Y_WP:	0.000	Y_WP:	0.500	X:	0.099	Y:	0.096	Z:	0.399	yaw:	33.079	yaw rate:	-4.333	Roll:	4.478	Pitch:	1.000	Yaw:	47.022	Thrust:	37.263
Time:	4.810	Roll Set Point:	-0.234	Pitch Set Point:	-0.122	Yaw Set Point:	-0.579	X_WP:	0.000	Y_WP:	0.000	Y_WP:	0.500	X:	0.099	Y:	0.096	Z:	0.399	yaw:	33.179	yaw rate:	9.967	Roll:	4.545	Pitch:	0.738	Yaw:	49.559	Thrust:	37.660
Time:	4.825	Roll Set Point:	-0.234	Pitch Set Point:	-0.122	Yaw Set Point:	-0.579	X_WP:	0.000	Y_WP:	0.000	Y_WP:	0.500	X:	0.099	Y:	0.096	Z:	0.399	yaw:	33.157	yaw rate:	-2.137	Roll:	4.494	Pitch:	0.972	Yaw:	47.501	Thrust:	37.784
Time:	4.841	Roll Set Point:	-0.234	Pitch Set Point:	-0.122	Yaw Set Point:	-0.577	X_WP:	0.000	Y_WP:	0.000	Y_WP:	0.500	X:	0.099	Y:	0.096	Z:	0.399	yaw:	33.086	yaw rate:	-7.079	Roll:	4.503	Pitch:	1.043	Yaw:	46.575	Thrust:	38.297
Time:	4.856	Roll Set Point:	-0.234	Pitch Set Point:	-0.122	Yaw Set Point:	-0.578	X_WP:	0.000	Y_WP:	0.000	Y_WP:	0.500	X:	0.099	Y:	0.096	Z:	0.399	yaw:	33.099	yaw rate:	1.228	Roll:	4.508	Pitch:	0.948	Yaw:	47.982	Thrust:	38.232
Time:	4.872	Roll Set Point:	-0.234	Pitch Set Point:	-0.122	Yaw Set Point:	-0.577	X_WP:	0.000	Y_WP:	0.000	Y_WP:	0.500	X:	0.099	Y:	0.096	Z:	0.399	yaw:	33.085	yaw rate:	-1.343	Roll:	4.517	Pitch:	0.899	Yaw:	47.533	Thrust:	38.252
Time:	4.888	Roll Set Point:	-0.234	Pitch Set Point:	-0.122	Yaw Set Point:	-0.577	X_WP:	0.000	Y_WP:	0.000	Y_WP:	0.500	X:	0.099	Y:	0.096	Z:	0.399	yaw:	33.085	yaw rate:	-1.343	Roll:	4.510	Pitch:	0.930	Yaw:	47.759	Thrust:	38.612
Time:	4.903	Roll Set Point:	-0.234	Pitch Set Point:	-0.122	Yaw Set Point:	-0.578	X_WP:	0.000	Y_WP:	0.000	Y_WP:	0.500	X:	0.099	Y:	0.096	Z:	0.399	yaw:	33.140	yaw rate:	5.505	Roll:	4.497	Pitch:	0.901	Yaw:	48.757	Thrust:	38.731
Time:	4.919	Roll Set Point:	-0.234	Pitch Set Point:	-0.122	Yaw Set Point:	-0.578	X_WP:	0.000	Y_WP:	0.000	Y_WP:	0.500	X:	0.099	Y:	0.096	Z:	0.399	yaw:	33.107	yaw rate:	-3.296	Roll:	4.533	Pitch:	0.918	Yaw:	47.237	Thrust:	39.179
Time:	4.935	Roll Set Point:	-0.234	Pitch Set Point:	-0.122	Yaw Set Point:	-0.577	X_WP:	0.000	Y_WP:	0.000	Y_WP:	0.500	X:	0.099	Y:	0.096	Z:	0.399	yaw:	33.084	yaw rate:	-2.322	Roll:	4.484	Pitch:	0.980	Yaw:	47.368	Thrust:	39.015
Time:	4.950	Roll Set Point:	-0.234	Pitch Set Point:	-0.122	Yaw Set Point:	-0.577	X_WP:	0.000	Y_WP:	0.000	Y_WP:	0.500	X:	0.099	Y:	0.096	Z:	0.399	yaw:	33.084	yaw rate:	-2.322	Roll:	4.511	Pitch:	0.934	Yaw:	47.760	Thrust:	39.441
Time:	4.966	Roll Set Point:	-0.234	Pitch Set Point:	-0.122	Yaw Set Point:	-0.577	X_WP:	0.000	Y_WP:	0.000	Y_WP:	0.500	X:	0.099	Y:	0.096	Z:	0.399	yaw:	33.082	yaw rate:	-0.169	Roll:	4.525	Pitch:	0.956	Yaw:	47.726	Thrust:	39.694
Time:	4.981	Roll Set Point:	-0.234	Pitch Set Point:	-0.122	Yaw Set Point:	-0.578	X_WP:	0.000	Y_WP:	0.000	Y_WP:	0.500	X:	0.099	Y:	0.096	Z:	0.399	yaw:	33.102	yaw rate:	1.973	Roll:	4.500	Pitch:	0.842	Yaw:	48.110	Thrust:	39.553
Time:	4.997	Roll Set Point:	-0.234	Pitch Set Point:	-0.122	Yaw Set Point:	-0.578	X_WP:	0.000	Y_WP:	0.000	Y_WP:	0.500	X:	0.099	Y:	0.096	Z:	0.399	yaw:	33.102	yaw rate:	1.973	Roll:	4.509	Pitch:	0.935	Yaw:	47.782	Thrust:	39.936
Time:	5.013	Roll Set Point:	-0.234	Pitch Set Point:	-0.122	Yaw Set Point:	-0.578	X_WP:	0.000	Y_WP:	0.000	Y_WP:	0.500	X:	0.099	Y:	0.096	Z:	0.399	yaw:	33.103	yaw rate:	-2.433	Roll:	4.547	Pitch:	1.008	Yaw:	47.801	Thrust:	40.329
Time:	5.028	Roll Set Point:	-0.234	Pitch Set Point:	-0.122	Yaw Set Point:	-0.578	X_WP:	0.000	Y_WP:	0.000	Y_WP:	0.500	X:	0.099	Y:	0.096	Z:	0.399	yaw:	33.103	yaw rate:	-2.433	Roll:	4.510	Pitch:	0.939	Yaw:	47.783	Thrust:	40.313
Time:	5.044	Roll Set Point:	-0.234	Pitch Set Point:	-0.121	Yaw Set Point:	-0.579	X_WP:	0.000	Y_WP:	0.000	Y_WP:	0.500	X:	0.099	Y:	0.096	Z:	0.399	yaw:	33.153	yaw rate:	-5.039	Roll:	4.452	Pitch:	0.786	Yaw:	48.681	Thrust:	40.093
Time:	5.060	Roll Set Point:	-0.234	Pitch Set Point:	-0.122	Yaw Set Point:	-0.578	X_WP:	0.000	Y_WP:	0.000	Y_WP:	0.500	X:	0.099	Y:	0.096	Z:	0.399	yaw:	33.131	yaw rate:	-2.170	Roll:	4.562	Pitch:	1.081	Yaw:	47.459	Thrust:	41.002
Time:	5.075	Roll Set Point:	-0.234	Pitch Set Point:	-0.122	Yaw Set Point:	-0.578	X_WP:	0.000	Y_WP:	0.000	Y_WP:	0.500	X:	0.099	Y:	0.096	Z:	0.399	yaw:	33.113	yaw rate:	-1.808	Roll:	4.514	Pitch:	0.944	Yaw:	47.498	Thrust:	41.024
Time:	5.091	Roll Set Point:	-0.234	Pitch Set Point:	-0.121	Yaw Set Point:	-0.579	X_WP:	0.000	Y_WP:	0.000	Y_WP:	0.500	X:	0.099	Y:	0.096	Z:	0.399	yaw:	33.176	yaw rate:	6.288	Roll:	4.481	Pitch:	0.764	Yaw:	48.938	Thrust:	40.812
Time:	5.107	Roll Set Point:	-0.234	Pitch Set Point:	-0.121	Yaw Set Point:	-0.579	X_WP:	0.000	Y_WP:	0.000	Y_WP:	0.500	X:	0.099	Y:	0.096	Z:	0.399	yaw:	33.172	yaw rate:	-0.393	Roll:	4.501	Pitch:	0.966	Yaw:	47.813	Thrust:	41.337
Time:	5.122	Roll Set Point:	-0.234	Pitch Set Point:	-0.122	Yaw Set Point:	-0.578	X_WP:	0.000	Y_WP:	0.000	Y_WP:	0.500	X:	0.099	Y:	0.096	Z:	0.399	yaw:	33.108	yaw rate:	-6.337	Roll:	4.526	Pitch:	1.117	Yaw:	46.724	Thrust:	41.571
Time:	5.138	Roll Set Point:	-0.234	Pitch Set Point:	-0.122	Yaw Set Point:	-0.578	X_WP:	0.000	Y_WP:	0.000	Y_WP:	0.500	X:	0.099	Y:	0.096	Z:	0.399	yaw:	33.089	yaw rate:	-1.943	Roll:	4.502	Pitch:	0.945	Yaw:	47.439	Thrust:	41.469
Time:	5.153	Roll Set Point:	-0.234	Pitch Set Point:	-0.122	Yaw Set Point:	-0.578	X_WP:	0.000	Y_WP:	0.000	Y_WP:	0.500	X:	0.099	Y:	0.096	Z:	0.399	yaw:	33.089	yaw rate:	-1.943	Roll:	4.510	Pitch:	0.948	Yaw:	47.766	Thrust:	41.887
Time:	5.169	Roll Set Point:	-0.234	Pitch Set Point:	-0.122	Yaw Set Point:	-0.578	X_WP:	0.000	Y_WP:	0.000	Y_WP:	0.500	X:	0.099	Y:	0.096	Z:	0.399	yaw:	33.109	yaw rate:	-7.338	Roll:	4.510	Pitch:	0.888	Yaw:	48.123	Thrust:	42.150
Time:	5.185	Roll Set Point:	-0.234	Pitch Set Point:	-0.122	Yaw Set Point:	-0.578	X_WP:	0.000	Y_WP:	0.000	Y_WP:	0.500	X:	0.099	Y:	0.096	Z:	0.399	yaw:	33.109	yaw rate:	-7.338	Roll:	4.510	Pitch:	0.948	Yaw:	47.791	Thrust:	42.216
Time:	5.200	Roll Set Point:	-0.234	Pitch Set Point:	-0.122	Yaw Set Point:	-0.577	X_WP:	0.000	Y_WP:	0.000	Y_WP:	0.500	X:	0.099	Y:	0.096	Z:	0.399	yaw:	33.066	yaw rate:	-4.288	Roll:	4.488	Pitch:	1.042	Yaw:	47.013	Thrust:	42.180
Time:	5.216	Roll Set Point:	-0.234	Pitch Set Point:	-0.122	Yaw Set Point:	-0.577	X_WP:	0.000	Y_WP:	0.000	Y_WP:	0.500	X:	0.099	Y:	0.096	Z:	0.399	yaw:	33.060	yaw rate:	-3.432	Roll:	4.517	Pitch:	0.925	Yaw:	47.620	Thrust:	42.589
Time:	5.247	Roll Set Point:	-0.234	Pitch Set Point:	-0.122	Yaw Set Point:	-0.577	X_WP:	0.000	Y_WP:	0.000	Y_WP:	0.500	X:	0.099	Y:	0.096	Z:	0.399	yaw:	33.081	yaw rate:	-9.221	Roll:	5.096	Pitch:	1.163	Yaw:	49.499	Thrust:	80.266
Time:	5.263	Roll Set Point:	-0.234	Pitch Set Point:	-0.122	Yaw Set Point:	-0.577	X_WP:	0.000	Y_WP:	0.000	Y_WP:	0.500	X:	0.099	Y:	0.096	Z:	0.399	yaw:	33.081	yaw rate:	-9.221	Roll:	4.509	Pitch:	0.954	Yaw:	47.752	Thrust:	42.960
Time:	5.278	Roll Set Point:	-0.234	Pitch Set Point:	-0.122	Yaw Set Point:	-0.578	X_WP:	0.000	Y_WP:	0.000	Y_WP:	0.500	X:	0.099	Y:	0.096	Z:	0.399	yaw:	33.128	yaw rate:	4.719	Roll:	4.552	Pitch:	0.891	Yaw:	48.608	Thrust:	43.223
Time:	5.294	Roll Set Point:	-0.234	Pitch Set Point:	-0.121	Yaw Set Point:	-0.579	X_WP:	0.000	Y_WP:	0.000	Y_WP:	0.500	X:	0.099	Y:	0.096	Z:	0.399	yaw:	33.156	yaw rate:	-2.387	Roll:	4.470	Pitch:	0.816	Yaw:	48.327	Thrust:	43.037
Time:	5.310	Roll Set Point:	-0.234	Pitch Set Point:	-0.122	Yaw Set Point:	-0.578	X_WP:	0.000	Y_WP:	0.000	Y_WP:	0.500	X:	0.099	Y:	0.096	Z:	0.399	yaw:	33.107	yaw rate:	-4.880	Roll:	4.538	Pitch:	1.103	Yaw:	46.972	Thrust:	43.855
Time:	5.325	Roll Set Point:	-0.234	Pitch Set Point:	-0.122	Yaw Set Point:	-0.578	X_WP:	0.000	Y_WP:	0.000	Y_WP:	0.500	X:	0.099	Y:	0.096	Z:	0.399	yaw:	33.124	yaw rate:	1.648	Roll:	4.510	Pitch:	0.983	Yaw:	48.091	Thrust:	43.755
Time:	5.341	Roll Set Point:	-0.234	Pitch Set Point:	-0.122	Yaw Set Point:	-0.578	X_WP:	0.000	Y_WP:	0.000	Y_WP:	0.500	X:	0.099	Y:	0.096	Z:	0.399	yaw:	33.124	yaw rate:	1.648	Roll:	4.509	Pitch:	0.958	Yaw:	47.809	Thrust:	43.844
Time:	5.357	Roll Set Point:	-0.234	Pitch Set Point:	-0.122	Yaw Set Point:	-0.579	X_WP:	0.000	Y_WP:	0.000	Y_WP:	0.500	X:	0.099	Y:	0.096	Z:	0.399	yaw:	33.155	yaw rate:	-5.496	Roll:	4.492	Pitch:	0.822	Yaw:	48.371	Thrust:	43.937
Time:	5.372	Roll Set Point:	-0.234	Pitch Set Point:	-0.122	Yaw Set Point:	-0.578	X_WP:	0.000	Y_WP:	0.000	Y_WP:	0.500	X:	0.099	Y:	0.096	Z:	0.399	yaw:	33.103	yaw rate:	-5.114	Roll:	4.527	Pitch:	1.029	Yaw:	46.926	Thrust:	44.428
Time:	5.388	Roll Set Point:	-0.234	Pitch Set Point:	-0.122	Yaw Set Point:	-0.578	X_WP:	0.000	Y_WP:	0.000	Y_WP:	0.500	X:	0.099	Y:	0.096	Z:	0.399	yaw:	33.101	yaw rate:	-0.278	Roll:	4.507	Pitch:	1.023	Yaw:	47.733	Thrust:	44.568
Time:	5.403	Roll Set Point:	-0.234	Pitch Set Point:	-0.122	Yaw Set Point:	-0.577	X_WP:	0.000	Y_WP:	0.000	Y_WP:	0.500	X:	0.099	Y:	0.096	Z:	0.399	yaw:	33.046	yaw rate:	-5.452	Roll:	4.464	Pitch:	1.024	Yaw:	46.790	Thrust:	44.441
Time:	5.419	Roll Set Point:	-0.234	Pitch Set Point:	-0.121	Yaw Set Point:	-0.579	X_WP:	0.000	Y_WP:	0.000	Y_WP:	0.500	X:	0.099	Y:	0.096	Z:	0.399	yaw:	33.185	yaw rate:	13.942	Roll:	4.545	Pitch:	0.707	Yaw:	50.234	Thrust:	44.931
Time:	5.435	Roll Set Point:	-0.234	Pitch Set Point:	-0.121	Yaw Set Point:	-0.578	X_WP:	0.000	Y_WP:	0.000	Y_WP:	0.500	X:	0.099	Y:	0.096	Z:	0.399	yaw:	33.135	yaw rate:	-5.018	Roll:	4.490	Pitch:	1.020	Yaw:	46.988	Thrust:	44.886
Time:	5.450	Roll Set Point:	-0.234	Pitch Set Point:	-0.122	Yaw Set Point:	-0.579	X_WP:	0.000	Y_WP:	0.000	Y_WP:	0.500	X:	0.099	Y:	0.096	Z:	0.399	yaw:	33.151	yaw rate:	1.567	Roll:	4.553	Pitch:	1.036	Yaw:	48.113	Thrust:	45.662
Time:	5.466	Roll Set Point:	-0.234	Pitch Set Point:	-0.122	Yaw Set Point:	-0.577	X_WP:	0.000	Y_WP:	0.000	Y_WP:	0.500	X:	0.099	Y:	0.096	Z:	0.399	yaw:	33.065	yaw rate:	-8.560	Roll:	4.473	Pitch:	1.058	Yaw:	46.301	Thrust:	45.302
Time:	5.482	Roll Set Point:	-0.234	Pitch Set Point:	-0.122	Yaw Set Point:	-0.578	X_WP:	0.000	Y_WP:	0.000	Y_WP:	0.500	X:	0.099	Y:	0.096	Z:	0.399	yaw:	33.096	yaw rate:	3.035	Roll:	4.525	Pitch:	0.898	Yaw:	48.280	Thrust:	45.723
Time:	5.497	Roll Set Point:	-0.234	Pitch Set Point:	-0.122	Yaw Set Point:	-0.577	X_WP:	0.000	Y_WP:	0.000	Y_WP:	0.500	X:	0.099	Y:	0.096	Z:	0.399	yaw:	33.077	yaw rate:	-1.895	Roll:	4.499	Pitch:	1.017	Yaw:	47.429	Thrust:	45.757
Time:	5.513	Roll Set Point:	-0.234	Pitch Set Point:	-0.122	Yaw Set Point:	-0.577	X_WP:	0.000	Y_WP:	0.000	Y_WP:	0.500	X:	0.099	Y:	0.096	Z:	0.399	yaw:	33.077	yaw rate:	-1.895	Roll:	4.509	Pitch:	0.970	Yaw:	47.747	Thrust:	46.012
Time:	5.528	Roll Set Point:	-0.234	Pitch Set Point:	-0.122	Yaw Set Point:	-0.577	X_WP:	0.000	Y_WP:	0.000	Y_WP:	0.500	X:	0.099	Y:	0.096	Z:	0.399	yaw:	33.075	yaw rate:	-2.632	Roll:	4.493	Pitch:	0.983	Yaw:	47.718	Thrust:	46.119
Time:	5.544	Roll Set Point:	-0.234	Pitch Set Point:	-0.122	Yaw Set Point:	-0.579	X_WP:	0.000	Y_WP:	0.000	Y_WP:	0.500	X:	0.099	Y:	0.096	Z:	0.399	yaw:	33.190	yaw rate:	11.456	Roll:	4.556	Pitch:	0.763	Yaw:	49.824	Thrust:	46.302
Time:	5.560	Roll Set Point:	-0.234	Pitch Set Point:	-0.122	Yaw Set Point:	-0.579	X_WP:	0.000	Y_WP:	0.000	Y_WP:	0.500	X:	0.099	Y:	0.096	Z:	0.399	yaw:	33.179	yaw rate:	-1.028	Roll:	4.487	Pitch:	1.006	Yaw:	47.718	Thrust:	46.663
Time:	5.575	Roll Set Point:	-0.234	Pitch Set Point:	-0.122	Yaw Set Point:	-0.578	X_WP:	0.000	Y_WP:	0.000	Y_WP:	0.500	X:	0.099	Y:	0.096	Z:	0.399	yaw:	33.127	yaw rate:	-5.209	Roll:	4.531	Pitch:	1.022	Yaw:	46.944	Thrust:	46.870
Time:	5.591	Roll Set Point:	-0.234	Pitch Set Point:	-0.122	Yaw Set Point:	-0.577	X_WP:	0.000	Y_WP:	0.000	Y_WP:	0.500	X:	0.099	Y:	0.096	Z:	0.399	yaw:	33.065	yaw rate:	-6.265	Roll:	4.449	Pitch:	1.144	Yaw:	46.680	Thrust:	46.941
Time:	5.607	Roll Set Point:	-0.234	Pitch Set Point:	-0.122	Yaw Set Point:	-0.577	X_WP:	0.000	Y_WP:	0.000	Y_WP:	0.500	X:	0.099	Y:	0.096	Z:	0.399	yaw:	33.066	yaw rate:	0.128	Roll:	4.531	Pitch:	0.930	Yaw:	47.754	Thrust:	47.055
Time:	5.622	Roll Set Point:	-0.234	Pitch Set Point:	-0.122	Yaw Set Point:	-0.577	X_WP:	0.000	Y_WP:	0.000	Y_WP:	0.500	X:	0.099	Y:	0.096	Z:	0.399	yaw:	33.066	yaw rate:	0.128	Roll:	4.509	Pitch:	0.977	Yaw:	47.731	Thrust:	47.331
Time:	5.638	Roll Set Point:	-0.234	Pitch Set Point:	-0.122	Yaw Set Point:	-0.578	X_WP:	0.000	Y_WP:	0.000	Y_WP:	0.500	X:	0.099	Y:	0.096	Z:	0.399	yaw:	33.094	yaw rate:	-8.768	Roll:	4.525	Pitch:	0.925	Yaw:	48.245	Thrust:	47.672
Time:	5.653	Roll Set Point:	-0.234	Pitch Set Point:	-0.122	Yaw Set Point:	-0.577	X_WP:	0.000	Y_WP:	0.000	Y_WP:	0.500	X:	0.099	Y:	0.096	Z:	0.399	yaw:	33.070	yaw rate:	-2.430	Roll:	4.484	Pitch:	1.040	Yaw:	47.330	Thrust:	47.614
Time:	5.669	Roll Set Point:	-0.234	Pitch Set Point:	-0.122	Yaw Set Point:	-0.577	X_WP:	0.000	Y_WP:	0.000	Y_WP:	0.500	X:	0.099	Y:	0.096	Z:	0.399	yaw:	33.058	yaw rate:	-1.155	Roll:	4.518	Pitch:	0.991	Yaw:	47.527	Thrust:	47.924
Time:	5.685	Roll Set Point:	-0.234	Pitch Set Point:	-0.122	Yaw Set Point:	-0.577	X_WP:	0.000	Y_WP:	0.000	Y_WP:	0.500	X:	0.099	Y:	0.096	Z:	0.399	yaw:	33.064	yaw rate:	0.534	Roll:	4.515	Pitch:	0.996	Yaw:	47.818	Thrust:	48.165
Time:	5.700	Roll Set Point:	-0.234	Pitch Set Point:	-0.122	Yaw Set Point:	-0.579	X_WP:	0.000	Y_WP:	0.000	Y_WP:	0.500	X:	0.099	Y:	0.096	Z:	0.399	yaw:	33.159	yaw rate:	9.529	Roll:	4.532	Pitch:	0.810	Yaw:	49.458	Thrust:	48.092
Time:	5.716	Roll Set Point:	-0.234	Pitch Set Point:	-0.122	Yaw Set Point:	-0.579	X_WP:	0.000	Y_WP:	0.000	Y_WP:	0.500	X:	0.099	Y:	0.096	Z:	0.399	yaw:	33.159	yaw rate:	9.529	Roll:	4.511	Pitch:	0.980	Yaw:	47.865	Thrust:	48.561
Time:	5.732	Roll Set Point:	-0.234	Pitch Set Point:	-0.122	Yaw Set Point:	-0.578	X_WP:	0.000	Y_WP:	0.000	Y_WP:	0.500	X:	0.099	Y:	0.096	Z:	0.399	yaw:	33.094	yaw rate:	4.604	Roll:	4.487	Pitch:	1.076	Yaw:	46.683	Thrust:	48.801
Time:	5.747	Roll Set Point:	-0.234	Pitch Set Point:	-0.121	Yaw Set Point:	-0.578	X_WP:	0.000	Y_WP:	0.000	Y_WP:	0.500	X:	0.099	Y:	0.096	Z:	0.399	yaw:	33.144	yaw rate:	4.991	Roll:	4.526	Pitch:	0.866	Yaw:	48.677	Thrust:	48.514
Time:	5.763	Roll Set Point:	-0.234	Pitch Set Point:	-0.122	Yaw Set Point:	-0.578	X_WP:	0.000	Y_WP:	0.000	Y_WP:	0.500	X:	0.099	Y:	0.096	Z:	0.399	yaw:	33.103	yaw rate:	-4.138	Roll:	4.502	Pitch:	1.102	Yaw:	47.090	Thrust:	49.343
Time:	5.779	Roll Set Point:	-0.234	Pitch Set Point:	-0.122	Yaw Set Point:	-0.578	X_WP:	0.000	Y_WP:	0.000	Y_WP:	0.500	X:	0.099	Y:	0.096	Z:	0.399	yaw:	33.122	yaw rate:	1.883	Roll:	4.521	Pitch:	0.932	Yaw:	48.127	Thrust:	49.416
Time:	5.794	Roll Set Point:	-0.234	Pitch Set Point:	-0.122	Yaw Set Point:	-0.577	X_WP:	0.000	Y_WP:	0.000	Y_WP:	0.500	X:	0.099	Y:	0.096	Z:	0.399	yaw:	33.085	yaw rate:	-3.710	Roll:	4.486	Pitch:	1.067	Yaw:	47.132	Thrust:	49.265
Time:	5.810	Roll Set Point:	-0.234	Pitch Set Point:	-0.122	Yaw Set Point:	-0.577	X_WP:	0.000	Y_WP:	0.000	Y_WP:	0.500	X:	0.099	Y:	0.096	Z:	0.399	yaw:	33.083	yaw rate:	-0.217	Roll:	4.529	Pitch:	0.981	Yaw:	47.721	Thrust:	49.675
Time:	5.825	Roll Set Point:	-0.234	Pitch Set Point:	-0.122	Yaw Set Point:	-0.577	X_WP:	0.000	Y_WP:	0.000	Y_WP:	0.500	X:	0.099	Y:	0.096	Z:	0.399	yaw:	33.083	yaw rate:	-0.217	Roll:	4.510	Pitch:	0.990	Yaw:	47.755	Thrust:	49.820
Time:	5.841	Roll Set Point:	-0.234	Pitch Set Point:	-0.122	Yaw Set Point:	-0.579	X_WP:	0.000	Y_WP:	0.000	Y_WP:	0.500	X:	0.099	Y:	0.096	Z:	0.399	yaw:	33.151	yaw rate:	6.846	Roll:	4.497	Pitch:	0.874	Yaw:	48.996	Thrust:	49.701
Time:	5.857	Roll Set Point:	-0.234	Pitch Set Point:	-0.122	Yaw Set Point:	-0.578	X_WP:	0.000	Y_WP:	0.000	Y_WP:	0.500	X:	0.099	Y:	0.096	Z:	0.399	yaw:	33.103	yaw rate:	-4.769	Roll:	4.504	Pitch:	1.070	Yaw:	46.984	Thrust:	50.363
Time:	5.872	Roll Set Point:	-0.234	Pitch Set Point:	-0.122	Yaw Set Point:	-0.578	X_WP:	0.000	Y_WP:	0.000	Y_WP:	0.500	X:	0.099	Y:	0.096	Z:	0.399	yaw:	33.103	yaw rate:	-4.769	Roll:	4.509	Pitch:	0.992	Yaw:	47.784	Thrust:	50.381
Time:	5.888	Roll Set Point:	-0.234	Pitch Set Point:	-0.122	Yaw Set Point:	-0.578	X_WP:	0.000	Y_WP:	0.000	Y_WP:	0.500	X:	0.099	Y:	0.096	Z:	0.399	yaw:	33.096	yaw rate:	-0.709	Roll:	4.543	Pitch:	1.011	Yaw:	47.655	Thrust:	50.654
Time:	5.904	Roll Set Point:	-0.234	Pitch Set Point:	-0.122	Yaw Set Point:	-0.578	X_WP:	0.000	Y_WP:	0.000	Y_WP:	0.500	X:	0.099	Y:	0.096	Z:	0.399	yaw:	33.096	yaw rate:	-0.709	Roll:	4.510	Pitch:	0.995	Yaw:	47.774	Thrust:	50.762
Time:	5.919	Roll Set Point:	-0.234	Pitch Set Point:	-0.122	Yaw Set Point:	-0.578	X_WP:	0.000	Y_WP:	0.000	Y_WP:	0.500	X:	0.099	Y:	0.096	Z:	0.399	yaw:	33.113	yaw rate:	5.900	Roll:	4.496	Pitch:	0.962	Yaw:	48.073	Thrust:	50.892
Time:	5.935	Roll Set Point:	-0.234	Pitch Set Point:	-0.121	Yaw Set Point:	-0.578	X_WP:	0.000	Y_WP:	0.000	Y_WP:	0.500	X:	0.099	Y:	0.095	Z:	0.399	yaw:	33.096	yaw rate:	-1.693	Roll:	4.303	Pitch:	0.971	Yaw:	47.490	Thrust:	50.849
Time:	5.950	Roll Set Point:	-0.234	Pitch Set Point:	-0.121	Yaw Set Point:	-0.578	X_WP:	0.000	Y_WP:	0.000	Y_WP:	0.500	X:	0.099	Y:	0.095	Z:	0.399	yaw:	33.096	yaw rate:	-1.693	Roll:	4.504	Pitch:	0.996	Yaw:	47.773	Thrust:	51.319
Time:	5.966	Roll Set Point:	-0.234	Pitch Set Point:	-0.122	Yaw Set Point:	-0.578	X_WP:	0.000	Y_WP:	0.000	Y_WP:	0.500	X:	0.099	Y:	0.096	Z:	0.399	yaw:	33.102	yaw rate:	0.577	Roll:	4.707	Pitch:	1.039	Yaw:	47.878	Thrust:	51.887
Time:	5.982	Roll Set Point:	-0.234	Pitch Set Point:	-0.122	Yaw Set Point:	-0.577	X_WP:	0.000	Y_WP:	0.000	Y_WP:	0.500	X:	0.099	Y:	0.096	Z:	0.399	yaw:	33.062	yaw rate:	-3.981	Roll:	4.483	Pitch:	1.097	Yaw:	47.059	Thrust:	51.596
Time:	5.997	Roll Set Point:	-0.234	Pitch Set Point:	-0.122	Yaw Set Point:	-0.577	X_WP:	0.000	Y_WP:	0.000	Y_WP:	0.500	X:	0.099	Y:	0.096	Z:	0.399	yaw:	33.062	yaw rate:	-3.981	Roll:	4.509	Pitch:	1.003	Yaw:	47.725	Thrust:	51.884
Time:	6.013	Roll Set Point:	-0.081	Pitch Set Point:	-0.036	Yaw Set Point:	-0.577	X_WP:	0.082	Y_WP:	0.156	Y_WP:	0.500	X:	0.099	Y:	0.096	Z:	0.399	yaw:	33.065	yaw rate:	0.287	Roll:	-30.000	Pitch:	-30.000	Yaw:	47.778	Thrust:	52.053
Time:	6.029	Roll Set Point:	-0.081	Pitch Set Point:	-0.036	Yaw Set Point:	-0.579	X_WP:	0.082	Y_WP:	0.156	Y_WP:	0.500	X:	0.099	Y:	0.096	Z:	0.399	yaw:	33.192	yaw rate:	12.772	Roll:	-0.032	Pitch:	-1.449	Yaw:	50.048	Thrust:	52.329
Time:	6.044	Roll Set Point:	-0.081	Pitch Set Point:	-0.036	Yaw Set Point:	-0.577	X_WP:	0.082	Y_WP:	0.156	Y_WP:	0.500	X:	0.099	Y:	0.096	Z:	0.399	yaw:	33.085	yaw rate:	-10.780	Roll:	0.147	Pitch:	-1.517	Yaw:	45.951	Thrust:	52.633
Time:	6.060	Roll Set Point:	-0.081	Pitch Set Point:	-0.036	Yaw Set Point:	-0.577	X_WP:	0.082	Y_WP:	0.156	Y_WP:	0.500	X:	0.099	Y:	0.096	Z:	0.399	yaw:	33.087	yaw rate:	-0.878	Roll:	0.043	Pitch:	-1.489	Yaw:	47.807	Thrust:	52.483
Time:	6.075	Roll Set Point:	-0.081	Pitch Set Point:	-0.036	Yaw Set Point:	-0.577	X_WP:	0.082	Y_WP:	0.156	Y_WP:	0.500	X:	0.099	Y:	0.096	Z:	0.399	yaw:	33.071	yaw rate:	-1.648	Roll:	0.084	Pitch:	-1.500	Yaw:	47.462	Thrust:	52.812
Time:	6.091	Roll Set Point:	-0.081	Pitch Set Point:	-0.036	Yaw Set Point:	-0.579	X_WP:	0.082	Y_WP:	0.156	Y_WP:	0.500	X:	0.099	Y:	0.096	Z:	0.399	yaw:	33.150	yaw rate:	7.944	Roll:	-0.021	Pitch:	-1.470	Yaw:	49.180	Thrust:	52.847
Time:	6.107	Roll Set Point:	-0.081	Pitch Set Point:	-0.036	Yaw Set Point:	-0.579	X_WP:	0.082	Y_WP:	0.156	Y_WP:	0.500	X:	0.099	Y:	0.096	Z:	0.399	yaw:	33.174	yaw rate:	2.354	Roll:	0.069	Pitch:	-1.496	Yaw:	48.276	Thrust:	53.463
Time:	6.122	Roll Set Point:	-0.081	Pitch Set Point:	-0.036	Yaw Set Point:	-0.578	X_WP:	0.082	Y_WP:	0.156	Y_WP:	0.500	X:	0.099	Y:	0.096	Z:	0.399	yaw:	33.095	yaw rate:	-7.852	Roll:	0.089	Pitch:	-1.506	Yaw:	46.457	Thrust:	53.305
Time:	6.138	Roll Set Point:	-0.081	Pitch Set Point:	-0.036	Yaw Set Point:	-0.578	X_WP:	0.082	Y_WP:	0.156	Y_WP:	0.500	X:	0.099	Y:	0.096	Z:	0.399	yaw:	33.103	yaw rate:	0.822	Roll:	0.044	Pitch:	-1.506	Yaw:	47.921	Thrust:	53.767
Time:	6.154	Roll Set Point:	-0.081	Pitch Set Point:	-0.036	Yaw Set Point:	-0.579	X_WP:	0.082	Y_WP:	0.156	Y_WP:	0.500	X:	0.099	Y:	0.096	Z:	0.399	yaw:	33.194	yaw rate:	9.020	Roll:	0.004	Pitch:	-1.481	Yaw:	49.421	Thrust:	53.618
Time:	6.169	Roll Set Point:	-0.081	Pitch Set Point:	-0.036	Yaw Set Point:	-0.579	X_WP:	0.082	Y_WP:	0.156	Y_WP:	0.500	X:	0.099	Y:	0.096	Z:	0.399	yaw:	33.158	yaw rate:	-3.608	Roll:	0.087	Pitch:	-1.523	Yaw:	47.255	Thrust:	54.042
Time:	6.185	Roll Set Point:	-0.081	Pitch Set Point:	-0.036	Yaw Set Point:	-0.578	X_WP:	0.082	Y_WP:	0.156	Y_WP:	0.500	X:	0.099	Y:	0.096	Z:	0.399	yaw:	33.110	yaw rate:	-4.783	Roll:	0.071	Pitch:	-1.509	Yaw:	46.991	Thrust:	54.293
Time:	6.200	Roll Set Point:	-0.081	Pitch Set Point:	-0.036	Yaw Set Point:	-0.578	X_WP:	0.082	Y_WP:	0.156	Y_WP:	0.500	X:	0.099	Y:	0.096	Z:	0.399	yaw:	33.110	yaw rate:	-4.783	Roll:	0.053	Pitch:	-1.511	Yaw:	47.792	Thrust:	54.362
Time:	6.216	Roll Set Point:	-0.081	Pitch Set Point:	-0.036	Yaw Set Point:	-0.577	X_WP:	0.082	Y_WP:	0.156	Y_WP:	0.500	X:	0.099	Y:	0.096	Z:	0.399	yaw:	33.087	yaw rate:	-2.302	Roll:	0.092	Pitch:	-1.529	Yaw:	47.375	Thrust:	54.530
Time:	6.248	Roll Set Point:	-0.081	Pitch Set Point:	-0.036	Yaw Set Point:	-0.579	X_WP:	0.082	Y_WP:	0.156	Y_WP:	0.500	X:	0.099	Y:	0.096	Z:	0.399	yaw:	33.182	yaw rate:	4.355	Roll:	0.601	Pitch:	-1.280	Yaw:	50.289	Thrust:	100.000
Time:	6.263	Roll Set Point:	-0.081	Pitch Set Point:	-0.036	Yaw Set Point:	-0.578	X_WP:	0.082	Y_WP:	0.156	Y_WP:	0.500	X:	0.099	Y:	0.096	Z:	0.399	yaw:	33.106	yaw rate:	4.020	Roll:	0.111	Pitch:	-1.533	Yaw:	46.512	Thrust:	55.061
Time:	6.279	Roll Set Point:	-0.081	Pitch Set Point:	-0.036	Yaw Set Point:	-0.578	X_WP:	0.082	Y_WP:	0.156	Y_WP:	0.500	X:	0.099	Y:	0.096	Z:	0.399	yaw:	33.106	yaw rate:	4.020	Roll:	0.051	Pitch:	-1.520	Yaw:	47.787	Thrust:	55.125
Time:	6.295	Roll Set Point:	-0.081	Pitch Set Point:	-0.036	Yaw Set Point:	-0.579	X_WP:	0.082	Y_WP:	0.156	Y_WP:	0.500	X:	0.099	Y:	0.096	Z:	0.399	yaw:	33.192	yaw rate:	8.659	Roll:	-0.016	Pitch:	-1.501	Yaw:	49.359	Thrust:	55.249
Time:	6.310	Roll Set Point:	-0.081	Pitch Set Point:	-0.036	Yaw Set Point:	-0.579	X_WP:	0.082	Y_WP:	0.156	Y_WP:	0.500	X:	0.099	Y:	0.096	Z:	0.399	yaw:	33.168	yaw rate:	-2.427	Roll:	0.057	Pitch:	-1.529	Yaw:	47.468	Thrust:	55.411
Time:	6.326	Roll Set Point:	-0.081	Pitch Set Point:	-0.036	Yaw Set Point:	-0.578	X_WP:	0.082	Y_WP:	0.156	Y_WP:	0.500	X:	0.099	Y:	0.096	Z:	0.399	yaw:	33.097	yaw rate:	-2.973	Roll:	0.098	Pitch:	-1.543	Yaw:	46.578	Thrust:	55.820
Time:	6.342	Roll Set Point:	-0.081	Pitch Set Point:	-0.036	Yaw Set Point:	-0.578	X_WP:	0.082	Y_WP:	0.156	Y_WP:	0.500	X:	0.099	Y:	0.096	Z:	0.399	yaw:	33.109	yaw rate:	1.198	Roll:	0.051	Pitch:	-1.530	Yaw:	47.989	Thrust:	55.874
Time:	6.357	Roll Set Point:	-0.081	Pitch Set Point:	-0.036	Yaw Set Point:	-0.579	X_WP:	0.082	Y_WP:	0.156	Y_WP:	0.500	X:	0.099	Y:	0.096	Z:	0.399	yaw:	33.197	yaw rate:	8.857	Roll:	-0.023	Pitch:	-1.508	Yaw:	49.399	Thrust:	56.054
