Time:	2.125	Roll Set Point:	-0.234	Pitch Set Point:	-0.122	Yaw Set Point:	-0.577	X_WP:	0.000	Y_WP:	0.000	Y_WP:	0.500	X:	0.099	Y:	0.096	Z:	0.399	yaw:	33.077	yaw rate:	0.332	Roll:	3.924	Pitch:	0.754	Yaw:	46.184	Thrust:	5.581
Time:	2.141	Roll Set Point:	-0.234	Pitch Set Point:	-0.122	Yaw Set Point:	-0.577	X_WP:	0.000	Y_WP:	0.000	Y_WP:	0.500	X:	0.099	Y:	0.096	Z:	0.399	yaw:	33.076	yaw rate:	-0.037	Roll:	3.895	Pitch:	0.740	Yaw:	46.357	Thrust:	5.711
Time:	2.157	Roll Set Point:	-0.234	Pitch Set Point:	-0.121	Yaw Set Point:	-0.578	X_WP:	0.000	Y_WP:	0.000	Y_WP:	0.500	X:	0.099	Y:	0.095	Z:	0.399	yaw:	33.104	yaw rate:	2.805	Roll:	3.770	Pitch:	0.599	Yaw:	47.053	Thrust:	5.639
Time:	2.172	Roll Set Point:	-0.234	Pitch Set Point:	-0.122	Yaw Set Point:	-0.577	X_WP:	0.000	Y_WP:	0.000	Y_WP:	0.500	X:	0.099	Y:	0.096	Z:	0.399	yaw:	33.078	yaw rate:	-0.367	Roll:	4.107	Pitch:	0.896	Yaw:	46.291	Thrust:	6.464
Time:	2.188	Roll Set Point:	-0.234	Pitch Set Point:	-0.122	Yaw Set Point:	-0.578	X_WP:	0.000	Y_WP:	0.000	Y_WP:	0.500	X:	0.099	Y:	0.096	Z:	0.399	yaw:	33.100	yaw rate:	2.130	Roll:	3.951	Pitch:	0.713	Yaw:	47.295	Thrust:	6.431
Time:	2.203	Roll Set Point:	-0.235	Pitch Set Point:	-0.122	Yaw Set Point:	-0.577	X_WP:	0.000	Y_WP:	0.000	Y_WP:	0.500	X:	0.099	Y:	0.096	Z:	0.399	yaw:	33.080	yaw rate:	-1.931	Roll:	3.970	Pitch:	0.775	Yaw:	46.768	Thrust:	6.400
Time:	2.219	Roll Set Point:	-0.234	Pitch Set Point:	-0.122	Yaw Set Point:	-0.577	X_WP:	0.000	Y_WP:	0.000	Y_WP:	0.500	X:	0.099	Y:	0.096	Z:	0.399	yaw:	33.056	yaw rate:	-2.479	Roll:	3.930	Pitch:	0.860	Yaw:	46.825	Thrust:	6.663
Time:	2.235	Roll Set Point:	-0.234	Pitch Set Point:	-0.122	Yaw Set Point:	-0.577	X_WP:	0.000	Y_WP:	0.000	Y_WP:	0.500	X:	0.099	Y:	0.096	Z:	0.399	yaw:	33.045	yaw rate:	-1.042	Roll:	3.952	Pitch:	0.766	Yaw:	47.228	Thrust:	6.986
Time:	2.250	Roll Set Point:	-0.235	Pitch Set Point:	-0.122	Yaw Set Point:	-0.577	X_WP:	0.000	Y_WP:	0.000	Y_WP:	0.500	X:	0.099	Y:	0.096	Z:	0.399	yaw:	33.073	yaw rate:	2.754	Roll:	3.989	Pitch:	0.664	Yaw:	48.081	Thrust:	7.187
Time:	2.266	Roll Set Point:	-0.234	Pitch Set Point:	-0.122	Yaw Set Point:	-0.577	X_WP:	0.000	Y_WP:	0.000	Y_WP:	0.500	X:	0.099	Y:	0.096	Z:	0.399	yaw:	33.068	yaw rate:	-0.464	Roll:	3.947	Pitch:	0.850	Yaw:	47.660	Thrust:	7.271
Time:	2.282	Roll Set Point:	-0.234	Pitch Set Point:	-0.122	Yaw Set Point:	-0.577	X_WP:	0.000	Y_WP:	0.000	Y_WP:	0.500	X:	0.099	Y:	0.096	Z:	0.399	yaw:	33.068	yaw rate:	-0.464	Roll:	3.976	Pitch:	0.765	Yaw:	47.734	Thrust:	7.483
Time:	2.297	Roll Set Point:	-0.234	Pitch Set Point:	-0.122	Yaw Set Point:	-0.578	X_WP:	0.000	Y_WP:	0.000	Y_WP:	0.500	X:	0.099	Y:	0.096	Z:	0.398	yaw:	33.127	yaw rate:	5.883	Roll:	4.039	Pitch:	0.669	Yaw:	48.803	Thrust:	7.797
Time:	2.313	Roll Set Point:	-0.234	Pitch Set Point:	-0.122	Yaw Set Point:	-0.577	X_WP:	0.000	Y_WP:	0.000	Y_WP:	0.500	X:	0.099	Y:	0.096	Z:	0.399	yaw:	33.074	yaw rate:	-5.319	Roll:	3.944	Pitch:	0.831	Yaw:	46.848	Thrust:	7.750
Time:	2.329	Roll Set Point:	-0.234	Pitch Set Point:	-0.122	Yaw Set Point:	-0.577	X_WP:	0.000	Y_WP:	0.000	Y_WP:	0.500	X:	0.099	Y:	0.096	Z:	0.399	yaw:	33.085	yaw rate:	-0.094	Roll:	4.007	Pitch:	0.726	Yaw:	47.946	Thrust:	8.088
Time:	2.343	Roll Set Point:	-0.234	Pitch Set Point:	-0.122	Yaw Set Point:	-0.577	X_WP:	0.000	Y_WP:	0.000	Y_WP:	0.500	X:	0.099	Y:	0.096	Z:	0.399	yaw:	33.075	yaw rate:	-1.029	Roll:	3.985	Pitch:	0.789	Yaw:	47.415	Thrust:	7.800
Time:	2.360	Roll Set Point:	-0.234	Pitch Set Point:	-0.122	Yaw Set Point:	-0.577	X_WP:	0.000	Y_WP:	0.000	Y_WP:	0.500	X:	0.099	Y:	0.096	Z:	0.399	yaw:	33.075	yaw rate:	-1.029	Roll:	4.011	Pitch:	0.770	Yaw:	47.900	Thrust:	8.718
Time:	2.376	Roll Set Point:	-0.235	Pitch Set Point:	-0.122	Yaw Set Point:	-0.578	X_WP:	0.000	Y_WP:	0.000	Y_WP:	0.500	X:	0.099	Y:	0.096	Z:	0.399	yaw:	33.100	yaw rate:	0.440	Roll:	4.030	Pitch:	0.692	Yaw:	48.204	Thrust:	8.771
Time:	2.391	Roll Set Point:	-0.234	Pitch Set Point:	-0.122	Yaw Set Point:	-0.577	X_WP:	0.000	Y_WP:	0.000	Y_WP:	0.500	X:	0.099	Y:	0.096	Z:	0.399	yaw:	33.071	yaw rate:	-2.929	Roll:	3.977	Pitch:	0.822	Yaw:	47.248	Thrust:	8.690
Time:	2.407	Roll Set Point:	-0.234	Pitch Set Point:	-0.122	Yaw Set Point:	-0.577	X_WP:	0.000	Y_WP:	0.000	Y_WP:	0.500	X:	0.099	Y:	0.096	Z:	0.399	yaw:	33.071	yaw rate:	-2.929	Roll:	4.018	Pitch:	0.771	Yaw:	47.735	Thrust:	8.996
Time:	2.422	Roll Set Point:	-0.234	Pitch Set Point:	-0.122	Yaw Set Point:	-0.578	X_WP:	0.000	Y_WP:	0.000	Y_WP:	0.500	X:	0.099	Y:	0.096	Z:	0.398	yaw:	33.091	yaw rate:	1.748	Roll:	4.026	Pitch:	0.764	Yaw:	48.117	Thrust:	9.468
Time:	2.438	Roll Set Point:	-0.234	Pitch Set Point:	-0.122	Yaw Set Point:	-0.576	X_WP:	0.000	Y_WP:	0.000	Y_WP:	0.500	X:	0.099	Y:	0.096	Z:	0.399	yaw:	33.029	yaw rate:	-6.208	Roll:	3.999	Pitch:	0.819	Yaw:	46.635	Thrust:	9.045
Time:	2.454	Roll Set Point:	-0.234	Pitch Set Point:	-0.122	Yaw Set Point:	-0.576	X_WP:	0.000	Y_WP:	0.000	Y_WP:	0.500	X:	0.099	Y:	0.096	Z:	0.399	yaw:	33.029	yaw rate:	-6.208	Roll:	4.034	Pitch:	0.775	Yaw:	47.684	Thrust:	9.580
Time:	2.469	Roll Set Point:	-0.234	Pitch Set Point:	-0.122	Yaw Set Point:	-0.577	X_WP:	0.000	Y_WP:	0.000	Y_WP:	0.500	X:	0.099	Y:	0.096	Z:	0.399	yaw:	33.086	yaw rate:	-0.263	Roll:	4.072	Pitch:	0.754	Yaw:	48.714	Thrust:	9.943
Time:	2.485	Roll Set Point:	-0.234	Pitch Set Point:	-0.122	Yaw Set Point:	-0.577	X_WP:	0.000	Y_WP:	0.000	Y_WP:	0.500	X:	0.099	Y:	0.096	Z:	0.399	yaw:	33.057	yaw rate:	-2.910	Roll:	4.024	Pitch:	0.806	Yaw:	47.227	Thrust:	9.855
Time:	2.501	Roll Set Point:	-0.234	Pitch Set Point:	-0.121	Yaw Set Point:	-0.577	X_WP:	0.000	Y_WP:	0.000	Y_WP:	0.500	X:	0.099	Y:	0.096	Z:	0.399	yaw:	33.081	yaw rate:	2.376	Roll:	4.067	Pitch:	0.693	Yaw:	48.150	Thrust:	10.331
Time:	2.516	Roll Set Point:	-0.234	Pitch Set Point:	-0.121	Yaw Set Point:	-0.578	X_WP:	0.000	Y_WP:	0.000	Y_WP:	0.500	X:	0.099	Y:	0.096	Z:	0.399	yaw:	33.090	yaw rate:	0.926	Roll:	4.052	Pitch:	0.771	Yaw:	47.921	Thrust:	10.274
Time:	2.532	Roll Set Point:	-0.234	Pitch Set Point:	-0.122	Yaw Set Point:	-0.578	X_WP:	0.000	Y_WP:	0.000	Y_WP:	0.500	X:	0.099	Y:	0.096	Z:	0.399	yaw:	33.112	yaw rate:	2.207	Roll:	4.072	Pitch:	0.795	Yaw:	48.166	Thrust:	10.456
Time:	2.547	Roll Set Point:	-0.234	Pitch Set Point:	-0.122	Yaw Set Point:	-0.577	X_WP:	0.000	Y_WP:	0.000	Y_WP:	0.500	X:	0.099	Y:	0.096	Z:	0.399	yaw:	33.085	yaw rate:	-2.722	Roll:	4.073	Pitch:	0.833	Yaw:	47.302	Thrust:	10.741
Time:	2.563	Roll Set Point:	-0.234	Pitch Set Point:	-0.122	Yaw Set Point:	-0.577	X_WP:	0.000	Y_WP:	0.000	Y_WP:	0.500	X:	0.099	Y:	0.096	Z:	0.399	yaw:	33.054	yaw rate:	-3.074	Roll:	4.034	Pitch:	0.805	Yaw:	47.200	Thrust:	10.951
Time:	2.579	Roll Set Point:	-0.234	Pitch Set Point:	-0.122	Yaw Set Point:	-0.577	X_WP:	0.000	Y_WP:	0.000	Y_WP:	0.500	X:	0.099	Y:	0.096	Z:	0.399	yaw:	33.054	yaw rate:	-3.074	Roll:	4.076	Pitch:	0.784	Yaw:	47.715	Thrust:	11.098
Time:	2.594	Roll Set Point:	-0.234	Pitch Set Point:	-0.122	Yaw Set Point:	-0.577	X_WP:	0.000	Y_WP:	0.000	Y_WP:	0.500	X:	0.099	Y:	0.096	Z:	0.399	yaw:	33.087	yaw rate:	2.134	Roll:	4.093	Pitch:	0.780	Yaw:	48.308	Thrust:	11.335
Time:	2.610	Roll Set Point:	-0.234	Pitch Set Point:	-0.122	Yaw Set Point:	-0.577	X_WP:	0.000	Y_WP:	0.000	Y_WP:	0.500	X:	0.099	Y:	0.096	Z:	0.399	yaw:	33.060	yaw rate:	-2.663	Roll:	4.092	Pitch:	0.825	Yaw:	47.277	Thrust:	11.337
Time:	2.626	Roll Set Point:	-0.234	Pitch Set Point:	-0.122	Yaw Set Point:	-0.577	X_WP:	0.000	Y_WP:	0.000	Y_WP:	0.500	X:	0.099	Y:	0.096	Z:	0.399	yaw:	33.043	yaw rate:	-1.743	Roll:	4.073	Pitch:	0.815	Yaw:	47.412	Thrust:	11.717
Time:	2.641	Roll Set Point:	-0.234	Pitch Set Point:	-0.122	Yaw Set Point:	-0.577	X_WP:	0.000	Y_WP:	0.000	Y_WP:	0.500	X:	0.099	Y:	0.096	Z:	0.399	yaw:	33.043	yaw rate:	-1.743	Roll:	4.097	Pitch:	0.789	Yaw:	47.696	Thrust:	11.843
Time:	2.657	Roll Set Point:	-0.234	Pitch Set Point:	-0.122	Yaw Set Point:	-0.577	X_WP:	0.000	Y_WP:	0.000	Y_WP:	0.500	X:	0.099	Y:	0.096	Z:	0.399	yaw:	33.062	yaw rate:	-0.451	Roll:	4.118	Pitch:	0.716	Yaw:	48.040	Thrust:	12.048
Time:	2.672	Roll Set Point:	-0.234	Pitch Set Point:	-0.122	Yaw Set Point:	-0.577	X_WP:	0.000	Y_WP:	0.000	Y_WP:	0.500	X:	0.099	Y:	0.096	Z:	0.399	yaw:	33.062	yaw rate:	-0.451	Roll:	4.108	Pitch:	0.789	Yaw:	47.723	Thrust:	12.226
Time:	2.688	Roll Set Point:	-0.235	Pitch Set Point:	-0.122	Yaw Set Point:	-0.578	X_WP:	0.000	Y_WP:	0.000	Y_WP:	0.500	X:	0.099	Y:	0.096	Z:	0.399	yaw:	33.094	yaw rate:	2.081	Roll:	4.152	Pitch:	0.735	Yaw:	48.322	Thrust:	12.533
Time:	2.704	Roll Set Point:	-0.234	Pitch Set Point:	-0.122	Yaw Set Point:	-0.577	X_WP:	0.000	Y_WP:	0.000	Y_WP:	0.500	X:	0.099	Y:	0.096	Z:	0.399	yaw:	33.071	yaw rate:	-2.370	Roll:	4.062	Pitch:	0.807	Yaw:	47.341	Thrust:	12.584
Time:	2.719	Roll Set Point:	-0.234	Pitch Set Point:	-0.121	Yaw Set Point:	-0.577	X_WP:	0.000	Y_WP:	0.000	Y_WP:	0.500	X:	0.099	Y:	0.096	Z:	0.399	yaw:	33.083	yaw rate:	1.221	Roll:	4.154	Pitch:	0.751	Yaw:	47.960	Thrust:	12.684
Time:	2.735	Roll Set Point:	-0.234	Pitch Set Point:	-0.121	Yaw Set Point:	-0.577	X_WP:	0.000	Y_WP:	0.000	Y_WP:	0.500	X:	0.099	Y:	0.096	Z:	0.399	yaw:	33.083	yaw rate:	1.221	Roll:	4.129	Pitch:	0.791	Yaw:	47.755	Thrust:	12.998
Time:	2.751	Roll Set Point:	-0.234	Pitch Set Point:	-0.122	Yaw Set Point:	-0.577	X_WP:	0.000	Y_WP:	0.000	Y_WP:	0.500	X:	0.099	Y:	0.096	Z:	0.399	yaw:	33.064	yaw rate:	-3.024	Roll:	4.120	Pitch:	0.834	Yaw:	47.411	Thrust:	13.214
Time:	2.766	Roll Set Point:	-0.234	Pitch Set Point:	-0.122	Yaw Set Point:	-0.577	X_WP:	0.000	Y_WP:	0.000	Y_WP:	0.500	X:	0.099	Y:	0.096	Z:	0.399	yaw:	33.064	yaw rate:	-3.024	Roll:	4.140	Pitch:	0.794	Yaw:	47.729	Thrust:	13.379
Time:	2.782	Roll Set Point:	-0.234	Pitch Set Point:	-0.122	Yaw Set Point:	-0.578	X_WP:	0.000	Y_WP:	0.000	Y_WP:	0.500	X:	0.099	Y:	0.096	Z:	0.399	yaw:	33.098	yaw rate:	-7.116	Roll:	4.174	Pitch:	0.766	Yaw:	48.343	Thrust:	13.652
Time:	2.797	Roll Set Point:	-0.234	Pitch Set Point:	-0.122	Yaw Set Point:	-0.577	X_WP:	0.000	Y_WP:	0.000	Y_WP:	0.500	X:	0.099	Y:	0.096	Z:	0.399	yaw:	33.065	yaw rate:	-3.333	Roll:	4.131	Pitch:	0.948	Yaw:	47.171	Thrust:	13.739
Time:	2.813	Roll Set Point:	-0.235	Pitch Set Point:	-0.122	Yaw Set Point:	-0.578	X_WP:	0.000	Y_WP:	0.000	Y_WP:	0.500	X:	0.099	Y:	0.096	Z:	0.399	yaw:	33.114	yaw rate:	4.917	Roll:	4.204	Pitch:	0.631	Yaw:	48.622	Thrust:	14.051
Time:	2.829	Roll Set Point:	-0.235	Pitch Set Point:	-0.121	Yaw Set Point:	-0.577	X_WP:	0.000	Y_WP:	0.000	Y_WP:	0.500	X:	0.099	Y:	0.096	Z:	0.399	yaw:	33.087	yaw rate:	-2.659	Roll:	4.131	Pitch:	0.789	Yaw:	47.315	Thrust:	14.082
Time:	2.844	Roll Set Point:	-0.235	Pitch Set Point:	-0.121	Yaw Set Point:	-0.577	X_WP:	0.000	Y_WP:	0.000	Y_WP:	0.500	X:	0.099	Y:	0.096	Z:	0.399	yaw:	33.087	yaw rate:	-2.659	Roll:	4.167	Pitch:	0.798	Yaw:	47.761	Thrust:	14.332
Time:	2.860	Roll Set Point:	-0.234	Pitch Set Point:	-0.122	Yaw Set Point:	-0.577	X_WP:	0.000	Y_WP:	0.000	Y_WP:	0.500	X:	0.099	Y:	0.096	Z:	0.399	yaw:	33.051	yaw rate:	-2.574	Roll:	4.161	Pitch:	0.930	Yaw:	47.118	Thrust:	14.379
Time:	2.876	Roll Set Point:	-0.234	Pitch Set Point:	-0.122	Yaw Set Point:	-0.577	X_WP:	0.000	Y_WP:	0.000	Y_WP:	0.500	X:	0.099	Y:	0.096	Z:	0.399	yaw:	33.077	yaw rate:	2.587	Roll:	4.192	Pitch:	0.794	Yaw:	48.181	Thrust:	14.728
Time:	2.891	Roll Set Point:	-0.234	Pitch Set Point:	-0.122	Yaw Set Point:	-0.578	X_WP:	0.000	Y_WP:	0.000	Y_WP:	0.500	X:	0.099	Y:	0.096	Z:	0.399	yaw:	33.094	yaw rate:	1.708	Roll:	4.156	Pitch:	0.712	Yaw:	48.055	Thrust:	15.039
Time:	2.907	Roll Set Point:	-0.234	Pitch Set Point:	-0.122	Yaw Set Point:	-0.578	X_WP:	0.000	Y_WP:	0.000	Y_WP:	0.500	X:	0.099	Y:	0.096	Z:	0.399	yaw:	33.094	yaw rate:	1.708	Roll:	4.187	Pitch:	0.803	Yaw:	47.771	Thrust:	15.090
Time:	2.923	Roll Set Point:	-0.234	Pitch Set Point:	-0.122	Yaw Set Point:	-0.578	X_WP:	0.000	Y_WP:	0.000	Y_WP:	0.500	X:	0.099	Y:	0.096	Z:	0.399	yaw:	33.108	yaw rate:	4.098	Roll:	4.242	Pitch:	0.843	Yaw:	48.025	Thrust:	15.285
Time:	2.938	Roll Set Point:	-0.234	Pitch Set Point:	-0.122	Yaw Set Point:	-0.578	X_WP:	0.000	Y_WP:	0.000	Y_WP:	0.500	X:	0.099	Y:	0.096	Z:	0.399	yaw:	33.108	yaw rate:	4.098	Roll:	4.199	Pitch:	0.806	Yaw:	47.791	Thrust:	15.474
Time:	2.954	Roll Set Point:	-0.234	Pitch Set Point:	-0.122	Yaw Set Point:	-0.577	X_WP:	0.000	Y_WP:	0.000	Y_WP:	0.500	X:	0.099	Y:	0.096	Z:	0.399	yaw:	33.079	yaw rate:	-2.901	Roll:	4.173	Pitch:	0.785	Yaw:	47.264	Thrust:	15.600
Time:	2.969	Roll Set Point:	-0.234	Pitch Set Point:	-0.122	Yaw Set Point:	-0.578	X_WP:	0.000	Y_WP:	0.000	Y_WP:	0.500	X:	0.099	Y:	0.096	Z:	0.399	yaw:	33.108	yaw rate:	5.691	Roll:	4.210	Pitch:	0.767	Yaw:	48.278	Thrust:	15.986
Time:	2.985	Roll Set Point:	-0.234	Pitch Set Point:	-0.122	Yaw Set Point:	-0.578	X_WP:	0.000	Y_WP:	0.000	Y_WP:	0.500	X:	0.099	Y:	0.096	Z:	0.399	yaw:	33.092	yaw rate:	-1.636	Roll:	4.227	Pitch:	0.924	Yaw:	47.498	Thrust:	15.954
Time:	3.001	Roll Set Point:	-0.234	Pitch Set Point:	-0.122	Yaw Set Point:	-0.578	X_WP:	0.000	Y_WP:	0.000	Y_WP:	0.500	X:	0.099	Y:	0.096	Z:	0.399	yaw:	33.090	yaw rate:	-0.236	Roll:	4.227	Pitch:	0.811	Yaw:	47.721	Thrust:	16.201
Time:	3.016	Roll Set Point:	-0.234	Pitch Set Point:	-0.122	Yaw Set Point:	-0.578	X_WP:	0.000	Y_WP:	0.000	Y_WP:	0.500	X:	0.099	Y:	0.096	Z:	0.399	yaw:	33.090	yaw rate:	-0.236	Roll:	4.226	Pitch:	0.813	Yaw:	47.768	Thrust:	16.450
Time:	3.032	Roll Set Point:	-0.234	Pitch Set Point:	-0.122	Yaw Set Point:	-0.577	X_WP:	0.000	Y_WP:	0.000	Y_WP:	0.500	X:	0.099	Y:	0.096	Z:	0.399	yaw:	33.080	yaw rate:	-1.055	Roll:	4.191	Pitch:	0.758	Yaw:	47.587	Thrust:	16.675
Time:	3.047	Roll Set Point:	-0.234	Pitch Set Point:	-0.122	Yaw Set Point:	-0.577	X_WP:	0.000	Y_WP:	0.000	Y_WP:	0.500	X:	0.099	Y:	0.096	Z:	0.399	yaw:	33.080	yaw rate:	-1.055	Roll:	4.234	Pitch:	0.813	Yaw:	47.748	Thrust:	16.786
Time:	3.063	Roll Set Point:	-0.234	Pitch Set Point:	-0.122	Yaw Set Point:	-0.576	X_WP:	0.000	Y_WP:	0.000	Y_WP:	0.500	X:	0.099	Y:	0.096	Z:	0.399	yaw:	33.026	yaw rate:	-2.252	Roll:	4.227	Pitch:	0.943	Yaw:	46.774	Thrust:	16.698
Time:	3.079	Roll Set Point:	-0.234	Pitch Set Point:	-0.122	Yaw Set Point:	-0.578	X_WP:	0.000	Y_WP:	0.000	Y_WP:	0.500	X:	0.099	Y:	0.096	Z:	0.398	yaw:	33.107	yaw rate:	8.083	Roll:	4.264	Pitch:	0.709	Yaw:	49.143	Thrust:	17.600
Time:	3.094	Roll Set Point:	-0.234	Pitch Set Point:	-0.121	Yaw Set Point:	-0.578	X_WP:	0.000	Y_WP:	0.000	Y_WP:	0.500	X:	0.099	Y:	0.096	Z:	0.398	yaw:	33.104	yaw rate:	-0.286	Roll:	4.266	Pitch:	0.720	Yaw:	47.737	Thrust:	17.422
Time:	3.110	Roll Set Point:	-0.234	Pitch Set Point:	-0.121	Yaw Set Point:	-0.578	X_WP:	0.000	Y_WP:	0.000	Y_WP:	0.500	X:	0.099	Y:	0.096	Z:	0.398	yaw:	33.104	yaw rate:	-0.286	Roll:	4.257	Pitch:	0.815	Yaw:	47.784	Thrust:	17.570
Time:	3.126	Roll Set Point:	-0.234	Pitch Set Point:	-0.122	Yaw Set Point:	-0.577	X_WP:	0.000	Y_WP:	0.000	Y_WP:	0.500	X:	0.099	Y:	0.096	Z:	0.399	yaw:	33.068	yaw rate:	-0.963	Roll:	4.263	Pitch:	0.940	Yaw:	47.129	Thrust:	17.380
Time:	3.141	Roll Set Point:	-0.234	Pitch Set Point:	-0.122	Yaw Set Point:	-0.576	X_WP:	0.000	Y_WP:	0.000	Y_WP:	0.500	X:	0.099	Y:	0.096	Z:	0.399	yaw:	33.013	yaw rate:	-5.491	Roll:	4.216	Pitch:	0.892	Yaw:	46.737	Thrust:	17.984
Time:	3.157	Roll Set Point:	-0.234	Pitch Set Point:	-0.121	Yaw Set Point:	-0.579	X_WP:	0.000	Y_WP:	0.000	Y_WP:	0.500	X:	0.099	Y:	0.096	Z:	0.399	yaw:	33.150	yaw rate:	13.672	Roll:	4.279	Pitch:	0.571	Yaw:	50.139	Thrust:	18.057
Time:	3.172	Roll Set Point:	-0.234	Pitch Set Point:	-0.122	Yaw Set Point:	-0.578	X_WP:	0.000	Y_WP:	0.000	Y_WP:	0.500	X:	0.099	Y:	0.096	Z:	0.399	yaw:	33.094	yaw rate:	-5.566	Roll:	4.325	Pitch:	0.950	Yaw:	46.838	Thrust:	18.562
Time:	3.188	Roll Set Point:	-0.234	Pitch Set Point:	-0.122	Yaw Set Point:	-0.578	X_WP:	0.000	Y_WP:	0.000	Y_WP:	0.500	X:	0.099	Y:	0.096	Z:	0.399	yaw:	33.094	yaw rate:	-5.566	Roll:	4.283	Pitch:	0.822	Yaw:	47.771	Thrust:	18.518
Time:	3.204	Roll Set Point:	-0.234	Pitch Set Point:	-0.122	Yaw Set Point:	-0.578	X_WP:	0.000	Y_WP:	0.000	Y_WP:	0.500	X:	0.099	Y:	0.096	Z:	0.398	yaw:	33.107	yaw rate:	2.284	Roll:	4.267	Pitch:	0.855	Yaw:	48.011	Thrust:	18.803
Time:	3.219	Roll Set Point:	-0.234	Pitch Set Point:	-0.122	Yaw Set Point:	-0.577	X_WP:	0.000	Y_WP:	0.000	Y_WP:	0.500	X:	0.099	Y:	0.096	Z:	0.399	yaw:	33.043	yaw rate:	-6.413	Roll:	4.256	Pitch:	0.845	Yaw:	46.625	Thrust:	18.812
Time:	3.235	Roll Set Point:	-0.234	Pitch Set Point:	-0.122	Yaw Set Point:	-0.577	X_WP:	0.000	Y_WP:	0.000	Y_WP:	0.500	X:	0.099	Y:	0.096	Z:	0.399	yaw:	33.081	yaw rate:	3.748	Roll:	4.338	Pitch:	0.773	Yaw:	48.382	Thrust:	19.062
Time:	3.251	Roll Set Point:	-0.234	Pitch Set Point:	-0.122	Yaw Set Point:	-0.577	X_WP:	0.000	Y_WP:	0.000	Y_WP:	0.500	X:	0.099	Y:	0.096	Z:	0.399	yaw:	33.081	yaw rate:	0.021	Roll:	4.327	Pitch:	0.939	Yaw:	47.753	Thrust:	19.281
Time:	3.266	Roll Set Point:	-0.234	Pitch Set Point:	-0.122	Yaw Set Point:	-0.577	X_WP:	0.000	Y_WP:	0.000	Y_WP:	0.500	X:	0.099	Y:	0.096	Z:	0.399	yaw:	33.081	yaw rate:	0.021	Roll:	4.310	Pitch:	0.830	Yaw:	47.753	Thrust:	19.471
Time:	3.282	Roll Set Point:	-0.234	Pitch Set Point:	-0.121	Yaw Set Point:	-0.579	X_WP:	0.000	Y_WP:	0.000	Y_WP:	0.500	X:	0.099	Y:	0.096	Z:	0.399	yaw:	33.165	yaw rate:	13.379	Roll:	4.273	Pitch:	0.556	Yaw:	49.281	Thrust:	19.508
Time:	3.298	Roll Set Point:	-0.234	Pitch Set Point:	-0.122	Yaw Set Point:	-0.577	X_WP:	0.000	Y_WP:	0.000	Y_WP:	0.500	X:	0.099	Y:	0.096	Z:	0.399	yaw:	33.052	yaw rate:	-11.368	Roll:	4.326	Pitch:	1.022	Yaw:	45.813	Thrust:	20.009
Time:	3.313	Roll Set Point:	-0.234	Pitch Set Point:	-0.122	Yaw Set Point:	-0.577	X_WP:	0.000	Y_WP:	0.000	Y_WP:	0.500	X:	0.099	Y:	0.096	Z:	0.399	yaw:	33.052	yaw rate:	-11.368	Roll:	4.324	Pitch:	0.831	Yaw:	47.708	Thrust:	20.012
Time:	3.329	Roll Set Point:	-0.234	Pitch Set Point:	-0.122	Yaw Set Point:	-0.578	X_WP:	0.000	Y_WP:	0.000	Y_WP:	0.500	X:	0.099	Y:	0.096	Z:	0.398	yaw:	33.120	yaw rate:	6.814	Roll:	4.399	Pitch:	0.852	Yaw:	48.948	Thrust:	20.409
Time:	3.359	Roll Set Point:	-0.235	Pitch Set Point:	-0.121	Yaw Set Point:	-0.577	X_WP:	0.000	Y_WP:	0.000	Y_WP:	0.500	X:	0.099	Y:	0.096	Z:	0.399	yaw:	33.053	yaw rate:	-4.280	Roll:	4.688	Pitch:	0.866	Yaw:	48.561	Thrust:	33.938
Time:	3.374	Roll Set Point:	-0.235	Pitch Set Point:	-0.121	Yaw Set Point:	-0.577	X_WP:	0.000	Y_WP:	0.000	Y_WP:	0.500	X:	0.099	Y:	0.096	Z:	0.399	yaw:	33.053	yaw rate:	-4.280	Roll:	4.341	Pitch:	0.833	Yaw:	47.714	Thrust:	20.612
Time:	3.390	Roll Set Point:	-0.234	Pitch Set Point:	-0.122	Yaw Set Point:	-0.577	X_WP:	0.000	Y_WP:	0.000	Y_WP:	0.500	X:	0.099	Y:	0.096	Z:	0.399	yaw:	33.052	yaw rate:	-2.013	Roll:	4.354	Pitch:	1.015	Yaw:	47.688	Thrust:	20.615
Time:	3.406	Roll Set Point:	-0.234	Pitch Set Point:	-0.122	Yaw Set Point:	-0.577	X_WP:	0.000	Y_WP:	0.000	Y_WP:	0.500	X:	0.099	Y:	0.096	Z:	0.398	yaw:	33.081	yaw rate:	2.971	Roll:	4.357	Pitch:	0.714	Yaw:	48.251	Thrust:	21.216
Time:	3.421	Roll Set Point:	-0.234	Pitch Set Point:	-0.122	Yaw Set Point:	-0.577	X_WP:	0.000	Y_WP:	0.000	Y_WP:	0.500	X:	0.099	Y:	0.096	Z:	0.398	yaw:	33.081	yaw rate:	2.971	Roll:	4.357	Pitch:	0.837	Yaw:	47.753	Thrust:	21.182
Time:	3.437	Roll Set Point:	-0.234	Pitch Set Point:	-0.122	Yaw Set Point:	-0.577	X_WP:	0.000	Y_WP:	0.000	Y_WP:	0.500	X:	0.099	Y:	0.096	Z:	0.399	yaw:	33.066	yaw rate:	-0.979	Roll:	4.354	Pitch:	0.876	Yaw:	47.474	Thrust:	21.312
Time:	3.452	Roll Set Point:	-0.234	Pitch Set Point:	-0.122	Yaw Set Point:	-0.578	X_WP:	0.000	Y_WP:	0.000	Y_WP:	0.500	X:	0.099	Y:	0.096	Z:	0.399	yaw:	33.110	yaw rate:	4.424	Roll:	4.399	Pitch:	0.808	Yaw:	48.536	Thrust:	21.569
Time:	3.468	Roll Set Point:	-0.234	Pitch Set Point:	-0.122	Yaw Set Point:	-0.577	X_WP:	0.000	Y_WP:	0.000	Y_WP:	0.500	X:	0.099	Y:	0.096	Z:	0.399	yaw:	33.073	yaw rate:	-3.767	Roll:	4.351	Pitch:	0.895	Yaw:	47.106	Thrust:	21.636
Time:	3.484	Roll Set Point:	-0.234	Pitch Set Point:	-0.122	Yaw Set Point:	-0.577	X_WP:	0.000	Y_WP:	0.000	Y_WP:	0.500	X:	0.099	Y:	0.096	Z:	0.399	yaw:	33.050	yaw rate:	-2.275	Roll:	4.345	Pitch:	0.802	Yaw:	47.332	Thrust:	22.122
Time:	3.499	Roll Set Point:	-0.235	Pitch Set Point:	-0.121	Yaw Set Point:	-0.577	X_WP:	0.000	Y_WP:	0.000	Y_WP:	0.500	X:	0.099	Y:	0.096	Z:	0.399	yaw:	33.079	yaw rate:	2.957	Roll:	4.412	Pitch:	0.738	Yaw:	48.244	Thrust:	22.072
Time:	3.515	Roll Set Point:	-0.235	Pitch Set Point:	-0.121	Yaw Set Point:	-0.577	X_WP:	0.000	Y_WP:	0.000	Y_WP:	0.500	X:	0.099	Y:	0.096	Z:	0.399	yaw:	33.079	yaw rate:	2.957	Roll:	4.390	Pitch:	0.841	Yaw:	47.753	Thrust:	22.354
Time:	3.531	Roll Set Point:	-0.234	Pitch Set Point:	-0.122	Yaw Set Point:	-0.577	X_WP:	0.000	Y_WP:	0.000	Y_WP:	0.500	X:	0.099	Y:	0.096	Z:	0.399	yaw:	33.072	yaw rate:	-2.654	Roll:	4.384	Pitch:	0.974	Yaw:	47.608	Thrust:	22.471
Time:	3.546	Roll Set Point:	-0.235	Pitch Set Point:	-0.122	Yaw Set Point:	-0.577	X_WP:	0.000	Y_WP:	0.000	Y_WP:	0.500	X:	0.099	Y:	0.096	Z:	0.399	yaw:	33.037	yaw rate:	-3.481	Roll:	4.391	Pitch:	0.821	Yaw:	47.112	Thrust:	22.642
Time:	3.562	Roll Set Point:	-0.235	Pitch Set Point:	-0.121	Yaw Set Point:	-0.578	X_WP:	0.000	Y_WP:	0.000	Y_WP:	0.500	X:	0.099	Y:	0.096	Z:	0.399	yaw:	33.112	yaw rate:	7.480	Roll:	4.441	Pitch:	0.699	Yaw:	49.049	Thrust:	23.008
Time:	3.577	Roll Set Point:	-0.235	Pitch Set Point:	-0.122	Yaw Set Point:	-0.577	X_WP:	0.000	Y_WP:	0.000	Y_WP:	0.500	X:	0.099	Y:	0.096	Z:	0.399	yaw:	33.077	yaw rate:	-3.518	Roll:	4.419	Pitch:	0.979	Yaw:	47.153	Thrust:	23.050
Time:	3.593	Roll Set Point:	-0.234	Pitch Set Point:	-0.122	Yaw Set Point:	-0.577	X_WP:	0.000	Y_WP:	0.000	Y_WP:	0.500	X:	0.099	Y:	0.096	Z:	0.399	yaw:	33.053	yaw rate:	-2.377	Roll:	4.376	Pitch:	0.893	Yaw:	47.314	Thrust:	23.090
Time:	3.609	Roll Set Point:	-0.234	Pitch Set Point:	-0.122	Yaw Set Point:	-0.577	X_WP:	0.000	Y_WP:	0.000	Y_WP:	0.500	X:	0.099	Y:	0.096	Z:	0.399	yaw:	33.046	yaw rate:	-0.673	Roll:	4.406	Pitch:	0.803	Yaw:	47.591	Thrust:	23.425
Time:	3.624	Roll Set Point:	-0.234	Pitch Set Point:	-0.122	Yaw Set Point:	-0.578	X_WP:	0.000	Y_WP:	0.000	Y_WP:	0.500	X:	0.099	Y:	0.096	Z:	0.399	yaw:	33.097	yaw rate:	5.124	Roll:	4.461	Pitch:	0.773	Yaw:	48.635	Thrust:	23.902
Time:	3.640	Roll Set Point:	-0.234	Pitch Set Point:	-0.122	Yaw Set Point:	-0.578	X_WP:	0.000	Y_WP:	0.000	Y_WP:	0.500	X:	0.099	Y:	0.096	Z:	0.399	yaw:	33.097	yaw rate:	5.124	Roll:	4.431	Pitch:	0.849	Yaw:	47.775	Thrust:	23.843
Time:	3.656	Roll Set Point:	-0.234	Pitch Set Point:	-0.122	Yaw Set Point:	-0.578	X_WP:	0.000	Y_WP:	0.000	Y_WP:	0.500	X:	0.099	Y:	0.096	Z:	0.399	yaw:	33.091	yaw rate:	-0.539	Roll:	4.433	Pitch:	0.924	Yaw:	47.658	Thrust:	24.022
Time:	3.671	Roll Set Point:	-0.234	Pitch Set Point:	-0.122	Yaw Set Point:	-0.577	X_WP:	0.000	Y_WP:	0.000	Y_WP:	0.500	X:	0.099	Y:	0.096	Z:	0.399	yaw:	33.083	yaw rate:	-0.766	Roll:	4.432	Pitch:	0.800	Yaw:	47.627	Thrust:	24.234
Time:	3.687	Roll Set Point:	-0.234	Pitch Set Point:	-0.122	Yaw Set Point:	-0.577	X_WP:	0.000	Y_WP:	0.000	Y_WP:	0.500	X:	0.099	Y:	0.096	Z:	0.399	yaw:	33.080	yaw rate:	-0.306	Roll:	4.436	Pitch:	0.878	Yaw:	47.703	Thrust:	24.440
Time:	3.702	Roll Set Point:	-0.234	Pitch Set Point:	-0.122	Yaw Set Point:	-0.577	X_WP:	0.000	Y_WP:	0.000	Y_WP:	0.500	X:	0.099	Y:	0.096	Z:	0.399	yaw:	33.080	yaw rate:	-0.306	Roll:	4.451	Pitch:	0.855	Yaw:	47.748	Thrust:	24.570
Time:	3.718	Roll Set Point:	-0.234	Pitch Set Point:	-0.122	Yaw Set Point:	-0.577	X_WP:	0.000	Y_WP:	0.000	Y_WP:	0.500	X:	0.099	Y:	0.096	Z:	0.399	yaw:	33.079	yaw rate:	-1.311	Roll:	4.476	Pitch:	0.934	Yaw:	47.730	Thrust:	24.763
Time:	3.734	Roll Set Point:	-0.234	Pitch Set Point:	-0.122	Yaw Set Point:	-0.578	X_WP:	0.000	Y_WP:	0.000	Y_WP:	0.500	X:	0.099	Y:	0.096	Z:	0.398	yaw:	33.103	yaw rate:	2.410	Roll:	4.470	Pitch:	0.756	Yaw:	48.187	Thrust:	25.106
Time:	3.749	Roll Set Point:	-0.234	Pitch Set Point:	-0.122	Yaw Set Point:	-0.578	X_WP:	0.000	Y_WP:	0.000	Y_WP:	0.500	X:	0.099	Y:	0.096	Z:	0.398	yaw:	33.090	yaw rate:	-1.273	Roll:	4.449	Pitch:	0.830	Yaw:	47.549	Thrust:	25.158
Time:	3.765	Roll Set Point:	-0.235	Pitch Set Point:	-0.122	Yaw Set Point:	-0.578	X_WP:	0.000	Y_WP:	0.000	Y_WP:	0.500	X:	0.099	Y:	0.096	Z:	0.399	yaw:	33.096	yaw rate:	0.602	Roll:	4.501	Pitch:	0.860	Yaw:	47.875	Thrust:	25.230
Time:	3.781	Roll Set Point:	-0.234	Pitch Set Point:	-0.122	Yaw Set Point:	-0.577	X_WP:	0.000	Y_WP:	0.000	Y_WP:	0.500	X:	0.099	Y:	0.096	Z:	0.399	yaw:	33.071	yaw rate:	-2.521	Roll:	4.453	Pitch:	0.992	Yaw:	47.317	Thrust:	25.469
Time:	3.796	Roll Set Point:	-0.234	Pitch Set Point:	-0.122	Yaw Set Point:	-0.577	X_WP:	0.000	Y_WP:	0.000	Y_WP:	0.500	X:	0.099	Y:	0.096	Z:	0.399	yaw:	33.071	yaw rate:	-2.521	Roll:	4.483	Pitch:	0.863	Yaw:	47.738	Thrust:	25.736
Time:	3.812	Roll Set Point:	-0.234	Pitch Set Point:	-0.122	Yaw Set Point:	-0.578	X_WP:	0.000	Y_WP:	0.000	Y_WP:	0.500	X:	0.099	Y:	0.096	Z:	0.399	yaw:	33.101	yaw rate:	1.968	Roll:	4.501	Pitch:	0.732	Yaw:	48.278	Thrust:	26.102
Time:	3.827	Roll Set Point:	-0.234	Pitch Set Point:	-0.122	Yaw Set Point:	-0.578	X_WP:	0.000	Y_WP:	0.000	Y_WP:	0.500	X:	0.099	Y:	0.096	Z:	0.399	yaw:	33.101	yaw rate:	1.968	Roll:	4.495	Pitch:	0.862	Yaw:	47.780	Thrust:	26.130
Time:	3.843	Roll Set Point:	-0.234	Pitch Set Point:	-0.122	Yaw Set Point:	-0.577	X_WP:	0.000	Y_WP:	0.000	Y_WP:	0.500	X:	0.099	Y:	0.096	Z:	0.399	yaw:	33.079	yaw rate:	0.315	Roll:	4.485	Pitch:	0.967	Yaw:	47.388	Thrust:	26.218
Time:	3.859	Roll Set Point:	-0.234	Pitch Set Point:	-0.122	Yaw Set Point:	-0.578	X_WP:	0.000	Y_WP:	0.000	Y_WP:	0.500	X:	0.099	Y:	0.096	Z:	0.399	yaw:	33.129	yaw rate:	4.985	Roll:	4.529	Pitch:	0.800	Yaw:	48.655	Thrust:	26.630
Time:	3.874	Roll Set Point:	-0.234	Pitch Set Point:	-0.122	Yaw Set Point:	-0.578	X_WP:	0.000	Y_WP:	0.000	Y_WP:	0.500	X:	0.099	Y:	0.096	Z:	0.399	yaw:	33.129	yaw rate:	4.985	Roll:	4.510	Pitch:	0.866	Yaw:	47.819	Thrust:	26.696
Time:	3.890	Roll Set Point:	-0.234	Pitch Set Point:	-0.122	Yaw Set Point:	-0.577	X_WP:	0.000	Y_WP:	0.000	Y_WP:	0.500	X:	0.099	Y:	0.096	Z:	0.399	yaw:	33.073	yaw rate:	-3.922	Roll:	4.472	Pitch:	0.906	Yaw:	46.803	Thrust:	26.858
Time:	3.906	Roll Set Point:	-0.234	Pitch Set Point:	-0.122	Yaw Set Point:	-0.577	X_WP:	0.000	Y_WP:	0.000	Y_WP:	0.500	X:	0.099	Y:	0.096	Z:	0.399	yaw:	33.066	yaw rate:	-0.676	Roll:	4.516	Pitch:	0.853	Yaw:	47.619	Thrust:	27.014
Time:	3.921	Roll Set Point:	-0.234	Pitch Set Point:	-0.122	Yaw Set Point:	-0.577	X_WP:	0.000	Y_WP:	0.000	Y_WP:	0.500	X:	0.099	Y:	0.096	Z:	0.399	yaw:	33.066	yaw rate:	-0.676	Roll:	4.509	Pitch:	0.869	Yaw:	47.732	Thrust:	27.269
Time:	3.937	Roll Set Point:	-0.234	Pitch Set Point:	-0.122	Yaw Set Point:	-0.578	X_WP:	0.000	Y_WP:	0.000	Y_WP:	0.500	X:	0.099	Y:	0.096	Z:	0.399	yaw:	33.100	yaw rate:	3.385	Roll:	4.527	Pitch:	0.853	Yaw:	48.346	Thrust:	27.458
Time:	3.952	Roll Set Point:	-0.235	Pitch Set Point:	-0.122	Yaw Set Point:	-0.577	X_WP:	0.000	Y_WP:	0.000	Y_WP:	0.500	X:	0.099	Y:	0.096	Z:	0.399	yaw:	33.069	yaw rate:	-3.128	Roll:	4.501	Pitch:	0.868	Yaw:	47.212	Thrust:	27.577
Time:	3.968	Roll Set Point:	-0.235	Pitch Set Point:	-0.122	Yaw Set Point:	-0.577	X_WP:	0.000	Y_WP:	0.000	Y_WP:	0.500	X:	0.099	Y:	0.096	Z:	0.399	yaw:	33.072	yaw rate:	3.131	Roll:	4.509	Pitch:	0.844	Yaw:	47.788	Thrust:	27.840
Time:	3.984	Roll Set Point:	-0.234	Pitch Set Point:	-0.122	Yaw Set Point:	-0.578	X_WP:	0.000	Y_WP:	0.000	Y_WP:	0.500	X:	0.099	Y:	0.096	Z:	0.398	yaw:	33.102	yaw rate:	3.058	Roll:	4.523	Pitch:	0.925	Yaw:	48.294	Thrust:	28.274
Time:	3.999	Roll Set Point:	-0.234	Pitch Set Point:	-0.122	Yaw Set Point:	-0.577	X_WP:	0.000	Y_WP:	0.000	Y_WP:	0.500	X:	0.099	Y:	0.096	Z:	0.398	yaw:	33.088	yaw rate:	-1.412	Roll:	4.516	Pitch:	0.900	Yaw:	47.530	Thrust:	28.241
Time:	4.015	Roll Set Point:	-0.234	Pitch Set Point:	-0.122	Yaw Set Point:	-0.577	X_WP:	0.000	Y_WP:	0.000	Y_WP:	0.500	X:	0.099	Y:	0.096	Z:	0.398	yaw:	33.088	yaw rate:	-1.412	Roll:	4.510	Pitch:	0.876	Yaw:	47.762	Thrust:	28.411
Time:	4.031	Roll Set Point:	-0.234	Pitch Set Point:	-0.122	Yaw Set Point:	-0.578	X_WP:	0.000	Y_WP:	0.000	Y_WP:	0.500	X:	0.099	Y:	0.096	Z:	0.399	yaw:	33.101	yaw rate:	1.321	Roll:	4.502	Pitch:	0.784	Yaw:	48.000	Thrust:	28.538
Time:	4.046	Roll Set Point:	-0.234	Pitch Set Point:	-0.122	Yaw Set Point:	-0.578	X_WP:	0.000	Y_WP:	0.000	Y_WP:	0.500	X:	0.099	Y:	0.096	Z:	0.399	yaw:	33.101	yaw rate:	1.321	Roll:	4.511	Pitch:	0.876	Yaw:	47.784	Thrust:	28.841
Time:	4.062	Roll Set Point:	-0.235	Pitch Set Point:	-0.122	Yaw Set Point:	-0.578	X_WP:	0.000	Y_WP:	0.000	Y_WP:	0.500	X:	0.099	Y:	0.096	Z:	0.399	yaw:	33.118	yaw rate:	6.950	Roll:	4.542	Pitch:	0.867	Yaw:	48.084	Thrust:	28.999
Time:	4.078	Roll Set Point:	-0.235	Pitch Set Point:	-0.122	Yaw Set Point:	-0.576	X_WP:	0.000	Y_WP:	0.000	Y_WP:	0.500	X:	0.099	Y:	0.096	Z:	0.399	yaw:	33.030	yaw rate:	-8.772	Roll:	4.468	Pitch:	0.994	Yaw:	46.206	Thrust:	28.816
Time:	4.093	Roll Set Point:	-0.234	Pitch Set Point:	-0.122	Yaw Set Point:	-0.578	X_WP:	0.000	Y_WP:	0.000	Y_WP:	0.500	X:	0.099	Y:	0.096	Z:	0.398	yaw:	33.096	yaw rate:	6.602	Roll:	4.521	Pitch:	0.786	Yaw:	48.880	Thrust:	29.710
Time:	4.109	Roll Set Point:	-0.234	Pitch Set Point:	-0.122	Yaw Set Point:	-0.578	X_WP:	0.000	Y_WP:	0.000	Y_WP:	0.500	X:	0.099	Y:	0.096	Z:	0.398	yaw:	33.096	yaw rate:	6.602	Roll:	4.511	Pitch:	0.880	Yaw:	47.778	Thrust:	29.620
Time:	4.124	Roll Set Point:	-0.234	Pitch Set Point:	-0.122	Yaw Set Point:	-0.577	X_WP:	0.000	Y_WP:	0.000	Y_WP:	0.500	X:	0.099	Y:	0.096	Z:	0.399	yaw:	33.084	yaw rate:	1.476	Roll:	4.485	Pitch:	0.951	Yaw:	47.539	Thrust:	29.593
Time:	4.140	Roll Set Point:	-0.235	Pitch Set Point:	-0.122	Yaw Set Point:	-0.577	X_WP:	0.000	Y_WP:	0.000	Y_WP:	0.500	X:	0.099	Y:	0.096	Z:	0.399	yaw:	33.075	yaw rate:	-0.863	Roll:	4.536	Pitch:	0.848	Yaw:	47.599	Thrust:	29.911
Time:	4.156	Roll Set Point:	-0.234	Pitch Set Point:	-0.122	Yaw Set Point:	-0.578	X_WP:	0.000	Y_WP:	0.000	Y_WP:	0.500	X:	0.099	Y:	0.096	Z:	0.398	yaw:	33.091	yaw rate:	1.629	Roll:	4.490	Pitch:	0.912	Yaw:	48.037	Thrust:	30.234
Time:	4.171	Roll Set Point:	-0.235	Pitch Set Point:	-0.122	Yaw Set Point:	-0.578	X_WP:	0.000	Y_WP:	0.000	Y_WP:	0.500	X:	0.099	Y:	0.096	Z:	0.399	yaw:	33.097	yaw rate:	0.531	Roll:	4.527	Pitch:	0.800	Yaw:	47.866	Thrust:	30.239
Time:	4.187	Roll Set Point:	-0.234	Pitch Set Point:	-0.122	Yaw Set Point:	-0.577	X_WP:	0.000	Y_WP:	0.000	Y_WP:	0.500	X:	0.099	Y:	0.096	Z:	0.399	yaw:	33.068	yaw rate:	-2.888	Roll:	4.487	Pitch:	0.983	Yaw:	47.251	Thrust:	30.461
Time:	4.203	Roll Set Point:	-0.234	Pitch Set Point:	-0.122	Yaw Set Point:	-0.578	X_WP:	0.000	Y_WP:	0.000	Y_WP:	0.500	X:	0.099	Y:	0.096	Z:	0.399	yaw:	33.115	yaw rate:	4.730	Roll:	4.538	Pitch:	0.776	Yaw:	48.592	Thrust:	30.819
Time:	4.218	Roll Set Point:	-0.234	Pitch Set Point:	-0.122	Yaw Set Point:	-0.577	X_WP:	0.000	Y_WP:	0.000	Y_WP:	0.500	X:	0.099	Y:	0.096	Z:	0.399	yaw:	33.071	yaw rate:	-4.423	Roll:	4.483	Pitch:	0.964	Yaw:	46.993	Thrust:	30.774
Time:	4.234	Roll Set Point:	-0.234	Pitch Set Point:	-0.122	Yaw Set Point:	-0.578	X_WP:	0.000	Y_WP:	0.000	Y_WP:	0.500	X:	0.099	Y:	0.096	Z:	0.399	yaw:	33.099	yaw rate:	2.779	Roll:	4.523	Pitch:	0.862	Yaw:	48.242	Thrust:	31.115
Time:	4.249	Roll Set Point:	-0.234	Pitch Set Point:	-0.122	Yaw Set Point:	-0.578	X_WP:	0.000	Y_WP:	0.000	Y_WP:	0.500	X:	0.099	Y:	0.096	Z:	0.399	yaw:	33.092	yaw rate:	-0.676	Roll:	4.499	Pitch:	0.880	Yaw:	47.658	Thrust:	31.171
Time:	4.265	Roll Set Point:	-0.234	Pitch Set Point:	-0.122	Yaw Set Point:	-0.578	X_WP:	0.000	Y_WP:	0.000	Y_WP:	0.500	X:	0.099	Y:	0.096	Z:	0.399	yaw:	33.092	yaw rate:	-0.676	Roll:	4.508	Pitch:	0.890	Yaw:	47.764	Thrust:	31.403
Time:	4.281	Roll Set Point:	-0.234	Pitch Set Point:	-0.121	Yaw Set Point:	-0.578	X_WP:	0.000	Y_WP:	0.000	Y_WP:	0.500	X:	0.099	Y:	0.095	Z:	0.399	yaw:	33.109	yaw rate:	1.761	Roll:	4.341	Pitch:	0.740	Yaw:	48.087	Thrust:	31.475
Time:	4.296	Roll Set Point:	-0.234	Pitch Set Point:	-0.121	Yaw Set Point:	-0.578	X_WP:	0.000	Y_WP:	0.000	Y_WP:	0.500	X:	0.099	Y:	0.095	Z:	0.399	yaw:	33.109	yaw rate:	1.761	Roll:	4.505	Pitch:	0.888	Yaw:	47.792	Thrust:	31.833
Time:	4.312	Roll Set Point:	-0.234	Pitch Set Point:	-0.122	Yaw Set Point:	-0.577	X_WP:	0.000	Y_WP:	0.000	Y_WP:	0.500	X:	0.099	Y:	0.096	Z:	0.399	yaw:	33.048	yaw rate:	-6.166	Roll:	4.645	Pitch:	1.163	Yaw:	46.678	Thrust:	32.318
Time:	4.328	Roll Set Point:	-0.234	Pitch Set Point:	-0.122	Yaw Set Point:	-0.578	X_WP:	0.000	Y_WP:	0.000	Y_WP:	0.500	X:	0.099	Y:	0.096	Z:	0.399	yaw:	33.091	yaw rate:	4.341	Roll:	4.549	Pitch:	0.821	Yaw:	48.494	Thrust:	32.208
Time:	4.344	Roll Set Point:	-0.234	Pitch Set Point:	-0.122	Yaw Set Point:	-0.577	X_WP:	0.000	Y_WP:	0.000	Y_WP:	0.500	X:	0.099	Y:	0.096	Z:	0.399	yaw:	33.060	yaw rate:	-0.941	Roll:	4.513	Pitch:	0.926	Yaw:	47.244	Thrust:	32.935
Time:	4.359	Roll Set Point:	-0.234	Pitch Set Point:	-0.122	Yaw Set Point:	-0.577	X_WP:	0.000	Y_WP:	0.000	Y_WP:	0.500	X:	0.099	Y:	0.096	Z:	0.399	yaw:	33.060	yaw rate:	-0.941	Roll:	4.510	Pitch:	0.898	Yaw:	47.723	Thrust:	32.603
Time:	4.375	Roll Set Point:	-0.234	Pitch Set Point:	-0.122	Yaw Set Point:	-0.578	X_WP:	0.000	Y_WP:	0.000	Y_WP:	0.500	X:	0.099	Y:	0.096	Z:	0.399	yaw:	33.109	yaw rate:	2.640	Roll:	4.529	Pitch:	0.822	Yaw:	48.608	Thrust:	33.003
Time:	4.390	Roll Set Point:	-0.234	Pitch Set Point:	-0.122	Yaw Set Point:	-0.577	X_WP:	0.000	Y_WP:	0.000	Y_WP:	0.500	X:	0.099	Y:	0.096	Z:	0.399	yaw:	33.070	yaw rate:	-3.898	Roll:	4.486	Pitch:	1.004	Yaw:	47.078	Thrust:	32.843
Time:	4.406	Roll Set Point:	-0.234	Pitch Set Point:	-0.122	Yaw Set Point:	-0.578	X_WP:	0.000	Y_WP:	0.000	Y_WP:	0.500	X:	0.099	Y:	0.096	Z:	0.399	yaw:	33.116	yaw rate:	4.611	Roll:	4.524	Pitch:	0.787	Yaw:	48.573	Thrust:	33.256
Time:	4.422	Roll Set Point:	-0.234	Pitch Set Point:	-0.122	Yaw Set Point:	-0.578	X_WP:	0.000	Y_WP:	0.000	Y_WP:	0.500	X:	0.099	Y:	0.096	Z:	0.399	yaw:	33.116	yaw rate:	4.611	Roll:	4.510	Pitch:	0.900	Yaw:	47.801	Thrust:	33.359
Time:	4.437	Roll Set Point:	-0.234	Pitch Set Point:	-0.122	Yaw Set Point:	-0.577	X_WP:	0.000	Y_WP:	0.000	Y_WP:	0.500	X:	0.099	Y:	0.096	Z:	0.399	yaw:	33.044	yaw rate:	-7.155	Roll:	4.479	Pitch:	1.005	Yaw:	46.502	Thrust:	33.390
Time:	4.453	Roll Set Point:	-0.234	Pitch Set Point:	-0.122	Yaw Set Point:	-0.577	X_WP:	0.000	Y_WP:	0.000	Y_WP:	0.500	X:	0.099	Y:	0.096	Z:	0.399	yaw:	33.059	yaw rate:	-3.677	Roll:	4.513	Pitch:	0.890	Yaw:	47.969	Thrust:	33.776
Time:	4.469	Roll Set Point:	-0.234	Pitch Set Point:	-0.122	Yaw Set Point:	-0.577	X_WP:	0.000	Y_WP:	0.000	Y_WP:	0.500	X:	0.099	Y:	0.096	Z:	0.399	yaw:	33.069	yaw rate:	0.996	Roll:	4.527	Pitch:	0.882	Yaw:	47.902	Thrust:	33.940
Time:	4.484	Roll Set Point:	-0.234	Pitch Set Point:	-0.122	Yaw Set Point:	-0.577	X_WP:	0.000	Y_WP:	0.000	Y_WP:	0.500	X:	0.099	Y:	0.096	Z:	0.399	yaw:	33.079	yaw rate:	1.050	Roll:	4.521	Pitch:	0.906	Yaw:	47.926	Thrust:	34.175
Time:	4.500	Roll Set Point:	-0.234	Pitch Set Point:	-0.122	Yaw Set Point:	-0.577	X_WP:	0.000	Y_WP:	0.000	Y_WP:	0.500	X:	0.099	Y:	0.096	Z:	0.399	yaw:	33.033	yaw rate:	-4.672	Roll:	4.473	Pitch:	0.992	Yaw:	46.907	Thrust:	34.206
Time:	4.515	Roll Set Point:	-0.235	Pitch Set Point:	-0.122	Yaw Set Point:	-0.577	X_WP:	0.000	Y_WP:	0.000	Y_WP:	0.500	X:	0.099	Y:	0.096	Z:	0.399	yaw:	33.051	yaw rate:	1.828	Roll:	4.530	Pitch:	0.819	Yaw:	48.014	Thrust:	34.419
Time:	4.531	Roll Set Point:	-0.234	Pitch Set Point:	-0.122	Yaw Set Point:	-0.577	X_WP:	0.000	Y_WP:	0.000	Y_WP:	0.500	X:	0.099	Y:	0.096	Z:	0.399	yaw:	33.073	yaw rate:	2.182	Roll:	4.514	Pitch:	0.934	Yaw:	48.106	Thrust:	34.821
Time:	4.547	Roll Set Point:	-0.235	Pitch Set Point:	-0.122	Yaw Set Point:	-0.578	X_WP:	0.000	Y_WP:	0.000	Y_WP:	0.500	X:	0.099	Y:	0.096	Z:	0.399	yaw:	33.096	yaw rate:	2.351	Roll:	4.541	Pitch:	0.845	Yaw:	48.168	Thrust:	34.934
Time:	4.562	Roll Set Point:	-0.234	Pitch Set Point:	-0.122	Yaw Set Point:	-0.577	X_WP:	0.000	Y_WP:	0.000	Y_WP:	0.500	X:	0.099	Y:	0.096	Z:	0.399	yaw:	33.062	yaw rate:	-3.391	Roll:	4.459	Pitch:	1.014	Yaw:	47.158	Thrust:	34.986
Time:	4.578	Roll Set Point:	-0.234	Pitch Set Point:	-0.122	Yaw Set Point:	-0.578	X_WP:	0.000	Y_WP:	0.000	Y_WP:	0.500	X:	0.099	Y:	0.096	Z:	0.399	yaw:	33.103	yaw rate:	4.071	Roll:	4.543	Pitch:	0.820	Yaw:	48.465	Thrust:	35.326
Time:	4.594	Roll Set Point:	-0.234	Pitch Set Point:	-0.122	Yaw Set Point:	-0.577	X_WP:	0.000	Y_WP:	0.000	Y_WP:	0.500	X:	0.099	Y:	0.096	Z:	0.399	yaw:	33.074	yaw rate:	-2.854	Roll:	4.489	Pitch:	0.990	Yaw:	47.269	Thrust:	35.504
Time:	4.609	Roll Set Point:	-0.234	Pitch Set Point:	-0.122	Yaw Set Point:	-0.577	X_WP:	0.000	Y_WP:	0.000	Y_WP:	0.500	X:	0.099	Y:	0.096	Z:	0.399	yaw:	33.070	yaw rate:	-0.438	Roll:	4.520	Pitch:	0.894	Yaw:	47.661	Thrust:	35.537
Time:	4.625	Roll Set Point:	-0.234	Pitch Set Point:	-0.122	Yaw Set Point:	-0.577	X_WP:	0.000	Y_WP:	0.000	Y_WP:	0.500	X:	0.099	Y:	0.096	Z:	0.399	yaw:	33.072	yaw rate:	0.152	Roll:	4.509	Pitch:	0.909	Yaw:	47.768	Thrust:	35.849
Time:	4.640	Roll Set Point:	-0.234	Pitch Set Point:	-0.122	Yaw Set Point:	-0.577	X_WP:	0.000	Y_WP:	0.000	Y_WP:	0.500	X:	0.099	Y:	0.096	Z:	0.399	yaw:	33.085	yaw rate:	1.376	Roll:	4.510	Pitch:	0.886	Yaw:	47.986	Thrust:	36.019
Time:	4.656	Roll Set Point:	-0.234	Pitch Set Point:	-0.122	Yaw Set Point:	-0.577	X_WP:	0.000	Y_WP:	0.000	Y_WP:	0.500	X:	0.099	Y:	0.096	Z:	0.399	yaw:	33.074	yaw rate:	-1.115	Roll:	4.504	Pitch:	0.931	Yaw:	47.557	Thrust:	36.185
Time:	4.672	Roll Set Point:	-0.234	Pitch Set Point:	-0.122	Yaw Set Point:	-0.577	X_WP:	0.000	Y_WP:	0.000	Y_WP:	0.500	X:	0.099	Y:	0.096	Z:	0.399	yaw:	33.074	yaw rate:	-1.115	Roll:	4.509	Pitch:	0.918	Yaw:	47.743	Thrust:	36.397
Time:	4.687	Roll Set Point:	-0.235	Pitch Set Point:	-0.122	Yaw Set Point:	-0.577	X_WP:	0.000	Y_WP:	0.000	Y_WP:	0.500	X:	0.099	Y:	0.096	Z:	0.399	yaw:	33.061	yaw rate:	-5.156	Roll:	4.523	Pitch:	0.894	Yaw:	47.496	Thrust:	36.550
Time:	4.703	Roll Set Point:	-0.234	Pitch Set Point:	-0.122	Yaw Set Point:	-0.577	X_WP:	0.000	Y_WP:	0.000	Y_WP:	0.500	X:	0.099	Y:	0.096	Z:	0.399	yaw:	33.088	yaw rate:	2.730	Roll:	4.489	Pitch:	0.941	Yaw:	48.219	Thrust:	36.854
Time:	4.719	Roll Set Point:	-0.234	Pitch Set Point:	-0.122	Yaw Set Point:	-0.577	X_WP:	0.000	Y_WP:	0.000	Y_WP:	0.500	X:	0.099	Y:	0.096	Z:	0.399	yaw:	33.062	yaw rate:	-2.557	Roll:	4.514	Pitch:	0.920	Yaw:	47.298	Thrust:	36.833
Time:	4.734	Roll Set Point:	-0.234	Pitch Set Point:	-0.122	Yaw Set Point:	-0.577	X_WP:	0.000	Y_WP:	0.000	Y_WP:	0.500	X:	0.099	Y:	0.096	Z:	0.399	yaw:	33.075	yaw rate:	1.221	Roll:	4.502	Pitch:	0.963	Yaw:	47.951	Thrust:	37.447
Time:	4.750	Roll Set Point:	-0.234	Pitch Set Point:	-0.122	Yaw Set Point:	-0.578	X_WP:	0.000	Y_WP:	0.000	Y_WP:	0.500	X:	0.099	Y:	0.096	Z:	0.399	yaw:	33.123	yaw rate:	4.814	Roll:	4.540	Pitch:	0.792	Yaw:	48.617	Thrust:	37.404
Time:	4.765	Roll Set Point:	-0.234	Pitch Set Point:	-0.122	Yaw Set Point:	-0.577	X_WP:	0.000	Y_WP:	0.000	Y_WP:	0.500	X:	0.099	Y:	0.096	Z:	0.399	yaw:	33.070	yaw rate:	-5.283	Roll:	4.485	Pitch:	1.069	Yaw:	46.851	Thrust:	37.417
Time:	4.781	Roll Set Point:	-0.234	Pitch Set Point:	-0.122	Yaw Set Point:	-0.577	X_WP:	0.000	Y_WP:	0.000	Y_WP:	0.500	X:	0.099	Y:	0.096	Z:	0.399	yaw:	33.070	yaw rate:	-5.283	Roll:	4.508	Pitch:	0.926	Yaw:	47.733	Thrust:	37.663
Time:	4.797	Roll Set Point:	-0.234	Pitch Set Point:	-0.122	Yaw Set Point:	-0.577	X_WP:	0.000	Y_WP:	0.000	Y_WP:	0.500	X:	0.099	Y:	0.096	Z:	0.399	yaw:	33.061	yaw rate:	-4.801	Roll:	4.512	Pitch:	0.919	Yaw:	47.576	Thrust:	37.895
Time:	4.812	Roll Set Point:	-0.234	Pitch Set Point:	-0.122	Yaw Set Point:	-0.577	X_WP:	0.000	Y_WP:	0.000	Y_WP:	0.500	X:	0.099	Y:	0.096	Z:	0.399	yaw:	33.061	yaw rate:	-4.801	Roll:	4.511	Pitch:	0.929	Yaw:	47.728	Thrust:	38.181
Time:	4.828	Roll Set Point:	-0.235	Pitch Set Point:	-0.122	Yaw Set Point:	-0.577	X_WP:	0.000	Y_WP:	0.000	Y_WP:	0.500	X:	0.099	Y:	0.096	Z:	0.399	yaw:	33.064	yaw rate:	0.346	Roll:	4.511	Pitch:	0.869	Yaw:	47.784	Thrust:	38.323
Time:	4.844	Roll Set Point:	-0.234	Pitch Set Point:	-0.122	Yaw Set Point:	-0.578	X_WP:	0.000	Y_WP:	0.000	Y_WP:	0.500	X:	0.099	Y:	0.096	Z:	0.399	yaw:	33.103	yaw rate:	3.852	Roll:	4.520	Pitch:	0.880	Yaw:	48.429	Thrust:	38.560
Time:	4.859	Roll Set Point:	-0.235	Pitch Set Point:	-0.122	Yaw Set Point:	-0.577	X_WP:	0.000	Y_WP:	0.000	Y_WP:	0.500	X:	0.099	Y:	0.096	Z:	0.399	yaw:	33.074	yaw rate:	-1.665	Roll:	4.525	Pitch:	0.994	Yaw:	47.253	Thrust:	38.505
Time:	4.875	Roll Set Point:	-0.234	Pitch Set Point:	-0.122	Yaw Set Point:	-0.577	X_WP:	0.000	Y_WP:	0.000	Y_WP:	0.500	X:	0.099	Y:	0.096	Z:	0.399	yaw:	33.073	yaw rate:	-0.040	Roll:	4.472	Pitch:	0.919	Yaw:	47.735	Thrust:	38.964
Time:	4.891	Roll Set Point:	-0.235	Pitch Set Point:	-0.122	Yaw Set Point:	-0.577	X_WP:	0.000	Y_WP:	0.000	Y_WP:	0.500	X:	0.099	Y:	0.096	Z:	0.399	yaw:	33.048	yaw rate:	-2.557	Roll:	4.509	Pitch:	0.939	Yaw:	47.282	Thrust:	39.012
Time:	4.906	Roll Set Point:	-0.234	Pitch Set Point:	-0.122	Yaw Set Point:	-0.577	X_WP:	0.000	Y_WP:	0.000	Y_WP:	0.500	X:	0.099	Y:	0.096	Z:	0.399	yaw:	33.059	yaw rate:	1.142	Roll:	4.514	Pitch:	1.025	Yaw:	47.913	Thrust:	39.442
Time:	4.922	Roll Set Point:	-0.234	Pitch Set Point:	-0.122	Yaw Set Point:	-0.577	X_WP:	0.000	Y_WP:	0.000	Y_WP:	0.500	X:	0.099	Y:	0.096	Z:	0.399	yaw:	33.059	yaw rate:	1.142	Roll:	4.509	Pitch:	0.936	Yaw:	47.722	Thrust:	39.445
Time:	4.937	Roll Set Point:	-0.234	Pitch Set Point:	-0.122	Yaw Set Point:	-0.577	X_WP:	0.000	Y_WP:	0.000	Y_WP:	0.500	X:	0.099	Y:	0.096	Z:	0.399	yaw:	33.076	yaw rate:	0.460	Roll:	4.517	Pitch:	0.864	Yaw:	48.031	Thrust:	39.426
Time:	4.953	Roll Set Point:	-0.234	Pitch Set Point:	-0.122	Yaw Set Point:	-0.578	X_WP:	0.000	Y_WP:	0.000	Y_WP:	0.500	X:	0.099	Y:	0.096	Z:	0.399	yaw:	33.108	yaw rate:	3.141	Roll:	4.535	Pitch:	0.851	Yaw:	48.318	Thrust:	40.051
Time:	4.969	Roll Set Point:	-0.234	Pitch Set Point:	-0.122	Yaw Set Point:	-0.577	X_WP:	0.000	Y_WP:	0.000	Y_WP:	0.500	X:	0.099	Y:	0.096	Z:	0.399	yaw:	33.041	yaw rate:	-6.640	Roll:	4.468	Pitch:	1.052	Yaw:	46.584	Thrust:	39.825
Time:	4.984	Roll Set Point:	-0.234	Pitch Set Point:	-0.122	Yaw Set Point:	-0.577	X_WP:	0.000	Y_WP:	0.000	Y_WP:	0.500	X:	0.099	Y:	0.096	Z:	0.399	yaw:	33.045	yaw rate:	0.381	Roll:	4.503	Pitch:	0.910	Yaw:	47.766	Thrust:	40.113
Time:	5.000	Roll Set Point:	-0.234	Pitch Set Point:	-0.122	Yaw Set Point:	-0.577	X_WP:	0.000	Y_WP:	0.000	Y_WP:	0.500	X:	0.099	Y:	0.096	Z:	0.399	yaw:	33.045	yaw rate:	0.381	Roll:	4.509	Pitch:	0.940	Yaw:	47.703	Thrust:	40.398
Time:	5.015	Roll Set Point:	-0.234	Pitch Set Point:	-0.122	Yaw Set Point:	-0.577	X_WP:	0.000	Y_WP:	0.000	Y_WP:	0.500	X:	0.099	Y:	0.096	Z:	0.399	yaw:	33.083	yaw rate:	3.818	Roll:	4.506	Pitch:	0.920	Yaw:	48.393	Thrust:	40.782
Time:	5.031	Roll Set Point:	-0.234	Pitch Set Point:	-0.122	Yaw Set Point:	-0.577	X_WP:	0.000	Y_WP:	0.000	Y_WP:	0.500	X:	0.099	Y:	0.096	Z:	0.399	yaw:	33.083	yaw rate:	3.818	Roll:	4.509	Pitch:	0.941	Yaw:	47.757	Thrust:	40.812
Time:	5.047	Roll Set Point:	-0.234	Pitch Set Point:	-0.122	Yaw Set Point:	-0.578	X_WP:	0.000	Y_WP:	0.000	Y_WP:	0.500	X:	0.099	Y:	0.096	Z:	0.399	yaw:	33.108	yaw rate:	2.448	Roll:	4.546	Pitch:	0.930	Yaw:	48.201	Thrust:	40.943
Time:	5.062	Roll Set Point:	-0.234	Pitch Set Point:	-0.122	Yaw Set Point:	-0.577	X_WP:	0.000	Y_WP:	0.000	Y_WP:	0.500	X:	0.099	Y:	0.096	Z:	0.399	yaw:	33.062	yaw rate:	-4.572	Roll:	4.485	Pitch:	1.016	Yaw:	46.956	Thrust:	41.006
Time:	5.078	Roll Set Point:	-0.234	Pitch Set Point:	-0.122	Yaw Set Point:	-0.577	X_WP:	0.000	Y_WP:	0.000	Y_WP:	0.500	X:	0.099	Y:	0.096	Z:	0.399	yaw:	33.066	yaw rate:	2.526	Roll:	4.494	Pitch:	0.877	Yaw:	47.800	Thrust:	41.430
Time:	5.094	Roll Set Point:	-0.234	Pitch Set Point:	-0.122	Yaw Set Point:	-0.578	X_WP:	0.000	Y_WP:	0.000	Y_WP:	0.500	X:	0.099	Y:	0.096	Z:	0.399	yaw:	33.115	yaw rate:	4.890	Roll:	4.563	Pitch:	0.931	Yaw:	48.619	Thrust:	41.607
Time:	5.109	Roll Set Point:	-0.234	Pitch Set Point:	-0.122	Yaw Set Point:	-0.577	X_WP:	0.000	Y_WP:	0.000	Y_WP:	0.500	X:	0.099	Y:	0.096	Z:	0.399	yaw:	33.055	yaw rate:	-6.025	Roll:	4.471	Pitch:	1.095	Yaw:	46.706	Thrust:	41.549
Time:	5.125	Roll Set Point:	-0.234	Pitch Set Point:	-0.122	Yaw Set Point:	-0.577	X_WP:	0.000	Y_WP:	0.000	Y_WP:	0.500	X:	0.099	Y:	0.096	Z:	0.399	yaw:	33.065	yaw rate:	1.037	Roll:	4.512	Pitch:	0.857	Yaw:	47.904	Thrust:	42.044
Time:	5.140	Roll Set Point:	-0.234	Pitch Set Point:	-0.122	Yaw Set Point:	-0.577	X_WP:	0.000	Y_WP:	0.000	Y_WP:	0.500	X:	0.099	Y:	0.096	Z:	0.399	yaw:	33.065	yaw rate:	1.037	Roll:	4.509	Pitch:	0.949	Yaw:	47.730	Thrust:	42.112
Time:	5.156	Roll Set Point:	-0.234	Pitch Set Point:	-0.122	Yaw Set Point:	-0.578	X_WP:	0.000	Y_WP:	0.000	Y_WP:	0.500	X:	0.099	Y:	0.096	Z:	0.399	yaw:	33.098	yaw rate:	2.427	Roll:	4.530	Pitch:	0.870	Yaw:	48.333	Thrust:	42.349
Time:	5.172	Roll Set Point:	-0.234	Pitch Set Point:	-0.122	Yaw Set Point:	-0.578	X_WP:	0.000	Y_WP:	0.000	Y_WP:	0.500	X:	0.099	Y:	0.096	Z:	0.398	yaw:	33.111	yaw rate:	1.247	Roll:	4.513	Pitch:	1.043	Yaw:	48.003	Thrust:	42.607
Time:	5.187	Roll Set Point:	-0.234	Pitch Set Point:	-0.122	Yaw Set Point:	-0.577	X_WP:	0.000	Y_WP:	0.000	Y_WP:	0.500	X:	0.099	Y:	0.096	Z:	0.399	yaw:	33.066	yaw rate:	-4.486	Roll:	4.473	Pitch:	0.956	Yaw:	46.979	Thrust:	42.403
Time:	5.203	Roll Set Point:	-0.234	Pitch Set Point:	-0.122	Yaw Set Point:	-0.577	X_WP:	0.000	Y_WP:	0.000	Y_WP:	0.500	X:	0.099	Y:	0.096	Z:	0.399	yaw:	33.069	yaw rate:	0.307	Roll:	4.500	Pitch:	0.890	Yaw:	47.787	Thrust:	42.904
Time:	5.219	Roll Set Point:	-0.234	Pitch Set Point:	-0.122	Yaw Set Point:	-0.577	X_WP:	0.000	Y_WP:	0.000	Y_WP:	0.500	X:	0.099	Y:	0.096	Z:	0.399	yaw:	33.079	yaw rate:	0.982	Roll:	4.547	Pitch:	0.945	Yaw:	47.914	Thrust:	43.176
Time:	5.234	Roll Set Point:	-0.234	Pitch Set Point:	-0.122	Yaw Set Point:	-0.577	X_WP:	0.000	Y_WP:	0.000	Y_WP:	0.500	X:	0.099	Y:	0.096	Z:	0.399	yaw:	33.079	yaw rate:	0.982	Roll:	4.510	Pitch:	0.954	Yaw:	47.749	Thrust:	43.252
Time:	5.250	Roll Set Point:	-0.234	Pitch Set Point:	-0.122	Yaw Set Point:	-0.577	X_WP:	0.000	Y_WP:	0.000	Y_WP:	0.500	X:	0.099	Y:	0.096	Z:	0.399	yaw:	33.085	yaw rate:	-2.829	Roll:	4.497	Pitch:	0.954	Yaw:	47.853	Thrust:	43.332
Time:	5.266	Roll Set Point:	-0.234	Pitch Set Point:	-0.122	Yaw Set Point:	-0.577	X_WP:	0.000	Y_WP:	0.000	Y_WP:	0.500	X:	0.099	Y:	0.096	Z:	0.399	yaw:	33.079	yaw rate:	-0.541	Roll:	4.509	Pitch:	0.935	Yaw:	47.659	Thrust:	43.721
Time:	5.281	Roll Set Point:	-0.234	Pitch Set Point:	-0.122	Yaw Set Point:	-0.578	X_WP:	0.000	Y_WP:	0.000	Y_WP:	0.500	X:	0.099	Y:	0.096	Z:	0.399	yaw:	33.103	yaw rate:	2.407	Roll:	4.535	Pitch:	0.959	Yaw:	48.189	Thrust:	43.826
Time:	5.297	Roll Set Point:	-0.234	Pitch Set Point:	-0.122	Yaw Set Point:	-0.578	X_WP:	0.000	Y_WP:	0.000	Y_WP:	0.500	X:	0.099	Y:	0.096	Z:	0.399	yaw:	33.103	yaw rate:	2.407	Roll:	4.509	Pitch:	0.957	Yaw:	47.781	Thrust:	43.941
Time:	5.312	Roll Set Point:	-0.235	Pitch Set Point:	-0.122	Yaw Set Point:	-0.577	X_WP:	0.000	Y_WP:	0.000	Y_WP:	0.500	X:	0.099	Y:	0.096	Z:	0.399	yaw:	33.082	yaw rate:	-2.134	Roll:	4.515	Pitch:	1.001	Yaw:	47.408	Thrust:	44.444
Time:	5.327	Roll Set Point:	-0.235	Pitch Set Point:	-0.122	Yaw Set Point:	-0.577	X_WP:	0.000	Y_WP:	0.000	Y_WP:	0.500	X:	0.099	Y:	0.096	Z:	0.399	yaw:	33.056	yaw rate:	-2.570	Roll:	4.431	Pitch:	0.946	Yaw:	47.084	Thrust:	40.452
Time:	5.341	Roll Set Point:	-0.234	Pitch Set Point:	-0.122	Yaw Set Point:	-0.577	X_WP:	0.000	Y_WP:	0.000	Y_WP:	0.500	X:	0.099	Y:	0.096	Z:	0.399	yaw:	33.087	yaw rate:	3.098	Roll:	4.438	Pitch:	0.918	Yaw:	48.179	Thrust:	40.798
Time:	5.360	Roll Set Point:	-0.235	Pitch Set Point:	-0.122	Yaw Set Point:	-0.578	X_WP:	0.000	Y_WP:	0.000	Y_WP:	0.500	X:	0.099	Y:	0.096	Z:	0.399	yaw:	33.099	yaw rate:	1.449	Roll:	4.690	Pitch:	0.977	Yaw:	48.339	Thrust:	54.850
Time:	5.376	Roll Set Point:	-0.234	Pitch Set Point:	-0.122	Yaw Set Point:	-0.577	X_WP:	0.000	Y_WP:	0.000	Y_WP:	0.500	X:	0.099	Y:	0.096	Z:	0.399	yaw:	33.075	yaw rate:	-2.417	Roll:	4.483	Pitch:	1.100	Yaw:	47.338	Thrust:	44.977
Time:	5.392	Roll Set Point:	-0.234	Pitch Set Point:	-0.122	Yaw Set Point:	-0.577	X_WP:	0.000	Y_WP:	0.000	Y_WP:	0.500	X:	0.099	Y:	0.096	Z:	0.399	yaw:	33.063	yaw rate:	-1.175	Roll:	4.500	Pitch:	0.872	Yaw:	47.534	Thrust:	45.229
Time:	5.407	Roll Set Point:	-0.234	Pitch Set Point:	-0.122	Yaw Set Point:	-0.578	X_WP:	0.000	Y_WP:	0.000	Y_WP:	0.500	X:	0.099	Y:	0.096	Z:	0.398	yaw:	33.109	yaw rate:	4.561	Roll:	4.539	Pitch:	0.936	Yaw:	48.565	Thrust:	46.094
Time:	5.424	Roll Set Point:	-0.234	Pitch Set Point:	-0.122	Yaw Set Point:	-0.578	X_WP:	0.000	Y_WP:	0.000	Y_WP:	0.500	X:	0.099	Y:	0.096	Z:	0.398	yaw:	33.109	yaw rate:	4.561	Roll:	4.550	Pitch:	0.980	Yaw:	47.899	Thrust:	48.311
Time:	5.440	Roll Set Point:	-0.234	Pitch Set Point:	-0.122	Yaw Set Point:	-0.577	X_WP:	0.000	Y_WP:	0.000	Y_WP:	0.500	X:	0.099	Y:	0.096	Z:	0.399	yaw:	33.083	yaw rate:	-3.179	Roll:	4.506	Pitch:	1.077	Yaw:	47.323	Thrust:	45.443
Time:	5.455	Roll Set Point:	-0.234	Pitch Set Point:	-0.122	Yaw Set Point:	-0.577	X_WP:	0.000	Y_WP:	0.000	Y_WP:	0.500	X:	0.099	Y:	0.096	Z:	0.399	yaw:	33.083	yaw rate:	-3.179	Roll:	4.510	Pitch:	0.970	Yaw:	47.755	Thrust:	45.916
Time:	5.471	Roll Set Point:	-0.234	Pitch Set Point:	-0.122	Yaw Set Point:	-0.577	X_WP:	0.000	Y_WP:	0.000	Y_WP:	0.500	X:	0.099	Y:	0.096	Z:	0.399	yaw:	33.083	yaw rate:	0.963	Roll:	4.508	Pitch:	0.882	Yaw:	47.764	Thrust:	46.189
Time:	5.487	Roll Set Point:	-0.235	Pitch Set Point:	-0.122	Yaw Set Point:	-0.578	X_WP:	0.000	Y_WP:	0.000	Y_WP:	0.500	X:	0.099	Y:	0.096	Z:	0.398	yaw:	33.119	yaw rate:	3.532	Roll:	4.543	Pitch:	0.943	Yaw:	48.397	Thrust:	46.411
Time:	5.502	Roll Set Point:	-0.234	Pitch Set Point:	-0.122	Yaw Set Point:	-0.578	X_WP:	0.000	Y_WP:	0.000	Y_WP:	0.500	X:	0.099	Y:	0.096	Z:	0.399	yaw:	33.093	yaw rate:	-2.576	Roll:	4.490	Pitch:	1.029	Yaw:	47.333	Thrust:	46.256
Time:	5.518	Roll Set Point:	-0.234	Pitch Set Point:	-0.122	Yaw Set Point:	-0.578	X_WP:	0.000	Y_WP:	0.000	Y_WP:	0.500	X:	0.099	Y:	0.096	Z:	0.399	yaw:	33.093	yaw rate:	-2.576	Roll:	4.510	Pitch:	0.973	Yaw:	47.769	Thrust:	46.677
Time:	5.533	Roll Set Point:	-0.234	Pitch Set Point:	-0.122	Yaw Set Point:	-0.578	X_WP:	0.000	Y_WP:	0.000	Y_WP:	0.500	X:	0.099	Y:	0.096	Z:	0.399	yaw:	33.105	yaw rate:	0.072	Roll:	4.497	Pitch:	0.917	Yaw:	47.999	Thrust:	46.998
Time:	5.549	Roll Set Point:	-0.234	Pitch Set Point:	-0.122	Yaw Set Point:	-0.578	X_WP:	0.000	Y_WP:	0.000	Y_WP:	0.500	X:	0.099	Y:	0.096	Z:	0.399	yaw:	33.105	yaw rate:	0.072	Roll:	4.510	Pitch:	0.973	Yaw:	47.787	Thrust:	47.063
Time:	5.565	Roll Set Point:	-0.234	Pitch Set Point:	-0.122	Yaw Set Point:	-0.578	X_WP:	0.000	Y_WP:	0.000	Y_WP:	0.500	X:	0.099	Y:	0.096	Z:	0.399	yaw:	33.095	yaw rate:	-1.082	Roll:	4.502	Pitch:	1.043	Yaw:	47.586	Thrust:	47.227
Time:	5.580	Roll Set Point:	-0.234	Pitch Set Point:	-0.122	Yaw Set Point:	-0.577	X_WP:	0.000	Y_WP:	0.000	Y_WP:	0.500	X:	0.099	Y:	0.096	Z:	0.399	yaw:	33.051	yaw rate:	-4.381	Roll:	4.502	Pitch:	1.000	Yaw:	46.977	Thrust:	47.248
Time:	5.596	Roll Set Point:	-0.234	Pitch Set Point:	-0.122	Yaw Set Point:	-0.577	X_WP:	0.000	Y_WP:	0.000	Y_WP:	0.500	X:	0.099	Y:	0.096	Z:	0.399	yaw:	33.051	yaw rate:	-4.381	Roll:	4.510	Pitch:	0.979	Yaw:	47.713	Thrust:	47.701
Time:	5.612	Roll Set Point:	-0.234	Pitch Set Point:	-0.122	Yaw Set Point:	-0.578	X_WP:	0.000	Y_WP:	0.000	Y_WP:	0.500	X:	0.099	Y:	0.096	Z:	0.399	yaw:	33.103	yaw rate:	-3.212	Roll:	4.527	Pitch:	0.949	Yaw:	48.652	Thrust:	47.992
Time:	5.627	Roll Set Point:	-0.234	Pitch Set Point:	-0.122	Yaw Set Point:	-0.578	X_WP:	0.000	Y_WP:	0.000	Y_WP:	0.500	X:	0.099	Y:	0.096	Z:	0.399	yaw:	33.103	yaw rate:	-3.212	Roll:	4.510	Pitch:	0.980	Yaw:	47.783	Thrust:	48.009
Time:	5.643	Roll Set Point:	-0.234	Pitch Set Point:	-0.122	Yaw Set Point:	-0.577	X_WP:	0.000	Y_WP:	0.000	Y_WP:	0.500	X:	0.099	Y:	0.096	Z:	0.399	yaw:	33.057	yaw rate:	-4.553	Roll:	4.488	Pitch:	1.024	Yaw:	46.956	Thrust:	47.973
Time:	5.658	Roll Set Point:	-0.234	Pitch Set Point:	-0.122	Yaw Set Point:	-0.577	X_WP:	0.000	Y_WP:	0.000	Y_WP:	0.500	X:	0.099	Y:	0.096	Z:	0.399	yaw:	33.073	yaw rate:	1.553	Roll:	4.489	Pitch:	0.988	Yaw:	47.998	Thrust:	48.517
Time:	5.674	Roll Set Point:	-0.234	Pitch Set Point:	-0.122	Yaw Set Point:	-0.577	X_WP:	0.000	Y_WP:	0.000	Y_WP:	0.500	X:	0.099	Y:	0.096	Z:	0.399	yaw:	33.073	yaw rate:	1.553	Roll:	4.509	Pitch:	0.984	Yaw:	47.741	Thrust:	48.581
Time:	5.690	Roll Set Point:	-0.234	Pitch Set Point:	-0.122	Yaw Set Point:	-0.577	X_WP:	0.000	Y_WP:	0.000	Y_WP:	0.500	X:	0.099	Y:	0.096	Z:	0.399	yaw:	33.063	yaw rate:	-2.460	Roll:	4.554	Pitch:	1.003	Yaw:	47.563	Thrust:	48.761
Time:	5.705	Roll Set Point:	-0.234	Pitch Set Point:	-0.122	Yaw Set Point:	-0.577	X_WP:	0.000	Y_WP:	0.000	Y_WP:	0.500	X:	0.099	Y:	0.096	Z:	0.399	yaw:	33.063	yaw rate:	-2.460	Roll:	4.509	Pitch:	0.986	Yaw:	47.724	Thrust:	48.877
Time:	5.721	Roll Set Point:	-0.234	Pitch Set Point:	-0.122	Yaw Set Point:	-0.578	X_WP:	0.000	Y_WP:	0.000	Y_WP:	0.500	X:	0.099	Y:	0.096	Z:	0.399	yaw:	33.103	yaw rate:	3.997	Roll:	4.515	Pitch:	0.878	Yaw:	48.452	Thrust:	49.267
Time:	5.737	Roll Set Point:	-0.235	Pitch Set Point:	-0.122	Yaw Set Point:	-0.577	X_WP:	0.000	Y_WP:	0.000	Y_WP:	0.500	X:	0.099	Y:	0.096	Z:	0.399	yaw:	33.068	yaw rate:	-2.168	Roll:	4.493	Pitch:	0.999	Yaw:	47.151	Thrust:	49.201
Time:	5.752	Roll Set Point:	-0.235	Pitch Set Point:	-0.122	Yaw Set Point:	-0.577	X_WP:	0.000	Y_WP:	0.000	Y_WP:	0.500	X:	0.099	Y:	0.096	Z:	0.399	yaw:	33.074	yaw rate:	0.648	Roll:	4.528	Pitch:	1.040	Yaw:	47.851	Thrust:	49.562
Time:	5.768	Roll Set Point:	-0.234	Pitch Set Point:	-0.122	Yaw Set Point:	-0.577	X_WP:	0.000	Y_WP:	0.000	Y_WP:	0.500	X:	0.099	Y:	0.096	Z:	0.399	yaw:	33.060	yaw rate:	-1.375	Roll:	4.492	Pitch:	1.011	Yaw:	47.493	Thrust:	49.689
Time:	5.783	Roll Set Point:	-0.234	Pitch Set Point:	-0.122	Yaw Set Point:	-0.578	X_WP:	0.000	Y_WP:	0.000	Y_WP:	0.500	X:	0.099	Y:	0.096	Z:	0.399	yaw:	33.102	yaw rate:	4.182	Roll:	4.508	Pitch:	0.874	Yaw:	48.483	Thrust:	50.061
Time:	5.799	Roll Set Point:	-0.234	Pitch Set Point:	-0.122	Yaw Set Point:	-0.578	X_WP:	0.000	Y_WP:	0.000	Y_WP:	0.500	X:	0.099	Y:	0.096	Z:	0.399	yaw:	33.102	yaw rate:	4.182	Roll:	4.509	Pitch:	0.989	Yaw:	47.782	Thrust:	50.104
Time:	5.815	Roll Set Point:	-0.234	Pitch Set Point:	-0.122	Yaw Set Point:	-0.577	X_WP:	0.000	Y_WP:	0.000	Y_WP:	0.500	X:	0.099	Y:	0.096	Z:	0.399	yaw:	33.071	yaw rate:	-3.091	Roll:	4.510	Pitch:	1.066	Yaw:	47.221	Thrust:	50.255
Time:	5.830	Roll Set Point:	-0.234	Pitch Set Point:	-0.122	Yaw Set Point:	-0.577	X_WP:	0.000	Y_WP:	0.000	Y_WP:	0.500	X:	0.099	Y:	0.096	Z:	0.399	yaw:	33.071	yaw rate:	-3.091	Roll:	4.509	Pitch:	0.993	Yaw:	47.739	Thrust:	50.484
Time:	5.846	Roll Set Point:	-0.234	Pitch Set Point:	-0.122	Yaw Set Point:	-0.577	X_WP:	0.000	Y_WP:	0.000	Y_WP:	0.500	X:	0.099	Y:	0.096	Z:	0.399	yaw:	33.060	yaw rate:	-1.045	Roll:	4.507	Pitch:	1.020	Yaw:	47.536	Thrust:	50.489
Time:	5.862	Roll Set Point:	-0.235	Pitch Set Point:	-0.122	Yaw Set Point:	-0.577	X_WP:	0.000	Y_WP:	0.000	Y_WP:	0.500	X:	0.099	Y:	0.096	Z:	0.399	yaw:	33.060	yaw rate:	-0.062	Roll:	4.516	Pitch:	0.973	Yaw:	47.712	Thrust:	50.985
Time:	5.877	Roll Set Point:	-0.235	Pitch Set Point:	-0.122	Yaw Set Point:	-0.577	X_WP:	0.000	Y_WP:	0.000	Y_WP:	0.500	X:	0.099	Y:	0.096	Z:	0.399	yaw:	33.078	yaw rate:	1.819	Roll:	4.516	Pitch:	0.962	Yaw:	48.053	Thrust:	51.051
Time:	5.893	Roll Set Point:	-0.235	Pitch Set Point:	-0.122	Yaw Set Point:	-0.577	X_WP:	0.000	Y_WP:	0.000	Y_WP:	0.500	X:	0.099	Y:	0.096	Z:	0.399	yaw:	33.078	yaw rate:	1.819	Roll:	4.510	Pitch:	0.996	Yaw:	47.748	Thrust:	51.243
Time:	5.909	Roll Set Point:	-0.234	Pitch Set Point:	-0.122	Yaw Set Point:	-0.578	X_WP:	0.000	Y_WP:	0.000	Y_WP:	0.500	X:	0.099	Y:	0.096	Z:	0.398	yaw:	33.097	yaw rate:	1.930	Roll:	4.512	Pitch:	0.989	Yaw:	48.101	Thrust:	51.641
Time:	5.924	Roll Set Point:	-0.234	Pitch Set Point:	-0.122	Yaw Set Point:	-0.577	X_WP:	0.000	Y_WP:	0.000	Y_WP:	0.500	X:	0.099	Y:	0.096	Z:	0.399	yaw:	33.075	yaw rate:	-2.072	Roll:	4.504	Pitch:	1.044	Yaw:	47.370	Thrust:	51.456
Time:	5.940	Roll Set Point:	-0.235	Pitch Set Point:	-0.122	Yaw Set Point:	-0.577	X_WP:	0.000	Y_WP:	0.000	Y_WP:	0.500	X:	0.099	Y:	0.096	Z:	0.399	yaw:	33.070	yaw rate:	-0.494	Roll:	4.516	Pitch:	1.002	Yaw:	47.656	Thrust:	51.877
Time:	5.955	Roll Set Point:	-0.234	Pitch Set Point:	-0.122	Yaw Set Point:	-0.577	X_WP:	0.000	Y_WP:	0.000	Y_WP:	0.500	X:	0.099	Y:	0.096	Z:	0.399	yaw:	33.086	yaw rate:	1.641	Roll:	4.506	Pitch:	0.959	Yaw:	48.034	Thrust:	51.972
Time:	5.971	Roll Set Point:	-0.234	Pitch Set Point:	-0.122	Yaw Set Point:	-0.577	X_WP:	0.000	Y_WP:	0.000	Y_WP:	0.500	X:	0.099	Y:	0.096	Z:	0.399	yaw:	33.086	yaw rate:	1.641	Roll:	4.510	Pitch:	1.001	Yaw:	47.760	Thrust:	52.190
Time:	5.987	Roll Set Point:	-0.234	Pitch Set Point:	-0.122	Yaw Set Point:	-0.578	X_WP:	0.000	Y_WP:	0.000	Y_WP:	0.500	X:	0.099	Y:	0.096	Z:	0.398	yaw:	33.104	yaw rate:	1.745	Roll:	4.511	Pitch:	0.953	Yaw:	48.077	Thrust:	52.445
Time:	6.002	Roll Set Point:	-0.081	Pitch Set Point:	-0.036	Yaw Set Point:	-0.578	X_WP:	0.082	Y_WP:	0.156	Y_WP:	0.500	X:	0.099	Y:	0.096	Z:	0.399	yaw:	33.095	yaw rate:	2.572	Roll:	-30.000	Pitch:	-30.000	Yaw:	47.635	Thrust:	52.557
Time:	6.018	Roll Set Point:	-0.081	Pitch Set Point:	-0.036	Yaw Set Point:	-0.578	X_WP:	0.082	Y_WP:	0.156	Y_WP:	0.500	X:	0.099	Y:	0.096	Z:	0.399	yaw:	33.095	yaw rate:	2.572	Roll:	0.060	Pitch:	-1.483	Yaw:	47.773	Thrust:	52.769
Time:	6.034	Roll Set Point:	-0.081	Pitch Set Point:	-0.036	Yaw Set Point:	-0.577	X_WP:	0.082	Y_WP:	0.155	Y_WP:	0.500	X:	0.099	Y:	0.096	Z:	0.399	yaw:	33.064	yaw rate:	-2.128	Roll:	0.056	Pitch:	-1.487	Yaw:	47.204	Thrust:	52.882
Time:	6.049	Roll Set Point:	-0.081	Pitch Set Point:	-0.036	Yaw Set Point:	-0.578	X_WP:	0.082	Y_WP:	0.155	Y_WP:	0.500	X:	0.099	Y:	0.096	Z:	0.399	yaw:	33.107	yaw rate:	4.250	Roll:	0.008	Pitch:	-1.474	Yaw:	48.499	Thrust:	53.117
Time:	6.065	Roll Set Point:	-0.081	Pitch Set Point:	-0.036	Yaw Set Point:	-0.578	X_WP:	0.082	Y_WP:	0.156	Y_WP:	0.500	X:	0.099	Y:	0.096	Z:	0.399	yaw:	33.090	yaw rate:	-1.662	Roll:	0.118	Pitch:	-1.501	Yaw:	47.490	Thrust:	53.479
Time:	6.080	Roll Set Point:	-0.081	Pitch Set Point:	-0.036	Yaw Set Point:	-0.578	X_WP:	0.082	Y_WP:	0.156	Y_WP:	0.500	X:	0.099	Y:	0.096	Z:	0.399	yaw:	33.091	yaw rate:	0.117	Roll:	0.057	Pitch:	-1.500	Yaw:	47.783	Thrust:	53.490
Time:	6.096	Roll Set Point:	-0.081	Pitch Set Point:	-0.036	Yaw Set Point:	-0.578	X_WP:	0.082	Y_WP:	0.155	Y_WP:	0.500	X:	0.099	Y:	0.096	Z:	0.399	yaw:	33.095	yaw rate:	0.385	Roll:	0.036	Pitch:	-1.484	Yaw:	47.840	Thrust:	53.733
Time:	6.112	Roll Set Point:	-0.081	Pitch Set Point:	-0.036	Yaw Set Point:	-0.578	X_WP:	0.082	Y_WP:	0.155	Y_WP:	0.500	X:	0.099	Y:	0.096	Z:	0.399	yaw:	33.095	yaw rate:	0.385	Roll:	0.061	Pitch:	-1.498	Yaw:	47.772	Thrust:	53.909
Time:	6.127	Roll Set Point:	-0.081	Pitch Set Point:	-0.036	Yaw Set Point:	-0.578	X_WP:	0.082	Y_WP:	0.156	Y_WP:	0.500	X:	0.099	Y:	0.096	Z:	0.398	yaw:	33.102	yaw rate:	0.033	Roll:	0.044	Pitch:	-1.497	Yaw:	47.891	Thrust:	54.123
Time:	6.143	Roll Set Point:	-0.081	Pitch Set Point:	-0.036	Yaw Set Point:	-0.577	X_WP:	0.082	Y_WP:	0.155	Y_WP:	0.500	X:	0.099	Y:	0.096	Z:	0.399	yaw:	33.077	yaw rate:	-2.481	Roll:	0.070	Pitch:	-1.505	Yaw:	47.331	Thrust:	54.168
Time:	6.159	Roll Set Point:	-0.081	Pitch Set Point:	-0.036	Yaw Set Point:	-0.578	X_WP:	0.082	Y_WP:	0.155	Y_WP:	0.500	X:	0.099	Y:	0.096	Z:	0.399	yaw:	33.095	yaw rate:	1.836	Roll:	0.049	Pitch:	-1.503	Yaw:	48.082	Thrust:	54.650
Time:	6.174	Roll Set Point:	-0.081	Pitch Set Point:	-0.036	Yaw Set Point:	-0.578	X_WP:	0.082	Y_WP:	0.155	Y_WP:	0.500	X:	0.099	Y:	0.096	Z:	0.399	yaw:	33.095	yaw rate:	1.836	Roll:	0.053	Pitch:	-1.507	Yaw:	47.770	Thrust:	54.588
Time:	6.190	Roll Set Point:	-0.081	Pitch Set Point:	-0.036	Yaw Set Point:	-0.578	X_WP:	0.082	Y_WP:	0.155	Y_WP:	0.500	X:	0.099	Y:	0.096	Z:	0.399	yaw:	33.095	yaw rate:	-0.072	Roll:	0.050	Pitch:	-1.509	Yaw:	47.763	Thrust:	54.787
Time:	6.205	Roll Set Point:	-0.081	Pitch Set Point:	-0.036	Yaw Set Point:	-0.578	X_WP:	0.082	Y_WP:	0.156	Y_WP:	0.500	X:	0.099	Y:	0.096	Z:	0.398	yaw:	33.103	yaw rate:	1.400	Roll:	0.052	Pitch:	-1.511	Yaw:	47.924	Thrust:	55.202
Time:	6.221	Roll Set Point:	-0.081	Pitch Set Point:	-0.036	Yaw Set Point:	-0.577	X_WP:	0.082	Y_WP:	0.155	Y_WP:	0.500	X:	0.099	Y:	0.096	Z:	0.399	yaw:	33.077	yaw rate:	-2.634	Roll:	0.066	Pitch:	-1.516	Yaw:	47.305	Thrust:	55.050
Time:	6.237	Roll Set Point:	-0.081	Pitch Set Point:	-0.036	Yaw Set Point:	-0.578	X_WP:	0.082	Y_WP:	0.155	Y_WP:	0.500	X:	0.099	Y:	0.096	Z:	0.399	yaw:	33.092	yaw rate:	1.500	Roll:	0.037	Pitch:	-1.514	Yaw:	48.019	Thrust:	55.428
Time:	6.252	Roll Set Point:	-0.081	Pitch Set Point:	-0.036	Yaw Set Point:	-0.578	X_WP:	0.082	Y_WP:	0.156	Y_WP:	0.500	X:	0.099	Y:	0.096	Z:	0.399	yaw:	33.091	yaw rate:	-0.058	Roll:	0.084	Pitch:	-1.523	Yaw:	47.757	Thrust:	55.690
Time:	6.268	Roll Set Point:	-0.081	Pitch Set Point:	-0.036	Yaw Set Point:	-0.577	X_WP:	0.082	Y_WP:	0.156	Y_WP:	0.500	X:	0.099	Y:	0.096	Z:	0.399	yaw:	33.081	yaw rate:	-1.005	Roll:	0.046	Pitch:	-1.521	Yaw:	47.588	Thrust:	55.823
Time:	6.284	Roll Set Point:	-0.081	Pitch Set Point:	-0.036	Yaw Set Point:	-0.577	X_WP:	0.082	Y_WP:	0.155	Y_WP:	0.500	X:	0.099	Y:	0.096	Z:	0.399	yaw:	33.078	yaw rate:	-0.291	Roll:	0.034	Pitch:	-1.518	Yaw:	47.698	Thrust:	55.974
Time:	6.299	Roll Set Point:	-0.081	Pitch Set Point:	-0.036	Yaw Set Point:	-0.578	X_WP:	0.082	Y_WP:	0.155	Y_WP:	0.500	X:	0.099	Y:	0.096	Z:	0.399	yaw:	33.108	yaw rate:	3.001	Roll:	0.022	Pitch:	-1.519	Yaw:	48.293	Thrust:	56.225
