Time:	2.081	Roll Set Point:	0.059	Pitch Set Point:	-0.192	Yaw Set Point:	0.510	X_WP:	0.000	Y_WP:	0.000	Y_WP:	0.500	X:	-0.005	Y:	0.104	Z:	0.045	yaw:	-29.239	yaw rate:	2.080	Roll:	-1.588	Pitch:	2.565	Yaw:	-40.825	Thrust:	25.008
Time:	2.096	Roll Set Point:	0.059	Pitch Set Point:	-0.192	Yaw Set Point:	0.510	X_WP:	0.000	Y_WP:	0.000	Y_WP:	0.500	X:	-0.005	Y:	0.104	Z:	0.045	yaw:	-29.245	yaw rate:	-0.622	Roll:	-1.572	Pitch:	2.553	Yaw:	-41.097	Thrust:	25.971
Time:	2.112	Roll Set Point:	0.059	Pitch Set Point:	-0.192	Yaw Set Point:	0.510	X_WP:	0.000	Y_WP:	0.000	Y_WP:	0.500	X:	-0.005	Y:	0.104	Z:	0.045	yaw:	-29.245	yaw rate:	-0.622	Roll:	-1.592	Pitch:	2.571	Yaw:	-41.152	Thrust:	26.716
Time:	2.128	Roll Set Point:	0.059	Pitch Set Point:	-0.192	Yaw Set Point:	0.511	X_WP:	0.000	Y_WP:	0.000	Y_WP:	0.500	X:	-0.005	Y:	0.104	Z:	0.045	yaw:	-29.277	yaw rate:	-2.479	Roll:	-1.632	Pitch:	2.484	Yaw:	-41.905	Thrust:	27.577
Time:	2.143	Roll Set Point:	0.059	Pitch Set Point:	-0.192	Yaw Set Point:	0.511	X_WP:	0.000	Y_WP:	0.000	Y_WP:	0.500	X:	-0.005	Y:	0.104	Z:	0.045	yaw:	-29.277	yaw rate:	-2.479	Roll:	-1.597	Pitch:	2.576	Yaw:	-41.517	Thrust:	28.421
Time:	2.159	Roll Set Point:	0.059	Pitch Set Point:	-0.192	Yaw Set Point:	0.510	X_WP:	0.000	Y_WP:	0.000	Y_WP:	0.500	X:	-0.005	Y:	0.104	Z:	0.045	yaw:	-29.242	yaw rate:	1.274	Roll:	-1.546	Pitch:	2.688	Yaw:	-41.030	Thrust:	29.103
Time:	2.175	Roll Set Point:	0.059	Pitch Set Point:	-0.192	Yaw Set Point:	0.510	X_WP:	0.000	Y_WP:	0.000	Y_WP:	0.500	X:	-0.005	Y:	0.104	Z:	0.045	yaw:	-29.242	yaw rate:	-0.000	Roll:	-1.555	Pitch:	2.544	Yaw:	-41.787	Thrust:	30.282
Time:	2.190	Roll Set Point:	0.059	Pitch Set Point:	-0.192	Yaw Set Point:	0.511	X_WP:	0.000	Y_WP:	0.000	Y_WP:	0.500	X:	-0.005	Y:	0.104	Z:	0.045	yaw:	-29.263	yaw rate:	-2.081	Roll:	-1.640	Pitch:	2.519	Yaw:	-42.324	Thrust:	30.960
Time:	2.206	Roll Set Point:	0.059	Pitch Set Point:	-0.192	Yaw Set Point:	0.509	X_WP:	0.000	Y_WP:	0.000	Y_WP:	0.500	X:	-0.005	Y:	0.104	Z:	0.045	yaw:	-29.186	yaw rate:	7.679	Roll:	-1.625	Pitch:	2.733	Yaw:	-40.745	Thrust:	31.854
Time:	2.221	Roll Set Point:	0.059	Pitch Set Point:	-0.192	Yaw Set Point:	0.511	X_WP:	0.000	Y_WP:	0.000	Y_WP:	0.500	X:	-0.005	Y:	0.104	Z:	0.045	yaw:	-29.255	yaw rate:	-6.960	Roll:	-1.601	Pitch:	2.487	Yaw:	-43.450	Thrust:	32.577
Time:	2.237	Roll Set Point:	0.059	Pitch Set Point:	-0.192	Yaw Set Point:	0.510	X_WP:	0.000	Y_WP:	0.000	Y_WP:	0.500	X:	-0.005	Y:	0.104	Z:	0.045	yaw:	-29.240	yaw rate:	1.509	Roll:	-1.536	Pitch:	2.623	Yaw:	-42.170	Thrust:	33.603
Time:	2.253	Roll Set Point:	0.059	Pitch Set Point:	-0.192	Yaw Set Point:	0.510	X_WP:	0.000	Y_WP:	0.000	Y_WP:	0.500	X:	-0.005	Y:	0.104	Z:	0.045	yaw:	-29.240	yaw rate:	1.509	Roll:	-1.609	Pitch:	2.602	Yaw:	-42.582	Thrust:	34.389
Time:	2.268	Roll Set Point:	0.059	Pitch Set Point:	-0.192	Yaw Set Point:	0.511	X_WP:	0.000	Y_WP:	0.000	Y_WP:	0.500	X:	-0.005	Y:	0.104	Z:	0.045	yaw:	-29.251	yaw rate:	-1.026	Roll:	-1.685	Pitch:	2.595	Yaw:	-42.928	Thrust:	35.233
Time:	2.284	Roll Set Point:	0.059	Pitch Set Point:	-0.192	Yaw Set Point:	0.511	X_WP:	0.000	Y_WP:	0.000	Y_WP:	0.500	X:	-0.005	Y:	0.104	Z:	0.045	yaw:	-29.279	yaw rate:	-2.830	Roll:	-1.689	Pitch:	2.577	Yaw:	-43.438	Thrust:	36.083
Time:	2.300	Roll Set Point:	0.059	Pitch Set Point:	-0.192	Yaw Set Point:	0.511	X_WP:	0.000	Y_WP:	0.000	Y_WP:	0.500	X:	-0.005	Y:	0.104	Z:	0.045	yaw:	-29.279	yaw rate:	-2.830	Roll:	-1.619	Pitch:	2.611	Yaw:	-43.115	Thrust:	36.946
Time:	2.315	Roll Set Point:	0.059	Pitch Set Point:	-0.192	Yaw Set Point:	0.510	X_WP:	0.000	Y_WP:	0.000	Y_WP:	0.500	X:	-0.005	Y:	0.104	Z:	0.045	yaw:	-29.249	yaw rate:	3.005	Roll:	-1.516	Pitch:	2.636	Yaw:	-42.713	Thrust:	37.795
Time:	2.331	Roll Set Point:	0.059	Pitch Set Point:	-0.192	Yaw Set Point:	0.510	X_WP:	0.000	Y_WP:	0.000	Y_WP:	0.500	X:	-0.005	Y:	0.104	Z:	0.045	yaw:	-29.249	yaw rate:	-0.049	Roll:	-1.619	Pitch:	2.613	Yaw:	-43.401	Thrust:	38.732
Time:	2.346	Roll Set Point:	0.059	Pitch Set Point:	-0.192	Yaw Set Point:	0.511	X_WP:	0.000	Y_WP:	0.000	Y_WP:	0.500	X:	-0.005	Y:	0.104	Z:	0.045	yaw:	-29.257	yaw rate:	-0.718	Roll:	-1.688	Pitch:	2.646	Yaw:	-43.685	Thrust:	39.322
Time:	2.375	Roll Set Point:	0.059	Pitch Set Point:	-0.192	Yaw Set Point:	0.510	X_WP:	0.000	Y_WP:	0.000	Y_WP:	0.500	X:	-0.005	Y:	0.104	Z:	0.045	yaw:	-29.246	yaw rate:	0.532	Roll:	-1.610	Pitch:	2.664	Yaw:	-45.987	Thrust:	53.113
Time:	2.391	Roll Set Point:	0.059	Pitch Set Point:	-0.192	Yaw Set Point:	0.511	X_WP:	0.000	Y_WP:	0.000	Y_WP:	0.500	X:	-0.005	Y:	0.104	Z:	0.045	yaw:	-29.262	yaw rate:	-1.524	Roll:	-1.687	Pitch:	2.618	Yaw:	-44.149	Thrust:	41.225
Time:	2.406	Roll Set Point:	0.059	Pitch Set Point:	-0.192	Yaw Set Point:	0.511	X_WP:	0.000	Y_WP:	0.000	Y_WP:	0.500	X:	-0.005	Y:	0.104	Z:	0.045	yaw:	-29.257	yaw rate:	0.434	Roll:	-1.691	Pitch:	2.686	Yaw:	-43.897	Thrust:	41.942
Time:	2.422	Roll Set Point:	0.059	Pitch Set Point:	-0.192	Yaw Set Point:	0.511	X_WP:	0.000	Y_WP:	0.000	Y_WP:	0.500	X:	-0.005	Y:	0.104	Z:	0.045	yaw:	-29.253	yaw rate:	0.413	Roll:	-1.587	Pitch:	2.612	Yaw:	-43.907	Thrust:	43.045
Time:	2.438	Roll Set Point:	0.059	Pitch Set Point:	-0.192	Yaw Set Point:	0.509	X_WP:	0.000	Y_WP:	0.000	Y_WP:	0.500	X:	-0.005	Y:	0.104	Z:	0.045	yaw:	-29.174	yaw rate:	7.892	Roll:	-1.525	Pitch:	2.722	Yaw:	-42.530	Thrust:	43.957
Time:	2.453	Roll Set Point:	0.059	Pitch Set Point:	-0.192	Yaw Set Point:	0.510	X_WP:	0.000	Y_WP:	0.000	Y_WP:	0.500	X:	-0.005	Y:	0.104	Z:	0.045	yaw:	-29.243	yaw rate:	-6.848	Roll:	-1.709	Pitch:	2.566	Yaw:	-45.103	Thrust:	44.449
Time:	2.469	Roll Set Point:	0.059	Pitch Set Point:	-0.192	Yaw Set Point:	0.511	X_WP:	0.000	Y_WP:	0.000	Y_WP:	0.500	X:	-0.005	Y:	0.104	Z:	0.045	yaw:	-29.282	yaw rate:	-3.890	Roll:	-1.765	Pitch:	2.640	Yaw:	-44.662	Thrust:	45.520
Time:	2.484	Roll Set Point:	0.059	Pitch Set Point:	-0.192	Yaw Set Point:	0.511	X_WP:	0.000	Y_WP:	0.000	Y_WP:	0.500	X:	-0.005	Y:	0.104	Z:	0.045	yaw:	-29.287	yaw rate:	-0.560	Roll:	-1.556	Pitch:	2.620	Yaw:	-44.112	Thrust:	46.039
Time:	2.500	Roll Set Point:	0.059	Pitch Set Point:	-0.192	Yaw Set Point:	0.511	X_WP:	0.000	Y_WP:	0.000	Y_WP:	0.500	X:	-0.005	Y:	0.104	Z:	0.045	yaw:	-29.259	yaw rate:	2.833	Roll:	-1.619	Pitch:	2.678	Yaw:	-43.512	Thrust:	47.416
Time:	2.516	Roll Set Point:	0.059	Pitch Set Point:	-0.192	Yaw Set Point:	0.511	X_WP:	0.000	Y_WP:	0.000	Y_WP:	0.500	X:	-0.005	Y:	0.104	Z:	0.045	yaw:	-29.259	yaw rate:	2.833	Roll:	-1.645	Pitch:	2.656	Yaw:	-43.972	Thrust:	47.982
Time:	2.531	Roll Set Point:	0.059	Pitch Set Point:	-0.192	Yaw Set Point:	0.511	X_WP:	0.000	Y_WP:	0.000	Y_WP:	0.500	X:	-0.005	Y:	0.104	Z:	0.045	yaw:	-29.258	yaw rate:	0.129	Roll:	-1.668	Pitch:	2.663	Yaw:	-43.955	Thrust:	48.886
Time:	2.547	Roll Set Point:	0.059	Pitch Set Point:	-0.192	Yaw Set Point:	0.511	X_WP:	0.000	Y_WP:	0.000	Y_WP:	0.500	X:	-0.005	Y:	0.104	Z:	0.045	yaw:	-29.257	yaw rate:	0.074	Roll:	-1.710	Pitch:	2.658	Yaw:	-43.963	Thrust:	49.598
Time:	2.563	Roll Set Point:	0.059	Pitch Set Point:	-0.192	Yaw Set Point:	0.511	X_WP:	0.000	Y_WP:	0.000	Y_WP:	0.500	X:	-0.005	Y:	0.104	Z:	0.045	yaw:	-29.255	yaw rate:	0.203	Roll:	-1.535	Pitch:	2.658	Yaw:	-43.945	Thrust:	50.565
Time:	2.578	Roll Set Point:	0.059	Pitch Set Point:	-0.192	Yaw Set Point:	0.511	X_WP:	0.000	Y_WP:	0.000	Y_WP:	0.500	X:	-0.005	Y:	0.104	Z:	0.045	yaw:	-29.273	yaw rate:	-0.986	Roll:	-1.677	Pitch:	2.650	Yaw:	-44.294	Thrust:	51.605
Time:	2.594	Roll Set Point:	0.059	Pitch Set Point:	-0.192	Yaw Set Point:	0.510	X_WP:	0.000	Y_WP:	0.000	Y_WP:	0.500	X:	-0.005	Y:	0.104	Z:	0.045	yaw:	-29.239	yaw rate:	3.435	Roll:	-1.671	Pitch:	2.709	Yaw:	-43.374	Thrust:	52.248
Time:	2.609	Roll Set Point:	0.059	Pitch Set Point:	-0.192	Yaw Set Point:	0.511	X_WP:	0.000	Y_WP:	0.000	Y_WP:	0.500	X:	-0.005	Y:	0.104	Z:	0.045	yaw:	-29.262	yaw rate:	-2.393	Roll:	-1.672	Pitch:	2.630	Yaw:	-44.384	Thrust:	53.034
Time:	2.625	Roll Set Point:	0.059	Pitch Set Point:	-0.192	Yaw Set Point:	0.511	X_WP:	0.000	Y_WP:	0.000	Y_WP:	0.500	X:	-0.005	Y:	0.104	Z:	0.045	yaw:	-29.262	yaw rate:	-2.393	Roll:	-1.661	Pitch:	2.680	Yaw:	-44.001	Thrust:	54.163
Time:	2.641	Roll Set Point:	0.059	Pitch Set Point:	-0.192	Yaw Set Point:	0.511	X_WP:	0.000	Y_WP:	0.000	Y_WP:	0.500	X:	-0.005	Y:	0.104	Z:	0.045	yaw:	-29.274	yaw rate:	-1.178	Roll:	-1.719	Pitch:	2.705	Yaw:	-44.200	Thrust:	55.116
Time:	2.656	Roll Set Point:	0.059	Pitch Set Point:	-0.192	Yaw Set Point:	0.511	X_WP:	0.000	Y_WP:	0.000	Y_WP:	0.500	X:	-0.005	Y:	0.104	Z:	0.045	yaw:	-29.254	yaw rate:	2.377	Roll:	-1.634	Pitch:	2.707	Yaw:	-43.604	Thrust:	55.452
Time:	2.672	Roll Set Point:	0.059	Pitch Set Point:	-0.192	Yaw Set Point:	0.511	X_WP:	0.000	Y_WP:	0.000	Y_WP:	0.500	X:	-0.005	Y:	0.104	Z:	0.045	yaw:	-29.270	yaw rate:	-1.666	Roll:	-1.651	Pitch:	2.658	Yaw:	-44.273	Thrust:	56.397
Time:	2.688	Roll Set Point:	0.059	Pitch Set Point:	-0.192	Yaw Set Point:	0.511	X_WP:	0.000	Y_WP:	0.000	Y_WP:	0.500	X:	-0.005	Y:	0.104	Z:	0.045	yaw:	-29.252	yaw rate:	1.835	Roll:	-1.632	Pitch:	2.720	Yaw:	-43.668	Thrust:	57.583
Time:	2.703	Roll Set Point:	0.059	Pitch Set Point:	-0.192	Yaw Set Point:	0.511	X_WP:	0.000	Y_WP:	0.000	Y_WP:	0.500	X:	-0.005	Y:	0.104	Z:	0.045	yaw:	-29.273	yaw rate:	-2.116	Roll:	-1.703	Pitch:	2.680	Yaw:	-44.349	Thrust:	58.255
Time:	2.719	Roll Set Point:	0.059	Pitch Set Point:	-0.192	Yaw Set Point:	0.510	X_WP:	0.000	Y_WP:	0.000	Y_WP:	0.500	X:	-0.005	Y:	0.104	Z:	0.045	yaw:	-29.215	yaw rate:	5.804	Roll:	-1.615	Pitch:	2.788	Yaw:	-42.956	Thrust:	59.197
Time:	2.734	Roll Set Point:	0.059	Pitch Set Point:	-0.192	Yaw Set Point:	0.510	X_WP:	0.000	Y_WP:	0.000	Y_WP:	0.500	X:	-0.005	Y:	0.104	Z:	0.045	yaw:	-29.242	yaw rate:	-2.695	Roll:	-1.704	Pitch:	2.656	Yaw:	-44.398	Thrust:	59.604
Time:	2.750	Roll Set Point:	0.059	Pitch Set Point:	-0.192	Yaw Set Point:	0.510	X_WP:	0.000	Y_WP:	0.000	Y_WP:	0.500	X:	-0.005	Y:	0.104	Z:	0.045	yaw:	-29.231	yaw rate:	1.133	Roll:	-1.632	Pitch:	2.722	Yaw:	-43.749	Thrust:	61.156
Time:	2.766	Roll Set Point:	0.059	Pitch Set Point:	-0.192	Yaw Set Point:	0.510	X_WP:	0.000	Y_WP:	0.000	Y_WP:	0.500	X:	-0.005	Y:	0.104	Z:	0.045	yaw:	-29.231	yaw rate:	1.133	Roll:	-1.678	Pitch:	2.713	Yaw:	-43.941	Thrust:	61.700
Time:	2.781	Roll Set Point:	0.059	Pitch Set Point:	-0.192	Yaw Set Point:	0.511	X_WP:	0.000	Y_WP:	0.000	Y_WP:	0.500	X:	-0.005	Y:	0.104	Z:	0.045	yaw:	-29.255	yaw rate:	-2.428	Roll:	-1.747	Pitch:	2.678	Yaw:	-44.380	Thrust:	62.533
Time:	2.797	Roll Set Point:	0.059	Pitch Set Point:	-0.192	Yaw Set Point:	0.510	X_WP:	0.000	Y_WP:	0.000	Y_WP:	0.500	X:	-0.005	Y:	0.104	Z:	0.045	yaw:	-29.238	yaw rate:	2.757	Roll:	-1.686	Pitch:	2.738	Yaw:	-43.665	Thrust:	63.302
Time:	2.813	Roll Set Point:	0.059	Pitch Set Point:	-0.192	Yaw Set Point:	0.510	X_WP:	0.000	Y_WP:	0.000	Y_WP:	0.500	X:	-0.005	Y:	0.104	Z:	0.045	yaw:	-29.238	yaw rate:	2.757	Roll:	-1.686	Pitch:	2.722	Yaw:	-43.949	Thrust:	64.230
Time:	2.828	Roll Set Point:	0.059	Pitch Set Point:	-0.192	Yaw Set Point:	0.511	X_WP:	0.000	Y_WP:	0.000	Y_WP:	0.500	X:	-0.005	Y:	0.104	Z:	0.045	yaw:	-29.265	yaw rate:	-1.540	Roll:	-1.715	Pitch:	2.718	Yaw:	-44.434	Thrust:	64.907
Time:	2.844	Roll Set Point:	0.059	Pitch Set Point:	-0.192	Yaw Set Point:	0.511	X_WP:	0.000	Y_WP:	0.000	Y_WP:	0.500	X:	-0.005	Y:	0.104	Z:	0.045	yaw:	-29.277	yaw rate:	-1.178	Roll:	-1.696	Pitch:	2.718	Yaw:	-44.201	Thrust:	66.233
Time:	2.859	Roll Set Point:	0.059	Pitch Set Point:	-0.192	Yaw Set Point:	0.510	X_WP:	0.000	Y_WP:	0.000	Y_WP:	0.500	X:	-0.005	Y:	0.104	Z:	0.045	yaw:	-29.242	yaw rate:	3.478	Roll:	-1.621	Pitch:	2.745	Yaw:	-43.379	Thrust:	66.653
Time:	2.875	Roll Set Point:	0.059	Pitch Set Point:	-0.192	Yaw Set Point:	0.510	X_WP:	0.000	Y_WP:	0.000	Y_WP:	0.500	X:	-0.005	Y:	0.104	Z:	0.045	yaw:	-29.242	yaw rate:	3.478	Roll:	-1.693	Pitch:	2.736	Yaw:	-43.949	Thrust:	67.562
Time:	2.891	Roll Set Point:	0.059	Pitch Set Point:	-0.192	Yaw Set Point:	0.511	X_WP:	0.000	Y_WP:	0.000	Y_WP:	0.500	X:	-0.005	Y:	0.104	Z:	0.045	yaw:	-29.268	yaw rate:	-2.723	Roll:	-1.738	Pitch:	2.738	Yaw:	-44.434	Thrust:	68.587
Time:	2.906	Roll Set Point:	0.059	Pitch Set Point:	-0.192	Yaw Set Point:	0.511	X_WP:	0.000	Y_WP:	0.000	Y_WP:	0.500	X:	-0.005	Y:	0.104	Z:	0.045	yaw:	-29.268	yaw rate:	-2.723	Roll:	-1.699	Pitch:	2.743	Yaw:	-43.991	Thrust:	69.350
Time:	2.922	Roll Set Point:	0.059	Pitch Set Point:	-0.192	Yaw Set Point:	0.511	X_WP:	0.000	Y_WP:	0.000	Y_WP:	0.500	X:	-0.005	Y:	0.104	Z:	0.045	yaw:	-29.272	yaw rate:	-0.166	Roll:	-1.687	Pitch:	2.672	Yaw:	-44.055	Thrust:	69.963
Time:	2.938	Roll Set Point:	0.059	Pitch Set Point:	-0.192	Yaw Set Point:	0.510	X_WP:	0.000	Y_WP:	0.000	Y_WP:	0.500	X:	-0.005	Y:	0.104	Z:	0.045	yaw:	-29.209	yaw rate:	6.295	Roll:	-1.590	Pitch:	2.869	Yaw:	-42.864	Thrust:	71.276
Time:	2.953	Roll Set Point:	0.059	Pitch Set Point:	-0.192	Yaw Set Point:	0.510	X_WP:	0.000	Y_WP:	0.000	Y_WP:	0.500	X:	-0.005	Y:	0.104	Z:	0.045	yaw:	-29.209	yaw rate:	6.295	Roll:	-1.703	Pitch:	2.755	Yaw:	-43.920	Thrust:	72.079
Time:	2.969	Roll Set Point:	0.059	Pitch Set Point:	-0.192	Yaw Set Point:	0.510	X_WP:	0.000	Y_WP:	0.000	Y_WP:	0.500	X:	-0.005	Y:	0.104	Z:	0.045	yaw:	-29.243	yaw rate:	-1.035	Roll:	-1.840	Pitch:	2.751	Yaw:	-44.534	Thrust:	72.817
Time:	2.984	Roll Set Point:	0.059	Pitch Set Point:	-0.192	Yaw Set Point:	0.511	X_WP:	0.000	Y_WP:	0.000	Y_WP:	0.500	X:	-0.005	Y:	0.104	Z:	0.045	yaw:	-29.287	yaw rate:	-4.413	Roll:	-1.716	Pitch:	2.674	Yaw:	-44.748	Thrust:	73.416
Time:	3.000	Roll Set Point:	0.059	Pitch Set Point:	-0.192	Yaw Set Point:	0.511	X_WP:	0.000	Y_WP:	0.000	Y_WP:	0.500	X:	-0.005	Y:	0.104	Z:	0.045	yaw:	-29.303	yaw rate:	-1.588	Roll:	-1.770	Pitch:	2.728	Yaw:	-44.300	Thrust:	74.374
Time:	3.016	Roll Set Point:	0.059	Pitch Set Point:	-0.192	Yaw Set Point:	0.510	X_WP:	0.000	Y_WP:	0.000	Y_WP:	0.500	X:	-0.005	Y:	0.104	Z:	0.045	yaw:	-29.237	yaw rate:	6.650	Roll:	-1.649	Pitch:	2.860	Yaw:	-42.833	Thrust:	75.276
Time:	3.031	Roll Set Point:	0.059	Pitch Set Point:	-0.192	Yaw Set Point:	0.510	X_WP:	0.000	Y_WP:	0.000	Y_WP:	0.500	X:	-0.005	Y:	0.104	Z:	0.045	yaw:	-29.237	yaw rate:	6.650	Roll:	-1.716	Pitch:	2.771	Yaw:	-43.948	Thrust:	76.168
Time:	3.047	Roll Set Point:	0.059	Pitch Set Point:	-0.192	Yaw Set Point:	0.511	X_WP:	0.000	Y_WP:	0.000	Y_WP:	0.500	X:	-0.005	Y:	0.104	Z:	0.045	yaw:	-29.275	yaw rate:	-0.902	Roll:	-1.743	Pitch:	2.721	Yaw:	-44.646	Thrust:	77.204
Time:	3.063	Roll Set Point:	0.059	Pitch Set Point:	-0.192	Yaw Set Point:	0.511	X_WP:	0.000	Y_WP:	0.000	Y_WP:	0.500	X:	-0.005	Y:	0.104	Z:	0.045	yaw:	-29.251	yaw rate:	2.431	Roll:	-1.724	Pitch:	2.819	Yaw:	-43.560	Thrust:	77.883
Time:	3.078	Roll Set Point:	0.059	Pitch Set Point:	-0.192	Yaw Set Point:	0.511	X_WP:	0.000	Y_WP:	0.000	Y_WP:	0.500	X:	-0.005	Y:	0.104	Z:	0.045	yaw:	-29.275	yaw rate:	-2.476	Roll:	-1.723	Pitch:	2.765	Yaw:	-44.411	Thrust:	78.553
Time:	3.094	Roll Set Point:	0.059	Pitch Set Point:	-0.192	Yaw Set Point:	0.511	X_WP:	0.000	Y_WP:	0.000	Y_WP:	0.500	X:	-0.005	Y:	0.104	Z:	0.045	yaw:	-29.275	yaw rate:	-2.476	Roll:	-1.726	Pitch:	2.784	Yaw:	-44.002	Thrust:	79.581
Time:	3.109	Roll Set Point:	0.059	Pitch Set Point:	-0.192	Yaw Set Point:	0.511	X_WP:	0.000	Y_WP:	0.000	Y_WP:	0.500	X:	-0.005	Y:	0.104	Z:	0.045	yaw:	-29.252	yaw rate:	-4.030	Roll:	-1.623	Pitch:	2.799	Yaw:	-43.571	Thrust:	80.489
Time:	3.125	Roll Set Point:	0.059	Pitch Set Point:	-0.192	Yaw Set Point:	0.511	X_WP:	0.000	Y_WP:	0.000	Y_WP:	0.500	X:	-0.005	Y:	0.104	Z:	0.045	yaw:	-29.257	yaw rate:	-0.531	Roll:	-1.839	Pitch:	2.779	Yaw:	-44.071	Thrust:	81.399
Time:	3.141	Roll Set Point:	0.059	Pitch Set Point:	-0.192	Yaw Set Point:	0.511	X_WP:	0.000	Y_WP:	0.000	Y_WP:	0.500	X:	-0.005	Y:	0.104	Z:	0.045	yaw:	-29.257	yaw rate:	-0.531	Roll:	-1.732	Pitch:	2.794	Yaw:	-43.973	Thrust:	82.090
Time:	3.156	Roll Set Point:	0.059	Pitch Set Point:	-0.192	Yaw Set Point:	0.511	X_WP:	0.000	Y_WP:	0.000	Y_WP:	0.500	X:	-0.005	Y:	0.104	Z:	0.045	yaw:	-29.264	yaw rate:	-2.571	Roll:	-1.715	Pitch:	2.825	Yaw:	-44.103	Thrust:	83.104
Time:	3.172	Roll Set Point:	0.059	Pitch Set Point:	-0.192	Yaw Set Point:	0.511	X_WP:	0.000	Y_WP:	0.000	Y_WP:	0.500	X:	-0.005	Y:	0.104	Z:	0.045	yaw:	-29.264	yaw rate:	-2.571	Roll:	-1.736	Pitch:	2.802	Yaw:	-43.984	Thrust:	83.814
Time:	3.188	Roll Set Point:	0.059	Pitch Set Point:	-0.192	Yaw Set Point:	0.511	X_WP:	0.000	Y_WP:	0.000	Y_WP:	0.500	X:	-0.005	Y:	0.104	Z:	0.045	yaw:	-29.264	yaw rate:	0.000	Roll:	-1.682	Pitch:	2.768	Yaw:	-43.992	Thrust:	84.530
Time:	3.203	Roll Set Point:	0.059	Pitch Set Point:	-0.192	Yaw Set Point:	0.510	X_WP:	0.000	Y_WP:	0.000	Y_WP:	0.500	X:	-0.005	Y:	0.104	Z:	0.045	yaw:	-29.247	yaw rate:	1.729	Roll:	-1.766	Pitch:	2.843	Yaw:	-43.665	Thrust:	85.465
Time:	3.219	Roll Set Point:	0.059	Pitch Set Point:	-0.192	Yaw Set Point:	0.510	X_WP:	0.000	Y_WP:	0.000	Y_WP:	0.500	X:	-0.005	Y:	0.104	Z:	0.045	yaw:	-29.247	yaw rate:	1.729	Roll:	-1.742	Pitch:	2.813	Yaw:	-43.968	Thrust:	86.532
Time:	3.234	Roll Set Point:	0.059	Pitch Set Point:	-0.192	Yaw Set Point:	0.510	X_WP:	0.000	Y_WP:	0.000	Y_WP:	0.500	X:	-0.005	Y:	0.104	Z:	0.045	yaw:	-29.249	yaw rate:	-0.198	Roll:	-1.773	Pitch:	2.830	Yaw:	-43.991	Thrust:	87.282
Time:	3.250	Roll Set Point:	0.059	Pitch Set Point:	-0.192	Yaw Set Point:	0.511	X_WP:	0.000	Y_WP:	0.000	Y_WP:	0.500	X:	-0.005	Y:	0.104	Z:	0.045	yaw:	-29.252	yaw rate:	-1.365	Roll:	-1.670	Pitch:	2.797	Yaw:	-44.029	Thrust:	88.051
Time:	3.266	Roll Set Point:	0.059	Pitch Set Point:	-0.192	Yaw Set Point:	0.510	X_WP:	0.000	Y_WP:	0.000	Y_WP:	0.500	X:	-0.005	Y:	0.104	Z:	0.045	yaw:	-29.241	yaw rate:	1.152	Roll:	-1.727	Pitch:	2.798	Yaw:	-43.768	Thrust:	88.866
Time:	3.281	Roll Set Point:	0.059	Pitch Set Point:	-0.192	Yaw Set Point:	0.511	X_WP:	0.000	Y_WP:	0.000	Y_WP:	0.500	X:	-0.005	Y:	0.104	Z:	0.045	yaw:	-29.295	yaw rate:	-5.460	Roll:	-1.924	Pitch:	2.806	Yaw:	-44.944	Thrust:	90.007
Time:	3.297	Roll Set Point:	0.059	Pitch Set Point:	-0.192	Yaw Set Point:	0.511	X_WP:	0.000	Y_WP:	0.000	Y_WP:	0.500	X:	-0.005	Y:	0.104	Z:	0.045	yaw:	-29.295	yaw rate:	-5.460	Roll:	-1.755	Pitch:	2.828	Yaw:	-44.023	Thrust:	90.524
Time:	3.313	Roll Set Point:	0.059	Pitch Set Point:	-0.192	Yaw Set Point:	0.511	X_WP:	0.000	Y_WP:	0.000	Y_WP:	0.500	X:	-0.005	Y:	0.104	Z:	0.045	yaw:	-29.258	yaw rate:	3.781	Roll:	-1.636	Pitch:	2.869	Yaw:	-43.365	Thrust:	91.969
Time:	3.328	Roll Set Point:	0.059	Pitch Set Point:	-0.192	Yaw Set Point:	0.511	X_WP:	0.000	Y_WP:	0.000	Y_WP:	0.500	X:	-0.005	Y:	0.104	Z:	0.045	yaw:	-29.276	yaw rate:	-0.313	Roll:	-1.821	Pitch:	2.790	Yaw:	-44.286	Thrust:	91.845
Time:	3.344	Roll Set Point:	0.059	Pitch Set Point:	-0.192	Yaw Set Point:	0.511	X_WP:	0.000	Y_WP:	0.000	Y_WP:	0.500	X:	-0.005	Y:	0.104	Z:	0.045	yaw:	-29.276	yaw rate:	-0.313	Roll:	-1.760	Pitch:	2.838	Yaw:	-44.002	Thrust:	93.226
Time:	3.375	Roll Set Point:	0.059	Pitch Set Point:	-0.192	Yaw Set Point:	0.511	X_WP:	0.000	Y_WP:	0.000	Y_WP:	0.500	X:	-0.005	Y:	0.104	Z:	0.045	yaw:	-29.266	yaw rate:	-2.555	Roll:	-1.878	Pitch:	3.130	Yaw:	-46.990	Thrust:	100.000
Time:	3.390	Roll Set Point:	0.059	Pitch Set Point:	-0.192	Yaw Set Point:	0.511	X_WP:	0.000	Y_WP:	0.000	Y_WP:	0.500	X:	-0.005	Y:	0.104	Z:	0.045	yaw:	-29.289	yaw rate:	-2.271	Roll:	-1.851	Pitch:	2.814	Yaw:	-44.396	Thrust:	94.570
Time:	3.406	Roll Set Point:	0.059	Pitch Set Point:	-0.192	Yaw Set Point:	0.511	X_WP:	0.000	Y_WP:	0.000	Y_WP:	0.500	X:	-0.005	Y:	0.104	Z:	0.045	yaw:	-29.289	yaw rate:	-2.271	Roll:	-1.766	Pitch:	2.848	Yaw:	-44.020	Thrust:	95.775
Time:	3.422	Roll Set Point:	0.059	Pitch Set Point:	-0.192	Yaw Set Point:	0.510	X_WP:	0.000	Y_WP:	0.000	Y_WP:	0.500	X:	-0.005	Y:	0.104	Z:	0.045	yaw:	-29.248	yaw rate:	-1.285	Roll:	-1.761	Pitch:	2.928	Yaw:	-43.282	Thrust:	97.070
Time:	3.437	Roll Set Point:	0.059	Pitch Set Point:	-0.192	Yaw Set Point:	0.512	X_WP:	0.000	Y_WP:	0.000	Y_WP:	0.500	X:	-0.005	Y:	0.104	Z:	0.045	yaw:	-29.309	yaw rate:	-6.080	Roll:	-1.759	Pitch:	2.749	Yaw:	-45.071	Thrust:	97.296
Time:	3.453	Roll Set Point:	0.059	Pitch Set Point:	-0.192	Yaw Set Point:	0.510	X_WP:	0.000	Y_WP:	0.000	Y_WP:	0.500	X:	-0.005	Y:	0.104	Z:	0.045	yaw:	-29.249	yaw rate:	6.017	Roll:	-1.760	Pitch:	2.950	Yaw:	-42.948	Thrust:	98.171
Time:	3.469	Roll Set Point:	0.059	Pitch Set Point:	-0.192	Yaw Set Point:	0.511	X_WP:	0.000	Y_WP:	0.000	Y_WP:	0.500	X:	-0.005	Y:	0.104	Z:	0.045	yaw:	-29.264	yaw rate:	-1.509	Roll:	-1.832	Pitch:	2.860	Yaw:	-44.238	Thrust:	99.155
Time:	3.484	Roll Set Point:	0.059	Pitch Set Point:	-0.192	Yaw Set Point:	0.510	X_WP:	0.000	Y_WP:	0.000	Y_WP:	0.500	X:	-0.005	Y:	0.104	Z:	0.045	yaw:	-29.223	yaw rate:	4.030	Roll:	-1.673	Pitch:	2.930	Yaw:	-43.254	Thrust:	100.000
Time:	3.500	Roll Set Point:	0.059	Pitch Set Point:	-0.192	Yaw Set Point:	0.510	X_WP:	0.000	Y_WP:	0.000	Y_WP:	0.500	X:	-0.005	Y:	0.104	Z:	0.045	yaw:	-29.223	yaw rate:	4.030	Roll:	-1.777	Pitch:	2.872	Yaw:	-43.929	Thrust:	100.000
Time:	3.515	Roll Set Point:	0.059	Pitch Set Point:	-0.192	Yaw Set Point:	0.511	X_WP:	0.000	Y_WP:	0.000	Y_WP:	0.500	X:	-0.005	Y:	0.104	Z:	0.045	yaw:	-29.264	yaw rate:	-0.733	Roll:	-1.804	Pitch:	2.822	Yaw:	-44.668	Thrust:	100.000
Time:	3.531	Roll Set Point:	0.059	Pitch Set Point:	-0.192	Yaw Set Point:	0.510	X_WP:	0.000	Y_WP:	0.000	Y_WP:	0.500	X:	-0.005	Y:	0.104	Z:	0.045	yaw:	-29.233	yaw rate:	3.123	Roll:	-1.805	Pitch:	2.889	Yaw:	-43.419	Thrust:	100.000
Time:	3.547	Roll Set Point:	0.059	Pitch Set Point:	-0.192	Yaw Set Point:	0.511	X_WP:	0.000	Y_WP:	0.000	Y_WP:	0.500	X:	-0.005	Y:	0.104	Z:	0.045	yaw:	-29.253	yaw rate:	-2.054	Roll:	-1.853	Pitch:	2.884	Yaw:	-44.315	Thrust:	100.000
Time:	3.562	Roll Set Point:	0.059	Pitch Set Point:	-0.192	Yaw Set Point:	0.511	X_WP:	0.000	Y_WP:	0.000	Y_WP:	0.500	X:	-0.005	Y:	0.104	Z:	0.045	yaw:	-29.253	yaw rate:	-2.054	Roll:	-1.788	Pitch:	2.885	Yaw:	-43.971	Thrust:	100.000
Time:	3.578	Roll Set Point:	0.059	Pitch Set Point:	-0.192	Yaw Set Point:	0.511	X_WP:	0.000	Y_WP:	0.000	Y_WP:	0.500	X:	-0.005	Y:	0.104	Z:	0.045	yaw:	-29.251	yaw rate:	-0.780	Roll:	-1.658	Pitch:	2.851	Yaw:	-43.918	Thrust:	100.000
Time:	3.594	Roll Set Point:	0.059	Pitch Set Point:	-0.192	Yaw Set Point:	0.511	X_WP:	0.000	Y_WP:	0.000	Y_WP:	0.500	X:	-0.005	Y:	0.104	Z:	0.045	yaw:	-29.254	yaw rate:	-0.370	Roll:	-1.910	Pitch:	2.919	Yaw:	-44.033	Thrust:	100.000
Time:	3.609	Roll Set Point:	0.059	Pitch Set Point:	-0.192	Yaw Set Point:	0.511	X_WP:	0.000	Y_WP:	0.000	Y_WP:	0.500	X:	-0.005	Y:	0.104	Z:	0.045	yaw:	-29.254	yaw rate:	-0.370	Roll:	-1.795	Pitch:	2.895	Yaw:	-43.972	Thrust:	100.000
Time:	3.625	Roll Set Point:	0.059	Pitch Set Point:	-0.192	Yaw Set Point:	0.510	X_WP:	0.000	Y_WP:	0.000	Y_WP:	0.500	X:	-0.005	Y:	0.104	Z:	0.045	yaw:	-29.223	yaw rate:	3.162	Roll:	-1.673	Pitch:	2.951	Yaw:	-43.419	Thrust:	100.000
Time:	3.641	Roll Set Point:	0.059	Pitch Set Point:	-0.192	Yaw Set Point:	0.511	X_WP:	0.000	Y_WP:	0.000	Y_WP:	0.500	X:	-0.005	Y:	0.104	Z:	0.045	yaw:	-29.263	yaw rate:	-4.081	Roll:	-1.858	Pitch:	2.824	Yaw:	-44.654	Thrust:	100.000
Time:	3.656	Roll Set Point:	0.059	Pitch Set Point:	-0.192	Yaw Set Point:	0.511	X_WP:	0.000	Y_WP:	0.000	Y_WP:	0.500	X:	-0.005	Y:	0.104	Z:	0.045	yaw:	-29.273	yaw rate:	-2.962	Roll:	-1.851	Pitch:	2.895	Yaw:	-44.159	Thrust:	100.000
Time:	3.672	Roll Set Point:	0.059	Pitch Set Point:	-0.192	Yaw Set Point:	0.511	X_WP:	0.000	Y_WP:	0.000	Y_WP:	0.500	X:	-0.005	Y:	0.104	Z:	0.045	yaw:	-29.270	yaw rate:	0.289	Roll:	-1.816	Pitch:	2.938	Yaw:	-43.939	Thrust:	100.000
Time:	3.687	Roll Set Point:	0.059	Pitch Set Point:	-0.192	Yaw Set Point:	0.511	X_WP:	0.000	Y_WP:	0.000	Y_WP:	0.500	X:	-0.005	Y:	0.104	Z:	0.045	yaw:	-29.290	yaw rate:	-2.053	Roll:	-1.789	Pitch:	2.867	Yaw:	-44.371	Thrust:	100.000
Time:	3.703	Roll Set Point:	0.059	Pitch Set Point:	-0.192	Yaw Set Point:	0.510	X_WP:	0.000	Y_WP:	0.000	Y_WP:	0.500	X:	-0.005	Y:	0.104	Z:	0.045	yaw:	-29.249	yaw rate:	4.130	Roll:	-1.721	Pitch:	2.953	Yaw:	-43.274	Thrust:	100.000
Time:	3.719	Roll Set Point:	0.059	Pitch Set Point:	-0.192	Yaw Set Point:	0.511	X_WP:	0.000	Y_WP:	0.000	Y_WP:	0.500	X:	-0.005	Y:	0.104	Z:	0.045	yaw:	-29.283	yaw rate:	-3.390	Roll:	-1.898	Pitch:	2.888	Yaw:	-44.575	Thrust:	100.000
Time:	3.734	Roll Set Point:	0.059	Pitch Set Point:	-0.192	Yaw Set Point:	0.510	X_WP:	0.000	Y_WP:	0.000	Y_WP:	0.500	X:	-0.005	Y:	0.104	Z:	0.045	yaw:	-29.225	yaw rate:	5.845	Roll:	-1.716	Pitch:	2.989	Yaw:	-42.951	Thrust:	100.000
Time:	3.750	Roll Set Point:	0.059	Pitch Set Point:	-0.192	Yaw Set Point:	0.511	X_WP:	0.000	Y_WP:	0.000	Y_WP:	0.500	X:	-0.005	Y:	0.104	Z:	0.045	yaw:	-29.253	yaw rate:	-2.893	Roll:	-1.867	Pitch:	2.886	Yaw:	-44.460	Thrust:	100.000
Time:	3.766	Roll Set Point:	0.059	Pitch Set Point:	-0.192	Yaw Set Point:	0.510	X_WP:	0.000	Y_WP:	0.000	Y_WP:	0.500	X:	-0.005	Y:	0.104	Z:	0.045	yaw:	-29.241	yaw rate:	1.263	Roll:	-1.756	Pitch:	2.923	Yaw:	-43.736	Thrust:	100.000
Time:	3.781	Roll Set Point:	0.059	Pitch Set Point:	-0.192	Yaw Set Point:	0.510	X_WP:	0.000	Y_WP:	0.000	Y_WP:	0.500	X:	-0.005	Y:	0.104	Z:	0.045	yaw:	-29.244	yaw rate:	-0.304	Roll:	-1.840	Pitch:	2.965	Yaw:	-44.008	Thrust:	100.000
Time:	3.797	Roll Set Point:	0.059	Pitch Set Point:	-0.192	Yaw Set Point:	0.510	X_WP:	0.000	Y_WP:	0.000	Y_WP:	0.500	X:	-0.005	Y:	0.104	Z:	0.045	yaw:	-29.244	yaw rate:	-0.304	Roll:	-1.818	Pitch:	2.937	Yaw:	-43.958	Thrust:	100.000
Time:	3.812	Roll Set Point:	0.059	Pitch Set Point:	-0.192	Yaw Set Point:	0.511	X_WP:	0.000	Y_WP:	0.000	Y_WP:	0.500	X:	-0.005	Y:	0.104	Z:	0.045	yaw:	-29.268	yaw rate:	-2.080	Roll:	-1.845	Pitch:	2.888	Yaw:	-44.403	Thrust:	100.000
Time:	3.828	Roll Set Point:	0.059	Pitch Set Point:	-0.192	Yaw Set Point:	0.511	X_WP:	0.000	Y_WP:	0.000	Y_WP:	0.500	X:	-0.005	Y:	0.104	Z:	0.045	yaw:	-29.268	yaw rate:	-2.080	Roll:	-1.823	Pitch:	2.942	Yaw:	-43.986	Thrust:	100.000
Time:	3.844	Roll Set Point:	0.059	Pitch Set Point:	-0.192	Yaw Set Point:	0.511	X_WP:	0.000	Y_WP:	0.000	Y_WP:	0.500	X:	-0.005	Y:	0.104	Z:	0.045	yaw:	-29.260	yaw rate:	0.797	Roll:	-1.756	Pitch:	2.967	Yaw:	-43.847	Thrust:	100.000
Time:	3.859	Roll Set Point:	0.059	Pitch Set Point:	-0.192	Yaw Set Point:	0.511	X_WP:	0.000	Y_WP:	0.000	Y_WP:	0.500	X:	-0.005	Y:	0.104	Z:	0.045	yaw:	-29.273	yaw rate:	-1.327	Roll:	-1.930	Pitch:	2.954	Yaw:	-44.221	Thrust:	100.000
Time:	3.875	Roll Set Point:	0.059	Pitch Set Point:	-0.192	Yaw Set Point:	0.510	X_WP:	0.000	Y_WP:	0.000	Y_WP:	0.500	X:	-0.005	Y:	0.104	Z:	0.045	yaw:	-29.233	yaw rate:	4.055	Roll:	-1.810	Pitch:	3.004	Yaw:	-43.263	Thrust:	100.000
Time:	3.891	Roll Set Point:	0.059	Pitch Set Point:	-0.192	Yaw Set Point:	0.511	X_WP:	0.000	Y_WP:	0.000	Y_WP:	0.500	X:	-0.005	Y:	0.104	Z:	0.045	yaw:	-29.257	yaw rate:	3.593	Roll:	-1.804	Pitch:	2.895	Yaw:	-44.385	Thrust:	100.000
Time:	3.906	Roll Set Point:	0.059	Pitch Set Point:	-0.192	Yaw Set Point:	0.510	X_WP:	0.000	Y_WP:	0.000	Y_WP:	0.500	X:	-0.005	Y:	0.104	Z:	0.045	yaw:	-29.234	yaw rate:	2.330	Roll:	-1.759	Pitch:	3.023	Yaw:	-43.553	Thrust:	100.000
Time:	3.922	Roll Set Point:	0.059	Pitch Set Point:	-0.192	Yaw Set Point:	0.510	X_WP:	0.000	Y_WP:	0.000	Y_WP:	0.500	X:	-0.005	Y:	0.104	Z:	0.045	yaw:	-29.228	yaw rate:	0.588	Roll:	-1.944	Pitch:	2.969	Yaw:	-43.843	Thrust:	100.000
Time:	3.937	Roll Set Point:	0.059	Pitch Set Point:	-0.192	Yaw Set Point:	0.510	X_WP:	0.000	Y_WP:	0.000	Y_WP:	0.500	X:	-0.005	Y:	0.104	Z:	0.045	yaw:	-29.247	yaw rate:	-1.866	Roll:	-1.774	Pitch:	2.939	Yaw:	-44.273	Thrust:	100.000
Time:	3.953	Roll Set Point:	0.059	Pitch Set Point:	-0.192	Yaw Set Point:	0.510	X_WP:	0.000	Y_WP:	0.000	Y_WP:	0.500	X:	-0.005	Y:	0.104	Z:	0.045	yaw:	-29.247	yaw rate:	-1.866	Roll:	-1.839	Pitch:	2.970	Yaw:	-43.956	Thrust:	100.000
Time:	3.969	Roll Set Point:	0.059	Pitch Set Point:	-0.192	Yaw Set Point:	0.511	X_WP:	0.000	Y_WP:	0.000	Y_WP:	0.500	X:	-0.005	Y:	0.104	Z:	0.045	yaw:	-29.266	yaw rate:	-1.918	Roll:	-1.889	Pitch:	2.900	Yaw:	-44.310	Thrust:	100.000
Time:	3.984	Roll Set Point:	0.059	Pitch Set Point:	-0.192	Yaw Set Point:	0.509	X_WP:	0.000	Y_WP:	0.000	Y_WP:	0.500	X:	-0.005	Y:	0.104	Z:	0.045	yaw:	-29.159	yaw rate:	11.877	Roll:	-1.826	Pitch:	3.163	Yaw:	-42.040	Thrust:	100.000
Time:	4.000	Roll Set Point:	0.059	Pitch Set Point:	-0.192	Yaw Set Point:	0.511	X_WP:	0.000	Y_WP:	0.000	Y_WP:	0.500	X:	-0.005	Y:	0.104	Z:	0.045	yaw:	-29.286	yaw rate:	-12.743	Roll:	-1.917	Pitch:	2.815	Yaw:	-46.151	Thrust:	100.000
Time:	4.016	Roll Set Point:	0.059	Pitch Set Point:	-0.192	Yaw Set Point:	0.511	X_WP:	0.000	Y_WP:	0.000	Y_WP:	0.500	X:	-0.005	Y:	0.104	Z:	0.045	yaw:	-29.260	yaw rate:	2.634	Roll:	-1.787	Pitch:	3.001	Yaw:	-43.546	Thrust:	100.000
Time:	4.031	Roll Set Point:	0.059	Pitch Set Point:	-0.192	Yaw Set Point:	0.511	X_WP:	0.000	Y_WP:	0.000	Y_WP:	0.500	X:	-0.005	Y:	0.104	Z:	0.045	yaw:	-29.266	yaw rate:	-0.676	Roll:	-1.842	Pitch:	2.998	Yaw:	-44.096	Thrust:	100.000
Time:	4.047	Roll Set Point:	0.060	Pitch Set Point:	-0.192	Yaw Set Point:	0.511	X_WP:	0.000	Y_WP:	0.000	Y_WP:	0.500	X:	-0.005	Y:	0.104	Z:	0.045	yaw:	-29.294	yaw rate:	-2.717	Roll:	-2.006	Pitch:	2.957	Yaw:	-44.492	Thrust:	100.000
Time:	4.062	Roll Set Point:	0.059	Pitch Set Point:	-0.192	Yaw Set Point:	0.510	X_WP:	0.000	Y_WP:	0.000	Y_WP:	0.500	X:	-0.005	Y:	0.104	Z:	0.045	yaw:	-29.239	yaw rate:	5.477	Roll:	-1.668	Pitch:	3.058	Yaw:	-43.033	Thrust:	100.000
Time:	4.078	Roll Set Point:	0.059	Pitch Set Point:	-0.192	Yaw Set Point:	0.510	X_WP:	0.000	Y_WP:	0.000	Y_WP:	0.500	X:	-0.005	Y:	0.104	Z:	0.045	yaw:	-29.239	yaw rate:	5.477	Roll:	-1.855	Pitch:	2.997	Yaw:	-43.940	Thrust:	100.000
Time:	4.094	Roll Set Point:	0.059	Pitch Set Point:	-0.192	Yaw Set Point:	0.510	X_WP:	0.000	Y_WP:	0.000	Y_WP:	0.500	X:	-0.005	Y:	0.104	Z:	0.045	yaw:	-29.241	yaw rate:	-0.255	Roll:	-1.812	Pitch:	3.006	Yaw:	-43.997	Thrust:	100.000
Time:	4.109	Roll Set Point:	0.059	Pitch Set Point:	-0.192	Yaw Set Point:	0.510	X_WP:	0.000	Y_WP:	0.000	Y_WP:	0.500	X:	-0.005	Y:	0.104	Z:	0.045	yaw:	-29.241	yaw rate:	-0.255	Roll:	-1.859	Pitch:	3.006	Yaw:	-43.954	Thrust:	100.000
Time:	4.125	Roll Set Point:	0.059	Pitch Set Point:	-0.192	Yaw Set Point:	0.510	X_WP:	0.000	Y_WP:	0.000	Y_WP:	0.500	X:	-0.005	Y:	0.104	Z:	0.045	yaw:	-29.225	yaw rate:	2.813	Roll:	-1.935	Pitch:	3.011	Yaw:	-43.659	Thrust:	100.000
Time:	4.141	Roll Set Point:	0.059	Pitch Set Point:	-0.192	Yaw Set Point:	0.510	X_WP:	0.000	Y_WP:	0.000	Y_WP:	0.500	X:	-0.005	Y:	0.104	Z:	0.045	yaw:	-29.225	yaw rate:	2.813	Roll:	-1.865	Pitch:	3.013	Yaw:	-43.931	Thrust:	100.000
Time:	4.156	Roll Set Point:	0.059	Pitch Set Point:	-0.192	Yaw Set Point:	0.512	X_WP:	0.000	Y_WP:	0.000	Y_WP:	0.500	X:	-0.005	Y:	0.104	Z:	0.045	yaw:	-29.315	yaw rate:	-9.019	Roll:	-1.982	Pitch:	2.895	Yaw:	-45.568	Thrust:	100.000
Time:	4.172	Roll Set Point:	0.059	Pitch Set Point:	-0.192	Yaw Set Point:	0.512	X_WP:	0.000	Y_WP:	0.000	Y_WP:	0.500	X:	-0.005	Y:	0.104	Z:	0.045	yaw:	-29.315	yaw rate:	-9.019	Roll:	-1.872	Pitch:	3.016	Yaw:	-44.057	Thrust:	100.000
Time:	4.187	Roll Set Point:	0.059	Pitch Set Point:	-0.192	Yaw Set Point:	0.511	X_WP:	0.000	Y_WP:	0.000	Y_WP:	0.500	X:	-0.005	Y:	0.104	Z:	0.045	yaw:	-29.271	yaw rate:	0.784	Roll:	-1.828	Pitch:	3.090	Yaw:	-43.246	Thrust:	100.000
Time:	4.203	Roll Set Point:	0.059	Pitch Set Point:	-0.192	Yaw Set Point:	0.510	X_WP:	0.000	Y_WP:	0.000	Y_WP:	0.500	X:	-0.005	Y:	0.104	Z:	0.045	yaw:	-29.234	yaw rate:	3.620	Roll:	-1.754	Pitch:	3.046	Yaw:	-43.338	Thrust:	100.000
Time:	4.219	Roll Set Point:	0.059	Pitch Set Point:	-0.192	Yaw Set Point:	0.511	X_WP:	0.000	Y_WP:	0.000	Y_WP:	0.500	X:	-0.005	Y:	0.104	Z:	0.045	yaw:	-29.266	yaw rate:	-3.158	Roll:	-1.948	Pitch:	2.970	Yaw:	-44.518	Thrust:	100.000
Time:	4.234	Roll Set Point:	0.059	Pitch Set Point:	-0.192	Yaw Set Point:	0.511	X_WP:	0.000	Y_WP:	0.000	Y_WP:	0.500	X:	-0.005	Y:	0.104	Z:	0.045	yaw:	-29.266	yaw rate:	-3.158	Roll:	-1.879	Pitch:	3.031	Yaw:	-43.990	Thrust:	100.000
Time:	4.250	Roll Set Point:	0.059	Pitch Set Point:	-0.192	Yaw Set Point:	0.510	X_WP:	0.000	Y_WP:	0.000	Y_WP:	0.500	X:	-0.005	Y:	0.104	Z:	0.045	yaw:	-29.241	yaw rate:	-0.423	Roll:	-1.899	Pitch:	3.116	Yaw:	-43.530	Thrust:	100.000
Time:	4.266	Roll Set Point:	0.059	Pitch Set Point:	-0.192	Yaw Set Point:	0.511	X_WP:	0.000	Y_WP:	0.000	Y_WP:	0.500	X:	-0.005	Y:	0.104	Z:	0.045	yaw:	-29.263	yaw rate:	-2.235	Roll:	-1.859	Pitch:	2.983	Yaw:	-44.358	Thrust:	100.000
Time:	4.281	Roll Set Point:	0.059	Pitch Set Point:	-0.192	Yaw Set Point:	0.511	X_WP:	0.000	Y_WP:	0.000	Y_WP:	0.500	X:	-0.005	Y:	0.104	Z:	0.045	yaw:	-29.263	yaw rate:	-2.235	Roll:	-1.885	Pitch:	3.042	Yaw:	-43.984	Thrust:	100.000
Time:	4.297	Roll Set Point:	0.059	Pitch Set Point:	-0.192	Yaw Set Point:	0.510	X_WP:	0.000	Y_WP:	0.000	Y_WP:	0.500	X:	-0.005	Y:	0.104	Z:	0.045	yaw:	-29.241	yaw rate:	2.262	Roll:	-1.847	Pitch:	3.085	Yaw:	-43.574	Thrust:	100.000
Time:	4.312	Roll Set Point:	0.059	Pitch Set Point:	-0.192	Yaw Set Point:	0.511	X_WP:	0.000	Y_WP:	0.000	Y_WP:	0.500	X:	-0.005	Y:	0.104	Z:	0.045	yaw:	-29.272	yaw rate:	-1.301	Roll:	-1.940	Pitch:	3.013	Yaw:	-44.520	Thrust:	100.000
Time:	4.328	Roll Set Point:	0.059	Pitch Set Point:	-0.192	Yaw Set Point:	0.511	X_WP:	0.000	Y_WP:	0.000	Y_WP:	0.500	X:	-0.005	Y:	0.104	Z:	0.045	yaw:	-29.272	yaw rate:	-1.301	Roll:	-1.892	Pitch:	3.053	Yaw:	-43.996	Thrust:	100.000
Time:	4.344	Roll Set Point:	0.059	Pitch Set Point:	-0.192	Yaw Set Point:	0.510	X_WP:	0.000	Y_WP:	0.000	Y_WP:	0.500	X:	-0.005	Y:	0.104	Z:	0.045	yaw:	-29.237	yaw rate:	3.502	Roll:	-1.880	Pitch:	3.097	Yaw:	-43.361	Thrust:	100.000
Time:	4.375	Roll Set Point:	0.059	Pitch Set Point:	-0.192	Yaw Set Point:	0.511	X_WP:	0.000	Y_WP:	0.000	Y_WP:	0.500	X:	-0.005	Y:	0.104	Z:	0.045	yaw:	-29.275	yaw rate:	-3.793	Roll:	-2.220	Pitch:	3.523	Yaw:	-47.424	Thrust:	100.000
Time:	4.391	Roll Set Point:	0.059	Pitch Set Point:	-0.192	Yaw Set Point:	0.511	X_WP:	0.000	Y_WP:	0.000	Y_WP:	0.500	X:	-0.005	Y:	0.104	Z:	0.045	yaw:	-29.276	yaw rate:	-2.624	Roll:	-1.927	Pitch:	3.087	Yaw:	-44.045	Thrust:	100.000
Time:	4.406	Roll Set Point:	0.059	Pitch Set Point:	-0.192	Yaw Set Point:	0.511	X_WP:	0.000	Y_WP:	0.000	Y_WP:	0.500	X:	-0.005	Y:	0.104	Z:	0.045	yaw:	-29.276	yaw rate:	-2.624	Roll:	-1.900	Pitch:	3.065	Yaw:	-43.991	Thrust:	100.000
Time:	4.422	Roll Set Point:	0.059	Pitch Set Point:	-0.192	Yaw Set Point:	0.511	X_WP:	0.000	Y_WP:	0.000	Y_WP:	0.500	X:	-0.005	Y:	0.104	Z:	0.045	yaw:	-29.278	yaw rate:	2.208	Roll:	-1.918	Pitch:	3.063	Yaw:	-44.033	Thrust:	100.000
Time:	4.437	Roll Set Point:	0.059	Pitch Set Point:	-0.192	Yaw Set Point:	0.510	X_WP:	0.000	Y_WP:	0.000	Y_WP:	0.500	X:	-0.005	Y:	0.104	Z:	0.045	yaw:	-29.246	yaw rate:	3.231	Roll:	-1.803	Pitch:	3.124	Yaw:	-43.419	Thrust:	100.000
Time:	4.453	Roll Set Point:	0.059	Pitch Set Point:	-0.192	Yaw Set Point:	0.510	X_WP:	0.000	Y_WP:	0.000	Y_WP:	0.500	X:	-0.005	Y:	0.104	Z:	0.045	yaw:	-29.227	yaw rate:	1.874	Roll:	-1.913	Pitch:	3.085	Yaw:	-43.620	Thrust:	100.000
Time:	4.469	Roll Set Point:	0.059	Pitch Set Point:	-0.192	Yaw Set Point:	0.510	X_WP:	0.000	Y_WP:	0.000	Y_WP:	0.500	X:	-0.005	Y:	0.104	Z:	0.045	yaw:	-29.227	yaw rate:	1.874	Roll:	-1.909	Pitch:	3.083	Yaw:	-43.941	Thrust:	100.000
Time:	4.484	Roll Set Point:	0.059	Pitch Set Point:	-0.192	Yaw Set Point:	0.511	X_WP:	0.000	Y_WP:	0.000	Y_WP:	0.500	X:	-0.005	Y:	0.104	Z:	0.045	yaw:	-29.256	yaw rate:	0.108	Roll:	-1.941	Pitch:	3.072	Yaw:	-44.452	Thrust:	100.000
Time:	4.500	Roll Set Point:	0.059	Pitch Set Point:	-0.192	Yaw Set Point:	0.511	X_WP:	0.000	Y_WP:	0.000	Y_WP:	0.500	X:	-0.005	Y:	0.104	Z:	0.045	yaw:	-29.270	yaw rate:	-1.442	Roll:	-1.911	Pitch:	3.063	Yaw:	-44.242	Thrust:	100.000
Time:	4.516	Roll Set Point:	0.059	Pitch Set Point:	-0.192	Yaw Set Point:	0.510	X_WP:	0.000	Y_WP:	0.000	Y_WP:	0.500	X:	-0.005	Y:	0.104	Z:	0.045	yaw:	-29.212	yaw rate:	5.810	Roll:	-1.845	Pitch:	3.174	Yaw:	-42.932	Thrust:	100.000
Time:	4.531	Roll Set Point:	0.059	Pitch Set Point:	-0.192	Yaw Set Point:	0.511	X_WP:	0.000	Y_WP:	0.000	Y_WP:	0.500	X:	-0.005	Y:	0.104	Z:	0.045	yaw:	-29.258	yaw rate:	-4.551	Roll:	-1.990	Pitch:	3.011	Yaw:	-44.740	Thrust:	100.000
Time:	4.547	Roll Set Point:	0.059	Pitch Set Point:	-0.192	Yaw Set Point:	0.510	X_WP:	0.000	Y_WP:	0.000	Y_WP:	0.500	X:	-0.005	Y:	0.104	Z:	0.045	yaw:	-29.234	yaw rate:	2.382	Roll:	-1.892	Pitch:	3.127	Yaw:	-43.551	Thrust:	100.000
Time:	4.562	Roll Set Point:	0.059	Pitch Set Point:	-0.192	Yaw Set Point:	0.510	X_WP:	0.000	Y_WP:	0.000	Y_WP:	0.500	X:	-0.005	Y:	0.104	Z:	0.045	yaw:	-29.234	yaw rate:	2.382	Roll:	-1.920	Pitch:	3.101	Yaw:	-43.938	Thrust:	100.000
Time:	4.578	Roll Set Point:	0.059	Pitch Set Point:	-0.192	Yaw Set Point:	0.511	X_WP:	0.000	Y_WP:	0.000	Y_WP:	0.500	X:	-0.005	Y:	0.104	Z:	0.045	yaw:	-29.256	yaw rate:	-3.343	Roll:	-1.938	Pitch:	3.124	Yaw:	-44.345	Thrust:	100.000
Time:	4.594	Roll Set Point:	0.059	Pitch Set Point:	-0.192	Yaw Set Point:	0.510	X_WP:	0.000	Y_WP:	0.000	Y_WP:	0.500	X:	-0.005	Y:	0.104	Z:	0.045	yaw:	-29.233	yaw rate:	2.308	Roll:	-1.908	Pitch:	3.100	Yaw:	-43.549	Thrust:	100.000
Time:	4.609	Roll Set Point:	0.059	Pitch Set Point:	-0.192	Yaw Set Point:	0.510	X_WP:	0.000	Y_WP:	0.000	Y_WP:	0.500	X:	-0.005	Y:	0.104	Z:	0.045	yaw:	-29.241	yaw rate:	-0.881	Roll:	-1.922	Pitch:	3.118	Yaw:	-44.102	Thrust:	100.000
Time:	4.625	Roll Set Point:	0.059	Pitch Set Point:	-0.192	Yaw Set Point:	0.511	X_WP:	0.000	Y_WP:	0.000	Y_WP:	0.500	X:	-0.005	Y:	0.104	Z:	0.045	yaw:	-29.262	yaw rate:	-2.019	Roll:	-1.954	Pitch:	3.074	Yaw:	-44.320	Thrust:	100.000
Time:	4.641	Roll Set Point:	0.059	Pitch Set Point:	-0.192	Yaw Set Point:	0.511	X_WP:	0.000	Y_WP:	0.000	Y_WP:	0.500	X:	-0.005	Y:	0.104	Z:	0.045	yaw:	-29.262	yaw rate:	-2.019	Roll:	-1.933	Pitch:	3.120	Yaw:	-43.989	Thrust:	100.000
Time:	4.656	Roll Set Point:	0.059	Pitch Set Point:	-0.192	Yaw Set Point:	0.510	X_WP:	0.000	Y_WP:	0.000	Y_WP:	0.500	X:	-0.005	Y:	0.104	Z:	0.045	yaw:	-29.244	yaw rate:	1.772	Roll:	-1.941	Pitch:	3.130	Yaw:	-43.654	Thrust:	100.000
Time:	4.672	Roll Set Point:	0.059	Pitch Set Point:	-0.192	Yaw Set Point:	0.511	X_WP:	0.000	Y_WP:	0.000	Y_WP:	0.500	X:	-0.005	Y:	0.104	Z:	0.045	yaw:	-29.280	yaw rate:	-3.570	Roll:	-2.005	Pitch:	3.093	Yaw:	-44.606	Thrust:	100.000
Time:	4.687	Roll Set Point:	0.059	Pitch Set Point:	-0.192	Yaw Set Point:	0.510	X_WP:	0.000	Y_WP:	0.000	Y_WP:	0.500	X:	-0.005	Y:	0.104	Z:	0.045	yaw:	-29.249	yaw rate:	-0.067	Roll:	-1.846	Pitch:	3.183	Yaw:	-43.444	Thrust:	100.000
Time:	4.703	Roll Set Point:	0.059	Pitch Set Point:	-0.192	Yaw Set Point:	0.510	X_WP:	0.000	Y_WP:	0.000	Y_WP:	0.500	X:	-0.005	Y:	0.104	Z:	0.045	yaw:	-29.249	yaw rate:	-0.067	Roll:	-1.940	Pitch:	3.133	Yaw:	-43.964	Thrust:	100.000
Time:	4.719	Roll Set Point:	0.059	Pitch Set Point:	-0.192	Yaw Set Point:	0.509	X_WP:	0.000	Y_WP:	0.000	Y_WP:	0.500	X:	-0.005	Y:	0.104	Z:	0.045	yaw:	-29.159	yaw rate:	9.544	Roll:	-1.882	Pitch:	3.242	Yaw:	-42.363	Thrust:	100.000
Time:	4.734	Roll Set Point:	0.059	Pitch Set Point:	-0.192	Yaw Set Point:	0.510	X_WP:	0.000	Y_WP:	0.000	Y_WP:	0.500	X:	-0.005	Y:	0.104	Z:	0.045	yaw:	-29.227	yaw rate:	-6.762	Roll:	-2.004	Pitch:	3.052	Yaw:	-45.066	Thrust:	100.000
Time:	4.750	Roll Set Point:	0.059	Pitch Set Point:	-0.192	Yaw Set Point:	0.510	X_WP:	0.000	Y_WP:	0.000	Y_WP:	0.500	X:	-0.005	Y:	0.104	Z:	0.045	yaw:	-29.229	yaw rate:	-0.225	Roll:	-1.938	Pitch:	3.171	Yaw:	-43.958	Thrust:	100.000
Time:	4.766	Roll Set Point:	0.059	Pitch Set Point:	-0.192	Yaw Set Point:	0.511	X_WP:	0.000	Y_WP:	0.000	Y_WP:	0.500	X:	-0.005	Y:	0.104	Z:	0.045	yaw:	-29.257	yaw rate:	-2.849	Roll:	-1.976	Pitch:	3.079	Yaw:	-44.453	Thrust:	100.000
Time:	4.781	Roll Set Point:	0.059	Pitch Set Point:	-0.192	Yaw Set Point:	0.510	X_WP:	0.000	Y_WP:	0.000	Y_WP:	0.500	X:	-0.005	Y:	0.104	Z:	0.045	yaw:	-29.217	yaw rate:	3.976	Roll:	-1.911	Pitch:	3.200	Yaw:	-43.254	Thrust:	100.000
Time:	4.797	Roll Set Point:	0.059	Pitch Set Point:	-0.192	Yaw Set Point:	0.510	X_WP:	0.000	Y_WP:	0.000	Y_WP:	0.500	X:	-0.005	Y:	0.104	Z:	0.045	yaw:	-29.229	yaw rate:	-1.188	Roll:	-1.978	Pitch:	3.128	Yaw:	-44.135	Thrust:	100.000
Time:	4.812	Roll Set Point:	0.059	Pitch Set Point:	-0.192	Yaw Set Point:	0.511	X_WP:	0.000	Y_WP:	0.000	Y_WP:	0.500	X:	-0.005	Y:	0.104	Z:	0.045	yaw:	-29.273	yaw rate:	-4.387	Roll:	-1.976	Pitch:	3.092	Yaw:	-44.738	Thrust:	100.000
Time:	4.828	Roll Set Point:	0.059	Pitch Set Point:	-0.192	Yaw Set Point:	0.511	X_WP:	0.000	Y_WP:	0.000	Y_WP:	0.500	X:	-0.005	Y:	0.104	Z:	0.045	yaw:	-29.273	yaw rate:	-4.387	Roll:	-1.957	Pitch:	3.147	Yaw:	-43.993	Thrust:	100.000
Time:	4.844	Roll Set Point:	0.059	Pitch Set Point:	-0.192	Yaw Set Point:	0.511	X_WP:	0.000	Y_WP:	0.000	Y_WP:	0.500	X:	-0.005	Y:	0.104	Z:	0.045	yaw:	-29.281	yaw rate:	-0.812	Roll:	-2.002	Pitch:	3.147	Yaw:	-44.146	Thrust:	100.000
Time:	4.859	Roll Set Point:	0.059	Pitch Set Point:	-0.192	Yaw Set Point:	0.511	X_WP:	0.000	Y_WP:	0.000	Y_WP:	0.500	X:	-0.005	Y:	0.104	Z:	0.045	yaw:	-29.281	yaw rate:	-0.812	Roll:	-1.963	Pitch:	3.148	Yaw:	-44.010	Thrust:	100.000
Time:	4.875	Roll Set Point:	0.059	Pitch Set Point:	-0.192	Yaw Set Point:	0.511	X_WP:	0.000	Y_WP:	0.000	Y_WP:	0.500	X:	-0.005	Y:	0.104	Z:	0.045	yaw:	-29.266	yaw rate:	-1.021	Roll:	-1.930	Pitch:	3.180	Yaw:	-43.734	Thrust:	100.000
Time:	4.891	Roll Set Point:	0.059	Pitch Set Point:	-0.192	Yaw Set Point:	0.511	X_WP:	0.000	Y_WP:	0.000	Y_WP:	0.500	X:	-0.005	Y:	0.104	Z:	0.045	yaw:	-29.254	yaw rate:	1.226	Roll:	-1.878	Pitch:	3.152	Yaw:	-43.760	Thrust:	100.000
Time:	4.906	Roll Set Point:	0.059	Pitch Set Point:	-0.192	Yaw Set Point:	0.511	X_WP:	0.000	Y_WP:	0.000	Y_WP:	0.500	X:	-0.005	Y:	0.104	Z:	0.045	yaw:	-29.281	yaw rate:	-2.720	Roll:	-2.065	Pitch:	3.119	Yaw:	-44.465	Thrust:	100.000
Time:	4.922	Roll Set Point:	0.059	Pitch Set Point:	-0.192	Yaw Set Point:	0.511	X_WP:	0.000	Y_WP:	0.000	Y_WP:	0.500	X:	-0.005	Y:	0.104	Z:	0.045	yaw:	-29.293	yaw rate:	-1.196	Roll:	-2.052	Pitch:	3.169	Yaw:	-44.226	Thrust:	100.000
Time:	4.937	Roll Set Point:	0.059	Pitch Set Point:	-0.192	Yaw Set Point:	0.511	X_WP:	0.000	Y_WP:	0.000	Y_WP:	0.500	X:	-0.005	Y:	0.104	Z:	0.045	yaw:	-29.256	yaw rate:	3.709	Roll:	-1.858	Pitch:	3.165	Yaw:	-43.360	Thrust:	100.000
Time:	4.953	Roll Set Point:	0.059	Pitch Set Point:	-0.192	Yaw Set Point:	0.510	X_WP:	0.000	Y_WP:	0.000	Y_WP:	0.500	X:	-0.005	Y:	0.104	Z:	0.045	yaw:	-29.228	yaw rate:	2.776	Roll:	-1.876	Pitch:	3.142	Yaw:	-43.463	Thrust:	100.000
Time:	4.969	Roll Set Point:	0.059	Pitch Set Point:	-0.192	Yaw Set Point:	0.510	X_WP:	0.000	Y_WP:	0.000	Y_WP:	0.500	X:	-0.005	Y:	0.104	Z:	0.045	yaw:	-29.228	yaw rate:	2.776	Roll:	-1.974	Pitch:	3.149	Yaw:	-43.936	Thrust:	100.000
Time:	4.984	Roll Set Point:	0.059	Pitch Set Point:	-0.192	Yaw Set Point:	0.510	X_WP:	0.000	Y_WP:	0.000	Y_WP:	0.500	X:	-0.005	Y:	0.104	Z:	0.045	yaw:	-29.235	yaw rate:	6.688	Roll:	-2.099	Pitch:	3.202	Yaw:	-44.064	Thrust:	100.000
Time:	5.000	Roll Set Point:	0.059	Pitch Set Point:	-0.192	Yaw Set Point:	0.510	X_WP:	0.000	Y_WP:	0.000	Y_WP:	0.500	X:	-0.005	Y:	0.104	Z:	0.045	yaw:	-29.237	yaw rate:	-0.158	Roll:	-1.987	Pitch:	3.143	Yaw:	-43.974	Thrust:	100.000
Time:	5.016	Roll Set Point:	0.059	Pitch Set Point:	-0.192	Yaw Set Point:	0.510	X_WP:	0.000	Y_WP:	0.000	Y_WP:	0.500	X:	-0.005	Y:	0.104	Z:	0.045	yaw:	-29.237	yaw rate:	-0.158	Roll:	-1.984	Pitch:	3.150	Yaw:	-43.948	Thrust:	100.000
Time:	5.031	Roll Set Point:	0.059	Pitch Set Point:	-0.192	Yaw Set Point:	0.511	X_WP:	0.000	Y_WP:	0.000	Y_WP:	0.500	X:	-0.005	Y:	0.104	Z:	0.045	yaw:	-29.280	yaw rate:	-4.381	Roll:	-1.928	Pitch:	3.079	Yaw:	-44.747	Thrust:	100.000
Time:	5.047	Roll Set Point:	0.059	Pitch Set Point:	-0.192	Yaw Set Point:	0.511	X_WP:	0.000	Y_WP:	0.000	Y_WP:	0.500	X:	-0.005	Y:	0.104	Z:	0.045	yaw:	-29.280	yaw rate:	-4.381	Roll:	-1.986	Pitch:	3.148	Yaw:	-44.008	Thrust:	100.000
Time:	5.062	Roll Set Point:	0.059	Pitch Set Point:	-0.192	Yaw Set Point:	0.511	X_WP:	0.000	Y_WP:	0.000	Y_WP:	0.500	X:	-0.005	Y:	0.104	Z:	0.045	yaw:	-29.262	yaw rate:	1.807	Roll:	-2.128	Pitch:	3.190	Yaw:	-43.674	Thrust:	100.000
Time:	5.078	Roll Set Point:	0.059	Pitch Set Point:	-0.192	Yaw Set Point:	0.510	X_WP:	0.000	Y_WP:	0.000	Y_WP:	0.500	X:	-0.005	Y:	0.104	Z:	0.045	yaw:	-29.247	yaw rate:	0.977	Roll:	-1.854	Pitch:	3.129	Yaw:	-43.699	Thrust:	100.000
Time:	5.094	Roll Set Point:	0.059	Pitch Set Point:	-0.192	Yaw Set Point:	0.510	X_WP:	0.000	Y_WP:	0.000	Y_WP:	0.500	X:	-0.005	Y:	0.104	Z:	0.045	yaw:	-29.246	yaw rate:	0.111	Roll:	-2.058	Pitch:	3.165	Yaw:	-43.942	Thrust:	100.000
Time:	5.109	Roll Set Point:	0.059	Pitch Set Point:	-0.192	Yaw Set Point:	0.510	X_WP:	0.000	Y_WP:	0.000	Y_WP:	0.500	X:	-0.005	Y:	0.104	Z:	0.045	yaw:	-29.246	yaw rate:	0.111	Roll:	-1.997	Pitch:	3.149	Yaw:	-43.960	Thrust:	100.000
Time:	5.125	Roll Set Point:	0.059	Pitch Set Point:	-0.192	Yaw Set Point:	0.511	X_WP:	0.000	Y_WP:	0.000	Y_WP:	0.500	X:	-0.005	Y:	0.104	Z:	0.045	yaw:	-29.261	yaw rate:	-1.579	Roll:	-2.014	Pitch:	3.181	Yaw:	-44.252	Thrust:	100.000
Time:	5.141	Roll Set Point:	0.059	Pitch Set Point:	-0.192	Yaw Set Point:	0.511	X_WP:	0.000	Y_WP:	0.000	Y_WP:	0.500	X:	-0.005	Y:	0.104	Z:	0.045	yaw:	-29.266	yaw rate:	-0.423	Roll:	-2.034	Pitch:	3.100	Yaw:	-44.054	Thrust:	100.000
Time:	5.156	Roll Set Point:	0.059	Pitch Set Point:	-0.192	Yaw Set Point:	0.511	X_WP:	0.000	Y_WP:	0.000	Y_WP:	0.500	X:	-0.005	Y:	0.104	Z:	0.045	yaw:	-29.279	yaw rate:	-1.299	Roll:	-1.942	Pitch:	3.129	Yaw:	-44.223	Thrust:	100.000
Time:	5.172	Roll Set Point:	0.059	Pitch Set Point:	-0.192	Yaw Set Point:	0.511	X_WP:	0.000	Y_WP:	0.000	Y_WP:	0.500	X:	-0.005	Y:	0.104	Z:	0.045	yaw:	-29.281	yaw rate:	-0.228	Roll:	-2.044	Pitch:	3.135	Yaw:	-44.052	Thrust:	100.000
Time:	5.187	Roll Set Point:	0.059	Pitch Set Point:	-0.192	Yaw Set Point:	0.511	X_WP:	0.000	Y_WP:	0.000	Y_WP:	0.500	X:	-0.005	Y:	0.104	Z:	0.045	yaw:	-29.257	yaw rate:	-1.405	Roll:	-2.052	Pitch:	3.213	Yaw:	-43.574	Thrust:	100.000
Time:	5.203	Roll Set Point:	0.059	Pitch Set Point:	-0.192	Yaw Set Point:	0.511	X_WP:	0.000	Y_WP:	0.000	Y_WP:	0.500	X:	-0.005	Y:	0.104	Z:	0.045	yaw:	-29.257	yaw rate:	-1.405	Roll:	-2.011	Pitch:	3.150	Yaw:	-43.976	Thrust:	100.000
Time:	5.219	Roll Set Point:	0.059	Pitch Set Point:	-0.192	Yaw Set Point:	0.511	X_WP:	0.000	Y_WP:	0.000	Y_WP:	0.500	X:	-0.005	Y:	0.104	Z:	0.045	yaw:	-29.257	yaw rate:	0.079	Roll:	-1.912	Pitch:	3.123	Yaw:	-43.967	Thrust:	100.000
Time:	5.234	Roll Set Point:	0.059	Pitch Set Point:	-0.192	Yaw Set Point:	0.511	X_WP:	0.000	Y_WP:	0.000	Y_WP:	0.500	X:	-0.005	Y:	0.104	Z:	0.045	yaw:	-29.263	yaw rate:	-0.597	Roll:	-2.018	Pitch:	3.139	Yaw:	-44.090	Thrust:	100.000
Time:	5.250	Roll Set Point:	0.059	Pitch Set Point:	-0.192	Yaw Set Point:	0.510	X_WP:	0.000	Y_WP:	0.000	Y_WP:	0.500	X:	-0.005	Y:	0.104	Z:	0.045	yaw:	-29.245	yaw rate:	1.755	Roll:	-2.025	Pitch:	3.185	Yaw:	-43.659	Thrust:	100.000
Time:	5.266	Roll Set Point:	0.059	Pitch Set Point:	-0.192	Yaw Set Point:	0.510	X_WP:	0.000	Y_WP:	0.000	Y_WP:	0.500	X:	-0.005	Y:	0.104	Z:	0.045	yaw:	-29.230	yaw rate:	1.551	Roll:	-1.951	Pitch:	3.152	Yaw:	-43.678	Thrust:	100.000
Time:	5.281	Roll Set Point:	0.059	Pitch Set Point:	-0.192	Yaw Set Point:	0.511	X_WP:	0.000	Y_WP:	0.000	Y_WP:	0.500	X:	-0.005	Y:	0.104	Z:	0.045	yaw:	-29.252	yaw rate:	-2.188	Roll:	-2.059	Pitch:	3.142	Yaw:	-44.335	Thrust:	100.000
Time:	5.297	Roll Set Point:	0.059	Pitch Set Point:	-0.192	Yaw Set Point:	0.511	X_WP:	0.000	Y_WP:	0.000	Y_WP:	0.500	X:	-0.005	Y:	0.104	Z:	0.045	yaw:	-29.258	yaw rate:	-0.616	Roll:	-2.036	Pitch:	3.146	Yaw:	-44.080	Thrust:	100.000
Time:	5.312	Roll Set Point:	0.059	Pitch Set Point:	-0.192	Yaw Set Point:	0.511	X_WP:	0.000	Y_WP:	0.000	Y_WP:	0.500	X:	-0.005	Y:	0.104	Z:	0.045	yaw:	-29.258	yaw rate:	-0.616	Roll:	-2.024	Pitch:	3.149	Yaw:	-43.977	Thrust:	100.000
Time:	5.328	Roll Set Point:	0.059	Pitch Set Point:	-0.192	Yaw Set Point:	0.511	X_WP:	0.000	Y_WP:	0.000	Y_WP:	0.500	X:	-0.005	Y:	0.104	Z:	0.045	yaw:	-29.251	yaw rate:	0.672	Roll:	-2.048	Pitch:	3.138	Yaw:	-43.855	Thrust:	100.000
Time:	5.344	Roll Set Point:	0.059	Pitch Set Point:	-0.192	Yaw Set Point:	0.511	X_WP:	0.000	Y_WP:	0.000	Y_WP:	0.500	X:	-0.005	Y:	0.104	Z:	0.045	yaw:	-29.251	yaw rate:	-0.029	Roll:	-1.993	Pitch:	3.138	Yaw:	-43.973	Thrust:	100.000
Time:	5.358	Roll Set Point:	0.059	Pitch Set Point:	-0.192	Yaw Set Point:	0.511	X_WP:	0.000	Y_WP:	0.000	Y_WP:	0.500	X:	-0.005	Y:	0.104	Z:	0.045	yaw:	-29.259	yaw rate:	-3.139	Roll:	-1.986	Pitch:	3.112	Yaw:	-43.919	Thrust:	100.000
Time:	5.375	Roll Set Point:	0.059	Pitch Set Point:	-0.192	Yaw Set Point:	0.511	X_WP:	0.000	Y_WP:	0.000	Y_WP:	0.500	X:	-0.005	Y:	0.104	Z:	0.045	yaw:	-29.268	yaw rate:	-0.875	Roll:	-2.172	Pitch:	3.201	Yaw:	-44.354	Thrust:	100.000
Time:	5.391	Roll Set Point:	0.059	Pitch Set Point:	-0.192	Yaw Set Point:	0.511	X_WP:	0.000	Y_WP:	0.000	Y_WP:	0.500	X:	-0.005	Y:	0.104	Z:	0.045	yaw:	-29.268	yaw rate:	-0.875	Roll:	-2.037	Pitch:	3.149	Yaw:	-43.991	Thrust:	100.000
Time:	5.406	Roll Set Point:	0.059	Pitch Set Point:	-0.192	Yaw Set Point:	0.510	X_WP:	0.000	Y_WP:	0.000	Y_WP:	0.500	X:	-0.005	Y:	0.104	Z:	0.045	yaw:	-29.242	yaw rate:	2.619	Roll:	-1.877	Pitch:	3.154	Yaw:	-43.528	Thrust:	100.000
Time:	5.422	Roll Set Point:	0.059	Pitch Set Point:	-0.192	Yaw Set Point:	0.511	X_WP:	0.000	Y_WP:	0.000	Y_WP:	0.500	X:	-0.005	Y:	0.104	Z:	0.045	yaw:	-29.263	yaw rate:	2.187	Roll:	-2.113	Pitch:	3.123	Yaw:	-44.351	Thrust:	100.000
Time:	5.438	Roll Set Point:	0.059	Pitch Set Point:	-0.192	Yaw Set Point:	0.511	X_WP:	0.000	Y_WP:	0.000	Y_WP:	0.500	X:	-0.005	Y:	0.104	Z:	0.045	yaw:	-29.263	yaw rate:	2.187	Roll:	-2.038	Pitch:	3.145	Yaw:	-43.966	Thrust:	100.000
Time:	5.453	Roll Set Point:	0.059	Pitch Set Point:	-0.192	Yaw Set Point:	0.511	X_WP:	0.000	Y_WP:	0.000	Y_WP:	0.500	X:	-0.005	Y:	0.104	Z:	0.045	yaw:	-29.266	yaw rate:	-5.114	Roll:	-2.059	Pitch:	3.138	Yaw:	-44.037	Thrust:	100.000
Time:	5.469	Roll Set Point:	0.059	Pitch Set Point:	-0.192	Yaw Set Point:	0.510	X_WP:	0.000	Y_WP:	0.000	Y_WP:	0.500	X:	-0.005	Y:	0.104	Z:	0.045	yaw:	-29.245	yaw rate:	2.119	Roll:	-2.052	Pitch:	3.191	Yaw:	-43.612	Thrust:	100.000
Time:	5.484	Roll Set Point:	0.059	Pitch Set Point:	-0.192	Yaw Set Point:	0.510	X_WP:	0.000	Y_WP:	0.000	Y_WP:	0.500	X:	-0.005	Y:	0.104	Z:	0.045	yaw:	-29.234	yaw rate:	1.049	Roll:	-1.940	Pitch:	3.146	Yaw:	-43.761	Thrust:	100.000
Time:	5.500	Roll Set Point:	0.059	Pitch Set Point:	-0.192	Yaw Set Point:	0.510	X_WP:	0.000	Y_WP:	0.000	Y_WP:	0.500	X:	-0.005	Y:	0.104	Z:	0.045	yaw:	-29.228	yaw rate:	0.598	Roll:	-2.090	Pitch:	3.163	Yaw:	-43.836	Thrust:	100.000
Time:	5.516	Roll Set Point:	0.059	Pitch Set Point:	-0.192	Yaw Set Point:	0.510	X_WP:	0.000	Y_WP:	0.000	Y_WP:	0.500	X:	-0.005	Y:	0.104	Z:	0.045	yaw:	-29.228	yaw rate:	0.598	Roll:	-2.051	Pitch:	3.150	Yaw:	-43.936	Thrust:	100.000
Time:	5.531	Roll Set Point:	0.059	Pitch Set Point:	-0.192	Yaw Set Point:	0.511	X_WP:	0.000	Y_WP:	0.000	Y_WP:	0.500	X:	-0.005	Y:	0.104	Z:	0.045	yaw:	-29.253	yaw rate:	-2.446	Roll:	-2.055	Pitch:	3.133	Yaw:	-44.379	Thrust:	100.000
Time:	5.547	Roll Set Point:	0.059	Pitch Set Point:	-0.192	Yaw Set Point:	0.511	X_WP:	0.000	Y_WP:	0.000	Y_WP:	0.500	X:	-0.005	Y:	0.104	Z:	0.045	yaw:	-29.270	yaw rate:	-4.226	Roll:	-2.097	Pitch:	3.166	Yaw:	-44.272	Thrust:	100.000
Time:	5.563	Roll Set Point:	0.059	Pitch Set Point:	-0.192	Yaw Set Point:	0.511	X_WP:	0.000	Y_WP:	0.000	Y_WP:	0.500	X:	-0.005	Y:	0.104	Z:	0.045	yaw:	-29.270	yaw rate:	-4.226	Roll:	-2.058	Pitch:	3.150	Yaw:	-43.993	Thrust:	100.000
Time:	5.578	Roll Set Point:	0.059	Pitch Set Point:	-0.192	Yaw Set Point:	0.511	X_WP:	0.000	Y_WP:	0.000	Y_WP:	0.500	X:	-0.005	Y:	0.104	Z:	0.045	yaw:	-29.267	yaw rate:	0.232	Roll:	-2.105	Pitch:	3.095	Yaw:	-43.951	Thrust:	100.000
Time:	5.594	Roll Set Point:	0.059	Pitch Set Point:	-0.192	Yaw Set Point:	0.510	X_WP:	0.000	Y_WP:	0.000	Y_WP:	0.500	X:	-0.005	Y:	0.104	Z:	0.045	yaw:	-29.222	yaw rate:	2.505	Roll:	-2.017	Pitch:	3.226	Yaw:	-43.163	Thrust:	100.000
Time:	5.610	Roll Set Point:	0.059	Pitch Set Point:	-0.192	Yaw Set Point:	0.510	X_WP:	0.000	Y_WP:	0.000	Y_WP:	0.500	X:	-0.005	Y:	0.104	Z:	0.045	yaw:	-29.222	yaw rate:	2.505	Roll:	-2.064	Pitch:	3.150	Yaw:	-43.927	Thrust:	100.000
Time:	5.625	Roll Set Point:	0.059	Pitch Set Point:	-0.192	Yaw Set Point:	0.509	X_WP:	0.000	Y_WP:	0.000	Y_WP:	0.500	X:	-0.005	Y:	0.104	Z:	0.045	yaw:	-29.177	yaw rate:	4.491	Roll:	-1.990	Pitch:	3.215	Yaw:	-43.118	Thrust:	100.000
Time:	5.641	Roll Set Point:	0.059	Pitch Set Point:	-0.192	Yaw Set Point:	0.511	X_WP:	0.000	Y_WP:	0.000	Y_WP:	0.500	X:	-0.005	Y:	0.104	Z:	0.045	yaw:	-29.252	yaw rate:	2.749	Roll:	-2.134	Pitch:	3.042	Yaw:	-45.222	Thrust:	100.000
Time:	5.656	Roll Set Point:	0.059	Pitch Set Point:	-0.192	Yaw Set Point:	0.511	X_WP:	0.000	Y_WP:	0.000	Y_WP:	0.500	X:	-0.005	Y:	0.104	Z:	0.045	yaw:	-29.265	yaw rate:	-1.366	Roll:	-2.105	Pitch:	3.165	Yaw:	-44.216	Thrust:	100.000
Time:	5.672	Roll Set Point:	0.059	Pitch Set Point:	-0.192	Yaw Set Point:	0.510	X_WP:	0.000	Y_WP:	0.000	Y_WP:	0.500	X:	-0.005	Y:	0.104	Z:	0.045	yaw:	-29.234	yaw rate:	3.104	Roll:	-2.009	Pitch:	3.191	Yaw:	-43.425	Thrust:	100.000
Time:	5.688	Roll Set Point:	0.059	Pitch Set Point:	-0.192	Yaw Set Point:	0.511	X_WP:	0.000	Y_WP:	0.000	Y_WP:	0.500	X:	-0.005	Y:	0.104	Z:	0.045	yaw:	-29.264	yaw rate:	-2.948	Roll:	-2.117	Pitch:	3.087	Yaw:	-44.479	Thrust:	100.000
Time:	5.703	Roll Set Point:	0.059	Pitch Set Point:	-0.192	Yaw Set Point:	0.511	X_WP:	0.000	Y_WP:	0.000	Y_WP:	0.500	X:	-0.005	Y:	0.104	Z:	0.045	yaw:	-29.250	yaw rate:	1.419	Roll:	-2.033	Pitch:	3.162	Yaw:	-43.758	Thrust:	100.000
Time:	5.718	Roll Set Point:	0.059	Pitch Set Point:	-0.192	Yaw Set Point:	0.510	X_WP:	0.000	Y_WP:	0.000	Y_WP:	0.500	X:	-0.005	Y:	0.104	Z:	0.045	yaw:	-29.238	yaw rate:	1.125	Roll:	-2.049	Pitch:	3.109	Yaw:	-43.637	Thrust:	100.000
Time:	5.744	Roll Set Point:	0.059	Pitch Set Point:	-0.192	Yaw Set Point:	0.510	X_WP:	0.000	Y_WP:	0.000	Y_WP:	0.500	X:	-0.005	Y:	0.104	Z:	0.045	yaw:	-29.222	yaw rate:	5.367	Roll:	-2.381	Pitch:	3.558	Yaw:	-45.810	Thrust:	100.000
Time:	5.760	Roll Set Point:	0.059	Pitch Set Point:	-0.192	Yaw Set Point:	0.511	X_WP:	0.000	Y_WP:	0.000	Y_WP:	0.500	X:	-0.005	Y:	0.104	Z:	0.045	yaw:	-29.259	yaw rate:	-3.753	Roll:	-2.153	Pitch:	3.113	Yaw:	-44.615	Thrust:	100.000
Time:	5.776	Roll Set Point:	0.059	Pitch Set Point:	-0.192	Yaw Set Point:	0.511	X_WP:	0.000	Y_WP:	0.000	Y_WP:	0.500	X:	-0.005	Y:	0.104	Z:	0.045	yaw:	-29.259	yaw rate:	-3.753	Roll:	-2.084	Pitch:	3.147	Yaw:	-43.971	Thrust:	100.000
Time:	5.791	Roll Set Point:	0.059	Pitch Set Point:	-0.192	Yaw Set Point:	0.511	X_WP:	0.000	Y_WP:	0.000	Y_WP:	0.500	X:	-0.005	Y:	0.104	Z:	0.045	yaw:	-29.275	yaw rate:	-1.531	Roll:	-2.128	Pitch:	3.127	Yaw:	-44.257	Thrust:	100.000
Time:	5.807	Roll Set Point:	0.059	Pitch Set Point:	-0.192	Yaw Set Point:	0.510	X_WP:	0.000	Y_WP:	0.000	Y_WP:	0.500	X:	-0.005	Y:	0.104	Z:	0.045	yaw:	-29.208	yaw rate:	3.740	Roll:	-1.999	Pitch:	3.257	Yaw:	-42.801	Thrust:	100.000
Time:	5.822	Roll Set Point:	0.059	Pitch Set Point:	-0.192	Yaw Set Point:	0.510	X_WP:	0.000	Y_WP:	0.000	Y_WP:	0.500	X:	-0.005	Y:	0.104	Z:	0.045	yaw:	-29.208	yaw rate:	3.740	Roll:	-2.090	Pitch:	3.151	Yaw:	-43.908	Thrust:	100.000
Time:	5.838	Roll Set Point:	0.059	Pitch Set Point:	-0.192	Yaw Set Point:	0.510	X_WP:	0.000	Y_WP:	0.000	Y_WP:	0.500	X:	-0.005	Y:	0.104	Z:	0.045	yaw:	-29.232	yaw rate:	4.035	Roll:	-2.101	Pitch:	3.090	Yaw:	-44.338	Thrust:	100.000
Time:	5.854	Roll Set Point:	0.059	Pitch Set Point:	-0.192	Yaw Set Point:	0.510	X_WP:	0.000	Y_WP:	0.000	Y_WP:	0.500	X:	-0.005	Y:	0.104	Z:	0.045	yaw:	-29.232	yaw rate:	4.035	Roll:	-2.094	Pitch:	3.149	Yaw:	-43.940	Thrust:	100.000
Time:	5.869	Roll Set Point:	0.059	Pitch Set Point:	-0.192	Yaw Set Point:	0.511	X_WP:	0.000	Y_WP:	0.000	Y_WP:	0.500	X:	-0.005	Y:	0.104	Z:	0.045	yaw:	-29.273	yaw rate:	0.564	Roll:	-2.224	Pitch:	3.145	Yaw:	-44.685	Thrust:	100.000
Time:	5.885	Roll Set Point:	0.059	Pitch Set Point:	-0.192	Yaw Set Point:	0.510	X_WP:	0.000	Y_WP:	0.000	Y_WP:	0.500	X:	-0.005	Y:	0.104	Z:	0.045	yaw:	-29.244	yaw rate:	2.907	Roll:	-1.994	Pitch:	3.130	Yaw:	-43.471	Thrust:	100.000
Time:	5.901	Roll Set Point:	0.059	Pitch Set Point:	-0.192	Yaw Set Point:	0.510	X_WP:	0.000	Y_WP:	0.000	Y_WP:	0.500	X:	-0.005	Y:	0.104	Z:	0.045	yaw:	-29.247	yaw rate:	-0.345	Roll:	-2.144	Pitch:	3.157	Yaw:	-44.020	Thrust:	100.000
Time:	5.916	Roll Set Point:	0.059	Pitch Set Point:	-0.192	Yaw Set Point:	0.511	X_WP:	0.000	Y_WP:	0.000	Y_WP:	0.500	X:	-0.005	Y:	0.104	Z:	0.045	yaw:	-29.270	yaw rate:	-2.214	Roll:	-2.130	Pitch:	3.152	Yaw:	-44.364	Thrust:	100.000
Time:	5.932	Roll Set Point:	0.059	Pitch Set Point:	-0.192	Yaw Set Point:	0.510	X_WP:	0.000	Y_WP:	0.000	Y_WP:	0.500	X:	-0.005	Y:	0.104	Z:	0.045	yaw:	-29.247	yaw rate:	2.256	Roll:	-2.101	Pitch:	3.168	Yaw:	-43.591	Thrust:	100.000
Time:	5.947	Roll Set Point:	0.059	Pitch Set Point:	-0.192	Yaw Set Point:	0.511	X_WP:	0.000	Y_WP:	0.000	Y_WP:	0.500	X:	-0.005	Y:	0.104	Z:	0.045	yaw:	-29.280	yaw rate:	-3.294	Roll:	-2.152	Pitch:	3.103	Yaw:	-44.555	Thrust:	100.000
Time:	5.963	Roll Set Point:	0.059	Pitch Set Point:	-0.192	Yaw Set Point:	0.511	X_WP:	0.000	Y_WP:	0.000	Y_WP:	0.500	X:	-0.005	Y:	0.104	Z:	0.045	yaw:	-29.280	yaw rate:	-3.294	Roll:	-2.113	Pitch:	3.148	Yaw:	-44.008	Thrust:	100.000
Time:	5.979	Roll Set Point:	0.059	Pitch Set Point:	-0.192	Yaw Set Point:	0.511	X_WP:	0.000	Y_WP:	0.000	Y_WP:	0.500	X:	-0.005	Y:	0.104	Z:	0.045	yaw:	-29.261	yaw rate:	1.856	Roll:	-2.040	Pitch:	3.154	Yaw:	-43.671	Thrust:	100.000
Time:	5.994	Roll Set Point:	0.059	Pitch Set Point:	-0.192	Yaw Set Point:	0.510	X_WP:	0.000	Y_WP:	0.000	Y_WP:	0.500	X:	-0.005	Y:	0.104	Z:	0.045	yaw:	-29.247	yaw rate:	1.493	Roll:	-2.091	Pitch:	3.172	Yaw:	-43.711	Thrust:	100.000
Time:	6.010	Roll Set Point:	-0.057	Pitch Set Point:	-0.111	Yaw Set Point:	0.511	X_WP:	-0.062	Y_WP:	0.128	Y_WP:	0.500	X:	-0.005	Y:	0.104	Z:	0.045	yaw:	-29.251	yaw rate:	1.409	Roll:	30.000	Pitch:	-30.000	Yaw:	-44.034	Thrust:	100.000
Time:	6.026	Roll Set Point:	-0.057	Pitch Set Point:	-0.111	Yaw Set Point:	0.511	X_WP:	-0.062	Y_WP:	0.128	Y_WP:	0.500	X:	-0.005	Y:	0.104	Z:	0.045	yaw:	-29.251	yaw rate:	1.409	Roll:	1.270	Pitch:	0.782	Yaw:	-43.967	Thrust:	100.000
Time:	6.041	Roll Set Point:	-0.057	Pitch Set Point:	-0.111	Yaw Set Point:	0.511	X_WP:	-0.062	Y_WP:	0.128	Y_WP:	0.500	X:	-0.005	Y:	0.104	Z:	0.045	yaw:	-29.273	yaw rate:	-2.716	Roll:	1.269	Pitch:	0.815	Yaw:	-44.365	Thrust:	100.000
Time:	6.057	Roll Set Point:	-0.057	Pitch Set Point:	-0.111	Yaw Set Point:	0.511	X_WP:	-0.062	Y_WP:	0.128	Y_WP:	0.500	X:	-0.005	Y:	0.104	Z:	0.045	yaw:	-29.273	yaw rate:	-2.716	Roll:	1.275	Pitch:	0.783	Yaw:	-43.998	Thrust:	100.000
Time:	6.073	Roll Set Point:	-0.057	Pitch Set Point:	-0.111	Yaw Set Point:	0.510	X_WP:	-0.062	Y_WP:	0.128	Y_WP:	0.500	X:	-0.005	Y:	0.104	Z:	0.045	yaw:	-29.232	yaw rate:	4.085	Roll:	1.283	Pitch:	0.721	Yaw:	-43.263	Thrust:	100.000
Time:	6.088	Roll Set Point:	-0.057	Pitch Set Point:	-0.111	Yaw Set Point:	0.511	X_WP:	-0.062	Y_WP:	0.128	Y_WP:	0.500	X:	-0.005	Y:	0.104	Z:	0.045	yaw:	-29.268	yaw rate:	-1.513	Roll:	1.275	Pitch:	0.830	Yaw:	-44.609	Thrust:	100.000
Time:	6.104	Roll Set Point:	-0.057	Pitch Set Point:	-0.111	Yaw Set Point:	0.511	X_WP:	-0.062	Y_WP:	0.128	Y_WP:	0.500	X:	-0.005	Y:	0.104	Z:	0.045	yaw:	-29.289	yaw rate:	-2.094	Roll:	1.279	Pitch:	0.810	Yaw:	-44.382	Thrust:	100.000
Time:	6.119	Roll Set Point:	-0.057	Pitch Set Point:	-0.111	Yaw Set Point:	0.511	X_WP:	-0.062	Y_WP:	0.128	Y_WP:	0.500	X:	-0.005	Y:	0.104	Z:	0.045	yaw:	-29.289	yaw rate:	-2.094	Roll:	1.285	Pitch:	0.783	Yaw:	-44.022	Thrust:	100.000
Time:	6.135	Roll Set Point:	-0.057	Pitch Set Point:	-0.111	Yaw Set Point:	0.511	X_WP:	-0.062	Y_WP:	0.128	Y_WP:	0.500	X:	-0.005	Y:	0.104	Z:	0.045	yaw:	-29.274	yaw rate:	-1.379	Roll:	1.288	Pitch:	0.776	Yaw:	-43.723	Thrust:	100.000
Time:	6.151	Roll Set Point:	-0.057	Pitch Set Point:	-0.111	Yaw Set Point:	0.512	X_WP:	-0.062	Y_WP:	0.128	Y_WP:	0.500	X:	-0.005	Y:	0.104	Z:	0.045	yaw:	-29.310	yaw rate:	-3.613	Roll:	1.286	Pitch:	0.795	Yaw:	-44.655	Thrust:	100.000
Time:	6.166	Roll Set Point:	-0.057	Pitch Set Point:	-0.111	Yaw Set Point:	0.510	X_WP:	-0.062	Y_WP:	0.128	Y_WP:	0.500	X:	-0.005	Y:	0.104	Z:	0.045	yaw:	-29.248	yaw rate:	6.232	Roll:	1.299	Pitch:	0.737	Yaw:	-42.910	Thrust:	100.000
Time:	6.182	Roll Set Point:	-0.057	Pitch Set Point:	-0.111	Yaw Set Point:	0.511	X_WP:	-0.062	Y_WP:	0.128	Y_WP:	0.500	X:	-0.005	Y:	0.104	Z:	0.045	yaw:	-29.278	yaw rate:	-3.046	Roll:	1.293	Pitch:	0.815	Yaw:	-44.520	Thrust:	100.000
Time:	6.198	Roll Set Point:	-0.057	Pitch Set Point:	-0.111	Yaw Set Point:	0.511	X_WP:	-0.062	Y_WP:	0.128	Y_WP:	0.500	X:	-0.005	Y:	0.104	Z:	0.045	yaw:	-29.278	yaw rate:	-3.046	Roll:	1.298	Pitch:	0.782	Yaw:	-43.999	Thrust:	100.000
Time:	6.213	Roll Set Point:	-0.057	Pitch Set Point:	-0.111	Yaw Set Point:	0.510	X_WP:	-0.062	Y_WP:	0.128	Y_WP:	0.500	X:	-0.005	Y:	0.104	Z:	0.045	yaw:	-29.248	yaw rate:	0.625	Roll:	1.304	Pitch:	0.723	Yaw:	-43.454	Thrust:	100.000
Time:	6.229	Roll Set Point:	-0.057	Pitch Set Point:	-0.111	Yaw Set Point:	0.510	X_WP:	-0.062	Y_WP:	0.128	Y_WP:	0.500	X:	-0.005	Y:	0.104	Z:	0.045	yaw:	-29.248	yaw rate:	0.625	Roll:	1.302	Pitch:	0.781	Yaw:	-43.963	Thrust:	100.000
