Time:	2.124	Roll Set Point:	-0.234	Pitch Set Point:	-0.122	Yaw Set Point:	-0.578	X_WP:	0.000	Y_WP:	0.000	Y_WP:	0.500	X:	0.099	Y:	0.096	Z:	0.399	yaw:	33.107	yaw rate:	1.454	Roll:	3.924	Pitch:	0.753	Yaw:	46.226	Thrust:	5.569
Time:	2.140	Roll Set Point:	-0.234	Pitch Set Point:	-0.122	Yaw Set Point:	-0.578	X_WP:	0.000	Y_WP:	0.000	Y_WP:	0.500	X:	0.099	Y:	0.096	Z:	0.399	yaw:	33.102	yaw rate:	-0.480	Roll:	3.890	Pitch:	0.761	Yaw:	46.320	Thrust:	5.854
Time:	2.155	Roll Set Point:	-0.234	Pitch Set Point:	-0.121	Yaw Set Point:	-0.579	X_WP:	0.000	Y_WP:	0.000	Y_WP:	0.500	X:	0.099	Y:	0.096	Z:	0.399	yaw:	33.158	yaw rate:	5.547	Roll:	3.930	Pitch:	0.582	Yaw:	47.588	Thrust:	5.592
Time:	2.171	Roll Set Point:	-0.234	Pitch Set Point:	-0.122	Yaw Set Point:	-0.577	X_WP:	0.000	Y_WP:	0.000	Y_WP:	0.500	X:	0.099	Y:	0.096	Z:	0.399	yaw:	33.084	yaw rate:	-7.353	Roll:	3.946	Pitch:	0.964	Yaw:	45.505	Thrust:	6.438
Time:	2.187	Roll Set Point:	-0.234	Pitch Set Point:	-0.122	Yaw Set Point:	-0.578	X_WP:	0.000	Y_WP:	0.000	Y_WP:	0.500	X:	0.099	Y:	0.096	Z:	0.399	yaw:	33.105	yaw rate:	2.049	Roll:	3.968	Pitch:	0.723	Yaw:	47.289	Thrust:	6.259
Time:	2.202	Roll Set Point:	-0.234	Pitch Set Point:	-0.122	Yaw Set Point:	-0.577	X_WP:	0.000	Y_WP:	0.000	Y_WP:	0.500	X:	0.099	Y:	0.096	Z:	0.399	yaw:	33.076	yaw rate:	-2.904	Roll:	3.920	Pitch:	0.770	Yaw:	46.599	Thrust:	6.557
Time:	2.218	Roll Set Point:	-0.234	Pitch Set Point:	-0.121	Yaw Set Point:	-0.579	X_WP:	0.000	Y_WP:	0.000	Y_WP:	0.500	X:	0.099	Y:	0.096	Z:	0.399	yaw:	33.175	yaw rate:	9.867	Roll:	3.959	Pitch:	0.575	Yaw:	49.057	Thrust:	6.590
Time:	2.233	Roll Set Point:	-0.234	Pitch Set Point:	-0.122	Yaw Set Point:	-0.578	X_WP:	0.000	Y_WP:	0.000	Y_WP:	0.500	X:	0.099	Y:	0.096	Z:	0.399	yaw:	33.104	yaw rate:	-7.076	Roll:	3.981	Pitch:	0.913	Yaw:	46.301	Thrust:	7.081
Time:	2.249	Roll Set Point:	-0.234	Pitch Set Point:	-0.122	Yaw Set Point:	-0.578	X_WP:	0.000	Y_WP:	0.000	Y_WP:	0.500	X:	0.099	Y:	0.096	Z:	0.399	yaw:	33.104	yaw rate:	-7.076	Roll:	3.966	Pitch:	0.761	Yaw:	47.667	Thrust:	7.089
Time:	2.265	Roll Set Point:	-0.234	Pitch Set Point:	-0.122	Yaw Set Point:	-0.577	X_WP:	0.000	Y_WP:	0.000	Y_WP:	0.500	X:	0.099	Y:	0.096	Z:	0.399	yaw:	33.060	yaw rate:	-4.390	Roll:	3.946	Pitch:	0.803	Yaw:	46.988	Thrust:	7.047
Time:	2.280	Roll Set Point:	-0.234	Pitch Set Point:	-0.121	Yaw Set Point:	-0.579	X_WP:	0.000	Y_WP:	0.000	Y_WP:	0.500	X:	0.099	Y:	0.096	Z:	0.399	yaw:	33.188	yaw rate:	12.844	Roll:	3.967	Pitch:	0.553	Yaw:	50.054	Thrust:	7.603
Time:	2.296	Roll Set Point:	-0.234	Pitch Set Point:	-0.122	Yaw Set Point:	-0.578	X_WP:	0.000	Y_WP:	0.000	Y_WP:	0.500	X:	0.099	Y:	0.096	Z:	0.399	yaw:	33.108	yaw rate:	-8.001	Roll:	4.027	Pitch:	0.934	Yaw:	46.450	Thrust:	7.666
Time:	2.312	Roll Set Point:	-0.234	Pitch Set Point:	-0.122	Yaw Set Point:	-0.578	X_WP:	0.000	Y_WP:	0.000	Y_WP:	0.500	X:	0.099	Y:	0.096	Z:	0.399	yaw:	33.108	yaw rate:	-8.001	Roll:	3.988	Pitch:	0.765	Yaw:	47.792	Thrust:	7.849
Time:	2.327	Roll Set Point:	-0.234	Pitch Set Point:	-0.122	Yaw Set Point:	-0.577	X_WP:	0.000	Y_WP:	0.000	Y_WP:	0.500	X:	0.099	Y:	0.096	Z:	0.399	yaw:	33.078	yaw rate:	-3.061	Roll:	3.966	Pitch:	0.840	Yaw:	47.234	Thrust:	8.015
Time:	2.343	Roll Set Point:	-0.234	Pitch Set Point:	-0.121	Yaw Set Point:	-0.579	X_WP:	0.000	Y_WP:	0.000	Y_WP:	0.500	X:	0.099	Y:	0.096	Z:	0.399	yaw:	33.173	yaw rate:	9.517	Roll:	3.971	Pitch:	0.522	Yaw:	49.475	Thrust:	8.146
Time:	2.374	Roll Set Point:	-0.234	Pitch Set Point:	-0.122	Yaw Set Point:	-0.577	X_WP:	0.000	Y_WP:	0.000	Y_WP:	0.500	X:	0.099	Y:	0.096	Z:	0.399	yaw:	33.083	yaw rate:	-9.003	Roll:	4.103	Pitch:	0.877	Yaw:	48.564	Thrust:	11.230
Time:	2.390	Roll Set Point:	-0.234	Pitch Set Point:	-0.122	Yaw Set Point:	-0.577	X_WP:	0.000	Y_WP:	0.000	Y_WP:	0.500	X:	0.099	Y:	0.096	Z:	0.399	yaw:	33.083	yaw rate:	-9.003	Roll:	4.008	Pitch:	0.770	Yaw:	47.755	Thrust:	8.603
Time:	2.405	Roll Set Point:	-0.234	Pitch Set Point:	-0.122	Yaw Set Point:	-0.578	X_WP:	0.000	Y_WP:	0.000	Y_WP:	0.500	X:	0.099	Y:	0.096	Z:	0.399	yaw:	33.100	yaw rate:	1.738	Roll:	3.991	Pitch:	0.700	Yaw:	48.070	Thrust:	8.982
Time:	2.421	Roll Set Point:	-0.234	Pitch Set Point:	-0.122	Yaw Set Point:	-0.578	X_WP:	0.000	Y_WP:	0.000	Y_WP:	0.500	X:	0.099	Y:	0.096	Z:	0.399	yaw:	33.097	yaw rate:	-0.273	Roll:	4.024	Pitch:	0.816	Yaw:	47.730	Thrust:	9.074
Time:	2.437	Roll Set Point:	-0.234	Pitch Set Point:	-0.122	Yaw Set Point:	-0.577	X_WP:	0.000	Y_WP:	0.000	Y_WP:	0.500	X:	0.099	Y:	0.096	Z:	0.399	yaw:	33.066	yaw rate:	-3.167	Roll:	4.030	Pitch:	0.808	Yaw:	47.201	Thrust:	8.950
Time:	2.452	Roll Set Point:	-0.234	Pitch Set Point:	-0.122	Yaw Set Point:	-0.578	X_WP:	0.000	Y_WP:	0.000	Y_WP:	0.500	X:	0.099	Y:	0.096	Z:	0.399	yaw:	33.137	yaw rate:	7.084	Roll:	4.043	Pitch:	0.727	Yaw:	49.017	Thrust:	9.604
Time:	2.468	Roll Set Point:	-0.234	Pitch Set Point:	-0.122	Yaw Set Point:	-0.578	X_WP:	0.000	Y_WP:	0.000	Y_WP:	0.500	X:	0.099	Y:	0.096	Z:	0.399	yaw:	33.096	yaw rate:	-4.084	Roll:	4.010	Pitch:	0.805	Yaw:	47.089	Thrust:	9.553
Time:	2.483	Roll Set Point:	-0.234	Pitch Set Point:	-0.122	Yaw Set Point:	-0.578	X_WP:	0.000	Y_WP:	0.000	Y_WP:	0.500	X:	0.099	Y:	0.096	Z:	0.399	yaw:	33.127	yaw rate:	3.106	Roll:	4.068	Pitch:	0.699	Yaw:	48.337	Thrust:	9.756
Time:	2.515	Roll Set Point:	-0.234	Pitch Set Point:	-0.122	Yaw Set Point:	-0.577	X_WP:	0.000	Y_WP:	0.000	Y_WP:	0.500	X:	0.099	Y:	0.096	Z:	0.399	yaw:	33.072	yaw rate:	-5.129	Roll:	4.155	Pitch:	0.857	Yaw:	48.847	Thrust:	14.214
Time:	2.530	Roll Set Point:	-0.234	Pitch Set Point:	-0.122	Yaw Set Point:	-0.578	X_WP:	0.000	Y_WP:	0.000	Y_WP:	0.500	X:	0.099	Y:	0.096	Z:	0.399	yaw:	33.092	yaw rate:	1.984	Roll:	4.041	Pitch:	0.730	Yaw:	48.100	Thrust:	10.307
Time:	2.546	Roll Set Point:	-0.235	Pitch Set Point:	-0.122	Yaw Set Point:	-0.578	X_WP:	0.000	Y_WP:	0.000	Y_WP:	0.500	X:	0.099	Y:	0.096	Z:	0.399	yaw:	33.100	yaw rate:	0.731	Roll:	4.085	Pitch:	0.725	Yaw:	47.901	Thrust:	10.111
Time:	2.562	Roll Set Point:	-0.234	Pitch Set Point:	-0.122	Yaw Set Point:	-0.578	X_WP:	0.000	Y_WP:	0.000	Y_WP:	0.500	X:	0.099	Y:	0.096	Z:	0.399	yaw:	33.094	yaw rate:	-0.521	Roll:	4.048	Pitch:	0.828	Yaw:	47.684	Thrust:	10.557
Time:	2.577	Roll Set Point:	-0.234	Pitch Set Point:	-0.122	Yaw Set Point:	-0.578	X_WP:	0.000	Y_WP:	0.000	Y_WP:	0.500	X:	0.099	Y:	0.096	Z:	0.399	yaw:	33.090	yaw rate:	-0.479	Roll:	4.070	Pitch:	0.775	Yaw:	47.684	Thrust:	10.635
Time:	2.593	Roll Set Point:	-0.234	Pitch Set Point:	-0.122	Yaw Set Point:	-0.578	X_WP:	0.000	Y_WP:	0.000	Y_WP:	0.500	X:	0.099	Y:	0.096	Z:	0.399	yaw:	33.090	yaw rate:	-0.479	Roll:	4.072	Pitch:	0.781	Yaw:	47.764	Thrust:	10.884
Time:	2.608	Roll Set Point:	-0.234	Pitch Set Point:	-0.122	Yaw Set Point:	-0.578	X_WP:	0.000	Y_WP:	0.000	Y_WP:	0.500	X:	0.099	Y:	0.096	Z:	0.399	yaw:	33.104	yaw rate:	1.442	Roll:	4.064	Pitch:	0.807	Yaw:	48.026	Thrust:	11.294
Time:	2.624	Roll Set Point:	-0.234	Pitch Set Point:	-0.122	Yaw Set Point:	-0.578	X_WP:	0.000	Y_WP:	0.000	Y_WP:	0.500	X:	0.099	Y:	0.096	Z:	0.399	yaw:	33.098	yaw rate:	-6.483	Roll:	4.100	Pitch:	0.777	Yaw:	47.679	Thrust:	11.242
Time:	2.640	Roll Set Point:	-0.234	Pitch Set Point:	-0.122	Yaw Set Point:	-0.577	X_WP:	0.000	Y_WP:	0.000	Y_WP:	0.500	X:	0.099	Y:	0.096	Z:	0.399	yaw:	33.079	yaw rate:	-1.913	Roll:	4.063	Pitch:	0.853	Yaw:	47.429	Thrust:	11.339
Time:	2.655	Roll Set Point:	-0.234	Pitch Set Point:	-0.122	Yaw Set Point:	-0.577	X_WP:	0.000	Y_WP:	0.000	Y_WP:	0.500	X:	0.099	Y:	0.096	Z:	0.399	yaw:	33.079	yaw rate:	-1.913	Roll:	4.092	Pitch:	0.788	Yaw:	47.750	Thrust:	11.644
Time:	2.671	Roll Set Point:	-0.234	Pitch Set Point:	-0.122	Yaw Set Point:	-0.579	X_WP:	0.000	Y_WP:	0.000	Y_WP:	0.500	X:	0.099	Y:	0.096	Z:	0.399	yaw:	33.166	yaw rate:	-0.950	Roll:	4.100	Pitch:	0.593	Yaw:	49.334	Thrust:	11.748
Time:	2.687	Roll Set Point:	-0.234	Pitch Set Point:	-0.122	Yaw Set Point:	-0.577	X_WP:	0.000	Y_WP:	0.000	Y_WP:	0.500	X:	0.099	Y:	0.096	Z:	0.399	yaw:	33.086	yaw rate:	-8.083	Roll:	4.117	Pitch:	0.922	Yaw:	46.404	Thrust:	12.090
Time:	2.702	Roll Set Point:	-0.234	Pitch Set Point:	-0.122	Yaw Set Point:	-0.577	X_WP:	0.000	Y_WP:	0.000	Y_WP:	0.500	X:	0.099	Y:	0.096	Z:	0.399	yaw:	33.033	yaw rate:	-5.244	Roll:	4.075	Pitch:	0.921	Yaw:	46.807	Thrust:	12.172
Time:	2.718	Roll Set Point:	-0.234	Pitch Set Point:	-0.122	Yaw Set Point:	-0.578	X_WP:	0.000	Y_WP:	0.000	Y_WP:	0.500	X:	0.099	Y:	0.096	Z:	0.399	yaw:	33.103	yaw rate:	6.960	Roll:	4.140	Pitch:	0.646	Yaw:	48.949	Thrust:	12.472
Time:	2.733	Roll Set Point:	-0.234	Pitch Set Point:	-0.122	Yaw Set Point:	-0.578	X_WP:	0.000	Y_WP:	0.000	Y_WP:	0.500	X:	0.099	Y:	0.096	Z:	0.399	yaw:	33.100	yaw rate:	-0.247	Roll:	4.117	Pitch:	0.762	Yaw:	47.738	Thrust:	12.632
Time:	2.765	Roll Set Point:	-0.234	Pitch Set Point:	-0.122	Yaw Set Point:	-0.577	X_WP:	0.000	Y_WP:	0.000	Y_WP:	0.500	X:	0.099	Y:	0.096	Z:	0.399	yaw:	33.070	yaw rate:	-3.050	Roll:	4.320	Pitch:	0.878	Yaw:	49.053	Thrust:	20.050
Time:	2.780	Roll Set Point:	-0.234	Pitch Set Point:	-0.122	Yaw Set Point:	-0.578	X_WP:	0.000	Y_WP:	0.000	Y_WP:	0.500	X:	0.099	Y:	0.096	Z:	0.399	yaw:	33.105	yaw rate:	3.550	Roll:	4.140	Pitch:	0.775	Yaw:	48.381	Thrust:	13.028
Time:	2.796	Roll Set Point:	-0.234	Pitch Set Point:	-0.122	Yaw Set Point:	-0.578	X_WP:	0.000	Y_WP:	0.000	Y_WP:	0.500	X:	0.099	Y:	0.096	Z:	0.399	yaw:	33.105	yaw rate:	3.550	Roll:	4.135	Pitch:	0.795	Yaw:	47.786	Thrust:	13.163
Time:	2.812	Roll Set Point:	-0.234	Pitch Set Point:	-0.122	Yaw Set Point:	-0.578	X_WP:	0.000	Y_WP:	0.000	Y_WP:	0.500	X:	0.099	Y:	0.096	Z:	0.399	yaw:	33.090	yaw rate:	-1.502	Roll:	4.152	Pitch:	0.746	Yaw:	47.514	Thrust:	13.271
Time:	2.827	Roll Set Point:	-0.234	Pitch Set Point:	-0.122	Yaw Set Point:	-0.578	X_WP:	0.000	Y_WP:	0.000	Y_WP:	0.500	X:	0.099	Y:	0.096	Z:	0.399	yaw:	33.090	yaw rate:	-1.502	Roll:	4.146	Pitch:	0.796	Yaw:	47.765	Thrust:	13.544
Time:	2.843	Roll Set Point:	-0.234	Pitch Set Point:	-0.122	Yaw Set Point:	-0.577	X_WP:	0.000	Y_WP:	0.000	Y_WP:	0.500	X:	0.099	Y:	0.096	Z:	0.399	yaw:	33.073	yaw rate:	-1.733	Roll:	4.135	Pitch:	0.810	Yaw:	47.451	Thrust:	13.688
Time:	2.859	Roll Set Point:	-0.234	Pitch Set Point:	-0.122	Yaw Set Point:	-0.577	X_WP:	0.000	Y_WP:	0.000	Y_WP:	0.500	X:	0.099	Y:	0.096	Z:	0.399	yaw:	33.068	yaw rate:	-0.526	Roll:	4.151	Pitch:	0.827	Yaw:	47.645	Thrust:	13.862
Time:	2.874	Roll Set Point:	-0.234	Pitch Set Point:	-0.122	Yaw Set Point:	-0.579	X_WP:	0.000	Y_WP:	0.000	Y_WP:	0.500	X:	0.099	Y:	0.096	Z:	0.399	yaw:	33.163	yaw rate:	9.581	Roll:	4.184	Pitch:	0.667	Yaw:	49.473	Thrust:	14.047
Time:	2.890	Roll Set Point:	-0.234	Pitch Set Point:	-0.122	Yaw Set Point:	-0.579	X_WP:	0.000	Y_WP:	0.000	Y_WP:	0.500	X:	0.099	Y:	0.096	Z:	0.399	yaw:	33.163	yaw rate:	9.581	Roll:	4.167	Pitch:	0.797	Yaw:	47.868	Thrust:	14.300
Time:	2.905	Roll Set Point:	-0.234	Pitch Set Point:	-0.122	Yaw Set Point:	-0.578	X_WP:	0.000	Y_WP:	0.000	Y_WP:	0.500	X:	0.099	Y:	0.096	Z:	0.399	yaw:	33.093	yaw rate:	0.668	Roll:	4.154	Pitch:	0.919	Yaw:	46.596	Thrust:	14.687
Time:	2.921	Roll Set Point:	-0.234	Pitch Set Point:	-0.122	Yaw Set Point:	-0.577	X_WP:	0.000	Y_WP:	0.000	Y_WP:	0.500	X:	0.099	Y:	0.096	Z:	0.399	yaw:	33.067	yaw rate:	-2.590	Roll:	4.188	Pitch:	0.803	Yaw:	47.300	Thrust:	14.549
Time:	2.937	Roll Set Point:	-0.234	Pitch Set Point:	-0.122	Yaw Set Point:	-0.578	X_WP:	0.000	Y_WP:	0.000	Y_WP:	0.500	X:	0.099	Y:	0.096	Z:	0.399	yaw:	33.090	yaw rate:	2.249	Roll:	4.186	Pitch:	0.775	Yaw:	48.142	Thrust:	14.983
Time:	2.952	Roll Set Point:	-0.234	Pitch Set Point:	-0.122	Yaw Set Point:	-0.578	X_WP:	0.000	Y_WP:	0.000	Y_WP:	0.500	X:	0.099	Y:	0.096	Z:	0.399	yaw:	33.090	yaw rate:	2.249	Roll:	4.188	Pitch:	0.804	Yaw:	47.765	Thrust:	15.063
Time:	2.968	Roll Set Point:	-0.234	Pitch Set Point:	-0.122	Yaw Set Point:	-0.578	X_WP:	0.000	Y_WP:	0.000	Y_WP:	0.500	X:	0.099	Y:	0.096	Z:	0.399	yaw:	33.104	yaw rate:	1.371	Roll:	4.187	Pitch:	0.745	Yaw:	48.014	Thrust:	15.219
Time:	2.984	Roll Set Point:	-0.234	Pitch Set Point:	-0.122	Yaw Set Point:	-0.578	X_WP:	0.000	Y_WP:	0.000	Y_WP:	0.500	X:	0.099	Y:	0.096	Z:	0.399	yaw:	33.104	yaw rate:	1.371	Roll:	4.198	Pitch:	0.804	Yaw:	47.784	Thrust:	15.442
Time:	2.999	Roll Set Point:	-0.234	Pitch Set Point:	-0.122	Yaw Set Point:	-0.578	X_WP:	0.000	Y_WP:	0.000	Y_WP:	0.500	X:	0.099	Y:	0.096	Z:	0.399	yaw:	33.118	yaw rate:	4.497	Roll:	4.231	Pitch:	0.817	Yaw:	48.035	Thrust:	15.672
Time:	3.015	Roll Set Point:	-0.234	Pitch Set Point:	-0.122	Yaw Set Point:	-0.579	X_WP:	0.000	Y_WP:	0.000	Y_WP:	0.500	X:	0.099	Y:	0.096	Z:	0.399	yaw:	33.191	yaw rate:	7.350	Roll:	4.199	Pitch:	0.704	Yaw:	49.137	Thrust:	15.730
Time:	3.030	Roll Set Point:	-0.234	Pitch Set Point:	-0.122	Yaw Set Point:	-0.577	X_WP:	0.000	Y_WP:	0.000	Y_WP:	0.500	X:	0.099	Y:	0.096	Z:	0.399	yaw:	33.084	yaw rate:	-10.735	Roll:	4.195	Pitch:	0.929	Yaw:	45.957	Thrust:	15.985
Time:	3.046	Roll Set Point:	-0.234	Pitch Set Point:	-0.122	Yaw Set Point:	-0.578	X_WP:	0.000	Y_WP:	0.000	Y_WP:	0.500	X:	0.099	Y:	0.096	Z:	0.399	yaw:	33.129	yaw rate:	4.503	Roll:	4.241	Pitch:	0.832	Yaw:	48.574	Thrust:	16.426
Time:	3.062	Roll Set Point:	-0.234	Pitch Set Point:	-0.122	Yaw Set Point:	-0.577	X_WP:	0.000	Y_WP:	0.000	Y_WP:	0.500	X:	0.099	Y:	0.096	Z:	0.399	yaw:	33.074	yaw rate:	-5.454	Roll:	4.199	Pitch:	0.847	Yaw:	46.829	Thrust:	16.242
Time:	3.077	Roll Set Point:	-0.234	Pitch Set Point:	-0.122	Yaw Set Point:	-0.578	X_WP:	0.000	Y_WP:	0.000	Y_WP:	0.500	X:	0.099	Y:	0.096	Z:	0.399	yaw:	33.104	yaw rate:	2.937	Roll:	4.233	Pitch:	0.760	Yaw:	48.276	Thrust:	16.677
Time:	3.093	Roll Set Point:	-0.234	Pitch Set Point:	-0.122	Yaw Set Point:	-0.579	X_WP:	0.000	Y_WP:	0.000	Y_WP:	0.500	X:	0.099	Y:	0.096	Z:	0.399	yaw:	33.151	yaw rate:	4.753	Roll:	4.220	Pitch:	0.751	Yaw:	48.647	Thrust:	16.588
Time:	3.109	Roll Set Point:	-0.234	Pitch Set Point:	-0.122	Yaw Set Point:	-0.578	X_WP:	0.000	Y_WP:	0.000	Y_WP:	0.500	X:	0.099	Y:	0.096	Z:	0.399	yaw:	33.101	yaw rate:	-4.994	Roll:	4.256	Pitch:	0.888	Yaw:	46.944	Thrust:	17.033
Time:	3.124	Roll Set Point:	-0.234	Pitch Set Point:	-0.122	Yaw Set Point:	-0.578	X_WP:	0.000	Y_WP:	0.000	Y_WP:	0.500	X:	0.099	Y:	0.096	Z:	0.399	yaw:	33.120	yaw rate:	1.867	Roll:	4.276	Pitch:	0.813	Yaw:	48.119	Thrust:	17.286
Time:	3.140	Roll Set Point:	-0.234	Pitch Set Point:	-0.122	Yaw Set Point:	-0.578	X_WP:	0.000	Y_WP:	0.000	Y_WP:	0.500	X:	0.099	Y:	0.096	Z:	0.399	yaw:	33.104	yaw rate:	-1.544	Roll:	4.240	Pitch:	0.814	Yaw:	47.529	Thrust:	17.347
Time:	3.155	Roll Set Point:	-0.234	Pitch Set Point:	-0.122	Yaw Set Point:	-0.578	X_WP:	0.000	Y_WP:	0.000	Y_WP:	0.500	X:	0.099	Y:	0.096	Z:	0.399	yaw:	33.130	yaw rate:	2.574	Roll:	4.256	Pitch:	0.766	Yaw:	48.251	Thrust:	17.565
Time:	3.171	Roll Set Point:	-0.234	Pitch Set Point:	-0.122	Yaw Set Point:	-0.577	X_WP:	0.000	Y_WP:	0.000	Y_WP:	0.500	X:	0.099	Y:	0.096	Z:	0.399	yaw:	33.081	yaw rate:	-4.910	Roll:	4.241	Pitch:	0.899	Yaw:	46.929	Thrust:	17.576
Time:	3.187	Roll Set Point:	-0.234	Pitch Set Point:	-0.122	Yaw Set Point:	-0.577	X_WP:	0.000	Y_WP:	0.000	Y_WP:	0.500	X:	0.099	Y:	0.096	Z:	0.399	yaw:	33.084	yaw rate:	0.346	Roll:	4.284	Pitch:	0.840	Yaw:	47.815	Thrust:	17.889
Time:	3.202	Roll Set Point:	-0.234	Pitch Set Point:	-0.122	Yaw Set Point:	-0.578	X_WP:	0.000	Y_WP:	0.000	Y_WP:	0.500	X:	0.099	Y:	0.096	Z:	0.399	yaw:	33.094	yaw rate:	0.977	Roll:	4.273	Pitch:	0.771	Yaw:	47.935	Thrust:	18.117
Time:	3.218	Roll Set Point:	-0.234	Pitch Set Point:	-0.122	Yaw Set Point:	-0.577	X_WP:	0.000	Y_WP:	0.000	Y_WP:	0.500	X:	0.099	Y:	0.096	Z:	0.399	yaw:	33.071	yaw rate:	-2.284	Roll:	4.245	Pitch:	0.854	Yaw:	47.358	Thrust:	18.261
Time:	3.234	Roll Set Point:	-0.234	Pitch Set Point:	-0.122	Yaw Set Point:	-0.579	X_WP:	0.000	Y_WP:	0.000	Y_WP:	0.500	X:	0.099	Y:	0.096	Z:	0.399	yaw:	33.147	yaw rate:	7.611	Roll:	4.333	Pitch:	0.700	Yaw:	49.120	Thrust:	18.626
Time:	3.249	Roll Set Point:	-0.234	Pitch Set Point:	-0.122	Yaw Set Point:	-0.578	X_WP:	0.000	Y_WP:	0.000	Y_WP:	0.500	X:	0.099	Y:	0.096	Z:	0.399	yaw:	33.125	yaw rate:	-2.298	Roll:	4.287	Pitch:	0.902	Yaw:	47.428	Thrust:	18.641
Time:	3.265	Roll Set Point:	-0.234	Pitch Set Point:	-0.122	Yaw Set Point:	-0.577	X_WP:	0.000	Y_WP:	0.000	Y_WP:	0.500	X:	0.099	Y:	0.096	Z:	0.399	yaw:	33.032	yaw rate:	-9.206	Roll:	4.258	Pitch:	0.931	Yaw:	46.142	Thrust:	18.579
Time:	3.280	Roll Set Point:	-0.234	Pitch Set Point:	-0.122	Yaw Set Point:	-0.579	X_WP:	0.000	Y_WP:	0.000	Y_WP:	0.500	X:	0.099	Y:	0.096	Z:	0.399	yaw:	33.176	yaw rate:	14.305	Roll:	4.311	Pitch:	0.590	Yaw:	50.281	Thrust:	19.143
Time:	3.296	Roll Set Point:	-0.234	Pitch Set Point:	-0.122	Yaw Set Point:	-0.577	X_WP:	0.000	Y_WP:	0.000	Y_WP:	0.500	X:	0.099	Y:	0.096	Z:	0.399	yaw:	33.073	yaw rate:	-10.238	Roll:	4.297	Pitch:	0.972	Yaw:	46.026	Thrust:	19.215
Time:	3.312	Roll Set Point:	-0.234	Pitch Set Point:	-0.122	Yaw Set Point:	-0.578	X_WP:	0.000	Y_WP:	0.000	Y_WP:	0.500	X:	0.099	Y:	0.096	Z:	0.399	yaw:	33.100	yaw rate:	2.700	Roll:	4.323	Pitch:	0.867	Yaw:	48.231	Thrust:	19.611
Time:	3.327	Roll Set Point:	-0.234	Pitch Set Point:	-0.122	Yaw Set Point:	-0.578	X_WP:	0.000	Y_WP:	0.000	Y_WP:	0.500	X:	0.099	Y:	0.096	Z:	0.399	yaw:	33.115	yaw rate:	1.482	Roll:	4.336	Pitch:	0.738	Yaw:	48.048	Thrust:	19.646
Time:	3.343	Roll Set Point:	-0.234	Pitch Set Point:	-0.122	Yaw Set Point:	-0.578	X_WP:	0.000	Y_WP:	0.000	Y_WP:	0.500	X:	0.099	Y:	0.096	Z:	0.399	yaw:	33.091	yaw rate:	-2.394	Roll:	4.292	Pitch:	0.874	Yaw:	47.365	Thrust:	19.833
Time:	3.359	Roll Set Point:	-0.234	Pitch Set Point:	-0.122	Yaw Set Point:	-0.578	X_WP:	0.000	Y_WP:	0.000	Y_WP:	0.500	X:	0.099	Y:	0.096	Z:	0.399	yaw:	33.141	yaw rate:	5.001	Roll:	4.343	Pitch:	0.729	Yaw:	48.674	Thrust:	19.974
Time:	3.374	Roll Set Point:	-0.234	Pitch Set Point:	-0.122	Yaw Set Point:	-0.577	X_WP:	0.000	Y_WP:	0.000	Y_WP:	0.500	X:	0.099	Y:	0.096	Z:	0.399	yaw:	33.059	yaw rate:	-8.218	Roll:	4.307	Pitch:	0.975	Yaw:	46.345	Thrust:	19.991
Time:	3.390	Roll Set Point:	-0.234	Pitch Set Point:	-0.122	Yaw Set Point:	-0.578	X_WP:	0.000	Y_WP:	0.000	Y_WP:	0.500	X:	0.099	Y:	0.096	Z:	0.399	yaw:	33.131	yaw rate:	7.210	Roll:	4.357	Pitch:	0.787	Yaw:	49.030	Thrust:	20.662
Time:	3.405	Roll Set Point:	-0.234	Pitch Set Point:	-0.122	Yaw Set Point:	-0.579	X_WP:	0.000	Y_WP:	0.000	Y_WP:	0.500	X:	0.099	Y:	0.096	Z:	0.399	yaw:	33.146	yaw rate:	1.511	Roll:	4.311	Pitch:	0.733	Yaw:	48.097	Thrust:	20.210
Time:	3.421	Roll Set Point:	-0.234	Pitch Set Point:	-0.122	Yaw Set Point:	-0.579	X_WP:	0.000	Y_WP:	0.000	Y_WP:	0.500	X:	0.099	Y:	0.096	Z:	0.399	yaw:	33.150	yaw rate:	0.394	Roll:	4.353	Pitch:	0.858	Yaw:	47.915	Thrust:	20.786
Time:	3.437	Roll Set Point:	-0.234	Pitch Set Point:	-0.122	Yaw Set Point:	-0.578	X_WP:	0.000	Y_WP:	0.000	Y_WP:	0.500	X:	0.099	Y:	0.096	Z:	0.399	yaw:	33.101	yaw rate:	-4.894	Roll:	4.370	Pitch:	0.906	Yaw:	46.961	Thrust:	21.103
Time:	3.452	Roll Set Point:	-0.234	Pitch Set Point:	-0.122	Yaw Set Point:	-0.577	X_WP:	0.000	Y_WP:	0.000	Y_WP:	0.500	X:	0.099	Y:	0.096	Z:	0.399	yaw:	33.083	yaw rate:	-1.796	Roll:	4.335	Pitch:	0.911	Yaw:	47.455	Thrust:	21.143
Time:	3.468	Roll Set Point:	-0.235	Pitch Set Point:	-0.122	Yaw Set Point:	-0.577	X_WP:	0.000	Y_WP:	0.000	Y_WP:	0.500	X:	0.099	Y:	0.096	Z:	0.399	yaw:	33.046	yaw rate:	-3.704	Roll:	4.362	Pitch:	0.777	Yaw:	47.083	Thrust:	21.136
Time:	3.484	Roll Set Point:	-0.234	Pitch Set Point:	-0.122	Yaw Set Point:	-0.578	X_WP:	0.000	Y_WP:	0.000	Y_WP:	0.500	X:	0.099	Y:	0.096	Z:	0.399	yaw:	33.094	yaw rate:	4.836	Roll:	4.380	Pitch:	0.857	Yaw:	48.581	Thrust:	21.818
Time:	3.499	Roll Set Point:	-0.234	Pitch Set Point:	-0.122	Yaw Set Point:	-0.577	X_WP:	0.000	Y_WP:	0.000	Y_WP:	0.500	X:	0.099	Y:	0.096	Z:	0.399	yaw:	33.081	yaw rate:	-1.331	Roll:	4.376	Pitch:	0.823	Yaw:	47.530	Thrust:	21.563
Time:	3.515	Roll Set Point:	-0.234	Pitch Set Point:	-0.121	Yaw Set Point:	-0.579	X_WP:	0.000	Y_WP:	0.000	Y_WP:	0.500	X:	0.099	Y:	0.096	Z:	0.399	yaw:	33.180	yaw rate:	9.903	Roll:	4.383	Pitch:	0.673	Yaw:	49.550	Thrust:	21.791
Time:	3.531	Roll Set Point:	-0.234	Pitch Set Point:	-0.122	Yaw Set Point:	-0.577	X_WP:	0.000	Y_WP:	0.000	Y_WP:	0.500	X:	0.099	Y:	0.096	Z:	0.399	yaw:	33.087	yaw rate:	-9.359	Roll:	4.360	Pitch:	1.003	Yaw:	46.198	Thrust:	22.227
Time:	3.546	Roll Set Point:	-0.234	Pitch Set Point:	-0.122	Yaw Set Point:	-0.578	X_WP:	0.000	Y_WP:	0.000	Y_WP:	0.500	X:	0.099	Y:	0.096	Z:	0.399	yaw:	33.094	yaw rate:	0.760	Roll:	4.424	Pitch:	0.886	Yaw:	47.895	Thrust:	22.405
Time:	3.562	Roll Set Point:	-0.234	Pitch Set Point:	-0.122	Yaw Set Point:	-0.578	X_WP:	0.000	Y_WP:	0.000	Y_WP:	0.500	X:	0.099	Y:	0.096	Z:	0.399	yaw:	33.097	yaw rate:	0.257	Roll:	4.387	Pitch:	0.800	Yaw:	47.817	Thrust:	22.384
Time:	3.577	Roll Set Point:	-0.234	Pitch Set Point:	-0.122	Yaw Set Point:	-0.577	X_WP:	0.000	Y_WP:	0.000	Y_WP:	0.500	X:	0.099	Y:	0.096	Z:	0.399	yaw:	33.088	yaw rate:	-0.917	Roll:	4.365	Pitch:	0.827	Yaw:	47.608	Thrust:	22.634
Time:	3.593	Roll Set Point:	-0.234	Pitch Set Point:	-0.122	Yaw Set Point:	-0.577	X_WP:	0.000	Y_WP:	0.000	Y_WP:	0.500	X:	0.099	Y:	0.096	Z:	0.399	yaw:	33.088	yaw rate:	-0.917	Roll:	4.404	Pitch:	0.845	Yaw:	47.762	Thrust:	22.847
Time:	3.609	Roll Set Point:	-0.234	Pitch Set Point:	-0.122	Yaw Set Point:	-0.577	X_WP:	0.000	Y_WP:	0.000	Y_WP:	0.500	X:	0.099	Y:	0.096	Z:	0.399	yaw:	33.064	yaw rate:	-10.431	Roll:	4.433	Pitch:	0.930	Yaw:	47.336	Thrust:	22.932
Time:	3.624	Roll Set Point:	-0.234	Pitch Set Point:	-0.122	Yaw Set Point:	-0.578	X_WP:	0.000	Y_WP:	0.000	Y_WP:	0.500	X:	0.099	Y:	0.096	Z:	0.399	yaw:	33.091	yaw rate:	2.738	Roll:	4.426	Pitch:	0.794	Yaw:	48.226	Thrust:	23.277
Time:	3.640	Roll Set Point:	-0.234	Pitch Set Point:	-0.122	Yaw Set Point:	-0.578	X_WP:	0.000	Y_WP:	0.000	Y_WP:	0.500	X:	0.099	Y:	0.096	Z:	0.399	yaw:	33.091	yaw rate:	2.738	Roll:	4.421	Pitch:	0.849	Yaw:	47.767	Thrust:	23.416
Time:	3.656	Roll Set Point:	-0.234	Pitch Set Point:	-0.122	Yaw Set Point:	-0.578	X_WP:	0.000	Y_WP:	0.000	Y_WP:	0.500	X:	0.099	Y:	0.096	Z:	0.399	yaw:	33.105	yaw rate:	1.393	Roll:	4.422	Pitch:	0.765	Yaw:	48.020	Thrust:	23.691
Time:	3.671	Roll Set Point:	-0.234	Pitch Set Point:	-0.122	Yaw Set Point:	-0.577	X_WP:	0.000	Y_WP:	0.000	Y_WP:	0.500	X:	0.099	Y:	0.096	Z:	0.399	yaw:	33.032	yaw rate:	-6.461	Roll:	4.398	Pitch:	1.065	Yaw:	46.447	Thrust:	23.627
Time:	3.687	Roll Set Point:	-0.234	Pitch Set Point:	-0.122	Yaw Set Point:	-0.577	X_WP:	0.000	Y_WP:	0.000	Y_WP:	0.500	X:	0.099	Y:	0.096	Z:	0.399	yaw:	33.082	yaw rate:	4.989	Roll:	4.472	Pitch:	0.759	Yaw:	48.590	Thrust:	24.155
Time:	3.702	Roll Set Point:	-0.234	Pitch Set Point:	-0.122	Yaw Set Point:	-0.578	X_WP:	0.000	Y_WP:	0.000	Y_WP:	0.500	X:	0.099	Y:	0.096	Z:	0.399	yaw:	33.114	yaw rate:	3.282	Roll:	4.444	Pitch:	0.778	Yaw:	48.348	Thrust:	24.199
Time:	3.718	Roll Set Point:	-0.234	Pitch Set Point:	-0.122	Yaw Set Point:	-0.578	X_WP:	0.000	Y_WP:	0.000	Y_WP:	0.500	X:	0.099	Y:	0.096	Z:	0.399	yaw:	33.136	yaw rate:	2.121	Roll:	4.395	Pitch:	0.795	Yaw:	48.184	Thrust:	24.085
Time:	3.734	Roll Set Point:	-0.234	Pitch Set Point:	-0.122	Yaw Set Point:	-0.577	X_WP:	0.000	Y_WP:	0.000	Y_WP:	0.500	X:	0.099	Y:	0.096	Z:	0.399	yaw:	33.059	yaw rate:	-7.694	Roll:	4.472	Pitch:	1.000	Yaw:	46.432	Thrust:	24.676
Time:	3.748	Roll Set Point:	-0.234	Pitch Set Point:	-0.122	Yaw Set Point:	-0.578	X_WP:	0.000	Y_WP:	0.000	Y_WP:	0.500	X:	0.099	Y:	0.096	Z:	0.399	yaw:	33.106	yaw rate:	4.754	Roll:	4.462	Pitch:	0.771	Yaw:	48.530	Thrust:	23.354
Time:	3.766	Roll Set Point:	-0.234	Pitch Set Point:	-0.121	Yaw Set Point:	-0.579	X_WP:	0.000	Y_WP:	0.000	Y_WP:	0.500	X:	0.099	Y:	0.096	Z:	0.399	yaw:	33.165	yaw rate:	5.848	Roll:	4.496	Pitch:	0.748	Yaw:	48.940	Thrust:	27.290
Time:	3.781	Roll Set Point:	-0.234	Pitch Set Point:	-0.121	Yaw Set Point:	-0.579	X_WP:	0.000	Y_WP:	0.000	Y_WP:	0.500	X:	0.099	Y:	0.096	Z:	0.399	yaw:	33.170	yaw rate:	0.554	Roll:	4.459	Pitch:	0.851	Yaw:	47.970	Thrust:	25.170
Time:	3.797	Roll Set Point:	-0.234	Pitch Set Point:	-0.122	Yaw Set Point:	-0.577	X_WP:	0.000	Y_WP:	0.000	Y_WP:	0.500	X:	0.099	Y:	0.096	Z:	0.399	yaw:	33.042	yaw rate:	-12.827	Roll:	4.485	Pitch:	1.120	Yaw:	45.549	Thrust:	25.400
Time:	3.813	Roll Set Point:	-0.234	Pitch Set Point:	-0.122	Yaw Set Point:	-0.578	X_WP:	0.000	Y_WP:	0.000	Y_WP:	0.500	X:	0.099	Y:	0.096	Z:	0.399	yaw:	33.125	yaw rate:	8.273	Roll:	4.532	Pitch:	0.706	Yaw:	49.199	Thrust:	25.591
Time:	3.828	Roll Set Point:	-0.234	Pitch Set Point:	-0.122	Yaw Set Point:	-0.578	X_WP:	0.000	Y_WP:	0.000	Y_WP:	0.500	X:	0.099	Y:	0.096	Z:	0.399	yaw:	33.125	yaw rate:	8.273	Roll:	4.485	Pitch:	0.860	Yaw:	47.813	Thrust:	25.695
Time:	3.844	Roll Set Point:	-0.234	Pitch Set Point:	-0.122	Yaw Set Point:	-0.577	X_WP:	0.000	Y_WP:	0.000	Y_WP:	0.500	X:	0.099	Y:	0.096	Z:	0.399	yaw:	33.069	yaw rate:	-5.521	Roll:	4.427	Pitch:	0.902	Yaw:	46.811	Thrust:	25.858
Time:	3.860	Roll Set Point:	-0.234	Pitch Set Point:	-0.122	Yaw Set Point:	-0.577	X_WP:	0.000	Y_WP:	0.000	Y_WP:	0.500	X:	0.099	Y:	0.096	Z:	0.399	yaw:	33.069	yaw rate:	-5.521	Roll:	4.494	Pitch:	0.863	Yaw:	47.736	Thrust:	26.074
Time:	3.875	Roll Set Point:	-0.234	Pitch Set Point:	-0.122	Yaw Set Point:	-0.577	X_WP:	0.000	Y_WP:	0.000	Y_WP:	0.500	X:	0.099	Y:	0.096	Z:	0.399	yaw:	33.058	yaw rate:	-1.148	Roll:	4.513	Pitch:	0.932	Yaw:	47.528	Thrust:	26.229
Time:	3.891	Roll Set Point:	-0.234	Pitch Set Point:	-0.122	Yaw Set Point:	-0.578	X_WP:	0.000	Y_WP:	0.000	Y_WP:	0.500	X:	0.099	Y:	0.096	Z:	0.399	yaw:	33.098	yaw rate:	3.491	Roll:	4.512	Pitch:	0.800	Yaw:	48.450	Thrust:	26.548
Time:	3.906	Roll Set Point:	-0.234	Pitch Set Point:	-0.122	Yaw Set Point:	-0.579	X_WP:	0.000	Y_WP:	0.000	Y_WP:	0.500	X:	0.099	Y:	0.096	Z:	0.399	yaw:	33.160	yaw rate:	6.176	Roll:	4.488	Pitch:	0.744	Yaw:	48.897	Thrust:	26.436
Time:	3.922	Roll Set Point:	-0.234	Pitch Set Point:	-0.122	Yaw Set Point:	-0.579	X_WP:	0.000	Y_WP:	0.000	Y_WP:	0.500	X:	0.099	Y:	0.096	Z:	0.399	yaw:	33.160	yaw rate:	6.176	Roll:	4.509	Pitch:	0.864	Yaw:	47.863	Thrust:	26.830
Time:	3.938	Roll Set Point:	-0.234	Pitch Set Point:	-0.122	Yaw Set Point:	-0.577	X_WP:	0.000	Y_WP:	0.000	Y_WP:	0.500	X:	0.099	Y:	0.096	Z:	0.399	yaw:	33.061	yaw rate:	-0.276	Roll:	4.533	Pitch:	1.038	Yaw:	46.064	Thrust:	27.011
Time:	3.953	Roll Set Point:	-0.234	Pitch Set Point:	-0.122	Yaw Set Point:	-0.579	X_WP:	0.000	Y_WP:	0.000	Y_WP:	0.500	X:	0.099	Y:	0.096	Z:	0.399	yaw:	33.192	yaw rate:	13.101	Roll:	4.533	Pitch:	0.668	Yaw:	50.102	Thrust:	27.430
Time:	3.969	Roll Set Point:	-0.234	Pitch Set Point:	-0.122	Yaw Set Point:	-0.578	X_WP:	0.000	Y_WP:	0.000	Y_WP:	0.500	X:	0.099	Y:	0.096	Z:	0.399	yaw:	33.092	yaw rate:	-9.969	Roll:	4.466	Pitch:	1.002	Yaw:	46.098	Thrust:	27.378
Time:	3.985	Roll Set Point:	-0.234	Pitch Set Point:	-0.122	Yaw Set Point:	-0.578	X_WP:	0.000	Y_WP:	0.000	Y_WP:	0.500	X:	0.099	Y:	0.096	Z:	0.399	yaw:	33.134	yaw rate:	4.161	Roll:	4.550	Pitch:	0.778	Yaw:	48.523	Thrust:	27.651
Time:	4.000	Roll Set Point:	-0.234	Pitch Set Point:	-0.122	Yaw Set Point:	-0.578	X_WP:	0.000	Y_WP:	0.000	Y_WP:	0.500	X:	0.099	Y:	0.096	Z:	0.399	yaw:	33.102	yaw rate:	-3.158	Roll:	4.517	Pitch:	0.969	Yaw:	47.253	Thrust:	27.760
Time:	4.016	Roll Set Point:	-0.234	Pitch Set Point:	-0.122	Yaw Set Point:	-0.577	X_WP:	0.000	Y_WP:	0.000	Y_WP:	0.500	X:	0.099	Y:	0.096	Z:	0.399	yaw:	33.046	yaw rate:	-5.609	Roll:	4.451	Pitch:	0.956	Yaw:	46.763	Thrust:	27.858
Time:	4.031	Roll Set Point:	-0.234	Pitch Set Point:	-0.122	Yaw Set Point:	-0.579	X_WP:	0.000	Y_WP:	0.000	Y_WP:	0.500	X:	0.099	Y:	0.096	Z:	0.399	yaw:	33.159	yaw rate:	11.339	Roll:	4.527	Pitch:	0.709	Yaw:	49.762	Thrust:	28.126
Time:	4.047	Roll Set Point:	-0.234	Pitch Set Point:	-0.122	Yaw Set Point:	-0.578	X_WP:	0.000	Y_WP:	0.000	Y_WP:	0.500	X:	0.099	Y:	0.096	Z:	0.399	yaw:	33.102	yaw rate:	-5.746	Roll:	4.525	Pitch:	0.933	Yaw:	46.819	Thrust:	28.379
Time:	4.063	Roll Set Point:	-0.234	Pitch Set Point:	-0.122	Yaw Set Point:	-0.578	X_WP:	0.000	Y_WP:	0.000	Y_WP:	0.500	X:	0.099	Y:	0.096	Z:	0.399	yaw:	33.106	yaw rate:	0.411	Roll:	4.524	Pitch:	0.912	Yaw:	47.856	Thrust:	28.576
Time:	4.078	Roll Set Point:	-0.234	Pitch Set Point:	-0.122	Yaw Set Point:	-0.577	X_WP:	0.000	Y_WP:	0.000	Y_WP:	0.500	X:	0.099	Y:	0.096	Z:	0.399	yaw:	33.068	yaw rate:	-3.857	Roll:	4.487	Pitch:	0.896	Yaw:	47.088	Thrust:	28.760
Time:	4.094	Roll Set Point:	-0.234	Pitch Set Point:	-0.121	Yaw Set Point:	-0.579	X_WP:	0.000	Y_WP:	0.000	Y_WP:	0.500	X:	0.099	Y:	0.096	Z:	0.399	yaw:	33.157	yaw rate:	8.935	Roll:	4.498	Pitch:	0.706	Yaw:	49.355	Thrust:	28.711
Time:	4.110	Roll Set Point:	-0.234	Pitch Set Point:	-0.122	Yaw Set Point:	-0.578	X_WP:	0.000	Y_WP:	0.000	Y_WP:	0.500	X:	0.099	Y:	0.096	Z:	0.399	yaw:	33.116	yaw rate:	-4.093	Roll:	4.525	Pitch:	0.989	Yaw:	47.115	Thrust:	29.324
Time:	4.125	Roll Set Point:	-0.234	Pitch Set Point:	-0.122	Yaw Set Point:	-0.578	X_WP:	0.000	Y_WP:	0.000	Y_WP:	0.500	X:	0.099	Y:	0.096	Z:	0.399	yaw:	33.116	yaw rate:	-4.093	Roll:	4.509	Pitch:	0.879	Yaw:	47.801	Thrust:	29.303
Time:	4.141	Roll Set Point:	-0.234	Pitch Set Point:	-0.122	Yaw Set Point:	-0.577	X_WP:	0.000	Y_WP:	0.000	Y_WP:	0.500	X:	0.099	Y:	0.096	Z:	0.399	yaw:	33.083	yaw rate:	-3.329	Roll:	4.526	Pitch:	0.973	Yaw:	47.201	Thrust:	29.544
Time:	4.156	Roll Set Point:	-0.234	Pitch Set Point:	-0.122	Yaw Set Point:	-0.577	X_WP:	0.000	Y_WP:	0.000	Y_WP:	0.500	X:	0.099	Y:	0.096	Z:	0.399	yaw:	33.081	yaw rate:	-0.123	Roll:	4.507	Pitch:	0.896	Yaw:	47.732	Thrust:	29.742
Time:	4.172	Roll Set Point:	-0.234	Pitch Set Point:	-0.121	Yaw Set Point:	-0.579	X_WP:	0.000	Y_WP:	0.000	Y_WP:	0.500	X:	0.099	Y:	0.096	Z:	0.399	yaw:	33.180	yaw rate:	0.386	Roll:	4.500	Pitch:	0.611	Yaw:	49.538	Thrust:	29.701
Time:	4.188	Roll Set Point:	-0.234	Pitch Set Point:	-0.122	Yaw Set Point:	-0.577	X_WP:	0.000	Y_WP:	0.000	Y_WP:	0.500	X:	0.099	Y:	0.096	Z:	0.399	yaw:	33.075	yaw rate:	-10.486	Roll:	4.502	Pitch:	1.173	Yaw:	45.976	Thrust:	30.081
Time:	4.203	Roll Set Point:	-0.234	Pitch Set Point:	-0.122	Yaw Set Point:	-0.577	X_WP:	0.000	Y_WP:	0.000	Y_WP:	0.500	X:	0.099	Y:	0.096	Z:	0.399	yaw:	33.079	yaw rate:	0.439	Roll:	4.525	Pitch:	0.850	Yaw:	47.827	Thrust:	30.241
Time:	4.219	Roll Set Point:	-0.234	Pitch Set Point:	-0.121	Yaw Set Point:	-0.580	X_WP:	0.000	Y_WP:	0.000	Y_WP:	0.500	X:	0.099	Y:	0.096	Z:	0.399	yaw:	33.217	yaw rate:	13.741	Roll:	4.513	Pitch:	0.602	Yaw:	50.244	Thrust:	30.572
Time:	4.235	Roll Set Point:	-0.234	Pitch Set Point:	-0.121	Yaw Set Point:	-0.579	X_WP:	0.000	Y_WP:	0.000	Y_WP:	0.500	X:	0.099	Y:	0.096	Z:	0.399	yaw:	33.178	yaw rate:	-3.910	Roll:	4.496	Pitch:	0.949	Yaw:	47.233	Thrust:	30.524
Time:	4.250	Roll Set Point:	-0.234	Pitch Set Point:	-0.122	Yaw Set Point:	-0.577	X_WP:	0.000	Y_WP:	0.000	Y_WP:	0.500	X:	0.099	Y:	0.096	Z:	0.399	yaw:	33.074	yaw rate:	-10.386	Roll:	4.510	Pitch:	1.118	Yaw:	45.995	Thrust:	30.786
Time:	4.266	Roll Set Point:	-0.234	Pitch Set Point:	-0.122	Yaw Set Point:	-0.578	X_WP:	0.000	Y_WP:	0.000	Y_WP:	0.500	X:	0.099	Y:	0.096	Z:	0.399	yaw:	33.090	yaw rate:	1.635	Roll:	4.532	Pitch:	0.840	Yaw:	48.042	Thrust:	31.103
Time:	4.281	Roll Set Point:	-0.234	Pitch Set Point:	-0.122	Yaw Set Point:	-0.577	X_WP:	0.000	Y_WP:	0.000	Y_WP:	0.500	X:	0.099	Y:	0.096	Z:	0.399	yaw:	33.082	yaw rate:	-0.830	Roll:	4.485	Pitch:	0.862	Yaw:	47.615	Thrust:	31.205
Time:	4.297	Roll Set Point:	-0.234	Pitch Set Point:	-0.122	Yaw Set Point:	-0.579	X_WP:	0.000	Y_WP:	0.000	Y_WP:	0.500	X:	0.099	Y:	0.096	Z:	0.399	yaw:	33.162	yaw rate:	8.059	Roll:	4.513	Pitch:	0.770	Yaw:	49.216	Thrust:	31.250
Time:	4.313	Roll Set Point:	-0.234	Pitch Set Point:	-0.122	Yaw Set Point:	-0.578	X_WP:	0.000	Y_WP:	0.000	Y_WP:	0.500	X:	0.099	Y:	0.096	Z:	0.399	yaw:	33.097	yaw rate:	-6.567	Roll:	4.501	Pitch:	0.992	Yaw:	46.669	Thrust:	31.659
Time:	4.328	Roll Set Point:	-0.234	Pitch Set Point:	-0.122	Yaw Set Point:	-0.577	X_WP:	0.000	Y_WP:	0.000	Y_WP:	0.500	X:	0.099	Y:	0.096	Z:	0.399	yaw:	33.061	yaw rate:	-3.609	Roll:	4.498	Pitch:	0.982	Yaw:	47.119	Thrust:	31.628
Time:	4.344	Roll Set Point:	-0.235	Pitch Set Point:	-0.122	Yaw Set Point:	-0.577	X_WP:	0.000	Y_WP:	0.000	Y_WP:	0.500	X:	0.099	Y:	0.096	Z:	0.399	yaw:	33.084	yaw rate:	2.293	Roll:	4.538	Pitch:	0.810	Yaw:	48.141	Thrust:	32.037
Time:	4.360	Roll Set Point:	-0.234	Pitch Set Point:	-0.121	Yaw Set Point:	-0.579	X_WP:	0.000	Y_WP:	0.000	Y_WP:	0.500	X:	0.099	Y:	0.096	Z:	0.399	yaw:	33.167	yaw rate:	8.390	Roll:	4.485	Pitch:	0.771	Yaw:	49.279	Thrust:	32.115
Time:	4.375	Roll Set Point:	-0.234	Pitch Set Point:	-0.122	Yaw Set Point:	-0.578	X_WP:	0.000	Y_WP:	0.000	Y_WP:	0.500	X:	0.099	Y:	0.096	Z:	0.399	yaw:	33.109	yaw rate:	-5.869	Roll:	4.525	Pitch:	0.974	Yaw:	46.807	Thrust:	32.506
Time:	4.391	Roll Set Point:	-0.234	Pitch Set Point:	-0.122	Yaw Set Point:	-0.578	X_WP:	0.000	Y_WP:	0.000	Y_WP:	0.500	X:	0.099	Y:	0.096	Z:	0.399	yaw:	33.099	yaw rate:	-0.976	Roll:	4.504	Pitch:	1.013	Yaw:	47.615	Thrust:	32.593
Time:	4.406	Roll Set Point:	-0.234	Pitch Set Point:	-0.122	Yaw Set Point:	-0.577	X_WP:	0.000	Y_WP:	0.000	Y_WP:	0.500	X:	0.099	Y:	0.096	Z:	0.399	yaw:	33.070	yaw rate:	-2.882	Roll:	4.504	Pitch:	0.859	Yaw:	47.250	Thrust:	32.553
Time:	4.422	Roll Set Point:	-0.234	Pitch Set Point:	-0.122	Yaw Set Point:	-0.577	X_WP:	0.000	Y_WP:	0.000	Y_WP:	0.500	X:	0.099	Y:	0.096	Z:	0.399	yaw:	33.070	yaw rate:	-2.882	Roll:	4.511	Pitch:	0.900	Yaw:	47.741	Thrust:	32.965
Time:	4.438	Roll Set Point:	-0.234	Pitch Set Point:	-0.122	Yaw Set Point:	-0.579	X_WP:	0.000	Y_WP:	0.000	Y_WP:	0.500	X:	0.099	Y:	0.096	Z:	0.399	yaw:	33.191	yaw rate:	12.093	Roll:	4.517	Pitch:	0.729	Yaw:	49.933	Thrust:	33.083
Time:	4.453	Roll Set Point:	-0.234	Pitch Set Point:	-0.121	Yaw Set Point:	-0.578	X_WP:	0.000	Y_WP:	0.000	Y_WP:	0.500	X:	0.099	Y:	0.096	Z:	0.399	yaw:	33.093	yaw rate:	-9.844	Roll:	4.506	Pitch:	0.978	Yaw:	46.120	Thrust:	33.143
Time:	4.469	Roll Set Point:	-0.234	Pitch Set Point:	-0.121	Yaw Set Point:	-0.578	X_WP:	0.000	Y_WP:	0.000	Y_WP:	0.500	X:	0.099	Y:	0.096	Z:	0.399	yaw:	33.093	yaw rate:	-9.844	Roll:	4.509	Pitch:	0.900	Yaw:	47.769	Thrust:	33.473
