Time:	2.035	Roll Set Point:	0.114	Pitch Set Point:	-0.117	Yaw Set Point:	-0.005	X_WP:	0.100	Y_WP:	0.000	Y_WP:	0.500	X:	-0.007	Y:	0.058	Z:	0.050	yaw:	0.308	yaw rate:	4.675	Roll:	-3.100	Pitch:	1.703	Yaw:	0.430	Thrust:	24.753
Time:	2.051	Roll Set Point:	0.114	Pitch Set Point:	-0.117	Yaw Set Point:	-0.006	X_WP:	0.100	Y_WP:	0.000	Y_WP:	0.500	X:	-0.007	Y:	0.058	Z:	0.050	yaw:	0.317	yaw rate:	0.849	Roll:	-3.090	Pitch:	1.721	Yaw:	0.583	Thrust:	25.583
Time:	2.062	Roll Set Point:	0.114	Pitch Set Point:	-0.117	Yaw Set Point:	-0.005	X_WP:	0.100	Y_WP:	0.000	Y_WP:	0.500	X:	-0.007	Y:	0.058	Z:	0.050	yaw:	0.310	yaw rate:	-0.545	Roll:	-3.121	Pitch:	1.691	Yaw:	0.279	Thrust:	25.935
Time:	2.073	Roll Set Point:	0.114	Pitch Set Point:	-0.117	Yaw Set Point:	-0.005	X_WP:	0.100	Y_WP:	0.000	Y_WP:	0.500	X:	-0.007	Y:	0.058	Z:	0.050	yaw:	0.310	yaw rate:	-0.545	Roll:	-3.109	Pitch:	1.708	Yaw:	0.436	Thrust:	26.540
Time:	2.085	Roll Set Point:	0.114	Pitch Set Point:	-0.117	Yaw Set Point:	-0.007	X_WP:	0.100	Y_WP:	0.000	Y_WP:	0.500	X:	-0.007	Y:	0.058	Z:	0.050	yaw:	0.410	yaw rate:	7.687	Roll:	-3.053	Pitch:	1.925	Yaw:	2.661	Thrust:	27.213
Time:	2.095	Roll Set Point:	0.115	Pitch Set Point:	-0.115	Yaw Set Point:	0.006	X_WP:	0.100	Y_WP:	0.000	Y_WP:	0.500	X:	-0.007	Y:	0.058	Z:	0.050	yaw:	-0.366	yaw rate:	-77.575	Roll:	-4.511	Pitch:	-1.221	Yaw:	-19.763	Thrust:	29.283
Time:	2.108	Roll Set Point:	0.116	Pitch Set Point:	-0.112	Yaw Set Point:	0.024	X_WP:	0.100	Y_WP:	0.000	Y_WP:	0.500	X:	-0.007	Y:	0.058	Z:	0.049	yaw:	-1.380	yaw rate:	-101.402	Roll:	-4.234	Pitch:	-1.731	Yaw:	-24.001	Thrust:	29.881
Time:	2.120	Roll Set Point:	0.114	Pitch Set Point:	-0.116	Yaw Set Point:	-0.000	X_WP:	0.100	Y_WP:	0.000	Y_WP:	0.500	X:	-0.007	Y:	0.058	Z:	0.050	yaw:	0.016	yaw rate:	139.643	Roll:	-1.411	Pitch:	5.784	Yaw:	29.158	Thrust:	27.199
Time:	2.130	Roll Set Point:	0.114	Pitch Set Point:	-0.117	Yaw Set Point:	-0.005	X_WP:	0.100	Y_WP:	0.000	Y_WP:	0.500	X:	-0.007	Y:	0.058	Z:	0.050	yaw:	0.271	yaw rate:	25.519	Roll:	-2.827	Pitch:	2.592	Yaw:	6.636	Thrust:	29.398
Time:	2.143	Roll Set Point:	0.114	Pitch Set Point:	-0.115	Yaw Set Point:	0.006	X_WP:	0.100	Y_WP:	0.000	Y_WP:	0.500	X:	-0.007	Y:	0.058	Z:	0.050	yaw:	-0.328	yaw rate:	-59.923	Roll:	-3.815	Pitch:	-0.011	Yaw:	-12.487	Thrust:	31.722
Time:	2.156	Roll Set Point:	0.114	Pitch Set Point:	-0.117	Yaw Set Point:	-0.006	X_WP:	0.100	Y_WP:	0.000	Y_WP:	0.500	X:	-0.007	Y:	0.058	Z:	0.050	yaw:	0.357	yaw rate:	68.472	Roll:	-2.375	Pitch:	3.609	Yaw:	15.396	Thrust:	30.360
Time:	2.166	Roll Set Point:	0.114	Pitch Set Point:	-0.117	Yaw Set Point:	-0.008	X_WP:	0.100	Y_WP:	0.000	Y_WP:	0.500	X:	-0.007	Y:	0.058	Z:	0.050	yaw:	0.441	yaw rate:	8.441	Roll:	-3.049	Pitch:	1.981	Yaw:	2.716	Thrust:	30.875
Time:	2.181	Roll Set Point:	0.115	Pitch Set Point:	-0.115	Yaw Set Point:	0.008	X_WP:	0.100	Y_WP:	0.000	Y_WP:	0.500	X:	-0.007	Y:	0.058	Z:	0.050	yaw:	-0.444	yaw rate:	-88.512	Roll:	-4.014	Pitch:	-0.500	Yaw:	-16.541	Thrust:	34.807
Time:	2.193	Roll Set Point:	0.114	Pitch Set Point:	-0.117	Yaw Set Point:	-0.007	X_WP:	0.100	Y_WP:	0.000	Y_WP:	0.500	X:	-0.007	Y:	0.058	Z:	0.050	yaw:	0.375	yaw rate:	26.177	Roll:	-2.454	Pitch:	3.836	Yaw:	17.624	Thrust:	32.596
Time:	2.204	Roll Set Point:	0.114	Pitch Set Point:	-0.117	Yaw Set Point:	-0.007	X_WP:	0.100	Y_WP:	0.000	Y_WP:	0.500	X:	-0.007	Y:	0.058	Z:	0.050	yaw:	0.375	yaw rate:	26.177	Roll:	-3.142	Pitch:	1.727	Yaw:	0.525	Thrust:	33.085
Time:	2.217	Roll Set Point:	0.114	Pitch Set Point:	-0.117	Yaw Set Point:	-0.004	X_WP:	0.100	Y_WP:	0.000	Y_WP:	0.500	X:	-0.007	Y:	0.058	Z:	0.050	yaw:	0.249	yaw rate:	-12.536	Roll:	-3.309	Pitch:	1.343	Yaw:	-2.266	Thrust:	35.843
Time:	2.228	Roll Set Point:	0.114	Pitch Set Point:	-0.117	Yaw Set Point:	-0.005	X_WP:	0.100	Y_WP:	0.000	Y_WP:	0.500	X:	-0.007	Y:	0.058	Z:	0.050	yaw:	0.313	yaw rate:	56.896	Roll:	-2.931	Pitch:	2.097	Yaw:	1.957	Thrust:	33.875
Time:	2.239	Roll Set Point:	0.114	Pitch Set Point:	-0.116	Yaw Set Point:	-0.002	X_WP:	0.100	Y_WP:	0.000	Y_WP:	0.500	X:	-0.007	Y:	0.058	Z:	0.050	yaw:	0.133	yaw rate:	-18.033	Roll:	-3.465	Pitch:	1.165	Yaw:	-3.902	Thrust:	35.581
Time:	2.251	Roll Set Point:	0.114	Pitch Set Point:	-0.117	Yaw Set Point:	-0.005	X_WP:	0.100	Y_WP:	0.000	Y_WP:	0.500	X:	-0.007	Y:	0.058	Z:	0.050	yaw:	0.294	yaw rate:	16.122	Roll:	-2.940	Pitch:	2.227	Yaw:	3.925	Thrust:	36.095
Time:	2.262	Roll Set Point:	0.114	Pitch Set Point:	-0.117	Yaw Set Point:	-0.003	X_WP:	0.100	Y_WP:	0.000	Y_WP:	0.500	X:	-0.007	Y:	0.058	Z:	0.050	yaw:	0.189	yaw rate:	-10.470	Roll:	-3.323	Pitch:	1.406	Yaw:	-2.206	Thrust:	36.381
Time:	2.278	Roll Set Point:	0.115	Pitch Set Point:	-0.115	Yaw Set Point:	0.008	X_WP:	0.100	Y_WP:	0.000	Y_WP:	0.500	X:	-0.007	Y:	0.058	Z:	0.050	yaw:	-0.450	yaw rate:	-63.907	Roll:	-3.876	Pitch:	-0.085	Yaw:	-11.373	Thrust:	39.980
Time:	2.291	Roll Set Point:	0.114	Pitch Set Point:	-0.117	Yaw Set Point:	-0.006	X_WP:	0.100	Y_WP:	0.000	Y_WP:	0.500	X:	-0.007	Y:	0.058	Z:	0.050	yaw:	0.338	yaw rate:	59.384	Roll:	-2.584	Pitch:	3.414	Yaw:	15.720	Thrust:	41.626
Time:	2.301	Roll Set Point:	0.114	Pitch Set Point:	-0.117	Yaw Set Point:	-0.006	X_WP:	0.100	Y_WP:	0.000	Y_WP:	0.500	X:	-0.007	Y:	0.058	Z:	0.050	yaw:	0.338	yaw rate:	59.384	Roll:	-3.158	Pitch:	1.737	Yaw:	0.479	Thrust:	36.665
Time:	2.318	Roll Set Point:	0.114	Pitch Set Point:	-0.117	Yaw Set Point:	-0.005	X_WP:	0.100	Y_WP:	0.000	Y_WP:	0.500	X:	-0.007	Y:	0.058	Z:	0.050	yaw:	0.263	yaw rate:	-7.525	Roll:	-3.375	Pitch:	1.425	Yaw:	-0.847	Thrust:	42.687
Time:	2.328	Roll Set Point:	0.115	Pitch Set Point:	-0.114	Yaw Set Point:	0.015	X_WP:	0.100	Y_WP:	0.000	Y_WP:	0.500	X:	-0.007	Y:	0.058	Z:	0.050	yaw:	-0.846	yaw rate:	-115.007	Roll:	-4.601	Pitch:	-1.537	Yaw:	-28.222	Thrust:	42.321
Time:	2.340	Roll Set Point:	0.114	Pitch Set Point:	-0.117	Yaw Set Point:	-0.003	X_WP:	0.100	Y_WP:	0.000	Y_WP:	0.500	X:	-0.007	Y:	0.058	Z:	0.050	yaw:	0.184	yaw rate:	102.963	Roll:	-1.617	Pitch:	5.180	Yaw:	22.663	Thrust:	38.795
Time:	2.352	Roll Set Point:	0.114	Pitch Set Point:	-0.117	Yaw Set Point:	-0.005	X_WP:	0.100	Y_WP:	0.000	Y_WP:	0.500	X:	-0.007	Y:	0.058	Z:	0.050	yaw:	0.282	yaw rate:	9.790	Roll:	-3.145	Pitch:	1.884	Yaw:	2.532	Thrust:	42.584
Time:	2.364	Roll Set Point:	0.114	Pitch Set Point:	-0.117	Yaw Set Point:	-0.005	X_WP:	0.100	Y_WP:	0.000	Y_WP:	0.500	X:	-0.007	Y:	0.058	Z:	0.050	yaw:	0.279	yaw rate:	-0.337	Roll:	-3.199	Pitch:	1.720	Yaw:	0.318	Thrust:	40.999
Time:	2.382	Roll Set Point:	0.114	Pitch Set Point:	-0.117	Yaw Set Point:	-0.005	X_WP:	0.100	Y_WP:	0.000	Y_WP:	0.500	X:	-0.007	Y:	0.058	Z:	0.050	yaw:	0.265	yaw rate:	-10.815	Roll:	-3.256	Pitch:	1.755	Yaw:	0.193	Thrust:	51.968
Time:	2.394	Roll Set Point:	0.114	Pitch Set Point:	-0.117	Yaw Set Point:	-0.005	X_WP:	0.100	Y_WP:	0.000	Y_WP:	0.500	X:	-0.007	Y:	0.058	Z:	0.050	yaw:	0.270	yaw rate:	0.502	Roll:	-3.035	Pitch:	1.945	Yaw:	0.494	Thrust:	44.235
Time:	2.405	Roll Set Point:	0.115	Pitch Set Point:	-0.115	Yaw Set Point:	0.011	X_WP:	0.100	Y_WP:	0.000	Y_WP:	0.500	X:	-0.007	Y:	0.058	Z:	0.049	yaw:	-0.609	yaw rate:	-87.928	Roll:	-4.621	Pitch:	-1.326	Yaw:	-21.710	Thrust:	44.812
Time:	2.419	Roll Set Point:	0.114	Pitch Set Point:	-0.115	Yaw Set Point:	0.007	X_WP:	0.100	Y_WP:	0.000	Y_WP:	0.500	X:	-0.007	Y:	0.058	Z:	0.050	yaw:	-0.405	yaw rate:	20.422	Roll:	-2.715	Pitch:	2.418	Yaw:	3.395	Thrust:	45.380
Time:	2.429	Roll Set Point:	0.114	Pitch Set Point:	-0.116	Yaw Set Point:	-0.001	X_WP:	0.100	Y_WP:	0.000	Y_WP:	0.500	X:	-0.007	Y:	0.058	Z:	0.050	yaw:	0.082	yaw rate:	48.634	Roll:	-2.614	Pitch:	3.163	Yaw:	12.187	Thrust:	43.165
Time:	2.444	Roll Set Point:	0.114	Pitch Set Point:	-0.116	Yaw Set Point:	-0.001	X_WP:	0.100	Y_WP:	0.000	Y_WP:	0.500	X:	-0.007	Y:	0.058	Z:	0.050	yaw:	0.047	yaw rate:	-3.463	Roll:	-3.279	Pitch:	1.723	Yaw:	-0.570	Thrust:	49.681
Time:	2.465	Roll Set Point:	0.114	Pitch Set Point:	-0.117	Yaw Set Point:	-0.002	X_WP:	0.100	Y_WP:	0.000	Y_WP:	0.500	X:	-0.007	Y:	0.058	Z:	0.050	yaw:	0.109	yaw rate:	-17.552	Roll:	-3.179	Pitch:	1.993	Yaw:	0.940	Thrust:	63.707
Time:	2.483	Roll Set Point:	0.114	Pitch Set Point:	-0.117	Yaw Set Point:	-0.004	X_WP:	0.100	Y_WP:	0.000	Y_WP:	0.500	X:	-0.007	Y:	0.058	Z:	0.050	yaw:	0.236	yaw rate:	12.686	Roll:	-3.246	Pitch:	1.981	Yaw:	2.134	Thrust:	59.547
Time:	2.495	Roll Set Point:	0.114	Pitch Set Point:	-0.116	Yaw Set Point:	0.001	X_WP:	0.100	Y_WP:	0.000	Y_WP:	0.500	X:	-0.007	Y:	0.058	Z:	0.050	yaw:	-0.043	yaw rate:	-29.008	Roll:	-3.514	Pitch:	0.972	Yaw:	-5.872	Thrust:	49.224
Time:	2.510	Roll Set Point:	0.114	Pitch Set Point:	-0.117	Yaw Set Point:	-0.001	X_WP:	0.100	Y_WP:	0.000	Y_WP:	0.500	X:	-0.007	Y:	0.058	Z:	0.050	yaw:	0.072	yaw rate:	11.530	Roll:	-3.008	Pitch:	2.189	Yaw:	2.342	Thrust:	52.059
Time:	2.521	Roll Set Point:	0.114	Pitch Set Point:	-0.116	Yaw Set Point:	-0.003	X_WP:	0.100	Y_WP:	0.000	Y_WP:	0.500	X:	-0.007	Y:	0.058	Z:	0.050	yaw:	0.178	yaw rate:	10.588	Roll:	-3.367	Pitch:	1.832	Yaw:	2.563	Thrust:	49.465
Time:	2.535	Roll Set Point:	0.115	Pitch Set Point:	-0.115	Yaw Set Point:	0.015	X_WP:	0.100	Y_WP:	0.000	Y_WP:	0.500	X:	-0.007	Y:	0.058	Z:	0.050	yaw:	-0.832	yaw rate:	-101.051	Roll:	-4.008	Pitch:	-0.534	Yaw:	-19.556	Thrust:	55.972
Time:	2.546	Roll Set Point:	0.114	Pitch Set Point:	-0.117	Yaw Set Point:	-0.004	X_WP:	0.100	Y_WP:	0.000	Y_WP:	0.500	X:	-0.007	Y:	0.058	Z:	0.050	yaw:	0.210	yaw rate:	104.220	Roll:	-1.970	Pitch:	4.987	Yaw:	25.038	Thrust:	46.627
Time:	2.557	Roll Set Point:	0.114	Pitch Set Point:	-0.117	Yaw Set Point:	-0.003	X_WP:	0.100	Y_WP:	0.000	Y_WP:	0.500	X:	-0.007	Y:	0.058	Z:	0.050	yaw:	0.167	yaw rate:	-4.254	Roll:	-3.142	Pitch:	1.632	Yaw:	-0.816	Thrust:	47.398
Time:	2.567	Roll Set Point:	0.114	Pitch Set Point:	-0.117	Yaw Set Point:	-0.001	X_WP:	0.100	Y_WP:	0.000	Y_WP:	0.500	X:	-0.007	Y:	0.058	Z:	0.050	yaw:	0.051	yaw rate:	-11.591	Roll:	-3.279	Pitch:	1.630	Yaw:	-2.947	Thrust:	46.239
Time:	2.583	Roll Set Point:	0.114	Pitch Set Point:	-0.115	Yaw Set Point:	0.010	X_WP:	0.100	Y_WP:	0.000	Y_WP:	0.500	X:	-0.007	Y:	0.058	Z:	0.050	yaw:	-0.580	yaw rate:	-63.090	Roll:	-3.775	Pitch:	0.324	Yaw:	-11.415	Thrust:	59.871
Time:	2.593	Roll Set Point:	0.114	Pitch Set Point:	-0.116	Yaw Set Point:	0.006	X_WP:	0.100	Y_WP:	0.000	Y_WP:	0.500	X:	-0.007	Y:	0.058	Z:	0.051	yaw:	-0.347	yaw rate:	-34.689	Roll:	-3.138	Pitch:	2.313	Yaw:	5.054	Thrust:	50.616
Time:	2.604	Roll Set Point:	0.113	Pitch Set Point:	-0.117	Yaw Set Point:	0.005	X_WP:	0.100	Y_WP:	0.000	Y_WP:	0.500	X:	-0.007	Y:	0.059	Z:	0.051	yaw:	-0.261	yaw rate:	8.517	Roll:	-2.519	Pitch:	2.399	Yaw:	1.662	Thrust:	49.965
Time:	2.617	Roll Set Point:	0.113	Pitch Set Point:	-0.115	Yaw Set Point:	0.023	X_WP:	0.100	Y_WP:	0.000	Y_WP:	0.500	X:	-0.006	Y:	0.059	Z:	0.051	yaw:	-1.294	yaw rate:	-103.245	Roll:	-4.071	Pitch:	-0.957	Yaw:	-23.364	Thrust:	56.235
Time:	2.628	Roll Set Point:	0.113	Pitch Set Point:	-0.115	Yaw Set Point:	0.019	X_WP:	0.100	Y_WP:	0.000	Y_WP:	0.500	X:	-0.006	Y:	0.059	Z:	0.051	yaw:	-1.098	yaw rate:	19.545	Roll:	-2.981	Pitch:	2.257	Yaw:	2.902	Thrust:	52.397
Time:	2.639	Roll Set Point:	0.113	Pitch Set Point:	-0.116	Yaw Set Point:	0.010	X_WP:	0.100	Y_WP:	0.000	Y_WP:	0.500	X:	-0.006	Y:	0.059	Z:	0.052	yaw:	-0.598	yaw rate:	50.036	Roll:	-2.637	Pitch:	3.091	Yaw:	11.601	Thrust:	50.367
Time:	2.653	Roll Set Point:	0.112	Pitch Set Point:	-0.116	Yaw Set Point:	0.010	X_WP:	0.100	Y_WP:	0.000	Y_WP:	0.500	X:	-0.006	Y:	0.059	Z:	0.052	yaw:	-0.600	yaw rate:	-0.220	Roll:	-2.936	Pitch:	1.988	Yaw:	-0.888	Thrust:	60.067
Time:	2.665	Roll Set Point:	0.112	Pitch Set Point:	-0.116	Yaw Set Point:	0.011	X_WP:	0.100	Y_WP:	0.000	Y_WP:	0.500	X:	-0.006	Y:	0.059	Z:	0.053	yaw:	-0.630	yaw rate:	-2.954	Roll:	-3.102	Pitch:	1.750	Yaw:	-1.552	Thrust:	55.283
Time:	2.680	Roll Set Point:	0.111	Pitch Set Point:	-0.117	Yaw Set Point:	0.006	X_WP:	0.100	Y_WP:	0.000	Y_WP:	0.500	X:	-0.005	Y:	0.059	Z:	0.053	yaw:	-0.342	yaw rate:	28.827	Roll:	-2.240	Pitch:	2.513	Yaw:	4.698	Thrust:	62.370
Time:	2.693	Roll Set Point:	0.111	Pitch Set Point:	-0.116	Yaw Set Point:	0.018	X_WP:	0.100	Y_WP:	0.000	Y_WP:	0.500	X:	-0.005	Y:	0.059	Z:	0.053	yaw:	-1.003	yaw rate:	-66.139	Roll:	-3.629	Pitch:	0.345	Yaw:	-14.157	Thrust:	61.067
Time:	2.703	Roll Set Point:	0.110	Pitch Set Point:	-0.117	Yaw Set Point:	0.012	X_WP:	0.100	Y_WP:	0.000	Y_WP:	0.500	X:	-0.005	Y:	0.059	Z:	0.053	yaw:	-0.665	yaw rate:	33.786	Roll:	-2.364	Pitch:	2.959	Yaw:	7.879	Thrust:	55.546
Time:	2.717	Roll Set Point:	0.110	Pitch Set Point:	-0.116	Yaw Set Point:	0.013	X_WP:	0.100	Y_WP:	0.000	Y_WP:	0.500	X:	-0.005	Y:	0.059	Z:	0.053	yaw:	-0.768	yaw rate:	-10.256	Roll:	-3.116	Pitch:	1.371	Yaw:	-2.944	Thrust:	65.203
Time:	2.729	Roll Set Point:	0.107	Pitch Set Point:	-0.117	Yaw Set Point:	0.006	X_WP:	0.100	Y_WP:	0.000	Y_WP:	0.500	X:	-0.003	Y:	0.059	Z:	0.054	yaw:	-0.365	yaw rate:	-7.232	Roll:	-1.232	Pitch:	2.842	Yaw:	8.432	Thrust:	59.174
Time:	2.742	Roll Set Point:	0.106	Pitch Set Point:	-0.117	Yaw Set Point:	0.005	X_WP:	0.100	Y_WP:	0.000	Y_WP:	0.500	X:	-0.003	Y:	0.059	Z:	0.054	yaw:	-0.313	yaw rate:	5.190	Roll:	-2.354	Pitch:	1.962	Yaw:	0.619	Thrust:	61.535
Time:	2.753	Roll Set Point:	0.106	Pitch Set Point:	-0.116	Yaw Set Point:	0.015	X_WP:	0.100	Y_WP:	0.000	Y_WP:	0.500	X:	-0.002	Y:	0.059	Z:	0.054	yaw:	-0.850	yaw rate:	-53.762	Roll:	-3.320	Pitch:	-0.013	Yaw:	-13.428	Thrust:	60.018
Time:	2.764	Roll Set Point:	0.104	Pitch Set Point:	-0.117	Yaw Set Point:	0.006	X_WP:	0.100	Y_WP:	0.000	Y_WP:	0.500	X:	-0.002	Y:	0.059	Z:	0.054	yaw:	-0.370	yaw rate:	48.071	Roll:	-1.386	Pitch:	3.474	Yaw:	10.724	Thrust:	57.073
Time:	2.780	Roll Set Point:	0.102	Pitch Set Point:	-0.117	Yaw Set Point:	0.006	X_WP:	0.100	Y_WP:	0.000	Y_WP:	0.500	X:	-0.001	Y:	0.059	Z:	0.055	yaw:	-0.327	yaw rate:	4.258	Roll:	-2.211	Pitch:	1.888	Yaw:	0.243	Thrust:	69.256
Time:	2.794	Roll Set Point:	0.099	Pitch Set Point:	-0.116	Yaw Set Point:	0.007	X_WP:	0.100	Y_WP:	0.000	Y_WP:	0.500	X:	0.001	Y:	0.058	Z:	0.056	yaw:	-0.412	yaw rate:	16.323	Roll:	-1.456	Pitch:	1.229	Yaw:	-2.245	Thrust:	65.740
Time:	2.805	Roll Set Point:	0.099	Pitch Set Point:	-0.116	Yaw Set Point:	0.007	X_WP:	0.100	Y_WP:	0.000	Y_WP:	0.500	X:	0.001	Y:	0.058	Z:	0.056	yaw:	-0.412	yaw rate:	16.323	Roll:	-3.077	Pitch:	1.773	Yaw:	-0.607	Thrust:	60.680
Time:	2.817	Roll Set Point:	0.095	Pitch Set Point:	-0.116	Yaw Set Point:	0.013	X_WP:	0.100	Y_WP:	0.000	Y_WP:	0.500	X:	0.003	Y:	0.059	Z:	0.058	yaw:	-0.734	yaw rate:	-18.834	Roll:	-0.320	Pitch:	1.379	Yaw:	-7.543	Thrust:	63.225
Time:	2.828	Roll Set Point:	0.091	Pitch Set Point:	-0.117	Yaw Set Point:	0.007	X_WP:	0.100	Y_WP:	0.000	Y_WP:	0.500	X:	0.005	Y:	0.059	Z:	0.060	yaw:	-0.391	yaw rate:	34.324	Roll:	0.499	Pitch:	2.669	Yaw:	7.544	Thrust:	53.904
Time:	2.840	Roll Set Point:	0.088	Pitch Set Point:	-0.116	Yaw Set Point:	0.011	X_WP:	0.100	Y_WP:	0.000	Y_WP:	0.500	X:	0.006	Y:	0.059	Z:	0.061	yaw:	-0.605	yaw rate:	-21.384	Roll:	-0.859	Pitch:	1.342	Yaw:	-5.538	Thrust:	60.937
Time:	2.853	Roll Set Point:	0.085	Pitch Set Point:	-0.116	Yaw Set Point:	0.016	X_WP:	0.100	Y_WP:	0.000	Y_WP:	0.500	X:	0.008	Y:	0.059	Z:	0.062	yaw:	-0.903	yaw rate:	-29.774	Roll:	-1.649	Pitch:	0.857	Yaw:	-7.526	Thrust:	63.123
Time:	2.863	Roll Set Point:	0.082	Pitch Set Point:	-0.116	Yaw Set Point:	0.007	X_WP:	0.100	Y_WP:	0.000	Y_WP:	0.500	X:	0.009	Y:	0.059	Z:	0.064	yaw:	-0.411	yaw rate:	49.109	Roll:	0.235	Pitch:	3.129	Yaw:	11.555	Thrust:	53.498
Time:	2.878	Roll Set Point:	0.080	Pitch Set Point:	-0.114	Yaw Set Point:	0.017	X_WP:	0.100	Y_WP:	0.000	Y_WP:	0.500	X:	0.011	Y:	0.058	Z:	0.065	yaw:	-0.979	yaw rate:	-56.716	Roll:	-1.456	Pitch:	-0.253	Yaw:	-11.630	Thrust:	68.826
Time:	2.892	Roll Set Point:	0.076	Pitch Set Point:	-0.114	Yaw Set Point:	0.013	X_WP:	0.100	Y_WP:	0.000	Y_WP:	0.500	X:	0.012	Y:	0.058	Z:	0.067	yaw:	-0.755	yaw rate:	22.323	Roll:	-1.163	Pitch:	2.054	Yaw:	2.998	Thrust:	73.542
Time:	2.904	Roll Set Point:	0.068	Pitch Set Point:	-0.115	Yaw Set Point:	0.007	X_WP:	0.100	Y_WP:	0.000	Y_WP:	0.500	X:	0.016	Y:	0.058	Z:	0.071	yaw:	-0.403	yaw rate:	1.072	Roll:	3.125	Pitch:	2.372	Yaw:	7.054	Thrust:	52.098
Time:	2.918	Roll Set Point:	0.065	Pitch Set Point:	-0.113	Yaw Set Point:	0.016	X_WP:	0.100	Y_WP:	0.000	Y_WP:	0.500	X:	0.018	Y:	0.057	Z:	0.074	yaw:	-0.891	yaw rate:	-48.842	Roll:	-0.570	Pitch:	0.053	Yaw:	-10.750	Thrust:	64.613
Time:	2.928	Roll Set Point:	0.061	Pitch Set Point:	-0.112	Yaw Set Point:	0.024	X_WP:	0.100	Y_WP:	0.000	Y_WP:	0.500	X:	0.020	Y:	0.057	Z:	0.076	yaw:	-1.352	yaw rate:	-46.135	Roll:	-0.039	Pitch:	0.785	Yaw:	-13.401	Thrust:	56.892
Time:	2.939	Roll Set Point:	0.057	Pitch Set Point:	-0.112	Yaw Set Point:	0.016	X_WP:	0.100	Y_WP:	0.000	Y_WP:	0.500	X:	0.022	Y:	0.057	Z:	0.079	yaw:	-0.893	yaw rate:	45.931	Roll:	1.125	Pitch:	2.207	Yaw:	10.683	Thrust:	49.695
Time:	2.952	Roll Set Point:	0.053	Pitch Set Point:	-0.111	Yaw Set Point:	0.015	X_WP:	0.100	Y_WP:	0.000	Y_WP:	0.500	X:	0.024	Y:	0.056	Z:	0.081	yaw:	-0.877	yaw rate:	1.591	Roll:	0.448	Pitch:	1.193	Yaw:	-0.999	Thrust:	67.516
Time:	2.962	Roll Set Point:	0.045	Pitch Set Point:	-0.108	Yaw Set Point:	0.023	X_WP:	0.100	Y_WP:	0.000	Y_WP:	0.500	X:	0.028	Y:	0.055	Z:	0.087	yaw:	-1.310	yaw rate:	-43.308	Roll:	3.266	Pitch:	-1.280	Yaw:	-12.637	Thrust:	39.934
Time:	2.979	Roll Set Point:	0.041	Pitch Set Point:	-0.106	Yaw Set Point:	0.031	X_WP:	0.100	Y_WP:	0.000	Y_WP:	0.500	X:	0.030	Y:	0.054	Z:	0.090	yaw:	-1.780	yaw rate:	-46.918	Roll:	0.376	Pitch:	0.139	Yaw:	-10.477	Thrust:	73.772
Time:	2.994	Roll Set Point:	0.036	Pitch Set Point:	-0.107	Yaw Set Point:	0.013	X_WP:	0.100	Y_WP:	0.000	Y_WP:	0.500	X:	0.032	Y:	0.054	Z:	0.094	yaw:	-0.719	yaw rate:	106.066	Roll:	0.396	Pitch:	2.884	Yaw:	15.680	Thrust:	77.698
Time:	3.004	Roll Set Point:	0.031	Pitch Set Point:	-0.106	Yaw Set Point:	0.012	X_WP:	0.100	Y_WP:	0.000	Y_WP:	0.500	X:	0.035	Y:	0.053	Z:	0.097	yaw:	-0.685	yaw rate:	3.435	Roll:	1.865	Pitch:	0.748	Yaw:	-0.135	Thrust:	52.152
Time:	3.017	Roll Set Point:	0.022	Pitch Set Point:	-0.103	Yaw Set Point:	0.023	X_WP:	0.100	Y_WP:	0.000	Y_WP:	0.500	X:	0.040	Y:	0.052	Z:	0.104	yaw:	-1.325	yaw rate:	-14.669	Roll:	3.842	Pitch:	-0.896	Yaw:	-15.309	Thrust:	46.019
Time:	3.028	Roll Set Point:	0.011	Pitch Set Point:	-0.100	Yaw Set Point:	0.021	X_WP:	0.100	Y_WP:	0.000	Y_WP:	0.500	X:	0.045	Y:	0.051	Z:	0.112	yaw:	-1.187	yaw rate:	13.743	Roll:	6.097	Pitch:	-0.096	Yaw:	1.506	Thrust:	41.107
Time:	3.040	Roll Set Point:	0.006	Pitch Set Point:	-0.098	Yaw Set Point:	0.022	X_WP:	0.100	Y_WP:	0.000	Y_WP:	0.500	X:	0.048	Y:	0.050	Z:	0.115	yaw:	-1.236	yaw rate:	-4.853	Roll:	1.967	Pitch:	-0.162	Yaw:	-2.887	Thrust:	58.863
Time:	3.052	Roll Set Point:	0.001	Pitch Set Point:	-0.096	Yaw Set Point:	0.030	X_WP:	0.100	Y_WP:	0.000	Y_WP:	0.500	X:	0.050	Y:	0.049	Z:	0.119	yaw:	-1.712	yaw rate:	-47.647	Roll:	1.570	Pitch:	0.186	Yaw:	-12.869	Thrust:	56.993
Time:	3.063	Roll Set Point:	-0.005	Pitch Set Point:	-0.095	Yaw Set Point:	0.020	X_WP:	0.100	Y_WP:	0.000	Y_WP:	0.500	X:	0.053	Y:	0.048	Z:	0.124	yaw:	-1.124	yaw rate:	58.799	Roll:	2.884	Pitch:	1.080	Yaw:	12.595	Thrust:	49.823
Time:	3.080	Roll Set Point:	-0.010	Pitch Set Point:	-0.094	Yaw Set Point:	0.026	X_WP:	0.100	Y_WP:	0.000	Y_WP:	0.500	X:	0.055	Y:	0.047	Z:	0.128	yaw:	-1.477	yaw rate:	-35.251	Roll:	2.017	Pitch:	0.428	Yaw:	-7.646	Thrust:	82.447
Time:	3.095	Roll Set Point:	-0.020	Pitch Set Point:	-0.090	Yaw Set Point:	0.031	X_WP:	0.100	Y_WP:	0.000	Y_WP:	0.500	X:	0.061	Y:	0.045	Z:	0.136	yaw:	-1.771	yaw rate:	-22.913	Roll:	2.660	Pitch:	-0.664	Yaw:	-7.703	Thrust:	60.962
Time:	3.105	Roll Set Point:	-0.026	Pitch Set Point:	-0.088	Yaw Set Point:	0.023	X_WP:	0.100	Y_WP:	0.000	Y_WP:	0.500	X:	0.064	Y:	0.044	Z:	0.139	yaw:	-1.327	yaw rate:	44.388	Roll:	3.800	Pitch:	0.289	Yaw:	9.626	Thrust:	53.784
Time:	3.119	Roll Set Point:	-0.031	Pitch Set Point:	-0.086	Yaw Set Point:	0.038	X_WP:	0.100	Y_WP:	0.000	Y_WP:	0.500	X:	0.067	Y:	0.044	Z:	0.143	yaw:	-2.157	yaw rate:	-82.955	Roll:	1.825	Pitch:	-0.057	Yaw:	-19.194	Thrust:	67.642
Time:	3.130	Roll Set Point:	-0.043	Pitch Set Point:	-0.082	Yaw Set Point:	0.034	X_WP:	0.100	Y_WP:	0.000	Y_WP:	0.500	X:	0.072	Y:	0.042	Z:	0.151	yaw:	-1.941	yaw rate:	21.613	Roll:	7.247	Pitch:	-1.343	Yaw:	2.281	Thrust:	38.481
Time:	3.143	Roll Set Point:	-0.048	Pitch Set Point:	-0.081	Yaw Set Point:	0.036	X_WP:	0.100	Y_WP:	0.000	Y_WP:	0.500	X:	0.075	Y:	0.041	Z:	0.155	yaw:	-2.036	yaw rate:	-9.505	Roll:	2.664	Pitch:	0.399	Yaw:	-4.923	Thrust:	64.683
Time:	3.155	Roll Set Point:	-0.053	Pitch Set Point:	-0.079	Yaw Set Point:	0.032	X_WP:	0.100	Y_WP:	0.000	Y_WP:	0.500	X:	0.077	Y:	0.040	Z:	0.159	yaw:	-1.855	yaw rate:	18.065	Roll:	2.694	Pitch:	0.177	Yaw:	1.009	Thrust:	63.197
Time:	3.166	Roll Set Point:	-0.059	Pitch Set Point:	-0.076	Yaw Set Point:	0.033	X_WP:	0.100	Y_WP:	0.000	Y_WP:	0.500	X:	0.080	Y:	0.039	Z:	0.162	yaw:	-1.884	yaw rate:	-2.842	Roll:	3.739	Pitch:	-0.582	Yaw:	-3.463	Thrust:	56.919
Time:	3.183	Roll Set Point:	-0.064	Pitch Set Point:	-0.074	Yaw Set Point:	0.044	X_WP:	0.100	Y_WP:	0.000	Y_WP:	0.500	X:	0.083	Y:	0.038	Z:	0.166	yaw:	-2.527	yaw rate:	-64.375	Roll:	1.884	Pitch:	-0.065	Yaw:	-14.255	Thrust:	82.311
Time:	3.194	Roll Set Point:	-0.076	Pitch Set Point:	-0.070	Yaw Set Point:	0.033	X_WP:	0.100	Y_WP:	0.000	Y_WP:	0.500	X:	0.089	Y:	0.035	Z:	0.173	yaw:	-1.911	yaw rate:	19.298	Roll:	6.728	Pitch:	-1.059	Yaw:	10.743	Thrust:	49.834
Time:	3.207	Roll Set Point:	-0.081	Pitch Set Point:	-0.068	Yaw Set Point:	0.040	X_WP:	0.100	Y_WP:	0.000	Y_WP:	0.500	X:	0.091	Y:	0.034	Z:	0.176	yaw:	-2.293	yaw rate:	-38.249	Roll:	3.003	Pitch:	-0.646	Yaw:	-11.397	Thrust:	66.540
Time:	3.224	Roll Set Point:	-0.087	Pitch Set Point:	-0.066	Yaw Set Point:	0.052	X_WP:	0.100	Y_WP:	0.000	Y_WP:	0.500	X:	0.095	Y:	0.033	Z:	0.180	yaw:	-2.958	yaw rate:	-66.467	Roll:	2.481	Pitch:	0.407	Yaw:	-15.040	Thrust:	86.439
Time:	3.235	Roll Set Point:	-0.093	Pitch Set Point:	-0.065	Yaw Set Point:	0.036	X_WP:	0.100	Y_WP:	0.000	Y_WP:	0.500	X:	0.097	Y:	0.032	Z:	0.184	yaw:	-2.040	yaw rate:	91.805	Roll:	4.455	Pitch:	0.037	Yaw:	17.776	Thrust:	58.312
Time:	3.252	Roll Set Point:	-0.098	Pitch Set Point:	-0.062	Yaw Set Point:	0.039	X_WP:	0.100	Y_WP:	0.000	Y_WP:	0.500	X:	0.100	Y:	0.031	Z:	0.187	yaw:	-2.229	yaw rate:	-18.900	Roll:	2.368	Pitch:	-0.203	Yaw:	-6.343	Thrust:	89.977
Time:	3.263	Roll Set Point:	-0.115	Pitch Set Point:	-0.056	Yaw Set Point:	0.044	X_WP:	0.100	Y_WP:	0.000	Y_WP:	0.500	X:	0.108	Y:	0.028	Z:	0.198	yaw:	-2.525	yaw rate:	16.797	Roll:	11.419	Pitch:	-3.145	Yaw:	-11.026	Thrust:	29.432
Time:	3.279	Roll Set Point:	-0.121	Pitch Set Point:	-0.054	Yaw Set Point:	0.041	X_WP:	0.100	Y_WP:	0.000	Y_WP:	0.500	X:	0.111	Y:	0.027	Z:	0.201	yaw:	-2.324	yaw rate:	20.065	Roll:	4.078	Pitch:	-0.861	Yaw:	0.060	Thrust:	73.126
Time:	3.292	Roll Set Point:	-0.131	Pitch Set Point:	-0.049	Yaw Set Point:	0.044	X_WP:	0.100	Y_WP:	0.000	Y_WP:	0.500	X:	0.116	Y:	0.024	Z:	0.208	yaw:	-2.545	yaw rate:	-19.602	Roll:	5.018	Pitch:	-0.931	Yaw:	-7.803	Thrust:	75.243
Time:	3.303	Roll Set Point:	-0.136	Pitch Set Point:	-0.048	Yaw Set Point:	0.054	X_WP:	0.100	Y_WP:	0.000	Y_WP:	0.500	X:	0.119	Y:	0.023	Z:	0.211	yaw:	-3.100	yaw rate:	-55.566	Roll:	4.376	Pitch:	-0.412	Yaw:	-17.769	Thrust:	58.633
Time:	3.316	Roll Set Point:	-0.142	Pitch Set Point:	-0.045	Yaw Set Point:	0.049	X_WP:	0.100	Y_WP:	0.000	Y_WP:	0.500	X:	0.121	Y:	0.022	Z:	0.215	yaw:	-2.791	yaw rate:	30.923	Roll:	3.772	Pitch:	-0.684	Yaw:	1.758	Thrust:	69.646
Time:	3.329	Roll Set Point:	-0.147	Pitch Set Point:	-0.043	Yaw Set Point:	0.049	X_WP:	0.100	Y_WP:	0.000	Y_WP:	0.500	X:	0.124	Y:	0.021	Z:	0.218	yaw:	-2.801	yaw rate:	-0.957	Roll:	3.555	Pitch:	-0.615	Yaw:	-4.425	Thrust:	73.751
Time:	3.340	Roll Set Point:	-0.156	Pitch Set Point:	-0.038	Yaw Set Point:	0.048	X_WP:	0.100	Y_WP:	0.000	Y_WP:	0.500	X:	0.129	Y:	0.018	Z:	0.226	yaw:	-2.748	yaw rate:	5.261	Roll:	9.083	Pitch:	-2.746	Yaw:	-2.873	Thrust:	39.159
Time:	3.353	Roll Set Point:	-0.161	Pitch Set Point:	-0.036	Yaw Set Point:	0.047	X_WP:	0.100	Y_WP:	0.000	Y_WP:	0.500	X:	0.131	Y:	0.017	Z:	0.229	yaw:	-2.680	yaw rate:	6.796	Roll:	3.588	Pitch:	-0.560	Yaw:	-2.725	Thrust:	72.701
Time:	3.365	Roll Set Point:	-0.166	Pitch Set Point:	-0.034	Yaw Set Point:	0.049	X_WP:	0.100	Y_WP:	0.000	Y_WP:	0.500	X:	0.133	Y:	0.016	Z:	0.233	yaw:	-2.803	yaw rate:	-12.323	Roll:	4.028	Pitch:	-0.534	Yaw:	-7.049	Thrust:	58.380
Time:	3.390	Roll Set Point:	-0.171	Pitch Set Point:	-0.032	Yaw Set Point:	0.052	X_WP:	0.100	Y_WP:	0.000	Y_WP:	0.500	X:	0.136	Y:	0.015	Z:	0.237	yaw:	-3.005	yaw rate:	-20.186	Roll:	2.283	Pitch:	0.145	Yaw:	-6.992	Thrust:	100.000
Time:	3.402	Roll Set Point:	-0.179	Pitch Set Point:	-0.027	Yaw Set Point:	0.044	X_WP:	0.100	Y_WP:	0.000	Y_WP:	0.500	X:	0.140	Y:	0.013	Z:	0.246	yaw:	-2.506	yaw rate:	-9.737	Roll:	6.536	Pitch:	-3.130	Yaw:	8.020	Thrust:	46.929
Time:	3.417	Roll Set Point:	-0.188	Pitch Set Point:	-0.023	Yaw Set Point:	0.042	X_WP:	0.100	Y_WP:	0.000	Y_WP:	0.500	X:	0.144	Y:	0.011	Z:	0.255	yaw:	-2.419	yaw rate:	8.677	Roll:	6.176	Pitch:	-1.662	Yaw:	-2.392	Thrust:	70.663
Time:	3.430	Roll Set Point:	-0.197	Pitch Set Point:	-0.019	Yaw Set Point:	0.043	X_WP:	0.100	Y_WP:	0.000	Y_WP:	0.500	X:	0.148	Y:	0.008	Z:	0.264	yaw:	-2.465	yaw rate:	-4.062	Roll:	6.126	Pitch:	-1.901	Yaw:	-4.764	Thrust:	52.847
Time:	3.442	Roll Set Point:	-0.199	Pitch Set Point:	-0.017	Yaw Set Point:	0.043	X_WP:	0.100	Y_WP:	0.000	Y_WP:	0.500	X:	0.150	Y:	0.007	Z:	0.269	yaw:	-2.463	yaw rate:	0.241	Roll:	3.161	Pitch:	-1.099	Yaw:	-3.771	Thrust:	58.627
Time:	3.462	Roll Set Point:	-0.203	Pitch Set Point:	-0.014	Yaw Set Point:	0.043	X_WP:	0.100	Y_WP:	0.000	Y_WP:	0.500	X:	0.152	Y:	0.006	Z:	0.273	yaw:	-2.468	yaw rate:	-0.541	Roll:	2.870	Pitch:	-0.442	Yaw:	-4.151	Thrust:	100.000
Time:	3.473	Roll Set Point:	-0.207	Pitch Set Point:	-0.013	Yaw Set Point:	0.048	X_WP:	0.100	Y_WP:	0.000	Y_WP:	0.500	X:	0.154	Y:	0.005	Z:	0.278	yaw:	-2.735	yaw rate:	-26.677	Roll:	4.411	Pitch:	-0.557	Yaw:	-10.527	Thrust:	50.625
Time:	3.485	Roll Set Point:	-0.211	Pitch Set Point:	-0.010	Yaw Set Point:	0.034	X_WP:	0.100	Y_WP:	0.000	Y_WP:	0.500	X:	0.155	Y:	0.004	Z:	0.283	yaw:	-1.924	yaw rate:	81.105	Roll:	3.726	Pitch:	-2.278	Yaw:	13.131	Thrust:	66.042
Time:	3.496	Roll Set Point:	-0.217	Pitch Set Point:	-0.006	Yaw Set Point:	0.038	X_WP:	0.100	Y_WP:	0.000	Y_WP:	0.500	X:	0.158	Y:	0.002	Z:	0.293	yaw:	-2.154	yaw rate:	38.435	Roll:	6.046	Pitch:	-1.948	Yaw:	-8.872	Thrust:	30.745
Time:	3.509	Roll Set Point:	-0.220	Pitch Set Point:	-0.004	Yaw Set Point:	0.036	X_WP:	0.100	Y_WP:	0.000	Y_WP:	0.500	X:	0.160	Y:	0.001	Z:	0.298	yaw:	-2.071	yaw rate:	8.315	Roll:	3.860	Pitch:	-1.134	Yaw:	-1.611	Thrust:	62.496
Time:	3.521	Roll Set Point:	-0.223	Pitch Set Point:	-0.002	Yaw Set Point:	0.030	X_WP:	0.100	Y_WP:	0.000	Y_WP:	0.500	X:	0.161	Y:	0.000	Z:	0.304	yaw:	-1.744	yaw rate:	32.681	Roll:	3.682	Pitch:	-1.606	Yaw:	4.558	Thrust:	53.612
Time:	3.531	Roll Set Point:	-0.228	Pitch Set Point:	0.002	Yaw Set Point:	0.041	X_WP:	0.100	Y_WP:	0.000	Y_WP:	0.500	X:	0.164	Y:	-0.002	Z:	0.315	yaw:	-2.336	yaw rate:	-59.204	Roll:	6.204	Pitch:	-2.284	Yaw:	-19.059	Thrust:	17.776
Time:	3.543	Roll Set Point:	-0.231	Pitch Set Point:	0.003	Yaw Set Point:	0.032	X_WP:	0.100	Y_WP:	0.000	Y_WP:	0.500	X:	0.165	Y:	-0.003	Z:	0.320	yaw:	-1.830	yaw rate:	50.650	Roll:	3.499	Pitch:	-1.639	Yaw:	7.998	Thrust:	52.040
Time:	3.554	Roll Set Point:	-0.233	Pitch Set Point:	0.005	Yaw Set Point:	0.026	X_WP:	0.100	Y_WP:	0.000	Y_WP:	0.500	X:	0.167	Y:	-0.004	Z:	0.326	yaw:	-1.516	yaw rate:	31.418	Roll:	3.417	Pitch:	-1.519	Yaw:	4.566	Thrust:	54.936
Time:	3.565	Roll Set Point:	-0.235	Pitch Set Point:	0.007	Yaw Set Point:	0.037	X_WP:	0.100	Y_WP:	0.000	Y_WP:	0.500	X:	0.168	Y:	-0.005	Z:	0.332	yaw:	-2.137	yaw rate:	-62.119	Roll:	3.434	Pitch:	-0.284	Yaw:	-18.563	Thrust:	47.440
Time:	3.581	Roll Set Point:	-0.237	Pitch Set Point:	0.008	Yaw Set Point:	0.032	X_WP:	0.100	Y_WP:	0.000	Y_WP:	0.500	X:	0.169	Y:	-0.005	Z:	0.337	yaw:	-1.831	yaw rate:	30.632	Roll:	3.078	Pitch:	-1.162	Yaw:	1.791	Thrust:	76.533
Time:	3.594	Roll Set Point:	-0.241	Pitch Set Point:	0.011	Yaw Set Point:	0.031	X_WP:	0.100	Y_WP:	0.000	Y_WP:	0.500	X:	0.171	Y:	-0.007	Z:	0.348	yaw:	-1.770	yaw rate:	12.317	Roll:	3.899	Pitch:	-1.621	Yaw:	-1.809	Thrust:	54.593
Time:	3.605	Roll Set Point:	-0.241	Pitch Set Point:	0.011	Yaw Set Point:	0.031	X_WP:	0.100	Y_WP:	0.000	Y_WP:	0.500	X:	0.171	Y:	-0.007	Z:	0.348	yaw:	-1.770	yaw rate:	12.317	Roll:	1.849	Pitch:	0.019	Yaw:	-2.931	Thrust:	71.090
Time:	3.618	Roll Set Point:	-0.245	Pitch Set Point:	0.015	Yaw Set Point:	0.026	X_WP:	0.100	Y_WP:	0.000	Y_WP:	0.500	X:	0.172	Y:	-0.008	Z:	0.359	yaw:	-1.473	yaw rate:	-10.459	Roll:	4.216	Pitch:	-2.808	Yaw:	3.897	Thrust:	37.072
Time:	3.628	Roll Set Point:	-0.247	Pitch Set Point:	0.019	Yaw Set Point:	0.018	X_WP:	0.100	Y_WP:	0.000	Y_WP:	0.500	X:	0.174	Y:	-0.010	Z:	0.369	yaw:	-1.054	yaw rate:	41.950	Roll:	3.882	Pitch:	-3.141	Yaw:	7.839	Thrust:	28.976
Time:	3.639	Roll Set Point:	-0.249	Pitch Set Point:	0.019	Yaw Set Point:	0.023	X_WP:	0.100	Y_WP:	0.000	Y_WP:	0.500	X:	0.174	Y:	-0.011	Z:	0.374	yaw:	-1.338	yaw rate:	-28.465	Roll:	3.413	Pitch:	-0.463	Yaw:	-9.399	Thrust:	44.138
Time:	3.652	Roll Set Point:	-0.250	Pitch Set Point:	0.021	Yaw Set Point:	0.014	X_WP:	0.100	Y_WP:	0.000	Y_WP:	0.500	X:	0.175	Y:	-0.011	Z:	0.379	yaw:	-0.779	yaw rate:	55.903	Roll:	2.542	Pitch:	-1.883	Yaw:	9.571	Thrust:	67.385
Time:	3.663	Roll Set Point:	-0.251	Pitch Set Point:	0.023	Yaw Set Point:	0.012	X_WP:	0.100	Y_WP:	0.000	Y_WP:	0.500	X:	0.175	Y:	-0.012	Z:	0.384	yaw:	-0.671	yaw rate:	10.774	Roll:	2.641	Pitch:	-1.469	Yaw:	1.135	Thrust:	51.450
Time:	3.677	Roll Set Point:	-0.251	Pitch Set Point:	0.024	Yaw Set Point:	0.011	X_WP:	0.100	Y_WP:	0.000	Y_WP:	0.500	X:	0.176	Y:	-0.013	Z:	0.388	yaw:	-0.651	yaw rate:	2.093	Roll:	2.581	Pitch:	-1.173	Yaw:	-1.025	Thrust:	61.097
Time:	3.693	Roll Set Point:	-0.253	Pitch Set Point:	0.025	Yaw Set Point:	0.020	X_WP:	0.100	Y_WP:	0.000	Y_WP:	0.500	X:	0.176	Y:	-0.013	Z:	0.391	yaw:	-1.136	yaw rate:	-48.501	Roll:	2.682	Pitch:	-0.278	Yaw:	-9.600	Thrust:	100.000
Time:	3.711	Roll Set Point:	-0.254	Pitch Set Point:	0.028	Yaw Set Point:	0.008	X_WP:	0.100	Y_WP:	0.000	Y_WP:	0.500	X:	0.177	Y:	-0.014	Z:	0.399	yaw:	-0.435	yaw rate:	42.257	Roll:	2.395	Pitch:	-2.150	Yaw:	9.055	Thrust:	88.340
Time:	3.721	Roll Set Point:	-0.255	Pitch Set Point:	0.029	Yaw Set Point:	0.010	X_WP:	0.100	Y_WP:	0.000	Y_WP:	0.500	X:	0.177	Y:	-0.015	Z:	0.402	yaw:	-0.573	yaw rate:	-13.815	Roll:	2.412	Pitch:	-1.021	Yaw:	-4.707	Thrust:	53.038
Time:	3.732	Roll Set Point:	-0.255	Pitch Set Point:	0.031	Yaw Set Point:	0.008	X_WP:	0.100	Y_WP:	0.000	Y_WP:	0.500	X:	0.178	Y:	-0.016	Z:	0.405	yaw:	-0.453	yaw rate:	12.019	Roll:	2.612	Pitch:	-1.238	Yaw:	1.683	Thrust:	57.350
Time:	3.745	Roll Set Point:	-0.256	Pitch Set Point:	0.032	Yaw Set Point:	0.007	X_WP:	0.100	Y_WP:	0.000	Y_WP:	0.500	X:	0.178	Y:	-0.016	Z:	0.408	yaw:	-0.400	yaw rate:	5.344	Roll:	2.310	Pitch:	-1.087	Yaw:	0.060	Thrust:	61.085
Time:	3.762	Roll Set Point:	-0.257	Pitch Set Point:	0.035	Yaw Set Point:	0.009	X_WP:	0.100	Y_WP:	0.000	Y_WP:	0.500	X:	0.178	Y:	-0.018	Z:	0.417	yaw:	-0.496	yaw rate:	-10.744	Roll:	2.473	Pitch:	-1.654	Yaw:	-2.903	Thrust:	91.889
Time:	3.779	Roll Set Point:	-0.257	Pitch Set Point:	0.036	Yaw Set Point:	0.002	X_WP:	0.100	Y_WP:	0.000	Y_WP:	0.500	X:	0.178	Y:	-0.018	Z:	0.420	yaw:	-0.137	yaw rate:	35.905	Roll:	1.888	Pitch:	-1.460	Yaw:	5.149	Thrust:	83.780
Time:	3.790	Roll Set Point:	-0.256	Pitch Set Point:	0.037	Yaw Set Point:	0.000	X_WP:	0.100	Y_WP:	0.000	Y_WP:	0.500	X:	0.178	Y:	-0.019	Z:	0.423	yaw:	-0.008	yaw rate:	12.848	Roll:	1.877	Pitch:	-0.943	Yaw:	2.099	Thrust:	70.690
Time:	3.802	Roll Set Point:	-0.257	Pitch Set Point:	0.038	Yaw Set Point:	0.013	X_WP:	0.100	Y_WP:	0.000	Y_WP:	0.500	X:	0.178	Y:	-0.019	Z:	0.426	yaw:	-0.769	yaw rate:	-76.097	Roll:	2.495	Pitch:	-0.169	Yaw:	-19.639	Thrust:	57.389
Time:	3.815	Roll Set Point:	-0.256	Pitch Set Point:	0.039	Yaw Set Point:	-0.001	X_WP:	0.100	Y_WP:	0.000	Y_WP:	0.500	X:	0.178	Y:	-0.019	Z:	0.429	yaw:	0.075	yaw rate:	84.375	Roll:	1.290	Pitch:	-2.002	Yaw:	16.445	Thrust:	69.146
Time:	3.828	Roll Set Point:	-0.255	Pitch Set Point:	0.041	Yaw Set Point:	0.003	X_WP:	0.100	Y_WP:	0.000	Y_WP:	0.500	X:	0.177	Y:	-0.021	Z:	0.438	yaw:	-0.148	yaw rate:	15.699	Roll:	1.511	Pitch:	-1.610	Yaw:	-5.418	Thrust:	46.073
Time:	3.839	Roll Set Point:	-0.254	Pitch Set Point:	0.042	Yaw Set Point:	0.004	X_WP:	0.100	Y_WP:	0.000	Y_WP:	0.500	X:	0.177	Y:	-0.021	Z:	0.441	yaw:	-0.206	yaw rate:	-5.882	Roll:	1.555	Pitch:	-1.235	Yaw:	-2.153	Thrust:	55.096
Time:	3.852	Roll Set Point:	-0.253	Pitch Set Point:	0.043	Yaw Set Point:	0.007	X_WP:	0.100	Y_WP:	0.000	Y_WP:	0.500	X:	0.177	Y:	-0.022	Z:	0.445	yaw:	-0.408	yaw rate:	-20.128	Roll:	1.629	Pitch:	-0.721	Yaw:	-5.211	Thrust:	71.739
Time:	3.863	Roll Set Point:	-0.252	Pitch Set Point:	0.045	Yaw Set Point:	-0.013	X_WP:	0.100	Y_WP:	0.000	Y_WP:	0.500	X:	0.176	Y:	-0.022	Z:	0.448	yaw:	0.737	yaw rate:	114.503	Roll:	0.657	Pitch:	-3.132	Yaw:	26.493	Thrust:	57.273
Time:	3.880	Roll Set Point:	-0.252	Pitch Set Point:	0.045	Yaw Set Point:	-0.001	X_WP:	0.100	Y_WP:	0.000	Y_WP:	0.500	X:	0.176	Y:	-0.022	Z:	0.452	yaw:	0.072	yaw rate:	-66.512	Roll:	1.899	Pitch:	0.312	Yaw:	-11.481	Thrust:	81.507
Time:	3.893	Roll Set Point:	-0.249	Pitch Set Point:	0.045	Yaw Set Point:	-0.004	X_WP:	0.100	Y_WP:	0.000	Y_WP:	0.500	X:	0.175	Y:	-0.023	Z:	0.459	yaw:	0.222	yaw rate:	39.350	Roll:	0.812	Pitch:	-1.017	Yaw:	2.780	Thrust:	60.150
Time:	3.903	Roll Set Point:	-0.249	Pitch Set Point:	0.045	Yaw Set Point:	-0.004	X_WP:	0.100	Y_WP:	0.000	Y_WP:	0.500	X:	0.175	Y:	-0.023	Z:	0.459	yaw:	0.222	yaw rate:	39.350	Roll:	2.009	Pitch:	-0.518	Yaw:	-0.195	Thrust:	67.797
Time:	3.917	Roll Set Point:	-0.247	Pitch Set Point:	0.047	Yaw Set Point:	-0.005	X_WP:	0.100	Y_WP:	0.000	Y_WP:	0.500	X:	0.173	Y:	-0.023	Z:	0.467	yaw:	0.314	yaw rate:	42.927	Roll:	0.098	Pitch:	-1.725	Yaw:	1.593	Thrust:	56.420
Time:	3.928	Roll Set Point:	-0.246	Pitch Set Point:	0.047	Yaw Set Point:	-0.004	X_WP:	0.100	Y_WP:	0.000	Y_WP:	0.500	X:	0.173	Y:	-0.023	Z:	0.471	yaw:	0.237	yaw rate:	-7.646	Roll:	1.235	Pitch:	-0.502	Yaw:	-1.986	Thrust:	52.048
Time:	3.939	Roll Set Point:	-0.243	Pitch Set Point:	0.049	Yaw Set Point:	-0.007	X_WP:	0.100	Y_WP:	0.000	Y_WP:	0.500	X:	0.171	Y:	-0.024	Z:	0.479	yaw:	0.405	yaw rate:	16.839	Roll:	-0.454	Pitch:	-1.817	Yaw:	3.863	Thrust:	37.968
Time:	3.952	Roll Set Point:	-0.241	Pitch Set Point:	0.049	Yaw Set Point:	0.001	X_WP:	0.100	Y_WP:	0.000	Y_WP:	0.500	X:	0.171	Y:	-0.025	Z:	0.483	yaw:	-0.082	yaw rate:	-48.736	Roll:	1.045	Pitch:	-0.348	Yaw:	-11.266	Thrust:	58.658
Time:	3.963	Roll Set Point:	-0.239	Pitch Set Point:	0.049	Yaw Set Point:	-0.008	X_WP:	0.100	Y_WP:	0.000	Y_WP:	0.500	X:	0.170	Y:	-0.024	Z:	0.487	yaw:	0.467	yaw rate:	54.906	Roll:	0.403	Pitch:	-1.433	Yaw:	12.592	Thrust:	50.883
Time:	3.974	Roll Set Point:	-0.238	Pitch Set Point:	0.050	Yaw Set Point:	0.000	X_WP:	0.100	Y_WP:	0.000	Y_WP:	0.500	X:	0.169	Y:	-0.025	Z:	0.491	yaw:	-0.022	yaw rate:	-48.963	Roll:	1.082	Pitch:	-0.230	Yaw:	-11.662	Thrust:	50.617
Time:	3.988	Roll Set Point:	-0.237	Pitch Set Point:	0.050	Yaw Set Point:	0.002	X_WP:	0.100	Y_WP:	0.000	Y_WP:	0.500	X:	0.168	Y:	-0.025	Z:	0.495	yaw:	-0.115	yaw rate:	-9.220	Roll:	0.865	Pitch:	-0.561	Yaw:	-2.514	Thrust:	73.704
Time:	3.999	Roll Set Point:	-0.235	Pitch Set Point:	0.049	Yaw Set Point:	0.002	X_WP:	0.100	Y_WP:	0.000	Y_WP:	0.500	X:	0.168	Y:	-0.025	Z:	0.499	yaw:	-0.106	yaw rate:	0.827	Roll:	0.734	Pitch:	-0.385	Yaw:	-0.452	Thrust:	49.359
Time:	4.014	Roll Set Point:	-0.233	Pitch Set Point:	0.051	Yaw Set Point:	-0.006	X_WP:	0.100	Y_WP:	0.000	Y_WP:	0.500	X:	0.166	Y:	-0.025	Z:	0.504	yaw:	0.333	yaw rate:	43.927	Roll:	-0.187	Pitch:	-1.880	Yaw:	8.014	Thrust:	66.671
Time:	4.027	Roll Set Point:	-0.229	Pitch Set Point:	0.051	Yaw Set Point:	-0.005	X_WP:	0.100	Y_WP:	0.000	Y_WP:	0.500	X:	0.165	Y:	-0.026	Z:	0.512	yaw:	0.305	yaw rate:	29.789	Roll:	-0.364	Pitch:	-0.783	Yaw:	-0.725	Thrust:	57.337
Time:	4.039	Roll Set Point:	-0.228	Pitch Set Point:	0.052	Yaw Set Point:	-0.007	X_WP:	0.100	Y_WP:	0.000	Y_WP:	0.500	X:	0.164	Y:	-0.026	Z:	0.515	yaw:	0.399	yaw rate:	9.383	Roll:	0.714	Pitch:	-0.948	Yaw:	2.056	Thrust:	56.801
Time:	4.052	Roll Set Point:	-0.224	Pitch Set Point:	0.052	Yaw Set Point:	0.009	X_WP:	0.100	Y_WP:	0.000	Y_WP:	0.500	X:	0.162	Y:	-0.026	Z:	0.522	yaw:	-0.490	yaw rate:	-88.834	Roll:	-0.449	Pitch:	0.008	Yaw:	-19.111	Thrust:	52.757
Time:	4.064	Roll Set Point:	-0.222	Pitch Set Point:	0.052	Yaw Set Point:	0.009	X_WP:	0.100	Y_WP:	0.000	Y_WP:	0.500	X:	0.161	Y:	-0.026	Z:	0.526	yaw:	-0.513	yaw rate:	-2.374	Roll:	0.237	Pitch:	-0.747	Yaw:	-1.776	Thrust:	50.312
Time:	4.079	Roll Set Point:	-0.220	Pitch Set Point:	0.053	Yaw Set Point:	-0.002	X_WP:	0.100	Y_WP:	0.000	Y_WP:	0.500	X:	0.160	Y:	-0.026	Z:	0.529	yaw:	0.132	yaw rate:	64.527	Roll:	-0.211	Pitch:	-1.450	Yaw:	12.032	Thrust:	70.987
Time:	4.091	Roll Set Point:	-0.218	Pitch Set Point:	0.053	Yaw Set Point:	-0.008	X_WP:	0.100	Y_WP:	0.000	Y_WP:	0.500	X:	0.159	Y:	-0.026	Z:	0.533	yaw:	0.448	yaw rate:	31.632	Roll:	0.432	Pitch:	-0.878	Yaw:	6.168	Thrust:	70.159
Time:	4.102	Roll Set Point:	-0.215	Pitch Set Point:	0.054	Yaw Set Point:	-0.017	X_WP:	0.100	Y_WP:	0.000	Y_WP:	0.500	X:	0.158	Y:	-0.026	Z:	0.536	yaw:	0.953	yaw rate:	50.459	Roll:	-0.490	Pitch:	-1.770	Yaw:	12.811	Thrust:	51.248
Time:	4.116	Roll Set Point:	-0.214	Pitch Set Point:	0.052	Yaw Set Point:	-0.002	X_WP:	0.100	Y_WP:	0.000	Y_WP:	0.500	X:	0.157	Y:	-0.026	Z:	0.539	yaw:	0.103	yaw rate:	-84.999	Roll:	0.950	Pitch:	0.835	Yaw:	-16.876	Thrust:	69.091
Time:	4.128	Roll Set Point:	-0.208	Pitch Set Point:	0.053	Yaw Set Point:	0.003	X_WP:	0.100	Y_WP:	0.000	Y_WP:	0.500	X:	0.154	Y:	-0.027	Z:	0.547	yaw:	-0.164	yaw rate:	22.802	Roll:	-2.294	Pitch:	-0.911	Yaw:	-6.354	Thrust:	43.045
Time:	4.145	Roll Set Point:	-0.206	Pitch Set Point:	0.053	Yaw Set Point:	-0.006	X_WP:	0.100	Y_WP:	0.000	Y_WP:	0.500	X:	0.153	Y:	-0.027	Z:	0.549	yaw:	0.338	yaw rate:	50.159	Roll:	-0.198	Pitch:	-1.111	Yaw:	7.410	Thrust:	91.519
Time:	4.159	Roll Set Point:	-0.204	Pitch Set Point:	0.053	Yaw Set Point:	-0.003	X_WP:	0.100	Y_WP:	0.000	Y_WP:	0.500	X:	0.152	Y:	-0.027	Z:	0.552	yaw:	0.157	yaw rate:	-18.067	Roll:	0.302	Pitch:	-0.469	Yaw:	-3.892	Thrust:	68.566
Time:	4.170	Roll Set Point:	-0.202	Pitch Set Point:	0.053	Yaw Set Point:	-0.002	X_WP:	0.100	Y_WP:	0.000	Y_WP:	0.500	X:	0.151	Y:	-0.027	Z:	0.554	yaw:	0.096	yaw rate:	-6.087	Roll:	0.186	Pitch:	-0.452	Yaw:	-1.803	Thrust:	54.681
Time:	4.183	Roll Set Point:	-0.200	Pitch Set Point:	0.053	Yaw Set Point:	-0.000	X_WP:	0.100	Y_WP:	0.000	Y_WP:	0.500	X:	0.150	Y:	-0.027	Z:	0.556	yaw:	0.018	yaw rate:	-7.803	Roll:	-0.207	Pitch:	-0.553	Yaw:	-2.162	Thrust:	63.585
Time:	4.195	Roll Set Point:	-0.198	Pitch Set Point:	0.054	Yaw Set Point:	0.000	X_WP:	0.100	Y_WP:	0.000	Y_WP:	0.500	X:	0.149	Y:	-0.027	Z:	0.558	yaw:	-0.002	yaw rate:	-2.023	Roll:	-0.247	Pitch:	-0.887	Yaw:	-0.986	Thrust:	63.158
Time:	4.207	Roll Set Point:	-0.196	Pitch Set Point:	0.054	Yaw Set Point:	0.005	X_WP:	0.100	Y_WP:	0.000	Y_WP:	0.500	X:	0.148	Y:	-0.027	Z:	0.560	yaw:	-0.293	yaw rate:	-29.060	Roll:	0.139	Pitch:	-0.681	Yaw:	-7.797	Thrust:	53.514
Time:	4.224	Roll Set Point:	-0.190	Pitch Set Point:	0.054	Yaw Set Point:	-0.004	X_WP:	0.100	Y_WP:	0.000	Y_WP:	0.500	X:	0.145	Y:	-0.027	Z:	0.567	yaw:	0.244	yaw rate:	20.126	Roll:	-2.085	Pitch:	-0.802	Yaw:	7.558	Thrust:	83.014
Time:	4.236	Roll Set Point:	-0.188	Pitch Set Point:	0.054	Yaw Set Point:	-0.003	X_WP:	0.100	Y_WP:	0.000	Y_WP:	0.500	X:	0.144	Y:	-0.027	Z:	0.569	yaw:	0.188	yaw rate:	-5.610	Roll:	-0.314	Pitch:	-0.701	Yaw:	-1.467	Thrust:	61.839
Time:	4.253	Roll Set Point:	-0.183	Pitch Set Point:	0.055	Yaw Set Point:	-0.005	X_WP:	0.100	Y_WP:	0.000	Y_WP:	0.500	X:	0.142	Y:	-0.027	Z:	0.574	yaw:	0.293	yaw rate:	5.429	Roll:	-1.300	Pitch:	-1.035	Yaw:	1.339	Thrust:	79.590
Time:	4.263	Roll Set Point:	-0.181	Pitch Set Point:	0.055	Yaw Set Point:	-0.008	X_WP:	0.100	Y_WP:	0.000	Y_WP:	0.500	X:	0.141	Y:	-0.027	Z:	0.577	yaw:	0.480	yaw rate:	18.679	Roll:	-0.662	Pitch:	-0.703	Yaw:	4.820	Thrust:	46.154
Time:	4.280	Roll Set Point:	-0.179	Pitch Set Point:	0.055	Yaw Set Point:	-0.008	X_WP:	0.100	Y_WP:	0.000	Y_WP:	0.500	X:	0.140	Y:	-0.027	Z:	0.579	yaw:	0.480	yaw rate:	-0.066	Roll:	-0.222	Pitch:	-0.702	Yaw:	-0.073	Thrust:	79.172
Time:	4.291	Roll Set Point:	-0.177	Pitch Set Point:	0.055	Yaw Set Point:	-0.008	X_WP:	0.100	Y_WP:	0.000	Y_WP:	0.500	X:	0.139	Y:	-0.027	Z:	0.582	yaw:	0.442	yaw rate:	-3.762	Roll:	-0.185	Pitch:	-0.896	Yaw:	-0.758	Thrust:	56.433
Time:	4.302	Roll Set Point:	-0.175	Pitch Set Point:	0.055	Yaw Set Point:	-0.006	X_WP:	0.100	Y_WP:	0.000	Y_WP:	0.500	X:	0.138	Y:	-0.027	Z:	0.585	yaw:	0.357	yaw rate:	-8.524	Roll:	-0.488	Pitch:	-0.569	Yaw:	-2.010	Thrust:	48.956
Time:	4.317	Roll Set Point:	-0.173	Pitch Set Point:	0.055	Yaw Set Point:	-0.009	X_WP:	0.100	Y_WP:	0.000	Y_WP:	0.500	X:	0.137	Y:	-0.027	Z:	0.588	yaw:	0.506	yaw rate:	14.959	Roll:	-0.521	Pitch:	-0.806	Yaw:	2.648	Thrust:	70.042
Time:	4.328	Roll Set Point:	-0.167	Pitch Set Point:	0.056	Yaw Set Point:	-0.013	X_WP:	0.100	Y_WP:	0.000	Y_WP:	0.500	X:	0.134	Y:	-0.028	Z:	0.598	yaw:	0.724	yaw rate:	36.518	Roll:	-3.217	Pitch:	-0.956	Yaw:	5.654	Thrust:	23.710
Time:	4.340	Roll Set Point:	-0.165	Pitch Set Point:	0.056	Yaw Set Point:	0.002	X_WP:	0.100	Y_WP:	0.000	Y_WP:	0.500	X:	0.133	Y:	-0.028	Z:	0.601	yaw:	-0.096	yaw rate:	-82.067	Roll:	0.058	Pitch:	-0.438	Yaw:	-19.263	Thrust:	47.773
Time:	4.352	Roll Set Point:	-0.163	Pitch Set Point:	0.056	Yaw Set Point:	-0.009	X_WP:	0.100	Y_WP:	0.000	Y_WP:	0.500	X:	0.132	Y:	-0.028	Z:	0.605	yaw:	0.489	yaw rate:	58.573	Roll:	-1.033	Pitch:	-1.020	Yaw:	12.906	Thrust:	49.842
Time:	4.363	Roll Set Point:	-0.161	Pitch Set Point:	0.056	Yaw Set Point:	-0.011	X_WP:	0.100	Y_WP:	0.000	Y_WP:	0.500	X:	0.131	Y:	-0.028	Z:	0.609	yaw:	0.652	yaw rate:	16.250	Roll:	-0.774	Pitch:	-0.749	Yaw:	4.289	Thrust:	41.537
Time:	4.383	Roll Set Point:	-0.159	Pitch Set Point:	0.056	Yaw Set Point:	-0.013	X_WP:	0.100	Y_WP:	0.000	Y_WP:	0.500	X:	0.130	Y:	-0.028	Z:	0.613	yaw:	0.755	yaw rate:	10.293	Roll:	-0.275	Pitch:	-0.749	Yaw:	1.481	Thrust:	100.000
Time:	4.394	Roll Set Point:	-0.156	Pitch Set Point:	0.056	Yaw Set Point:	-0.011	X_WP:	0.100	Y_WP:	0.000	Y_WP:	0.500	X:	0.128	Y:	-0.028	Z:	0.621	yaw:	0.632	yaw rate:	85.597	Roll:	-1.631	Pitch:	-0.292	Yaw:	-2.504	Thrust:	24.805
Time:	4.406	Roll Set Point:	-0.154	Pitch Set Point:	0.056	Yaw Set Point:	-0.004	X_WP:	0.100	Y_WP:	0.000	Y_WP:	0.500	X:	0.127	Y:	-0.028	Z:	0.624	yaw:	0.245	yaw rate:	-38.691	Roll:	-0.409	Pitch:	-0.630	Yaw:	-8.589	Thrust:	48.952
Time:	4.419	Roll Set Point:	-0.152	Pitch Set Point:	0.056	Yaw Set Point:	-0.011	X_WP:	0.100	Y_WP:	0.000	Y_WP:	0.500	X:	0.126	Y:	-0.028	Z:	0.628	yaw:	0.655	yaw rate:	41.010	Roll:	-0.917	Pitch:	-0.881	Yaw:	9.324	Thrust:	47.952
Time:	4.430	Roll Set Point:	-0.150	Pitch Set Point:	0.056	Yaw Set Point:	-0.003	X_WP:	0.100	Y_WP:	0.000	Y_WP:	0.500	X:	0.125	Y:	-0.028	Z:	0.632	yaw:	0.197	yaw rate:	-45.852	Roll:	-0.500	Pitch:	-0.504	Yaw:	-11.559	Thrust:	38.314
Time:	4.442	Roll Set Point:	-0.146	Pitch Set Point:	0.056	Yaw Set Point:	-0.013	X_WP:	0.100	Y_WP:	0.000	Y_WP:	0.500	X:	0.123	Y:	-0.028	Z:	0.638	yaw:	0.723	yaw rate:	52.635	Roll:	-2.379	Pitch:	-1.089	Yaw:	11.950	Thrust:	37.392
Time:	4.454	Roll Set Point:	-0.145	Pitch Set Point:	0.056	Yaw Set Point:	-0.004	X_WP:	0.100	Y_WP:	0.000	Y_WP:	0.500	X:	0.123	Y:	-0.028	Z:	0.641	yaw:	0.249	yaw rate:	-47.419	Roll:	-0.251	Pitch:	-0.556	Yaw:	-10.084	Thrust:	53.797
Time:	4.464	Roll Set Point:	-0.144	Pitch Set Point:	0.056	Yaw Set Point:	-0.001	X_WP:	0.100	Y_WP:	0.000	Y_WP:	0.500	X:	0.122	Y:	-0.028	Z:	0.643	yaw:	0.055	yaw rate:	-19.391	Roll:	-0.551	Pitch:	-0.645	Yaw:	-5.183	Thrust:	41.169
Time:	4.481	Roll Set Point:	-0.142	Pitch Set Point:	0.057	Yaw Set Point:	-0.004	X_WP:	0.100	Y_WP:	0.000	Y_WP:	0.500	X:	0.121	Y:	-0.028	Z:	0.645	yaw:	0.205	yaw rate:	15.007	Roll:	-0.679	Pitch:	-1.033	Yaw:	1.968	Thrust:	76.038
Time:	4.493	Roll Set Point:	-0.140	Pitch Set Point:	0.057	Yaw Set Point:	-0.010	X_WP:	0.100	Y_WP:	0.000	Y_WP:	0.500	X:	0.120	Y:	-0.028	Z:	0.647	yaw:	0.566	yaw rate:	36.122	Roll:	-0.667	Pitch:	-0.723	Yaw:	7.812	Thrust:	58.182
Time:	4.504	Roll Set Point:	-0.138	Pitch Set Point:	0.056	Yaw Set Point:	-0.007	X_WP:	0.100	Y_WP:	0.000	Y_WP:	0.500	X:	0.119	Y:	-0.028	Z:	0.649	yaw:	0.403	yaw rate:	-16.356	Roll:	-0.563	Pitch:	-0.305	Yaw:	-3.778	Thrust:	45.665
Time:	4.518	Roll Set Point:	-0.137	Pitch Set Point:	0.056	Yaw Set Point:	-0.001	X_WP:	0.100	Y_WP:	0.000	Y_WP:	0.500	X:	0.119	Y:	-0.028	Z:	0.651	yaw:	0.061	yaw rate:	-34.209	Roll:	-0.298	Pitch:	-0.624	Yaw:	-6.872	Thrust:	65.490
Time:	4.529	Roll Set Point:	-0.132	Pitch Set Point:	0.057	Yaw Set Point:	-0.003	X_WP:	0.100	Y_WP:	0.000	Y_WP:	0.500	X:	0.116	Y:	-0.029	Z:	0.654	yaw:	0.182	yaw rate:	-1.191	Roll:	-3.110	Pitch:	-1.372	Yaw:	2.670	Thrust:	39.423
Time:	4.540	Roll Set Point:	-0.131	Pitch Set Point:	0.057	Yaw Set Point:	-0.004	X_WP:	0.100	Y_WP:	0.000	Y_WP:	0.500	X:	0.116	Y:	-0.028	Z:	0.655	yaw:	0.231	yaw rate:	4.912	Roll:	-0.779	Pitch:	-0.385	Yaw:	1.108	Thrust:	46.176
Time:	4.552	Roll Set Point:	-0.129	Pitch Set Point:	0.057	Yaw Set Point:	-0.010	X_WP:	0.100	Y_WP:	0.000	Y_WP:	0.500	X:	0.115	Y:	-0.028	Z:	0.656	yaw:	0.585	yaw rate:	35.439	Roll:	-0.949	Pitch:	-0.821	Yaw:	7.704	Thrust:	57.909
Time:	4.562	Roll Set Point:	-0.128	Pitch Set Point:	0.057	Yaw Set Point:	-0.003	X_WP:	0.100	Y_WP:	0.000	Y_WP:	0.500	X:	0.114	Y:	-0.028	Z:	0.656	yaw:	0.167	yaw rate:	-41.881	Roll:	-0.325	Pitch:	-0.790	Yaw:	-11.085	Thrust:	45.107
Time:	4.573	Roll Set Point:	-0.128	Pitch Set Point:	0.057	Yaw Set Point:	-0.003	X_WP:	0.100	Y_WP:	0.000	Y_WP:	0.500	X:	0.114	Y:	-0.028	Z:	0.656	yaw:	0.167	yaw rate:	-41.881	Roll:	0.329	Pitch:	-0.731	Yaw:	-0.219	Thrust:	46.541
Time:	4.586	Roll Set Point:	-0.126	Pitch Set Point:	0.057	Yaw Set Point:	-0.002	X_WP:	0.100	Y_WP:	0.000	Y_WP:	0.500	X:	0.113	Y:	-0.028	Z:	0.657	yaw:	0.124	yaw rate:	-6.835	Roll:	-1.391	Pitch:	-0.734	Yaw:	-1.238	Thrust:	60.521
Time:	4.596	Roll Set Point:	-0.125	Pitch Set Point:	0.057	Yaw Set Point:	-0.008	X_WP:	0.100	Y_WP:	0.000	Y_WP:	0.500	X:	0.112	Y:	-0.028	Z:	0.657	yaw:	0.457	yaw rate:	33.237	Roll:	-0.965	Pitch:	-0.729	Yaw:	8.468	Thrust:	47.942
Time:	4.613	Roll Set Point:	-0.123	Pitch Set Point:	0.057	Yaw Set Point:	-0.006	X_WP:	0.100	Y_WP:	0.000	Y_WP:	0.500	X:	0.112	Y:	-0.028	Z:	0.657	yaw:	0.347	yaw rate:	-10.989	Roll:	-0.470	Pitch:	-0.680	Yaw:	-1.961	Thrust:	73.301
Time:	4.625	Roll Set Point:	-0.122	Pitch Set Point:	0.057	Yaw Set Point:	-0.005	X_WP:	0.100	Y_WP:	0.000	Y_WP:	0.500	X:	0.111	Y:	-0.028	Z:	0.657	yaw:	0.276	yaw rate:	-7.085	Roll:	-0.368	Pitch:	-0.720	Yaw:	-1.565	Thrust:	68.146
Time:	4.637	Roll Set Point:	-0.120	Pitch Set Point:	0.057	Yaw Set Point:	-0.004	X_WP:	0.100	Y_WP:	0.000	Y_WP:	0.500	X:	0.110	Y:	-0.029	Z:	0.656	yaw:	0.210	yaw rate:	-6.570	Roll:	-1.423	Pitch:	-1.026	Yaw:	-1.665	Thrust:	54.515
Time:	4.651	Roll Set Point:	-0.119	Pitch Set Point:	0.058	Yaw Set Point:	-0.005	X_WP:	0.100	Y_WP:	0.000	Y_WP:	0.500	X:	0.110	Y:	-0.029	Z:	0.655	yaw:	0.304	yaw rate:	9.347	Roll:	-0.504	Pitch:	-0.780	Yaw:	1.520	Thrust:	74.450
Time:	4.662	Roll Set Point:	-0.118	Pitch Set Point:	0.058	Yaw Set Point:	0.006	X_WP:	0.100	Y_WP:	0.000	Y_WP:	0.500	X:	0.109	Y:	-0.029	Z:	0.654	yaw:	-0.367	yaw rate:	-48.446	Roll:	-0.681	Pitch:	-1.010	Yaw:	-17.617	Thrust:	55.454
Time:	4.673	Roll Set Point:	-0.118	Pitch Set Point:	0.058	Yaw Set Point:	0.006	X_WP:	0.100	Y_WP:	0.000	Y_WP:	0.500	X:	0.109	Y:	-0.029	Z:	0.654	yaw:	-0.367	yaw rate:	-48.446	Roll:	0.179	Pitch:	-0.750	Yaw:	-0.959	Thrust:	45.170
Time:	4.684	Roll Set Point:	-0.115	Pitch Set Point:	0.058	Yaw Set Point:	-0.003	X_WP:	0.100	Y_WP:	0.000	Y_WP:	0.500	X:	0.108	Y:	-0.029	Z:	0.652	yaw:	0.171	yaw rate:	-15.816	Roll:	-1.641	Pitch:	-0.657	Yaw:	11.998	Thrust:	65.748
Time:	4.695	Roll Set Point:	-0.115	Pitch Set Point:	0.058	Yaw Set Point:	0.003	X_WP:	0.100	Y_WP:	0.000	Y_WP:	0.500	X:	0.107	Y:	-0.029	Z:	0.650	yaw:	-0.188	yaw rate:	-35.962	Roll:	-0.154	Pitch:	-0.877	Yaw:	-9.611	Thrust:	53.687
Time:	4.707	Roll Set Point:	-0.114	Pitch Set Point:	0.058	Yaw Set Point:	0.002	X_WP:	0.100	Y_WP:	0.000	Y_WP:	0.500	X:	0.107	Y:	-0.029	Z:	0.649	yaw:	-0.142	yaw rate:	4.664	Roll:	-0.572	Pitch:	-0.952	Yaw:	0.329	Thrust:	55.472
Time:	4.721	Roll Set Point:	-0.113	Pitch Set Point:	0.058	Yaw Set Point:	-0.008	X_WP:	0.100	Y_WP:	0.000	Y_WP:	0.500	X:	0.107	Y:	-0.029	Z:	0.648	yaw:	0.435	yaw rate:	57.684	Roll:	-0.799	Pitch:	-0.753	Yaw:	11.212	Thrust:	71.974
Time:	4.732	Roll Set Point:	-0.112	Pitch Set Point:	0.058	Yaw Set Point:	-0.005	X_WP:	0.100	Y_WP:	0.000	Y_WP:	0.500	X:	0.106	Y:	-0.029	Z:	0.645	yaw:	0.269	yaw rate:	-16.617	Roll:	-0.653	Pitch:	-0.768	Yaw:	-3.785	Thrust:	63.827
Time:	4.744	Roll Set Point:	-0.111	Pitch Set Point:	0.058	Yaw Set Point:	-0.003	X_WP:	0.100	Y_WP:	0.000	Y_WP:	0.500	X:	0.106	Y:	-0.029	Z:	0.644	yaw:	0.195	yaw rate:	-7.352	Roll:	-0.360	Pitch:	-0.874	Yaw:	-1.812	Thrust:	57.249
Time:	4.764	Roll Set Point:	-0.110	Pitch Set Point:	0.059	Yaw Set Point:	-0.011	X_WP:	0.100	Y_WP:	0.000	Y_WP:	0.500	X:	0.105	Y:	-0.029	Z:	0.642	yaw:	0.645	yaw rate:	81.823	Roll:	-0.803	Pitch:	-0.906	Yaw:	5.962	Thrust:	100.000
Time:	4.780	Roll Set Point:	-0.110	Pitch Set Point:	0.059	Yaw Set Point:	-0.001	X_WP:	0.100	Y_WP:	0.000	Y_WP:	0.500	X:	0.105	Y:	-0.030	Z:	0.640	yaw:	0.050	yaw rate:	-59.541	Roll:	0.289	Pitch:	-0.802	Yaw:	-10.889	Thrust:	77.483
Time:	4.792	Roll Set Point:	-0.109	Pitch Set Point:	0.059	Yaw Set Point:	-0.006	X_WP:	0.100	Y_WP:	0.000	Y_WP:	0.500	X:	0.105	Y:	-0.029	Z:	0.639	yaw:	0.348	yaw rate:	29.758	Roll:	-0.453	Pitch:	-0.701	Yaw:	6.172	Thrust:	63.919
Time:	4.803	Roll Set Point:	-0.109	Pitch Set Point:	0.059	Yaw Set Point:	-0.005	X_WP:	0.100	Y_WP:	0.000	Y_WP:	0.500	X:	0.104	Y:	-0.030	Z:	0.638	yaw:	0.263	yaw rate:	-8.445	Roll:	-0.259	Pitch:	-0.879	Yaw:	-2.076	Thrust:	53.994
Time:	4.817	Roll Set Point:	-0.108	Pitch Set Point:	0.059	Yaw Set Point:	0.004	X_WP:	0.100	Y_WP:	0.000	Y_WP:	0.500	X:	0.104	Y:	-0.030	Z:	0.636	yaw:	-0.240	yaw rate:	-50.352	Roll:	-0.055	Pitch:	-0.946	Yaw:	-10.608	Thrust:	63.237
Time:	4.828	Roll Set Point:	-0.108	Pitch Set Point:	0.059	Yaw Set Point:	-0.001	X_WP:	0.100	Y_WP:	0.000	Y_WP:	0.500	X:	0.104	Y:	-0.030	Z:	0.635	yaw:	0.053	yaw rate:	29.331	Roll:	-0.333	Pitch:	-0.813	Yaw:	6.256	Thrust:	62.947
Time:	4.839	Roll Set Point:	-0.108	Pitch Set Point:	0.060	Yaw Set Point:	0.003	X_WP:	0.100	Y_WP:	0.000	Y_WP:	0.500	X:	0.104	Y:	-0.030	Z:	0.634	yaw:	-0.161	yaw rate:	-21.341	Roll:	-0.046	Pitch:	-1.018	Yaw:	-5.950	Thrust:	50.729
Time:	4.852	Roll Set Point:	-0.107	Pitch Set Point:	0.060	Yaw Set Point:	0.002	X_WP:	0.100	Y_WP:	0.000	Y_WP:	0.500	X:	0.104	Y:	-0.030	Z:	0.633	yaw:	-0.107	yaw rate:	5.378	Roll:	-0.247	Pitch:	-0.888	Yaw:	0.411	Thrust:	61.876
Time:	4.863	Roll Set Point:	-0.107	Pitch Set Point:	0.060	Yaw Set Point:	-0.006	X_WP:	0.100	Y_WP:	0.000	Y_WP:	0.500	X:	0.103	Y:	-0.030	Z:	0.632	yaw:	0.371	yaw rate:	6.761	Roll:	-0.696	Pitch:	-0.900	Yaw:	10.868	Thrust:	51.024
Time:	4.874	Roll Set Point:	-0.106	Pitch Set Point:	0.060	Yaw Set Point:	-0.006	X_WP:	0.100	Y_WP:	0.000	Y_WP:	0.500	X:	0.103	Y:	-0.030	Z:	0.632	yaw:	0.316	yaw rate:	-5.505	Roll:	-0.119	Pitch:	-0.902	Yaw:	-1.305	Thrust:	55.587
Time:	4.892	Roll Set Point:	-0.107	Pitch Set Point:	0.060	Yaw Set Point:	0.001	X_WP:	0.100	Y_WP:	0.000	Y_WP:	0.500	X:	0.103	Y:	-0.030	Z:	0.631	yaw:	-0.042	yaw rate:	-35.711	Roll:	0.160	Pitch:	-0.805	Yaw:	-6.287	Thrust:	79.355
Time:	4.912	Roll Set Point:	-0.106	Pitch Set Point:	0.060	Yaw Set Point:	-0.006	X_WP:	0.100	Y_WP:	0.000	Y_WP:	0.500	X:	0.103	Y:	-0.030	Z:	0.631	yaw:	0.362	yaw rate:	40.367	Roll:	-0.552	Pitch:	-0.775	Yaw:	8.093	Thrust:	59.165
Time:	4.929	Roll Set Point:	-0.106	Pitch Set Point:	0.061	Yaw Set Point:	-0.004	X_WP:	0.100	Y_WP:	0.000	Y_WP:	0.500	X:	0.103	Y:	-0.030	Z:	0.630	yaw:	0.204	yaw rate:	14.777	Roll:	-0.176	Pitch:	-0.756	Yaw:	-2.378	Thrust:	100.000
Time:	4.942	Roll Set Point:	-0.106	Pitch Set Point:	0.061	Yaw Set Point:	-0.004	X_WP:	0.100	Y_WP:	0.000	Y_WP:	0.500	X:	0.103	Y:	-0.030	Z:	0.630	yaw:	0.204	yaw rate:	-0.021	Roll:	0.144	Pitch:	-0.927	Yaw:	-0.235	Thrust:	59.736
Time:	4.959	Roll Set Point:	-0.107	Pitch Set Point:	0.061	Yaw Set Point:	0.005	X_WP:	0.100	Y_WP:	0.000	Y_WP:	0.500	X:	0.103	Y:	-0.031	Z:	0.629	yaw:	-0.285	yaw rate:	-16.898	Roll:	0.310	Pitch:	-0.965	Yaw:	-8.469	Thrust:	80.559
Time:	4.972	Roll Set Point:	-0.107	Pitch Set Point:	0.061	Yaw Set Point:	0.002	X_WP:	0.100	Y_WP:	0.000	Y_WP:	0.500	X:	0.103	Y:	-0.030	Z:	0.629	yaw:	-0.133	yaw rate:	15.176	Roll:	-0.051	Pitch:	-0.484	Yaw:	2.640	Thrust:	52.459
Time:	4.993	Roll Set Point:	-0.107	Pitch Set Point:	0.061	Yaw Set Point:	0.003	X_WP:	0.100	Y_WP:	0.000	Y_WP:	0.500	X:	0.103	Y:	-0.030	Z:	0.630	yaw:	-0.190	yaw rate:	39.783	Roll:	0.044	Pitch:	-0.767	Yaw:	-1.812	Thrust:	96.272
Time:	5.003	Roll Set Point:	-0.106	Pitch Set Point:	0.061	Yaw Set Point:	-0.003	X_WP:	0.100	Y_WP:	0.000	Y_WP:	0.500	X:	0.103	Y:	-0.031	Z:	0.631	yaw:	0.179	yaw rate:	36.959	Roll:	-0.424	Pitch:	-1.128	Yaw:	8.587	Thrust:	43.943
Time:	5.024	Roll Set Point:	-0.106	Pitch Set Point:	0.061	Yaw Set Point:	-0.003	X_WP:	0.100	Y_WP:	0.000	Y_WP:	0.500	X:	0.103	Y:	-0.031	Z:	0.631	yaw:	0.179	yaw rate:	36.959	Roll:	-0.055	Pitch:	-0.751	Yaw:	-0.565	Thrust:	89.367
Time:	5.034	Roll Set Point:	-0.107	Pitch Set Point:	0.061	Yaw Set Point:	0.004	X_WP:	0.100	Y_WP:	0.000	Y_WP:	0.500	X:	0.103	Y:	-0.031	Z:	0.634	yaw:	-0.248	yaw rate:	-3.889	Roll:	0.672	Pitch:	-0.728	Yaw:	-11.915	Thrust:	35.617
Time:	5.050	Roll Set Point:	-0.107	Pitch Set Point:	0.061	Yaw Set Point:	0.004	X_WP:	0.100	Y_WP:	0.000	Y_WP:	0.500	X:	0.103	Y:	-0.031	Z:	0.634	yaw:	-0.248	yaw rate:	-3.889	Roll:	-0.015	Pitch:	-0.780	Yaw:	-0.983	Thrust:	71.339
Time:	5.061	Roll Set Point:	-0.108	Pitch Set Point:	0.061	Yaw Set Point:	0.014	X_WP:	0.100	Y_WP:	0.000	Y_WP:	0.500	X:	0.104	Y:	-0.030	Z:	0.639	yaw:	-0.779	yaw rate:	-55.752	Roll:	0.660	Pitch:	-0.366	Yaw:	-13.408	Thrust:	30.503
Time:	5.073	Roll Set Point:	-0.107	Pitch Set Point:	0.060	Yaw Set Point:	0.001	X_WP:	0.100	Y_WP:	0.000	Y_WP:	0.500	X:	0.104	Y:	-0.030	Z:	0.641	yaw:	-0.057	yaw rate:	72.163	Roll:	-0.701	Pitch:	-0.146	Yaw:	15.139	Thrust:	36.870
Time:	5.089	Roll Set Point:	-0.107	Pitch Set Point:	0.059	Yaw Set Point:	-0.001	X_WP:	0.100	Y_WP:	0.000	Y_WP:	0.500	X:	0.104	Y:	-0.030	Z:	0.643	yaw:	0.049	yaw rate:	10.643	Roll:	-0.101	Pitch:	-0.549	Yaw:	1.239	Thrust:	63.666
Time:	5.100	Roll Set Point:	-0.107	Pitch Set Point:	0.059	Yaw Set Point:	0.006	X_WP:	0.100	Y_WP:	0.000	Y_WP:	0.500	X:	0.104	Y:	-0.029	Z:	0.645	yaw:	-0.321	yaw rate:	-37.040	Roll:	0.310	Pitch:	-0.156	Yaw:	-10.076	Thrust:	35.981
Time:	5.117	Roll Set Point:	-0.107	Pitch Set Point:	0.058	Yaw Set Point:	0.003	X_WP:	0.100	Y_WP:	0.000	Y_WP:	0.500	X:	0.103	Y:	-0.029	Z:	0.648	yaw:	-0.166	yaw rate:	15.497	Roll:	-0.201	Pitch:	-0.153	Yaw:	1.651	Thrust:	61.213
Time:	5.129	Roll Set Point:	-0.106	Pitch Set Point:	0.055	Yaw Set Point:	0.003	X_WP:	0.100	Y_WP:	0.000	Y_WP:	0.500	X:	0.103	Y:	-0.028	Z:	0.656	yaw:	-0.167	yaw rate:	37.645	Roll:	-0.332	Pitch:	0.644	Yaw:	-0.768	Thrust:	25.597
Time:	5.140	Roll Set Point:	-0.106	Pitch Set Point:	0.055	Yaw Set Point:	0.006	X_WP:	0.100	Y_WP:	0.000	Y_WP:	0.500	X:	0.103	Y:	-0.027	Z:	0.659	yaw:	-0.359	yaw rate:	-19.211	Roll:	0.033	Pitch:	-0.139	Yaw:	-5.700	Thrust:	31.567
Time:	5.151	Roll Set Point:	-0.106	Pitch Set Point:	0.053	Yaw Set Point:	0.006	X_WP:	0.100	Y_WP:	0.000	Y_WP:	0.500	X:	0.103	Y:	-0.027	Z:	0.661	yaw:	-0.367	yaw rate:	-0.843	Roll:	-0.098	Pitch:	0.011	Yaw:	-1.182	Thrust:	39.399
Time:	5.162	Roll Set Point:	-0.106	Pitch Set Point:	0.052	Yaw Set Point:	0.006	X_WP:	0.100	Y_WP:	0.000	Y_WP:	0.500	X:	0.103	Y:	-0.026	Z:	0.664	yaw:	-0.370	yaw rate:	-0.286	Roll:	-0.100	Pitch:	0.242	Yaw:	-1.014	Thrust:	31.060
Time:	5.174	Roll Set Point:	-0.106	Pitch Set Point:	0.051	Yaw Set Point:	-0.003	X_WP:	0.100	Y_WP:	0.000	Y_WP:	0.500	X:	0.103	Y:	-0.026	Z:	0.666	yaw:	0.189	yaw rate:	55.866	Roll:	-0.604	Pitch:	0.158	Yaw:	13.074	Thrust:	34.248
Time:	5.189	Roll Set Point:	-0.105	Pitch Set Point:	0.050	Yaw Set Point:	-0.011	X_WP:	0.100	Y_WP:	0.000	Y_WP:	0.500	X:	0.103	Y:	-0.025	Z:	0.667	yaw:	0.653	yaw rate:	46.458	Roll:	-0.523	Pitch:	-0.235	Yaw:	7.842	Thrust:	61.127
Time:	5.199	Roll Set Point:	-0.105	Pitch Set Point:	0.049	Yaw Set Point:	-0.004	X_WP:	0.100	Y_WP:	0.000	Y_WP:	0.500	X:	0.103	Y:	-0.024	Z:	0.669	yaw:	0.232	yaw rate:	-42.155	Roll:	0.430	Pitch:	0.661	Yaw:	-10.722	Thrust:	32.584
Time:	5.214	Roll Set Point:	-0.105	Pitch Set Point:	0.048	Yaw Set Point:	-0.001	X_WP:	0.100	Y_WP:	0.000	Y_WP:	0.500	X:	0.103	Y:	-0.024	Z:	0.670	yaw:	0.041	yaw rate:	-19.084	Roll:	-0.029	Pitch:	-0.160	Yaw:	-4.066	Thrust:	50.224
Time:	5.225	Roll Set Point:	-0.105	Pitch Set Point:	0.046	Yaw Set Point:	-0.006	X_WP:	0.100	Y_WP:	0.000	Y_WP:	0.500	X:	0.102	Y:	-0.023	Z:	0.672	yaw:	0.360	yaw rate:	-15.389	Roll:	-0.437	Pitch:	0.943	Yaw:	6.897	Thrust:	43.513
Time:	5.237	Roll Set Point:	-0.104	Pitch Set Point:	0.045	Yaw Set Point:	-0.007	X_WP:	0.100	Y_WP:	0.000	Y_WP:	0.500	X:	0.102	Y:	-0.022	Z:	0.672	yaw:	0.412	yaw rate:	5.260	Roll:	-0.285	Pitch:	0.334	Yaw:	1.307	Thrust:	39.986
Time:	5.252	Roll Set Point:	-0.104	Pitch Set Point:	0.043	Yaw Set Point:	-0.005	X_WP:	0.100	Y_WP:	0.000	Y_WP:	0.500	X:	0.102	Y:	-0.021	Z:	0.672	yaw:	0.266	yaw rate:	-14.593	Roll:	-0.076	Pitch:	0.490	Yaw:	-2.769	Thrust:	62.953
Time:	5.264	Roll Set Point:	-0.104	Pitch Set Point:	0.042	Yaw Set Point:	-0.007	X_WP:	0.100	Y_WP:	0.000	Y_WP:	0.500	X:	0.102	Y:	-0.021	Z:	0.671	yaw:	0.409	yaw rate:	14.236	Roll:	-0.219	Pitch:	0.193	Yaw:	3.187	Thrust:	47.326
Time:	5.282	Roll Set Point:	-0.104	Pitch Set Point:	0.041	Yaw Set Point:	-0.000	X_WP:	0.100	Y_WP:	0.000	Y_WP:	0.500	X:	0.102	Y:	-0.021	Z:	0.671	yaw:	0.004	yaw rate:	-40.490	Roll:	0.181	Pitch:	0.029	Yaw:	-7.056	Thrust:	59.130
Time:	5.296	Roll Set Point:	-0.104	Pitch Set Point:	0.039	Yaw Set Point:	-0.013	X_WP:	0.100	Y_WP:	0.000	Y_WP:	0.500	X:	0.102	Y:	-0.019	Z:	0.669	yaw:	0.722	yaw rate:	-7.755	Roll:	-0.435	Pitch:	0.608	Yaw:	13.653	Thrust:	69.975
Time:	5.309	Roll Set Point:	-0.104	Pitch Set Point:	0.038	Yaw Set Point:	-0.012	X_WP:	0.100	Y_WP:	0.000	Y_WP:	0.500	X:	0.102	Y:	-0.019	Z:	0.667	yaw:	0.669	yaw rate:	-5.375	Roll:	-0.049	Pitch:	0.207	Yaw:	-0.623	Thrust:	54.504
Time:	5.321	Roll Set Point:	-0.104	Pitch Set Point:	0.037	Yaw Set Point:	-0.000	X_WP:	0.100	Y_WP:	0.000	Y_WP:	0.500	X:	0.102	Y:	-0.019	Z:	0.666	yaw:	0.020	yaw rate:	-64.876	Roll:	0.302	Pitch:	-0.112	Yaw:	-14.561	Thrust:	55.072
Time:	5.333	Roll Set Point:	-0.104	Pitch Set Point:	0.036	Yaw Set Point:	-0.001	X_WP:	0.100	Y_WP:	0.000	Y_WP:	0.500	X:	0.102	Y:	-0.018	Z:	0.664	yaw:	0.046	yaw rate:	2.580	Roll:	-0.198	Pitch:	0.355	Yaw:	0.108	Thrust:	52.974
Time:	5.352	Roll Set Point:	-0.103	Pitch Set Point:	0.034	Yaw Set Point:	-0.008	X_WP:	0.100	Y_WP:	0.000	Y_WP:	0.500	X:	0.102	Y:	-0.017	Z:	0.660	yaw:	0.451	yaw rate:	40.500	Roll:	-0.284	Pitch:	0.505	Yaw:	5.617	Thrust:	81.407
Time:	5.365	Roll Set Point:	-0.103	Pitch Set Point:	0.033	Yaw Set Point:	-0.017	X_WP:	0.100	Y_WP:	0.000	Y_WP:	0.500	X:	0.102	Y:	-0.016	Z:	0.656	yaw:	0.986	yaw rate:	39.516	Roll:	-0.240	Pitch:	0.408	Yaw:	12.070	Thrust:	60.517
Time:	5.383	Roll Set Point:	-0.103	Pitch Set Point:	0.032	Yaw Set Point:	-0.017	X_WP:	0.100	Y_WP:	0.000	Y_WP:	0.500	X:	0.102	Y:	-0.016	Z:	0.654	yaw:	0.988	yaw rate:	0.157	Roll:	-0.374	Pitch:	0.027	Yaw:	0.724	Thrust:	77.233
Time:	5.395	Roll Set Point:	-0.103	Pitch Set Point:	0.031	Yaw Set Point:	-0.023	X_WP:	0.100	Y_WP:	0.000	Y_WP:	0.500	X:	0.102	Y:	-0.015	Z:	0.649	yaw:	1.298	yaw rate:	1.044	Roll:	0.053	Pitch:	0.344	Yaw:	8.103	Thrust:	63.504
Time:	5.408	Roll Set Point:	-0.103	Pitch Set Point:	0.030	Yaw Set Point:	-0.024	X_WP:	0.100	Y_WP:	0.000	Y_WP:	0.500	X:	0.102	Y:	-0.015	Z:	0.647	yaw:	1.354	yaw rate:	5.516	Roll:	0.018	Pitch:	0.001	Yaw:	2.503	Thrust:	53.743
Time:	5.421	Roll Set Point:	-0.103	Pitch Set Point:	0.030	Yaw Set Point:	-0.025	X_WP:	0.100	Y_WP:	0.000	Y_WP:	0.500	X:	0.102	Y:	-0.015	Z:	0.644	yaw:	1.426	yaw rate:	7.243	Roll:	-0.189	Pitch:	-0.076	Yaw:	2.883	Thrust:	61.433
Time:	5.432	Roll Set Point:	-0.104	Pitch Set Point:	0.030	Yaw Set Point:	-0.006	X_WP:	0.100	Y_WP:	0.000	Y_WP:	0.500	X:	0.102	Y:	-0.015	Z:	0.642	yaw:	0.359	yaw rate:	-106.752	Roll:	0.646	Pitch:	-0.385	Yaw:	-23.947	Thrust:	50.821
Time:	5.452	Roll Set Point:	-0.104	Pitch Set Point:	0.030	Yaw Set Point:	0.005	X_WP:	0.100	Y_WP:	0.000	Y_WP:	0.500	X:	0.102	Y:	-0.015	Z:	0.640	yaw:	-0.304	yaw rate:	-66.250	Roll:	0.404	Pitch:	-0.339	Yaw:	-10.014	Thrust:	84.171
Time:	5.465	Roll Set Point:	-0.104	Pitch Set Point:	0.028	Yaw Set Point:	-0.009	X_WP:	0.100	Y_WP:	0.000	Y_WP:	0.500	X:	0.102	Y:	-0.014	Z:	0.634	yaw:	0.514	yaw rate:	-47.249	Roll:	-0.057	Pitch:	0.452	Yaw:	16.659	Thrust:	68.633
