Time:	2.454	Roll Set Point:	-0.015	Pitch Set Point:	0.029	Yaw Set Point:	-2.958	X_WP:	0.000	Y_WP:	0.000	Y_WP:	0.500	X:	0.163	Y:	0.069	Z:	0.401	yaw:	169.460	yaw rate:	2.678	Roll:	-4.280	Pitch:	-2.828	Yaw:	236.611	Thrust:	5.453
Time:	2.485	Roll Set Point:	-0.015	Pitch Set Point:	0.029	Yaw Set Point:	-2.957	X_WP:	0.000	Y_WP:	0.000	Y_WP:	0.500	X:	0.163	Y:	0.069	Z:	0.401	yaw:	169.435	yaw rate:	-1.974	Roll:	-4.260	Pitch:	-2.895	Yaw:	238.213	Thrust:	5.847
Time:	2.532	Roll Set Point:	-0.015	Pitch Set Point:	0.029	Yaw Set Point:	-2.957	X_WP:	0.000	Y_WP:	0.000	Y_WP:	0.500	X:	0.163	Y:	0.069	Z:	0.401	yaw:	169.437	yaw rate:	0.194	Roll:	-4.314	Pitch:	-2.836	Yaw:	241.277	Thrust:	6.555
Time:	2.579	Roll Set Point:	-0.015	Pitch Set Point:	0.029	Yaw Set Point:	-2.957	X_WP:	0.000	Y_WP:	0.000	Y_WP:	0.500	X:	0.163	Y:	0.069	Z:	0.401	yaw:	169.451	yaw rate:	-0.377	Roll:	-4.343	Pitch:	-2.857	Yaw:	241.367	Thrust:	7.149
Time:	2.610	Roll Set Point:	-0.015	Pitch Set Point:	0.029	Yaw Set Point:	-2.957	X_WP:	0.000	Y_WP:	0.000	Y_WP:	0.500	X:	0.163	Y:	0.069	Z:	0.401	yaw:	169.419	yaw rate:	-1.943	Roll:	-4.277	Pitch:	-2.935	Yaw:	239.405	Thrust:	6.853
Time:	2.641	Roll Set Point:	-0.015	Pitch Set Point:	0.029	Yaw Set Point:	-2.958	X_WP:	0.000	Y_WP:	0.000	Y_WP:	0.500	X:	0.163	Y:	0.069	Z:	0.401	yaw:	169.460	yaw rate:	4.186	Roll:	-4.412	Pitch:	-2.774	Yaw:	240.087	Thrust:	7.400
Time:	2.672	Roll Set Point:	-0.015	Pitch Set Point:	0.029	Yaw Set Point:	-2.957	X_WP:	0.000	Y_WP:	0.000	Y_WP:	0.500	X:	0.163	Y:	0.069	Z:	0.401	yaw:	169.432	yaw rate:	-2.860	Roll:	-4.286	Pitch:	-2.935	Yaw:	239.457	Thrust:	7.576
Time:	2.704	Roll Set Point:	-0.015	Pitch Set Point:	0.029	Yaw Set Point:	-2.958	X_WP:	0.000	Y_WP:	0.000	Y_WP:	0.500	X:	0.163	Y:	0.069	Z:	0.401	yaw:	169.467	yaw rate:	3.551	Roll:	-4.414	Pitch:	-2.814	Yaw:	240.044	Thrust:	8.123
Time:	2.735	Roll Set Point:	-0.015	Pitch Set Point:	0.029	Yaw Set Point:	-2.957	X_WP:	0.000	Y_WP:	0.000	Y_WP:	0.500	X:	0.163	Y:	0.069	Z:	0.401	yaw:	169.430	yaw rate:	-3.708	Roll:	-4.318	Pitch:	-2.973	Yaw:	239.384	Thrust:	8.372
Time:	2.766	Roll Set Point:	-0.015	Pitch Set Point:	0.029	Yaw Set Point:	-2.958	X_WP:	0.000	Y_WP:	0.000	Y_WP:	0.500	X:	0.163	Y:	0.069	Z:	0.401	yaw:	169.454	yaw rate:	0.978	Roll:	-4.442	Pitch:	-2.828	Yaw:	239.928	Thrust:	8.906
Time:	2.797	Roll Set Point:	-0.015	Pitch Set Point:	0.029	Yaw Set Point:	-2.957	X_WP:	0.000	Y_WP:	0.000	Y_WP:	0.500	X:	0.163	Y:	0.069	Z:	0.401	yaw:	169.441	yaw rate:	-1.354	Roll:	-4.343	Pitch:	-2.952	Yaw:	239.596	Thrust:	9.092
Time:	2.829	Roll Set Point:	-0.015	Pitch Set Point:	0.029	Yaw Set Point:	-2.958	X_WP:	0.000	Y_WP:	0.000	Y_WP:	0.500	X:	0.163	Y:	0.069	Z:	0.401	yaw:	169.454	yaw rate:	0.965	Roll:	-4.438	Pitch:	-2.873	Yaw:	239.840	Thrust:	9.586
Time:	2.860	Roll Set Point:	-0.015	Pitch Set Point:	0.029	Yaw Set Point:	-2.957	X_WP:	0.000	Y_WP:	0.000	Y_WP:	0.500	X:	0.163	Y:	0.069	Z:	0.401	yaw:	169.439	yaw rate:	-1.549	Roll:	-4.398	Pitch:	-2.965	Yaw:	239.576	Thrust:	9.898
Time:	2.891	Roll Set Point:	-0.015	Pitch Set Point:	0.029	Yaw Set Point:	-2.958	X_WP:	0.000	Y_WP:	0.000	Y_WP:	0.500	X:	0.163	Y:	0.069	Z:	0.401	yaw:	169.457	yaw rate:	1.886	Roll:	-4.454	Pitch:	-2.885	Yaw:	239.891	Thrust:	10.318
Time:	2.922	Roll Set Point:	-0.015	Pitch Set Point:	0.029	Yaw Set Point:	-2.957	X_WP:	0.000	Y_WP:	0.000	Y_WP:	0.500	X:	0.163	Y:	0.069	Z:	0.401	yaw:	169.446	yaw rate:	-1.139	Roll:	-4.414	Pitch:	-2.957	Yaw:	239.621	Thrust:	10.640
Time:	2.951	Roll Set Point:	-0.015	Pitch Set Point:	0.029	Yaw Set Point:	-2.957	X_WP:	0.000	Y_WP:	0.000	Y_WP:	0.500	X:	0.163	Y:	0.069	Z:	0.401	yaw:	169.430	yaw rate:	-2.562	Roll:	-4.426	Pitch:	-2.955	Yaw:	239.323	Thrust:	10.633
Time:	2.985	Roll Set Point:	-0.015	Pitch Set Point:	0.029	Yaw Set Point:	-2.958	X_WP:	0.000	Y_WP:	0.000	Y_WP:	0.500	X:	0.163	Y:	0.069	Z:	0.401	yaw:	169.458	yaw rate:	2.796	Roll:	-4.502	Pitch:	-2.936	Yaw:	240.192	Thrust:	11.847
Time:	3.016	Roll Set Point:	-0.015	Pitch Set Point:	0.029	Yaw Set Point:	-2.957	X_WP:	0.000	Y_WP:	0.000	Y_WP:	0.500	X:	0.163	Y:	0.069	Z:	0.401	yaw:	169.452	yaw rate:	-0.152	Roll:	-4.490	Pitch:	-2.947	Yaw:	239.670	Thrust:	11.818
Time:	3.047	Roll Set Point:	-0.015	Pitch Set Point:	0.029	Yaw Set Point:	-2.958	X_WP:	0.000	Y_WP:	0.000	Y_WP:	0.500	X:	0.163	Y:	0.069	Z:	0.401	yaw:	169.456	yaw rate:	0.415	Roll:	-4.499	Pitch:	-2.968	Yaw:	239.765	Thrust:	12.161
Time:	3.079	Roll Set Point:	-0.015	Pitch Set Point:	0.029	Yaw Set Point:	-2.957	X_WP:	0.000	Y_WP:	0.000	Y_WP:	0.500	X:	0.163	Y:	0.069	Z:	0.401	yaw:	169.440	yaw rate:	-1.611	Roll:	-4.461	Pitch:	-3.007	Yaw:	239.573	Thrust:	12.437
Time:	3.110	Roll Set Point:	-0.015	Pitch Set Point:	0.029	Yaw Set Point:	-2.957	X_WP:	0.000	Y_WP:	0.000	Y_WP:	0.500	X:	0.163	Y:	0.069	Z:	0.401	yaw:	169.437	yaw rate:	-1.505	Roll:	-4.512	Pitch:	-2.991	Yaw:	239.677	Thrust:	12.923
Time:	3.157	Roll Set Point:	-0.015	Pitch Set Point:	0.029	Yaw Set Point:	-2.958	X_WP:	0.000	Y_WP:	0.000	Y_WP:	0.500	X:	0.163	Y:	0.069	Z:	0.401	yaw:	169.457	yaw rate:	2.052	Roll:	-4.646	Pitch:	-3.038	Yaw:	241.409	Thrust:	17.168
Time:	3.188	Roll Set Point:	-0.015	Pitch Set Point:	0.029	Yaw Set Point:	-2.957	X_WP:	0.000	Y_WP:	0.000	Y_WP:	0.500	X:	0.163	Y:	0.069	Z:	0.401	yaw:	169.421	yaw rate:	-4.229	Roll:	-4.482	Pitch:	-3.081	Yaw:	239.383	Thrust:	13.598
Time:	3.219	Roll Set Point:	-0.015	Pitch Set Point:	0.029	Yaw Set Point:	-2.958	X_WP:	0.000	Y_WP:	0.000	Y_WP:	0.500	X:	0.163	Y:	0.069	Z:	0.401	yaw:	169.457	yaw rate:	3.536	Roll:	-4.609	Pitch:	-2.921	Yaw:	240.027	Thrust:	14.010
Time:	3.251	Roll Set Point:	-0.015	Pitch Set Point:	0.029	Yaw Set Point:	-2.957	X_WP:	0.000	Y_WP:	0.000	Y_WP:	0.500	X:	0.163	Y:	0.069	Z:	0.401	yaw:	169.423	yaw rate:	-1.354	Roll:	-4.501	Pitch:	-3.100	Yaw:	239.399	Thrust:	14.416
Time:	3.282	Roll Set Point:	-0.015	Pitch Set Point:	0.029	Yaw Set Point:	-2.958	X_WP:	0.000	Y_WP:	0.000	Y_WP:	0.500	X:	0.163	Y:	0.069	Z:	0.401	yaw:	169.453	yaw rate:	3.048	Roll:	-4.622	Pitch:	-2.923	Yaw:	239.982	Thrust:	14.711
Time:	3.313	Roll Set Point:	-0.015	Pitch Set Point:	0.029	Yaw Set Point:	-2.957	X_WP:	0.000	Y_WP:	0.000	Y_WP:	0.500	X:	0.163	Y:	0.069	Z:	0.401	yaw:	169.445	yaw rate:	0.413	Roll:	-4.561	Pitch:	-3.080	Yaw:	239.650	Thrust:	15.135
Time:	3.344	Roll Set Point:	-0.015	Pitch Set Point:	0.029	Yaw Set Point:	-2.957	X_WP:	0.000	Y_WP:	0.000	Y_WP:	0.500	X:	0.163	Y:	0.069	Z:	0.401	yaw:	169.443	yaw rate:	0.364	Roll:	-4.597	Pitch:	-3.014	Yaw:	239.693	Thrust:	15.492
Time:	3.376	Roll Set Point:	-0.015	Pitch Set Point:	0.029	Yaw Set Point:	-2.957	X_WP:	0.000	Y_WP:	0.000	Y_WP:	0.500	X:	0.163	Y:	0.069	Z:	0.401	yaw:	169.450	yaw rate:	0.707	Roll:	-4.606	Pitch:	-3.057	Yaw:	239.782	Thrust:	15.932
Time:	3.407	Roll Set Point:	-0.015	Pitch Set Point:	0.029	Yaw Set Point:	-2.958	X_WP:	0.000	Y_WP:	0.000	Y_WP:	0.500	X:	0.163	Y:	0.069	Z:	0.401	yaw:	169.469	yaw rate:	1.862	Roll:	-4.601	Pitch:	-3.012	Yaw:	239.904	Thrust:	16.151
Time:	3.438	Roll Set Point:	-0.015	Pitch Set Point:	0.029	Yaw Set Point:	-2.958	X_WP:	0.000	Y_WP:	0.000	Y_WP:	0.500	X:	0.163	Y:	0.069	Z:	0.401	yaw:	169.462	yaw rate:	-0.676	Roll:	-4.649	Pitch:	-3.072	Yaw:	239.684	Thrust:	16.702
Time:	3.469	Roll Set Point:	-0.015	Pitch Set Point:	0.029	Yaw Set Point:	-2.957	X_WP:	0.000	Y_WP:	0.000	Y_WP:	0.500	X:	0.163	Y:	0.069	Z:	0.401	yaw:	169.437	yaw rate:	-0.347	Roll:	-4.590	Pitch:	-3.099	Yaw:	239.491	Thrust:	16.892
Time:	3.501	Roll Set Point:	-0.015	Pitch Set Point:	0.029	Yaw Set Point:	-2.957	X_WP:	0.000	Y_WP:	0.000	Y_WP:	0.500	X:	0.163	Y:	0.069	Z:	0.401	yaw:	169.429	yaw rate:	-2.001	Roll:	-4.646	Pitch:	-3.091	Yaw:	239.632	Thrust:	17.454
Time:	3.532	Roll Set Point:	-0.015	Pitch Set Point:	0.029	Yaw Set Point:	-2.957	X_WP:	0.000	Y_WP:	0.000	Y_WP:	0.500	X:	0.163	Y:	0.069	Z:	0.401	yaw:	169.445	yaw rate:	1.553	Roll:	-4.676	Pitch:	-3.050	Yaw:	239.845	Thrust:	17.619
Time:	3.563	Roll Set Point:	-0.015	Pitch Set Point:	0.029	Yaw Set Point:	-2.958	X_WP:	0.000	Y_WP:	0.000	Y_WP:	0.500	X:	0.163	Y:	0.069	Z:	0.401	yaw:	169.452	yaw rate:	1.441	Roll:	-4.704	Pitch:	-3.087	Yaw:	239.788	Thrust:	18.144
Time:	3.594	Roll Set Point:	-0.015	Pitch Set Point:	0.029	Yaw Set Point:	-2.957	X_WP:	0.000	Y_WP:	0.000	Y_WP:	0.500	X:	0.163	Y:	0.069	Z:	0.401	yaw:	169.445	yaw rate:	-0.720	Roll:	-4.643	Pitch:	-3.109	Yaw:	239.655	Thrust:	18.420
Time:	3.626	Roll Set Point:	-0.015	Pitch Set Point:	0.029	Yaw Set Point:	-2.958	X_WP:	0.000	Y_WP:	0.000	Y_WP:	0.500	X:	0.163	Y:	0.069	Z:	0.401	yaw:	169.463	yaw rate:	1.828	Roll:	-4.727	Pitch:	-3.059	Yaw:	239.894	Thrust:	18.867
Time:	3.657	Roll Set Point:	-0.015	Pitch Set Point:	0.029	Yaw Set Point:	-2.957	X_WP:	0.000	Y_WP:	0.000	Y_WP:	0.500	X:	0.163	Y:	0.069	Z:	0.401	yaw:	169.417	yaw rate:	-4.696	Roll:	-4.633	Pitch:	-3.202	Yaw:	239.282	Thrust:	19.214
Time:	3.688	Roll Set Point:	-0.015	Pitch Set Point:	0.029	Yaw Set Point:	-2.957	X_WP:	0.000	Y_WP:	0.000	Y_WP:	0.500	X:	0.163	Y:	0.069	Z:	0.401	yaw:	169.434	yaw rate:	0.797	Roll:	-4.758	Pitch:	-3.080	Yaw:	239.848	Thrust:	19.590
Time:	3.719	Roll Set Point:	-0.015	Pitch Set Point:	0.029	Yaw Set Point:	-2.957	X_WP:	0.000	Y_WP:	0.000	Y_WP:	0.500	X:	0.163	Y:	0.069	Z:	0.401	yaw:	169.439	yaw rate:	0.488	Roll:	-4.720	Pitch:	-3.125	Yaw:	239.748	Thrust:	19.972
Time:	3.751	Roll Set Point:	-0.015	Pitch Set Point:	0.029	Yaw Set Point:	-2.957	X_WP:	0.000	Y_WP:	0.000	Y_WP:	0.500	X:	0.163	Y:	0.069	Z:	0.401	yaw:	169.429	yaw rate:	-1.049	Roll:	-4.736	Pitch:	-3.164	Yaw:	239.604	Thrust:	20.324
Time:	3.782	Roll Set Point:	-0.015	Pitch Set Point:	0.029	Yaw Set Point:	-2.957	X_WP:	0.000	Y_WP:	0.000	Y_WP:	0.500	X:	0.163	Y:	0.069	Z:	0.401	yaw:	169.439	yaw rate:	1.029	Roll:	-4.779	Pitch:	-3.113	Yaw:	239.793	Thrust:	20.750
Time:	3.813	Roll Set Point:	-0.015	Pitch Set Point:	0.029	Yaw Set Point:	-2.957	X_WP:	0.000	Y_WP:	0.000	Y_WP:	0.500	X:	0.163	Y:	0.069	Z:	0.401	yaw:	169.438	yaw rate:	0.299	Roll:	-4.752	Pitch:	-3.175	Yaw:	239.695	Thrust:	20.985
Time:	3.855	Roll Set Point:	-0.015	Pitch Set Point:	0.029	Yaw Set Point:	-2.957	X_WP:	0.000	Y_WP:	0.000	Y_WP:	0.500	X:	0.163	Y:	0.069	Z:	0.401	yaw:	169.451	yaw rate:	-1.273	Roll:	-4.958	Pitch:	-3.234	Yaw:	240.895	Thrust:	27.040
Time:	3.910	Roll Set Point:	-0.015	Pitch Set Point:	0.029	Yaw Set Point:	-2.957	X_WP:	0.000	Y_WP:	0.000	Y_WP:	0.500	X:	0.163	Y:	0.069	Z:	0.401	yaw:	169.445	yaw rate:	1.013	Roll:	-5.163	Pitch:	-3.425	Yaw:	242.034	Thrust:	34.104
Time:	3.941	Roll Set Point:	-0.015	Pitch Set Point:	0.029	Yaw Set Point:	-2.957	X_WP:	0.000	Y_WP:	0.000	Y_WP:	0.500	X:	0.163	Y:	0.069	Z:	0.401	yaw:	169.444	yaw rate:	-0.062	Roll:	-4.792	Pitch:	-3.183	Yaw:	239.709	Thrust:	22.174
Time:	3.969	Roll Set Point:	-0.015	Pitch Set Point:	0.029	Yaw Set Point:	-2.957	X_WP:	0.000	Y_WP:	0.000	Y_WP:	0.500	X:	0.163	Y:	0.069	Z:	0.401	yaw:	169.442	yaw rate:	-0.211	Roll:	-4.757	Pitch:	-3.151	Yaw:	239.377	Thrust:	20.888
Time:	4.001	Roll Set Point:	-0.015	Pitch Set Point:	0.029	Yaw Set Point:	-2.957	X_WP:	0.000	Y_WP:	0.000	Y_WP:	0.500	X:	0.163	Y:	0.069	Z:	0.401	yaw:	169.431	yaw rate:	0.005	Roll:	-4.798	Pitch:	-3.224	Yaw:	239.606	Thrust:	22.900
Time:	4.032	Roll Set Point:	-0.015	Pitch Set Point:	0.029	Yaw Set Point:	-2.957	X_WP:	0.000	Y_WP:	0.000	Y_WP:	0.500	X:	0.163	Y:	0.069	Z:	0.401	yaw:	169.437	yaw rate:	0.562	Roll:	-4.845	Pitch:	-3.172	Yaw:	239.751	Thrust:	23.327
Time:	4.063	Roll Set Point:	-0.015	Pitch Set Point:	0.029	Yaw Set Point:	-2.957	X_WP:	0.000	Y_WP:	0.000	Y_WP:	0.500	X:	0.163	Y:	0.069	Z:	0.401	yaw:	169.430	yaw rate:	-0.732	Roll:	-4.827	Pitch:	-3.221	Yaw:	239.638	Thrust:	23.614
Time:	4.094	Roll Set Point:	-0.015	Pitch Set Point:	0.029	Yaw Set Point:	-2.958	X_WP:	0.000	Y_WP:	0.000	Y_WP:	0.500	X:	0.163	Y:	0.069	Z:	0.401	yaw:	169.455	yaw rate:	2.471	Roll:	-4.904	Pitch:	-3.149	Yaw:	239.936	Thrust:	24.088
Time:	4.126	Roll Set Point:	-0.015	Pitch Set Point:	0.029	Yaw Set Point:	-2.957	X_WP:	0.000	Y_WP:	0.000	Y_WP:	0.500	X:	0.163	Y:	0.069	Z:	0.401	yaw:	169.449	yaw rate:	-0.540	Roll:	-4.863	Pitch:	-3.228	Yaw:	239.676	Thrust:	24.433
Time:	4.157	Roll Set Point:	-0.015	Pitch Set Point:	0.029	Yaw Set Point:	-2.957	X_WP:	0.000	Y_WP:	0.000	Y_WP:	0.500	X:	0.163	Y:	0.069	Z:	0.401	yaw:	169.427	yaw rate:	-3.558	Roll:	-4.831	Pitch:	-3.288	Yaw:	239.503	Thrust:	24.752
Time:	4.188	Roll Set Point:	-0.015	Pitch Set Point:	0.029	Yaw Set Point:	-2.958	X_WP:	0.000	Y_WP:	0.000	Y_WP:	0.500	X:	0.163	Y:	0.069	Z:	0.401	yaw:	169.457	yaw rate:	-0.471	Roll:	-4.923	Pitch:	-3.155	Yaw:	239.981	Thrust:	25.192
Time:	4.219	Roll Set Point:	-0.015	Pitch Set Point:	0.029	Yaw Set Point:	-2.957	X_WP:	0.000	Y_WP:	0.000	Y_WP:	0.500	X:	0.163	Y:	0.069	Z:	0.401	yaw:	169.428	yaw rate:	-1.760	Roll:	-4.879	Pitch:	-3.321	Yaw:	239.451	Thrust:	25.570
Time:	4.251	Roll Set Point:	-0.015	Pitch Set Point:	0.029	Yaw Set Point:	-2.958	X_WP:	0.000	Y_WP:	0.000	Y_WP:	0.500	X:	0.163	Y:	0.069	Z:	0.401	yaw:	169.463	yaw rate:	3.507	Roll:	-4.955	Pitch:	-3.158	Yaw:	240.034	Thrust:	25.846
Time:	4.282	Roll Set Point:	-0.015	Pitch Set Point:	0.029	Yaw Set Point:	-2.957	X_WP:	0.000	Y_WP:	0.000	Y_WP:	0.500	X:	0.163	Y:	0.069	Z:	0.401	yaw:	169.428	yaw rate:	-2.544	Roll:	-4.884	Pitch:	-3.347	Yaw:	239.398	Thrust:	26.275
Time:	4.313	Roll Set Point:	-0.015	Pitch Set Point:	0.029	Yaw Set Point:	-2.958	X_WP:	0.000	Y_WP:	0.000	Y_WP:	0.500	X:	0.163	Y:	0.069	Z:	0.401	yaw:	169.452	yaw rate:	2.420	Roll:	-4.985	Pitch:	-3.190	Yaw:	239.928	Thrust:	26.639
Time:	4.344	Roll Set Point:	-0.015	Pitch Set Point:	0.029	Yaw Set Point:	-2.957	X_WP:	0.000	Y_WP:	0.000	Y_WP:	0.500	X:	0.163	Y:	0.069	Z:	0.401	yaw:	169.438	yaw rate:	-1.422	Roll:	-4.892	Pitch:	-3.325	Yaw:	239.586	Thrust:	27.109
Time:	4.376	Roll Set Point:	-0.015	Pitch Set Point:	0.029	Yaw Set Point:	-2.957	X_WP:	0.000	Y_WP:	0.000	Y_WP:	0.500	X:	0.163	Y:	0.069	Z:	0.401	yaw:	169.447	yaw rate:	0.847	Roll:	-5.002	Pitch:	-3.240	Yaw:	239.788	Thrust:	27.293
Time:	4.407	Roll Set Point:	-0.015	Pitch Set Point:	0.029	Yaw Set Point:	-2.957	X_WP:	0.000	Y_WP:	0.000	Y_WP:	0.500	X:	0.163	Y:	0.069	Z:	0.401	yaw:	169.421	yaw rate:	-2.551	Roll:	-4.908	Pitch:	-3.347	Yaw:	239.468	Thrust:	27.772
Time:	4.438	Roll Set Point:	-0.015	Pitch Set Point:	0.029	Yaw Set Point:	-2.958	X_WP:	0.000	Y_WP:	0.000	Y_WP:	0.500	X:	0.163	Y:	0.069	Z:	0.401	yaw:	169.461	yaw rate:	3.971	Roll:	-5.031	Pitch:	-3.228	Yaw:	240.095	Thrust:	28.358
Time:	4.473	Roll Set Point:	-0.015	Pitch Set Point:	0.029	Yaw Set Point:	-2.958	X_WP:	0.000	Y_WP:	0.000	Y_WP:	0.500	X:	0.163	Y:	0.069	Z:	0.401	yaw:	169.456	yaw rate:	1.685	Roll:	-5.089	Pitch:	-3.355	Yaw:	240.053	Thrust:	31.143
Time:	4.505	Roll Set Point:	-0.015	Pitch Set Point:	0.029	Yaw Set Point:	-2.957	X_WP:	0.000	Y_WP:	0.000	Y_WP:	0.500	X:	0.163	Y:	0.069	Z:	0.401	yaw:	169.432	yaw rate:	-2.397	Roll:	-4.990	Pitch:	-3.398	Yaw:	239.497	Thrust:	28.931
Time:	4.536	Roll Set Point:	-0.015	Pitch Set Point:	0.029	Yaw Set Point:	-2.957	X_WP:	0.000	Y_WP:	0.000	Y_WP:	0.500	X:	0.163	Y:	0.069	Z:	0.401	yaw:	169.439	yaw rate:	-0.625	Roll:	-4.991	Pitch:	-3.258	Yaw:	239.768	Thrust:	29.217
Time:	4.567	Roll Set Point:	-0.015	Pitch Set Point:	0.029	Yaw Set Point:	-2.957	X_WP:	0.000	Y_WP:	0.000	Y_WP:	0.500	X:	0.163	Y:	0.069	Z:	0.401	yaw:	169.436	yaw rate:	-0.315	Roll:	-5.031	Pitch:	-3.341	Yaw:	239.677	Thrust:	29.605
Time:	4.598	Roll Set Point:	-0.015	Pitch Set Point:	0.029	Yaw Set Point:	-2.958	X_WP:	0.000	Y_WP:	0.000	Y_WP:	0.500	X:	0.163	Y:	0.069	Z:	0.401	yaw:	169.454	yaw rate:	3.970	Roll:	-5.057	Pitch:	-3.304	Yaw:	239.874	Thrust:	30.014
Time:	4.630	Roll Set Point:	-0.015	Pitch Set Point:	0.029	Yaw Set Point:	-2.958	X_WP:	0.000	Y_WP:	0.000	Y_WP:	0.500	X:	0.163	Y:	0.069	Z:	0.401	yaw:	169.461	yaw rate:	0.679	Roll:	-5.081	Pitch:	-3.325	Yaw:	239.797	Thrust:	30.389
Time:	4.661	Roll Set Point:	-0.015	Pitch Set Point:	0.029	Yaw Set Point:	-2.958	X_WP:	0.000	Y_WP:	0.000	Y_WP:	0.500	X:	0.163	Y:	0.069	Z:	0.401	yaw:	169.454	yaw rate:	-0.642	Roll:	-5.072	Pitch:	-3.407	Yaw:	239.672	Thrust:	30.785
Time:	4.692	Roll Set Point:	-0.015	Pitch Set Point:	0.029	Yaw Set Point:	-2.958	X_WP:	0.000	Y_WP:	0.000	Y_WP:	0.500	X:	0.163	Y:	0.069	Z:	0.401	yaw:	169.455	yaw rate:	-0.620	Roll:	-5.042	Pitch:	-3.314	Yaw:	239.738	Thrust:	31.047
Time:	4.723	Roll Set Point:	-0.015	Pitch Set Point:	0.029	Yaw Set Point:	-2.957	X_WP:	0.000	Y_WP:	0.000	Y_WP:	0.500	X:	0.163	Y:	0.069	Z:	0.401	yaw:	169.449	yaw rate:	-0.604	Roll:	-5.092	Pitch:	-3.386	Yaw:	239.670	Thrust:	31.450
Time:	4.755	Roll Set Point:	-0.015	Pitch Set Point:	0.029	Yaw Set Point:	-2.958	X_WP:	0.000	Y_WP:	0.000	Y_WP:	0.500	X:	0.163	Y:	0.069	Z:	0.401	yaw:	169.465	yaw rate:	3.337	Roll:	-5.113	Pitch:	-3.334	Yaw:	239.872	Thrust:	31.882
Time:	4.786	Roll Set Point:	-0.015	Pitch Set Point:	0.029	Yaw Set Point:	-2.957	X_WP:	0.000	Y_WP:	0.000	Y_WP:	0.500	X:	0.163	Y:	0.069	Z:	0.401	yaw:	169.442	yaw rate:	-2.278	Roll:	-5.080	Pitch:	-3.414	Yaw:	239.520	Thrust:	32.219
Time:	4.817	Roll Set Point:	-0.015	Pitch Set Point:	0.029	Yaw Set Point:	-2.958	X_WP:	0.000	Y_WP:	0.000	Y_WP:	0.500	X:	0.163	Y:	0.069	Z:	0.401	yaw:	169.458	yaw rate:	1.600	Roll:	-5.149	Pitch:	-3.354	Yaw:	239.867	Thrust:	32.611
Time:	4.848	Roll Set Point:	-0.015	Pitch Set Point:	0.029	Yaw Set Point:	-2.957	X_WP:	0.000	Y_WP:	0.000	Y_WP:	0.500	X:	0.163	Y:	0.069	Z:	0.401	yaw:	169.433	yaw rate:	-2.441	Roll:	-5.100	Pitch:	-3.437	Yaw:	239.495	Thrust:	32.931
Time:	4.880	Roll Set Point:	-0.015	Pitch Set Point:	0.029	Yaw Set Point:	-2.957	X_WP:	0.000	Y_WP:	0.000	Y_WP:	0.500	X:	0.163	Y:	0.069	Z:	0.401	yaw:	169.423	yaw rate:	-1.014	Roll:	-5.116	Pitch:	-3.418	Yaw:	239.600	Thrust:	33.349
Time:	4.911	Roll Set Point:	-0.015	Pitch Set Point:	0.029	Yaw Set Point:	-2.957	X_WP:	0.000	Y_WP:	0.000	Y_WP:	0.500	X:	0.163	Y:	0.069	Z:	0.401	yaw:	169.450	yaw rate:	2.710	Roll:	-5.189	Pitch:	-3.363	Yaw:	239.950	Thrust:	33.726
Time:	4.942	Roll Set Point:	-0.015	Pitch Set Point:	0.029	Yaw Set Point:	-2.957	X_WP:	0.000	Y_WP:	0.000	Y_WP:	0.500	X:	0.163	Y:	0.069	Z:	0.401	yaw:	169.444	yaw rate:	-0.668	Roll:	-5.175	Pitch:	-3.430	Yaw:	239.657	Thrust:	34.090
Time:	4.970	Roll Set Point:	-0.015	Pitch Set Point:	0.029	Yaw Set Point:	-2.957	X_WP:	0.000	Y_WP:	0.000	Y_WP:	0.500	X:	0.163	Y:	0.069	Z:	0.401	yaw:	169.429	yaw rate:	-1.506	Roll:	-5.060	Pitch:	-3.396	Yaw:	239.241	Thrust:	31.572
Time:	5.002	Roll Set Point:	-0.015	Pitch Set Point:	0.029	Yaw Set Point:	-2.957	X_WP:	0.000	Y_WP:	0.000	Y_WP:	0.500	X:	0.163	Y:	0.069	Z:	0.401	yaw:	169.440	yaw rate:	1.146	Roll:	-5.198	Pitch:	-3.427	Yaw:	239.804	Thrust:	34.848
Time:	5.043	Roll Set Point:	-0.015	Pitch Set Point:	0.029	Yaw Set Point:	-2.958	X_WP:	0.000	Y_WP:	0.000	Y_WP:	0.500	X:	0.163	Y:	0.069	Z:	0.401	yaw:	169.463	yaw rate:	2.286	Roll:	-5.534	Pitch:	-3.605	Yaw:	240.912	Thrust:	44.985
Time:	5.074	Roll Set Point:	-0.015	Pitch Set Point:	0.029	Yaw Set Point:	-2.957	X_WP:	0.000	Y_WP:	0.000	Y_WP:	0.500	X:	0.163	Y:	0.069	Z:	0.401	yaw:	169.436	yaw rate:	-1.605	Roll:	-5.176	Pitch:	-3.494	Yaw:	239.475	Thrust:	35.535
Time:	5.106	Roll Set Point:	-0.015	Pitch Set Point:	0.029	Yaw Set Point:	-2.957	X_WP:	0.000	Y_WP:	0.000	Y_WP:	0.500	X:	0.163	Y:	0.069	Z:	0.401	yaw:	169.442	yaw rate:	0.649	Roll:	-5.217	Pitch:	-3.430	Yaw:	239.767	Thrust:	36.003
Time:	5.140	Roll Set Point:	-0.015	Pitch Set Point:	0.029	Yaw Set Point:	-2.957	X_WP:	0.000	Y_WP:	0.000	Y_WP:	0.500	X:	0.163	Y:	0.069	Z:	0.401	yaw:	169.443	yaw rate:	0.062	Roll:	-5.347	Pitch:	-3.543	Yaw:	240.073	Thrust:	39.783
Time:	5.173	Roll Set Point:	-0.015	Pitch Set Point:	0.029	Yaw Set Point:	-2.957	X_WP:	0.000	Y_WP:	0.000	Y_WP:	0.500	X:	0.163	Y:	0.069	Z:	0.401	yaw:	169.438	yaw rate:	-0.487	Roll:	-5.268	Pitch:	-3.482	Yaw:	239.714	Thrust:	37.208
Time:	5.206	Roll Set Point:	-0.015	Pitch Set Point:	0.029	Yaw Set Point:	-2.957	X_WP:	0.000	Y_WP:	0.000	Y_WP:	0.500	X:	0.163	Y:	0.069	Z:	0.401	yaw:	169.427	yaw rate:	-1.023	Roll:	-5.332	Pitch:	-3.555	Yaw:	239.853	Thrust:	39.618
Time:	5.239	Roll Set Point:	-0.015	Pitch Set Point:	0.029	Yaw Set Point:	-2.957	X_WP:	0.000	Y_WP:	0.000	Y_WP:	0.500	X:	0.163	Y:	0.069	Z:	0.401	yaw:	169.451	yaw rate:	2.450	Roll:	-5.340	Pitch:	-3.478	Yaw:	240.094	Thrust:	39.202
Time:	5.274	Roll Set Point:	-0.015	Pitch Set Point:	0.029	Yaw Set Point:	-2.957	X_WP:	0.000	Y_WP:	0.000	Y_WP:	0.500	X:	0.163	Y:	0.069	Z:	0.401	yaw:	169.449	yaw rate:	-0.620	Roll:	-5.423	Pitch:	-3.584	Yaw:	240.113	Thrust:	42.070
Time:	5.306	Roll Set Point:	-0.015	Pitch Set Point:	0.029	Yaw Set Point:	-2.957	X_WP:	0.000	Y_WP:	0.000	Y_WP:	0.500	X:	0.163	Y:	0.069	Z:	0.401	yaw:	169.432	yaw rate:	-0.068	Roll:	-5.264	Pitch:	-3.525	Yaw:	239.562	Thrust:	38.201
Time:	5.340	Roll Set Point:	-0.015	Pitch Set Point:	0.029	Yaw Set Point:	-2.957	X_WP:	0.000	Y_WP:	0.000	Y_WP:	0.500	X:	0.163	Y:	0.069	Z:	0.401	yaw:	169.448	yaw rate:	0.705	Roll:	-5.411	Pitch:	-3.565	Yaw:	240.141	Thrust:	41.739
Time:	5.371	Roll Set Point:	-0.015	Pitch Set Point:	0.029	Yaw Set Point:	-2.958	X_WP:	0.000	Y_WP:	0.000	Y_WP:	0.500	X:	0.163	Y:	0.069	Z:	0.401	yaw:	169.455	yaw rate:	0.739	Roll:	-5.325	Pitch:	-3.489	Yaw:	239.791	Thrust:	38.921
Time:	5.402	Roll Set Point:	-0.015	Pitch Set Point:	0.029	Yaw Set Point:	-2.957	X_WP:	0.000	Y_WP:	0.000	Y_WP:	0.500	X:	0.163	Y:	0.069	Z:	0.401	yaw:	169.445	yaw rate:	-0.997	Roll:	-5.318	Pitch:	-3.560	Yaw:	239.631	Thrust:	39.281
Time:	5.434	Roll Set Point:	-0.015	Pitch Set Point:	0.029	Yaw Set Point:	-2.957	X_WP:	0.000	Y_WP:	0.000	Y_WP:	0.500	X:	0.163	Y:	0.069	Z:	0.401	yaw:	169.428	yaw rate:	-1.754	Roll:	-5.339	Pitch:	-3.531	Yaw:	239.544	Thrust:	39.672
Time:	5.465	Roll Set Point:	-0.015	Pitch Set Point:	0.029	Yaw Set Point:	-2.957	X_WP:	0.000	Y_WP:	0.000	Y_WP:	0.500	X:	0.163	Y:	0.069	Z:	0.401	yaw:	169.438	yaw rate:	1.052	Roll:	-5.360	Pitch:	-3.546	Yaw:	239.794	Thrust:	39.989
Time:	5.496	Roll Set Point:	-0.015	Pitch Set Point:	0.029	Yaw Set Point:	-2.957	X_WP:	0.000	Y_WP:	0.000	Y_WP:	0.500	X:	0.163	Y:	0.069	Z:	0.401	yaw:	169.452	yaw rate:	1.381	Roll:	-5.370	Pitch:	-3.500	Yaw:	239.842	Thrust:	40.484
Time:	5.527	Roll Set Point:	-0.015	Pitch Set Point:	0.029	Yaw Set Point:	-2.957	X_WP:	0.000	Y_WP:	0.000	Y_WP:	0.500	X:	0.163	Y:	0.069	Z:	0.401	yaw:	169.433	yaw rate:	-1.899	Roll:	-5.352	Pitch:	-3.608	Yaw:	239.541	Thrust:	40.796
Time:	5.559	Roll Set Point:	-0.015	Pitch Set Point:	0.029	Yaw Set Point:	-2.957	X_WP:	0.000	Y_WP:	0.000	Y_WP:	0.500	X:	0.163	Y:	0.069	Z:	0.401	yaw:	169.451	yaw rate:	1.774	Roll:	-5.414	Pitch:	-3.508	Yaw:	239.870	Thrust:	41.097
Time:	5.590	Roll Set Point:	-0.015	Pitch Set Point:	0.029	Yaw Set Point:	-2.957	X_WP:	0.000	Y_WP:	0.000	Y_WP:	0.500	X:	0.163	Y:	0.069	Z:	0.401	yaw:	169.435	yaw rate:	-1.584	Roll:	-5.367	Pitch:	-3.619	Yaw:	239.568	Thrust:	41.507
Time:	5.621	Roll Set Point:	-0.015	Pitch Set Point:	0.029	Yaw Set Point:	-2.957	X_WP:	0.000	Y_WP:	0.000	Y_WP:	0.500	X:	0.163	Y:	0.069	Z:	0.401	yaw:	169.443	yaw rate:	0.762	Roll:	-5.440	Pitch:	-3.540	Yaw:	239.776	Thrust:	41.971
Time:	5.652	Roll Set Point:	-0.015	Pitch Set Point:	0.029	Yaw Set Point:	-2.957	X_WP:	0.000	Y_WP:	0.000	Y_WP:	0.500	X:	0.163	Y:	0.069	Z:	0.401	yaw:	169.423	yaw rate:	-0.817	Roll:	-5.396	Pitch:	-3.650	Yaw:	239.517	Thrust:	42.199
Time:	5.684	Roll Set Point:	-0.015	Pitch Set Point:	0.029	Yaw Set Point:	-2.958	X_WP:	0.000	Y_WP:	0.000	Y_WP:	0.500	X:	0.163	Y:	0.069	Z:	0.401	yaw:	169.468	yaw rate:	4.577	Roll:	-5.477	Pitch:	-3.488	Yaw:	240.131	Thrust:	42.722
Time:	5.715	Roll Set Point:	-0.015	Pitch Set Point:	0.029	Yaw Set Point:	-2.957	X_WP:	0.000	Y_WP:	0.000	Y_WP:	0.500	X:	0.163	Y:	0.069	Z:	0.401	yaw:	169.438	yaw rate:	-3.003	Roll:	-5.406	Pitch:	-3.662	Yaw:	239.454	Thrust:	42.934
Time:	5.746	Roll Set Point:	-0.015	Pitch Set Point:	0.029	Yaw Set Point:	-2.958	X_WP:	0.000	Y_WP:	0.000	Y_WP:	0.500	X:	0.163	Y:	0.069	Z:	0.401	yaw:	169.453	yaw rate:	2.062	Roll:	-5.488	Pitch:	-3.566	Yaw:	239.847	Thrust:	43.391
Time:	5.777	Roll Set Point:	-0.015	Pitch Set Point:	0.029	Yaw Set Point:	-2.958	X_WP:	0.000	Y_WP:	0.000	Y_WP:	0.500	X:	0.163	Y:	0.069	Z:	0.401	yaw:	169.456	yaw rate:	0.305	Roll:	-5.457	Pitch:	-3.663	Yaw:	239.756	Thrust:	43.772
Time:	5.809	Roll Set Point:	-0.015	Pitch Set Point:	0.029	Yaw Set Point:	-2.958	X_WP:	0.000	Y_WP:	0.000	Y_WP:	0.500	X:	0.163	Y:	0.069	Z:	0.401	yaw:	169.460	yaw rate:	0.454	Roll:	-5.439	Pitch:	-3.572	Yaw:	239.775	Thrust:	44.132
Time:	5.840	Roll Set Point:	-0.015	Pitch Set Point:	0.029	Yaw Set Point:	-2.957	X_WP:	0.000	Y_WP:	0.000	Y_WP:	0.500	X:	0.163	Y:	0.069	Z:	0.401	yaw:	169.444	yaw rate:	-1.651	Roll:	-5.430	Pitch:	-3.657	Yaw:	239.575	Thrust:	44.411
Time:	5.887	Roll Set Point:	-0.015	Pitch Set Point:	0.029	Yaw Set Point:	-2.957	X_WP:	0.000	Y_WP:	0.000	Y_WP:	0.500	X:	0.163	Y:	0.069	Z:	0.401	yaw:	169.447	yaw rate:	0.380	Roll:	-6.039	Pitch:	-4.035	Yaw:	241.301	Thrust:	64.635
Time:	5.934	Roll Set Point:	-0.015	Pitch Set Point:	0.029	Yaw Set Point:	-2.957	X_WP:	0.000	Y_WP:	0.000	Y_WP:	0.500	X:	0.163	Y:	0.069	Z:	0.401	yaw:	169.440	yaw rate:	-0.788	Roll:	-6.026	Pitch:	-4.073	Yaw:	241.226	Thrust:	65.112
Time:	5.969	Roll Set Point:	-0.015	Pitch Set Point:	0.029	Yaw Set Point:	-2.958	X_WP:	0.000	Y_WP:	0.000	Y_WP:	0.500	X:	0.163	Y:	0.069	Z:	0.401	yaw:	169.465	yaw rate:	1.199	Roll:	-5.658	Pitch:	-3.725	Yaw:	240.392	Thrust:	51.593
Time:	6.001	Roll Set Point:	-0.167	Pitch Set Point:	-0.007	Yaw Set Point:	-2.957	X_WP:	0.155	Y_WP:	0.007	Y_WP:	0.500	X:	0.163	Y:	0.069	Z:	0.401	yaw:	169.439	yaw rate:	0.993	Roll:	30.000	Pitch:	16.532	Yaw:	239.486	Thrust:	45.954
Time:	6.053	Roll Set Point:	-0.167	Pitch Set Point:	-0.007	Yaw Set Point:	-2.957	X_WP:	0.155	Y_WP:	0.007	Y_WP:	0.500	X:	0.163	Y:	0.069	Z:	0.401	yaw:	169.443	yaw rate:	0.441	Roll:	-1.849	Pitch:	-3.203	Yaw:	241.834	Thrust:	73.828
Time:	6.084	Roll Set Point:	-0.167	Pitch Set Point:	-0.007	Yaw Set Point:	-2.958	X_WP:	0.155	Y_WP:	0.007	Y_WP:	0.500	X:	0.163	Y:	0.069	Z:	0.401	yaw:	169.456	yaw rate:	0.791	Roll:	-1.067	Pitch:	-2.648	Yaw:	239.840	Thrust:	46.768
Time:	6.115	Roll Set Point:	-0.167	Pitch Set Point:	-0.007	Yaw Set Point:	-2.957	X_WP:	0.155	Y_WP:	0.007	Y_WP:	0.500	X:	0.163	Y:	0.069	Z:	0.401	yaw:	169.436	yaw rate:	-2.004	Roll:	-1.049	Pitch:	-2.650	Yaw:	239.535	Thrust:	46.995
Time:	6.147	Roll Set Point:	-0.167	Pitch Set Point:	-0.007	Yaw Set Point:	-2.958	X_WP:	0.155	Y_WP:	0.007	Y_WP:	0.500	X:	0.163	Y:	0.069	Z:	0.401	yaw:	169.472	yaw rate:	3.598	Roll:	-1.079	Pitch:	-2.656	Yaw:	240.055	Thrust:	47.603
Time:	6.178	Roll Set Point:	-0.167	Pitch Set Point:	-0.007	Yaw Set Point:	-2.958	X_WP:	0.155	Y_WP:	0.007	Y_WP:	0.500	X:	0.163	Y:	0.069	Z:	0.401	yaw:	169.453	yaw rate:	-1.070	Roll:	-1.049	Pitch:	-2.662	Yaw:	239.562	Thrust:	47.751
Time:	6.209	Roll Set Point:	-0.167	Pitch Set Point:	-0.007	Yaw Set Point:	-2.957	X_WP:	0.155	Y_WP:	0.007	Y_WP:	0.500	X:	0.163	Y:	0.069	Z:	0.401	yaw:	169.427	yaw rate:	0.349	Roll:	-1.043	Pitch:	-2.665	Yaw:	239.475	Thrust:	48.319
Time:	6.241	Roll Set Point:	-0.167	Pitch Set Point:	-0.007	Yaw Set Point:	-2.957	X_WP:	0.155	Y_WP:	0.007	Y_WP:	0.500	X:	0.163	Y:	0.069	Z:	0.401	yaw:	169.433	yaw rate:	0.576	Roll:	-1.062	Pitch:	-2.670	Yaw:	239.746	Thrust:	48.470
Time:	6.272	Roll Set Point:	-0.167	Pitch Set Point:	-0.007	Yaw Set Point:	-2.957	X_WP:	0.155	Y_WP:	0.007	Y_WP:	0.500	X:	0.163	Y:	0.069	Z:	0.401	yaw:	169.440	yaw rate:	0.729	Roll:	-1.061	Pitch:	-2.675	Yaw:	239.769	Thrust:	49.043
Time:	6.303	Roll Set Point:	-0.167	Pitch Set Point:	-0.007	Yaw Set Point:	-2.958	X_WP:	0.155	Y_WP:	0.007	Y_WP:	0.500	X:	0.163	Y:	0.069	Z:	0.401	yaw:	169.464	yaw rate:	2.443	Roll:	-1.073	Pitch:	-2.681	Yaw:	239.947	Thrust:	49.284
Time:	6.334	Roll Set Point:	-0.167	Pitch Set Point:	-0.007	Yaw Set Point:	-2.957	X_WP:	0.155	Y_WP:	0.007	Y_WP:	0.500	X:	0.163	Y:	0.069	Z:	0.401	yaw:	169.444	yaw rate:	2.312	Roll:	-1.047	Pitch:	-2.685	Yaw:	239.544	Thrust:	49.784
Time:	6.366	Roll Set Point:	-0.167	Pitch Set Point:	-0.007	Yaw Set Point:	-2.957	X_WP:	0.155	Y_WP:	0.007	Y_WP:	0.500	X:	0.163	Y:	0.069	Z:	0.401	yaw:	169.450	yaw rate:	0.644	Roll:	-1.060	Pitch:	-2.691	Yaw:	239.773	Thrust:	50.022
Time:	6.397	Roll Set Point:	-0.167	Pitch Set Point:	-0.007	Yaw Set Point:	-2.957	X_WP:	0.155	Y_WP:	0.007	Y_WP:	0.500	X:	0.163	Y:	0.069	Z:	0.401	yaw:	169.428	yaw rate:	-2.238	Roll:	-1.044	Pitch:	-2.692	Yaw:	239.503	Thrust:	50.375
Time:	6.428	Roll Set Point:	-0.167	Pitch Set Point:	-0.007	Yaw Set Point:	-2.958	X_WP:	0.155	Y_WP:	0.007	Y_WP:	0.500	X:	0.163	Y:	0.069	Z:	0.401	yaw:	169.470	yaw rate:	4.192	Roll:	-1.083	Pitch:	-2.703	Yaw:	240.104	Thrust:	50.939
Time:	6.459	Roll Set Point:	-0.167	Pitch Set Point:	-0.007	Yaw Set Point:	-2.957	X_WP:	0.155	Y_WP:	0.007	Y_WP:	0.500	X:	0.163	Y:	0.069	Z:	0.401	yaw:	169.452	yaw rate:	-1.767	Roll:	-1.044	Pitch:	-2.700	Yaw:	239.574	Thrust:	51.163
Time:	6.491	Roll Set Point:	-0.167	Pitch Set Point:	-0.007	Yaw Set Point:	-2.958	X_WP:	0.155	Y_WP:	0.007	Y_WP:	0.500	X:	0.163	Y:	0.069	Z:	0.401	yaw:	169.453	yaw rate:	0.117	Roll:	-1.057	Pitch:	-2.710	Yaw:	239.736	Thrust:	51.571
Time:	6.522	Roll Set Point:	-0.167	Pitch Set Point:	-0.007	Yaw Set Point:	-2.958	X_WP:	0.155	Y_WP:	0.007	Y_WP:	0.500	X:	0.163	Y:	0.069	Z:	0.401	yaw:	169.454	yaw rate:	4.532	Roll:	-1.059	Pitch:	-2.719	Yaw:	239.739	Thrust:	51.933
Time:	6.553	Roll Set Point:	-0.167	Pitch Set Point:	-0.007	Yaw Set Point:	-2.957	X_WP:	0.155	Y_WP:	0.007	Y_WP:	0.500	X:	0.163	Y:	0.069	Z:	0.401	yaw:	169.451	yaw rate:	-0.250	Roll:	-1.051	Pitch:	-2.718	Yaw:	239.698	Thrust:	52.260
Time:	6.584	Roll Set Point:	-0.167	Pitch Set Point:	-0.007	Yaw Set Point:	-2.957	X_WP:	0.155	Y_WP:	0.007	Y_WP:	0.500	X:	0.163	Y:	0.069	Z:	0.401	yaw:	169.440	yaw rate:	-1.156	Roll:	-1.050	Pitch:	-2.722	Yaw:	239.611	Thrust:	52.656
Time:	6.616	Roll Set Point:	-0.167	Pitch Set Point:	-0.007	Yaw Set Point:	-2.958	X_WP:	0.155	Y_WP:	0.007	Y_WP:	0.500	X:	0.163	Y:	0.069	Z:	0.401	yaw:	169.455	yaw rate:	1.549	Roll:	-1.063	Pitch:	-2.730	Yaw:	239.862	Thrust:	53.159
Time:	6.647	Roll Set Point:	-0.167	Pitch Set Point:	-0.007	Yaw Set Point:	-2.957	X_WP:	0.155	Y_WP:	0.007	Y_WP:	0.500	X:	0.163	Y:	0.069	Z:	0.401	yaw:	169.417	yaw rate:	-0.568	Roll:	-1.032	Pitch:	-2.734	Yaw:	239.355	Thrust:	53.288
Time:	6.678	Roll Set Point:	-0.167	Pitch Set Point:	-0.007	Yaw Set Point:	-2.958	X_WP:	0.155	Y_WP:	0.007	Y_WP:	0.500	X:	0.163	Y:	0.069	Z:	0.401	yaw:	169.463	yaw rate:	0.645	Roll:	-1.080	Pitch:	-2.740	Yaw:	240.119	Thrust:	53.874
Time:	6.709	Roll Set Point:	-0.167	Pitch Set Point:	-0.007	Yaw Set Point:	-2.957	X_WP:	0.155	Y_WP:	0.007	Y_WP:	0.500	X:	0.163	Y:	0.069	Z:	0.401	yaw:	169.445	yaw rate:	-1.753	Roll:	-1.043	Pitch:	-2.743	Yaw:	239.568	Thrust:	54.053
Time:	6.741	Roll Set Point:	-0.167	Pitch Set Point:	-0.007	Yaw Set Point:	-2.957	X_WP:	0.155	Y_WP:	0.007	Y_WP:	0.500	X:	0.163	Y:	0.069	Z:	0.401	yaw:	169.448	yaw rate:	0.265	Roll:	-1.053	Pitch:	-2.747	Yaw:	239.741	Thrust:	54.650
Time:	6.772	Roll Set Point:	-0.167	Pitch Set Point:	-0.007	Yaw Set Point:	-2.958	X_WP:	0.155	Y_WP:	0.007	Y_WP:	0.500	X:	0.163	Y:	0.069	Z:	0.401	yaw:	169.470	yaw rate:	2.208	Roll:	-1.069	Pitch:	-2.755	Yaw:	239.935	Thrust:	54.855
Time:	6.803	Roll Set Point:	-0.167	Pitch Set Point:	-0.007	Yaw Set Point:	-2.958	X_WP:	0.155	Y_WP:	0.007	Y_WP:	0.500	X:	0.163	Y:	0.069	Z:	0.401	yaw:	169.455	yaw rate:	-1.510	Roll:	-1.044	Pitch:	-2.760	Yaw:	239.602	Thrust:	55.330
Time:	6.834	Roll Set Point:	-0.167	Pitch Set Point:	-0.007	Yaw Set Point:	-2.957	X_WP:	0.155	Y_WP:	0.007	Y_WP:	0.500	X:	0.163	Y:	0.069	Z:	0.401	yaw:	169.442	yaw rate:	-1.263	Roll:	-1.045	Pitch:	-2.763	Yaw:	239.605	Thrust:	55.639
Time:	6.866	Roll Set Point:	-0.167	Pitch Set Point:	-0.007	Yaw Set Point:	-2.957	X_WP:	0.155	Y_WP:	0.007	Y_WP:	0.500	X:	0.163	Y:	0.069	Z:	0.401	yaw:	169.451	yaw rate:	2.177	Roll:	-1.057	Pitch:	-2.767	Yaw:	239.800	Thrust:	56.056
Time:	6.897	Roll Set Point:	-0.167	Pitch Set Point:	-0.007	Yaw Set Point:	-2.957	X_WP:	0.155	Y_WP:	0.007	Y_WP:	0.500	X:	0.163	Y:	0.069	Z:	0.401	yaw:	169.450	yaw rate:	-0.076	Roll:	-1.053	Pitch:	-2.773	Yaw:	239.716	Thrust:	56.367
Time:	6.928	Roll Set Point:	-0.167	Pitch Set Point:	-0.007	Yaw Set Point:	-2.958	X_WP:	0.155	Y_WP:	0.007	Y_WP:	0.500	X:	0.163	Y:	0.069	Z:	0.401	yaw:	169.463	yaw rate:	1.313	Roll:	-1.059	Pitch:	-2.778	Yaw:	239.851	Thrust:	56.785
Time:	6.969	Roll Set Point:	-0.167	Pitch Set Point:	-0.007	Yaw Set Point:	-2.957	X_WP:	0.155	Y_WP:	0.007	Y_WP:	0.500	X:	0.163	Y:	0.069	Z:	0.401	yaw:	169.447	yaw rate:	0.020	Roll:	-1.405	Pitch:	-3.085	Yaw:	240.579	Thrust:	73.037
Time:	7.000	Roll Set Point:	-0.167	Pitch Set Point:	-0.007	Yaw Set Point:	-2.957	X_WP:	0.155	Y_WP:	0.007	Y_WP:	0.500	X:	0.163	Y:	0.069	Z:	0.401	yaw:	169.452	yaw rate:	-0.177	Roll:	-1.053	Pitch:	-2.788	Yaw:	239.766	Thrust:	57.637
Time:	7.033	Roll Set Point:	-0.167	Pitch Set Point:	-0.007	Yaw Set Point:	-2.957	X_WP:	0.155	Y_WP:	0.007	Y_WP:	0.500	X:	0.163	Y:	0.069	Z:	0.401	yaw:	169.435	yaw rate:	-2.608	Roll:	-1.089	Pitch:	-2.832	Yaw:	239.694	Thrust:	59.886
Time:	7.064	Roll Set Point:	-0.167	Pitch Set Point:	-0.007	Yaw Set Point:	-2.957	X_WP:	0.155	Y_WP:	0.007	Y_WP:	0.500	X:	0.163	Y:	0.069	Z:	0.401	yaw:	169.427	yaw rate:	-0.867	Roll:	-1.044	Pitch:	-2.795	Yaw:	239.617	Thrust:	58.350
Time:	7.095	Roll Set Point:	-0.167	Pitch Set Point:	-0.007	Yaw Set Point:	-2.957	X_WP:	0.155	Y_WP:	0.007	Y_WP:	0.500	X:	0.163	Y:	0.069	Z:	0.401	yaw:	169.449	yaw rate:	0.911	Roll:	-1.064	Pitch:	-2.804	Yaw:	239.907	Thrust:	58.592
Time:	7.127	Roll Set Point:	-0.167	Pitch Set Point:	-0.007	Yaw Set Point:	-2.957	X_WP:	0.155	Y_WP:	0.007	Y_WP:	0.500	X:	0.163	Y:	0.069	Z:	0.401	yaw:	169.437	yaw rate:	-1.206	Roll:	-1.042	Pitch:	-2.807	Yaw:	239.603	Thrust:	59.011
Time:	7.158	Roll Set Point:	-0.167	Pitch Set Point:	-0.007	Yaw Set Point:	-2.957	X_WP:	0.155	Y_WP:	0.007	Y_WP:	0.500	X:	0.163	Y:	0.069	Z:	0.401	yaw:	169.419	yaw rate:	-1.831	Roll:	-1.040	Pitch:	-2.812	Yaw:	239.528	Thrust:	59.457
Time:	7.205	Roll Set Point:	-0.167	Pitch Set Point:	-0.007	Yaw Set Point:	-2.957	X_WP:	0.155	Y_WP:	0.007	Y_WP:	0.500	X:	0.163	Y:	0.069	Z:	0.401	yaw:	169.449	yaw rate:	0.250	Roll:	-1.639	Pitch:	-3.320	Yaw:	241.453	Thrust:	86.832
Time:	7.236	Roll Set Point:	-0.167	Pitch Set Point:	-0.007	Yaw Set Point:	-2.957	X_WP:	0.155	Y_WP:	0.007	Y_WP:	0.500	X:	0.163	Y:	0.069	Z:	0.401	yaw:	169.424	yaw rate:	-2.535	Roll:	-1.036	Pitch:	-2.819	Yaw:	239.474	Thrust:	60.029
Time:	7.267	Roll Set Point:	-0.167	Pitch Set Point:	-0.007	Yaw Set Point:	-2.957	X_WP:	0.155	Y_WP:	0.007	Y_WP:	0.500	X:	0.163	Y:	0.069	Z:	0.401	yaw:	169.432	yaw rate:	0.830	Roll:	-1.052	Pitch:	-2.828	Yaw:	239.767	Thrust:	60.624
Time:	7.298	Roll Set Point:	-0.167	Pitch Set Point:	-0.007	Yaw Set Point:	-2.957	X_WP:	0.155	Y_WP:	0.007	Y_WP:	0.500	X:	0.163	Y:	0.069	Z:	0.401	yaw:	169.432	yaw rate:	-0.052	Roll:	-1.049	Pitch:	-2.832	Yaw:	239.692	Thrust:	60.737
Time:	7.330	Roll Set Point:	-0.167	Pitch Set Point:	-0.007	Yaw Set Point:	-2.957	X_WP:	0.155	Y_WP:	0.007	Y_WP:	0.500	X:	0.163	Y:	0.069	Z:	0.401	yaw:	169.437	yaw rate:	0.499	Roll:	-1.050	Pitch:	-2.837	Yaw:	239.746	Thrust:	61.271
Time:	7.361	Roll Set Point:	-0.167	Pitch Set Point:	-0.007	Yaw Set Point:	-2.957	X_WP:	0.155	Y_WP:	0.007	Y_WP:	0.500	X:	0.163	Y:	0.069	Z:	0.401	yaw:	169.426	yaw rate:	-1.102	Roll:	-1.041	Pitch:	-2.841	Yaw:	239.596	Thrust:	61.642
Time:	7.392	Roll Set Point:	-0.167	Pitch Set Point:	-0.007	Yaw Set Point:	-2.957	X_WP:	0.155	Y_WP:	0.007	Y_WP:	0.500	X:	0.163	Y:	0.069	Z:	0.401	yaw:	169.442	yaw rate:	1.649	Roll:	-1.056	Pitch:	-2.845	Yaw:	239.850	Thrust:	61.936
Time:	7.423	Roll Set Point:	-0.167	Pitch Set Point:	-0.007	Yaw Set Point:	-2.957	X_WP:	0.155	Y_WP:	0.007	Y_WP:	0.500	X:	0.163	Y:	0.069	Z:	0.401	yaw:	169.424	yaw rate:	-4.368	Roll:	-1.038	Pitch:	-2.849	Yaw:	239.537	Thrust:	62.323
Time:	7.455	Roll Set Point:	-0.167	Pitch Set Point:	-0.007	Yaw Set Point:	-2.957	X_WP:	0.155	Y_WP:	0.007	Y_WP:	0.500	X:	0.163	Y:	0.069	Z:	0.401	yaw:	169.451	yaw rate:	2.628	Roll:	-1.061	Pitch:	-2.857	Yaw:	239.943	Thrust:	62.647
Time:	7.486	Roll Set Point:	-0.167	Pitch Set Point:	-0.007	Yaw Set Point:	-2.957	X_WP:	0.155	Y_WP:	0.007	Y_WP:	0.500	X:	0.163	Y:	0.069	Z:	0.401	yaw:	169.446	yaw rate:	-0.492	Roll:	-1.043	Pitch:	-2.862	Yaw:	239.675	Thrust:	63.164
Time:	7.517	Roll Set Point:	-0.167	Pitch Set Point:	-0.007	Yaw Set Point:	-2.957	X_WP:	0.155	Y_WP:	0.007	Y_WP:	0.500	X:	0.163	Y:	0.069	Z:	0.401	yaw:	169.443	yaw rate:	-0.290	Roll:	-1.044	Pitch:	-2.865	Yaw:	239.688	Thrust:	63.492
Time:	7.548	Roll Set Point:	-0.167	Pitch Set Point:	-0.007	Yaw Set Point:	-2.958	X_WP:	0.155	Y_WP:	0.007	Y_WP:	0.500	X:	0.163	Y:	0.069	Z:	0.401	yaw:	169.464	yaw rate:	2.152	Roll:	-1.059	Pitch:	-2.871	Yaw:	239.923	Thrust:	63.890
Time:	7.580	Roll Set Point:	-0.167	Pitch Set Point:	-0.007	Yaw Set Point:	-2.957	X_WP:	0.155	Y_WP:	0.007	Y_WP:	0.500	X:	0.163	Y:	0.069	Z:	0.401	yaw:	169.439	yaw rate:	-2.567	Roll:	-1.031	Pitch:	-2.873	Yaw:	239.491	Thrust:	64.104
Time:	7.611	Roll Set Point:	-0.167	Pitch Set Point:	-0.007	Yaw Set Point:	-2.957	X_WP:	0.155	Y_WP:	0.007	Y_WP:	0.500	X:	0.163	Y:	0.069	Z:	0.401	yaw:	169.448	yaw rate:	-0.820	Roll:	-1.050	Pitch:	-2.882	Yaw:	239.794	Thrust:	64.605
Time:	7.642	Roll Set Point:	-0.167	Pitch Set Point:	-0.007	Yaw Set Point:	-2.957	X_WP:	0.155	Y_WP:	0.007	Y_WP:	0.500	X:	0.163	Y:	0.069	Z:	0.401	yaw:	169.441	yaw rate:	0.814	Roll:	-1.041	Pitch:	-2.883	Yaw:	239.656	Thrust:	64.921
Time:	7.673	Roll Set Point:	-0.167	Pitch Set Point:	-0.007	Yaw Set Point:	-2.957	X_WP:	0.155	Y_WP:	0.007	Y_WP:	0.500	X:	0.163	Y:	0.069	Z:	0.401	yaw:	169.451	yaw rate:	-0.037	Roll:	-1.052	Pitch:	-2.891	Yaw:	239.802	Thrust:	65.386
Time:	7.705	Roll Set Point:	-0.167	Pitch Set Point:	-0.007	Yaw Set Point:	-2.958	X_WP:	0.155	Y_WP:	0.007	Y_WP:	0.500	X:	0.163	Y:	0.069	Z:	0.401	yaw:	169.459	yaw rate:	0.784	Roll:	-1.050	Pitch:	-2.894	Yaw:	239.800	Thrust:	65.643
Time:	7.736	Roll Set Point:	-0.167	Pitch Set Point:	-0.007	Yaw Set Point:	-2.958	X_WP:	0.155	Y_WP:	0.007	Y_WP:	0.500	X:	0.163	Y:	0.069	Z:	0.401	yaw:	169.481	yaw rate:	2.201	Roll:	-1.056	Pitch:	-2.897	Yaw:	239.949	Thrust:	66.181
Time:	7.767	Roll Set Point:	-0.167	Pitch Set Point:	-0.007	Yaw Set Point:	-2.957	X_WP:	0.155	Y_WP:	0.007	Y_WP:	0.500	X:	0.163	Y:	0.069	Z:	0.401	yaw:	169.439	yaw rate:	-0.377	Roll:	-1.020	Pitch:	-2.907	Yaw:	239.360	Thrust:	66.281
Time:	7.798	Roll Set Point:	-0.167	Pitch Set Point:	-0.007	Yaw Set Point:	-2.957	X_WP:	0.155	Y_WP:	0.007	Y_WP:	0.500	X:	0.163	Y:	0.069	Z:	0.401	yaw:	169.446	yaw rate:	-1.019	Roll:	-1.048	Pitch:	-2.908	Yaw:	239.777	Thrust:	66.890
Time:	7.830	Roll Set Point:	-0.167	Pitch Set Point:	-0.007	Yaw Set Point:	-2.957	X_WP:	0.155	Y_WP:	0.007	Y_WP:	0.500	X:	0.163	Y:	0.069	Z:	0.401	yaw:	169.451	yaw rate:	0.500	Roll:	-1.046	Pitch:	-2.915	Yaw:	239.766	Thrust:	67.164
Time:	7.861	Roll Set Point:	-0.167	Pitch Set Point:	-0.007	Yaw Set Point:	-2.957	X_WP:	0.155	Y_WP:	0.007	Y_WP:	0.500	X:	0.163	Y:	0.069	Z:	0.401	yaw:	169.447	yaw rate:	-0.446	Roll:	-1.042	Pitch:	-2.917	Yaw:	239.680	Thrust:	67.504
Time:	7.892	Roll Set Point:	-0.167	Pitch Set Point:	-0.007	Yaw Set Point:	-2.957	X_WP:	0.155	Y_WP:	0.007	Y_WP:	0.500	X:	0.163	Y:	0.069	Z:	0.401	yaw:	169.425	yaw rate:	-1.633	Roll:	-1.028	Pitch:	-2.923	Yaw:	239.505	Thrust:	67.905
Time:	7.923	Roll Set Point:	-0.167	Pitch Set Point:	-0.007	Yaw Set Point:	-2.958	X_WP:	0.155	Y_WP:	0.007	Y_WP:	0.500	X:	0.163	Y:	0.069	Z:	0.401	yaw:	169.462	yaw rate:	0.449	Roll:	-1.065	Pitch:	-2.930	Yaw:	240.048	Thrust:	68.374
Time:	7.969	Roll Set Point:	-0.167	Pitch Set Point:	-0.007	Yaw Set Point:	-2.957	X_WP:	0.155	Y_WP:	0.007	Y_WP:	0.500	X:	0.163	Y:	0.069	Z:	0.401	yaw:	169.426	yaw rate:	-3.587	Roll:	-1.558	Pitch:	-3.452	Yaw:	240.921	Thrust:	97.759
Time:	8.000	Roll Set Point:	-0.167	Pitch Set Point:	-0.007	Yaw Set Point:	-2.957	X_WP:	0.155	Y_WP:	0.007	Y_WP:	0.500	X:	0.163	Y:	0.069	Z:	0.401	yaw:	169.449	yaw rate:	0.504	Roll:	-1.055	Pitch:	-2.939	Yaw:	239.913	Thrust:	69.061
Time:	8.032	Roll Set Point:	-0.167	Pitch Set Point:	-0.007	Yaw Set Point:	-2.957	X_WP:	0.155	Y_WP:	0.007	Y_WP:	0.500	X:	0.163	Y:	0.069	Z:	0.401	yaw:	169.439	yaw rate:	-1.020	Roll:	-1.036	Pitch:	-2.943	Yaw:	239.621	Thrust:	69.320
Time:	8.063	Roll Set Point:	-0.167	Pitch Set Point:	-0.007	Yaw Set Point:	-2.957	X_WP:	0.155	Y_WP:	0.007	Y_WP:	0.500	X:	0.163	Y:	0.069	Z:	0.401	yaw:	169.443	yaw rate:	0.433	Roll:	-1.044	Pitch:	-2.948	Yaw:	239.749	Thrust:	69.842
Time:	8.094	Roll Set Point:	-0.167	Pitch Set Point:	-0.007	Yaw Set Point:	-2.957	X_WP:	0.155	Y_WP:	0.007	Y_WP:	0.500	X:	0.163	Y:	0.069	Z:	0.401	yaw:	169.435	yaw rate:	-0.872	Roll:	-1.035	Pitch:	-2.952	Yaw:	239.627	Thrust:	70.119
Time:	8.125	Roll Set Point:	-0.167	Pitch Set Point:	-0.007	Yaw Set Point:	-2.957	X_WP:	0.155	Y_WP:	0.007	Y_WP:	0.500	X:	0.163	Y:	0.069	Z:	0.401	yaw:	169.445	yaw rate:	-1.024	Roll:	-1.046	Pitch:	-2.957	Yaw:	239.802	Thrust:	70.535
Time:	8.157	Roll Set Point:	-0.167	Pitch Set Point:	-0.007	Yaw Set Point:	-2.957	X_WP:	0.155	Y_WP:	0.007	Y_WP:	0.500	X:	0.163	Y:	0.069	Z:	0.401	yaw:	169.445	yaw rate:	-0.005	Roll:	-1.041	Pitch:	-2.963	Yaw:	239.715	Thrust:	70.957
Time:	8.188	Roll Set Point:	-0.167	Pitch Set Point:	-0.007	Yaw Set Point:	-2.957	X_WP:	0.155	Y_WP:	0.007	Y_WP:	0.500	X:	0.163	Y:	0.069	Z:	0.401	yaw:	169.436	yaw rate:	-0.872	Roll:	-1.035	Pitch:	-2.968	Yaw:	239.630	Thrust:	71.200
Time:	8.219	Roll Set Point:	-0.167	Pitch Set Point:	-0.007	Yaw Set Point:	-2.958	X_WP:	0.155	Y_WP:	0.007	Y_WP:	0.500	X:	0.163	Y:	0.069	Z:	0.401	yaw:	169.454	yaw rate:	1.360	Roll:	-1.051	Pitch:	-2.973	Yaw:	239.882	Thrust:	71.709
Time:	8.250	Roll Set Point:	-0.167	Pitch Set Point:	-0.007	Yaw Set Point:	-2.958	X_WP:	0.155	Y_WP:	0.007	Y_WP:	0.500	X:	0.163	Y:	0.069	Z:	0.401	yaw:	169.461	yaw rate:	0.603	Roll:	-1.044	Pitch:	-2.977	Yaw:	239.787	Thrust:	71.967
Time:	8.282	Roll Set Point:	-0.167	Pitch Set Point:	-0.007	Yaw Set Point:	-2.957	X_WP:	0.155	Y_WP:	0.007	Y_WP:	0.500	X:	0.163	Y:	0.069	Z:	0.401	yaw:	169.441	yaw rate:	-1.483	Roll:	-1.026	Pitch:	-2.977	Yaw:	239.542	Thrust:	72.358
Time:	8.313	Roll Set Point:	-0.167	Pitch Set Point:	-0.007	Yaw Set Point:	-2.957	X_WP:	0.155	Y_WP:	0.007	Y_WP:	0.500	X:	0.163	Y:	0.069	Z:	0.401	yaw:	169.438	yaw rate:	-0.285	Roll:	-1.036	Pitch:	-2.975	Yaw:	239.681	Thrust:	72.813
Time:	8.344	Roll Set Point:	-0.167	Pitch Set Point:	-0.007	Yaw Set Point:	-2.957	X_WP:	0.155	Y_WP:	0.007	Y_WP:	0.500	X:	0.163	Y:	0.069	Z:	0.401	yaw:	169.421	yaw rate:	-1.272	Roll:	-1.030	Pitch:	-2.978	Yaw:	239.542	Thrust:	73.097
Time:	8.375	Roll Set Point:	-0.167	Pitch Set Point:	-0.007	Yaw Set Point:	-2.957	X_WP:	0.155	Y_WP:	0.007	Y_WP:	0.500	X:	0.163	Y:	0.069	Z:	0.401	yaw:	169.442	yaw rate:	2.102	Roll:	-1.051	Pitch:	-2.979	Yaw:	239.887	Thrust:	73.500
Time:	8.407	Roll Set Point:	-0.167	Pitch Set Point:	-0.007	Yaw Set Point:	-2.957	X_WP:	0.155	Y_WP:	0.007	Y_WP:	0.500	X:	0.163	Y:	0.069	Z:	0.401	yaw:	169.444	yaw rate:	1.193	Roll:	-1.037	Pitch:	-2.977	Yaw:	239.727	Thrust:	73.928
Time:	8.439	Roll Set Point:	-0.167	Pitch Set Point:	-0.007	Yaw Set Point:	-2.958	X_WP:	0.155	Y_WP:	0.007	Y_WP:	0.500	X:	0.163	Y:	0.069	Z:	0.401	yaw:	169.468	yaw rate:	2.404	Roll:	-1.073	Pitch:	-2.998	Yaw:	239.997	Thrust:	75.314
Time:	8.471	Roll Set Point:	-0.167	Pitch Set Point:	-0.007	Yaw Set Point:	-2.957	X_WP:	0.155	Y_WP:	0.007	Y_WP:	0.500	X:	0.163	Y:	0.069	Z:	0.401	yaw:	169.424	yaw rate:	-0.969	Roll:	-1.067	Pitch:	-3.034	Yaw:	239.486	Thrust:	77.945
Time:	8.502	Roll Set Point:	-0.167	Pitch Set Point:	-0.007	Yaw Set Point:	-2.958	X_WP:	0.155	Y_WP:	0.007	Y_WP:	0.500	X:	0.163	Y:	0.069	Z:	0.401	yaw:	169.453	yaw rate:	2.938	Roll:	-1.055	Pitch:	-2.979	Yaw:	239.973	Thrust:	75.040
Time:	8.534	Roll Set Point:	-0.167	Pitch Set Point:	-0.007	Yaw Set Point:	-2.958	X_WP:	0.155	Y_WP:	0.007	Y_WP:	0.500	X:	0.163	Y:	0.069	Z:	0.401	yaw:	169.453	yaw rate:	-0.020	Roll:	-1.037	Pitch:	-2.977	Yaw:	239.725	Thrust:	75.398
Time:	8.565	Roll Set Point:	-0.167	Pitch Set Point:	-0.007	Yaw Set Point:	-2.957	X_WP:	0.155	Y_WP:	0.007	Y_WP:	0.500	X:	0.163	Y:	0.069	Z:	0.401	yaw:	169.439	yaw rate:	-0.741	Roll:	-1.028	Pitch:	-2.978	Yaw:	239.588	Thrust:	75.676
Time:	8.596	Roll Set Point:	-0.167	Pitch Set Point:	-0.007	Yaw Set Point:	-2.958	X_WP:	0.155	Y_WP:	0.007	Y_WP:	0.500	X:	0.163	Y:	0.069	Z:	0.401	yaw:	169.454	yaw rate:	1.552	Roll:	-1.046	Pitch:	-2.979	Yaw:	239.861	Thrust:	76.218
Time:	8.627	Roll Set Point:	-0.167	Pitch Set Point:	-0.007	Yaw Set Point:	-2.957	X_WP:	0.155	Y_WP:	0.007	Y_WP:	0.500	X:	0.163	Y:	0.069	Z:	0.401	yaw:	169.432	yaw rate:	-1.778	Roll:	-1.021	Pitch:	-2.975	Yaw:	239.507	Thrust:	76.422
Time:	8.659	Roll Set Point:	-0.167	Pitch Set Point:	-0.007	Yaw Set Point:	-2.957	X_WP:	0.155	Y_WP:	0.007	Y_WP:	0.500	X:	0.163	Y:	0.069	Z:	0.401	yaw:	169.451	yaw rate:	1.937	Roll:	-1.048	Pitch:	-2.976	Yaw:	239.886	Thrust:	76.766
Time:	8.690	Roll Set Point:	-0.167	Pitch Set Point:	-0.007	Yaw Set Point:	-2.957	X_WP:	0.155	Y_WP:	0.007	Y_WP:	0.500	X:	0.163	Y:	0.069	Z:	0.401	yaw:	169.451	yaw rate:	1.669	Roll:	-1.035	Pitch:	-2.980	Yaw:	239.720	Thrust:	77.271
Time:	8.721	Roll Set Point:	-0.167	Pitch Set Point:	-0.007	Yaw Set Point:	-2.958	X_WP:	0.155	Y_WP:	0.007	Y_WP:	0.500	X:	0.163	Y:	0.069	Z:	0.401	yaw:	169.467	yaw rate:	1.633	Roll:	-1.044	Pitch:	-2.977	Yaw:	239.883	Thrust:	77.567
Time:	8.752	Roll Set Point:	-0.167	Pitch Set Point:	-0.007	Yaw Set Point:	-2.957	X_WP:	0.155	Y_WP:	0.007	Y_WP:	0.500	X:	0.163	Y:	0.069	Z:	0.401	yaw:	169.435	yaw rate:	-3.185	Roll:	-1.016	Pitch:	-2.976	Yaw:	239.435	Thrust:	77.993
Time:	8.784	Roll Set Point:	-0.167	Pitch Set Point:	-0.007	Yaw Set Point:	-2.958	X_WP:	0.155	Y_WP:	0.007	Y_WP:	0.500	X:	0.163	Y:	0.069	Z:	0.401	yaw:	169.460	yaw rate:	2.501	Roll:	-1.049	Pitch:	-2.978	Yaw:	239.946	Thrust:	78.291
Time:	8.815	Roll Set Point:	-0.167	Pitch Set Point:	-0.007	Yaw Set Point:	-2.957	X_WP:	0.155	Y_WP:	0.007	Y_WP:	0.500	X:	0.163	Y:	0.069	Z:	0.401	yaw:	169.441	yaw rate:	-1.601	Roll:	-1.023	Pitch:	-2.978	Yaw:	239.547	Thrust:	78.778
Time:	8.846	Roll Set Point:	-0.167	Pitch Set Point:	-0.007	Yaw Set Point:	-2.958	X_WP:	0.155	Y_WP:	0.007	Y_WP:	0.500	X:	0.163	Y:	0.069	Z:	0.401	yaw:	169.462	yaw rate:	2.067	Roll:	-1.046	Pitch:	-2.978	Yaw:	239.912	Thrust:	78.991
Time:	8.877	Roll Set Point:	-0.167	Pitch Set Point:	-0.007	Yaw Set Point:	-2.957	X_WP:	0.155	Y_WP:	0.007	Y_WP:	0.500	X:	0.163	Y:	0.069	Z:	0.401	yaw:	169.445	yaw rate:	2.037	Roll:	-1.024	Pitch:	-2.978	Yaw:	239.578	Thrust:	79.480
Time:	8.909	Roll Set Point:	-0.167	Pitch Set Point:	-0.007	Yaw Set Point:	-2.958	X_WP:	0.155	Y_WP:	0.007	Y_WP:	0.500	X:	0.163	Y:	0.069	Z:	0.401	yaw:	169.456	yaw rate:	1.051	Roll:	-1.039	Pitch:	-2.978	Yaw:	239.818	Thrust:	79.833
Time:	8.940	Roll Set Point:	-0.167	Pitch Set Point:	-0.007	Yaw Set Point:	-2.958	X_WP:	0.155	Y_WP:	0.007	Y_WP:	0.500	X:	0.163	Y:	0.069	Z:	0.401	yaw:	169.455	yaw rate:	-0.057	Roll:	-1.032	Pitch:	-2.976	Yaw:	239.725	Thrust:	80.186
Time:	8.969	Roll Set Point:	-0.167	Pitch Set Point:	-0.007	Yaw Set Point:	-2.957	X_WP:	0.155	Y_WP:	0.007	Y_WP:	0.500	X:	0.163	Y:	0.069	Z:	0.401	yaw:	169.427	yaw rate:	-1.476	Roll:	-0.947	Pitch:	-2.908	Yaw:	239.253	Thrust:	76.069
Time:	9.001	Roll Set Point:	-0.167	Pitch Set Point:	-0.007	Yaw Set Point:	-2.957	X_WP:	0.155	Y_WP:	0.007	Y_WP:	0.500	X:	0.163	Y:	0.069	Z:	0.401	yaw:	169.439	yaw rate:	1.152	Roll:	-1.038	Pitch:	-2.974	Yaw:	239.803	Thrust:	80.989
Time:	9.032	Roll Set Point:	-0.167	Pitch Set Point:	-0.007	Yaw Set Point:	-2.957	X_WP:	0.155	Y_WP:	0.007	Y_WP:	0.500	X:	0.163	Y:	0.069	Z:	0.401	yaw:	169.442	yaw rate:	-3.073	Roll:	-1.035	Pitch:	-2.980	Yaw:	239.741	Thrust:	81.267
Time:	9.063	Roll Set Point:	-0.167	Pitch Set Point:	-0.007	Yaw Set Point:	-2.957	X_WP:	0.155	Y_WP:	0.007	Y_WP:	0.500	X:	0.163	Y:	0.069	Z:	0.401	yaw:	169.437	yaw rate:	-0.764	Roll:	-1.029	Pitch:	-2.978	Yaw:	239.663	Thrust:	81.677
Time:	9.094	Roll Set Point:	-0.167	Pitch Set Point:	-0.007	Yaw Set Point:	-2.957	X_WP:	0.155	Y_WP:	0.007	Y_WP:	0.500	X:	0.163	Y:	0.069	Z:	0.401	yaw:	169.446	yaw rate:	0.867	Roll:	-1.035	Pitch:	-2.978	Yaw:	239.789	Thrust:	82.098
Time:	9.126	Roll Set Point:	-0.167	Pitch Set Point:	-0.007	Yaw Set Point:	-2.957	X_WP:	0.155	Y_WP:	0.007	Y_WP:	0.500	X:	0.163	Y:	0.069	Z:	0.401	yaw:	169.449	yaw rate:	0.348	Roll:	-1.033	Pitch:	-2.979	Yaw:	239.750	Thrust:	82.390
Time:	9.157	Roll Set Point:	-0.167	Pitch Set Point:	-0.007	Yaw Set Point:	-2.957	X_WP:	0.155	Y_WP:	0.007	Y_WP:	0.500	X:	0.163	Y:	0.069	Z:	0.401	yaw:	169.444	yaw rate:	-0.537	Roll:	-1.027	Pitch:	-2.978	Yaw:	239.669	Thrust:	82.859
Time:	9.188	Roll Set Point:	-0.167	Pitch Set Point:	-0.007	Yaw Set Point:	-2.957	X_WP:	0.155	Y_WP:	0.007	Y_WP:	0.500	X:	0.163	Y:	0.069	Z:	0.401	yaw:	169.440	yaw rate:	1.445	Roll:	-1.029	Pitch:	-2.978	Yaw:	239.678	Thrust:	83.063
Time:	9.219	Roll Set Point:	-0.167	Pitch Set Point:	-0.007	Yaw Set Point:	-2.957	X_WP:	0.155	Y_WP:	0.007	Y_WP:	0.500	X:	0.163	Y:	0.069	Z:	0.401	yaw:	169.448	yaw rate:	0.765	Roll:	-1.033	Pitch:	-2.977	Yaw:	239.783	Thrust:	83.682
Time:	9.251	Roll Set Point:	-0.167	Pitch Set Point:	-0.007	Yaw Set Point:	-2.957	X_WP:	0.155	Y_WP:	0.007	Y_WP:	0.500	X:	0.163	Y:	0.069	Z:	0.401	yaw:	169.428	yaw rate:	-0.189	Roll:	-1.019	Pitch:	-2.979	Yaw:	239.523	Thrust:	83.920
Time:	9.282	Roll Set Point:	-0.167	Pitch Set Point:	-0.007	Yaw Set Point:	-2.957	X_WP:	0.155	Y_WP:	0.007	Y_WP:	0.500	X:	0.163	Y:	0.069	Z:	0.401	yaw:	169.451	yaw rate:	2.307	Roll:	-1.040	Pitch:	-2.974	Yaw:	239.914	Thrust:	84.211
Time:	9.313	Roll Set Point:	-0.167	Pitch Set Point:	-0.007	Yaw Set Point:	-2.957	X_WP:	0.155	Y_WP:	0.007	Y_WP:	0.500	X:	0.163	Y:	0.069	Z:	0.401	yaw:	169.422	yaw rate:	-1.060	Roll:	-1.013	Pitch:	-2.979	Yaw:	239.441	Thrust:	84.594
Time:	9.344	Roll Set Point:	-0.167	Pitch Set Point:	-0.007	Yaw Set Point:	-2.958	X_WP:	0.155	Y_WP:	0.007	Y_WP:	0.500	X:	0.163	Y:	0.069	Z:	0.401	yaw:	169.454	yaw rate:	3.236	Roll:	-1.047	Pitch:	-2.977	Yaw:	239.999	Thrust:	85.154
Time:	9.376	Roll Set Point:	-0.167	Pitch Set Point:	-0.007	Yaw Set Point:	-2.958	X_WP:	0.155	Y_WP:	0.007	Y_WP:	0.500	X:	0.163	Y:	0.069	Z:	0.401	yaw:	169.453	yaw rate:	-0.153	Roll:	-1.029	Pitch:	-2.979	Yaw:	239.713	Thrust:	85.291
Time:	9.407	Roll Set Point:	-0.167	Pitch Set Point:	-0.007	Yaw Set Point:	-2.958	X_WP:	0.155	Y_WP:	0.007	Y_WP:	0.500	X:	0.163	Y:	0.069	Z:	0.401	yaw:	169.465	yaw rate:	1.405	Roll:	-1.036	Pitch:	-2.976	Yaw:	239.849	Thrust:	85.801
Time:	9.438	Roll Set Point:	-0.167	Pitch Set Point:	-0.007	Yaw Set Point:	-2.957	X_WP:	0.155	Y_WP:	0.007	Y_WP:	0.500	X:	0.163	Y:	0.069	Z:	0.401	yaw:	169.427	yaw rate:	-1.039	Roll:	-1.006	Pitch:	-2.978	Yaw:	239.372	Thrust:	86.117
Time:	9.469	Roll Set Point:	-0.167	Pitch Set Point:	-0.007	Yaw Set Point:	-2.957	X_WP:	0.155	Y_WP:	0.007	Y_WP:	0.500	X:	0.163	Y:	0.069	Z:	0.401	yaw:	169.438	yaw rate:	1.101	Roll:	-1.033	Pitch:	-2.976	Yaw:	239.798	Thrust:	86.537
Time:	9.501	Roll Set Point:	-0.167	Pitch Set Point:	-0.007	Yaw Set Point:	-2.957	X_WP:	0.155	Y_WP:	0.007	Y_WP:	0.500	X:	0.163	Y:	0.069	Z:	0.401	yaw:	169.448	yaw rate:	0.946	Roll:	-1.034	Pitch:	-2.979	Yaw:	239.798	Thrust:	86.931
Time:	9.532	Roll Set Point:	-0.167	Pitch Set Point:	-0.007	Yaw Set Point:	-2.957	X_WP:	0.155	Y_WP:	0.007	Y_WP:	0.500	X:	0.163	Y:	0.069	Z:	0.401	yaw:	169.432	yaw rate:	-1.575	Roll:	-1.017	Pitch:	-2.978	Yaw:	239.565	Thrust:	87.242
Time:	9.563	Roll Set Point:	-0.167	Pitch Set Point:	-0.007	Yaw Set Point:	-2.957	X_WP:	0.155	Y_WP:	0.007	Y_WP:	0.500	X:	0.163	Y:	0.069	Z:	0.401	yaw:	169.443	yaw rate:	-0.890	Roll:	-1.033	Pitch:	-2.976	Yaw:	239.807	Thrust:	87.615
Time:	9.594	Roll Set Point:	-0.167	Pitch Set Point:	-0.007	Yaw Set Point:	-2.957	X_WP:	0.155	Y_WP:	0.007	Y_WP:	0.500	X:	0.163	Y:	0.069	Z:	0.401	yaw:	169.424	yaw rate:	-1.952	Roll:	-1.015	Pitch:	-2.980	Yaw:	239.522	Thrust:	87.957
Time:	9.626	Roll Set Point:	-0.167	Pitch Set Point:	-0.007	Yaw Set Point:	-2.957	X_WP:	0.155	Y_WP:	0.007	Y_WP:	0.500	X:	0.163	Y:	0.069	Z:	0.401	yaw:	169.429	yaw rate:	-3.249	Roll:	-1.030	Pitch:	-2.976	Yaw:	239.738	Thrust:	88.377
Time:	9.657	Roll Set Point:	-0.167	Pitch Set Point:	-0.007	Yaw Set Point:	-2.957	X_WP:	0.155	Y_WP:	0.007	Y_WP:	0.500	X:	0.163	Y:	0.069	Z:	0.401	yaw:	169.439	yaw rate:	0.957	Roll:	-1.029	Pitch:	-2.979	Yaw:	239.791	Thrust:	88.830
Time:	9.688	Roll Set Point:	-0.167	Pitch Set Point:	-0.007	Yaw Set Point:	-2.957	X_WP:	0.155	Y_WP:	0.007	Y_WP:	0.500	X:	0.163	Y:	0.069	Z:	0.401	yaw:	169.441	yaw rate:	0.231	Roll:	-1.028	Pitch:	-2.978	Yaw:	239.732	Thrust:	89.126
Time:	9.719	Roll Set Point:	-0.167	Pitch Set Point:	-0.007	Yaw Set Point:	-2.957	X_WP:	0.155	Y_WP:	0.007	Y_WP:	0.500	X:	0.163	Y:	0.069	Z:	0.401	yaw:	169.433	yaw rate:	-0.870	Roll:	-1.019	Pitch:	-2.976	Yaw:	239.623	Thrust:	89.421
Time:	9.751	Roll Set Point:	-0.167	Pitch Set Point:	-0.007	Yaw Set Point:	-2.958	X_WP:	0.155	Y_WP:	0.007	Y_WP:	0.500	X:	0.163	Y:	0.069	Z:	0.401	yaw:	169.456	yaw rate:	2.334	Roll:	-1.039	Pitch:	-2.977	Yaw:	239.926	Thrust:	89.915
Time:	9.782	Roll Set Point:	-0.167	Pitch Set Point:	-0.007	Yaw Set Point:	-2.957	X_WP:	0.155	Y_WP:	0.007	Y_WP:	0.500	X:	0.163	Y:	0.069	Z:	0.401	yaw:	169.448	yaw rate:	-0.842	Roll:	-1.021	Pitch:	-2.978	Yaw:	239.649	Thrust:	90.209
Time:	9.813	Roll Set Point:	-0.167	Pitch Set Point:	-0.007	Yaw Set Point:	-2.958	X_WP:	0.155	Y_WP:	0.007	Y_WP:	0.500	X:	0.163	Y:	0.069	Z:	0.401	yaw:	169.462	yaw rate:	1.473	Roll:	-1.032	Pitch:	-2.977	Yaw:	239.862	Thrust:	90.616
Time:	9.844	Roll Set Point:	-0.167	Pitch Set Point:	-0.007	Yaw Set Point:	-2.957	X_WP:	0.155	Y_WP:	0.007	Y_WP:	0.500	X:	0.163	Y:	0.069	Z:	0.401	yaw:	169.443	yaw rate:	-1.972	Roll:	-1.013	Pitch:	-2.977	Yaw:	239.547	Thrust:	90.915
Time:	9.876	Roll Set Point:	-0.167	Pitch Set Point:	-0.007	Yaw Set Point:	-2.958	X_WP:	0.155	Y_WP:	0.007	Y_WP:	0.500	X:	0.163	Y:	0.069	Z:	0.401	yaw:	169.456	yaw rate:	1.337	Roll:	-1.030	Pitch:	-2.978	Yaw:	239.843	Thrust:	91.410
Time:	9.907	Roll Set Point:	-0.167	Pitch Set Point:	-0.007	Yaw Set Point:	-2.958	X_WP:	0.155	Y_WP:	0.007	Y_WP:	0.500	X:	0.163	Y:	0.069	Z:	0.401	yaw:	169.453	yaw rate:	-0.257	Roll:	-1.025	Pitch:	-2.977	Yaw:	239.705	Thrust:	91.674
Time:	9.938	Roll Set Point:	-0.167	Pitch Set Point:	-0.007	Yaw Set Point:	-2.957	X_WP:	0.155	Y_WP:	0.007	Y_WP:	0.500	X:	0.163	Y:	0.069	Z:	0.401	yaw:	169.439	yaw rate:	-1.395	Roll:	-1.013	Pitch:	-2.978	Yaw:	239.591	Thrust:	92.143
Time:	9.970	Roll Set Point:	-0.167	Pitch Set Point:	-0.007	Yaw Set Point:	-2.957	X_WP:	0.155	Y_WP:	0.007	Y_WP:	0.500	X:	0.163	Y:	0.069	Z:	0.401	yaw:	169.436	yaw rate:	-0.378	Roll:	-1.028	Pitch:	-2.986	Yaw:	239.691	Thrust:	93.035
Time:	10.001	Roll Set Point:	-0.167	Pitch Set Point:	-0.007	Yaw Set Point:	-2.957	X_WP:	0.155	Y_WP:	0.007	Y_WP:	0.500	X:	0.163	Y:	0.069	Z:	0.401	yaw:	169.445	yaw rate:	-0.518	Roll:	-1.027	Pitch:	-2.977	Yaw:	239.790	Thrust:	92.869
Time:	10.032	Roll Set Point:	-0.167	Pitch Set Point:	-0.007	Yaw Set Point:	-2.957	X_WP:	0.155	Y_WP:	0.007	Y_WP:	0.500	X:	0.163	Y:	0.069	Z:	0.401	yaw:	169.444	yaw rate:	-2.205	Roll:	-1.024	Pitch:	-2.976	Yaw:	239.712	Thrust:	93.136
Time:	10.063	Roll Set Point:	-0.167	Pitch Set Point:	-0.007	Yaw Set Point:	-2.958	X_WP:	0.155	Y_WP:	0.007	Y_WP:	0.500	X:	0.163	Y:	0.069	Z:	0.401	yaw:	169.458	yaw rate:	1.313	Roll:	-1.029	Pitch:	-2.981	Yaw:	239.843	Thrust:	93.630
Time:	10.095	Roll Set Point:	-0.167	Pitch Set Point:	-0.007	Yaw Set Point:	-2.957	X_WP:	0.155	Y_WP:	0.007	Y_WP:	0.500	X:	0.163	Y:	0.069	Z:	0.401	yaw:	169.449	yaw rate:	-0.637	Roll:	-1.017	Pitch:	-2.977	Yaw:	239.646	Thrust:	93.882
Time:	10.126	Roll Set Point:	-0.167	Pitch Set Point:	-0.007	Yaw Set Point:	-2.957	X_WP:	0.155	Y_WP:	0.007	Y_WP:	0.500	X:	0.163	Y:	0.069	Z:	0.401	yaw:	169.446	yaw rate:	-0.316	Roll:	-1.020	Pitch:	-2.977	Yaw:	239.689	Thrust:	94.335
Time:	10.157	Roll Set Point:	-0.167	Pitch Set Point:	-0.007	Yaw Set Point:	-2.958	X_WP:	0.155	Y_WP:	0.007	Y_WP:	0.500	X:	0.163	Y:	0.069	Z:	0.401	yaw:	169.462	yaw rate:	2.044	Roll:	-1.030	Pitch:	-2.979	Yaw:	239.873	Thrust:	94.711
Time:	10.188	Roll Set Point:	-0.167	Pitch Set Point:	-0.007	Yaw Set Point:	-2.957	X_WP:	0.155	Y_WP:	0.007	Y_WP:	0.500	X:	0.163	Y:	0.069	Z:	0.401	yaw:	169.429	yaw rate:	-3.231	Roll:	-1.002	Pitch:	-2.975	Yaw:	239.423	Thrust:	95.086
Time:	10.220	Roll Set Point:	-0.167	Pitch Set Point:	-0.007	Yaw Set Point:	-2.958	X_WP:	0.155	Y_WP:	0.007	Y_WP:	0.500	X:	0.163	Y:	0.069	Z:	0.401	yaw:	169.457	yaw rate:	2.816	Roll:	-1.037	Pitch:	-2.978	Yaw:	239.968	Thrust:	95.461
Time:	10.251	Roll Set Point:	-0.167	Pitch Set Point:	-0.007	Yaw Set Point:	-2.957	X_WP:	0.155	Y_WP:	0.007	Y_WP:	0.500	X:	0.163	Y:	0.069	Z:	0.401	yaw:	169.431	yaw rate:	-2.654	Roll:	-1.004	Pitch:	-2.977	Yaw:	239.473	Thrust:	95.725
Time:	10.282	Roll Set Point:	-0.167	Pitch Set Point:	-0.007	Yaw Set Point:	-2.958	X_WP:	0.155	Y_WP:	0.007	Y_WP:	0.500	X:	0.163	Y:	0.069	Z:	0.401	yaw:	169.454	yaw rate:	2.336	Roll:	-1.033	Pitch:	-2.978	Yaw:	239.924	Thrust:	96.294
Time:	10.313	Roll Set Point:	-0.167	Pitch Set Point:	-0.007	Yaw Set Point:	-2.957	X_WP:	0.155	Y_WP:	0.007	Y_WP:	0.500	X:	0.163	Y:	0.069	Z:	0.401	yaw:	169.428	yaw rate:	-2.603	Roll:	-1.005	Pitch:	-2.976	Yaw:	239.473	Thrust:	96.455
Time:	10.345	Roll Set Point:	-0.167	Pitch Set Point:	-0.007	Yaw Set Point:	-2.958	X_WP:	0.155	Y_WP:	0.007	Y_WP:	0.500	X:	0.163	Y:	0.069	Z:	0.401	yaw:	169.464	yaw rate:	2.797	Roll:	-1.039	Pitch:	-2.979	Yaw:	240.042	Thrust:	97.002
Time:	10.376	Roll Set Point:	-0.167	Pitch Set Point:	-0.007	Yaw Set Point:	-2.957	X_WP:	0.155	Y_WP:	0.007	Y_WP:	0.500	X:	0.163	Y:	0.069	Z:	0.401	yaw:	169.411	yaw rate:	-5.298	Roll:	-0.989	Pitch:	-2.975	Yaw:	239.224	Thrust:	97.201
Time:	10.407	Roll Set Point:	-0.167	Pitch Set Point:	-0.007	Yaw Set Point:	-2.958	X_WP:	0.155	Y_WP:	0.007	Y_WP:	0.500	X:	0.163	Y:	0.069	Z:	0.401	yaw:	169.468	yaw rate:	5.733	Roll:	-1.051	Pitch:	-2.979	Yaw:	240.228	Thrust:	97.785
Time:	10.439	Roll Set Point:	-0.167	Pitch Set Point:	-0.007	Yaw Set Point:	-2.957	X_WP:	0.155	Y_WP:	0.007	Y_WP:	0.500	X:	0.163	Y:	0.069	Z:	0.401	yaw:	169.428	yaw rate:	-3.987	Roll:	-0.996	Pitch:	-2.976	Yaw:	239.358	Thrust:	97.933
Time:	10.470	Roll Set Point:	-0.167	Pitch Set Point:	-0.007	Yaw Set Point:	-2.957	X_WP:	0.155	Y_WP:	0.007	Y_WP:	0.500	X:	0.163	Y:	0.069	Z:	0.401	yaw:	169.452	yaw rate:	2.366	Roll:	-1.031	Pitch:	-2.979	Yaw:	239.923	Thrust:	98.513
Time:	10.501	Roll Set Point:	-0.167	Pitch Set Point:	-0.007	Yaw Set Point:	-2.957	X_WP:	0.155	Y_WP:	0.007	Y_WP:	0.500	X:	0.163	Y:	0.069	Z:	0.401	yaw:	169.438	yaw rate:	-0.483	Roll:	-1.010	Pitch:	-2.978	Yaw:	239.584	Thrust:	98.709
Time:	10.532	Roll Set Point:	-0.167	Pitch Set Point:	-0.007	Yaw Set Point:	-2.958	X_WP:	0.155	Y_WP:	0.007	Y_WP:	0.500	X:	0.163	Y:	0.069	Z:	0.401	yaw:	169.473	yaw rate:	3.528	Roll:	-1.036	Pitch:	-2.978	Yaw:	240.050	Thrust:	99.295
Time:	10.564	Roll Set Point:	-0.167	Pitch Set Point:	-0.007	Yaw Set Point:	-2.957	X_WP:	0.155	Y_WP:	0.007	Y_WP:	0.500	X:	0.163	Y:	0.069	Z:	0.401	yaw:	169.435	yaw rate:	-3.755	Roll:	-0.997	Pitch:	-2.977	Yaw:	239.387	Thrust:	99.362
Time:	10.610	Roll Set Point:	-0.167	Pitch Set Point:	-0.007	Yaw Set Point:	-2.957	X_WP:	0.155	Y_WP:	0.007	Y_WP:	0.500	X:	0.163	Y:	0.069	Z:	0.401	yaw:	169.448	yaw rate:	-1.345	Roll:	-1.586	Pitch:	-3.564	Yaw:	241.355	Thrust:	100.000
Time:	10.642	Roll Set Point:	-0.167	Pitch Set Point:	-0.007	Yaw Set Point:	-2.957	X_WP:	0.155	Y_WP:	0.007	Y_WP:	0.500	X:	0.163	Y:	0.069	Z:	0.401	yaw:	169.438	yaw rate:	-1.000	Roll:	-1.012	Pitch:	-2.977	Yaw:	239.622	Thrust:	100.000
Time:	10.673	Roll Set Point:	-0.167	Pitch Set Point:	-0.007	Yaw Set Point:	-2.958	X_WP:	0.155	Y_WP:	0.007	Y_WP:	0.500	X:	0.163	Y:	0.069	Z:	0.401	yaw:	169.470	yaw rate:	3.204	Roll:	-1.034	Pitch:	-2.977	Yaw:	240.020	Thrust:	100.000
Time:	10.704	Roll Set Point:	-0.167	Pitch Set Point:	-0.007	Yaw Set Point:	-2.957	X_WP:	0.155	Y_WP:	0.007	Y_WP:	0.500	X:	0.163	Y:	0.069	Z:	0.401	yaw:	169.437	yaw rate:	-3.391	Roll:	-0.997	Pitch:	-2.976	Yaw:	239.418	Thrust:	100.000
Time:	10.735	Roll Set Point:	-0.167	Pitch Set Point:	-0.007	Yaw Set Point:	-2.958	X_WP:	0.155	Y_WP:	0.007	Y_WP:	0.500	X:	0.163	Y:	0.069	Z:	0.401	yaw:	169.462	yaw rate:	2.550	Roll:	-1.030	Pitch:	-2.978	Yaw:	239.953	Thrust:	100.000
Time:	10.767	Roll Set Point:	-0.167	Pitch Set Point:	-0.007	Yaw Set Point:	-2.957	X_WP:	0.155	Y_WP:	0.007	Y_WP:	0.500	X:	0.163	Y:	0.069	Z:	0.401	yaw:	169.425	yaw rate:	-0.825	Roll:	-0.995	Pitch:	-2.977	Yaw:	239.373	Thrust:	100.000
Time:	10.798	Roll Set Point:	-0.167	Pitch Set Point:	-0.007	Yaw Set Point:	-2.957	X_WP:	0.155	Y_WP:	0.007	Y_WP:	0.500	X:	0.163	Y:	0.069	Z:	0.401	yaw:	169.435	yaw rate:	-2.388	Roll:	-1.019	Pitch:	-2.980	Yaw:	239.785	Thrust:	100.000
Time:	10.829	Roll Set Point:	-0.167	Pitch Set Point:	-0.007	Yaw Set Point:	-2.957	X_WP:	0.155	Y_WP:	0.007	Y_WP:	0.500	X:	0.163	Y:	0.069	Z:	0.401	yaw:	169.449	yaw rate:	1.385	Roll:	-1.024	Pitch:	-2.978	Yaw:	239.836	Thrust:	100.000
