Time:	2.481	Roll Set Point:	-0.069	Pitch Set Point:	0.032	Yaw Set Point:	-2.494	X_WP:	0.000	Y_WP:	0.000	Y_WP:	0.500	X:	0.082	Y:	0.087	Z:	0.400	yaw:	142.873	yaw rate:	8.661	Roll:	-0.384	Pitch:	-3.446	Yaw:	199.488	Thrust:	5.505
Time:	2.513	Roll Set Point:	-0.069	Pitch Set Point:	0.032	Yaw Set Point:	-2.493	X_WP:	0.000	Y_WP:	0.000	Y_WP:	0.500	X:	0.082	Y:	0.087	Z:	0.400	yaw:	142.820	yaw rate:	-5.279	Roll:	-0.354	Pitch:	-3.444	Yaw:	200.531	Thrust:	5.802
Time:	2.544	Roll Set Point:	-0.069	Pitch Set Point:	0.032	Yaw Set Point:	-2.495	X_WP:	0.000	Y_WP:	0.000	Y_WP:	0.500	X:	0.082	Y:	0.087	Z:	0.400	yaw:	142.947	yaw rate:	12.690	Roll:	-0.522	Pitch:	-3.487	Yaw:	203.771	Thrust:	6.324
Time:	2.575	Roll Set Point:	-0.069	Pitch Set Point:	0.032	Yaw Set Point:	-2.492	X_WP:	0.000	Y_WP:	0.000	Y_WP:	0.500	X:	0.082	Y:	0.087	Z:	0.400	yaw:	142.794	yaw rate:	-8.556	Roll:	-0.209	Pitch:	-3.459	Yaw:	201.227	Thrust:	6.556
Time:	2.606	Roll Set Point:	-0.069	Pitch Set Point:	0.032	Yaw Set Point:	-2.492	X_WP:	0.000	Y_WP:	0.000	Y_WP:	0.500	X:	0.082	Y:	0.087	Z:	0.400	yaw:	142.794	yaw rate:	-3.086	Roll:	-0.397	Pitch:	-3.486	Yaw:	202.505	Thrust:	7.053
Time:	2.638	Roll Set Point:	-0.069	Pitch Set Point:	0.032	Yaw Set Point:	-2.492	X_WP:	0.000	Y_WP:	0.000	Y_WP:	0.500	X:	0.082	Y:	0.087	Z:	0.400	yaw:	142.799	yaw rate:	0.460	Roll:	-0.373	Pitch:	-3.489	Yaw:	202.549	Thrust:	7.398
Time:	2.669	Roll Set Point:	-0.069	Pitch Set Point:	0.032	Yaw Set Point:	-2.493	X_WP:	0.000	Y_WP:	0.000	Y_WP:	0.500	X:	0.082	Y:	0.087	Z:	0.400	yaw:	142.858	yaw rate:	3.769	Roll:	-0.451	Pitch:	-3.513	Yaw:	203.089	Thrust:	7.802
Time:	2.700	Roll Set Point:	-0.069	Pitch Set Point:	0.032	Yaw Set Point:	-2.498	X_WP:	0.000	Y_WP:	0.000	Y_WP:	0.500	X:	0.082	Y:	0.087	Z:	0.400	yaw:	143.116	yaw rate:	30.631	Roll:	-0.761	Pitch:	-3.505	Yaw:	205.117	Thrust:	8.034
Time:	2.731	Roll Set Point:	-0.069	Pitch Set Point:	0.032	Yaw Set Point:	-2.494	X_WP:	0.000	Y_WP:	0.000	Y_WP:	0.500	X:	0.082	Y:	0.087	Z:	0.400	yaw:	142.899	yaw rate:	-2.294	Roll:	-0.104	Pitch:	-3.526	Yaw:	200.824	Thrust:	8.551
Time:	2.763	Roll Set Point:	-0.069	Pitch Set Point:	0.032	Yaw Set Point:	-2.493	X_WP:	0.000	Y_WP:	0.000	Y_WP:	0.500	X:	0.082	Y:	0.087	Z:	0.400	yaw:	142.820	yaw rate:	-7.908	Roll:	-0.348	Pitch:	-3.500	Yaw:	201.881	Thrust:	8.796
Time:	2.794	Roll Set Point:	-0.069	Pitch Set Point:	0.032	Yaw Set Point:	-2.493	X_WP:	0.000	Y_WP:	0.000	Y_WP:	0.500	X:	0.082	Y:	0.087	Z:	0.400	yaw:	142.825	yaw rate:	-0.486	Roll:	-0.365	Pitch:	-3.561	Yaw:	202.588	Thrust:	9.289
Time:	2.825	Roll Set Point:	-0.069	Pitch Set Point:	0.032	Yaw Set Point:	-2.494	X_WP:	0.000	Y_WP:	0.000	Y_WP:	0.500	X:	0.082	Y:	0.087	Z:	0.400	yaw:	142.886	yaw rate:	6.111	Roll:	-0.476	Pitch:	-3.545	Yaw:	203.144	Thrust:	9.682
Time:	2.857	Roll Set Point:	-0.069	Pitch Set Point:	0.032	Yaw Set Point:	-2.493	X_WP:	0.000	Y_WP:	0.000	Y_WP:	0.500	X:	0.082	Y:	0.087	Z:	0.400	yaw:	142.845	yaw rate:	4.288	Roll:	-0.341	Pitch:	-3.550	Yaw:	202.235	Thrust:	9.923
Time:	2.888	Roll Set Point:	-0.069	Pitch Set Point:	0.032	Yaw Set Point:	-2.493	X_WP:	0.000	Y_WP:	0.000	Y_WP:	0.500	X:	0.082	Y:	0.087	Z:	0.400	yaw:	142.819	yaw rate:	-2.651	Roll:	-0.382	Pitch:	-3.569	Yaw:	202.316	Thrust:	10.405
Time:	2.919	Roll Set Point:	-0.069	Pitch Set Point:	0.032	Yaw Set Point:	-2.493	X_WP:	0.000	Y_WP:	0.000	Y_WP:	0.500	X:	0.082	Y:	0.087	Z:	0.400	yaw:	142.834	yaw rate:	-6.816	Roll:	-0.420	Pitch:	-3.574	Yaw:	202.684	Thrust:	10.722
Time:	2.950	Roll Set Point:	-0.069	Pitch Set Point:	0.032	Yaw Set Point:	-2.495	X_WP:	0.000	Y_WP:	0.000	Y_WP:	0.500	X:	0.082	Y:	0.087	Z:	0.400	yaw:	142.948	yaw rate:	11.395	Roll:	-0.468	Pitch:	-3.616	Yaw:	203.675	Thrust:	11.304
Time:	2.982	Roll Set Point:	-0.069	Pitch Set Point:	0.032	Yaw Set Point:	-2.493	X_WP:	0.000	Y_WP:	0.000	Y_WP:	0.500	X:	0.082	Y:	0.087	Z:	0.400	yaw:	142.820	yaw rate:	-28.509	Roll:	-0.301	Pitch:	-3.563	Yaw:	201.462	Thrust:	11.319
Time:	3.013	Roll Set Point:	-0.069	Pitch Set Point:	0.032	Yaw Set Point:	-2.494	X_WP:	0.000	Y_WP:	0.000	Y_WP:	0.500	X:	0.082	Y:	0.087	Z:	0.400	yaw:	142.869	yaw rate:	4.904	Roll:	-0.447	Pitch:	-3.616	Yaw:	203.019	Thrust:	11.971
Time:	3.044	Roll Set Point:	-0.069	Pitch Set Point:	0.032	Yaw Set Point:	-2.493	X_WP:	0.000	Y_WP:	0.000	Y_WP:	0.500	X:	0.082	Y:	0.087	Z:	0.400	yaw:	142.835	yaw rate:	1.871	Roll:	-0.336	Pitch:	-3.625	Yaw:	202.274	Thrust:	12.287
Time:	3.075	Roll Set Point:	-0.069	Pitch Set Point:	0.032	Yaw Set Point:	-2.493	X_WP:	0.000	Y_WP:	0.000	Y_WP:	0.500	X:	0.082	Y:	0.087	Z:	0.400	yaw:	142.840	yaw rate:	0.504	Roll:	-0.458	Pitch:	-3.593	Yaw:	202.610	Thrust:	12.508
Time:	3.107	Roll Set Point:	-0.069	Pitch Set Point:	0.032	Yaw Set Point:	-2.493	X_WP:	0.000	Y_WP:	0.000	Y_WP:	0.500	X:	0.082	Y:	0.087	Z:	0.400	yaw:	142.814	yaw rate:	-2.593	Roll:	-0.367	Pitch:	-3.630	Yaw:	202.314	Thrust:	12.993
Time:	3.138	Roll Set Point:	-0.069	Pitch Set Point:	0.032	Yaw Set Point:	-2.498	X_WP:	0.000	Y_WP:	0.000	Y_WP:	0.500	X:	0.082	Y:	0.087	Z:	0.400	yaw:	143.109	yaw rate:	30.927	Roll:	-0.792	Pitch:	-3.656	Yaw:	205.418	Thrust:	13.421
Time:	3.169	Roll Set Point:	-0.069	Pitch Set Point:	0.032	Yaw Set Point:	-2.497	X_WP:	0.000	Y_WP:	0.000	Y_WP:	0.500	X:	0.082	Y:	0.087	Z:	0.400	yaw:	143.055	yaw rate:	-5.394	Roll:	-0.256	Pitch:	-3.685	Yaw:	202.416	Thrust:	13.945
Time:	3.200	Roll Set Point:	-0.069	Pitch Set Point:	0.032	Yaw Set Point:	-2.493	X_WP:	0.000	Y_WP:	0.000	Y_WP:	0.500	X:	0.082	Y:	0.087	Z:	0.400	yaw:	142.820	yaw rate:	-28.526	Roll:	-0.173	Pitch:	-3.624	Yaw:	200.567	Thrust:	14.004
Time:	3.232	Roll Set Point:	-0.069	Pitch Set Point:	0.032	Yaw Set Point:	-2.498	X_WP:	0.000	Y_WP:	0.000	Y_WP:	0.500	X:	0.082	Y:	0.087	Z:	0.400	yaw:	143.114	yaw rate:	29.434	Roll:	-0.805	Pitch:	-3.675	Yaw:	205.417	Thrust:	14.440
Time:	3.263	Roll Set Point:	-0.069	Pitch Set Point:	0.032	Yaw Set Point:	-2.494	X_WP:	0.000	Y_WP:	0.000	Y_WP:	0.500	X:	0.082	Y:	0.087	Z:	0.400	yaw:	142.923	yaw rate:	-19.114	Roll:	-0.143	Pitch:	-3.681	Yaw:	201.083	Thrust:	15.006
Time:	3.294	Roll Set Point:	-0.069	Pitch Set Point:	0.032	Yaw Set Point:	-2.495	X_WP:	0.000	Y_WP:	0.000	Y_WP:	0.500	X:	0.082	Y:	0.087	Z:	0.400	yaw:	142.942	yaw rate:	1.885	Roll:	-0.420	Pitch:	-3.709	Yaw:	202.865	Thrust:	15.327
Time:	3.325	Roll Set Point:	-0.069	Pitch Set Point:	0.032	Yaw Set Point:	-2.492	X_WP:	0.000	Y_WP:	0.000	Y_WP:	0.500	X:	0.082	Y:	0.087	Z:	0.400	yaw:	142.787	yaw rate:	-15.502	Roll:	-0.240	Pitch:	-3.678	Yaw:	201.197	Thrust:	15.616
Time:	3.357	Roll Set Point:	-0.069	Pitch Set Point:	0.032	Yaw Set Point:	-2.493	X_WP:	0.000	Y_WP:	0.000	Y_WP:	0.500	X:	0.082	Y:	0.087	Z:	0.400	yaw:	142.840	yaw rate:	5.282	Roll:	-0.536	Pitch:	-3.687	Yaw:	203.011	Thrust:	15.782
Time:	3.388	Roll Set Point:	-0.069	Pitch Set Point:	0.032	Yaw Set Point:	-2.492	X_WP:	0.000	Y_WP:	0.000	Y_WP:	0.500	X:	0.082	Y:	0.087	Z:	0.400	yaw:	142.803	yaw rate:	-3.681	Roll:	-0.336	Pitch:	-3.720	Yaw:	202.208	Thrust:	16.526
Time:	3.419	Roll Set Point:	-0.069	Pitch Set Point:	0.032	Yaw Set Point:	-2.498	X_WP:	0.000	Y_WP:	0.000	Y_WP:	0.500	X:	0.082	Y:	0.087	Z:	0.400	yaw:	143.110	yaw rate:	18.152	Roll:	-0.824	Pitch:	-3.727	Yaw:	205.517	Thrust:	16.652
Time:	3.451	Roll Set Point:	-0.069	Pitch Set Point:	0.032	Yaw Set Point:	-2.494	X_WP:	0.000	Y_WP:	0.000	Y_WP:	0.500	X:	0.082	Y:	0.087	Z:	0.400	yaw:	142.901	yaw rate:	-20.941	Roll:	-0.103	Pitch:	-3.758	Yaw:	200.970	Thrust:	17.513
Time:	3.482	Roll Set Point:	-0.069	Pitch Set Point:	0.032	Yaw Set Point:	-2.498	X_WP:	0.000	Y_WP:	0.000	Y_WP:	0.500	X:	0.082	Y:	0.087	Z:	0.400	yaw:	143.113	yaw rate:	19.174	Roll:	-0.748	Pitch:	-3.730	Yaw:	204.728	Thrust:	17.299
Time:	3.517	Roll Set Point:	-0.069	Pitch Set Point:	0.032	Yaw Set Point:	-2.492	X_WP:	0.000	Y_WP:	0.000	Y_WP:	0.500	X:	0.082	Y:	0.087	Z:	0.400	yaw:	142.804	yaw rate:	-0.943	Roll:	-0.085	Pitch:	-3.771	Yaw:	200.538	Thrust:	19.284
Time:	3.548	Roll Set Point:	-0.069	Pitch Set Point:	0.032	Yaw Set Point:	-2.495	X_WP:	0.000	Y_WP:	0.000	Y_WP:	0.500	X:	0.082	Y:	0.087	Z:	0.400	yaw:	142.981	yaw rate:	17.641	Roll:	-0.560	Pitch:	-3.826	Yaw:	204.242	Thrust:	18.490
Time:	3.579	Roll Set Point:	-0.069	Pitch Set Point:	0.032	Yaw Set Point:	-2.492	X_WP:	0.000	Y_WP:	0.000	Y_WP:	0.500	X:	0.082	Y:	0.087	Z:	0.400	yaw:	142.781	yaw rate:	-19.985	Roll:	-0.225	Pitch:	-3.731	Yaw:	200.811	Thrust:	18.524
Time:	3.610	Roll Set Point:	-0.069	Pitch Set Point:	0.032	Yaw Set Point:	-2.496	X_WP:	0.000	Y_WP:	0.000	Y_WP:	0.500	X:	0.082	Y:	0.087	Z:	0.400	yaw:	142.989	yaw rate:	15.684	Roll:	-0.624	Pitch:	-3.814	Yaw:	204.514	Thrust:	19.034
Time:	3.642	Roll Set Point:	-0.069	Pitch Set Point:	0.032	Yaw Set Point:	-2.493	X_WP:	0.000	Y_WP:	0.000	Y_WP:	0.500	X:	0.082	Y:	0.087	Z:	0.400	yaw:	142.845	yaw rate:	-14.361	Roll:	-0.371	Pitch:	-3.733	Yaw:	201.372	Thrust:	19.272
Time:	3.673	Roll Set Point:	-0.069	Pitch Set Point:	0.032	Yaw Set Point:	-2.492	X_WP:	0.000	Y_WP:	0.000	Y_WP:	0.500	X:	0.082	Y:	0.087	Z:	0.400	yaw:	142.771	yaw rate:	-33.247	Roll:	-0.257	Pitch:	-3.841	Yaw:	201.855	Thrust:	19.812
Time:	3.704	Roll Set Point:	-0.069	Pitch Set Point:	0.032	Yaw Set Point:	-2.498	X_WP:	0.000	Y_WP:	0.000	Y_WP:	0.500	X:	0.082	Y:	0.087	Z:	0.400	yaw:	143.106	yaw rate:	33.454	Roll:	-0.904	Pitch:	-3.771	Yaw:	205.742	Thrust:	20.051
Time:	3.736	Roll Set Point:	-0.069	Pitch Set Point:	0.032	Yaw Set Point:	-2.498	X_WP:	0.000	Y_WP:	0.000	Y_WP:	0.500	X:	0.082	Y:	0.087	Z:	0.400	yaw:	143.125	yaw rate:	31.931	Roll:	-0.445	Pitch:	-3.834	Yaw:	203.131	Thrust:	20.498
Time:	3.767	Roll Set Point:	-0.069	Pitch Set Point:	0.032	Yaw Set Point:	-2.498	X_WP:	0.000	Y_WP:	0.000	Y_WP:	0.500	X:	0.082	Y:	0.087	Z:	0.400	yaw:	143.116	yaw rate:	30.240	Roll:	-0.465	Pitch:	-3.809	Yaw:	202.872	Thrust:	20.920
Time:	3.798	Roll Set Point:	-0.069	Pitch Set Point:	0.032	Yaw Set Point:	-2.492	X_WP:	0.000	Y_WP:	0.000	Y_WP:	0.500	X:	0.082	Y:	0.087	Z:	0.400	yaw:	142.808	yaw rate:	-1.056	Roll:	-0.007	Pitch:	-3.859	Yaw:	199.943	Thrust:	21.242
Time:	3.829	Roll Set Point:	-0.069	Pitch Set Point:	0.032	Yaw Set Point:	-2.494	X_WP:	0.000	Y_WP:	0.000	Y_WP:	0.500	X:	0.082	Y:	0.087	Z:	0.400	yaw:	142.893	yaw rate:	10.812	Roll:	-0.556	Pitch:	-3.823	Yaw:	203.350	Thrust:	21.699
Time:	3.861	Roll Set Point:	-0.069	Pitch Set Point:	0.032	Yaw Set Point:	-2.493	X_WP:	0.000	Y_WP:	0.000	Y_WP:	0.500	X:	0.082	Y:	0.087	Z:	0.400	yaw:	142.843	yaw rate:	5.941	Roll:	-0.352	Pitch:	-3.868	Yaw:	202.156	Thrust:	21.907
Time:	3.892	Roll Set Point:	-0.069	Pitch Set Point:	0.032	Yaw Set Point:	-2.492	X_WP:	0.000	Y_WP:	0.000	Y_WP:	0.500	X:	0.082	Y:	0.087	Z:	0.400	yaw:	142.770	yaw rate:	-7.359	Roll:	-0.310	Pitch:	-3.887	Yaw:	201.853	Thrust:	22.520
Time:	3.923	Roll Set Point:	-0.069	Pitch Set Point:	0.032	Yaw Set Point:	-2.498	X_WP:	0.000	Y_WP:	0.000	Y_WP:	0.500	X:	0.082	Y:	0.087	Z:	0.400	yaw:	143.107	yaw rate:	30.073	Roll:	-0.881	Pitch:	-3.851	Yaw:	205.769	Thrust:	22.648
Time:	3.954	Roll Set Point:	-0.069	Pitch Set Point:	0.032	Yaw Set Point:	-2.493	X_WP:	0.000	Y_WP:	0.000	Y_WP:	0.500	X:	0.082	Y:	0.087	Z:	0.400	yaw:	142.845	yaw rate:	-26.199	Roll:	-0.082	Pitch:	-3.907	Yaw:	200.375	Thrust:	23.301
Time:	3.986	Roll Set Point:	-0.069	Pitch Set Point:	0.032	Yaw Set Point:	-2.494	X_WP:	0.000	Y_WP:	0.000	Y_WP:	0.500	X:	0.082	Y:	0.087	Z:	0.400	yaw:	142.873	yaw rate:	2.786	Roll:	-0.490	Pitch:	-3.860	Yaw:	202.850	Thrust:	23.490
Time:	4.017	Roll Set Point:	-0.069	Pitch Set Point:	0.032	Yaw Set Point:	-2.495	X_WP:	0.000	Y_WP:	0.000	Y_WP:	0.500	X:	0.082	Y:	0.087	Z:	0.400	yaw:	142.967	yaw rate:	15.340	Roll:	-0.501	Pitch:	-3.936	Yaw:	203.532	Thrust:	23.954
Time:	4.048	Roll Set Point:	-0.069	Pitch Set Point:	0.032	Yaw Set Point:	-2.493	X_WP:	0.000	Y_WP:	0.000	Y_WP:	0.500	X:	0.082	Y:	0.087	Z:	0.400	yaw:	142.817	yaw rate:	-28.573	Roll:	-0.335	Pitch:	-3.876	Yaw:	201.275	Thrust:	24.050
Time:	4.079	Roll Set Point:	-0.069	Pitch Set Point:	0.032	Yaw Set Point:	-2.495	X_WP:	0.000	Y_WP:	0.000	Y_WP:	0.500	X:	0.082	Y:	0.087	Z:	0.400	yaw:	142.973	yaw rate:	15.633	Roll:	-0.554	Pitch:	-3.964	Yaw:	204.065	Thrust:	24.814
Time:	4.111	Roll Set Point:	-0.069	Pitch Set Point:	0.032	Yaw Set Point:	-2.494	X_WP:	0.000	Y_WP:	0.000	Y_WP:	0.500	X:	0.082	Y:	0.087	Z:	0.400	yaw:	142.886	yaw rate:	3.243	Roll:	-0.373	Pitch:	-3.900	Yaw:	201.897	Thrust:	25.013
Time:	4.142	Roll Set Point:	-0.069	Pitch Set Point:	0.032	Yaw Set Point:	-2.493	X_WP:	0.000	Y_WP:	0.000	Y_WP:	0.500	X:	0.082	Y:	0.087	Z:	0.400	yaw:	142.818	yaw rate:	-0.098	Roll:	-0.352	Pitch:	-3.937	Yaw:	201.966	Thrust:	25.274
Time:	4.173	Roll Set Point:	-0.069	Pitch Set Point:	0.032	Yaw Set Point:	-2.495	X_WP:	0.000	Y_WP:	0.000	Y_WP:	0.500	X:	0.082	Y:	0.087	Z:	0.400	yaw:	142.933	yaw rate:	11.504	Roll:	-0.606	Pitch:	-3.952	Yaw:	203.662	Thrust:	25.922
Time:	4.204	Roll Set Point:	-0.069	Pitch Set Point:	0.032	Yaw Set Point:	-2.493	X_WP:	0.000	Y_WP:	0.000	Y_WP:	0.500	X:	0.082	Y:	0.087	Z:	0.400	yaw:	142.837	yaw rate:	-6.622	Roll:	-0.290	Pitch:	-3.964	Yaw:	201.757	Thrust:	26.070
Time:	4.236	Roll Set Point:	-0.069	Pitch Set Point:	0.032	Yaw Set Point:	-2.495	X_WP:	0.000	Y_WP:	0.000	Y_WP:	0.500	X:	0.082	Y:	0.087	Z:	0.400	yaw:	142.943	yaw rate:	10.580	Roll:	-0.595	Pitch:	-3.963	Yaw:	203.597	Thrust:	26.558
Time:	4.267	Roll Set Point:	-0.069	Pitch Set Point:	0.032	Yaw Set Point:	-2.494	X_WP:	0.000	Y_WP:	0.000	Y_WP:	0.500	X:	0.082	Y:	0.087	Z:	0.400	yaw:	142.922	yaw rate:	8.827	Roll:	-0.337	Pitch:	-4.012	Yaw:	202.510	Thrust:	27.046
Time:	4.298	Roll Set Point:	-0.069	Pitch Set Point:	0.032	Yaw Set Point:	-2.498	X_WP:	0.000	Y_WP:	0.000	Y_WP:	0.500	X:	0.082	Y:	0.087	Z:	0.400	yaw:	143.099	yaw rate:	17.765	Roll:	-0.794	Pitch:	-3.936	Yaw:	204.416	Thrust:	26.994
Time:	4.329	Roll Set Point:	-0.069	Pitch Set Point:	0.032	Yaw Set Point:	-2.495	X_WP:	0.000	Y_WP:	0.000	Y_WP:	0.500	X:	0.082	Y:	0.087	Z:	0.400	yaw:	142.946	yaw rate:	-15.381	Roll:	-0.211	Pitch:	-4.009	Yaw:	201.431	Thrust:	27.729
Time:	4.361	Roll Set Point:	-0.069	Pitch Set Point:	0.032	Yaw Set Point:	-2.493	X_WP:	0.000	Y_WP:	0.000	Y_WP:	0.500	X:	0.082	Y:	0.087	Z:	0.400	yaw:	142.837	yaw rate:	-4.295	Roll:	-0.338	Pitch:	-4.016	Yaw:	201.648	Thrust:	28.063
Time:	4.392	Roll Set Point:	-0.069	Pitch Set Point:	0.032	Yaw Set Point:	-2.495	X_WP:	0.000	Y_WP:	0.000	Y_WP:	0.500	X:	0.082	Y:	0.087	Z:	0.400	yaw:	142.934	yaw rate:	9.730	Roll:	-0.548	Pitch:	-3.999	Yaw:	203.514	Thrust:	28.332
Time:	4.423	Roll Set Point:	-0.068	Pitch Set Point:	0.032	Yaw Set Point:	-2.498	X_WP:	0.000	Y_WP:	0.000	Y_WP:	0.500	X:	0.083	Y:	0.087	Z:	0.400	yaw:	143.153	yaw rate:	33.696	Roll:	-0.857	Pitch:	-3.990	Yaw:	204.835	Thrust:	28.536
Time:	4.450	Roll Set Point:	-0.069	Pitch Set Point:	0.032	Yaw Set Point:	-2.495	X_WP:	0.000	Y_WP:	0.000	Y_WP:	0.500	X:	0.082	Y:	0.087	Z:	0.400	yaw:	142.978	yaw rate:	-17.423	Roll:	-0.036	Pitch:	-3.986	Yaw:	200.576	Thrust:	25.955
Time:	4.481	Roll Set Point:	-0.069	Pitch Set Point:	0.032	Yaw Set Point:	-2.498	X_WP:	0.000	Y_WP:	0.000	Y_WP:	0.500	X:	0.082	Y:	0.087	Z:	0.400	yaw:	143.115	yaw rate:	13.662	Roll:	-0.696	Pitch:	-4.018	Yaw:	204.098	Thrust:	29.356
Time:	4.512	Roll Set Point:	-0.069	Pitch Set Point:	0.032	Yaw Set Point:	-2.498	X_WP:	0.000	Y_WP:	0.000	Y_WP:	0.500	X:	0.082	Y:	0.087	Z:	0.400	yaw:	143.117	yaw rate:	0.522	Roll:	-0.490	Pitch:	-4.049	Yaw:	202.967	Thrust:	29.884
Time:	4.543	Roll Set Point:	-0.069	Pitch Set Point:	0.032	Yaw Set Point:	-2.498	X_WP:	0.000	Y_WP:	0.000	Y_WP:	0.500	X:	0.082	Y:	0.087	Z:	0.400	yaw:	143.106	yaw rate:	26.785	Roll:	-0.449	Pitch:	-4.061	Yaw:	202.854	Thrust:	30.282
Time:	4.575	Roll Set Point:	-0.069	Pitch Set Point:	0.032	Yaw Set Point:	-2.498	X_WP:	0.000	Y_WP:	0.000	Y_WP:	0.500	X:	0.082	Y:	0.087	Z:	0.400	yaw:	143.097	yaw rate:	-0.954	Roll:	-0.470	Pitch:	-4.074	Yaw:	202.843	Thrust:	30.637
Time:	4.606	Roll Set Point:	-0.069	Pitch Set Point:	0.032	Yaw Set Point:	-2.494	X_WP:	0.000	Y_WP:	0.000	Y_WP:	0.500	X:	0.082	Y:	0.087	Z:	0.400	yaw:	142.922	yaw rate:	-17.447	Roll:	-0.177	Pitch:	-4.096	Yaw:	201.226	Thrust:	31.215
Time:	4.637	Roll Set Point:	-0.069	Pitch Set Point:	0.032	Yaw Set Point:	-2.497	X_WP:	0.000	Y_WP:	0.000	Y_WP:	0.500	X:	0.082	Y:	0.087	Z:	0.400	yaw:	143.088	yaw rate:	23.409	Roll:	-0.655	Pitch:	-4.102	Yaw:	204.303	Thrust:	31.433
Time:	4.668	Roll Set Point:	-0.069	Pitch Set Point:	0.032	Yaw Set Point:	-2.498	X_WP:	0.000	Y_WP:	0.000	Y_WP:	0.500	X:	0.082	Y:	0.087	Z:	0.400	yaw:	143.107	yaw rate:	1.829	Roll:	-0.558	Pitch:	-4.065	Yaw:	203.096	Thrust:	31.552
Time:	4.700	Roll Set Point:	-0.069	Pitch Set Point:	0.032	Yaw Set Point:	-2.495	X_WP:	0.000	Y_WP:	0.000	Y_WP:	0.500	X:	0.082	Y:	0.087	Z:	0.400	yaw:	142.956	yaw rate:	-15.052	Roll:	-0.265	Pitch:	-4.122	Yaw:	201.470	Thrust:	32.360
Time:	4.731	Roll Set Point:	-0.069	Pitch Set Point:	0.032	Yaw Set Point:	-2.498	X_WP:	0.000	Y_WP:	0.000	Y_WP:	0.500	X:	0.082	Y:	0.087	Z:	0.400	yaw:	143.102	yaw rate:	14.572	Roll:	-0.694	Pitch:	-4.076	Yaw:	204.151	Thrust:	32.244
Time:	4.762	Roll Set Point:	-0.069	Pitch Set Point:	0.032	Yaw Set Point:	-2.492	X_WP:	0.000	Y_WP:	0.000	Y_WP:	0.500	X:	0.082	Y:	0.087	Z:	0.400	yaw:	142.791	yaw rate:	-28.146	Roll:	-0.034	Pitch:	-4.164	Yaw:	199.898	Thrust:	33.143
Time:	4.793	Roll Set Point:	-0.069	Pitch Set Point:	0.032	Yaw Set Point:	-2.495	X_WP:	0.000	Y_WP:	0.000	Y_WP:	0.500	X:	0.082	Y:	0.087	Z:	0.400	yaw:	142.979	yaw rate:	-12.552	Roll:	-0.677	Pitch:	-4.130	Yaw:	204.338	Thrust:	33.252
Time:	4.825	Roll Set Point:	-0.069	Pitch Set Point:	0.032	Yaw Set Point:	-2.493	X_WP:	0.000	Y_WP:	0.000	Y_WP:	0.500	X:	0.082	Y:	0.087	Z:	0.400	yaw:	142.866	yaw rate:	-28.386	Roll:	-0.334	Pitch:	-4.142	Yaw:	201.660	Thrust:	33.629
Time:	4.856	Roll Set Point:	-0.069	Pitch Set Point:	0.032	Yaw Set Point:	-2.493	X_WP:	0.000	Y_WP:	0.000	Y_WP:	0.500	X:	0.082	Y:	0.087	Z:	0.400	yaw:	142.811	yaw rate:	-5.530	Roll:	-0.448	Pitch:	-4.126	Yaw:	202.064	Thrust:	33.961
Time:	4.887	Roll Set Point:	-0.069	Pitch Set Point:	0.032	Yaw Set Point:	-2.498	X_WP:	0.000	Y_WP:	0.000	Y_WP:	0.500	X:	0.082	Y:	0.087	Z:	0.400	yaw:	143.124	yaw rate:	31.264	Roll:	-0.851	Pitch:	-4.176	Yaw:	205.582	Thrust:	34.306
Time:	4.918	Roll Set Point:	-0.069	Pitch Set Point:	0.032	Yaw Set Point:	-2.492	X_WP:	0.000	Y_WP:	0.000	Y_WP:	0.500	X:	0.082	Y:	0.087	Z:	0.400	yaw:	142.793	yaw rate:	-33.015	Roll:	-0.053	Pitch:	-4.166	Yaw:	199.743	Thrust:	34.891
Time:	4.950	Roll Set Point:	-0.069	Pitch Set Point:	0.032	Yaw Set Point:	-2.496	X_WP:	0.000	Y_WP:	0.000	Y_WP:	0.500	X:	0.082	Y:	0.087	Z:	0.400	yaw:	143.005	yaw rate:	21.168	Roll:	-0.627	Pitch:	-4.224	Yaw:	204.571	Thrust:	35.286
Time:	4.981	Roll Set Point:	-0.069	Pitch Set Point:	0.032	Yaw Set Point:	-2.498	X_WP:	0.000	Y_WP:	0.000	Y_WP:	0.500	X:	0.082	Y:	0.087	Z:	0.400	yaw:	143.105	yaw rate:	9.949	Roll:	-0.727	Pitch:	-4.142	Yaw:	203.768	Thrust:	35.266
Time:	5.012	Roll Set Point:	-0.069	Pitch Set Point:	0.032	Yaw Set Point:	-2.492	X_WP:	0.000	Y_WP:	0.000	Y_WP:	0.500	X:	0.082	Y:	0.087	Z:	0.400	yaw:	142.807	yaw rate:	-2.853	Roll:	-0.069	Pitch:	-4.202	Yaw:	200.028	Thrust:	35.954
Time:	5.043	Roll Set Point:	-0.069	Pitch Set Point:	0.032	Yaw Set Point:	-2.493	X_WP:	0.000	Y_WP:	0.000	Y_WP:	0.500	X:	0.082	Y:	0.087	Z:	0.400	yaw:	142.857	yaw rate:	-25.772	Roll:	-0.516	Pitch:	-4.237	Yaw:	203.010	Thrust:	36.329
Time:	5.075	Roll Set Point:	-0.069	Pitch Set Point:	0.032	Yaw Set Point:	-2.498	X_WP:	0.000	Y_WP:	0.000	Y_WP:	0.500	X:	0.082	Y:	0.087	Z:	0.400	yaw:	143.098	yaw rate:	16.200	Roll:	-0.797	Pitch:	-4.187	Yaw:	204.945	Thrust:	36.500
Time:	5.106	Roll Set Point:	-0.069	Pitch Set Point:	0.032	Yaw Set Point:	-2.495	X_WP:	0.000	Y_WP:	0.000	Y_WP:	0.500	X:	0.082	Y:	0.087	Z:	0.400	yaw:	142.970	yaw rate:	19.076	Roll:	-0.290	Pitch:	-4.252	Yaw:	201.679	Thrust:	37.227
Time:	5.137	Roll Set Point:	-0.069	Pitch Set Point:	0.032	Yaw Set Point:	-2.493	X_WP:	0.000	Y_WP:	0.000	Y_WP:	0.500	X:	0.082	Y:	0.087	Z:	0.400	yaw:	142.837	yaw rate:	3.935	Roll:	-0.282	Pitch:	-4.253	Yaw:	201.452	Thrust:	37.451
Time:	5.168	Roll Set Point:	-0.069	Pitch Set Point:	0.032	Yaw Set Point:	-2.493	X_WP:	0.000	Y_WP:	0.000	Y_WP:	0.500	X:	0.082	Y:	0.087	Z:	0.400	yaw:	142.842	yaw rate:	0.455	Roll:	-0.539	Pitch:	-4.213	Yaw:	202.608	Thrust:	37.648
Time:	5.200	Roll Set Point:	-0.071	Pitch Set Point:	0.032	Yaw Set Point:	-2.481	X_WP:	0.000	Y_WP:	0.000	Y_WP:	0.500	X:	0.082	Y:	0.087	Z:	0.400	yaw:	142.143	yaw rate:	-0.939	Roll:	0.520	Pitch:	-4.275	Yaw:	195.744	Thrust:	38.532
Time:	5.231	Roll Set Point:	-0.070	Pitch Set Point:	0.032	Yaw Set Point:	-2.482	X_WP:	0.000	Y_WP:	0.000	Y_WP:	0.500	X:	0.082	Y:	0.087	Z:	0.400	yaw:	142.212	yaw rate:	8.574	Roll:	-0.503	Pitch:	-4.291	Yaw:	202.272	Thrust:	38.625
Time:	5.262	Roll Set Point:	-0.069	Pitch Set Point:	0.032	Yaw Set Point:	-2.493	X_WP:	0.000	Y_WP:	0.000	Y_WP:	0.500	X:	0.082	Y:	0.087	Z:	0.400	yaw:	142.834	yaw rate:	62.194	Roll:	-1.391	Pitch:	-4.195	Yaw:	207.769	Thrust:	38.284
Time:	5.294	Roll Set Point:	-0.069	Pitch Set Point:	0.032	Yaw Set Point:	-2.497	X_WP:	0.000	Y_WP:	0.000	Y_WP:	0.500	X:	0.082	Y:	0.087	Z:	0.400	yaw:	143.091	yaw rate:	25.654	Roll:	-0.788	Pitch:	-4.311	Yaw:	205.067	Thrust:	39.317
Time:	5.325	Roll Set Point:	-0.069	Pitch Set Point:	0.032	Yaw Set Point:	-2.498	X_WP:	0.000	Y_WP:	0.000	Y_WP:	0.500	X:	0.082	Y:	0.087	Z:	0.400	yaw:	143.116	yaw rate:	2.494	Roll:	-0.516	Pitch:	-4.275	Yaw:	203.161	Thrust:	39.669
Time:	5.356	Roll Set Point:	-0.069	Pitch Set Point:	0.032	Yaw Set Point:	-2.492	X_WP:	0.000	Y_WP:	0.000	Y_WP:	0.500	X:	0.082	Y:	0.087	Z:	0.400	yaw:	142.810	yaw rate:	-12.224	Roll:	-0.073	Pitch:	-4.326	Yaw:	199.962	Thrust:	40.154
Time:	5.387	Roll Set Point:	-0.069	Pitch Set Point:	0.032	Yaw Set Point:	-2.493	X_WP:	0.000	Y_WP:	0.000	Y_WP:	0.500	X:	0.082	Y:	0.087	Z:	0.400	yaw:	142.821	yaw rate:	1.195	Roll:	-0.517	Pitch:	-4.284	Yaw:	202.642	Thrust:	40.321
Time:	5.419	Roll Set Point:	-0.069	Pitch Set Point:	0.032	Yaw Set Point:	-2.492	X_WP:	0.000	Y_WP:	0.000	Y_WP:	0.500	X:	0.082	Y:	0.087	Z:	0.400	yaw:	142.804	yaw rate:	-1.717	Roll:	-0.438	Pitch:	-4.340	Yaw:	202.374	Thrust:	40.796
Time:	5.450	Roll Set Point:	-0.069	Pitch Set Point:	0.032	Yaw Set Point:	-2.498	X_WP:	0.000	Y_WP:	0.000	Y_WP:	0.500	X:	0.082	Y:	0.087	Z:	0.400	yaw:	143.121	yaw rate:	31.622	Roll:	-0.917	Pitch:	-4.306	Yaw:	205.607	Thrust:	41.030
Time:	5.481	Roll Set Point:	-0.069	Pitch Set Point:	0.032	Yaw Set Point:	-2.493	X_WP:	0.000	Y_WP:	0.000	Y_WP:	0.500	X:	0.082	Y:	0.087	Z:	0.400	yaw:	142.830	yaw rate:	-29.089	Roll:	-0.097	Pitch:	-4.367	Yaw:	200.111	Thrust:	41.612
Time:	5.512	Roll Set Point:	-0.069	Pitch Set Point:	0.032	Yaw Set Point:	-2.495	X_WP:	0.000	Y_WP:	0.000	Y_WP:	0.500	X:	0.082	Y:	0.087	Z:	0.400	yaw:	142.969	yaw rate:	16.231	Roll:	-0.616	Pitch:	-4.367	Yaw:	203.920	Thrust:	42.051
Time:	5.543	Roll Set Point:	-0.069	Pitch Set Point:	0.032	Yaw Set Point:	-2.493	X_WP:	0.000	Y_WP:	0.000	Y_WP:	0.500	X:	0.082	Y:	0.087	Z:	0.400	yaw:	142.849	yaw rate:	-12.007	Roll:	-0.436	Pitch:	-4.297	Yaw:	201.575	Thrust:	41.990
Time:	5.575	Roll Set Point:	-0.069	Pitch Set Point:	0.032	Yaw Set Point:	-2.492	X_WP:	0.000	Y_WP:	0.000	Y_WP:	0.500	X:	0.082	Y:	0.087	Z:	0.400	yaw:	142.779	yaw rate:	-6.995	Roll:	-0.337	Pitch:	-4.411	Yaw:	201.897	Thrust:	42.883
Time:	5.606	Roll Set Point:	-0.069	Pitch Set Point:	0.032	Yaw Set Point:	-2.492	X_WP:	0.000	Y_WP:	0.000	Y_WP:	0.500	X:	0.082	Y:	0.087	Z:	0.400	yaw:	142.803	yaw rate:	1.131	Roll:	-0.525	Pitch:	-4.350	Yaw:	202.714	Thrust:	42.911
Time:	5.637	Roll Set Point:	-0.069	Pitch Set Point:	0.032	Yaw Set Point:	-2.498	X_WP:	0.000	Y_WP:	0.000	Y_WP:	0.500	X:	0.082	Y:	0.087	Z:	0.400	yaw:	143.115	yaw rate:	20.205	Roll:	-0.931	Pitch:	-4.380	Yaw:	205.567	Thrust:	43.360
Time:	5.668	Roll Set Point:	-0.069	Pitch Set Point:	0.032	Yaw Set Point:	-2.492	X_WP:	0.000	Y_WP:	0.000	Y_WP:	0.500	X:	0.082	Y:	0.087	Z:	0.400	yaw:	142.806	yaw rate:	-30.881	Roll:	-0.054	Pitch:	-4.398	Yaw:	199.934	Thrust:	43.804
Time:	5.700	Roll Set Point:	-0.069	Pitch Set Point:	0.032	Yaw Set Point:	-2.496	X_WP:	0.000	Y_WP:	0.000	Y_WP:	0.500	X:	0.082	Y:	0.087	Z:	0.400	yaw:	143.022	yaw rate:	21.559	Roll:	-0.719	Pitch:	-4.446	Yaw:	204.627	Thrust:	44.354
Time:	5.731	Roll Set Point:	-0.069	Pitch Set Point:	0.032	Yaw Set Point:	-2.498	X_WP:	0.000	Y_WP:	0.000	Y_WP:	0.500	X:	0.082	Y:	0.087	Z:	0.400	yaw:	143.106	yaw rate:	8.389	Roll:	-0.692	Pitch:	-4.362	Yaw:	203.642	Thrust:	44.278
Time:	5.762	Roll Set Point:	-0.069	Pitch Set Point:	0.032	Yaw Set Point:	-2.492	X_WP:	0.000	Y_WP:	0.000	Y_WP:	0.500	X:	0.082	Y:	0.087	Z:	0.400	yaw:	142.799	yaw rate:	-30.659	Roll:	-0.126	Pitch:	-4.445	Yaw:	199.937	Thrust:	44.965
Time:	5.793	Roll Set Point:	-0.069	Pitch Set Point:	0.032	Yaw Set Point:	-2.492	X_WP:	0.000	Y_WP:	0.000	Y_WP:	0.500	X:	0.082	Y:	0.087	Z:	0.400	yaw:	142.795	yaw rate:	-0.424	Roll:	-0.463	Pitch:	-4.420	Yaw:	202.472	Thrust:	45.300
Time:	5.825	Roll Set Point:	-0.069	Pitch Set Point:	0.032	Yaw Set Point:	-2.492	X_WP:	0.000	Y_WP:	0.000	Y_WP:	0.500	X:	0.082	Y:	0.087	Z:	0.400	yaw:	142.794	yaw rate:	-8.800	Roll:	-0.477	Pitch:	-4.448	Yaw:	202.493	Thrust:	45.639
Time:	5.856	Roll Set Point:	-0.069	Pitch Set Point:	0.032	Yaw Set Point:	-2.492	X_WP:	0.000	Y_WP:	0.000	Y_WP:	0.500	X:	0.082	Y:	0.087	Z:	0.400	yaw:	142.784	yaw rate:	-9.407	Roll:	-0.447	Pitch:	-4.452	Yaw:	202.405	Thrust:	46.106
Time:	5.887	Roll Set Point:	-0.069	Pitch Set Point:	0.032	Yaw Set Point:	-2.492	X_WP:	0.000	Y_WP:	0.000	Y_WP:	0.500	X:	0.082	Y:	0.087	Z:	0.400	yaw:	142.759	yaw rate:	-2.473	Roll:	-0.454	Pitch:	-4.470	Yaw:	202.248	Thrust:	46.456
Time:	5.918	Roll Set Point:	-0.069	Pitch Set Point:	0.032	Yaw Set Point:	-2.492	X_WP:	0.000	Y_WP:	0.000	Y_WP:	0.500	X:	0.082	Y:	0.087	Z:	0.400	yaw:	142.798	yaw rate:	-29.205	Roll:	-0.570	Pitch:	-4.447	Yaw:	202.831	Thrust:	46.687
Time:	5.950	Roll Set Point:	-0.069	Pitch Set Point:	0.032	Yaw Set Point:	-2.498	X_WP:	0.000	Y_WP:	0.000	Y_WP:	0.500	X:	0.082	Y:	0.087	Z:	0.400	yaw:	143.112	yaw rate:	13.689	Roll:	-0.951	Pitch:	-4.460	Yaw:	205.578	Thrust:	47.066
Time:	5.981	Roll Set Point:	-0.069	Pitch Set Point:	0.032	Yaw Set Point:	-2.495	X_WP:	0.000	Y_WP:	0.000	Y_WP:	0.500	X:	0.082	Y:	0.087	Z:	0.400	yaw:	142.975	yaw rate:	-13.677	Roll:	-0.257	Pitch:	-4.527	Yaw:	201.615	Thrust:	47.721
Time:	6.012	Roll Set Point:	-0.109	Pitch Set Point:	-0.030	Yaw Set Point:	-2.494	X_WP:	0.069	Y_WP:	0.026	Y_WP:	0.500	X:	0.082	Y:	0.087	Z:	0.400	yaw:	142.914	yaw rate:	-16.595	Roll:	22.217	Pitch:	30.000	Yaw:	202.160	Thrust:	47.884
Time:	6.044	Roll Set Point:	-0.108	Pitch Set Point:	-0.030	Yaw Set Point:	-2.497	X_WP:	0.069	Y_WP:	0.026	Y_WP:	0.500	X:	0.082	Y:	0.087	Z:	0.400	yaw:	143.091	yaw rate:	17.674	Roll:	0.548	Pitch:	-2.741	Yaw:	204.400	Thrust:	48.150
Time:	6.075	Roll Set Point:	-0.108	Pitch Set Point:	-0.030	Yaw Set Point:	-2.495	X_WP:	0.069	Y_WP:	0.026	Y_WP:	0.500	X:	0.082	Y:	0.087	Z:	0.400	yaw:	142.979	yaw rate:	-11.271	Roll:	0.697	Pitch:	-2.669	Yaw:	201.813	Thrust:	48.864
Time:	6.106	Roll Set Point:	-0.108	Pitch Set Point:	-0.030	Yaw Set Point:	-2.496	X_WP:	0.069	Y_WP:	0.026	Y_WP:	0.500	X:	0.082	Y:	0.087	Z:	0.400	yaw:	143.003	yaw rate:	-9.233	Roll:	0.636	Pitch:	-2.715	Yaw:	203.005	Thrust:	48.991
Time:	6.137	Roll Set Point:	-0.108	Pitch Set Point:	-0.030	Yaw Set Point:	-2.496	X_WP:	0.069	Y_WP:	0.026	Y_WP:	0.500	X:	0.082	Y:	0.087	Z:	0.400	yaw:	142.994	yaw rate:	-0.954	Roll:	0.656	Pitch:	-2.712	Yaw:	202.703	Thrust:	49.377
Time:	6.169	Roll Set Point:	-0.109	Pitch Set Point:	-0.030	Yaw Set Point:	-2.492	X_WP:	0.069	Y_WP:	0.026	Y_WP:	0.500	X:	0.082	Y:	0.087	Z:	0.400	yaw:	142.793	yaw rate:	-11.762	Roll:	0.762	Pitch:	-2.662	Yaw:	200.819	Thrust:	49.831
Time:	6.200	Roll Set Point:	-0.108	Pitch Set Point:	-0.030	Yaw Set Point:	-2.498	X_WP:	0.069	Y_WP:	0.026	Y_WP:	0.500	X:	0.082	Y:	0.087	Z:	0.400	yaw:	143.105	yaw rate:	31.288	Roll:	0.484	Pitch:	-2.790	Yaw:	205.559	Thrust:	50.007
Time:	6.231	Roll Set Point:	-0.108	Pitch Set Point:	-0.030	Yaw Set Point:	-2.498	X_WP:	0.069	Y_WP:	0.026	Y_WP:	0.500	X:	0.082	Y:	0.087	Z:	0.400	yaw:	143.105	yaw rate:	-0.023	Roll:	0.653	Pitch:	-2.730	Yaw:	202.936	Thrust:	50.564
Time:	6.262	Roll Set Point:	-0.108	Pitch Set Point:	-0.030	Yaw Set Point:	-2.497	X_WP:	0.069	Y_WP:	0.026	Y_WP:	0.500	X:	0.082	Y:	0.087	Z:	0.400	yaw:	143.091	yaw rate:	-1.422	Roll:	0.661	Pitch:	-2.725	Yaw:	202.799	Thrust:	50.836
Time:	6.294	Roll Set Point:	-0.108	Pitch Set Point:	-0.030	Yaw Set Point:	-2.498	X_WP:	0.069	Y_WP:	0.026	Y_WP:	0.500	X:	0.082	Y:	0.087	Z:	0.400	yaw:	143.106	yaw rate:	1.499	Roll:	0.647	Pitch:	-2.736	Yaw:	203.065	Thrust:	51.334
Time:	6.325	Roll Set Point:	-0.109	Pitch Set Point:	-0.030	Yaw Set Point:	-2.492	X_WP:	0.069	Y_WP:	0.026	Y_WP:	0.500	X:	0.082	Y:	0.087	Z:	0.400	yaw:	142.790	yaw rate:	-31.577	Roll:	0.829	Pitch:	-2.652	Yaw:	199.847	Thrust:	51.687
Time:	6.356	Roll Set Point:	-0.109	Pitch Set Point:	-0.030	Yaw Set Point:	-2.493	X_WP:	0.069	Y_WP:	0.026	Y_WP:	0.500	X:	0.082	Y:	0.087	Z:	0.400	yaw:	142.814	yaw rate:	-14.808	Roll:	0.657	Pitch:	-2.747	Yaw:	202.734	Thrust:	52.086
Time:	6.387	Roll Set Point:	-0.108	Pitch Set Point:	-0.030	Yaw Set Point:	-2.495	X_WP:	0.069	Y_WP:	0.026	Y_WP:	0.500	X:	0.082	Y:	0.087	Z:	0.400	yaw:	142.966	yaw rate:	15.181	Roll:	0.583	Pitch:	-2.782	Yaw:	204.015	Thrust:	52.445
Time:	6.419	Roll Set Point:	-0.109	Pitch Set Point:	-0.030	Yaw Set Point:	-2.493	X_WP:	0.069	Y_WP:	0.026	Y_WP:	0.500	X:	0.082	Y:	0.087	Z:	0.400	yaw:	142.843	yaw rate:	-12.256	Roll:	0.737	Pitch:	-2.718	Yaw:	201.542	Thrust:	52.767
Time:	6.450	Roll Set Point:	-0.109	Pitch Set Point:	-0.030	Yaw Set Point:	-2.492	X_WP:	0.069	Y_WP:	0.026	Y_WP:	0.500	X:	0.082	Y:	0.087	Z:	0.400	yaw:	142.802	yaw rate:	-4.085	Roll:	0.696	Pitch:	-2.740	Yaw:	202.162	Thrust:	52.968
Time:	6.481	Roll Set Point:	-0.109	Pitch Set Point:	-0.030	Yaw Set Point:	-2.492	X_WP:	0.069	Y_WP:	0.026	Y_WP:	0.500	X:	0.082	Y:	0.087	Z:	0.400	yaw:	142.803	yaw rate:	-2.737	Roll:	0.676	Pitch:	-2.754	Yaw:	202.519	Thrust:	53.524
Time:	6.512	Roll Set Point:	-0.109	Pitch Set Point:	-0.030	Yaw Set Point:	-2.493	X_WP:	0.069	Y_WP:	0.026	Y_WP:	0.500	X:	0.082	Y:	0.087	Z:	0.400	yaw:	142.820	yaw rate:	1.723	Roll:	0.669	Pitch:	-2.765	Yaw:	202.687	Thrust:	53.886
Time:	6.543	Roll Set Point:	-0.109	Pitch Set Point:	-0.030	Yaw Set Point:	-2.494	X_WP:	0.069	Y_WP:	0.026	Y_WP:	0.500	X:	0.082	Y:	0.087	Z:	0.400	yaw:	142.885	yaw rate:	-3.613	Roll:	0.642	Pitch:	-2.784	Yaw:	203.176	Thrust:	54.388
Time:	6.575	Roll Set Point:	-0.109	Pitch Set Point:	-0.030	Yaw Set Point:	-2.494	X_WP:	0.069	Y_WP:	0.026	Y_WP:	0.500	X:	0.082	Y:	0.087	Z:	0.400	yaw:	142.873	yaw rate:	8.429	Roll:	0.686	Pitch:	-2.767	Yaw:	202.510	Thrust:	54.657
Time:	6.606	Roll Set Point:	-0.109	Pitch Set Point:	-0.030	Yaw Set Point:	-2.494	X_WP:	0.069	Y_WP:	0.026	Y_WP:	0.500	X:	0.082	Y:	0.087	Z:	0.400	yaw:	142.879	yaw rate:	0.677	Roll:	0.678	Pitch:	-2.775	Yaw:	202.677	Thrust:	54.980
Time:	6.637	Roll Set Point:	-0.108	Pitch Set Point:	-0.030	Yaw Set Point:	-2.498	X_WP:	0.069	Y_WP:	0.026	Y_WP:	0.500	X:	0.082	Y:	0.087	Z:	0.400	yaw:	143.130	yaw rate:	24.538	Roll:	0.545	Pitch:	-2.839	Yaw:	205.068	Thrust:	55.292
Time:	6.668	Roll Set Point:	-0.108	Pitch Set Point:	-0.030	Yaw Set Point:	-2.497	X_WP:	0.069	Y_WP:	0.026	Y_WP:	0.500	X:	0.082	Y:	0.087	Z:	0.400	yaw:	143.086	yaw rate:	-4.328	Roll:	0.705	Pitch:	-2.779	Yaw:	202.553	Thrust:	55.889
Time:	6.700	Roll Set Point:	-0.108	Pitch Set Point:	-0.030	Yaw Set Point:	-2.495	X_WP:	0.069	Y_WP:	0.026	Y_WP:	0.500	X:	0.082	Y:	0.087	Z:	0.400	yaw:	142.977	yaw rate:	-10.957	Roll:	0.738	Pitch:	-2.759	Yaw:	201.841	Thrust:	56.352
Time:	6.731	Roll Set Point:	-0.109	Pitch Set Point:	-0.030	Yaw Set Point:	-2.493	X_WP:	0.069	Y_WP:	0.026	Y_WP:	0.500	X:	0.082	Y:	0.087	Z:	0.400	yaw:	142.856	yaw rate:	-12.074	Roll:	0.757	Pitch:	-2.764	Yaw:	201.575	Thrust:	56.378
Time:	6.762	Roll Set Point:	-0.109	Pitch Set Point:	-0.030	Yaw Set Point:	-2.492	X_WP:	0.069	Y_WP:	0.026	Y_WP:	0.500	X:	0.082	Y:	0.087	Z:	0.400	yaw:	142.803	yaw rate:	-5.272	Roll:	0.723	Pitch:	-2.784	Yaw:	202.075	Thrust:	56.899
Time:	6.793	Roll Set Point:	-0.109	Pitch Set Point:	-0.030	Yaw Set Point:	-2.493	X_WP:	0.069	Y_WP:	0.026	Y_WP:	0.500	X:	0.082	Y:	0.087	Z:	0.400	yaw:	142.836	yaw rate:	3.287	Roll:	0.680	Pitch:	-2.808	Yaw:	202.840	Thrust:	57.269
Time:	6.825	Roll Set Point:	-0.108	Pitch Set Point:	-0.030	Yaw Set Point:	-2.498	X_WP:	0.069	Y_WP:	0.026	Y_WP:	0.500	X:	0.082	Y:	0.087	Z:	0.400	yaw:	143.123	yaw rate:	1.063	Roll:	0.538	Pitch:	-2.880	Yaw:	205.363	Thrust:	57.623
Time:	6.856	Roll Set Point:	-0.108	Pitch Set Point:	-0.030	Yaw Set Point:	-2.497	X_WP:	0.069	Y_WP:	0.026	Y_WP:	0.500	X:	0.082	Y:	0.087	Z:	0.400	yaw:	143.091	yaw rate:	-3.193	Roll:	0.709	Pitch:	-2.805	Yaw:	202.647	Thrust:	58.024
Time:	6.887	Roll Set Point:	-0.109	Pitch Set Point:	-0.030	Yaw Set Point:	-2.494	X_WP:	0.069	Y_WP:	0.026	Y_WP:	0.500	X:	0.082	Y:	0.087	Z:	0.400	yaw:	142.916	yaw rate:	-7.909	Roll:	0.789	Pitch:	-2.772	Yaw:	201.212	Thrust:	58.610
Time:	6.919	Roll Set Point:	-0.109	Pitch Set Point:	-0.030	Yaw Set Point:	-2.493	X_WP:	0.069	Y_WP:	0.026	Y_WP:	0.500	X:	0.082	Y:	0.087	Z:	0.400	yaw:	142.821	yaw rate:	-14.628	Roll:	0.753	Pitch:	-2.780	Yaw:	201.745	Thrust:	58.618
Time:	6.950	Roll Set Point:	-0.108	Pitch Set Point:	-0.030	Yaw Set Point:	-2.496	X_WP:	0.069	Y_WP:	0.026	Y_WP:	0.500	X:	0.082	Y:	0.087	Z:	0.400	yaw:	143.019	yaw rate:	19.805	Roll:	0.594	Pitch:	-2.867	Yaw:	204.475	Thrust:	59.356
Time:	6.981	Roll Set Point:	-0.109	Pitch Set Point:	-0.030	Yaw Set Point:	-2.494	X_WP:	0.069	Y_WP:	0.026	Y_WP:	0.500	X:	0.082	Y:	0.087	Z:	0.400	yaw:	142.879	yaw rate:	-14.028	Roll:	0.782	Pitch:	-2.784	Yaw:	201.451	Thrust:	59.560
Time:	7.012	Roll Set Point:	-0.109	Pitch Set Point:	-0.030	Yaw Set Point:	-2.494	X_WP:	0.069	Y_WP:	0.026	Y_WP:	0.500	X:	0.082	Y:	0.087	Z:	0.400	yaw:	142.879	yaw rate:	0.054	Roll:	0.709	Pitch:	-2.808	Yaw:	202.624	Thrust:	59.712
Time:	7.044	Roll Set Point:	-0.108	Pitch Set Point:	-0.030	Yaw Set Point:	-2.495	X_WP:	0.069	Y_WP:	0.026	Y_WP:	0.500	X:	0.082	Y:	0.087	Z:	0.400	yaw:	142.932	yaw rate:	-3.582	Roll:	0.680	Pitch:	-2.832	Yaw:	203.142	Thrust:	60.440
Time:	7.075	Roll Set Point:	-0.109	Pitch Set Point:	-0.030	Yaw Set Point:	-2.493	X_WP:	0.069	Y_WP:	0.026	Y_WP:	0.500	X:	0.082	Y:	0.087	Z:	0.400	yaw:	142.839	yaw rate:	-9.271	Roll:	0.764	Pitch:	-2.788	Yaw:	201.786	Thrust:	60.623
Time:	7.106	Roll Set Point:	-0.109	Pitch Set Point:	-0.030	Yaw Set Point:	-2.492	X_WP:	0.069	Y_WP:	0.026	Y_WP:	0.500	X:	0.082	Y:	0.087	Z:	0.400	yaw:	142.775	yaw rate:	-18.655	Roll:	0.749	Pitch:	-2.795	Yaw:	201.938	Thrust:	61.105
Time:	7.137	Roll Set Point:	-0.108	Pitch Set Point:	-0.030	Yaw Set Point:	-2.497	X_WP:	0.069	Y_WP:	0.026	Y_WP:	0.500	X:	0.082	Y:	0.087	Z:	0.400	yaw:	143.057	yaw rate:	28.156	Roll:	0.561	Pitch:	-2.883	Yaw:	205.229	Thrust:	61.495
Time:	7.169	Roll Set Point:	-0.108	Pitch Set Point:	-0.030	Yaw Set Point:	-2.496	X_WP:	0.069	Y_WP:	0.026	Y_WP:	0.500	X:	0.082	Y:	0.087	Z:	0.400	yaw:	143.027	yaw rate:	-8.541	Roll:	0.730	Pitch:	-2.807	Yaw:	202.581	Thrust:	61.812
Time:	7.200	Roll Set Point:	-0.108	Pitch Set Point:	-0.030	Yaw Set Point:	-2.496	X_WP:	0.069	Y_WP:	0.026	Y_WP:	0.500	X:	0.082	Y:	0.087	Z:	0.400	yaw:	143.038	yaw rate:	1.097	Roll:	0.713	Pitch:	-2.823	Yaw:	202.933	Thrust:	62.146
Time:	7.231	Roll Set Point:	-0.108	Pitch Set Point:	-0.030	Yaw Set Point:	-2.497	X_WP:	0.069	Y_WP:	0.026	Y_WP:	0.500	X:	0.082	Y:	0.087	Z:	0.400	yaw:	143.090	yaw rate:	5.184	Roll:	0.689	Pitch:	-2.830	Yaw:	203.353	Thrust:	62.583
Time:	7.262	Roll Set Point:	-0.108	Pitch Set Point:	-0.030	Yaw Set Point:	-2.495	X_WP:	0.069	Y_WP:	0.026	Y_WP:	0.500	X:	0.082	Y:	0.087	Z:	0.400	yaw:	142.932	yaw rate:	11.511	Roll:	0.807	Pitch:	-2.773	Yaw:	201.376	Thrust:	62.845
Time:	7.294	Roll Set Point:	-0.108	Pitch Set Point:	-0.030	Yaw Set Point:	-2.495	X_WP:	0.069	Y_WP:	0.026	Y_WP:	0.500	X:	0.082	Y:	0.087	Z:	0.400	yaw:	142.980	yaw rate:	4.814	Roll:	0.699	Pitch:	-2.827	Yaw:	203.167	Thrust:	63.359
Time:	7.325	Roll Set Point:	-0.108	Pitch Set Point:	-0.030	Yaw Set Point:	-2.498	X_WP:	0.069	Y_WP:	0.026	Y_WP:	0.500	X:	0.082	Y:	0.087	Z:	0.400	yaw:	143.097	yaw rate:	15.254	Roll:	0.662	Pitch:	-2.841	Yaw:	203.910	Thrust:	63.512
Time:	7.356	Roll Set Point:	-0.108	Pitch Set Point:	-0.030	Yaw Set Point:	-2.497	X_WP:	0.069	Y_WP:	0.026	Y_WP:	0.500	X:	0.082	Y:	0.087	Z:	0.400	yaw:	143.040	yaw rate:	-5.786	Roll:	0.752	Pitch:	-2.801	Yaw:	202.362	Thrust:	64.247
Time:	7.387	Roll Set Point:	-0.108	Pitch Set Point:	-0.030	Yaw Set Point:	-2.496	X_WP:	0.069	Y_WP:	0.026	Y_WP:	0.500	X:	0.082	Y:	0.087	Z:	0.400	yaw:	143.014	yaw rate:	22.871	Roll:	0.745	Pitch:	-2.810	Yaw:	202.591	Thrust:	64.326
Time:	7.419	Roll Set Point:	-0.108	Pitch Set Point:	-0.030	Yaw Set Point:	-2.497	X_WP:	0.069	Y_WP:	0.026	Y_WP:	0.500	X:	0.082	Y:	0.087	Z:	0.400	yaw:	143.095	yaw rate:	8.138	Roll:	0.688	Pitch:	-2.831	Yaw:	203.606	Thrust:	64.583
Time:	7.449	Roll Set Point:	-0.108	Pitch Set Point:	-0.030	Yaw Set Point:	-2.495	X_WP:	0.069	Y_WP:	0.026	Y_WP:	0.500	X:	0.082	Y:	0.087	Z:	0.400	yaw:	142.961	yaw rate:	-14.174	Roll:	0.804	Pitch:	-2.773	Yaw:	201.567	Thrust:	64.822
Time:	7.481	Roll Set Point:	-0.109	Pitch Set Point:	-0.030	Yaw Set Point:	-2.495	X_WP:	0.069	Y_WP:	0.026	Y_WP:	0.500	X:	0.082	Y:	0.087	Z:	0.400	yaw:	142.938	yaw rate:	6.798	Roll:	0.752	Pitch:	-2.811	Yaw:	202.514	Thrust:	65.454
Time:	7.512	Roll Set Point:	-0.109	Pitch Set Point:	-0.030	Yaw Set Point:	-2.495	X_WP:	0.069	Y_WP:	0.026	Y_WP:	0.500	X:	0.082	Y:	0.087	Z:	0.400	yaw:	142.960	yaw rate:	-16.537	Roll:	0.728	Pitch:	-2.821	Yaw:	202.924	Thrust:	66.076
Time:	7.543	Roll Set Point:	-0.109	Pitch Set Point:	-0.030	Yaw Set Point:	-2.492	X_WP:	0.069	Y_WP:	0.026	Y_WP:	0.500	X:	0.082	Y:	0.087	Z:	0.400	yaw:	142.772	yaw rate:	-26.427	Roll:	0.845	Pitch:	-2.765	Yaw:	200.900	Thrust:	66.266
Time:	7.575	Roll Set Point:	-0.108	Pitch Set Point:	-0.030	Yaw Set Point:	-2.495	X_WP:	0.069	Y_WP:	0.026	Y_WP:	0.500	X:	0.082	Y:	0.087	Z:	0.400	yaw:	142.935	yaw rate:	-18.479	Roll:	0.655	Pitch:	-2.852	Yaw:	204.062	Thrust:	66.677
Time:	7.606	Roll Set Point:	-0.108	Pitch Set Point:	-0.030	Yaw Set Point:	-2.498	X_WP:	0.069	Y_WP:	0.026	Y_WP:	0.500	X:	0.082	Y:	0.087	Z:	0.400	yaw:	143.096	yaw rate:	16.162	Roll:	0.659	Pitch:	-2.854	Yaw:	204.279	Thrust:	66.944
Time:	7.637	Roll Set Point:	-0.108	Pitch Set Point:	-0.030	Yaw Set Point:	-2.496	X_WP:	0.069	Y_WP:	0.026	Y_WP:	0.500	X:	0.082	Y:	0.087	Z:	0.400	yaw:	142.998	yaw rate:	-9.872	Roll:	0.794	Pitch:	-2.791	Yaw:	201.961	Thrust:	67.556
Time:	7.668	Roll Set Point:	-0.108	Pitch Set Point:	-0.030	Yaw Set Point:	-2.496	X_WP:	0.069	Y_WP:	0.026	Y_WP:	0.500	X:	0.082	Y:	0.087	Z:	0.400	yaw:	142.989	yaw rate:	-11.045	Roll:	0.754	Pitch:	-2.812	Yaw:	202.702	Thrust:	67.744
Time:	7.700	Roll Set Point:	-0.108	Pitch Set Point:	-0.030	Yaw Set Point:	-2.498	X_WP:	0.069	Y_WP:	0.026	Y_WP:	0.500	X:	0.082	Y:	0.087	Z:	0.400	yaw:	143.105	yaw rate:	15.651	Roll:	0.687	Pitch:	-2.844	Yaw:	203.908	Thrust:	68.018
Time:	7.731	Roll Set Point:	-0.108	Pitch Set Point:	-0.030	Yaw Set Point:	-2.498	X_WP:	0.069	Y_WP:	0.026	Y_WP:	0.500	X:	0.082	Y:	0.087	Z:	0.400	yaw:	143.110	yaw rate:	0.492	Roll:	0.749	Pitch:	-2.819	Yaw:	202.986	Thrust:	68.569
Time:	7.762	Roll Set Point:	-0.109	Pitch Set Point:	-0.030	Yaw Set Point:	-2.492	X_WP:	0.069	Y_WP:	0.026	Y_WP:	0.500	X:	0.082	Y:	0.087	Z:	0.400	yaw:	142.757	yaw rate:	-4.299	Roll:	0.943	Pitch:	-2.727	Yaw:	199.492	Thrust:	69.153
Time:	7.793	Roll Set Point:	-0.109	Pitch Set Point:	-0.030	Yaw Set Point:	-2.493	X_WP:	0.069	Y_WP:	0.026	Y_WP:	0.500	X:	0.082	Y:	0.087	Z:	0.400	yaw:	142.820	yaw rate:	6.334	Roll:	0.729	Pitch:	-2.822	Yaw:	203.072	Thrust:	69.145
Time:	7.825	Roll Set Point:	-0.108	Pitch Set Point:	-0.030	Yaw Set Point:	-2.498	X_WP:	0.069	Y_WP:	0.026	Y_WP:	0.500	X:	0.082	Y:	0.087	Z:	0.400	yaw:	143.096	yaw rate:	27.636	Roll:	0.611	Pitch:	-2.886	Yaw:	205.241	Thrust:	69.609
Time:	7.856	Roll Set Point:	-0.109	Pitch Set Point:	-0.030	Yaw Set Point:	-2.493	X_WP:	0.069	Y_WP:	0.026	Y_WP:	0.500	X:	0.082	Y:	0.087	Z:	0.400	yaw:	142.818	yaw rate:	-20.805	Roll:	0.912	Pitch:	-2.742	Yaw:	200.202	Thrust:	70.158
Time:	7.887	Roll Set Point:	-0.108	Pitch Set Point:	-0.030	Yaw Set Point:	-2.496	X_WP:	0.069	Y_WP:	0.026	Y_WP:	0.500	X:	0.082	Y:	0.087	Z:	0.400	yaw:	142.993	yaw rate:	17.527	Roll:	0.666	Pitch:	-2.858	Yaw:	204.249	Thrust:	70.482
Time:	7.918	Roll Set Point:	-0.109	Pitch Set Point:	-0.030	Yaw Set Point:	-2.494	X_WP:	0.069	Y_WP:	0.026	Y_WP:	0.500	X:	0.082	Y:	0.087	Z:	0.400	yaw:	142.912	yaw rate:	3.877	Roll:	0.815	Pitch:	-2.797	Yaw:	201.987	Thrust:	70.788
Time:	7.950	Roll Set Point:	-0.109	Pitch Set Point:	-0.030	Yaw Set Point:	-2.492	X_WP:	0.069	Y_WP:	0.026	Y_WP:	0.500	X:	0.082	Y:	0.087	Z:	0.400	yaw:	142.790	yaw rate:	-12.177	Roll:	0.834	Pitch:	-2.779	Yaw:	201.473	Thrust:	71.167
Time:	7.981	Roll Set Point:	-0.109	Pitch Set Point:	-0.030	Yaw Set Point:	-2.494	X_WP:	0.069	Y_WP:	0.026	Y_WP:	0.500	X:	0.082	Y:	0.087	Z:	0.400	yaw:	142.877	yaw rate:	-20.667	Roll:	0.725	Pitch:	-2.836	Yaw:	203.355	Thrust:	71.686
Time:	8.012	Roll Set Point:	-0.109	Pitch Set Point:	-0.030	Yaw Set Point:	-2.494	X_WP:	0.069	Y_WP:	0.026	Y_WP:	0.500	X:	0.082	Y:	0.087	Z:	0.400	yaw:	142.873	yaw rate:	-0.393	Roll:	0.778	Pitch:	-2.816	Yaw:	202.581	Thrust:	71.847
Time:	8.043	Roll Set Point:	-0.109	Pitch Set Point:	-0.030	Yaw Set Point:	-2.492	X_WP:	0.069	Y_WP:	0.026	Y_WP:	0.500	X:	0.082	Y:	0.087	Z:	0.400	yaw:	142.808	yaw rate:	2.531	Roll:	0.812	Pitch:	-2.794	Yaw:	201.974	Thrust:	72.287
Time:	8.075	Roll Set Point:	-0.108	Pitch Set Point:	-0.030	Yaw Set Point:	-2.496	X_WP:	0.069	Y_WP:	0.026	Y_WP:	0.500	X:	0.082	Y:	0.087	Z:	0.400	yaw:	142.994	yaw rate:	18.601	Roll:	0.673	Pitch:	-2.858	Yaw:	204.341	Thrust:	72.701
Time:	8.106	Roll Set Point:	-0.108	Pitch Set Point:	-0.030	Yaw Set Point:	-2.498	X_WP:	0.069	Y_WP:	0.026	Y_WP:	0.500	X:	0.082	Y:	0.087	Z:	0.400	yaw:	143.111	yaw rate:	1.893	Roll:	0.716	Pitch:	-2.846	Yaw:	203.920	Thrust:	72.900
Time:	8.137	Roll Set Point:	-0.109	Pitch Set Point:	-0.030	Yaw Set Point:	-2.498	X_WP:	0.069	Y_WP:	0.026	Y_WP:	0.500	X:	0.082	Y:	0.087	Z:	0.400	yaw:	143.124	yaw rate:	1.335	Roll:	0.771	Pitch:	-2.815	Yaw:	203.076	Thrust:	73.198
Time:	8.168	Roll Set Point:	-0.108	Pitch Set Point:	-0.030	Yaw Set Point:	-2.495	X_WP:	0.069	Y_WP:	0.026	Y_WP:	0.500	X:	0.082	Y:	0.087	Z:	0.400	yaw:	142.938	yaw rate:	-18.571	Roll:	0.870	Pitch:	-2.764	Yaw:	201.149	Thrust:	74.173
Time:	8.200	Roll Set Point:	-0.109	Pitch Set Point:	-0.030	Yaw Set Point:	-2.494	X_WP:	0.069	Y_WP:	0.026	Y_WP:	0.500	X:	0.082	Y:	0.087	Z:	0.400	yaw:	142.889	yaw rate:	-4.911	Roll:	0.818	Pitch:	-2.806	Yaw:	202.225	Thrust:	74.071
Time:	8.231	Roll Set Point:	-0.108	Pitch Set Point:	-0.030	Yaw Set Point:	-2.497	X_WP:	0.069	Y_WP:	0.026	Y_WP:	0.500	X:	0.082	Y:	0.087	Z:	0.400	yaw:	143.045	yaw rate:	6.805	Roll:	0.700	Pitch:	-2.860	Yaw:	204.164	Thrust:	74.754
Time:	8.262	Roll Set Point:	-0.109	Pitch Set Point:	-0.030	Yaw Set Point:	-2.493	X_WP:	0.069	Y_WP:	0.026	Y_WP:	0.500	X:	0.082	Y:	0.087	Z:	0.400	yaw:	142.810	yaw rate:	-11.051	Roll:	0.918	Pitch:	-2.753	Yaw:	200.558	Thrust:	74.773
Time:	8.293	Roll Set Point:	-0.108	Pitch Set Point:	-0.030	Yaw Set Point:	-2.496	X_WP:	0.069	Y_WP:	0.026	Y_WP:	0.500	X:	0.082	Y:	0.087	Z:	0.400	yaw:	143.013	yaw rate:	20.280	Roll:	0.676	Pitch:	-2.862	Yaw:	204.507	Thrust:	75.325
Time:	8.325	Roll Set Point:	-0.108	Pitch Set Point:	-0.030	Yaw Set Point:	-2.494	X_WP:	0.069	Y_WP:	0.026	Y_WP:	0.500	X:	0.082	Y:	0.087	Z:	0.400	yaw:	142.915	yaw rate:	-9.786	Roll:	0.848	Pitch:	-2.793	Yaw:	201.854	Thrust:	75.730
Time:	8.356	Roll Set Point:	-0.108	Pitch Set Point:	-0.030	Yaw Set Point:	-2.497	X_WP:	0.069	Y_WP:	0.026	Y_WP:	0.500	X:	0.082	Y:	0.087	Z:	0.400	yaw:	143.092	yaw rate:	10.680	Roll:	0.698	Pitch:	-2.855	Yaw:	204.398	Thrust:	75.913
Time:	8.387	Roll Set Point:	-0.108	Pitch Set Point:	-0.030	Yaw Set Point:	-2.498	X_WP:	0.069	Y_WP:	0.026	Y_WP:	0.500	X:	0.082	Y:	0.087	Z:	0.400	yaw:	143.129	yaw rate:	3.692	Roll:	0.776	Pitch:	-2.826	Yaw:	203.277	Thrust:	76.432
Time:	8.418	Roll Set Point:	-0.109	Pitch Set Point:	-0.030	Yaw Set Point:	-2.494	X_WP:	0.069	Y_WP:	0.026	Y_WP:	0.500	X:	0.082	Y:	0.087	Z:	0.400	yaw:	142.874	yaw rate:	-13.275	Roll:	0.929	Pitch:	-2.752	Yaw:	200.483	Thrust:	76.890
Time:	8.450	Roll Set Point:	-0.108	Pitch Set Point:	-0.030	Yaw Set Point:	-2.495	X_WP:	0.069	Y_WP:	0.026	Y_WP:	0.500	X:	0.082	Y:	0.087	Z:	0.400	yaw:	142.963	yaw rate:	-13.877	Roll:	0.763	Pitch:	-2.843	Yaw:	203.511	Thrust:	78.234
Time:	8.481	Roll Set Point:	-0.108	Pitch Set Point:	-0.030	Yaw Set Point:	-2.495	X_WP:	0.069	Y_WP:	0.026	Y_WP:	0.500	X:	0.082	Y:	0.087	Z:	0.400	yaw:	142.963	yaw rate:	-14.352	Roll:	0.802	Pitch:	-2.816	Yaw:	202.749	Thrust:	77.613
Time:	8.513	Roll Set Point:	-0.109	Pitch Set Point:	-0.030	Yaw Set Point:	-2.494	X_WP:	0.069	Y_WP:	0.026	Y_WP:	0.500	X:	0.082	Y:	0.087	Z:	0.400	yaw:	142.909	yaw rate:	-15.606	Roll:	0.837	Pitch:	-2.801	Yaw:	202.209	Thrust:	77.924
Time:	8.544	Roll Set Point:	-0.108	Pitch Set Point:	-0.030	Yaw Set Point:	-2.498	X_WP:	0.069	Y_WP:	0.026	Y_WP:	0.500	X:	0.082	Y:	0.087	Z:	0.400	yaw:	143.103	yaw rate:	19.350	Roll:	0.702	Pitch:	-2.861	Yaw:	204.554	Thrust:	78.005
Time:	8.575	Roll Set Point:	-0.108	Pitch Set Point:	-0.030	Yaw Set Point:	-2.495	X_WP:	0.069	Y_WP:	0.026	Y_WP:	0.500	X:	0.082	Y:	0.087	Z:	0.400	yaw:	142.925	yaw rate:	-17.791	Roll:	0.897	Pitch:	-2.769	Yaw:	201.196	Thrust:	79.032
Time:	8.606	Roll Set Point:	-0.109	Pitch Set Point:	-0.030	Yaw Set Point:	-2.492	X_WP:	0.069	Y_WP:	0.026	Y_WP:	0.500	X:	0.082	Y:	0.087	Z:	0.400	yaw:	142.804	yaw rate:	-4.616	Roll:	0.883	Pitch:	-2.785	Yaw:	201.509	Thrust:	78.810
Time:	8.638	Roll Set Point:	-0.109	Pitch Set Point:	-0.030	Yaw Set Point:	-2.494	X_WP:	0.069	Y_WP:	0.026	Y_WP:	0.500	X:	0.082	Y:	0.087	Z:	0.400	yaw:	142.891	yaw rate:	8.675	Roll:	0.755	Pitch:	-2.843	Yaw:	203.368	Thrust:	79.621
Time:	8.669	Roll Set Point:	-0.109	Pitch Set Point:	-0.030	Yaw Set Point:	-2.492	X_WP:	0.069	Y_WP:	0.026	Y_WP:	0.500	X:	0.082	Y:	0.087	Z:	0.400	yaw:	142.782	yaw rate:	-8.678	Roll:	0.879	Pitch:	-2.785	Yaw:	201.572	Thrust:	79.631
Time:	8.700	Roll Set Point:	-0.108	Pitch Set Point:	-0.030	Yaw Set Point:	-2.497	X_WP:	0.069	Y_WP:	0.026	Y_WP:	0.500	X:	0.082	Y:	0.087	Z:	0.400	yaw:	143.087	yaw rate:	30.458	Roll:	0.653	Pitch:	-2.884	Yaw:	205.464	Thrust:	80.191
Time:	8.731	Roll Set Point:	-0.108	Pitch Set Point:	-0.030	Yaw Set Point:	-2.495	X_WP:	0.069	Y_WP:	0.026	Y_WP:	0.500	X:	0.082	Y:	0.087	Z:	0.400	yaw:	142.963	yaw rate:	-13.982	Roll:	0.881	Pitch:	-2.789	Yaw:	201.710	Thrust:	80.771
Time:	8.763	Roll Set Point:	-0.108	Pitch Set Point:	-0.030	Yaw Set Point:	-2.494	X_WP:	0.069	Y_WP:	0.026	Y_WP:	0.500	X:	0.082	Y:	0.087	Z:	0.400	yaw:	142.910	yaw rate:	-5.386	Roll:	0.852	Pitch:	-2.803	Yaw:	202.210	Thrust:	80.882
Time:	8.794	Roll Set Point:	-0.108	Pitch Set Point:	-0.030	Yaw Set Point:	-2.495	X_WP:	0.069	Y_WP:	0.026	Y_WP:	0.500	X:	0.082	Y:	0.087	Z:	0.400	yaw:	142.963	yaw rate:	16.266	Roll:	0.792	Pitch:	-2.825	Yaw:	203.187	Thrust:	81.308
Time:	8.825	Roll Set Point:	-0.108	Pitch Set Point:	-0.030	Yaw Set Point:	-2.498	X_WP:	0.069	Y_WP:	0.026	Y_WP:	0.500	X:	0.082	Y:	0.087	Z:	0.400	yaw:	143.097	yaw rate:	13.408	Roll:	0.752	Pitch:	-2.843	Yaw:	204.052	Thrust:	81.582
Time:	8.856	Roll Set Point:	-0.108	Pitch Set Point:	-0.030	Yaw Set Point:	-2.498	X_WP:	0.069	Y_WP:	0.026	Y_WP:	0.500	X:	0.082	Y:	0.087	Z:	0.400	yaw:	143.115	yaw rate:	1.804	Roll:	0.816	Pitch:	-2.826	Yaw:	203.100	Thrust:	82.023
Time:	8.888	Roll Set Point:	-0.109	Pitch Set Point:	-0.030	Yaw Set Point:	-2.493	X_WP:	0.069	Y_WP:	0.026	Y_WP:	0.500	X:	0.082	Y:	0.087	Z:	0.400	yaw:	142.833	yaw rate:	-28.169	Roll:	0.980	Pitch:	-2.741	Yaw:	200.200	Thrust:	82.383
Time:	8.919	Roll Set Point:	-0.109	Pitch Set Point:	-0.030	Yaw Set Point:	-2.492	X_WP:	0.069	Y_WP:	0.026	Y_WP:	0.500	X:	0.082	Y:	0.087	Z:	0.400	yaw:	142.778	yaw rate:	-16.656	Roll:	0.865	Pitch:	-2.801	Yaw:	202.016	Thrust:	83.001
Time:	8.950	Roll Set Point:	-0.108	Pitch Set Point:	-0.030	Yaw Set Point:	-2.497	X_WP:	0.069	Y_WP:	0.026	Y_WP:	0.500	X:	0.082	Y:	0.087	Z:	0.400	yaw:	143.079	yaw rate:	30.121	Roll:	0.670	Pitch:	-2.888	Yaw:	205.424	Thrust:	82.969
Time:	8.981	Roll Set Point:	-0.109	Pitch Set Point:	-0.030	Yaw Set Point:	-2.492	X_WP:	0.069	Y_WP:	0.026	Y_WP:	0.500	X:	0.082	Y:	0.087	Z:	0.400	yaw:	142.766	yaw rate:	-31.311	Roll:	1.002	Pitch:	-2.734	Yaw:	199.841	Thrust:	83.796
Time:	9.013	Roll Set Point:	-0.108	Pitch Set Point:	-0.030	Yaw Set Point:	-2.498	X_WP:	0.069	Y_WP:	0.026	Y_WP:	0.500	X:	0.082	Y:	0.087	Z:	0.400	yaw:	143.112	yaw rate:	34.650	Roll:	0.652	Pitch:	-2.900	Yaw:	205.850	Thrust:	83.797
Time:	9.044	Roll Set Point:	-0.108	Pitch Set Point:	-0.030	Yaw Set Point:	-2.495	X_WP:	0.069	Y_WP:	0.026	Y_WP:	0.500	X:	0.082	Y:	0.087	Z:	0.400	yaw:	142.963	yaw rate:	-4.784	Roll:	0.918	Pitch:	-2.781	Yaw:	201.486	Thrust:	84.441
Time:	9.075	Roll Set Point:	-0.109	Pitch Set Point:	-0.030	Yaw Set Point:	-2.492	X_WP:	0.069	Y_WP:	0.026	Y_WP:	0.500	X:	0.082	Y:	0.087	Z:	0.400	yaw:	142.807	yaw rate:	-15.614	Roll:	0.928	Pitch:	-2.774	Yaw:	201.214	Thrust:	84.534
Time:	9.106	Roll Set Point:	-0.109	Pitch Set Point:	-0.030	Yaw Set Point:	-2.494	X_WP:	0.069	Y_WP:	0.026	Y_WP:	0.500	X:	0.082	Y:	0.087	Z:	0.400	yaw:	142.876	yaw rate:	2.512	Roll:	0.809	Pitch:	-2.832	Yaw:	203.202	Thrust:	85.282
Time:	9.138	Roll Set Point:	-0.108	Pitch Set Point:	-0.030	Yaw Set Point:	-2.494	X_WP:	0.069	Y_WP:	0.026	Y_WP:	0.500	X:	0.082	Y:	0.087	Z:	0.400	yaw:	142.910	yaw rate:	3.328	Roll:	0.827	Pitch:	-2.822	Yaw:	202.944	Thrust:	85.426
Time:	9.167	Roll Set Point:	-0.109	Pitch Set Point:	-0.030	Yaw Set Point:	-2.492	X_WP:	0.069	Y_WP:	0.026	Y_WP:	0.500	X:	0.082	Y:	0.087	Z:	0.400	yaw:	142.805	yaw rate:	-10.432	Roll:	0.906	Pitch:	-2.656	Yaw:	201.340	Thrust:	79.733
Time:	9.203	Roll Set Point:	-0.108	Pitch Set Point:	-0.030	Yaw Set Point:	-2.495	X_WP:	0.069	Y_WP:	0.026	Y_WP:	0.500	X:	0.082	Y:	0.087	Z:	0.400	yaw:	142.980	yaw rate:	7.984	Roll:	0.786	Pitch:	-3.073	Yaw:	204.519	Thrust:	98.819
Time:	9.243	Roll Set Point:	-0.109	Pitch Set Point:	-0.030	Yaw Set Point:	-2.493	X_WP:	0.069	Y_WP:	0.026	Y_WP:	0.500	X:	0.082	Y:	0.087	Z:	0.400	yaw:	142.821	yaw rate:	-0.280	Roll:	0.951	Pitch:	-3.137	Yaw:	202.460	Thrust:	100.000
Time:	9.275	Roll Set Point:	-0.108	Pitch Set Point:	-0.030	Yaw Set Point:	-2.498	X_WP:	0.069	Y_WP:	0.026	Y_WP:	0.500	X:	0.082	Y:	0.087	Z:	0.400	yaw:	143.124	yaw rate:	30.292	Roll:	0.686	Pitch:	-2.887	Yaw:	205.501	Thrust:	86.888
Time:	9.314	Roll Set Point:	-0.108	Pitch Set Point:	-0.030	Yaw Set Point:	-2.495	X_WP:	0.069	Y_WP:	0.026	Y_WP:	0.500	X:	0.082	Y:	0.087	Z:	0.400	yaw:	142.965	yaw rate:	3.329	Roll:	0.947	Pitch:	-3.093	Yaw:	202.506	Thrust:	100.000
Time:	9.365	Roll Set Point:	-0.109	Pitch Set Point:	-0.030	Yaw Set Point:	-2.493	X_WP:	0.069	Y_WP:	0.026	Y_WP:	0.500	X:	0.082	Y:	0.087	Z:	0.400	yaw:	142.861	yaw rate:	9.077	Roll:	0.957	Pitch:	-3.542	Yaw:	204.054	Thrust:	100.000
Time:	9.405	Roll Set Point:	-0.108	Pitch Set Point:	-0.030	Yaw Set Point:	-2.494	X_WP:	0.069	Y_WP:	0.026	Y_WP:	0.500	X:	0.082	Y:	0.087	Z:	0.400	yaw:	142.924	yaw rate:	13.753	Roll:	0.862	Pitch:	-3.159	Yaw:	203.977	Thrust:	100.000
Time:	9.441	Roll Set Point:	-0.109	Pitch Set Point:	-0.030	Yaw Set Point:	-2.492	X_WP:	0.069	Y_WP:	0.026	Y_WP:	0.500	X:	0.082	Y:	0.087	Z:	0.400	yaw:	142.806	yaw rate:	-10.426	Roll:	0.936	Pitch:	-2.967	Yaw:	202.154	Thrust:	100.000
Time:	9.484	Roll Set Point:	-0.109	Pitch Set Point:	-0.030	Yaw Set Point:	-2.494	X_WP:	0.069	Y_WP:	0.026	Y_WP:	0.500	X:	0.082	Y:	0.087	Z:	0.400	yaw:	142.881	yaw rate:	-4.448	Roll:	0.888	Pitch:	-3.267	Yaw:	204.267	Thrust:	100.000
Time:	9.526	Roll Set Point:	-0.108	Pitch Set Point:	-0.030	Yaw Set Point:	-2.496	X_WP:	0.069	Y_WP:	0.026	Y_WP:	0.500	X:	0.082	Y:	0.087	Z:	0.400	yaw:	142.982	yaw rate:	-1.413	Roll:	0.858	Pitch:	-3.204	Yaw:	204.392	Thrust:	100.000
Time:	9.559	Roll Set Point:	-0.108	Pitch Set Point:	-0.030	Yaw Set Point:	-2.495	X_WP:	0.069	Y_WP:	0.026	Y_WP:	0.500	X:	0.082	Y:	0.087	Z:	0.400	yaw:	142.942	yaw rate:	11.567	Roll:	0.894	Pitch:	-2.869	Yaw:	202.577	Thrust:	94.587
Time:	9.622	Roll Set Point:	-0.108	Pitch Set Point:	-0.030	Yaw Set Point:	-2.498	X_WP:	0.069	Y_WP:	0.026	Y_WP:	0.500	X:	0.082	Y:	0.087	Z:	0.400	yaw:	143.116	yaw rate:	0.064	Roll:	0.850	Pitch:	-3.366	Yaw:	206.254	Thrust:	100.000
Time:	9.716	Roll Set Point:	-0.108	Pitch Set Point:	-0.030	Yaw Set Point:	-2.498	X_WP:	0.069	Y_WP:	0.026	Y_WP:	0.500	X:	0.082	Y:	0.087	Z:	0.400	yaw:	143.103	yaw rate:	30.172	Roll:	1.167	Pitch:	-5.851	Yaw:	209.896	Thrust:	100.000
Time:	9.765	Roll Set Point:	-0.109	Pitch Set Point:	-0.030	Yaw Set Point:	-2.492	X_WP:	0.069	Y_WP:	0.026	Y_WP:	0.500	X:	0.082	Y:	0.087	Z:	0.400	yaw:	142.795	yaw rate:	-10.564	Roll:	1.047	Pitch:	-3.435	Yaw:	202.653	Thrust:	100.000
Time:	9.805	Roll Set Point:	-0.109	Pitch Set Point:	-0.030	Yaw Set Point:	-2.493	X_WP:	0.069	Y_WP:	0.026	Y_WP:	0.500	X:	0.082	Y:	0.087	Z:	0.400	yaw:	142.816	yaw rate:	-11.844	Roll:	0.910	Pitch:	-3.145	Yaw:	203.551	Thrust:	100.000
Time:	9.847	Roll Set Point:	-0.108	Pitch Set Point:	-0.030	Yaw Set Point:	-2.494	X_WP:	0.069	Y_WP:	0.026	Y_WP:	0.500	X:	0.082	Y:	0.087	Z:	0.400	yaw:	142.868	yaw rate:	4.214	Roll:	0.885	Pitch:	-3.234	Yaw:	204.015	Thrust:	100.000
Time:	9.886	Roll Set Point:	-0.108	Pitch Set Point:	-0.030	Yaw Set Point:	-2.496	X_WP:	0.069	Y_WP:	0.026	Y_WP:	0.500	X:	0.082	Y:	0.087	Z:	0.400	yaw:	142.991	yaw rate:	16.660	Roll:	0.859	Pitch:	-3.135	Yaw:	204.393	Thrust:	100.000
Time:	9.927	Roll Set Point:	-0.108	Pitch Set Point:	-0.030	Yaw Set Point:	-2.495	X_WP:	0.069	Y_WP:	0.026	Y_WP:	0.500	X:	0.082	Y:	0.087	Z:	0.400	yaw:	142.926	yaw rate:	-7.634	Roll:	0.946	Pitch:	-3.135	Yaw:	203.148	Thrust:	100.000
Time:	9.962	Roll Set Point:	-0.109	Pitch Set Point:	-0.030	Yaw Set Point:	-2.494	X_WP:	0.069	Y_WP:	0.026	Y_WP:	0.500	X:	0.082	Y:	0.087	Z:	0.400	yaw:	142.872	yaw rate:	-7.698	Roll:	0.924	Pitch:	-2.947	Yaw:	202.588	Thrust:	100.000
Time:	9.992	Roll Set Point:	-0.108	Pitch Set Point:	-0.030	Yaw Set Point:	-2.498	X_WP:	0.069	Y_WP:	0.026	Y_WP:	0.500	X:	0.082	Y:	0.087	Z:	0.400	yaw:	143.109	yaw rate:	15.484	Roll:	0.756	Pitch:	-2.827	Yaw:	204.897	Thrust:	89.518
Time:	10.022	Roll Set Point:	-0.108	Pitch Set Point:	-0.030	Yaw Set Point:	-2.495	X_WP:	0.069	Y_WP:	0.026	Y_WP:	0.500	X:	0.082	Y:	0.087	Z:	0.400	yaw:	142.968	yaw rate:	-13.751	Roll:	0.958	Pitch:	-2.737	Yaw:	201.393	Thrust:	90.221
Time:	10.052	Roll Set Point:	-0.108	Pitch Set Point:	-0.030	Yaw Set Point:	-2.495	X_WP:	0.069	Y_WP:	0.026	Y_WP:	0.500	X:	0.082	Y:	0.087	Z:	0.400	yaw:	142.956	yaw rate:	14.894	Roll:	0.892	Pitch:	-2.768	Yaw:	202.511	Thrust:	90.360
Time:	10.091	Roll Set Point:	-0.109	Pitch Set Point:	-0.030	Yaw Set Point:	-2.494	X_WP:	0.069	Y_WP:	0.026	Y_WP:	0.500	X:	0.082	Y:	0.087	Z:	0.400	yaw:	142.909	yaw rate:	-6.118	Roll:	0.949	Pitch:	-3.100	Yaw:	203.131	Thrust:	100.000
Time:	10.124	Roll Set Point:	-0.108	Pitch Set Point:	-0.030	Yaw Set Point:	-2.495	X_WP:	0.069	Y_WP:	0.026	Y_WP:	0.500	X:	0.082	Y:	0.087	Z:	0.400	yaw:	142.959	yaw rate:	-1.296	Roll:	0.876	Pitch:	-2.896	Yaw:	203.320	Thrust:	99.664
Time:	10.160	Roll Set Point:	-0.108	Pitch Set Point:	-0.030	Yaw Set Point:	-2.495	X_WP:	0.069	Y_WP:	0.026	Y_WP:	0.500	X:	0.082	Y:	0.087	Z:	0.400	yaw:	142.946	yaw rate:	15.216	Roll:	0.923	Pitch:	-2.992	Yaw:	203.105	Thrust:	100.000
Time:	10.189	Roll Set Point:	-0.108	Pitch Set Point:	-0.030	Yaw Set Point:	-2.498	X_WP:	0.069	Y_WP:	0.026	Y_WP:	0.500	X:	0.082	Y:	0.087	Z:	0.400	yaw:	143.120	yaw rate:	20.065	Roll:	0.789	Pitch:	-2.778	Yaw:	204.306	Thrust:	88.755
Time:	10.221	Roll Set Point:	-0.108	Pitch Set Point:	-0.030	Yaw Set Point:	-2.494	X_WP:	0.069	Y_WP:	0.026	Y_WP:	0.500	X:	0.082	Y:	0.087	Z:	0.400	yaw:	142.912	yaw rate:	-8.188	Roll:	1.010	Pitch:	-2.798	Yaw:	201.057	Thrust:	98.164
Time:	10.259	Roll Set Point:	-0.108	Pitch Set Point:	-0.030	Yaw Set Point:	-2.495	X_WP:	0.069	Y_WP:	0.026	Y_WP:	0.500	X:	0.082	Y:	0.087	Z:	0.400	yaw:	142.976	yaw rate:	18.361	Roll:	0.901	Pitch:	-3.056	Yaw:	203.818	Thrust:	100.000
Time:	10.307	Roll Set Point:	-0.109	Pitch Set Point:	-0.030	Yaw Set Point:	-2.492	X_WP:	0.069	Y_WP:	0.026	Y_WP:	0.500	X:	0.082	Y:	0.087	Z:	0.400	yaw:	142.807	yaw rate:	-3.031	Roll:	1.047	Pitch:	-3.404	Yaw:	203.362	Thrust:	100.000
Time:	10.343	Roll Set Point:	-0.109	Pitch Set Point:	-0.030	Yaw Set Point:	-2.494	X_WP:	0.069	Y_WP:	0.026	Y_WP:	0.500	X:	0.082	Y:	0.087	Z:	0.400	yaw:	142.919	yaw rate:	-20.039	Roll:	0.877	Pitch:	-3.019	Yaw:	203.898	Thrust:	100.000
Time:	10.375	Roll Set Point:	-0.108	Pitch Set Point:	-0.030	Yaw Set Point:	-2.495	X_WP:	0.069	Y_WP:	0.026	Y_WP:	0.500	X:	0.082	Y:	0.087	Z:	0.400	yaw:	142.976	yaw rate:	5.663	Roll:	0.884	Pitch:	-2.868	Yaw:	203.320	Thrust:	100.000
Time:	10.406	Roll Set Point:	-0.108	Pitch Set Point:	-0.030	Yaw Set Point:	-2.498	X_WP:	0.069	Y_WP:	0.026	Y_WP:	0.500	X:	0.082	Y:	0.087	Z:	0.400	yaw:	143.119	yaw rate:	14.344	Roll:	0.831	Pitch:	-2.848	Yaw:	204.159	Thrust:	97.316
Time:	10.432	Roll Set Point:	-0.109	Pitch Set Point:	-0.030	Yaw Set Point:	-2.494	X_WP:	0.069	Y_WP:	0.026	Y_WP:	0.500	X:	0.082	Y:	0.087	Z:	0.400	yaw:	142.870	yaw rate:	-24.979	Roll:	1.047	Pitch:	-2.554	Yaw:	199.618	Thrust:	83.224
Time:	10.466	Roll Set Point:	-0.108	Pitch Set Point:	-0.030	Yaw Set Point:	-2.498	X_WP:	0.069	Y_WP:	0.026	Y_WP:	0.500	X:	0.082	Y:	0.087	Z:	0.400	yaw:	143.104	yaw rate:	23.480	Roll:	0.805	Pitch:	-2.946	Yaw:	204.987	Thrust:	100.000
Time:	10.497	Roll Set Point:	-0.109	Pitch Set Point:	-0.030	Yaw Set Point:	-2.493	X_WP:	0.069	Y_WP:	0.026	Y_WP:	0.500	X:	0.082	Y:	0.087	Z:	0.400	yaw:	142.840	yaw rate:	-35.090	Roll:	1.057	Pitch:	-2.746	Yaw:	200.350	Thrust:	98.795
Time:	10.528	Roll Set Point:	-0.108	Pitch Set Point:	-0.030	Yaw Set Point:	-2.498	X_WP:	0.069	Y_WP:	0.026	Y_WP:	0.500	X:	0.082	Y:	0.087	Z:	0.400	yaw:	143.112	yaw rate:	27.195	Roll:	0.773	Pitch:	-2.883	Yaw:	205.225	Thrust:	98.748
Time:	10.559	Roll Set Point:	-0.108	Pitch Set Point:	-0.030	Yaw Set Point:	-2.497	X_WP:	0.069	Y_WP:	0.026	Y_WP:	0.500	X:	0.082	Y:	0.087	Z:	0.400	yaw:	143.091	yaw rate:	21.548	Roll:	0.928	Pitch:	-2.808	Yaw:	202.741	Thrust:	99.333
Time:	10.591	Roll Set Point:	-0.109	Pitch Set Point:	-0.030	Yaw Set Point:	-2.492	X_WP:	0.069	Y_WP:	0.026	Y_WP:	0.500	X:	0.082	Y:	0.087	Z:	0.400	yaw:	142.807	yaw rate:	-18.691	Roll:	1.076	Pitch:	-2.747	Yaw:	200.141	Thrust:	99.777
Time:	10.622	Roll Set Point:	-0.108	Pitch Set Point:	-0.030	Yaw Set Point:	-2.495	X_WP:	0.069	Y_WP:	0.026	Y_WP:	0.500	X:	0.082	Y:	0.087	Z:	0.400	yaw:	142.943	yaw rate:	18.292	Roll:	0.854	Pitch:	-2.849	Yaw:	203.859	Thrust:	100.000
Time:	10.653	Roll Set Point:	-0.108	Pitch Set Point:	-0.030	Yaw Set Point:	-2.495	X_WP:	0.069	Y_WP:	0.026	Y_WP:	0.500	X:	0.082	Y:	0.087	Z:	0.400	yaw:	142.958	yaw rate:	16.625	Roll:	0.919	Pitch:	-2.818	Yaw:	202.859	Thrust:	100.000
Time:	10.684	Roll Set Point:	-0.109	Pitch Set Point:	-0.030	Yaw Set Point:	-2.495	X_WP:	0.069	Y_WP:	0.026	Y_WP:	0.500	X:	0.082	Y:	0.087	Z:	0.400	yaw:	142.958	yaw rate:	7.358	Roll:	0.930	Pitch:	-2.815	Yaw:	202.730	Thrust:	100.000
Time:	10.716	Roll Set Point:	-0.108	Pitch Set Point:	-0.030	Yaw Set Point:	-2.498	X_WP:	0.069	Y_WP:	0.026	Y_WP:	0.500	X:	0.082	Y:	0.087	Z:	0.400	yaw:	143.106	yaw rate:	28.547	Roll:	0.849	Pitch:	-2.845	Yaw:	204.173	Thrust:	100.000
Time:	10.763	Roll Set Point:	-0.109	Pitch Set Point:	-0.030	Yaw Set Point:	-2.492	X_WP:	0.069	Y_WP:	0.026	Y_WP:	0.500	X:	0.082	Y:	0.087	Z:	0.400	yaw:	142.795	yaw rate:	-31.061	Roll:	1.134	Pitch:	-3.350	Yaw:	202.333	Thrust:	100.000
Time:	10.794	Roll Set Point:	-0.109	Pitch Set Point:	-0.030	Yaw Set Point:	-2.493	X_WP:	0.069	Y_WP:	0.026	Y_WP:	0.500	X:	0.082	Y:	0.087	Z:	0.400	yaw:	142.820	yaw rate:	-24.705	Roll:	0.925	Pitch:	-2.814	Yaw:	202.752	Thrust:	100.000
Time:	10.825	Roll Set Point:	-0.109	Pitch Set Point:	-0.030	Yaw Set Point:	-2.495	X_WP:	0.069	Y_WP:	0.026	Y_WP:	0.500	X:	0.082	Y:	0.087	Z:	0.400	yaw:	142.929	yaw rate:	2.567	Roll:	0.880	Pitch:	-2.847	Yaw:	203.602	Thrust:	100.000
Time:	10.856	Roll Set Point:	-0.108	Pitch Set Point:	-0.030	Yaw Set Point:	-2.495	X_WP:	0.069	Y_WP:	0.026	Y_WP:	0.500	X:	0.082	Y:	0.087	Z:	0.400	yaw:	142.954	yaw rate:	2.497	Roll:	0.927	Pitch:	-2.822	Yaw:	202.936	Thrust:	100.000
Time:	10.888	Roll Set Point:	-0.108	Pitch Set Point:	-0.030	Yaw Set Point:	-2.495	X_WP:	0.069	Y_WP:	0.026	Y_WP:	0.500	X:	0.082	Y:	0.087	Z:	0.400	yaw:	142.952	yaw rate:	-0.172	Roll:	0.940	Pitch:	-2.812	Yaw:	202.710	Thrust:	100.000
Time:	10.919	Roll Set Point:	-0.109	Pitch Set Point:	-0.030	Yaw Set Point:	-2.492	X_WP:	0.069	Y_WP:	0.026	Y_WP:	0.500	X:	0.082	Y:	0.087	Z:	0.400	yaw:	142.789	yaw rate:	-9.888	Roll:	1.035	Pitch:	-2.773	Yaw:	201.132	Thrust:	100.000
