Time:	2.109	Roll Set Point:	0.568	Pitch Set Point:	0.285	Yaw Set Point:	-0.661	X_WP:	0.000	Y_WP:	0.000	Y_WP:	0.500	X:	-0.235	Y:	-0.240	Z:	0.047	yaw:	37.864	yaw rate:	4.166	Roll:	-9.659	Pitch:	-1.307	Yaw:	52.869	Thrust:	24.930
Time:	2.125	Roll Set Point:	0.568	Pitch Set Point:	0.285	Yaw Set Point:	-0.660	X_WP:	0.000	Y_WP:	0.000	Y_WP:	0.500	X:	-0.235	Y:	-0.240	Z:	0.047	yaw:	37.815	yaw rate:	-6.911	Roll:	-9.610	Pitch:	-1.592	Yaw:	52.174	Thrust:	25.571
Time:	2.140	Roll Set Point:	0.568	Pitch Set Point:	0.285	Yaw Set Point:	-0.661	X_WP:	0.000	Y_WP:	0.000	Y_WP:	0.500	X:	-0.235	Y:	-0.240	Z:	0.047	yaw:	37.859	yaw rate:	4.483	Roll:	-9.753	Pitch:	-1.038	Yaw:	54.026	Thrust:	26.709
Time:	2.156	Roll Set Point:	0.568	Pitch Set Point:	0.285	Yaw Set Point:	-0.661	X_WP:	0.000	Y_WP:	0.000	Y_WP:	0.500	X:	-0.235	Y:	-0.240	Z:	0.047	yaw:	37.870	yaw rate:	1.006	Roll:	-9.717	Pitch:	-1.307	Yaw:	53.664	Thrust:	27.420
Time:	2.172	Roll Set Point:	0.568	Pitch Set Point:	0.285	Yaw Set Point:	-0.661	X_WP:	0.000	Y_WP:	0.000	Y_WP:	0.500	X:	-0.235	Y:	-0.240	Z:	0.047	yaw:	37.850	yaw rate:	-1.912	Roll:	-9.691	Pitch:	-1.400	Yaw:	53.355	Thrust:	28.349
Time:	2.187	Roll Set Point:	0.568	Pitch Set Point:	0.285	Yaw Set Point:	-0.661	X_WP:	0.000	Y_WP:	0.000	Y_WP:	0.500	X:	-0.235	Y:	-0.240	Z:	0.047	yaw:	37.883	yaw rate:	3.289	Roll:	-9.741	Pitch:	-1.075	Yaw:	54.478	Thrust:	29.105
Time:	2.203	Roll Set Point:	0.568	Pitch Set Point:	0.285	Yaw Set Point:	-0.660	X_WP:	0.000	Y_WP:	0.000	Y_WP:	0.500	X:	-0.235	Y:	-0.240	Z:	0.047	yaw:	37.805	yaw rate:	-7.788	Roll:	-9.645	Pitch:	-1.834	Yaw:	52.726	Thrust:	30.132
Time:	2.218	Roll Set Point:	0.568	Pitch Set Point:	0.285	Yaw Set Point:	-0.660	X_WP:	0.000	Y_WP:	0.000	Y_WP:	0.500	X:	-0.235	Y:	-0.240	Z:	0.047	yaw:	37.818	yaw rate:	1.265	Roll:	-9.791	Pitch:	-1.302	Yaw:	54.461	Thrust:	30.887
Time:	2.234	Roll Set Point:	0.568	Pitch Set Point:	0.285	Yaw Set Point:	-0.662	X_WP:	0.000	Y_WP:	0.000	Y_WP:	0.500	X:	-0.235	Y:	-0.240	Z:	0.047	yaw:	37.946	yaw rate:	12.778	Roll:	-9.885	Pitch:	-0.417	Yaw:	56.687	Thrust:	31.766
Time:	2.250	Roll Set Point:	0.568	Pitch Set Point:	0.285	Yaw Set Point:	-0.660	X_WP:	0.000	Y_WP:	0.000	Y_WP:	0.500	X:	-0.235	Y:	-0.240	Z:	0.047	yaw:	37.820	yaw rate:	-12.583	Roll:	-9.656	Pitch:	-2.188	Yaw:	52.261	Thrust:	32.350
Time:	2.265	Roll Set Point:	0.568	Pitch Set Point:	0.285	Yaw Set Point:	-0.662	X_WP:	0.000	Y_WP:	0.000	Y_WP:	0.500	X:	-0.235	Y:	-0.240	Z:	0.047	yaw:	37.917	yaw rate:	9.723	Roll:	-9.909	Pitch:	-0.673	Yaw:	56.134	Thrust:	33.567
Time:	2.281	Roll Set Point:	0.568	Pitch Set Point:	0.285	Yaw Set Point:	-0.660	X_WP:	0.000	Y_WP:	0.000	Y_WP:	0.500	X:	-0.235	Y:	-0.240	Z:	0.047	yaw:	37.798	yaw rate:	-11.885	Roll:	-9.634	Pitch:	-2.094	Yaw:	52.348	Thrust:	34.325
Time:	2.297	Roll Set Point:	0.568	Pitch Set Point:	0.285	Yaw Set Point:	-0.661	X_WP:	0.000	Y_WP:	0.000	Y_WP:	0.500	X:	-0.235	Y:	-0.240	Z:	0.047	yaw:	37.848	yaw rate:	4.970	Roll:	-9.860	Pitch:	-0.959	Yaw:	55.241	Thrust:	35.292
Time:	2.312	Roll Set Point:	0.568	Pitch Set Point:	0.285	Yaw Set Point:	-0.660	X_WP:	0.000	Y_WP:	0.000	Y_WP:	0.500	X:	-0.235	Y:	-0.240	Z:	0.047	yaw:	37.814	yaw rate:	-3.414	Roll:	-9.809	Pitch:	-1.579	Yaw:	53.789	Thrust:	35.699
Time:	2.328	Roll Set Point:	0.568	Pitch Set Point:	0.286	Yaw Set Point:	-0.659	X_WP:	0.000	Y_WP:	0.000	Y_WP:	0.500	X:	-0.235	Y:	-0.240	Z:	0.047	yaw:	37.758	yaw rate:	-5.643	Roll:	-9.744	Pitch:	-1.714	Yaw:	53.337	Thrust:	36.813
Time:	2.343	Roll Set Point:	0.568	Pitch Set Point:	0.285	Yaw Set Point:	-0.661	X_WP:	0.000	Y_WP:	0.000	Y_WP:	0.500	X:	-0.235	Y:	-0.240	Z:	0.047	yaw:	37.849	yaw rate:	9.126	Roll:	-9.997	Pitch:	-0.795	Yaw:	55.939	Thrust:	37.755
Time:	2.359	Roll Set Point:	0.568	Pitch Set Point:	0.285	Yaw Set Point:	-0.661	X_WP:	0.000	Y_WP:	0.000	Y_WP:	0.500	X:	-0.235	Y:	-0.240	Z:	0.047	yaw:	37.849	yaw rate:	9.126	Roll:	-9.868	Pitch:	-1.338	Yaw:	54.410	Thrust:	38.533
Time:	2.375	Roll Set Point:	0.568	Pitch Set Point:	0.285	Yaw Set Point:	-0.660	X_WP:	0.000	Y_WP:	0.000	Y_WP:	0.500	X:	-0.235	Y:	-0.240	Z:	0.047	yaw:	37.832	yaw rate:	3.017	Roll:	-9.831	Pitch:	-1.406	Yaw:	54.104	Thrust:	39.463
Time:	2.390	Roll Set Point:	0.568	Pitch Set Point:	0.285	Yaw Set Point:	-0.660	X_WP:	0.000	Y_WP:	0.000	Y_WP:	0.500	X:	-0.235	Y:	-0.240	Z:	0.047	yaw:	37.832	yaw rate:	3.017	Roll:	-9.892	Pitch:	-1.344	Yaw:	54.386	Thrust:	40.223
Time:	2.406	Roll Set Point:	0.568	Pitch Set Point:	0.285	Yaw Set Point:	-0.660	X_WP:	0.000	Y_WP:	0.000	Y_WP:	0.500	X:	-0.235	Y:	-0.240	Z:	0.047	yaw:	37.811	yaw rate:	-1.649	Roll:	-9.899	Pitch:	-1.504	Yaw:	54.013	Thrust:	41.072
Time:	2.422	Roll Set Point:	0.568	Pitch Set Point:	0.285	Yaw Set Point:	-0.660	X_WP:	0.000	Y_WP:	0.000	Y_WP:	0.500	X:	-0.235	Y:	-0.240	Z:	0.047	yaw:	37.816	yaw rate:	0.441	Roll:	-9.903	Pitch:	-1.339	Yaw:	54.437	Thrust:	41.820
Time:	2.437	Roll Set Point:	0.568	Pitch Set Point:	0.285	Yaw Set Point:	-0.661	X_WP:	0.000	Y_WP:	0.000	Y_WP:	0.500	X:	-0.235	Y:	-0.240	Z:	0.047	yaw:	37.856	yaw rate:	4.004	Roll:	-10.033	Pitch:	-1.037	Yaw:	55.090	Thrust:	42.783
Time:	2.453	Roll Set Point:	0.568	Pitch Set Point:	0.285	Yaw Set Point:	-0.661	X_WP:	0.000	Y_WP:	0.000	Y_WP:	0.500	X:	-0.235	Y:	-0.240	Z:	0.047	yaw:	37.856	yaw rate:	4.004	Roll:	-9.946	Pitch:	-1.346	Yaw:	54.419	Thrust:	43.625
Time:	2.469	Roll Set Point:	0.569	Pitch Set Point:	0.285	Yaw Set Point:	-0.661	X_WP:	0.000	Y_WP:	0.000	Y_WP:	0.500	X:	-0.235	Y:	-0.240	Z:	0.047	yaw:	37.886	yaw rate:	2.970	Roll:	-10.110	Pitch:	-1.365	Yaw:	54.962	Thrust:	43.877
Time:	2.484	Roll Set Point:	0.568	Pitch Set Point:	0.285	Yaw Set Point:	-0.660	X_WP:	0.000	Y_WP:	0.000	Y_WP:	0.500	X:	-0.235	Y:	-0.240	Z:	0.047	yaw:	37.819	yaw rate:	-6.646	Roll:	-9.756	Pitch:	-1.646	Yaw:	53.255	Thrust:	45.931
Time:	2.500	Roll Set Point:	0.568	Pitch Set Point:	0.285	Yaw Set Point:	-0.660	X_WP:	0.000	Y_WP:	0.000	Y_WP:	0.500	X:	-0.235	Y:	-0.240	Z:	0.047	yaw:	37.823	yaw rate:	-7.124	Roll:	-9.968	Pitch:	-1.285	Yaw:	54.427	Thrust:	46.229
Time:	2.515	Roll Set Point:	0.568	Pitch Set Point:	0.285	Yaw Set Point:	-0.660	X_WP:	0.000	Y_WP:	0.000	Y_WP:	0.500	X:	-0.235	Y:	-0.240	Z:	0.047	yaw:	37.815	yaw rate:	-0.753	Roll:	-10.010	Pitch:	-1.411	Yaw:	54.236	Thrust:	46.895
Time:	2.531	Roll Set Point:	0.568	Pitch Set Point:	0.285	Yaw Set Point:	-0.660	X_WP:	0.000	Y_WP:	0.000	Y_WP:	0.500	X:	-0.235	Y:	-0.240	Z:	0.047	yaw:	37.803	yaw rate:	-1.166	Roll:	-9.993	Pitch:	-1.453	Yaw:	54.151	Thrust:	47.979
Time:	2.547	Roll Set Point:	0.568	Pitch Set Point:	0.285	Yaw Set Point:	-0.660	X_WP:	0.000	Y_WP:	0.000	Y_WP:	0.500	X:	-0.235	Y:	-0.240	Z:	0.047	yaw:	37.827	yaw rate:	2.308	Roll:	-10.016	Pitch:	-1.239	Yaw:	54.767	Thrust:	48.707
Time:	2.562	Roll Set Point:	0.568	Pitch Set Point:	0.285	Yaw Set Point:	-0.660	X_WP:	0.000	Y_WP:	0.000	Y_WP:	0.500	X:	-0.235	Y:	-0.240	Z:	0.047	yaw:	37.828	yaw rate:	0.105	Roll:	-10.063	Pitch:	-1.333	Yaw:	54.394	Thrust:	49.587
Time:	2.578	Roll Set Point:	0.568	Pitch Set Point:	0.285	Yaw Set Point:	-0.660	X_WP:	0.000	Y_WP:	0.000	Y_WP:	0.500	X:	-0.235	Y:	-0.240	Z:	0.047	yaw:	37.828	yaw rate:	0.105	Roll:	-10.049	Pitch:	-1.366	Yaw:	54.380	Thrust:	50.427
Time:	2.593	Roll Set Point:	0.568	Pitch Set Point:	0.285	Yaw Set Point:	-0.661	X_WP:	0.000	Y_WP:	0.000	Y_WP:	0.500	X:	-0.235	Y:	-0.240	Z:	0.047	yaw:	37.892	yaw rate:	1.624	Roll:	-10.145	Pitch:	-0.937	Yaw:	55.549	Thrust:	51.305
Time:	2.609	Roll Set Point:	0.568	Pitch Set Point:	0.285	Yaw Set Point:	-0.661	X_WP:	0.000	Y_WP:	0.000	Y_WP:	0.500	X:	-0.235	Y:	-0.240	Z:	0.047	yaw:	37.851	yaw rate:	-4.066	Roll:	-10.023	Pitch:	-1.665	Yaw:	53.732	Thrust:	52.066
Time:	2.625	Roll Set Point:	0.568	Pitch Set Point:	0.285	Yaw Set Point:	-0.660	X_WP:	0.000	Y_WP:	0.000	Y_WP:	0.500	X:	-0.235	Y:	-0.240	Z:	0.047	yaw:	37.834	yaw rate:	-1.718	Roll:	-10.053	Pitch:	-1.441	Yaw:	54.101	Thrust:	53.147
Time:	2.640	Roll Set Point:	0.568	Pitch Set Point:	0.285	Yaw Set Point:	-0.660	X_WP:	0.000	Y_WP:	0.000	Y_WP:	0.500	X:	-0.235	Y:	-0.240	Z:	0.047	yaw:	37.834	yaw rate:	-1.718	Roll:	-10.101	Pitch:	-1.372	Yaw:	54.389	Thrust:	53.828
Time:	2.656	Roll Set Point:	0.568	Pitch Set Point:	0.285	Yaw Set Point:	-0.661	X_WP:	0.000	Y_WP:	0.000	Y_WP:	0.500	X:	-0.235	Y:	-0.240	Z:	0.047	yaw:	37.849	yaw rate:	1.336	Roll:	-10.161	Pitch:	-1.263	Yaw:	54.666	Thrust:	54.478
Time:	2.672	Roll Set Point:	0.568	Pitch Set Point:	0.285	Yaw Set Point:	-0.661	X_WP:	0.000	Y_WP:	0.000	Y_WP:	0.500	X:	-0.235	Y:	-0.240	Z:	0.047	yaw:	37.849	yaw rate:	1.336	Roll:	-10.128	Pitch:	-1.372	Yaw:	54.410	Thrust:	55.522
Time:	2.687	Roll Set Point:	0.568	Pitch Set Point:	0.285	Yaw Set Point:	-0.661	X_WP:	0.000	Y_WP:	0.000	Y_WP:	0.500	X:	-0.235	Y:	-0.240	Z:	0.047	yaw:	37.847	yaw rate:	0.122	Roll:	-10.129	Pitch:	-1.438	Yaw:	54.368	Thrust:	56.420
Time:	2.703	Roll Set Point:	0.568	Pitch Set Point:	0.285	Yaw Set Point:	-0.661	X_WP:	0.000	Y_WP:	0.000	Y_WP:	0.500	X:	-0.235	Y:	-0.240	Z:	0.047	yaw:	37.847	yaw rate:	0.122	Roll:	-10.153	Pitch:	-1.378	Yaw:	54.404	Thrust:	57.165
Time:	2.718	Roll Set Point:	0.568	Pitch Set Point:	0.285	Yaw Set Point:	-0.661	X_WP:	0.000	Y_WP:	0.000	Y_WP:	0.500	X:	-0.235	Y:	-0.240	Z:	0.047	yaw:	37.848	yaw rate:	0.118	Roll:	-10.190	Pitch:	-1.355	Yaw:	54.428	Thrust:	58.039
Time:	2.734	Roll Set Point:	0.568	Pitch Set Point:	0.285	Yaw Set Point:	-0.661	X_WP:	0.000	Y_WP:	0.000	Y_WP:	0.500	X:	-0.235	Y:	-0.240	Z:	0.047	yaw:	37.856	yaw rate:	3.423	Roll:	-10.180	Pitch:	-1.300	Yaw:	54.562	Thrust:	59.073
Time:	2.750	Roll Set Point:	0.568	Pitch Set Point:	0.285	Yaw Set Point:	-0.661	X_WP:	0.000	Y_WP:	0.000	Y_WP:	0.500	X:	-0.235	Y:	-0.240	Z:	0.047	yaw:	37.856	yaw rate:	3.423	Roll:	-10.192	Pitch:	-1.380	Yaw:	54.417	Thrust:	59.705
Time:	2.765	Roll Set Point:	0.568	Pitch Set Point:	0.285	Yaw Set Point:	-0.660	X_WP:	0.000	Y_WP:	0.000	Y_WP:	0.500	X:	-0.235	Y:	-0.240	Z:	0.047	yaw:	37.837	yaw rate:	8.888	Roll:	-10.175	Pitch:	-1.526	Yaw:	54.071	Thrust:	60.698
Time:	2.781	Roll Set Point:	0.568	Pitch Set Point:	0.285	Yaw Set Point:	-0.660	X_WP:	0.000	Y_WP:	0.000	Y_WP:	0.500	X:	-0.235	Y:	-0.240	Z:	0.047	yaw:	37.839	yaw rate:	0.223	Roll:	-10.216	Pitch:	-1.410	Yaw:	54.434	Thrust:	61.280
Time:	2.797	Roll Set Point:	0.568	Pitch Set Point:	0.285	Yaw Set Point:	-0.660	X_WP:	0.000	Y_WP:	0.000	Y_WP:	0.500	X:	-0.235	Y:	-0.240	Z:	0.047	yaw:	37.793	yaw rate:	-4.661	Roll:	-10.170	Pitch:	-1.649	Yaw:	53.551	Thrust:	62.466
Time:	2.812	Roll Set Point:	0.568	Pitch Set Point:	0.285	Yaw Set Point:	-0.661	X_WP:	0.000	Y_WP:	0.000	Y_WP:	0.500	X:	-0.235	Y:	-0.240	Z:	0.047	yaw:	37.869	yaw rate:	7.593	Roll:	-10.336	Pitch:	-0.901	Yaw:	55.710	Thrust:	63.318
Time:	2.828	Roll Set Point:	0.568	Pitch Set Point:	0.285	Yaw Set Point:	-0.660	X_WP:	0.000	Y_WP:	0.000	Y_WP:	0.500	X:	-0.235	Y:	-0.240	Z:	0.047	yaw:	37.802	yaw rate:	-6.694	Roll:	-10.167	Pitch:	-1.848	Yaw:	53.218	Thrust:	63.881
Time:	2.859	Roll Set Point:	0.568	Pitch Set Point:	0.286	Yaw Set Point:	-0.659	X_WP:	0.000	Y_WP:	0.000	Y_WP:	0.500	X:	-0.235	Y:	-0.240	Z:	0.047	yaw:	37.783	yaw rate:	-1.830	Roll:	-10.816	Pitch:	-1.532	Yaw:	55.720	Thrust:	100.000
Time:	2.875	Roll Set Point:	0.568	Pitch Set Point:	0.285	Yaw Set Point:	-0.660	X_WP:	0.000	Y_WP:	0.000	Y_WP:	0.500	X:	-0.235	Y:	-0.240	Z:	0.047	yaw:	37.839	yaw rate:	4.843	Roll:	-10.298	Pitch:	-1.038	Yaw:	55.320	Thrust:	65.894
Time:	2.890	Roll Set Point:	0.568	Pitch Set Point:	0.285	Yaw Set Point:	-0.660	X_WP:	0.000	Y_WP:	0.000	Y_WP:	0.500	X:	-0.235	Y:	-0.240	Z:	0.047	yaw:	37.839	yaw rate:	4.843	Roll:	-10.242	Pitch:	-1.397	Yaw:	54.390	Thrust:	66.425
Time:	2.906	Roll Set Point:	0.568	Pitch Set Point:	0.285	Yaw Set Point:	-0.660	X_WP:	0.000	Y_WP:	0.000	Y_WP:	0.500	X:	-0.235	Y:	-0.240	Z:	0.047	yaw:	37.837	yaw rate:	-3.946	Roll:	-10.269	Pitch:	-1.440	Yaw:	54.360	Thrust:	67.197
Time:	2.922	Roll Set Point:	0.568	Pitch Set Point:	0.285	Yaw Set Point:	-0.660	X_WP:	0.000	Y_WP:	0.000	Y_WP:	0.500	X:	-0.235	Y:	-0.240	Z:	0.047	yaw:	37.837	yaw rate:	-3.946	Roll:	-10.245	Pitch:	-1.402	Yaw:	54.393	Thrust:	68.269
Time:	2.937	Roll Set Point:	0.568	Pitch Set Point:	0.285	Yaw Set Point:	-0.660	X_WP:	0.000	Y_WP:	0.000	Y_WP:	0.500	X:	-0.235	Y:	-0.240	Z:	0.047	yaw:	37.808	yaw rate:	-2.886	Roll:	-10.218	Pitch:	-1.592	Yaw:	53.870	Thrust:	68.999
Time:	2.953	Roll Set Point:	0.568	Pitch Set Point:	0.285	Yaw Set Point:	-0.660	X_WP:	0.000	Y_WP:	0.000	Y_WP:	0.500	X:	-0.235	Y:	-0.240	Z:	0.047	yaw:	37.839	yaw rate:	-0.059	Roll:	-10.253	Pitch:	-1.183	Yaw:	54.917	Thrust:	70.113
Time:	2.968	Roll Set Point:	0.568	Pitch Set Point:	0.285	Yaw Set Point:	-0.660	X_WP:	0.000	Y_WP:	0.000	Y_WP:	0.500	X:	-0.235	Y:	-0.240	Z:	0.047	yaw:	37.843	yaw rate:	0.401	Roll:	-10.232	Pitch:	-1.399	Yaw:	54.468	Thrust:	70.968
Time:	2.984	Roll Set Point:	0.568	Pitch Set Point:	0.285	Yaw Set Point:	-0.660	X_WP:	0.000	Y_WP:	0.000	Y_WP:	0.500	X:	-0.235	Y:	-0.240	Z:	0.047	yaw:	37.843	yaw rate:	0.401	Roll:	-10.243	Pitch:	-1.408	Yaw:	54.398	Thrust:	71.579
Time:	3.000	Roll Set Point:	0.568	Pitch Set Point:	0.285	Yaw Set Point:	-0.661	X_WP:	0.000	Y_WP:	0.000	Y_WP:	0.500	X:	-0.235	Y:	-0.240	Z:	0.047	yaw:	37.853	yaw rate:	1.042	Roll:	-10.285	Pitch:	-1.338	Yaw:	54.590	Thrust:	72.296
Time:	3.015	Roll Set Point:	0.568	Pitch Set Point:	0.285	Yaw Set Point:	-0.662	X_WP:	0.000	Y_WP:	0.000	Y_WP:	0.500	X:	-0.235	Y:	-0.240	Z:	0.047	yaw:	37.910	yaw rate:	11.859	Roll:	-10.311	Pitch:	-1.038	Yaw:	55.438	Thrust:	73.548
Time:	3.031	Roll Set Point:	0.568	Pitch Set Point:	0.285	Yaw Set Point:	-0.660	X_WP:	0.000	Y_WP:	0.000	Y_WP:	0.500	X:	-0.235	Y:	-0.240	Z:	0.047	yaw:	37.793	yaw rate:	-11.658	Roll:	-10.101	Pitch:	-2.159	Yaw:	52.378	Thrust:	74.256
Time:	3.047	Roll Set Point:	0.568	Pitch Set Point:	0.285	Yaw Set Point:	-0.661	X_WP:	0.000	Y_WP:	0.000	Y_WP:	0.500	X:	-0.235	Y:	-0.240	Z:	0.047	yaw:	37.858	yaw rate:	6.504	Roll:	-10.353	Pitch:	-1.010	Yaw:	55.512	Thrust:	74.874
Time:	3.062	Roll Set Point:	0.568	Pitch Set Point:	0.286	Yaw Set Point:	-0.660	X_WP:	0.000	Y_WP:	0.000	Y_WP:	0.500	X:	-0.235	Y:	-0.240	Z:	0.047	yaw:	37.790	yaw rate:	-6.777	Roll:	-10.130	Pitch:	-1.849	Yaw:	53.192	Thrust:	75.917
Time:	3.078	Roll Set Point:	0.568	Pitch Set Point:	0.286	Yaw Set Point:	-0.660	X_WP:	0.000	Y_WP:	0.000	Y_WP:	0.500	X:	-0.235	Y:	-0.240	Z:	0.047	yaw:	37.790	yaw rate:	-6.777	Roll:	-10.243	Pitch:	-1.427	Yaw:	54.328	Thrust:	76.772
Time:	3.093	Roll Set Point:	0.568	Pitch Set Point:	0.286	Yaw Set Point:	-0.660	X_WP:	0.000	Y_WP:	0.000	Y_WP:	0.500	X:	-0.235	Y:	-0.240	Z:	0.047	yaw:	37.793	yaw rate:	-1.683	Roll:	-10.237	Pitch:	-1.476	Yaw:	54.383	Thrust:	77.782
Time:	3.109	Roll Set Point:	0.568	Pitch Set Point:	0.285	Yaw Set Point:	-0.661	X_WP:	0.000	Y_WP:	0.000	Y_WP:	0.500	X:	-0.235	Y:	-0.240	Z:	0.047	yaw:	37.861	yaw rate:	6.752	Roll:	-10.360	Pitch:	-0.923	Yaw:	55.557	Thrust:	78.368
Time:	3.125	Roll Set Point:	0.568	Pitch Set Point:	0.285	Yaw Set Point:	-0.662	X_WP:	0.000	Y_WP:	0.000	Y_WP:	0.500	X:	-0.235	Y:	-0.240	Z:	0.047	yaw:	37.912	yaw rate:	5.103	Roll:	-10.247	Pitch:	-1.066	Yaw:	55.352	Thrust:	79.498
Time:	3.140	Roll Set Point:	0.568	Pitch Set Point:	0.285	Yaw Set Point:	-0.662	X_WP:	0.000	Y_WP:	0.000	Y_WP:	0.500	X:	-0.235	Y:	-0.240	Z:	0.047	yaw:	37.912	yaw rate:	5.103	Roll:	-10.246	Pitch:	-1.413	Yaw:	54.498	Thrust:	80.177
Time:	3.156	Roll Set Point:	0.568	Pitch Set Point:	0.285	Yaw Set Point:	-0.660	X_WP:	0.000	Y_WP:	0.000	Y_WP:	0.500	X:	-0.235	Y:	-0.240	Z:	0.047	yaw:	37.828	yaw rate:	-2.255	Roll:	-10.177	Pitch:	-2.021	Yaw:	52.977	Thrust:	80.843
Time:	3.172	Roll Set Point:	0.568	Pitch Set Point:	0.285	Yaw Set Point:	-0.660	X_WP:	0.000	Y_WP:	0.000	Y_WP:	0.500	X:	-0.235	Y:	-0.240	Z:	0.047	yaw:	37.828	yaw rate:	-2.255	Roll:	-10.244	Pitch:	-1.432	Yaw:	54.381	Thrust:	81.872
Time:	3.187	Roll Set Point:	0.568	Pitch Set Point:	0.285	Yaw Set Point:	-0.661	X_WP:	0.000	Y_WP:	0.000	Y_WP:	0.500	X:	-0.235	Y:	-0.240	Z:	0.047	yaw:	37.844	yaw rate:	1.589	Roll:	-10.278	Pitch:	-1.311	Yaw:	54.669	Thrust:	82.822
Time:	3.203	Roll Set Point:	0.568	Pitch Set Point:	0.285	Yaw Set Point:	-0.661	X_WP:	0.000	Y_WP:	0.000	Y_WP:	0.500	X:	-0.235	Y:	-0.240	Z:	0.047	yaw:	37.847	yaw rate:	0.346	Roll:	-10.223	Pitch:	-1.403	Yaw:	54.466	Thrust:	83.549
Time:	3.218	Roll Set Point:	0.568	Pitch Set Point:	0.285	Yaw Set Point:	-0.661	X_WP:	0.000	Y_WP:	0.000	Y_WP:	0.500	X:	-0.235	Y:	-0.240	Z:	0.047	yaw:	37.863	yaw rate:	4.493	Roll:	-10.274	Pitch:	-1.297	Yaw:	54.691	Thrust:	84.454
Time:	3.234	Roll Set Point:	0.568	Pitch Set Point:	0.285	Yaw Set Point:	-0.660	X_WP:	0.000	Y_WP:	0.000	Y_WP:	0.500	X:	-0.235	Y:	-0.240	Z:	0.047	yaw:	37.830	yaw rate:	-3.339	Roll:	-10.237	Pitch:	-1.687	Yaw:	53.823	Thrust:	85.111
Time:	3.250	Roll Set Point:	0.568	Pitch Set Point:	0.285	Yaw Set Point:	-0.661	X_WP:	0.000	Y_WP:	0.000	Y_WP:	0.500	X:	-0.235	Y:	-0.240	Z:	0.047	yaw:	37.861	yaw rate:	3.130	Roll:	-10.288	Pitch:	-1.219	Yaw:	54.951	Thrust:	86.219
Time:	3.265	Roll Set Point:	0.568	Pitch Set Point:	0.285	Yaw Set Point:	-0.660	X_WP:	0.000	Y_WP:	0.000	Y_WP:	0.500	X:	-0.235	Y:	-0.240	Z:	0.047	yaw:	37.801	yaw rate:	-6.018	Roll:	-10.122	Pitch:	-1.863	Yaw:	53.334	Thrust:	86.830
Time:	3.281	Roll Set Point:	0.568	Pitch Set Point:	0.285	Yaw Set Point:	-0.660	X_WP:	0.000	Y_WP:	0.000	Y_WP:	0.500	X:	-0.235	Y:	-0.240	Z:	0.047	yaw:	37.840	yaw rate:	3.908	Roll:	-10.296	Pitch:	-1.135	Yaw:	55.052	Thrust:	88.095
Time:	3.297	Roll Set Point:	0.569	Pitch Set Point:	0.285	Yaw Set Point:	-0.661	X_WP:	0.000	Y_WP:	0.000	Y_WP:	0.500	X:	-0.235	Y:	-0.240	Z:	0.047	yaw:	37.873	yaw rate:	3.299	Roll:	-10.461	Pitch:	-1.470	Yaw:	54.996	Thrust:	87.806
Time:	3.312	Roll Set Point:	0.568	Pitch Set Point:	0.285	Yaw Set Point:	-0.661	X_WP:	0.000	Y_WP:	0.000	Y_WP:	0.500	X:	-0.235	Y:	-0.240	Z:	0.047	yaw:	37.881	yaw rate:	0.809	Roll:	-10.120	Pitch:	-1.163	Yaw:	54.591	Thrust:	90.200
Time:	3.328	Roll Set Point:	0.568	Pitch Set Point:	0.285	Yaw Set Point:	-0.660	X_WP:	0.000	Y_WP:	0.000	Y_WP:	0.500	X:	-0.235	Y:	-0.240	Z:	0.047	yaw:	37.837	yaw rate:	-4.411	Roll:	-10.160	Pitch:	-1.725	Yaw:	53.653	Thrust:	90.334
Time:	3.343	Roll Set Point:	0.568	Pitch Set Point:	0.285	Yaw Set Point:	-0.661	X_WP:	0.000	Y_WP:	0.000	Y_WP:	0.500	X:	-0.235	Y:	-0.240	Z:	0.047	yaw:	37.861	yaw rate:	2.410	Roll:	-10.283	Pitch:	-1.306	Yaw:	54.830	Thrust:	91.302
Time:	3.359	Roll Set Point:	0.568	Pitch Set Point:	0.285	Yaw Set Point:	-0.660	X_WP:	0.000	Y_WP:	0.000	Y_WP:	0.500	X:	-0.235	Y:	-0.240	Z:	0.047	yaw:	37.842	yaw rate:	-1.898	Roll:	-10.225	Pitch:	-1.612	Yaw:	54.086	Thrust:	92.192
Time:	3.375	Roll Set Point:	0.568	Pitch Set Point:	0.285	Yaw Set Point:	-0.660	X_WP:	0.000	Y_WP:	0.000	Y_WP:	0.500	X:	-0.235	Y:	-0.240	Z:	0.047	yaw:	37.842	yaw rate:	-1.898	Roll:	-10.244	Pitch:	-1.453	Yaw:	54.397	Thrust:	92.782
Time:	3.390	Roll Set Point:	0.568	Pitch Set Point:	0.286	Yaw Set Point:	-0.659	X_WP:	0.000	Y_WP:	0.000	Y_WP:	0.500	X:	-0.235	Y:	-0.240	Z:	0.047	yaw:	37.761	yaw rate:	-10.023	Roll:	-10.131	Pitch:	-1.955	Yaw:	52.928	Thrust:	93.555
Time:	3.406	Roll Set Point:	0.568	Pitch Set Point:	0.285	Yaw Set Point:	-0.660	X_WP:	0.000	Y_WP:	0.000	Y_WP:	0.500	X:	-0.235	Y:	-0.240	Z:	0.047	yaw:	37.825	yaw rate:	6.383	Roll:	-10.320	Pitch:	-1.096	Yaw:	55.445	Thrust:	94.843
Time:	3.422	Roll Set Point:	0.568	Pitch Set Point:	0.285	Yaw Set Point:	-0.660	X_WP:	0.000	Y_WP:	0.000	Y_WP:	0.500	X:	-0.235	Y:	-0.240	Z:	0.047	yaw:	37.825	yaw rate:	6.383	Roll:	-10.244	Pitch:	-1.462	Yaw:	54.376	Thrust:	95.463
Time:	3.437	Roll Set Point:	0.568	Pitch Set Point:	0.285	Yaw Set Point:	-0.660	X_WP:	0.000	Y_WP:	0.000	Y_WP:	0.500	X:	-0.235	Y:	-0.240	Z:	0.047	yaw:	37.799	yaw rate:	-2.554	Roll:	-10.227	Pitch:	-1.592	Yaw:	53.912	Thrust:	96.278
Time:	3.453	Roll Set Point:	0.568	Pitch Set Point:	0.285	Yaw Set Point:	-0.661	X_WP:	0.000	Y_WP:	0.000	Y_WP:	0.500	X:	-0.235	Y:	-0.240	Z:	0.047	yaw:	37.882	yaw rate:	8.273	Roll:	-10.352	Pitch:	-0.899	Yaw:	55.842	Thrust:	97.318
Time:	3.468	Roll Set Point:	0.568	Pitch Set Point:	0.286	Yaw Set Point:	-0.659	X_WP:	0.000	Y_WP:	0.000	Y_WP:	0.500	X:	-0.235	Y:	-0.240	Z:	0.047	yaw:	37.774	yaw rate:	-10.775	Roll:	-10.118	Pitch:	-2.148	Yaw:	52.492	Thrust:	97.909
Time:	3.484	Roll Set Point:	0.568	Pitch Set Point:	0.285	Yaw Set Point:	-0.661	X_WP:	0.000	Y_WP:	0.000	Y_WP:	0.500	X:	-0.235	Y:	-0.240	Z:	0.047	yaw:	37.866	yaw rate:	9.293	Roll:	-10.365	Pitch:	-0.905	Yaw:	55.991	Thrust:	98.891
Time:	3.500	Roll Set Point:	0.568	Pitch Set Point:	0.285	Yaw Set Point:	-0.660	X_WP:	0.000	Y_WP:	0.000	Y_WP:	0.500	X:	-0.235	Y:	-0.240	Z:	0.047	yaw:	37.813	yaw rate:	-5.391	Roll:	-10.182	Pitch:	-1.852	Yaw:	53.456	Thrust:	99.544
Time:	3.515	Roll Set Point:	0.568	Pitch Set Point:	0.285	Yaw Set Point:	-0.661	X_WP:	0.000	Y_WP:	0.000	Y_WP:	0.500	X:	-0.235	Y:	-0.240	Z:	0.047	yaw:	37.886	yaw rate:	7.307	Roll:	-10.319	Pitch:	-0.942	Yaw:	55.685	Thrust:	100.000
Time:	3.531	Roll Set Point:	0.568	Pitch Set Point:	0.285	Yaw Set Point:	-0.660	X_WP:	0.000	Y_WP:	0.000	Y_WP:	0.500	X:	-0.235	Y:	-0.240	Z:	0.047	yaw:	37.815	yaw rate:	-7.062	Roll:	-10.153	Pitch:	-1.949	Yaw:	53.179	Thrust:	100.000
Time:	3.547	Roll Set Point:	0.568	Pitch Set Point:	0.285	Yaw Set Point:	-0.660	X_WP:	0.000	Y_WP:	0.000	Y_WP:	0.500	X:	-0.235	Y:	-0.240	Z:	0.047	yaw:	37.836	yaw rate:	2.136	Roll:	-10.286	Pitch:	-1.375	Yaw:	54.750	Thrust:	100.000
Time:	3.562	Roll Set Point:	0.568	Pitch Set Point:	0.285	Yaw Set Point:	-0.661	X_WP:	0.000	Y_WP:	0.000	Y_WP:	0.500	X:	-0.235	Y:	-0.240	Z:	0.047	yaw:	37.897	yaw rate:	6.017	Roll:	-10.325	Pitch:	-1.039	Yaw:	55.484	Thrust:	100.000
Time:	3.578	Roll Set Point:	0.568	Pitch Set Point:	0.285	Yaw Set Point:	-0.661	X_WP:	0.000	Y_WP:	0.000	Y_WP:	0.500	X:	-0.235	Y:	-0.240	Z:	0.047	yaw:	37.882	yaw rate:	-1.472	Roll:	-10.222	Pitch:	-1.542	Yaw:	54.209	Thrust:	100.000
Time:	3.593	Roll Set Point:	0.568	Pitch Set Point:	0.285	Yaw Set Point:	-0.660	X_WP:	0.000	Y_WP:	0.000	Y_WP:	0.500	X:	-0.235	Y:	-0.240	Z:	0.047	yaw:	37.820	yaw rate:	-6.174	Roll:	-10.175	Pitch:	-1.880	Yaw:	53.335	Thrust:	100.000
Time:	3.609	Roll Set Point:	0.568	Pitch Set Point:	0.285	Yaw Set Point:	-0.660	X_WP:	0.000	Y_WP:	0.000	Y_WP:	0.500	X:	-0.235	Y:	-0.240	Z:	0.047	yaw:	37.820	yaw rate:	-6.174	Roll:	-10.246	Pitch:	-1.482	Yaw:	54.372	Thrust:	100.000
Time:	3.625	Roll Set Point:	0.568	Pitch Set Point:	0.285	Yaw Set Point:	-0.660	X_WP:	0.000	Y_WP:	0.000	Y_WP:	0.500	X:	-0.235	Y:	-0.240	Z:	0.047	yaw:	37.832	yaw rate:	-0.612	Roll:	-10.232	Pitch:	-1.426	Yaw:	54.585	Thrust:	100.000
Time:	3.640	Roll Set Point:	0.568	Pitch Set Point:	0.285	Yaw Set Point:	-0.660	X_WP:	0.000	Y_WP:	0.000	Y_WP:	0.500	X:	-0.235	Y:	-0.240	Z:	0.047	yaw:	37.832	yaw rate:	-0.612	Roll:	-10.243	Pitch:	-1.484	Yaw:	54.383	Thrust:	100.000
Time:	3.656	Roll Set Point:	0.568	Pitch Set Point:	0.285	Yaw Set Point:	-0.661	X_WP:	0.000	Y_WP:	0.000	Y_WP:	0.500	X:	-0.235	Y:	-0.240	Z:	0.047	yaw:	37.866	yaw rate:	2.127	Roll:	-10.296	Pitch:	-1.238	Yaw:	55.010	Thrust:	100.000
Time:	3.672	Roll Set Point:	0.568	Pitch Set Point:	0.285	Yaw Set Point:	-0.661	X_WP:	0.000	Y_WP:	0.000	Y_WP:	0.500	X:	-0.235	Y:	-0.240	Z:	0.047	yaw:	37.866	yaw rate:	2.127	Roll:	-10.246	Pitch:	-1.481	Yaw:	54.434	Thrust:	100.000
Time:	3.687	Roll Set Point:	0.568	Pitch Set Point:	0.285	Yaw Set Point:	-0.660	X_WP:	0.000	Y_WP:	0.000	Y_WP:	0.500	X:	-0.235	Y:	-0.240	Z:	0.047	yaw:	37.830	yaw rate:	-3.612	Roll:	-10.195	Pitch:	-1.714	Yaw:	53.792	Thrust:	100.000
Time:	3.703	Roll Set Point:	0.568	Pitch Set Point:	0.285	Yaw Set Point:	-0.661	X_WP:	0.000	Y_WP:	0.000	Y_WP:	0.500	X:	-0.235	Y:	-0.240	Z:	0.047	yaw:	37.868	yaw rate:	5.802	Roll:	-10.299	Pitch:	-1.241	Yaw:	55.068	Thrust:	100.000
Time:	3.718	Roll Set Point:	0.568	Pitch Set Point:	0.286	Yaw Set Point:	-0.659	X_WP:	0.000	Y_WP:	0.000	Y_WP:	0.500	X:	-0.235	Y:	-0.240	Z:	0.047	yaw:	37.785	yaw rate:	-8.305	Roll:	-10.167	Pitch:	-2.034	Yaw:	52.929	Thrust:	100.000
Time:	3.734	Roll Set Point:	0.568	Pitch Set Point:	0.285	Yaw Set Point:	-0.660	X_WP:	0.000	Y_WP:	0.000	Y_WP:	0.500	X:	-0.235	Y:	-0.240	Z:	0.047	yaw:	37.827	yaw rate:	4.196	Roll:	-10.270	Pitch:	-1.252	Yaw:	55.082	Thrust:	100.000
Time:	3.750	Roll Set Point:	0.568	Pitch Set Point:	0.285	Yaw Set Point:	-0.661	X_WP:	0.000	Y_WP:	0.000	Y_WP:	0.500	X:	-0.235	Y:	-0.240	Z:	0.047	yaw:	37.860	yaw rate:	3.323	Roll:	-10.301	Pitch:	-1.266	Yaw:	54.984	Thrust:	100.000
Time:	3.765	Roll Set Point:	0.568	Pitch Set Point:	0.285	Yaw Set Point:	-0.661	X_WP:	0.000	Y_WP:	0.000	Y_WP:	0.500	X:	-0.235	Y:	-0.240	Z:	0.047	yaw:	37.846	yaw rate:	-1.418	Roll:	-10.225	Pitch:	-1.612	Yaw:	54.165	Thrust:	100.000
Time:	3.781	Roll Set Point:	0.568	Pitch Set Point:	0.285	Yaw Set Point:	-0.660	X_WP:	0.000	Y_WP:	0.000	Y_WP:	0.500	X:	-0.235	Y:	-0.240	Z:	0.047	yaw:	37.821	yaw rate:	-2.511	Roll:	-10.197	Pitch:	-1.630	Yaw:	53.950	Thrust:	100.000
Time:	3.797	Roll Set Point:	0.568	Pitch Set Point:	0.285	Yaw Set Point:	-0.660	X_WP:	0.000	Y_WP:	0.000	Y_WP:	0.500	X:	-0.235	Y:	-0.240	Z:	0.047	yaw:	37.826	yaw rate:	0.454	Roll:	-10.270	Pitch:	-1.539	Yaw:	54.453	Thrust:	100.000
Time:	3.812	Roll Set Point:	0.568	Pitch Set Point:	0.285	Yaw Set Point:	-0.660	X_WP:	0.000	Y_WP:	0.000	Y_WP:	0.500	X:	-0.235	Y:	-0.240	Z:	0.047	yaw:	37.815	yaw rate:	-1.016	Roll:	-10.236	Pitch:	-1.491	Yaw:	54.193	Thrust:	100.000
Time:	3.828	Roll Set Point:	0.569	Pitch Set Point:	0.285	Yaw Set Point:	-0.661	X_WP:	0.000	Y_WP:	0.000	Y_WP:	0.500	X:	-0.235	Y:	-0.240	Z:	0.047	yaw:	37.885	yaw rate:	6.937	Roll:	-10.456	Pitch:	-1.268	Yaw:	55.623	Thrust:	100.000
Time:	3.844	Roll Set Point:	0.569	Pitch Set Point:	0.285	Yaw Set Point:	-0.662	X_WP:	0.000	Y_WP:	0.000	Y_WP:	0.500	X:	-0.235	Y:	-0.240	Z:	0.047	yaw:	37.915	yaw rate:	3.025	Roll:	-10.189	Pitch:	-1.106	Yaw:	55.058	Thrust:	100.000
Time:	3.860	Roll Set Point:	0.569	Pitch Set Point:	0.285	Yaw Set Point:	-0.662	X_WP:	0.000	Y_WP:	0.000	Y_WP:	0.500	X:	-0.235	Y:	-0.240	Z:	0.047	yaw:	37.915	yaw rate:	3.025	Roll:	-10.248	Pitch:	-1.494	Yaw:	54.502	Thrust:	100.000
Time:	3.875	Roll Set Point:	0.568	Pitch Set Point:	0.286	Yaw Set Point:	-0.659	X_WP:	0.000	Y_WP:	0.000	Y_WP:	0.500	X:	-0.235	Y:	-0.240	Z:	0.047	yaw:	37.786	yaw rate:	-4.771	Roll:	-10.061	Pitch:	-2.356	Yaw:	52.160	Thrust:	100.000
Time:	3.891	Roll Set Point:	0.568	Pitch Set Point:	0.285	Yaw Set Point:	-0.661	X_WP:	0.000	Y_WP:	0.000	Y_WP:	0.500	X:	-0.235	Y:	-0.240	Z:	0.047	yaw:	37.873	yaw rate:	8.670	Roll:	-10.493	Pitch:	-1.184	Yaw:	55.896	Thrust:	100.000
Time:	3.907	Roll Set Point:	0.568	Pitch Set Point:	0.285	Yaw Set Point:	-0.660	X_WP:	0.000	Y_WP:	0.000	Y_WP:	0.500	X:	-0.235	Y:	-0.240	Z:	0.047	yaw:	37.827	yaw rate:	-4.524	Roll:	-10.074	Pitch:	-1.622	Yaw:	53.617	Thrust:	100.000
Time:	3.922	Roll Set Point:	0.568	Pitch Set Point:	0.285	Yaw Set Point:	-0.661	X_WP:	0.000	Y_WP:	0.000	Y_WP:	0.500	X:	-0.235	Y:	-0.240	Z:	0.047	yaw:	37.844	yaw rate:	1.672	Roll:	-10.226	Pitch:	-1.341	Yaw:	54.683	Thrust:	100.000
Time:	3.938	Roll Set Point:	0.568	Pitch Set Point:	0.285	Yaw Set Point:	-0.660	X_WP:	0.000	Y_WP:	0.000	Y_WP:	0.500	X:	-0.235	Y:	-0.240	Z:	0.047	yaw:	37.828	yaw rate:	-1.659	Roll:	-10.244	Pitch:	-1.684	Yaw:	54.102	Thrust:	100.000
Time:	3.954	Roll Set Point:	0.568	Pitch Set Point:	0.285	Yaw Set Point:	-0.660	X_WP:	0.000	Y_WP:	0.000	Y_WP:	0.500	X:	-0.235	Y:	-0.240	Z:	0.047	yaw:	37.828	yaw rate:	-1.659	Roll:	-10.244	Pitch:	-1.520	Yaw:	54.380	Thrust:	100.000
Time:	3.969	Roll Set Point:	0.568	Pitch Set Point:	0.285	Yaw Set Point:	-0.661	X_WP:	0.000	Y_WP:	0.000	Y_WP:	0.500	X:	-0.235	Y:	-0.240	Z:	0.047	yaw:	37.844	yaw rate:	1.658	Roll:	-10.264	Pitch:	-1.417	Yaw:	54.681	Thrust:	100.000
Time:	3.985	Roll Set Point:	0.568	Pitch Set Point:	0.285	Yaw Set Point:	-0.661	X_WP:	0.000	Y_WP:	0.000	Y_WP:	0.500	X:	-0.235	Y:	-0.240	Z:	0.047	yaw:	37.844	yaw rate:	1.658	Roll:	-10.245	Pitch:	-1.521	Yaw:	54.403	Thrust:	100.000
Time:	4.001	Roll Set Point:	0.568	Pitch Set Point:	0.285	Yaw Set Point:	-0.661	X_WP:	0.000	Y_WP:	0.000	Y_WP:	0.500	X:	-0.235	Y:	-0.240	Z:	0.047	yaw:	37.887	yaw rate:	4.313	Roll:	-10.335	Pitch:	-1.203	Yaw:	55.186	Thrust:	100.000
Time:	4.016	Roll Set Point:	0.568	Pitch Set Point:	0.285	Yaw Set Point:	-0.661	X_WP:	0.000	Y_WP:	0.000	Y_WP:	0.500	X:	-0.235	Y:	-0.240	Z:	0.047	yaw:	37.858	yaw rate:	-2.905	Roll:	-10.191	Pitch:	-1.744	Yaw:	53.936	Thrust:	100.000
Time:	4.032	Roll Set Point:	0.568	Pitch Set Point:	0.286	Yaw Set Point:	-0.660	X_WP:	0.000	Y_WP:	0.000	Y_WP:	0.500	X:	-0.235	Y:	-0.240	Z:	0.047	yaw:	37.797	yaw rate:	-0.787	Roll:	-10.182	Pitch:	-1.945	Yaw:	53.307	Thrust:	100.000
Time:	4.047	Roll Set Point:	0.568	Pitch Set Point:	0.286	Yaw Set Point:	-0.660	X_WP:	0.000	Y_WP:	0.000	Y_WP:	0.500	X:	-0.235	Y:	-0.240	Z:	0.047	yaw:	37.797	yaw rate:	-0.787	Roll:	-10.244	Pitch:	-1.537	Yaw:	54.336	Thrust:	100.000
Time:	4.063	Roll Set Point:	0.568	Pitch Set Point:	0.285	Yaw Set Point:	-0.660	X_WP:	0.000	Y_WP:	0.000	Y_WP:	0.500	X:	-0.235	Y:	-0.240	Z:	0.047	yaw:	37.821	yaw rate:	-2.491	Roll:	-10.235	Pitch:	-1.309	Yaw:	54.782	Thrust:	100.000
Time:	4.079	Roll Set Point:	0.568	Pitch Set Point:	0.285	Yaw Set Point:	-0.661	X_WP:	0.000	Y_WP:	0.000	Y_WP:	0.500	X:	-0.235	Y:	-0.240	Z:	0.047	yaw:	37.852	yaw rate:	3.120	Roll:	-10.275	Pitch:	-1.332	Yaw:	54.937	Thrust:	100.000
Time:	4.094	Roll Set Point:	0.568	Pitch Set Point:	0.285	Yaw Set Point:	-0.661	X_WP:	0.000	Y_WP:	0.000	Y_WP:	0.500	X:	-0.235	Y:	-0.240	Z:	0.047	yaw:	37.891	yaw rate:	3.861	Roll:	-10.321	Pitch:	-1.284	Yaw:	55.117	Thrust:	100.000
Time:	4.110	Roll Set Point:	0.568	Pitch Set Point:	0.285	Yaw Set Point:	-0.661	X_WP:	0.000	Y_WP:	0.000	Y_WP:	0.500	X:	-0.235	Y:	-0.240	Z:	0.047	yaw:	37.891	yaw rate:	3.861	Roll:	-10.245	Pitch:	-1.526	Yaw:	54.465	Thrust:	100.000
Time:	4.126	Roll Set Point:	0.568	Pitch Set Point:	0.285	Yaw Set Point:	-0.661	X_WP:	0.000	Y_WP:	0.000	Y_WP:	0.500	X:	-0.235	Y:	-0.240	Z:	0.047	yaw:	37.878	yaw rate:	5.981	Roll:	-10.247	Pitch:	-1.599	Yaw:	54.236	Thrust:	100.000
Time:	4.141	Roll Set Point:	0.568	Pitch Set Point:	0.285	Yaw Set Point:	-0.661	X_WP:	0.000	Y_WP:	0.000	Y_WP:	0.500	X:	-0.235	Y:	-0.240	Z:	0.047	yaw:	37.878	yaw rate:	5.981	Roll:	-10.246	Pitch:	-1.531	Yaw:	54.450	Thrust:	100.000
Time:	4.157	Roll Set Point:	0.568	Pitch Set Point:	0.285	Yaw Set Point:	-0.661	X_WP:	0.000	Y_WP:	0.000	Y_WP:	0.500	X:	-0.235	Y:	-0.240	Z:	0.047	yaw:	37.874	yaw rate:	8.899	Roll:	-10.209	Pitch:	-1.562	Yaw:	54.380	Thrust:	100.000
Time:	4.172	Roll Set Point:	0.568	Pitch Set Point:	0.286	Yaw Set Point:	-0.659	X_WP:	0.000	Y_WP:	0.000	Y_WP:	0.500	X:	-0.235	Y:	-0.240	Z:	0.047	yaw:	37.760	yaw rate:	-11.381	Roll:	-10.129	Pitch:	-2.375	Yaw:	52.372	Thrust:	100.000
Time:	4.188	Roll Set Point:	0.568	Pitch Set Point:	0.286	Yaw Set Point:	-0.659	X_WP:	0.000	Y_WP:	0.000	Y_WP:	0.500	X:	-0.235	Y:	-0.240	Z:	0.047	yaw:	37.760	yaw rate:	-11.381	Roll:	-10.244	Pitch:	-1.560	Yaw:	54.289	Thrust:	100.000
Time:	4.204	Roll Set Point:	0.568	Pitch Set Point:	0.285	Yaw Set Point:	-0.660	X_WP:	0.000	Y_WP:	0.000	Y_WP:	0.500	X:	-0.235	Y:	-0.240	Z:	0.047	yaw:	37.807	yaw rate:	4.660	Roll:	-10.286	Pitch:	-1.182	Yaw:	55.130	Thrust:	100.000
Time:	4.219	Roll Set Point:	0.568	Pitch Set Point:	0.285	Yaw Set Point:	-0.661	X_WP:	0.000	Y_WP:	0.000	Y_WP:	0.500	X:	-0.235	Y:	-0.240	Z:	0.047	yaw:	37.859	yaw rate:	5.187	Roll:	-10.319	Pitch:	-1.262	Yaw:	55.292	Thrust:	100.000
Time:	4.235	Roll Set Point:	0.568	Pitch Set Point:	0.285	Yaw Set Point:	-0.661	X_WP:	0.000	Y_WP:	0.000	Y_WP:	0.500	X:	-0.235	Y:	-0.240	Z:	0.047	yaw:	37.849	yaw rate:	-0.946	Roll:	-10.213	Pitch:	-1.552	Yaw:	54.252	Thrust:	100.000
Time:	4.251	Roll Set Point:	0.568	Pitch Set Point:	0.285	Yaw Set Point:	-0.661	X_WP:	0.000	Y_WP:	0.000	Y_WP:	0.500	X:	-0.235	Y:	-0.240	Z:	0.047	yaw:	37.870	yaw rate:	8.693	Roll:	-10.318	Pitch:	-1.438	Yaw:	54.778	Thrust:	100.000
Time:	4.266	Roll Set Point:	0.568	Pitch Set Point:	0.285	Yaw Set Point:	-0.661	X_WP:	0.000	Y_WP:	0.000	Y_WP:	0.500	X:	-0.235	Y:	-0.240	Z:	0.047	yaw:	37.870	yaw rate:	8.693	Roll:	-10.248	Pitch:	-1.549	Yaw:	54.442	Thrust:	100.000
Time:	4.282	Roll Set Point:	0.568	Pitch Set Point:	0.285	Yaw Set Point:	-0.660	X_WP:	0.000	Y_WP:	0.000	Y_WP:	0.500	X:	-0.235	Y:	-0.240	Z:	0.047	yaw:	37.839	yaw rate:	-3.096	Roll:	-10.164	Pitch:	-1.766	Yaw:	53.873	Thrust:	100.000
Time:	4.297	Roll Set Point:	0.568	Pitch Set Point:	0.286	Yaw Set Point:	-0.659	X_WP:	0.000	Y_WP:	0.000	Y_WP:	0.500	X:	-0.235	Y:	-0.240	Z:	0.047	yaw:	37.744	yaw rate:	-11.645	Roll:	-10.163	Pitch:	-2.212	Yaw:	52.676	Thrust:	100.000
Time:	4.313	Roll Set Point:	0.568	Pitch Set Point:	0.285	Yaw Set Point:	-0.661	X_WP:	0.000	Y_WP:	0.000	Y_WP:	0.500	X:	-0.235	Y:	-0.240	Z:	0.047	yaw:	37.861	yaw rate:	11.676	Roll:	-10.335	Pitch:	-0.719	Yaw:	56.382	Thrust:	100.000
Time:	4.329	Roll Set Point:	0.568	Pitch Set Point:	0.286	Yaw Set Point:	-0.660	X_WP:	0.000	Y_WP:	0.000	Y_WP:	0.500	X:	-0.235	Y:	-0.240	Z:	0.047	yaw:	37.792	yaw rate:	-6.846	Roll:	-10.174	Pitch:	-2.062	Yaw:	53.190	Thrust:	100.000
Time:	4.344	Roll Set Point:	0.569	Pitch Set Point:	0.285	Yaw Set Point:	-0.662	X_WP:	0.000	Y_WP:	0.000	Y_WP:	0.500	X:	-0.235	Y:	-0.240	Z:	0.047	yaw:	37.927	yaw rate:	13.473	Roll:	-10.554	Pitch:	-0.848	Yaw:	56.777	Thrust:	100.000
Time:	4.360	Roll Set Point:	0.568	Pitch Set Point:	0.285	Yaw Set Point:	-0.660	X_WP:	0.000	Y_WP:	0.000	Y_WP:	0.500	X:	-0.235	Y:	-0.240	Z:	0.047	yaw:	37.841	yaw rate:	-8.623	Roll:	-10.019	Pitch:	-1.911	Yaw:	52.954	Thrust:	100.000
Time:	4.376	Roll Set Point:	0.568	Pitch Set Point:	0.285	Yaw Set Point:	-0.660	X_WP:	0.000	Y_WP:	0.000	Y_WP:	0.500	X:	-0.235	Y:	-0.240	Z:	0.047	yaw:	37.841	yaw rate:	-8.623	Roll:	-10.245	Pitch:	-1.564	Yaw:	54.398	Thrust:	100.000
Time:	4.391	Roll Set Point:	0.568	Pitch Set Point:	0.286	Yaw Set Point:	-0.659	X_WP:	0.000	Y_WP:	0.000	Y_WP:	0.500	X:	-0.235	Y:	-0.240	Z:	0.047	yaw:	37.785	yaw rate:	-2.975	Roll:	-10.158	Pitch:	-1.989	Yaw:	53.391	Thrust:	100.000
Time:	4.407	Roll Set Point:	0.568	Pitch Set Point:	0.285	Yaw Set Point:	-0.660	X_WP:	0.000	Y_WP:	0.000	Y_WP:	0.500	X:	-0.235	Y:	-0.240	Z:	0.047	yaw:	37.837	yaw rate:	5.180	Roll:	-10.295	Pitch:	-1.182	Yaw:	55.261	Thrust:	100.000
Time:	4.422	Roll Set Point:	0.569	Pitch Set Point:	0.285	Yaw Set Point:	-0.661	X_WP:	0.000	Y_WP:	0.000	Y_WP:	0.500	X:	-0.235	Y:	-0.240	Z:	0.047	yaw:	37.889	yaw rate:	5.202	Roll:	-10.470	Pitch:	-1.458	Yaw:	55.337	Thrust:	100.000
Time:	4.438	Roll Set Point:	0.568	Pitch Set Point:	0.285	Yaw Set Point:	-0.660	X_WP:	0.000	Y_WP:	0.000	Y_WP:	0.500	X:	-0.235	Y:	-0.240	Z:	0.047	yaw:	37.829	yaw rate:	-6.052	Roll:	-10.049	Pitch:	-1.757	Yaw:	53.368	Thrust:	100.000
Time:	4.454	Roll Set Point:	0.568	Pitch Set Point:	0.285	Yaw Set Point:	-0.660	X_WP:	0.000	Y_WP:	0.000	Y_WP:	0.500	X:	-0.235	Y:	-0.240	Z:	0.047	yaw:	37.829	yaw rate:	-6.052	Roll:	-10.246	Pitch:	-1.577	Yaw:	54.385	Thrust:	100.000
Time:	4.469	Roll Set Point:	0.569	Pitch Set Point:	0.285	Yaw Set Point:	-0.661	X_WP:	0.000	Y_WP:	0.000	Y_WP:	0.500	X:	-0.235	Y:	-0.240	Z:	0.047	yaw:	37.894	yaw rate:	6.546	Roll:	-10.419	Pitch:	-1.301	Yaw:	55.568	Thrust:	100.000
Time:	4.485	Roll Set Point:	0.568	Pitch Set Point:	0.285	Yaw Set Point:	-0.660	X_WP:	0.000	Y_WP:	0.000	Y_WP:	0.500	X:	-0.235	Y:	-0.240	Z:	0.047	yaw:	37.797	yaw rate:	-9.720	Roll:	-10.025	Pitch:	-2.048	Yaw:	52.709	Thrust:	100.000
Time:	4.501	Roll Set Point:	0.568	Pitch Set Point:	0.285	Yaw Set Point:	-0.661	X_WP:	0.000	Y_WP:	0.000	Y_WP:	0.500	X:	-0.235	Y:	-0.240	Z:	0.047	yaw:	37.889	yaw rate:	9.218	Roll:	-10.360	Pitch:	-1.047	Yaw:	56.010	Thrust:	100.000
Time:	4.516	Roll Set Point:	0.568	Pitch Set Point:	0.285	Yaw Set Point:	-0.660	X_WP:	0.000	Y_WP:	0.000	Y_WP:	0.500	X:	-0.235	Y:	-0.240	Z:	0.047	yaw:	37.832	yaw rate:	0.701	Roll:	-10.185	Pitch:	-1.918	Yaw:	53.425	Thrust:	100.000
Time:	4.532	Roll Set Point:	0.568	Pitch Set Point:	0.285	Yaw Set Point:	-0.660	X_WP:	0.000	Y_WP:	0.000	Y_WP:	0.500	X:	-0.235	Y:	-0.240	Z:	0.047	yaw:	37.816	yaw rate:	-1.540	Roll:	-10.197	Pitch:	-1.632	Yaw:	54.107	Thrust:	100.000
Time:	4.547	Roll Set Point:	0.568	Pitch Set Point:	0.285	Yaw Set Point:	-0.661	X_WP:	0.000	Y_WP:	0.000	Y_WP:	0.500	X:	-0.235	Y:	-0.240	Z:	0.047	yaw:	37.852	yaw rate:	3.622	Roll:	-10.312	Pitch:	-1.390	Yaw:	55.023	Thrust:	100.000
Time:	4.563	Roll Set Point:	0.568	Pitch Set Point:	0.285	Yaw Set Point:	-0.661	X_WP:	0.000	Y_WP:	0.000	Y_WP:	0.500	X:	-0.235	Y:	-0.240	Z:	0.047	yaw:	37.852	yaw rate:	3.622	Roll:	-10.246	Pitch:	-1.585	Yaw:	54.417	Thrust:	100.000
Time:	4.579	Roll Set Point:	0.568	Pitch Set Point:	0.285	Yaw Set Point:	-0.661	X_WP:	0.000	Y_WP:	0.000	Y_WP:	0.500	X:	-0.235	Y:	-0.240	Z:	0.047	yaw:	37.861	yaw rate:	-0.634	Roll:	-10.248	Pitch:	-1.510	Yaw:	54.564	Thrust:	100.000
Time:	4.594	Roll Set Point:	0.568	Pitch Set Point:	0.285	Yaw Set Point:	-0.661	X_WP:	0.000	Y_WP:	0.000	Y_WP:	0.500	X:	-0.235	Y:	-0.240	Z:	0.047	yaw:	37.861	yaw rate:	-0.634	Roll:	-10.243	Pitch:	-1.585	Yaw:	54.421	Thrust:	100.000
Time:	4.610	Roll Set Point:	0.568	Pitch Set Point:	0.286	Yaw Set Point:	-0.659	X_WP:	0.000	Y_WP:	0.000	Y_WP:	0.500	X:	-0.235	Y:	-0.240	Z:	0.047	yaw:	37.774	yaw rate:	-6.573	Roll:	-10.132	Pitch:	-2.213	Yaw:	52.846	Thrust:	100.000
Time:	4.626	Roll Set Point:	0.568	Pitch Set Point:	0.285	Yaw Set Point:	-0.661	X_WP:	0.000	Y_WP:	0.000	Y_WP:	0.500	X:	-0.235	Y:	-0.240	Z:	0.047	yaw:	37.859	yaw rate:	8.525	Roll:	-10.378	Pitch:	-1.083	Yaw:	55.852	Thrust:	100.000
Time:	4.641	Roll Set Point:	0.568	Pitch Set Point:	0.285	Yaw Set Point:	-0.662	X_WP:	0.000	Y_WP:	0.000	Y_WP:	0.500	X:	-0.235	Y:	-0.240	Z:	0.047	yaw:	37.903	yaw rate:	4.369	Roll:	-10.286	Pitch:	-1.207	Yaw:	55.216	Thrust:	100.000
Time:	4.657	Roll Set Point:	0.568	Pitch Set Point:	0.285	Yaw Set Point:	-0.662	X_WP:	0.000	Y_WP:	0.000	Y_WP:	0.500	X:	-0.235	Y:	-0.240	Z:	0.047	yaw:	37.903	yaw rate:	4.369	Roll:	-10.247	Pitch:	-1.586	Yaw:	54.485	Thrust:	100.000
Time:	4.672	Roll Set Point:	0.568	Pitch Set Point:	0.285	Yaw Set Point:	-0.660	X_WP:	0.000	Y_WP:	0.000	Y_WP:	0.500	X:	-0.235	Y:	-0.240	Z:	0.047	yaw:	37.825	yaw rate:	-3.775	Roll:	-10.172	Pitch:	-2.170	Yaw:	53.069	Thrust:	100.000
Time:	4.688	Roll Set Point:	0.568	Pitch Set Point:	0.285	Yaw Set Point:	-0.660	X_WP:	0.000	Y_WP:	0.000	Y_WP:	0.500	X:	-0.235	Y:	-0.240	Z:	0.047	yaw:	37.825	yaw rate:	-3.775	Roll:	-10.246	Pitch:	-1.605	Yaw:	54.379	Thrust:	100.000
Time:	4.704	Roll Set Point:	0.568	Pitch Set Point:	0.285	Yaw Set Point:	-0.661	X_WP:	0.000	Y_WP:	0.000	Y_WP:	0.500	X:	-0.235	Y:	-0.240	Z:	0.047	yaw:	37.893	yaw rate:	6.627	Roll:	-10.282	Pitch:	-1.083	Yaw:	55.610	Thrust:	100.000
Time:	4.719	Roll Set Point:	0.568	Pitch Set Point:	0.285	Yaw Set Point:	-0.661	X_WP:	0.000	Y_WP:	0.000	Y_WP:	0.500	X:	-0.235	Y:	-0.240	Z:	0.047	yaw:	37.893	yaw rate:	6.627	Roll:	-10.247	Pitch:	-1.595	Yaw:	54.474	Thrust:	100.000
Time:	4.735	Roll Set Point:	0.568	Pitch Set Point:	0.285	Yaw Set Point:	-0.661	X_WP:	0.000	Y_WP:	0.000	Y_WP:	0.500	X:	-0.235	Y:	-0.240	Z:	0.047	yaw:	37.853	yaw rate:	-3.997	Roll:	-10.195	Pitch:	-1.854	Yaw:	53.741	Thrust:	100.000
Time:	4.751	Roll Set Point:	0.568	Pitch Set Point:	0.286	Yaw Set Point:	-0.659	X_WP:	0.000	Y_WP:	0.000	Y_WP:	0.500	X:	-0.235	Y:	-0.240	Z:	0.047	yaw:	37.778	yaw rate:	-7.476	Roll:	-10.197	Pitch:	-2.179	Yaw:	53.063	Thrust:	100.000
Time:	4.766	Roll Set Point:	0.568	Pitch Set Point:	0.285	Yaw Set Point:	-0.660	X_WP:	0.000	Y_WP:	0.000	Y_WP:	0.500	X:	-0.235	Y:	-0.240	Z:	0.047	yaw:	37.844	yaw rate:	6.576	Roll:	-10.309	Pitch:	-1.145	Yaw:	55.503	Thrust:	100.000
Time:	4.782	Roll Set Point:	0.568	Pitch Set Point:	0.285	Yaw Set Point:	-0.661	X_WP:	0.000	Y_WP:	0.000	Y_WP:	0.500	X:	-0.235	Y:	-0.240	Z:	0.047	yaw:	37.858	yaw rate:	3.259	Roll:	-10.236	Pitch:	-1.525	Yaw:	54.668	Thrust:	100.000
Time:	4.797	Roll Set Point:	0.568	Pitch Set Point:	0.285	Yaw Set Point:	-0.661	X_WP:	0.000	Y_WP:	0.000	Y_WP:	0.500	X:	-0.235	Y:	-0.240	Z:	0.047	yaw:	37.867	yaw rate:	0.924	Roll:	-10.283	Pitch:	-1.502	Yaw:	54.590	Thrust:	100.000
Time:	4.813	Roll Set Point:	0.568	Pitch Set Point:	0.285	Yaw Set Point:	-0.662	X_WP:	0.000	Y_WP:	0.000	Y_WP:	0.500	X:	-0.235	Y:	-0.240	Z:	0.047	yaw:	37.904	yaw rate:	3.627	Roll:	-10.288	Pitch:	-1.431	Yaw:	55.094	Thrust:	100.000
Time:	4.829	Roll Set Point:	0.568	Pitch Set Point:	0.285	Yaw Set Point:	-0.661	X_WP:	0.000	Y_WP:	0.000	Y_WP:	0.500	X:	-0.235	Y:	-0.240	Z:	0.047	yaw:	37.865	yaw rate:	-3.894	Roll:	-10.211	Pitch:	-1.849	Yaw:	53.780	Thrust:	100.000
Time:	4.860	Roll Set Point:	0.568	Pitch Set Point:	0.285	Yaw Set Point:	-0.660	X_WP:	0.000	Y_WP:	0.000	Y_WP:	0.500	X:	-0.235	Y:	-0.240	Z:	0.047	yaw:	37.833	yaw rate:	3.046	Roll:	-10.785	Pitch:	-2.023	Yaw:	55.646	Thrust:	100.000
Time:	4.875	Roll Set Point:	0.568	Pitch Set Point:	0.285	Yaw Set Point:	-0.661	X_WP:	0.000	Y_WP:	0.000	Y_WP:	0.500	X:	-0.235	Y:	-0.240	Z:	0.047	yaw:	37.863	yaw rate:	2.953	Roll:	-10.329	Pitch:	-1.420	Yaw:	54.926	Thrust:	100.000
Time:	4.891	Roll Set Point:	0.568	Pitch Set Point:	0.285	Yaw Set Point:	-0.661	X_WP:	0.000	Y_WP:	0.000	Y_WP:	0.500	X:	-0.235	Y:	-0.240	Z:	0.047	yaw:	37.863	yaw rate:	2.953	Roll:	-10.246	Pitch:	-1.618	Yaw:	54.426	Thrust:	100.000
Time:	4.906	Roll Set Point:	0.568	Pitch Set Point:	0.285	Yaw Set Point:	-0.660	X_WP:	0.000	Y_WP:	0.000	Y_WP:	0.500	X:	-0.235	Y:	-0.240	Z:	0.047	yaw:	37.826	yaw rate:	-3.401	Roll:	-10.122	Pitch:	-1.841	Yaw:	53.750	Thrust:	100.000
Time:	4.922	Roll Set Point:	0.568	Pitch Set Point:	0.286	Yaw Set Point:	-0.659	X_WP:	0.000	Y_WP:	0.000	Y_WP:	0.500	X:	-0.235	Y:	-0.240	Z:	0.047	yaw:	37.762	yaw rate:	-6.375	Roll:	-10.214	Pitch:	-2.065	Yaw:	53.223	Thrust:	100.000
Time:	4.938	Roll Set Point:	0.568	Pitch Set Point:	0.285	Yaw Set Point:	-0.660	X_WP:	0.000	Y_WP:	0.000	Y_WP:	0.500	X:	-0.235	Y:	-0.240	Z:	0.047	yaw:	37.822	yaw rate:	6.023	Roll:	-10.289	Pitch:	-1.276	Yaw:	55.380	Thrust:	100.000
Time:	4.953	Roll Set Point:	0.568	Pitch Set Point:	0.285	Yaw Set Point:	-0.660	X_WP:	0.000	Y_WP:	0.000	Y_WP:	0.500	X:	-0.235	Y:	-0.240	Z:	0.047	yaw:	37.822	yaw rate:	6.023	Roll:	-10.246	Pitch:	-1.634	Yaw:	54.378	Thrust:	100.000
Time:	4.969	Roll Set Point:	0.568	Pitch Set Point:	0.285	Yaw Set Point:	-0.660	X_WP:	0.000	Y_WP:	0.000	Y_WP:	0.500	X:	-0.235	Y:	-0.240	Z:	0.047	yaw:	37.803	yaw rate:	-1.926	Roll:	-10.227	Pitch:	-1.715	Yaw:	54.016	Thrust:	100.000
Time:	4.985	Roll Set Point:	0.568	Pitch Set Point:	0.285	Yaw Set Point:	-0.660	X_WP:	0.000	Y_WP:	0.000	Y_WP:	0.500	X:	-0.235	Y:	-0.240	Z:	0.047	yaw:	37.806	yaw rate:	-8.203	Roll:	-10.228	Pitch:	-1.630	Yaw:	54.397	Thrust:	100.000
Time:	5.000	Roll Set Point:	0.568	Pitch Set Point:	0.285	Yaw Set Point:	-0.661	X_WP:	0.000	Y_WP:	0.000	Y_WP:	0.500	X:	-0.235	Y:	-0.240	Z:	0.047	yaw:	37.850	yaw rate:	4.481	Roll:	-10.327	Pitch:	-1.356	Yaw:	55.162	Thrust:	100.000
Time:	5.016	Roll Set Point:	0.568	Pitch Set Point:	0.285	Yaw Set Point:	-0.661	X_WP:	0.000	Y_WP:	0.000	Y_WP:	0.500	X:	-0.235	Y:	-0.240	Z:	0.047	yaw:	37.864	yaw rate:	1.412	Roll:	-10.241	Pitch:	-1.465	Yaw:	54.668	Thrust:	100.000
Time:	5.031	Roll Set Point:	0.568	Pitch Set Point:	0.285	Yaw Set Point:	-0.661	X_WP:	0.000	Y_WP:	0.000	Y_WP:	0.500	X:	-0.235	Y:	-0.240	Z:	0.047	yaw:	37.872	yaw rate:	0.712	Roll:	-10.270	Pitch:	-1.645	Yaw:	54.561	Thrust:	100.000
Time:	5.047	Roll Set Point:	0.568	Pitch Set Point:	0.285	Yaw Set Point:	-0.661	X_WP:	0.000	Y_WP:	0.000	Y_WP:	0.500	X:	-0.235	Y:	-0.240	Z:	0.047	yaw:	37.853	yaw rate:	-1.829	Roll:	-10.251	Pitch:	-1.741	Yaw:	54.110	Thrust:	100.000
Time:	5.063	Roll Set Point:	0.568	Pitch Set Point:	0.285	Yaw Set Point:	-0.660	X_WP:	0.000	Y_WP:	0.000	Y_WP:	0.500	X:	-0.235	Y:	-0.240	Z:	0.047	yaw:	37.804	yaw rate:	-4.888	Roll:	-10.136	Pitch:	-1.956	Yaw:	53.529	Thrust:	100.000
Time:	5.078	Roll Set Point:	0.568	Pitch Set Point:	0.285	Yaw Set Point:	-0.660	X_WP:	0.000	Y_WP:	0.000	Y_WP:	0.500	X:	-0.235	Y:	-0.240	Z:	0.047	yaw:	37.817	yaw rate:	1.253	Roll:	-10.237	Pitch:	-1.606	Yaw:	54.575	Thrust:	100.000
Time:	5.094	Roll Set Point:	0.568	Pitch Set Point:	0.286	Yaw Set Point:	-0.660	X_WP:	0.000	Y_WP:	0.000	Y_WP:	0.500	X:	-0.235	Y:	-0.240	Z:	0.047	yaw:	37.787	yaw rate:	-2.990	Roll:	-10.282	Pitch:	-1.853	Yaw:	53.822	Thrust:	100.000
Time:	5.110	Roll Set Point:	0.568	Pitch Set Point:	0.285	Yaw Set Point:	-0.660	X_WP:	0.000	Y_WP:	0.000	Y_WP:	0.500	X:	-0.235	Y:	-0.240	Z:	0.047	yaw:	37.830	yaw rate:	4.337	Roll:	-10.262	Pitch:	-1.409	Yaw:	55.112	Thrust:	100.000
Time:	5.125	Roll Set Point:	0.568	Pitch Set Point:	0.285	Yaw Set Point:	-0.660	X_WP:	0.000	Y_WP:	0.000	Y_WP:	0.500	X:	-0.235	Y:	-0.240	Z:	0.047	yaw:	37.830	yaw rate:	4.337	Roll:	-10.243	Pitch:	-1.651	Yaw:	54.381	Thrust:	100.000
Time:	5.141	Roll Set Point:	0.568	Pitch Set Point:	0.285	Yaw Set Point:	-0.661	X_WP:	0.000	Y_WP:	0.000	Y_WP:	0.500	X:	-0.235	Y:	-0.240	Z:	0.047	yaw:	37.897	yaw rate:	6.640	Roll:	-10.315	Pitch:	-1.113	Yaw:	55.589	Thrust:	100.000
Time:	5.157	Roll Set Point:	0.568	Pitch Set Point:	0.285	Yaw Set Point:	-0.661	X_WP:	0.000	Y_WP:	0.000	Y_WP:	0.500	X:	-0.235	Y:	-0.240	Z:	0.047	yaw:	37.891	yaw rate:	-0.633	Roll:	-10.262	Pitch:	-1.746	Yaw:	54.365	Thrust:	100.000
Time:	5.172	Roll Set Point:	0.568	Pitch Set Point:	0.285	Yaw Set Point:	-0.661	X_WP:	0.000	Y_WP:	0.000	Y_WP:	0.500	X:	-0.235	Y:	-0.240	Z:	0.047	yaw:	37.852	yaw rate:	1.640	Roll:	-10.208	Pitch:	-1.895	Yaw:	53.773	Thrust:	100.000
Time:	5.188	Roll Set Point:	0.568	Pitch Set Point:	0.285	Yaw Set Point:	-0.660	X_WP:	0.000	Y_WP:	0.000	Y_WP:	0.500	X:	-0.235	Y:	-0.240	Z:	0.047	yaw:	37.821	yaw rate:	-3.096	Roll:	-10.180	Pitch:	-1.842	Yaw:	53.852	Thrust:	100.000
Time:	5.203	Roll Set Point:	0.568	Pitch Set Point:	0.285	Yaw Set Point:	-0.660	X_WP:	0.000	Y_WP:	0.000	Y_WP:	0.500	X:	-0.235	Y:	-0.240	Z:	0.047	yaw:	37.821	yaw rate:	-3.096	Roll:	-10.244	Pitch:	-1.660	Yaw:	54.371	Thrust:	100.000
Time:	5.219	Roll Set Point:	0.568	Pitch Set Point:	0.285	Yaw Set Point:	-0.660	X_WP:	0.000	Y_WP:	0.000	Y_WP:	0.500	X:	-0.235	Y:	-0.240	Z:	0.047	yaw:	37.817	yaw rate:	-1.077	Roll:	-10.219	Pitch:	-1.696	Yaw:	54.287	Thrust:	100.000
Time:	5.235	Roll Set Point:	0.568	Pitch Set Point:	0.285	Yaw Set Point:	-0.662	X_WP:	0.000	Y_WP:	0.000	Y_WP:	0.500	X:	-0.235	Y:	-0.240	Z:	0.047	yaw:	37.907	yaw rate:	9.019	Roll:	-10.394	Pitch:	-1.047	Yaw:	56.002	Thrust:	100.000
Time:	5.250	Roll Set Point:	0.568	Pitch Set Point:	0.285	Yaw Set Point:	-0.661	X_WP:	0.000	Y_WP:	0.000	Y_WP:	0.500	X:	-0.235	Y:	-0.240	Z:	0.047	yaw:	37.872	yaw rate:	-3.498	Roll:	-10.182	Pitch:	-1.897	Yaw:	53.857	Thrust:	100.000
Time:	5.266	Roll Set Point:	0.568	Pitch Set Point:	0.285	Yaw Set Point:	-0.661	X_WP:	0.000	Y_WP:	0.000	Y_WP:	0.500	X:	-0.235	Y:	-0.240	Z:	0.047	yaw:	37.872	yaw rate:	-3.498	Roll:	-10.246	Pitch:	-1.659	Yaw:	54.442	Thrust:	100.000
Time:	5.282	Roll Set Point:	0.568	Pitch Set Point:	0.285	Yaw Set Point:	-0.660	X_WP:	0.000	Y_WP:	0.000	Y_WP:	0.500	X:	-0.235	Y:	-0.240	Z:	0.047	yaw:	37.803	yaw rate:	-4.378	Roll:	-10.172	Pitch:	-2.137	Yaw:	53.192	Thrust:	100.000
Time:	5.297	Roll Set Point:	0.568	Pitch Set Point:	0.285	Yaw Set Point:	-0.661	X_WP:	0.000	Y_WP:	0.000	Y_WP:	0.500	X:	-0.235	Y:	-0.240	Z:	0.047	yaw:	37.854	yaw rate:	5.094	Roll:	-10.304	Pitch:	-1.333	Yaw:	55.269	Thrust:	100.000
Time:	5.313	Roll Set Point:	0.568	Pitch Set Point:	0.285	Yaw Set Point:	-0.660	X_WP:	0.000	Y_WP:	0.000	Y_WP:	0.500	X:	-0.235	Y:	-0.240	Z:	0.047	yaw:	37.823	yaw rate:	-3.046	Roll:	-10.248	Pitch:	-1.901	Yaw:	53.867	Thrust:	100.000
Time:	5.328	Roll Set Point:	0.568	Pitch Set Point:	0.285	Yaw Set Point:	-0.661	X_WP:	0.000	Y_WP:	0.000	Y_WP:	0.500	X:	-0.235	Y:	-0.240	Z:	0.047	yaw:	37.857	yaw rate:	3.341	Roll:	-10.258	Pitch:	-1.390	Yaw:	54.982	Thrust:	100.000
Time:	5.344	Roll Set Point:	0.568	Pitch Set Point:	0.285	Yaw Set Point:	-0.661	X_WP:	0.000	Y_WP:	0.000	Y_WP:	0.500	X:	-0.235	Y:	-0.240	Z:	0.047	yaw:	37.862	yaw rate:	0.545	Roll:	-10.256	Pitch:	-1.616	Yaw:	54.542	Thrust:	100.000
Time:	5.359	Roll Set Point:	0.568	Pitch Set Point:	0.285	Yaw Set Point:	-0.661	X_WP:	0.000	Y_WP:	0.000	Y_WP:	0.500	X:	-0.235	Y:	-0.240	Z:	0.047	yaw:	37.859	yaw rate:	-0.297	Roll:	-10.217	Pitch:	-1.733	Yaw:	54.316	Thrust:	100.000
Time:	5.378	Roll Set Point:	0.568	Pitch Set Point:	0.285	Yaw Set Point:	-0.661	X_WP:	0.000	Y_WP:	0.000	Y_WP:	0.500	X:	-0.235	Y:	-0.240	Z:	0.047	yaw:	37.859	yaw rate:	-0.297	Roll:	-10.362	Pitch:	-1.746	Yaw:	54.735	Thrust:	100.000
Time:	5.394	Roll Set Point:	0.568	Pitch Set Point:	0.285	Yaw Set Point:	-0.660	X_WP:	0.000	Y_WP:	0.000	Y_WP:	0.500	X:	-0.235	Y:	-0.240	Z:	0.047	yaw:	37.806	yaw rate:	1.545	Roll:	-10.159	Pitch:	-2.021	Yaw:	53.454	Thrust:	100.000
Time:	5.409	Roll Set Point:	0.569	Pitch Set Point:	0.285	Yaw Set Point:	-0.661	X_WP:	0.000	Y_WP:	0.000	Y_WP:	0.500	X:	-0.235	Y:	-0.240	Z:	0.047	yaw:	37.886	yaw rate:	8.064	Roll:	-10.485	Pitch:	-1.350	Yaw:	55.813	Thrust:	100.000
Time:	5.425	Roll Set Point:	0.568	Pitch Set Point:	0.285	Yaw Set Point:	-0.661	X_WP:	0.000	Y_WP:	0.000	Y_WP:	0.500	X:	-0.235	Y:	-0.240	Z:	0.047	yaw:	37.856	yaw rate:	-3.045	Roll:	-10.099	Pitch:	-1.693	Yaw:	53.906	Thrust:	100.000
Time:	5.441	Roll Set Point:	0.568	Pitch Set Point:	0.285	Yaw Set Point:	-0.661	X_WP:	0.000	Y_WP:	0.000	Y_WP:	0.500	X:	-0.235	Y:	-0.240	Z:	0.047	yaw:	37.856	yaw rate:	-3.045	Roll:	-10.246	Pitch:	-1.681	Yaw:	54.420	Thrust:	100.000
Time:	5.456	Roll Set Point:	0.568	Pitch Set Point:	0.285	Yaw Set Point:	-0.660	X_WP:	0.000	Y_WP:	0.000	Y_WP:	0.500	X:	-0.235	Y:	-0.240	Z:	0.047	yaw:	37.835	yaw rate:	0.167	Roll:	-10.229	Pitch:	-1.787	Yaw:	54.041	Thrust:	100.000
Time:	5.472	Roll Set Point:	0.568	Pitch Set Point:	0.285	Yaw Set Point:	-0.660	X_WP:	0.000	Y_WP:	0.000	Y_WP:	0.500	X:	-0.235	Y:	-0.240	Z:	0.047	yaw:	37.840	yaw rate:	0.505	Roll:	-10.209	Pitch:	-1.684	Yaw:	54.485	Thrust:	100.000
Time:	5.488	Roll Set Point:	0.568	Pitch Set Point:	0.285	Yaw Set Point:	-0.661	X_WP:	0.000	Y_WP:	0.000	Y_WP:	0.500	X:	-0.235	Y:	-0.240	Z:	0.047	yaw:	37.848	yaw rate:	0.816	Roll:	-10.248	Pitch:	-1.657	Yaw:	54.545	Thrust:	100.000
Time:	5.503	Roll Set Point:	0.568	Pitch Set Point:	0.285	Yaw Set Point:	-0.661	X_WP:	0.000	Y_WP:	0.000	Y_WP:	0.500	X:	-0.235	Y:	-0.240	Z:	0.047	yaw:	37.848	yaw rate:	0.816	Roll:	-10.243	Pitch:	-1.689	Yaw:	54.406	Thrust:	100.000
Time:	5.519	Roll Set Point:	0.568	Pitch Set Point:	0.285	Yaw Set Point:	-0.660	X_WP:	0.000	Y_WP:	0.000	Y_WP:	0.500	X:	-0.235	Y:	-0.240	Z:	0.047	yaw:	37.836	yaw rate:	-1.181	Roll:	-10.279	Pitch:	-1.758	Yaw:	54.195	Thrust:	100.000
Time:	5.534	Roll Set Point:	0.568	Pitch Set Point:	0.285	Yaw Set Point:	-0.660	X_WP:	0.000	Y_WP:	0.000	Y_WP:	0.500	X:	-0.235	Y:	-0.240	Z:	0.047	yaw:	37.840	yaw rate:	0.373	Roll:	-10.225	Pitch:	-1.674	Yaw:	54.460	Thrust:	100.000
Time:	5.550	Roll Set Point:	0.568	Pitch Set Point:	0.285	Yaw Set Point:	-0.661	X_WP:	0.000	Y_WP:	0.000	Y_WP:	0.500	X:	-0.235	Y:	-0.240	Z:	0.047	yaw:	37.874	yaw rate:	8.906	Roll:	-10.313	Pitch:	-1.433	Yaw:	55.013	Thrust:	100.000
Time:	5.566	Roll Set Point:	0.568	Pitch Set Point:	0.285	Yaw Set Point:	-0.660	X_WP:	0.000	Y_WP:	0.000	Y_WP:	0.500	X:	-0.235	Y:	-0.240	Z:	0.047	yaw:	37.798	yaw rate:	-7.616	Roll:	-10.091	Pitch:	-2.218	Yaw:	53.063	Thrust:	100.000
Time:	5.581	Roll Set Point:	0.568	Pitch Set Point:	0.285	Yaw Set Point:	-0.660	X_WP:	0.000	Y_WP:	0.000	Y_WP:	0.500	X:	-0.235	Y:	-0.240	Z:	0.047	yaw:	37.822	yaw rate:	2.364	Roll:	-10.313	Pitch:	-1.588	Yaw:	54.767	Thrust:	100.000
Time:	5.597	Roll Set Point:	0.568	Pitch Set Point:	0.285	Yaw Set Point:	-0.660	X_WP:	0.000	Y_WP:	0.000	Y_WP:	0.500	X:	-0.235	Y:	-0.240	Z:	0.047	yaw:	37.820	yaw rate:	-0.197	Roll:	-10.270	Pitch:	-1.682	Yaw:	54.336	Thrust:	100.000
Time:	5.612	Roll Set Point:	0.568	Pitch Set Point:	0.285	Yaw Set Point:	-0.660	X_WP:	0.000	Y_WP:	0.000	Y_WP:	0.500	X:	-0.235	Y:	-0.240	Z:	0.047	yaw:	37.811	yaw rate:	-0.847	Roll:	-10.164	Pitch:	-1.762	Yaw:	54.215	Thrust:	100.000
Time:	5.628	Roll Set Point:	0.568	Pitch Set Point:	0.285	Yaw Set Point:	-0.661	X_WP:	0.000	Y_WP:	0.000	Y_WP:	0.500	X:	-0.235	Y:	-0.240	Z:	0.047	yaw:	37.894	yaw rate:	8.291	Roll:	-10.395	Pitch:	-1.160	Yaw:	55.862	Thrust:	100.000
Time:	5.644	Roll Set Point:	0.568	Pitch Set Point:	0.285	Yaw Set Point:	-0.661	X_WP:	0.000	Y_WP:	0.000	Y_WP:	0.500	X:	-0.235	Y:	-0.240	Z:	0.047	yaw:	37.894	yaw rate:	8.291	Roll:	-10.248	Pitch:	-1.698	Yaw:	54.476	Thrust:	100.000
Time:	5.659	Roll Set Point:	0.568	Pitch Set Point:	0.285	Yaw Set Point:	-0.661	X_WP:	0.000	Y_WP:	0.000	Y_WP:	0.500	X:	-0.235	Y:	-0.240	Z:	0.047	yaw:	37.892	yaw rate:	4.920	Roll:	-10.331	Pitch:	-1.960	Yaw:	54.425	Thrust:	100.000
Time:	5.675	Roll Set Point:	0.568	Pitch Set Point:	0.285	Yaw Set Point:	-0.661	X_WP:	0.000	Y_WP:	0.000	Y_WP:	0.500	X:	-0.235	Y:	-0.240	Z:	0.047	yaw:	37.858	yaw rate:	-3.382	Roll:	-10.101	Pitch:	-1.668	Yaw:	53.856	Thrust:	100.000
Time:	5.691	Roll Set Point:	0.568	Pitch Set Point:	0.285	Yaw Set Point:	-0.661	X_WP:	0.000	Y_WP:	0.000	Y_WP:	0.500	X:	-0.235	Y:	-0.240	Z:	0.047	yaw:	37.858	yaw rate:	-3.382	Roll:	-10.245	Pitch:	-1.708	Yaw:	54.422	Thrust:	100.000
Time:	5.706	Roll Set Point:	0.568	Pitch Set Point:	0.285	Yaw Set Point:	-0.660	X_WP:	0.000	Y_WP:	0.000	Y_WP:	0.500	X:	-0.235	Y:	-0.240	Z:	0.047	yaw:	37.816	yaw rate:	-2.140	Roll:	-10.186	Pitch:	-2.017	Yaw:	53.660	Thrust:	100.000
Time:	5.722	Roll Set Point:	0.568	Pitch Set Point:	0.286	Yaw Set Point:	-0.660	X_WP:	0.000	Y_WP:	0.000	Y_WP:	0.500	X:	-0.235	Y:	-0.240	Z:	0.047	yaw:	37.803	yaw rate:	-1.224	Roll:	-10.261	Pitch:	-1.822	Yaw:	54.148	Thrust:	100.000
Time:	5.738	Roll Set Point:	0.568	Pitch Set Point:	0.286	Yaw Set Point:	-0.660	X_WP:	0.000	Y_WP:	0.000	Y_WP:	0.500	X:	-0.235	Y:	-0.240	Z:	0.047	yaw:	37.803	yaw rate:	-1.224	Roll:	-10.244	Pitch:	-1.724	Yaw:	54.346	Thrust:	100.000
Time:	5.753	Roll Set Point:	0.568	Pitch Set Point:	0.285	Yaw Set Point:	-0.660	X_WP:	0.000	Y_WP:	0.000	Y_WP:	0.500	X:	-0.235	Y:	-0.240	Z:	0.047	yaw:	37.843	yaw rate:	3.985	Roll:	-10.290	Pitch:	-1.401	Yaw:	55.064	Thrust:	100.000
Time:	5.769	Roll Set Point:	0.568	Pitch Set Point:	0.285	Yaw Set Point:	-0.661	X_WP:	0.000	Y_WP:	0.000	Y_WP:	0.500	X:	-0.235	Y:	-0.240	Z:	0.047	yaw:	37.873	yaw rate:	2.952	Roll:	-10.240	Pitch:	-1.543	Yaw:	54.937	Thrust:	100.000
Time:	5.784	Roll Set Point:	0.568	Pitch Set Point:	0.285	Yaw Set Point:	-0.660	X_WP:	0.000	Y_WP:	0.000	Y_WP:	0.500	X:	-0.235	Y:	-0.240	Z:	0.047	yaw:	37.838	yaw rate:	-3.424	Roll:	-10.246	Pitch:	-1.954	Yaw:	53.821	Thrust:	100.000
Time:	5.800	Roll Set Point:	0.568	Pitch Set Point:	0.285	Yaw Set Point:	-0.660	X_WP:	0.000	Y_WP:	0.000	Y_WP:	0.500	X:	-0.235	Y:	-0.240	Z:	0.047	yaw:	37.823	yaw rate:	-3.189	Roll:	-10.252	Pitch:	-1.896	Yaw:	54.123	Thrust:	100.000
Time:	5.816	Roll Set Point:	0.568	Pitch Set Point:	0.285	Yaw Set Point:	-0.661	X_WP:	0.000	Y_WP:	0.000	Y_WP:	0.500	X:	-0.235	Y:	-0.240	Z:	0.047	yaw:	37.854	yaw rate:	3.075	Roll:	-10.249	Pitch:	-1.424	Yaw:	54.930	Thrust:	100.000
Time:	5.831	Roll Set Point:	0.568	Pitch Set Point:	0.285	Yaw Set Point:	-0.660	X_WP:	0.000	Y_WP:	0.000	Y_WP:	0.500	X:	-0.235	Y:	-0.240	Z:	0.047	yaw:	37.820	yaw rate:	-3.434	Roll:	-10.199	Pitch:	-1.999	Yaw:	53.798	Thrust:	100.000
Time:	5.859	Roll Set Point:	0.568	Pitch Set Point:	0.285	Yaw Set Point:	-0.660	X_WP:	0.000	Y_WP:	0.000	Y_WP:	0.500	X:	-0.235	Y:	-0.240	Z:	0.047	yaw:	37.808	yaw rate:	-1.689	Roll:	-10.712	Pitch:	-2.106	Yaw:	55.480	Thrust:	100.000
Time:	5.875	Roll Set Point:	0.568	Pitch Set Point:	0.285	Yaw Set Point:	-0.660	X_WP:	0.000	Y_WP:	0.000	Y_WP:	0.500	X:	-0.235	Y:	-0.240	Z:	0.047	yaw:	37.808	yaw rate:	-1.689	Roll:	-10.243	Pitch:	-1.737	Yaw:	54.350	Thrust:	100.000
Time:	5.890	Roll Set Point:	0.568	Pitch Set Point:	0.285	Yaw Set Point:	-0.660	X_WP:	0.000	Y_WP:	0.000	Y_WP:	0.500	X:	-0.235	Y:	-0.240	Z:	0.047	yaw:	37.837	yaw rate:	2.854	Roll:	-10.246	Pitch:	-1.474	Yaw:	54.871	Thrust:	100.000
Time:	5.906	Roll Set Point:	0.568	Pitch Set Point:	0.285	Yaw Set Point:	-0.660	X_WP:	0.000	Y_WP:	0.000	Y_WP:	0.500	X:	-0.235	Y:	-0.240	Z:	0.047	yaw:	37.834	yaw rate:	-2.924	Roll:	-10.266	Pitch:	-1.851	Yaw:	54.338	Thrust:	100.000
Time:	5.922	Roll Set Point:	0.568	Pitch Set Point:	0.285	Yaw Set Point:	-0.660	X_WP:	0.000	Y_WP:	0.000	Y_WP:	0.500	X:	-0.235	Y:	-0.240	Z:	0.047	yaw:	37.834	yaw rate:	-2.924	Roll:	-10.244	Pitch:	-1.738	Yaw:	54.385	Thrust:	100.000
Time:	5.937	Roll Set Point:	0.568	Pitch Set Point:	0.285	Yaw Set Point:	-0.660	X_WP:	0.000	Y_WP:	0.000	Y_WP:	0.500	X:	-0.235	Y:	-0.240	Z:	0.047	yaw:	37.830	yaw rate:	-0.414	Roll:	-10.202	Pitch:	-1.748	Yaw:	54.314	Thrust:	100.000
Time:	5.953	Roll Set Point:	0.568	Pitch Set Point:	0.285	Yaw Set Point:	-0.661	X_WP:	0.000	Y_WP:	0.000	Y_WP:	0.500	X:	-0.235	Y:	-0.240	Z:	0.047	yaw:	37.868	yaw rate:	7.160	Roll:	-10.302	Pitch:	-1.436	Yaw:	55.085	Thrust:	100.000
Time:	5.969	Roll Set Point:	0.568	Pitch Set Point:	0.285	Yaw Set Point:	-0.661	X_WP:	0.000	Y_WP:	0.000	Y_WP:	0.500	X:	-0.235	Y:	-0.240	Z:	0.047	yaw:	37.868	yaw rate:	7.160	Roll:	-10.245	Pitch:	-1.736	Yaw:	54.437	Thrust:	100.000
Time:	5.984	Roll Set Point:	0.568	Pitch Set Point:	0.286	Yaw Set Point:	-0.660	X_WP:	0.000	Y_WP:	0.000	Y_WP:	0.500	X:	-0.235	Y:	-0.240	Z:	0.047	yaw:	37.794	yaw rate:	-7.720	Roll:	-10.174	Pitch:	-2.297	Yaw:	53.097	Thrust:	100.000
Time:	6.000	Roll Set Point:	0.568	Pitch Set Point:	0.286	Yaw Set Point:	-0.660	X_WP:	0.000	Y_WP:	0.000	Y_WP:	0.500	X:	-0.235	Y:	-0.240	Z:	0.047	yaw:	37.794	yaw rate:	-7.720	Roll:	-10.242	Pitch:	-1.754	Yaw:	54.330	Thrust:	100.000
Time:	6.015	Roll Set Point:	0.227	Pitch Set Point:	0.178	Yaw Set Point:	-0.661	X_WP:	-0.204	Y_WP:	-0.294	Y_WP:	0.500	X:	-0.235	Y:	-0.240	Z:	0.047	yaw:	37.900	yaw rate:	4.251	Roll:	30.000	Pitch:	30.000	Yaw:	56.252	Thrust:	100.000
Time:	6.031	Roll Set Point:	0.227	Pitch Set Point:	0.178	Yaw Set Point:	-0.661	X_WP:	-0.204	Y_WP:	-0.294	Y_WP:	0.500	X:	-0.235	Y:	-0.240	Z:	0.047	yaw:	37.900	yaw rate:	4.251	Roll:	-0.345	Pitch:	1.359	Yaw:	54.481	Thrust:	100.000
Time:	6.047	Roll Set Point:	0.227	Pitch Set Point:	0.178	Yaw Set Point:	-0.661	X_WP:	-0.204	Y_WP:	-0.294	Y_WP:	0.500	X:	-0.235	Y:	-0.240	Z:	0.047	yaw:	37.852	yaw rate:	-2.545	Roll:	-0.416	Pitch:	1.371	Yaw:	53.607	Thrust:	100.000
Time:	6.062	Roll Set Point:	0.227	Pitch Set Point:	0.178	Yaw Set Point:	-0.661	X_WP:	-0.204	Y_WP:	-0.294	Y_WP:	0.500	X:	-0.235	Y:	-0.240	Z:	0.047	yaw:	37.852	yaw rate:	-2.545	Roll:	-0.346	Pitch:	1.364	Yaw:	54.414	Thrust:	100.000
Time:	6.078	Roll Set Point:	0.227	Pitch Set Point:	0.178	Yaw Set Point:	-0.661	X_WP:	-0.204	Y_WP:	-0.294	Y_WP:	0.500	X:	-0.235	Y:	-0.240	Z:	0.047	yaw:	37.883	yaw rate:	4.567	Roll:	-0.287	Pitch:	1.358	Yaw:	54.980	Thrust:	100.000
Time:	6.094	Roll Set Point:	0.227	Pitch Set Point:	0.178	Yaw Set Point:	-0.660	X_WP:	-0.204	Y_WP:	-0.294	Y_WP:	0.500	X:	-0.235	Y:	-0.240	Z:	0.047	yaw:	37.814	yaw rate:	-6.848	Roll:	-0.432	Pitch:	1.382	Yaw:	53.219	Thrust:	100.000
Time:	6.109	Roll Set Point:	0.227	Pitch Set Point:	0.178	Yaw Set Point:	-0.660	X_WP:	-0.204	Y_WP:	-0.294	Y_WP:	0.500	X:	-0.235	Y:	-0.240	Z:	0.047	yaw:	37.838	yaw rate:	2.394	Roll:	-0.335	Pitch:	1.366	Yaw:	54.794	Thrust:	100.000
Time:	6.125	Roll Set Point:	0.227	Pitch Set Point:	0.178	Yaw Set Point:	-0.660	X_WP:	-0.204	Y_WP:	-0.294	Y_WP:	0.500	X:	-0.235	Y:	-0.240	Z:	0.047	yaw:	37.838	yaw rate:	2.394	Roll:	-0.347	Pitch:	1.372	Yaw:	54.401	Thrust:	100.000
Time:	6.141	Roll Set Point:	0.227	Pitch Set Point:	0.178	Yaw Set Point:	-0.661	X_WP:	-0.204	Y_WP:	-0.294	Y_WP:	0.500	X:	-0.235	Y:	-0.240	Z:	0.047	yaw:	37.882	yaw rate:	2.245	Roll:	-0.258	Pitch:	1.366	Yaw:	55.183	Thrust:	100.000
Time:	6.156	Roll Set Point:	0.227	Pitch Set Point:	0.178	Yaw Set Point:	-0.661	X_WP:	-0.204	Y_WP:	-0.294	Y_WP:	0.500	X:	-0.235	Y:	-0.240	Z:	0.047	yaw:	37.882	yaw rate:	2.245	Roll:	-0.341	Pitch:	1.379	Yaw:	54.453	Thrust:	100.000
Time:	6.172	Roll Set Point:	0.227	Pitch Set Point:	0.178	Yaw Set Point:	-0.659	X_WP:	-0.204	Y_WP:	-0.294	Y_WP:	0.500	X:	-0.235	Y:	-0.240	Z:	0.047	yaw:	37.757	yaw rate:	-12.448	Roll:	-0.521	Pitch:	1.400	Yaw:	52.196	Thrust:	100.000
Time:	6.187	Roll Set Point:	0.227	Pitch Set Point:	0.178	Yaw Set Point:	-0.659	X_WP:	-0.204	Y_WP:	-0.294	Y_WP:	0.500	X:	-0.235	Y:	-0.240	Z:	0.047	yaw:	37.757	yaw rate:	-12.448	Roll:	-0.346	Pitch:	1.384	Yaw:	54.282	Thrust:	100.000
Time:	6.203	Roll Set Point:	0.227	Pitch Set Point:	0.178	Yaw Set Point:	-0.662	X_WP:	-0.204	Y_WP:	-0.294	Y_WP:	0.500	X:	-0.235	Y:	-0.240	Z:	0.047	yaw:	37.903	yaw rate:	14.573	Roll:	-0.210	Pitch:	1.361	Yaw:	56.927	Thrust:	100.000
Time:	6.219	Roll Set Point:	0.227	Pitch Set Point:	0.178	Yaw Set Point:	-0.662	X_WP:	-0.204	Y_WP:	-0.294	Y_WP:	0.500	X:	-0.235	Y:	-0.240	Z:	0.047	yaw:	37.935	yaw rate:	3.172	Roll:	-0.288	Pitch:	1.393	Yaw:	55.061	Thrust:	100.000
Time:	6.234	Roll Set Point:	0.227	Pitch Set Point:	0.178	Yaw Set Point:	-0.660	X_WP:	-0.204	Y_WP:	-0.294	Y_WP:	0.500	X:	-0.235	Y:	-0.240	Z:	0.047	yaw:	37.832	yaw rate:	3.212	Roll:	-0.434	Pitch:	1.405	Yaw:	52.665	Thrust:	100.000
Time:	6.250	Roll Set Point:	0.227	Pitch Set Point:	0.178	Yaw Set Point:	-0.661	X_WP:	-0.204	Y_WP:	-0.294	Y_WP:	0.500	X:	-0.235	Y:	-0.240	Z:	0.047	yaw:	37.851	yaw rate:	1.914	Roll:	-0.320	Pitch:	1.393	Yaw:	54.734	Thrust:	100.000
