Time:	2.055	Roll Set Point:	0.745	Pitch Set Point:	0.439	Yaw Set Point:	-0.866	X_WP:	0.000	Y_WP:	0.000	Y_WP:	0.500	X:	-0.271	Y:	-0.392	Z:	1.325	yaw:	49.590	yaw rate:	-3.342	Roll:	-13.743	Pitch:	-1.383	Yaw:	69.240	Thrust:	0.000
Time:	2.066	Roll Set Point:	0.737	Pitch Set Point:	0.442	Yaw Set Point:	-0.863	X_WP:	0.000	Y_WP:	0.000	Y_WP:	0.500	X:	-0.267	Y:	-0.391	Z:	1.325	yaw:	49.434	yaw rate:	-15.554	Roll:	-8.258	Pitch:	-7.404	Yaw:	65.522	Thrust:	0.000
Time:	2.077	Roll Set Point:	0.732	Pitch Set Point:	0.445	Yaw Set Point:	-0.859	X_WP:	0.000	Y_WP:	0.000	Y_WP:	0.500	X:	-0.264	Y:	-0.390	Z:	1.325	yaw:	49.235	yaw rate:	-19.875	Roll:	-9.950	Pitch:	-7.044	Yaw:	64.409	Thrust:	0.000
Time:	2.088	Roll Set Point:	0.727	Pitch Set Point:	0.448	Yaw Set Point:	-0.857	X_WP:	0.000	Y_WP:	0.000	Y_WP:	0.500	X:	-0.261	Y:	-0.390	Z:	1.325	yaw:	49.094	yaw rate:	-14.183	Roll:	-9.817	Pitch:	-6.193	Yaw:	65.751	Thrust:	0.000
Time:	2.099	Roll Set Point:	0.722	Pitch Set Point:	0.447	Yaw Set Point:	-0.861	X_WP:	0.000	Y_WP:	0.000	Y_WP:	0.500	X:	-0.258	Y:	-0.389	Z:	1.325	yaw:	49.316	yaw rate:	22.246	Roll:	-10.438	Pitch:	-1.523	Yaw:	74.896	Thrust:	0.000
Time:	2.110	Roll Set Point:	0.717	Pitch Set Point:	0.448	Yaw Set Point:	-0.861	X_WP:	0.000	Y_WP:	0.000	Y_WP:	0.500	X:	-0.255	Y:	-0.389	Z:	1.325	yaw:	49.351	yaw rate:	3.506	Roll:	-10.203	Pitch:	-4.293	Yaw:	70.689	Thrust:	0.000
Time:	2.121	Roll Set Point:	0.709	Pitch Set Point:	0.451	Yaw Set Point:	-0.860	X_WP:	0.000	Y_WP:	0.000	Y_WP:	0.500	X:	-0.251	Y:	-0.388	Z:	1.324	yaw:	49.299	yaw rate:	-5.239	Roll:	-8.198	Pitch:	-6.591	Yaw:	68.695	Thrust:	0.000
Time:	2.132	Roll Set Point:	0.705	Pitch Set Point:	0.452	Yaw Set Point:	-0.860	X_WP:	0.000	Y_WP:	0.000	Y_WP:	0.500	X:	-0.248	Y:	-0.388	Z:	1.324	yaw:	49.295	yaw rate:	-0.386	Roll:	-10.094	Pitch:	-4.902	Yaw:	69.839	Thrust:	0.000
Time:	2.143	Roll Set Point:	0.700	Pitch Set Point:	0.454	Yaw Set Point:	-0.860	X_WP:	0.000	Y_WP:	0.000	Y_WP:	0.500	X:	-0.246	Y:	-0.387	Z:	1.324	yaw:	49.278	yaw rate:	-1.721	Roll:	-9.882	Pitch:	-4.720	Yaw:	69.496	Thrust:	0.000
Time:	2.154	Roll Set Point:	0.695	Pitch Set Point:	0.455	Yaw Set Point:	-0.860	X_WP:	0.000	Y_WP:	0.000	Y_WP:	0.500	X:	-0.243	Y:	-0.387	Z:	1.324	yaw:	49.255	yaw rate:	-2.261	Roll:	-9.843	Pitch:	-5.065	Yaw:	69.343	Thrust:	0.000
Time:	2.165	Roll Set Point:	0.690	Pitch Set Point:	0.457	Yaw Set Point:	-0.860	X_WP:	0.000	Y_WP:	0.000	Y_WP:	0.500	X:	-0.240	Y:	-0.386	Z:	1.324	yaw:	49.255	yaw rate:	-0.005	Roll:	-9.983	Pitch:	-4.782	Yaw:	69.875	Thrust:	0.000
Time:	2.176	Roll Set Point:	0.683	Pitch Set Point:	0.458	Yaw Set Point:	-0.862	X_WP:	0.000	Y_WP:	0.000	Y_WP:	0.500	X:	-0.236	Y:	-0.386	Z:	1.324	yaw:	49.365	yaw rate:	11.016	Roll:	-8.369	Pitch:	-4.744	Yaw:	72.644	Thrust:	0.000
Time:	2.187	Roll Set Point:	0.678	Pitch Set Point:	0.459	Yaw Set Point:	-0.860	X_WP:	0.000	Y_WP:	0.000	Y_WP:	0.500	X:	-0.234	Y:	-0.385	Z:	1.324	yaw:	49.280	yaw rate:	-8.477	Roll:	-9.739	Pitch:	-5.655	Yaw:	67.899	Thrust:	0.000
Time:	2.198	Roll Set Point:	0.674	Pitch Set Point:	0.460	Yaw Set Point:	-0.861	X_WP:	0.000	Y_WP:	0.000	Y_WP:	0.500	X:	-0.231	Y:	-0.385	Z:	1.325	yaw:	49.329	yaw rate:	4.885	Roll:	-9.900	Pitch:	-3.900	Yaw:	71.139	Thrust:	0.000
Time:	2.209	Roll Set Point:	0.669	Pitch Set Point:	0.461	Yaw Set Point:	-0.861	X_WP:	0.000	Y_WP:	0.000	Y_WP:	0.500	X:	-0.229	Y:	-0.384	Z:	1.325	yaw:	49.327	yaw rate:	-0.202	Roll:	-9.846	Pitch:	-4.395	Yaw:	69.925	Thrust:	0.000
Time:	2.220	Roll Set Point:	0.665	Pitch Set Point:	0.467	Yaw Set Point:	-0.849	X_WP:	0.000	Y_WP:	0.000	Y_WP:	0.500	X:	-0.227	Y:	-0.383	Z:	1.325	yaw:	48.630	yaw rate:	-69.680	Roll:	-8.735	Pitch:	-12.574	Yaw:	52.499	Thrust:	0.000
Time:	2.231	Roll Set Point:	0.659	Pitch Set Point:	0.462	Yaw Set Point:	-0.861	X_WP:	0.000	Y_WP:	0.000	Y_WP:	0.500	X:	-0.223	Y:	-0.382	Z:	1.326	yaw:	49.309	yaw rate:	67.860	Roll:	-9.280	Pitch:	2.877	Yaw:	86.052	Thrust:	0.000
Time:	2.244	Roll Set Point:	0.654	Pitch Set Point:	0.469	Yaw Set Point:	-0.846	X_WP:	0.000	Y_WP:	0.000	Y_WP:	0.500	X:	-0.222	Y:	-0.382	Z:	1.326	yaw:	48.478	yaw rate:	-83.112	Roll:	-8.817	Pitch:	-12.907	Yaw:	50.807	Thrust:	0.000
Time:	2.255	Roll Set Point:	0.651	Pitch Set Point:	0.464	Yaw Set Point:	-0.858	X_WP:	0.000	Y_WP:	0.000	Y_WP:	0.500	X:	-0.219	Y:	-0.381	Z:	1.327	yaw:	49.171	yaw rate:	69.362	Roll:	-10.897	Pitch:	4.045	Yaw:	86.221	Thrust:	0.000
Time:	2.266	Roll Set Point:	0.647	Pitch Set Point:	0.466	Yaw Set Point:	-0.855	X_WP:	0.000	Y_WP:	0.000	Y_WP:	0.500	X:	-0.218	Y:	-0.380	Z:	1.327	yaw:	48.969	yaw rate:	-20.235	Roll:	-10.146	Pitch:	-6.562	Yaw:	64.673	Thrust:	0.000
Time:	2.277	Roll Set Point:	0.644	Pitch Set Point:	0.461	Yaw Set Point:	-0.867	X_WP:	0.000	Y_WP:	0.000	Y_WP:	0.500	X:	-0.215	Y:	-0.379	Z:	1.327	yaw:	49.682	yaw rate:	71.259	Roll:	-11.023	Pitch:	4.177	Yaw:	87.424	Thrust:	0.000
Time:	2.288	Roll Set Point:	0.637	Pitch Set Point:	0.471	Yaw Set Point:	-0.841	X_WP:	0.000	Y_WP:	0.000	Y_WP:	0.500	X:	-0.213	Y:	-0.378	Z:	1.328	yaw:	48.183	yaw rate:	-149.858	Roll:	-5.275	Pitch:	-21.040	Yaw:	32.806	Thrust:	0.000
Time:	2.299	Roll Set Point:	0.634	Pitch Set Point:	0.472	Yaw Set Point:	-0.839	X_WP:	0.000	Y_WP:	0.000	Y_WP:	0.500	X:	-0.212	Y:	-0.377	Z:	1.329	yaw:	48.064	yaw rate:	-11.953	Roll:	-9.705	Pitch:	-5.198	Yaw:	65.375	Thrust:	0.000
Time:	2.310	Roll Set Point:	0.631	Pitch Set Point:	0.472	Yaw Set Point:	-0.838	X_WP:	0.000	Y_WP:	0.000	Y_WP:	0.500	X:	-0.210	Y:	-0.377	Z:	1.329	yaw:	48.025	yaw rate:	-3.904	Roll:	-9.882	Pitch:	-4.203	Yaw:	67.231	Thrust:	0.000
Time:	2.321	Roll Set Point:	0.629	Pitch Set Point:	0.462	Yaw Set Point:	-0.861	X_WP:	0.000	Y_WP:	0.000	Y_WP:	0.500	X:	-0.208	Y:	-0.376	Z:	1.329	yaw:	49.358	yaw rate:	133.388	Roll:	-13.003	Pitch:	11.190	Yaw:	101.621	Thrust:	0.000
Time:	2.332	Roll Set Point:	0.624	Pitch Set Point:	0.469	Yaw Set Point:	-0.846	X_WP:	0.000	Y_WP:	0.000	Y_WP:	0.500	X:	-0.207	Y:	-0.375	Z:	1.329	yaw:	48.481	yaw rate:	-87.774	Roll:	-7.794	Pitch:	-14.097	Yaw:	47.969	Thrust:	0.000
Time:	2.343	Roll Set Point:	0.620	Pitch Set Point:	0.473	Yaw Set Point:	-0.833	X_WP:	0.000	Y_WP:	0.000	Y_WP:	0.500	X:	-0.205	Y:	-0.374	Z:	1.330	yaw:	47.736	yaw rate:	-74.497	Roll:	-7.768	Pitch:	-11.446	Yaw:	50.028	Thrust:	0.000
Time:	2.355	Roll Set Point:	0.618	Pitch Set Point:	0.473	Yaw Set Point:	-0.833	X_WP:	0.000	Y_WP:	0.000	Y_WP:	0.500	X:	-0.204	Y:	-0.373	Z:	1.330	yaw:	47.752	yaw rate:	1.654	Roll:	-10.616	Pitch:	-3.602	Yaw:	68.240	Thrust:	0.000
Time:	2.367	Roll Set Point:	0.615	Pitch Set Point:	0.473	Yaw Set Point:	-0.832	X_WP:	0.000	Y_WP:	0.000	Y_WP:	0.500	X:	-0.203	Y:	-0.373	Z:	1.330	yaw:	47.695	yaw rate:	-5.737	Roll:	-10.128	Pitch:	-4.120	Yaw:	66.544	Thrust:	0.000
Time:	2.378	Roll Set Point:	0.613	Pitch Set Point:	0.469	Yaw Set Point:	-0.845	X_WP:	0.000	Y_WP:	0.000	Y_WP:	0.500	X:	-0.201	Y:	-0.372	Z:	1.330	yaw:	48.390	yaw rate:	69.544	Roll:	-12.251	Pitch:	3.782	Yaw:	85.174	Thrust:	0.000
Time:	2.389	Roll Set Point:	0.610	Pitch Set Point:	0.468	Yaw Set Point:	-0.847	X_WP:	0.000	Y_WP:	0.000	Y_WP:	0.500	X:	-0.200	Y:	-0.371	Z:	1.330	yaw:	48.502	yaw rate:	11.187	Roll:	-9.666	Pitch:	-2.702	Yaw:	71.480	Thrust:	0.000
Time:	2.400	Roll Set Point:	0.606	Pitch Set Point:	0.473	Yaw Set Point:	-0.831	X_WP:	0.000	Y_WP:	0.000	Y_WP:	0.500	X:	-0.199	Y:	-0.370	Z:	1.330	yaw:	47.628	yaw rate:	-87.381	Roll:	-7.833	Pitch:	-12.673	Yaw:	46.863	Thrust:	0.000
Time:	2.411	Roll Set Point:	0.604	Pitch Set Point:	0.474	Yaw Set Point:	-0.827	X_WP:	0.000	Y_WP:	0.000	Y_WP:	0.500	X:	-0.198	Y:	-0.370	Z:	1.330	yaw:	47.405	yaw rate:	-22.353	Roll:	-9.927	Pitch:	-5.946	Yaw:	62.002	Thrust:	0.000
Time:	2.422	Roll Set Point:	0.602	Pitch Set Point:	0.474	Yaw Set Point:	-0.828	X_WP:	0.000	Y_WP:	0.000	Y_WP:	0.500	X:	-0.197	Y:	-0.369	Z:	1.330	yaw:	47.432	yaw rate:	2.762	Roll:	-10.271	Pitch:	-3.269	Yaw:	67.986	Thrust:	0.000
Time:	2.433	Roll Set Point:	0.600	Pitch Set Point:	0.470	Yaw Set Point:	-0.838	X_WP:	0.000	Y_WP:	0.000	Y_WP:	0.500	X:	-0.195	Y:	-0.368	Z:	1.330	yaw:	48.013	yaw rate:	58.072	Roll:	-11.525	Pitch:	2.091	Yaw:	81.896	Thrust:	0.000
Time:	2.444	Roll Set Point:	0.596	Pitch Set Point:	0.473	Yaw Set Point:	-0.826	X_WP:	0.000	Y_WP:	0.000	Y_WP:	0.500	X:	-0.194	Y:	-0.367	Z:	1.330	yaw:	47.320	yaw rate:	-69.345	Roll:	-8.200	Pitch:	-10.546	Yaw:	50.674	Thrust:	0.000
Time:	2.456	Roll Set Point:	0.594	Pitch Set Point:	0.474	Yaw Set Point:	-0.824	X_WP:	0.000	Y_WP:	0.000	Y_WP:	0.500	X:	-0.194	Y:	-0.367	Z:	1.330	yaw:	47.238	yaw rate:	-8.200	Roll:	-10.430	Pitch:	-4.388	Yaw:	65.382	Thrust:	0.000
Time:	2.467	Roll Set Point:	0.592	Pitch Set Point:	0.474	Yaw Set Point:	-0.823	X_WP:	0.000	Y_WP:	0.000	Y_WP:	0.500	X:	-0.193	Y:	-0.366	Z:	1.330	yaw:	47.130	yaw rate:	-10.803	Roll:	-10.166	Pitch:	-4.844	Yaw:	64.342	Thrust:	0.000
Time:	2.478	Roll Set Point:	0.589	Pitch Set Point:	0.474	Yaw Set Point:	-0.823	X_WP:	0.000	Y_WP:	0.000	Y_WP:	0.500	X:	-0.191	Y:	-0.366	Z:	1.330	yaw:	47.165	yaw rate:	3.550	Roll:	-9.766	Pitch:	-3.587	Yaw:	67.800	Thrust:	0.000
Time:	2.489	Roll Set Point:	0.588	Pitch Set Point:	0.473	Yaw Set Point:	-0.824	X_WP:	0.000	Y_WP:	0.000	Y_WP:	0.500	X:	-0.190	Y:	-0.365	Z:	1.329	yaw:	47.218	yaw rate:	5.266	Roll:	-10.734	Pitch:	-3.347	Yaw:	68.281	Thrust:	0.000
Time:	2.500	Roll Set Point:	0.587	Pitch Set Point:	0.470	Yaw Set Point:	-0.834	X_WP:	0.000	Y_WP:	0.000	Y_WP:	0.500	X:	-0.189	Y:	-0.365	Z:	1.329	yaw:	47.808	yaw rate:	58.981	Roll:	-12.198	Pitch:	2.421	Yaw:	81.855	Thrust:	0.000
Time:	2.511	Roll Set Point:	0.585	Pitch Set Point:	0.469	Yaw Set Point:	-0.836	X_WP:	0.000	Y_WP:	0.000	Y_WP:	0.500	X:	-0.189	Y:	-0.364	Z:	1.329	yaw:	47.897	yaw rate:	8.958	Roll:	-10.736	Pitch:	-2.752	Yaw:	70.104	Thrust:	0.000
Time:	2.523	Roll Set Point:	0.582	Pitch Set Point:	0.469	Yaw Set Point:	-0.835	X_WP:	0.000	Y_WP:	0.000	Y_WP:	0.500	X:	-0.187	Y:	-0.364	Z:	1.328	yaw:	47.845	yaw rate:	-8.114	Roll:	-9.418	Pitch:	-4.968	Yaw:	66.858	Thrust:	0.000
Time:	2.534	Roll Set Point:	0.582	Pitch Set Point:	0.469	Yaw Set Point:	-0.835	X_WP:	0.000	Y_WP:	0.000	Y_WP:	0.500	X:	-0.187	Y:	-0.364	Z:	1.328	yaw:	47.845	yaw rate:	-8.114	Roll:	-11.870	Pitch:	-3.167	Yaw:	67.909	Thrust:	0.000
Time:	2.545	Roll Set Point:	0.579	Pitch Set Point:	0.469	Yaw Set Point:	-0.836	X_WP:	0.000	Y_WP:	0.000	Y_WP:	0.500	X:	-0.185	Y:	-0.363	Z:	1.328	yaw:	47.889	yaw rate:	4.392	Roll:	-9.914	Pitch:	-3.781	Yaw:	69.011	Thrust:	0.000
Time:	2.556	Roll Set Point:	0.576	Pitch Set Point:	0.473	Yaw Set Point:	-0.824	X_WP:	0.000	Y_WP:	0.000	Y_WP:	0.500	X:	-0.185	Y:	-0.362	Z:	1.328	yaw:	47.239	yaw rate:	-64.968	Roll:	-8.170	Pitch:	-10.272	Yaw:	51.641	Thrust:	0.000
Time:	2.568	Roll Set Point:	0.573	Pitch Set Point:	0.474	Yaw Set Point:	-0.824	X_WP:	0.000	Y_WP:	0.000	Y_WP:	0.500	X:	-0.183	Y:	-0.362	Z:	1.328	yaw:	47.211	yaw rate:	-2.787	Roll:	-9.751	Pitch:	-4.750	Yaw:	66.512	Thrust:	0.000
Time:	2.579	Roll Set Point:	0.571	Pitch Set Point:	0.474	Yaw Set Point:	-0.824	X_WP:	0.000	Y_WP:	0.000	Y_WP:	0.500	X:	-0.182	Y:	-0.362	Z:	1.328	yaw:	47.235	yaw rate:	2.382	Roll:	-10.551	Pitch:	-3.956	Yaw:	67.621	Thrust:	0.000
Time:	2.590	Roll Set Point:	0.570	Pitch Set Point:	0.475	Yaw Set Point:	-0.823	X_WP:	0.000	Y_WP:	0.000	Y_WP:	0.500	X:	-0.181	Y:	-0.362	Z:	1.327	yaw:	47.135	yaw rate:	-9.994	Roll:	-10.322	Pitch:	-5.249	Yaw:	64.549	Thrust:	0.000
Time:	2.602	Roll Set Point:	0.568	Pitch Set Point:	0.474	Yaw Set Point:	-0.825	X_WP:	0.000	Y_WP:	0.000	Y_WP:	0.500	X:	-0.180	Y:	-0.361	Z:	1.327	yaw:	47.271	yaw rate:	13.605	Roll:	-10.855	Pitch:	-2.833	Yaw:	70.316	Thrust:	0.000
Time:	2.614	Roll Set Point:	0.564	Pitch Set Point:	0.476	Yaw Set Point:	-0.825	X_WP:	0.000	Y_WP:	0.000	Y_WP:	0.500	X:	-0.178	Y:	-0.361	Z:	1.327	yaw:	47.258	yaw rate:	1.166	Roll:	-9.364	Pitch:	-5.759	Yaw:	66.910	Thrust:	0.000
Time:	2.625	Roll Set Point:	0.563	Pitch Set Point:	0.476	Yaw Set Point:	-0.825	X_WP:	0.000	Y_WP:	0.000	Y_WP:	0.500	X:	-0.177	Y:	-0.361	Z:	1.326	yaw:	47.275	yaw rate:	1.697	Roll:	-10.693	Pitch:	-4.153	Yaw:	67.516	Thrust:	0.000
Time:	2.636	Roll Set Point:	0.563	Pitch Set Point:	0.472	Yaw Set Point:	-0.837	X_WP:	0.000	Y_WP:	0.000	Y_WP:	0.500	X:	-0.176	Y:	-0.361	Z:	1.326	yaw:	47.983	yaw rate:	70.765	Roll:	-13.058	Pitch:	2.705	Yaw:	84.889	Thrust:	0.000
Time:	2.648	Roll Set Point:	0.561	Pitch Set Point:	0.474	Yaw Set Point:	-0.836	X_WP:	0.000	Y_WP:	0.000	Y_WP:	0.500	X:	-0.176	Y:	-0.361	Z:	1.326	yaw:	47.892	yaw rate:	-9.114	Roll:	-10.674	Pitch:	-5.036	Yaw:	66.090	Thrust:	0.000
Time:	2.660	Roll Set Point:	0.560	Pitch Set Point:	0.473	Yaw Set Point:	-0.839	X_WP:	0.000	Y_WP:	0.000	Y_WP:	0.500	X:	-0.174	Y:	-0.361	Z:	1.326	yaw:	48.044	yaw rate:	15.164	Roll:	-10.753	Pitch:	-3.023	Yaw:	71.589	Thrust:	0.000
Time:	2.671	Roll Set Point:	0.558	Pitch Set Point:	0.474	Yaw Set Point:	-0.839	X_WP:	0.000	Y_WP:	0.000	Y_WP:	0.500	X:	-0.174	Y:	-0.361	Z:	1.326	yaw:	48.072	yaw rate:	2.852	Roll:	-10.918	Pitch:	-3.987	Yaw:	68.901	Thrust:	0.000
Time:	2.682	Roll Set Point:	0.558	Pitch Set Point:	0.473	Yaw Set Point:	-0.841	X_WP:	0.000	Y_WP:	0.000	Y_WP:	0.500	X:	-0.173	Y:	-0.361	Z:	1.326	yaw:	48.191	yaw rate:	11.920	Roll:	-11.225	Pitch:	-3.089	Yaw:	71.216	Thrust:	0.000
Time:	2.693	Roll Set Point:	0.555	Pitch Set Point:	0.478	Yaw Set Point:	-0.828	X_WP:	0.000	Y_WP:	0.000	Y_WP:	0.500	X:	-0.172	Y:	-0.361	Z:	1.326	yaw:	47.448	yaw rate:	-74.341	Roll:	-8.314	Pitch:	-11.542	Yaw:	49.706	Thrust:	0.000
Time:	2.704	Roll Set Point:	0.554	Pitch Set Point:	0.479	Yaw Set Point:	-0.829	X_WP:	0.000	Y_WP:	0.000	Y_WP:	0.500	X:	-0.172	Y:	-0.361	Z:	1.326	yaw:	47.476	yaw rate:	2.776	Roll:	-11.035	Pitch:	-4.142	Yaw:	68.050	Thrust:	0.000
Time:	2.715	Roll Set Point:	0.553	Pitch Set Point:	0.479	Yaw Set Point:	-0.830	X_WP:	0.000	Y_WP:	0.000	Y_WP:	0.500	X:	-0.171	Y:	-0.361	Z:	1.326	yaw:	47.559	yaw rate:	8.310	Roll:	-10.775	Pitch:	-3.645	Yaw:	69.480	Thrust:	0.000
Time:	2.726	Roll Set Point:	0.552	Pitch Set Point:	0.479	Yaw Set Point:	-0.831	X_WP:	0.000	Y_WP:	0.000	Y_WP:	0.500	X:	-0.170	Y:	-0.361	Z:	1.326	yaw:	47.592	yaw rate:	3.317	Roll:	-11.014	Pitch:	-3.772	Yaw:	68.341	Thrust:	0.000
Time:	2.737	Roll Set Point:	0.551	Pitch Set Point:	0.479	Yaw Set Point:	-0.831	X_WP:	0.000	Y_WP:	0.000	Y_WP:	0.500	X:	-0.170	Y:	-0.361	Z:	1.326	yaw:	47.607	yaw rate:	1.495	Roll:	-11.064	Pitch:	-3.866	Yaw:	67.929	Thrust:	0.000
Time:	2.748	Roll Set Point:	0.550	Pitch Set Point:	0.479	Yaw Set Point:	-0.831	X_WP:	0.000	Y_WP:	0.000	Y_WP:	0.500	X:	-0.170	Y:	-0.361	Z:	1.326	yaw:	47.589	yaw rate:	-1.738	Roll:	-10.884	Pitch:	-4.005	Yaw:	67.138	Thrust:	0.000
Time:	2.759	Roll Set Point:	0.550	Pitch Set Point:	0.479	Yaw Set Point:	-0.831	X_WP:	0.000	Y_WP:	0.000	Y_WP:	0.500	X:	-0.169	Y:	-0.361	Z:	1.326	yaw:	47.632	yaw rate:	4.265	Roll:	-11.271	Pitch:	-3.453	Yaw:	68.622	Thrust:	0.000
Time:	2.771	Roll Set Point:	0.550	Pitch Set Point:	0.479	Yaw Set Point:	-0.832	X_WP:	0.000	Y_WP:	0.000	Y_WP:	0.500	X:	-0.169	Y:	-0.361	Z:	1.326	yaw:	47.684	yaw rate:	5.229	Roll:	-11.397	Pitch:	-3.297	Yaw:	68.921	Thrust:	0.000
Time:	2.783	Roll Set Point:	0.550	Pitch Set Point:	0.479	Yaw Set Point:	-0.833	X_WP:	0.000	Y_WP:	0.000	Y_WP:	0.500	X:	-0.169	Y:	-0.361	Z:	1.326	yaw:	47.728	yaw rate:	4.331	Roll:	-11.703	Pitch:	-3.314	Yaw:	68.786	Thrust:	0.000
Time:	2.795	Roll Set Point:	0.550	Pitch Set Point:	0.479	Yaw Set Point:	-0.832	X_WP:	0.000	Y_WP:	0.000	Y_WP:	0.500	X:	-0.169	Y:	-0.361	Z:	1.327	yaw:	47.674	yaw rate:	-5.386	Roll:	-11.311	Pitch:	-3.882	Yaw:	66.596	Thrust:	0.000
Time:	2.806	Roll Set Point:	0.550	Pitch Set Point:	0.479	Yaw Set Point:	-0.831	X_WP:	0.000	Y_WP:	0.000	Y_WP:	0.500	X:	-0.169	Y:	-0.361	Z:	1.327	yaw:	47.624	yaw rate:	-4.971	Roll:	-11.514	Pitch:	-3.890	Yaw:	66.419	Thrust:	0.000
Time:	2.817	Roll Set Point:	0.550	Pitch Set Point:	0.479	Yaw Set Point:	-0.830	X_WP:	0.000	Y_WP:	0.000	Y_WP:	0.500	X:	-0.170	Y:	-0.361	Z:	1.327	yaw:	47.581	yaw rate:	-4.282	Roll:	-11.625	Pitch:	-3.776	Yaw:	66.523	Thrust:	0.000
Time:	2.828	Roll Set Point:	0.551	Pitch Set Point:	0.480	Yaw Set Point:	-0.829	X_WP:	0.000	Y_WP:	0.000	Y_WP:	0.500	X:	-0.170	Y:	-0.361	Z:	1.327	yaw:	47.498	yaw rate:	-8.365	Roll:	-12.023	Pitch:	-4.033	Yaw:	65.429	Thrust:	0.000
Time:	2.839	Roll Set Point:	0.552	Pitch Set Point:	0.480	Yaw Set Point:	-0.828	X_WP:	0.000	Y_WP:	0.000	Y_WP:	0.500	X:	-0.171	Y:	-0.361	Z:	1.327	yaw:	47.451	yaw rate:	-4.688	Roll:	-11.854	Pitch:	-3.655	Yaw:	66.249	Thrust:	0.000
Time:	2.850	Roll Set Point:	0.553	Pitch Set Point:	0.480	Yaw Set Point:	-0.825	X_WP:	0.000	Y_WP:	0.000	Y_WP:	0.500	X:	-0.171	Y:	-0.361	Z:	1.327	yaw:	47.295	yaw rate:	-15.540	Roll:	-11.728	Pitch:	-4.632	Yaw:	63.451	Thrust:	0.000
Time:	2.861	Roll Set Point:	0.554	Pitch Set Point:	0.480	Yaw Set Point:	-0.825	X_WP:	0.000	Y_WP:	0.000	Y_WP:	0.500	X:	-0.172	Y:	-0.361	Z:	1.328	yaw:	47.266	yaw rate:	-2.973	Roll:	-11.978	Pitch:	-3.132	Yaw:	66.388	Thrust:	0.000
Time:	2.872	Roll Set Point:	0.555	Pitch Set Point:	0.479	Yaw Set Point:	-0.827	X_WP:	0.000	Y_WP:	0.000	Y_WP:	0.500	X:	-0.173	Y:	-0.361	Z:	1.328	yaw:	47.391	yaw rate:	12.536	Roll:	-12.615	Pitch:	-1.598	Yaw:	70.245	Thrust:	0.000
Time:	2.883	Roll Set Point:	0.557	Pitch Set Point:	0.478	Yaw Set Point:	-0.826	X_WP:	0.000	Y_WP:	0.000	Y_WP:	0.500	X:	-0.174	Y:	-0.361	Z:	1.328	yaw:	47.310	yaw rate:	-8.059	Roll:	-12.839	Pitch:	-2.944	Yaw:	65.248	Thrust:	0.000
Time:	2.895	Roll Set Point:	0.560	Pitch Set Point:	0.474	Yaw Set Point:	-0.836	X_WP:	0.000	Y_WP:	0.000	Y_WP:	0.500	X:	-0.175	Y:	-0.362	Z:	1.329	yaw:	47.911	yaw rate:	60.066	Roll:	-14.646	Pitch:	2.763	Yaw:	81.196	Thrust:	0.000
Time:	2.906	Roll Set Point:	0.562	Pitch Set Point:	0.475	Yaw Set Point:	-0.832	X_WP:	0.000	Y_WP:	0.000	Y_WP:	0.500	X:	-0.176	Y:	-0.362	Z:	1.329	yaw:	47.694	yaw rate:	-21.744	Roll:	-12.141	Pitch:	-4.258	Yaw:	62.550	Thrust:	0.000
Time:	2.918	Roll Set Point:	0.564	Pitch Set Point:	0.474	Yaw Set Point:	-0.832	X_WP:	0.000	Y_WP:	0.000	Y_WP:	0.500	X:	-0.177	Y:	-0.362	Z:	1.329	yaw:	47.670	yaw rate:	-2.390	Roll:	-12.752	Pitch:	-2.539	Yaw:	67.243	Thrust:	0.000
Time:	2.929	Roll Set Point:	0.565	Pitch Set Point:	0.478	Yaw Set Point:	-0.817	X_WP:	0.000	Y_WP:	0.000	Y_WP:	0.500	X:	-0.179	Y:	-0.361	Z:	1.330	yaw:	46.813	yaw rate:	-85.679	Roll:	-10.228	Pitch:	-10.477	Yaw:	46.076	Thrust:	0.000
Time:	2.940	Roll Set Point:	0.568	Pitch Set Point:	0.478	Yaw Set Point:	-0.814	X_WP:	0.000	Y_WP:	0.000	Y_WP:	0.500	X:	-0.181	Y:	-0.361	Z:	1.330	yaw:	46.619	yaw rate:	-19.416	Roll:	-13.280	Pitch:	-3.170	Yaw:	61.600	Thrust:	0.000
Time:	2.951	Roll Set Point:	0.571	Pitch Set Point:	0.475	Yaw Set Point:	-0.821	X_WP:	0.000	Y_WP:	0.000	Y_WP:	0.500	X:	-0.182	Y:	-0.362	Z:	1.331	yaw:	47.024	yaw rate:	40.556	Roll:	-14.820	Pitch:	2.152	Yaw:	76.388	Thrust:	0.000
Time:	2.962	Roll Set Point:	0.574	Pitch Set Point:	0.475	Yaw Set Point:	-0.818	X_WP:	0.000	Y_WP:	0.000	Y_WP:	0.500	X:	-0.184	Y:	-0.362	Z:	1.331	yaw:	46.847	yaw rate:	-17.771	Roll:	-12.956	Pitch:	-3.661	Yaw:	62.295	Thrust:	0.000
Time:	2.974	Roll Set Point:	0.575	Pitch Set Point:	0.478	Yaw Set Point:	-0.805	X_WP:	0.000	Y_WP:	0.000	Y_WP:	0.500	X:	-0.186	Y:	-0.361	Z:	1.331	yaw:	46.114	yaw rate:	-73.249	Roll:	-11.019	Pitch:	-8.905	Yaw:	48.092	Thrust:	0.000
Time:	2.985	Roll Set Point:	0.580	Pitch Set Point:	0.475	Yaw Set Point:	-0.808	X_WP:	0.000	Y_WP:	0.000	Y_WP:	0.500	X:	-0.189	Y:	-0.362	Z:	1.332	yaw:	46.270	yaw rate:	15.539	Roll:	-15.333	Pitch:	0.968	Yaw:	69.394	Thrust:	0.000
Time:	2.996	Roll Set Point:	0.583	Pitch Set Point:	0.476	Yaw Set Point:	-0.802	X_WP:	0.000	Y_WP:	0.000	Y_WP:	0.500	X:	-0.190	Y:	-0.361	Z:	1.332	yaw:	45.941	yaw rate:	-32.865	Roll:	-12.700	Pitch:	-4.875	Yaw:	57.449	Thrust:	0.000
Time:	3.007	Roll Set Point:	0.586	Pitch Set Point:	0.475	Yaw Set Point:	-0.801	X_WP:	0.000	Y_WP:	0.000	Y_WP:	0.500	X:	-0.192	Y:	-0.361	Z:	1.333	yaw:	45.920	yaw rate:	-2.089	Roll:	-13.469	Pitch:	-1.597	Yaw:	64.742	Thrust:	0.000
Time:	3.018	Roll Set Point:	0.588	Pitch Set Point:	0.474	Yaw Set Point:	-0.798	X_WP:	0.000	Y_WP:	0.000	Y_WP:	0.500	X:	-0.194	Y:	-0.361	Z:	1.333	yaw:	45.737	yaw rate:	-18.327	Roll:	-13.374	Pitch:	-3.254	Yaw:	60.623	Thrust:	0.000
Time:	3.029	Roll Set Point:	0.591	Pitch Set Point:	0.474	Yaw Set Point:	-0.794	X_WP:	0.000	Y_WP:	0.000	Y_WP:	0.500	X:	-0.196	Y:	-0.361	Z:	1.333	yaw:	45.484	yaw rate:	-25.288	Roll:	-12.740	Pitch:	-3.714	Yaw:	58.621	Thrust:	0.000
Time:	3.040	Roll Set Point:	0.594	Pitch Set Point:	0.473	Yaw Set Point:	-0.792	X_WP:	0.000	Y_WP:	0.000	Y_WP:	0.500	X:	-0.198	Y:	-0.361	Z:	1.333	yaw:	45.356	yaw rate:	-12.800	Roll:	-13.341	Pitch:	-2.579	Yaw:	61.384	Thrust:	0.000
Time:	3.051	Roll Set Point:	0.597	Pitch Set Point:	0.476	Yaw Set Point:	-0.775	X_WP:	0.000	Y_WP:	0.000	Y_WP:	0.500	X:	-0.201	Y:	-0.360	Z:	1.334	yaw:	44.419	yaw rate:	-93.689	Roll:	-11.893	Pitch:	-9.412	Yaw:	40.893	Thrust:	0.000
Time:	3.062	Roll Set Point:	0.601	Pitch Set Point:	0.472	Yaw Set Point:	-0.782	X_WP:	0.000	Y_WP:	0.000	Y_WP:	0.500	X:	-0.203	Y:	-0.360	Z:	1.334	yaw:	44.831	yaw rate:	41.158	Roll:	-15.175	Pitch:	3.082	Yaw:	73.471	Thrust:	0.000
Time:	3.074	Roll Set Point:	0.604	Pitch Set Point:	0.472	Yaw Set Point:	-0.778	X_WP:	0.000	Y_WP:	0.000	Y_WP:	0.500	X:	-0.205	Y:	-0.360	Z:	1.334	yaw:	44.597	yaw rate:	-23.350	Roll:	-13.170	Pitch:	-3.435	Yaw:	58.380	Thrust:	0.000
Time:	3.085	Roll Set Point:	0.607	Pitch Set Point:	0.471	Yaw Set Point:	-0.774	X_WP:	0.000	Y_WP:	0.000	Y_WP:	0.500	X:	-0.207	Y:	-0.359	Z:	1.334	yaw:	44.374	yaw rate:	-22.326	Roll:	-13.197	Pitch:	-3.243	Yaw:	57.774	Thrust:	0.000
Time:	3.096	Roll Set Point:	0.610	Pitch Set Point:	0.470	Yaw Set Point:	-0.771	X_WP:	0.000	Y_WP:	0.000	Y_WP:	0.500	X:	-0.209	Y:	-0.359	Z:	1.334	yaw:	44.187	yaw rate:	-18.637	Roll:	-13.179	Pitch:	-2.655	Yaw:	58.365	Thrust:	0.000
Time:	3.107	Roll Set Point:	0.614	Pitch Set Point:	0.472	Yaw Set Point:	-0.757	X_WP:	0.000	Y_WP:	0.000	Y_WP:	0.500	X:	-0.213	Y:	-0.358	Z:	1.334	yaw:	43.390	yaw rate:	-79.786	Roll:	-12.737	Pitch:	-7.737	Yaw:	42.798	Thrust:	0.000
Time:	3.118	Roll Set Point:	0.618	Pitch Set Point:	0.468	Yaw Set Point:	-0.762	X_WP:	0.000	Y_WP:	0.000	Y_WP:	0.500	X:	-0.215	Y:	-0.358	Z:	1.334	yaw:	43.677	yaw rate:	28.770	Roll:	-15.246	Pitch:	2.293	Yaw:	68.932	Thrust:	0.000
Time:	3.129	Roll Set Point:	0.621	Pitch Set Point:	0.468	Yaw Set Point:	-0.757	X_WP:	0.000	Y_WP:	0.000	Y_WP:	0.500	X:	-0.217	Y:	-0.357	Z:	1.334	yaw:	43.349	yaw rate:	-32.784	Roll:	-13.284	Pitch:	-3.986	Yaw:	53.870	Thrust:	0.000
Time:	3.140	Roll Set Point:	0.623	Pitch Set Point:	0.471	Yaw Set Point:	-0.743	X_WP:	0.000	Y_WP:	0.000	Y_WP:	0.500	X:	-0.220	Y:	-0.357	Z:	1.334	yaw:	42.573	yaw rate:	-77.611	Roll:	-11.786	Pitch:	-8.613	Yaw:	42.125	Thrust:	0.000
Time:	3.151	Roll Set Point:	0.629	Pitch Set Point:	0.466	Yaw Set Point:	-0.745	X_WP:	0.000	Y_WP:	0.000	Y_WP:	0.500	X:	-0.223	Y:	-0.356	Z:	1.334	yaw:	42.706	yaw rate:	13.251	Roll:	-15.649	Pitch:	2.490	Yaw:	63.877	Thrust:	0.000
Time:	3.162	Roll Set Point:	0.633	Pitch Set Point:	0.466	Yaw Set Point:	-0.740	X_WP:	0.000	Y_WP:	0.000	Y_WP:	0.500	X:	-0.226	Y:	-0.356	Z:	1.334	yaw:	42.420	yaw rate:	-28.568	Roll:	-14.011	Pitch:	-3.469	Yaw:	53.553	Thrust:	0.000
Time:	3.173	Roll Set Point:	0.635	Pitch Set Point:	0.468	Yaw Set Point:	-0.728	X_WP:	0.000	Y_WP:	0.000	Y_WP:	0.500	X:	-0.229	Y:	-0.355	Z:	1.333	yaw:	41.708	yaw rate:	-71.182	Roll:	-12.499	Pitch:	-8.028	Yaw:	42.438	Thrust:	0.000
Time:	3.184	Roll Set Point:	0.640	Pitch Set Point:	0.464	Yaw Set Point:	-0.731	X_WP:	0.000	Y_WP:	0.000	Y_WP:	0.500	X:	-0.231	Y:	-0.355	Z:	1.333	yaw:	41.889	yaw rate:	18.042	Roll:	-15.437	Pitch:	1.576	Yaw:	63.873	Thrust:	0.000
Time:	3.195	Roll Set Point:	0.643	Pitch Set Point:	0.464	Yaw Set Point:	-0.725	X_WP:	0.000	Y_WP:	0.000	Y_WP:	0.500	X:	-0.234	Y:	-0.354	Z:	1.333	yaw:	41.558	yaw rate:	-33.036	Roll:	-13.482	Pitch:	-3.776	Yaw:	51.288	Thrust:	0.000
Time:	3.206	Roll Set Point:	0.647	Pitch Set Point:	0.463	Yaw Set Point:	-0.720	X_WP:	0.000	Y_WP:	0.000	Y_WP:	0.500	X:	-0.236	Y:	-0.353	Z:	1.333	yaw:	41.268	yaw rate:	-29.059	Roll:	-13.657	Pitch:	-3.268	Yaw:	51.826	Thrust:	0.000
Time:	3.217	Roll Set Point:	0.653	Pitch Set Point:	0.461	Yaw Set Point:	-0.714	X_WP:	0.000	Y_WP:	0.000	Y_WP:	0.500	X:	-0.240	Y:	-0.352	Z:	1.332	yaw:	40.923	yaw rate:	-34.497	Roll:	-15.177	Pitch:	-2.234	Yaw:	50.059	Thrust:	0.000
Time:	3.228	Roll Set Point:	0.657	Pitch Set Point:	0.459	Yaw Set Point:	-0.712	X_WP:	0.000	Y_WP:	0.000	Y_WP:	0.500	X:	-0.243	Y:	-0.352	Z:	1.332	yaw:	40.791	yaw rate:	-13.182	Roll:	-14.647	Pitch:	-1.410	Yaw:	54.916	Thrust:	0.000
Time:	3.239	Roll Set Point:	0.661	Pitch Set Point:	0.459	Yaw Set Point:	-0.708	X_WP:	0.000	Y_WP:	0.000	Y_WP:	0.500	X:	-0.246	Y:	-0.352	Z:	1.332	yaw:	40.557	yaw rate:	-23.358	Roll:	-14.903	Pitch:	-2.792	Yaw:	52.201	Thrust:	0.000
Time:	3.250	Roll Set Point:	0.666	Pitch Set Point:	0.458	Yaw Set Point:	-0.702	X_WP:	0.000	Y_WP:	0.000	Y_WP:	0.500	X:	-0.249	Y:	-0.351	Z:	1.332	yaw:	40.207	yaw rate:	-35.028	Roll:	-14.415	Pitch:	-3.732	Yaw:	48.933	Thrust:	0.000
Time:	3.262	Roll Set Point:	0.672	Pitch Set Point:	0.457	Yaw Set Point:	-0.694	X_WP:	0.000	Y_WP:	0.000	Y_WP:	0.500	X:	-0.253	Y:	-0.350	Z:	1.331	yaw:	39.750	yaw rate:	-45.698	Roll:	-15.314	Pitch:	-2.866	Yaw:	46.761	Thrust:	0.000
Time:	3.274	Roll Set Point:	0.681	Pitch Set Point:	0.454	Yaw Set Point:	-0.686	X_WP:	0.000	Y_WP:	0.000	Y_WP:	0.500	X:	-0.260	Y:	-0.348	Z:	1.331	yaw:	39.299	yaw rate:	-15.043	Roll:	-17.027	Pitch:	-0.676	Yaw:	46.258	Thrust:	0.000
Time:	3.287	Roll Set Point:	0.686	Pitch Set Point:	0.454	Yaw Set Point:	-0.677	X_WP:	0.000	Y_WP:	0.000	Y_WP:	0.500	X:	-0.263	Y:	-0.348	Z:	1.330	yaw:	38.762	yaw rate:	-53.695	Roll:	-14.730	Pitch:	-5.251	Yaw:	43.643	Thrust:	0.000
Time:	3.299	Roll Set Point:	0.692	Pitch Set Point:	0.452	Yaw Set Point:	-0.674	X_WP:	0.000	Y_WP:	0.000	Y_WP:	0.500	X:	-0.267	Y:	-0.347	Z:	1.330	yaw:	38.597	yaw rate:	-16.550	Roll:	-15.874	Pitch:	-1.289	Yaw:	51.483	Thrust:	0.000
Time:	3.310	Roll Set Point:	0.698	Pitch Set Point:	0.451	Yaw Set Point:	-0.669	X_WP:	0.000	Y_WP:	0.000	Y_WP:	0.500	X:	-0.271	Y:	-0.347	Z:	1.330	yaw:	38.310	yaw rate:	-28.643	Roll:	-15.639	Pitch:	-2.257	Yaw:	47.814	Thrust:	0.000
Time:	3.322	Roll Set Point:	0.706	Pitch Set Point:	0.450	Yaw Set Point:	-0.659	X_WP:	0.000	Y_WP:	0.000	Y_WP:	0.500	X:	-0.276	Y:	-0.345	Z:	1.329	yaw:	37.734	yaw rate:	-57.664	Roll:	-16.968	Pitch:	-3.202	Yaw:	41.343	Thrust:	0.000
Time:	3.334	Roll Set Point:	0.713	Pitch Set Point:	0.448	Yaw Set Point:	-0.654	X_WP:	0.000	Y_WP:	0.000	Y_WP:	0.500	X:	-0.280	Y:	-0.345	Z:	1.329	yaw:	37.497	yaw rate:	-23.601	Roll:	-16.169	Pitch:	-1.512	Yaw:	48.422	Thrust:	0.000
Time:	3.345	Roll Set Point:	0.719	Pitch Set Point:	0.447	Yaw Set Point:	-0.648	X_WP:	0.000	Y_WP:	0.000	Y_WP:	0.500	X:	-0.284	Y:	-0.344	Z:	1.328	yaw:	37.130	yaw rate:	-36.792	Roll:	-16.457	Pitch:	-2.870	Yaw:	44.191	Thrust:	0.000
Time:	3.356	Roll Set Point:	0.726	Pitch Set Point:	0.443	Yaw Set Point:	-0.645	X_WP:	0.000	Y_WP:	0.000	Y_WP:	0.500	X:	-0.289	Y:	-0.343	Z:	1.328	yaw:	36.978	yaw rate:	-15.196	Roll:	-17.073	Pitch:	0.097	Yaw:	49.138	Thrust:	0.000
Time:	3.367	Roll Set Point:	0.736	Pitch Set Point:	0.444	Yaw Set Point:	-0.629	X_WP:	0.000	Y_WP:	0.000	Y_WP:	0.500	X:	-0.296	Y:	-0.342	Z:	1.327	yaw:	36.048	yaw rate:	-92.928	Roll:	-18.204	Pitch:	-6.334	Yaw:	29.377	Thrust:	0.000
Time:	3.378	Roll Set Point:	0.744	Pitch Set Point:	0.441	Yaw Set Point:	-0.627	X_WP:	0.000	Y_WP:	0.000	Y_WP:	0.500	X:	-0.300	Y:	-0.341	Z:	1.327	yaw:	35.917	yaw rate:	-13.131	Roll:	-17.853	Pitch:	0.473	Yaw:	48.125	Thrust:	0.000
Time:	3.389	Roll Set Point:	0.752	Pitch Set Point:	0.432	Yaw Set Point:	-0.635	X_WP:	0.000	Y_WP:	0.000	Y_WP:	0.500	X:	-0.305	Y:	-0.340	Z:	1.326	yaw:	36.385	yaw rate:	46.794	Roll:	-19.185	Pitch:	8.379	Yaw:	63.012	Thrust:	0.000
Time:	3.401	Roll Set Point:	0.759	Pitch Set Point:	0.439	Yaw Set Point:	-0.610	X_WP:	0.000	Y_WP:	0.000	Y_WP:	0.500	X:	-0.310	Y:	-0.339	Z:	1.326	yaw:	34.977	yaw rate:	-140.770	Roll:	-15.378	Pitch:	-13.714	Yaw:	19.482	Thrust:	0.000
Time:	3.412	Roll Set Point:	0.768	Pitch Set Point:	0.430	Yaw Set Point:	-0.620	X_WP:	0.000	Y_WP:	0.000	Y_WP:	0.500	X:	-0.315	Y:	-0.338	Z:	1.325	yaw:	35.509	yaw rate:	53.138	Roll:	-20.218	Pitch:	9.100	Yaw:	63.165	Thrust:	0.000
Time:	3.423	Roll Set Point:	0.776	Pitch Set Point:	0.431	Yaw Set Point:	-0.607	X_WP:	0.000	Y_WP:	0.000	Y_WP:	0.500	X:	-0.321	Y:	-0.337	Z:	1.324	yaw:	34.782	yaw rate:	-72.700	Roll:	-17.834	Pitch:	-6.184	Yaw:	32.424	Thrust:	0.000
Time:	3.434	Roll Set Point:	0.789	Pitch Set Point:	0.424	Yaw Set Point:	-0.605	X_WP:	0.000	Y_WP:	0.000	Y_WP:	0.500	X:	-0.328	Y:	-0.335	Z:	1.323	yaw:	34.688	yaw rate:	-9.363	Roll:	-21.960	Pitch:	5.374	Yaw:	47.321	Thrust:	0.000
Time:	3.445	Roll Set Point:	0.798	Pitch Set Point:	0.427	Yaw Set Point:	-0.589	X_WP:	0.000	Y_WP:	0.000	Y_WP:	0.500	X:	-0.334	Y:	-0.334	Z:	1.322	yaw:	33.727	yaw rate:	-96.085	Roll:	-17.991	Pitch:	-8.766	Yaw:	25.383	Thrust:	0.000
Time:	3.456	Roll Set Point:	0.808	Pitch Set Point:	0.421	Yaw Set Point:	-0.590	X_WP:	0.000	Y_WP:	0.000	Y_WP:	0.500	X:	-0.340	Y:	-0.333	Z:	1.321	yaw:	33.791	yaw rate:	6.406	Roll:	-20.446	Pitch:	4.212	Yaw:	49.805	Thrust:	0.000
Time:	3.467	Roll Set Point:	0.816	Pitch Set Point:	0.422	Yaw Set Point:	-0.575	X_WP:	0.000	Y_WP:	0.000	Y_WP:	0.500	X:	-0.346	Y:	-0.332	Z:	1.320	yaw:	32.939	yaw rate:	-85.185	Roll:	-18.481	Pitch:	-7.250	Yaw:	26.822	Thrust:	0.000
Time:	3.478	Roll Set Point:	0.826	Pitch Set Point:	0.414	Yaw Set Point:	-0.580	X_WP:	0.000	Y_WP:	0.000	Y_WP:	0.500	X:	-0.351	Y:	-0.330	Z:	1.320	yaw:	33.237	yaw rate:	29.767	Roll:	-20.870	Pitch:	7.407	Yaw:	54.577	Thrust:	0.000
Time:	3.489	Roll Set Point:	0.841	Pitch Set Point:	0.414	Yaw Set Point:	-0.563	X_WP:	0.000	Y_WP:	0.000	Y_WP:	0.500	X:	-0.361	Y:	-0.329	Z:	1.319	yaw:	32.285	yaw rate:	-95.194	Roll:	-23.006	Pitch:	-4.747	Yaw:	23.585	Thrust:	0.000
Time:	3.500	Roll Set Point:	0.852	Pitch Set Point:	0.409	Yaw Set Point:	-0.562	X_WP:	0.000	Y_WP:	0.000	Y_WP:	0.500	X:	-0.367	Y:	-0.327	Z:	1.318	yaw:	32.218	yaw rate:	-6.757	Roll:	-21.187	Pitch:	3.224	Yaw:	44.483	Thrust:	0.000
Time:	3.511	Roll Set Point:	0.862	Pitch Set Point:	0.407	Yaw Set Point:	-0.554	X_WP:	0.000	Y_WP:	0.000	Y_WP:	0.500	X:	-0.373	Y:	-0.326	Z:	1.317	yaw:	31.733	yaw rate:	-48.471	Roll:	-20.515	Pitch:	-2.155	Yaw:	33.905	Thrust:	0.000
Time:	3.522	Roll Set Point:	0.873	Pitch Set Point:	0.404	Yaw Set Point:	-0.548	X_WP:	0.000	Y_WP:	0.000	Y_WP:	0.500	X:	-0.380	Y:	-0.325	Z:	1.316	yaw:	31.400	yaw rate:	-33.311	Roll:	-21.429	Pitch:	-0.311	Yaw:	37.038	Thrust:	0.000
Time:	3.533	Roll Set Point:	0.884	Pitch Set Point:	0.400	Yaw Set Point:	-0.545	X_WP:	0.000	Y_WP:	0.000	Y_WP:	0.500	X:	-0.386	Y:	-0.323	Z:	1.316	yaw:	31.199	yaw rate:	-20.082	Roll:	-22.090	Pitch:	1.834	Yaw:	39.898	Thrust:	0.000
Time:	3.544	Roll Set Point:	0.900	Pitch Set Point:	0.397	Yaw Set Point:	-0.531	X_WP:	0.000	Y_WP:	0.000	Y_WP:	0.500	X:	-0.396	Y:	-0.321	Z:	1.315	yaw:	30.440	yaw rate:	-75.923	Roll:	-24.890	Pitch:	-1.697	Yaw:	25.630	Thrust:	0.000
Time:	3.555	Roll Set Point:	0.912	Pitch Set Point:	0.396	Yaw Set Point:	-0.521	X_WP:	0.000	Y_WP:	0.000	Y_WP:	0.500	X:	-0.403	Y:	-0.320	Z:	1.314	yaw:	29.857	yaw rate:	-58.217	Roll:	-21.866	Pitch:	-3.425	Yaw:	28.973	Thrust:	0.000
Time:	3.567	Roll Set Point:	0.923	Pitch Set Point:	0.394	Yaw Set Point:	-0.514	X_WP:	0.000	Y_WP:	0.000	Y_WP:	0.500	X:	-0.410	Y:	-0.318	Z:	1.313	yaw:	29.424	yaw rate:	-43.321	Roll:	-22.037	Pitch:	-1.464	Yaw:	32.838	Thrust:	0.000
Time:	3.578	Roll Set Point:	0.935	Pitch Set Point:	0.391	Yaw Set Point:	-0.507	X_WP:	0.000	Y_WP:	0.000	Y_WP:	0.500	X:	-0.417	Y:	-0.317	Z:	1.312	yaw:	29.032	yaw rate:	-39.206	Roll:	-22.948	Pitch:	-0.636	Yaw:	32.333	Thrust:	0.000
Time:	3.589	Roll Set Point:	0.947	Pitch Set Point:	0.389	Yaw Set Point:	-0.499	X_WP:	0.000	Y_WP:	0.000	Y_WP:	0.500	X:	-0.424	Y:	-0.315	Z:	1.312	yaw:	28.607	yaw rate:	-42.518	Roll:	-23.090	Pitch:	-1.081	Yaw:	30.953	Thrust:	0.000
Time:	3.600	Roll Set Point:	0.965	Pitch Set Point:	0.384	Yaw Set Point:	-0.490	X_WP:	0.000	Y_WP:	0.000	Y_WP:	0.500	X:	-0.435	Y:	-0.313	Z:	1.311	yaw:	28.075	yaw rate:	-53.193	Roll:	-27.524	Pitch:	1.059	Yaw:	27.677	Thrust:	0.000
Time:	3.612	Roll Set Point:	0.977	Pitch Set Point:	0.382	Yaw Set Point:	-0.482	X_WP:	0.000	Y_WP:	0.000	Y_WP:	0.500	X:	-0.442	Y:	-0.311	Z:	1.311	yaw:	27.598	yaw rate:	-47.728	Roll:	-23.409	Pitch:	-1.669	Yaw:	28.308	Thrust:	0.000
Time:	3.623	Roll Set Point:	0.989	Pitch Set Point:	0.379	Yaw Set Point:	-0.474	X_WP:	0.000	Y_WP:	0.000	Y_WP:	0.500	X:	-0.449	Y:	-0.309	Z:	1.311	yaw:	27.130	yaw rate:	-46.788	Roll:	-23.682	Pitch:	-1.655	Yaw:	27.877	Thrust:	0.000
Time:	3.634	Roll Set Point:	1.001	Pitch Set Point:	0.376	Yaw Set Point:	-0.467	X_WP:	0.000	Y_WP:	0.000	Y_WP:	0.500	X:	-0.456	Y:	-0.307	Z:	1.311	yaw:	26.783	yaw rate:	-34.664	Roll:	-24.018	Pitch:	0.113	Yaw:	30.272	Thrust:	0.000
Time:	3.645	Roll Set Point:	1.013	Pitch Set Point:	0.373	Yaw Set Point:	-0.460	X_WP:	0.000	Y_WP:	0.000	Y_WP:	0.500	X:	-0.463	Y:	-0.305	Z:	1.311	yaw:	26.339	yaw rate:	-44.475	Roll:	-23.989	Pitch:	-1.358	Yaw:	27.321	Thrust:	0.000
Time:	3.656	Roll Set Point:	1.031	Pitch Set Point:	0.368	Yaw Set Point:	-0.451	X_WP:	0.000	Y_WP:	0.000	Y_WP:	0.500	X:	-0.474	Y:	-0.302	Z:	1.312	yaw:	25.817	yaw rate:	-52.136	Roll:	-28.124	Pitch:	1.381	Yaw:	24.776	Thrust:	0.000
Time:	3.667	Roll Set Point:	1.043	Pitch Set Point:	0.365	Yaw Set Point:	-0.443	X_WP:	0.000	Y_WP:	0.000	Y_WP:	0.500	X:	-0.481	Y:	-0.300	Z:	1.313	yaw:	25.400	yaw rate:	-41.730	Roll:	-24.347	Pitch:	-0.856	Yaw:	26.663	Thrust:	0.000
Time:	3.678	Roll Set Point:	1.056	Pitch Set Point:	0.362	Yaw Set Point:	-0.436	X_WP:	0.000	Y_WP:	0.000	Y_WP:	0.500	X:	-0.488	Y:	-0.298	Z:	1.313	yaw:	24.961	yaw rate:	-43.934	Roll:	-24.611	Pitch:	-1.187	Yaw:	25.526	Thrust:	0.000
Time:	3.689	Roll Set Point:	1.068	Pitch Set Point:	0.357	Yaw Set Point:	-0.430	X_WP:	0.000	Y_WP:	0.000	Y_WP:	0.500	X:	-0.495	Y:	-0.295	Z:	1.314	yaw:	24.639	yaw rate:	-32.205	Roll:	-24.806	Pitch:	0.676	Yaw:	27.860	Thrust:	0.000
Time:	3.700	Roll Set Point:	1.079	Pitch Set Point:	0.357	Yaw Set Point:	-0.417	X_WP:	0.000	Y_WP:	0.000	Y_WP:	0.500	X:	-0.502	Y:	-0.293	Z:	1.315	yaw:	23.907	yaw rate:	-73.149	Roll:	-24.315	Pitch:	-5.614	Yaw:	17.120	Thrust:	0.000
Time:	3.711	Roll Set Point:	1.098	Pitch Set Point:	0.352	Yaw Set Point:	-0.406	X_WP:	0.000	Y_WP:	0.000	Y_WP:	0.500	X:	-0.513	Y:	-0.289	Z:	1.316	yaw:	23.265	yaw rate:	-64.183	Roll:	-29.050	Pitch:	-0.320	Yaw:	18.353	Thrust:	0.000
Time:	3.722	Roll Set Point:	1.110	Pitch Set Point:	0.350	Yaw Set Point:	-0.396	X_WP:	0.000	Y_WP:	0.000	Y_WP:	0.500	X:	-0.520	Y:	-0.286	Z:	1.316	yaw:	22.712	yaw rate:	-55.313	Roll:	-25.291	Pitch:	-2.814	Yaw:	19.685	Thrust:	0.000
Time:	3.733	Roll Set Point:	1.122	Pitch Set Point:	0.347	Yaw Set Point:	-0.387	X_WP:	0.000	Y_WP:	0.000	Y_WP:	0.500	X:	-0.527	Y:	-0.284	Z:	1.317	yaw:	22.175	yaw rate:	-53.730	Roll:	-25.477	Pitch:	-2.671	Yaw:	19.311	Thrust:	0.000
Time:	3.744	Roll Set Point:	1.134	Pitch Set Point:	0.345	Yaw Set Point:	-0.377	X_WP:	0.000	Y_WP:	0.000	Y_WP:	0.500	X:	-0.534	Y:	-0.281	Z:	1.317	yaw:	21.598	yaw rate:	-57.697	Roll:	-25.433	Pitch:	-3.248	Yaw:	17.566	Thrust:	0.000
Time:	3.755	Roll Set Point:	1.153	Pitch Set Point:	0.333	Yaw Set Point:	-0.376	X_WP:	0.000	Y_WP:	0.000	Y_WP:	0.500	X:	-0.545	Y:	-0.276	Z:	1.317	yaw:	21.537	yaw rate:	-6.095	Roll:	-30.000	Pitch:	9.256	Yaw:	29.727	Thrust:	0.000
Time:	3.766	Roll Set Point:	1.165	Pitch Set Point:	0.333	Yaw Set Point:	-0.363	X_WP:	0.000	Y_WP:	0.000	Y_WP:	0.500	X:	-0.552	Y:	-0.273	Z:	1.317	yaw:	20.770	yaw rate:	-76.656	Roll:	-25.442	Pitch:	-6.458	Yaw:	11.909	Thrust:	0.000
Time:	3.777	Roll Set Point:	1.177	Pitch Set Point:	0.328	Yaw Set Point:	-0.357	X_WP:	0.000	Y_WP:	0.000	Y_WP:	0.500	X:	-0.559	Y:	-0.270	Z:	1.318	yaw:	20.462	yaw rate:	-30.800	Roll:	-26.365	Pitch:	1.019	Yaw:	22.363	Thrust:	0.000
Time:	3.788	Roll Set Point:	1.189	Pitch Set Point:	0.334	Yaw Set Point:	-0.335	X_WP:	0.000	Y_WP:	0.000	Y_WP:	0.500	X:	-0.566	Y:	-0.268	Z:	1.318	yaw:	19.172	yaw rate:	-129.035	Roll:	-25.435	Pitch:	-16.185	Yaw:	-2.756	Thrust:	0.000
Time:	3.799	Roll Set Point:	1.201	Pitch Set Point:	0.333	Yaw Set Point:	-0.323	X_WP:	0.000	Y_WP:	0.000	Y_WP:	0.500	X:	-0.573	Y:	-0.264	Z:	1.318	yaw:	18.482	yaw rate:	-68.978	Roll:	-25.767	Pitch:	-5.872	Yaw:	10.577	Thrust:	0.000
Time:	3.810	Roll Set Point:	1.218	Pitch Set Point:	0.331	Yaw Set Point:	-0.307	X_WP:	0.000	Y_WP:	0.000	Y_WP:	0.500	X:	-0.583	Y:	-0.260	Z:	1.318	yaw:	17.596	yaw rate:	-88.632	Roll:	-29.780	Pitch:	-5.534	Yaw:	5.015	Thrust:	0.000
Time:	3.821	Roll Set Point:	1.230	Pitch Set Point:	0.320	Yaw Set Point:	-0.310	X_WP:	0.000	Y_WP:	0.000	Y_WP:	0.500	X:	-0.590	Y:	-0.256	Z:	1.318	yaw:	17.774	yaw rate:	17.782	Roll:	-27.552	Pitch:	8.953	Yaw:	30.140	Thrust:	0.000
Time:	3.832	Roll Set Point:	1.241	Pitch Set Point:	0.327	Yaw Set Point:	-0.286	X_WP:	0.000	Y_WP:	0.000	Y_WP:	0.500	X:	-0.597	Y:	-0.253	Z:	1.317	yaw:	16.414	yaw rate:	-135.918	Roll:	-25.447	Pitch:	-18.442	Yaw:	-8.158	Thrust:	0.000
Time:	3.843	Roll Set Point:	1.252	Pitch Set Point:	0.320	Yaw Set Point:	-0.283	X_WP:	0.000	Y_WP:	0.000	Y_WP:	0.500	X:	-0.603	Y:	-0.249	Z:	1.317	yaw:	16.236	yaw rate:	-17.881	Roll:	-26.462	Pitch:	2.872	Yaw:	19.525	Thrust:	0.000
Time:	3.854	Roll Set Point:	1.265	Pitch Set Point:	0.324	Yaw Set Point:	-0.266	X_WP:	0.000	Y_WP:	0.000	Y_WP:	0.500	X:	-0.611	Y:	-0.247	Z:	1.317	yaw:	15.226	yaw rate:	-100.988	Roll:	-26.995	Pitch:	-13.388	Yaw:	-1.609	Thrust:	0.000
Time:	3.865	Roll Set Point:	1.281	Pitch Set Point:	0.315	Yaw Set Point:	-0.259	X_WP:	0.000	Y_WP:	0.000	Y_WP:	0.500	X:	-0.620	Y:	-0.241	Z:	1.316	yaw:	14.816	yaw rate:	-40.959	Roll:	-30.000	Pitch:	2.484	Yaw:	12.070	Thrust:	0.000
Time:	3.876	Roll Set Point:	1.293	Pitch Set Point:	0.314	Yaw Set Point:	-0.248	X_WP:	0.000	Y_WP:	0.000	Y_WP:	0.500	X:	-0.627	Y:	-0.237	Z:	1.316	yaw:	14.224	yaw rate:	-59.186	Roll:	-27.109	Pitch:	-5.506	Yaw:	6.919	Thrust:	0.000
Time:	3.887	Roll Set Point:	1.304	Pitch Set Point:	0.311	Yaw Set Point:	-0.239	X_WP:	0.000	Y_WP:	0.000	Y_WP:	0.500	X:	-0.633	Y:	-0.234	Z:	1.316	yaw:	13.708	yaw rate:	-51.673	Roll:	-27.319	Pitch:	-4.113	Yaw:	7.974	Thrust:	0.000
Time:	3.899	Roll Set Point:	1.315	Pitch Set Point:	0.321	Yaw Set Point:	-0.213	X_WP:	0.000	Y_WP:	0.000	Y_WP:	0.500	X:	-0.640	Y:	-0.231	Z:	1.316	yaw:	12.198	yaw rate:	-150.951	Roll:	-25.922	Pitch:	-23.115	Yaw:	-17.691	Thrust:	0.000
Time:	3.910	Roll Set Point:	1.327	Pitch Set Point:	0.308	Yaw Set Point:	-0.218	X_WP:	0.000	Y_WP:	0.000	Y_WP:	0.500	X:	-0.646	Y:	-0.226	Z:	1.316	yaw:	12.490	yaw rate:	29.223	Roll:	-28.645	Pitch:	11.125	Yaw:	25.494	Thrust:	0.000
Time:	3.921	Roll Set Point:	1.342	Pitch Set Point:	0.314	Yaw Set Point:	-0.189	X_WP:	0.000	Y_WP:	0.000	Y_WP:	0.500	X:	-0.656	Y:	-0.221	Z:	1.316	yaw:	10.802	yaw rate:	-168.864	Roll:	-29.429	Pitch:	-22.430	Yaw:	-23.895	Thrust:	0.000
Time:	3.932	Roll Set Point:	1.355	Pitch Set Point:	0.300	Yaw Set Point:	-0.194	X_WP:	0.000	Y_WP:	0.000	Y_WP:	0.500	X:	-0.663	Y:	-0.216	Z:	1.316	yaw:	11.141	yaw rate:	33.926	Roll:	-29.592	Pitch:	11.797	Yaw:	24.695	Thrust:	0.000
Time:	3.943	Roll Set Point:	1.365	Pitch Set Point:	0.299	Yaw Set Point:	-0.183	X_WP:	0.000	Y_WP:	0.000	Y_WP:	0.500	X:	-0.669	Y:	-0.212	Z:	1.316	yaw:	10.470	yaw rate:	-67.109	Roll:	-27.424	Pitch:	-7.275	Yaw:	-0.215	Thrust:	0.000
Time:	3.954	Roll Set Point:	1.375	Pitch Set Point:	0.303	Yaw Set Point:	-0.164	X_WP:	0.000	Y_WP:	0.000	Y_WP:	0.500	X:	-0.675	Y:	-0.208	Z:	1.316	yaw:	9.382	yaw rate:	-108.757	Roll:	-26.585	Pitch:	-15.237	Yaw:	-11.612	Thrust:	0.000
Time:	3.965	Roll Set Point:	1.391	Pitch Set Point:	0.302	Yaw Set Point:	-0.144	X_WP:	0.000	Y_WP:	0.000	Y_WP:	0.500	X:	-0.685	Y:	-0.201	Z:	1.316	yaw:	8.246	yaw rate:	-113.636	Roll:	-30.000	Pitch:	-12.545	Yaw:	-14.344	Thrust:	0.000
Time:	3.976	Roll Set Point:	1.401	Pitch Set Point:	0.296	Yaw Set Point:	-0.138	X_WP:	0.000	Y_WP:	0.000	Y_WP:	0.500	X:	-0.690	Y:	-0.196	Z:	1.316	yaw:	7.881	yaw rate:	-36.526	Roll:	-27.985	Pitch:	-1.906	Yaw:	3.440	Thrust:	0.000
Time:	3.987	Roll Set Point:	1.411	Pitch Set Point:	0.301	Yaw Set Point:	-0.117	X_WP:	0.000	Y_WP:	0.000	Y_WP:	0.500	X:	-0.696	Y:	-0.192	Z:	1.315	yaw:	6.688	yaw rate:	-119.303	Roll:	-26.164	Pitch:	-18.475	Yaw:	-17.879	Thrust:	0.000
Time:	3.998	Roll Set Point:	1.421	Pitch Set Point:	0.293	Yaw Set Point:	-0.115	X_WP:	0.000	Y_WP:	0.000	Y_WP:	0.500	X:	-0.702	Y:	-0.187	Z:	1.315	yaw:	6.578	yaw rate:	-10.961	Roll:	-28.943	Pitch:	2.692	Yaw:	7.686	Thrust:	0.000
Time:	4.009	Roll Set Point:	1.431	Pitch Set Point:	0.293	Yaw Set Point:	-0.101	X_WP:	0.000	Y_WP:	0.000	Y_WP:	0.500	X:	-0.708	Y:	-0.183	Z:	1.315	yaw:	5.790	yaw rate:	-78.849	Roll:	-27.088	Pitch:	-10.773	Yaw:	-9.521	Thrust:	0.000
Time:	4.020	Roll Set Point:	1.445	Pitch Set Point:	0.288	Yaw Set Point:	-0.088	X_WP:	0.000	Y_WP:	0.000	Y_WP:	0.500	X:	-0.716	Y:	-0.176	Z:	1.315	yaw:	5.038	yaw rate:	-75.158	Roll:	-30.000	Pitch:	-6.786	Yaw:	-9.718	Thrust:	0.000
Time:	4.031	Roll Set Point:	1.454	Pitch Set Point:	0.291	Yaw Set Point:	-0.070	X_WP:	0.000	Y_WP:	0.000	Y_WP:	0.500	X:	-0.722	Y:	-0.171	Z:	1.315	yaw:	4.038	yaw rate:	-99.992	Roll:	-26.646	Pitch:	-15.890	Yaw:	-17.003	Thrust:	0.000
Time:	4.042	Roll Set Point:	1.463	Pitch Set Point:	0.295	Yaw Set Point:	-0.054	X_WP:	0.000	Y_WP:	0.000	Y_WP:	0.500	X:	-0.728	Y:	-0.167	Z:	1.315	yaw:	3.067	yaw rate:	-97.115	Roll:	-26.832	Pitch:	-16.083	Yaw:	-17.668	Thrust:	0.000
Time:	4.053	Roll Set Point:	1.471	Pitch Set Point:	0.292	Yaw Set Point:	-0.043	X_WP:	0.000	Y_WP:	0.000	Y_WP:	0.500	X:	-0.732	Y:	-0.162	Z:	1.314	yaw:	2.468	yaw rate:	-59.908	Roll:	-26.746	Pitch:	-7.871	Yaw:	-9.672	Thrust:	0.000
Time:	4.064	Roll Set Point:	1.479	Pitch Set Point:	0.293	Yaw Set Point:	-0.029	X_WP:	0.000	Y_WP:	0.000	Y_WP:	0.500	X:	-0.738	Y:	-0.157	Z:	1.313	yaw:	1.647	yaw rate:	-82.109	Roll:	-26.570	Pitch:	-13.172	Yaw:	-16.130	Thrust:	0.000
Time:	4.075	Roll Set Point:	1.489	Pitch Set Point:	0.293	Yaw Set Point:	-0.018	X_WP:	0.000	Y_WP:	0.000	Y_WP:	0.500	X:	-0.743	Y:	-0.153	Z:	1.313	yaw:	1.029	yaw rate:	-61.810	Roll:	-28.093	Pitch:	-10.487	Yaw:	-12.100	Thrust:	0.000
Time:	4.086	Roll Set Point:	1.500	Pitch Set Point:	0.295	Yaw Set Point:	0.003	X_WP:	0.000	Y_WP:	0.000	Y_WP:	0.500	X:	-0.750	Y:	-0.146	Z:	1.312	yaw:	-0.182	yaw rate:	-121.064	Roll:	-28.719	Pitch:	-18.481	Yaw:	-27.878	Thrust:	0.000
Time:	4.097	Roll Set Point:	1.509	Pitch Set Point:	0.289	Yaw Set Point:	0.007	X_WP:	0.000	Y_WP:	0.000	Y_WP:	0.500	X:	-0.755	Y:	-0.142	Z:	1.312	yaw:	-0.375	yaw rate:	-19.336	Roll:	-28.414	Pitch:	-1.687	Yaw:	-4.025	Thrust:	0.000
Time:	4.108	Roll Set Point:	1.510	Pitch Set Point:	0.324	Yaw Set Point:	0.065	X_WP:	0.000	Y_WP:	0.000	Y_WP:	0.500	X:	-0.760	Y:	-0.137	Z:	1.312	yaw:	-3.716	yaw rate:	-334.083	Roll:	-15.718	Pitch:	-30.000	Yaw:	-83.385	Thrust:	0.000
Time:	4.119	Roll Set Point:	1.523	Pitch Set Point:	0.294	Yaw Set Point:	0.037	X_WP:	0.000	Y_WP:	0.000	Y_WP:	0.500	X:	-0.764	Y:	-0.133	Z:	1.311	yaw:	-2.141	yaw rate:	157.545	Roll:	-30.000	Pitch:	30.000	Yaw:	35.405	Thrust:	0.000
Time:	4.130	Roll Set Point:	1.540	Pitch Set Point:	0.273	Yaw Set Point:	0.026	X_WP:	0.000	Y_WP:	0.000	Y_WP:	0.500	X:	-0.772	Y:	-0.127	Z:	1.310	yaw:	-1.466	yaw rate:	67.515	Roll:	-30.000	Pitch:	18.189	Yaw:	15.094	Thrust:	0.000
Time:	4.141	Roll Set Point:	1.544	Pitch Set Point:	0.286	Yaw Set Point:	0.054	X_WP:	0.000	Y_WP:	0.000	Y_WP:	0.500	X:	-0.776	Y:	-0.122	Z:	1.309	yaw:	-3.097	yaw rate:	-163.131	Roll:	-22.838	Pitch:	-30.000	Yaw:	-41.975	Thrust:	0.000
Time:	4.152	Roll Set Point:	1.550	Pitch Set Point:	0.289	Yaw Set Point:	0.069	X_WP:	0.000	Y_WP:	0.000	Y_WP:	0.500	X:	-0.780	Y:	-0.118	Z:	1.309	yaw:	-3.981	yaw rate:	-88.427	Roll:	-25.921	Pitch:	-17.075	Yaw:	-25.443	Thrust:	0.000
Time:	4.163	Roll Set Point:	1.554	Pitch Set Point:	0.305	Yaw Set Point:	0.101	X_WP:	0.000	Y_WP:	0.000	Y_WP:	0.500	X:	-0.785	Y:	-0.113	Z:	1.308	yaw:	-5.801	yaw rate:	-181.955	Roll:	-21.568	Pitch:	-30.000	Yaw:	-50.335	Thrust:	0.000
Time:	4.174	Roll Set Point:	1.559	Pitch Set Point:	0.315	Yaw Set Point:	0.124	X_WP:	0.000	Y_WP:	0.000	Y_WP:	0.500	X:	-0.789	Y:	-0.109	Z:	1.308	yaw:	-7.115	yaw rate:	-131.436	Roll:	-23.337	Pitch:	-27.928	Yaw:	-40.033	Thrust:	0.000
Time:	4.185	Roll Set Point:	1.570	Pitch Set Point:	0.316	Yaw Set Point:	0.141	X_WP:	0.000	Y_WP:	0.000	Y_WP:	0.500	X:	-0.796	Y:	-0.103	Z:	1.307	yaw:	-8.061	yaw rate:	-94.569	Roll:	-29.005	Pitch:	-17.774	Yaw:	-32.699	Thrust:	0.000
Time:	4.196	Roll Set Point:	1.577	Pitch Set Point:	0.316	Yaw Set Point:	0.151	X_WP:	0.000	Y_WP:	0.000	Y_WP:	0.500	X:	-0.800	Y:	-0.099	Z:	1.306	yaw:	-8.630	yaw rate:	-56.900	Roll:	-27.223	Pitch:	-13.289	Yaw:	-24.588	Thrust:	0.000
Time:	4.207	Roll Set Point:	1.585	Pitch Set Point:	0.315	Yaw Set Point:	0.158	X_WP:	0.000	Y_WP:	0.000	Y_WP:	0.500	X:	-0.805	Y:	-0.095	Z:	1.305	yaw:	-9.080	yaw rate:	-45.044	Roll:	-28.126	Pitch:	-11.233	Yaw:	-22.429	Thrust:	0.000
Time:	4.218	Roll Set Point:	1.592	Pitch Set Point:	0.315	Yaw Set Point:	0.168	X_WP:	0.000	Y_WP:	0.000	Y_WP:	0.500	X:	-0.809	Y:	-0.091	Z:	1.304	yaw:	-9.629	yaw rate:	-54.838	Roll:	-27.426	Pitch:	-13.467	Yaw:	-25.567	Thrust:	0.000
Time:	4.229	Roll Set Point:	1.604	Pitch Set Point:	0.301	Yaw Set Point:	0.157	X_WP:	0.000	Y_WP:	0.000	Y_WP:	0.500	X:	-0.814	Y:	-0.087	Z:	1.303	yaw:	-9.013	yaw rate:	61.552	Roll:	-30.000	Pitch:	10.417	Yaw:	2.912	Thrust:	0.000
Time:	4.240	Roll Set Point:	1.610	Pitch Set Point:	0.317	Yaw Set Point:	0.191	X_WP:	0.000	Y_WP:	0.000	Y_WP:	0.500	X:	-0.820	Y:	-0.081	Z:	1.301	yaw:	-10.948	yaw rate:	-193.440	Roll:	-22.913	Pitch:	-30.000	Yaw:	-60.289	Thrust:	0.000
Time:	4.251	Roll Set Point:	1.619	Pitch Set Point:	0.315	Yaw Set Point:	0.196	X_WP:	0.000	Y_WP:	0.000	Y_WP:	0.500	X:	-0.825	Y:	-0.078	Z:	1.300	yaw:	-11.235	yaw rate:	-28.759	Roll:	-29.598	Pitch:	-9.448	Yaw:	-21.728	Thrust:	0.000
Time:	4.262	Roll Set Point:	1.628	Pitch Set Point:	0.309	Yaw Set Point:	0.197	X_WP:	0.000	Y_WP:	0.000	Y_WP:	0.500	X:	-0.829	Y:	-0.074	Z:	1.299	yaw:	-11.313	yaw rate:	-7.763	Roll:	-30.000	Pitch:	-4.569	Yaw:	-16.899	Thrust:	0.000
Time:	4.274	Roll Set Point:	1.636	Pitch Set Point:	0.309	Yaw Set Point:	0.205	X_WP:	0.000	Y_WP:	0.000	Y_WP:	0.500	X:	-0.834	Y:	-0.071	Z:	1.298	yaw:	-11.741	yaw rate:	-42.780	Roll:	-28.825	Pitch:	-12.730	Yaw:	-25.850	Thrust:	0.000
Time:	4.285	Roll Set Point:	1.652	Pitch Set Point:	0.297	Yaw Set Point:	0.199	X_WP:	0.000	Y_WP:	0.000	Y_WP:	0.500	X:	-0.841	Y:	-0.066	Z:	1.296	yaw:	-11.410	yaw rate:	33.014	Roll:	-30.000	Pitch:	4.623	Yaw:	-7.444	Thrust:	0.000
Time:	4.296	Roll Set Point:	1.652	Pitch Set Point:	0.320	Yaw Set Point:	0.235	X_WP:	0.000	Y_WP:	0.000	Y_WP:	0.500	X:	-0.845	Y:	-0.062	Z:	1.295	yaw:	-13.457	yaw rate:	-204.636	Roll:	-17.366	Pitch:	-30.000	Yaw:	-66.746	Thrust:	0.000
Time:	4.307	Roll Set Point:	1.661	Pitch Set Point:	0.318	Yaw Set Point:	0.239	X_WP:	0.000	Y_WP:	0.000	Y_WP:	0.500	X:	-0.849	Y:	-0.059	Z:	1.293	yaw:	-13.704	yaw rate:	-24.682	Roll:	-30.000	Pitch:	-10.518	Yaw:	-24.436	Thrust:	0.000
Time:	4.319	Roll Set Point:	1.668	Pitch Set Point:	0.320	Yaw Set Point:	0.247	X_WP:	0.000	Y_WP:	0.000	Y_WP:	0.500	X:	-0.854	Y:	-0.056	Z:	1.292	yaw:	-14.131	yaw rate:	-42.693	Roll:	-28.655	Pitch:	-14.044	Yaw:	-28.475	Thrust:	0.000
Time:	4.330	Roll Set Point:	1.677	Pitch Set Point:	0.321	Yaw Set Point:	0.255	X_WP:	0.000	Y_WP:	0.000	Y_WP:	0.500	X:	-0.859	Y:	-0.053	Z:	1.290	yaw:	-14.590	yaw rate:	-45.954	Roll:	-29.225	Pitch:	-15.668	Yaw:	-30.835	Thrust:	0.000
Time:	4.341	Roll Set Point:	1.685	Pitch Set Point:	0.322	Yaw Set Point:	0.260	X_WP:	0.000	Y_WP:	0.000	Y_WP:	0.500	X:	-0.863	Y:	-0.051	Z:	1.289	yaw:	-14.914	yaw rate:	-32.433	Roll:	-29.827	Pitch:	-12.961	Yaw:	-28.130	Thrust:	0.000
Time:	4.352	Roll Set Point:	1.696	Pitch Set Point:	0.326	Yaw Set Point:	0.274	X_WP:	0.000	Y_WP:	0.000	Y_WP:	0.500	X:	-0.871	Y:	-0.046	Z:	1.288	yaw:	-15.704	yaw rate:	-78.966	Roll:	-30.000	Pitch:	-22.415	Yaw:	-40.383	Thrust:	0.000
Time:	4.363	Roll Set Point:	1.704	Pitch Set Point:	0.327	Yaw Set Point:	0.280	X_WP:	0.000	Y_WP:	0.000	Y_WP:	0.500	X:	-0.875	Y:	-0.043	Z:	1.286	yaw:	-16.044	yaw rate:	-34.015	Roll:	-30.000	Pitch:	-14.046	Yaw:	-30.182	Thrust:	0.000
Time:	4.374	Roll Set Point:	1.714	Pitch Set Point:	0.323	Yaw Set Point:	0.281	X_WP:	0.000	Y_WP:	0.000	Y_WP:	0.500	X:	-0.880	Y:	-0.040	Z:	1.286	yaw:	-16.111	yaw rate:	-6.715	Roll:	-30.000	Pitch:	-7.717	Yaw:	-23.878	Thrust:	0.000
Time:	4.385	Roll Set Point:	1.722	Pitch Set Point:	0.327	Yaw Set Point:	0.291	X_WP:	0.000	Y_WP:	0.000	Y_WP:	0.500	X:	-0.885	Y:	-0.037	Z:	1.285	yaw:	-16.648	yaw rate:	-53.621	Roll:	-28.892	Pitch:	-18.710	Yaw:	-35.822	Thrust:	0.000
Time:	4.396	Roll Set Point:	1.734	Pitch Set Point:	0.328	Yaw Set Point:	0.299	X_WP:	0.000	Y_WP:	0.000	Y_WP:	0.500	X:	-0.892	Y:	-0.033	Z:	1.284	yaw:	-17.125	yaw rate:	-47.703	Roll:	-30.000	Pitch:	-16.780	Yaw:	-35.148	Thrust:	0.000
Time:	4.407	Roll Set Point:	1.742	Pitch Set Point:	0.329	Yaw Set Point:	0.304	X_WP:	0.000	Y_WP:	0.000	Y_WP:	0.500	X:	-0.896	Y:	-0.031	Z:	1.284	yaw:	-17.440	yaw rate:	-31.528	Roll:	-30.000	Pitch:	-14.349	Yaw:	-31.815	Thrust:	0.000
Time:	4.418	Roll Set Point:	1.753	Pitch Set Point:	0.324	Yaw Set Point:	0.303	X_WP:	0.000	Y_WP:	0.000	Y_WP:	0.500	X:	-0.901	Y:	-0.028	Z:	1.284	yaw:	-17.354	yaw rate:	8.589	Roll:	-30.000	Pitch:	-5.648	Yaw:	-22.238	Thrust:	0.000
Time:	4.429	Roll Set Point:	1.761	Pitch Set Point:	0.326	Yaw Set Point:	0.310	X_WP:	0.000	Y_WP:	0.000	Y_WP:	0.500	X:	-0.906	Y:	-0.026	Z:	1.285	yaw:	-17.734	yaw rate:	-37.953	Roll:	-30.000	Pitch:	-16.022	Yaw:	-33.879	Thrust:	0.000
Time:	4.440	Roll Set Point:	1.768	Pitch Set Point:	0.329	Yaw Set Point:	0.317	X_WP:	0.000	Y_WP:	0.000	Y_WP:	0.500	X:	-0.910	Y:	-0.023	Z:	1.285	yaw:	-18.164	yaw rate:	-43.039	Roll:	-29.772	Pitch:	-17.564	Yaw:	-35.785	Thrust:	0.000
Time:	4.451	Roll Set Point:	1.776	Pitch Set Point:	0.330	Yaw Set Point:	0.323	X_WP:	0.000	Y_WP:	0.000	Y_WP:	0.500	X:	-0.915	Y:	-0.020	Z:	1.286	yaw:	-18.517	yaw rate:	-35.298	Roll:	-30.000	Pitch:	-16.074	Yaw:	-34.466	Thrust:	0.000
Time:	4.462	Roll Set Point:	1.787	Pitch Set Point:	0.334	Yaw Set Point:	0.333	X_WP:	0.000	Y_WP:	0.000	Y_WP:	0.500	X:	-0.922	Y:	-0.017	Z:	1.286	yaw:	-19.090	yaw rate:	-57.347	Roll:	-30.000	Pitch:	-20.901	Yaw:	-40.591	Thrust:	0.000
Time:	4.473	Roll Set Point:	1.795	Pitch Set Point:	0.337	Yaw Set Point:	0.340	X_WP:	0.000	Y_WP:	0.000	Y_WP:	0.500	X:	-0.926	Y:	-0.014	Z:	1.287	yaw:	-19.476	yaw rate:	-38.544	Roll:	-30.000	Pitch:	-17.535	Yaw:	-36.761	Thrust:	0.000
Time:	4.485	Roll Set Point:	1.802	Pitch Set Point:	0.339	Yaw Set Point:	0.347	X_WP:	0.000	Y_WP:	0.000	Y_WP:	0.500	X:	-0.931	Y:	-0.012	Z:	1.288	yaw:	-19.863	yaw rate:	-38.760	Roll:	-29.538	Pitch:	-17.136	Yaw:	-36.684	Thrust:	0.000
Time:	4.496	Roll Set Point:	1.809	Pitch Set Point:	0.342	Yaw Set Point:	0.353	X_WP:	0.000	Y_WP:	0.000	Y_WP:	0.500	X:	-0.935	Y:	-0.010	Z:	1.289	yaw:	-20.228	yaw rate:	-36.501	Roll:	-30.000	Pitch:	-17.482	Yaw:	-37.439	Thrust:	0.000
Time:	4.507	Roll Set Point:	1.816	Pitch Set Point:	0.345	Yaw Set Point:	0.360	X_WP:	0.000	Y_WP:	0.000	Y_WP:	0.500	X:	-0.939	Y:	-0.007	Z:	1.289	yaw:	-20.604	yaw rate:	-37.608	Roll:	-29.761	Pitch:	-18.036	Yaw:	-38.323	Thrust:	0.000
Time:	4.518	Roll Set Point:	1.826	Pitch Set Point:	0.348	Yaw Set Point:	0.369	X_WP:	0.000	Y_WP:	0.000	Y_WP:	0.500	X:	-0.945	Y:	-0.004	Z:	1.290	yaw:	-21.115	yaw rate:	-51.021	Roll:	-30.000	Pitch:	-21.084	Yaw:	-42.323	Thrust:	0.000
Time:	4.530	Roll Set Point:	1.838	Pitch Set Point:	0.354	Yaw Set Point:	0.382	X_WP:	0.000	Y_WP:	0.000	Y_WP:	0.500	X:	-0.953	Y:	0.001	Z:	1.291	yaw:	-21.906	yaw rate:	-36.204	Roll:	-30.000	Pitch:	-26.040	Yaw:	-48.620	Thrust:	0.000
Time:	4.541	Roll Set Point:	1.838	Pitch Set Point:	0.354	Yaw Set Point:	0.382	X_WP:	0.000	Y_WP:	0.000	Y_WP:	0.500	X:	-0.953	Y:	0.001	Z:	1.291	yaw:	-21.906	yaw rate:	-36.204	Roll:	-26.076	Pitch:	-10.710	Yaw:	-31.458	Thrust:	0.000
Time:	4.552	Roll Set Point:	1.851	Pitch Set Point:	0.360	Yaw Set Point:	0.395	X_WP:	0.000	Y_WP:	0.000	Y_WP:	0.500	X:	-0.961	Y:	0.005	Z:	1.292	yaw:	-22.655	yaw rate:	-46.776	Roll:	-30.000	Pitch:	-26.710	Yaw:	-50.372	Thrust:	0.000
Time:	4.565	Roll Set Point:	1.860	Pitch Set Point:	0.363	Yaw Set Point:	0.404	X_WP:	0.000	Y_WP:	0.000	Y_WP:	0.500	X:	-0.967	Y:	0.009	Z:	1.293	yaw:	-23.172	yaw rate:	-51.672	Roll:	-30.000	Pitch:	-20.326	Yaw:	-43.984	Thrust:	0.000
Time:	4.576	Roll Set Point:	1.860	Pitch Set Point:	0.363	Yaw Set Point:	0.404	X_WP:	0.000	Y_WP:	0.000	Y_WP:	0.500	X:	-0.967	Y:	0.009	Z:	1.293	yaw:	-23.172	yaw rate:	-51.672	Roll:	-26.304	Pitch:	-11.207	Yaw:	-33.489	Thrust:	0.000
Time:	4.587	Roll Set Point:	1.866	Pitch Set Point:	0.366	Yaw Set Point:	0.411	X_WP:	0.000	Y_WP:	0.000	Y_WP:	0.500	X:	-0.971	Y:	0.012	Z:	1.294	yaw:	-23.545	yaw rate:	-37.373	Roll:	-29.439	Pitch:	-19.106	Yaw:	-42.970	Thrust:	0.000
Time:	4.598	Roll Set Point:	1.875	Pitch Set Point:	0.368	Yaw Set Point:	0.420	X_WP:	0.000	Y_WP:	0.000	Y_WP:	0.500	X:	-0.977	Y:	0.015	Z:	1.295	yaw:	-24.054	yaw rate:	-50.845	Roll:	-30.000	Pitch:	-21.930	Yaw:	-46.990	Thrust:	0.000
Time:	4.610	Roll Set Point:	1.886	Pitch Set Point:	0.374	Yaw Set Point:	0.434	X_WP:	0.000	Y_WP:	0.000	Y_WP:	0.500	X:	-0.984	Y:	0.021	Z:	1.296	yaw:	-24.866	yaw rate:	-33.212	Roll:	-30.000	Pitch:	-27.379	Yaw:	-53.884	Thrust:	0.000
Time:	4.621	Roll Set Point:	1.886	Pitch Set Point:	0.374	Yaw Set Point:	0.434	X_WP:	0.000	Y_WP:	0.000	Y_WP:	0.500	X:	-0.984	Y:	0.021	Z:	1.296	yaw:	-24.866	yaw rate:	-33.212	Roll:	-26.558	Pitch:	-11.865	Yaw:	-36.219	Thrust:	0.000
Time:	4.632	Roll Set Point:	1.893	Pitch Set Point:	0.378	Yaw Set Point:	0.444	X_WP:	0.000	Y_WP:	0.000	Y_WP:	0.500	X:	-0.989	Y:	0.025	Z:	1.297	yaw:	-25.459	yaw rate:	-59.286	Roll:	-30.000	Pitch:	-24.424	Yaw:	-51.214	Thrust:	0.000
Time:	4.644	Roll Set Point:	1.901	Pitch Set Point:	0.377	Yaw Set Point:	0.447	X_WP:	0.000	Y_WP:	0.000	Y_WP:	0.500	X:	-0.993	Y:	0.028	Z:	1.298	yaw:	-25.595	yaw rate:	-13.622	Roll:	-30.000	Pitch:	-14.182	Yaw:	-40.665	Thrust:	0.000
Time:	4.655	Roll Set Point:	1.906	Pitch Set Point:	0.379	Yaw Set Point:	0.453	X_WP:	0.000	Y_WP:	0.000	Y_WP:	0.500	X:	-0.997	Y:	0.030	Z:	1.299	yaw:	-25.969	yaw rate:	-37.366	Roll:	-29.454	Pitch:	-19.916	Yaw:	-46.921	Thrust:	0.000
Time:	4.666	Roll Set Point:	1.907	Pitch Set Point:	0.388	Yaw Set Point:	0.468	X_WP:	0.000	Y_WP:	0.000	Y_WP:	0.500	X:	-1.000	Y:	0.033	Z:	1.300	yaw:	-26.814	yaw rate:	-84.527	Roll:	-23.948	Pitch:	-30.000	Yaw:	-59.396	Thrust:	0.000
Time:	4.677	Roll Set Point:	1.913	Pitch Set Point:	0.389	Yaw Set Point:	0.474	X_WP:	0.000	Y_WP:	0.000	Y_WP:	0.500	X:	-1.004	Y:	0.036	Z:	1.301	yaw:	-27.149	yaw rate:	-33.544	Roll:	-29.985	Pitch:	-19.390	Yaw:	-47.866	Thrust:	0.000
Time:	4.688	Roll Set Point:	1.922	Pitch Set Point:	0.390	Yaw Set Point:	0.482	X_WP:	0.000	Y_WP:	0.000	Y_WP:	0.500	X:	-1.009	Y:	0.041	Z:	1.302	yaw:	-27.594	yaw rate:	-44.505	Roll:	-30.000	Pitch:	-21.324	Yaw:	-51.214	Thrust:	0.000
Time:	4.700	Roll Set Point:	1.927	Pitch Set Point:	0.392	Yaw Set Point:	0.488	X_WP:	0.000	Y_WP:	0.000	Y_WP:	0.500	X:	-1.012	Y:	0.044	Z:	1.303	yaw:	-27.978	yaw rate:	-38.412	Roll:	-29.308	Pitch:	-20.039	Yaw:	-49.816	Thrust:	0.000
Time:	4.711	Roll Set Point:	1.933	Pitch Set Point:	0.393	Yaw Set Point:	0.494	X_WP:	0.000	Y_WP:	0.000	Y_WP:	0.500	X:	-1.016	Y:	0.047	Z:	1.303	yaw:	-28.314	yaw rate:	-33.539	Roll:	-30.000	Pitch:	-19.470	Yaw:	-49.701	Thrust:	0.000
Time:	4.722	Roll Set Point:	1.938	Pitch Set Point:	0.393	Yaw Set Point:	0.500	X_WP:	0.000	Y_WP:	0.000	Y_WP:	0.500	X:	-1.019	Y:	0.051	Z:	1.304	yaw:	-28.628	yaw rate:	-31.381	Roll:	-30.000	Pitch:	-18.930	Yaw:	-49.626	Thrust:	0.000
Time:	4.733	Roll Set Point:	1.944	Pitch Set Point:	0.392	Yaw Set Point:	0.504	X_WP:	0.000	Y_WP:	0.000	Y_WP:	0.500	X:	-1.023	Y:	0.054	Z:	1.304	yaw:	-28.882	yaw rate:	-25.452	Roll:	-30.000	Pitch:	-17.463	Yaw:	-48.584	Thrust:	0.000
Time:	4.744	Roll Set Point:	1.953	Pitch Set Point:	0.392	Yaw Set Point:	0.512	X_WP:	0.000	Y_WP:	0.000	Y_WP:	0.500	X:	-1.028	Y:	0.060	Z:	1.305	yaw:	-29.349	yaw rate:	-46.639	Roll:	-30.000	Pitch:	-21.430	Yaw:	-54.234	Thrust:	0.000
Time:	4.755	Roll Set Point:	1.958	Pitch Set Point:	0.392	Yaw Set Point:	0.519	X_WP:	0.000	Y_WP:	0.000	Y_WP:	0.500	X:	-1.031	Y:	0.064	Z:	1.306	yaw:	-29.718	yaw rate:	-36.974	Roll:	-30.000	Pitch:	-20.224	Yaw:	-52.493	Thrust:	0.000
Time:	4.766	Roll Set Point:	1.964	Pitch Set Point:	0.392	Yaw Set Point:	0.525	X_WP:	0.000	Y_WP:	0.000	Y_WP:	0.500	X:	-1.034	Y:	0.068	Z:	1.306	yaw:	-30.069	yaw rate:	-35.088	Roll:	-30.000	Pitch:	-19.722	Yaw:	-52.504	Thrust:	0.000
Time:	4.777	Roll Set Point:	1.969	Pitch Set Point:	0.392	Yaw Set Point:	0.531	X_WP:	0.000	Y_WP:	0.000	Y_WP:	0.500	X:	-1.038	Y:	0.072	Z:	1.307	yaw:	-30.445	yaw rate:	-37.570	Roll:	-30.000	Pitch:	-20.345	Yaw:	-53.635	Thrust:	0.000
Time:	4.788	Roll Set Point:	1.973	Pitch Set Point:	0.393	Yaw Set Point:	0.539	X_WP:	0.000	Y_WP:	0.000	Y_WP:	0.500	X:	-1.041	Y:	0.076	Z:	1.307	yaw:	-30.881	yaw rate:	-43.638	Roll:	-29.633	Pitch:	-21.890	Yaw:	-55.680	Thrust:	0.000
Time:	4.799	Roll Set Point:	1.982	Pitch Set Point:	0.392	Yaw Set Point:	0.548	X_WP:	0.000	Y_WP:	0.000	Y_WP:	0.500	X:	-1.046	Y:	0.083	Z:	1.307	yaw:	-31.396	yaw rate:	-51.429	Roll:	-30.000	Pitch:	-22.359	Yaw:	-58.250	Thrust:	0.000
Time:	4.810	Roll Set Point:	1.987	Pitch Set Point:	0.393	Yaw Set Point:	0.556	X_WP:	0.000	Y_WP:	0.000	Y_WP:	0.500	X:	-1.049	Y:	0.087	Z:	1.307	yaw:	-31.856	yaw rate:	-45.993	Roll:	-29.692	Pitch:	-22.612	Yaw:	-57.623	Thrust:	0.000
Time:	4.821	Roll Set Point:	1.992	Pitch Set Point:	0.392	Yaw Set Point:	0.563	X_WP:	0.000	Y_WP:	0.000	Y_WP:	0.500	X:	-1.053	Y:	0.092	Z:	1.307	yaw:	-32.230	yaw rate:	-37.398	Roll:	-30.000	Pitch:	-20.412	Yaw:	-56.068	Thrust:	0.000
Time:	4.832	Roll Set Point:	1.997	Pitch Set Point:	0.391	Yaw Set Point:	0.569	X_WP:	0.000	Y_WP:	0.000	Y_WP:	0.500	X:	-1.056	Y:	0.097	Z:	1.308	yaw:	-32.605	yaw rate:	-37.560	Roll:	-30.000	Pitch:	-20.601	Yaw:	-56.647	Thrust:	0.000
Time:	4.843	Roll Set Point:	2.005	Pitch Set Point:	0.390	Yaw Set Point:	0.579	X_WP:	0.000	Y_WP:	0.000	Y_WP:	0.500	X:	-1.061	Y:	0.104	Z:	1.308	yaw:	-33.189	yaw rate:	-58.375	Roll:	-30.000	Pitch:	-24.339	Yaw:	-62.400	Thrust:	0.000
Time:	4.854	Roll Set Point:	2.010	Pitch Set Point:	0.391	Yaw Set Point:	0.587	X_WP:	0.000	Y_WP:	0.000	Y_WP:	0.500	X:	-1.064	Y:	0.109	Z:	1.308	yaw:	-33.643	yaw rate:	-45.393	Roll:	-30.000	Pitch:	-23.214	Yaw:	-59.957	Thrust:	0.000
Time:	4.867	Roll Set Point:	2.015	Pitch Set Point:	0.390	Yaw Set Point:	0.594	X_WP:	0.000	Y_WP:	0.000	Y_WP:	0.500	X:	-1.067	Y:	0.113	Z:	1.308	yaw:	-34.017	yaw rate:	-37.460	Roll:	-30.000	Pitch:	-20.585	Yaw:	-57.632	Thrust:	0.000
Time:	4.878	Roll Set Point:	2.026	Pitch Set Point:	0.388	Yaw Set Point:	0.607	X_WP:	0.000	Y_WP:	0.000	Y_WP:	0.500	X:	-1.074	Y:	0.123	Z:	1.308	yaw:	-34.794	yaw rate:	-46.542	Roll:	-30.000	Pitch:	-27.173	Yaw:	-69.185	Thrust:	0.000
Time:	4.889	Roll Set Point:	2.035	Pitch Set Point:	0.385	Yaw Set Point:	0.615	X_WP:	0.000	Y_WP:	0.000	Y_WP:	0.500	X:	-1.079	Y:	0.131	Z:	1.307	yaw:	-35.256	yaw rate:	-46.196	Roll:	-30.000	Pitch:	-22.112	Yaw:	-62.402	Thrust:	0.000
Time:	4.900	Roll Set Point:	2.041	Pitch Set Point:	0.384	Yaw Set Point:	0.622	X_WP:	0.000	Y_WP:	0.000	Y_WP:	0.500	X:	-1.082	Y:	0.136	Z:	1.307	yaw:	-35.618	yaw rate:	-36.238	Roll:	-30.000	Pitch:	-21.574	Yaw:	-60.544	Thrust:	0.000
Time:	4.911	Roll Set Point:	2.047	Pitch Set Point:	0.382	Yaw Set Point:	0.627	X_WP:	0.000	Y_WP:	0.000	Y_WP:	0.500	X:	-1.085	Y:	0.141	Z:	1.307	yaw:	-35.915	yaw rate:	-29.757	Roll:	-30.000	Pitch:	-19.942	Yaw:	-59.414	Thrust:	0.000
Time:	4.922	Roll Set Point:	2.056	Pitch Set Point:	0.372	Yaw Set Point:	0.624	X_WP:	0.000	Y_WP:	0.000	Y_WP:	0.500	X:	-1.088	Y:	0.145	Z:	1.307	yaw:	-35.734	yaw rate:	18.131	Roll:	-30.000	Pitch:	-7.584	Yaw:	-47.796	Thrust:	0.000
Time:	4.933	Roll Set Point:	2.061	Pitch Set Point:	0.378	Yaw Set Point:	0.640	X_WP:	0.000	Y_WP:	0.000	Y_WP:	0.500	X:	-1.093	Y:	0.153	Z:	1.307	yaw:	-36.689	yaw rate:	-95.489	Roll:	-28.185	Pitch:	-30.000	Yaw:	-76.107	Thrust:	0.000
Time:	4.944	Roll Set Point:	2.071	Pitch Set Point:	0.367	Yaw Set Point:	0.637	X_WP:	0.000	Y_WP:	0.000	Y_WP:	0.500	X:	-1.096	Y:	0.158	Z:	1.307	yaw:	-36.480	yaw rate:	20.897	Roll:	-30.000	Pitch:	-7.105	Yaw:	-48.181	Thrust:	0.000
Time:	4.955	Roll Set Point:	2.082	Pitch Set Point:	0.355	Yaw Set Point:	0.630	X_WP:	0.000	Y_WP:	0.000	Y_WP:	0.500	X:	-1.099	Y:	0.162	Z:	1.306	yaw:	-36.113	yaw rate:	36.688	Roll:	-30.000	Pitch:	-2.713	Yaw:	-43.924	Thrust:	0.000
Time:	4.966	Roll Set Point:	2.079	Pitch Set Point:	0.371	Yaw Set Point:	0.655	X_WP:	0.000	Y_WP:	0.000	Y_WP:	0.500	X:	-1.102	Y:	0.167	Z:	1.306	yaw:	-37.518	yaw rate:	-140.474	Roll:	-18.057	Pitch:	-30.000	Yaw:	-87.934	Thrust:	0.000
Time:	4.977	Roll Set Point:	2.089	Pitch Set Point:	0.360	Yaw Set Point:	0.650	X_WP:	0.000	Y_WP:	0.000	Y_WP:	0.500	X:	-1.105	Y:	0.172	Z:	1.306	yaw:	-37.258	yaw rate:	26.036	Roll:	-30.000	Pitch:	-5.949	Yaw:	-48.047	Thrust:	0.000
