Time:	2.125	Roll Set Point:	-0.234	Pitch Set Point:	-0.121	Yaw Set Point:	-0.577	X_WP:	0.000	Y_WP:	0.000	Y_WP:	0.500	X:	0.099	Y:	0.095	Z:	0.399	yaw:	33.081	yaw rate:	-1.279	Roll:	3.919	Pitch:	0.747	Yaw:	46.189	Thrust:	5.553
Time:	2.141	Roll Set Point:	-0.234	Pitch Set Point:	-0.121	Yaw Set Point:	-0.577	X_WP:	0.000	Y_WP:	0.000	Y_WP:	0.500	X:	0.099	Y:	0.095	Z:	0.399	yaw:	33.083	yaw rate:	0.250	Roll:	3.711	Pitch:	0.616	Yaw:	46.415	Thrust:	5.332
Time:	2.156	Roll Set Point:	-0.234	Pitch Set Point:	-0.121	Yaw Set Point:	-0.577	X_WP:	0.000	Y_WP:	0.000	Y_WP:	0.500	X:	0.099	Y:	0.095	Z:	0.399	yaw:	33.065	yaw rate:	-1.817	Roll:	4.132	Pitch:	0.974	Yaw:	46.225	Thrust:	6.209
Time:	2.172	Roll Set Point:	-0.234	Pitch Set Point:	-0.121	Yaw Set Point:	-0.577	X_WP:	0.000	Y_WP:	0.000	Y_WP:	0.500	X:	0.099	Y:	0.095	Z:	0.399	yaw:	33.062	yaw rate:	-0.318	Roll:	3.930	Pitch:	0.815	Yaw:	46.651	Thrust:	6.137
Time:	2.188	Roll Set Point:	-0.234	Pitch Set Point:	-0.121	Yaw Set Point:	-0.577	X_WP:	0.000	Y_WP:	0.000	Y_WP:	0.500	X:	0.099	Y:	0.095	Z:	0.399	yaw:	33.059	yaw rate:	-0.238	Roll:	3.945	Pitch:	0.679	Yaw:	46.839	Thrust:	6.303
Time:	2.203	Roll Set Point:	-0.234	Pitch Set Point:	-0.121	Yaw Set Point:	-0.577	X_WP:	0.000	Y_WP:	0.000	Y_WP:	0.500	X:	0.099	Y:	0.095	Z:	0.399	yaw:	33.075	yaw rate:	1.529	Roll:	3.726	Pitch:	0.584	Yaw:	47.339	Thrust:	6.190
Time:	2.219	Roll Set Point:	-0.234	Pitch Set Point:	-0.121	Yaw Set Point:	-0.577	X_WP:	0.000	Y_WP:	0.000	Y_WP:	0.500	X:	0.099	Y:	0.095	Z:	0.399	yaw:	33.084	yaw rate:	0.902	Roll:	4.164	Pitch:	0.848	Yaw:	47.429	Thrust:	7.056
Time:	2.234	Roll Set Point:	-0.234	Pitch Set Point:	-0.121	Yaw Set Point:	-0.578	X_WP:	0.000	Y_WP:	0.000	Y_WP:	0.500	X:	0.099	Y:	0.095	Z:	0.399	yaw:	33.091	yaw rate:	0.760	Roll:	3.741	Pitch:	0.670	Yaw:	47.593	Thrust:	6.490
Time:	2.250	Roll Set Point:	-0.234	Pitch Set Point:	-0.121	Yaw Set Point:	-0.577	X_WP:	0.000	Y_WP:	0.000	Y_WP:	0.500	X:	0.099	Y:	0.095	Z:	0.399	yaw:	33.065	yaw rate:	-2.671	Roll:	3.958	Pitch:	0.816	Yaw:	47.165	Thrust:	6.983
Time:	2.266	Roll Set Point:	-0.234	Pitch Set Point:	-0.121	Yaw Set Point:	-0.577	X_WP:	0.000	Y_WP:	0.000	Y_WP:	0.500	X:	0.099	Y:	0.095	Z:	0.399	yaw:	33.065	yaw rate:	-2.671	Roll:	3.961	Pitch:	0.756	Yaw:	47.726	Thrust:	7.243
Time:	2.281	Roll Set Point:	-0.234	Pitch Set Point:	-0.121	Yaw Set Point:	-0.577	X_WP:	0.000	Y_WP:	0.000	Y_WP:	0.500	X:	0.099	Y:	0.095	Z:	0.399	yaw:	33.043	yaw rate:	-5.842	Roll:	4.157	Pitch:	0.830	Yaw:	47.338	Thrust:	7.797
Time:	2.297	Roll Set Point:	-0.234	Pitch Set Point:	-0.121	Yaw Set Point:	-0.577	X_WP:	0.000	Y_WP:	0.000	Y_WP:	0.500	X:	0.099	Y:	0.095	Z:	0.399	yaw:	33.060	yaw rate:	1.721	Roll:	4.004	Pitch:	0.807	Yaw:	48.014	Thrust:	7.595
Time:	2.313	Roll Set Point:	-0.234	Pitch Set Point:	-0.121	Yaw Set Point:	-0.577	X_WP:	0.000	Y_WP:	0.000	Y_WP:	0.500	X:	0.099	Y:	0.095	Z:	0.399	yaw:	33.060	yaw rate:	1.721	Roll:	3.982	Pitch:	0.762	Yaw:	47.720	Thrust:	7.815
Time:	2.328	Roll Set Point:	-0.234	Pitch Set Point:	-0.121	Yaw Set Point:	-0.577	X_WP:	0.000	Y_WP:	0.000	Y_WP:	0.500	X:	0.099	Y:	0.095	Z:	0.399	yaw:	33.079	yaw rate:	1.874	Roll:	3.807	Pitch:	0.588	Yaw:	48.066	Thrust:	7.768
Time:	2.344	Roll Set Point:	-0.234	Pitch Set Point:	-0.121	Yaw Set Point:	-0.578	X_WP:	0.000	Y_WP:	0.000	Y_WP:	0.500	X:	0.099	Y:	0.095	Z:	0.399	yaw:	33.098	yaw rate:	1.856	Roll:	4.157	Pitch:	0.846	Yaw:	48.084	Thrust:	8.697
Time:	2.359	Roll Set Point:	-0.234	Pitch Set Point:	-0.121	Yaw Set Point:	-0.577	X_WP:	0.000	Y_WP:	0.000	Y_WP:	0.500	X:	0.099	Y:	0.095	Z:	0.399	yaw:	33.040	yaw rate:	-6.474	Roll:	4.005	Pitch:	0.877	Yaw:	46.726	Thrust:	8.125
Time:	2.375	Roll Set Point:	-0.234	Pitch Set Point:	-0.121	Yaw Set Point:	-0.578	X_WP:	0.000	Y_WP:	0.000	Y_WP:	0.500	X:	0.099	Y:	0.095	Z:	0.399	yaw:	33.094	yaw rate:	5.381	Roll:	4.021	Pitch:	0.678	Yaw:	48.672	Thrust:	8.648
Time:	2.391	Roll Set Point:	-0.234	Pitch Set Point:	-0.121	Yaw Set Point:	-0.577	X_WP:	0.000	Y_WP:	0.000	Y_WP:	0.500	X:	0.099	Y:	0.095	Z:	0.399	yaw:	33.069	yaw rate:	-2.414	Roll:	4.000	Pitch:	0.759	Yaw:	47.331	Thrust:	8.887
Time:	2.406	Roll Set Point:	-0.234	Pitch Set Point:	-0.121	Yaw Set Point:	-0.577	X_WP:	0.000	Y_WP:	0.000	Y_WP:	0.500	X:	0.099	Y:	0.095	Z:	0.399	yaw:	33.069	yaw rate:	0.010	Roll:	3.786	Pitch:	0.655	Yaw:	47.738	Thrust:	8.555
Time:	2.422	Roll Set Point:	-0.234	Pitch Set Point:	-0.121	Yaw Set Point:	-0.578	X_WP:	0.000	Y_WP:	0.000	Y_WP:	0.500	X:	0.099	Y:	0.095	Z:	0.399	yaw:	33.096	yaw rate:	2.635	Roll:	4.244	Pitch:	0.871	Yaw:	48.215	Thrust:	9.515
Time:	2.438	Roll Set Point:	-0.234	Pitch Set Point:	-0.121	Yaw Set Point:	-0.577	X_WP:	0.000	Y_WP:	0.000	Y_WP:	0.500	X:	0.099	Y:	0.095	Z:	0.399	yaw:	33.070	yaw rate:	-2.608	Roll:	3.814	Pitch:	0.744	Yaw:	47.300	Thrust:	8.951
Time:	2.453	Roll Set Point:	-0.234	Pitch Set Point:	-0.121	Yaw Set Point:	-0.578	X_WP:	0.000	Y_WP:	0.000	Y_WP:	0.500	X:	0.099	Y:	0.095	Z:	0.399	yaw:	33.098	yaw rate:	2.875	Roll:	4.269	Pitch:	0.770	Yaw:	48.258	Thrust:	9.933
Time:	2.469	Roll Set Point:	-0.234	Pitch Set Point:	-0.121	Yaw Set Point:	-0.578	X_WP:	0.000	Y_WP:	0.000	Y_WP:	0.500	X:	0.099	Y:	0.095	Z:	0.399	yaw:	33.093	yaw rate:	-0.536	Roll:	4.007	Pitch:	0.771	Yaw:	47.680	Thrust:	9.800
Time:	2.485	Roll Set Point:	-0.234	Pitch Set Point:	-0.121	Yaw Set Point:	-0.577	X_WP:	0.000	Y_WP:	0.000	Y_WP:	0.500	X:	0.099	Y:	0.095	Z:	0.399	yaw:	33.068	yaw rate:	-2.545	Roll:	4.040	Pitch:	0.832	Yaw:	47.308	Thrust:	9.844
Time:	2.500	Roll Set Point:	-0.234	Pitch Set Point:	-0.121	Yaw Set Point:	-0.577	X_WP:	0.000	Y_WP:	0.000	Y_WP:	0.500	X:	0.099	Y:	0.095	Z:	0.399	yaw:	33.056	yaw rate:	-1.173	Roll:	4.037	Pitch:	0.836	Yaw:	47.524	Thrust:	10.020
Time:	2.516	Roll Set Point:	-0.234	Pitch Set Point:	-0.121	Yaw Set Point:	-0.577	X_WP:	0.000	Y_WP:	0.000	Y_WP:	0.500	X:	0.099	Y:	0.095	Z:	0.399	yaw:	33.056	yaw rate:	-1.173	Roll:	4.051	Pitch:	0.776	Yaw:	47.717	Thrust:	10.281
Time:	2.531	Roll Set Point:	-0.234	Pitch Set Point:	-0.121	Yaw Set Point:	-0.577	X_WP:	0.000	Y_WP:	0.000	Y_WP:	0.500	X:	0.099	Y:	0.095	Z:	0.399	yaw:	33.055	yaw rate:	1.250	Roll:	4.061	Pitch:	0.694	Yaw:	47.697	Thrust:	10.533
Time:	2.547	Roll Set Point:	-0.234	Pitch Set Point:	-0.121	Yaw Set Point:	-0.576	X_WP:	0.000	Y_WP:	0.000	Y_WP:	0.500	X:	0.099	Y:	0.095	Z:	0.399	yaw:	33.006	yaw rate:	-4.920	Roll:	4.055	Pitch:	0.919	Yaw:	46.823	Thrust:	10.407
Time:	2.563	Roll Set Point:	-0.234	Pitch Set Point:	-0.121	Yaw Set Point:	-0.576	X_WP:	0.000	Y_WP:	0.000	Y_WP:	0.500	X:	0.099	Y:	0.095	Z:	0.399	yaw:	33.006	yaw rate:	-4.920	Roll:	4.067	Pitch:	0.780	Yaw:	47.648	Thrust:	10.848
Time:	2.578	Roll Set Point:	-0.234	Pitch Set Point:	-0.121	Yaw Set Point:	-0.580	X_WP:	0.000	Y_WP:	0.000	Y_WP:	0.500	X:	0.099	Y:	0.095	Z:	0.399	yaw:	33.222	yaw rate:	25.886	Roll:	3.831	Pitch:	0.227	Yaw:	51.571	Thrust:	11.096
Time:	2.594	Roll Set Point:	-0.234	Pitch Set Point:	-0.121	Yaw Set Point:	-0.579	X_WP:	0.000	Y_WP:	0.000	Y_WP:	0.500	X:	0.099	Y:	0.095	Z:	0.399	yaw:	33.200	yaw rate:	-2.231	Roll:	4.035	Pitch:	0.798	Yaw:	47.544	Thrust:	11.179
Time:	2.610	Roll Set Point:	-0.234	Pitch Set Point:	-0.121	Yaw Set Point:	-0.579	X_WP:	0.000	Y_WP:	0.000	Y_WP:	0.500	X:	0.099	Y:	0.095	Z:	0.399	yaw:	33.200	yaw rate:	-2.231	Roll:	4.075	Pitch:	0.770	Yaw:	47.918	Thrust:	11.415
Time:	2.625	Roll Set Point:	-0.234	Pitch Set Point:	-0.121	Yaw Set Point:	-0.580	X_WP:	0.000	Y_WP:	0.000	Y_WP:	0.500	X:	0.099	Y:	0.095	Z:	0.399	yaw:	33.222	yaw rate:	-1.275	Roll:	4.132	Pitch:	0.817	Yaw:	48.331	Thrust:	11.631
Time:	2.641	Roll Set Point:	-0.234	Pitch Set Point:	-0.121	Yaw Set Point:	-0.580	X_WP:	0.000	Y_WP:	0.000	Y_WP:	0.500	X:	0.099	Y:	0.095	Z:	0.399	yaw:	33.222	yaw rate:	-1.275	Roll:	4.087	Pitch:	0.773	Yaw:	47.950	Thrust:	11.794
Time:	2.656	Roll Set Point:	-0.234	Pitch Set Point:	-0.121	Yaw Set Point:	-0.580	X_WP:	0.000	Y_WP:	0.000	Y_WP:	0.500	X:	0.099	Y:	0.095	Z:	0.399	yaw:	33.232	yaw rate:	-1.155	Roll:	4.087	Pitch:	0.659	Yaw:	48.134	Thrust:	12.063
Time:	2.672	Roll Set Point:	-0.234	Pitch Set Point:	-0.121	Yaw Set Point:	-0.580	X_WP:	0.000	Y_WP:	0.000	Y_WP:	0.500	X:	0.099	Y:	0.095	Z:	0.399	yaw:	33.224	yaw rate:	-0.805	Roll:	4.084	Pitch:	0.797	Yaw:	47.818	Thrust:	12.179
Time:	2.688	Roll Set Point:	-0.234	Pitch Set Point:	-0.121	Yaw Set Point:	-0.580	X_WP:	0.000	Y_WP:	0.000	Y_WP:	0.500	X:	0.099	Y:	0.095	Z:	0.399	yaw:	33.212	yaw rate:	-1.186	Roll:	4.117	Pitch:	0.873	Yaw:	47.730	Thrust:	12.127
Time:	2.703	Roll Set Point:	-0.234	Pitch Set Point:	-0.121	Yaw Set Point:	-0.580	X_WP:	0.000	Y_WP:	0.000	Y_WP:	0.500	X:	0.099	Y:	0.095	Z:	0.399	yaw:	33.212	yaw rate:	-0.027	Roll:	4.107	Pitch:	0.783	Yaw:	47.928	Thrust:	12.687
Time:	2.719	Roll Set Point:	-0.234	Pitch Set Point:	-0.121	Yaw Set Point:	-0.580	X_WP:	0.000	Y_WP:	0.000	Y_WP:	0.500	X:	0.099	Y:	0.095	Z:	0.399	yaw:	33.243	yaw rate:	3.130	Roll:	4.120	Pitch:	0.616	Yaw:	48.505	Thrust:	12.771
Time:	2.735	Roll Set Point:	-0.234	Pitch Set Point:	-0.121	Yaw Set Point:	-0.580	X_WP:	0.000	Y_WP:	0.000	Y_WP:	0.500	X:	0.099	Y:	0.095	Z:	0.399	yaw:	33.243	yaw rate:	3.130	Roll:	4.118	Pitch:	0.775	Yaw:	47.976	Thrust:	12.915
Time:	2.750	Roll Set Point:	-0.234	Pitch Set Point:	-0.121	Yaw Set Point:	-0.580	X_WP:	0.000	Y_WP:	0.000	Y_WP:	0.500	X:	0.099	Y:	0.095	Z:	0.399	yaw:	33.223	yaw rate:	-1.214	Roll:	4.130	Pitch:	0.841	Yaw:	47.613	Thrust:	13.074
Time:	2.766	Roll Set Point:	-0.234	Pitch Set Point:	-0.121	Yaw Set Point:	-0.580	X_WP:	0.000	Y_WP:	0.000	Y_WP:	0.500	X:	0.099	Y:	0.095	Z:	0.399	yaw:	33.223	yaw rate:	-1.214	Roll:	4.130	Pitch:	0.779	Yaw:	47.951	Thrust:	13.307
Time:	2.781	Roll Set Point:	-0.234	Pitch Set Point:	-0.121	Yaw Set Point:	-0.580	X_WP:	0.000	Y_WP:	0.000	Y_WP:	0.500	X:	0.099	Y:	0.095	Z:	0.399	yaw:	33.236	yaw rate:	1.304	Roll:	4.154	Pitch:	0.808	Yaw:	48.190	Thrust:	13.484
Time:	2.797	Roll Set Point:	-0.234	Pitch Set Point:	-0.121	Yaw Set Point:	-0.580	X_WP:	0.000	Y_WP:	0.000	Y_WP:	0.500	X:	0.099	Y:	0.095	Z:	0.399	yaw:	33.236	yaw rate:	1.304	Roll:	4.140	Pitch:	0.781	Yaw:	47.966	Thrust:	13.669
Time:	2.813	Roll Set Point:	-0.234	Pitch Set Point:	-0.121	Yaw Set Point:	-0.580	X_WP:	0.000	Y_WP:	0.000	Y_WP:	0.500	X:	0.099	Y:	0.095	Z:	0.399	yaw:	33.242	yaw rate:	0.607	Roll:	4.101	Pitch:	0.674	Yaw:	48.082	Thrust:	13.994
Time:	2.828	Roll Set Point:	-0.234	Pitch Set Point:	-0.121	Yaw Set Point:	-0.580	X_WP:	0.000	Y_WP:	0.000	Y_WP:	0.500	X:	0.099	Y:	0.095	Z:	0.399	yaw:	33.214	yaw rate:	-1.979	Roll:	4.175	Pitch:	0.950	Yaw:	47.472	Thrust:	14.033
Time:	2.843	Roll Set Point:	-0.234	Pitch Set Point:	-0.121	Yaw Set Point:	-0.580	X_WP:	0.000	Y_WP:	0.000	Y_WP:	0.500	X:	0.099	Y:	0.095	Z:	0.399	yaw:	33.248	yaw rate:	3.380	Roll:	4.158	Pitch:	0.662	Yaw:	48.480	Thrust:	13.588
Time:	2.858	Roll Set Point:	-0.234	Pitch Set Point:	-0.121	Yaw Set Point:	-0.580	X_WP:	0.000	Y_WP:	0.000	Y_WP:	0.500	X:	0.099	Y:	0.095	Z:	0.399	yaw:	33.248	yaw rate:	3.380	Roll:	4.162	Pitch:	0.784	Yaw:	47.986	Thrust:	14.445
Time:	2.874	Roll Set Point:	-0.234	Pitch Set Point:	-0.121	Yaw Set Point:	-0.580	X_WP:	0.000	Y_WP:	0.000	Y_WP:	0.500	X:	0.099	Y:	0.095	Z:	0.399	yaw:	33.238	yaw rate:	1.223	Roll:	4.121	Pitch:	0.778	Yaw:	47.793	Thrust:	14.594
Time:	2.890	Roll Set Point:	-0.234	Pitch Set Point:	-0.121	Yaw Set Point:	-0.580	X_WP:	0.000	Y_WP:	0.000	Y_WP:	0.500	X:	0.099	Y:	0.095	Z:	0.399	yaw:	33.220	yaw rate:	-1.768	Roll:	4.174	Pitch:	0.885	Yaw:	47.654	Thrust:	14.860
Time:	2.905	Roll Set Point:	-0.234	Pitch Set Point:	-0.121	Yaw Set Point:	-0.580	X_WP:	0.000	Y_WP:	0.000	Y_WP:	0.500	X:	0.099	Y:	0.095	Z:	0.399	yaw:	33.227	yaw rate:	0.745	Roll:	4.173	Pitch:	0.746	Yaw:	48.079	Thrust:	14.935
Time:	2.921	Roll Set Point:	-0.234	Pitch Set Point:	-0.121	Yaw Set Point:	-0.580	X_WP:	0.000	Y_WP:	0.000	Y_WP:	0.500	X:	0.099	Y:	0.095	Z:	0.399	yaw:	33.206	yaw rate:	-2.161	Roll:	4.193	Pitch:	0.786	Yaw:	47.565	Thrust:	15.285
Time:	2.937	Roll Set Point:	-0.234	Pitch Set Point:	-0.121	Yaw Set Point:	-0.580	X_WP:	0.000	Y_WP:	0.000	Y_WP:	0.500	X:	0.099	Y:	0.095	Z:	0.399	yaw:	33.224	yaw rate:	1.789	Roll:	4.198	Pitch:	0.756	Yaw:	48.251	Thrust:	15.297
Time:	2.952	Roll Set Point:	-0.234	Pitch Set Point:	-0.121	Yaw Set Point:	-0.580	X_WP:	0.000	Y_WP:	0.000	Y_WP:	0.500	X:	0.099	Y:	0.095	Z:	0.399	yaw:	33.224	yaw rate:	1.789	Roll:	4.193	Pitch:	0.791	Yaw:	47.955	Thrust:	15.596
Time:	2.968	Roll Set Point:	-0.234	Pitch Set Point:	-0.121	Yaw Set Point:	-0.580	X_WP:	0.000	Y_WP:	0.000	Y_WP:	0.500	X:	0.099	Y:	0.095	Z:	0.399	yaw:	33.241	yaw rate:	1.712	Roll:	4.190	Pitch:	0.784	Yaw:	48.260	Thrust:	15.747
Time:	2.983	Roll Set Point:	-0.234	Pitch Set Point:	-0.121	Yaw Set Point:	-0.580	X_WP:	0.000	Y_WP:	0.000	Y_WP:	0.500	X:	0.099	Y:	0.095	Z:	0.399	yaw:	33.237	yaw rate:	0.238	Roll:	4.190	Pitch:	0.784	Yaw:	47.910	Thrust:	16.022
Time:	2.999	Roll Set Point:	-0.234	Pitch Set Point:	-0.121	Yaw Set Point:	-0.580	X_WP:	0.000	Y_WP:	0.000	Y_WP:	0.500	X:	0.099	Y:	0.095	Z:	0.399	yaw:	33.237	yaw rate:	0.238	Roll:	4.207	Pitch:	0.793	Yaw:	47.967	Thrust:	16.121
Time:	3.015	Roll Set Point:	-0.234	Pitch Set Point:	-0.121	Yaw Set Point:	-0.580	X_WP:	0.000	Y_WP:	0.000	Y_WP:	0.500	X:	0.099	Y:	0.095	Z:	0.399	yaw:	33.239	yaw rate:	0.234	Roll:	4.244	Pitch:	0.782	Yaw:	48.013	Thrust:	16.322
Time:	3.030	Roll Set Point:	-0.234	Pitch Set Point:	-0.121	Yaw Set Point:	-0.580	X_WP:	0.000	Y_WP:	0.000	Y_WP:	0.500	X:	0.099	Y:	0.095	Z:	0.399	yaw:	33.239	yaw rate:	0.234	Roll:	4.219	Pitch:	0.795	Yaw:	47.973	Thrust:	16.522
Time:	3.046	Roll Set Point:	-0.234	Pitch Set Point:	-0.121	Yaw Set Point:	-0.580	X_WP:	0.000	Y_WP:	0.000	Y_WP:	0.500	X:	0.099	Y:	0.095	Z:	0.399	yaw:	33.241	yaw rate:	-0.219	Roll:	4.202	Pitch:	0.794	Yaw:	48.006	Thrust:	16.710
Time:	3.062	Roll Set Point:	-0.234	Pitch Set Point:	-0.121	Yaw Set Point:	-0.580	X_WP:	0.000	Y_WP:	0.000	Y_WP:	0.500	X:	0.099	Y:	0.095	Z:	0.399	yaw:	33.233	yaw rate:	-0.724	Roll:	4.226	Pitch:	0.789	Yaw:	47.838	Thrust:	16.930
Time:	3.077	Roll Set Point:	-0.234	Pitch Set Point:	-0.121	Yaw Set Point:	-0.580	X_WP:	0.000	Y_WP:	0.000	Y_WP:	0.500	X:	0.099	Y:	0.095	Z:	0.399	yaw:	33.237	yaw rate:	0.383	Roll:	4.249	Pitch:	0.840	Yaw:	48.035	Thrust:	16.995
Time:	3.093	Roll Set Point:	-0.234	Pitch Set Point:	-0.121	Yaw Set Point:	-0.580	X_WP:	0.000	Y_WP:	0.000	Y_WP:	0.500	X:	0.099	Y:	0.095	Z:	0.399	yaw:	33.242	yaw rate:	0.513	Roll:	4.242	Pitch:	0.794	Yaw:	48.064	Thrust:	17.321
Time:	3.108	Roll Set Point:	-0.234	Pitch Set Point:	-0.121	Yaw Set Point:	-0.580	X_WP:	0.000	Y_WP:	0.000	Y_WP:	0.500	X:	0.099	Y:	0.095	Z:	0.399	yaw:	33.242	yaw rate:	0.513	Roll:	4.245	Pitch:	0.800	Yaw:	47.978	Thrust:	17.468
Time:	3.124	Roll Set Point:	-0.234	Pitch Set Point:	-0.121	Yaw Set Point:	-0.580	X_WP:	0.000	Y_WP:	0.000	Y_WP:	0.500	X:	0.099	Y:	0.095	Z:	0.399	yaw:	33.247	yaw rate:	2.295	Roll:	4.249	Pitch:	0.737	Yaw:	48.068	Thrust:	17.744
Time:	3.140	Roll Set Point:	-0.234	Pitch Set Point:	-0.121	Yaw Set Point:	-0.580	X_WP:	0.000	Y_WP:	0.000	Y_WP:	0.500	X:	0.099	Y:	0.095	Z:	0.399	yaw:	33.247	yaw rate:	2.295	Roll:	4.257	Pitch:	0.801	Yaw:	47.988	Thrust:	17.871
Time:	3.155	Roll Set Point:	-0.234	Pitch Set Point:	-0.121	Yaw Set Point:	-0.580	X_WP:	0.000	Y_WP:	0.000	Y_WP:	0.500	X:	0.099	Y:	0.095	Z:	0.399	yaw:	33.227	yaw rate:	0.173	Roll:	4.261	Pitch:	0.910	Yaw:	47.602	Thrust:	17.987
Time:	3.171	Roll Set Point:	-0.234	Pitch Set Point:	-0.121	Yaw Set Point:	-0.580	X_WP:	0.000	Y_WP:	0.000	Y_WP:	0.500	X:	0.099	Y:	0.095	Z:	0.399	yaw:	33.223	yaw rate:	-0.357	Roll:	4.250	Pitch:	0.800	Yaw:	47.895	Thrust:	18.256
Time:	3.187	Roll Set Point:	-0.234	Pitch Set Point:	-0.121	Yaw Set Point:	-0.580	X_WP:	0.000	Y_WP:	0.000	Y_WP:	0.500	X:	0.099	Y:	0.095	Z:	0.399	yaw:	33.223	yaw rate:	-0.357	Roll:	4.270	Pitch:	0.806	Yaw:	47.947	Thrust:	18.382
Time:	3.202	Roll Set Point:	-0.234	Pitch Set Point:	-0.121	Yaw Set Point:	-0.580	X_WP:	0.000	Y_WP:	0.000	Y_WP:	0.500	X:	0.099	Y:	0.095	Z:	0.399	yaw:	33.214	yaw rate:	-0.901	Roll:	4.281	Pitch:	0.775	Yaw:	47.787	Thrust:	18.623
Time:	3.218	Roll Set Point:	-0.234	Pitch Set Point:	-0.121	Yaw Set Point:	-0.580	X_WP:	0.000	Y_WP:	0.000	Y_WP:	0.500	X:	0.099	Y:	0.095	Z:	0.399	yaw:	33.205	yaw rate:	-3.664	Roll:	4.301	Pitch:	0.922	Yaw:	47.775	Thrust:	18.710
Time:	3.233	Roll Set Point:	-0.234	Pitch Set Point:	-0.121	Yaw Set Point:	-0.580	X_WP:	0.000	Y_WP:	0.000	Y_WP:	0.500	X:	0.099	Y:	0.095	Z:	0.399	yaw:	33.215	yaw rate:	0.970	Roll:	4.287	Pitch:	0.777	Yaw:	48.101	Thrust:	19.039
Time:	3.249	Roll Set Point:	-0.234	Pitch Set Point:	-0.121	Yaw Set Point:	-0.580	X_WP:	0.000	Y_WP:	0.000	Y_WP:	0.500	X:	0.099	Y:	0.095	Z:	0.399	yaw:	33.215	yaw rate:	0.970	Roll:	4.293	Pitch:	0.812	Yaw:	47.939	Thrust:	19.171
Time:	3.265	Roll Set Point:	-0.234	Pitch Set Point:	-0.121	Yaw Set Point:	-0.580	X_WP:	0.000	Y_WP:	0.000	Y_WP:	0.500	X:	0.099	Y:	0.095	Z:	0.399	yaw:	33.243	yaw rate:	-0.360	Roll:	4.307	Pitch:	0.670	Yaw:	48.459	Thrust:	19.316
Time:	3.280	Roll Set Point:	-0.234	Pitch Set Point:	-0.121	Yaw Set Point:	-0.580	X_WP:	0.000	Y_WP:	0.000	Y_WP:	0.500	X:	0.099	Y:	0.095	Z:	0.399	yaw:	33.220	yaw rate:	-2.366	Roll:	4.303	Pitch:	0.953	Yaw:	47.553	Thrust:	19.644
Time:	3.296	Roll Set Point:	-0.234	Pitch Set Point:	-0.121	Yaw Set Point:	-0.580	X_WP:	0.000	Y_WP:	0.000	Y_WP:	0.500	X:	0.099	Y:	0.095	Z:	0.399	yaw:	33.230	yaw rate:	1.060	Roll:	4.272	Pitch:	0.725	Yaw:	48.136	Thrust:	19.710
Time:	3.312	Roll Set Point:	-0.234	Pitch Set Point:	-0.121	Yaw Set Point:	-0.580	X_WP:	0.000	Y_WP:	0.000	Y_WP:	0.500	X:	0.099	Y:	0.095	Z:	0.399	yaw:	33.230	yaw rate:	1.060	Roll:	4.313	Pitch:	0.813	Yaw:	47.961	Thrust:	19.930
Time:	3.327	Roll Set Point:	-0.234	Pitch Set Point:	-0.121	Yaw Set Point:	-0.580	X_WP:	0.000	Y_WP:	0.000	Y_WP:	0.500	X:	0.099	Y:	0.095	Z:	0.399	yaw:	33.228	yaw rate:	-1.682	Roll:	4.299	Pitch:	0.830	Yaw:	47.917	Thrust:	20.147
Time:	3.343	Roll Set Point:	-0.234	Pitch Set Point:	-0.121	Yaw Set Point:	-0.580	X_WP:	0.000	Y_WP:	0.000	Y_WP:	0.500	X:	0.099	Y:	0.095	Z:	0.399	yaw:	33.228	yaw rate:	-1.682	Roll:	4.322	Pitch:	0.815	Yaw:	47.953	Thrust:	20.271
Time:	3.358	Roll Set Point:	-0.235	Pitch Set Point:	-0.114	Yaw Set Point:	-0.584	X_WP:	0.000	Y_WP:	0.000	Y_WP:	0.500	X:	0.100	Y:	0.093	Z:	0.402	yaw:	33.475	yaw rate:	-3.581	Roll:	3.991	Pitch:	-3.083	Yaw:	52.449	Thrust:	10.878
Time:	3.374	Roll Set Point:	-0.235	Pitch Set Point:	-0.114	Yaw Set Point:	-0.584	X_WP:	0.000	Y_WP:	0.000	Y_WP:	0.500	X:	0.100	Y:	0.093	Z:	0.402	yaw:	33.475	yaw rate:	-3.581	Roll:	4.325	Pitch:	0.716	Yaw:	48.302	Thrust:	20.498
Time:	3.390	Roll Set Point:	-0.235	Pitch Set Point:	-0.114	Yaw Set Point:	-0.585	X_WP:	0.000	Y_WP:	0.000	Y_WP:	0.500	X:	0.100	Y:	0.093	Z:	0.402	yaw:	33.490	yaw rate:	-1.254	Roll:	4.316	Pitch:	0.647	Yaw:	48.569	Thrust:	20.704
Time:	3.405	Roll Set Point:	-0.235	Pitch Set Point:	-0.115	Yaw Set Point:	-0.585	X_WP:	0.000	Y_WP:	0.000	Y_WP:	0.500	X:	0.100	Y:	0.093	Z:	0.402	yaw:	33.504	yaw rate:	1.465	Roll:	4.401	Pitch:	0.773	Yaw:	48.589	Thrust:	20.955
Time:	3.421	Roll Set Point:	-0.235	Pitch Set Point:	-0.115	Yaw Set Point:	-0.585	X_WP:	0.000	Y_WP:	0.000	Y_WP:	0.500	X:	0.100	Y:	0.093	Z:	0.402	yaw:	33.499	yaw rate:	-0.535	Roll:	4.323	Pitch:	0.715	Yaw:	48.249	Thrust:	21.091
Time:	3.437	Roll Set Point:	-0.235	Pitch Set Point:	-0.114	Yaw Set Point:	-0.585	X_WP:	0.000	Y_WP:	0.000	Y_WP:	0.500	X:	0.100	Y:	0.092	Z:	0.402	yaw:	33.517	yaw rate:	1.790	Roll:	4.296	Pitch:	0.583	Yaw:	48.662	Thrust:	21.267
Time:	3.452	Roll Set Point:	-0.235	Pitch Set Point:	-0.114	Yaw Set Point:	-0.585	X_WP:	0.000	Y_WP:	0.000	Y_WP:	0.500	X:	0.100	Y:	0.093	Z:	0.402	yaw:	33.506	yaw rate:	-1.135	Roll:	4.357	Pitch:	0.759	Yaw:	48.154	Thrust:	21.442
Time:	3.468	Roll Set Point:	-0.235	Pitch Set Point:	-0.114	Yaw Set Point:	-0.585	X_WP:	0.000	Y_WP:	0.000	Y_WP:	0.500	X:	0.100	Y:	0.093	Z:	0.402	yaw:	33.506	yaw rate:	0.048	Roll:	4.410	Pitch:	0.761	Yaw:	48.350	Thrust:	21.489
Time:	3.483	Roll Set Point:	-0.235	Pitch Set Point:	-0.115	Yaw Set Point:	-0.584	X_WP:	0.000	Y_WP:	0.000	Y_WP:	0.500	X:	0.100	Y:	0.093	Z:	0.402	yaw:	33.485	yaw rate:	-2.109	Roll:	4.367	Pitch:	0.826	Yaw:	47.967	Thrust:	21.783
Time:	3.499	Roll Set Point:	-0.235	Pitch Set Point:	-0.114	Yaw Set Point:	-0.585	X_WP:	0.000	Y_WP:	0.000	Y_WP:	0.500	X:	0.100	Y:	0.093	Z:	0.402	yaw:	33.517	yaw rate:	3.243	Roll:	4.320	Pitch:	0.545	Yaw:	48.903	Thrust:	21.997
Time:	3.515	Roll Set Point:	-0.235	Pitch Set Point:	-0.114	Yaw Set Point:	-0.585	X_WP:	0.000	Y_WP:	0.000	Y_WP:	0.500	X:	0.100	Y:	0.092	Z:	0.402	yaw:	33.507	yaw rate:	-1.002	Roll:	4.369	Pitch:	0.732	Yaw:	48.183	Thrust:	22.320
Time:	3.530	Roll Set Point:	-0.235	Pitch Set Point:	-0.114	Yaw Set Point:	-0.585	X_WP:	0.000	Y_WP:	0.000	Y_WP:	0.500	X:	0.100	Y:	0.093	Z:	0.402	yaw:	33.501	yaw rate:	-0.637	Roll:	4.383	Pitch:	0.787	Yaw:	48.229	Thrust:	22.052
Time:	3.546	Roll Set Point:	-0.235	Pitch Set Point:	-0.114	Yaw Set Point:	-0.585	X_WP:	0.000	Y_WP:	0.000	Y_WP:	0.500	X:	0.100	Y:	0.093	Z:	0.402	yaw:	33.501	yaw rate:	-0.637	Roll:	4.383	Pitch:	0.724	Yaw:	48.339	Thrust:	22.514
Time:	3.562	Roll Set Point:	-0.235	Pitch Set Point:	-0.115	Yaw Set Point:	-0.584	X_WP:	0.000	Y_WP:	0.000	Y_WP:	0.500	X:	0.100	Y:	0.093	Z:	0.402	yaw:	33.476	yaw rate:	-2.455	Roll:	4.426	Pitch:	0.838	Yaw:	47.897	Thrust:	22.843
Time:	3.577	Roll Set Point:	-0.235	Pitch Set Point:	-0.114	Yaw Set Point:	-0.585	X_WP:	0.000	Y_WP:	0.000	Y_WP:	0.500	X:	0.100	Y:	0.093	Z:	0.402	yaw:	33.495	yaw rate:	1.895	Roll:	4.367	Pitch:	0.643	Yaw:	48.646	Thrust:	22.847
Time:	3.593	Roll Set Point:	-0.235	Pitch Set Point:	-0.114	Yaw Set Point:	-0.585	X_WP:	0.000	Y_WP:	0.000	Y_WP:	0.500	X:	0.100	Y:	0.093	Z:	0.402	yaw:	33.508	yaw rate:	-0.580	Roll:	4.398	Pitch:	0.671	Yaw:	48.562	Thrust:	23.156
Time:	3.608	Roll Set Point:	-0.235	Pitch Set Point:	-0.114	Yaw Set Point:	-0.585	X_WP:	0.000	Y_WP:	0.000	Y_WP:	0.500	X:	0.100	Y:	0.093	Z:	0.402	yaw:	33.526	yaw rate:	1.817	Roll:	4.443	Pitch:	0.723	Yaw:	48.679	Thrust:	23.019
Time:	3.624	Roll Set Point:	-0.235	Pitch Set Point:	-0.114	Yaw Set Point:	-0.584	X_WP:	0.000	Y_WP:	0.000	Y_WP:	0.500	X:	0.100	Y:	0.093	Z:	0.402	yaw:	33.487	yaw rate:	-3.926	Roll:	4.370	Pitch:	0.809	Yaw:	47.662	Thrust:	23.440
Time:	3.640	Roll Set Point:	-0.235	Pitch Set Point:	-0.114	Yaw Set Point:	-0.585	X_WP:	0.000	Y_WP:	0.000	Y_WP:	0.500	X:	0.100	Y:	0.092	Z:	0.402	yaw:	33.507	yaw rate:	2.000	Roll:	4.404	Pitch:	0.615	Yaw:	48.685	Thrust:	23.891
Time:	3.655	Roll Set Point:	-0.235	Pitch Set Point:	-0.114	Yaw Set Point:	-0.584	X_WP:	0.000	Y_WP:	0.000	Y_WP:	0.500	X:	0.100	Y:	0.093	Z:	0.402	yaw:	33.482	yaw rate:	-2.485	Roll:	4.423	Pitch:	0.829	Yaw:	47.892	Thrust:	23.610
Time:	3.671	Roll Set Point:	-0.235	Pitch Set Point:	-0.114	Yaw Set Point:	-0.585	X_WP:	0.000	Y_WP:	0.000	Y_WP:	0.500	X:	0.100	Y:	0.093	Z:	0.402	yaw:	33.493	yaw rate:	1.084	Roll:	4.441	Pitch:	0.715	Yaw:	48.512	Thrust:	23.928
Time:	3.687	Roll Set Point:	-0.235	Pitch Set Point:	-0.115	Yaw Set Point:	-0.584	X_WP:	0.000	Y_WP:	0.000	Y_WP:	0.500	X:	0.100	Y:	0.093	Z:	0.402	yaw:	33.485	yaw rate:	-0.800	Roll:	4.429	Pitch:	0.771	Yaw:	48.179	Thrust:	24.292
Time:	3.702	Roll Set Point:	-0.235	Pitch Set Point:	-0.114	Yaw Set Point:	-0.585	X_WP:	0.000	Y_WP:	0.000	Y_WP:	0.500	X:	0.100	Y:	0.093	Z:	0.402	yaw:	33.500	yaw rate:	1.473	Roll:	4.407	Pitch:	0.653	Yaw:	48.586	Thrust:	24.306
Time:	3.718	Roll Set Point:	-0.235	Pitch Set Point:	-0.114	Yaw Set Point:	-0.585	X_WP:	0.000	Y_WP:	0.000	Y_WP:	0.500	X:	0.100	Y:	0.093	Z:	0.402	yaw:	33.523	yaw rate:	2.337	Roll:	4.451	Pitch:	0.664	Yaw:	48.761	Thrust:	24.555
Time:	3.733	Roll Set Point:	-0.235	Pitch Set Point:	-0.114	Yaw Set Point:	-0.585	X_WP:	0.000	Y_WP:	0.000	Y_WP:	0.500	X:	0.100	Y:	0.093	Z:	0.402	yaw:	33.523	yaw rate:	2.337	Roll:	4.445	Pitch:	0.732	Yaw:	48.367	Thrust:	24.674
Time:	3.749	Roll Set Point:	-0.235	Pitch Set Point:	-0.114	Yaw Set Point:	-0.585	X_WP:	0.000	Y_WP:	0.000	Y_WP:	0.500	X:	0.100	Y:	0.093	Z:	0.402	yaw:	33.501	yaw rate:	-2.250	Roll:	4.477	Pitch:	0.841	Yaw:	47.961	Thrust:	24.942
Time:	3.765	Roll Set Point:	-0.235	Pitch Set Point:	-0.114	Yaw Set Point:	-0.585	X_WP:	0.000	Y_WP:	0.000	Y_WP:	0.500	X:	0.100	Y:	0.093	Z:	0.402	yaw:	33.501	yaw rate:	-0.023	Roll:	4.430	Pitch:	0.717	Yaw:	48.354	Thrust:	24.946
Time:	3.780	Roll Set Point:	-0.235	Pitch Set Point:	-0.114	Yaw Set Point:	-0.585	X_WP:	0.000	Y_WP:	0.000	Y_WP:	0.500	X:	0.100	Y:	0.093	Z:	0.402	yaw:	33.509	yaw rate:	0.719	Roll:	4.465	Pitch:	0.708	Yaw:	48.470	Thrust:	25.484
Time:	3.796	Roll Set Point:	-0.235	Pitch Set Point:	-0.114	Yaw Set Point:	-0.585	X_WP:	0.000	Y_WP:	0.000	Y_WP:	0.500	X:	0.100	Y:	0.093	Z:	0.402	yaw:	33.509	yaw rate:	0.719	Roll:	4.467	Pitch:	0.737	Yaw:	48.350	Thrust:	25.448
Time:	3.812	Roll Set Point:	-0.235	Pitch Set Point:	-0.114	Yaw Set Point:	-0.585	X_WP:	0.000	Y_WP:	0.000	Y_WP:	0.500	X:	0.100	Y:	0.093	Z:	0.402	yaw:	33.499	yaw rate:	-0.946	Roll:	4.483	Pitch:	0.764	Yaw:	48.178	Thrust:	25.403
Time:	3.827	Roll Set Point:	-0.235	Pitch Set Point:	-0.114	Yaw Set Point:	-0.584	X_WP:	0.000	Y_WP:	0.000	Y_WP:	0.500	X:	0.100	Y:	0.093	Z:	0.402	yaw:	33.486	yaw rate:	-1.290	Roll:	4.487	Pitch:	0.799	Yaw:	48.102	Thrust:	25.828
Time:	3.857	Roll Set Point:	-0.235	Pitch Set Point:	-0.114	Yaw Set Point:	-0.585	X_WP:	0.000	Y_WP:	0.000	Y_WP:	0.500	X:	0.100	Y:	0.093	Z:	0.402	yaw:	33.508	yaw rate:	0.285	Roll:	5.008	Pitch:	0.794	Yaw:	49.963	Thrust:	44.882
Time:	3.873	Roll Set Point:	-0.235	Pitch Set Point:	-0.114	Yaw Set Point:	-0.585	X_WP:	0.000	Y_WP:	0.000	Y_WP:	0.500	X:	0.100	Y:	0.093	Z:	0.402	yaw:	33.508	yaw rate:	0.285	Roll:	4.488	Pitch:	0.740	Yaw:	48.348	Thrust:	26.181
Time:	3.888	Roll Set Point:	-0.235	Pitch Set Point:	-0.115	Yaw Set Point:	-0.584	X_WP:	0.000	Y_WP:	0.000	Y_WP:	0.500	X:	0.100	Y:	0.093	Z:	0.402	yaw:	33.466	yaw rate:	-4.199	Roll:	4.491	Pitch:	0.890	Yaw:	47.586	Thrust:	26.318
Time:	3.904	Roll Set Point:	-0.235	Pitch Set Point:	-0.115	Yaw Set Point:	-0.584	X_WP:	0.000	Y_WP:	0.000	Y_WP:	0.500	X:	0.100	Y:	0.093	Z:	0.402	yaw:	33.466	yaw rate:	-4.199	Roll:	4.489	Pitch:	0.746	Yaw:	48.290	Thrust:	26.544
Time:	3.920	Roll Set Point:	-0.235	Pitch Set Point:	-0.114	Yaw Set Point:	-0.585	X_WP:	0.000	Y_WP:	0.000	Y_WP:	0.500	X:	0.100	Y:	0.093	Z:	0.402	yaw:	33.505	yaw rate:	2.042	Roll:	4.480	Pitch:	0.580	Yaw:	49.000	Thrust:	26.836
Time:	3.935	Roll Set Point:	-0.235	Pitch Set Point:	-0.115	Yaw Set Point:	-0.584	X_WP:	0.000	Y_WP:	0.000	Y_WP:	0.500	X:	0.100	Y:	0.093	Z:	0.402	yaw:	33.465	yaw rate:	-3.985	Roll:	4.485	Pitch:	0.900	Yaw:	47.617	Thrust:	26.683
Time:	3.951	Roll Set Point:	-0.235	Pitch Set Point:	-0.115	Yaw Set Point:	-0.584	X_WP:	0.000	Y_WP:	0.000	Y_WP:	0.500	X:	0.100	Y:	0.093	Z:	0.402	yaw:	33.479	yaw rate:	1.420	Roll:	4.532	Pitch:	0.718	Yaw:	48.546	Thrust:	27.283
Time:	3.967	Roll Set Point:	-0.235	Pitch Set Point:	-0.115	Yaw Set Point:	-0.584	X_WP:	0.000	Y_WP:	0.000	Y_WP:	0.500	X:	0.100	Y:	0.093	Z:	0.402	yaw:	33.479	yaw rate:	1.420	Roll:	4.491	Pitch:	0.748	Yaw:	48.311	Thrust:	27.320
Time:	3.982	Roll Set Point:	-0.235	Pitch Set Point:	-0.114	Yaw Set Point:	-0.585	X_WP:	0.000	Y_WP:	0.000	Y_WP:	0.500	X:	0.100	Y:	0.092	Z:	0.402	yaw:	33.501	yaw rate:	2.225	Roll:	4.421	Pitch:	0.621	Yaw:	48.710	Thrust:	27.360
Time:	3.998	Roll Set Point:	-0.235	Pitch Set Point:	-0.114	Yaw Set Point:	-0.585	X_WP:	0.000	Y_WP:	0.000	Y_WP:	0.500	X:	0.100	Y:	0.093	Z:	0.402	yaw:	33.511	yaw rate:	0.947	Roll:	4.509	Pitch:	0.732	Yaw:	48.511	Thrust:	27.780
Time:	4.013	Roll Set Point:	-0.235	Pitch Set Point:	-0.115	Yaw Set Point:	-0.584	X_WP:	0.000	Y_WP:	0.000	Y_WP:	0.500	X:	0.100	Y:	0.093	Z:	0.402	yaw:	33.479	yaw rate:	-3.144	Roll:	4.512	Pitch:	0.881	Yaw:	47.783	Thrust:	27.721
Time:	4.029	Roll Set Point:	-0.235	Pitch Set Point:	-0.114	Yaw Set Point:	-0.585	X_WP:	0.000	Y_WP:	0.000	Y_WP:	0.500	X:	0.100	Y:	0.093	Z:	0.402	yaw:	33.503	yaw rate:	0.657	Roll:	4.493	Pitch:	0.678	Yaw:	48.739	Thrust:	28.063
Time:	4.045	Roll Set Point:	-0.235	Pitch Set Point:	-0.114	Yaw Set Point:	-0.585	X_WP:	0.000	Y_WP:	0.000	Y_WP:	0.500	X:	0.100	Y:	0.093	Z:	0.402	yaw:	33.503	yaw rate:	0.657	Roll:	4.490	Pitch:	0.750	Yaw:	48.342	Thrust:	28.194
Time:	4.060	Roll Set Point:	-0.235	Pitch Set Point:	-0.114	Yaw Set Point:	-0.585	X_WP:	0.000	Y_WP:	0.000	Y_WP:	0.500	X:	0.100	Y:	0.092	Z:	0.402	yaw:	33.509	yaw rate:	0.557	Roll:	4.445	Pitch:	0.688	Yaw:	48.443	Thrust:	28.417
Time:	4.076	Roll Set Point:	-0.235	Pitch Set Point:	-0.115	Yaw Set Point:	-0.584	X_WP:	0.000	Y_WP:	0.000	Y_WP:	0.500	X:	0.100	Y:	0.093	Z:	0.402	yaw:	33.486	yaw rate:	-0.575	Roll:	4.537	Pitch:	0.885	Yaw:	47.944	Thrust:	28.369
Time:	4.092	Roll Set Point:	-0.235	Pitch Set Point:	-0.115	Yaw Set Point:	-0.585	X_WP:	0.000	Y_WP:	0.000	Y_WP:	0.500	X:	0.100	Y:	0.093	Z:	0.402	yaw:	33.492	yaw rate:	0.581	Roll:	4.497	Pitch:	0.735	Yaw:	48.424	Thrust:	28.807
Time:	4.107	Roll Set Point:	-0.235	Pitch Set Point:	-0.115	Yaw Set Point:	-0.585	X_WP:	0.000	Y_WP:	0.000	Y_WP:	0.500	X:	0.100	Y:	0.093	Z:	0.402	yaw:	33.492	yaw rate:	0.581	Roll:	4.490	Pitch:	0.755	Yaw:	48.326	Thrust:	28.922
Time:	4.123	Roll Set Point:	-0.235	Pitch Set Point:	-0.114	Yaw Set Point:	-0.585	X_WP:	0.000	Y_WP:	0.000	Y_WP:	0.500	X:	0.100	Y:	0.093	Z:	0.402	yaw:	33.505	yaw rate:	-1.510	Roll:	4.448	Pitch:	0.659	Yaw:	48.552	Thrust:	29.150
Time:	4.138	Roll Set Point:	-0.235	Pitch Set Point:	-0.115	Yaw Set Point:	-0.585	X_WP:	0.000	Y_WP:	0.000	Y_WP:	0.500	X:	0.100	Y:	0.093	Z:	0.402	yaw:	33.495	yaw rate:	-0.937	Roll:	4.541	Pitch:	0.869	Yaw:	48.174	Thrust:	29.335
Time:	4.154	Roll Set Point:	-0.235	Pitch Set Point:	-0.115	Yaw Set Point:	-0.584	X_WP:	0.000	Y_WP:	0.000	Y_WP:	0.500	X:	0.100	Y:	0.093	Z:	0.402	yaw:	33.486	yaw rate:	-0.905	Roll:	4.470	Pitch:	0.750	Yaw:	48.167	Thrust:	29.344
Time:	4.170	Roll Set Point:	-0.235	Pitch Set Point:	-0.115	Yaw Set Point:	-0.584	X_WP:	0.000	Y_WP:	0.000	Y_WP:	0.500	X:	0.100	Y:	0.093	Z:	0.402	yaw:	33.486	yaw rate:	-0.905	Roll:	4.490	Pitch:	0.759	Yaw:	48.318	Thrust:	29.656
Time:	4.185	Roll Set Point:	-0.235	Pitch Set Point:	-0.114	Yaw Set Point:	-0.585	X_WP:	0.000	Y_WP:	0.000	Y_WP:	0.500	X:	0.100	Y:	0.093	Z:	0.402	yaw:	33.518	yaw rate:	3.212	Roll:	4.488	Pitch:	0.653	Yaw:	48.901	Thrust:	29.978
Time:	4.201	Roll Set Point:	-0.235	Pitch Set Point:	-0.114	Yaw Set Point:	-0.585	X_WP:	0.000	Y_WP:	0.000	Y_WP:	0.500	X:	0.100	Y:	0.093	Z:	0.402	yaw:	33.525	yaw rate:	0.673	Roll:	4.482	Pitch:	0.713	Yaw:	48.485	Thrust:	29.997
Time:	4.217	Roll Set Point:	-0.235	Pitch Set Point:	-0.115	Yaw Set Point:	-0.585	X_WP:	0.000	Y_WP:	0.000	Y_WP:	0.500	X:	0.100	Y:	0.093	Z:	0.402	yaw:	33.499	yaw rate:	1.298	Roll:	4.520	Pitch:	0.888	Yaw:	47.908	Thrust:	30.192
Time:	4.232	Roll Set Point:	-0.235	Pitch Set Point:	-0.115	Yaw Set Point:	-0.585	X_WP:	0.000	Y_WP:	0.000	Y_WP:	0.500	X:	0.100	Y:	0.093	Z:	0.402	yaw:	33.499	yaw rate:	1.298	Roll:	4.491	Pitch:	0.762	Yaw:	48.340	Thrust:	30.437
Time:	4.248	Roll Set Point:	-0.235	Pitch Set Point:	-0.114	Yaw Set Point:	-0.585	X_WP:	0.000	Y_WP:	0.000	Y_WP:	0.500	X:	0.100	Y:	0.093	Z:	0.402	yaw:	33.493	yaw rate:	-0.631	Roll:	4.452	Pitch:	0.739	Yaw:	48.219	Thrust:	30.548
Time:	4.263	Roll Set Point:	-0.235	Pitch Set Point:	-0.114	Yaw Set Point:	-0.585	X_WP:	0.000	Y_WP:	0.000	Y_WP:	0.500	X:	0.100	Y:	0.093	Z:	0.402	yaw:	33.517	yaw rate:	0.050	Roll:	4.496	Pitch:	0.690	Yaw:	48.767	Thrust:	30.820
Time:	4.279	Roll Set Point:	-0.235	Pitch Set Point:	-0.114	Yaw Set Point:	-0.585	X_WP:	0.000	Y_WP:	0.000	Y_WP:	0.500	X:	0.100	Y:	0.093	Z:	0.402	yaw:	33.517	yaw rate:	0.050	Roll:	4.489	Pitch:	0.762	Yaw:	48.361	Thrust:	30.934
Time:	4.295	Roll Set Point:	-0.235	Pitch Set Point:	-0.114	Yaw Set Point:	-0.585	X_WP:	0.000	Y_WP:	0.000	Y_WP:	0.500	X:	0.100	Y:	0.093	Z:	0.402	yaw:	33.495	yaw rate:	-2.222	Roll:	4.493	Pitch:	0.856	Yaw:	47.955	Thrust:	30.953
Time:	4.310	Roll Set Point:	-0.235	Pitch Set Point:	-0.114	Yaw Set Point:	-0.585	X_WP:	0.000	Y_WP:	0.000	Y_WP:	0.500	X:	0.100	Y:	0.093	Z:	0.402	yaw:	33.503	yaw rate:	1.407	Roll:	4.478	Pitch:	0.710	Yaw:	48.484	Thrust:	31.548
Time:	4.326	Roll Set Point:	-0.235	Pitch Set Point:	-0.114	Yaw Set Point:	-0.585	X_WP:	0.000	Y_WP:	0.000	Y_WP:	0.500	X:	0.100	Y:	0.093	Z:	0.402	yaw:	33.508	yaw rate:	0.521	Roll:	4.504	Pitch:	0.749	Yaw:	48.437	Thrust:	31.245
Time:	4.342	Roll Set Point:	-0.235	Pitch Set Point:	-0.115	Yaw Set Point:	-0.584	X_WP:	0.000	Y_WP:	0.000	Y_WP:	0.500	X:	0.100	Y:	0.093	Z:	0.402	yaw:	33.486	yaw rate:	-2.247	Roll:	4.492	Pitch:	0.876	Yaw:	47.941	Thrust:	31.801
Time:	4.357	Roll Set Point:	-0.235	Pitch Set Point:	-0.114	Yaw Set Point:	-0.585	X_WP:	0.000	Y_WP:	0.000	Y_WP:	0.500	X:	0.100	Y:	0.093	Z:	0.402	yaw:	33.503	yaw rate:	1.666	Roll:	4.463	Pitch:	0.666	Yaw:	48.618	Thrust:	31.809
Time:	4.373	Roll Set Point:	-0.235	Pitch Set Point:	-0.114	Yaw Set Point:	-0.584	X_WP:	0.000	Y_WP:	0.000	Y_WP:	0.500	X:	0.100	Y:	0.093	Z:	0.402	yaw:	33.482	yaw rate:	-2.016	Roll:	4.477	Pitch:	0.827	Yaw:	47.975	Thrust:	32.146
Time:	4.388	Roll Set Point:	-0.235	Pitch Set Point:	-0.114	Yaw Set Point:	-0.585	X_WP:	0.000	Y_WP:	0.000	Y_WP:	0.500	X:	0.100	Y:	0.093	Z:	0.402	yaw:	33.496	yaw rate:	1.361	Roll:	4.523	Pitch:	0.746	Yaw:	48.560	Thrust:	32.092
Time:	4.404	Roll Set Point:	-0.235	Pitch Set Point:	-0.115	Yaw Set Point:	-0.584	X_WP:	0.000	Y_WP:	0.000	Y_WP:	0.500	X:	0.100	Y:	0.093	Z:	0.402	yaw:	33.485	yaw rate:	-1.097	Roll:	4.500	Pitch:	0.847	Yaw:	48.136	Thrust:	32.415
Time:	4.420	Roll Set Point:	-0.235	Pitch Set Point:	-0.115	Yaw Set Point:	-0.584	X_WP:	0.000	Y_WP:	0.000	Y_WP:	0.500	X:	0.100	Y:	0.093	Z:	0.402	yaw:	33.485	yaw rate:	-1.097	Roll:	4.489	Pitch:	0.773	Yaw:	48.314	Thrust:	32.534
Time:	4.435	Roll Set Point:	-0.235	Pitch Set Point:	-0.114	Yaw Set Point:	-0.584	X_WP:	0.000	Y_WP:	0.000	Y_WP:	0.500	X:	0.100	Y:	0.093	Z:	0.402	yaw:	33.488	yaw rate:	0.246	Roll:	4.475	Pitch:	0.738	Yaw:	48.361	Thrust:	32.766
Time:	4.451	Roll Set Point:	-0.235	Pitch Set Point:	-0.114	Yaw Set Point:	-0.585	X_WP:	0.000	Y_WP:	0.000	Y_WP:	0.500	X:	0.100	Y:	0.093	Z:	0.402	yaw:	33.513	yaw rate:	2.561	Roll:	4.470	Pitch:	0.675	Yaw:	48.785	Thrust:	33.210
Time:	4.467	Roll Set Point:	-0.235	Pitch Set Point:	-0.114	Yaw Set Point:	-0.585	X_WP:	0.000	Y_WP:	0.000	Y_WP:	0.500	X:	0.100	Y:	0.093	Z:	0.402	yaw:	33.505	yaw rate:	-0.828	Roll:	4.490	Pitch:	0.791	Yaw:	48.206	Thrust:	33.073
Time:	4.482	Roll Set Point:	-0.235	Pitch Set Point:	-0.114	Yaw Set Point:	-0.585	X_WP:	0.000	Y_WP:	0.000	Y_WP:	0.500	X:	0.100	Y:	0.093	Z:	0.402	yaw:	33.501	yaw rate:	-0.434	Roll:	4.531	Pitch:	0.841	Yaw:	48.266	Thrust:	33.093
Time:	4.498	Roll Set Point:	-0.235	Pitch Set Point:	-0.114	Yaw Set Point:	-0.585	X_WP:	0.000	Y_WP:	0.000	Y_WP:	0.500	X:	0.100	Y:	0.093	Z:	0.402	yaw:	33.515	yaw rate:	4.086	Roll:	4.469	Pitch:	0.676	Yaw:	48.609	Thrust:	33.636
Time:	4.513	Roll Set Point:	-0.235	Pitch Set Point:	-0.114	Yaw Set Point:	-0.585	X_WP:	0.000	Y_WP:	0.000	Y_WP:	0.500	X:	0.100	Y:	0.093	Z:	0.402	yaw:	33.515	yaw rate:	4.086	Roll:	4.490	Pitch:	0.774	Yaw:	48.359	Thrust:	33.688
Time:	4.529	Roll Set Point:	-0.235	Pitch Set Point:	-0.114	Yaw Set Point:	-0.585	X_WP:	0.000	Y_WP:	0.000	Y_WP:	0.500	X:	0.100	Y:	0.092	Z:	0.402	yaw:	33.491	yaw rate:	-2.468	Roll:	4.438	Pitch:	0.827	Yaw:	47.911	Thrust:	33.914
Time:	4.545	Roll Set Point:	-0.235	Pitch Set Point:	-0.114	Yaw Set Point:	-0.585	X_WP:	0.000	Y_WP:	0.000	Y_WP:	0.500	X:	0.100	Y:	0.093	Z:	0.402	yaw:	33.497	yaw rate:	0.655	Roll:	4.557	Pitch:	0.804	Yaw:	48.444	Thrust:	34.112
Time:	4.560	Roll Set Point:	-0.235	Pitch Set Point:	-0.114	Yaw Set Point:	-0.585	X_WP:	0.000	Y_WP:	0.000	Y_WP:	0.500	X:	0.100	Y:	0.093	Z:	0.402	yaw:	33.518	yaw rate:	2.724	Roll:	4.492	Pitch:	0.717	Yaw:	48.702	Thrust:	34.029
Time:	4.576	Roll Set Point:	-0.235	Pitch Set Point:	-0.114	Yaw Set Point:	-0.585	X_WP:	0.000	Y_WP:	0.000	Y_WP:	0.500	X:	0.100	Y:	0.093	Z:	0.402	yaw:	33.524	yaw rate:	0.648	Roll:	4.464	Pitch:	0.744	Yaw:	48.480	Thrust:	34.655
Time:	4.592	Roll Set Point:	-0.235	Pitch Set Point:	-0.114	Yaw Set Point:	-0.585	X_WP:	0.000	Y_WP:	0.000	Y_WP:	0.500	X:	0.100	Y:	0.093	Z:	0.402	yaw:	33.504	yaw rate:	-1.984	Roll:	4.469	Pitch:	0.813	Yaw:	48.011	Thrust:	34.440
Time:	4.607	Roll Set Point:	-0.235	Pitch Set Point:	-0.115	Yaw Set Point:	-0.585	X_WP:	0.000	Y_WP:	0.000	Y_WP:	0.500	X:	0.100	Y:	0.093	Z:	0.402	yaw:	33.501	yaw rate:	-0.313	Roll:	4.535	Pitch:	0.873	Yaw:	48.287	Thrust:	34.801
Time:	4.623	Roll Set Point:	-0.235	Pitch Set Point:	-0.115	Yaw Set Point:	-0.585	X_WP:	0.000	Y_WP:	0.000	Y_WP:	0.500	X:	0.100	Y:	0.093	Z:	0.402	yaw:	33.496	yaw rate:	-0.523	Roll:	4.493	Pitch:	0.785	Yaw:	48.245	Thrust:	35.080
Time:	4.638	Roll Set Point:	-0.235	Pitch Set Point:	-0.114	Yaw Set Point:	-0.585	X_WP:	0.000	Y_WP:	0.000	Y_WP:	0.500	X:	0.100	Y:	0.093	Z:	0.402	yaw:	33.491	yaw rate:	-0.536	Roll:	4.445	Pitch:	0.746	Yaw:	48.234	Thrust:	35.092
Time:	4.654	Roll Set Point:	-0.235	Pitch Set Point:	-0.114	Yaw Set Point:	-0.585	X_WP:	0.000	Y_WP:	0.000	Y_WP:	0.500	X:	0.100	Y:	0.093	Z:	0.402	yaw:	33.498	yaw rate:	0.713	Roll:	4.486	Pitch:	0.764	Yaw:	48.453	Thrust:	35.397
Time:	4.670	Roll Set Point:	-0.235	Pitch Set Point:	-0.114	Yaw Set Point:	-0.585	X_WP:	0.000	Y_WP:	0.000	Y_WP:	0.500	X:	0.100	Y:	0.093	Z:	0.402	yaw:	33.497	yaw rate:	-0.026	Roll:	4.527	Pitch:	0.820	Yaw:	48.330	Thrust:	35.321
Time:	4.685	Roll Set Point:	-0.235	Pitch Set Point:	-0.114	Yaw Set Point:	-0.585	X_WP:	0.000	Y_WP:	0.000	Y_WP:	0.500	X:	0.100	Y:	0.093	Z:	0.402	yaw:	33.496	yaw rate:	-0.168	Roll:	4.479	Pitch:	0.791	Yaw:	48.303	Thrust:	35.776
Time:	4.701	Roll Set Point:	-0.235	Pitch Set Point:	-0.114	Yaw Set Point:	-0.585	X_WP:	0.000	Y_WP:	0.000	Y_WP:	0.500	X:	0.100	Y:	0.093	Z:	0.402	yaw:	33.496	yaw rate:	-0.168	Roll:	4.490	Pitch:	0.787	Yaw:	48.332	Thrust:	35.889
Time:	4.717	Roll Set Point:	-0.235	Pitch Set Point:	-0.114	Yaw Set Point:	-0.584	X_WP:	0.000	Y_WP:	0.000	Y_WP:	0.500	X:	0.100	Y:	0.093	Z:	0.402	yaw:	33.485	yaw rate:	-2.478	Roll:	4.459	Pitch:	0.788	Yaw:	48.132	Thrust:	36.054
Time:	4.732	Roll Set Point:	-0.235	Pitch Set Point:	-0.114	Yaw Set Point:	-0.584	X_WP:	0.000	Y_WP:	0.000	Y_WP:	0.500	X:	0.100	Y:	0.093	Z:	0.402	yaw:	33.485	yaw rate:	-2.478	Roll:	4.489	Pitch:	0.789	Yaw:	48.317	Thrust:	36.262
Time:	4.748	Roll Set Point:	-0.235	Pitch Set Point:	-0.114	Yaw Set Point:	-0.584	X_WP:	0.000	Y_WP:	0.000	Y_WP:	0.500	X:	0.100	Y:	0.093	Z:	0.402	yaw:	33.484	yaw rate:	-0.048	Roll:	4.508	Pitch:	0.802	Yaw:	48.307	Thrust:	36.388
Time:	4.764	Roll Set Point:	-0.235	Pitch Set Point:	-0.114	Yaw Set Point:	-0.584	X_WP:	0.000	Y_WP:	0.000	Y_WP:	0.500	X:	0.100	Y:	0.093	Z:	0.402	yaw:	33.489	yaw rate:	0.365	Roll:	4.496	Pitch:	0.783	Yaw:	48.392	Thrust:	36.704
Time:	4.779	Roll Set Point:	-0.235	Pitch Set Point:	-0.114	Yaw Set Point:	-0.585	X_WP:	0.000	Y_WP:	0.000	Y_WP:	0.500	X:	0.100	Y:	0.093	Z:	0.402	yaw:	33.515	yaw rate:	2.662	Roll:	4.473	Pitch:	0.690	Yaw:	48.805	Thrust:	36.846
Time:	4.795	Roll Set Point:	-0.235	Pitch Set Point:	-0.114	Yaw Set Point:	-0.585	X_WP:	0.000	Y_WP:	0.000	Y_WP:	0.500	X:	0.100	Y:	0.093	Z:	0.402	yaw:	33.515	yaw rate:	2.662	Roll:	4.489	Pitch:	0.790	Yaw:	48.359	Thrust:	36.984
Time:	4.810	Roll Set Point:	-0.235	Pitch Set Point:	-0.114	Yaw Set Point:	-0.585	X_WP:	0.000	Y_WP:	0.000	Y_WP:	0.500	X:	0.100	Y:	0.093	Z:	0.402	yaw:	33.510	yaw rate:	-0.555	Roll:	4.516	Pitch:	0.853	Yaw:	48.258	Thrust:	37.074
Time:	4.826	Roll Set Point:	-0.235	Pitch Set Point:	-0.114	Yaw Set Point:	-0.585	X_WP:	0.000	Y_WP:	0.000	Y_WP:	0.500	X:	0.100	Y:	0.093	Z:	0.402	yaw:	33.510	yaw rate:	2.642	Roll:	4.473	Pitch:	0.764	Yaw:	48.351	Thrust:	37.393
Time:	4.842	Roll Set Point:	-0.235	Pitch Set Point:	-0.114	Yaw Set Point:	-0.585	X_WP:	0.000	Y_WP:	0.000	Y_WP:	0.500	X:	0.100	Y:	0.093	Z:	0.402	yaw:	33.494	yaw rate:	-1.607	Roll:	4.483	Pitch:	0.816	Yaw:	48.131	Thrust:	38.834
Time:	4.858	Roll Set Point:	-0.235	Pitch Set Point:	-0.114	Yaw Set Point:	-0.585	X_WP:	0.000	Y_WP:	0.000	Y_WP:	0.500	X:	0.100	Y:	0.093	Z:	0.402	yaw:	33.494	yaw rate:	-1.607	Roll:	4.516	Pitch:	0.802	Yaw:	48.329	Thrust:	37.720
Time:	4.874	Roll Set Point:	-0.235	Pitch Set Point:	-0.114	Yaw Set Point:	-0.585	X_WP:	0.000	Y_WP:	0.000	Y_WP:	0.500	X:	0.100	Y:	0.093	Z:	0.402	yaw:	33.510	yaw rate:	1.663	Roll:	4.512	Pitch:	0.775	Yaw:	48.630	Thrust:	37.833
Time:	4.889	Roll Set Point:	-0.235	Pitch Set Point:	-0.114	Yaw Set Point:	-0.585	X_WP:	0.000	Y_WP:	0.000	Y_WP:	0.500	X:	0.100	Y:	0.093	Z:	0.402	yaw:	33.498	yaw rate:	-1.258	Roll:	4.477	Pitch:	0.853	Yaw:	48.123	Thrust:	38.182
Time:	4.905	Roll Set Point:	-0.235	Pitch Set Point:	-0.114	Yaw Set Point:	-0.585	X_WP:	0.000	Y_WP:	0.000	Y_WP:	0.500	X:	0.100	Y:	0.093	Z:	0.402	yaw:	33.498	yaw rate:	-1.258	Roll:	4.489	Pitch:	0.798	Yaw:	48.334	Thrust:	38.269
Time:	4.920	Roll Set Point:	-0.235	Pitch Set Point:	-0.114	Yaw Set Point:	-0.585	X_WP:	0.000	Y_WP:	0.000	Y_WP:	0.500	X:	0.100	Y:	0.093	Z:	0.402	yaw:	33.501	yaw rate:	0.353	Roll:	4.472	Pitch:	0.728	Yaw:	48.399	Thrust:	38.349
Time:	4.936	Roll Set Point:	-0.235	Pitch Set Point:	-0.114	Yaw Set Point:	-0.585	X_WP:	0.000	Y_WP:	0.000	Y_WP:	0.500	X:	0.100	Y:	0.093	Z:	0.402	yaw:	33.498	yaw rate:	-0.453	Roll:	4.518	Pitch:	0.870	Yaw:	48.279	Thrust:	38.595
Time:	4.952	Roll Set Point:	-0.235	Pitch Set Point:	-0.114	Yaw Set Point:	-0.585	X_WP:	0.000	Y_WP:	0.000	Y_WP:	0.500	X:	0.100	Y:	0.093	Z:	0.402	yaw:	33.498	yaw rate:	-0.453	Roll:	4.490	Pitch:	0.801	Yaw:	48.335	Thrust:	38.817
Time:	4.967	Roll Set Point:	-0.235	Pitch Set Point:	-0.114	Yaw Set Point:	-0.585	X_WP:	0.000	Y_WP:	0.000	Y_WP:	0.500	X:	0.100	Y:	0.093	Z:	0.402	yaw:	33.513	yaw rate:	4.183	Roll:	4.487	Pitch:	0.754	Yaw:	48.607	Thrust:	39.155
Time:	4.983	Roll Set Point:	-0.235	Pitch Set Point:	-0.114	Yaw Set Point:	-0.585	X_WP:	0.000	Y_WP:	0.000	Y_WP:	0.500	X:	0.100	Y:	0.093	Z:	0.402	yaw:	33.513	yaw rate:	4.183	Roll:	4.490	Pitch:	0.801	Yaw:	48.356	Thrust:	39.188
Time:	4.999	Roll Set Point:	-0.235	Pitch Set Point:	-0.114	Yaw Set Point:	-0.584	X_WP:	0.000	Y_WP:	0.000	Y_WP:	0.500	X:	0.100	Y:	0.093	Z:	0.402	yaw:	33.484	yaw rate:	-0.555	Roll:	4.471	Pitch:	0.880	Yaw:	47.833	Thrust:	39.269
Time:	5.014	Roll Set Point:	-0.235	Pitch Set Point:	-0.114	Yaw Set Point:	-0.585	X_WP:	0.000	Y_WP:	0.000	Y_WP:	0.500	X:	0.100	Y:	0.093	Z:	0.402	yaw:	33.502	yaw rate:	1.810	Roll:	4.501	Pitch:	0.765	Yaw:	48.641	Thrust:	39.545
Time:	5.030	Roll Set Point:	-0.235	Pitch Set Point:	-0.114	Yaw Set Point:	-0.585	X_WP:	0.000	Y_WP:	0.000	Y_WP:	0.500	X:	0.100	Y:	0.093	Z:	0.402	yaw:	33.515	yaw rate:	1.291	Roll:	4.502	Pitch:	0.739	Yaw:	48.575	Thrust:	39.688
Time:	5.045	Roll Set Point:	-0.235	Pitch Set Point:	-0.114	Yaw Set Point:	-0.585	X_WP:	0.000	Y_WP:	0.000	Y_WP:	0.500	X:	0.100	Y:	0.093	Z:	0.402	yaw:	33.515	yaw rate:	1.291	Roll:	4.491	Pitch:	0.804	Yaw:	48.362	Thrust:	39.998
Time:	5.061	Roll Set Point:	-0.235	Pitch Set Point:	-0.114	Yaw Set Point:	-0.584	X_WP:	0.000	Y_WP:	0.000	Y_WP:	0.500	X:	0.100	Y:	0.093	Z:	0.402	yaw:	33.484	yaw rate:	0.810	Roll:	4.471	Pitch:	0.902	Yaw:	47.790	Thrust:	40.078
Time:	5.077	Roll Set Point:	-0.235	Pitch Set Point:	-0.115	Yaw Set Point:	-0.584	X_WP:	0.000	Y_WP:	0.000	Y_WP:	0.500	X:	0.100	Y:	0.093	Z:	0.402	yaw:	33.468	yaw rate:	-1.601	Roll:	4.476	Pitch:	0.863	Yaw:	48.020	Thrust:	40.236
Time:	5.092	Roll Set Point:	-0.235	Pitch Set Point:	-0.114	Yaw Set Point:	-0.585	X_WP:	0.000	Y_WP:	0.000	Y_WP:	0.500	X:	0.100	Y:	0.093	Z:	0.402	yaw:	33.493	yaw rate:	2.542	Roll:	4.504	Pitch:	0.723	Yaw:	48.754	Thrust:	40.421
Time:	5.108	Roll Set Point:	-0.235	Pitch Set Point:	-0.114	Yaw Set Point:	-0.585	X_WP:	0.000	Y_WP:	0.000	Y_WP:	0.500	X:	0.100	Y:	0.093	Z:	0.402	yaw:	33.497	yaw rate:	0.366	Roll:	4.506	Pitch:	0.800	Yaw:	48.397	Thrust:	40.813
Time:	5.124	Roll Set Point:	-0.235	Pitch Set Point:	-0.114	Yaw Set Point:	-0.585	X_WP:	0.000	Y_WP:	0.000	Y_WP:	0.500	X:	0.100	Y:	0.093	Z:	0.402	yaw:	33.516	yaw rate:	1.881	Roll:	4.477	Pitch:	0.753	Yaw:	48.672	Thrust:	40.757
Time:	5.139	Roll Set Point:	-0.235	Pitch Set Point:	-0.114	Yaw Set Point:	-0.585	X_WP:	0.000	Y_WP:	0.000	Y_WP:	0.500	X:	0.100	Y:	0.093	Z:	0.402	yaw:	33.505	yaw rate:	-1.029	Roll:	4.464	Pitch:	0.835	Yaw:	48.172	Thrust:	40.852
Time:	5.155	Roll Set Point:	-0.235	Pitch Set Point:	-0.114	Yaw Set Point:	-0.585	X_WP:	0.000	Y_WP:	0.000	Y_WP:	0.500	X:	0.100	Y:	0.093	Z:	0.402	yaw:	33.496	yaw rate:	-0.969	Roll:	4.509	Pitch:	0.865	Yaw:	48.169	Thrust:	41.383
Time:	5.170	Roll Set Point:	-0.235	Pitch Set Point:	-0.114	Yaw Set Point:	-0.585	X_WP:	0.000	Y_WP:	0.000	Y_WP:	0.500	X:	0.100	Y:	0.093	Z:	0.402	yaw:	33.496	yaw rate:	0.005	Roll:	4.501	Pitch:	0.781	Yaw:	48.332	Thrust:	41.289
Time:	5.186	Roll Set Point:	-0.235	Pitch Set Point:	-0.114	Yaw Set Point:	-0.585	X_WP:	0.000	Y_WP:	0.000	Y_WP:	0.500	X:	0.100	Y:	0.093	Z:	0.402	yaw:	33.501	yaw rate:	0.587	Roll:	4.475	Pitch:	0.807	Yaw:	48.438	Thrust:	41.646
Time:	5.202	Roll Set Point:	-0.235	Pitch Set Point:	-0.115	Yaw Set Point:	-0.584	X_WP:	0.000	Y_WP:	0.000	Y_WP:	0.500	X:	0.100	Y:	0.093	Z:	0.402	yaw:	33.475	yaw rate:	-2.639	Roll:	4.495	Pitch:	0.890	Yaw:	47.860	Thrust:	41.709
Time:	5.217	Roll Set Point:	-0.235	Pitch Set Point:	-0.114	Yaw Set Point:	-0.585	X_WP:	0.000	Y_WP:	0.000	Y_WP:	0.500	X:	0.100	Y:	0.093	Z:	0.402	yaw:	33.492	yaw rate:	1.678	Roll:	4.489	Pitch:	0.763	Yaw:	48.607	Thrust:	41.888
Time:	5.233	Roll Set Point:	-0.235	Pitch Set Point:	-0.114	Yaw Set Point:	-0.585	X_WP:	0.000	Y_WP:	0.000	Y_WP:	0.500	X:	0.100	Y:	0.093	Z:	0.402	yaw:	33.499	yaw rate:	0.703	Roll:	4.512	Pitch:	0.814	Yaw:	48.454	Thrust:	42.190
Time:	5.249	Roll Set Point:	-0.235	Pitch Set Point:	-0.114	Yaw Set Point:	-0.585	X_WP:	0.000	Y_WP:	0.000	Y_WP:	0.500	X:	0.100	Y:	0.093	Z:	0.402	yaw:	33.499	yaw rate:	0.703	Roll:	4.490	Pitch:	0.817	Yaw:	48.336	Thrust:	42.296
Time:	5.264	Roll Set Point:	-0.235	Pitch Set Point:	-0.115	Yaw Set Point:	-0.584	X_WP:	0.000	Y_WP:	0.000	Y_WP:	0.500	X:	0.100	Y:	0.093	Z:	0.402	yaw:	33.476	yaw rate:	-1.409	Roll:	4.461	Pitch:	0.881	Yaw:	47.917	Thrust:	42.408
Time:	5.280	Roll Set Point:	-0.235	Pitch Set Point:	-0.115	Yaw Set Point:	-0.584	X_WP:	0.000	Y_WP:	0.000	Y_WP:	0.500	X:	0.100	Y:	0.093	Z:	0.402	yaw:	33.476	yaw rate:	-1.409	Roll:	4.489	Pitch:	0.820	Yaw:	48.304	Thrust:	42.662
Time:	5.295	Roll Set Point:	-0.235	Pitch Set Point:	-0.115	Yaw Set Point:	-0.584	X_WP:	0.000	Y_WP:	0.000	Y_WP:	0.500	X:	0.100	Y:	0.093	Z:	0.402	yaw:	33.476	yaw rate:	-0.028	Roll:	4.516	Pitch:	0.841	Yaw:	48.298	Thrust:	42.893
Time:	5.311	Roll Set Point:	-0.235	Pitch Set Point:	-0.114	Yaw Set Point:	-0.585	X_WP:	0.000	Y_WP:	0.000	Y_WP:	0.500	X:	0.100	Y:	0.093	Z:	0.402	yaw:	33.498	yaw rate:	0.057	Roll:	4.466	Pitch:	0.707	Yaw:	48.718	Thrust:	43.059
Time:	5.327	Roll Set Point:	-0.235	Pitch Set Point:	-0.114	Yaw Set Point:	-0.585	X_WP:	0.000	Y_WP:	0.000	Y_WP:	0.500	X:	0.100	Y:	0.093	Z:	0.402	yaw:	33.507	yaw rate:	0.888	Roll:	4.482	Pitch:	0.822	Yaw:	48.496	Thrust:	43.118
Time:	5.342	Roll Set Point:	-0.235	Pitch Set Point:	-0.115	Yaw Set Point:	-0.585	X_WP:	0.000	Y_WP:	0.000	Y_WP:	0.500	X:	0.100	Y:	0.093	Z:	0.402	yaw:	33.495	yaw rate:	-1.221	Roll:	4.515	Pitch:	0.891	Yaw:	48.127	Thrust:	43.419
Time:	5.358	Roll Set Point:	-0.235	Pitch Set Point:	-0.114	Yaw Set Point:	-0.585	X_WP:	0.000	Y_WP:	0.000	Y_WP:	0.500	X:	0.100	Y:	0.093	Z:	0.402	yaw:	33.503	yaw rate:	0.799	Roll:	4.492	Pitch:	0.773	Yaw:	48.475	Thrust:	43.606
Time:	5.374	Roll Set Point:	-0.235	Pitch Set Point:	-0.114	Yaw Set Point:	-0.585	X_WP:	0.000	Y_WP:	0.000	Y_WP:	0.500	X:	0.100	Y:	0.093	Z:	0.402	yaw:	33.511	yaw rate:	0.767	Roll:	4.485	Pitch:	0.794	Yaw:	48.481	Thrust:	43.804
Time:	5.389	Roll Set Point:	-0.235	Pitch Set Point:	-0.114	Yaw Set Point:	-0.585	X_WP:	0.000	Y_WP:	0.000	Y_WP:	0.500	X:	0.100	Y:	0.093	Z:	0.402	yaw:	33.495	yaw rate:	-1.586	Roll:	4.446	Pitch:	0.829	Yaw:	48.065	Thrust:	43.870
Time:	5.405	Roll Set Point:	-0.235	Pitch Set Point:	-0.114	Yaw Set Point:	-0.585	X_WP:	0.000	Y_WP:	0.000	Y_WP:	0.500	X:	0.100	Y:	0.093	Z:	0.402	yaw:	33.494	yaw rate:	-0.081	Roll:	4.538	Pitch:	0.883	Yaw:	48.316	Thrust:	44.056
Time:	5.420	Roll Set Point:	-0.235	Pitch Set Point:	-0.114	Yaw Set Point:	-0.585	X_WP:	0.000	Y_WP:	0.000	Y_WP:	0.500	X:	0.100	Y:	0.093	Z:	0.402	yaw:	33.500	yaw rate:	0.598	Roll:	4.495	Pitch:	0.810	Yaw:	48.438	Thrust:	44.384
Time:	5.436	Roll Set Point:	-0.235	Pitch Set Point:	-0.114	Yaw Set Point:	-0.585	X_WP:	0.000	Y_WP:	0.000	Y_WP:	0.500	X:	0.100	Y:	0.093	Z:	0.402	yaw:	33.500	yaw rate:	0.598	Roll:	4.490	Pitch:	0.827	Yaw:	48.338	Thrust:	44.498
Time:	5.452	Roll Set Point:	-0.235	Pitch Set Point:	-0.114	Yaw Set Point:	-0.585	X_WP:	0.000	Y_WP:	0.000	Y_WP:	0.500	X:	0.100	Y:	0.093	Z:	0.402	yaw:	33.502	yaw rate:	0.189	Roll:	4.455	Pitch:	0.767	Yaw:	48.371	Thrust:	44.665
Time:	5.467	Roll Set Point:	-0.235	Pitch Set Point:	-0.114	Yaw Set Point:	-0.585	X_WP:	0.000	Y_WP:	0.000	Y_WP:	0.500	X:	0.100	Y:	0.093	Z:	0.402	yaw:	33.494	yaw rate:	-1.431	Roll:	4.511	Pitch:	0.903	Yaw:	48.201	Thrust:	44.870
Time:	5.483	Roll Set Point:	-0.235	Pitch Set Point:	-0.115	Yaw Set Point:	-0.584	X_WP:	0.000	Y_WP:	0.000	Y_WP:	0.500	X:	0.100	Y:	0.093	Z:	0.402	yaw:	33.478	yaw rate:	-1.575	Roll:	4.483	Pitch:	0.867	Yaw:	48.043	Thrust:	44.940
Time:	5.499	Roll Set Point:	-0.235	Pitch Set Point:	-0.115	Yaw Set Point:	-0.584	X_WP:	0.000	Y_WP:	0.000	Y_WP:	0.500	X:	0.100	Y:	0.093	Z:	0.402	yaw:	33.478	yaw rate:	-1.575	Roll:	4.489	Pitch:	0.832	Yaw:	48.307	Thrust:	45.220
Time:	5.514	Roll Set Point:	-0.235	Pitch Set Point:	-0.114	Yaw Set Point:	-0.585	X_WP:	0.000	Y_WP:	0.000	Y_WP:	0.500	X:	0.100	Y:	0.093	Z:	0.402	yaw:	33.515	yaw rate:	1.845	Roll:	4.472	Pitch:	0.690	Yaw:	48.969	Thrust:	45.597
Time:	5.530	Roll Set Point:	-0.235	Pitch Set Point:	-0.114	Yaw Set Point:	-0.585	X_WP:	0.000	Y_WP:	0.000	Y_WP:	0.500	X:	0.100	Y:	0.093	Z:	0.402	yaw:	33.515	yaw rate:	1.845	Roll:	4.489	Pitch:	0.830	Yaw:	48.358	Thrust:	45.594
Time:	5.545	Roll Set Point:	-0.235	Pitch Set Point:	-0.115	Yaw Set Point:	-0.585	X_WP:	0.000	Y_WP:	0.000	Y_WP:	0.500	X:	0.100	Y:	0.093	Z:	0.402	yaw:	33.494	yaw rate:	1.209	Roll:	4.539	Pitch:	0.940	Yaw:	47.970	Thrust:	45.632
Time:	5.561	Roll Set Point:	-0.235	Pitch Set Point:	-0.115	Yaw Set Point:	-0.585	X_WP:	0.000	Y_WP:	0.000	Y_WP:	0.500	X:	0.100	Y:	0.093	Z:	0.402	yaw:	33.494	yaw rate:	1.209	Roll:	4.490	Pitch:	0.834	Yaw:	48.329	Thrust:	45.957
Time:	5.577	Roll Set Point:	-0.235	Pitch Set Point:	-0.114	Yaw Set Point:	-0.585	X_WP:	0.000	Y_WP:	0.000	Y_WP:	0.500	X:	0.100	Y:	0.092	Z:	0.402	yaw:	33.493	yaw rate:	0.314	Roll:	4.419	Pitch:	0.774	Yaw:	48.327	Thrust:	46.206
Time:	5.592	Roll Set Point:	-0.235	Pitch Set Point:	-0.114	Yaw Set Point:	-0.585	X_WP:	0.000	Y_WP:	0.000	Y_WP:	0.500	X:	0.100	Y:	0.092	Z:	0.402	yaw:	33.493	yaw rate:	0.314	Roll:	4.489	Pitch:	0.835	Yaw:	48.330	Thrust:	46.356
Time:	5.608	Roll Set Point:	-0.235	Pitch Set Point:	-0.115	Yaw Set Point:	-0.584	X_WP:	0.000	Y_WP:	0.000	Y_WP:	0.500	X:	0.100	Y:	0.093	Z:	0.402	yaw:	33.487	yaw rate:	-1.096	Roll:	4.553	Pitch:	0.936	Yaw:	48.204	Thrust:	46.394
Time:	5.624	Roll Set Point:	-0.235	Pitch Set Point:	-0.114	Yaw Set Point:	-0.585	X_WP:	0.000	Y_WP:	0.000	Y_WP:	0.500	X:	0.100	Y:	0.093	Z:	0.402	yaw:	33.503	yaw rate:	1.597	Roll:	4.469	Pitch:	0.764	Yaw:	48.609	Thrust:	46.722
Time:	5.639	Roll Set Point:	-0.235	Pitch Set Point:	-0.114	Yaw Set Point:	-0.585	X_WP:	0.000	Y_WP:	0.000	Y_WP:	0.500	X:	0.100	Y:	0.093	Z:	0.402	yaw:	33.516	yaw rate:	1.303	Roll:	4.458	Pitch:	0.762	Yaw:	48.578	Thrust:	47.038
Time:	5.655	Roll Set Point:	-0.235	Pitch Set Point:	-0.114	Yaw Set Point:	-0.585	X_WP:	0.000	Y_WP:	0.000	Y_WP:	0.500	X:	0.100	Y:	0.093	Z:	0.402	yaw:	33.498	yaw rate:	-1.782	Roll:	4.484	Pitch:	0.888	Yaw:	48.036	Thrust:	46.941
Time:	5.670	Roll Set Point:	-0.235	Pitch Set Point:	-0.115	Yaw Set Point:	-0.585	X_WP:	0.000	Y_WP:	0.000	Y_WP:	0.500	X:	0.100	Y:	0.093	Z:	0.402	yaw:	33.498	yaw rate:	-0.023	Roll:	4.561	Pitch:	0.919	Yaw:	48.333	Thrust:	47.248
Time:	5.686	Roll Set Point:	-0.235	Pitch Set Point:	-0.114	Yaw Set Point:	-0.585	X_WP:	0.000	Y_WP:	0.000	Y_WP:	0.500	X:	0.100	Y:	0.093	Z:	0.402	yaw:	33.509	yaw rate:	1.120	Roll:	4.439	Pitch:	0.757	Yaw:	48.538	Thrust:	47.485
Time:	5.702	Roll Set Point:	-0.235	Pitch Set Point:	-0.114	Yaw Set Point:	-0.585	X_WP:	0.000	Y_WP:	0.000	Y_WP:	0.500	X:	0.100	Y:	0.093	Z:	0.402	yaw:	33.502	yaw rate:	-0.730	Roll:	4.466	Pitch:	0.833	Yaw:	48.214	Thrust:	47.577
Time:	5.717	Roll Set Point:	-0.235	Pitch Set Point:	-0.114	Yaw Set Point:	-0.585	X_WP:	0.000	Y_WP:	0.000	Y_WP:	0.500	X:	0.100	Y:	0.093	Z:	0.402	yaw:	33.500	yaw rate:	-0.153	Roll:	4.524	Pitch:	0.886	Yaw:	48.312	Thrust:	47.789
Time:	5.733	Roll Set Point:	-0.235	Pitch Set Point:	-0.115	Yaw Set Point:	-0.584	X_WP:	0.000	Y_WP:	0.000	Y_WP:	0.500	X:	0.100	Y:	0.093	Z:	0.402	yaw:	33.487	yaw rate:	-1.330	Roll:	4.517	Pitch:	0.903	Yaw:	48.096	Thrust:	47.879
Time:	5.749	Roll Set Point:	-0.235	Pitch Set Point:	-0.115	Yaw Set Point:	-0.584	X_WP:	0.000	Y_WP:	0.000	Y_WP:	0.500	X:	0.100	Y:	0.093	Z:	0.402	yaw:	33.487	yaw rate:	-1.330	Roll:	4.491	Pitch:	0.846	Yaw:	48.322	Thrust:	48.236
Time:	5.764	Roll Set Point:	-0.235	Pitch Set Point:	-0.115	Yaw Set Point:	-0.584	X_WP:	0.000	Y_WP:	0.000	Y_WP:	0.500	X:	0.100	Y:	0.093	Z:	0.402	yaw:	33.476	yaw rate:	-1.062	Roll:	4.461	Pitch:	0.853	Yaw:	48.123	Thrust:	48.305
Time:	5.780	Roll Set Point:	-0.235	Pitch Set Point:	-0.114	Yaw Set Point:	-0.584	X_WP:	0.000	Y_WP:	0.000	Y_WP:	0.500	X:	0.100	Y:	0.093	Z:	0.402	yaw:	33.485	yaw rate:	-1.779	Roll:	4.489	Pitch:	0.812	Yaw:	48.472	Thrust:	48.669
Time:	5.795	Roll Set Point:	-0.235	Pitch Set Point:	-0.114	Yaw Set Point:	-0.584	X_WP:	0.000	Y_WP:	0.000	Y_WP:	0.500	X:	0.100	Y:	0.093	Z:	0.402	yaw:	33.485	yaw rate:	-1.779	Roll:	4.488	Pitch:	0.847	Yaw:	48.314	Thrust:	48.621
Time:	5.811	Roll Set Point:	-0.235	Pitch Set Point:	-0.115	Yaw Set Point:	-0.584	X_WP:	0.000	Y_WP:	0.000	Y_WP:	0.500	X:	0.100	Y:	0.093	Z:	0.402	yaw:	33.481	yaw rate:	-0.589	Roll:	4.517	Pitch:	0.892	Yaw:	48.243	Thrust:	48.926
Time:	5.827	Roll Set Point:	-0.235	Pitch Set Point:	-0.114	Yaw Set Point:	-0.585	X_WP:	0.000	Y_WP:	0.000	Y_WP:	0.500	X:	0.100	Y:	0.092	Z:	0.402	yaw:	33.513	yaw rate:	3.145	Roll:	4.413	Pitch:	0.663	Yaw:	48.886	Thrust:	49.098
Time:	5.857	Roll Set Point:	-0.235	Pitch Set Point:	-0.115	Yaw Set Point:	-0.585	X_WP:	0.000	Y_WP:	0.000	Y_WP:	0.500	X:	0.100	Y:	0.093	Z:	0.402	yaw:	33.496	yaw rate:	-1.331	Roll:	5.090	Pitch:	1.134	Yaw:	49.670	Thrust:	90.779
Time:	5.873	Roll Set Point:	-0.235	Pitch Set Point:	-0.115	Yaw Set Point:	-0.584	X_WP:	0.000	Y_WP:	0.000	Y_WP:	0.500	X:	0.100	Y:	0.093	Z:	0.402	yaw:	33.477	yaw rate:	-1.970	Roll:	4.461	Pitch:	0.888	Yaw:	47.975	Thrust:	49.398
Time:	5.888	Roll Set Point:	-0.235	Pitch Set Point:	-0.114	Yaw Set Point:	-0.585	X_WP:	0.000	Y_WP:	0.000	Y_WP:	0.500	X:	0.100	Y:	0.092	Z:	0.402	yaw:	33.530	yaw rate:	5.384	Roll:	4.447	Pitch:	0.628	Yaw:	49.282	Thrust:	49.755
Time:	5.904	Roll Set Point:	-0.235	Pitch Set Point:	-0.114	Yaw Set Point:	-0.585	X_WP:	0.000	Y_WP:	0.000	Y_WP:	0.500	X:	0.100	Y:	0.093	Z:	0.402	yaw:	33.508	yaw rate:	-2.258	Roll:	4.498	Pitch:	0.921	Yaw:	47.970	Thrust:	49.882
Time:	5.920	Roll Set Point:	-0.235	Pitch Set Point:	-0.114	Yaw Set Point:	-0.585	X_WP:	0.000	Y_WP:	0.000	Y_WP:	0.500	X:	0.100	Y:	0.093	Z:	0.402	yaw:	33.490	yaw rate:	-1.781	Roll:	4.537	Pitch:	0.951	Yaw:	48.025	Thrust:	49.710
Time:	5.935	Roll Set Point:	-0.235	Pitch Set Point:	-0.115	Yaw Set Point:	-0.585	X_WP:	0.000	Y_WP:	0.000	Y_WP:	0.500	X:	0.100	Y:	0.093	Z:	0.402	yaw:	33.491	yaw rate:	0.092	Roll:	4.469	Pitch:	0.865	Yaw:	48.340	Thrust:	50.371
Time:	5.951	Roll Set Point:	-0.235	Pitch Set Point:	-0.114	Yaw Set Point:	-0.585	X_WP:	0.000	Y_WP:	0.000	Y_WP:	0.500	X:	0.100	Y:	0.093	Z:	0.402	yaw:	33.501	yaw rate:	1.017	Roll:	4.454	Pitch:	0.777	Yaw:	48.509	Thrust:	50.360
Time:	5.967	Roll Set Point:	-0.235	Pitch Set Point:	-0.114	Yaw Set Point:	-0.584	X_WP:	0.000	Y_WP:	0.000	Y_WP:	0.500	X:	0.100	Y:	0.093	Z:	0.402	yaw:	33.478	yaw rate:	-2.279	Roll:	4.507	Pitch:	0.925	Yaw:	47.925	Thrust:	50.494
Time:	5.982	Roll Set Point:	-0.235	Pitch Set Point:	-0.114	Yaw Set Point:	-0.584	X_WP:	0.000	Y_WP:	0.000	Y_WP:	0.500	X:	0.100	Y:	0.093	Z:	0.402	yaw:	33.478	yaw rate:	-2.279	Roll:	4.489	Pitch:	0.857	Yaw:	48.307	Thrust:	50.720
Time:	5.998	Roll Set Point:	-0.235	Pitch Set Point:	-0.115	Yaw Set Point:	-0.585	X_WP:	0.000	Y_WP:	0.000	Y_WP:	0.500	X:	0.100	Y:	0.093	Z:	0.402	yaw:	33.489	yaw rate:	1.121	Roll:	4.532	Pitch:	0.872	Yaw:	48.510	Thrust:	50.899
Time:	6.013	Roll Set Point:	-0.081	Pitch Set Point:	-0.033	Yaw Set Point:	-0.585	X_WP:	0.084	Y_WP:	0.153	Y_WP:	0.500	X:	0.100	Y:	0.093	Z:	0.402	yaw:	33.502	yaw rate:	1.238	Roll:	-30.000	Pitch:	-30.000	Yaw:	48.548	Thrust:	51.020
Time:	6.029	Roll Set Point:	-0.081	Pitch Set Point:	-0.033	Yaw Set Point:	-0.585	X_WP:	0.084	Y_WP:	0.153	Y_WP:	0.500	X:	0.100	Y:	0.093	Z:	0.402	yaw:	33.516	yaw rate:	1.602	Roll:	-0.017	Pitch:	-1.487	Yaw:	48.592	Thrust:	51.361
Time:	6.045	Roll Set Point:	-0.081	Pitch Set Point:	-0.033	Yaw Set Point:	-0.584	X_WP:	0.084	Y_WP:	0.153	Y_WP:	0.500	X:	0.100	Y:	0.093	Z:	0.402	yaw:	33.482	yaw rate:	-3.419	Roll:	0.090	Pitch:	-1.517	Yaw:	47.739	Thrust:	51.405
Time:	6.060	Roll Set Point:	-0.081	Pitch Set Point:	-0.033	Yaw Set Point:	-0.584	X_WP:	0.084	Y_WP:	0.153	Y_WP:	0.500	X:	0.100	Y:	0.093	Z:	0.402	yaw:	33.482	yaw rate:	-3.419	Roll:	0.020	Pitch:	-1.503	Yaw:	48.311	Thrust:	51.626
Time:	6.076	Roll Set Point:	-0.081	Pitch Set Point:	-0.033	Yaw Set Point:	-0.585	X_WP:	0.084	Y_WP:	0.153	Y_WP:	0.500	X:	0.100	Y:	0.093	Z:	0.402	yaw:	33.506	yaw rate:	2.288	Roll:	-0.041	Pitch:	-1.489	Yaw:	48.760	Thrust:	51.972
Time:	6.092	Roll Set Point:	-0.081	Pitch Set Point:	-0.033	Yaw Set Point:	-0.585	X_WP:	0.084	Y_WP:	0.153	Y_WP:	0.500	X:	0.100	Y:	0.093	Z:	0.402	yaw:	33.505	yaw rate:	-0.152	Roll:	0.018	Pitch:	-1.511	Yaw:	48.318	Thrust:	51.934
Time:	6.107	Roll Set Point:	-0.081	Pitch Set Point:	-0.033	Yaw Set Point:	-0.584	X_WP:	0.084	Y_WP:	0.153	Y_WP:	0.500	X:	0.100	Y:	0.093	Z:	0.402	yaw:	33.485	yaw rate:	-1.971	Roll:	0.069	Pitch:	-1.521	Yaw:	47.988	Thrust:	52.128
Time:	6.123	Roll Set Point:	-0.081	Pitch Set Point:	-0.033	Yaw Set Point:	-0.584	X_WP:	0.084	Y_WP:	0.153	Y_WP:	0.500	X:	0.100	Y:	0.093	Z:	0.402	yaw:	33.485	yaw rate:	-1.971	Roll:	0.016	Pitch:	-1.512	Yaw:	48.316	Thrust:	52.336
Time:	6.138	Roll Set Point:	-0.081	Pitch Set Point:	-0.033	Yaw Set Point:	-0.584	X_WP:	0.084	Y_WP:	0.153	Y_WP:	0.500	X:	0.100	Y:	0.092	Z:	0.402	yaw:	33.488	yaw rate:	-0.048	Roll:	-0.017	Pitch:	-1.500	Yaw:	48.370	Thrust:	52.574
Time:	6.154	Roll Set Point:	-0.081	Pitch Set Point:	-0.033	Yaw Set Point:	-0.584	X_WP:	0.084	Y_WP:	0.153	Y_WP:	0.500	X:	0.100	Y:	0.092	Z:	0.402	yaw:	33.488	yaw rate:	-0.048	Roll:	0.014	Pitch:	-1.516	Yaw:	48.321	Thrust:	52.743
Time:	6.170	Roll Set Point:	-0.081	Pitch Set Point:	-0.033	Yaw Set Point:	-0.585	X_WP:	0.084	Y_WP:	0.153	Y_WP:	0.500	X:	0.100	Y:	0.093	Z:	0.402	yaw:	33.494	yaw rate:	-0.444	Roll:	0.029	Pitch:	-1.527	Yaw:	48.432	Thrust:	53.007
Time:	6.185	Roll Set Point:	-0.081	Pitch Set Point:	-0.033	Yaw Set Point:	-0.585	X_WP:	0.084	Y_WP:	0.153	Y_WP:	0.500	X:	0.100	Y:	0.093	Z:	0.402	yaw:	33.494	yaw rate:	-0.444	Roll:	0.013	Pitch:	-1.521	Yaw:	48.329	Thrust:	53.098
Time:	6.201	Roll Set Point:	-0.081	Pitch Set Point:	-0.033	Yaw Set Point:	-0.585	X_WP:	0.084	Y_WP:	0.153	Y_WP:	0.500	X:	0.100	Y:	0.093	Z:	0.402	yaw:	33.495	yaw rate:	0.284	Roll:	-0.003	Pitch:	-1.525	Yaw:	48.355	Thrust:	53.248
Time:	6.217	Roll Set Point:	-0.081	Pitch Set Point:	-0.033	Yaw Set Point:	-0.585	X_WP:	0.084	Y_WP:	0.153	Y_WP:	0.500	X:	0.100	Y:	0.093	Z:	0.402	yaw:	33.495	yaw rate:	0.284	Roll:	0.012	Pitch:	-1.526	Yaw:	48.334	Thrust:	53.568
Time:	6.232	Roll Set Point:	-0.081	Pitch Set Point:	-0.033	Yaw Set Point:	-0.585	X_WP:	0.084	Y_WP:	0.153	Y_WP:	0.500	X:	0.100	Y:	0.093	Z:	0.402	yaw:	33.499	yaw rate:	-0.395	Roll:	0.010	Pitch:	-1.524	Yaw:	48.394	Thrust:	53.564
Time:	6.248	Roll Set Point:	-0.081	Pitch Set Point:	-0.033	Yaw Set Point:	-0.585	X_WP:	0.084	Y_WP:	0.153	Y_WP:	0.500	X:	0.100	Y:	0.093	Z:	0.402	yaw:	33.494	yaw rate:	-0.474	Roll:	0.026	Pitch:	-1.539	Yaw:	48.247	Thrust:	53.827
Time:	6.263	Roll Set Point:	-0.081	Pitch Set Point:	-0.033	Yaw Set Point:	-0.585	X_WP:	0.084	Y_WP:	0.153	Y_WP:	0.500	X:	0.100	Y:	0.093	Z:	0.402	yaw:	33.514	yaw rate:	1.963	Roll:	-0.032	Pitch:	-1.517	Yaw:	48.686	Thrust:	53.944
Time:	6.279	Roll Set Point:	-0.081	Pitch Set Point:	-0.033	Yaw Set Point:	-0.585	X_WP:	0.084	Y_WP:	0.153	Y_WP:	0.500	X:	0.100	Y:	0.092	Z:	0.402	yaw:	33.494	yaw rate:	-2.001	Roll:	0.029	Pitch:	-1.543	Yaw:	47.997	Thrust:	54.351
Time:	6.295	Roll Set Point:	-0.081	Pitch Set Point:	-0.033	Yaw Set Point:	-0.585	X_WP:	0.084	Y_WP:	0.153	Y_WP:	0.500	X:	0.100	Y:	0.092	Z:	0.402	yaw:	33.494	yaw rate:	-2.001	Roll:	0.006	Pitch:	-1.538	Yaw:	48.326	Thrust:	54.285
Time:	6.310	Roll Set Point:	-0.081	Pitch Set Point:	-0.033	Yaw Set Point:	-0.584	X_WP:	0.084	Y_WP:	0.153	Y_WP:	0.500	X:	0.100	Y:	0.093	Z:	0.402	yaw:	33.474	yaw rate:	-1.133	Roll:	0.052	Pitch:	-1.556	Yaw:	47.973	Thrust:	54.495
