Time:	2.044	Roll Set Point:	0.054	Pitch Set Point:	-0.055	Yaw Set Point:	0.014	X_WP:	0.100	Y_WP:	0.000	Y_WP:	0.500	X:	0.023	Y:	0.028	Z:	0.057	yaw:	-0.817	yaw rate:	0.376	Roll:	-2.245	Pitch:	0.775	Yaw:	-1.141	Thrust:	24.372
Time:	2.055	Roll Set Point:	0.054	Pitch Set Point:	-0.055	Yaw Set Point:	0.014	X_WP:	0.100	Y_WP:	0.000	Y_WP:	0.500	X:	0.023	Y:	0.028	Z:	0.057	yaw:	-0.817	yaw rate:	0.376	Roll:	-2.247	Pitch:	0.775	Yaw:	-1.143	Thrust:	24.905
Time:	2.069	Roll Set Point:	0.054	Pitch Set Point:	-0.055	Yaw Set Point:	0.014	X_WP:	0.100	Y_WP:	0.000	Y_WP:	0.500	X:	0.023	Y:	0.028	Z:	0.057	yaw:	-0.824	yaw rate:	-0.482	Roll:	-2.254	Pitch:	0.760	Yaw:	-1.292	Thrust:	25.859
Time:	2.080	Roll Set Point:	0.054	Pitch Set Point:	-0.055	Yaw Set Point:	0.012	X_WP:	0.100	Y_WP:	0.000	Y_WP:	0.500	X:	0.023	Y:	0.028	Z:	0.057	yaw:	-0.706	yaw rate:	11.856	Roll:	-2.121	Pitch:	1.214	Yaw:	1.661	Thrust:	26.345
Time:	2.099	Roll Set Point:	0.054	Pitch Set Point:	-0.055	Yaw Set Point:	0.011	X_WP:	0.100	Y_WP:	0.000	Y_WP:	0.500	X:	0.023	Y:	0.028	Z:	0.057	yaw:	-0.657	yaw rate:	4.911	Roll:	-2.264	Pitch:	0.898	Yaw:	-0.183	Thrust:	27.263
Time:	2.111	Roll Set Point:	0.054	Pitch Set Point:	-0.055	Yaw Set Point:	0.011	X_WP:	0.100	Y_WP:	0.000	Y_WP:	0.500	X:	0.023	Y:	0.028	Z:	0.057	yaw:	-0.618	yaw rate:	0.349	Roll:	-2.206	Pitch:	0.835	Yaw:	-0.107	Thrust:	28.390
Time:	2.122	Roll Set Point:	0.054	Pitch Set Point:	-0.055	Yaw Set Point:	0.011	X_WP:	0.100	Y_WP:	0.000	Y_WP:	0.500	X:	0.023	Y:	0.028	Z:	0.057	yaw:	-0.650	yaw rate:	-3.149	Roll:	-2.377	Pitch:	0.756	Yaw:	-1.671	Thrust:	27.977
Time:	2.136	Roll Set Point:	0.054	Pitch Set Point:	-0.055	Yaw Set Point:	0.012	X_WP:	0.100	Y_WP:	0.000	Y_WP:	0.500	X:	0.023	Y:	0.028	Z:	0.057	yaw:	-0.687	yaw rate:	-3.787	Roll:	-2.223	Pitch:	0.708	Yaw:	-1.666	Thrust:	29.778
Time:	2.147	Roll Set Point:	0.054	Pitch Set Point:	-0.055	Yaw Set Point:	0.014	X_WP:	0.100	Y_WP:	0.000	Y_WP:	0.500	X:	0.023	Y:	0.028	Z:	0.057	yaw:	-0.785	yaw rate:	-9.792	Roll:	-2.407	Pitch:	0.369	Yaw:	-3.441	Thrust:	29.240
Time:	2.167	Roll Set Point:	0.054	Pitch Set Point:	-0.055	Yaw Set Point:	0.012	X_WP:	0.100	Y_WP:	0.000	Y_WP:	0.500	X:	0.023	Y:	0.028	Z:	0.057	yaw:	-0.675	yaw rate:	10.997	Roll:	-2.133	Pitch:	1.099	Yaw:	0.523	Thrust:	32.908
Time:	2.178	Roll Set Point:	0.054	Pitch Set Point:	-0.055	Yaw Set Point:	0.011	X_WP:	0.100	Y_WP:	0.000	Y_WP:	0.500	X:	0.023	Y:	0.028	Z:	0.057	yaw:	-0.657	yaw rate:	-0.439	Roll:	-2.237	Pitch:	0.732	Yaw:	-0.545	Thrust:	31.342
Time:	2.198	Roll Set Point:	0.054	Pitch Set Point:	-0.055	Yaw Set Point:	0.011	X_WP:	0.100	Y_WP:	0.000	Y_WP:	0.500	X:	0.023	Y:	0.028	Z:	0.057	yaw:	-0.614	yaw rate:	4.241	Roll:	-2.289	Pitch:	0.955	Yaw:	-0.254	Thrust:	33.598
Time:	2.212	Roll Set Point:	0.054	Pitch Set Point:	-0.055	Yaw Set Point:	0.011	X_WP:	0.100	Y_WP:	0.000	Y_WP:	0.500	X:	0.023	Y:	0.028	Z:	0.057	yaw:	-0.637	yaw rate:	2.344	Roll:	-2.295	Pitch:	0.784	Yaw:	-1.298	Thrust:	35.657
Time:	2.229	Roll Set Point:	0.054	Pitch Set Point:	-0.055	Yaw Set Point:	0.011	X_WP:	0.100	Y_WP:	0.000	Y_WP:	0.500	X:	0.023	Y:	0.028	Z:	0.057	yaw:	-0.602	yaw rate:	3.468	Roll:	-2.200	Pitch:	0.880	Yaw:	-0.364	Thrust:	35.886
Time:	2.241	Roll Set Point:	0.054	Pitch Set Point:	-0.055	Yaw Set Point:	0.011	X_WP:	0.100	Y_WP:	0.000	Y_WP:	0.500	X:	0.023	Y:	0.028	Z:	0.057	yaw:	-0.656	yaw rate:	-5.378	Roll:	-2.351	Pitch:	0.649	Yaw:	-2.083	Thrust:	34.244
Time:	2.253	Roll Set Point:	0.054	Pitch Set Point:	-0.055	Yaw Set Point:	0.012	X_WP:	0.100	Y_WP:	0.000	Y_WP:	0.500	X:	0.023	Y:	0.028	Z:	0.057	yaw:	-0.678	yaw rate:	-2.163	Roll:	-2.276	Pitch:	0.734	Yaw:	-1.485	Thrust:	33.288
Time:	2.269	Roll Set Point:	0.054	Pitch Set Point:	-0.055	Yaw Set Point:	0.012	X_WP:	0.100	Y_WP:	0.000	Y_WP:	0.500	X:	0.023	Y:	0.028	Z:	0.057	yaw:	-0.668	yaw rate:	-3.630	Roll:	-2.318	Pitch:	0.891	Yaw:	-0.844	Thrust:	37.839
Time:	2.280	Roll Set Point:	0.054	Pitch Set Point:	-0.055	Yaw Set Point:	0.011	X_WP:	0.100	Y_WP:	0.000	Y_WP:	0.500	X:	0.023	Y:	0.028	Z:	0.057	yaw:	-0.632	yaw rate:	3.655	Roll:	-2.231	Pitch:	0.817	Yaw:	-0.060	Thrust:	34.693
Time:	2.298	Roll Set Point:	0.054	Pitch Set Point:	-0.055	Yaw Set Point:	0.011	X_WP:	0.100	Y_WP:	0.000	Y_WP:	0.500	X:	0.023	Y:	0.028	Z:	0.057	yaw:	-0.604	yaw rate:	2.790	Roll:	-2.299	Pitch:	0.827	Yaw:	-0.488	Thrust:	39.890
Time:	2.311	Roll Set Point:	0.054	Pitch Set Point:	-0.055	Yaw Set Point:	0.011	X_WP:	0.100	Y_WP:	0.000	Y_WP:	0.500	X:	0.023	Y:	0.028	Z:	0.057	yaw:	-0.642	yaw rate:	0.685	Roll:	-2.297	Pitch:	0.699	Yaw:	-1.668	Thrust:	39.544
Time:	2.334	Roll Set Point:	0.055	Pitch Set Point:	-0.055	Yaw Set Point:	0.014	X_WP:	0.100	Y_WP:	0.000	Y_WP:	0.500	X:	0.023	Y:	0.028	Z:	0.057	yaw:	-0.777	yaw rate:	-13.540	Roll:	-2.466	Pitch:	0.590	Yaw:	-2.795	Thrust:	47.568
Time:	2.345	Roll Set Point:	0.054	Pitch Set Point:	-0.055	Yaw Set Point:	0.011	X_WP:	0.100	Y_WP:	0.000	Y_WP:	0.500	X:	0.023	Y:	0.028	Z:	0.057	yaw:	-0.659	yaw rate:	17.778	Roll:	-2.107	Pitch:	1.207	Yaw:	1.651	Thrust:	37.781
Time:	2.357	Roll Set Point:	0.054	Pitch Set Point:	-0.055	Yaw Set Point:	0.014	X_WP:	0.100	Y_WP:	0.000	Y_WP:	0.500	X:	0.023	Y:	0.028	Z:	0.057	yaw:	-0.826	yaw rate:	-16.704	Roll:	-2.509	Pitch:	0.307	Yaw:	-4.850	Thrust:	38.466
Time:	2.371	Roll Set Point:	0.054	Pitch Set Point:	-0.055	Yaw Set Point:	0.014	X_WP:	0.100	Y_WP:	0.000	Y_WP:	0.500	X:	0.023	Y:	0.028	Z:	0.057	yaw:	-0.796	yaw rate:	2.978	Roll:	-2.106	Pitch:	1.003	Yaw:	-0.611	Thrust:	40.002
Time:	2.382	Roll Set Point:	0.054	Pitch Set Point:	-0.054	Yaw Set Point:	0.014	X_WP:	0.100	Y_WP:	0.000	Y_WP:	0.500	X:	0.023	Y:	0.028	Z:	0.057	yaw:	-0.811	yaw rate:	-1.560	Roll:	-2.521	Pitch:	0.549	Yaw:	-1.567	Thrust:	39.323
Time:	2.399	Roll Set Point:	0.054	Pitch Set Point:	-0.055	Yaw Set Point:	0.011	X_WP:	0.100	Y_WP:	0.000	Y_WP:	0.500	X:	0.023	Y:	0.028	Z:	0.057	yaw:	-0.655	yaw rate:	15.618	Roll:	-2.150	Pitch:	1.186	Yaw:	1.451	Thrust:	45.656
Time:	2.409	Roll Set Point:	0.054	Pitch Set Point:	-0.054	Yaw Set Point:	0.014	X_WP:	0.100	Y_WP:	0.000	Y_WP:	0.500	X:	0.023	Y:	0.028	Z:	0.057	yaw:	-0.827	yaw rate:	-3.249	Roll:	-2.504	Pitch:	0.274	Yaw:	-5.423	Thrust:	40.029
Time:	2.421	Roll Set Point:	0.054	Pitch Set Point:	-0.055	Yaw Set Point:	0.012	X_WP:	0.100	Y_WP:	0.000	Y_WP:	0.500	X:	0.023	Y:	0.028	Z:	0.057	yaw:	-0.660	yaw rate:	16.688	Roll:	-2.070	Pitch:	1.326	Yaw:	2.630	Thrust:	41.589
Time:	2.434	Roll Set Point:	0.054	Pitch Set Point:	-0.055	Yaw Set Point:	0.013	X_WP:	0.100	Y_WP:	0.000	Y_WP:	0.500	X:	0.023	Y:	0.028	Z:	0.057	yaw:	-0.749	yaw rate:	-8.881	Roll:	-2.230	Pitch:	0.511	Yaw:	-2.983	Thrust:	42.680
Time:	2.446	Roll Set Point:	0.054	Pitch Set Point:	-0.055	Yaw Set Point:	0.014	X_WP:	0.100	Y_WP:	0.000	Y_WP:	0.500	X:	0.023	Y:	0.028	Z:	0.057	yaw:	-0.795	yaw rate:	-4.638	Roll:	-2.549	Pitch:	0.622	Yaw:	-2.231	Thrust:	42.726
Time:	2.458	Roll Set Point:	0.054	Pitch Set Point:	-0.055	Yaw Set Point:	0.014	X_WP:	0.100	Y_WP:	0.000	Y_WP:	0.500	X:	0.023	Y:	0.028	Z:	0.057	yaw:	-0.830	yaw rate:	-3.544	Roll:	-2.368	Pitch:	0.795	Yaw:	-2.020	Thrust:	43.453
Time:	2.469	Roll Set Point:	0.054	Pitch Set Point:	-0.055	Yaw Set Point:	0.014	X_WP:	0.100	Y_WP:	0.000	Y_WP:	0.500	X:	0.023	Y:	0.028	Z:	0.057	yaw:	-0.802	yaw rate:	2.802	Roll:	-2.109	Pitch:	0.984	Yaw:	-0.575	Thrust:	42.512
Time:	2.480	Roll Set Point:	0.054	Pitch Set Point:	-0.054	Yaw Set Point:	0.015	X_WP:	0.100	Y_WP:	0.000	Y_WP:	0.500	X:	0.023	Y:	0.028	Z:	0.057	yaw:	-0.847	yaw rate:	-4.443	Roll:	-2.528	Pitch:	0.513	Yaw:	-2.370	Thrust:	43.392
Time:	2.493	Roll Set Point:	0.054	Pitch Set Point:	-0.055	Yaw Set Point:	0.011	X_WP:	0.100	Y_WP:	0.000	Y_WP:	0.500	X:	0.023	Y:	0.028	Z:	0.057	yaw:	-0.657	yaw rate:	18.983	Roll:	-2.059	Pitch:	1.511	Yaw:	3.110	Thrust:	45.292
Time:	2.507	Roll Set Point:	0.054	Pitch Set Point:	-0.055	Yaw Set Point:	0.012	X_WP:	0.100	Y_WP:	0.000	Y_WP:	0.500	X:	0.023	Y:	0.028	Z:	0.057	yaw:	-0.674	yaw rate:	-5.029	Roll:	-2.361	Pitch:	0.774	Yaw:	-1.370	Thrust:	51.760
Time:	2.518	Roll Set Point:	0.054	Pitch Set Point:	-0.055	Yaw Set Point:	0.014	X_WP:	0.100	Y_WP:	0.000	Y_WP:	0.500	X:	0.023	Y:	0.028	Z:	0.057	yaw:	-0.782	yaw rate:	-10.761	Roll:	-2.478	Pitch:	0.367	Yaw:	-3.714	Thrust:	44.972
Time:	2.532	Roll Set Point:	0.054	Pitch Set Point:	-0.055	Yaw Set Point:	0.014	X_WP:	0.100	Y_WP:	0.000	Y_WP:	0.500	X:	0.023	Y:	0.028	Z:	0.057	yaw:	-0.776	yaw rate:	0.619	Roll:	-2.116	Pitch:	1.062	Yaw:	-1.094	Thrust:	50.132
Time:	2.545	Roll Set Point:	0.054	Pitch Set Point:	-0.055	Yaw Set Point:	0.012	X_WP:	0.100	Y_WP:	0.000	Y_WP:	0.500	X:	0.023	Y:	0.028	Z:	0.057	yaw:	-0.672	yaw rate:	10.348	Roll:	-2.418	Pitch:	0.972	Yaw:	1.019	Thrust:	51.202
Time:	2.557	Roll Set Point:	0.054	Pitch Set Point:	-0.055	Yaw Set Point:	0.011	X_WP:	0.100	Y_WP:	0.000	Y_WP:	0.500	X:	0.023	Y:	0.028	Z:	0.057	yaw:	-0.653	yaw rate:	1.883	Roll:	-2.274	Pitch:	0.838	Yaw:	-0.617	Thrust:	48.667
Time:	2.573	Roll Set Point:	0.054	Pitch Set Point:	-0.055	Yaw Set Point:	0.014	X_WP:	0.100	Y_WP:	0.000	Y_WP:	0.500	X:	0.023	Y:	0.028	Z:	0.057	yaw:	-0.805	yaw rate:	-15.619	Roll:	-2.348	Pitch:	0.640	Yaw:	-3.832	Thrust:	56.328
Time:	2.584	Roll Set Point:	0.054	Pitch Set Point:	-0.055	Yaw Set Point:	0.012	X_WP:	0.100	Y_WP:	0.000	Y_WP:	0.500	X:	0.023	Y:	0.028	Z:	0.057	yaw:	-0.689	yaw rate:	11.654	Roll:	-2.351	Pitch:	1.050	Yaw:	1.690	Thrust:	48.090
Time:	2.596	Roll Set Point:	0.054	Pitch Set Point:	-0.055	Yaw Set Point:	0.012	X_WP:	0.100	Y_WP:	0.000	Y_WP:	0.500	X:	0.023	Y:	0.028	Z:	0.057	yaw:	-0.679	yaw rate:	0.930	Roll:	-2.300	Pitch:	0.842	Yaw:	-0.884	Thrust:	50.533
Time:	2.610	Roll Set Point:	0.054	Pitch Set Point:	-0.054	Yaw Set Point:	0.015	X_WP:	0.100	Y_WP:	0.000	Y_WP:	0.500	X:	0.023	Y:	0.028	Z:	0.057	yaw:	-0.887	yaw rate:	-20.757	Roll:	-2.508	Pitch:	0.299	Yaw:	-5.257	Thrust:	56.757
Time:	2.622	Roll Set Point:	0.054	Pitch Set Point:	-0.054	Yaw Set Point:	0.017	X_WP:	0.100	Y_WP:	0.000	Y_WP:	0.500	X:	0.023	Y:	0.028	Z:	0.057	yaw:	-0.981	yaw rate:	-9.362	Roll:	-2.361	Pitch:	0.620	Yaw:	-3.535	Thrust:	49.849
Time:	2.639	Roll Set Point:	0.054	Pitch Set Point:	-0.055	Yaw Set Point:	0.018	X_WP:	0.100	Y_WP:	0.000	Y_WP:	0.500	X:	0.023	Y:	0.028	Z:	0.057	yaw:	-1.023	yaw rate:	-4.239	Roll:	-2.386	Pitch:	0.883	Yaw:	-2.269	Thrust:	66.490
Time:	2.650	Roll Set Point:	0.054	Pitch Set Point:	-0.055	Yaw Set Point:	0.019	X_WP:	0.100	Y_WP:	0.000	Y_WP:	0.500	X:	0.023	Y:	0.028	Z:	0.057	yaw:	-1.072	yaw rate:	-13.668	Roll:	-2.337	Pitch:	0.820	Yaw:	-2.835	Thrust:	49.516
Time:	2.668	Roll Set Point:	0.054	Pitch Set Point:	-0.055	Yaw Set Point:	0.019	X_WP:	0.100	Y_WP:	0.000	Y_WP:	0.500	X:	0.023	Y:	0.028	Z:	0.057	yaw:	-1.072	yaw rate:	-13.668	Roll:	-2.383	Pitch:	0.821	Yaw:	-1.711	Thrust:	67.313
Time:	2.680	Roll Set Point:	0.054	Pitch Set Point:	-0.055	Yaw Set Point:	0.020	X_WP:	0.100	Y_WP:	0.000	Y_WP:	0.500	X:	0.023	Y:	0.028	Z:	0.057	yaw:	-1.149	yaw rate:	-4.169	Roll:	-2.316	Pitch:	0.852	Yaw:	-3.487	Thrust:	54.486
Time:	2.692	Roll Set Point:	0.054	Pitch Set Point:	-0.055	Yaw Set Point:	0.020	X_WP:	0.100	Y_WP:	0.000	Y_WP:	0.500	X:	0.023	Y:	0.028	Z:	0.057	yaw:	-1.138	yaw rate:	1.044	Roll:	-2.316	Pitch:	1.069	Yaw:	-1.515	Thrust:	54.875
Time:	2.711	Roll Set Point:	0.054	Pitch Set Point:	-0.056	Yaw Set Point:	0.018	X_WP:	0.100	Y_WP:	0.000	Y_WP:	0.500	X:	0.023	Y:	0.029	Z:	0.057	yaw:	-1.034	yaw rate:	-8.898	Roll:	-2.259	Pitch:	1.257	Yaw:	-0.221	Thrust:	73.115
Time:	2.730	Roll Set Point:	0.053	Pitch Set Point:	-0.057	Yaw Set Point:	0.014	X_WP:	0.100	Y_WP:	0.000	Y_WP:	0.500	X:	0.023	Y:	0.029	Z:	0.057	yaw:	-0.813	yaw rate:	22.021	Roll:	-2.120	Pitch:	1.532	Yaw:	1.631	Thrust:	71.113
Time:	2.744	Roll Set Point:	0.053	Pitch Set Point:	-0.056	Yaw Set Point:	0.018	X_WP:	0.100	Y_WP:	0.000	Y_WP:	0.500	X:	0.024	Y:	0.029	Z:	0.057	yaw:	-1.049	yaw rate:	-24.839	Roll:	-2.489	Pitch:	0.541	Yaw:	-5.911	Thrust:	67.153
Time:	2.755	Roll Set Point:	0.053	Pitch Set Point:	-0.056	Yaw Set Point:	0.021	X_WP:	0.100	Y_WP:	0.000	Y_WP:	0.500	X:	0.024	Y:	0.029	Z:	0.058	yaw:	-1.210	yaw rate:	-16.119	Roll:	-2.328	Pitch:	0.505	Yaw:	-5.671	Thrust:	54.008
Time:	2.770	Roll Set Point:	0.053	Pitch Set Point:	-0.056	Yaw Set Point:	0.026	X_WP:	0.100	Y_WP:	0.000	Y_WP:	0.500	X:	0.024	Y:	0.029	Z:	0.058	yaw:	-1.502	yaw rate:	-29.160	Roll:	-2.229	Pitch:	0.507	Yaw:	-7.557	Thrust:	64.871
Time:	2.781	Roll Set Point:	0.053	Pitch Set Point:	-0.056	Yaw Set Point:	0.025	X_WP:	0.100	Y_WP:	0.000	Y_WP:	0.500	X:	0.024	Y:	0.029	Z:	0.058	yaw:	-1.428	yaw rate:	7.437	Roll:	-2.201	Pitch:	1.042	Yaw:	-0.411	Thrust:	54.000
Time:	2.792	Roll Set Point:	0.052	Pitch Set Point:	-0.056	Yaw Set Point:	0.033	X_WP:	0.100	Y_WP:	0.000	Y_WP:	0.500	X:	0.024	Y:	0.029	Z:	0.059	yaw:	-1.916	yaw rate:	-48.821	Roll:	-2.007	Pitch:	-0.079	Yaw:	-14.438	Thrust:	52.456
Time:	2.807	Roll Set Point:	0.052	Pitch Set Point:	-0.056	Yaw Set Point:	0.036	X_WP:	0.100	Y_WP:	0.000	Y_WP:	0.500	X:	0.024	Y:	0.029	Z:	0.060	yaw:	-2.072	yaw rate:	-15.589	Roll:	-2.337	Pitch:	0.547	Yaw:	-5.933	Thrust:	64.654
Time:	2.818	Roll Set Point:	0.052	Pitch Set Point:	-0.056	Yaw Set Point:	0.038	X_WP:	0.100	Y_WP:	0.000	Y_WP:	0.500	X:	0.025	Y:	0.029	Z:	0.061	yaw:	-2.200	yaw rate:	-12.866	Roll:	-2.039	Pitch:	0.784	Yaw:	-6.187	Thrust:	54.845
Time:	2.831	Roll Set Point:	0.051	Pitch Set Point:	-0.056	Yaw Set Point:	0.038	X_WP:	0.100	Y_WP:	0.000	Y_WP:	0.500	X:	0.025	Y:	0.029	Z:	0.062	yaw:	-2.179	yaw rate:	2.151	Roll:	-1.858	Pitch:	1.147	Yaw:	-2.867	Thrust:	61.871
Time:	2.844	Roll Set Point:	0.050	Pitch Set Point:	-0.056	Yaw Set Point:	0.045	X_WP:	0.100	Y_WP:	0.000	Y_WP:	0.500	X:	0.026	Y:	0.030	Z:	0.065	yaw:	-2.585	yaw rate:	-12.385	Roll:	-1.836	Pitch:	0.168	Yaw:	-12.502	Thrust:	51.812
Time:	2.856	Roll Set Point:	0.049	Pitch Set Point:	-0.056	Yaw Set Point:	0.047	X_WP:	0.100	Y_WP:	0.000	Y_WP:	0.500	X:	0.026	Y:	0.030	Z:	0.067	yaw:	-2.708	yaw rate:	-12.309	Roll:	-1.342	Pitch:	0.895	Yaw:	-6.916	Thrust:	53.337
Time:	2.869	Roll Set Point:	0.048	Pitch Set Point:	-0.056	Yaw Set Point:	0.050	X_WP:	0.100	Y_WP:	0.000	Y_WP:	0.500	X:	0.027	Y:	0.030	Z:	0.068	yaw:	-2.864	yaw rate:	-15.533	Roll:	-1.808	Pitch:	0.545	Yaw:	-7.174	Thrust:	62.726
Time:	2.879	Roll Set Point:	0.047	Pitch Set Point:	-0.056	Yaw Set Point:	0.052	X_WP:	0.100	Y_WP:	0.000	Y_WP:	0.500	X:	0.027	Y:	0.030	Z:	0.070	yaw:	-3.007	yaw rate:	-14.281	Roll:	-1.527	Pitch:	0.760	Yaw:	-7.972	Thrust:	53.544
Time:	2.895	Roll Set Point:	0.044	Pitch Set Point:	-0.056	Yaw Set Point:	0.055	X_WP:	0.100	Y_WP:	0.000	Y_WP:	0.500	X:	0.029	Y:	0.030	Z:	0.073	yaw:	-3.162	yaw rate:	-15.590	Roll:	-0.683	Pitch:	0.965	Yaw:	-7.459	Thrust:	62.238
Time:	2.910	Roll Set Point:	0.043	Pitch Set Point:	-0.056	Yaw Set Point:	0.055	X_WP:	0.100	Y_WP:	0.000	Y_WP:	0.500	X:	0.029	Y:	0.030	Z:	0.075	yaw:	-3.155	yaw rate:	0.767	Roll:	-1.720	Pitch:	0.984	Yaw:	-4.612	Thrust:	70.277
Time:	2.922	Roll Set Point:	0.040	Pitch Set Point:	-0.057	Yaw Set Point:	0.056	X_WP:	0.100	Y_WP:	0.000	Y_WP:	0.500	X:	0.031	Y:	0.030	Z:	0.078	yaw:	-3.210	yaw rate:	-2.079	Roll:	-0.301	Pitch:	1.204	Yaw:	-5.911	Thrust:	57.011
Time:	2.937	Roll Set Point:	0.038	Pitch Set Point:	-0.058	Yaw Set Point:	0.053	X_WP:	0.100	Y_WP:	0.000	Y_WP:	0.500	X:	0.032	Y:	0.031	Z:	0.079	yaw:	-3.013	yaw rate:	19.733	Roll:	-1.158	Pitch:	1.448	Yaw:	-1.036	Thrust:	69.275
Time:	2.947	Roll Set Point:	0.037	Pitch Set Point:	-0.058	Yaw Set Point:	0.056	X_WP:	0.100	Y_WP:	0.000	Y_WP:	0.500	X:	0.032	Y:	0.031	Z:	0.081	yaw:	-3.229	yaw rate:	-21.680	Roll:	-1.180	Pitch:	0.533	Yaw:	-10.179	Thrust:	53.752
Time:	2.959	Roll Set Point:	0.035	Pitch Set Point:	-0.058	Yaw Set Point:	0.054	X_WP:	0.100	Y_WP:	0.000	Y_WP:	0.500	X:	0.033	Y:	0.031	Z:	0.083	yaw:	-3.087	yaw rate:	14.242	Roll:	-0.577	Pitch:	1.596	Yaw:	-1.237	Thrust:	55.800
Time:	2.976	Roll Set Point:	0.032	Pitch Set Point:	-0.059	Yaw Set Point:	0.053	X_WP:	0.100	Y_WP:	0.000	Y_WP:	0.500	X:	0.035	Y:	0.031	Z:	0.086	yaw:	-3.043	yaw rate:	6.101	Roll:	-0.627	Pitch:	1.243	Yaw:	-4.123	Thrust:	79.501
Time:	2.987	Roll Set Point:	0.032	Pitch Set Point:	-0.059	Yaw Set Point:	0.053	X_WP:	0.100	Y_WP:	0.000	Y_WP:	0.500	X:	0.035	Y:	0.031	Z:	0.086	yaw:	-3.043	yaw rate:	6.101	Roll:	-2.082	Pitch:	0.856	Yaw:	-4.579	Thrust:	63.518
Time:	3.001	Roll Set Point:	0.027	Pitch Set Point:	-0.060	Yaw Set Point:	0.055	X_WP:	0.100	Y_WP:	0.000	Y_WP:	0.500	X:	0.038	Y:	0.032	Z:	0.091	yaw:	-3.133	yaw rate:	11.272	Roll:	1.213	Pitch:	1.469	Yaw:	-6.481	Thrust:	58.932
Time:	3.012	Roll Set Point:	0.024	Pitch Set Point:	-0.061	Yaw Set Point:	0.051	X_WP:	0.100	Y_WP:	0.000	Y_WP:	0.500	X:	0.039	Y:	0.032	Z:	0.093	yaw:	-2.911	yaw rate:	22.201	Roll:	-0.265	Pitch:	1.744	Yaw:	0.775	Thrust:	57.473
Time:	3.030	Roll Set Point:	0.023	Pitch Set Point:	-0.061	Yaw Set Point:	0.054	X_WP:	0.100	Y_WP:	0.000	Y_WP:	0.500	X:	0.039	Y:	0.032	Z:	0.095	yaw:	-3.102	yaw rate:	-19.141	Roll:	-1.047	Pitch:	0.763	Yaw:	-7.702	Thrust:	83.057
Time:	3.043	Roll Set Point:	0.018	Pitch Set Point:	-0.062	Yaw Set Point:	0.046	X_WP:	0.100	Y_WP:	0.000	Y_WP:	0.500	X:	0.042	Y:	0.033	Z:	0.099	yaw:	-2.655	yaw rate:	24.779	Roll:	0.504	Pitch:	2.312	Yaw:	4.822	Thrust:	63.656
Time:	3.054	Roll Set Point:	0.016	Pitch Set Point:	-0.062	Yaw Set Point:	0.049	X_WP:	0.100	Y_WP:	0.000	Y_WP:	0.500	X:	0.043	Y:	0.033	Z:	0.101	yaw:	-2.796	yaw rate:	-14.105	Roll:	-0.430	Pitch:	0.709	Yaw:	-7.640	Thrust:	51.670
Time:	3.068	Roll Set Point:	0.014	Pitch Set Point:	-0.063	Yaw Set Point:	0.044	X_WP:	0.100	Y_WP:	0.000	Y_WP:	0.500	X:	0.044	Y:	0.033	Z:	0.103	yaw:	-2.549	yaw rate:	24.795	Roll:	-0.315	Pitch:	1.784	Yaw:	0.727	Thrust:	73.024
Time:	3.079	Roll Set Point:	0.012	Pitch Set Point:	-0.064	Yaw Set Point:	0.047	X_WP:	0.100	Y_WP:	0.000	Y_WP:	0.500	X:	0.045	Y:	0.033	Z:	0.105	yaw:	-2.677	yaw rate:	-12.884	Roll:	-0.260	Pitch:	0.998	Yaw:	-7.264	Thrust:	56.207
Time:	3.094	Roll Set Point:	0.010	Pitch Set Point:	-0.064	Yaw Set Point:	0.043	X_WP:	0.100	Y_WP:	0.000	Y_WP:	0.500	X:	0.046	Y:	0.033	Z:	0.108	yaw:	-2.450	yaw rate:	22.709	Roll:	-0.048	Pitch:	1.586	Yaw:	0.108	Thrust:	51.957
Time:	3.109	Roll Set Point:	0.002	Pitch Set Point:	-0.066	Yaw Set Point:	0.035	X_WP:	0.100	Y_WP:	0.000	Y_WP:	0.500	X:	0.049	Y:	0.034	Z:	0.115	yaw:	-2.010	yaw rate:	32.063	Roll:	1.407	Pitch:	2.210	Yaw:	3.901	Thrust:	89.269
Time:	3.121	Roll Set Point:	0.002	Pitch Set Point:	-0.066	Yaw Set Point:	0.035	X_WP:	0.100	Y_WP:	0.000	Y_WP:	0.500	X:	0.049	Y:	0.034	Z:	0.115	yaw:	-2.010	yaw rate:	32.063	Roll:	-1.663	Pitch:	1.001	Yaw:	-3.282	Thrust:	71.459
Time:	3.134	Roll Set Point:	-0.003	Pitch Set Point:	-0.067	Yaw Set Point:	0.030	X_WP:	0.100	Y_WP:	0.000	Y_WP:	0.500	X:	0.052	Y:	0.034	Z:	0.119	yaw:	-1.710	yaw rate:	24.080	Roll:	1.809	Pitch:	2.022	Yaw:	3.359	Thrust:	57.913
Time:	3.145	Roll Set Point:	-0.005	Pitch Set Point:	-0.068	Yaw Set Point:	0.030	X_WP:	0.100	Y_WP:	0.000	Y_WP:	0.500	X:	0.053	Y:	0.035	Z:	0.121	yaw:	-1.731	yaw rate:	-2.146	Roll:	-0.021	Pitch:	1.310	Yaw:	-3.375	Thrust:	60.970
Time:	3.156	Roll Set Point:	-0.008	Pitch Set Point:	-0.068	Yaw Set Point:	0.029	X_WP:	0.100	Y_WP:	0.000	Y_WP:	0.500	X:	0.054	Y:	0.035	Z:	0.124	yaw:	-1.636	yaw rate:	9.476	Roll:	0.740	Pitch:	1.555	Yaw:	-0.499	Thrust:	60.077
Time:	3.170	Roll Set Point:	-0.010	Pitch Set Point:	-0.069	Yaw Set Point:	0.028	X_WP:	0.100	Y_WP:	0.000	Y_WP:	0.500	X:	0.056	Y:	0.035	Z:	0.126	yaw:	-1.614	yaw rate:	2.189	Roll:	0.176	Pitch:	1.300	Yaw:	-2.361	Thrust:	70.442
Time:	3.181	Roll Set Point:	-0.013	Pitch Set Point:	-0.069	Yaw Set Point:	0.023	X_WP:	0.100	Y_WP:	0.000	Y_WP:	0.500	X:	0.057	Y:	0.035	Z:	0.127	yaw:	-1.331	yaw rate:	28.306	Roll:	0.579	Pitch:	1.864	Yaw:	4.061	Thrust:	64.026
Time:	3.199	Roll Set Point:	-0.016	Pitch Set Point:	-0.069	Yaw Set Point:	0.024	X_WP:	0.100	Y_WP:	0.000	Y_WP:	0.500	X:	0.058	Y:	0.035	Z:	0.129	yaw:	-1.384	yaw rate:	-5.315	Roll:	0.154	Pitch:	1.096	Yaw:	-3.481	Thrust:	91.080
Time:	3.212	Roll Set Point:	-0.024	Pitch Set Point:	-0.070	Yaw Set Point:	0.022	X_WP:	0.100	Y_WP:	0.000	Y_WP:	0.500	X:	0.062	Y:	0.036	Z:	0.135	yaw:	-1.275	yaw rate:	-9.845	Roll:	2.528	Pitch:	1.660	Yaw:	-0.294	Thrust:	63.369
Time:	3.230	Roll Set Point:	-0.027	Pitch Set Point:	-0.071	Yaw Set Point:	0.022	X_WP:	0.100	Y_WP:	0.000	Y_WP:	0.500	X:	0.064	Y:	0.036	Z:	0.137	yaw:	-1.260	yaw rate:	1.501	Roll:	0.269	Pitch:	1.218	Yaw:	-2.280	Thrust:	92.639
Time:	3.242	Roll Set Point:	-0.033	Pitch Set Point:	-0.071	Yaw Set Point:	0.021	X_WP:	0.100	Y_WP:	0.000	Y_WP:	0.500	X:	0.067	Y:	0.036	Z:	0.141	yaw:	-1.197	yaw rate:	0.469	Roll:	2.290	Pitch:	1.406	Yaw:	-0.919	Thrust:	63.902
Time:	3.253	Roll Set Point:	-0.036	Pitch Set Point:	-0.071	Yaw Set Point:	0.021	X_WP:	0.100	Y_WP:	0.000	Y_WP:	0.500	X:	0.068	Y:	0.036	Z:	0.142	yaw:	-1.193	yaw rate:	0.400	Roll:	1.380	Pitch:	1.363	Yaw:	-2.077	Thrust:	64.377
Time:	3.269	Roll Set Point:	-0.039	Pitch Set Point:	-0.071	Yaw Set Point:	0.020	X_WP:	0.100	Y_WP:	0.000	Y_WP:	0.500	X:	0.070	Y:	0.036	Z:	0.144	yaw:	-1.151	yaw rate:	4.213	Roll:	0.644	Pitch:	1.155	Yaw:	-1.556	Thrust:	81.658
Time:	3.280	Roll Set Point:	-0.042	Pitch Set Point:	-0.071	Yaw Set Point:	0.021	X_WP:	0.100	Y_WP:	0.000	Y_WP:	0.500	X:	0.071	Y:	0.036	Z:	0.146	yaw:	-1.228	yaw rate:	-7.747	Roll:	1.025	Pitch:	1.288	Yaw:	-3.990	Thrust:	68.505
Time:	3.296	Roll Set Point:	-0.045	Pitch Set Point:	-0.072	Yaw Set Point:	0.020	X_WP:	0.100	Y_WP:	0.000	Y_WP:	0.500	X:	0.073	Y:	0.036	Z:	0.149	yaw:	-1.158	yaw rate:	7.063	Roll:	1.168	Pitch:	1.287	Yaw:	-1.147	Thrust:	81.921
Time:	3.308	Roll Set Point:	-0.054	Pitch Set Point:	-0.072	Yaw Set Point:	0.016	X_WP:	0.100	Y_WP:	0.000	Y_WP:	0.500	X:	0.078	Y:	0.036	Z:	0.156	yaw:	-0.936	yaw rate:	20.536	Roll:	4.147	Pitch:	1.644	Yaw:	2.746	Thrust:	60.447
Time:	3.320	Roll Set Point:	-0.057	Pitch Set Point:	-0.072	Yaw Set Point:	0.019	X_WP:	0.100	Y_WP:	0.000	Y_WP:	0.500	X:	0.079	Y:	0.036	Z:	0.158	yaw:	-1.086	yaw rate:	-15.036	Roll:	1.027	Pitch:	0.789	Yaw:	-5.335	Thrust:	61.520
Time:	3.335	Roll Set Point:	-0.060	Pitch Set Point:	-0.072	Yaw Set Point:	0.018	X_WP:	0.100	Y_WP:	0.000	Y_WP:	0.500	X:	0.080	Y:	0.036	Z:	0.161	yaw:	-1.056	yaw rate:	3.039	Roll:	1.062	Pitch:	1.264	Yaw:	-1.614	Thrust:	84.711
Time:	3.346	Roll Set Point:	-0.063	Pitch Set Point:	-0.072	Yaw Set Point:	0.017	X_WP:	0.100	Y_WP:	0.000	Y_WP:	0.500	X:	0.082	Y:	0.036	Z:	0.164	yaw:	-1.001	yaw rate:	5.509	Roll:	1.246	Pitch:	1.225	Yaw:	-0.613	Thrust:	63.087
Time:	3.358	Roll Set Point:	-0.066	Pitch Set Point:	-0.073	Yaw Set Point:	0.019	X_WP:	0.100	Y_WP:	0.000	Y_WP:	0.500	X:	0.083	Y:	0.036	Z:	0.167	yaw:	-1.064	yaw rate:	-6.331	Roll:	1.802	Pitch:	1.424	Yaw:	-3.516	Thrust:	60.686
Time:	3.369	Roll Set Point:	-0.069	Pitch Set Point:	-0.072	Yaw Set Point:	0.017	X_WP:	0.100	Y_WP:	0.000	Y_WP:	0.500	X:	0.085	Y:	0.036	Z:	0.170	yaw:	-0.981	yaw rate:	8.304	Roll:	1.234	Pitch:	1.048	Yaw:	-0.148	Thrust:	66.034
Time:	3.379	Roll Set Point:	-0.072	Pitch Set Point:	-0.073	Yaw Set Point:	0.017	X_WP:	0.100	Y_WP:	0.000	Y_WP:	0.500	X:	0.086	Y:	0.037	Z:	0.173	yaw:	-0.997	yaw rate:	-1.587	Roll:	2.092	Pitch:	1.412	Yaw:	-2.298	Thrust:	57.033
Time:	3.395	Roll Set Point:	-0.075	Pitch Set Point:	-0.073	Yaw Set Point:	0.013	X_WP:	0.100	Y_WP:	0.000	Y_WP:	0.500	X:	0.088	Y:	0.037	Z:	0.177	yaw:	-0.738	yaw rate:	25.875	Roll:	1.436	Pitch:	1.281	Yaw:	2.727	Thrust:	80.499
Time:	3.409	Roll Set Point:	-0.080	Pitch Set Point:	-0.073	Yaw Set Point:	0.016	X_WP:	0.100	Y_WP:	0.000	Y_WP:	0.500	X:	0.090	Y:	0.036	Z:	0.184	yaw:	-0.910	yaw rate:	-17.146	Roll:	2.117	Pitch:	1.096	Yaw:	-5.073	Thrust:	72.505
Time:	3.419	Roll Set Point:	-0.083	Pitch Set Point:	-0.073	Yaw Set Point:	0.015	X_WP:	0.100	Y_WP:	0.000	Y_WP:	0.500	X:	0.092	Y:	0.036	Z:	0.188	yaw:	-0.863	yaw rate:	4.648	Roll:	1.872	Pitch:	1.197	Yaw:	-0.489	Thrust:	51.989
Time:	3.432	Roll Set Point:	-0.086	Pitch Set Point:	-0.073	Yaw Set Point:	0.011	X_WP:	0.100	Y_WP:	0.000	Y_WP:	0.500	X:	0.093	Y:	0.037	Z:	0.192	yaw:	-0.650	yaw rate:	21.350	Roll:	1.761	Pitch:	1.428	Yaw:	2.713	Thrust:	71.794
Time:	3.444	Roll Set Point:	-0.089	Pitch Set Point:	-0.073	Yaw Set Point:	0.014	X_WP:	0.100	Y_WP:	0.000	Y_WP:	0.500	X:	0.095	Y:	0.037	Z:	0.196	yaw:	-0.784	yaw rate:	-13.452	Roll:	1.178	Pitch:	1.077	Yaw:	-4.532	Thrust:	68.100
Time:	3.455	Roll Set Point:	-0.091	Pitch Set Point:	-0.073	Yaw Set Point:	0.013	X_WP:	0.100	Y_WP:	0.000	Y_WP:	0.500	X:	0.096	Y:	0.036	Z:	0.200	yaw:	-0.763	yaw rate:	2.128	Roll:	1.757	Pitch:	1.006	Yaw:	-1.014	Thrust:	51.618
Time:	3.469	Roll Set Point:	-0.097	Pitch Set Point:	-0.073	Yaw Set Point:	0.014	X_WP:	0.100	Y_WP:	0.000	Y_WP:	0.500	X:	0.099	Y:	0.037	Z:	0.208	yaw:	-0.809	yaw rate:	-22.775	Roll:	2.949	Pitch:	1.270	Yaw:	-2.694	Thrust:	67.218
Time:	3.480	Roll Set Point:	-0.099	Pitch Set Point:	-0.073	Yaw Set Point:	0.014	X_WP:	0.100	Y_WP:	0.000	Y_WP:	0.500	X:	0.100	Y:	0.036	Z:	0.213	yaw:	-0.779	yaw rate:	2.990	Roll:	1.669	Pitch:	1.055	Yaw:	-0.889	Thrust:	53.906
Time:	3.496	Roll Set Point:	-0.104	Pitch Set Point:	-0.073	Yaw Set Point:	0.012	X_WP:	0.100	Y_WP:	0.000	Y_WP:	0.500	X:	0.102	Y:	0.036	Z:	0.222	yaw:	-0.706	yaw rate:	7.330	Roll:	2.992	Pitch:	1.181	Yaw:	-0.551	Thrust:	68.731
Time:	3.509	Roll Set Point:	-0.106	Pitch Set Point:	-0.073	Yaw Set Point:	0.011	X_WP:	0.100	Y_WP:	0.000	Y_WP:	0.500	X:	0.103	Y:	0.036	Z:	0.227	yaw:	-0.619	yaw rate:	8.675	Roll:	1.101	Pitch:	1.179	Yaw:	0.024	Thrust:	79.240
Time:	3.521	Roll Set Point:	-0.109	Pitch Set Point:	-0.073	Yaw Set Point:	0.011	X_WP:	0.100	Y_WP:	0.000	Y_WP:	0.500	X:	0.105	Y:	0.036	Z:	0.231	yaw:	-0.659	yaw rate:	-3.938	Roll:	1.770	Pitch:	1.096	Yaw:	-2.397	Thrust:	62.108
Time:	3.534	Roll Set Point:	-0.114	Pitch Set Point:	-0.073	Yaw Set Point:	0.006	X_WP:	0.100	Y_WP:	0.000	Y_WP:	0.500	X:	0.107	Y:	0.036	Z:	0.241	yaw:	-0.361	yaw rate:	24.868	Roll:	3.184	Pitch:	1.154	Yaw:	5.044	Thrust:	43.175
Time:	3.544	Roll Set Point:	-0.116	Pitch Set Point:	-0.073	Yaw Set Point:	0.009	X_WP:	0.100	Y_WP:	0.000	Y_WP:	0.500	X:	0.108	Y:	0.036	Z:	0.246	yaw:	-0.489	yaw rate:	-12.789	Roll:	1.467	Pitch:	0.957	Yaw:	-4.410	Thrust:	53.922
Time:	3.557	Roll Set Point:	-0.117	Pitch Set Point:	-0.072	Yaw Set Point:	0.009	X_WP:	0.100	Y_WP:	0.000	Y_WP:	0.500	X:	0.109	Y:	0.036	Z:	0.251	yaw:	-0.498	yaw rate:	-0.856	Roll:	1.758	Pitch:	1.016	Yaw:	-1.546	Thrust:	61.544
Time:	3.577	Roll Set Point:	-0.122	Pitch Set Point:	-0.072	Yaw Set Point:	0.007	X_WP:	0.100	Y_WP:	0.000	Y_WP:	0.500	X:	0.111	Y:	0.036	Z:	0.262	yaw:	-0.405	yaw rate:	7.205	Roll:	1.502	Pitch:	1.082	Yaw:	-0.353	Thrust:	100.000
Time:	3.593	Roll Set Point:	-0.123	Pitch Set Point:	-0.072	Yaw Set Point:	0.006	X_WP:	0.100	Y_WP:	0.000	Y_WP:	0.500	X:	0.112	Y:	0.036	Z:	0.267	yaw:	-0.368	yaw rate:	3.662	Roll:	1.598	Pitch:	0.985	Yaw:	-0.667	Thrust:	60.711
Time:	3.608	Roll Set Point:	-0.125	Pitch Set Point:	-0.072	Yaw Set Point:	0.006	X_WP:	0.100	Y_WP:	0.000	Y_WP:	0.500	X:	0.113	Y:	0.036	Z:	0.272	yaw:	-0.357	yaw rate:	1.091	Roll:	0.844	Pitch:	1.100	Yaw:	-1.165	Thrust:	100.000
Time:	3.618	Roll Set Point:	-0.131	Pitch Set Point:	-0.071	Yaw Set Point:	0.001	X_WP:	0.100	Y_WP:	0.000	Y_WP:	0.500	X:	0.115	Y:	0.035	Z:	0.287	yaw:	-0.050	yaw rate:	18.575	Roll:	4.745	Pitch:	0.545	Yaw:	7.170	Thrust:	3.891
Time:	3.633	Roll Set Point:	-0.131	Pitch Set Point:	-0.071	Yaw Set Point:	0.001	X_WP:	0.100	Y_WP:	0.000	Y_WP:	0.500	X:	0.115	Y:	0.035	Z:	0.287	yaw:	-0.050	yaw rate:	18.575	Roll:	0.231	Pitch:	1.149	Yaw:	-0.785	Thrust:	88.604
Time:	3.645	Roll Set Point:	-0.134	Pitch Set Point:	-0.070	Yaw Set Point:	0.003	X_WP:	0.100	Y_WP:	0.000	Y_WP:	0.500	X:	0.117	Y:	0.035	Z:	0.297	yaw:	-0.164	yaw rate:	0.123	Roll:	2.024	Pitch:	0.613	Yaw:	-3.198	Thrust:	50.722
Time:	3.656	Roll Set Point:	-0.135	Pitch Set Point:	-0.070	Yaw Set Point:	-0.000	X_WP:	0.100	Y_WP:	0.000	Y_WP:	0.500	X:	0.118	Y:	0.035	Z:	0.302	yaw:	0.001	yaw rate:	16.517	Roll:	1.951	Pitch:	0.991	Yaw:	3.340	Thrust:	52.279
Time:	3.670	Roll Set Point:	-0.137	Pitch Set Point:	-0.069	Yaw Set Point:	0.002	X_WP:	0.100	Y_WP:	0.000	Y_WP:	0.500	X:	0.118	Y:	0.035	Z:	0.308	yaw:	-0.096	yaw rate:	-9.740	Roll:	1.012	Pitch:	0.773	Yaw:	-2.732	Thrust:	71.000
Time:	3.681	Roll Set Point:	-0.138	Pitch Set Point:	-0.069	Yaw Set Point:	0.003	X_WP:	0.100	Y_WP:	0.000	Y_WP:	0.500	X:	0.119	Y:	0.034	Z:	0.313	yaw:	-0.189	yaw rate:	-9.267	Roll:	1.252	Pitch:	0.864	Yaw:	-3.022	Thrust:	53.415
Time:	3.692	Roll Set Point:	-0.139	Pitch Set Point:	-0.069	Yaw Set Point:	0.003	X_WP:	0.100	Y_WP:	0.000	Y_WP:	0.500	X:	0.120	Y:	0.034	Z:	0.318	yaw:	-0.173	yaw rate:	1.564	Roll:	1.458	Pitch:	0.801	Yaw:	-0.454	Thrust:	51.938
Time:	3.708	Roll Set Point:	-0.142	Pitch Set Point:	-0.068	Yaw Set Point:	0.000	X_WP:	0.100	Y_WP:	0.000	Y_WP:	0.500	X:	0.121	Y:	0.034	Z:	0.329	yaw:	-0.007	yaw rate:	19.716	Roll:	1.837	Pitch:	0.816	Yaw:	1.744	Thrust:	76.646
Time:	3.718	Roll Set Point:	-0.143	Pitch Set Point:	-0.067	Yaw Set Point:	0.003	X_WP:	0.100	Y_WP:	0.000	Y_WP:	0.500	X:	0.122	Y:	0.034	Z:	0.334	yaw:	-0.189	yaw rate:	-18.257	Roll:	1.014	Pitch:	0.622	Yaw:	-5.560	Thrust:	43.573
Time:	3.733	Roll Set Point:	-0.145	Pitch Set Point:	-0.067	Yaw Set Point:	0.003	X_WP:	0.100	Y_WP:	0.000	Y_WP:	0.500	X:	0.123	Y:	0.033	Z:	0.345	yaw:	-0.157	yaw rate:	3.170	Roll:	1.765	Pitch:	0.646	Yaw:	-0.376	Thrust:	57.537
Time:	3.745	Roll Set Point:	-0.146	Pitch Set Point:	-0.066	Yaw Set Point:	0.003	X_WP:	0.100	Y_WP:	0.000	Y_WP:	0.500	X:	0.123	Y:	0.033	Z:	0.350	yaw:	-0.146	yaw rate:	1.200	Roll:	1.149	Pitch:	0.735	Yaw:	-0.581	Thrust:	59.737
Time:	3.758	Roll Set Point:	-0.147	Pitch Set Point:	-0.066	Yaw Set Point:	0.002	X_WP:	0.100	Y_WP:	0.000	Y_WP:	0.500	X:	0.123	Y:	0.033	Z:	0.355	yaw:	-0.126	yaw rate:	1.982	Roll:	1.100	Pitch:	0.788	Yaw:	-0.470	Thrust:	59.719
Time:	3.772	Roll Set Point:	-0.148	Pitch Set Point:	-0.066	Yaw Set Point:	-0.003	X_WP:	0.100	Y_WP:	0.000	Y_WP:	0.500	X:	0.124	Y:	0.033	Z:	0.360	yaw:	0.159	yaw rate:	28.508	Roll:	1.211	Pitch:	0.891	Yaw:	4.776	Thrust:	81.769
Time:	3.783	Roll Set Point:	-0.149	Pitch Set Point:	-0.065	Yaw Set Point:	0.000	X_WP:	0.100	Y_WP:	0.000	Y_WP:	0.500	X:	0.124	Y:	0.032	Z:	0.365	yaw:	-0.022	yaw rate:	-18.106	Roll:	0.842	Pitch:	0.641	Yaw:	-4.903	Thrust:	52.501
Time:	3.798	Roll Set Point:	-0.150	Pitch Set Point:	-0.064	Yaw Set Point:	-0.004	X_WP:	0.100	Y_WP:	0.000	Y_WP:	0.500	X:	0.125	Y:	0.032	Z:	0.375	yaw:	0.220	yaw rate:	2.384	Roll:	1.659	Pitch:	0.592	Yaw:	3.697	Thrust:	67.072
Time:	3.809	Roll Set Point:	-0.151	Pitch Set Point:	-0.064	Yaw Set Point:	-0.001	X_WP:	0.100	Y_WP:	0.000	Y_WP:	0.500	X:	0.125	Y:	0.032	Z:	0.380	yaw:	0.030	yaw rate:	-19.003	Roll:	0.685	Pitch:	0.693	Yaw:	-4.886	Thrust:	56.581
Time:	3.819	Roll Set Point:	-0.151	Pitch Set Point:	-0.063	Yaw Set Point:	-0.001	X_WP:	0.100	Y_WP:	0.000	Y_WP:	0.500	X:	0.126	Y:	0.032	Z:	0.385	yaw:	0.038	yaw rate:	0.791	Roll:	1.063	Pitch:	0.654	Yaw:	-0.272	Thrust:	44.253
Time:	3.833	Roll Set Point:	-0.152	Pitch Set Point:	-0.063	Yaw Set Point:	-0.005	X_WP:	0.100	Y_WP:	0.000	Y_WP:	0.500	X:	0.126	Y:	0.032	Z:	0.389	yaw:	0.285	yaw rate:	24.727	Roll:	1.233	Pitch:	0.802	Yaw:	4.446	Thrust:	67.554
Time:	3.845	Roll Set Point:	-0.152	Pitch Set Point:	-0.062	Yaw Set Point:	-0.002	X_WP:	0.100	Y_WP:	0.000	Y_WP:	0.500	X:	0.126	Y:	0.031	Z:	0.394	yaw:	0.101	yaw rate:	-18.421	Roll:	0.660	Pitch:	0.646	Yaw:	-4.655	Thrust:	59.499
Time:	3.858	Roll Set Point:	-0.153	Pitch Set Point:	-0.061	Yaw Set Point:	-0.003	X_WP:	0.100	Y_WP:	0.000	Y_WP:	0.500	X:	0.126	Y:	0.031	Z:	0.404	yaw:	0.185	yaw rate:	8.382	Roll:	1.204	Pitch:	0.363	Yaw:	1.444	Thrust:	40.096
Time:	3.870	Roll Set Point:	-0.154	Pitch Set Point:	-0.061	Yaw Set Point:	-0.007	X_WP:	0.100	Y_WP:	0.000	Y_WP:	0.500	X:	0.127	Y:	0.030	Z:	0.414	yaw:	0.395	yaw rate:	18.885	Roll:	1.207	Pitch:	0.477	Yaw:	4.082	Thrust:	48.192
Time:	3.881	Roll Set Point:	-0.154	Pitch Set Point:	-0.060	Yaw Set Point:	-0.007	X_WP:	0.100	Y_WP:	0.000	Y_WP:	0.500	X:	0.127	Y:	0.030	Z:	0.419	yaw:	0.414	yaw rate:	1.944	Roll:	0.761	Pitch:	0.671	Yaw:	0.429	Thrust:	52.809
Time:	3.894	Roll Set Point:	-0.154	Pitch Set Point:	-0.060	Yaw Set Point:	-0.008	X_WP:	0.100	Y_WP:	0.000	Y_WP:	0.500	X:	0.127	Y:	0.030	Z:	0.424	yaw:	0.469	yaw rate:	5.461	Roll:	0.724	Pitch:	0.627	Yaw:	1.134	Thrust:	58.363
Time:	3.909	Roll Set Point:	-0.154	Pitch Set Point:	-0.059	Yaw Set Point:	-0.005	X_WP:	0.100	Y_WP:	0.000	Y_WP:	0.500	X:	0.127	Y:	0.030	Z:	0.429	yaw:	0.295	yaw rate:	-17.344	Roll:	0.400	Pitch:	0.726	Yaw:	-3.303	Thrust:	88.467
Time:	3.921	Roll Set Point:	-0.154	Pitch Set Point:	-0.059	Yaw Set Point:	-0.006	X_WP:	0.100	Y_WP:	0.000	Y_WP:	0.500	X:	0.127	Y:	0.029	Z:	0.434	yaw:	0.342	yaw rate:	4.656	Roll:	0.649	Pitch:	0.710	Yaw:	1.006	Thrust:	51.215
Time:	3.932	Roll Set Point:	-0.154	Pitch Set Point:	-0.058	Yaw Set Point:	-0.011	X_WP:	0.100	Y_WP:	0.000	Y_WP:	0.500	X:	0.127	Y:	0.029	Z:	0.439	yaw:	0.621	yaw rate:	27.940	Roll:	0.985	Pitch:	0.639	Yaw:	6.297	Thrust:	55.634
Time:	3.945	Roll Set Point:	-0.154	Pitch Set Point:	-0.058	Yaw Set Point:	-0.007	X_WP:	0.100	Y_WP:	0.000	Y_WP:	0.500	X:	0.127	Y:	0.029	Z:	0.443	yaw:	0.420	yaw rate:	-20.135	Roll:	0.313	Pitch:	0.676	Yaw:	-4.297	Thrust:	62.791
Time:	3.958	Roll Set Point:	-0.154	Pitch Set Point:	-0.057	Yaw Set Point:	-0.008	X_WP:	0.100	Y_WP:	0.000	Y_WP:	0.500	X:	0.127	Y:	0.029	Z:	0.447	yaw:	0.468	yaw rate:	4.810	Roll:	0.498	Pitch:	0.556	Yaw:	0.945	Thrust:	60.108
Time:	3.970	Roll Set Point:	-0.154	Pitch Set Point:	-0.057	Yaw Set Point:	-0.010	X_WP:	0.100	Y_WP:	0.000	Y_WP:	0.500	X:	0.127	Y:	0.028	Z:	0.455	yaw:	0.573	yaw rate:	10.544	Roll:	0.564	Pitch:	0.379	Yaw:	2.349	Thrust:	58.456
Time:	3.981	Roll Set Point:	-0.154	Pitch Set Point:	-0.056	Yaw Set Point:	-0.010	X_WP:	0.100	Y_WP:	0.000	Y_WP:	0.500	X:	0.127	Y:	0.028	Z:	0.459	yaw:	0.599	yaw rate:	2.593	Roll:	0.530	Pitch:	0.558	Yaw:	0.932	Thrust:	50.327
Time:	3.996	Roll Set Point:	-0.154	Pitch Set Point:	-0.056	Yaw Set Point:	-0.010	X_WP:	0.100	Y_WP:	0.000	Y_WP:	0.500	X:	0.127	Y:	0.028	Z:	0.463	yaw:	0.600	yaw rate:	0.042	Roll:	0.488	Pitch:	0.663	Yaw:	0.099	Thrust:	75.778
Time:	4.009	Roll Set Point:	-0.153	Pitch Set Point:	-0.055	Yaw Set Point:	-0.011	X_WP:	0.100	Y_WP:	0.000	Y_WP:	0.500	X:	0.126	Y:	0.027	Z:	0.470	yaw:	0.635	yaw rate:	4.184	Roll:	0.388	Pitch:	0.353	Yaw:	0.861	Thrust:	65.044
Time:	4.021	Roll Set Point:	-0.153	Pitch Set Point:	-0.054	Yaw Set Point:	-0.011	X_WP:	0.100	Y_WP:	0.000	Y_WP:	0.500	X:	0.126	Y:	0.027	Z:	0.473	yaw:	0.603	yaw rate:	-3.188	Roll:	0.357	Pitch:	0.632	Yaw:	-0.463	Thrust:	61.899
Time:	4.034	Roll Set Point:	-0.153	Pitch Set Point:	-0.054	Yaw Set Point:	-0.011	X_WP:	0.100	Y_WP:	0.000	Y_WP:	0.500	X:	0.126	Y:	0.027	Z:	0.477	yaw:	0.613	yaw rate:	0.990	Roll:	0.383	Pitch:	0.606	Yaw:	0.394	Thrust:	69.572
Time:	4.046	Roll Set Point:	-0.152	Pitch Set Point:	-0.053	Yaw Set Point:	-0.011	X_WP:	0.100	Y_WP:	0.000	Y_WP:	0.500	X:	0.126	Y:	0.027	Z:	0.483	yaw:	0.649	yaw rate:	3.660	Roll:	0.088	Pitch:	0.175	Yaw:	1.156	Thrust:	46.765
Time:	4.058	Roll Set Point:	-0.151	Pitch Set Point:	-0.052	Yaw Set Point:	-0.011	X_WP:	0.100	Y_WP:	0.000	Y_WP:	0.500	X:	0.126	Y:	0.026	Z:	0.486	yaw:	0.620	yaw rate:	-2.969	Roll:	0.200	Pitch:	0.524	Yaw:	-0.384	Thrust:	55.572
Time:	4.069	Roll Set Point:	-0.151	Pitch Set Point:	-0.052	Yaw Set Point:	-0.011	X_WP:	0.100	Y_WP:	0.000	Y_WP:	0.500	X:	0.125	Y:	0.026	Z:	0.489	yaw:	0.615	yaw rate:	-0.460	Roll:	0.213	Pitch:	0.505	Yaw:	0.198	Thrust:	63.166
Time:	4.080	Roll Set Point:	-0.150	Pitch Set Point:	-0.051	Yaw Set Point:	-0.010	X_WP:	0.100	Y_WP:	0.000	Y_WP:	0.500	X:	0.125	Y:	0.026	Z:	0.492	yaw:	0.553	yaw rate:	-6.193	Roll:	0.213	Pitch:	0.562	Yaw:	-1.225	Thrust:	57.494
Time:	4.092	Roll Set Point:	-0.150	Pitch Set Point:	-0.051	Yaw Set Point:	-0.010	X_WP:	0.100	Y_WP:	0.000	Y_WP:	0.500	X:	0.125	Y:	0.025	Z:	0.495	yaw:	0.564	yaw rate:	1.122	Roll:	0.140	Pitch:	0.426	Yaw:	0.437	Thrust:	55.748
Time:	4.104	Roll Set Point:	-0.149	Pitch Set Point:	-0.050	Yaw Set Point:	-0.010	X_WP:	0.100	Y_WP:	0.000	Y_WP:	0.500	X:	0.125	Y:	0.025	Z:	0.498	yaw:	0.550	yaw rate:	-1.401	Roll:	0.185	Pitch:	0.497	Yaw:	-0.130	Thrust:	66.268
Time:	4.116	Roll Set Point:	-0.149	Pitch Set Point:	-0.050	Yaw Set Point:	-0.010	X_WP:	0.100	Y_WP:	0.000	Y_WP:	0.500	X:	0.124	Y:	0.025	Z:	0.501	yaw:	0.568	yaw rate:	1.764	Roll:	0.102	Pitch:	0.520	Yaw:	0.715	Thrust:	55.517
Time:	4.132	Roll Set Point:	-0.148	Pitch Set Point:	-0.049	Yaw Set Point:	-0.010	X_WP:	0.100	Y_WP:	0.000	Y_WP:	0.500	X:	0.124	Y:	0.024	Z:	0.506	yaw:	0.570	yaw rate:	2.327	Roll:	-0.235	Pitch:	0.351	Yaw:	0.014	Thrust:	85.817
Time:	4.143	Roll Set Point:	-0.146	Pitch Set Point:	-0.048	Yaw Set Point:	-0.009	X_WP:	0.100	Y_WP:	0.000	Y_WP:	0.500	X:	0.123	Y:	0.024	Z:	0.512	yaw:	0.510	yaw rate:	-5.937	Roll:	-0.370	Pitch:	0.300	Yaw:	-1.165	Thrust:	52.731
Time:	4.155	Roll Set Point:	-0.145	Pitch Set Point:	-0.047	Yaw Set Point:	-0.008	X_WP:	0.100	Y_WP:	0.000	Y_WP:	0.500	X:	0.123	Y:	0.024	Z:	0.514	yaw:	0.477	yaw rate:	-3.313	Roll:	-0.138	Pitch:	0.438	Yaw:	-0.645	Thrust:	59.740
Time:	4.167	Roll Set Point:	-0.145	Pitch Set Point:	-0.047	Yaw Set Point:	-0.008	X_WP:	0.100	Y_WP:	0.000	Y_WP:	0.500	X:	0.122	Y:	0.024	Z:	0.517	yaw:	0.435	yaw rate:	-4.206	Roll:	-0.085	Pitch:	0.505	Yaw:	-0.889	Thrust:	63.031
Time:	4.178	Roll Set Point:	-0.144	Pitch Set Point:	-0.046	Yaw Set Point:	-0.008	X_WP:	0.100	Y_WP:	0.000	Y_WP:	0.500	X:	0.122	Y:	0.023	Z:	0.520	yaw:	0.466	yaw rate:	3.064	Roll:	-0.064	Pitch:	0.504	Yaw:	0.790	Thrust:	59.662
Time:	4.195	Roll Set Point:	-0.143	Pitch Set Point:	-0.046	Yaw Set Point:	-0.007	X_WP:	0.100	Y_WP:	0.000	Y_WP:	0.500	X:	0.121	Y:	0.023	Z:	0.522	yaw:	0.423	yaw rate:	-4.317	Roll:	-0.131	Pitch:	0.577	Yaw:	-0.884	Thrust:	76.665
Time:	4.209	Roll Set Point:	-0.142	Pitch Set Point:	-0.045	Yaw Set Point:	-0.011	X_WP:	0.100	Y_WP:	0.000	Y_WP:	0.500	X:	0.121	Y:	0.023	Z:	0.527	yaw:	0.611	yaw rate:	17.302	Roll:	-0.347	Pitch:	0.441	Yaw:	3.558	Thrust:	80.013
Time:	4.219	Roll Set Point:	-0.140	Pitch Set Point:	-0.045	Yaw Set Point:	-0.007	X_WP:	0.100	Y_WP:	0.000	Y_WP:	0.500	X:	0.120	Y:	0.022	Z:	0.529	yaw:	0.403	yaw rate:	-20.839	Roll:	-0.528	Pitch:	0.414	Yaw:	-5.118	Thrust:	53.396
Time:	4.231	Roll Set Point:	-0.139	Pitch Set Point:	-0.044	Yaw Set Point:	-0.006	X_WP:	0.100	Y_WP:	0.000	Y_WP:	0.500	X:	0.120	Y:	0.022	Z:	0.531	yaw:	0.371	yaw rate:	-3.183	Roll:	-0.235	Pitch:	0.502	Yaw:	-0.743	Thrust:	67.270
Time:	4.244	Roll Set Point:	-0.139	Pitch Set Point:	-0.044	Yaw Set Point:	-0.007	X_WP:	0.100	Y_WP:	0.000	Y_WP:	0.500	X:	0.119	Y:	0.022	Z:	0.533	yaw:	0.396	yaw rate:	2.485	Roll:	-0.231	Pitch:	0.516	Yaw:	0.477	Thrust:	63.467
Time:	4.255	Roll Set Point:	-0.138	Pitch Set Point:	-0.044	Yaw Set Point:	-0.010	X_WP:	0.100	Y_WP:	0.000	Y_WP:	0.500	X:	0.119	Y:	0.022	Z:	0.535	yaw:	0.566	yaw rate:	17.010	Roll:	-0.114	Pitch:	0.500	Yaw:	4.106	Thrust:	56.501
Time:	4.268	Roll Set Point:	-0.136	Pitch Set Point:	-0.043	Yaw Set Point:	-0.009	X_WP:	0.100	Y_WP:	0.000	Y_WP:	0.500	X:	0.118	Y:	0.021	Z:	0.540	yaw:	0.491	yaw rate:	-7.458	Roll:	-0.888	Pitch:	0.336	Yaw:	-1.424	Thrust:	69.361
Time:	4.279	Roll Set Point:	-0.135	Pitch Set Point:	-0.042	Yaw Set Point:	-0.005	X_WP:	0.100	Y_WP:	0.000	Y_WP:	0.500	X:	0.117	Y:	0.021	Z:	0.542	yaw:	0.295	yaw rate:	-19.620	Roll:	-0.679	Pitch:	0.314	Yaw:	-4.946	Thrust:	52.279
Time:	4.293	Roll Set Point:	-0.134	Pitch Set Point:	-0.042	Yaw Set Point:	-0.004	X_WP:	0.100	Y_WP:	0.000	Y_WP:	0.500	X:	0.117	Y:	0.021	Z:	0.544	yaw:	0.255	yaw rate:	-3.990	Roll:	-0.360	Pitch:	0.581	Yaw:	-1.055	Thrust:	68.485
Time:	4.307	Roll Set Point:	-0.131	Pitch Set Point:	-0.041	Yaw Set Point:	-0.004	X_WP:	0.100	Y_WP:	0.000	Y_WP:	0.500	X:	0.116	Y:	0.021	Z:	0.549	yaw:	0.236	yaw rate:	-4.653	Roll:	-0.955	Pitch:	0.345	Yaw:	-0.706	Thrust:	73.596
Time:	4.318	Roll Set Point:	-0.130	Pitch Set Point:	-0.041	Yaw Set Point:	-0.004	X_WP:	0.100	Y_WP:	0.000	Y_WP:	0.500	X:	0.115	Y:	0.020	Z:	0.552	yaw:	0.229	yaw rate:	-0.707	Roll:	-0.519	Pitch:	0.449	Yaw:	-0.379	Thrust:	57.187
Time:	4.333	Roll Set Point:	-0.129	Pitch Set Point:	-0.040	Yaw Set Point:	-0.003	X_WP:	0.100	Y_WP:	0.000	Y_WP:	0.500	X:	0.115	Y:	0.020	Z:	0.554	yaw:	0.151	yaw rate:	-7.771	Roll:	-0.479	Pitch:	0.614	Yaw:	-1.864	Thrust:	73.696
Time:	4.345	Roll Set Point:	-0.128	Pitch Set Point:	-0.040	Yaw Set Point:	-0.003	X_WP:	0.100	Y_WP:	0.000	Y_WP:	0.500	X:	0.114	Y:	0.020	Z:	0.557	yaw:	0.148	yaw rate:	-0.379	Roll:	-0.465	Pitch:	0.504	Yaw:	-0.419	Thrust:	59.962
Time:	4.359	Roll Set Point:	-0.127	Pitch Set Point:	-0.040	Yaw Set Point:	-0.002	X_WP:	0.100	Y_WP:	0.000	Y_WP:	0.500	X:	0.113	Y:	0.020	Z:	0.560	yaw:	0.140	yaw rate:	-0.753	Roll:	-0.530	Pitch:	0.571	Yaw:	-0.597	Thrust:	72.961
Time:	4.374	Roll Set Point:	-0.124	Pitch Set Point:	-0.039	Yaw Set Point:	-0.002	X_WP:	0.100	Y_WP:	0.000	Y_WP:	0.500	X:	0.112	Y:	0.020	Z:	0.568	yaw:	0.090	yaw rate:	-0.465	Roll:	-1.670	Pitch:	0.321	Yaw:	-1.442	Thrust:	59.173
Time:	4.385	Roll Set Point:	-0.123	Pitch Set Point:	-0.039	Yaw Set Point:	-0.004	X_WP:	0.100	Y_WP:	0.000	Y_WP:	0.500	X:	0.111	Y:	0.020	Z:	0.571	yaw:	0.235	yaw rate:	14.484	Roll:	-0.435	Pitch:	0.685	Yaw:	3.191	Thrust:	56.469
Time:	4.399	Roll Set Point:	-0.121	Pitch Set Point:	-0.039	Yaw Set Point:	0.000	X_WP:	0.100	Y_WP:	0.000	Y_WP:	0.500	X:	0.111	Y:	0.019	Z:	0.573	yaw:	-0.014	yaw rate:	-24.934	Roll:	-0.795	Pitch:	0.477	Yaw:	-5.458	Thrust:	68.928
Time:	4.410	Roll Set Point:	-0.120	Pitch Set Point:	-0.038	Yaw Set Point:	0.001	X_WP:	0.100	Y_WP:	0.000	Y_WP:	0.500	X:	0.110	Y:	0.019	Z:	0.576	yaw:	-0.040	yaw rate:	-2.522	Roll:	-0.629	Pitch:	0.605	Yaw:	-1.161	Thrust:	55.317
Time:	4.422	Roll Set Point:	-0.119	Pitch Set Point:	-0.038	Yaw Set Point:	0.000	X_WP:	0.100	Y_WP:	0.000	Y_WP:	0.500	X:	0.110	Y:	0.019	Z:	0.579	yaw:	-0.019	yaw rate:	2.032	Roll:	-0.695	Pitch:	0.506	Yaw:	-0.056	Thrust:	50.626
Time:	4.440	Roll Set Point:	-0.117	Pitch Set Point:	-0.038	Yaw Set Point:	0.001	X_WP:	0.100	Y_WP:	0.000	Y_WP:	0.500	X:	0.109	Y:	0.019	Z:	0.584	yaw:	-0.072	yaw rate:	-5.234	Roll:	-1.018	Pitch:	0.646	Yaw:	-1.698	Thrust:	92.863
Time:	4.451	Roll Set Point:	-0.116	Pitch Set Point:	-0.038	Yaw Set Point:	0.002	X_WP:	0.100	Y_WP:	0.000	Y_WP:	0.500	X:	0.108	Y:	0.019	Z:	0.587	yaw:	-0.117	yaw rate:	-4.531	Roll:	-0.707	Pitch:	0.597	Yaw:	-1.726	Thrust:	53.357
Time:	4.465	Roll Set Point:	-0.115	Pitch Set Point:	-0.038	Yaw Set Point:	0.002	X_WP:	0.100	Y_WP:	0.000	Y_WP:	0.500	X:	0.108	Y:	0.019	Z:	0.590	yaw:	-0.089	yaw rate:	2.796	Roll:	-0.631	Pitch:	0.664	Yaw:	-0.257	Thrust:	66.710
Time:	4.477	Roll Set Point:	-0.113	Pitch Set Point:	-0.037	Yaw Set Point:	0.001	X_WP:	0.100	Y_WP:	0.000	Y_WP:	0.500	X:	0.106	Y:	0.019	Z:	0.596	yaw:	-0.045	yaw rate:	4.911	Roll:	-1.470	Pitch:	0.602	Yaw:	0.393	Thrust:	45.181
Time:	4.488	Roll Set Point:	-0.112	Pitch Set Point:	-0.037	Yaw Set Point:	0.001	X_WP:	0.100	Y_WP:	0.000	Y_WP:	0.500	X:	0.106	Y:	0.019	Z:	0.599	yaw:	-0.031	yaw rate:	1.438	Roll:	-0.889	Pitch:	0.545	Yaw:	-0.214	Thrust:	41.255
Time:	4.500	Roll Set Point:	-0.110	Pitch Set Point:	-0.037	Yaw Set Point:	0.003	X_WP:	0.100	Y_WP:	0.000	Y_WP:	0.500	X:	0.105	Y:	0.019	Z:	0.605	yaw:	-0.158	yaw rate:	-12.730	Roll:	-1.492	Pitch:	0.692	Yaw:	-3.545	Thrust:	50.775
Time:	4.512	Roll Set Point:	-0.108	Pitch Set Point:	-0.037	Yaw Set Point:	0.002	X_WP:	0.100	Y_WP:	0.000	Y_WP:	0.500	X:	0.104	Y:	0.019	Z:	0.608	yaw:	-0.102	yaw rate:	5.609	Roll:	-0.748	Pitch:	0.719	Yaw:	0.492	Thrust:	54.937
Time:	4.529	Roll Set Point:	-0.108	Pitch Set Point:	-0.038	Yaw Set Point:	-0.002	X_WP:	0.100	Y_WP:	0.000	Y_WP:	0.500	X:	0.104	Y:	0.019	Z:	0.611	yaw:	0.130	yaw rate:	23.217	Roll:	-0.553	Pitch:	0.875	Yaw:	3.217	Thrust:	70.084
Time:	4.542	Roll Set Point:	-0.106	Pitch Set Point:	-0.037	Yaw Set Point:	0.002	X_WP:	0.100	Y_WP:	0.000	Y_WP:	0.500	X:	0.103	Y:	0.019	Z:	0.614	yaw:	-0.136	yaw rate:	-26.666	Roll:	-0.827	Pitch:	0.642	Yaw:	-5.818	Thrust:	73.019
Time:	4.553	Roll Set Point:	-0.105	Pitch Set Point:	-0.037	Yaw Set Point:	0.003	X_WP:	0.100	Y_WP:	0.000	Y_WP:	0.500	X:	0.103	Y:	0.019	Z:	0.617	yaw:	-0.147	yaw rate:	-1.051	Roll:	-0.827	Pitch:	0.751	Yaw:	-0.958	Thrust:	46.411
Time:	4.569	Roll Set Point:	-0.104	Pitch Set Point:	-0.037	Yaw Set Point:	0.002	X_WP:	0.100	Y_WP:	0.000	Y_WP:	0.500	X:	0.102	Y:	0.019	Z:	0.620	yaw:	-0.112	yaw rate:	3.526	Roll:	-0.738	Pitch:	0.740	Yaw:	-0.288	Thrust:	76.066
Time:	4.579	Roll Set Point:	-0.102	Pitch Set Point:	-0.038	Yaw Set Point:	-0.002	X_WP:	0.100	Y_WP:	0.000	Y_WP:	0.500	X:	0.101	Y:	0.019	Z:	0.629	yaw:	0.121	yaw rate:	22.047	Roll:	-2.010	Pitch:	1.101	Yaw:	5.459	Thrust:	18.841
Time:	4.596	Roll Set Point:	-0.100	Pitch Set Point:	-0.038	Yaw Set Point:	0.001	X_WP:	0.100	Y_WP:	0.000	Y_WP:	0.500	X:	0.100	Y:	0.019	Z:	0.631	yaw:	-0.038	yaw rate:	-15.819	Roll:	-0.941	Pitch:	0.669	Yaw:	-3.436	Thrust:	69.900
Time:	4.609	Roll Set Point:	-0.100	Pitch Set Point:	-0.038	Yaw Set Point:	0.001	X_WP:	0.100	Y_WP:	0.000	Y_WP:	0.500	X:	0.100	Y:	0.019	Z:	0.634	yaw:	-0.032	yaw rate:	0.528	Roll:	-0.703	Pitch:	0.888	Yaw:	-0.600	Thrust:	72.821
Time:	4.620	Roll Set Point:	-0.099	Pitch Set Point:	-0.038	Yaw Set Point:	0.000	X_WP:	0.100	Y_WP:	0.000	Y_WP:	0.500	X:	0.099	Y:	0.019	Z:	0.636	yaw:	-0.018	yaw rate:	1.476	Roll:	-0.843	Pitch:	0.785	Yaw:	-0.188	Thrust:	46.850
Time:	4.636	Roll Set Point:	-0.098	Pitch Set Point:	-0.038	Yaw Set Point:	0.000	X_WP:	0.100	Y_WP:	0.000	Y_WP:	0.500	X:	0.099	Y:	0.019	Z:	0.639	yaw:	-0.019	yaw rate:	-0.113	Roll:	-0.689	Pitch:	0.891	Yaw:	-0.792	Thrust:	78.653
Time:	4.647	Roll Set Point:	-0.096	Pitch Set Point:	-0.039	Yaw Set Point:	0.001	X_WP:	0.100	Y_WP:	0.000	Y_WP:	0.500	X:	0.098	Y:	0.019	Z:	0.643	yaw:	-0.042	yaw rate:	-2.005	Roll:	-1.469	Pitch:	1.067	Yaw:	-1.130	Thrust:	39.377
Time:	4.658	Roll Set Point:	-0.095	Pitch Set Point:	-0.039	Yaw Set Point:	-0.000	X_WP:	0.100	Y_WP:	0.000	Y_WP:	0.500	X:	0.098	Y:	0.020	Z:	0.645	yaw:	0.001	yaw rate:	4.352	Roll:	-0.879	Pitch:	0.946	Yaw:	0.520	Thrust:	46.052
Time:	4.672	Roll Set Point:	-0.094	Pitch Set Point:	-0.039	Yaw Set Point:	0.000	X_WP:	0.100	Y_WP:	0.000	Y_WP:	0.500	X:	0.097	Y:	0.020	Z:	0.648	yaw:	-0.007	yaw rate:	-0.809	Roll:	-0.717	Pitch:	0.934	Yaw:	-0.815	Thrust:	64.888
Time:	4.683	Roll Set Point:	-0.094	Pitch Set Point:	-0.040	Yaw Set Point:	0.001	X_WP:	0.100	Y_WP:	0.000	Y_WP:	0.500	X:	0.097	Y:	0.020	Z:	0.650	yaw:	-0.030	yaw rate:	-2.340	Roll:	-0.858	Pitch:	0.938	Yaw:	-1.112	Thrust:	45.451
Time:	4.699	Roll Set Point:	-0.093	Pitch Set Point:	-0.040	Yaw Set Point:	-0.004	X_WP:	0.100	Y_WP:	0.000	Y_WP:	0.500	X:	0.096	Y:	0.020	Z:	0.652	yaw:	0.202	yaw rate:	23.199	Roll:	-0.554	Pitch:	1.112	Yaw:	3.458	Thrust:	73.614
Time:	4.711	Roll Set Point:	-0.091	Pitch Set Point:	-0.041	Yaw Set Point:	-0.002	X_WP:	0.100	Y_WP:	0.000	Y_WP:	0.500	X:	0.095	Y:	0.020	Z:	0.659	yaw:	0.119	yaw rate:	-1.015	Roll:	-2.095	Pitch:	1.188	Yaw:	-2.217	Thrust:	34.322
Time:	4.721	Roll Set Point:	-0.091	Pitch Set Point:	-0.041	Yaw Set Point:	-0.002	X_WP:	0.100	Y_WP:	0.000	Y_WP:	0.500	X:	0.095	Y:	0.020	Z:	0.659	yaw:	0.119	yaw rate:	-1.015	Roll:	-0.266	Pitch:	0.735	Yaw:	-0.300	Thrust:	48.104
Time:	4.734	Roll Set Point:	-0.089	Pitch Set Point:	-0.042	Yaw Set Point:	-0.004	X_WP:	0.100	Y_WP:	0.000	Y_WP:	0.500	X:	0.095	Y:	0.021	Z:	0.662	yaw:	0.210	yaw rate:	-19.479	Roll:	-1.242	Pitch:	1.265	Yaw:	1.505	Thrust:	48.851
Time:	4.745	Roll Set Point:	-0.089	Pitch Set Point:	-0.042	Yaw Set Point:	-0.005	X_WP:	0.100	Y_WP:	0.000	Y_WP:	0.500	X:	0.094	Y:	0.021	Z:	0.664	yaw:	0.279	yaw rate:	6.915	Roll:	-0.758	Pitch:	1.044	Yaw:	1.447	Thrust:	51.699
Time:	4.756	Roll Set Point:	-0.088	Pitch Set Point:	-0.042	Yaw Set Point:	-0.005	X_WP:	0.100	Y_WP:	0.000	Y_WP:	0.500	X:	0.094	Y:	0.021	Z:	0.666	yaw:	0.296	yaw rate:	1.714	Roll:	-0.814	Pitch:	1.093	Yaw:	0.310	Thrust:	40.143
Time:	4.769	Roll Set Point:	-0.087	Pitch Set Point:	-0.043	Yaw Set Point:	-0.006	X_WP:	0.100	Y_WP:	0.000	Y_WP:	0.500	X:	0.094	Y:	0.021	Z:	0.667	yaw:	0.325	yaw rate:	2.846	Roll:	-0.712	Pitch:	1.015	Yaw:	0.467	Thrust:	61.883
Time:	4.780	Roll Set Point:	-0.087	Pitch Set Point:	-0.043	Yaw Set Point:	-0.007	X_WP:	0.100	Y_WP:	0.000	Y_WP:	0.500	X:	0.093	Y:	0.021	Z:	0.668	yaw:	0.374	yaw rate:	4.912	Roll:	-0.783	Pitch:	1.106	Yaw:	1.136	Thrust:	48.582
Time:	4.796	Roll Set Point:	-0.086	Pitch Set Point:	-0.043	Yaw Set Point:	-0.008	X_WP:	0.100	Y_WP:	0.000	Y_WP:	0.500	X:	0.093	Y:	0.022	Z:	0.670	yaw:	0.443	yaw rate:	6.932	Roll:	-0.792	Pitch:	0.992	Yaw:	1.129	Thrust:	67.579
Time:	4.810	Roll Set Point:	-0.085	Pitch Set Point:	-0.045	Yaw Set Point:	-0.009	X_WP:	0.100	Y_WP:	0.000	Y_WP:	0.500	X:	0.092	Y:	0.022	Z:	0.672	yaw:	0.517	yaw rate:	1.737	Roll:	-1.092	Pitch:	1.629	Yaw:	1.303	Thrust:	69.654
Time:	4.827	Roll Set Point:	-0.084	Pitch Set Point:	-0.045	Yaw Set Point:	-0.010	X_WP:	0.100	Y_WP:	0.000	Y_WP:	0.500	X:	0.092	Y:	0.022	Z:	0.673	yaw:	0.575	yaw rate:	5.808	Roll:	-0.800	Pitch:	0.991	Yaw:	1.018	Thrust:	71.345
Time:	4.840	Roll Set Point:	-0.083	Pitch Set Point:	-0.046	Yaw Set Point:	-0.011	X_WP:	0.100	Y_WP:	0.000	Y_WP:	0.500	X:	0.091	Y:	0.023	Z:	0.674	yaw:	0.633	yaw rate:	3.606	Roll:	-0.879	Pitch:	1.282	Yaw:	1.314	Thrust:	71.231
Time:	4.851	Roll Set Point:	-0.083	Pitch Set Point:	-0.046	Yaw Set Point:	-0.012	X_WP:	0.100	Y_WP:	0.000	Y_WP:	0.500	X:	0.091	Y:	0.023	Z:	0.674	yaw:	0.670	yaw rate:	3.778	Roll:	-0.719	Pitch:	1.131	Yaw:	1.334	Thrust:	50.608
Time:	4.868	Roll Set Point:	-0.082	Pitch Set Point:	-0.046	Yaw Set Point:	-0.011	X_WP:	0.100	Y_WP:	0.000	Y_WP:	0.500	X:	0.091	Y:	0.023	Z:	0.674	yaw:	0.652	yaw rate:	-1.866	Roll:	-0.683	Pitch:	1.089	Yaw:	-0.092	Thrust:	72.405
Time:	4.879	Roll Set Point:	-0.082	Pitch Set Point:	-0.047	Yaw Set Point:	-0.012	X_WP:	0.100	Y_WP:	0.000	Y_WP:	0.500	X:	0.091	Y:	0.023	Z:	0.674	yaw:	0.692	yaw rate:	4.012	Roll:	-0.646	Pitch:	1.174	Yaw:	1.188	Thrust:	61.457
Time:	4.894	Roll Set Point:	-0.082	Pitch Set Point:	-0.047	Yaw Set Point:	-0.012	X_WP:	0.100	Y_WP:	0.000	Y_WP:	0.500	X:	0.091	Y:	0.024	Z:	0.673	yaw:	0.701	yaw rate:	0.953	Roll:	-0.585	Pitch:	1.316	Yaw:	0.590	Thrust:	51.337
Time:	4.909	Roll Set Point:	-0.081	Pitch Set Point:	-0.048	Yaw Set Point:	-0.012	X_WP:	0.100	Y_WP:	0.000	Y_WP:	0.500	X:	0.090	Y:	0.024	Z:	0.673	yaw:	0.672	yaw rate:	-0.138	Roll:	-0.824	Pitch:	1.367	Yaw:	-0.249	Thrust:	88.631
Time:	4.919	Roll Set Point:	-0.081	Pitch Set Point:	-0.048	Yaw Set Point:	-0.012	X_WP:	0.100	Y_WP:	0.000	Y_WP:	0.500	X:	0.090	Y:	0.024	Z:	0.673	yaw:	0.704	yaw rate:	3.145	Roll:	-0.661	Pitch:	1.159	Yaw:	1.362	Thrust:	45.329
Time:	4.931	Roll Set Point:	-0.080	Pitch Set Point:	-0.049	Yaw Set Point:	-0.013	X_WP:	0.100	Y_WP:	0.000	Y_WP:	0.500	X:	0.090	Y:	0.024	Z:	0.673	yaw:	0.737	yaw rate:	3.299	Roll:	-0.698	Pitch:	1.069	Yaw:	1.165	Thrust:	58.169
Time:	4.944	Roll Set Point:	-0.080	Pitch Set Point:	-0.049	Yaw Set Point:	-0.013	X_WP:	0.100	Y_WP:	0.000	Y_WP:	0.500	X:	0.090	Y:	0.024	Z:	0.672	yaw:	0.757	yaw rate:	2.083	Roll:	-0.619	Pitch:	1.126	Yaw:	0.947	Thrust:	58.192
Time:	4.955	Roll Set Point:	-0.080	Pitch Set Point:	-0.050	Yaw Set Point:	-0.012	X_WP:	0.100	Y_WP:	0.000	Y_WP:	0.500	X:	0.090	Y:	0.025	Z:	0.672	yaw:	0.711	yaw rate:	-4.681	Roll:	-0.890	Pitch:	1.421	Yaw:	-0.571	Thrust:	47.900
Time:	4.969	Roll Set Point:	-0.079	Pitch Set Point:	-0.050	Yaw Set Point:	-0.013	X_WP:	0.100	Y_WP:	0.000	Y_WP:	0.500	X:	0.089	Y:	0.025	Z:	0.672	yaw:	0.742	yaw rate:	3.091	Roll:	-0.626	Pitch:	1.168	Yaw:	1.049	Thrust:	68.019
Time:	4.980	Roll Set Point:	-0.079	Pitch Set Point:	-0.051	Yaw Set Point:	-0.014	X_WP:	0.100	Y_WP:	0.000	Y_WP:	0.500	X:	0.089	Y:	0.025	Z:	0.671	yaw:	0.777	yaw rate:	-14.350	Roll:	-0.798	Pitch:	1.499	Yaw:	1.442	Thrust:	49.692
Time:	4.996	Roll Set Point:	-0.079	Pitch Set Point:	-0.051	Yaw Set Point:	-0.014	X_WP:	0.100	Y_WP:	0.000	Y_WP:	0.500	X:	0.089	Y:	0.025	Z:	0.671	yaw:	0.777	yaw rate:	-14.350	Roll:	-0.483	Pitch:	0.972	Yaw:	0.423	Thrust:	69.489
Time:	5.008	Roll Set Point:	-0.078	Pitch Set Point:	-0.051	Yaw Set Point:	-0.013	X_WP:	0.100	Y_WP:	0.000	Y_WP:	0.500	X:	0.089	Y:	0.026	Z:	0.671	yaw:	0.763	yaw rate:	-1.247	Roll:	-0.779	Pitch:	1.372	Yaw:	0.251	Thrust:	59.224
Time:	5.018	Roll Set Point:	-0.078	Pitch Set Point:	-0.052	Yaw Set Point:	-0.013	X_WP:	0.100	Y_WP:	0.000	Y_WP:	0.500	X:	0.089	Y:	0.026	Z:	0.671	yaw:	0.734	yaw rate:	-2.924	Roll:	-0.506	Pitch:	1.355	Yaw:	-0.150	Thrust:	45.408
Time:	5.032	Roll Set Point:	-0.078	Pitch Set Point:	-0.052	Yaw Set Point:	-0.012	X_WP:	0.100	Y_WP:	0.000	Y_WP:	0.500	X:	0.089	Y:	0.026	Z:	0.671	yaw:	0.713	yaw rate:	-2.050	Roll:	-0.623	Pitch:	1.217	Yaw:	0.035	Thrust:	59.128
Time:	5.044	Roll Set Point:	-0.078	Pitch Set Point:	-0.053	Yaw Set Point:	-0.013	X_WP:	0.100	Y_WP:	0.000	Y_WP:	0.500	X:	0.089	Y:	0.026	Z:	0.671	yaw:	0.744	yaw rate:	3.100	Roll:	-0.625	Pitch:	1.200	Yaw:	1.215	Thrust:	55.995
Time:	5.057	Roll Set Point:	-0.078	Pitch Set Point:	-0.053	Yaw Set Point:	-0.012	X_WP:	0.100	Y_WP:	0.000	Y_WP:	0.500	X:	0.089	Y:	0.026	Z:	0.670	yaw:	0.690	yaw rate:	-5.417	Roll:	-0.635	Pitch:	1.173	Yaw:	-0.648	Thrust:	60.116
Time:	5.072	Roll Set Point:	-0.077	Pitch Set Point:	-0.054	Yaw Set Point:	-0.013	X_WP:	0.100	Y_WP:	0.000	Y_WP:	0.500	X:	0.088	Y:	0.027	Z:	0.669	yaw:	0.762	yaw rate:	3.501	Roll:	-0.800	Pitch:	1.462	Yaw:	1.758	Thrust:	67.848
Time:	5.083	Roll Set Point:	-0.077	Pitch Set Point:	-0.054	Yaw Set Point:	-0.013	X_WP:	0.100	Y_WP:	0.000	Y_WP:	0.500	X:	0.088	Y:	0.027	Z:	0.669	yaw:	0.734	yaw rate:	-2.738	Roll:	-0.637	Pitch:	1.209	Yaw:	-0.065	Thrust:	51.017
Time:	5.099	Roll Set Point:	-0.077	Pitch Set Point:	-0.055	Yaw Set Point:	-0.016	X_WP:	0.100	Y_WP:	0.000	Y_WP:	0.500	X:	0.088	Y:	0.027	Z:	0.669	yaw:	0.920	yaw rate:	18.532	Roll:	-0.384	Pitch:	1.399	Yaw:	3.656	Thrust:	71.101
Time:	5.114	Roll Set Point:	-0.077	Pitch Set Point:	-0.055	Yaw Set Point:	-0.012	X_WP:	0.100	Y_WP:	0.000	Y_WP:	0.500	X:	0.088	Y:	0.027	Z:	0.668	yaw:	0.686	yaw rate:	-23.355	Roll:	-0.725	Pitch:	1.085	Yaw:	-3.822	Thrust:	68.866
Time:	5.131	Roll Set Point:	-0.077	Pitch Set Point:	-0.055	Yaw Set Point:	-0.012	X_WP:	0.100	Y_WP:	0.000	Y_WP:	0.500	X:	0.088	Y:	0.027	Z:	0.667	yaw:	0.677	yaw rate:	-0.914	Roll:	-0.530	Pitch:	1.178	Yaw:	0.156	Thrust:	53.747
Time:	5.143	Roll Set Point:	-0.077	Pitch Set Point:	-0.056	Yaw Set Point:	-0.011	X_WP:	0.100	Y_WP:	0.000	Y_WP:	0.500	X:	0.088	Y:	0.028	Z:	0.666	yaw:	0.654	yaw rate:	-4.015	Roll:	-0.713	Pitch:	1.291	Yaw:	-0.061	Thrust:	81.962
Time:	5.158	Roll Set Point:	-0.076	Pitch Set Point:	-0.056	Yaw Set Point:	-0.012	X_WP:	0.100	Y_WP:	0.000	Y_WP:	0.500	X:	0.088	Y:	0.028	Z:	0.665	yaw:	0.660	yaw rate:	0.593	Roll:	-0.566	Pitch:	1.177	Yaw:	0.434	Thrust:	63.196
Time:	5.175	Roll Set Point:	-0.077	Pitch Set Point:	-0.057	Yaw Set Point:	-0.014	X_WP:	0.100	Y_WP:	0.000	Y_WP:	0.500	X:	0.088	Y:	0.028	Z:	0.663	yaw:	0.818	yaw rate:	17.494	Roll:	-0.523	Pitch:	1.596	Yaw:	2.980	Thrust:	84.417
Time:	5.185	Roll Set Point:	-0.076	Pitch Set Point:	-0.057	Yaw Set Point:	-0.011	X_WP:	0.100	Y_WP:	0.000	Y_WP:	0.500	X:	0.088	Y:	0.028	Z:	0.662	yaw:	0.605	yaw rate:	-21.225	Roll:	-0.824	Pitch:	0.905	Yaw:	-5.085	Thrust:	44.505
Time:	5.201	Roll Set Point:	-0.076	Pitch Set Point:	-0.057	Yaw Set Point:	-0.010	X_WP:	0.100	Y_WP:	0.000	Y_WP:	0.500	X:	0.088	Y:	0.028	Z:	0.661	yaw:	0.578	yaw rate:	-2.789	Roll:	-0.490	Pitch:	1.308	Yaw:	-0.265	Thrust:	70.574
Time:	5.211	Roll Set Point:	-0.076	Pitch Set Point:	-0.057	Yaw Set Point:	-0.010	X_WP:	0.100	Y_WP:	0.000	Y_WP:	0.500	X:	0.088	Y:	0.028	Z:	0.661	yaw:	0.598	yaw rate:	2.022	Roll:	-0.569	Pitch:	1.009	Yaw:	0.925	Thrust:	46.302
Time:	5.229	Roll Set Point:	-0.077	Pitch Set Point:	-0.058	Yaw Set Point:	-0.013	X_WP:	0.100	Y_WP:	0.000	Y_WP:	0.500	X:	0.088	Y:	0.029	Z:	0.660	yaw:	0.744	yaw rate:	14.648	Roll:	-0.216	Pitch:	1.496	Yaw:	2.632	Thrust:	69.720
Time:	5.241	Roll Set Point:	-0.076	Pitch Set Point:	-0.058	Yaw Set Point:	-0.008	X_WP:	0.100	Y_WP:	0.000	Y_WP:	0.500	X:	0.088	Y:	0.029	Z:	0.659	yaw:	0.455	yaw rate:	-22.278	Roll:	-0.851	Pitch:	0.996	Yaw:	-5.664	Thrust:	62.694
Time:	5.252	Roll Set Point:	-0.076	Pitch Set Point:	-0.058	Yaw Set Point:	-0.007	X_WP:	0.100	Y_WP:	0.000	Y_WP:	0.500	X:	0.088	Y:	0.029	Z:	0.659	yaw:	0.413	yaw rate:	-4.275	Roll:	-0.376	Pitch:	1.281	Yaw:	-0.858	Thrust:	48.732
Time:	5.267	Roll Set Point:	-0.076	Pitch Set Point:	-0.058	Yaw Set Point:	-0.006	X_WP:	0.100	Y_WP:	0.000	Y_WP:	0.500	X:	0.088	Y:	0.029	Z:	0.658	yaw:	0.357	yaw rate:	-5.597	Roll:	-0.487	Pitch:	1.213	Yaw:	-1.058	Thrust:	59.801
Time:	5.279	Roll Set Point:	-0.076	Pitch Set Point:	-0.058	Yaw Set Point:	-0.004	X_WP:	0.100	Y_WP:	0.000	Y_WP:	0.500	X:	0.088	Y:	0.029	Z:	0.658	yaw:	0.257	yaw rate:	-2.381	Roll:	-0.694	Pitch:	1.211	Yaw:	-2.256	Thrust:	53.391
Time:	5.295	Roll Set Point:	-0.076	Pitch Set Point:	-0.058	Yaw Set Point:	-0.004	X_WP:	0.100	Y_WP:	0.000	Y_WP:	0.500	X:	0.088	Y:	0.029	Z:	0.658	yaw:	0.257	yaw rate:	-2.381	Roll:	-0.510	Pitch:	1.087	Yaw:	-0.206	Thrust:	61.316
Time:	5.310	Roll Set Point:	-0.076	Pitch Set Point:	-0.059	Yaw Set Point:	-0.003	X_WP:	0.100	Y_WP:	0.000	Y_WP:	0.500	X:	0.088	Y:	0.030	Z:	0.657	yaw:	0.194	yaw rate:	-4.316	Roll:	-0.552	Pitch:	1.434	Yaw:	-1.373	Thrust:	69.510
Time:	5.332	Roll Set Point:	-0.076	Pitch Set Point:	-0.059	Yaw Set Point:	-0.004	X_WP:	0.100	Y_WP:	0.000	Y_WP:	0.500	X:	0.088	Y:	0.030	Z:	0.657	yaw:	0.234	yaw rate:	4.001	Roll:	-0.474	Pitch:	1.200	Yaw:	0.198	Thrust:	63.765
Time:	5.346	Roll Set Point:	-0.077	Pitch Set Point:	-0.060	Yaw Set Point:	-0.004	X_WP:	0.100	Y_WP:	0.000	Y_WP:	0.500	X:	0.088	Y:	0.030	Z:	0.656	yaw:	0.240	yaw rate:	4.035	Roll:	-0.614	Pitch:	1.380	Yaw:	-0.232	Thrust:	88.245
Time:	5.361	Roll Set Point:	-0.076	Pitch Set Point:	-0.060	Yaw Set Point:	-0.005	X_WP:	0.100	Y_WP:	0.000	Y_WP:	0.500	X:	0.088	Y:	0.030	Z:	0.656	yaw:	0.261	yaw rate:	2.139	Roll:	-0.592	Pitch:	1.088	Yaw:	0.383	Thrust:	54.095
Time:	5.377	Roll Set Point:	-0.077	Pitch Set Point:	-0.060	Yaw Set Point:	-0.003	X_WP:	0.100	Y_WP:	0.000	Y_WP:	0.500	X:	0.088	Y:	0.030	Z:	0.654	yaw:	0.198	yaw rate:	-4.747	Roll:	-0.474	Pitch:	1.572	Yaw:	-1.303	Thrust:	85.578
Time:	5.398	Roll Set Point:	-0.077	Pitch Set Point:	-0.061	Yaw Set Point:	-0.004	X_WP:	0.100	Y_WP:	0.000	Y_WP:	0.500	X:	0.088	Y:	0.030	Z:	0.654	yaw:	0.209	yaw rate:	1.085	Roll:	-0.400	Pitch:	1.235	Yaw:	-0.266	Thrust:	68.586
Time:	5.411	Roll Set Point:	-0.077	Pitch Set Point:	-0.061	Yaw Set Point:	-0.003	X_WP:	0.100	Y_WP:	0.000	Y_WP:	0.500	X:	0.088	Y:	0.030	Z:	0.652	yaw:	0.195	yaw rate:	-7.124	Roll:	-0.622	Pitch:	1.418	Yaw:	-0.537	Thrust:	82.383
Time:	5.433	Roll Set Point:	-0.077	Pitch Set Point:	-0.061	Yaw Set Point:	-0.007	X_WP:	0.100	Y_WP:	0.000	Y_WP:	0.500	X:	0.089	Y:	0.031	Z:	0.651	yaw:	0.379	yaw rate:	18.434	Roll:	-0.291	Pitch:	1.430	Yaw:	1.968	Thrust:	91.029
Time:	5.445	Roll Set Point:	-0.077	Pitch Set Point:	-0.062	Yaw Set Point:	-0.002	X_WP:	0.100	Y_WP:	0.000	Y_WP:	0.500	X:	0.089	Y:	0.031	Z:	0.651	yaw:	0.112	yaw rate:	-28.009	Roll:	-0.599	Pitch:	1.235	Yaw:	-6.317	Thrust:	50.724
Time:	5.458	Roll Set Point:	-0.077	Pitch Set Point:	-0.062	Yaw Set Point:	-0.001	X_WP:	0.100	Y_WP:	0.000	Y_WP:	0.500	X:	0.089	Y:	0.031	Z:	0.650	yaw:	0.068	yaw rate:	-4.408	Roll:	-0.476	Pitch:	1.232	Yaw:	-1.294	Thrust:	49.162
Time:	5.480	Roll Set Point:	-0.078	Pitch Set Point:	-0.062	Yaw Set Point:	0.001	X_WP:	0.100	Y_WP:	0.000	Y_WP:	0.500	X:	0.089	Y:	0.031	Z:	0.651	yaw:	-0.035	yaw rate:	-11.561	Roll:	-0.609	Pitch:	1.393	Yaw:	-2.064	Thrust:	93.256
Time:	5.499	Roll Set Point:	-0.078	Pitch Set Point:	-0.062	Yaw Set Point:	0.002	X_WP:	0.100	Y_WP:	0.000	Y_WP:	0.500	X:	0.089	Y:	0.031	Z:	0.651	yaw:	-0.116	yaw rate:	-8.137	Roll:	-0.542	Pitch:	1.328	Yaw:	-2.019	Thrust:	72.435
Time:	5.513	Roll Set Point:	-0.077	Pitch Set Point:	-0.062	Yaw Set Point:	0.002	X_WP:	0.100	Y_WP:	0.000	Y_WP:	0.500	X:	0.089	Y:	0.031	Z:	0.652	yaw:	-0.093	yaw rate:	2.338	Roll:	-0.679	Pitch:	1.235	Yaw:	-0.255	Thrust:	59.293
Time:	5.532	Roll Set Point:	-0.078	Pitch Set Point:	-0.063	Yaw Set Point:	0.005	X_WP:	0.100	Y_WP:	0.000	Y_WP:	0.500	X:	0.089	Y:	0.032	Z:	0.653	yaw:	-0.265	yaw rate:	-10.423	Roll:	-0.493	Pitch:	1.501	Yaw:	-3.387	Thrust:	71.119
Time:	5.545	Roll Set Point:	-0.078	Pitch Set Point:	-0.063	Yaw Set Point:	0.005	X_WP:	0.100	Y_WP:	0.000	Y_WP:	0.500	X:	0.089	Y:	0.032	Z:	0.654	yaw:	-0.278	yaw rate:	-1.373	Roll:	-0.562	Pitch:	1.285	Yaw:	-1.145	Thrust:	55.495
Time:	5.560	Roll Set Point:	-0.078	Pitch Set Point:	-0.064	Yaw Set Point:	0.004	X_WP:	0.100	Y_WP:	0.000	Y_WP:	0.500	X:	0.089	Y:	0.032	Z:	0.655	yaw:	-0.252	yaw rate:	0.314	Roll:	-0.497	Pitch:	1.517	Yaw:	-0.309	Thrust:	45.400
Time:	5.576	Roll Set Point:	-0.078	Pitch Set Point:	-0.064	Yaw Set Point:	0.005	X_WP:	0.100	Y_WP:	0.000	Y_WP:	0.500	X:	0.089	Y:	0.032	Z:	0.656	yaw:	-0.269	yaw rate:	-1.666	Roll:	-0.560	Pitch:	1.351	Yaw:	-1.287	Thrust:	65.924
Time:	5.595	Roll Set Point:	-0.078	Pitch Set Point:	-0.065	Yaw Set Point:	0.003	X_WP:	0.100	Y_WP:	0.000	Y_WP:	0.500	X:	0.089	Y:	0.032	Z:	0.658	yaw:	-0.189	yaw rate:	8.029	Roll:	-0.308	Pitch:	1.599	Yaw:	0.865	Thrust:	37.840
