Time:	2.141	Roll Set Point:	-0.017	Pitch Set Point:	0.032	Yaw Set Point:	-2.937	X_WP:	0.000	Y_WP:	0.000	Y_WP:	0.500	X:	0.163	Y:	0.066	Z:	0.404	yaw:	168.258	yaw rate:	-2.618	Roll:	-4.226	Pitch:	-2.839	Yaw:	234.932	Thrust:	5.253
Time:	2.156	Roll Set Point:	-0.017	Pitch Set Point:	0.032	Yaw Set Point:	-2.937	X_WP:	0.000	Y_WP:	0.000	Y_WP:	0.500	X:	0.163	Y:	0.066	Z:	0.404	yaw:	168.298	yaw rate:	4.089	Roll:	-4.285	Pitch:	-2.731	Yaw:	236.591	Thrust:	5.455
Time:	2.172	Roll Set Point:	-0.017	Pitch Set Point:	0.032	Yaw Set Point:	-2.937	X_WP:	0.000	Y_WP:	0.000	Y_WP:	0.500	X:	0.163	Y:	0.066	Z:	0.404	yaw:	168.298	yaw rate:	4.089	Roll:	-4.238	Pitch:	-2.844	Yaw:	236.552	Thrust:	5.612
Time:	2.188	Roll Set Point:	-0.017	Pitch Set Point:	0.032	Yaw Set Point:	-2.937	X_WP:	0.000	Y_WP:	0.000	Y_WP:	0.500	X:	0.163	Y:	0.066	Z:	0.404	yaw:	168.253	yaw rate:	-0.595	Roll:	-4.188	Pitch:	-2.968	Yaw:	235.728	Thrust:	5.855
Time:	2.203	Roll Set Point:	-0.017	Pitch Set Point:	0.032	Yaw Set Point:	-2.937	X_WP:	0.000	Y_WP:	0.000	Y_WP:	0.500	X:	0.163	Y:	0.066	Z:	0.404	yaw:	168.252	yaw rate:	-0.038	Roll:	-4.221	Pitch:	-2.844	Yaw:	236.477	Thrust:	5.875
Time:	2.219	Roll Set Point:	-0.017	Pitch Set Point:	0.032	Yaw Set Point:	-2.937	X_WP:	0.000	Y_WP:	0.000	Y_WP:	0.500	X:	0.163	Y:	0.066	Z:	0.404	yaw:	168.252	yaw rate:	-0.038	Roll:	-4.253	Pitch:	-2.858	Yaw:	236.488	Thrust:	6.149
Time:	2.235	Roll Set Point:	-0.017	Pitch Set Point:	0.032	Yaw Set Point:	-2.937	X_WP:	0.000	Y_WP:	0.000	Y_WP:	0.500	X:	0.163	Y:	0.066	Z:	0.404	yaw:	168.273	yaw rate:	0.714	Roll:	-4.304	Pitch:	-2.834	Yaw:	236.863	Thrust:	6.417
Time:	2.250	Roll Set Point:	-0.017	Pitch Set Point:	0.032	Yaw Set Point:	-2.937	X_WP:	0.000	Y_WP:	0.000	Y_WP:	0.500	X:	0.163	Y:	0.066	Z:	0.404	yaw:	168.273	yaw rate:	0.714	Roll:	-4.266	Pitch:	-2.865	Yaw:	236.519	Thrust:	6.511
Time:	2.266	Roll Set Point:	-0.017	Pitch Set Point:	0.032	Yaw Set Point:	-2.937	X_WP:	0.000	Y_WP:	0.000	Y_WP:	0.500	X:	0.163	Y:	0.066	Z:	0.404	yaw:	168.289	yaw rate:	1.644	Roll:	-4.282	Pitch:	-2.823	Yaw:	236.794	Thrust:	6.782
Time:	2.282	Roll Set Point:	-0.017	Pitch Set Point:	0.032	Yaw Set Point:	-2.937	X_WP:	0.000	Y_WP:	0.000	Y_WP:	0.500	X:	0.163	Y:	0.066	Z:	0.404	yaw:	168.289	yaw rate:	1.644	Roll:	-4.278	Pitch:	-2.872	Yaw:	236.538	Thrust:	6.869
Time:	2.297	Roll Set Point:	-0.017	Pitch Set Point:	0.032	Yaw Set Point:	-2.937	X_WP:	0.000	Y_WP:	0.000	Y_WP:	0.500	X:	0.163	Y:	0.066	Z:	0.404	yaw:	168.276	yaw rate:	-1.262	Roll:	-4.263	Pitch:	-2.913	Yaw:	236.312	Thrust:	6.878
Time:	2.313	Roll Set Point:	-0.017	Pitch Set Point:	0.032	Yaw Set Point:	-2.937	X_WP:	0.000	Y_WP:	0.000	Y_WP:	0.500	X:	0.163	Y:	0.066	Z:	0.404	yaw:	168.276	yaw rate:	-1.262	Roll:	-4.288	Pitch:	-2.880	Yaw:	236.517	Thrust:	7.220
Time:	2.328	Roll Set Point:	-0.017	Pitch Set Point:	0.032	Yaw Set Point:	-2.937	X_WP:	0.000	Y_WP:	0.000	Y_WP:	0.500	X:	0.163	Y:	0.066	Z:	0.404	yaw:	168.287	yaw rate:	1.762	Roll:	-4.324	Pitch:	-2.810	Yaw:	236.723	Thrust:	7.391
Time:	2.344	Roll Set Point:	-0.017	Pitch Set Point:	0.032	Yaw Set Point:	-2.937	X_WP:	0.000	Y_WP:	0.000	Y_WP:	0.500	X:	0.163	Y:	0.066	Z:	0.404	yaw:	168.283	yaw rate:	-0.444	Roll:	-4.283	Pitch:	-2.953	Yaw:	236.455	Thrust:	7.696
Time:	2.360	Roll Set Point:	-0.017	Pitch Set Point:	0.032	Yaw Set Point:	-2.937	X_WP:	0.000	Y_WP:	0.000	Y_WP:	0.500	X:	0.163	Y:	0.066	Z:	0.404	yaw:	168.257	yaw rate:	-2.567	Roll:	-4.271	Pitch:	-2.924	Yaw:	236.064	Thrust:	7.632
Time:	2.375	Roll Set Point:	-0.017	Pitch Set Point:	0.032	Yaw Set Point:	-2.937	X_WP:	0.000	Y_WP:	0.000	Y_WP:	0.500	X:	0.163	Y:	0.066	Z:	0.404	yaw:	168.293	yaw rate:	3.594	Roll:	-4.372	Pitch:	-2.827	Yaw:	237.146	Thrust:	8.028
Time:	2.391	Roll Set Point:	-0.017	Pitch Set Point:	0.032	Yaw Set Point:	-2.937	X_WP:	0.000	Y_WP:	0.000	Y_WP:	0.500	X:	0.163	Y:	0.066	Z:	0.404	yaw:	168.293	yaw rate:	3.594	Roll:	-4.318	Pitch:	-2.898	Yaw:	236.544	Thrust:	8.121
Time:	2.407	Roll Set Point:	-0.017	Pitch Set Point:	0.032	Yaw Set Point:	-2.937	X_WP:	0.000	Y_WP:	0.000	Y_WP:	0.500	X:	0.163	Y:	0.066	Z:	0.404	yaw:	168.288	yaw rate:	-0.475	Roll:	-4.315	Pitch:	-2.874	Yaw:	236.458	Thrust:	8.287
Time:	2.422	Roll Set Point:	-0.017	Pitch Set Point:	0.032	Yaw Set Point:	-2.936	X_WP:	0.000	Y_WP:	0.000	Y_WP:	0.500	X:	0.163	Y:	0.066	Z:	0.405	yaw:	168.243	yaw rate:	-5.172	Roll:	-4.238	Pitch:	-3.059	Yaw:	235.717	Thrust:	8.359
Time:	2.438	Roll Set Point:	-0.017	Pitch Set Point:	0.032	Yaw Set Point:	-2.937	X_WP:	0.000	Y_WP:	0.000	Y_WP:	0.500	X:	0.163	Y:	0.066	Z:	0.404	yaw:	168.275	yaw rate:	3.219	Roll:	-4.396	Pitch:	-2.823	Yaw:	237.061	Thrust:	8.911
Time:	2.453	Roll Set Point:	-0.017	Pitch Set Point:	0.032	Yaw Set Point:	-2.937	X_WP:	0.000	Y_WP:	0.000	Y_WP:	0.500	X:	0.163	Y:	0.066	Z:	0.405	yaw:	168.278	yaw rate:	0.285	Roll:	-4.373	Pitch:	-2.890	Yaw:	236.568	Thrust:	8.577
Time:	2.469	Roll Set Point:	-0.017	Pitch Set Point:	0.032	Yaw Set Point:	-2.937	X_WP:	0.000	Y_WP:	0.000	Y_WP:	0.500	X:	0.163	Y:	0.066	Z:	0.405	yaw:	168.278	yaw rate:	0.285	Roll:	-4.346	Pitch:	-2.918	Yaw:	236.526	Thrust:	9.021
Time:	2.485	Roll Set Point:	-0.017	Pitch Set Point:	0.032	Yaw Set Point:	-2.937	X_WP:	0.000	Y_WP:	0.000	Y_WP:	0.500	X:	0.163	Y:	0.066	Z:	0.404	yaw:	168.282	yaw rate:	0.430	Roll:	-4.354	Pitch:	-2.873	Yaw:	236.598	Thrust:	9.311
Time:	2.500	Roll Set Point:	-0.017	Pitch Set Point:	0.032	Yaw Set Point:	-2.937	X_WP:	0.000	Y_WP:	0.000	Y_WP:	0.500	X:	0.163	Y:	0.066	Z:	0.404	yaw:	168.288	yaw rate:	-1.136	Roll:	-4.347	Pitch:	-2.959	Yaw:	236.623	Thrust:	9.411
Time:	2.516	Roll Set Point:	-0.017	Pitch Set Point:	0.032	Yaw Set Point:	-2.937	X_WP:	0.000	Y_WP:	0.000	Y_WP:	0.500	X:	0.163	Y:	0.066	Z:	0.404	yaw:	168.267	yaw rate:	-2.050	Roll:	-4.322	Pitch:	-2.941	Yaw:	236.164	Thrust:	9.522
Time:	2.532	Roll Set Point:	-0.017	Pitch Set Point:	0.032	Yaw Set Point:	-2.937	X_WP:	0.000	Y_WP:	0.000	Y_WP:	0.500	X:	0.163	Y:	0.066	Z:	0.404	yaw:	168.302	yaw rate:	3.541	Roll:	-4.447	Pitch:	-2.896	Yaw:	237.151	Thrust:	9.790
Time:	2.547	Roll Set Point:	-0.017	Pitch Set Point:	0.032	Yaw Set Point:	-2.937	X_WP:	0.000	Y_WP:	0.000	Y_WP:	0.500	X:	0.163	Y:	0.066	Z:	0.405	yaw:	168.288	yaw rate:	-1.404	Roll:	-4.357	Pitch:	-2.946	Yaw:	236.302	Thrust:	9.742
Time:	2.563	Roll Set Point:	-0.017	Pitch Set Point:	0.032	Yaw Set Point:	-2.937	X_WP:	0.000	Y_WP:	0.000	Y_WP:	0.500	X:	0.163	Y:	0.066	Z:	0.405	yaw:	168.288	yaw rate:	-1.404	Roll:	-4.381	Pitch:	-2.940	Yaw:	236.538	Thrust:	10.090
Time:	2.578	Roll Set Point:	-0.017	Pitch Set Point:	0.032	Yaw Set Point:	-2.937	X_WP:	0.000	Y_WP:	0.000	Y_WP:	0.500	X:	0.163	Y:	0.066	Z:	0.404	yaw:	168.262	yaw rate:	-2.605	Roll:	-4.322	Pitch:	-3.017	Yaw:	236.064	Thrust:	10.450
Time:	2.594	Roll Set Point:	-0.017	Pitch Set Point:	0.032	Yaw Set Point:	-2.937	X_WP:	0.000	Y_WP:	0.000	Y_WP:	0.500	X:	0.163	Y:	0.066	Z:	0.404	yaw:	168.262	yaw rate:	-2.605	Roll:	-4.390	Pitch:	-2.949	Yaw:	236.501	Thrust:	10.451
Time:	2.610	Roll Set Point:	-0.017	Pitch Set Point:	0.032	Yaw Set Point:	-2.937	X_WP:	0.000	Y_WP:	0.000	Y_WP:	0.500	X:	0.163	Y:	0.066	Z:	0.404	yaw:	168.273	yaw rate:	1.097	Roll:	-4.408	Pitch:	-2.908	Yaw:	236.701	Thrust:	10.546
Time:	2.625	Roll Set Point:	-0.017	Pitch Set Point:	0.032	Yaw Set Point:	-2.937	X_WP:	0.000	Y_WP:	0.000	Y_WP:	0.500	X:	0.163	Y:	0.066	Z:	0.404	yaw:	168.273	yaw rate:	1.097	Roll:	-4.402	Pitch:	-2.956	Yaw:	236.516	Thrust:	10.806
Time:	2.641	Roll Set Point:	-0.017	Pitch Set Point:	0.032	Yaw Set Point:	-2.937	X_WP:	0.000	Y_WP:	0.000	Y_WP:	0.500	X:	0.163	Y:	0.066	Z:	0.404	yaw:	168.262	yaw rate:	-1.136	Roll:	-4.404	Pitch:	-2.967	Yaw:	236.310	Thrust:	10.932
Time:	2.657	Roll Set Point:	-0.017	Pitch Set Point:	0.032	Yaw Set Point:	-2.937	X_WP:	0.000	Y_WP:	0.000	Y_WP:	0.500	X:	0.163	Y:	0.066	Z:	0.404	yaw:	168.296	yaw rate:	3.389	Roll:	-4.490	Pitch:	-2.931	Yaw:	237.118	Thrust:	11.296
Time:	2.672	Roll Set Point:	-0.017	Pitch Set Point:	0.032	Yaw Set Point:	-2.937	X_WP:	0.000	Y_WP:	0.000	Y_WP:	0.500	X:	0.163	Y:	0.066	Z:	0.404	yaw:	168.296	yaw rate:	3.389	Roll:	-4.421	Pitch:	-2.967	Yaw:	236.548	Thrust:	11.346
Time:	2.688	Roll Set Point:	-0.017	Pitch Set Point:	0.032	Yaw Set Point:	-2.937	X_WP:	0.000	Y_WP:	0.000	Y_WP:	0.500	X:	0.163	Y:	0.066	Z:	0.404	yaw:	168.272	yaw rate:	-1.454	Roll:	-4.358	Pitch:	-3.005	Yaw:	236.118	Thrust:	11.388
Time:	2.703	Roll Set Point:	-0.017	Pitch Set Point:	0.032	Yaw Set Point:	-2.937	X_WP:	0.000	Y_WP:	0.000	Y_WP:	0.500	X:	0.163	Y:	0.066	Z:	0.404	yaw:	168.272	yaw rate:	-1.454	Roll:	-4.430	Pitch:	-2.975	Yaw:	236.512	Thrust:	11.689
Time:	2.719	Roll Set Point:	-0.017	Pitch Set Point:	0.032	Yaw Set Point:	-2.937	X_WP:	0.000	Y_WP:	0.000	Y_WP:	0.500	X:	0.163	Y:	0.066	Z:	0.404	yaw:	168.289	yaw rate:	1.665	Roll:	-4.475	Pitch:	-2.962	Yaw:	236.817	Thrust:	12.117
Time:	2.750	Roll Set Point:	-0.017	Pitch Set Point:	0.032	Yaw Set Point:	-2.937	X_WP:	0.000	Y_WP:	0.000	Y_WP:	0.500	X:	0.163	Y:	0.066	Z:	0.405	yaw:	168.265	yaw rate:	-2.335	Roll:	-4.631	Pitch:	-3.130	Yaw:	237.883	Thrust:	18.777
Time:	2.766	Roll Set Point:	-0.017	Pitch Set Point:	0.032	Yaw Set Point:	-2.937	X_WP:	0.000	Y_WP:	0.000	Y_WP:	0.500	X:	0.163	Y:	0.066	Z:	0.404	yaw:	168.266	yaw rate:	-5.273	Roll:	-4.449	Pitch:	-2.976	Yaw:	236.521	Thrust:	12.295
Time:	2.782	Roll Set Point:	-0.017	Pitch Set Point:	0.032	Yaw Set Point:	-2.937	X_WP:	0.000	Y_WP:	0.000	Y_WP:	0.500	X:	0.163	Y:	0.066	Z:	0.404	yaw:	168.283	yaw rate:	1.625	Roll:	-4.494	Pitch:	-2.996	Yaw:	236.802	Thrust:	12.524
Time:	2.797	Roll Set Point:	-0.017	Pitch Set Point:	0.032	Yaw Set Point:	-2.937	X_WP:	0.000	Y_WP:	0.000	Y_WP:	0.500	X:	0.163	Y:	0.066	Z:	0.404	yaw:	168.270	yaw rate:	-1.305	Roll:	-4.427	Pitch:	-3.013	Yaw:	236.293	Thrust:	12.564
Time:	2.813	Roll Set Point:	-0.017	Pitch Set Point:	0.032	Yaw Set Point:	-2.937	X_WP:	0.000	Y_WP:	0.000	Y_WP:	0.500	X:	0.163	Y:	0.066	Z:	0.404	yaw:	168.289	yaw rate:	1.953	Roll:	-4.534	Pitch:	-2.958	Yaw:	236.866	Thrust:	12.711
Time:	2.829	Roll Set Point:	-0.017	Pitch Set Point:	0.032	Yaw Set Point:	-2.937	X_WP:	0.000	Y_WP:	0.000	Y_WP:	0.500	X:	0.163	Y:	0.066	Z:	0.404	yaw:	168.289	yaw rate:	1.953	Roll:	-4.472	Pitch:	-3.001	Yaw:	236.539	Thrust:	12.956
Time:	2.844	Roll Set Point:	-0.017	Pitch Set Point:	0.032	Yaw Set Point:	-2.937	X_WP:	0.000	Y_WP:	0.000	Y_WP:	0.500	X:	0.163	Y:	0.066	Z:	0.404	yaw:	168.285	yaw rate:	1.641	Roll:	-4.435	Pitch:	-3.026	Yaw:	236.461	Thrust:	13.312
Time:	2.860	Roll Set Point:	-0.017	Pitch Set Point:	0.032	Yaw Set Point:	-2.936	X_WP:	0.000	Y_WP:	0.000	Y_WP:	0.500	X:	0.163	Y:	0.066	Z:	0.404	yaw:	168.243	yaw rate:	-4.181	Roll:	-4.407	Pitch:	-3.074	Yaw:	235.774	Thrust:	13.129
Time:	2.875	Roll Set Point:	-0.017	Pitch Set Point:	0.032	Yaw Set Point:	-2.937	X_WP:	0.000	Y_WP:	0.000	Y_WP:	0.500	X:	0.163	Y:	0.066	Z:	0.404	yaw:	168.279	yaw rate:	3.613	Roll:	-4.543	Pitch:	-2.948	Yaw:	237.130	Thrust:	13.600
Time:	2.891	Roll Set Point:	-0.017	Pitch Set Point:	0.032	Yaw Set Point:	-2.937	X_WP:	0.000	Y_WP:	0.000	Y_WP:	0.500	X:	0.163	Y:	0.066	Z:	0.404	yaw:	168.277	yaw rate:	-0.216	Roll:	-4.508	Pitch:	-3.045	Yaw:	236.485	Thrust:	13.641
Time:	2.907	Roll Set Point:	-0.017	Pitch Set Point:	0.032	Yaw Set Point:	-2.937	X_WP:	0.000	Y_WP:	0.000	Y_WP:	0.500	X:	0.163	Y:	0.066	Z:	0.404	yaw:	168.268	yaw rate:	-0.932	Roll:	-4.484	Pitch:	-2.991	Yaw:	236.352	Thrust:	13.754
Time:	2.922	Roll Set Point:	-0.017	Pitch Set Point:	0.032	Yaw Set Point:	-2.937	X_WP:	0.000	Y_WP:	0.000	Y_WP:	0.500	X:	0.163	Y:	0.066	Z:	0.404	yaw:	168.269	yaw rate:	0.145	Roll:	-4.500	Pitch:	-3.073	Yaw:	236.535	Thrust:	14.219
Time:	2.938	Roll Set Point:	-0.017	Pitch Set Point:	0.032	Yaw Set Point:	-2.937	X_WP:	0.000	Y_WP:	0.000	Y_WP:	0.500	X:	0.163	Y:	0.066	Z:	0.404	yaw:	168.269	yaw rate:	0.145	Roll:	-4.511	Pitch:	-3.030	Yaw:	236.514	Thrust:	14.230
Time:	2.954	Roll Set Point:	-0.017	Pitch Set Point:	0.032	Yaw Set Point:	-2.937	X_WP:	0.000	Y_WP:	0.000	Y_WP:	0.500	X:	0.163	Y:	0.066	Z:	0.404	yaw:	168.275	yaw rate:	0.581	Roll:	-4.530	Pitch:	-2.956	Yaw:	236.613	Thrust:	14.252
Time:	2.969	Roll Set Point:	-0.017	Pitch Set Point:	0.032	Yaw Set Point:	-2.937	X_WP:	0.000	Y_WP:	0.000	Y_WP:	0.500	X:	0.163	Y:	0.066	Z:	0.404	yaw:	168.284	yaw rate:	0.869	Roll:	-4.499	Pitch:	-3.049	Yaw:	236.679	Thrust:	14.653
Time:	2.985	Roll Set Point:	-0.017	Pitch Set Point:	0.032	Yaw Set Point:	-2.937	X_WP:	0.000	Y_WP:	0.000	Y_WP:	0.500	X:	0.163	Y:	0.066	Z:	0.404	yaw:	168.284	yaw rate:	0.869	Roll:	-4.527	Pitch:	-3.039	Yaw:	236.528	Thrust:	14.734
Time:	3.001	Roll Set Point:	-0.017	Pitch Set Point:	0.032	Yaw Set Point:	-2.937	X_WP:	0.000	Y_WP:	0.000	Y_WP:	0.500	X:	0.163	Y:	0.066	Z:	0.404	yaw:	168.279	yaw rate:	-0.506	Roll:	-4.570	Pitch:	-3.054	Yaw:	236.448	Thrust:	14.896
Time:	3.016	Roll Set Point:	-0.017	Pitch Set Point:	0.032	Yaw Set Point:	-2.937	X_WP:	0.000	Y_WP:	0.000	Y_WP:	0.500	X:	0.163	Y:	0.066	Z:	0.404	yaw:	168.270	yaw rate:	-1.126	Roll:	-4.526	Pitch:	-3.036	Yaw:	236.364	Thrust:	15.028
Time:	3.032	Roll Set Point:	-0.017	Pitch Set Point:	0.032	Yaw Set Point:	-2.937	X_WP:	0.000	Y_WP:	0.000	Y_WP:	0.500	X:	0.163	Y:	0.066	Z:	0.404	yaw:	168.294	yaw rate:	2.424	Roll:	-4.562	Pitch:	-3.039	Yaw:	236.951	Thrust:	15.427
Time:	3.047	Roll Set Point:	-0.017	Pitch Set Point:	0.032	Yaw Set Point:	-2.936	X_WP:	0.000	Y_WP:	0.000	Y_WP:	0.500	X:	0.163	Y:	0.066	Z:	0.404	yaw:	168.247	yaw rate:	-4.751	Roll:	-4.469	Pitch:	-3.176	Yaw:	235.684	Thrust:	15.397
Time:	3.063	Roll Set Point:	-0.017	Pitch Set Point:	0.032	Yaw Set Point:	-2.937	X_WP:	0.000	Y_WP:	0.000	Y_WP:	0.500	X:	0.163	Y:	0.066	Z:	0.404	yaw:	168.278	yaw rate:	3.063	Roll:	-4.619	Pitch:	-2.975	Yaw:	237.036	Thrust:	15.713
Time:	3.079	Roll Set Point:	-0.017	Pitch Set Point:	0.032	Yaw Set Point:	-2.937	X_WP:	0.000	Y_WP:	0.000	Y_WP:	0.500	X:	0.163	Y:	0.066	Z:	0.404	yaw:	168.282	yaw rate:	0.475	Roll:	-4.573	Pitch:	-3.048	Yaw:	236.609	Thrust:	15.687
Time:	3.094	Roll Set Point:	-0.017	Pitch Set Point:	0.032	Yaw Set Point:	-2.937	X_WP:	0.000	Y_WP:	0.000	Y_WP:	0.500	X:	0.163	Y:	0.066	Z:	0.404	yaw:	168.268	yaw rate:	-1.406	Roll:	-4.543	Pitch:	-3.105	Yaw:	236.274	Thrust:	16.020
Time:	3.110	Roll Set Point:	-0.017	Pitch Set Point:	0.032	Yaw Set Point:	-2.937	X_WP:	0.000	Y_WP:	0.000	Y_WP:	0.500	X:	0.163	Y:	0.066	Z:	0.404	yaw:	168.268	yaw rate:	-1.406	Roll:	-4.573	Pitch:	-3.071	Yaw:	236.509	Thrust:	16.181
Time:	3.125	Roll Set Point:	-0.017	Pitch Set Point:	0.032	Yaw Set Point:	-2.937	X_WP:	0.000	Y_WP:	0.000	Y_WP:	0.500	X:	0.163	Y:	0.066	Z:	0.404	yaw:	168.271	yaw rate:	1.767	Roll:	-4.583	Pitch:	-3.062	Yaw:	236.555	Thrust:	16.443
Time:	3.141	Roll Set Point:	-0.017	Pitch Set Point:	0.032	Yaw Set Point:	-2.937	X_WP:	0.000	Y_WP:	0.000	Y_WP:	0.500	X:	0.163	Y:	0.066	Z:	0.404	yaw:	168.271	yaw rate:	1.767	Roll:	-4.584	Pitch:	-3.078	Yaw:	236.512	Thrust:	16.537
Time:	3.157	Roll Set Point:	-0.017	Pitch Set Point:	0.032	Yaw Set Point:	-2.937	X_WP:	0.000	Y_WP:	0.000	Y_WP:	0.500	X:	0.163	Y:	0.066	Z:	0.404	yaw:	168.271	yaw rate:	-3.480	Roll:	-4.574	Pitch:	-3.085	Yaw:	236.519	Thrust:	16.745
Time:	3.172	Roll Set Point:	-0.017	Pitch Set Point:	0.032	Yaw Set Point:	-2.937	X_WP:	0.000	Y_WP:	0.000	Y_WP:	0.500	X:	0.163	Y:	0.066	Z:	0.404	yaw:	168.276	yaw rate:	0.517	Roll:	-4.606	Pitch:	-3.060	Yaw:	236.607	Thrust:	16.787
Time:	3.188	Roll Set Point:	-0.017	Pitch Set Point:	0.032	Yaw Set Point:	-2.937	X_WP:	0.000	Y_WP:	0.000	Y_WP:	0.500	X:	0.163	Y:	0.066	Z:	0.404	yaw:	168.299	yaw rate:	2.244	Roll:	-4.656	Pitch:	-3.049	Yaw:	236.928	Thrust:	17.210
Time:	3.204	Roll Set Point:	-0.017	Pitch Set Point:	0.032	Yaw Set Point:	-2.937	X_WP:	0.000	Y_WP:	0.000	Y_WP:	0.500	X:	0.163	Y:	0.066	Z:	0.404	yaw:	168.299	yaw rate:	2.244	Roll:	-4.608	Pitch:	-3.092	Yaw:	236.552	Thrust:	17.259
Time:	3.219	Roll Set Point:	-0.017	Pitch Set Point:	0.032	Yaw Set Point:	-2.937	X_WP:	0.000	Y_WP:	0.000	Y_WP:	0.500	X:	0.163	Y:	0.066	Z:	0.404	yaw:	168.304	yaw rate:	0.526	Roll:	-4.605	Pitch:	-3.059	Yaw:	236.650	Thrust:	17.361
Time:	3.235	Roll Set Point:	-0.017	Pitch Set Point:	0.032	Yaw Set Point:	-2.937	X_WP:	0.000	Y_WP:	0.000	Y_WP:	0.500	X:	0.163	Y:	0.066	Z:	0.404	yaw:	168.280	yaw rate:	-0.605	Roll:	-4.600	Pitch:	-3.256	Yaw:	236.123	Thrust:	17.743
Time:	3.250	Roll Set Point:	-0.017	Pitch Set Point:	0.032	Yaw Set Point:	-2.937	X_WP:	0.000	Y_WP:	0.000	Y_WP:	0.500	X:	0.163	Y:	0.066	Z:	0.405	yaw:	168.255	yaw rate:	-2.532	Roll:	-4.583	Pitch:	-3.063	Yaw:	236.062	Thrust:	17.539
Time:	3.266	Roll Set Point:	-0.017	Pitch Set Point:	0.032	Yaw Set Point:	-2.937	X_WP:	0.000	Y_WP:	0.000	Y_WP:	0.500	X:	0.163	Y:	0.066	Z:	0.404	yaw:	168.305	yaw rate:	5.084	Roll:	-4.705	Pitch:	-2.971	Yaw:	237.413	Thrust:	18.202
Time:	3.282	Roll Set Point:	-0.017	Pitch Set Point:	0.032	Yaw Set Point:	-2.937	X_WP:	0.000	Y_WP:	0.000	Y_WP:	0.500	X:	0.163	Y:	0.066	Z:	0.404	yaw:	168.281	yaw rate:	-2.466	Roll:	-4.592	Pitch:	-3.226	Yaw:	236.114	Thrust:	18.053
Time:	3.297	Roll Set Point:	-0.017	Pitch Set Point:	0.032	Yaw Set Point:	-2.937	X_WP:	0.000	Y_WP:	0.000	Y_WP:	0.500	X:	0.163	Y:	0.066	Z:	0.404	yaw:	168.268	yaw rate:	-1.248	Roll:	-4.618	Pitch:	-3.139	Yaw:	236.300	Thrust:	18.272
Time:	3.313	Roll Set Point:	-0.017	Pitch Set Point:	0.032	Yaw Set Point:	-2.937	X_WP:	0.000	Y_WP:	0.000	Y_WP:	0.500	X:	0.163	Y:	0.066	Z:	0.404	yaw:	168.265	yaw rate:	-0.312	Roll:	-4.652	Pitch:	-3.134	Yaw:	236.453	Thrust:	18.592
Time:	3.329	Roll Set Point:	-0.017	Pitch Set Point:	0.032	Yaw Set Point:	-2.937	X_WP:	0.000	Y_WP:	0.000	Y_WP:	0.500	X:	0.163	Y:	0.066	Z:	0.404	yaw:	168.294	yaw rate:	2.893	Roll:	-4.691	Pitch:	-3.011	Yaw:	237.030	Thrust:	18.688
Time:	3.344	Roll Set Point:	-0.017	Pitch Set Point:	0.032	Yaw Set Point:	-2.937	X_WP:	0.000	Y_WP:	0.000	Y_WP:	0.500	X:	0.163	Y:	0.066	Z:	0.404	yaw:	168.294	yaw rate:	0.007	Roll:	-4.665	Pitch:	-3.119	Yaw:	236.547	Thrust:	18.818
Time:	3.360	Roll Set Point:	-0.017	Pitch Set Point:	0.032	Yaw Set Point:	-2.937	X_WP:	0.000	Y_WP:	0.000	Y_WP:	0.500	X:	0.163	Y:	0.066	Z:	0.404	yaw:	168.284	yaw rate:	-1.047	Roll:	-4.659	Pitch:	-3.205	Yaw:	236.359	Thrust:	19.101
Time:	3.375	Roll Set Point:	-0.017	Pitch Set Point:	0.032	Yaw Set Point:	-2.937	X_WP:	0.000	Y_WP:	0.000	Y_WP:	0.500	X:	0.163	Y:	0.066	Z:	0.404	yaw:	168.283	yaw rate:	-0.071	Roll:	-4.653	Pitch:	-3.153	Yaw:	236.515	Thrust:	19.233
Time:	3.391	Roll Set Point:	-0.017	Pitch Set Point:	0.032	Yaw Set Point:	-2.937	X_WP:	0.000	Y_WP:	0.000	Y_WP:	0.500	X:	0.163	Y:	0.066	Z:	0.404	yaw:	168.275	yaw rate:	-0.769	Roll:	-4.652	Pitch:	-3.081	Yaw:	236.390	Thrust:	19.418
Time:	3.407	Roll Set Point:	-0.017	Pitch Set Point:	0.032	Yaw Set Point:	-2.938	X_WP:	0.000	Y_WP:	0.000	Y_WP:	0.500	X:	0.163	Y:	0.066	Z:	0.404	yaw:	168.310	yaw rate:	3.497	Roll:	-4.761	Pitch:	-3.076	Yaw:	237.156	Thrust:	19.563
Time:	3.422	Roll Set Point:	-0.017	Pitch Set Point:	0.032	Yaw Set Point:	-2.937	X_WP:	0.000	Y_WP:	0.000	Y_WP:	0.500	X:	0.163	Y:	0.066	Z:	0.404	yaw:	168.264	yaw rate:	-4.639	Roll:	-4.598	Pitch:	-3.309	Yaw:	235.726	Thrust:	19.739
Time:	3.438	Roll Set Point:	-0.017	Pitch Set Point:	0.032	Yaw Set Point:	-2.937	X_WP:	0.000	Y_WP:	0.000	Y_WP:	0.500	X:	0.163	Y:	0.066	Z:	0.404	yaw:	168.264	yaw rate:	-4.639	Roll:	-4.694	Pitch:	-3.153	Yaw:	236.509	Thrust:	19.999
Time:	3.454	Roll Set Point:	-0.017	Pitch Set Point:	0.032	Yaw Set Point:	-2.937	X_WP:	0.000	Y_WP:	0.000	Y_WP:	0.500	X:	0.163	Y:	0.066	Z:	0.404	yaw:	168.294	yaw rate:	3.057	Roll:	-4.774	Pitch:	-3.056	Yaw:	237.056	Thrust:	20.073
Time:	3.469	Roll Set Point:	-0.017	Pitch Set Point:	0.032	Yaw Set Point:	-2.938	X_WP:	0.000	Y_WP:	0.000	Y_WP:	0.500	X:	0.163	Y:	0.066	Z:	0.404	yaw:	168.321	yaw rate:	2.690	Roll:	-4.731	Pitch:	-3.066	Yaw:	237.030	Thrust:	20.354
Time:	3.485	Roll Set Point:	-0.017	Pitch Set Point:	0.032	Yaw Set Point:	-2.938	X_WP:	0.000	Y_WP:	0.000	Y_WP:	0.500	X:	0.163	Y:	0.066	Z:	0.404	yaw:	168.321	yaw rate:	2.690	Roll:	-4.712	Pitch:	-3.159	Yaw:	236.584	Thrust:	20.483
Time:	3.500	Roll Set Point:	-0.017	Pitch Set Point:	0.032	Yaw Set Point:	-2.937	X_WP:	0.000	Y_WP:	0.000	Y_WP:	0.500	X:	0.163	Y:	0.066	Z:	0.404	yaw:	168.272	yaw rate:	2.961	Roll:	-4.645	Pitch:	-3.385	Yaw:	235.693	Thrust:	20.643
Time:	3.516	Roll Set Point:	-0.017	Pitch Set Point:	0.032	Yaw Set Point:	-2.937	X_WP:	0.000	Y_WP:	0.000	Y_WP:	0.500	X:	0.163	Y:	0.066	Z:	0.404	yaw:	168.293	yaw rate:	2.065	Roll:	-4.761	Pitch:	-3.002	Yaw:	236.890	Thrust:	20.818
Time:	3.532	Roll Set Point:	-0.017	Pitch Set Point:	0.032	Yaw Set Point:	-2.937	X_WP:	0.000	Y_WP:	0.000	Y_WP:	0.500	X:	0.163	Y:	0.066	Z:	0.404	yaw:	168.300	yaw rate:	0.725	Roll:	-4.736	Pitch:	-3.139	Yaw:	236.675	Thrust:	21.059
Time:	3.547	Roll Set Point:	-0.017	Pitch Set Point:	0.032	Yaw Set Point:	-2.937	X_WP:	0.000	Y_WP:	0.000	Y_WP:	0.500	X:	0.163	Y:	0.066	Z:	0.404	yaw:	168.300	yaw rate:	0.725	Roll:	-4.735	Pitch:	-3.175	Yaw:	236.557	Thrust:	21.228
Time:	3.563	Roll Set Point:	-0.017	Pitch Set Point:	0.032	Yaw Set Point:	-2.937	X_WP:	0.000	Y_WP:	0.000	Y_WP:	0.500	X:	0.163	Y:	0.066	Z:	0.404	yaw:	168.250	yaw rate:	-3.535	Roll:	-4.628	Pitch:	-3.375	Yaw:	235.633	Thrust:	21.279
Time:	3.579	Roll Set Point:	-0.017	Pitch Set Point:	0.032	Yaw Set Point:	-2.937	X_WP:	0.000	Y_WP:	0.000	Y_WP:	0.500	X:	0.163	Y:	0.066	Z:	0.404	yaw:	168.250	yaw rate:	-3.535	Roll:	-4.742	Pitch:	-3.187	Yaw:	236.483	Thrust:	21.555
Time:	3.594	Roll Set Point:	-0.017	Pitch Set Point:	0.032	Yaw Set Point:	-2.937	X_WP:	0.000	Y_WP:	0.000	Y_WP:	0.500	X:	0.163	Y:	0.066	Z:	0.404	yaw:	168.297	yaw rate:	0.335	Roll:	-4.870	Pitch:	-3.014	Yaw:	237.347	Thrust:	21.773
Time:	3.610	Roll Set Point:	-0.017	Pitch Set Point:	0.032	Yaw Set Point:	-2.937	X_WP:	0.000	Y_WP:	0.000	Y_WP:	0.500	X:	0.163	Y:	0.066	Z:	0.404	yaw:	168.305	yaw rate:	0.756	Roll:	-4.744	Pitch:	-3.202	Yaw:	236.687	Thrust:	21.917
Time:	3.625	Roll Set Point:	-0.017	Pitch Set Point:	0.032	Yaw Set Point:	-2.937	X_WP:	0.000	Y_WP:	0.000	Y_WP:	0.500	X:	0.163	Y:	0.066	Z:	0.404	yaw:	168.305	yaw rate:	0.756	Roll:	-4.762	Pitch:	-3.194	Yaw:	236.560	Thrust:	22.094
Time:	3.641	Roll Set Point:	-0.017	Pitch Set Point:	0.032	Yaw Set Point:	-2.937	X_WP:	0.000	Y_WP:	0.000	Y_WP:	0.500	X:	0.163	Y:	0.066	Z:	0.404	yaw:	168.299	yaw rate:	2.508	Roll:	-4.750	Pitch:	-3.240	Yaw:	236.448	Thrust:	22.318
Time:	3.657	Roll Set Point:	-0.017	Pitch Set Point:	0.032	Yaw Set Point:	-2.937	X_WP:	0.000	Y_WP:	0.000	Y_WP:	0.500	X:	0.163	Y:	0.066	Z:	0.404	yaw:	168.264	yaw rate:	-3.464	Roll:	-4.722	Pitch:	-3.181	Yaw:	235.923	Thrust:	22.312
Time:	3.672	Roll Set Point:	-0.017	Pitch Set Point:	0.032	Yaw Set Point:	-2.937	X_WP:	0.000	Y_WP:	0.000	Y_WP:	0.500	X:	0.163	Y:	0.066	Z:	0.404	yaw:	168.293	yaw rate:	2.911	Roll:	-4.833	Pitch:	-3.252	Yaw:	237.032	Thrust:	22.777
Time:	3.688	Roll Set Point:	-0.017	Pitch Set Point:	0.032	Yaw Set Point:	-2.937	X_WP:	0.000	Y_WP:	0.000	Y_WP:	0.500	X:	0.163	Y:	0.066	Z:	0.405	yaw:	168.279	yaw rate:	-1.364	Roll:	-4.761	Pitch:	-3.248	Yaw:	236.300	Thrust:	22.660
Time:	3.704	Roll Set Point:	-0.017	Pitch Set Point:	0.032	Yaw Set Point:	-2.937	X_WP:	0.000	Y_WP:	0.000	Y_WP:	0.500	X:	0.163	Y:	0.066	Z:	0.404	yaw:	168.300	yaw rate:	2.023	Roll:	-4.842	Pitch:	-3.122	Yaw:	236.890	Thrust:	23.044
Time:	3.719	Roll Set Point:	-0.017	Pitch Set Point:	0.032	Yaw Set Point:	-2.937	X_WP:	0.000	Y_WP:	0.000	Y_WP:	0.500	X:	0.163	Y:	0.066	Z:	0.404	yaw:	168.285	yaw rate:	-1.451	Roll:	-4.747	Pitch:	-3.237	Yaw:	236.290	Thrust:	23.256
Time:	3.734	Roll Set Point:	-0.017	Pitch Set Point:	0.031	Yaw Set Point:	-2.938	X_WP:	0.000	Y_WP:	0.000	Y_WP:	0.500	X:	0.163	Y:	0.066	Z:	0.404	yaw:	168.342	yaw rate:	5.649	Roll:	-4.899	Pitch:	-3.061	Yaw:	237.523	Thrust:	22.181
Time:	3.752	Roll Set Point:	-0.017	Pitch Set Point:	0.031	Yaw Set Point:	-2.938	X_WP:	0.000	Y_WP:	0.000	Y_WP:	0.500	X:	0.163	Y:	0.066	Z:	0.404	yaw:	168.342	yaw rate:	5.649	Roll:	-4.887	Pitch:	-3.274	Yaw:	236.819	Thrust:	25.946
Time:	3.767	Roll Set Point:	-0.017	Pitch Set Point:	0.032	Yaw Set Point:	-2.937	X_WP:	0.000	Y_WP:	0.000	Y_WP:	0.500	X:	0.163	Y:	0.066	Z:	0.404	yaw:	168.275	yaw rate:	-6.628	Roll:	-4.665	Pitch:	-3.423	Yaw:	235.409	Thrust:	23.575
Time:	3.783	Roll Set Point:	-0.017	Pitch Set Point:	0.031	Yaw Set Point:	-2.938	X_WP:	0.000	Y_WP:	0.000	Y_WP:	0.500	X:	0.163	Y:	0.066	Z:	0.404	yaw:	168.340	yaw rate:	6.511	Roll:	-4.953	Pitch:	-3.073	Yaw:	237.701	Thrust:	24.110
Time:	3.799	Roll Set Point:	-0.017	Pitch Set Point:	0.031	Yaw Set Point:	-2.938	X_WP:	0.000	Y_WP:	0.000	Y_WP:	0.500	X:	0.163	Y:	0.066	Z:	0.404	yaw:	168.340	yaw rate:	6.511	Roll:	-4.821	Pitch:	-3.238	Yaw:	236.625	Thrust:	24.248
Time:	3.817	Roll Set Point:	-0.017	Pitch Set Point:	0.032	Yaw Set Point:	-2.937	X_WP:	0.000	Y_WP:	0.000	Y_WP:	0.500	X:	0.163	Y:	0.066	Z:	0.404	yaw:	168.298	yaw rate:	0.887	Roll:	-4.850	Pitch:	-3.482	Yaw:	236.257	Thrust:	27.926
Time:	3.833	Roll Set Point:	-0.017	Pitch Set Point:	0.032	Yaw Set Point:	-2.937	X_WP:	0.000	Y_WP:	0.000	Y_WP:	0.500	X:	0.163	Y:	0.066	Z:	0.404	yaw:	168.274	yaw rate:	-2.328	Roll:	-4.767	Pitch:	-3.186	Yaw:	236.132	Thrust:	24.292
Time:	3.849	Roll Set Point:	-0.017	Pitch Set Point:	0.032	Yaw Set Point:	-2.937	X_WP:	0.000	Y_WP:	0.000	Y_WP:	0.500	X:	0.163	Y:	0.066	Z:	0.404	yaw:	168.274	yaw rate:	-2.328	Roll:	-4.810	Pitch:	-3.249	Yaw:	236.514	Thrust:	24.554
Time:	3.864	Roll Set Point:	-0.017	Pitch Set Point:	0.032	Yaw Set Point:	-2.937	X_WP:	0.000	Y_WP:	0.000	Y_WP:	0.500	X:	0.163	Y:	0.066	Z:	0.404	yaw:	168.281	yaw rate:	-3.613	Roll:	-4.838	Pitch:	-3.239	Yaw:	236.653	Thrust:	24.930
Time:	3.880	Roll Set Point:	-0.017	Pitch Set Point:	0.032	Yaw Set Point:	-2.937	X_WP:	0.000	Y_WP:	0.000	Y_WP:	0.500	X:	0.163	Y:	0.066	Z:	0.404	yaw:	168.281	yaw rate:	-3.613	Roll:	-4.812	Pitch:	-3.257	Yaw:	236.528	Thrust:	24.958
Time:	3.895	Roll Set Point:	-0.017	Pitch Set Point:	0.032	Yaw Set Point:	-2.937	X_WP:	0.000	Y_WP:	0.000	Y_WP:	0.500	X:	0.163	Y:	0.066	Z:	0.404	yaw:	168.280	yaw rate:	-1.598	Roll:	-4.814	Pitch:	-3.306	Yaw:	236.487	Thrust:	25.120
Time:	3.911	Roll Set Point:	-0.017	Pitch Set Point:	0.032	Yaw Set Point:	-2.937	X_WP:	0.000	Y_WP:	0.000	Y_WP:	0.500	X:	0.163	Y:	0.066	Z:	0.404	yaw:	168.272	yaw rate:	-0.798	Roll:	-4.792	Pitch:	-3.251	Yaw:	236.381	Thrust:	25.304
Time:	3.927	Roll Set Point:	-0.017	Pitch Set Point:	0.032	Yaw Set Point:	-2.937	X_WP:	0.000	Y_WP:	0.000	Y_WP:	0.500	X:	0.163	Y:	0.066	Z:	0.404	yaw:	168.272	yaw rate:	-0.798	Roll:	-4.813	Pitch:	-3.270	Yaw:	236.517	Thrust:	25.539
Time:	3.942	Roll Set Point:	-0.017	Pitch Set Point:	0.032	Yaw Set Point:	-2.937	X_WP:	0.000	Y_WP:	0.000	Y_WP:	0.500	X:	0.163	Y:	0.066	Z:	0.404	yaw:	168.254	yaw rate:	-6.248	Roll:	-4.760	Pitch:	-3.304	Yaw:	236.184	Thrust:	25.532
Time:	3.958	Roll Set Point:	-0.017	Pitch Set Point:	0.032	Yaw Set Point:	-2.937	X_WP:	0.000	Y_WP:	0.000	Y_WP:	0.500	X:	0.163	Y:	0.066	Z:	0.404	yaw:	168.306	yaw rate:	5.267	Roll:	-4.922	Pitch:	-3.194	Yaw:	237.445	Thrust:	25.970
Time:	3.974	Roll Set Point:	-0.017	Pitch Set Point:	0.032	Yaw Set Point:	-2.937	X_WP:	0.000	Y_WP:	0.000	Y_WP:	0.500	X:	0.163	Y:	0.066	Z:	0.404	yaw:	168.306	yaw rate:	5.267	Roll:	-4.815	Pitch:	-3.280	Yaw:	236.566	Thrust:	26.077
Time:	3.989	Roll Set Point:	-0.017	Pitch Set Point:	0.032	Yaw Set Point:	-2.937	X_WP:	0.000	Y_WP:	0.000	Y_WP:	0.500	X:	0.163	Y:	0.066	Z:	0.404	yaw:	168.286	yaw rate:	-2.013	Roll:	-4.771	Pitch:	-3.307	Yaw:	236.193	Thrust:	26.182
Time:	4.005	Roll Set Point:	-0.017	Pitch Set Point:	0.032	Yaw Set Point:	-2.937	X_WP:	0.000	Y_WP:	0.000	Y_WP:	0.500	X:	0.163	Y:	0.066	Z:	0.404	yaw:	168.286	yaw rate:	-2.013	Roll:	-4.812	Pitch:	-3.287	Yaw:	236.535	Thrust:	26.397
Time:	4.020	Roll Set Point:	-0.017	Pitch Set Point:	0.032	Yaw Set Point:	-2.937	X_WP:	0.000	Y_WP:	0.000	Y_WP:	0.500	X:	0.163	Y:	0.066	Z:	0.405	yaw:	168.296	yaw rate:	3.582	Roll:	-4.833	Pitch:	-3.219	Yaw:	236.718	Thrust:	26.418
Time:	4.036	Roll Set Point:	-0.017	Pitch Set Point:	0.032	Yaw Set Point:	-2.937	X_WP:	0.000	Y_WP:	0.000	Y_WP:	0.500	X:	0.163	Y:	0.066	Z:	0.404	yaw:	168.300	yaw rate:	0.430	Roll:	-4.818	Pitch:	-3.294	Yaw:	236.627	Thrust:	26.828
Time:	4.052	Roll Set Point:	-0.017	Pitch Set Point:	0.032	Yaw Set Point:	-2.937	X_WP:	0.000	Y_WP:	0.000	Y_WP:	0.500	X:	0.163	Y:	0.066	Z:	0.404	yaw:	168.295	yaw rate:	-0.536	Roll:	-4.818	Pitch:	-3.367	Yaw:	236.458	Thrust:	27.049
Time:	4.067	Roll Set Point:	-0.017	Pitch Set Point:	0.032	Yaw Set Point:	-2.937	X_WP:	0.000	Y_WP:	0.000	Y_WP:	0.500	X:	0.163	Y:	0.066	Z:	0.405	yaw:	168.252	yaw rate:	-4.318	Roll:	-4.726	Pitch:	-3.391	Yaw:	235.763	Thrust:	26.899
Time:	4.083	Roll Set Point:	-0.017	Pitch Set Point:	0.032	Yaw Set Point:	-2.938	X_WP:	0.000	Y_WP:	0.000	Y_WP:	0.500	X:	0.163	Y:	0.066	Z:	0.404	yaw:	168.313	yaw rate:	6.094	Roll:	-4.915	Pitch:	-3.207	Yaw:	237.593	Thrust:	27.555
Time:	4.099	Roll Set Point:	-0.017	Pitch Set Point:	0.032	Yaw Set Point:	-2.938	X_WP:	0.000	Y_WP:	0.000	Y_WP:	0.500	X:	0.163	Y:	0.066	Z:	0.404	yaw:	168.313	yaw rate:	6.094	Roll:	-4.814	Pitch:	-3.310	Yaw:	236.572	Thrust:	27.471
Time:	4.114	Roll Set Point:	-0.017	Pitch Set Point:	0.032	Yaw Set Point:	-2.937	X_WP:	0.000	Y_WP:	0.000	Y_WP:	0.500	X:	0.163	Y:	0.066	Z:	0.404	yaw:	168.268	yaw rate:	-4.487	Roll:	-4.713	Pitch:	-3.304	Yaw:	235.761	Thrust:	27.512
Time:	4.130	Roll Set Point:	-0.017	Pitch Set Point:	0.032	Yaw Set Point:	-2.937	X_WP:	0.000	Y_WP:	0.000	Y_WP:	0.500	X:	0.163	Y:	0.066	Z:	0.404	yaw:	168.268	yaw rate:	-4.487	Roll:	-4.811	Pitch:	-3.317	Yaw:	236.509	Thrust:	27.831
Time:	4.145	Roll Set Point:	-0.017	Pitch Set Point:	0.032	Yaw Set Point:	-2.938	X_WP:	0.000	Y_WP:	0.000	Y_WP:	0.500	X:	0.163	Y:	0.066	Z:	0.404	yaw:	168.317	yaw rate:	5.488	Roll:	-4.917	Pitch:	-3.233	Yaw:	237.400	Thrust:	27.959
Time:	4.161	Roll Set Point:	-0.017	Pitch Set Point:	0.032	Yaw Set Point:	-2.937	X_WP:	0.000	Y_WP:	0.000	Y_WP:	0.500	X:	0.163	Y:	0.066	Z:	0.404	yaw:	168.301	yaw rate:	-1.653	Roll:	-4.765	Pitch:	-3.352	Yaw:	236.278	Thrust:	28.230
Time:	4.177	Roll Set Point:	-0.017	Pitch Set Point:	0.032	Yaw Set Point:	-2.937	X_WP:	0.000	Y_WP:	0.000	Y_WP:	0.500	X:	0.163	Y:	0.066	Z:	0.404	yaw:	168.301	yaw rate:	-1.653	Roll:	-4.813	Pitch:	-3.328	Yaw:	236.556	Thrust:	28.384
Time:	4.192	Roll Set Point:	-0.017	Pitch Set Point:	0.032	Yaw Set Point:	-2.937	X_WP:	0.000	Y_WP:	0.000	Y_WP:	0.500	X:	0.163	Y:	0.066	Z:	0.404	yaw:	168.291	yaw rate:	-0.959	Roll:	-4.813	Pitch:	-3.398	Yaw:	236.382	Thrust:	28.606
Time:	4.208	Roll Set Point:	-0.017	Pitch Set Point:	0.032	Yaw Set Point:	-2.937	X_WP:	0.000	Y_WP:	0.000	Y_WP:	0.500	X:	0.163	Y:	0.066	Z:	0.404	yaw:	168.291	yaw rate:	-0.959	Roll:	-4.813	Pitch:	-3.337	Yaw:	236.542	Thrust:	28.726
Time:	4.224	Roll Set Point:	-0.017	Pitch Set Point:	0.032	Yaw Set Point:	-2.937	X_WP:	0.000	Y_WP:	0.000	Y_WP:	0.500	X:	0.163	Y:	0.066	Z:	0.404	yaw:	168.269	yaw rate:	-2.243	Roll:	-4.777	Pitch:	-3.363	Yaw:	236.132	Thrust:	28.760
Time:	4.239	Roll Set Point:	-0.017	Pitch Set Point:	0.032	Yaw Set Point:	-2.937	X_WP:	0.000	Y_WP:	0.000	Y_WP:	0.500	X:	0.163	Y:	0.066	Z:	0.405	yaw:	168.262	yaw rate:	-4.807	Roll:	-4.814	Pitch:	-3.381	Yaw:	236.385	Thrust:	29.049
Time:	4.255	Roll Set Point:	-0.017	Pitch Set Point:	0.032	Yaw Set Point:	-2.937	X_WP:	0.000	Y_WP:	0.000	Y_WP:	0.500	X:	0.163	Y:	0.066	Z:	0.404	yaw:	168.281	yaw rate:	1.944	Roll:	-4.839	Pitch:	-3.406	Yaw:	236.853	Thrust:	29.481
Time:	4.271	Roll Set Point:	-0.017	Pitch Set Point:	0.032	Yaw Set Point:	-2.937	X_WP:	0.000	Y_WP:	0.000	Y_WP:	0.500	X:	0.163	Y:	0.066	Z:	0.405	yaw:	168.249	yaw rate:	-3.181	Roll:	-4.744	Pitch:	-3.322	Yaw:	235.950	Thrust:	29.239
Time:	4.286	Roll Set Point:	-0.017	Pitch Set Point:	0.032	Yaw Set Point:	-2.937	X_WP:	0.000	Y_WP:	0.000	Y_WP:	0.500	X:	0.163	Y:	0.066	Z:	0.405	yaw:	168.249	yaw rate:	-3.181	Roll:	-4.810	Pitch:	-3.357	Yaw:	236.481	Thrust:	29.579
Time:	4.302	Roll Set Point:	-0.017	Pitch Set Point:	0.032	Yaw Set Point:	-2.938	X_WP:	0.000	Y_WP:	0.000	Y_WP:	0.500	X:	0.163	Y:	0.066	Z:	0.404	yaw:	168.318	yaw rate:	6.868	Roll:	-4.932	Pitch:	-3.181	Yaw:	237.729	Thrust:	29.979
Time:	4.317	Roll Set Point:	-0.017	Pitch Set Point:	0.032	Yaw Set Point:	-2.936	X_WP:	0.000	Y_WP:	0.000	Y_WP:	0.500	X:	0.163	Y:	0.066	Z:	0.404	yaw:	168.249	yaw rate:	-33.106	Roll:	-4.693	Pitch:	-3.625	Yaw:	235.321	Thrust:	29.971
Time:	4.333	Roll Set Point:	-0.017	Pitch Set Point:	0.032	Yaw Set Point:	-2.937	X_WP:	0.000	Y_WP:	0.000	Y_WP:	0.500	X:	0.163	Y:	0.066	Z:	0.405	yaw:	168.256	yaw rate:	0.701	Roll:	-4.824	Pitch:	-3.337	Yaw:	236.613	Thrust:	29.997
Time:	4.349	Roll Set Point:	-0.017	Pitch Set Point:	0.032	Yaw Set Point:	-2.937	X_WP:	0.000	Y_WP:	0.000	Y_WP:	0.500	X:	0.163	Y:	0.066	Z:	0.404	yaw:	168.305	yaw rate:	4.954	Roll:	-4.900	Pitch:	-3.171	Yaw:	237.389	Thrust:	30.469
Time:	4.364	Roll Set Point:	-0.017	Pitch Set Point:	0.032	Yaw Set Point:	-2.937	X_WP:	0.000	Y_WP:	0.000	Y_WP:	0.500	X:	0.163	Y:	0.066	Z:	0.404	yaw:	168.294	yaw rate:	-1.116	Roll:	-4.807	Pitch:	-3.403	Yaw:	236.359	Thrust:	30.434
Time:	4.380	Roll Set Point:	-0.017	Pitch Set Point:	0.032	Yaw Set Point:	-2.937	X_WP:	0.000	Y_WP:	0.000	Y_WP:	0.500	X:	0.163	Y:	0.066	Z:	0.404	yaw:	168.264	yaw rate:	-2.983	Roll:	-4.735	Pitch:	-3.521	Yaw:	236.004	Thrust:	30.714
Time:	4.395	Roll Set Point:	-0.017	Pitch Set Point:	0.032	Yaw Set Point:	-2.937	X_WP:	0.000	Y_WP:	0.000	Y_WP:	0.500	X:	0.163	Y:	0.066	Z:	0.404	yaw:	168.265	yaw rate:	0.036	Roll:	-4.828	Pitch:	-3.424	Yaw:	236.510	Thrust:	30.889
Time:	4.411	Roll Set Point:	-0.017	Pitch Set Point:	0.032	Yaw Set Point:	-2.937	X_WP:	0.000	Y_WP:	0.000	Y_WP:	0.500	X:	0.163	Y:	0.066	Z:	0.404	yaw:	168.266	yaw rate:	0.104	Roll:	-4.797	Pitch:	-3.294	Yaw:	236.526	Thrust:	30.999
Time:	4.427	Roll Set Point:	-0.017	Pitch Set Point:	0.032	Yaw Set Point:	-2.937	X_WP:	0.000	Y_WP:	0.000	Y_WP:	0.500	X:	0.163	Y:	0.066	Z:	0.404	yaw:	168.266	yaw rate:	0.104	Roll:	-4.810	Pitch:	-3.390	Yaw:	236.503	Thrust:	31.180
Time:	4.442	Roll Set Point:	-0.017	Pitch Set Point:	0.032	Yaw Set Point:	-2.937	X_WP:	0.000	Y_WP:	0.000	Y_WP:	0.500	X:	0.163	Y:	0.066	Z:	0.404	yaw:	168.257	yaw rate:	-5.594	Roll:	-4.827	Pitch:	-3.451	Yaw:	236.341	Thrust:	31.465
Time:	4.458	Roll Set Point:	-0.017	Pitch Set Point:	0.032	Yaw Set Point:	-2.937	X_WP:	0.000	Y_WP:	0.000	Y_WP:	0.500	X:	0.163	Y:	0.066	Z:	0.404	yaw:	168.281	yaw rate:	2.415	Roll:	-4.837	Pitch:	-3.382	Yaw:	236.931	Thrust:	31.603
Time:	4.474	Roll Set Point:	-0.017	Pitch Set Point:	0.032	Yaw Set Point:	-2.937	X_WP:	0.000	Y_WP:	0.000	Y_WP:	0.500	X:	0.163	Y:	0.066	Z:	0.404	yaw:	168.281	yaw rate:	2.415	Roll:	-4.812	Pitch:	-3.404	Yaw:	236.527	Thrust:	31.767
Time:	4.489	Roll Set Point:	-0.017	Pitch Set Point:	0.032	Yaw Set Point:	-2.938	X_WP:	0.000	Y_WP:	0.000	Y_WP:	0.500	X:	0.163	Y:	0.066	Z:	0.404	yaw:	168.312	yaw rate:	4.020	Roll:	-4.863	Pitch:	-3.280	Yaw:	237.090	Thrust:	32.049
Time:	4.505	Roll Set Point:	-0.017	Pitch Set Point:	0.032	Yaw Set Point:	-2.937	X_WP:	0.000	Y_WP:	0.000	Y_WP:	0.500	X:	0.163	Y:	0.066	Z:	0.405	yaw:	168.267	yaw rate:	-4.508	Roll:	-4.751	Pitch:	-3.497	Yaw:	235.752	Thrust:	31.901
Time:	4.521	Roll Set Point:	-0.017	Pitch Set Point:	0.032	Yaw Set Point:	-2.937	X_WP:	0.000	Y_WP:	0.000	Y_WP:	0.500	X:	0.163	Y:	0.066	Z:	0.405	yaw:	168.267	yaw rate:	-4.508	Roll:	-4.812	Pitch:	-3.414	Yaw:	236.507	Thrust:	32.305
Time:	4.536	Roll Set Point:	-0.017	Pitch Set Point:	0.032	Yaw Set Point:	-2.937	X_WP:	0.000	Y_WP:	0.000	Y_WP:	0.500	X:	0.163	Y:	0.066	Z:	0.404	yaw:	168.281	yaw rate:	1.468	Roll:	-4.824	Pitch:	-3.463	Yaw:	236.774	Thrust:	32.720
Time:	4.552	Roll Set Point:	-0.017	Pitch Set Point:	0.032	Yaw Set Point:	-2.937	X_WP:	0.000	Y_WP:	0.000	Y_WP:	0.500	X:	0.163	Y:	0.066	Z:	0.404	yaw:	168.281	yaw rate:	1.468	Roll:	-4.812	Pitch:	-3.423	Yaw:	236.528	Thrust:	32.665
Time:	4.567	Roll Set Point:	-0.017	Pitch Set Point:	0.032	Yaw Set Point:	-2.937	X_WP:	0.000	Y_WP:	0.000	Y_WP:	0.500	X:	0.163	Y:	0.066	Z:	0.404	yaw:	168.284	yaw rate:	0.280	Roll:	-4.806	Pitch:	-3.377	Yaw:	236.573	Thrust:	32.852
Time:	4.583	Roll Set Point:	-0.017	Pitch Set Point:	0.032	Yaw Set Point:	-2.937	X_WP:	0.000	Y_WP:	0.000	Y_WP:	0.500	X:	0.163	Y:	0.066	Z:	0.404	yaw:	168.284	yaw rate:	0.280	Roll:	-4.822	Pitch:	-3.433	Yaw:	236.559	Thrust:	33.513
Time:	4.610	Roll Set Point:	-0.017	Pitch Set Point:	0.032	Yaw Set Point:	-2.937	X_WP:	0.000	Y_WP:	0.000	Y_WP:	0.500	X:	0.163	Y:	0.066	Z:	0.404	yaw:	168.296	yaw rate:	2.047	Roll:	-5.251	Pitch:	-3.788	Yaw:	237.790	Thrust:	53.204
Time:	4.626	Roll Set Point:	-0.017	Pitch Set Point:	0.032	Yaw Set Point:	-2.937	X_WP:	0.000	Y_WP:	0.000	Y_WP:	0.500	X:	0.163	Y:	0.066	Z:	0.404	yaw:	168.296	yaw rate:	2.047	Roll:	-4.812	Pitch:	-3.419	Yaw:	236.545	Thrust:	33.327
Time:	4.641	Roll Set Point:	-0.017	Pitch Set Point:	0.032	Yaw Set Point:	-2.937	X_WP:	0.000	Y_WP:	0.000	Y_WP:	0.500	X:	0.163	Y:	0.066	Z:	0.404	yaw:	168.265	yaw rate:	-3.047	Roll:	-4.747	Pitch:	-3.596	Yaw:	236.000	Thrust:	33.736
Time:	4.657	Roll Set Point:	-0.017	Pitch Set Point:	0.032	Yaw Set Point:	-2.937	X_WP:	0.000	Y_WP:	0.000	Y_WP:	0.500	X:	0.163	Y:	0.066	Z:	0.404	yaw:	168.265	yaw rate:	-3.047	Roll:	-4.811	Pitch:	-3.425	Yaw:	236.505	Thrust:	33.729
Time:	4.673	Roll Set Point:	-0.017	Pitch Set Point:	0.032	Yaw Set Point:	-2.937	X_WP:	0.000	Y_WP:	0.000	Y_WP:	0.500	X:	0.163	Y:	0.066	Z:	0.404	yaw:	168.279	yaw rate:	1.349	Roll:	-4.829	Pitch:	-3.402	Yaw:	236.755	Thrust:	34.158
Time:	4.688	Roll Set Point:	-0.017	Pitch Set Point:	0.032	Yaw Set Point:	-2.937	X_WP:	0.000	Y_WP:	0.000	Y_WP:	0.500	X:	0.163	Y:	0.066	Z:	0.404	yaw:	168.288	yaw rate:	0.888	Roll:	-4.849	Pitch:	-3.346	Yaw:	236.689	Thrust:	33.956
Time:	4.704	Roll Set Point:	-0.017	Pitch Set Point:	0.032	Yaw Set Point:	-2.937	X_WP:	0.000	Y_WP:	0.000	Y_WP:	0.500	X:	0.163	Y:	0.066	Z:	0.404	yaw:	168.288	yaw rate:	0.888	Roll:	-4.810	Pitch:	-3.420	Yaw:	236.531	Thrust:	34.163
Time:	4.720	Roll Set Point:	-0.017	Pitch Set Point:	0.032	Yaw Set Point:	-2.937	X_WP:	0.000	Y_WP:	0.000	Y_WP:	0.500	X:	0.163	Y:	0.066	Z:	0.404	yaw:	168.262	yaw rate:	-2.575	Roll:	-4.766	Pitch:	-3.538	Yaw:	236.066	Thrust:	34.345
Time:	4.734	Roll Set Point:	-0.017	Pitch Set Point:	0.032	Yaw Set Point:	-2.938	X_WP:	0.000	Y_WP:	0.000	Y_WP:	0.500	X:	0.163	Y:	0.066	Z:	0.404	yaw:	168.322	yaw rate:	4.119	Roll:	-4.878	Pitch:	-3.117	Yaw:	237.560	Thrust:	32.869
Time:	4.750	Roll Set Point:	-0.017	Pitch Set Point:	0.032	Yaw Set Point:	-2.938	X_WP:	0.000	Y_WP:	0.000	Y_WP:	0.500	X:	0.163	Y:	0.066	Z:	0.404	yaw:	168.322	yaw rate:	4.119	Roll:	-4.815	Pitch:	-3.420	Yaw:	236.588	Thrust:	34.872
Time:	4.765	Roll Set Point:	-0.017	Pitch Set Point:	0.032	Yaw Set Point:	-2.937	X_WP:	0.000	Y_WP:	0.000	Y_WP:	0.500	X:	0.163	Y:	0.066	Z:	0.404	yaw:	168.281	yaw rate:	-0.447	Roll:	-4.753	Pitch:	-3.657	Yaw:	235.837	Thrust:	35.012
Time:	4.781	Roll Set Point:	-0.017	Pitch Set Point:	0.032	Yaw Set Point:	-2.936	X_WP:	0.000	Y_WP:	0.000	Y_WP:	0.500	X:	0.163	Y:	0.066	Z:	0.405	yaw:	168.247	yaw rate:	-3.412	Roll:	-4.741	Pitch:	-3.402	Yaw:	235.908	Thrust:	34.908
Time:	4.797	Roll Set Point:	-0.017	Pitch Set Point:	0.032	Yaw Set Point:	-2.938	X_WP:	0.000	Y_WP:	0.000	Y_WP:	0.500	X:	0.163	Y:	0.066	Z:	0.404	yaw:	168.323	yaw rate:	7.609	Roll:	-4.951	Pitch:	-3.297	Yaw:	237.861	Thrust:	35.805
Time:	4.812	Roll Set Point:	-0.017	Pitch Set Point:	0.032	Yaw Set Point:	-2.937	X_WP:	0.000	Y_WP:	0.000	Y_WP:	0.500	X:	0.163	Y:	0.066	Z:	0.405	yaw:	168.265	yaw rate:	-5.792	Roll:	-4.697	Pitch:	-3.487	Yaw:	235.530	Thrust:	35.119
Time:	4.828	Roll Set Point:	-0.017	Pitch Set Point:	0.032	Yaw Set Point:	-2.937	X_WP:	0.000	Y_WP:	0.000	Y_WP:	0.500	X:	0.163	Y:	0.066	Z:	0.404	yaw:	168.289	yaw rate:	2.417	Roll:	-4.868	Pitch:	-3.455	Yaw:	236.944	Thrust:	36.047
Time:	4.844	Roll Set Point:	-0.017	Pitch Set Point:	0.032	Yaw Set Point:	-2.937	X_WP:	0.000	Y_WP:	0.000	Y_WP:	0.500	X:	0.163	Y:	0.066	Z:	0.404	yaw:	168.268	yaw rate:	-2.187	Roll:	-4.773	Pitch:	-3.477	Yaw:	236.142	Thrust:	35.772
Time:	4.859	Roll Set Point:	-0.017	Pitch Set Point:	0.032	Yaw Set Point:	-2.937	X_WP:	0.000	Y_WP:	0.000	Y_WP:	0.500	X:	0.163	Y:	0.066	Z:	0.404	yaw:	168.290	yaw rate:	2.218	Roll:	-4.850	Pitch:	-3.298	Yaw:	236.911	Thrust:	35.978
Time:	4.875	Roll Set Point:	-0.017	Pitch Set Point:	0.032	Yaw Set Point:	-2.937	X_WP:	0.000	Y_WP:	0.000	Y_WP:	0.500	X:	0.163	Y:	0.066	Z:	0.404	yaw:	168.301	yaw rate:	1.107	Roll:	-4.844	Pitch:	-3.408	Yaw:	236.740	Thrust:	36.211
Time:	4.891	Roll Set Point:	-0.017	Pitch Set Point:	0.032	Yaw Set Point:	-2.937	X_WP:	0.000	Y_WP:	0.000	Y_WP:	0.500	X:	0.163	Y:	0.066	Z:	0.404	yaw:	168.281	yaw rate:	-1.953	Roll:	-4.758	Pitch:	-3.512	Yaw:	236.205	Thrust:	36.562
Time:	4.906	Roll Set Point:	-0.017	Pitch Set Point:	0.032	Yaw Set Point:	-2.937	X_WP:	0.000	Y_WP:	0.000	Y_WP:	0.500	X:	0.163	Y:	0.066	Z:	0.404	yaw:	168.269	yaw rate:	-1.183	Roll:	-4.809	Pitch:	-3.417	Yaw:	236.310	Thrust:	36.538
Time:	4.922	Roll Set Point:	-0.017	Pitch Set Point:	0.032	Yaw Set Point:	-2.937	X_WP:	0.000	Y_WP:	0.000	Y_WP:	0.500	X:	0.163	Y:	0.066	Z:	0.404	yaw:	168.294	yaw rate:	2.404	Roll:	-4.836	Pitch:	-3.310	Yaw:	236.947	Thrust:	36.823
Time:	4.937	Roll Set Point:	-0.017	Pitch Set Point:	0.032	Yaw Set Point:	-2.937	X_WP:	0.000	Y_WP:	0.000	Y_WP:	0.500	X:	0.163	Y:	0.066	Z:	0.404	yaw:	168.294	yaw rate:	2.404	Roll:	-4.812	Pitch:	-3.421	Yaw:	236.545	Thrust:	36.964
Time:	4.953	Roll Set Point:	-0.017	Pitch Set Point:	0.032	Yaw Set Point:	-2.936	X_WP:	0.000	Y_WP:	0.000	Y_WP:	0.500	X:	0.163	Y:	0.066	Z:	0.405	yaw:	168.241	yaw rate:	-7.841	Roll:	-4.724	Pitch:	-3.625	Yaw:	235.588	Thrust:	37.006
Time:	4.969	Roll Set Point:	-0.017	Pitch Set Point:	0.032	Yaw Set Point:	-2.938	X_WP:	0.000	Y_WP:	0.000	Y_WP:	0.500	X:	0.163	Y:	0.066	Z:	0.404	yaw:	168.308	yaw rate:	6.698	Roll:	-4.941	Pitch:	-3.305	Yaw:	237.687	Thrust:	37.429
Time:	4.984	Roll Set Point:	-0.017	Pitch Set Point:	0.032	Yaw Set Point:	-2.938	X_WP:	0.000	Y_WP:	0.000	Y_WP:	0.500	X:	0.163	Y:	0.066	Z:	0.404	yaw:	168.308	yaw rate:	6.698	Roll:	-4.814	Pitch:	-3.423	Yaw:	236.565	Thrust:	37.503
Time:	5.000	Roll Set Point:	-0.017	Pitch Set Point:	0.032	Yaw Set Point:	-2.937	X_WP:	0.000	Y_WP:	0.000	Y_WP:	0.500	X:	0.163	Y:	0.066	Z:	0.404	yaw:	168.297	yaw rate:	-1.039	Roll:	-4.804	Pitch:	-3.328	Yaw:	236.376	Thrust:	37.600
Time:	5.015	Roll Set Point:	-0.017	Pitch Set Point:	0.032	Yaw Set Point:	-2.937	X_WP:	0.000	Y_WP:	0.000	Y_WP:	0.500	X:	0.163	Y:	0.066	Z:	0.404	yaw:	168.297	yaw rate:	-1.039	Roll:	-4.813	Pitch:	-3.420	Yaw:	236.550	Thrust:	37.855
Time:	5.031	Roll Set Point:	-0.017	Pitch Set Point:	0.032	Yaw Set Point:	-2.937	X_WP:	0.000	Y_WP:	0.000	Y_WP:	0.500	X:	0.163	Y:	0.066	Z:	0.404	yaw:	168.289	yaw rate:	3.590	Roll:	-4.775	Pitch:	-3.510	Yaw:	236.403	Thrust:	38.086
Time:	5.047	Roll Set Point:	-0.017	Pitch Set Point:	0.032	Yaw Set Point:	-2.937	X_WP:	0.000	Y_WP:	0.000	Y_WP:	0.500	X:	0.163	Y:	0.066	Z:	0.404	yaw:	168.289	yaw rate:	3.590	Roll:	-4.813	Pitch:	-3.424	Yaw:	236.542	Thrust:	38.281
Time:	5.062	Roll Set Point:	-0.017	Pitch Set Point:	0.032	Yaw Set Point:	-2.938	X_WP:	0.000	Y_WP:	0.000	Y_WP:	0.500	X:	0.163	Y:	0.066	Z:	0.404	yaw:	168.322	yaw rate:	2.490	Roll:	-4.870	Pitch:	-3.292	Yaw:	237.124	Thrust:	38.510
Time:	5.078	Roll Set Point:	-0.017	Pitch Set Point:	0.032	Yaw Set Point:	-2.937	X_WP:	0.000	Y_WP:	0.000	Y_WP:	0.500	X:	0.163	Y:	0.066	Z:	0.404	yaw:	168.291	yaw rate:	-3.109	Roll:	-4.763	Pitch:	-3.542	Yaw:	236.020	Thrust:	38.454
Time:	5.094	Roll Set Point:	-0.017	Pitch Set Point:	0.032	Yaw Set Point:	-2.937	X_WP:	0.000	Y_WP:	0.000	Y_WP:	0.500	X:	0.163	Y:	0.066	Z:	0.404	yaw:	168.291	yaw rate:	-3.109	Roll:	-4.813	Pitch:	-3.423	Yaw:	236.542	Thrust:	38.776
Time:	5.109	Roll Set Point:	-0.017	Pitch Set Point:	0.032	Yaw Set Point:	-2.937	X_WP:	0.000	Y_WP:	0.000	Y_WP:	0.500	X:	0.163	Y:	0.066	Z:	0.404	yaw:	168.276	yaw rate:	-1.502	Roll:	-4.787	Pitch:	-3.523	Yaw:	236.268	Thrust:	38.894
Time:	5.125	Roll Set Point:	-0.017	Pitch Set Point:	0.032	Yaw Set Point:	-2.937	X_WP:	0.000	Y_WP:	0.000	Y_WP:	0.500	X:	0.163	Y:	0.066	Z:	0.404	yaw:	168.276	yaw rate:	-1.502	Roll:	-4.811	Pitch:	-3.425	Yaw:	236.519	Thrust:	39.089
Time:	5.141	Roll Set Point:	-0.017	Pitch Set Point:	0.032	Yaw Set Point:	-2.938	X_WP:	0.000	Y_WP:	0.000	Y_WP:	0.500	X:	0.163	Y:	0.066	Z:	0.404	yaw:	168.318	yaw rate:	5.639	Roll:	-4.876	Pitch:	-3.251	Yaw:	237.282	Thrust:	39.340
Time:	5.156	Roll Set Point:	-0.017	Pitch Set Point:	0.032	Yaw Set Point:	-2.938	X_WP:	0.000	Y_WP:	0.000	Y_WP:	0.500	X:	0.163	Y:	0.066	Z:	0.404	yaw:	168.318	yaw rate:	5.639	Roll:	-4.813	Pitch:	-3.421	Yaw:	236.578	Thrust:	39.471
Time:	5.172	Roll Set Point:	-0.017	Pitch Set Point:	0.032	Yaw Set Point:	-2.937	X_WP:	0.000	Y_WP:	0.000	Y_WP:	0.500	X:	0.163	Y:	0.066	Z:	0.404	yaw:	168.268	yaw rate:	-4.937	Roll:	-4.735	Pitch:	-3.579	Yaw:	235.682	Thrust:	39.560
Time:	5.187	Roll Set Point:	-0.017	Pitch Set Point:	0.032	Yaw Set Point:	-2.938	X_WP:	0.000	Y_WP:	0.000	Y_WP:	0.500	X:	0.163	Y:	0.066	Z:	0.404	yaw:	168.313	yaw rate:	1.554	Roll:	-4.901	Pitch:	-3.163	Yaw:	237.324	Thrust:	39.792
Time:	5.203	Roll Set Point:	-0.017	Pitch Set Point:	0.032	Yaw Set Point:	-2.937	X_WP:	0.000	Y_WP:	0.000	Y_WP:	0.500	X:	0.163	Y:	0.066	Z:	0.404	yaw:	168.306	yaw rate:	-0.693	Roll:	-4.799	Pitch:	-3.559	Yaw:	236.446	Thrust:	40.255
Time:	5.219	Roll Set Point:	-0.017	Pitch Set Point:	0.032	Yaw Set Point:	-2.937	X_WP:	0.000	Y_WP:	0.000	Y_WP:	0.500	X:	0.163	Y:	0.066	Z:	0.405	yaw:	168.288	yaw rate:	-1.826	Roll:	-4.782	Pitch:	-3.464	Yaw:	236.231	Thrust:	39.787
Time:	5.234	Roll Set Point:	-0.017	Pitch Set Point:	0.032	Yaw Set Point:	-2.937	X_WP:	0.000	Y_WP:	0.000	Y_WP:	0.500	X:	0.163	Y:	0.066	Z:	0.404	yaw:	168.251	yaw rate:	-3.683	Roll:	-4.750	Pitch:	-3.522	Yaw:	235.868	Thrust:	40.649
Time:	5.250	Roll Set Point:	-0.017	Pitch Set Point:	0.032	Yaw Set Point:	-2.938	X_WP:	0.000	Y_WP:	0.000	Y_WP:	0.500	X:	0.163	Y:	0.066	Z:	0.404	yaw:	168.332	yaw rate:	8.090	Roll:	-4.944	Pitch:	-3.170	Yaw:	237.954	Thrust:	40.682
Time:	5.266	Roll Set Point:	-0.017	Pitch Set Point:	0.032	Yaw Set Point:	-2.938	X_WP:	0.000	Y_WP:	0.000	Y_WP:	0.500	X:	0.163	Y:	0.066	Z:	0.404	yaw:	168.307	yaw rate:	-2.470	Roll:	-4.782	Pitch:	-3.455	Yaw:	236.145	Thrust:	40.476
Time:	5.281	Roll Set Point:	-0.017	Pitch Set Point:	0.032	Yaw Set Point:	-2.937	X_WP:	0.000	Y_WP:	0.000	Y_WP:	0.500	X:	0.163	Y:	0.066	Z:	0.404	yaw:	168.286	yaw rate:	-2.081	Roll:	-4.765	Pitch:	-3.580	Yaw:	236.186	Thrust:	40.981
Time:	5.297	Roll Set Point:	-0.017	Pitch Set Point:	0.032	Yaw Set Point:	-2.937	X_WP:	0.000	Y_WP:	0.000	Y_WP:	0.500	X:	0.163	Y:	0.066	Z:	0.404	yaw:	168.286	yaw rate:	-0.030	Roll:	-4.821	Pitch:	-3.391	Yaw:	236.529	Thrust:	41.039
Time:	5.312	Roll Set Point:	-0.017	Pitch Set Point:	0.032	Yaw Set Point:	-2.937	X_WP:	0.000	Y_WP:	0.000	Y_WP:	0.500	X:	0.163	Y:	0.066	Z:	0.404	yaw:	168.295	yaw rate:	0.905	Roll:	-4.823	Pitch:	-3.400	Yaw:	236.699	Thrust:	41.322
Time:	5.328	Roll Set Point:	-0.017	Pitch Set Point:	0.032	Yaw Set Point:	-2.938	X_WP:	0.000	Y_WP:	0.000	Y_WP:	0.500	X:	0.163	Y:	0.066	Z:	0.404	yaw:	168.312	yaw rate:	1.647	Roll:	-4.844	Pitch:	-3.324	Yaw:	236.846	Thrust:	41.415
Time:	5.344	Roll Set Point:	-0.017	Pitch Set Point:	0.032	Yaw Set Point:	-2.938	X_WP:	0.000	Y_WP:	0.000	Y_WP:	0.500	X:	0.163	Y:	0.066	Z:	0.404	yaw:	168.312	yaw rate:	1.647	Roll:	-4.814	Pitch:	-3.420	Yaw:	236.570	Thrust:	41.618
Time:	5.359	Roll Set Point:	-0.017	Pitch Set Point:	0.032	Yaw Set Point:	-2.938	X_WP:	0.000	Y_WP:	0.000	Y_WP:	0.500	X:	0.163	Y:	0.066	Z:	0.404	yaw:	168.312	yaw rate:	0.077	Roll:	-4.789	Pitch:	-3.480	Yaw:	236.584	Thrust:	41.871
Time:	5.375	Roll Set Point:	-0.017	Pitch Set Point:	0.032	Yaw Set Point:	-2.938	X_WP:	0.000	Y_WP:	0.000	Y_WP:	0.500	X:	0.163	Y:	0.066	Z:	0.404	yaw:	168.313	yaw rate:	6.236	Roll:	-4.835	Pitch:	-3.419	Yaw:	236.583	Thrust:	42.048
Time:	5.391	Roll Set Point:	-0.017	Pitch Set Point:	0.032	Yaw Set Point:	-2.937	X_WP:	0.000	Y_WP:	0.000	Y_WP:	0.500	X:	0.163	Y:	0.066	Z:	0.404	yaw:	168.284	yaw rate:	-2.869	Roll:	-4.758	Pitch:	-3.406	Yaw:	236.052	Thrust:	42.014
Time:	5.406	Roll Set Point:	-0.017	Pitch Set Point:	0.032	Yaw Set Point:	-2.937	X_WP:	0.000	Y_WP:	0.000	Y_WP:	0.500	X:	0.163	Y:	0.066	Z:	0.404	yaw:	168.296	yaw rate:	1.134	Roll:	-4.844	Pitch:	-3.480	Yaw:	236.738	Thrust:	42.345
Time:	5.422	Roll Set Point:	-0.017	Pitch Set Point:	0.032	Yaw Set Point:	-2.937	X_WP:	0.000	Y_WP:	0.000	Y_WP:	0.500	X:	0.163	Y:	0.066	Z:	0.405	yaw:	168.250	yaw rate:	-4.546	Roll:	-4.704	Pitch:	-3.525	Yaw:	235.723	Thrust:	42.412
Time:	5.437	Roll Set Point:	-0.017	Pitch Set Point:	0.032	Yaw Set Point:	-2.937	X_WP:	0.000	Y_WP:	0.000	Y_WP:	0.500	X:	0.163	Y:	0.066	Z:	0.404	yaw:	168.278	yaw rate:	2.732	Roll:	-4.880	Pitch:	-3.338	Yaw:	236.980	Thrust:	42.812
Time:	5.453	Roll Set Point:	-0.017	Pitch Set Point:	0.032	Yaw Set Point:	-2.938	X_WP:	0.000	Y_WP:	0.000	Y_WP:	0.500	X:	0.163	Y:	0.066	Z:	0.404	yaw:	168.312	yaw rate:	3.432	Roll:	-4.880	Pitch:	-3.301	Yaw:	237.145	Thrust:	42.810
Time:	5.469	Roll Set Point:	-0.017	Pitch Set Point:	0.032	Yaw Set Point:	-2.937	X_WP:	0.000	Y_WP:	0.000	Y_WP:	0.500	X:	0.163	Y:	0.066	Z:	0.404	yaw:	168.305	yaw rate:	-0.661	Roll:	-4.797	Pitch:	-3.455	Yaw:	236.454	Thrust:	43.201
Time:	5.484	Roll Set Point:	-0.017	Pitch Set Point:	0.032	Yaw Set Point:	-2.937	X_WP:	0.000	Y_WP:	0.000	Y_WP:	0.500	X:	0.163	Y:	0.066	Z:	0.404	yaw:	168.272	yaw rate:	-3.313	Roll:	-4.751	Pitch:	-3.581	Yaw:	235.960	Thrust:	43.161
Time:	5.500	Roll Set Point:	-0.017	Pitch Set Point:	0.032	Yaw Set Point:	-2.937	X_WP:	0.000	Y_WP:	0.000	Y_WP:	0.500	X:	0.163	Y:	0.066	Z:	0.404	yaw:	168.281	yaw rate:	0.849	Roll:	-4.838	Pitch:	-3.366	Yaw:	236.674	Thrust:	43.554
Time:	5.516	Roll Set Point:	-0.017	Pitch Set Point:	0.032	Yaw Set Point:	-2.937	X_WP:	0.000	Y_WP:	0.000	Y_WP:	0.500	X:	0.163	Y:	0.066	Z:	0.404	yaw:	168.281	yaw rate:	0.849	Roll:	-4.810	Pitch:	-3.420	Yaw:	236.520	Thrust:	43.420
Time:	5.531	Roll Set Point:	-0.017	Pitch Set Point:	0.032	Yaw Set Point:	-2.937	X_WP:	0.000	Y_WP:	0.000	Y_WP:	0.500	X:	0.163	Y:	0.066	Z:	0.404	yaw:	168.301	yaw rate:	2.083	Roll:	-4.850	Pitch:	-3.328	Yaw:	236.904	Thrust:	43.796
Time:	5.547	Roll Set Point:	-0.017	Pitch Set Point:	0.032	Yaw Set Point:	-2.937	X_WP:	0.000	Y_WP:	0.000	Y_WP:	0.500	X:	0.163	Y:	0.066	Z:	0.404	yaw:	168.278	yaw rate:	-0.257	Roll:	-4.758	Pitch:	-3.533	Yaw:	236.122	Thrust:	43.856
Time:	5.562	Roll Set Point:	-0.017	Pitch Set Point:	0.032	Yaw Set Point:	-2.937	X_WP:	0.000	Y_WP:	0.000	Y_WP:	0.500	X:	0.163	Y:	0.066	Z:	0.404	yaw:	168.289	yaw rate:	1.110	Roll:	-4.832	Pitch:	-3.423	Yaw:	236.724	Thrust:	44.312
Time:	5.578	Roll Set Point:	-0.017	Pitch Set Point:	0.032	Yaw Set Point:	-2.937	X_WP:	0.000	Y_WP:	0.000	Y_WP:	0.500	X:	0.163	Y:	0.066	Z:	0.404	yaw:	168.289	yaw rate:	1.110	Roll:	-4.812	Pitch:	-3.424	Yaw:	236.538	Thrust:	44.315
Time:	5.594	Roll Set Point:	-0.017	Pitch Set Point:	0.032	Yaw Set Point:	-2.937	X_WP:	0.000	Y_WP:	0.000	Y_WP:	0.500	X:	0.163	Y:	0.066	Z:	0.405	yaw:	168.284	yaw rate:	-0.460	Roll:	-4.799	Pitch:	-3.315	Yaw:	236.454	Thrust:	44.215
Time:	5.609	Roll Set Point:	-0.017	Pitch Set Point:	0.032	Yaw Set Point:	-2.937	X_WP:	0.000	Y_WP:	0.000	Y_WP:	0.500	X:	0.163	Y:	0.066	Z:	0.404	yaw:	168.297	yaw rate:	1.245	Roll:	-4.840	Pitch:	-3.491	Yaw:	236.758	Thrust:	44.860
Time:	5.625	Roll Set Point:	-0.017	Pitch Set Point:	0.032	Yaw Set Point:	-2.937	X_WP:	0.000	Y_WP:	0.000	Y_WP:	0.500	X:	0.163	Y:	0.066	Z:	0.404	yaw:	168.297	yaw rate:	1.245	Roll:	-4.813	Pitch:	-3.423	Yaw:	236.549	Thrust:	44.847
Time:	5.641	Roll Set Point:	-0.017	Pitch Set Point:	0.032	Yaw Set Point:	-2.937	X_WP:	0.000	Y_WP:	0.000	Y_WP:	0.500	X:	0.163	Y:	0.066	Z:	0.404	yaw:	168.291	yaw rate:	-0.519	Roll:	-4.821	Pitch:	-3.395	Yaw:	236.455	Thrust:	44.896
Time:	5.656	Roll Set Point:	-0.017	Pitch Set Point:	0.032	Yaw Set Point:	-2.937	X_WP:	0.000	Y_WP:	0.000	Y_WP:	0.500	X:	0.163	Y:	0.066	Z:	0.404	yaw:	168.291	yaw rate:	-0.519	Roll:	-4.813	Pitch:	-3.422	Yaw:	236.542	Thrust:	45.206
Time:	5.672	Roll Set Point:	-0.017	Pitch Set Point:	0.032	Yaw Set Point:	-2.937	X_WP:	0.000	Y_WP:	0.000	Y_WP:	0.500	X:	0.163	Y:	0.066	Z:	0.404	yaw:	168.290	yaw rate:	1.165	Roll:	-4.785	Pitch:	-3.417	Yaw:	236.512	Thrust:	45.485
Time:	5.687	Roll Set Point:	-0.017	Pitch Set Point:	0.032	Yaw Set Point:	-2.937	X_WP:	0.000	Y_WP:	0.000	Y_WP:	0.500	X:	0.163	Y:	0.066	Z:	0.404	yaw:	168.292	yaw rate:	0.219	Roll:	-4.834	Pitch:	-3.448	Yaw:	236.579	Thrust:	45.525
Time:	5.703	Roll Set Point:	-0.017	Pitch Set Point:	0.032	Yaw Set Point:	-2.937	X_WP:	0.000	Y_WP:	0.000	Y_WP:	0.500	X:	0.163	Y:	0.066	Z:	0.404	yaw:	168.298	yaw rate:	0.637	Roll:	-4.815	Pitch:	-3.391	Yaw:	236.658	Thrust:	45.778
Time:	5.719	Roll Set Point:	-0.017	Pitch Set Point:	0.032	Yaw Set Point:	-2.937	X_WP:	0.000	Y_WP:	0.000	Y_WP:	0.500	X:	0.163	Y:	0.066	Z:	0.404	yaw:	168.283	yaw rate:	-1.518	Roll:	-4.798	Pitch:	-3.435	Yaw:	236.276	Thrust:	45.824
Time:	5.750	Roll Set Point:	-0.017	Pitch Set Point:	0.032	Yaw Set Point:	-2.937	X_WP:	0.000	Y_WP:	0.000	Y_WP:	0.500	X:	0.163	Y:	0.066	Z:	0.404	yaw:	168.270	yaw rate:	-5.848	Roll:	-5.371	Pitch:	-4.031	Yaw:	237.946	Thrust:	86.529
Time:	5.765	Roll Set Point:	-0.017	Pitch Set Point:	0.032	Yaw Set Point:	-2.937	X_WP:	0.000	Y_WP:	0.000	Y_WP:	0.500	X:	0.163	Y:	0.066	Z:	0.404	yaw:	168.270	yaw rate:	-5.848	Roll:	-4.811	Pitch:	-3.423	Yaw:	236.512	Thrust:	46.277
Time:	5.781	Roll Set Point:	-0.017	Pitch Set Point:	0.032	Yaw Set Point:	-2.937	X_WP:	0.000	Y_WP:	0.000	Y_WP:	0.500	X:	0.163	Y:	0.066	Z:	0.404	yaw:	168.299	yaw rate:	3.798	Roll:	-4.861	Pitch:	-3.345	Yaw:	237.047	Thrust:	46.549
Time:	5.797	Roll Set Point:	-0.017	Pitch Set Point:	0.032	Yaw Set Point:	-2.937	X_WP:	0.000	Y_WP:	0.000	Y_WP:	0.500	X:	0.163	Y:	0.066	Z:	0.404	yaw:	168.306	yaw rate:	0.654	Roll:	-4.822	Pitch:	-3.397	Yaw:	236.671	Thrust:	46.574
Time:	5.812	Roll Set Point:	-0.017	Pitch Set Point:	0.032	Yaw Set Point:	-2.937	X_WP:	0.000	Y_WP:	0.000	Y_WP:	0.500	X:	0.163	Y:	0.066	Z:	0.404	yaw:	168.296	yaw rate:	-0.949	Roll:	-4.811	Pitch:	-3.506	Yaw:	236.390	Thrust:	46.870
Time:	5.828	Roll Set Point:	-0.017	Pitch Set Point:	0.032	Yaw Set Point:	-2.937	X_WP:	0.000	Y_WP:	0.000	Y_WP:	0.500	X:	0.163	Y:	0.066	Z:	0.404	yaw:	168.296	yaw rate:	-0.949	Roll:	-4.813	Pitch:	-3.423	Yaw:	236.549	Thrust:	46.996
Time:	5.844	Roll Set Point:	-0.017	Pitch Set Point:	0.032	Yaw Set Point:	-2.938	X_WP:	0.000	Y_WP:	0.000	Y_WP:	0.500	X:	0.163	Y:	0.066	Z:	0.404	yaw:	168.310	yaw rate:	4.182	Roll:	-4.862	Pitch:	-3.395	Yaw:	236.799	Thrust:	47.184
Time:	5.859	Roll Set Point:	-0.017	Pitch Set Point:	0.032	Yaw Set Point:	-2.938	X_WP:	0.000	Y_WP:	0.000	Y_WP:	0.500	X:	0.163	Y:	0.066	Z:	0.404	yaw:	168.310	yaw rate:	4.182	Roll:	-4.814	Pitch:	-3.422	Yaw:	236.568	Thrust:	47.355
Time:	5.875	Roll Set Point:	-0.017	Pitch Set Point:	0.032	Yaw Set Point:	-2.937	X_WP:	0.000	Y_WP:	0.000	Y_WP:	0.500	X:	0.163	Y:	0.066	Z:	0.404	yaw:	168.285	yaw rate:	-2.558	Roll:	-4.730	Pitch:	-3.426	Yaw:	236.116	Thrust:	47.752
Time:	5.891	Roll Set Point:	-0.017	Pitch Set Point:	0.032	Yaw Set Point:	-2.937	X_WP:	0.000	Y_WP:	0.000	Y_WP:	0.500	X:	0.163	Y:	0.066	Z:	0.404	yaw:	168.285	yaw rate:	-2.558	Roll:	-4.812	Pitch:	-3.422	Yaw:	236.532	Thrust:	47.717
Time:	5.906	Roll Set Point:	-0.017	Pitch Set Point:	0.032	Yaw Set Point:	-2.937	X_WP:	0.000	Y_WP:	0.000	Y_WP:	0.500	X:	0.163	Y:	0.066	Z:	0.404	yaw:	168.289	yaw rate:	3.659	Roll:	-4.826	Pitch:	-3.375	Yaw:	236.606	Thrust:	47.568
Time:	5.922	Roll Set Point:	-0.017	Pitch Set Point:	0.032	Yaw Set Point:	-2.937	X_WP:	0.000	Y_WP:	0.000	Y_WP:	0.500	X:	0.163	Y:	0.066	Z:	0.404	yaw:	168.280	yaw rate:	-0.873	Roll:	-4.801	Pitch:	-3.435	Yaw:	236.380	Thrust:	48.102
Time:	5.937	Roll Set Point:	-0.017	Pitch Set Point:	0.032	Yaw Set Point:	-2.937	X_WP:	0.000	Y_WP:	0.000	Y_WP:	0.500	X:	0.163	Y:	0.066	Z:	0.404	yaw:	168.304	yaw rate:	2.404	Roll:	-4.864	Pitch:	-3.453	Yaw:	236.965	Thrust:	48.449
Time:	5.953	Roll Set Point:	-0.017	Pitch Set Point:	0.032	Yaw Set Point:	-2.937	X_WP:	0.000	Y_WP:	0.000	Y_WP:	0.500	X:	0.163	Y:	0.066	Z:	0.404	yaw:	168.273	yaw rate:	-3.173	Roll:	-4.755	Pitch:	-3.494	Yaw:	235.980	Thrust:	48.269
Time:	5.969	Roll Set Point:	-0.017	Pitch Set Point:	0.032	Yaw Set Point:	-2.937	X_WP:	0.000	Y_WP:	0.000	Y_WP:	0.500	X:	0.163	Y:	0.066	Z:	0.404	yaw:	168.273	yaw rate:	-3.173	Roll:	-4.812	Pitch:	-3.424	Yaw:	236.516	Thrust:	48.606
Time:	5.984	Roll Set Point:	-0.017	Pitch Set Point:	0.032	Yaw Set Point:	-2.937	X_WP:	0.000	Y_WP:	0.000	Y_WP:	0.500	X:	0.163	Y:	0.066	Z:	0.404	yaw:	168.258	yaw rate:	-1.478	Roll:	-4.783	Pitch:	-3.442	Yaw:	236.248	Thrust:	48.764
Time:	6.000	Roll Set Point:	-0.017	Pitch Set Point:	0.032	Yaw Set Point:	-2.937	X_WP:	0.000	Y_WP:	0.000	Y_WP:	0.500	X:	0.163	Y:	0.066	Z:	0.404	yaw:	168.258	yaw rate:	-1.478	Roll:	-4.811	Pitch:	-3.425	Yaw:	236.495	Thrust:	48.966
Time:	6.015	Roll Set Point:	-0.162	Pitch Set Point:	-0.129	Yaw Set Point:	-2.937	X_WP:	0.175	Y_WP:	0.127	Y_WP:	0.500	X:	0.163	Y:	0.066	Z:	0.404	yaw:	168.276	yaw rate:	-2.794	Roll:	30.000	Pitch:	30.000	Yaw:	236.830	Thrust:	49.086
Time:	6.031	Roll Set Point:	-0.162	Pitch Set Point:	-0.129	Yaw Set Point:	-2.937	X_WP:	0.175	Y_WP:	0.127	Y_WP:	0.500	X:	0.163	Y:	0.066	Z:	0.404	yaw:	168.294	yaw rate:	1.724	Roll:	-0.600	Pitch:	1.220	Yaw:	236.834	Thrust:	49.428
Time:	6.047	Roll Set Point:	-0.162	Pitch Set Point:	-0.129	Yaw Set Point:	-2.937	X_WP:	0.175	Y_WP:	0.127	Y_WP:	0.500	X:	0.163	Y:	0.066	Z:	0.404	yaw:	168.294	yaw rate:	0.083	Roll:	-0.582	Pitch:	1.232	Yaw:	236.560	Thrust:	49.362
Time:	6.062	Roll Set Point:	-0.162	Pitch Set Point:	-0.129	Yaw Set Point:	-2.938	X_WP:	0.175	Y_WP:	0.127	Y_WP:	0.500	X:	0.163	Y:	0.066	Z:	0.404	yaw:	168.312	yaw rate:	1.756	Roll:	-0.566	Pitch:	1.230	Yaw:	236.865	Thrust:	49.772
Time:	6.078	Roll Set Point:	-0.162	Pitch Set Point:	-0.129	Yaw Set Point:	-2.938	X_WP:	0.175	Y_WP:	0.127	Y_WP:	0.500	X:	0.163	Y:	0.066	Z:	0.404	yaw:	168.319	yaw rate:	0.733	Roll:	-0.580	Pitch:	1.235	Yaw:	236.704	Thrust:	49.819
Time:	6.094	Roll Set Point:	-0.162	Pitch Set Point:	-0.129	Yaw Set Point:	-2.937	X_WP:	0.175	Y_WP:	0.127	Y_WP:	0.500	X:	0.163	Y:	0.066	Z:	0.404	yaw:	168.279	yaw rate:	-4.041	Roll:	-0.659	Pitch:	1.231	Yaw:	235.847	Thrust:	50.198
Time:	6.109	Roll Set Point:	-0.162	Pitch Set Point:	-0.129	Yaw Set Point:	-2.937	X_WP:	0.175	Y_WP:	0.127	Y_WP:	0.500	X:	0.163	Y:	0.066	Z:	0.405	yaw:	168.250	yaw rate:	-2.910	Roll:	-0.612	Pitch:	1.238	Yaw:	235.996	Thrust:	49.946
Time:	6.125	Roll Set Point:	-0.162	Pitch Set Point:	-0.129	Yaw Set Point:	-2.938	X_WP:	0.175	Y_WP:	0.127	Y_WP:	0.500	X:	0.163	Y:	0.066	Z:	0.404	yaw:	168.327	yaw rate:	7.736	Roll:	-0.534	Pitch:	1.239	Yaw:	237.888	Thrust:	50.717
Time:	6.140	Roll Set Point:	-0.162	Pitch Set Point:	-0.128	Yaw Set Point:	-2.937	X_WP:	0.175	Y_WP:	0.127	Y_WP:	0.500	X:	0.163	Y:	0.066	Z:	0.404	yaw:	168.256	yaw rate:	-7.070	Roll:	-0.640	Pitch:	1.239	Yaw:	235.308	Thrust:	50.345
Time:	6.156	Roll Set Point:	-0.162	Pitch Set Point:	-0.128	Yaw Set Point:	-2.937	X_WP:	0.175	Y_WP:	0.127	Y_WP:	0.500	X:	0.163	Y:	0.066	Z:	0.404	yaw:	168.256	yaw rate:	-7.070	Roll:	-0.596	Pitch:	1.245	Yaw:	236.493	Thrust:	50.752
Time:	6.172	Roll Set Point:	-0.162	Pitch Set Point:	-0.129	Yaw Set Point:	-2.937	X_WP:	0.175	Y_WP:	0.127	Y_WP:	0.500	X:	0.163	Y:	0.066	Z:	0.404	yaw:	168.253	yaw rate:	-1.969	Roll:	-0.620	Pitch:	1.252	Yaw:	236.438	Thrust:	51.105
Time:	6.187	Roll Set Point:	-0.162	Pitch Set Point:	-0.129	Yaw Set Point:	-2.937	X_WP:	0.175	Y_WP:	0.127	Y_WP:	0.500	X:	0.163	Y:	0.066	Z:	0.404	yaw:	168.292	yaw rate:	3.916	Roll:	-0.554	Pitch:	1.253	Yaw:	237.198	Thrust:	51.067
Time:	6.203	Roll Set Point:	-0.162	Pitch Set Point:	-0.129	Yaw Set Point:	-2.937	X_WP:	0.175	Y_WP:	0.127	Y_WP:	0.500	X:	0.163	Y:	0.066	Z:	0.404	yaw:	168.287	yaw rate:	-0.532	Roll:	-0.593	Pitch:	1.251	Yaw:	236.447	Thrust:	51.230
Time:	6.219	Roll Set Point:	-0.162	Pitch Set Point:	-0.129	Yaw Set Point:	-2.938	X_WP:	0.175	Y_WP:	0.127	Y_WP:	0.500	X:	0.163	Y:	0.066	Z:	0.404	yaw:	168.311	yaw rate:	2.374	Roll:	-0.585	Pitch:	1.251	Yaw:	236.967	Thrust:	51.541
Time:	6.234	Roll Set Point:	-0.162	Pitch Set Point:	-0.129	Yaw Set Point:	-2.938	X_WP:	0.175	Y_WP:	0.127	Y_WP:	0.500	X:	0.163	Y:	0.066	Z:	0.404	yaw:	168.311	yaw rate:	2.374	Roll:	-0.595	Pitch:	1.257	Yaw:	236.569	Thrust:	51.657
Time:	6.250	Roll Set Point:	-0.162	Pitch Set Point:	-0.129	Yaw Set Point:	-2.937	X_WP:	0.175	Y_WP:	0.127	Y_WP:	0.500	X:	0.163	Y:	0.066	Z:	0.404	yaw:	168.290	yaw rate:	4.622	Roll:	-0.609	Pitch:	1.263	Yaw:	236.197	Thrust:	51.921
Time:	6.265	Roll Set Point:	-0.162	Pitch Set Point:	-0.129	Yaw Set Point:	-2.937	X_WP:	0.175	Y_WP:	0.127	Y_WP:	0.500	X:	0.163	Y:	0.066	Z:	0.404	yaw:	168.290	yaw rate:	4.622	Roll:	-0.596	Pitch:	1.261	Yaw:	236.543	Thrust:	52.096
Time:	6.281	Roll Set Point:	-0.162	Pitch Set Point:	-0.129	Yaw Set Point:	-2.937	X_WP:	0.175	Y_WP:	0.127	Y_WP:	0.500	X:	0.163	Y:	0.066	Z:	0.404	yaw:	168.267	yaw rate:	-1.700	Roll:	-0.619	Pitch:	1.266	Yaw:	236.114	Thrust:	51.926
