Time:	2.095	Roll Set Point:	0.036	Pitch Set Point:	-0.019	Yaw Set Point:	0.124	X_WP:	0.000	Y_WP:	0.000	Y_WP:	0.500	X:	-0.017	Y:	0.010	Z:	0.050	yaw:	-7.114	yaw rate:	-9.049	Roll:	-0.535	Pitch:	0.240	Yaw:	-9.933	Thrust:	24.735
Time:	2.106	Roll Set Point:	0.036	Pitch Set Point:	-0.019	Yaw Set Point:	0.124	X_WP:	0.000	Y_WP:	0.000	Y_WP:	0.500	X:	-0.017	Y:	0.010	Z:	0.050	yaw:	-7.114	yaw rate:	0.010	Roll:	-0.503	Pitch:	0.238	Yaw:	-9.957	Thrust:	25.434
Time:	2.117	Roll Set Point:	0.036	Pitch Set Point:	-0.019	Yaw Set Point:	0.125	X_WP:	0.000	Y_WP:	0.000	Y_WP:	0.500	X:	-0.017	Y:	0.010	Z:	0.050	yaw:	-7.136	yaw rate:	-2.281	Roll:	-0.686	Pitch:	0.158	Yaw:	-10.559	Thrust:	25.769
Time:	2.128	Roll Set Point:	0.036	Pitch Set Point:	-0.019	Yaw Set Point:	0.125	X_WP:	0.000	Y_WP:	0.000	Y_WP:	0.500	X:	-0.017	Y:	0.010	Z:	0.050	yaw:	-7.145	yaw rate:	-0.837	Roll:	-0.370	Pitch:	0.307	Yaw:	-10.255	Thrust:	26.558
Time:	2.139	Roll Set Point:	0.036	Pitch Set Point:	-0.019	Yaw Set Point:	0.124	X_WP:	0.000	Y_WP:	0.000	Y_WP:	0.500	X:	-0.017	Y:	0.010	Z:	0.050	yaw:	-7.114	yaw rate:	3.033	Roll:	-0.586	Pitch:	0.201	Yaw:	-9.339	Thrust:	27.186
Time:	2.151	Roll Set Point:	0.036	Pitch Set Point:	-0.019	Yaw Set Point:	0.124	X_WP:	0.000	Y_WP:	0.000	Y_WP:	0.500	X:	-0.017	Y:	0.011	Z:	0.050	yaw:	-7.116	yaw rate:	-0.156	Roll:	-0.539	Pitch:	0.303	Yaw:	-10.118	Thrust:	27.893
Time:	2.162	Roll Set Point:	0.036	Pitch Set Point:	-0.019	Yaw Set Point:	0.124	X_WP:	0.000	Y_WP:	0.000	Y_WP:	0.500	X:	-0.017	Y:	0.010	Z:	0.050	yaw:	-7.116	yaw rate:	-0.015	Roll:	-0.522	Pitch:	0.222	Yaw:	-10.104	Thrust:	28.352
Time:	2.174	Roll Set Point:	0.036	Pitch Set Point:	-0.019	Yaw Set Point:	0.124	X_WP:	0.000	Y_WP:	0.000	Y_WP:	0.500	X:	-0.017	Y:	0.010	Z:	0.050	yaw:	-7.111	yaw rate:	0.525	Roll:	-0.551	Pitch:	0.234	Yaw:	-10.009	Thrust:	29.091
Time:	2.185	Roll Set Point:	0.036	Pitch Set Point:	-0.019	Yaw Set Point:	0.123	X_WP:	0.000	Y_WP:	0.000	Y_WP:	0.500	X:	-0.017	Y:	0.011	Z:	0.050	yaw:	-7.020	yaw rate:	9.126	Roll:	-0.363	Pitch:	0.561	Yaw:	-7.900	Thrust:	29.692
Time:	2.196	Roll Set Point:	0.036	Pitch Set Point:	-0.019	Yaw Set Point:	0.123	X_WP:	0.000	Y_WP:	0.000	Y_WP:	0.500	X:	-0.017	Y:	0.011	Z:	0.050	yaw:	-7.037	yaw rate:	-1.694	Roll:	-0.565	Pitch:	0.250	Yaw:	-10.471	Thrust:	30.013
Time:	2.208	Roll Set Point:	0.036	Pitch Set Point:	-0.019	Yaw Set Point:	0.124	X_WP:	0.000	Y_WP:	0.000	Y_WP:	0.500	X:	-0.017	Y:	0.010	Z:	0.050	yaw:	-7.082	yaw rate:	-4.577	Roll:	-0.783	Pitch:	-0.169	Yaw:	-11.217	Thrust:	31.036
Time:	2.219	Roll Set Point:	0.036	Pitch Set Point:	-0.019	Yaw Set Point:	0.125	X_WP:	0.000	Y_WP:	0.000	Y_WP:	0.500	X:	-0.017	Y:	0.010	Z:	0.050	yaw:	-7.152	yaw rate:	-6.986	Roll:	-0.420	Pitch:	0.353	Yaw:	-11.949	Thrust:	31.095
Time:	2.230	Roll Set Point:	0.036	Pitch Set Point:	-0.019	Yaw Set Point:	0.124	X_WP:	0.000	Y_WP:	0.000	Y_WP:	0.500	X:	-0.017	Y:	0.011	Z:	0.050	yaw:	-7.116	yaw rate:	3.578	Roll:	-0.530	Pitch:	0.267	Yaw:	-9.415	Thrust:	31.875
Time:	2.241	Roll Set Point:	0.036	Pitch Set Point:	-0.019	Yaw Set Point:	0.124	X_WP:	0.000	Y_WP:	0.000	Y_WP:	0.500	X:	-0.017	Y:	0.010	Z:	0.050	yaw:	-7.105	yaw rate:	1.194	Roll:	-0.542	Pitch:	0.181	Yaw:	-9.995	Thrust:	32.683
Time:	2.252	Roll Set Point:	0.036	Pitch Set Point:	-0.019	Yaw Set Point:	0.125	X_WP:	0.000	Y_WP:	0.000	Y_WP:	0.500	X:	-0.017	Y:	0.010	Z:	0.050	yaw:	-7.159	yaw rate:	-5.112	Roll:	-0.683	Pitch:	0.195	Yaw:	-11.610	Thrust:	33.474
Time:	2.264	Roll Set Point:	0.036	Pitch Set Point:	-0.019	Yaw Set Point:	0.125	X_WP:	0.000	Y_WP:	0.000	Y_WP:	0.500	X:	-0.017	Y:	0.010	Z:	0.050	yaw:	-7.150	yaw rate:	0.881	Roll:	-0.614	Pitch:	0.205	Yaw:	-10.216	Thrust:	34.049
Time:	2.276	Roll Set Point:	0.035	Pitch Set Point:	-0.019	Yaw Set Point:	0.123	X_WP:	0.000	Y_WP:	0.000	Y_WP:	0.500	X:	-0.017	Y:	0.011	Z:	0.050	yaw:	-7.044	yaw rate:	10.600	Roll:	-0.193	Pitch:	0.665	Yaw:	-7.964	Thrust:	35.099
Time:	2.287	Roll Set Point:	0.036	Pitch Set Point:	-0.019	Yaw Set Point:	0.125	X_WP:	0.000	Y_WP:	0.000	Y_WP:	0.500	X:	-0.017	Y:	0.011	Z:	0.050	yaw:	-7.141	yaw rate:	-9.696	Roll:	-0.723	Pitch:	-0.064	Yaw:	-12.731	Thrust:	34.748
Time:	2.299	Roll Set Point:	0.036	Pitch Set Point:	-0.019	Yaw Set Point:	0.124	X_WP:	0.000	Y_WP:	0.000	Y_WP:	0.500	X:	-0.017	Y:	0.010	Z:	0.050	yaw:	-7.086	yaw rate:	5.431	Roll:	-0.539	Pitch:	0.182	Yaw:	-9.251	Thrust:	36.688
Time:	2.310	Roll Set Point:	0.036	Pitch Set Point:	-0.019	Yaw Set Point:	0.124	X_WP:	0.000	Y_WP:	0.000	Y_WP:	0.500	X:	-0.017	Y:	0.010	Z:	0.050	yaw:	-7.094	yaw rate:	-0.800	Roll:	-0.636	Pitch:	0.170	Yaw:	-10.616	Thrust:	35.992
Time:	2.322	Roll Set Point:	0.036	Pitch Set Point:	-0.019	Yaw Set Point:	0.125	X_WP:	0.000	Y_WP:	0.000	Y_WP:	0.500	X:	-0.017	Y:	0.010	Z:	0.050	yaw:	-7.150	yaw rate:	-5.578	Roll:	-0.622	Pitch:	0.276	Yaw:	-11.793	Thrust:	37.591
Time:	2.333	Roll Set Point:	0.036	Pitch Set Point:	-0.019	Yaw Set Point:	0.123	X_WP:	0.000	Y_WP:	0.000	Y_WP:	0.500	X:	-0.017	Y:	0.011	Z:	0.050	yaw:	-7.030	yaw rate:	12.062	Roll:	-0.225	Pitch:	0.665	Yaw:	-7.527	Thrust:	37.367
Time:	2.344	Roll Set Point:	0.036	Pitch Set Point:	-0.019	Yaw Set Point:	0.124	X_WP:	0.000	Y_WP:	0.000	Y_WP:	0.500	X:	-0.017	Y:	0.010	Z:	0.050	yaw:	-7.084	yaw rate:	-5.451	Roll:	-0.673	Pitch:	-0.129	Yaw:	-11.787	Thrust:	37.790
Time:	2.356	Roll Set Point:	0.036	Pitch Set Point:	-0.019	Yaw Set Point:	0.125	X_WP:	0.000	Y_WP:	0.000	Y_WP:	0.500	X:	-0.017	Y:	0.010	Z:	0.050	yaw:	-7.164	yaw rate:	-7.972	Roll:	-0.735	Pitch:	0.198	Yaw:	-12.453	Thrust:	39.102
Time:	2.367	Roll Set Point:	0.036	Pitch Set Point:	-0.019	Yaw Set Point:	0.124	X_WP:	0.000	Y_WP:	0.000	Y_WP:	0.500	X:	-0.017	Y:	0.010	Z:	0.050	yaw:	-7.097	yaw rate:	6.654	Roll:	-0.318	Pitch:	0.298	Yaw:	-8.987	Thrust:	39.351
Time:	2.378	Roll Set Point:	0.036	Pitch Set Point:	-0.019	Yaw Set Point:	0.125	X_WP:	0.000	Y_WP:	0.000	Y_WP:	0.500	X:	-0.017	Y:	0.010	Z:	0.050	yaw:	-7.151	yaw rate:	-5.363	Roll:	-0.744	Pitch:	0.192	Yaw:	-11.942	Thrust:	39.402
Time:	2.389	Roll Set Point:	0.036	Pitch Set Point:	-0.019	Yaw Set Point:	0.124	X_WP:	0.000	Y_WP:	0.000	Y_WP:	0.500	X:	-0.017	Y:	0.010	Z:	0.050	yaw:	-7.088	yaw rate:	6.279	Roll:	-0.398	Pitch:	0.370	Yaw:	-9.118	Thrust:	40.308
Time:	2.400	Roll Set Point:	0.036	Pitch Set Point:	-0.019	Yaw Set Point:	0.124	X_WP:	0.000	Y_WP:	0.000	Y_WP:	0.500	X:	-0.017	Y:	0.010	Z:	0.050	yaw:	-7.125	yaw rate:	-3.646	Roll:	-0.557	Pitch:	0.226	Yaw:	-11.552	Thrust:	40.663
Time:	2.411	Roll Set Point:	0.036	Pitch Set Point:	-0.019	Yaw Set Point:	0.125	X_WP:	0.000	Y_WP:	0.000	Y_WP:	0.500	X:	-0.017	Y:	0.010	Z:	0.050	yaw:	-7.151	yaw rate:	-2.666	Roll:	-0.564	Pitch:	0.233	Yaw:	-11.384	Thrust:	41.389
Time:	2.422	Roll Set Point:	0.036	Pitch Set Point:	-0.019	Yaw Set Point:	0.124	X_WP:	0.000	Y_WP:	0.000	Y_WP:	0.500	X:	-0.017	Y:	0.010	Z:	0.050	yaw:	-7.087	yaw rate:	6.437	Roll:	-0.541	Pitch:	0.205	Yaw:	-9.161	Thrust:	42.208
Time:	2.433	Roll Set Point:	0.036	Pitch Set Point:	-0.019	Yaw Set Point:	0.124	X_WP:	0.000	Y_WP:	0.000	Y_WP:	0.500	X:	-0.017	Y:	0.010	Z:	0.050	yaw:	-7.129	yaw rate:	-4.167	Roll:	-0.564	Pitch:	0.292	Yaw:	-11.763	Thrust:	42.393
Time:	2.444	Roll Set Point:	0.036	Pitch Set Point:	-0.019	Yaw Set Point:	0.123	X_WP:	0.000	Y_WP:	0.000	Y_WP:	0.500	X:	-0.017	Y:	0.010	Z:	0.050	yaw:	-7.059	yaw rate:	6.923	Roll:	-0.520	Pitch:	0.211	Yaw:	-9.062	Thrust:	43.368
Time:	2.455	Roll Set Point:	0.036	Pitch Set Point:	-0.019	Yaw Set Point:	0.123	X_WP:	0.000	Y_WP:	0.000	Y_WP:	0.500	X:	-0.017	Y:	0.010	Z:	0.050	yaw:	-7.076	yaw rate:	-1.634	Roll:	-0.538	Pitch:	0.239	Yaw:	-11.143	Thrust:	43.767
Time:	2.466	Roll Set Point:	0.036	Pitch Set Point:	-0.019	Yaw Set Point:	0.123	X_WP:	0.000	Y_WP:	0.000	Y_WP:	0.500	X:	-0.017	Y:	0.011	Z:	0.050	yaw:	-7.069	yaw rate:	0.692	Roll:	-0.583	Pitch:	0.532	Yaw:	-10.609	Thrust:	44.264
Time:	2.477	Roll Set Point:	0.036	Pitch Set Point:	-0.019	Yaw Set Point:	0.125	X_WP:	0.000	Y_WP:	0.000	Y_WP:	0.500	X:	-0.017	Y:	0.010	Z:	0.050	yaw:	-7.161	yaw rate:	-9.213	Roll:	-0.698	Pitch:	-0.086	Yaw:	-13.115	Thrust:	44.952
Time:	2.488	Roll Set Point:	0.036	Pitch Set Point:	-0.019	Yaw Set Point:	0.124	X_WP:	0.000	Y_WP:	0.000	Y_WP:	0.500	X:	-0.017	Y:	0.011	Z:	0.050	yaw:	-7.082	yaw rate:	7.854	Roll:	-0.417	Pitch:	0.575	Yaw:	-8.982	Thrust:	45.472
Time:	2.500	Roll Set Point:	0.036	Pitch Set Point:	-0.019	Yaw Set Point:	0.124	X_WP:	0.000	Y_WP:	0.000	Y_WP:	0.500	X:	-0.017	Y:	0.010	Z:	0.050	yaw:	-7.084	yaw rate:	-0.183	Roll:	-0.653	Pitch:	-0.088	Yaw:	-11.006	Thrust:	48.314
Time:	2.512	Roll Set Point:	0.036	Pitch Set Point:	-0.019	Yaw Set Point:	0.125	X_WP:	0.000	Y_WP:	0.000	Y_WP:	0.500	X:	-0.017	Y:	0.010	Z:	0.050	yaw:	-7.146	yaw rate:	-6.234	Roll:	-0.456	Pitch:	0.348	Yaw:	-12.459	Thrust:	47.176
Time:	2.523	Roll Set Point:	0.036	Pitch Set Point:	-0.019	Yaw Set Point:	0.125	X_WP:	0.000	Y_WP:	0.000	Y_WP:	0.500	X:	-0.017	Y:	0.010	Z:	0.050	yaw:	-7.148	yaw rate:	-0.195	Roll:	-0.683	Pitch:	0.211	Yaw:	-11.067	Thrust:	47.439
Time:	2.534	Roll Set Point:	0.036	Pitch Set Point:	-0.019	Yaw Set Point:	0.123	X_WP:	0.000	Y_WP:	0.000	Y_WP:	0.500	X:	-0.017	Y:	0.011	Z:	0.050	yaw:	-7.037	yaw rate:	11.148	Roll:	-0.258	Pitch:	0.654	Yaw:	-8.255	Thrust:	47.940
Time:	2.545	Roll Set Point:	0.036	Pitch Set Point:	-0.019	Yaw Set Point:	0.125	X_WP:	0.000	Y_WP:	0.000	Y_WP:	0.500	X:	-0.017	Y:	0.011	Z:	0.050	yaw:	-7.135	yaw rate:	-9.786	Roll:	-0.737	Pitch:	-0.061	Yaw:	-13.380	Thrust:	48.513
Time:	2.556	Roll Set Point:	0.036	Pitch Set Point:	-0.019	Yaw Set Point:	0.124	X_WP:	0.000	Y_WP:	0.000	Y_WP:	0.500	X:	-0.017	Y:	0.010	Z:	0.050	yaw:	-7.102	yaw rate:	3.329	Roll:	-0.490	Pitch:	0.186	Yaw:	-10.243	Thrust:	49.272
Time:	2.568	Roll Set Point:	0.036	Pitch Set Point:	-0.019	Yaw Set Point:	0.125	X_WP:	0.000	Y_WP:	0.000	Y_WP:	0.500	X:	-0.017	Y:	0.010	Z:	0.050	yaw:	-7.150	yaw rate:	-4.872	Roll:	-0.699	Pitch:	0.210	Yaw:	-12.295	Thrust:	51.489
Time:	2.579	Roll Set Point:	0.036	Pitch Set Point:	-0.019	Yaw Set Point:	0.125	X_WP:	0.000	Y_WP:	0.000	Y_WP:	0.500	X:	-0.017	Y:	0.011	Z:	0.050	yaw:	-7.143	yaw rate:	0.773	Roll:	-0.425	Pitch:	0.341	Yaw:	-10.966	Thrust:	50.359
Time:	2.590	Roll Set Point:	0.036	Pitch Set Point:	-0.019	Yaw Set Point:	0.123	X_WP:	0.000	Y_WP:	0.000	Y_WP:	0.500	X:	-0.017	Y:	0.011	Z:	0.050	yaw:	-7.039	yaw rate:	10.387	Roll:	-0.439	Pitch:	0.549	Yaw:	-8.560	Thrust:	50.960
Time:	2.601	Roll Set Point:	0.036	Pitch Set Point:	-0.019	Yaw Set Point:	0.124	X_WP:	0.000	Y_WP:	0.000	Y_WP:	0.500	X:	-0.017	Y:	0.010	Z:	0.050	yaw:	-7.120	yaw rate:	-8.114	Roll:	-0.673	Pitch:	-0.055	Yaw:	-13.097	Thrust:	51.585
Time:	2.612	Roll Set Point:	0.036	Pitch Set Point:	-0.019	Yaw Set Point:	0.124	X_WP:	0.000	Y_WP:	0.000	Y_WP:	0.500	X:	-0.017	Y:	0.010	Z:	0.050	yaw:	-7.130	yaw rate:	-1.017	Roll:	-0.574	Pitch:	0.260	Yaw:	-11.453	Thrust:	51.926
Time:	2.623	Roll Set Point:	0.036	Pitch Set Point:	-0.019	Yaw Set Point:	0.125	X_WP:	0.000	Y_WP:	0.000	Y_WP:	0.500	X:	-0.017	Y:	0.010	Z:	0.050	yaw:	-7.148	yaw rate:	-1.820	Roll:	-0.737	Pitch:	0.144	Yaw:	-11.699	Thrust:	52.732
Time:	2.634	Roll Set Point:	0.036	Pitch Set Point:	-0.019	Yaw Set Point:	0.124	X_WP:	0.000	Y_WP:	0.000	Y_WP:	0.500	X:	-0.017	Y:	0.010	Z:	0.050	yaw:	-7.119	yaw rate:	2.926	Roll:	-0.367	Pitch:	0.343	Yaw:	-10.559	Thrust:	53.351
Time:	2.645	Roll Set Point:	0.036	Pitch Set Point:	-0.019	Yaw Set Point:	0.124	X_WP:	0.000	Y_WP:	0.000	Y_WP:	0.500	X:	-0.017	Y:	0.010	Z:	0.050	yaw:	-7.110	yaw rate:	0.903	Roll:	-0.611	Pitch:	0.262	Yaw:	-11.054	Thrust:	53.924
Time:	2.657	Roll Set Point:	0.036	Pitch Set Point:	-0.019	Yaw Set Point:	0.124	X_WP:	0.000	Y_WP:	0.000	Y_WP:	0.500	X:	-0.017	Y:	0.010	Z:	0.050	yaw:	-7.117	yaw rate:	-0.687	Roll:	-0.560	Pitch:	0.256	Yaw:	-11.582	Thrust:	57.276
Time:	2.668	Roll Set Point:	0.036	Pitch Set Point:	-0.019	Yaw Set Point:	0.124	X_WP:	0.000	Y_WP:	0.000	Y_WP:	0.500	X:	-0.017	Y:	0.011	Z:	0.050	yaw:	-7.126	yaw rate:	-0.970	Roll:	-0.547	Pitch:	0.258	Yaw:	-11.574	Thrust:	54.976
Time:	2.679	Roll Set Point:	0.036	Pitch Set Point:	-0.019	Yaw Set Point:	0.124	X_WP:	0.000	Y_WP:	0.000	Y_WP:	0.500	X:	-0.017	Y:	0.010	Z:	0.050	yaw:	-7.092	yaw rate:	3.488	Roll:	-0.512	Pitch:	0.185	Yaw:	-10.502	Thrust:	55.814
Time:	2.690	Roll Set Point:	0.036	Pitch Set Point:	-0.019	Yaw Set Point:	0.124	X_WP:	0.000	Y_WP:	0.000	Y_WP:	0.500	X:	-0.017	Y:	0.010	Z:	0.050	yaw:	-7.114	yaw rate:	-2.229	Roll:	-0.602	Pitch:	0.313	Yaw:	-11.913	Thrust:	56.281
Time:	2.701	Roll Set Point:	0.036	Pitch Set Point:	-0.019	Yaw Set Point:	0.125	X_WP:	0.000	Y_WP:	0.000	Y_WP:	0.500	X:	-0.017	Y:	0.010	Z:	0.050	yaw:	-7.141	yaw rate:	-2.666	Roll:	-0.539	Pitch:	0.225	Yaw:	-12.079	Thrust:	56.736
Time:	2.712	Roll Set Point:	0.036	Pitch Set Point:	-0.019	Yaw Set Point:	0.125	X_WP:	0.000	Y_WP:	0.000	Y_WP:	0.500	X:	-0.017	Y:	0.010	Z:	0.050	yaw:	-7.152	yaw rate:	-1.196	Roll:	-0.755	Pitch:	0.195	Yaw:	-11.779	Thrust:	57.536
Time:	2.724	Roll Set Point:	0.036	Pitch Set Point:	-0.019	Yaw Set Point:	0.124	X_WP:	0.000	Y_WP:	0.000	Y_WP:	0.500	X:	-0.017	Y:	0.010	Z:	0.050	yaw:	-7.116	yaw rate:	3.603	Roll:	-0.410	Pitch:	0.330	Yaw:	-10.820	Thrust:	61.124
Time:	2.735	Roll Set Point:	0.036	Pitch Set Point:	-0.019	Yaw Set Point:	0.124	X_WP:	0.000	Y_WP:	0.000	Y_WP:	0.500	X:	-0.017	Y:	0.010	Z:	0.050	yaw:	-7.129	yaw rate:	-1.235	Roll:	-0.687	Pitch:	0.164	Yaw:	-11.810	Thrust:	58.633
Time:	2.746	Roll Set Point:	0.036	Pitch Set Point:	-0.019	Yaw Set Point:	0.123	X_WP:	0.000	Y_WP:	0.000	Y_WP:	0.500	X:	-0.017	Y:	0.011	Z:	0.050	yaw:	-7.056	yaw rate:	7.282	Roll:	-0.326	Pitch:	0.643	Yaw:	-9.711	Thrust:	59.222
Time:	2.757	Roll Set Point:	0.036	Pitch Set Point:	-0.019	Yaw Set Point:	0.124	X_WP:	0.000	Y_WP:	0.000	Y_WP:	0.500	X:	-0.017	Y:	0.010	Z:	0.050	yaw:	-7.124	yaw rate:	-6.815	Roll:	-0.690	Pitch:	-0.044	Yaw:	-13.180	Thrust:	59.804
Time:	2.768	Roll Set Point:	0.036	Pitch Set Point:	-0.019	Yaw Set Point:	0.124	X_WP:	0.000	Y_WP:	0.000	Y_WP:	0.500	X:	-0.017	Y:	0.010	Z:	0.050	yaw:	-7.083	yaw rate:	4.075	Roll:	-0.516	Pitch:	0.220	Yaw:	-10.572	Thrust:	60.813
Time:	2.779	Roll Set Point:	0.036	Pitch Set Point:	-0.019	Yaw Set Point:	0.125	X_WP:	0.000	Y_WP:	0.000	Y_WP:	0.500	X:	-0.017	Y:	0.010	Z:	0.050	yaw:	-7.147	yaw rate:	-6.397	Roll:	-0.757	Pitch:	0.213	Yaw:	-13.168	Thrust:	60.765
Time:	2.790	Roll Set Point:	0.036	Pitch Set Point:	-0.019	Yaw Set Point:	0.125	X_WP:	0.000	Y_WP:	0.000	Y_WP:	0.500	X:	-0.017	Y:	0.011	Z:	0.050	yaw:	-7.152	yaw rate:	-0.444	Roll:	-0.431	Pitch:	0.325	Yaw:	-11.785	Thrust:	61.522
Time:	2.801	Roll Set Point:	0.036	Pitch Set Point:	-0.019	Yaw Set Point:	0.124	X_WP:	0.000	Y_WP:	0.000	Y_WP:	0.500	X:	-0.017	Y:	0.010	Z:	0.050	yaw:	-7.128	yaw rate:	2.357	Roll:	-0.588	Pitch:	0.244	Yaw:	-11.120	Thrust:	62.241
Time:	2.812	Roll Set Point:	0.036	Pitch Set Point:	-0.019	Yaw Set Point:	0.124	X_WP:	0.000	Y_WP:	0.000	Y_WP:	0.500	X:	-0.017	Y:	0.010	Z:	0.050	yaw:	-7.080	yaw rate:	4.846	Roll:	-0.498	Pitch:	0.243	Yaw:	-10.485	Thrust:	62.937
Time:	2.823	Roll Set Point:	0.036	Pitch Set Point:	-0.019	Yaw Set Point:	0.123	X_WP:	0.000	Y_WP:	0.000	Y_WP:	0.500	X:	-0.017	Y:	0.011	Z:	0.050	yaw:	-7.067	yaw rate:	1.267	Roll:	-0.658	Pitch:	0.494	Yaw:	-11.351	Thrust:	63.494
Time:	2.835	Roll Set Point:	0.036	Pitch Set Point:	-0.019	Yaw Set Point:	0.125	X_WP:	0.000	Y_WP:	0.000	Y_WP:	0.500	X:	-0.017	Y:	0.010	Z:	0.050	yaw:	-7.135	yaw rate:	-6.765	Roll:	-0.633	Pitch:	-0.056	Yaw:	-13.379	Thrust:	64.876
Time:	2.845	Roll Set Point:	0.036	Pitch Set Point:	-0.019	Yaw Set Point:	0.123	X_WP:	0.000	Y_WP:	0.000	Y_WP:	0.500	X:	-0.017	Y:	0.011	Z:	0.050	yaw:	-7.047	yaw rate:	8.801	Roll:	-0.311	Pitch:	0.671	Yaw:	-9.554	Thrust:	64.169
Time:	2.857	Roll Set Point:	0.036	Pitch Set Point:	-0.019	Yaw Set Point:	0.125	X_WP:	0.000	Y_WP:	0.000	Y_WP:	0.500	X:	-0.017	Y:	0.011	Z:	0.050	yaw:	-7.136	yaw rate:	-8.898	Roll:	-0.714	Pitch:	-0.033	Yaw:	-13.937	Thrust:	65.237
Time:	2.869	Roll Set Point:	0.036	Pitch Set Point:	-0.019	Yaw Set Point:	0.125	X_WP:	0.000	Y_WP:	0.000	Y_WP:	0.500	X:	-0.017	Y:	0.010	Z:	0.050	yaw:	-7.146	yaw rate:	-1.029	Roll:	-0.695	Pitch:	0.152	Yaw:	-12.262	Thrust:	69.564
Time:	2.880	Roll Set Point:	0.036	Pitch Set Point:	-0.019	Yaw Set Point:	0.124	X_WP:	0.000	Y_WP:	0.000	Y_WP:	0.500	X:	-0.017	Y:	0.010	Z:	0.050	yaw:	-7.094	yaw rate:	5.247	Roll:	-0.440	Pitch:	0.367	Yaw:	-10.575	Thrust:	66.416
Time:	2.891	Roll Set Point:	0.036	Pitch Set Point:	-0.019	Yaw Set Point:	0.124	X_WP:	0.000	Y_WP:	0.000	Y_WP:	0.500	X:	-0.017	Y:	0.010	Z:	0.050	yaw:	-7.117	yaw rate:	-2.322	Roll:	-0.572	Pitch:	0.222	Yaw:	-12.432	Thrust:	67.071
Time:	2.902	Roll Set Point:	0.036	Pitch Set Point:	-0.019	Yaw Set Point:	0.124	X_WP:	0.000	Y_WP:	0.000	Y_WP:	0.500	X:	-0.017	Y:	0.010	Z:	0.050	yaw:	-7.094	yaw rate:	2.236	Roll:	-0.694	Pitch:	0.153	Yaw:	-11.346	Thrust:	67.605
Time:	2.913	Roll Set Point:	0.036	Pitch Set Point:	-0.019	Yaw Set Point:	0.124	X_WP:	0.000	Y_WP:	0.000	Y_WP:	0.500	X:	-0.017	Y:	0.010	Z:	0.050	yaw:	-7.105	yaw rate:	-1.059	Roll:	-0.541	Pitch:	0.248	Yaw:	-12.170	Thrust:	68.179
Time:	2.924	Roll Set Point:	0.036	Pitch Set Point:	-0.019	Yaw Set Point:	0.125	X_WP:	0.000	Y_WP:	0.000	Y_WP:	0.500	X:	-0.017	Y:	0.010	Z:	0.050	yaw:	-7.141	yaw rate:	-3.595	Roll:	-0.606	Pitch:	0.291	Yaw:	-12.850	Thrust:	68.666
Time:	2.935	Roll Set Point:	0.036	Pitch Set Point:	-0.019	Yaw Set Point:	0.125	X_WP:	0.000	Y_WP:	0.000	Y_WP:	0.500	X:	-0.017	Y:	0.011	Z:	0.050	yaw:	-7.137	yaw rate:	0.411	Roll:	-0.429	Pitch:	0.356	Yaw:	-11.920	Thrust:	69.387
Time:	2.946	Roll Set Point:	0.036	Pitch Set Point:	-0.019	Yaw Set Point:	0.123	X_WP:	0.000	Y_WP:	0.000	Y_WP:	0.500	X:	-0.017	Y:	0.011	Z:	0.050	yaw:	-7.043	yaw rate:	9.367	Roll:	-0.448	Pitch:	0.556	Yaw:	-9.691	Thrust:	70.024
Time:	2.957	Roll Set Point:	0.036	Pitch Set Point:	-0.019	Yaw Set Point:	0.124	X_WP:	0.000	Y_WP:	0.000	Y_WP:	0.500	X:	-0.017	Y:	0.010	Z:	0.050	yaw:	-7.129	yaw rate:	-8.545	Roll:	-0.711	Pitch:	-0.050	Yaw:	-14.089	Thrust:	70.528
Time:	2.968	Roll Set Point:	0.036	Pitch Set Point:	-0.019	Yaw Set Point:	0.124	X_WP:	0.000	Y_WP:	0.000	Y_WP:	0.500	X:	-0.017	Y:	0.010	Z:	0.050	yaw:	-7.129	yaw rate:	-0.082	Roll:	-0.710	Pitch:	0.176	Yaw:	-12.109	Thrust:	71.107
Time:	2.979	Roll Set Point:	0.036	Pitch Set Point:	-0.019	Yaw Set Point:	0.124	X_WP:	0.000	Y_WP:	0.000	Y_WP:	0.500	X:	-0.017	Y:	0.010	Z:	0.050	yaw:	-7.105	yaw rate:	2.392	Roll:	-0.439	Pitch:	0.354	Yaw:	-11.516	Thrust:	71.723
Time:	2.990	Roll Set Point:	0.036	Pitch Set Point:	-0.019	Yaw Set Point:	0.125	X_WP:	0.000	Y_WP:	0.000	Y_WP:	0.500	X:	-0.017	Y:	0.010	Z:	0.050	yaw:	-7.147	yaw rate:	-4.191	Roll:	-0.756	Pitch:	0.137	Yaw:	-13.165	Thrust:	72.371
Time:	3.001	Roll Set Point:	0.036	Pitch Set Point:	-0.019	Yaw Set Point:	0.124	X_WP:	0.000	Y_WP:	0.000	Y_WP:	0.500	X:	-0.017	Y:	0.010	Z:	0.050	yaw:	-7.117	yaw rate:	3.034	Roll:	-0.532	Pitch:	0.310	Yaw:	-11.423	Thrust:	72.890
Time:	3.012	Roll Set Point:	0.036	Pitch Set Point:	-0.019	Yaw Set Point:	0.123	X_WP:	0.000	Y_WP:	0.000	Y_WP:	0.500	X:	-0.017	Y:	0.011	Z:	0.050	yaw:	-7.025	yaw rate:	9.174	Roll:	-0.328	Pitch:	0.632	Yaw:	-9.837	Thrust:	73.783
Time:	3.024	Roll Set Point:	0.036	Pitch Set Point:	-0.019	Yaw Set Point:	0.125	X_WP:	0.000	Y_WP:	0.000	Y_WP:	0.500	X:	-0.017	Y:	0.010	Z:	0.050	yaw:	-7.137	yaw rate:	-11.186	Roll:	-0.845	Pitch:	-0.117	Yaw:	-14.806	Thrust:	78.172
Time:	3.035	Roll Set Point:	0.036	Pitch Set Point:	-0.019	Yaw Set Point:	0.124	X_WP:	0.000	Y_WP:	0.000	Y_WP:	0.500	X:	-0.017	Y:	0.010	Z:	0.050	yaw:	-7.093	yaw rate:	4.456	Roll:	-0.440	Pitch:	0.300	Yaw:	-11.049	Thrust:	74.779
Time:	3.046	Roll Set Point:	0.036	Pitch Set Point:	-0.019	Yaw Set Point:	0.123	X_WP:	0.000	Y_WP:	0.000	Y_WP:	0.500	X:	-0.017	Y:	0.010	Z:	0.050	yaw:	-7.070	yaw rate:	2.274	Roll:	-0.515	Pitch:	0.300	Yaw:	-11.541	Thrust:	75.481
Time:	3.057	Roll Set Point:	0.036	Pitch Set Point:	-0.019	Yaw Set Point:	0.124	X_WP:	0.000	Y_WP:	0.000	Y_WP:	0.500	X:	-0.017	Y:	0.010	Z:	0.050	yaw:	-7.116	yaw rate:	-4.606	Roll:	-0.593	Pitch:	0.283	Yaw:	-13.235	Thrust:	75.703
Time:	3.068	Roll Set Point:	0.036	Pitch Set Point:	-0.019	Yaw Set Point:	0.125	X_WP:	0.000	Y_WP:	0.000	Y_WP:	0.500	X:	-0.017	Y:	0.010	Z:	0.050	yaw:	-7.136	yaw rate:	-1.957	Roll:	-0.573	Pitch:	0.252	Yaw:	-12.633	Thrust:	76.517
Time:	3.079	Roll Set Point:	0.036	Pitch Set Point:	-0.019	Yaw Set Point:	0.125	X_WP:	0.000	Y_WP:	0.000	Y_WP:	0.500	X:	-0.017	Y:	0.011	Z:	0.050	yaw:	-7.155	yaw rate:	-1.940	Roll:	-0.658	Pitch:	0.262	Yaw:	-12.656	Thrust:	77.057
Time:	3.090	Roll Set Point:	0.036	Pitch Set Point:	-0.019	Yaw Set Point:	0.125	X_WP:	0.000	Y_WP:	0.000	Y_WP:	0.500	X:	-0.017	Y:	0.010	Z:	0.050	yaw:	-7.157	yaw rate:	-0.198	Roll:	-0.686	Pitch:	0.164	Yaw:	-12.302	Thrust:	79.118
Time:	3.101	Roll Set Point:	0.036	Pitch Set Point:	-0.019	Yaw Set Point:	0.124	X_WP:	0.000	Y_WP:	0.000	Y_WP:	0.500	X:	-0.017	Y:	0.010	Z:	0.050	yaw:	-7.118	yaw rate:	3.889	Roll:	-0.434	Pitch:	0.355	Yaw:	-11.193	Thrust:	77.943
Time:	3.112	Roll Set Point:	0.036	Pitch Set Point:	-0.019	Yaw Set Point:	0.124	X_WP:	0.000	Y_WP:	0.000	Y_WP:	0.500	X:	-0.017	Y:	0.010	Z:	0.050	yaw:	-7.096	yaw rate:	2.153	Roll:	-0.528	Pitch:	0.233	Yaw:	-11.604	Thrust:	79.008
Time:	3.123	Roll Set Point:	0.036	Pitch Set Point:	-0.019	Yaw Set Point:	0.123	X_WP:	0.000	Y_WP:	0.000	Y_WP:	0.500	X:	-0.017	Y:	0.011	Z:	0.050	yaw:	-7.033	yaw rate:	6.366	Roll:	-0.622	Pitch:	0.449	Yaw:	-10.514	Thrust:	79.402
Time:	3.134	Roll Set Point:	0.036	Pitch Set Point:	-0.019	Yaw Set Point:	0.123	X_WP:	0.000	Y_WP:	0.000	Y_WP:	0.500	X:	-0.017	Y:	0.010	Z:	0.050	yaw:	-7.073	yaw rate:	-4.024	Roll:	-0.581	Pitch:	0.062	Yaw:	-13.037	Thrust:	80.198
Time:	3.145	Roll Set Point:	0.036	Pitch Set Point:	-0.019	Yaw Set Point:	0.123	X_WP:	0.000	Y_WP:	0.000	Y_WP:	0.500	X:	-0.017	Y:	0.011	Z:	0.050	yaw:	-7.056	yaw rate:	1.700	Roll:	-0.450	Pitch:	0.612	Yaw:	-11.652	Thrust:	80.459
Time:	3.156	Roll Set Point:	0.036	Pitch Set Point:	-0.019	Yaw Set Point:	0.123	X_WP:	0.000	Y_WP:	0.000	Y_WP:	0.500	X:	-0.017	Y:	0.011	Z:	0.050	yaw:	-7.043	yaw rate:	1.287	Roll:	-0.585	Pitch:	0.206	Yaw:	-11.736	Thrust:	81.533
Time:	3.167	Roll Set Point:	0.036	Pitch Set Point:	-0.019	Yaw Set Point:	0.125	X_WP:	0.000	Y_WP:	0.000	Y_WP:	0.500	X:	-0.017	Y:	0.011	Z:	0.050	yaw:	-7.144	yaw rate:	-10.070	Roll:	-0.681	Pitch:	0.027	Yaw:	-14.571	Thrust:	81.524
Time:	3.178	Roll Set Point:	0.036	Pitch Set Point:	-0.019	Yaw Set Point:	0.124	X_WP:	0.000	Y_WP:	0.000	Y_WP:	0.500	X:	-0.017	Y:	0.010	Z:	0.050	yaw:	-7.124	yaw rate:	1.952	Roll:	-0.773	Pitch:	0.179	Yaw:	-11.691	Thrust:	82.574
Time:	3.190	Roll Set Point:	0.035	Pitch Set Point:	-0.019	Yaw Set Point:	0.123	X_WP:	0.000	Y_WP:	0.000	Y_WP:	0.500	X:	-0.017	Y:	0.011	Z:	0.050	yaw:	-7.025	yaw rate:	9.908	Roll:	-0.248	Pitch:	0.650	Yaw:	-9.663	Thrust:	83.126
Time:	3.201	Roll Set Point:	0.036	Pitch Set Point:	-0.019	Yaw Set Point:	0.123	X_WP:	0.000	Y_WP:	0.000	Y_WP:	0.500	X:	-0.017	Y:	0.010	Z:	0.050	yaw:	-7.073	yaw rate:	-4.768	Roll:	-0.731	Pitch:	-0.114	Yaw:	-13.213	Thrust:	83.781
Time:	3.212	Roll Set Point:	0.036	Pitch Set Point:	-0.019	Yaw Set Point:	0.124	X_WP:	0.000	Y_WP:	0.000	Y_WP:	0.500	X:	-0.017	Y:	0.010	Z:	0.050	yaw:	-7.121	yaw rate:	-4.829	Roll:	-0.610	Pitch:	0.333	Yaw:	-13.295	Thrust:	84.079
Time:	3.223	Roll Set Point:	0.036	Pitch Set Point:	-0.019	Yaw Set Point:	0.123	X_WP:	0.000	Y_WP:	0.000	Y_WP:	0.500	X:	-0.017	Y:	0.011	Z:	0.050	yaw:	-7.054	yaw rate:	6.677	Roll:	-0.633	Pitch:	0.488	Yaw:	-10.463	Thrust:	84.688
Time:	3.234	Roll Set Point:	0.036	Pitch Set Point:	-0.019	Yaw Set Point:	0.125	X_WP:	0.000	Y_WP:	0.000	Y_WP:	0.500	X:	-0.017	Y:	0.010	Z:	0.050	yaw:	-7.137	yaw rate:	-8.285	Roll:	-0.692	Pitch:	-0.068	Yaw:	-14.138	Thrust:	85.457
Time:	3.245	Roll Set Point:	0.036	Pitch Set Point:	-0.019	Yaw Set Point:	0.123	X_WP:	0.000	Y_WP:	0.000	Y_WP:	0.500	X:	-0.017	Y:	0.011	Z:	0.050	yaw:	-7.041	yaw rate:	9.616	Roll:	-0.283	Pitch:	0.687	Yaw:	-9.767	Thrust:	86.279
Time:	3.257	Roll Set Point:	0.036	Pitch Set Point:	-0.019	Yaw Set Point:	0.124	X_WP:	0.000	Y_WP:	0.000	Y_WP:	0.500	X:	-0.017	Y:	0.010	Z:	0.050	yaw:	-7.117	yaw rate:	-7.562	Roll:	-0.714	Pitch:	-0.022	Yaw:	-13.984	Thrust:	91.786
Time:	3.269	Roll Set Point:	0.036	Pitch Set Point:	-0.019	Yaw Set Point:	0.123	X_WP:	0.000	Y_WP:	0.000	Y_WP:	0.500	X:	-0.017	Y:	0.011	Z:	0.050	yaw:	-7.061	yaw rate:	5.587	Roll:	-0.501	Pitch:	0.526	Yaw:	-11.037	Thrust:	92.762
Time:	3.280	Roll Set Point:	0.036	Pitch Set Point:	-0.019	Yaw Set Point:	0.124	X_WP:	0.000	Y_WP:	0.000	Y_WP:	0.500	X:	-0.017	Y:	0.010	Z:	0.050	yaw:	-7.129	yaw rate:	-6.795	Roll:	-0.702	Pitch:	-0.024	Yaw:	-13.774	Thrust:	87.900
Time:	3.292	Roll Set Point:	0.036	Pitch Set Point:	-0.019	Yaw Set Point:	0.124	X_WP:	0.000	Y_WP:	0.000	Y_WP:	0.500	X:	-0.017	Y:	0.011	Z:	0.050	yaw:	-7.128	yaw rate:	0.061	Roll:	-0.601	Pitch:	0.301	Yaw:	-12.337	Thrust:	93.905
Time:	3.303	Roll Set Point:	0.036	Pitch Set Point:	-0.019	Yaw Set Point:	0.125	X_WP:	0.000	Y_WP:	0.000	Y_WP:	0.500	X:	-0.017	Y:	0.010	Z:	0.050	yaw:	-7.133	yaw rate:	-0.517	Roll:	-0.586	Pitch:	0.215	Yaw:	-12.294	Thrust:	89.231
Time:	3.314	Roll Set Point:	0.036	Pitch Set Point:	-0.019	Yaw Set Point:	0.125	X_WP:	0.000	Y_WP:	0.000	Y_WP:	0.500	X:	-0.017	Y:	0.010	Z:	0.050	yaw:	-7.138	yaw rate:	-0.409	Roll:	-0.747	Pitch:	0.210	Yaw:	-12.269	Thrust:	89.552
Time:	3.326	Roll Set Point:	0.036	Pitch Set Point:	-0.019	Yaw Set Point:	0.124	X_WP:	0.000	Y_WP:	0.000	Y_WP:	0.500	X:	-0.017	Y:	0.010	Z:	0.050	yaw:	-7.095	yaw rate:	4.294	Roll:	-0.438	Pitch:	0.285	Yaw:	-11.380	Thrust:	96.345
Time:	3.337	Roll Set Point:	0.036	Pitch Set Point:	-0.019	Yaw Set Point:	0.124	X_WP:	0.000	Y_WP:	0.000	Y_WP:	0.500	X:	-0.017	Y:	0.010	Z:	0.050	yaw:	-7.101	yaw rate:	-0.679	Roll:	-0.752	Pitch:	0.194	Yaw:	-12.285	Thrust:	90.938
Time:	3.348	Roll Set Point:	0.036	Pitch Set Point:	-0.019	Yaw Set Point:	0.124	X_WP:	0.000	Y_WP:	0.000	Y_WP:	0.500	X:	-0.017	Y:	0.010	Z:	0.050	yaw:	-7.111	yaw rate:	-0.933	Roll:	-0.433	Pitch:	0.403	Yaw:	-12.348	Thrust:	90.978
Time:	3.359	Roll Set Point:	0.036	Pitch Set Point:	-0.019	Yaw Set Point:	0.124	X_WP:	0.000	Y_WP:	0.000	Y_WP:	0.500	X:	-0.017	Y:	0.010	Z:	0.050	yaw:	-7.130	yaw rate:	1.127	Roll:	-0.764	Pitch:	0.165	Yaw:	-12.618	Thrust:	92.164
Time:	3.370	Roll Set Point:	0.036	Pitch Set Point:	-0.019	Yaw Set Point:	0.124	X_WP:	0.000	Y_WP:	0.000	Y_WP:	0.500	X:	-0.017	Y:	0.010	Z:	0.050	yaw:	-7.130	yaw rate:	1.127	Roll:	-0.596	Pitch:	0.264	Yaw:	-12.162	Thrust:	92.618
Time:	3.381	Roll Set Point:	0.036	Pitch Set Point:	-0.019	Yaw Set Point:	0.123	X_WP:	0.000	Y_WP:	0.000	Y_WP:	0.500	X:	-0.017	Y:	0.010	Z:	0.050	yaw:	-7.043	yaw rate:	8.648	Roll:	-0.377	Pitch:	0.324	Yaw:	-9.977	Thrust:	93.149
Time:	3.392	Roll Set Point:	0.036	Pitch Set Point:	-0.019	Yaw Set Point:	0.124	X_WP:	0.000	Y_WP:	0.000	Y_WP:	0.500	X:	-0.017	Y:	0.011	Z:	0.050	yaw:	-7.110	yaw rate:	-6.713	Roll:	-0.684	Pitch:	0.320	Yaw:	-13.729	Thrust:	93.901
Time:	3.403	Roll Set Point:	0.036	Pitch Set Point:	-0.019	Yaw Set Point:	0.123	X_WP:	0.000	Y_WP:	0.000	Y_WP:	0.500	X:	-0.017	Y:	0.010	Z:	0.050	yaw:	-7.055	yaw rate:	5.553	Roll:	-0.534	Pitch:	0.192	Yaw:	-10.732	Thrust:	94.515
Time:	3.414	Roll Set Point:	0.036	Pitch Set Point:	-0.019	Yaw Set Point:	0.125	X_WP:	0.000	Y_WP:	0.000	Y_WP:	0.500	X:	-0.017	Y:	0.011	Z:	0.050	yaw:	-7.143	yaw rate:	-8.841	Roll:	-0.649	Pitch:	0.319	Yaw:	-14.279	Thrust:	94.585
Time:	3.426	Roll Set Point:	0.036	Pitch Set Point:	-0.019	Yaw Set Point:	0.125	X_WP:	0.000	Y_WP:	0.000	Y_WP:	0.500	X:	-0.017	Y:	0.010	Z:	0.050	yaw:	-7.147	yaw rate:	-0.335	Roll:	-0.615	Pitch:	0.254	Yaw:	-12.458	Thrust:	100.000
Time:	3.437	Roll Set Point:	0.036	Pitch Set Point:	-0.019	Yaw Set Point:	0.124	X_WP:	0.000	Y_WP:	0.000	Y_WP:	0.500	X:	-0.017	Y:	0.010	Z:	0.050	yaw:	-7.127	yaw rate:	1.948	Roll:	-0.711	Pitch:	0.219	Yaw:	-11.695	Thrust:	96.358
Time:	3.448	Roll Set Point:	0.036	Pitch Set Point:	-0.019	Yaw Set Point:	0.124	X_WP:	0.000	Y_WP:	0.000	Y_WP:	0.500	X:	-0.017	Y:	0.010	Z:	0.050	yaw:	-7.116	yaw rate:	1.134	Roll:	-0.451	Pitch:	0.331	Yaw:	-11.872	Thrust:	96.760
Time:	3.459	Roll Set Point:	0.036	Pitch Set Point:	-0.019	Yaw Set Point:	0.123	X_WP:	0.000	Y_WP:	0.000	Y_WP:	0.500	X:	-0.017	Y:	0.011	Z:	0.050	yaw:	-7.038	yaw rate:	7.829	Roll:	-0.586	Pitch:	0.417	Yaw:	-10.174	Thrust:	97.400
Time:	3.470	Roll Set Point:	0.036	Pitch Set Point:	-0.019	Yaw Set Point:	0.124	X_WP:	0.000	Y_WP:	0.000	Y_WP:	0.500	X:	-0.017	Y:	0.011	Z:	0.050	yaw:	-7.122	yaw rate:	-8.483	Roll:	-0.596	Pitch:	0.131	Yaw:	-14.164	Thrust:	97.925
Time:	3.481	Roll Set Point:	0.036	Pitch Set Point:	-0.019	Yaw Set Point:	0.123	X_WP:	0.000	Y_WP:	0.000	Y_WP:	0.500	X:	-0.017	Y:	0.010	Z:	0.050	yaw:	-7.055	yaw rate:	6.747	Roll:	-0.627	Pitch:	0.174	Yaw:	-10.455	Thrust:	98.679
Time:	3.492	Roll Set Point:	0.036	Pitch Set Point:	-0.019	Yaw Set Point:	0.124	X_WP:	0.000	Y_WP:	0.000	Y_WP:	0.500	X:	-0.017	Y:	0.010	Z:	0.050	yaw:	-7.086	yaw rate:	-3.088	Roll:	-0.567	Pitch:	0.306	Yaw:	-12.832	Thrust:	98.980
Time:	3.503	Roll Set Point:	0.036	Pitch Set Point:	-0.019	Yaw Set Point:	0.124	X_WP:	0.000	Y_WP:	0.000	Y_WP:	0.500	X:	-0.017	Y:	0.011	Z:	0.050	yaw:	-7.124	yaw rate:	-3.845	Roll:	-0.653	Pitch:	0.319	Yaw:	-13.066	Thrust:	99.737
Time:	3.514	Roll Set Point:	0.036	Pitch Set Point:	-0.019	Yaw Set Point:	0.123	X_WP:	0.000	Y_WP:	0.000	Y_WP:	0.500	X:	-0.017	Y:	0.010	Z:	0.050	yaw:	-7.071	yaw rate:	5.359	Roll:	-0.721	Pitch:	0.111	Yaw:	-10.805	Thrust:	100.000
Time:	3.525	Roll Set Point:	0.035	Pitch Set Point:	-0.019	Yaw Set Point:	0.122	X_WP:	0.000	Y_WP:	0.000	Y_WP:	0.500	X:	-0.017	Y:	0.011	Z:	0.050	yaw:	-7.012	yaw rate:	5.890	Roll:	-0.254	Pitch:	0.692	Yaw:	-10.599	Thrust:	100.000
Time:	3.536	Roll Set Point:	0.035	Pitch Set Point:	-0.019	Yaw Set Point:	0.123	X_WP:	0.000	Y_WP:	0.000	Y_WP:	0.500	X:	-0.017	Y:	0.011	Z:	0.050	yaw:	-7.035	yaw rate:	-2.341	Roll:	-0.615	Pitch:	0.331	Yaw:	-12.584	Thrust:	100.000
Time:	3.547	Roll Set Point:	0.036	Pitch Set Point:	-0.019	Yaw Set Point:	0.124	X_WP:	0.000	Y_WP:	0.000	Y_WP:	0.500	X:	-0.017	Y:	0.010	Z:	0.050	yaw:	-7.132	yaw rate:	-9.715	Roll:	-0.785	Pitch:	-0.089	Yaw:	-14.471	Thrust:	100.000
Time:	3.558	Roll Set Point:	0.036	Pitch Set Point:	-0.019	Yaw Set Point:	0.124	X_WP:	0.000	Y_WP:	0.000	Y_WP:	0.500	X:	-0.017	Y:	0.010	Z:	0.050	yaw:	-7.102	yaw rate:	2.986	Roll:	-0.568	Pitch:	0.249	Yaw:	-11.414	Thrust:	100.000
Time:	3.569	Roll Set Point:	0.036	Pitch Set Point:	-0.019	Yaw Set Point:	0.124	X_WP:	0.000	Y_WP:	0.000	Y_WP:	0.500	X:	-0.017	Y:	0.011	Z:	0.050	yaw:	-7.133	yaw rate:	-3.065	Roll:	-0.640	Pitch:	0.327	Yaw:	-12.890	Thrust:	100.000
Time:	3.580	Roll Set Point:	0.036	Pitch Set Point:	-0.019	Yaw Set Point:	0.124	X_WP:	0.000	Y_WP:	0.000	Y_WP:	0.500	X:	-0.017	Y:	0.010	Z:	0.050	yaw:	-7.131	yaw rate:	0.254	Roll:	-0.559	Pitch:	0.246	Yaw:	-12.102	Thrust:	100.000
Time:	3.591	Roll Set Point:	0.036	Pitch Set Point:	-0.019	Yaw Set Point:	0.124	X_WP:	0.000	Y_WP:	0.000	Y_WP:	0.500	X:	-0.017	Y:	0.010	Z:	0.050	yaw:	-7.094	yaw rate:	3.646	Roll:	-0.759	Pitch:	0.160	Yaw:	-11.253	Thrust:	100.000
Time:	3.603	Roll Set Point:	0.036	Pitch Set Point:	-0.019	Yaw Set Point:	0.124	X_WP:	0.000	Y_WP:	0.000	Y_WP:	0.500	X:	-0.017	Y:	0.010	Z:	0.050	yaw:	-7.080	yaw rate:	1.381	Roll:	-0.468	Pitch:	0.335	Yaw:	-11.764	Thrust:	100.000
Time:	3.614	Roll Set Point:	0.036	Pitch Set Point:	-0.019	Yaw Set Point:	0.125	X_WP:	0.000	Y_WP:	0.000	Y_WP:	0.500	X:	-0.017	Y:	0.010	Z:	0.050	yaw:	-7.143	yaw rate:	-6.241	Roll:	-0.598	Pitch:	0.318	Yaw:	-13.661	Thrust:	100.000
Time:	3.625	Roll Set Point:	0.036	Pitch Set Point:	-0.019	Yaw Set Point:	0.125	X_WP:	0.000	Y_WP:	0.000	Y_WP:	0.500	X:	-0.017	Y:	0.010	Z:	0.050	yaw:	-7.142	yaw rate:	0.032	Roll:	-0.628	Pitch:	0.272	Yaw:	-12.171	Thrust:	100.000
Time:	3.636	Roll Set Point:	0.036	Pitch Set Point:	-0.019	Yaw Set Point:	0.124	X_WP:	0.000	Y_WP:	0.000	Y_WP:	0.500	X:	-0.017	Y:	0.011	Z:	0.050	yaw:	-7.119	yaw rate:	2.326	Roll:	-0.575	Pitch:	0.307	Yaw:	-11.786	Thrust:	100.000
Time:	3.647	Roll Set Point:	0.036	Pitch Set Point:	-0.019	Yaw Set Point:	0.125	X_WP:	0.000	Y_WP:	0.000	Y_WP:	0.500	X:	-0.017	Y:	0.010	Z:	0.050	yaw:	-7.134	yaw rate:	-1.526	Roll:	-0.769	Pitch:	0.162	Yaw:	-12.530	Thrust:	100.000
Time:	3.658	Roll Set Point:	0.036	Pitch Set Point:	-0.019	Yaw Set Point:	0.124	X_WP:	0.000	Y_WP:	0.000	Y_WP:	0.500	X:	-0.017	Y:	0.010	Z:	0.050	yaw:	-7.104	yaw rate:	3.035	Roll:	-0.492	Pitch:	0.250	Yaw:	-11.405	Thrust:	100.000
Time:	3.669	Roll Set Point:	0.036	Pitch Set Point:	-0.019	Yaw Set Point:	0.124	X_WP:	0.000	Y_WP:	0.000	Y_WP:	0.500	X:	-0.017	Y:	0.010	Z:	0.050	yaw:	-7.111	yaw rate:	-0.661	Roll:	-0.762	Pitch:	0.213	Yaw:	-12.291	Thrust:	100.000
Time:	3.681	Roll Set Point:	0.036	Pitch Set Point:	-0.019	Yaw Set Point:	0.124	X_WP:	0.000	Y_WP:	0.000	Y_WP:	0.500	X:	-0.017	Y:	0.011	Z:	0.050	yaw:	-7.115	yaw rate:	-0.454	Roll:	-0.461	Pitch:	0.437	Yaw:	-12.400	Thrust:	100.000
Time:	3.692	Roll Set Point:	0.036	Pitch Set Point:	-0.019	Yaw Set Point:	0.124	X_WP:	0.000	Y_WP:	0.000	Y_WP:	0.500	X:	-0.017	Y:	0.011	Z:	0.050	yaw:	-7.100	yaw rate:	1.491	Roll:	-0.589	Pitch:	0.481	Yaw:	-11.746	Thrust:	100.000
Time:	3.703	Roll Set Point:	0.036	Pitch Set Point:	-0.019	Yaw Set Point:	0.124	X_WP:	0.000	Y_WP:	0.000	Y_WP:	0.500	X:	-0.017	Y:	0.010	Z:	0.050	yaw:	-7.113	yaw rate:	-1.240	Roll:	-0.626	Pitch:	0.043	Yaw:	-12.431	Thrust:	100.000
Time:	3.714	Roll Set Point:	0.036	Pitch Set Point:	-0.019	Yaw Set Point:	0.124	X_WP:	0.000	Y_WP:	0.000	Y_WP:	0.500	X:	-0.017	Y:	0.011	Z:	0.050	yaw:	-7.102	yaw rate:	1.068	Roll:	-0.567	Pitch:	0.311	Yaw:	-11.869	Thrust:	100.000
Time:	3.725	Roll Set Point:	0.036	Pitch Set Point:	-0.019	Yaw Set Point:	0.123	X_WP:	0.000	Y_WP:	0.000	Y_WP:	0.500	X:	-0.017	Y:	0.010	Z:	0.050	yaw:	-7.074	yaw rate:	2.786	Roll:	-0.623	Pitch:	0.175	Yaw:	-11.422	Thrust:	100.000
Time:	3.736	Roll Set Point:	0.036	Pitch Set Point:	-0.019	Yaw Set Point:	0.125	X_WP:	0.000	Y_WP:	0.000	Y_WP:	0.500	X:	-0.017	Y:	0.011	Z:	0.050	yaw:	-7.148	yaw rate:	-7.424	Roll:	-0.640	Pitch:	0.343	Yaw:	-13.949	Thrust:	100.000
Time:	3.747	Roll Set Point:	0.036	Pitch Set Point:	-0.019	Yaw Set Point:	0.123	X_WP:	0.000	Y_WP:	0.000	Y_WP:	0.500	X:	-0.017	Y:	0.010	Z:	0.050	yaw:	-7.069	yaw rate:	7.922	Roll:	-0.549	Pitch:	0.237	Yaw:	-10.206	Thrust:	100.000
Time:	3.758	Roll Set Point:	0.036	Pitch Set Point:	-0.019	Yaw Set Point:	0.125	X_WP:	0.000	Y_WP:	0.000	Y_WP:	0.500	X:	-0.017	Y:	0.010	Z:	0.050	yaw:	-7.143	yaw rate:	-7.407	Roll:	-0.668	Pitch:	0.289	Yaw:	-13.937	Thrust:	100.000
Time:	3.769	Roll Set Point:	0.036	Pitch Set Point:	-0.019	Yaw Set Point:	0.124	X_WP:	0.000	Y_WP:	0.000	Y_WP:	0.500	X:	-0.017	Y:	0.010	Z:	0.050	yaw:	-7.093	yaw rate:	5.048	Roll:	-0.730	Pitch:	0.170	Yaw:	-10.913	Thrust:	100.000
Time:	3.780	Roll Set Point:	0.036	Pitch Set Point:	-0.019	Yaw Set Point:	0.125	X_WP:	0.000	Y_WP:	0.000	Y_WP:	0.500	X:	-0.017	Y:	0.010	Z:	0.050	yaw:	-7.135	yaw rate:	-4.241	Roll:	-0.663	Pitch:	0.318	Yaw:	-13.174	Thrust:	100.000
Time:	3.791	Roll Set Point:	0.036	Pitch Set Point:	-0.019	Yaw Set Point:	0.124	X_WP:	0.000	Y_WP:	0.000	Y_WP:	0.500	X:	-0.017	Y:	0.010	Z:	0.050	yaw:	-7.102	yaw rate:	3.289	Roll:	-0.399	Pitch:	0.319	Yaw:	-11.342	Thrust:	100.000
Time:	3.803	Roll Set Point:	0.036	Pitch Set Point:	-0.019	Yaw Set Point:	0.123	X_WP:	0.000	Y_WP:	0.000	Y_WP:	0.500	X:	-0.017	Y:	0.010	Z:	0.050	yaw:	-7.067	yaw rate:	3.568	Roll:	-0.640	Pitch:	0.262	Yaw:	-11.234	Thrust:	100.000
Time:	3.814	Roll Set Point:	0.036	Pitch Set Point:	-0.019	Yaw Set Point:	0.124	X_WP:	0.000	Y_WP:	0.000	Y_WP:	0.500	X:	-0.017	Y:	0.010	Z:	0.050	yaw:	-7.121	yaw rate:	-5.483	Roll:	-0.649	Pitch:	0.302	Yaw:	-13.448	Thrust:	100.000
Time:	3.825	Roll Set Point:	0.036	Pitch Set Point:	-0.019	Yaw Set Point:	0.124	X_WP:	0.000	Y_WP:	0.000	Y_WP:	0.500	X:	-0.017	Y:	0.010	Z:	0.050	yaw:	-7.093	yaw rate:	2.823	Roll:	-0.589	Pitch:	0.299	Yaw:	-11.439	Thrust:	100.000
Time:	3.836	Roll Set Point:	0.036	Pitch Set Point:	-0.019	Yaw Set Point:	0.124	X_WP:	0.000	Y_WP:	0.000	Y_WP:	0.500	X:	-0.017	Y:	0.010	Z:	0.050	yaw:	-7.092	yaw rate:	0.166	Roll:	-0.601	Pitch:	0.281	Yaw:	-12.068	Thrust:	100.000
Time:	3.849	Roll Set Point:	0.036	Pitch Set Point:	-0.019	Yaw Set Point:	0.123	X_WP:	0.000	Y_WP:	0.000	Y_WP:	0.500	X:	-0.017	Y:	0.010	Z:	0.050	yaw:	-7.058	yaw rate:	3.351	Roll:	-0.618	Pitch:	0.240	Yaw:	-11.789	Thrust:	100.000
Time:	3.860	Roll Set Point:	0.036	Pitch Set Point:	-0.019	Yaw Set Point:	0.124	X_WP:	0.000	Y_WP:	0.000	Y_WP:	0.500	X:	-0.017	Y:	0.010	Z:	0.050	yaw:	-7.093	yaw rate:	-3.483	Roll:	-0.645	Pitch:	0.268	Yaw:	-12.936	Thrust:	100.000
Time:	3.872	Roll Set Point:	0.036	Pitch Set Point:	-0.019	Yaw Set Point:	0.124	X_WP:	0.000	Y_WP:	0.000	Y_WP:	0.500	X:	-0.017	Y:	0.010	Z:	0.050	yaw:	-7.092	yaw rate:	0.101	Roll:	-0.597	Pitch:	0.283	Yaw:	-12.287	Thrust:	100.000
Time:	3.883	Roll Set Point:	0.036	Pitch Set Point:	-0.019	Yaw Set Point:	0.123	X_WP:	0.000	Y_WP:	0.000	Y_WP:	0.500	X:	-0.017	Y:	0.011	Z:	0.050	yaw:	-7.043	yaw rate:	4.933	Roll:	-0.497	Pitch:	0.555	Yaw:	-10.868	Thrust:	100.000
Time:	3.894	Roll Set Point:	0.036	Pitch Set Point:	-0.019	Yaw Set Point:	0.125	X_WP:	0.000	Y_WP:	0.000	Y_WP:	0.500	X:	-0.017	Y:	0.010	Z:	0.050	yaw:	-7.148	yaw rate:	-10.578	Roll:	-0.913	Pitch:	-0.071	Yaw:	-14.698	Thrust:	100.000
Time:	3.905	Roll Set Point:	0.036	Pitch Set Point:	-0.019	Yaw Set Point:	0.125	X_WP:	0.000	Y_WP:	0.000	Y_WP:	0.500	X:	-0.017	Y:	0.010	Z:	0.050	yaw:	-7.136	yaw rate:	1.282	Roll:	-0.495	Pitch:	0.338	Yaw:	-11.872	Thrust:	100.000
Time:	3.916	Roll Set Point:	0.036	Pitch Set Point:	-0.019	Yaw Set Point:	0.123	X_WP:	0.000	Y_WP:	0.000	Y_WP:	0.500	X:	-0.017	Y:	0.010	Z:	0.050	yaw:	-7.072	yaw rate:	6.311	Roll:	-0.604	Pitch:	0.209	Yaw:	-10.572	Thrust:	100.000
Time:	3.928	Roll Set Point:	0.036	Pitch Set Point:	-0.019	Yaw Set Point:	0.124	X_WP:	0.000	Y_WP:	0.000	Y_WP:	0.500	X:	-0.017	Y:	0.011	Z:	0.050	yaw:	-7.119	yaw rate:	-4.696	Roll:	-0.633	Pitch:	0.385	Yaw:	-13.369	Thrust:	100.000
Time:	3.940	Roll Set Point:	0.036	Pitch Set Point:	-0.019	Yaw Set Point:	0.124	X_WP:	0.000	Y_WP:	0.000	Y_WP:	0.500	X:	-0.017	Y:	0.010	Z:	0.050	yaw:	-7.112	yaw rate:	0.726	Roll:	-0.614	Pitch:	0.224	Yaw:	-12.179	Thrust:	100.000
Time:	3.951	Roll Set Point:	0.036	Pitch Set Point:	-0.019	Yaw Set Point:	0.124	X_WP:	0.000	Y_WP:	0.000	Y_WP:	0.500	X:	-0.017	Y:	0.010	Z:	0.050	yaw:	-7.104	yaw rate:	0.781	Roll:	-0.579	Pitch:	0.273	Yaw:	-11.940	Thrust:	100.000
Time:	3.962	Roll Set Point:	0.036	Pitch Set Point:	-0.019	Yaw Set Point:	0.125	X_WP:	0.000	Y_WP:	0.000	Y_WP:	0.500	X:	-0.017	Y:	0.010	Z:	0.050	yaw:	-7.145	yaw rate:	-4.097	Roll:	-0.803	Pitch:	0.248	Yaw:	-13.155	Thrust:	100.000
Time:	3.973	Roll Set Point:	0.036	Pitch Set Point:	-0.019	Yaw Set Point:	0.123	X_WP:	0.000	Y_WP:	0.000	Y_WP:	0.500	X:	-0.017	Y:	0.011	Z:	0.050	yaw:	-7.041	yaw rate:	10.403	Roll:	-0.315	Pitch:	0.596	Yaw:	-9.569	Thrust:	100.000
Time:	3.985	Roll Set Point:	0.036	Pitch Set Point:	-0.019	Yaw Set Point:	0.124	X_WP:	0.000	Y_WP:	0.000	Y_WP:	0.500	X:	-0.017	Y:	0.010	Z:	0.050	yaw:	-7.125	yaw rate:	-8.362	Roll:	-0.761	Pitch:	0.067	Yaw:	-14.175	Thrust:	100.000
Time:	3.996	Roll Set Point:	0.036	Pitch Set Point:	-0.019	Yaw Set Point:	0.123	X_WP:	0.000	Y_WP:	0.000	Y_WP:	0.500	X:	-0.017	Y:	0.011	Z:	0.050	yaw:	-7.030	yaw rate:	9.471	Roll:	-0.491	Pitch:	0.604	Yaw:	-9.765	Thrust:	100.000
Time:	4.008	Roll Set Point:	0.036	Pitch Set Point:	-0.019	Yaw Set Point:	0.124	X_WP:	0.000	Y_WP:	0.000	Y_WP:	0.500	X:	-0.017	Y:	0.010	Z:	0.050	yaw:	-7.099	yaw rate:	-6.889	Roll:	-0.776	Pitch:	-0.060	Yaw:	-13.817	Thrust:	100.000
Time:	4.019	Roll Set Point:	0.035	Pitch Set Point:	-0.019	Yaw Set Point:	0.122	X_WP:	0.000	Y_WP:	0.000	Y_WP:	0.500	X:	-0.017	Y:	0.011	Z:	0.050	yaw:	-7.018	yaw rate:	8.142	Roll:	-0.426	Pitch:	0.650	Yaw:	-10.071	Thrust:	100.000
Time:	4.030	Roll Set Point:	0.036	Pitch Set Point:	-0.019	Yaw Set Point:	0.123	X_WP:	0.000	Y_WP:	0.000	Y_WP:	0.500	X:	-0.017	Y:	0.010	Z:	0.050	yaw:	-7.073	yaw rate:	-5.574	Roll:	-0.760	Pitch:	-0.057	Yaw:	-13.405	Thrust:	100.000
Time:	4.041	Roll Set Point:	0.036	Pitch Set Point:	-0.019	Yaw Set Point:	0.123	X_WP:	0.000	Y_WP:	0.000	Y_WP:	0.500	X:	-0.017	Y:	0.011	Z:	0.050	yaw:	-7.034	yaw rate:	3.908	Roll:	-0.526	Pitch:	0.572	Yaw:	-11.100	Thrust:	100.000
Time:	4.052	Roll Set Point:	0.036	Pitch Set Point:	-0.019	Yaw Set Point:	0.124	X_WP:	0.000	Y_WP:	0.000	Y_WP:	0.500	X:	-0.017	Y:	0.010	Z:	0.050	yaw:	-7.125	yaw rate:	-9.082	Roll:	-0.883	Pitch:	-0.068	Yaw:	-14.310	Thrust:	100.000
Time:	4.063	Roll Set Point:	0.036	Pitch Set Point:	-0.019	Yaw Set Point:	0.125	X_WP:	0.000	Y_WP:	0.000	Y_WP:	0.500	X:	-0.017	Y:	0.010	Z:	0.050	yaw:	-7.141	yaw rate:	-1.615	Roll:	-0.497	Pitch:	0.360	Yaw:	-12.560	Thrust:	100.000
Time:	4.074	Roll Set Point:	0.036	Pitch Set Point:	-0.019	Yaw Set Point:	0.124	X_WP:	0.000	Y_WP:	0.000	Y_WP:	0.500	X:	-0.017	Y:	0.010	Z:	0.050	yaw:	-7.086	yaw rate:	5.534	Roll:	-0.596	Pitch:	0.245	Yaw:	-10.786	Thrust:	100.000
Time:	4.085	Roll Set Point:	0.036	Pitch Set Point:	-0.019	Yaw Set Point:	0.124	X_WP:	0.000	Y_WP:	0.000	Y_WP:	0.500	X:	-0.017	Y:	0.011	Z:	0.050	yaw:	-7.119	yaw rate:	-3.264	Roll:	-0.662	Pitch:	0.334	Yaw:	-12.920	Thrust:	100.000
Time:	4.096	Roll Set Point:	0.036	Pitch Set Point:	-0.019	Yaw Set Point:	0.124	X_WP:	0.000	Y_WP:	0.000	Y_WP:	0.500	X:	-0.017	Y:	0.010	Z:	0.050	yaw:	-7.077	yaw rate:	4.158	Roll:	-0.605	Pitch:	0.207	Yaw:	-11.100	Thrust:	100.000
Time:	4.107	Roll Set Point:	0.036	Pitch Set Point:	-0.019	Yaw Set Point:	0.124	X_WP:	0.000	Y_WP:	0.000	Y_WP:	0.500	X:	-0.017	Y:	0.010	Z:	0.050	yaw:	-7.133	yaw rate:	-5.607	Roll:	-0.660	Pitch:	0.327	Yaw:	-13.499	Thrust:	100.000
Time:	4.118	Roll Set Point:	0.036	Pitch Set Point:	-0.019	Yaw Set Point:	0.125	X_WP:	0.000	Y_WP:	0.000	Y_WP:	0.500	X:	-0.017	Y:	0.010	Z:	0.050	yaw:	-7.138	yaw rate:	-0.509	Roll:	-0.744	Pitch:	0.213	Yaw:	-12.288	Thrust:	100.000
Time:	4.129	Roll Set Point:	0.036	Pitch Set Point:	-0.019	Yaw Set Point:	0.124	X_WP:	0.000	Y_WP:	0.000	Y_WP:	0.500	X:	-0.017	Y:	0.010	Z:	0.050	yaw:	-7.095	yaw rate:	4.360	Roll:	-0.650	Pitch:	0.225	Yaw:	-11.081	Thrust:	100.000
Time:	4.140	Roll Set Point:	0.036	Pitch Set Point:	-0.019	Yaw Set Point:	0.124	X_WP:	0.000	Y_WP:	0.000	Y_WP:	0.500	X:	-0.017	Y:	0.010	Z:	0.050	yaw:	-7.115	yaw rate:	-2.032	Roll:	-0.453	Pitch:	0.412	Yaw:	-12.621	Thrust:	100.000
Time:	4.152	Roll Set Point:	0.036	Pitch Set Point:	-0.019	Yaw Set Point:	0.124	X_WP:	0.000	Y_WP:	0.000	Y_WP:	0.500	X:	-0.017	Y:	0.010	Z:	0.050	yaw:	-7.107	yaw rate:	0.815	Roll:	-0.656	Pitch:	0.297	Yaw:	-12.152	Thrust:	100.000
Time:	4.163	Roll Set Point:	0.036	Pitch Set Point:	-0.019	Yaw Set Point:	0.123	X_WP:	0.000	Y_WP:	0.000	Y_WP:	0.500	X:	-0.017	Y:	0.010	Z:	0.050	yaw:	-7.074	yaw rate:	3.319	Roll:	-0.615	Pitch:	0.231	Yaw:	-11.295	Thrust:	100.000
Time:	4.175	Roll Set Point:	0.036	Pitch Set Point:	-0.019	Yaw Set Point:	0.125	X_WP:	0.000	Y_WP:	0.000	Y_WP:	0.500	X:	-0.017	Y:	0.010	Z:	0.050	yaw:	-7.154	yaw rate:	-8.071	Roll:	-0.785	Pitch:	0.212	Yaw:	-14.115	Thrust:	100.000
Time:	4.186	Roll Set Point:	0.036	Pitch Set Point:	-0.019	Yaw Set Point:	0.124	X_WP:	0.000	Y_WP:	0.000	Y_WP:	0.500	X:	-0.017	Y:	0.010	Z:	0.050	yaw:	-7.080	yaw rate:	7.405	Roll:	-0.625	Pitch:	0.284	Yaw:	-10.334	Thrust:	100.000
Time:	4.197	Roll Set Point:	0.036	Pitch Set Point:	-0.019	Yaw Set Point:	0.124	X_WP:	0.000	Y_WP:	0.000	Y_WP:	0.500	X:	-0.017	Y:	0.010	Z:	0.050	yaw:	-7.091	yaw rate:	-1.130	Roll:	-0.522	Pitch:	0.377	Yaw:	-12.380	Thrust:	100.000
Time:	4.208	Roll Set Point:	0.036	Pitch Set Point:	-0.019	Yaw Set Point:	0.125	X_WP:	0.000	Y_WP:	0.000	Y_WP:	0.500	X:	-0.017	Y:	0.010	Z:	0.050	yaw:	-7.147	yaw rate:	-5.536	Roll:	-0.735	Pitch:	0.209	Yaw:	-13.499	Thrust:	100.000
Time:	4.219	Roll Set Point:	0.036	Pitch Set Point:	-0.019	Yaw Set Point:	0.124	X_WP:	0.000	Y_WP:	0.000	Y_WP:	0.500	X:	-0.017	Y:	0.010	Z:	0.050	yaw:	-7.101	yaw rate:	4.537	Roll:	-0.536	Pitch:	0.340	Yaw:	-11.045	Thrust:	100.000
Time:	4.230	Roll Set Point:	0.036	Pitch Set Point:	-0.019	Yaw Set Point:	0.125	X_WP:	0.000	Y_WP:	0.000	Y_WP:	0.500	X:	-0.017	Y:	0.010	Z:	0.050	yaw:	-7.161	yaw rate:	-5.993	Roll:	-0.791	Pitch:	0.183	Yaw:	-13.628	Thrust:	100.000
Time:	4.241	Roll Set Point:	0.036	Pitch Set Point:	-0.019	Yaw Set Point:	0.123	X_WP:	0.000	Y_WP:	0.000	Y_WP:	0.500	X:	-0.017	Y:	0.011	Z:	0.050	yaw:	-7.036	yaw rate:	12.496	Roll:	-0.306	Pitch:	0.701	Yaw:	-9.108	Thrust:	100.000
Time:	4.253	Roll Set Point:	0.036	Pitch Set Point:	-0.019	Yaw Set Point:	0.124	X_WP:	0.000	Y_WP:	0.000	Y_WP:	0.500	X:	-0.017	Y:	0.010	Z:	0.050	yaw:	-7.079	yaw rate:	-4.286	Roll:	-0.789	Pitch:	-0.030	Yaw:	-13.212	Thrust:	100.000
Time:	4.265	Roll Set Point:	0.036	Pitch Set Point:	-0.019	Yaw Set Point:	0.124	X_WP:	0.000	Y_WP:	0.000	Y_WP:	0.500	X:	-0.017	Y:	0.010	Z:	0.050	yaw:	-7.112	yaw rate:	-3.273	Roll:	-0.640	Pitch:	0.326	Yaw:	-13.049	Thrust:	100.000
Time:	4.276	Roll Set Point:	0.036	Pitch Set Point:	-0.019	Yaw Set Point:	0.124	X_WP:	0.000	Y_WP:	0.000	Y_WP:	0.500	X:	-0.017	Y:	0.010	Z:	0.050	yaw:	-7.079	yaw rate:	3.273	Roll:	-0.603	Pitch:	0.265	Yaw:	-11.308	Thrust:	100.000
Time:	4.287	Roll Set Point:	0.036	Pitch Set Point:	-0.019	Yaw Set Point:	0.124	X_WP:	0.000	Y_WP:	0.000	Y_WP:	0.500	X:	-0.017	Y:	0.011	Z:	0.050	yaw:	-7.126	yaw rate:	-4.668	Roll:	-0.673	Pitch:	0.347	Yaw:	-13.264	Thrust:	100.000
Time:	4.298	Roll Set Point:	0.036	Pitch Set Point:	-0.019	Yaw Set Point:	0.125	X_WP:	0.000	Y_WP:	0.000	Y_WP:	0.500	X:	-0.017	Y:	0.010	Z:	0.050	yaw:	-7.152	yaw rate:	-2.644	Roll:	-0.785	Pitch:	0.156	Yaw:	-12.820	Thrust:	100.000
Time:	4.309	Roll Set Point:	0.036	Pitch Set Point:	-0.019	Yaw Set Point:	0.124	X_WP:	0.000	Y_WP:	0.000	Y_WP:	0.500	X:	-0.017	Y:	0.011	Z:	0.050	yaw:	-7.125	yaw rate:	2.719	Roll:	-0.486	Pitch:	0.386	Yaw:	-11.516	Thrust:	100.000
Time:	4.320	Roll Set Point:	0.036	Pitch Set Point:	-0.019	Yaw Set Point:	0.124	X_WP:	0.000	Y_WP:	0.000	Y_WP:	0.500	X:	-0.017	Y:	0.011	Z:	0.050	yaw:	-7.115	yaw rate:	0.979	Roll:	-0.621	Pitch:	0.296	Yaw:	-11.908	Thrust:	100.000
Time:	4.331	Roll Set Point:	0.036	Pitch Set Point:	-0.019	Yaw Set Point:	0.124	X_WP:	0.000	Y_WP:	0.000	Y_WP:	0.500	X:	-0.017	Y:	0.010	Z:	0.050	yaw:	-7.120	yaw rate:	-0.447	Roll:	-0.608	Pitch:	0.222	Yaw:	-12.249	Thrust:	100.000
Time:	4.344	Roll Set Point:	0.036	Pitch Set Point:	-0.019	Yaw Set Point:	0.124	X_WP:	0.000	Y_WP:	0.000	Y_WP:	0.500	X:	-0.017	Y:	0.011	Z:	0.050	yaw:	-7.127	yaw rate:	-0.685	Roll:	-0.683	Pitch:	0.345	Yaw:	-12.695	Thrust:	100.000
Time:	4.356	Roll Set Point:	0.036	Pitch Set Point:	-0.019	Yaw Set Point:	0.123	X_WP:	0.000	Y_WP:	0.000	Y_WP:	0.500	X:	-0.017	Y:	0.010	Z:	0.050	yaw:	-7.067	yaw rate:	5.936	Roll:	-0.605	Pitch:	0.248	Yaw:	-10.982	Thrust:	100.000
Time:	4.367	Roll Set Point:	0.036	Pitch Set Point:	-0.019	Yaw Set Point:	0.124	X_WP:	0.000	Y_WP:	0.000	Y_WP:	0.500	X:	-0.017	Y:	0.010	Z:	0.050	yaw:	-7.124	yaw rate:	-5.690	Roll:	-0.691	Pitch:	0.311	Yaw:	-13.504	Thrust:	100.000
Time:	4.378	Roll Set Point:	0.036	Pitch Set Point:	-0.019	Yaw Set Point:	0.124	X_WP:	0.000	Y_WP:	0.000	Y_WP:	0.500	X:	-0.017	Y:	0.010	Z:	0.050	yaw:	-7.097	yaw rate:	2.725	Roll:	-0.624	Pitch:	0.246	Yaw:	-11.468	Thrust:	100.000
Time:	4.390	Roll Set Point:	0.036	Pitch Set Point:	-0.019	Yaw Set Point:	0.125	X_WP:	0.000	Y_WP:	0.000	Y_WP:	0.500	X:	-0.017	Y:	0.010	Z:	0.050	yaw:	-7.140	yaw rate:	-3.168	Roll:	-0.769	Pitch:	0.273	Yaw:	-13.310	Thrust:	100.000
Time:	4.401	Roll Set Point:	0.036	Pitch Set Point:	-0.019	Yaw Set Point:	0.125	X_WP:	0.000	Y_WP:	0.000	Y_WP:	0.500	X:	-0.017	Y:	0.010	Z:	0.050	yaw:	-7.147	yaw rate:	-0.727	Roll:	-0.687	Pitch:	0.243	Yaw:	-12.362	Thrust:	100.000
Time:	4.412	Roll Set Point:	0.036	Pitch Set Point:	-0.019	Yaw Set Point:	0.123	X_WP:	0.000	Y_WP:	0.000	Y_WP:	0.500	X:	-0.017	Y:	0.010	Z:	0.050	yaw:	-7.076	yaw rate:	7.138	Roll:	-0.649	Pitch:	0.244	Yaw:	-10.383	Thrust:	100.000
Time:	4.423	Roll Set Point:	0.036	Pitch Set Point:	-0.019	Yaw Set Point:	0.125	X_WP:	0.000	Y_WP:	0.000	Y_WP:	0.500	X:	-0.017	Y:	0.010	Z:	0.050	yaw:	-7.143	yaw rate:	-6.715	Roll:	-0.447	Pitch:	0.422	Yaw:	-13.773	Thrust:	100.000
Time:	4.437	Roll Set Point:	0.036	Pitch Set Point:	-0.019	Yaw Set Point:	0.123	X_WP:	0.000	Y_WP:	0.000	Y_WP:	0.500	X:	-0.017	Y:	0.011	Z:	0.050	yaw:	-7.054	yaw rate:	8.929	Roll:	-0.660	Pitch:	0.455	Yaw:	-10.991	Thrust:	100.000
Time:	4.448	Roll Set Point:	0.036	Pitch Set Point:	-0.019	Yaw Set Point:	0.124	X_WP:	0.000	Y_WP:	0.000	Y_WP:	0.500	X:	-0.017	Y:	0.010	Z:	0.050	yaw:	-7.128	yaw rate:	-7.468	Roll:	-0.674	Pitch:	0.126	Yaw:	-13.932	Thrust:	100.000
Time:	4.461	Roll Set Point:	0.036	Pitch Set Point:	-0.019	Yaw Set Point:	0.124	X_WP:	0.000	Y_WP:	0.000	Y_WP:	0.500	X:	-0.017	Y:	0.010	Z:	0.050	yaw:	-7.096	yaw rate:	3.246	Roll:	-0.764	Pitch:	0.193	Yaw:	-11.863	Thrust:	100.000
Time:	4.472	Roll Set Point:	0.036	Pitch Set Point:	-0.019	Yaw Set Point:	0.124	X_WP:	0.000	Y_WP:	0.000	Y_WP:	0.500	X:	-0.017	Y:	0.010	Z:	0.050	yaw:	-7.093	yaw rate:	0.275	Roll:	-0.491	Pitch:	0.371	Yaw:	-12.044	Thrust:	100.000
Time:	4.483	Roll Set Point:	0.036	Pitch Set Point:	-0.019	Yaw Set Point:	0.125	X_WP:	0.000	Y_WP:	0.000	Y_WP:	0.500	X:	-0.017	Y:	0.010	Z:	0.050	yaw:	-7.137	yaw rate:	-4.395	Roll:	-0.643	Pitch:	0.324	Yaw:	-13.214	Thrust:	100.000
Time:	4.496	Roll Set Point:	0.036	Pitch Set Point:	-0.019	Yaw Set Point:	0.124	X_WP:	0.000	Y_WP:	0.000	Y_WP:	0.500	X:	-0.017	Y:	0.010	Z:	0.050	yaw:	-7.089	yaw rate:	4.854	Roll:	-0.646	Pitch:	0.256	Yaw:	-11.248	Thrust:	100.000
Time:	4.509	Roll Set Point:	0.036	Pitch Set Point:	-0.019	Yaw Set Point:	0.123	X_WP:	0.000	Y_WP:	0.000	Y_WP:	0.500	X:	-0.017	Y:	0.010	Z:	0.050	yaw:	-7.069	yaw rate:	2.000	Roll:	-0.702	Pitch:	0.297	Yaw:	-12.075	Thrust:	100.000
Time:	4.521	Roll Set Point:	0.036	Pitch Set Point:	-0.019	Yaw Set Point:	0.123	X_WP:	0.000	Y_WP:	0.000	Y_WP:	0.500	X:	-0.017	Y:	0.010	Z:	0.050	yaw:	-7.065	yaw rate:	0.372	Roll:	-0.623	Pitch:	0.304	Yaw:	-12.190	Thrust:	100.000
Time:	4.534	Roll Set Point:	0.036	Pitch Set Point:	-0.019	Yaw Set Point:	0.124	X_WP:	0.000	Y_WP:	0.000	Y_WP:	0.500	X:	-0.017	Y:	0.010	Z:	0.050	yaw:	-7.120	yaw rate:	-5.534	Roll:	-0.709	Pitch:	0.322	Yaw:	-13.660	Thrust:	100.000
Time:	4.547	Roll Set Point:	0.036	Pitch Set Point:	-0.019	Yaw Set Point:	0.125	X_WP:	0.000	Y_WP:	0.000	Y_WP:	0.500	X:	-0.017	Y:	0.011	Z:	0.050	yaw:	-7.140	yaw rate:	-1.999	Roll:	-0.632	Pitch:	0.313	Yaw:	-12.978	Thrust:	100.000
Time:	4.559	Roll Set Point:	0.036	Pitch Set Point:	-0.019	Yaw Set Point:	0.124	X_WP:	0.000	Y_WP:	0.000	Y_WP:	0.500	X:	-0.017	Y:	0.010	Z:	0.050	yaw:	-7.084	yaw rate:	7.442	Roll:	-0.763	Pitch:	0.168	Yaw:	-11.081	Thrust:	100.000
Time:	4.570	Roll Set Point:	0.036	Pitch Set Point:	-0.019	Yaw Set Point:	0.124	X_WP:	0.000	Y_WP:	0.000	Y_WP:	0.500	X:	-0.017	Y:	0.011	Z:	0.050	yaw:	-7.101	yaw rate:	-1.677	Roll:	-0.527	Pitch:	0.440	Yaw:	-12.519	Thrust:	100.000
Time:	4.582	Roll Set Point:	0.036	Pitch Set Point:	-0.019	Yaw Set Point:	0.123	X_WP:	0.000	Y_WP:	0.000	Y_WP:	0.500	X:	-0.017	Y:	0.010	Z:	0.050	yaw:	-7.070	yaw rate:	3.132	Roll:	-0.642	Pitch:	0.220	Yaw:	-11.596	Thrust:	100.000
Time:	4.594	Roll Set Point:	0.036	Pitch Set Point:	-0.019	Yaw Set Point:	0.124	X_WP:	0.000	Y_WP:	0.000	Y_WP:	0.500	X:	-0.017	Y:	0.011	Z:	0.050	yaw:	-7.089	yaw rate:	-1.888	Roll:	-0.648	Pitch:	0.389	Yaw:	-12.715	Thrust:	100.000
Time:	4.605	Roll Set Point:	0.036	Pitch Set Point:	-0.019	Yaw Set Point:	0.125	X_WP:	0.000	Y_WP:	0.000	Y_WP:	0.500	X:	-0.017	Y:	0.010	Z:	0.050	yaw:	-7.146	yaw rate:	-5.692	Roll:	-0.824	Pitch:	0.145	Yaw:	-13.534	Thrust:	100.000
Time:	4.617	Roll Set Point:	0.036	Pitch Set Point:	-0.019	Yaw Set Point:	0.124	X_WP:	0.000	Y_WP:	0.000	Y_WP:	0.500	X:	-0.017	Y:	0.011	Z:	0.050	yaw:	-7.078	yaw rate:	6.806	Roll:	-0.534	Pitch:	0.586	Yaw:	-10.808	Thrust:	100.000
Time:	4.629	Roll Set Point:	0.036	Pitch Set Point:	-0.019	Yaw Set Point:	0.124	X_WP:	0.000	Y_WP:	0.000	Y_WP:	0.500	X:	-0.017	Y:	0.010	Z:	0.050	yaw:	-7.090	yaw rate:	-1.295	Roll:	-0.653	Pitch:	0.045	Yaw:	-12.588	Thrust:	100.000
Time:	4.641	Roll Set Point:	0.036	Pitch Set Point:	-0.019	Yaw Set Point:	0.124	X_WP:	0.000	Y_WP:	0.000	Y_WP:	0.500	X:	-0.017	Y:	0.010	Z:	0.050	yaw:	-7.096	yaw rate:	-0.579	Roll:	-0.621	Pitch:	0.298	Yaw:	-12.441	Thrust:	100.000
Time:	4.653	Roll Set Point:	0.036	Pitch Set Point:	-0.019	Yaw Set Point:	0.123	X_WP:	0.000	Y_WP:	0.000	Y_WP:	0.500	X:	-0.017	Y:	0.010	Z:	0.050	yaw:	-7.069	yaw rate:	2.739	Roll:	-0.656	Pitch:	0.317	Yaw:	-11.680	Thrust:	100.000
Time:	4.665	Roll Set Point:	0.036	Pitch Set Point:	-0.019	Yaw Set Point:	0.124	X_WP:	0.000	Y_WP:	0.000	Y_WP:	0.500	X:	-0.017	Y:	0.011	Z:	0.050	yaw:	-7.104	yaw rate:	-3.482	Roll:	-0.715	Pitch:	0.341	Yaw:	-13.083	Thrust:	100.000
Time:	4.676	Roll Set Point:	0.036	Pitch Set Point:	-0.019	Yaw Set Point:	0.125	X_WP:	0.000	Y_WP:	0.000	Y_WP:	0.500	X:	-0.017	Y:	0.010	Z:	0.050	yaw:	-7.134	yaw rate:	-3.005	Roll:	-0.621	Pitch:	0.262	Yaw:	-12.879	Thrust:	100.000
Time:	4.687	Roll Set Point:	0.036	Pitch Set Point:	-0.019	Yaw Set Point:	0.123	X_WP:	0.000	Y_WP:	0.000	Y_WP:	0.500	X:	-0.017	Y:	0.011	Z:	0.050	yaw:	-7.062	yaw rate:	7.222	Roll:	-0.649	Pitch:	0.534	Yaw:	-10.352	Thrust:	100.000
Time:	4.699	Roll Set Point:	0.036	Pitch Set Point:	-0.019	Yaw Set Point:	0.123	X_WP:	0.000	Y_WP:	0.000	Y_WP:	0.500	X:	-0.017	Y:	0.010	Z:	0.050	yaw:	-7.057	yaw rate:	0.484	Roll:	-0.645	Pitch:	0.052	Yaw:	-12.155	Thrust:	100.000
Time:	4.711	Roll Set Point:	0.036	Pitch Set Point:	-0.019	Yaw Set Point:	0.124	X_WP:	0.000	Y_WP:	0.000	Y_WP:	0.500	X:	-0.017	Y:	0.010	Z:	0.050	yaw:	-7.084	yaw rate:	-2.706	Roll:	-0.812	Pitch:	0.216	Yaw:	-12.885	Thrust:	100.000
Time:	4.724	Roll Set Point:	0.036	Pitch Set Point:	-0.019	Yaw Set Point:	0.124	X_WP:	0.000	Y_WP:	0.000	Y_WP:	0.500	X:	-0.017	Y:	0.010	Z:	0.050	yaw:	-7.119	yaw rate:	-3.568	Roll:	-0.714	Pitch:	0.364	Yaw:	-13.264	Thrust:	100.000
Time:	4.735	Roll Set Point:	0.036	Pitch Set Point:	-0.019	Yaw Set Point:	0.123	X_WP:	0.000	Y_WP:	0.000	Y_WP:	0.500	X:	-0.017	Y:	0.011	Z:	0.050	yaw:	-7.054	yaw rate:	3.617	Roll:	-0.380	Pitch:	0.624	Yaw:	-10.490	Thrust:	100.000
Time:	4.748	Roll Set Point:	0.036	Pitch Set Point:	-0.019	Yaw Set Point:	0.125	X_WP:	0.000	Y_WP:	0.000	Y_WP:	0.500	X:	-0.017	Y:	0.010	Z:	0.050	yaw:	-7.150	yaw rate:	-9.641	Roll:	-0.892	Pitch:	-0.025	Yaw:	-14.526	Thrust:	100.000
Time:	4.760	Roll Set Point:	0.036	Pitch Set Point:	-0.019	Yaw Set Point:	0.124	X_WP:	0.000	Y_WP:	0.000	Y_WP:	0.500	X:	-0.017	Y:	0.010	Z:	0.050	yaw:	-7.127	yaw rate:	2.243	Roll:	-0.593	Pitch:	0.383	Yaw:	-11.870	Thrust:	100.000
Time:	4.772	Roll Set Point:	0.036	Pitch Set Point:	-0.019	Yaw Set Point:	0.125	X_WP:	0.000	Y_WP:	0.000	Y_WP:	0.500	X:	-0.017	Y:	0.011	Z:	0.050	yaw:	-7.137	yaw rate:	-0.984	Roll:	-0.628	Pitch:	0.314	Yaw:	-12.586	Thrust:	100.000
Time:	4.784	Roll Set Point:	0.036	Pitch Set Point:	-0.019	Yaw Set Point:	0.123	X_WP:	0.000	Y_WP:	0.000	Y_WP:	0.500	X:	-0.017	Y:	0.011	Z:	0.050	yaw:	-7.039	yaw rate:	9.792	Roll:	-0.680	Pitch:	0.516	Yaw:	-10.104	Thrust:	100.000
Time:	4.797	Roll Set Point:	0.036	Pitch Set Point:	-0.019	Yaw Set Point:	0.124	X_WP:	0.000	Y_WP:	0.000	Y_WP:	0.500	X:	-0.017	Y:	0.010	Z:	0.050	yaw:	-7.081	yaw rate:	-4.157	Roll:	-0.606	Pitch:	0.000	Yaw:	-13.329	Thrust:	100.000
Time:	4.810	Roll Set Point:	0.036	Pitch Set Point:	-0.019	Yaw Set Point:	0.124	X_WP:	0.000	Y_WP:	0.000	Y_WP:	0.500	X:	-0.017	Y:	0.010	Z:	0.050	yaw:	-7.129	yaw rate:	-4.794	Roll:	-0.844	Pitch:	0.297	Yaw:	-13.524	Thrust:	100.000
Time:	4.822	Roll Set Point:	0.036	Pitch Set Point:	-0.019	Yaw Set Point:	0.125	X_WP:	0.000	Y_WP:	0.000	Y_WP:	0.500	X:	-0.017	Y:	0.010	Z:	0.050	yaw:	-7.146	yaw rate:	-1.720	Roll:	-0.529	Pitch:	0.355	Yaw:	-12.759	Thrust:	100.000
Time:	4.833	Roll Set Point:	0.036	Pitch Set Point:	-0.019	Yaw Set Point:	0.123	X_WP:	0.000	Y_WP:	0.000	Y_WP:	0.500	X:	-0.017	Y:	0.011	Z:	0.050	yaw:	-7.040	yaw rate:	10.634	Roll:	-0.541	Pitch:	0.610	Yaw:	-9.511	Thrust:	100.000
Time:	4.844	Roll Set Point:	0.036	Pitch Set Point:	-0.019	Yaw Set Point:	0.123	X_WP:	0.000	Y_WP:	0.000	Y_WP:	0.500	X:	-0.017	Y:	0.011	Z:	0.050	yaw:	-7.039	yaw rate:	0.057	Roll:	-0.630	Pitch:	0.322	Yaw:	-12.021	Thrust:	100.000
Time:	4.855	Roll Set Point:	0.036	Pitch Set Point:	-0.019	Yaw Set Point:	0.125	X_WP:	0.000	Y_WP:	0.000	Y_WP:	0.500	X:	-0.017	Y:	0.010	Z:	0.050	yaw:	-7.149	yaw rate:	2.307	Roll:	-0.932	Pitch:	-0.124	Yaw:	-14.804	Thrust:	100.000
Time:	4.866	Roll Set Point:	0.036	Pitch Set Point:	-0.019	Yaw Set Point:	0.125	X_WP:	0.000	Y_WP:	0.000	Y_WP:	0.500	X:	-0.017	Y:	0.010	Z:	0.050	yaw:	-7.149	yaw rate:	2.307	Roll:	-0.662	Pitch:	0.294	Yaw:	-12.188	Thrust:	100.000
Time:	4.878	Roll Set Point:	0.036	Pitch Set Point:	-0.019	Yaw Set Point:	0.125	X_WP:	0.000	Y_WP:	0.000	Y_WP:	0.500	X:	-0.017	Y:	0.010	Z:	0.050	yaw:	-7.158	yaw rate:	-6.640	Roll:	-0.682	Pitch:	0.318	Yaw:	-12.404	Thrust:	100.000
Time:	4.889	Roll Set Point:	0.036	Pitch Set Point:	-0.019	Yaw Set Point:	0.125	X_WP:	0.000	Y_WP:	0.000	Y_WP:	0.500	X:	-0.017	Y:	0.010	Z:	0.050	yaw:	-7.158	yaw rate:	-6.640	Roll:	-0.663	Pitch:	0.295	Yaw:	-12.200	Thrust:	100.000
Time:	4.902	Roll Set Point:	0.036	Pitch Set Point:	-0.019	Yaw Set Point:	0.123	X_WP:	0.000	Y_WP:	0.000	Y_WP:	0.500	X:	-0.017	Y:	0.011	Z:	0.050	yaw:	-7.041	yaw rate:	11.654	Roll:	-0.407	Pitch:	0.639	Yaw:	-10.098	Thrust:	100.000
Time:	4.914	Roll Set Point:	0.036	Pitch Set Point:	-0.019	Yaw Set Point:	0.124	X_WP:	0.000	Y_WP:	0.000	Y_WP:	0.500	X:	-0.017	Y:	0.010	Z:	0.050	yaw:	-7.077	yaw rate:	3.056	Roll:	-0.801	Pitch:	-0.020	Yaw:	-13.068	Thrust:	100.000
Time:	4.927	Roll Set Point:	0.036	Pitch Set Point:	-0.019	Yaw Set Point:	0.124	X_WP:	0.000	Y_WP:	0.000	Y_WP:	0.500	X:	-0.017	Y:	0.010	Z:	0.050	yaw:	-7.126	yaw rate:	-4.883	Roll:	-0.682	Pitch:	0.340	Yaw:	-13.538	Thrust:	100.000
Time:	4.938	Roll Set Point:	0.036	Pitch Set Point:	-0.019	Yaw Set Point:	0.123	X_WP:	0.000	Y_WP:	0.000	Y_WP:	0.500	X:	-0.017	Y:	0.010	Z:	0.050	yaw:	-7.070	yaw rate:	5.627	Roll:	-0.639	Pitch:	0.264	Yaw:	-10.742	Thrust:	100.000
Time:	4.950	Roll Set Point:	0.036	Pitch Set Point:	-0.019	Yaw Set Point:	0.123	X_WP:	0.000	Y_WP:	0.000	Y_WP:	0.500	X:	-0.017	Y:	0.011	Z:	0.050	yaw:	-7.024	yaw rate:	4.600	Roll:	-0.576	Pitch:	0.640	Yaw:	-10.921	Thrust:	100.000
Time:	4.963	Roll Set Point:	0.036	Pitch Set Point:	-0.019	Yaw Set Point:	0.124	X_WP:	0.000	Y_WP:	0.000	Y_WP:	0.500	X:	-0.017	Y:	0.010	Z:	0.050	yaw:	-7.104	yaw rate:	-8.000	Roll:	-0.755	Pitch:	0.021	Yaw:	-14.218	Thrust:	100.000
Time:	4.976	Roll Set Point:	0.036	Pitch Set Point:	-0.019	Yaw Set Point:	0.122	X_WP:	0.000	Y_WP:	0.000	Y_WP:	0.500	X:	-0.017	Y:	0.011	Z:	0.050	yaw:	-7.010	yaw rate:	9.413	Roll:	-0.634	Pitch:	0.608	Yaw:	-10.145	Thrust:	100.000
Time:	4.989	Roll Set Point:	0.036	Pitch Set Point:	-0.019	Yaw Set Point:	0.124	X_WP:	0.000	Y_WP:	0.000	Y_WP:	0.500	X:	-0.017	Y:	0.010	Z:	0.050	yaw:	-7.132	yaw rate:	-12.212	Roll:	-0.839	Pitch:	0.013	Yaw:	-15.018	Thrust:	100.000
Time:	5.001	Roll Set Point:	0.036	Pitch Set Point:	-0.019	Yaw Set Point:	0.124	X_WP:	0.000	Y_WP:	0.000	Y_WP:	0.500	X:	-0.017	Y:	0.010	Z:	0.050	yaw:	-7.118	yaw rate:	1.430	Roll:	-0.626	Pitch:	0.346	Yaw:	-12.258	Thrust:	100.000
Time:	5.015	Roll Set Point:	0.036	Pitch Set Point:	-0.019	Yaw Set Point:	0.124	X_WP:	0.000	Y_WP:	0.000	Y_WP:	0.500	X:	-0.017	Y:	0.010	Z:	0.050	yaw:	-7.128	yaw rate:	-1.017	Roll:	-0.727	Pitch:	0.273	Yaw:	-12.950	Thrust:	100.000
Time:	5.027	Roll Set Point:	0.036	Pitch Set Point:	-0.019	Yaw Set Point:	0.125	X_WP:	0.000	Y_WP:	0.000	Y_WP:	0.500	X:	-0.017	Y:	0.010	Z:	0.050	yaw:	-7.140	yaw rate:	-5.698	Roll:	-0.800	Pitch:	0.244	Yaw:	-12.633	Thrust:	100.000
Time:	5.039	Roll Set Point:	0.036	Pitch Set Point:	-0.019	Yaw Set Point:	0.123	X_WP:	0.000	Y_WP:	0.000	Y_WP:	0.500	X:	-0.017	Y:	0.011	Z:	0.050	yaw:	-7.043	yaw rate:	9.668	Roll:	-0.405	Pitch:	0.704	Yaw:	-9.744	Thrust:	100.000
Time:	5.051	Roll Set Point:	0.036	Pitch Set Point:	-0.019	Yaw Set Point:	0.124	X_WP:	0.000	Y_WP:	0.000	Y_WP:	0.500	X:	-0.017	Y:	0.010	Z:	0.050	yaw:	-7.078	yaw rate:	-3.505	Roll:	-0.815	Pitch:	-0.004	Yaw:	-13.194	Thrust:	100.000
Time:	5.062	Roll Set Point:	0.036	Pitch Set Point:	-0.019	Yaw Set Point:	0.123	X_WP:	0.000	Y_WP:	0.000	Y_WP:	0.500	X:	-0.017	Y:	0.011	Z:	0.050	yaw:	-7.050	yaw rate:	2.804	Roll:	-0.531	Pitch:	0.662	Yaw:	-11.384	Thrust:	100.000
Time:	5.074	Roll Set Point:	0.036	Pitch Set Point:	-0.019	Yaw Set Point:	0.125	X_WP:	0.000	Y_WP:	0.000	Y_WP:	0.500	X:	-0.017	Y:	0.011	Z:	0.050	yaw:	-7.167	yaw rate:	-11.702	Roll:	-0.788	Pitch:	0.010	Yaw:	-14.959	Thrust:	100.000
Time:	5.086	Roll Set Point:	0.036	Pitch Set Point:	-0.019	Yaw Set Point:	0.123	X_WP:	0.000	Y_WP:	0.000	Y_WP:	0.500	X:	-0.017	Y:	0.010	Z:	0.050	yaw:	-7.071	yaw rate:	9.551	Roll:	-0.694	Pitch:	0.271	Yaw:	-10.202	Thrust:	100.000
Time:	5.097	Roll Set Point:	0.036	Pitch Set Point:	-0.019	Yaw Set Point:	0.125	X_WP:	0.000	Y_WP:	0.000	Y_WP:	0.500	X:	-0.017	Y:	0.010	Z:	0.050	yaw:	-7.152	yaw rate:	-8.072	Roll:	-0.816	Pitch:	0.245	Yaw:	-14.108	Thrust:	100.000
