Time:	2.109	Roll Set Point:	-0.235	Pitch Set Point:	-0.114	Yaw Set Point:	-0.585	X_WP:	0.000	Y_WP:	0.000	Y_WP:	0.500	X:	0.100	Y:	0.093	Z:	0.402	yaw:	33.490	yaw rate:	0.049	Roll:	3.904	Pitch:	0.636	Yaw:	46.761	Thrust:	5.370
Time:	2.125	Roll Set Point:	-0.235	Pitch Set Point:	-0.114	Yaw Set Point:	-0.585	X_WP:	0.000	Y_WP:	0.000	Y_WP:	0.500	X:	0.100	Y:	0.093	Z:	0.402	yaw:	33.503	yaw rate:	1.244	Roll:	3.931	Pitch:	0.623	Yaw:	47.170	Thrust:	5.682
Time:	2.140	Roll Set Point:	-0.235	Pitch Set Point:	-0.114	Yaw Set Point:	-0.584	X_WP:	0.000	Y_WP:	0.000	Y_WP:	0.500	X:	0.100	Y:	0.093	Z:	0.402	yaw:	33.486	yaw rate:	-1.628	Roll:	3.856	Pitch:	0.628	Yaw:	46.849	Thrust:	5.580
Time:	2.156	Roll Set Point:	-0.235	Pitch Set Point:	-0.114	Yaw Set Point:	-0.585	X_WP:	0.000	Y_WP:	0.000	Y_WP:	0.500	X:	0.100	Y:	0.093	Z:	0.402	yaw:	33.494	yaw rate:	0.729	Roll:	3.926	Pitch:	0.644	Yaw:	47.437	Thrust:	5.875
Time:	2.172	Roll Set Point:	-0.235	Pitch Set Point:	-0.114	Yaw Set Point:	-0.585	X_WP:	0.000	Y_WP:	0.000	Y_WP:	0.500	X:	0.100	Y:	0.093	Z:	0.402	yaw:	33.494	yaw rate:	0.729	Roll:	3.924	Pitch:	0.639	Yaw:	47.495	Thrust:	6.099
Time:	2.187	Roll Set Point:	-0.235	Pitch Set Point:	-0.114	Yaw Set Point:	-0.585	X_WP:	0.000	Y_WP:	0.000	Y_WP:	0.500	X:	0.100	Y:	0.093	Z:	0.402	yaw:	33.512	yaw rate:	0.897	Roll:	3.963	Pitch:	0.596	Yaw:	48.010	Thrust:	6.390
Time:	2.203	Roll Set Point:	-0.235	Pitch Set Point:	-0.114	Yaw Set Point:	-0.585	X_WP:	0.000	Y_WP:	0.000	Y_WP:	0.500	X:	0.100	Y:	0.093	Z:	0.402	yaw:	33.512	yaw rate:	-0.005	Roll:	3.934	Pitch:	0.629	Yaw:	47.889	Thrust:	6.558
Time:	2.219	Roll Set Point:	-0.235	Pitch Set Point:	-0.114	Yaw Set Point:	-0.585	X_WP:	0.000	Y_WP:	0.000	Y_WP:	0.500	X:	0.100	Y:	0.093	Z:	0.402	yaw:	33.512	yaw rate:	-0.005	Roll:	3.941	Pitch:	0.640	Yaw:	48.068	Thrust:	6.651
Time:	2.234	Roll Set Point:	-0.235	Pitch Set Point:	-0.115	Yaw Set Point:	-0.585	X_WP:	0.000	Y_WP:	0.000	Y_WP:	0.500	X:	0.100	Y:	0.093	Z:	0.402	yaw:	33.497	yaw rate:	-0.788	Roll:	3.950	Pitch:	0.727	Yaw:	47.989	Thrust:	6.724
Time:	2.250	Roll Set Point:	-0.235	Pitch Set Point:	-0.115	Yaw Set Point:	-0.585	X_WP:	0.000	Y_WP:	0.000	Y_WP:	0.500	X:	0.100	Y:	0.093	Z:	0.402	yaw:	33.497	yaw rate:	-0.788	Roll:	3.951	Pitch:	0.644	Yaw:	48.333	Thrust:	7.018
Time:	2.266	Roll Set Point:	-0.235	Pitch Set Point:	-0.114	Yaw Set Point:	-0.585	X_WP:	0.000	Y_WP:	0.000	Y_WP:	0.500	X:	0.100	Y:	0.093	Z:	0.402	yaw:	33.507	yaw rate:	0.969	Roll:	3.957	Pitch:	0.575	Yaw:	48.501	Thrust:	7.151
Time:	2.281	Roll Set Point:	-0.235	Pitch Set Point:	-0.114	Yaw Set Point:	-0.585	X_WP:	0.000	Y_WP:	0.000	Y_WP:	0.500	X:	0.100	Y:	0.093	Z:	0.402	yaw:	33.504	yaw rate:	-0.223	Roll:	3.925	Pitch:	0.634	Yaw:	48.306	Thrust:	7.487
Time:	2.297	Roll Set Point:	-0.235	Pitch Set Point:	-0.115	Yaw Set Point:	-0.584	X_WP:	0.000	Y_WP:	0.000	Y_WP:	0.500	X:	0.100	Y:	0.093	Z:	0.402	yaw:	33.486	yaw rate:	-2.793	Roll:	4.009	Pitch:	0.754	Yaw:	48.004	Thrust:	7.525
Time:	2.312	Roll Set Point:	-0.235	Pitch Set Point:	-0.115	Yaw Set Point:	-0.584	X_WP:	0.000	Y_WP:	0.000	Y_WP:	0.500	X:	0.100	Y:	0.093	Z:	0.402	yaw:	33.486	yaw rate:	-2.793	Roll:	3.973	Pitch:	0.648	Yaw:	48.318	Thrust:	7.751
Time:	2.328	Roll Set Point:	-0.235	Pitch Set Point:	-0.114	Yaw Set Point:	-0.585	X_WP:	0.000	Y_WP:	0.000	Y_WP:	0.500	X:	0.100	Y:	0.093	Z:	0.402	yaw:	33.536	yaw rate:	4.265	Roll:	3.960	Pitch:	0.480	Yaw:	49.231	Thrust:	8.054
Time:	2.344	Roll Set Point:	-0.235	Pitch Set Point:	-0.114	Yaw Set Point:	-0.585	X_WP:	0.000	Y_WP:	0.000	Y_WP:	0.500	X:	0.100	Y:	0.093	Z:	0.402	yaw:	33.516	yaw rate:	-1.955	Roll:	3.957	Pitch:	0.663	Yaw:	48.033	Thrust:	8.088
Time:	2.359	Roll Set Point:	-0.235	Pitch Set Point:	-0.114	Yaw Set Point:	-0.585	X_WP:	0.000	Y_WP:	0.000	Y_WP:	0.500	X:	0.100	Y:	0.093	Z:	0.402	yaw:	33.497	yaw rate:	-1.971	Roll:	3.971	Pitch:	0.724	Yaw:	47.960	Thrust:	8.081
Time:	2.375	Roll Set Point:	-0.235	Pitch Set Point:	-0.114	Yaw Set Point:	-0.585	X_WP:	0.000	Y_WP:	0.000	Y_WP:	0.500	X:	0.100	Y:	0.093	Z:	0.402	yaw:	33.502	yaw rate:	0.487	Roll:	4.039	Pitch:	0.654	Yaw:	48.425	Thrust:	8.471
Time:	2.390	Roll Set Point:	-0.235	Pitch Set Point:	-0.114	Yaw Set Point:	-0.584	X_WP:	0.000	Y_WP:	0.000	Y_WP:	0.500	X:	0.100	Y:	0.093	Z:	0.402	yaw:	33.488	yaw rate:	-1.388	Roll:	3.973	Pitch:	0.677	Yaw:	48.084	Thrust:	8.758
Time:	2.406	Roll Set Point:	-0.235	Pitch Set Point:	-0.114	Yaw Set Point:	-0.585	X_WP:	0.000	Y_WP:	0.000	Y_WP:	0.500	X:	0.100	Y:	0.093	Z:	0.402	yaw:	33.502	yaw rate:	1.458	Roll:	3.985	Pitch:	0.575	Yaw:	48.585	Thrust:	8.820
Time:	2.421	Roll Set Point:	-0.235	Pitch Set Point:	-0.114	Yaw Set Point:	-0.585	X_WP:	0.000	Y_WP:	0.000	Y_WP:	0.500	X:	0.100	Y:	0.093	Z:	0.402	yaw:	33.506	yaw rate:	0.396	Roll:	4.037	Pitch:	0.703	Yaw:	48.412	Thrust:	9.034
Time:	2.437	Roll Set Point:	-0.235	Pitch Set Point:	-0.115	Yaw Set Point:	-0.585	X_WP:	0.000	Y_WP:	0.000	Y_WP:	0.500	X:	0.100	Y:	0.093	Z:	0.402	yaw:	33.501	yaw rate:	-0.537	Roll:	4.047	Pitch:	0.673	Yaw:	48.249	Thrust:	9.110
Time:	2.453	Roll Set Point:	-0.235	Pitch Set Point:	-0.115	Yaw Set Point:	-0.585	X_WP:	0.000	Y_WP:	0.000	Y_WP:	0.500	X:	0.100	Y:	0.093	Z:	0.402	yaw:	33.501	yaw rate:	-0.537	Roll:	4.020	Pitch:	0.654	Yaw:	48.339	Thrust:	9.396
Time:	2.468	Roll Set Point:	-0.235	Pitch Set Point:	-0.114	Yaw Set Point:	-0.585	X_WP:	0.000	Y_WP:	0.000	Y_WP:	0.500	X:	0.100	Y:	0.093	Z:	0.402	yaw:	33.498	yaw rate:	-0.260	Roll:	3.997	Pitch:	0.638	Yaw:	48.292	Thrust:	9.672
Time:	2.484	Roll Set Point:	-0.235	Pitch Set Point:	-0.114	Yaw Set Point:	-0.584	X_WP:	0.000	Y_WP:	0.000	Y_WP:	0.500	X:	0.100	Y:	0.093	Z:	0.402	yaw:	33.476	yaw rate:	-1.796	Roll:	3.989	Pitch:	0.675	Yaw:	47.925	Thrust:	9.632
Time:	2.500	Roll Set Point:	-0.235	Pitch Set Point:	-0.114	Yaw Set Point:	-0.584	X_WP:	0.000	Y_WP:	0.000	Y_WP:	0.500	X:	0.100	Y:	0.093	Z:	0.402	yaw:	33.476	yaw rate:	-1.796	Roll:	4.034	Pitch:	0.657	Yaw:	48.307	Thrust:	9.953
Time:	2.515	Roll Set Point:	-0.235	Pitch Set Point:	-0.115	Yaw Set Point:	-0.585	X_WP:	0.000	Y_WP:	0.000	Y_WP:	0.500	X:	0.100	Y:	0.093	Z:	0.402	yaw:	33.493	yaw rate:	1.696	Roll:	4.124	Pitch:	0.706	Yaw:	48.609	Thrust:	10.223
Time:	2.531	Roll Set Point:	-0.235	Pitch Set Point:	-0.114	Yaw Set Point:	-0.584	X_WP:	0.000	Y_WP:	0.000	Y_WP:	0.500	X:	0.100	Y:	0.093	Z:	0.402	yaw:	33.487	yaw rate:	-0.546	Roll:	4.004	Pitch:	0.620	Yaw:	48.228	Thrust:	10.423
Time:	2.546	Roll Set Point:	-0.235	Pitch Set Point:	-0.114	Yaw Set Point:	-0.584	X_WP:	0.000	Y_WP:	0.000	Y_WP:	0.500	X:	0.100	Y:	0.093	Z:	0.402	yaw:	33.486	yaw rate:	-1.616	Roll:	4.057	Pitch:	0.643	Yaw:	48.299	Thrust:	10.343
Time:	2.562	Roll Set Point:	-0.235	Pitch Set Point:	-0.115	Yaw Set Point:	-0.585	X_WP:	0.000	Y_WP:	0.000	Y_WP:	0.500	X:	0.100	Y:	0.093	Z:	0.402	yaw:	33.500	yaw rate:	1.356	Roll:	4.103	Pitch:	0.705	Yaw:	48.564	Thrust:	10.803
Time:	2.578	Roll Set Point:	-0.235	Pitch Set Point:	-0.114	Yaw Set Point:	-0.585	X_WP:	0.000	Y_WP:	0.000	Y_WP:	0.500	X:	0.100	Y:	0.093	Z:	0.402	yaw:	33.497	yaw rate:	-0.206	Roll:	4.012	Pitch:	0.586	Yaw:	48.299	Thrust:	10.744
Time:	2.593	Roll Set Point:	-0.235	Pitch Set Point:	-0.114	Yaw Set Point:	-0.585	X_WP:	0.000	Y_WP:	0.000	Y_WP:	0.500	X:	0.100	Y:	0.093	Z:	0.402	yaw:	33.512	yaw rate:	1.434	Roll:	4.058	Pitch:	0.628	Yaw:	48.595	Thrust:	11.202
Time:	2.609	Roll Set Point:	-0.235	Pitch Set Point:	-0.114	Yaw Set Point:	-0.585	X_WP:	0.000	Y_WP:	0.000	Y_WP:	0.500	X:	0.100	Y:	0.093	Z:	0.402	yaw:	33.514	yaw rate:	0.183	Roll:	4.087	Pitch:	0.657	Yaw:	48.387	Thrust:	11.157
Time:	2.625	Roll Set Point:	-0.235	Pitch Set Point:	-0.115	Yaw Set Point:	-0.584	X_WP:	0.000	Y_WP:	0.000	Y_WP:	0.500	X:	0.100	Y:	0.093	Z:	0.402	yaw:	33.483	yaw rate:	-3.038	Roll:	4.092	Pitch:	0.779	Yaw:	47.805	Thrust:	11.294
Time:	2.640	Roll Set Point:	-0.235	Pitch Set Point:	-0.115	Yaw Set Point:	-0.584	X_WP:	0.000	Y_WP:	0.000	Y_WP:	0.500	X:	0.100	Y:	0.093	Z:	0.402	yaw:	33.483	yaw rate:	-3.038	Roll:	4.083	Pitch:	0.666	Yaw:	48.314	Thrust:	11.593
Time:	2.656	Roll Set Point:	-0.235	Pitch Set Point:	-0.114	Yaw Set Point:	-0.584	X_WP:	0.000	Y_WP:	0.000	Y_WP:	0.500	X:	0.100	Y:	0.093	Z:	0.402	yaw:	33.489	yaw rate:	-1.895	Roll:	4.042	Pitch:	0.597	Yaw:	48.413	Thrust:	11.996
Time:	2.671	Roll Set Point:	-0.235	Pitch Set Point:	-0.114	Yaw Set Point:	-0.585	X_WP:	0.000	Y_WP:	0.000	Y_WP:	0.500	X:	0.100	Y:	0.093	Z:	0.402	yaw:	33.518	yaw rate:	2.963	Roll:	4.118	Pitch:	0.602	Yaw:	48.860	Thrust:	11.855
Time:	2.687	Roll Set Point:	-0.235	Pitch Set Point:	-0.115	Yaw Set Point:	-0.585	X_WP:	0.000	Y_WP:	0.000	Y_WP:	0.500	X:	0.100	Y:	0.093	Z:	0.402	yaw:	33.500	yaw rate:	-1.832	Roll:	4.125	Pitch:	0.776	Yaw:	48.031	Thrust:	12.113
Time:	2.703	Roll Set Point:	-0.235	Pitch Set Point:	-0.115	Yaw Set Point:	-0.585	X_WP:	0.000	Y_WP:	0.000	Y_WP:	0.500	X:	0.100	Y:	0.093	Z:	0.402	yaw:	33.500	yaw rate:	-1.832	Roll:	4.104	Pitch:	0.669	Yaw:	48.337	Thrust:	12.326
Time:	2.718	Roll Set Point:	-0.235	Pitch Set Point:	-0.115	Yaw Set Point:	-0.585	X_WP:	0.000	Y_WP:	0.000	Y_WP:	0.500	X:	0.100	Y:	0.093	Z:	0.402	yaw:	33.494	yaw rate:	-0.568	Roll:	4.123	Pitch:	0.705	Yaw:	48.234	Thrust:	12.638
Time:	2.734	Roll Set Point:	-0.235	Pitch Set Point:	-0.114	Yaw Set Point:	-0.585	X_WP:	0.000	Y_WP:	0.000	Y_WP:	0.500	X:	0.100	Y:	0.093	Z:	0.402	yaw:	33.507	yaw rate:	-0.578	Roll:	4.073	Pitch:	0.579	Yaw:	48.561	Thrust:	12.760
Time:	2.750	Roll Set Point:	-0.235	Pitch Set Point:	-0.114	Yaw Set Point:	-0.585	X_WP:	0.000	Y_WP:	0.000	Y_WP:	0.500	X:	0.100	Y:	0.093	Z:	0.402	yaw:	33.499	yaw rate:	-0.849	Roll:	4.120	Pitch:	0.696	Yaw:	48.193	Thrust:	12.572
Time:	2.765	Roll Set Point:	-0.235	Pitch Set Point:	-0.114	Yaw Set Point:	-0.585	X_WP:	0.000	Y_WP:	0.000	Y_WP:	0.500	X:	0.100	Y:	0.093	Z:	0.402	yaw:	33.499	yaw rate:	-0.849	Roll:	4.125	Pitch:	0.671	Yaw:	48.336	Thrust:	13.057
Time:	2.781	Roll Set Point:	-0.235	Pitch Set Point:	-0.115	Yaw Set Point:	-0.585	X_WP:	0.000	Y_WP:	0.000	Y_WP:	0.500	X:	0.100	Y:	0.093	Z:	0.402	yaw:	33.499	yaw rate:	0.076	Roll:	4.135	Pitch:	0.689	Yaw:	48.349	Thrust:	13.284
Time:	2.796	Roll Set Point:	-0.235	Pitch Set Point:	-0.114	Yaw Set Point:	-0.585	X_WP:	0.000	Y_WP:	0.000	Y_WP:	0.500	X:	0.100	Y:	0.093	Z:	0.402	yaw:	33.518	yaw rate:	1.799	Roll:	4.146	Pitch:	0.583	Yaw:	48.680	Thrust:	13.530
Time:	2.812	Roll Set Point:	-0.235	Pitch Set Point:	-0.114	Yaw Set Point:	-0.585	X_WP:	0.000	Y_WP:	0.000	Y_WP:	0.500	X:	0.100	Y:	0.093	Z:	0.402	yaw:	33.518	yaw rate:	1.799	Roll:	4.141	Pitch:	0.672	Yaw:	48.363	Thrust:	13.608
Time:	2.828	Roll Set Point:	-0.235	Pitch Set Point:	-0.115	Yaw Set Point:	-0.585	X_WP:	0.000	Y_WP:	0.000	Y_WP:	0.500	X:	0.100	Y:	0.093	Z:	0.402	yaw:	33.503	yaw rate:	-1.518	Roll:	4.167	Pitch:	0.758	Yaw:	48.087	Thrust:	13.757
Time:	2.843	Roll Set Point:	-0.235	Pitch Set Point:	-0.114	Yaw Set Point:	-0.585	X_WP:	0.000	Y_WP:	0.000	Y_WP:	0.500	X:	0.100	Y:	0.093	Z:	0.402	yaw:	33.507	yaw rate:	0.410	Roll:	4.123	Pitch:	0.628	Yaw:	48.416	Thrust:	13.965
Time:	2.859	Roll Set Point:	-0.235	Pitch Set Point:	-0.114	Yaw Set Point:	-0.585	X_WP:	0.000	Y_WP:	0.000	Y_WP:	0.500	X:	0.100	Y:	0.093	Z:	0.402	yaw:	33.503	yaw rate:	-0.376	Roll:	4.163	Pitch:	0.704	Yaw:	48.279	Thrust:	14.262
Time:	2.875	Roll Set Point:	-0.235	Pitch Set Point:	-0.114	Yaw Set Point:	-0.585	X_WP:	0.000	Y_WP:	0.000	Y_WP:	0.500	X:	0.100	Y:	0.093	Z:	0.402	yaw:	33.504	yaw rate:	0.014	Roll:	4.176	Pitch:	0.663	Yaw:	48.345	Thrust:	14.222
Time:	2.890	Roll Set Point:	-0.235	Pitch Set Point:	-0.114	Yaw Set Point:	-0.585	X_WP:	0.000	Y_WP:	0.000	Y_WP:	0.500	X:	0.100	Y:	0.093	Z:	0.402	yaw:	33.503	yaw rate:	-0.102	Roll:	4.153	Pitch:	0.680	Yaw:	48.324	Thrust:	14.479
Time:	2.906	Roll Set Point:	-0.235	Pitch Set Point:	-0.114	Yaw Set Point:	-0.585	X_WP:	0.000	Y_WP:	0.000	Y_WP:	0.500	X:	0.100	Y:	0.093	Z:	0.402	yaw:	33.520	yaw rate:	1.708	Roll:	4.181	Pitch:	0.625	Yaw:	48.651	Thrust:	14.884
Time:	2.921	Roll Set Point:	-0.235	Pitch Set Point:	-0.114	Yaw Set Point:	-0.585	X_WP:	0.000	Y_WP:	0.000	Y_WP:	0.500	X:	0.100	Y:	0.093	Z:	0.402	yaw:	33.498	yaw rate:	-2.202	Roll:	4.149	Pitch:	0.710	Yaw:	47.967	Thrust:	14.799
Time:	2.937	Roll Set Point:	-0.235	Pitch Set Point:	-0.114	Yaw Set Point:	-0.585	X_WP:	0.000	Y_WP:	0.000	Y_WP:	0.500	X:	0.100	Y:	0.093	Z:	0.402	yaw:	33.498	yaw rate:	-2.202	Roll:	4.182	Pitch:	0.680	Yaw:	48.334	Thrust:	15.072
Time:	2.953	Roll Set Point:	-0.235	Pitch Set Point:	-0.115	Yaw Set Point:	-0.584	X_WP:	0.000	Y_WP:	0.000	Y_WP:	0.500	X:	0.100	Y:	0.093	Z:	0.402	yaw:	33.485	yaw rate:	-1.307	Roll:	4.206	Pitch:	0.766	Yaw:	48.096	Thrust:	15.159
Time:	2.968	Roll Set Point:	-0.235	Pitch Set Point:	-0.114	Yaw Set Point:	-0.584	X_WP:	0.000	Y_WP:	0.000	Y_WP:	0.500	X:	0.100	Y:	0.093	Z:	0.402	yaw:	33.485	yaw rate:	-1.558	Roll:	4.157	Pitch:	0.626	Yaw:	48.333	Thrust:	15.510
Time:	2.984	Roll Set Point:	-0.235	Pitch Set Point:	-0.114	Yaw Set Point:	-0.585	X_WP:	0.000	Y_WP:	0.000	Y_WP:	0.500	X:	0.100	Y:	0.093	Z:	0.402	yaw:	33.498	yaw rate:	1.247	Roll:	4.214	Pitch:	0.666	Yaw:	48.547	Thrust:	15.726
Time:	3.000	Roll Set Point:	-0.235	Pitch Set Point:	-0.114	Yaw Set Point:	-0.585	X_WP:	0.000	Y_WP:	0.000	Y_WP:	0.500	X:	0.100	Y:	0.093	Z:	0.402	yaw:	33.498	yaw rate:	1.247	Roll:	4.203	Pitch:	0.683	Yaw:	48.331	Thrust:	15.785
Time:	3.015	Roll Set Point:	-0.235	Pitch Set Point:	-0.114	Yaw Set Point:	-0.585	X_WP:	0.000	Y_WP:	0.000	Y_WP:	0.500	X:	0.100	Y:	0.093	Z:	0.402	yaw:	33.496	yaw rate:	-1.320	Roll:	4.209	Pitch:	0.710	Yaw:	48.305	Thrust:	15.804
Time:	3.031	Roll Set Point:	-0.235	Pitch Set Point:	-0.114	Yaw Set Point:	-0.584	X_WP:	0.000	Y_WP:	0.000	Y_WP:	0.500	X:	0.100	Y:	0.093	Z:	0.402	yaw:	33.481	yaw rate:	-1.506	Roll:	4.182	Pitch:	0.691	Yaw:	48.063	Thrust:	16.302
Time:	3.047	Roll Set Point:	-0.235	Pitch Set Point:	-0.114	Yaw Set Point:	-0.584	X_WP:	0.000	Y_WP:	0.000	Y_WP:	0.500	X:	0.100	Y:	0.093	Z:	0.402	yaw:	33.487	yaw rate:	0.595	Roll:	4.240	Pitch:	0.687	Yaw:	48.419	Thrust:	16.377
Time:	3.062	Roll Set Point:	-0.235	Pitch Set Point:	-0.114	Yaw Set Point:	-0.585	X_WP:	0.000	Y_WP:	0.000	Y_WP:	0.500	X:	0.100	Y:	0.093	Z:	0.402	yaw:	33.490	yaw rate:	0.293	Roll:	4.243	Pitch:	0.679	Yaw:	48.370	Thrust:	16.457
Time:	3.078	Roll Set Point:	-0.235	Pitch Set Point:	-0.114	Yaw Set Point:	-0.585	X_WP:	0.000	Y_WP:	0.000	Y_WP:	0.500	X:	0.100	Y:	0.093	Z:	0.402	yaw:	33.502	yaw rate:	1.227	Roll:	4.245	Pitch:	0.699	Yaw:	48.547	Thrust:	16.720
Time:	3.093	Roll Set Point:	-0.235	Pitch Set Point:	-0.114	Yaw Set Point:	-0.585	X_WP:	0.000	Y_WP:	0.000	Y_WP:	0.500	X:	0.100	Y:	0.093	Z:	0.402	yaw:	33.514	yaw rate:	1.205	Roll:	4.216	Pitch:	0.638	Yaw:	48.562	Thrust:	17.020
Time:	3.109	Roll Set Point:	-0.235	Pitch Set Point:	-0.114	Yaw Set Point:	-0.585	X_WP:	0.000	Y_WP:	0.000	Y_WP:	0.500	X:	0.100	Y:	0.093	Z:	0.402	yaw:	33.505	yaw rate:	-0.900	Roll:	4.228	Pitch:	0.698	Yaw:	48.191	Thrust:	16.987
Time:	3.125	Roll Set Point:	-0.235	Pitch Set Point:	-0.114	Yaw Set Point:	-0.585	X_WP:	0.000	Y_WP:	0.000	Y_WP:	0.500	X:	0.100	Y:	0.093	Z:	0.402	yaw:	33.505	yaw rate:	-0.900	Roll:	4.245	Pitch:	0.690	Yaw:	48.345	Thrust:	17.269
Time:	3.140	Roll Set Point:	-0.235	Pitch Set Point:	-0.114	Yaw Set Point:	-0.585	X_WP:	0.000	Y_WP:	0.000	Y_WP:	0.500	X:	0.100	Y:	0.093	Z:	0.402	yaw:	33.514	yaw rate:	-0.271	Roll:	4.298	Pitch:	0.711	Yaw:	48.494	Thrust:	17.584
Time:	3.156	Roll Set Point:	-0.235	Pitch Set Point:	-0.114	Yaw Set Point:	-0.584	X_WP:	0.000	Y_WP:	0.000	Y_WP:	0.500	X:	0.100	Y:	0.093	Z:	0.402	yaw:	33.480	yaw rate:	-3.386	Roll:	4.202	Pitch:	0.735	Yaw:	47.742	Thrust:	17.511
Time:	3.172	Roll Set Point:	-0.235	Pitch Set Point:	-0.114	Yaw Set Point:	-0.585	X_WP:	0.000	Y_WP:	0.000	Y_WP:	0.500	X:	0.100	Y:	0.093	Z:	0.402	yaw:	33.491	yaw rate:	1.101	Roll:	4.298	Pitch:	0.689	Yaw:	48.509	Thrust:	17.903
Time:	3.187	Roll Set Point:	-0.235	Pitch Set Point:	-0.114	Yaw Set Point:	-0.585	X_WP:	0.000	Y_WP:	0.000	Y_WP:	0.500	X:	0.100	Y:	0.093	Z:	0.402	yaw:	33.491	yaw rate:	1.101	Roll:	4.267	Pitch:	0.695	Yaw:	48.325	Thrust:	18.010
Time:	3.203	Roll Set Point:	-0.235	Pitch Set Point:	-0.114	Yaw Set Point:	-0.585	X_WP:	0.000	Y_WP:	0.000	Y_WP:	0.500	X:	0.100	Y:	0.093	Z:	0.402	yaw:	33.506	yaw rate:	1.532	Roll:	4.288	Pitch:	0.652	Yaw:	48.602	Thrust:	18.019
Time:	3.218	Roll Set Point:	-0.235	Pitch Set Point:	-0.114	Yaw Set Point:	-0.584	X_WP:	0.000	Y_WP:	0.000	Y_WP:	0.500	X:	0.100	Y:	0.093	Z:	0.402	yaw:	33.488	yaw rate:	-1.829	Roll:	4.264	Pitch:	0.745	Yaw:	48.014	Thrust:	18.395
Time:	3.234	Roll Set Point:	-0.235	Pitch Set Point:	-0.114	Yaw Set Point:	-0.585	X_WP:	0.000	Y_WP:	0.000	Y_WP:	0.500	X:	0.100	Y:	0.093	Z:	0.402	yaw:	33.503	yaw rate:	1.555	Roll:	4.255	Pitch:	0.634	Yaw:	48.605	Thrust:	18.734
Time:	3.250	Roll Set Point:	-0.235	Pitch Set Point:	-0.114	Yaw Set Point:	-0.585	X_WP:	0.000	Y_WP:	0.000	Y_WP:	0.500	X:	0.100	Y:	0.093	Z:	0.402	yaw:	33.497	yaw rate:	-0.626	Roll:	4.278	Pitch:	0.713	Yaw:	48.225	Thrust:	18.619
Time:	3.265	Roll Set Point:	-0.235	Pitch Set Point:	-0.114	Yaw Set Point:	-0.585	X_WP:	0.000	Y_WP:	0.000	Y_WP:	0.500	X:	0.100	Y:	0.093	Z:	0.402	yaw:	33.501	yaw rate:	-0.179	Roll:	4.329	Pitch:	0.719	Yaw:	48.398	Thrust:	19.036
Time:	3.281	Roll Set Point:	-0.235	Pitch Set Point:	-0.114	Yaw Set Point:	-0.584	X_WP:	0.000	Y_WP:	0.000	Y_WP:	0.500	X:	0.100	Y:	0.093	Z:	0.402	yaw:	33.483	yaw rate:	-1.723	Roll:	4.247	Pitch:	0.711	Yaw:	48.025	Thrust:	19.090
Time:	3.297	Roll Set Point:	-0.235	Pitch Set Point:	-0.114	Yaw Set Point:	-0.585	X_WP:	0.000	Y_WP:	0.000	Y_WP:	0.500	X:	0.100	Y:	0.093	Z:	0.402	yaw:	33.497	yaw rate:	1.342	Roll:	4.318	Pitch:	0.681	Yaw:	48.558	Thrust:	19.268
Time:	3.312	Roll Set Point:	-0.235	Pitch Set Point:	-0.114	Yaw Set Point:	-0.585	X_WP:	0.000	Y_WP:	0.000	Y_WP:	0.500	X:	0.100	Y:	0.093	Z:	0.402	yaw:	33.497	yaw rate:	1.342	Roll:	4.308	Pitch:	0.701	Yaw:	48.333	Thrust:	19.468
Time:	3.328	Roll Set Point:	-0.235	Pitch Set Point:	-0.115	Yaw Set Point:	-0.585	X_WP:	0.000	Y_WP:	0.000	Y_WP:	0.500	X:	0.100	Y:	0.093	Z:	0.402	yaw:	33.495	yaw rate:	-1.465	Roll:	4.380	Pitch:	0.776	Yaw:	48.291	Thrust:	19.586
Time:	3.343	Roll Set Point:	-0.235	Pitch Set Point:	-0.114	Yaw Set Point:	-0.585	X_WP:	0.000	Y_WP:	0.000	Y_WP:	0.500	X:	0.100	Y:	0.093	Z:	0.402	yaw:	33.509	yaw rate:	1.435	Roll:	4.272	Pitch:	0.591	Yaw:	48.590	Thrust:	19.881
Time:	3.358	Roll Set Point:	-0.235	Pitch Set Point:	-0.114	Yaw Set Point:	-0.585	X_WP:	0.000	Y_WP:	0.000	Y_WP:	0.500	X:	0.100	Y:	0.093	Z:	0.402	yaw:	33.506	yaw rate:	-0.293	Roll:	4.279	Pitch:	0.683	Yaw:	48.233	Thrust:	19.457
Time:	3.375	Roll Set Point:	-0.235	Pitch Set Point:	-0.114	Yaw Set Point:	-0.585	X_WP:	0.000	Y_WP:	0.000	Y_WP:	0.500	X:	0.100	Y:	0.093	Z:	0.402	yaw:	33.513	yaw rate:	0.729	Roll:	4.403	Pitch:	0.722	Yaw:	48.575	Thrust:	21.202
Time:	3.391	Roll Set Point:	-0.235	Pitch Set Point:	-0.114	Yaw Set Point:	-0.585	X_WP:	0.000	Y_WP:	0.000	Y_WP:	0.500	X:	0.100	Y:	0.093	Z:	0.402	yaw:	33.513	yaw rate:	0.729	Roll:	4.336	Pitch:	0.704	Yaw:	48.356	Thrust:	20.384
Time:	3.406	Roll Set Point:	-0.235	Pitch Set Point:	-0.114	Yaw Set Point:	-0.585	X_WP:	0.000	Y_WP:	0.000	Y_WP:	0.500	X:	0.100	Y:	0.093	Z:	0.402	yaw:	33.489	yaw rate:	0.226	Roll:	4.277	Pitch:	0.754	Yaw:	47.925	Thrust:	20.537
Time:	3.422	Roll Set Point:	-0.235	Pitch Set Point:	-0.114	Yaw Set Point:	-0.585	X_WP:	0.000	Y_WP:	0.000	Y_WP:	0.500	X:	0.100	Y:	0.093	Z:	0.402	yaw:	33.489	yaw rate:	0.226	Roll:	4.344	Pitch:	0.707	Yaw:	48.323	Thrust:	20.750
Time:	3.438	Roll Set Point:	-0.235	Pitch Set Point:	-0.114	Yaw Set Point:	-0.585	X_WP:	0.000	Y_WP:	0.000	Y_WP:	0.500	X:	0.100	Y:	0.092	Z:	0.402	yaw:	33.500	yaw rate:	1.059	Roll:	4.333	Pitch:	0.617	Yaw:	48.515	Thrust:	20.824
Time:	3.453	Roll Set Point:	-0.235	Pitch Set Point:	-0.115	Yaw Set Point:	-0.585	X_WP:	0.000	Y_WP:	0.000	Y_WP:	0.500	X:	0.100	Y:	0.093	Z:	0.402	yaw:	33.494	yaw rate:	-0.365	Roll:	4.472	Pitch:	0.828	Yaw:	48.224	Thrust:	21.187
Time:	3.469	Roll Set Point:	-0.235	Pitch Set Point:	-0.114	Yaw Set Point:	-0.585	X_WP:	0.000	Y_WP:	0.000	Y_WP:	0.500	X:	0.100	Y:	0.093	Z:	0.402	yaw:	33.490	yaw rate:	-0.401	Roll:	4.278	Pitch:	0.666	Yaw:	48.256	Thrust:	21.240
Time:	3.484	Roll Set Point:	-0.235	Pitch Set Point:	-0.114	Yaw Set Point:	-0.585	X_WP:	0.000	Y_WP:	0.000	Y_WP:	0.500	X:	0.100	Y:	0.093	Z:	0.402	yaw:	33.509	yaw rate:	1.927	Roll:	4.364	Pitch:	0.667	Yaw:	48.673	Thrust:	21.636
Time:	3.500	Roll Set Point:	-0.235	Pitch Set Point:	-0.114	Yaw Set Point:	-0.585	X_WP:	0.000	Y_WP:	0.000	Y_WP:	0.500	X:	0.100	Y:	0.093	Z:	0.402	yaw:	33.509	yaw rate:	1.927	Roll:	4.371	Pitch:	0.710	Yaw:	48.350	Thrust:	21.665
Time:	3.516	Roll Set Point:	-0.235	Pitch Set Point:	-0.114	Yaw Set Point:	-0.585	X_WP:	0.000	Y_WP:	0.000	Y_WP:	0.500	X:	0.100	Y:	0.093	Z:	0.402	yaw:	33.506	yaw rate:	-0.213	Roll:	4.457	Pitch:	0.756	Yaw:	48.295	Thrust:	21.611
Time:	3.531	Roll Set Point:	-0.235	Pitch Set Point:	-0.114	Yaw Set Point:	-0.585	X_WP:	0.000	Y_WP:	0.000	Y_WP:	0.500	X:	0.100	Y:	0.093	Z:	0.402	yaw:	33.514	yaw rate:	0.787	Roll:	4.367	Pitch:	0.700	Yaw:	48.489	Thrust:	22.264
Time:	3.547	Roll Set Point:	-0.235	Pitch Set Point:	-0.114	Yaw Set Point:	-0.585	X_WP:	0.000	Y_WP:	0.000	Y_WP:	0.500	X:	0.100	Y:	0.092	Z:	0.402	yaw:	33.497	yaw rate:	-1.694	Roll:	4.304	Pitch:	0.677	Yaw:	48.049	Thrust:	22.151
Time:	3.566	Roll Set Point:	-0.235	Pitch Set Point:	-0.114	Yaw Set Point:	-0.585	X_WP:	0.000	Y_WP:	0.000	Y_WP:	0.500	X:	0.100	Y:	0.093	Z:	0.402	yaw:	33.500	yaw rate:	0.308	Roll:	4.503	Pitch:	0.757	Yaw:	48.679	Thrust:	25.645
Time:	3.583	Roll Set Point:	-0.235	Pitch Set Point:	-0.115	Yaw Set Point:	-0.585	X_WP:	0.000	Y_WP:	0.000	Y_WP:	0.500	X:	0.100	Y:	0.093	Z:	0.402	yaw:	33.504	yaw rate:	0.424	Roll:	4.553	Pitch:	0.781	Yaw:	48.623	Thrust:	24.934
Time:	3.599	Roll Set Point:	-0.235	Pitch Set Point:	-0.115	Yaw Set Point:	-0.585	X_WP:	0.000	Y_WP:	0.000	Y_WP:	0.500	X:	0.100	Y:	0.093	Z:	0.402	yaw:	33.504	yaw rate:	0.424	Roll:	4.405	Pitch:	0.717	Yaw:	48.343	Thrust:	22.763
Time:	3.615	Roll Set Point:	-0.235	Pitch Set Point:	-0.114	Yaw Set Point:	-0.584	X_WP:	0.000	Y_WP:	0.000	Y_WP:	0.500	X:	0.100	Y:	0.093	Z:	0.402	yaw:	33.488	yaw rate:	-1.596	Roll:	4.310	Pitch:	0.667	Yaw:	48.054	Thrust:	22.979
Time:	3.630	Roll Set Point:	-0.235	Pitch Set Point:	-0.114	Yaw Set Point:	-0.585	X_WP:	0.000	Y_WP:	0.000	Y_WP:	0.500	X:	0.100	Y:	0.093	Z:	0.402	yaw:	33.492	yaw rate:	-2.993	Roll:	4.427	Pitch:	0.734	Yaw:	48.393	Thrust:	23.177
Time:	3.646	Roll Set Point:	-0.235	Pitch Set Point:	-0.114	Yaw Set Point:	-0.585	X_WP:	0.000	Y_WP:	0.000	Y_WP:	0.500	X:	0.100	Y:	0.093	Z:	0.402	yaw:	33.506	yaw rate:	1.335	Roll:	4.458	Pitch:	0.701	Yaw:	48.569	Thrust:	23.086
Time:	3.662	Roll Set Point:	-0.235	Pitch Set Point:	-0.114	Yaw Set Point:	-0.585	X_WP:	0.000	Y_WP:	0.000	Y_WP:	0.500	X:	0.100	Y:	0.093	Z:	0.402	yaw:	33.509	yaw rate:	0.286	Roll:	4.406	Pitch:	0.742	Yaw:	48.397	Thrust:	23.642
Time:	3.677	Roll Set Point:	-0.235	Pitch Set Point:	-0.114	Yaw Set Point:	-0.585	X_WP:	0.000	Y_WP:	0.000	Y_WP:	0.500	X:	0.100	Y:	0.093	Z:	0.402	yaw:	33.509	yaw rate:	0.286	Roll:	4.430	Pitch:	0.721	Yaw:	48.349	Thrust:	23.678
Time:	3.693	Roll Set Point:	-0.235	Pitch Set Point:	-0.114	Yaw Set Point:	-0.585	X_WP:	0.000	Y_WP:	0.000	Y_WP:	0.500	X:	0.100	Y:	0.092	Z:	0.402	yaw:	33.500	yaw rate:	-0.801	Roll:	4.403	Pitch:	0.642	Yaw:	48.204	Thrust:	23.880
Time:	3.708	Roll Set Point:	-0.235	Pitch Set Point:	-0.115	Yaw Set Point:	-0.585	X_WP:	0.000	Y_WP:	0.000	Y_WP:	0.500	X:	0.100	Y:	0.093	Z:	0.402	yaw:	33.508	yaw rate:	1.977	Roll:	4.503	Pitch:	0.801	Yaw:	48.478	Thrust:	24.091
Time:	3.724	Roll Set Point:	-0.235	Pitch Set Point:	-0.114	Yaw Set Point:	-0.585	X_WP:	0.000	Y_WP:	0.000	Y_WP:	0.500	X:	0.100	Y:	0.093	Z:	0.402	yaw:	33.510	yaw rate:	0.203	Roll:	4.440	Pitch:	0.696	Yaw:	48.389	Thrust:	24.207
Time:	3.740	Roll Set Point:	-0.235	Pitch Set Point:	-0.114	Yaw Set Point:	-0.585	X_WP:	0.000	Y_WP:	0.000	Y_WP:	0.500	X:	0.100	Y:	0.093	Z:	0.402	yaw:	33.496	yaw rate:	-1.465	Roll:	4.388	Pitch:	0.720	Yaw:	48.085	Thrust:	24.395
Time:	3.755	Roll Set Point:	-0.235	Pitch Set Point:	-0.114	Yaw Set Point:	-0.585	X_WP:	0.000	Y_WP:	0.000	Y_WP:	0.500	X:	0.100	Y:	0.093	Z:	0.402	yaw:	33.503	yaw rate:	0.701	Roll:	4.502	Pitch:	0.736	Yaw:	48.456	Thrust:	24.607
Time:	3.771	Roll Set Point:	-0.235	Pitch Set Point:	-0.115	Yaw Set Point:	-0.584	X_WP:	0.000	Y_WP:	0.000	Y_WP:	0.500	X:	0.100	Y:	0.093	Z:	0.402	yaw:	33.476	yaw rate:	-2.647	Roll:	4.454	Pitch:	0.812	Yaw:	47.860	Thrust:	24.677
Time:	3.787	Roll Set Point:	-0.235	Pitch Set Point:	-0.115	Yaw Set Point:	-0.584	X_WP:	0.000	Y_WP:	0.000	Y_WP:	0.500	X:	0.100	Y:	0.093	Z:	0.402	yaw:	33.476	yaw rate:	-2.647	Roll:	4.468	Pitch:	0.729	Yaw:	48.308	Thrust:	25.002
Time:	3.802	Roll Set Point:	-0.235	Pitch Set Point:	-0.114	Yaw Set Point:	-0.585	X_WP:	0.000	Y_WP:	0.000	Y_WP:	0.500	X:	0.100	Y:	0.093	Z:	0.402	yaw:	33.495	yaw rate:	1.891	Roll:	4.477	Pitch:	0.658	Yaw:	48.645	Thrust:	25.206
Time:	3.818	Roll Set Point:	-0.235	Pitch Set Point:	-0.114	Yaw Set Point:	-0.585	X_WP:	0.000	Y_WP:	0.000	Y_WP:	0.500	X:	0.100	Y:	0.093	Z:	0.402	yaw:	33.501	yaw rate:	0.643	Roll:	4.455	Pitch:	0.696	Yaw:	48.447	Thrust:	25.407
Time:	3.833	Roll Set Point:	-0.235	Pitch Set Point:	-0.114	Yaw Set Point:	-0.585	X_WP:	0.000	Y_WP:	0.000	Y_WP:	0.500	X:	0.100	Y:	0.093	Z:	0.402	yaw:	33.503	yaw rate:	-0.181	Roll:	4.502	Pitch:	0.747	Yaw:	48.373	Thrust:	25.323
Time:	3.849	Roll Set Point:	-0.235	Pitch Set Point:	-0.114	Yaw Set Point:	-0.585	X_WP:	0.000	Y_WP:	0.000	Y_WP:	0.500	X:	0.100	Y:	0.093	Z:	0.402	yaw:	33.503	yaw rate:	-0.181	Roll:	4.488	Pitch:	0.730	Yaw:	48.342	Thrust:	25.689
Time:	3.865	Roll Set Point:	-0.235	Pitch Set Point:	-0.114	Yaw Set Point:	-0.585	X_WP:	0.000	Y_WP:	0.000	Y_WP:	0.500	X:	0.100	Y:	0.093	Z:	0.402	yaw:	33.500	yaw rate:	-0.342	Roll:	4.486	Pitch:	0.750	Yaw:	48.280	Thrust:	26.037
Time:	3.880	Roll Set Point:	-0.235	Pitch Set Point:	-0.114	Yaw Set Point:	-0.585	X_WP:	0.000	Y_WP:	0.000	Y_WP:	0.500	X:	0.100	Y:	0.093	Z:	0.402	yaw:	33.510	yaw rate:	1.974	Roll:	4.496	Pitch:	0.674	Yaw:	48.522	Thrust:	25.925
Time:	3.896	Roll Set Point:	-0.235	Pitch Set Point:	-0.114	Yaw Set Point:	-0.585	X_WP:	0.000	Y_WP:	0.000	Y_WP:	0.500	X:	0.100	Y:	0.093	Z:	0.402	yaw:	33.496	yaw rate:	-1.442	Roll:	4.503	Pitch:	0.795	Yaw:	48.093	Thrust:	26.309
Time:	3.912	Roll Set Point:	-0.235	Pitch Set Point:	-0.114	Yaw Set Point:	-0.585	X_WP:	0.000	Y_WP:	0.000	Y_WP:	0.500	X:	0.100	Y:	0.093	Z:	0.402	yaw:	33.494	yaw rate:	-0.115	Roll:	4.463	Pitch:	0.700	Yaw:	48.307	Thrust:	26.303
Time:	3.927	Roll Set Point:	-0.235	Pitch Set Point:	-0.114	Yaw Set Point:	-0.585	X_WP:	0.000	Y_WP:	0.000	Y_WP:	0.500	X:	0.100	Y:	0.093	Z:	0.402	yaw:	33.505	yaw rate:	1.015	Roll:	4.498	Pitch:	0.728	Yaw:	48.517	Thrust:	26.697
Time:	3.943	Roll Set Point:	-0.235	Pitch Set Point:	-0.114	Yaw Set Point:	-0.585	X_WP:	0.000	Y_WP:	0.000	Y_WP:	0.500	X:	0.100	Y:	0.093	Z:	0.402	yaw:	33.502	yaw rate:	-0.270	Roll:	4.504	Pitch:	0.763	Yaw:	48.292	Thrust:	26.911
Time:	3.958	Roll Set Point:	-0.235	Pitch Set Point:	-0.114	Yaw Set Point:	-0.585	X_WP:	0.000	Y_WP:	0.000	Y_WP:	0.500	X:	0.100	Y:	0.093	Z:	0.402	yaw:	33.490	yaw rate:	-1.215	Roll:	4.469	Pitch:	0.753	Yaw:	48.120	Thrust:	26.712
Time:	3.974	Roll Set Point:	-0.235	Pitch Set Point:	-0.114	Yaw Set Point:	-0.585	X_WP:	0.000	Y_WP:	0.000	Y_WP:	0.500	X:	0.100	Y:	0.093	Z:	0.402	yaw:	33.492	yaw rate:	0.237	Roll:	4.502	Pitch:	0.739	Yaw:	48.366	Thrust:	27.311
Time:	3.990	Roll Set Point:	-0.235	Pitch Set Point:	-0.115	Yaw Set Point:	-0.584	X_WP:	0.000	Y_WP:	0.000	Y_WP:	0.500	X:	0.100	Y:	0.093	Z:	0.402	yaw:	33.489	yaw rate:	-0.345	Roll:	4.499	Pitch:	0.749	Yaw:	48.264	Thrust:	27.317
Time:	4.005	Roll Set Point:	-0.235	Pitch Set Point:	-0.114	Yaw Set Point:	-0.585	X_WP:	0.000	Y_WP:	0.000	Y_WP:	0.500	X:	0.100	Y:	0.093	Z:	0.402	yaw:	33.490	yaw rate:	0.133	Roll:	4.490	Pitch:	0.727	Yaw:	48.346	Thrust:	27.382
Time:	4.021	Roll Set Point:	-0.235	Pitch Set Point:	-0.114	Yaw Set Point:	-0.585	X_WP:	0.000	Y_WP:	0.000	Y_WP:	0.500	X:	0.100	Y:	0.093	Z:	0.402	yaw:	33.490	yaw rate:	0.133	Roll:	4.490	Pitch:	0.740	Yaw:	48.324	Thrust:	27.704
Time:	4.037	Roll Set Point:	-0.235	Pitch Set Point:	-0.114	Yaw Set Point:	-0.585	X_WP:	0.000	Y_WP:	0.000	Y_WP:	0.500	X:	0.100	Y:	0.093	Z:	0.402	yaw:	33.493	yaw rate:	0.259	Roll:	4.492	Pitch:	0.742	Yaw:	48.371	Thrust:	28.118
Time:	4.052	Roll Set Point:	-0.235	Pitch Set Point:	-0.114	Yaw Set Point:	-0.585	X_WP:	0.000	Y_WP:	0.000	Y_WP:	0.500	X:	0.100	Y:	0.093	Z:	0.402	yaw:	33.494	yaw rate:	0.147	Roll:	4.444	Pitch:	0.693	Yaw:	48.354	Thrust:	27.803
Time:	4.068	Roll Set Point:	-0.235	Pitch Set Point:	-0.114	Yaw Set Point:	-0.585	X_WP:	0.000	Y_WP:	0.000	Y_WP:	0.500	X:	0.100	Y:	0.093	Z:	0.402	yaw:	33.509	yaw rate:	1.498	Roll:	4.546	Pitch:	0.763	Yaw:	48.601	Thrust:	28.427
Time:	4.083	Roll Set Point:	-0.235	Pitch Set Point:	-0.114	Yaw Set Point:	-0.585	X_WP:	0.000	Y_WP:	0.000	Y_WP:	0.500	X:	0.100	Y:	0.093	Z:	0.402	yaw:	33.494	yaw rate:	-1.554	Roll:	4.477	Pitch:	0.752	Yaw:	48.068	Thrust:	28.398
Time:	4.099	Roll Set Point:	-0.235	Pitch Set Point:	-0.114	Yaw Set Point:	-0.585	X_WP:	0.000	Y_WP:	0.000	Y_WP:	0.500	X:	0.100	Y:	0.093	Z:	0.402	yaw:	33.503	yaw rate:	-0.533	Roll:	4.448	Pitch:	0.687	Yaw:	48.505	Thrust:	28.647
Time:	4.115	Roll Set Point:	-0.235	Pitch Set Point:	-0.114	Yaw Set Point:	-0.585	X_WP:	0.000	Y_WP:	0.000	Y_WP:	0.500	X:	0.100	Y:	0.093	Z:	0.402	yaw:	33.503	yaw rate:	-0.533	Roll:	4.489	Pitch:	0.743	Yaw:	48.341	Thrust:	28.789
Time:	4.130	Roll Set Point:	-0.235	Pitch Set Point:	-0.114	Yaw Set Point:	-0.585	X_WP:	0.000	Y_WP:	0.000	Y_WP:	0.500	X:	0.100	Y:	0.093	Z:	0.402	yaw:	33.498	yaw rate:	-0.502	Roll:	4.532	Pitch:	0.810	Yaw:	48.251	Thrust:	29.049
Time:	4.146	Roll Set Point:	-0.235	Pitch Set Point:	-0.114	Yaw Set Point:	-0.585	X_WP:	0.000	Y_WP:	0.000	Y_WP:	0.500	X:	0.100	Y:	0.093	Z:	0.402	yaw:	33.501	yaw rate:	0.574	Roll:	4.474	Pitch:	0.722	Yaw:	48.390	Thrust:	29.267
Time:	4.162	Roll Set Point:	-0.235	Pitch Set Point:	-0.114	Yaw Set Point:	-0.585	X_WP:	0.000	Y_WP:	0.000	Y_WP:	0.500	X:	0.100	Y:	0.093	Z:	0.402	yaw:	33.516	yaw rate:	1.466	Roll:	4.475	Pitch:	0.674	Yaw:	48.605	Thrust:	29.259
Time:	4.177	Roll Set Point:	-0.235	Pitch Set Point:	-0.115	Yaw Set Point:	-0.585	X_WP:	0.000	Y_WP:	0.000	Y_WP:	0.500	X:	0.100	Y:	0.093	Z:	0.402	yaw:	33.495	yaw rate:	-2.067	Roll:	4.522	Pitch:	0.863	Yaw:	47.985	Thrust:	29.453
Time:	4.193	Roll Set Point:	-0.235	Pitch Set Point:	-0.115	Yaw Set Point:	-0.585	X_WP:	0.000	Y_WP:	0.000	Y_WP:	0.500	X:	0.100	Y:	0.093	Z:	0.402	yaw:	33.500	yaw rate:	0.431	Roll:	4.509	Pitch:	0.739	Yaw:	48.409	Thrust:	29.717
Time:	4.208	Roll Set Point:	-0.235	Pitch Set Point:	-0.114	Yaw Set Point:	-0.585	X_WP:	0.000	Y_WP:	0.000	Y_WP:	0.500	X:	0.100	Y:	0.093	Z:	0.402	yaw:	33.518	yaw rate:	1.852	Roll:	4.477	Pitch:	0.691	Yaw:	48.673	Thrust:	30.093
Time:	4.224	Roll Set Point:	-0.235	Pitch Set Point:	-0.114	Yaw Set Point:	-0.585	X_WP:	0.000	Y_WP:	0.000	Y_WP:	0.500	X:	0.100	Y:	0.092	Z:	0.402	yaw:	33.512	yaw rate:	-0.572	Roll:	4.414	Pitch:	0.693	Yaw:	48.259	Thrust:	29.950
Time:	4.240	Roll Set Point:	-0.235	Pitch Set Point:	-0.114	Yaw Set Point:	-0.585	X_WP:	0.000	Y_WP:	0.000	Y_WP:	0.500	X:	0.100	Y:	0.093	Z:	0.402	yaw:	33.503	yaw rate:	-0.911	Roll:	4.569	Pitch:	0.851	Yaw:	48.190	Thrust:	30.380
Time:	4.255	Roll Set Point:	-0.235	Pitch Set Point:	-0.115	Yaw Set Point:	-0.584	X_WP:	0.000	Y_WP:	0.000	Y_WP:	0.500	X:	0.100	Y:	0.093	Z:	0.402	yaw:	33.470	yaw rate:	-3.370	Roll:	4.492	Pitch:	0.843	Yaw:	47.731	Thrust:	30.307
Time:	4.271	Roll Set Point:	-0.235	Pitch Set Point:	-0.115	Yaw Set Point:	-0.584	X_WP:	0.000	Y_WP:	0.000	Y_WP:	0.500	X:	0.100	Y:	0.093	Z:	0.402	yaw:	33.470	yaw rate:	-3.370	Roll:	4.491	Pitch:	0.756	Yaw:	48.295	Thrust:	30.634
Time:	4.287	Roll Set Point:	-0.235	Pitch Set Point:	-0.114	Yaw Set Point:	-0.584	X_WP:	0.000	Y_WP:	0.000	Y_WP:	0.500	X:	0.100	Y:	0.093	Z:	0.402	yaw:	33.486	yaw rate:	1.616	Roll:	4.468	Pitch:	0.686	Yaw:	48.588	Thrust:	30.781
Time:	4.302	Roll Set Point:	-0.235	Pitch Set Point:	-0.114	Yaw Set Point:	-0.585	X_WP:	0.000	Y_WP:	0.000	Y_WP:	0.500	X:	0.100	Y:	0.093	Z:	0.402	yaw:	33.523	yaw rate:	3.714	Roll:	4.461	Pitch:	0.648	Yaw:	48.992	Thrust:	31.211
Time:	4.318	Roll Set Point:	-0.235	Pitch Set Point:	-0.114	Yaw Set Point:	-0.585	X_WP:	0.000	Y_WP:	0.000	Y_WP:	0.500	X:	0.100	Y:	0.093	Z:	0.402	yaw:	33.500	yaw rate:	-2.246	Roll:	4.486	Pitch:	0.802	Yaw:	47.962	Thrust:	30.997
Time:	4.333	Roll Set Point:	-0.235	Pitch Set Point:	-0.114	Yaw Set Point:	-0.585	X_WP:	0.000	Y_WP:	0.000	Y_WP:	0.500	X:	0.100	Y:	0.093	Z:	0.402	yaw:	33.519	yaw rate:	2.157	Roll:	4.580	Pitch:	0.747	Yaw:	48.682	Thrust:	31.540
Time:	4.349	Roll Set Point:	-0.235	Pitch Set Point:	-0.114	Yaw Set Point:	-0.585	X_WP:	0.000	Y_WP:	0.000	Y_WP:	0.500	X:	0.100	Y:	0.092	Z:	0.402	yaw:	33.498	yaw rate:	-2.146	Roll:	4.369	Pitch:	0.729	Yaw:	47.975	Thrust:	31.431
Time:	4.375	Roll Set Point:	-0.235	Pitch Set Point:	-0.114	Yaw Set Point:	-0.585	X_WP:	0.000	Y_WP:	0.000	Y_WP:	0.500	X:	0.100	Y:	0.093	Z:	0.402	yaw:	33.499	yaw rate:	0.158	Roll:	4.903	Pitch:	0.883	Yaw:	49.364	Thrust:	48.775
Time:	4.390	Roll Set Point:	-0.235	Pitch Set Point:	-0.114	Yaw Set Point:	-0.585	X_WP:	0.000	Y_WP:	0.000	Y_WP:	0.500	X:	0.100	Y:	0.093	Z:	0.402	yaw:	33.499	yaw rate:	0.158	Roll:	4.490	Pitch:	0.759	Yaw:	48.337	Thrust:	31.913
Time:	4.406	Roll Set Point:	-0.235	Pitch Set Point:	-0.114	Yaw Set Point:	-0.585	X_WP:	0.000	Y_WP:	0.000	Y_WP:	0.500	X:	0.100	Y:	0.093	Z:	0.402	yaw:	33.522	yaw rate:	3.940	Roll:	4.470	Pitch:	0.648	Yaw:	48.741	Thrust:	32.189
Time:	4.422	Roll Set Point:	-0.235	Pitch Set Point:	-0.114	Yaw Set Point:	-0.585	X_WP:	0.000	Y_WP:	0.000	Y_WP:	0.500	X:	0.100	Y:	0.093	Z:	0.402	yaw:	33.522	yaw rate:	3.940	Roll:	4.490	Pitch:	0.758	Yaw:	48.369	Thrust:	32.304
Time:	4.437	Roll Set Point:	-0.235	Pitch Set Point:	-0.115	Yaw Set Point:	-0.585	X_WP:	0.000	Y_WP:	0.000	Y_WP:	0.500	X:	0.100	Y:	0.093	Z:	0.402	yaw:	33.494	yaw rate:	-0.653	Roll:	4.528	Pitch:	0.889	Yaw:	47.871	Thrust:	32.380
Time:	4.453	Roll Set Point:	-0.235	Pitch Set Point:	-0.115	Yaw Set Point:	-0.585	X_WP:	0.000	Y_WP:	0.000	Y_WP:	0.500	X:	0.100	Y:	0.093	Z:	0.402	yaw:	33.494	yaw rate:	-0.653	Roll:	4.489	Pitch:	0.763	Yaw:	48.327	Thrust:	32.599
Time:	4.469	Roll Set Point:	-0.235	Pitch Set Point:	-0.114	Yaw Set Point:	-0.585	X_WP:	0.000	Y_WP:	0.000	Y_WP:	0.500	X:	0.100	Y:	0.093	Z:	0.402	yaw:	33.504	yaw rate:	0.349	Roll:	4.463	Pitch:	0.716	Yaw:	48.512	Thrust:	32.976
Time:	4.484	Roll Set Point:	-0.235	Pitch Set Point:	-0.114	Yaw Set Point:	-0.585	X_WP:	0.000	Y_WP:	0.000	Y_WP:	0.500	X:	0.100	Y:	0.093	Z:	0.402	yaw:	33.504	yaw rate:	0.349	Roll:	4.490	Pitch:	0.764	Yaw:	48.344	Thrust:	33.019
Time:	4.500	Roll Set Point:	-0.235	Pitch Set Point:	-0.114	Yaw Set Point:	-0.585	X_WP:	0.000	Y_WP:	0.000	Y_WP:	0.500	X:	0.100	Y:	0.092	Z:	0.402	yaw:	33.518	yaw rate:	1.376	Roll:	4.454	Pitch:	0.672	Yaw:	48.596	Thrust:	33.224
Time:	4.515	Roll Set Point:	-0.235	Pitch Set Point:	-0.115	Yaw Set Point:	-0.585	X_WP:	0.000	Y_WP:	0.000	Y_WP:	0.500	X:	0.100	Y:	0.093	Z:	0.402	yaw:	33.509	yaw rate:	1.677	Roll:	4.596	Pitch:	0.886	Yaw:	48.194	Thrust:	33.310
Time:	4.531	Roll Set Point:	-0.235	Pitch Set Point:	-0.115	Yaw Set Point:	-0.585	X_WP:	0.000	Y_WP:	0.000	Y_WP:	0.500	X:	0.100	Y:	0.093	Z:	0.402	yaw:	33.509	yaw rate:	1.677	Roll:	4.493	Pitch:	0.767	Yaw:	48.353	Thrust:	33.628
Time:	4.547	Roll Set Point:	-0.235	Pitch Set Point:	-0.114	Yaw Set Point:	-0.585	X_WP:	0.000	Y_WP:	0.000	Y_WP:	0.500	X:	0.100	Y:	0.092	Z:	0.402	yaw:	33.537	yaw rate:	5.397	Roll:	4.392	Pitch:	0.611	Yaw:	48.863	Thrust:	33.729
Time:	4.562	Roll Set Point:	-0.235	Pitch Set Point:	-0.114	Yaw Set Point:	-0.585	X_WP:	0.000	Y_WP:	0.000	Y_WP:	0.500	X:	0.100	Y:	0.093	Z:	0.402	yaw:	33.495	yaw rate:	-4.238	Roll:	4.510	Pitch:	0.920	Yaw:	47.620	Thrust:	34.020
Time:	4.578	Roll Set Point:	-0.235	Pitch Set Point:	-0.115	Yaw Set Point:	-0.584	X_WP:	0.000	Y_WP:	0.000	Y_WP:	0.500	X:	0.100	Y:	0.093	Z:	0.402	yaw:	33.487	yaw rate:	-0.769	Roll:	4.537	Pitch:	0.814	Yaw:	48.191	Thrust:	33.794
Time:	4.594	Roll Set Point:	-0.235	Pitch Set Point:	-0.115	Yaw Set Point:	-0.584	X_WP:	0.000	Y_WP:	0.000	Y_WP:	0.500	X:	0.100	Y:	0.093	Z:	0.402	yaw:	33.487	yaw rate:	-0.769	Roll:	4.491	Pitch:	0.772	Yaw:	48.320	Thrust:	34.294
Time:	4.609	Roll Set Point:	-0.235	Pitch Set Point:	-0.115	Yaw Set Point:	-0.585	X_WP:	0.000	Y_WP:	0.000	Y_WP:	0.500	X:	0.100	Y:	0.093	Z:	0.402	yaw:	33.499	yaw rate:	1.189	Roll:	4.501	Pitch:	0.750	Yaw:	48.535	Thrust:	34.687
Time:	4.625	Roll Set Point:	-0.235	Pitch Set Point:	-0.114	Yaw Set Point:	-0.585	X_WP:	0.000	Y_WP:	0.000	Y_WP:	0.500	X:	0.100	Y:	0.093	Z:	0.402	yaw:	33.490	yaw rate:	-4.152	Roll:	4.396	Pitch:	0.735	Yaw:	48.173	Thrust:	34.581
Time:	4.640	Roll Set Point:	-0.235	Pitch Set Point:	-0.115	Yaw Set Point:	-0.585	X_WP:	0.000	Y_WP:	0.000	Y_WP:	0.500	X:	0.100	Y:	0.093	Z:	0.402	yaw:	33.505	yaw rate:	1.437	Roll:	4.583	Pitch:	0.797	Yaw:	48.585	Thrust:	34.883
Time:	4.656	Roll Set Point:	-0.235	Pitch Set Point:	-0.114	Yaw Set Point:	-0.585	X_WP:	0.000	Y_WP:	0.000	Y_WP:	0.500	X:	0.100	Y:	0.093	Z:	0.402	yaw:	33.510	yaw rate:	0.501	Roll:	4.448	Pitch:	0.714	Yaw:	48.435	Thrust:	34.948
Time:	4.672	Roll Set Point:	-0.235	Pitch Set Point:	-0.114	Yaw Set Point:	-0.585	X_WP:	0.000	Y_WP:	0.000	Y_WP:	0.500	X:	0.100	Y:	0.092	Z:	0.402	yaw:	33.502	yaw rate:	-0.780	Roll:	4.441	Pitch:	0.752	Yaw:	48.209	Thrust:	35.359
Time:	4.687	Roll Set Point:	-0.235	Pitch Set Point:	-0.114	Yaw Set Point:	-0.585	X_WP:	0.000	Y_WP:	0.000	Y_WP:	0.500	X:	0.100	Y:	0.092	Z:	0.402	yaw:	33.502	yaw rate:	-0.780	Roll:	4.489	Pitch:	0.774	Yaw:	48.340	Thrust:	35.397
Time:	4.703	Roll Set Point:	-0.235	Pitch Set Point:	-0.114	Yaw Set Point:	-0.585	X_WP:	0.000	Y_WP:	0.000	Y_WP:	0.500	X:	0.100	Y:	0.093	Z:	0.402	yaw:	33.509	yaw rate:	0.770	Roll:	4.517	Pitch:	0.799	Yaw:	48.480	Thrust:	35.573
Time:	4.719	Roll Set Point:	-0.235	Pitch Set Point:	-0.115	Yaw Set Point:	-0.585	X_WP:	0.000	Y_WP:	0.000	Y_WP:	0.500	X:	0.100	Y:	0.093	Z:	0.402	yaw:	33.504	yaw rate:	-0.593	Roll:	4.530	Pitch:	0.847	Yaw:	48.246	Thrust:	35.760
Time:	4.734	Roll Set Point:	-0.235	Pitch Set Point:	-0.115	Yaw Set Point:	-0.585	X_WP:	0.000	Y_WP:	0.000	Y_WP:	0.500	X:	0.100	Y:	0.093	Z:	0.402	yaw:	33.492	yaw rate:	-1.130	Roll:	4.489	Pitch:	0.798	Yaw:	48.134	Thrust:	36.015
Time:	4.750	Roll Set Point:	-0.235	Pitch Set Point:	-0.114	Yaw Set Point:	-0.584	X_WP:	0.000	Y_WP:	0.000	Y_WP:	0.500	X:	0.100	Y:	0.093	Z:	0.402	yaw:	33.484	yaw rate:	-1.718	Roll:	4.447	Pitch:	0.741	Yaw:	48.175	Thrust:	36.071
Time:	4.765	Roll Set Point:	-0.235	Pitch Set Point:	-0.114	Yaw Set Point:	-0.584	X_WP:	0.000	Y_WP:	0.000	Y_WP:	0.500	X:	0.100	Y:	0.093	Z:	0.402	yaw:	33.484	yaw rate:	-1.718	Roll:	4.488	Pitch:	0.780	Yaw:	48.311	Thrust:	36.237
Time:	4.781	Roll Set Point:	-0.235	Pitch Set Point:	-0.114	Yaw Set Point:	-0.585	X_WP:	0.000	Y_WP:	0.000	Y_WP:	0.500	X:	0.100	Y:	0.093	Z:	0.402	yaw:	33.516	yaw rate:	3.268	Roll:	4.541	Pitch:	0.763	Yaw:	48.908	Thrust:	36.399
Time:	4.797	Roll Set Point:	-0.235	Pitch Set Point:	-0.114	Yaw Set Point:	-0.585	X_WP:	0.000	Y_WP:	0.000	Y_WP:	0.500	X:	0.100	Y:	0.093	Z:	0.402	yaw:	33.516	yaw rate:	3.268	Roll:	4.491	Pitch:	0.781	Yaw:	48.361	Thrust:	36.686
Time:	4.812	Roll Set Point:	-0.235	Pitch Set Point:	-0.114	Yaw Set Point:	-0.585	X_WP:	0.000	Y_WP:	0.000	Y_WP:	0.500	X:	0.100	Y:	0.092	Z:	0.402	yaw:	33.495	yaw rate:	-2.172	Roll:	4.422	Pitch:	0.739	Yaw:	47.966	Thrust:	37.010
Time:	4.828	Roll Set Point:	-0.235	Pitch Set Point:	-0.115	Yaw Set Point:	-0.584	X_WP:	0.000	Y_WP:	0.000	Y_WP:	0.500	X:	0.100	Y:	0.093	Z:	0.402	yaw:	33.482	yaw rate:	-2.491	Roll:	4.565	Pitch:	0.947	Yaw:	48.093	Thrust:	36.997
Time:	4.844	Roll Set Point:	-0.235	Pitch Set Point:	-0.114	Yaw Set Point:	-0.585	X_WP:	0.000	Y_WP:	0.000	Y_WP:	0.500	X:	0.100	Y:	0.093	Z:	0.402	yaw:	33.490	yaw rate:	0.856	Roll:	4.465	Pitch:	0.700	Yaw:	48.470	Thrust:	37.080
Time:	4.859	Roll Set Point:	-0.235	Pitch Set Point:	-0.114	Yaw Set Point:	-0.585	X_WP:	0.000	Y_WP:	0.000	Y_WP:	0.500	X:	0.100	Y:	0.093	Z:	0.402	yaw:	33.490	yaw rate:	0.856	Roll:	4.489	Pitch:	0.785	Yaw:	48.321	Thrust:	37.344
Time:	4.875	Roll Set Point:	-0.235	Pitch Set Point:	-0.114	Yaw Set Point:	-0.585	X_WP:	0.000	Y_WP:	0.000	Y_WP:	0.500	X:	0.100	Y:	0.092	Z:	0.402	yaw:	33.505	yaw rate:	-2.532	Roll:	4.436	Pitch:	0.678	Yaw:	48.586	Thrust:	37.891
Time:	4.891	Roll Set Point:	-0.235	Pitch Set Point:	-0.114	Yaw Set Point:	-0.585	X_WP:	0.000	Y_WP:	0.000	Y_WP:	0.500	X:	0.100	Y:	0.092	Z:	0.402	yaw:	33.505	yaw rate:	-2.532	Roll:	4.488	Pitch:	0.784	Yaw:	48.343	Thrust:	37.759
Time:	4.906	Roll Set Point:	-0.235	Pitch Set Point:	-0.114	Yaw Set Point:	-0.585	X_WP:	0.000	Y_WP:	0.000	Y_WP:	0.500	X:	0.100	Y:	0.093	Z:	0.402	yaw:	33.503	yaw rate:	1.158	Roll:	4.560	Pitch:	0.880	Yaw:	48.320	Thrust:	37.871
Time:	4.922	Roll Set Point:	-0.235	Pitch Set Point:	-0.114	Yaw Set Point:	-0.585	X_WP:	0.000	Y_WP:	0.000	Y_WP:	0.500	X:	0.100	Y:	0.093	Z:	0.402	yaw:	33.495	yaw rate:	-0.800	Roll:	4.437	Pitch:	0.758	Yaw:	48.197	Thrust:	38.211
Time:	4.937	Roll Set Point:	-0.235	Pitch Set Point:	-0.114	Yaw Set Point:	-0.585	X_WP:	0.000	Y_WP:	0.000	Y_WP:	0.500	X:	0.100	Y:	0.092	Z:	0.402	yaw:	33.518	yaw rate:	2.317	Roll:	4.505	Pitch:	0.682	Yaw:	48.751	Thrust:	38.202
Time:	4.953	Roll Set Point:	-0.235	Pitch Set Point:	-0.114	Yaw Set Point:	-0.585	X_WP:	0.000	Y_WP:	0.000	Y_WP:	0.500	X:	0.100	Y:	0.092	Z:	0.402	yaw:	33.518	yaw rate:	2.317	Roll:	4.490	Pitch:	0.787	Yaw:	48.363	Thrust:	38.513
Time:	4.969	Roll Set Point:	-0.235	Pitch Set Point:	-0.115	Yaw Set Point:	-0.585	X_WP:	0.000	Y_WP:	0.000	Y_WP:	0.500	X:	0.100	Y:	0.093	Z:	0.402	yaw:	33.504	yaw rate:	-1.458	Roll:	4.526	Pitch:	0.932	Yaw:	48.098	Thrust:	38.851
Time:	4.984	Roll Set Point:	-0.235	Pitch Set Point:	-0.115	Yaw Set Point:	-0.585	X_WP:	0.000	Y_WP:	0.000	Y_WP:	0.500	X:	0.100	Y:	0.093	Z:	0.402	yaw:	33.493	yaw rate:	-1.091	Roll:	4.476	Pitch:	0.805	Yaw:	48.145	Thrust:	38.579
Time:	5.000	Roll Set Point:	-0.235	Pitch Set Point:	-0.115	Yaw Set Point:	-0.585	X_WP:	0.000	Y_WP:	0.000	Y_WP:	0.500	X:	0.100	Y:	0.093	Z:	0.402	yaw:	33.493	yaw rate:	-1.091	Roll:	4.490	Pitch:	0.793	Yaw:	48.328	Thrust:	39.054
Time:	5.016	Roll Set Point:	-0.235	Pitch Set Point:	-0.115	Yaw Set Point:	-0.585	X_WP:	0.000	Y_WP:	0.000	Y_WP:	0.500	X:	0.100	Y:	0.093	Z:	0.402	yaw:	33.501	yaw rate:	-0.890	Roll:	4.490	Pitch:	0.783	Yaw:	48.480	Thrust:	39.376
Time:	5.031	Roll Set Point:	-0.235	Pitch Set Point:	-0.115	Yaw Set Point:	-0.585	X_WP:	0.000	Y_WP:	0.000	Y_WP:	0.500	X:	0.100	Y:	0.093	Z:	0.402	yaw:	33.511	yaw rate:	0.956	Roll:	4.517	Pitch:	0.775	Yaw:	48.513	Thrust:	39.439
Time:	5.047	Roll Set Point:	-0.235	Pitch Set Point:	-0.114	Yaw Set Point:	-0.584	X_WP:	0.000	Y_WP:	0.000	Y_WP:	0.500	X:	0.100	Y:	0.093	Z:	0.402	yaw:	33.478	yaw rate:	-3.317	Roll:	4.442	Pitch:	0.828	Yaw:	47.751	Thrust:	39.623
Time:	5.062	Roll Set Point:	-0.235	Pitch Set Point:	-0.114	Yaw Set Point:	-0.585	X_WP:	0.000	Y_WP:	0.000	Y_WP:	0.500	X:	0.100	Y:	0.093	Z:	0.402	yaw:	33.513	yaw rate:	3.540	Roll:	4.488	Pitch:	0.698	Yaw:	48.949	Thrust:	39.951
Time:	5.078	Roll Set Point:	-0.235	Pitch Set Point:	-0.114	Yaw Set Point:	-0.585	X_WP:	0.000	Y_WP:	0.000	Y_WP:	0.500	X:	0.100	Y:	0.093	Z:	0.402	yaw:	33.503	yaw rate:	-1.049	Roll:	4.486	Pitch:	0.828	Yaw:	48.165	Thrust:	39.744
Time:	5.094	Roll Set Point:	-0.235	Pitch Set Point:	-0.114	Yaw Set Point:	-0.585	X_WP:	0.000	Y_WP:	0.000	Y_WP:	0.500	X:	0.100	Y:	0.093	Z:	0.402	yaw:	33.503	yaw rate:	-1.049	Roll:	4.489	Pitch:	0.797	Yaw:	48.341	Thrust:	40.157
Time:	5.109	Roll Set Point:	-0.235	Pitch Set Point:	-0.114	Yaw Set Point:	-0.585	X_WP:	0.000	Y_WP:	0.000	Y_WP:	0.500	X:	0.100	Y:	0.093	Z:	0.402	yaw:	33.492	yaw rate:	0.035	Roll:	4.507	Pitch:	0.830	Yaw:	48.143	Thrust:	40.358
Time:	5.125	Roll Set Point:	-0.235	Pitch Set Point:	-0.114	Yaw Set Point:	-0.584	X_WP:	0.000	Y_WP:	0.000	Y_WP:	0.500	X:	0.100	Y:	0.093	Z:	0.402	yaw:	33.485	yaw rate:	-0.716	Roll:	4.466	Pitch:	0.818	Yaw:	48.199	Thrust:	40.642
Time:	5.141	Roll Set Point:	-0.235	Pitch Set Point:	-0.114	Yaw Set Point:	-0.585	X_WP:	0.000	Y_WP:	0.000	Y_WP:	0.500	X:	0.100	Y:	0.093	Z:	0.402	yaw:	33.521	yaw rate:	3.644	Roll:	4.522	Pitch:	0.699	Yaw:	48.975	Thrust:	40.765
Time:	5.156	Roll Set Point:	-0.235	Pitch Set Point:	-0.115	Yaw Set Point:	-0.584	X_WP:	0.000	Y_WP:	0.000	Y_WP:	0.500	X:	0.100	Y:	0.093	Z:	0.402	yaw:	33.488	yaw rate:	-3.345	Roll:	4.482	Pitch:	0.948	Yaw:	47.764	Thrust:	40.759
Time:	5.172	Roll Set Point:	-0.235	Pitch Set Point:	-0.115	Yaw Set Point:	-0.585	X_WP:	0.000	Y_WP:	0.000	Y_WP:	0.500	X:	0.100	Y:	0.093	Z:	0.402	yaw:	33.491	yaw rate:	0.359	Roll:	4.507	Pitch:	0.779	Yaw:	48.382	Thrust:	41.017
Time:	5.187	Roll Set Point:	-0.235	Pitch Set Point:	-0.115	Yaw Set Point:	-0.585	X_WP:	0.000	Y_WP:	0.000	Y_WP:	0.500	X:	0.100	Y:	0.093	Z:	0.402	yaw:	33.491	yaw rate:	0.359	Roll:	4.492	Pitch:	0.804	Yaw:	48.329	Thrust:	41.332
Time:	5.203	Roll Set Point:	-0.235	Pitch Set Point:	-0.114	Yaw Set Point:	-0.585	X_WP:	0.000	Y_WP:	0.000	Y_WP:	0.500	X:	0.100	Y:	0.093	Z:	0.402	yaw:	33.499	yaw rate:	0.775	Roll:	4.469	Pitch:	0.746	Yaw:	48.463	Thrust:	41.572
Time:	5.219	Roll Set Point:	-0.235	Pitch Set Point:	-0.115	Yaw Set Point:	-0.584	X_WP:	0.000	Y_WP:	0.000	Y_WP:	0.500	X:	0.100	Y:	0.093	Z:	0.402	yaw:	33.488	yaw rate:	-2.043	Roll:	4.510	Pitch:	0.879	Yaw:	48.143	Thrust:	41.493
Time:	5.234	Roll Set Point:	-0.235	Pitch Set Point:	-0.115	Yaw Set Point:	-0.585	X_WP:	0.000	Y_WP:	0.000	Y_WP:	0.500	X:	0.100	Y:	0.093	Z:	0.402	yaw:	33.491	yaw rate:	0.317	Roll:	4.485	Pitch:	0.795	Yaw:	48.385	Thrust:	41.969
Time:	5.250	Roll Set Point:	-0.235	Pitch Set Point:	-0.114	Yaw Set Point:	-0.585	X_WP:	0.000	Y_WP:	0.000	Y_WP:	0.500	X:	0.100	Y:	0.093	Z:	0.402	yaw:	33.521	yaw rate:	2.910	Roll:	4.477	Pitch:	0.708	Yaw:	48.849	Thrust:	41.777
Time:	5.266	Roll Set Point:	-0.235	Pitch Set Point:	-0.114	Yaw Set Point:	-0.585	X_WP:	0.000	Y_WP:	0.000	Y_WP:	0.500	X:	0.100	Y:	0.093	Z:	0.402	yaw:	33.521	yaw rate:	2.910	Roll:	4.490	Pitch:	0.806	Yaw:	48.366	Thrust:	42.168
Time:	5.281	Roll Set Point:	-0.235	Pitch Set Point:	-0.114	Yaw Set Point:	-0.585	X_WP:	0.000	Y_WP:	0.000	Y_WP:	0.500	X:	0.100	Y:	0.093	Z:	0.402	yaw:	33.502	yaw rate:	-0.470	Roll:	4.484	Pitch:	0.818	Yaw:	48.027	Thrust:	42.334
Time:	5.297	Roll Set Point:	-0.235	Pitch Set Point:	-0.115	Yaw Set Point:	-0.584	X_WP:	0.000	Y_WP:	0.000	Y_WP:	0.500	X:	0.100	Y:	0.093	Z:	0.402	yaw:	33.487	yaw rate:	-1.467	Roll:	4.511	Pitch:	0.903	Yaw:	48.074	Thrust:	42.528
Time:	5.312	Roll Set Point:	-0.235	Pitch Set Point:	-0.114	Yaw Set Point:	-0.585	X_WP:	0.000	Y_WP:	0.000	Y_WP:	0.500	X:	0.100	Y:	0.093	Z:	0.402	yaw:	33.526	yaw rate:	3.858	Roll:	4.513	Pitch:	0.705	Yaw:	49.020	Thrust:	42.775
Time:	5.328	Roll Set Point:	-0.235	Pitch Set Point:	-0.114	Yaw Set Point:	-0.585	X_WP:	0.000	Y_WP:	0.000	Y_WP:	0.500	X:	0.100	Y:	0.093	Z:	0.402	yaw:	33.526	yaw rate:	3.858	Roll:	4.491	Pitch:	0.809	Yaw:	48.373	Thrust:	42.901
Time:	5.344	Roll Set Point:	-0.235	Pitch Set Point:	-0.114	Yaw Set Point:	-0.585	X_WP:	0.000	Y_WP:	0.000	Y_WP:	0.500	X:	0.100	Y:	0.093	Z:	0.402	yaw:	33.509	yaw rate:	-0.252	Roll:	4.443	Pitch:	0.814	Yaw:	48.078	Thrust:	43.158
Time:	5.360	Roll Set Point:	-0.235	Pitch Set Point:	-0.114	Yaw Set Point:	-0.585	X_WP:	0.000	Y_WP:	0.000	Y_WP:	0.500	X:	0.100	Y:	0.093	Z:	0.402	yaw:	33.503	yaw rate:	-0.661	Roll:	4.501	Pitch:	0.837	Yaw:	48.281	Thrust:	44.250
Time:	5.375	Roll Set Point:	-0.235	Pitch Set Point:	-0.114	Yaw Set Point:	-0.585	X_WP:	0.000	Y_WP:	0.000	Y_WP:	0.500	X:	0.100	Y:	0.093	Z:	0.402	yaw:	33.503	yaw rate:	-0.661	Roll:	4.489	Pitch:	0.812	Yaw:	48.342	Thrust:	43.453
Time:	5.391	Roll Set Point:	-0.235	Pitch Set Point:	-0.114	Yaw Set Point:	-0.585	X_WP:	0.000	Y_WP:	0.000	Y_WP:	0.500	X:	0.100	Y:	0.093	Z:	0.402	yaw:	33.505	yaw rate:	1.209	Roll:	4.522	Pitch:	0.815	Yaw:	48.372	Thrust:	43.728
Time:	5.407	Roll Set Point:	-0.235	Pitch Set Point:	-0.114	Yaw Set Point:	-0.585	X_WP:	0.000	Y_WP:	0.000	Y_WP:	0.500	X:	0.100	Y:	0.093	Z:	0.402	yaw:	33.505	yaw rate:	0.015	Roll:	4.463	Pitch:	0.790	Yaw:	48.347	Thrust:	43.933
Time:	5.422	Roll Set Point:	-0.235	Pitch Set Point:	-0.114	Yaw Set Point:	-0.585	X_WP:	0.000	Y_WP:	0.000	Y_WP:	0.500	X:	0.100	Y:	0.093	Z:	0.402	yaw:	33.499	yaw rate:	-0.588	Roll:	4.473	Pitch:	0.838	Yaw:	48.237	Thrust:	43.794
Time:	5.438	Roll Set Point:	-0.235	Pitch Set Point:	-0.114	Yaw Set Point:	-0.585	X_WP:	0.000	Y_WP:	0.000	Y_WP:	0.500	X:	0.100	Y:	0.093	Z:	0.402	yaw:	33.499	yaw rate:	-0.588	Roll:	4.489	Pitch:	0.816	Yaw:	48.336	Thrust:	44.180
Time:	5.454	Roll Set Point:	-0.235	Pitch Set Point:	-0.115	Yaw Set Point:	-0.585	X_WP:	0.000	Y_WP:	0.000	Y_WP:	0.500	X:	0.100	Y:	0.093	Z:	0.402	yaw:	33.496	yaw rate:	-1.888	Roll:	4.556	Pitch:	0.876	Yaw:	48.287	Thrust:	44.513
Time:	5.469	Roll Set Point:	-0.235	Pitch Set Point:	-0.114	Yaw Set Point:	-0.585	X_WP:	0.000	Y_WP:	0.000	Y_WP:	0.500	X:	0.100	Y:	0.093	Z:	0.402	yaw:	33.521	yaw rate:	2.452	Roll:	4.431	Pitch:	0.682	Yaw:	48.777	Thrust:	44.532
Time:	5.485	Roll Set Point:	-0.235	Pitch Set Point:	-0.114	Yaw Set Point:	-0.585	X_WP:	0.000	Y_WP:	0.000	Y_WP:	0.500	X:	0.100	Y:	0.093	Z:	0.402	yaw:	33.498	yaw rate:	-2.305	Roll:	4.480	Pitch:	0.884	Yaw:	47.948	Thrust:	44.755
Time:	5.500	Roll Set Point:	-0.235	Pitch Set Point:	-0.115	Yaw Set Point:	-0.585	X_WP:	0.000	Y_WP:	0.000	Y_WP:	0.500	X:	0.100	Y:	0.093	Z:	0.402	yaw:	33.501	yaw rate:	0.319	Roll:	4.551	Pitch:	0.892	Yaw:	48.392	Thrust:	44.940
Time:	5.516	Roll Set Point:	-0.235	Pitch Set Point:	-0.114	Yaw Set Point:	-0.585	X_WP:	0.000	Y_WP:	0.000	Y_WP:	0.500	X:	0.100	Y:	0.093	Z:	0.402	yaw:	33.511	yaw rate:	0.978	Roll:	4.473	Pitch:	0.764	Yaw:	48.516	Thrust:	44.919
Time:	5.532	Roll Set Point:	-0.235	Pitch Set Point:	-0.114	Yaw Set Point:	-0.585	X_WP:	0.000	Y_WP:	0.000	Y_WP:	0.500	X:	0.100	Y:	0.093	Z:	0.402	yaw:	33.527	yaw rate:	1.658	Roll:	4.508	Pitch:	0.771	Yaw:	48.660	Thrust:	45.736
Time:	5.547	Roll Set Point:	-0.235	Pitch Set Point:	-0.114	Yaw Set Point:	-0.585	X_WP:	0.000	Y_WP:	0.000	Y_WP:	0.500	X:	0.100	Y:	0.093	Z:	0.402	yaw:	33.527	yaw rate:	1.658	Roll:	4.488	Pitch:	0.820	Yaw:	48.367	Thrust:	45.257
Time:	5.563	Roll Set Point:	-0.235	Pitch Set Point:	-0.114	Yaw Set Point:	-0.585	X_WP:	0.000	Y_WP:	0.000	Y_WP:	0.500	X:	0.100	Y:	0.093	Z:	0.402	yaw:	33.505	yaw rate:	-2.178	Roll:	4.422	Pitch:	0.833	Yaw:	47.980	Thrust:	45.463
Time:	5.579	Roll Set Point:	-0.235	Pitch Set Point:	-0.115	Yaw Set Point:	-0.585	X_WP:	0.000	Y_WP:	0.000	Y_WP:	0.500	X:	0.100	Y:	0.093	Z:	0.402	yaw:	33.498	yaw rate:	-0.769	Roll:	4.568	Pitch:	0.943	Yaw:	48.209	Thrust:	45.970
Time:	5.594	Roll Set Point:	-0.235	Pitch Set Point:	-0.114	Yaw Set Point:	-0.585	X_WP:	0.000	Y_WP:	0.000	Y_WP:	0.500	X:	0.100	Y:	0.093	Z:	0.402	yaw:	33.510	yaw rate:	1.243	Roll:	4.460	Pitch:	0.748	Yaw:	48.557	Thrust:	45.947
Time:	5.610	Roll Set Point:	-0.235	Pitch Set Point:	-0.114	Yaw Set Point:	-0.585	X_WP:	0.000	Y_WP:	0.000	Y_WP:	0.500	X:	0.100	Y:	0.093	Z:	0.402	yaw:	33.508	yaw rate:	-0.190	Roll:	4.442	Pitch:	0.770	Yaw:	48.317	Thrust:	46.151
Time:	5.625	Roll Set Point:	-0.235	Pitch Set Point:	-0.115	Yaw Set Point:	-0.585	X_WP:	0.000	Y_WP:	0.000	Y_WP:	0.500	X:	0.100	Y:	0.093	Z:	0.402	yaw:	33.503	yaw rate:	-0.526	Roll:	4.555	Pitch:	0.911	Yaw:	48.254	Thrust:	46.356
Time:	5.641	Roll Set Point:	-0.235	Pitch Set Point:	-0.115	Yaw Set Point:	-0.584	X_WP:	0.000	Y_WP:	0.000	Y_WP:	0.500	X:	0.100	Y:	0.093	Z:	0.402	yaw:	33.481	yaw rate:	-2.150	Roll:	4.499	Pitch:	0.899	Yaw:	47.951	Thrust:	46.501
Time:	5.657	Roll Set Point:	-0.235	Pitch Set Point:	-0.115	Yaw Set Point:	-0.584	X_WP:	0.000	Y_WP:	0.000	Y_WP:	0.500	X:	0.100	Y:	0.093	Z:	0.402	yaw:	33.481	yaw rate:	-2.150	Roll:	4.491	Pitch:	0.831	Yaw:	48.312	Thrust:	46.745
Time:	5.672	Roll Set Point:	-0.235	Pitch Set Point:	-0.114	Yaw Set Point:	-0.585	X_WP:	0.000	Y_WP:	0.000	Y_WP:	0.500	X:	0.100	Y:	0.093	Z:	0.402	yaw:	33.513	yaw rate:	1.919	Roll:	4.431	Pitch:	0.679	Yaw:	48.882	Thrust:	47.144
Time:	5.688	Roll Set Point:	-0.235	Pitch Set Point:	-0.114	Yaw Set Point:	-0.585	X_WP:	0.000	Y_WP:	0.000	Y_WP:	0.500	X:	0.100	Y:	0.093	Z:	0.402	yaw:	33.513	yaw rate:	1.919	Roll:	4.490	Pitch:	0.829	Yaw:	48.357	Thrust:	47.153
Time:	5.704	Roll Set Point:	-0.235	Pitch Set Point:	-0.115	Yaw Set Point:	-0.584	X_WP:	0.000	Y_WP:	0.000	Y_WP:	0.500	X:	0.100	Y:	0.093	Z:	0.402	yaw:	33.476	yaw rate:	-3.705	Roll:	4.515	Pitch:	0.981	Yaw:	47.686	Thrust:	47.206
Time:	5.719	Roll Set Point:	-0.235	Pitch Set Point:	-0.115	Yaw Set Point:	-0.584	X_WP:	0.000	Y_WP:	0.000	Y_WP:	0.500	X:	0.100	Y:	0.093	Z:	0.402	yaw:	33.476	yaw rate:	-3.705	Roll:	4.490	Pitch:	0.834	Yaw:	48.304	Thrust:	47.475
Time:	5.735	Roll Set Point:	-0.235	Pitch Set Point:	-0.115	Yaw Set Point:	-0.585	X_WP:	0.000	Y_WP:	0.000	Y_WP:	0.500	X:	0.100	Y:	0.093	Z:	0.402	yaw:	33.493	yaw rate:	1.724	Roll:	4.515	Pitch:	0.782	Yaw:	48.614	Thrust:	47.714
Time:	5.750	Roll Set Point:	-0.235	Pitch Set Point:	-0.114	Yaw Set Point:	-0.585	X_WP:	0.000	Y_WP:	0.000	Y_WP:	0.500	X:	0.100	Y:	0.092	Z:	0.402	yaw:	33.512	yaw rate:	1.869	Roll:	4.424	Pitch:	0.714	Yaw:	48.667	Thrust:	47.800
Time:	5.766	Roll Set Point:	-0.235	Pitch Set Point:	-0.115	Yaw Set Point:	-0.585	X_WP:	0.000	Y_WP:	0.000	Y_WP:	0.500	X:	0.100	Y:	0.093	Z:	0.402	yaw:	33.501	yaw rate:	-0.154	Roll:	4.565	Pitch:	0.960	Yaw:	48.159	Thrust:	47.884
Time:	5.782	Roll Set Point:	-0.235	Pitch Set Point:	-0.115	Yaw Set Point:	-0.585	X_WP:	0.000	Y_WP:	0.000	Y_WP:	0.500	X:	0.100	Y:	0.093	Z:	0.402	yaw:	33.501	yaw rate:	-0.154	Roll:	4.492	Pitch:	0.837	Yaw:	48.342	Thrust:	48.300
Time:	5.797	Roll Set Point:	-0.235	Pitch Set Point:	-0.114	Yaw Set Point:	-0.585	X_WP:	0.000	Y_WP:	0.000	Y_WP:	0.500	X:	0.100	Y:	0.093	Z:	0.402	yaw:	33.503	yaw rate:	0.157	Roll:	4.477	Pitch:	0.804	Yaw:	48.364	Thrust:	48.310
Time:	5.813	Roll Set Point:	-0.235	Pitch Set Point:	-0.114	Yaw Set Point:	-0.585	X_WP:	0.000	Y_WP:	0.000	Y_WP:	0.500	X:	0.100	Y:	0.093	Z:	0.402	yaw:	33.517	yaw rate:	-0.267	Roll:	4.441	Pitch:	0.758	Yaw:	48.600	Thrust:	48.728
Time:	5.829	Roll Set Point:	-0.235	Pitch Set Point:	-0.114	Yaw Set Point:	-0.585	X_WP:	0.000	Y_WP:	0.000	Y_WP:	0.500	X:	0.100	Y:	0.093	Z:	0.402	yaw:	33.517	yaw rate:	-0.267	Roll:	4.489	Pitch:	0.836	Yaw:	48.361	Thrust:	48.765
Time:	5.844	Roll Set Point:	-0.235	Pitch Set Point:	-0.115	Yaw Set Point:	-0.585	X_WP:	0.000	Y_WP:	0.000	Y_WP:	0.500	X:	0.100	Y:	0.093	Z:	0.402	yaw:	33.495	yaw rate:	0.033	Roll:	4.536	Pitch:	0.955	Yaw:	47.967	Thrust:	48.849
Time:	5.860	Roll Set Point:	-0.235	Pitch Set Point:	-0.114	Yaw Set Point:	-0.584	X_WP:	0.000	Y_WP:	0.000	Y_WP:	0.500	X:	0.100	Y:	0.093	Z:	0.402	yaw:	33.483	yaw rate:	-1.253	Roll:	4.449	Pitch:	0.801	Yaw:	48.107	Thrust:	49.250
Time:	5.875	Roll Set Point:	-0.235	Pitch Set Point:	-0.114	Yaw Set Point:	-0.585	X_WP:	0.000	Y_WP:	0.000	Y_WP:	0.500	X:	0.100	Y:	0.093	Z:	0.402	yaw:	33.517	yaw rate:	3.421	Roll:	4.494	Pitch:	0.748	Yaw:	48.934	Thrust:	49.289
Time:	5.891	Roll Set Point:	-0.235	Pitch Set Point:	-0.114	Yaw Set Point:	-0.585	X_WP:	0.000	Y_WP:	0.000	Y_WP:	0.500	X:	0.100	Y:	0.093	Z:	0.402	yaw:	33.509	yaw rate:	-0.757	Roll:	4.533	Pitch:	0.919	Yaw:	48.220	Thrust:	49.492
Time:	5.907	Roll Set Point:	-0.235	Pitch Set Point:	-0.114	Yaw Set Point:	-0.585	X_WP:	0.000	Y_WP:	0.000	Y_WP:	0.500	X:	0.100	Y:	0.093	Z:	0.402	yaw:	33.490	yaw rate:	-1.893	Roll:	4.455	Pitch:	0.870	Yaw:	48.011	Thrust:	49.646
Time:	5.922	Roll Set Point:	-0.235	Pitch Set Point:	-0.114	Yaw Set Point:	-0.585	X_WP:	0.000	Y_WP:	0.000	Y_WP:	0.500	X:	0.100	Y:	0.093	Z:	0.402	yaw:	33.490	yaw rate:	-1.893	Roll:	4.489	Pitch:	0.843	Yaw:	48.321	Thrust:	49.773
Time:	5.938	Roll Set Point:	-0.235	Pitch Set Point:	-0.114	Yaw Set Point:	-0.585	X_WP:	0.000	Y_WP:	0.000	Y_WP:	0.500	X:	0.100	Y:	0.093	Z:	0.402	yaw:	33.501	yaw rate:	1.105	Roll:	4.494	Pitch:	0.808	Yaw:	48.524	Thrust:	50.143
Time:	5.954	Roll Set Point:	-0.235	Pitch Set Point:	-0.115	Yaw Set Point:	-0.585	X_WP:	0.000	Y_WP:	0.000	Y_WP:	0.500	X:	0.100	Y:	0.093	Z:	0.402	yaw:	33.498	yaw rate:	-0.719	Roll:	4.507	Pitch:	0.890	Yaw:	48.282	Thrust:	50.138
Time:	5.969	Roll Set Point:	-0.235	Pitch Set Point:	-0.114	Yaw Set Point:	-0.585	X_WP:	0.000	Y_WP:	0.000	Y_WP:	0.500	X:	0.100	Y:	0.093	Z:	0.402	yaw:	33.502	yaw rate:	0.361	Roll:	4.462	Pitch:	0.777	Yaw:	48.401	Thrust:	50.342
Time:	5.985	Roll Set Point:	-0.235	Pitch Set Point:	-0.114	Yaw Set Point:	-0.584	X_WP:	0.000	Y_WP:	0.000	Y_WP:	0.500	X:	0.100	Y:	0.093	Z:	0.402	yaw:	33.489	yaw rate:	-1.249	Roll:	4.494	Pitch:	0.918	Yaw:	48.113	Thrust:	50.804
Time:	6.000	Roll Set Point:	-0.081	Pitch Set Point:	-0.033	Yaw Set Point:	-0.584	X_WP:	0.084	Y_WP:	0.153	Y_WP:	0.500	X:	0.100	Y:	0.093	Z:	0.402	yaw:	33.489	yaw rate:	-1.249	Roll:	-30.000	Pitch:	-30.000	Yaw:	48.323	Thrust:	50.796
Time:	6.016	Roll Set Point:	-0.081	Pitch Set Point:	-0.033	Yaw Set Point:	-0.585	X_WP:	0.084	Y_WP:	0.153	Y_WP:	0.500	X:	0.100	Y:	0.093	Z:	0.402	yaw:	33.506	yaw rate:	1.661	Roll:	-0.007	Pitch:	-1.501	Yaw:	48.623	Thrust:	50.734
Time:	6.032	Roll Set Point:	-0.081	Pitch Set Point:	-0.033	Yaw Set Point:	-0.585	X_WP:	0.084	Y_WP:	0.153	Y_WP:	0.500	X:	0.100	Y:	0.093	Z:	0.402	yaw:	33.502	yaw rate:	-0.434	Roll:	0.045	Pitch:	-1.516	Yaw:	48.267	Thrust:	51.248
Time:	6.047	Roll Set Point:	-0.081	Pitch Set Point:	-0.033	Yaw Set Point:	-0.585	X_WP:	0.084	Y_WP:	0.153	Y_WP:	0.500	X:	0.100	Y:	0.093	Z:	0.402	yaw:	33.504	yaw rate:	0.229	Roll:	0.023	Pitch:	-1.519	Yaw:	48.381	Thrust:	51.334
Time:	6.063	Roll Set Point:	-0.081	Pitch Set Point:	-0.033	Yaw Set Point:	-0.584	X_WP:	0.084	Y_WP:	0.153	Y_WP:	0.500	X:	0.100	Y:	0.093	Z:	0.402	yaw:	33.489	yaw rate:	-1.591	Roll:	0.001	Pitch:	-1.509	Yaw:	48.071	Thrust:	51.549
Time:	6.079	Roll Set Point:	-0.081	Pitch Set Point:	-0.033	Yaw Set Point:	-0.585	X_WP:	0.084	Y_WP:	0.153	Y_WP:	0.500	X:	0.100	Y:	0.093	Z:	0.402	yaw:	33.491	yaw rate:	0.203	Roll:	0.062	Pitch:	-1.527	Yaw:	48.359	Thrust:	51.631
Time:	6.094	Roll Set Point:	-0.081	Pitch Set Point:	-0.033	Yaw Set Point:	-0.585	X_WP:	0.084	Y_WP:	0.153	Y_WP:	0.500	X:	0.100	Y:	0.093	Z:	0.402	yaw:	33.512	yaw rate:	2.139	Roll:	-0.046	Pitch:	-1.505	Yaw:	48.713	Thrust:	51.701
Time:	6.110	Roll Set Point:	-0.081	Pitch Set Point:	-0.033	Yaw Set Point:	-0.585	X_WP:	0.084	Y_WP:	0.153	Y_WP:	0.500	X:	0.100	Y:	0.093	Z:	0.402	yaw:	33.503	yaw rate:	-0.931	Roll:	0.025	Pitch:	-1.525	Yaw:	48.186	Thrust:	52.292
Time:	6.125	Roll Set Point:	-0.081	Pitch Set Point:	-0.033	Yaw Set Point:	-0.585	X_WP:	0.084	Y_WP:	0.153	Y_WP:	0.500	X:	0.100	Y:	0.093	Z:	0.402	yaw:	33.499	yaw rate:	-0.348	Roll:	0.029	Pitch:	-1.529	Yaw:	48.278	Thrust:	52.185
Time:	6.141	Roll Set Point:	-0.081	Pitch Set Point:	-0.033	Yaw Set Point:	-0.584	X_WP:	0.084	Y_WP:	0.153	Y_WP:	0.500	X:	0.100	Y:	0.093	Z:	0.402	yaw:	33.483	yaw rate:	-1.616	Roll:	0.028	Pitch:	-1.531	Yaw:	48.044	Thrust:	52.330
Time:	6.157	Roll Set Point:	-0.081	Pitch Set Point:	-0.033	Yaw Set Point:	-0.585	X_WP:	0.084	Y_WP:	0.153	Y_WP:	0.500	X:	0.100	Y:	0.093	Z:	0.402	yaw:	33.521	yaw rate:	3.735	Roll:	-0.017	Pitch:	-1.521	Yaw:	48.992	Thrust:	52.722
Time:	6.172	Roll Set Point:	-0.081	Pitch Set Point:	-0.033	Yaw Set Point:	-0.585	X_WP:	0.084	Y_WP:	0.153	Y_WP:	0.500	X:	0.100	Y:	0.093	Z:	0.402	yaw:	33.510	yaw rate:	-1.035	Roll:	0.008	Pitch:	-1.529	Yaw:	48.178	Thrust:	52.668
Time:	6.188	Roll Set Point:	-0.081	Pitch Set Point:	-0.033	Yaw Set Point:	-0.585	X_WP:	0.084	Y_WP:	0.153	Y_WP:	0.500	X:	0.100	Y:	0.093	Z:	0.402	yaw:	33.510	yaw rate:	-1.035	Roll:	0.012	Pitch:	-1.534	Yaw:	48.353	Thrust:	53.003
Time:	6.204	Roll Set Point:	-0.081	Pitch Set Point:	-0.033	Yaw Set Point:	-0.585	X_WP:	0.084	Y_WP:	0.153	Y_WP:	0.500	X:	0.100	Y:	0.093	Z:	0.402	yaw:	33.520	yaw rate:	0.947	Roll:	-0.007	Pitch:	-1.532	Yaw:	48.524	Thrust:	53.390
Time:	6.219	Roll Set Point:	-0.081	Pitch Set Point:	-0.033	Yaw Set Point:	-0.585	X_WP:	0.084	Y_WP:	0.153	Y_WP:	0.500	X:	0.100	Y:	0.093	Z:	0.402	yaw:	33.503	yaw rate:	0.391	Roll:	0.048	Pitch:	-1.550	Yaw:	48.068	Thrust:	53.040
Time:	6.235	Roll Set Point:	-0.081	Pitch Set Point:	-0.033	Yaw Set Point:	-0.585	X_WP:	0.084	Y_WP:	0.153	Y_WP:	0.500	X:	0.100	Y:	0.093	Z:	0.402	yaw:	33.503	yaw rate:	0.391	Roll:	0.010	Pitch:	-1.541	Yaw:	48.342	Thrust:	53.519
Time:	6.251	Roll Set Point:	-0.081	Pitch Set Point:	-0.033	Yaw Set Point:	-0.584	X_WP:	0.084	Y_WP:	0.153	Y_WP:	0.500	X:	0.100	Y:	0.093	Z:	0.402	yaw:	33.484	yaw rate:	-1.931	Roll:	0.028	Pitch:	-1.552	Yaw:	47.996	Thrust:	53.792
Time:	6.266	Roll Set Point:	-0.081	Pitch Set Point:	-0.033	Yaw Set Point:	-0.585	X_WP:	0.084	Y_WP:	0.153	Y_WP:	0.500	X:	0.100	Y:	0.093	Z:	0.402	yaw:	33.493	yaw rate:	0.841	Roll:	-0.030	Pitch:	-1.530	Yaw:	48.466	Thrust:	53.984
Time:	6.282	Roll Set Point:	-0.081	Pitch Set Point:	-0.033	Yaw Set Point:	-0.585	X_WP:	0.084	Y_WP:	0.153	Y_WP:	0.500	X:	0.100	Y:	0.093	Z:	0.402	yaw:	33.502	yaw rate:	0.893	Roll:	0.019	Pitch:	-1.553	Yaw:	48.488	Thrust:	54.047
