Time:	2.057	Roll Set Point:	-0.025	Pitch Set Point:	-0.064	Yaw Set Point:	-0.051	X_WP:	0.000	Y_WP:	0.000	Y_WP:	0.500	X:	0.012	Y:	0.032	Z:	0.050	yaw:	2.937	yaw rate:	2.353	Roll:	0.389	Pitch:	0.922	Yaw:	4.101	Thrust:	24.749
Time:	2.068	Roll Set Point:	-0.025	Pitch Set Point:	-0.064	Yaw Set Point:	-0.051	X_WP:	0.000	Y_WP:	0.000	Y_WP:	0.500	X:	0.012	Y:	0.032	Z:	0.050	yaw:	2.928	yaw rate:	-0.873	Roll:	0.410	Pitch:	0.920	Yaw:	3.893	Thrust:	25.322
Time:	2.079	Roll Set Point:	-0.025	Pitch Set Point:	-0.064	Yaw Set Point:	-0.051	X_WP:	0.000	Y_WP:	0.000	Y_WP:	0.500	X:	0.012	Y:	0.032	Z:	0.050	yaw:	2.924	yaw rate:	-0.467	Roll:	0.393	Pitch:	0.933	Yaw:	3.994	Thrust:	25.953
Time:	2.090	Roll Set Point:	-0.026	Pitch Set Point:	-0.064	Yaw Set Point:	-0.055	X_WP:	0.000	Y_WP:	0.000	Y_WP:	0.500	X:	0.012	Y:	0.032	Z:	0.050	yaw:	3.129	yaw rate:	20.585	Roll:	0.736	Pitch:	0.819	Yaw:	9.289	Thrust:	25.999
Time:	2.101	Roll Set Point:	-0.025	Pitch Set Point:	-0.064	Yaw Set Point:	-0.050	X_WP:	0.000	Y_WP:	0.000	Y_WP:	0.500	X:	0.012	Y:	0.032	Z:	0.050	yaw:	2.840	yaw rate:	-28.958	Roll:	-0.295	Pitch:	0.883	Yaw:	-2.806	Thrust:	27.798
Time:	2.112	Roll Set Point:	-0.025	Pitch Set Point:	-0.064	Yaw Set Point:	-0.052	X_WP:	0.000	Y_WP:	0.000	Y_WP:	0.500	X:	0.012	Y:	0.032	Z:	0.050	yaw:	2.972	yaw rate:	13.232	Roll:	0.671	Pitch:	0.931	Yaw:	7.331	Thrust:	28.132
Time:	2.123	Roll Set Point:	-0.026	Pitch Set Point:	-0.064	Yaw Set Point:	-0.055	X_WP:	0.000	Y_WP:	0.000	Y_WP:	0.500	X:	0.012	Y:	0.032	Z:	0.050	yaw:	3.168	yaw rate:	19.559	Roll:	0.825	Pitch:	0.848	Yaw:	9.134	Thrust:	27.424
Time:	2.134	Roll Set Point:	-0.025	Pitch Set Point:	-0.064	Yaw Set Point:	-0.055	X_WP:	0.000	Y_WP:	0.000	Y_WP:	0.500	X:	0.012	Y:	0.032	Z:	0.050	yaw:	3.130	yaw rate:	-3.810	Roll:	0.300	Pitch:	1.026	Yaw:	3.546	Thrust:	29.730
Time:	2.145	Roll Set Point:	-0.025	Pitch Set Point:	-0.064	Yaw Set Point:	-0.044	X_WP:	0.000	Y_WP:	0.000	Y_WP:	0.500	X:	0.012	Y:	0.032	Z:	0.050	yaw:	2.526	yaw rate:	-60.353	Roll:	-0.355	Pitch:	0.952	Yaw:	-10.706	Thrust:	29.275
Time:	2.156	Roll Set Point:	-0.025	Pitch Set Point:	-0.064	Yaw Set Point:	-0.056	X_WP:	0.000	Y_WP:	0.000	Y_WP:	0.500	X:	0.012	Y:	0.032	Z:	0.050	yaw:	3.217	yaw rate:	69.082	Roll:	1.182	Pitch:	0.873	Yaw:	20.992	Thrust:	30.330
Time:	2.167	Roll Set Point:	-0.025	Pitch Set Point:	-0.064	Yaw Set Point:	-0.056	X_WP:	0.000	Y_WP:	0.000	Y_WP:	0.500	X:	0.012	Y:	0.032	Z:	0.050	yaw:	3.231	yaw rate:	1.402	Roll:	0.267	Pitch:	0.866	Yaw:	4.959	Thrust:	30.954
Time:	2.178	Roll Set Point:	-0.025	Pitch Set Point:	-0.064	Yaw Set Point:	-0.047	X_WP:	0.000	Y_WP:	0.000	Y_WP:	0.500	X:	0.012	Y:	0.032	Z:	0.050	yaw:	2.697	yaw rate:	-53.406	Roll:	0.081	Pitch:	1.113	Yaw:	-8.784	Thrust:	29.898
Time:	2.189	Roll Set Point:	-0.025	Pitch Set Point:	-0.064	Yaw Set Point:	-0.049	X_WP:	0.000	Y_WP:	0.000	Y_WP:	0.500	X:	0.012	Y:	0.032	Z:	0.050	yaw:	2.784	yaw rate:	8.758	Roll:	0.442	Pitch:	0.845	Yaw:	6.104	Thrust:	32.028
Time:	2.200	Roll Set Point:	-0.025	Pitch Set Point:	-0.064	Yaw Set Point:	-0.042	X_WP:	0.000	Y_WP:	0.000	Y_WP:	0.500	X:	0.012	Y:	0.032	Z:	0.050	yaw:	2.431	yaw rate:	-35.316	Roll:	0.110	Pitch:	0.928	Yaw:	-4.840	Thrust:	33.030
Time:	2.211	Roll Set Point:	-0.025	Pitch Set Point:	-0.064	Yaw Set Point:	-0.046	X_WP:	0.000	Y_WP:	0.000	Y_WP:	0.500	X:	0.012	Y:	0.032	Z:	0.050	yaw:	2.612	yaw rate:	18.086	Roll:	0.496	Pitch:	0.969	Yaw:	8.098	Thrust:	32.580
Time:	2.223	Roll Set Point:	-0.025	Pitch Set Point:	-0.064	Yaw Set Point:	-0.051	X_WP:	0.000	Y_WP:	0.000	Y_WP:	0.500	X:	0.012	Y:	0.032	Z:	0.050	yaw:	2.932	yaw rate:	31.998	Roll:	0.638	Pitch:	1.050	Yaw:	11.239	Thrust:	34.947
Time:	2.234	Roll Set Point:	-0.025	Pitch Set Point:	-0.064	Yaw Set Point:	-0.049	X_WP:	0.000	Y_WP:	0.000	Y_WP:	0.500	X:	0.012	Y:	0.032	Z:	0.050	yaw:	2.784	yaw rate:	-14.777	Roll:	0.270	Pitch:	0.609	Yaw:	0.559	Thrust:	34.043
Time:	2.246	Roll Set Point:	-0.025	Pitch Set Point:	-0.064	Yaw Set Point:	-0.048	X_WP:	0.000	Y_WP:	0.000	Y_WP:	0.500	X:	0.012	Y:	0.032	Z:	0.050	yaw:	2.741	yaw rate:	-4.375	Roll:	0.296	Pitch:	1.102	Yaw:	3.081	Thrust:	35.980
Time:	2.257	Roll Set Point:	-0.025	Pitch Set Point:	-0.064	Yaw Set Point:	-0.046	X_WP:	0.000	Y_WP:	0.000	Y_WP:	0.500	X:	0.012	Y:	0.032	Z:	0.050	yaw:	2.640	yaw rate:	-10.028	Roll:	0.462	Pitch:	0.980	Yaw:	1.506	Thrust:	34.672
Time:	2.268	Roll Set Point:	-0.025	Pitch Set Point:	-0.064	Yaw Set Point:	-0.045	X_WP:	0.000	Y_WP:	0.000	Y_WP:	0.500	X:	0.012	Y:	0.032	Z:	0.050	yaw:	2.602	yaw rate:	-3.876	Roll:	0.124	Pitch:	0.884	Yaw:	2.923	Thrust:	36.124
Time:	2.279	Roll Set Point:	-0.025	Pitch Set Point:	-0.064	Yaw Set Point:	-0.047	X_WP:	0.000	Y_WP:	0.000	Y_WP:	0.500	X:	0.012	Y:	0.032	Z:	0.050	yaw:	2.665	yaw rate:	6.384	Roll:	0.649	Pitch:	1.005	Yaw:	5.458	Thrust:	36.644
Time:	2.290	Roll Set Point:	-0.026	Pitch Set Point:	-0.064	Yaw Set Point:	-0.056	X_WP:	0.000	Y_WP:	0.000	Y_WP:	0.500	X:	0.012	Y:	0.033	Z:	0.050	yaw:	3.227	yaw rate:	56.196	Roll:	0.944	Pitch:	0.977	Yaw:	18.076	Thrust:	37.822
Time:	2.301	Roll Set Point:	-0.025	Pitch Set Point:	-0.064	Yaw Set Point:	-0.052	X_WP:	0.000	Y_WP:	0.000	Y_WP:	0.500	X:	0.012	Y:	0.032	Z:	0.050	yaw:	2.965	yaw rate:	-26.288	Roll:	0.006	Pitch:	0.726	Yaw:	-1.858	Thrust:	38.998
Time:	2.312	Roll Set Point:	-0.025	Pitch Set Point:	-0.064	Yaw Set Point:	-0.047	X_WP:	0.000	Y_WP:	0.000	Y_WP:	0.500	X:	0.012	Y:	0.032	Z:	0.050	yaw:	2.717	yaw rate:	-24.735	Roll:	-0.019	Pitch:	0.913	Yaw:	-1.823	Thrust:	37.477
Time:	2.324	Roll Set Point:	-0.026	Pitch Set Point:	-0.064	Yaw Set Point:	-0.055	X_WP:	0.000	Y_WP:	0.000	Y_WP:	0.500	X:	0.012	Y:	0.032	Z:	0.050	yaw:	3.149	yaw rate:	43.152	Roll:	1.210	Pitch:	1.175	Yaw:	14.591	Thrust:	39.054
Time:	2.335	Roll Set Point:	-0.026	Pitch Set Point:	-0.064	Yaw Set Point:	-0.054	X_WP:	0.000	Y_WP:	0.000	Y_WP:	0.500	X:	0.012	Y:	0.032	Z:	0.050	yaw:	3.086	yaw rate:	-6.226	Roll:	0.289	Pitch:	0.912	Yaw:	3.108	Thrust:	39.594
Time:	2.346	Roll Set Point:	-0.026	Pitch Set Point:	-0.064	Yaw Set Point:	-0.056	X_WP:	0.000	Y_WP:	0.000	Y_WP:	0.500	X:	0.012	Y:	0.032	Z:	0.050	yaw:	3.196	yaw rate:	10.934	Roll:	0.452	Pitch:	0.911	Yaw:	7.347	Thrust:	41.085
Time:	2.357	Roll Set Point:	-0.026	Pitch Set Point:	-0.064	Yaw Set Point:	-0.058	X_WP:	0.000	Y_WP:	0.000	Y_WP:	0.500	X:	0.012	Y:	0.033	Z:	0.050	yaw:	3.309	yaw rate:	11.275	Roll:	0.646	Pitch:	1.013	Yaw:	7.596	Thrust:	40.122
Time:	2.368	Roll Set Point:	-0.025	Pitch Set Point:	-0.064	Yaw Set Point:	-0.047	X_WP:	0.000	Y_WP:	0.000	Y_WP:	0.500	X:	0.012	Y:	0.032	Z:	0.050	yaw:	2.675	yaw rate:	-63.364	Roll:	-0.480	Pitch:	0.816	Yaw:	-10.995	Thrust:	40.844
Time:	2.379	Roll Set Point:	-0.025	Pitch Set Point:	-0.064	Yaw Set Point:	-0.046	X_WP:	0.000	Y_WP:	0.000	Y_WP:	0.500	X:	0.012	Y:	0.032	Z:	0.050	yaw:	2.658	yaw rate:	-1.700	Roll:	0.358	Pitch:	0.975	Yaw:	3.637	Thrust:	43.195
Time:	2.390	Roll Set Point:	-0.025	Pitch Set Point:	-0.064	Yaw Set Point:	-0.061	X_WP:	0.000	Y_WP:	0.000	Y_WP:	0.500	X:	0.012	Y:	0.032	Z:	0.050	yaw:	3.472	yaw rate:	81.441	Roll:	1.159	Pitch:	0.881	Yaw:	24.515	Thrust:	42.825
Time:	2.401	Roll Set Point:	-0.025	Pitch Set Point:	-0.064	Yaw Set Point:	-0.050	X_WP:	0.000	Y_WP:	0.000	Y_WP:	0.500	X:	0.012	Y:	0.032	Z:	0.050	yaw:	2.837	yaw rate:	-63.524	Roll:	-0.091	Pitch:	0.910	Yaw:	-10.769	Thrust:	42.274
Time:	2.412	Roll Set Point:	-0.025	Pitch Set Point:	-0.064	Yaw Set Point:	-0.054	X_WP:	0.000	Y_WP:	0.000	Y_WP:	0.500	X:	0.012	Y:	0.032	Z:	0.050	yaw:	3.108	yaw rate:	27.050	Roll:	0.572	Pitch:	1.067	Yaw:	11.118	Thrust:	43.898
Time:	2.424	Roll Set Point:	-0.025	Pitch Set Point:	-0.064	Yaw Set Point:	-0.050	X_WP:	0.000	Y_WP:	0.000	Y_WP:	0.500	X:	0.012	Y:	0.032	Z:	0.050	yaw:	2.883	yaw rate:	-22.454	Roll:	0.263	Pitch:	0.839	Yaw:	-0.448	Thrust:	46.075
Time:	2.435	Roll Set Point:	-0.026	Pitch Set Point:	-0.064	Yaw Set Point:	-0.061	X_WP:	0.000	Y_WP:	0.000	Y_WP:	0.500	X:	0.012	Y:	0.032	Z:	0.050	yaw:	3.478	yaw rate:	59.514	Roll:	0.960	Pitch:	1.033	Yaw:	19.359	Thrust:	45.988
Time:	2.446	Roll Set Point:	-0.025	Pitch Set Point:	-0.064	Yaw Set Point:	-0.045	X_WP:	0.000	Y_WP:	0.000	Y_WP:	0.500	X:	0.012	Y:	0.032	Z:	0.050	yaw:	2.589	yaw rate:	-88.914	Roll:	-0.721	Pitch:	0.870	Yaw:	-17.090	Thrust:	45.915
Time:	2.457	Roll Set Point:	-0.025	Pitch Set Point:	-0.064	Yaw Set Point:	-0.047	X_WP:	0.000	Y_WP:	0.000	Y_WP:	0.500	X:	0.012	Y:	0.032	Z:	0.050	yaw:	2.678	yaw rate:	8.897	Roll:	0.673	Pitch:	1.067	Yaw:	6.256	Thrust:	45.474
Time:	2.468	Roll Set Point:	-0.025	Pitch Set Point:	-0.064	Yaw Set Point:	-0.047	X_WP:	0.000	Y_WP:	0.000	Y_WP:	0.500	X:	0.012	Y:	0.032	Z:	0.050	yaw:	2.720	yaw rate:	4.196	Roll:	0.658	Pitch:	0.922	Yaw:	5.209	Thrust:	46.746
Time:	2.479	Roll Set Point:	-0.025	Pitch Set Point:	-0.064	Yaw Set Point:	-0.049	X_WP:	0.000	Y_WP:	0.000	Y_WP:	0.500	X:	0.012	Y:	0.032	Z:	0.050	yaw:	2.818	yaw rate:	9.824	Roll:	0.328	Pitch:	1.002	Yaw:	6.693	Thrust:	47.001
Time:	2.490	Roll Set Point:	-0.025	Pitch Set Point:	-0.064	Yaw Set Point:	-0.049	X_WP:	0.000	Y_WP:	0.000	Y_WP:	0.500	X:	0.012	Y:	0.032	Z:	0.050	yaw:	2.812	yaw rate:	-0.572	Roll:	0.433	Pitch:	0.858	Yaw:	4.228	Thrust:	47.640
Time:	2.501	Roll Set Point:	-0.025	Pitch Set Point:	-0.064	Yaw Set Point:	-0.055	X_WP:	0.000	Y_WP:	0.000	Y_WP:	0.500	X:	0.012	Y:	0.032	Z:	0.050	yaw:	3.130	yaw rate:	31.732	Roll:	0.792	Pitch:	1.089	Yaw:	12.366	Thrust:	49.034
Time:	2.512	Roll Set Point:	-0.025	Pitch Set Point:	-0.064	Yaw Set Point:	-0.048	X_WP:	0.000	Y_WP:	0.000	Y_WP:	0.500	X:	0.012	Y:	0.032	Z:	0.050	yaw:	2.728	yaw rate:	-40.177	Roll:	-0.006	Pitch:	0.874	Yaw:	-5.268	Thrust:	49.338
Time:	2.523	Roll Set Point:	-0.025	Pitch Set Point:	-0.064	Yaw Set Point:	-0.055	X_WP:	0.000	Y_WP:	0.000	Y_WP:	0.500	X:	0.012	Y:	0.032	Z:	0.050	yaw:	3.165	yaw rate:	43.687	Roll:	0.683	Pitch:	0.949	Yaw:	15.234	Thrust:	50.384
Time:	2.535	Roll Set Point:	-0.026	Pitch Set Point:	-0.064	Yaw Set Point:	-0.055	X_WP:	0.000	Y_WP:	0.000	Y_WP:	0.500	X:	0.012	Y:	0.032	Z:	0.050	yaw:	3.147	yaw rate:	-1.790	Roll:	0.610	Pitch:	1.045	Yaw:	4.529	Thrust:	51.497
Time:	2.546	Roll Set Point:	-0.025	Pitch Set Point:	-0.064	Yaw Set Point:	-0.053	X_WP:	0.000	Y_WP:	0.000	Y_WP:	0.500	X:	0.012	Y:	0.032	Z:	0.050	yaw:	3.013	yaw rate:	-13.435	Roll:	0.242	Pitch:	0.862	Yaw:	1.518	Thrust:	51.210
Time:	2.558	Roll Set Point:	-0.025	Pitch Set Point:	-0.064	Yaw Set Point:	-0.055	X_WP:	0.000	Y_WP:	0.000	Y_WP:	0.500	X:	0.012	Y:	0.032	Z:	0.050	yaw:	3.165	yaw rate:	15.189	Roll:	0.426	Pitch:	0.823	Yaw:	8.535	Thrust:	51.774
Time:	2.569	Roll Set Point:	-0.026	Pitch Set Point:	-0.064	Yaw Set Point:	-0.059	X_WP:	0.000	Y_WP:	0.000	Y_WP:	0.500	X:	0.012	Y:	0.032	Z:	0.050	yaw:	3.383	yaw rate:	21.892	Roll:	0.732	Pitch:	1.110	Yaw:	10.428	Thrust:	52.333
Time:	2.580	Roll Set Point:	-0.025	Pitch Set Point:	-0.064	Yaw Set Point:	-0.049	X_WP:	0.000	Y_WP:	0.000	Y_WP:	0.500	X:	0.012	Y:	0.032	Z:	0.050	yaw:	2.819	yaw rate:	-56.438	Roll:	-0.251	Pitch:	0.888	Yaw:	-8.963	Thrust:	51.659
Time:	2.591	Roll Set Point:	-0.025	Pitch Set Point:	-0.064	Yaw Set Point:	-0.047	X_WP:	0.000	Y_WP:	0.000	Y_WP:	0.500	X:	0.012	Y:	0.032	Z:	0.050	yaw:	2.719	yaw rate:	-9.998	Roll:	0.345	Pitch:	0.921	Yaw:	1.965	Thrust:	53.869
Time:	2.602	Roll Set Point:	-0.025	Pitch Set Point:	-0.064	Yaw Set Point:	-0.054	X_WP:	0.000	Y_WP:	0.000	Y_WP:	0.500	X:	0.012	Y:	0.032	Z:	0.050	yaw:	3.117	yaw rate:	39.802	Roll:	0.784	Pitch:	1.129	Yaw:	14.352	Thrust:	54.297
Time:	2.613	Roll Set Point:	-0.025	Pitch Set Point:	-0.064	Yaw Set Point:	-0.056	X_WP:	0.000	Y_WP:	0.000	Y_WP:	0.500	X:	0.012	Y:	0.032	Z:	0.050	yaw:	3.187	yaw rate:	7.009	Roll:	0.460	Pitch:	1.015	Yaw:	6.676	Thrust:	53.820
Time:	2.624	Roll Set Point:	-0.025	Pitch Set Point:	-0.064	Yaw Set Point:	-0.051	X_WP:	0.000	Y_WP:	0.000	Y_WP:	0.500	X:	0.012	Y:	0.032	Z:	0.050	yaw:	2.939	yaw rate:	-24.811	Roll:	-0.160	Pitch:	0.776	Yaw:	-1.221	Thrust:	55.521
Time:	2.635	Roll Set Point:	-0.025	Pitch Set Point:	-0.064	Yaw Set Point:	-0.051	X_WP:	0.000	Y_WP:	0.000	Y_WP:	0.500	X:	0.012	Y:	0.032	Z:	0.050	yaw:	2.949	yaw rate:	0.960	Roll:	0.440	Pitch:	0.655	Yaw:	4.933	Thrust:	55.579
Time:	2.647	Roll Set Point:	-0.025	Pitch Set Point:	-0.064	Yaw Set Point:	-0.052	X_WP:	0.000	Y_WP:	0.000	Y_WP:	0.500	X:	0.012	Y:	0.032	Z:	0.050	yaw:	2.952	yaw rate:	0.320	Roll:	0.426	Pitch:	1.223	Yaw:	4.838	Thrust:	58.075
Time:	2.658	Roll Set Point:	-0.025	Pitch Set Point:	-0.064	Yaw Set Point:	-0.055	X_WP:	0.000	Y_WP:	0.000	Y_WP:	0.500	X:	0.012	Y:	0.032	Z:	0.050	yaw:	3.152	yaw rate:	20.055	Roll:	0.473	Pitch:	0.829	Yaw:	9.776	Thrust:	57.505
Time:	2.669	Roll Set Point:	-0.026	Pitch Set Point:	-0.064	Yaw Set Point:	-0.068	X_WP:	0.000	Y_WP:	0.000	Y_WP:	0.500	X:	0.012	Y:	0.032	Z:	0.050	yaw:	3.882	yaw rate:	72.940	Roll:	1.396	Pitch:	0.769	Yaw:	23.381	Thrust:	57.438
Time:	2.680	Roll Set Point:	-0.025	Pitch Set Point:	-0.064	Yaw Set Point:	-0.055	X_WP:	0.000	Y_WP:	0.000	Y_WP:	0.500	X:	0.012	Y:	0.032	Z:	0.050	yaw:	3.163	yaw rate:	-71.934	Roll:	-0.550	Pitch:	1.131	Yaw:	-11.993	Thrust:	58.013
Time:	2.691	Roll Set Point:	-0.025	Pitch Set Point:	-0.064	Yaw Set Point:	-0.056	X_WP:	0.000	Y_WP:	0.000	Y_WP:	0.500	X:	0.011	Y:	0.032	Z:	0.051	yaw:	3.226	yaw rate:	6.394	Roll:	0.347	Pitch:	1.003	Yaw:	6.673	Thrust:	57.438
Time:	2.702	Roll Set Point:	-0.025	Pitch Set Point:	-0.064	Yaw Set Point:	-0.061	X_WP:	0.000	Y_WP:	0.000	Y_WP:	0.500	X:	0.011	Y:	0.032	Z:	0.050	yaw:	3.489	yaw rate:	26.257	Roll:	0.402	Pitch:	0.686	Yaw:	11.767	Thrust:	59.902
Time:	2.713	Roll Set Point:	-0.025	Pitch Set Point:	-0.064	Yaw Set Point:	-0.063	X_WP:	0.000	Y_WP:	0.000	Y_WP:	0.500	X:	0.011	Y:	0.032	Z:	0.051	yaw:	3.626	yaw rate:	13.672	Roll:	0.684	Pitch:	0.986	Yaw:	8.988	Thrust:	57.790
Time:	2.724	Roll Set Point:	-0.025	Pitch Set Point:	-0.064	Yaw Set Point:	-0.067	X_WP:	0.000	Y_WP:	0.000	Y_WP:	0.500	X:	0.011	Y:	0.032	Z:	0.051	yaw:	3.822	yaw rate:	19.659	Roll:	0.572	Pitch:	0.976	Yaw:	10.694	Thrust:	59.442
Time:	2.735	Roll Set Point:	-0.025	Pitch Set Point:	-0.064	Yaw Set Point:	-0.071	X_WP:	0.000	Y_WP:	0.000	Y_WP:	0.500	X:	0.011	Y:	0.032	Z:	0.051	yaw:	4.060	yaw rate:	23.751	Roll:	0.411	Pitch:	1.008	Yaw:	12.011	Thrust:	60.466
Time:	2.746	Roll Set Point:	-0.025	Pitch Set Point:	-0.064	Yaw Set Point:	-0.072	X_WP:	0.000	Y_WP:	0.000	Y_WP:	0.500	X:	0.011	Y:	0.032	Z:	0.052	yaw:	4.126	yaw rate:	6.661	Roll:	0.441	Pitch:	0.842	Yaw:	8.061	Thrust:	59.850
Time:	2.757	Roll Set Point:	-0.025	Pitch Set Point:	-0.063	Yaw Set Point:	-0.086	X_WP:	0.000	Y_WP:	0.000	Y_WP:	0.500	X:	0.011	Y:	0.032	Z:	0.052	yaw:	4.924	yaw rate:	79.711	Roll:	0.979	Pitch:	0.582	Yaw:	26.567	Thrust:	60.353
Time:	2.768	Roll Set Point:	-0.025	Pitch Set Point:	-0.063	Yaw Set Point:	-0.084	X_WP:	0.000	Y_WP:	0.000	Y_WP:	0.500	X:	0.011	Y:	0.032	Z:	0.052	yaw:	4.841	yaw rate:	-8.304	Roll:	0.219	Pitch:	0.857	Yaw:	5.543	Thrust:	62.140
Time:	2.779	Roll Set Point:	-0.025	Pitch Set Point:	-0.063	Yaw Set Point:	-0.088	X_WP:	0.000	Y_WP:	0.000	Y_WP:	0.500	X:	0.011	Y:	0.032	Z:	0.053	yaw:	5.024	yaw rate:	18.313	Roll:	0.474	Pitch:	0.876	Yaw:	12.128	Thrust:	60.609
Time:	2.790	Roll Set Point:	-0.025	Pitch Set Point:	-0.063	Yaw Set Point:	-0.089	X_WP:	0.000	Y_WP:	0.000	Y_WP:	0.500	X:	0.011	Y:	0.032	Z:	0.054	yaw:	5.094	yaw rate:	7.084	Roll:	0.320	Pitch:	0.615	Yaw:	9.590	Thrust:	61.259
Time:	2.801	Roll Set Point:	-0.024	Pitch Set Point:	-0.062	Yaw Set Point:	-0.091	X_WP:	0.000	Y_WP:	0.000	Y_WP:	0.500	X:	0.011	Y:	0.032	Z:	0.054	yaw:	5.218	yaw rate:	12.341	Roll:	0.289	Pitch:	0.576	Yaw:	11.028	Thrust:	62.349
Time:	2.812	Roll Set Point:	-0.024	Pitch Set Point:	-0.061	Yaw Set Point:	-0.090	X_WP:	0.000	Y_WP:	0.000	Y_WP:	0.500	X:	0.011	Y:	0.031	Z:	0.055	yaw:	5.149	yaw rate:	-6.937	Roll:	0.030	Pitch:	0.239	Yaw:	6.375	Thrust:	60.517
Time:	2.823	Roll Set Point:	-0.024	Pitch Set Point:	-0.061	Yaw Set Point:	-0.097	X_WP:	0.000	Y_WP:	0.000	Y_WP:	0.500	X:	0.011	Y:	0.031	Z:	0.056	yaw:	5.576	yaw rate:	42.745	Roll:	0.589	Pitch:	0.503	Yaw:	18.766	Thrust:	63.765
Time:	2.835	Roll Set Point:	-0.024	Pitch Set Point:	-0.060	Yaw Set Point:	-0.095	X_WP:	0.000	Y_WP:	0.000	Y_WP:	0.500	X:	0.010	Y:	0.031	Z:	0.057	yaw:	5.465	yaw rate:	-11.081	Roll:	-0.001	Pitch:	0.318	Yaw:	6.072	Thrust:	64.799
Time:	2.846	Roll Set Point:	-0.023	Pitch Set Point:	-0.059	Yaw Set Point:	-0.087	X_WP:	0.000	Y_WP:	0.000	Y_WP:	0.500	X:	0.010	Y:	0.030	Z:	0.057	yaw:	5.007	yaw rate:	-45.817	Roll:	-0.486	Pitch:	0.088	Yaw:	-2.989	Thrust:	63.747
Time:	2.857	Roll Set Point:	-0.023	Pitch Set Point:	-0.058	Yaw Set Point:	-0.085	X_WP:	0.000	Y_WP:	0.000	Y_WP:	0.500	X:	0.010	Y:	0.029	Z:	0.058	yaw:	4.870	yaw rate:	-13.693	Roll:	0.127	Pitch:	0.263	Yaw:	4.464	Thrust:	64.421
Time:	2.868	Roll Set Point:	-0.022	Pitch Set Point:	-0.056	Yaw Set Point:	-0.101	X_WP:	0.000	Y_WP:	0.000	Y_WP:	0.500	X:	0.010	Y:	0.028	Z:	0.060	yaw:	5.759	yaw rate:	88.876	Roll:	0.206	Pitch:	-0.855	Yaw:	30.070	Thrust:	60.888
Time:	2.879	Roll Set Point:	-0.021	Pitch Set Point:	-0.054	Yaw Set Point:	-0.099	X_WP:	0.000	Y_WP:	0.000	Y_WP:	0.500	X:	0.009	Y:	0.028	Z:	0.060	yaw:	5.668	yaw rate:	-9.045	Roll:	-0.387	Pitch:	-0.190	Yaw:	6.730	Thrust:	64.703
Time:	2.890	Roll Set Point:	-0.020	Pitch Set Point:	-0.053	Yaw Set Point:	-0.095	X_WP:	0.000	Y_WP:	0.000	Y_WP:	0.500	X:	0.009	Y:	0.027	Z:	0.061	yaw:	5.430	yaw rate:	-23.809	Roll:	-0.720	Pitch:	-0.587	Yaw:	2.893	Thrust:	65.195
Time:	2.901	Roll Set Point:	-0.019	Pitch Set Point:	-0.051	Yaw Set Point:	-0.098	X_WP:	0.000	Y_WP:	0.000	Y_WP:	0.500	X:	0.008	Y:	0.026	Z:	0.062	yaw:	5.601	yaw rate:	17.110	Roll:	-0.373	Pitch:	-0.627	Yaw:	12.880	Thrust:	65.928
Time:	2.912	Roll Set Point:	-0.018	Pitch Set Point:	-0.048	Yaw Set Point:	-0.098	X_WP:	0.000	Y_WP:	0.000	Y_WP:	0.500	X:	0.008	Y:	0.024	Z:	0.064	yaw:	5.606	yaw rate:	0.414	Roll:	-0.805	Pitch:	-1.489	Yaw:	8.954	Thrust:	62.837
Time:	2.923	Roll Set Point:	-0.017	Pitch Set Point:	-0.045	Yaw Set Point:	-0.098	X_WP:	0.000	Y_WP:	0.000	Y_WP:	0.500	X:	0.007	Y:	0.023	Z:	0.065	yaw:	5.596	yaw rate:	-0.993	Roll:	-0.566	Pitch:	-1.141	Yaw:	8.621	Thrust:	65.810
Time:	2.934	Roll Set Point:	-0.015	Pitch Set Point:	-0.043	Yaw Set Point:	-0.094	X_WP:	0.000	Y_WP:	0.000	Y_WP:	0.500	X:	0.007	Y:	0.022	Z:	0.066	yaw:	5.377	yaw rate:	-21.882	Roll:	-0.854	Pitch:	-0.786	Yaw:	3.374	Thrust:	66.745
Time:	2.945	Roll Set Point:	-0.014	Pitch Set Point:	-0.040	Yaw Set Point:	-0.091	X_WP:	0.000	Y_WP:	0.000	Y_WP:	0.500	X:	0.006	Y:	0.020	Z:	0.067	yaw:	5.205	yaw rate:	-17.164	Roll:	-1.087	Pitch:	-1.936	Yaw:	4.279	Thrust:	67.444
Time:	2.956	Roll Set Point:	-0.013	Pitch Set Point:	-0.037	Yaw Set Point:	-0.104	X_WP:	0.000	Y_WP:	0.000	Y_WP:	0.500	X:	0.006	Y:	0.019	Z:	0.069	yaw:	5.952	yaw rate:	74.652	Roll:	-0.123	Pitch:	-1.250	Yaw:	27.128	Thrust:	64.535
Time:	2.967	Roll Set Point:	-0.011	Pitch Set Point:	-0.035	Yaw Set Point:	-0.100	X_WP:	0.000	Y_WP:	0.000	Y_WP:	0.500	X:	0.005	Y:	0.018	Z:	0.070	yaw:	5.728	yaw rate:	-22.370	Roll:	-1.488	Pitch:	-1.576	Yaw:	3.789	Thrust:	67.015
Time:	2.978	Roll Set Point:	-0.009	Pitch Set Point:	-0.030	Yaw Set Point:	-0.104	X_WP:	0.000	Y_WP:	0.000	Y_WP:	0.500	X:	0.004	Y:	0.015	Z:	0.072	yaw:	5.958	yaw rate:	23.028	Roll:	-1.277	Pitch:	-3.114	Yaw:	14.887	Thrust:	64.332
Time:	2.989	Roll Set Point:	-0.008	Pitch Set Point:	-0.026	Yaw Set Point:	-0.102	X_WP:	0.000	Y_WP:	0.000	Y_WP:	0.500	X:	0.003	Y:	0.013	Z:	0.073	yaw:	5.858	yaw rate:	-10.070	Roll:	-0.988	Pitch:	-2.068	Yaw:	6.890	Thrust:	67.434
Time:	3.000	Roll Set Point:	-0.007	Pitch Set Point:	-0.023	Yaw Set Point:	-0.112	X_WP:	0.000	Y_WP:	0.000	Y_WP:	0.500	X:	0.003	Y:	0.012	Z:	0.075	yaw:	6.411	yaw rate:	55.370	Roll:	-0.912	Pitch:	-2.358	Yaw:	23.198	Thrust:	66.800
Time:	3.011	Roll Set Point:	-0.005	Pitch Set Point:	-0.020	Yaw Set Point:	-0.109	X_WP:	0.000	Y_WP:	0.000	Y_WP:	0.500	X:	0.002	Y:	0.010	Z:	0.077	yaw:	6.243	yaw rate:	-16.844	Roll:	-1.110	Pitch:	-2.124	Yaw:	5.821	Thrust:	67.448
Time:	3.022	Roll Set Point:	-0.003	Pitch Set Point:	-0.014	Yaw Set Point:	-0.102	X_WP:	0.000	Y_WP:	0.000	Y_WP:	0.500	X:	0.001	Y:	0.007	Z:	0.079	yaw:	5.839	yaw rate:	-40.416	Roll:	-2.318	Pitch:	-4.064	Yaw:	-0.338	Thrust:	64.279
Time:	3.033	Roll Set Point:	-0.001	Pitch Set Point:	-0.010	Yaw Set Point:	-0.113	X_WP:	0.000	Y_WP:	0.000	Y_WP:	0.500	X:	0.000	Y:	0.005	Z:	0.081	yaw:	6.490	yaw rate:	65.165	Roll:	-1.359	Pitch:	-2.619	Yaw:	25.633	Thrust:	68.162
Time:	3.044	Roll Set Point:	0.001	Pitch Set Point:	-0.006	Yaw Set Point:	-0.114	X_WP:	0.000	Y_WP:	0.000	Y_WP:	0.500	X:	-0.001	Y:	0.003	Z:	0.083	yaw:	6.521	yaw rate:	3.037	Roll:	-1.633	Pitch:	-3.029	Yaw:	10.928	Thrust:	67.199
Time:	3.055	Roll Set Point:	0.003	Pitch Set Point:	-0.001	Yaw Set Point:	-0.106	X_WP:	0.000	Y_WP:	0.000	Y_WP:	0.500	X:	-0.001	Y:	0.001	Z:	0.085	yaw:	6.098	yaw rate:	-42.306	Roll:	-1.539	Pitch:	-3.287	Yaw:	-0.423	Thrust:	67.666
Time:	3.066	Roll Set Point:	0.004	Pitch Set Point:	0.003	Yaw Set Point:	-0.108	X_WP:	0.000	Y_WP:	0.000	Y_WP:	0.500	X:	-0.002	Y:	-0.001	Z:	0.087	yaw:	6.180	yaw rate:	8.236	Roll:	-1.528	Pitch:	-2.982	Yaw:	11.687	Thrust:	68.353
Time:	3.078	Roll Set Point:	0.007	Pitch Set Point:	0.009	Yaw Set Point:	-0.120	X_WP:	0.000	Y_WP:	0.000	Y_WP:	0.500	X:	-0.003	Y:	-0.005	Z:	0.090	yaw:	6.847	yaw rate:	66.697	Roll:	-2.667	Pitch:	-5.018	Yaw:	26.506	Thrust:	64.208
Time:	3.089	Roll Set Point:	0.009	Pitch Set Point:	0.013	Yaw Set Point:	-0.114	X_WP:	0.000	Y_WP:	0.000	Y_WP:	0.500	X:	-0.004	Y:	-0.007	Z:	0.092	yaw:	6.550	yaw rate:	-29.719	Roll:	-1.502	Pitch:	-3.158	Yaw:	3.194	Thrust:	69.663
Time:	3.100	Roll Set Point:	0.011	Pitch Set Point:	0.018	Yaw Set Point:	-0.116	X_WP:	0.000	Y_WP:	0.000	Y_WP:	0.500	X:	-0.005	Y:	-0.009	Z:	0.094	yaw:	6.624	yaw rate:	7.391	Roll:	-1.841	Pitch:	-3.598	Yaw:	12.106	Thrust:	67.189
Time:	3.111	Roll Set Point:	0.013	Pitch Set Point:	0.022	Yaw Set Point:	-0.122	X_WP:	0.000	Y_WP:	0.000	Y_WP:	0.500	X:	-0.006	Y:	-0.011	Z:	0.097	yaw:	6.988	yaw rate:	36.468	Roll:	-1.851	Pitch:	-3.282	Yaw:	19.530	Thrust:	68.991
Time:	3.122	Roll Set Point:	0.015	Pitch Set Point:	0.027	Yaw Set Point:	-0.117	X_WP:	0.000	Y_WP:	0.000	Y_WP:	0.500	X:	-0.007	Y:	-0.014	Z:	0.099	yaw:	6.686	yaw rate:	-30.206	Roll:	-1.932	Pitch:	-3.854	Yaw:	3.286	Thrust:	68.662
Time:	3.133	Roll Set Point:	0.018	Pitch Set Point:	0.034	Yaw Set Point:	-0.116	X_WP:	0.000	Y_WP:	0.000	Y_WP:	0.500	X:	-0.008	Y:	-0.017	Z:	0.103	yaw:	6.660	yaw rate:	-2.582	Roll:	-2.822	Pitch:	-5.634	Yaw:	9.791	Thrust:	63.506
Time:	3.144	Roll Set Point:	0.020	Pitch Set Point:	0.039	Yaw Set Point:	-0.116	X_WP:	0.000	Y_WP:	0.000	Y_WP:	0.500	X:	-0.009	Y:	-0.020	Z:	0.105	yaw:	6.654	yaw rate:	-0.680	Roll:	-2.004	Pitch:	-4.166	Yaw:	10.228	Thrust:	68.601
Time:	3.155	Roll Set Point:	0.022	Pitch Set Point:	0.043	Yaw Set Point:	-0.117	X_WP:	0.000	Y_WP:	0.000	Y_WP:	0.500	X:	-0.010	Y:	-0.022	Z:	0.108	yaw:	6.691	yaw rate:	3.772	Roll:	-2.434	Pitch:	-4.245	Yaw:	11.341	Thrust:	69.980
Time:	3.166	Roll Set Point:	0.024	Pitch Set Point:	0.048	Yaw Set Point:	-0.123	X_WP:	0.000	Y_WP:	0.000	Y_WP:	0.500	X:	-0.011	Y:	-0.025	Z:	0.110	yaw:	7.024	yaw rate:	33.283	Roll:	-2.362	Pitch:	-3.935	Yaw:	18.809	Thrust:	69.074
Time:	3.177	Roll Set Point:	0.026	Pitch Set Point:	0.053	Yaw Set Point:	-0.123	X_WP:	0.000	Y_WP:	0.000	Y_WP:	0.500	X:	-0.011	Y:	-0.027	Z:	0.113	yaw:	7.062	yaw rate:	3.778	Roll:	-1.935	Pitch:	-4.264	Yaw:	11.866	Thrust:	71.198
Time:	3.189	Roll Set Point:	0.031	Pitch Set Point:	0.065	Yaw Set Point:	-0.119	X_WP:	0.000	Y_WP:	0.000	Y_WP:	0.500	X:	-0.014	Y:	-0.033	Z:	0.120	yaw:	6.835	yaw rate:	39.712	Roll:	-4.586	Pitch:	-8.970	Yaw:	5.800	Thrust:	60.232
Time:	3.200	Roll Set Point:	0.031	Pitch Set Point:	0.065	Yaw Set Point:	-0.119	X_WP:	0.000	Y_WP:	0.000	Y_WP:	0.500	X:	-0.014	Y:	-0.033	Z:	0.120	yaw:	6.835	yaw rate:	39.712	Roll:	-0.480	Pitch:	-0.844	Yaw:	10.647	Thrust:	80.878
Time:	3.211	Roll Set Point:	0.033	Pitch Set Point:	0.069	Yaw Set Point:	-0.121	X_WP:	0.000	Y_WP:	0.000	Y_WP:	0.500	X:	-0.014	Y:	-0.036	Z:	0.123	yaw:	6.940	yaw rate:	10.466	Roll:	-2.270	Pitch:	-4.236	Yaw:	13.277	Thrust:	69.561
Time:	3.222	Roll Set Point:	0.036	Pitch Set Point:	0.076	Yaw Set Point:	-0.117	X_WP:	0.000	Y_WP:	0.000	Y_WP:	0.500	X:	-0.016	Y:	-0.039	Z:	0.127	yaw:	6.686	yaw rate:	-25.439	Roll:	-3.308	Pitch:	-6.473	Yaw:	4.400	Thrust:	64.591
Time:	3.233	Roll Set Point:	0.038	Pitch Set Point:	0.081	Yaw Set Point:	-0.112	X_WP:	0.000	Y_WP:	0.000	Y_WP:	0.500	X:	-0.017	Y:	-0.042	Z:	0.130	yaw:	6.408	yaw rate:	-27.776	Roll:	-2.260	Pitch:	-4.991	Yaw:	3.456	Thrust:	70.200
Time:	3.244	Roll Set Point:	0.040	Pitch Set Point:	0.086	Yaw Set Point:	-0.105	X_WP:	0.000	Y_WP:	0.000	Y_WP:	0.500	X:	-0.018	Y:	-0.044	Z:	0.133	yaw:	6.039	yaw rate:	-36.858	Roll:	-2.068	Pitch:	-4.852	Yaw:	0.786	Thrust:	69.598
Time:	3.255	Roll Set Point:	0.042	Pitch Set Point:	0.091	Yaw Set Point:	-0.105	X_WP:	0.000	Y_WP:	0.000	Y_WP:	0.500	X:	-0.019	Y:	-0.046	Z:	0.136	yaw:	6.035	yaw rate:	-0.373	Roll:	-2.500	Pitch:	-4.615	Yaw:	9.441	Thrust:	70.495
Time:	3.266	Roll Set Point:	0.044	Pitch Set Point:	0.095	Yaw Set Point:	-0.108	X_WP:	0.000	Y_WP:	0.000	Y_WP:	0.500	X:	-0.020	Y:	-0.049	Z:	0.138	yaw:	6.204	yaw rate:	16.863	Roll:	-2.520	Pitch:	-4.285	Yaw:	13.768	Thrust:	70.729
Time:	3.277	Roll Set Point:	0.047	Pitch Set Point:	0.102	Yaw Set Point:	-0.098	X_WP:	0.000	Y_WP:	0.000	Y_WP:	0.500	X:	-0.021	Y:	-0.052	Z:	0.143	yaw:	5.611	yaw rate:	-59.340	Roll:	-2.767	Pitch:	-7.014	Yaw:	-5.149	Thrust:	64.362
Time:	3.288	Roll Set Point:	0.050	Pitch Set Point:	0.106	Yaw Set Point:	-0.100	X_WP:	0.000	Y_WP:	0.000	Y_WP:	0.500	X:	-0.022	Y:	-0.054	Z:	0.146	yaw:	5.703	yaw rate:	9.246	Roll:	-2.885	Pitch:	-4.694	Yaw:	11.261	Thrust:	70.823
Time:	3.299	Roll Set Point:	0.052	Pitch Set Point:	0.110	Yaw Set Point:	-0.106	X_WP:	0.000	Y_WP:	0.000	Y_WP:	0.500	X:	-0.023	Y:	-0.056	Z:	0.149	yaw:	6.079	yaw rate:	37.575	Roll:	-3.121	Pitch:	-4.143	Yaw:	18.484	Thrust:	70.938
Time:	3.310	Roll Set Point:	0.054	Pitch Set Point:	0.114	Yaw Set Point:	-0.105	X_WP:	0.000	Y_WP:	0.000	Y_WP:	0.500	X:	-0.024	Y:	-0.058	Z:	0.153	yaw:	5.990	yaw rate:	-8.886	Roll:	-2.296	Pitch:	-4.612	Yaw:	7.355	Thrust:	70.429
Time:	3.321	Roll Set Point:	0.056	Pitch Set Point:	0.118	Yaw Set Point:	-0.100	X_WP:	0.000	Y_WP:	0.000	Y_WP:	0.500	X:	-0.025	Y:	-0.061	Z:	0.156	yaw:	5.720	yaw rate:	-26.979	Roll:	-2.078	Pitch:	-4.864	Yaw:	2.667	Thrust:	70.390
Time:	3.332	Roll Set Point:	0.058	Pitch Set Point:	0.125	Yaw Set Point:	-0.089	X_WP:	0.000	Y_WP:	0.000	Y_WP:	0.500	X:	-0.026	Y:	-0.064	Z:	0.161	yaw:	5.079	yaw rate:	-64.099	Roll:	-2.412	Pitch:	-6.781	Yaw:	-7.020	Thrust:	63.513
Time:	3.343	Roll Set Point:	0.060	Pitch Set Point:	0.128	Yaw Set Point:	-0.098	X_WP:	0.000	Y_WP:	0.000	Y_WP:	0.500	X:	-0.027	Y:	-0.065	Z:	0.165	yaw:	5.601	yaw rate:	52.194	Roll:	-3.336	Pitch:	-3.895	Yaw:	21.312	Thrust:	70.263
Time:	3.354	Roll Set Point:	0.062	Pitch Set Point:	0.131	Yaw Set Point:	-0.098	X_WP:	0.000	Y_WP:	0.000	Y_WP:	0.500	X:	-0.028	Y:	-0.067	Z:	0.168	yaw:	5.596	yaw rate:	-0.492	Roll:	-2.346	Pitch:	-4.561	Yaw:	8.800	Thrust:	70.640
Time:	3.366	Roll Set Point:	0.063	Pitch Set Point:	0.135	Yaw Set Point:	-0.095	X_WP:	0.000	Y_WP:	0.000	Y_WP:	0.500	X:	-0.029	Y:	-0.069	Z:	0.172	yaw:	5.469	yaw rate:	-12.717	Roll:	-2.272	Pitch:	-4.514	Yaw:	5.721	Thrust:	70.247
Time:	3.377	Roll Set Point:	0.066	Pitch Set Point:	0.140	Yaw Set Point:	-0.092	X_WP:	0.000	Y_WP:	0.000	Y_WP:	0.500	X:	-0.030	Y:	-0.072	Z:	0.177	yaw:	5.264	yaw rate:	-20.474	Roll:	-3.225	Pitch:	-6.004	Yaw:	3.594	Thrust:	63.385
Time:	3.388	Roll Set Point:	0.067	Pitch Set Point:	0.144	Yaw Set Point:	-0.082	X_WP:	0.000	Y_WP:	0.000	Y_WP:	0.500	X:	-0.031	Y:	-0.074	Z:	0.180	yaw:	4.701	yaw rate:	-56.349	Roll:	-1.532	Pitch:	-5.398	Yaw:	-5.709	Thrust:	72.036
Time:	3.399	Roll Set Point:	0.069	Pitch Set Point:	0.147	Yaw Set Point:	-0.085	X_WP:	0.000	Y_WP:	0.000	Y_WP:	0.500	X:	-0.032	Y:	-0.075	Z:	0.184	yaw:	4.866	yaw rate:	16.495	Roll:	-2.891	Pitch:	-3.976	Yaw:	11.812	Thrust:	69.717
Time:	3.410	Roll Set Point:	0.071	Pitch Set Point:	0.150	Yaw Set Point:	-0.085	X_WP:	0.000	Y_WP:	0.000	Y_WP:	0.500	X:	-0.032	Y:	-0.076	Z:	0.188	yaw:	4.849	yaw rate:	-1.674	Roll:	-2.447	Pitch:	-4.280	Yaw:	7.476	Thrust:	70.149
Time:	3.421	Roll Set Point:	0.072	Pitch Set Point:	0.153	Yaw Set Point:	-0.085	X_WP:	0.000	Y_WP:	0.000	Y_WP:	0.500	X:	-0.033	Y:	-0.078	Z:	0.192	yaw:	4.894	yaw rate:	4.518	Roll:	-2.330	Pitch:	-4.168	Yaw:	9.009	Thrust:	70.269
Time:	3.432	Roll Set Point:	0.074	Pitch Set Point:	0.155	Yaw Set Point:	-0.080	X_WP:	0.000	Y_WP:	0.000	Y_WP:	0.500	X:	-0.034	Y:	-0.079	Z:	0.196	yaw:	4.585	yaw rate:	-30.973	Roll:	-1.767	Pitch:	-4.522	Yaw:	0.152	Thrust:	70.250
Time:	3.443	Roll Set Point:	0.075	Pitch Set Point:	0.160	Yaw Set Point:	-0.068	X_WP:	0.000	Y_WP:	0.000	Y_WP:	0.500	X:	-0.035	Y:	-0.081	Z:	0.202	yaw:	3.882	yaw rate:	-70.235	Roll:	-1.751	Pitch:	-6.141	Yaw:	-10.148	Thrust:	61.874
Time:	3.454	Roll Set Point:	0.077	Pitch Set Point:	0.163	Yaw Set Point:	-0.069	X_WP:	0.000	Y_WP:	0.000	Y_WP:	0.500	X:	-0.035	Y:	-0.083	Z:	0.206	yaw:	3.936	yaw rate:	5.373	Roll:	-2.386	Pitch:	-4.099	Yaw:	7.874	Thrust:	70.657
Time:	3.465	Roll Set Point:	0.078	Pitch Set Point:	0.165	Yaw Set Point:	-0.073	X_WP:	0.000	Y_WP:	0.000	Y_WP:	0.500	X:	-0.036	Y:	-0.084	Z:	0.210	yaw:	4.162	yaw rate:	22.656	Roll:	-2.850	Pitch:	-3.755	Yaw:	12.271	Thrust:	70.715
Time:	3.476	Roll Set Point:	0.079	Pitch Set Point:	0.167	Yaw Set Point:	-0.066	X_WP:	0.000	Y_WP:	0.000	Y_WP:	0.500	X:	-0.037	Y:	-0.085	Z:	0.214	yaw:	3.760	yaw rate:	-40.230	Roll:	-1.157	Pitch:	-4.329	Yaw:	-3.196	Thrust:	70.100
Time:	3.487	Roll Set Point:	0.080	Pitch Set Point:	0.171	Yaw Set Point:	-0.055	X_WP:	0.000	Y_WP:	0.000	Y_WP:	0.500	X:	-0.038	Y:	-0.086	Z:	0.220	yaw:	3.153	yaw rate:	-60.757	Roll:	-1.443	Pitch:	-5.655	Yaw:	-8.917	Thrust:	61.910
Time:	3.498	Roll Set Point:	0.080	Pitch Set Point:	0.172	Yaw Set Point:	-0.053	X_WP:	0.000	Y_WP:	0.000	Y_WP:	0.500	X:	-0.038	Y:	-0.087	Z:	0.224	yaw:	3.038	yaw rate:	-11.508	Roll:	-1.664	Pitch:	-3.697	Yaw:	2.612	Thrust:	69.630
Time:	3.509	Roll Set Point:	0.082	Pitch Set Point:	0.173	Yaw Set Point:	-0.060	X_WP:	0.000	Y_WP:	0.000	Y_WP:	0.500	X:	-0.038	Y:	-0.088	Z:	0.229	yaw:	3.440	yaw rate:	40.290	Roll:	-2.886	Pitch:	-3.072	Yaw:	15.470	Thrust:	69.845
Time:	3.520	Roll Set Point:	0.082	Pitch Set Point:	0.175	Yaw Set Point:	-0.056	X_WP:	0.000	Y_WP:	0.000	Y_WP:	0.500	X:	-0.039	Y:	-0.089	Z:	0.233	yaw:	3.235	yaw rate:	-20.557	Roll:	-1.419	Pitch:	-3.869	Yaw:	0.751	Thrust:	69.871
Time:	3.531	Roll Set Point:	0.083	Pitch Set Point:	0.177	Yaw Set Point:	-0.052	X_WP:	0.000	Y_WP:	0.000	Y_WP:	0.500	X:	-0.039	Y:	-0.089	Z:	0.237	yaw:	2.986	yaw rate:	-24.869	Roll:	-1.650	Pitch:	-3.898	Yaw:	-0.628	Thrust:	69.752
Time:	3.542	Roll Set Point:	0.084	Pitch Set Point:	0.179	Yaw Set Point:	-0.046	X_WP:	0.000	Y_WP:	0.000	Y_WP:	0.500	X:	-0.040	Y:	-0.090	Z:	0.244	yaw:	2.658	yaw rate:	-32.860	Roll:	-1.657	Pitch:	-4.435	Yaw:	-3.004	Thrust:	60.967
Time:	3.553	Roll Set Point:	0.085	Pitch Set Point:	0.180	Yaw Set Point:	-0.044	X_WP:	0.000	Y_WP:	0.000	Y_WP:	0.500	X:	-0.040	Y:	-0.091	Z:	0.248	yaw:	2.528	yaw rate:	-12.998	Roll:	-1.560	Pitch:	-3.427	Yaw:	1.546	Thrust:	69.578
Time:	3.564	Roll Set Point:	0.085	Pitch Set Point:	0.181	Yaw Set Point:	-0.044	X_WP:	0.000	Y_WP:	0.000	Y_WP:	0.500	X:	-0.041	Y:	-0.091	Z:	0.253	yaw:	2.548	yaw rate:	1.995	Roll:	-1.810	Pitch:	-3.215	Yaw:	5.133	Thrust:	69.419
Time:	3.575	Roll Set Point:	0.086	Pitch Set Point:	0.182	Yaw Set Point:	-0.044	X_WP:	0.000	Y_WP:	0.000	Y_WP:	0.500	X:	-0.041	Y:	-0.092	Z:	0.257	yaw:	2.504	yaw rate:	-4.331	Roll:	-1.647	Pitch:	-3.273	Yaw:	3.577	Thrust:	69.687
Time:	3.586	Roll Set Point:	0.086	Pitch Set Point:	0.183	Yaw Set Point:	-0.033	X_WP:	0.000	Y_WP:	0.000	Y_WP:	0.500	X:	-0.041	Y:	-0.092	Z:	0.262	yaw:	1.897	yaw rate:	-60.672	Roll:	-0.510	Pitch:	-4.021	Yaw:	-10.653	Thrust:	68.953
Time:	3.597	Roll Set Point:	0.087	Pitch Set Point:	0.183	Yaw Set Point:	-0.039	X_WP:	0.000	Y_WP:	0.000	Y_WP:	0.500	X:	-0.042	Y:	-0.092	Z:	0.268	yaw:	2.213	yaw rate:	31.522	Roll:	-2.677	Pitch:	-2.668	Yaw:	11.673	Thrust:	59.733
Time:	3.608	Roll Set Point:	0.087	Pitch Set Point:	0.185	Yaw Set Point:	-0.027	X_WP:	0.000	Y_WP:	0.000	Y_WP:	0.500	X:	-0.042	Y:	-0.093	Z:	0.273	yaw:	1.558	yaw rate:	-65.498	Roll:	-0.163	Pitch:	-4.005	Yaw:	-12.309	Thrust:	69.387
Time:	3.619	Roll Set Point:	0.087	Pitch Set Point:	0.184	Yaw Set Point:	-0.033	X_WP:	0.000	Y_WP:	0.000	Y_WP:	0.500	X:	-0.042	Y:	-0.093	Z:	0.278	yaw:	1.895	yaw rate:	33.765	Roll:	-2.420	Pitch:	-2.119	Yaw:	11.747	Thrust:	69.103
Time:	3.630	Roll Set Point:	0.088	Pitch Set Point:	0.184	Yaw Set Point:	-0.040	X_WP:	0.000	Y_WP:	0.000	Y_WP:	0.500	X:	-0.042	Y:	-0.093	Z:	0.282	yaw:	2.274	yaw rate:	37.881	Roll:	-2.178	Pitch:	-2.267	Yaw:	13.289	Thrust:	69.435
Time:	3.641	Roll Set Point:	0.087	Pitch Set Point:	0.185	Yaw Set Point:	-0.024	X_WP:	0.000	Y_WP:	0.000	Y_WP:	0.500	X:	-0.043	Y:	-0.093	Z:	0.287	yaw:	1.377	yaw rate:	-89.715	Roll:	0.220	Pitch:	-3.899	Yaw:	-18.223	Thrust:	67.362
Time:	3.652	Roll Set Point:	0.087	Pitch Set Point:	0.185	Yaw Set Point:	-0.020	X_WP:	0.000	Y_WP:	0.000	Y_WP:	0.500	X:	-0.043	Y:	-0.093	Z:	0.294	yaw:	1.119	yaw rate:	-25.821	Roll:	-0.815	Pitch:	-2.745	Yaw:	-3.464	Thrust:	59.558
Time:	3.663	Roll Set Point:	0.088	Pitch Set Point:	0.184	Yaw Set Point:	-0.023	X_WP:	0.000	Y_WP:	0.000	Y_WP:	0.500	X:	-0.043	Y:	-0.092	Z:	0.299	yaw:	1.330	yaw rate:	21.162	Roll:	-1.962	Pitch:	-1.937	Yaw:	7.984	Thrust:	67.895
Time:	3.674	Roll Set Point:	0.088	Pitch Set Point:	0.183	Yaw Set Point:	-0.026	X_WP:	0.000	Y_WP:	0.000	Y_WP:	0.500	X:	-0.043	Y:	-0.092	Z:	0.304	yaw:	1.467	yaw rate:	13.693	Roll:	-1.685	Pitch:	-2.209	Yaw:	6.402	Thrust:	68.118
Time:	3.685	Roll Set Point:	0.088	Pitch Set Point:	0.183	Yaw Set Point:	-0.026	X_WP:	0.000	Y_WP:	0.000	Y_WP:	0.500	X:	-0.043	Y:	-0.092	Z:	0.309	yaw:	1.486	yaw rate:	1.842	Roll:	-1.098	Pitch:	-2.016	Yaw:	3.613	Thrust:	67.462
Time:	3.697	Roll Set Point:	0.088	Pitch Set Point:	0.182	Yaw Set Point:	-0.024	X_WP:	0.000	Y_WP:	0.000	Y_WP:	0.500	X:	-0.043	Y:	-0.092	Z:	0.313	yaw:	1.393	yaw rate:	-9.287	Roll:	-1.491	Pitch:	-2.423	Yaw:	0.893	Thrust:	70.177
Time:	3.708	Roll Set Point:	0.087	Pitch Set Point:	0.181	Yaw Set Point:	-0.015	X_WP:	0.000	Y_WP:	0.000	Y_WP:	0.500	X:	-0.043	Y:	-0.091	Z:	0.321	yaw:	0.875	yaw rate:	-51.832	Roll:	0.263	Pitch:	-2.308	Yaw:	-9.985	Thrust:	56.939
Time:	3.719	Roll Set Point:	0.087	Pitch Set Point:	0.180	Yaw Set Point:	-0.021	X_WP:	0.000	Y_WP:	0.000	Y_WP:	0.500	X:	-0.043	Y:	-0.090	Z:	0.326	yaw:	1.183	yaw rate:	30.866	Roll:	-1.804	Pitch:	-1.303	Yaw:	10.079	Thrust:	67.490
Time:	3.730	Roll Set Point:	0.086	Pitch Set Point:	0.179	Yaw Set Point:	-0.017	X_WP:	0.000	Y_WP:	0.000	Y_WP:	0.500	X:	-0.042	Y:	-0.090	Z:	0.330	yaw:	0.983	yaw rate:	-19.981	Roll:	-0.519	Pitch:	-2.181	Yaw:	-2.281	Thrust:	67.869
Time:	3.741	Roll Set Point:	0.086	Pitch Set Point:	0.178	Yaw Set Point:	-0.014	X_WP:	0.000	Y_WP:	0.000	Y_WP:	0.500	X:	-0.042	Y:	-0.089	Z:	0.335	yaw:	0.815	yaw rate:	-16.830	Roll:	-0.829	Pitch:	-1.914	Yaw:	-1.744	Thrust:	67.386
Time:	3.752	Roll Set Point:	0.086	Pitch Set Point:	0.177	Yaw Set Point:	-0.014	X_WP:	0.000	Y_WP:	0.000	Y_WP:	0.500	X:	-0.042	Y:	-0.089	Z:	0.340	yaw:	0.821	yaw rate:	0.598	Roll:	-0.963	Pitch:	-1.604	Yaw:	2.389	Thrust:	67.296
Time:	3.763	Roll Set Point:	0.085	Pitch Set Point:	0.175	Yaw Set Point:	-0.013	X_WP:	0.000	Y_WP:	0.000	Y_WP:	0.500	X:	-0.042	Y:	-0.088	Z:	0.348	yaw:	0.719	yaw rate:	-10.220	Roll:	-0.830	Pitch:	-1.252	Yaw:	-0.312	Thrust:	56.951
Time:	3.774	Roll Set Point:	0.085	Pitch Set Point:	0.173	Yaw Set Point:	-0.019	X_WP:	0.000	Y_WP:	0.000	Y_WP:	0.500	X:	-0.042	Y:	-0.087	Z:	0.353	yaw:	1.096	yaw rate:	37.696	Roll:	-1.430	Pitch:	-0.820	Yaw:	11.581	Thrust:	66.872
Time:	3.785	Roll Set Point:	0.084	Pitch Set Point:	0.172	Yaw Set Point:	-0.009	X_WP:	0.000	Y_WP:	0.000	Y_WP:	0.500	X:	-0.041	Y:	-0.086	Z:	0.358	yaw:	0.490	yaw rate:	-60.600	Roll:	0.356	Pitch:	-2.194	Yaw:	-12.598	Thrust:	65.645
Time:	3.796	Roll Set Point:	0.083	Pitch Set Point:	0.171	Yaw Set Point:	-0.005	X_WP:	0.000	Y_WP:	0.000	Y_WP:	0.500	X:	-0.041	Y:	-0.085	Z:	0.363	yaw:	0.303	yaw rate:	-18.657	Roll:	-0.248	Pitch:	-1.420	Yaw:	-2.900	Thrust:	66.963
Time:	3.807	Roll Set Point:	0.082	Pitch Set Point:	0.169	Yaw Set Point:	-0.010	X_WP:	0.000	Y_WP:	0.000	Y_WP:	0.500	X:	-0.041	Y:	-0.085	Z:	0.368	yaw:	0.555	yaw rate:	25.149	Roll:	-1.318	Pitch:	-0.962	Yaw:	7.847	Thrust:	65.837
Time:	3.818	Roll Set Point:	0.081	Pitch Set Point:	0.166	Yaw Set Point:	-0.006	X_WP:	0.000	Y_WP:	0.000	Y_WP:	0.500	X:	-0.040	Y:	-0.083	Z:	0.376	yaw:	0.361	yaw rate:	-19.420	Roll:	0.099	Pitch:	-0.585	Yaw:	-3.004	Thrust:	55.933
Time:	3.829	Roll Set Point:	0.080	Pitch Set Point:	0.164	Yaw Set Point:	-0.008	X_WP:	0.000	Y_WP:	0.000	Y_WP:	0.500	X:	-0.040	Y:	-0.082	Z:	0.381	yaw:	0.487	yaw rate:	12.625	Roll:	-1.018	Pitch:	-0.847	Yaw:	4.780	Thrust:	66.307
Time:	3.841	Roll Set Point:	0.080	Pitch Set Point:	0.162	Yaw Set Point:	-0.009	X_WP:	0.000	Y_WP:	0.000	Y_WP:	0.500	X:	-0.039	Y:	-0.081	Z:	0.385	yaw:	0.503	yaw rate:	1.645	Roll:	-0.540	Pitch:	-1.071	Yaw:	2.262	Thrust:	75.291
Time:	3.852	Roll Set Point:	0.078	Pitch Set Point:	0.161	Yaw Set Point:	-0.003	X_WP:	0.000	Y_WP:	0.000	Y_WP:	0.500	X:	-0.039	Y:	-0.080	Z:	0.391	yaw:	0.192	yaw rate:	-31.098	Roll:	0.083	Pitch:	-1.067	Yaw:	-6.010	Thrust:	64.843
Time:	3.863	Roll Set Point:	0.077	Pitch Set Point:	0.158	Yaw Set Point:	-0.005	X_WP:	0.000	Y_WP:	0.000	Y_WP:	0.500	X:	-0.038	Y:	-0.079	Z:	0.398	yaw:	0.269	yaw rate:	7.628	Roll:	-0.164	Pitch:	-0.206	Yaw:	3.287	Thrust:	55.602
Time:	3.874	Roll Set Point:	0.076	Pitch Set Point:	0.156	Yaw Set Point:	-0.000	X_WP:	0.000	Y_WP:	0.000	Y_WP:	0.500	X:	-0.038	Y:	-0.078	Z:	0.403	yaw:	0.026	yaw rate:	-24.230	Roll:	0.128	Pitch:	-0.707	Yaw:	-4.612	Thrust:	64.863
Time:	3.885	Roll Set Point:	0.075	Pitch Set Point:	0.153	Yaw Set Point:	0.000	X_WP:	0.000	Y_WP:	0.000	Y_WP:	0.500	X:	-0.037	Y:	-0.077	Z:	0.408	yaw:	-0.001	yaw rate:	-2.703	Roll:	-0.250	Pitch:	-0.638	Yaw:	0.457	Thrust:	65.200
Time:	3.896	Roll Set Point:	0.074	Pitch Set Point:	0.151	Yaw Set Point:	-0.003	X_WP:	0.000	Y_WP:	0.000	Y_WP:	0.500	X:	-0.037	Y:	-0.076	Z:	0.413	yaw:	0.154	yaw rate:	15.446	Roll:	-0.744	Pitch:	-0.372	Yaw:	4.979	Thrust:	65.749
Time:	3.907	Roll Set Point:	0.072	Pitch Set Point:	0.147	Yaw Set Point:	0.001	X_WP:	0.000	Y_WP:	0.000	Y_WP:	0.500	X:	-0.036	Y:	-0.074	Z:	0.421	yaw:	-0.061	yaw rate:	-21.476	Roll:	0.816	Pitch:	0.454	Yaw:	-4.072	Thrust:	54.654
Time:	3.918	Roll Set Point:	0.070	Pitch Set Point:	0.146	Yaw Set Point:	0.007	X_WP:	0.000	Y_WP:	0.000	Y_WP:	0.500	X:	-0.035	Y:	-0.073	Z:	0.426	yaw:	-0.375	yaw rate:	-31.363	Roll:	0.317	Pitch:	-1.005	Yaw:	-6.873	Thrust:	64.138
Time:	3.929	Roll Set Point:	0.069	Pitch Set Point:	0.143	Yaw Set Point:	0.002	X_WP:	0.000	Y_WP:	0.000	Y_WP:	0.500	X:	-0.035	Y:	-0.071	Z:	0.431	yaw:	-0.091	yaw rate:	28.333	Roll:	-0.619	Pitch:	0.165	Yaw:	7.698	Thrust:	65.234
Time:	3.940	Roll Set Point:	0.068	Pitch Set Point:	0.141	Yaw Set Point:	0.001	X_WP:	0.000	Y_WP:	0.000	Y_WP:	0.500	X:	-0.034	Y:	-0.070	Z:	0.435	yaw:	-0.030	yaw rate:	6.103	Roll:	-0.325	Pitch:	-0.263	Yaw:	2.507	Thrust:	65.176
Time:	3.951	Roll Set Point:	0.067	Pitch Set Point:	0.139	Yaw Set Point:	0.009	X_WP:	0.000	Y_WP:	0.000	Y_WP:	0.500	X:	-0.034	Y:	-0.069	Z:	0.440	yaw:	-0.543	yaw rate:	-51.312	Roll:	0.700	Pitch:	-0.883	Yaw:	-11.794	Thrust:	65.078
Time:	3.962	Roll Set Point:	0.065	Pitch Set Point:	0.134	Yaw Set Point:	0.007	X_WP:	0.000	Y_WP:	0.000	Y_WP:	0.500	X:	-0.033	Y:	-0.067	Z:	0.448	yaw:	-0.413	yaw rate:	13.057	Roll:	0.638	Pitch:	1.268	Yaw:	3.615	Thrust:	54.641
Time:	3.973	Roll Set Point:	0.064	Pitch Set Point:	0.132	Yaw Set Point:	0.005	X_WP:	0.000	Y_WP:	0.000	Y_WP:	0.500	X:	-0.032	Y:	-0.066	Z:	0.452	yaw:	-0.276	yaw rate:	13.702	Roll:	-0.381	Pitch:	0.166	Yaw:	3.964	Thrust:	64.522
Time:	3.984	Roll Set Point:	0.062	Pitch Set Point:	0.129	Yaw Set Point:	0.004	X_WP:	0.000	Y_WP:	0.000	Y_WP:	0.500	X:	-0.031	Y:	-0.064	Z:	0.457	yaw:	-0.214	yaw rate:	6.153	Roll:	0.119	Pitch:	0.125	Yaw:	2.257	Thrust:	64.607
Time:	3.995	Roll Set Point:	0.061	Pitch Set Point:	0.127	Yaw Set Point:	0.013	X_WP:	0.000	Y_WP:	0.000	Y_WP:	0.500	X:	-0.031	Y:	-0.063	Z:	0.462	yaw:	-0.761	yaw rate:	-54.661	Roll:	0.773	Pitch:	-0.695	Yaw:	-12.917	Thrust:	64.380
Time:	4.007	Roll Set Point:	0.058	Pitch Set Point:	0.123	Yaw Set Point:	0.012	X_WP:	0.000	Y_WP:	0.000	Y_WP:	0.500	X:	-0.030	Y:	-0.061	Z:	0.469	yaw:	-0.696	yaw rate:	6.517	Roll:	0.779	Pitch:	1.569	Yaw:	1.669	Thrust:	53.402
Time:	4.018	Roll Set Point:	0.057	Pitch Set Point:	0.121	Yaw Set Point:	0.021	X_WP:	0.000	Y_WP:	0.000	Y_WP:	0.500	X:	-0.029	Y:	-0.060	Z:	0.474	yaw:	-1.176	yaw rate:	-47.999	Roll:	0.758	Pitch:	-0.355	Yaw:	-11.945	Thrust:	64.496
Time:	4.029	Roll Set Point:	0.055	Pitch Set Point:	0.118	Yaw Set Point:	0.020	X_WP:	0.000	Y_WP:	0.000	Y_WP:	0.500	X:	-0.028	Y:	-0.059	Z:	0.478	yaw:	-1.136	yaw rate:	3.942	Roll:	0.113	Pitch:	0.242	Yaw:	0.434	Thrust:	64.112
Time:	4.040	Roll Set Point:	0.054	Pitch Set Point:	0.115	Yaw Set Point:	0.020	X_WP:	0.000	Y_WP:	0.000	Y_WP:	0.500	X:	-0.028	Y:	-0.057	Z:	0.483	yaw:	-1.128	yaw rate:	0.801	Roll:	0.334	Pitch:	0.577	Yaw:	-0.304	Thrust:	63.958
Time:	4.051	Roll Set Point:	0.052	Pitch Set Point:	0.112	Yaw Set Point:	0.021	X_WP:	0.000	Y_WP:	0.000	Y_WP:	0.500	X:	-0.027	Y:	-0.056	Z:	0.488	yaw:	-1.187	yaw rate:	-5.890	Roll:	0.469	Pitch:	0.366	Yaw:	-1.973	Thrust:	63.732
Time:	4.062	Roll Set Point:	0.050	Pitch Set Point:	0.108	Yaw Set Point:	0.024	X_WP:	0.000	Y_WP:	0.000	Y_WP:	0.500	X:	-0.026	Y:	-0.054	Z:	0.494	yaw:	-1.380	yaw rate:	-19.271	Roll:	1.174	Pitch:	1.251	Yaw:	-5.443	Thrust:	54.781
Time:	4.073	Roll Set Point:	0.049	Pitch Set Point:	0.106	Yaw Set Point:	0.023	X_WP:	0.000	Y_WP:	0.000	Y_WP:	0.500	X:	-0.025	Y:	-0.053	Z:	0.499	yaw:	-1.321	yaw rate:	5.858	Roll:	0.262	Pitch:	0.421	Yaw:	0.612	Thrust:	63.428
Time:	4.084	Roll Set Point:	0.047	Pitch Set Point:	0.103	Yaw Set Point:	0.019	X_WP:	0.000	Y_WP:	0.000	Y_WP:	0.500	X:	-0.024	Y:	-0.051	Z:	0.503	yaw:	-1.082	yaw rate:	23.978	Roll:	0.341	Pitch:	0.979	Yaw:	5.235	Thrust:	63.758
Time:	4.095	Roll Set Point:	0.046	Pitch Set Point:	0.100	Yaw Set Point:	0.019	X_WP:	0.000	Y_WP:	0.000	Y_WP:	0.500	X:	-0.023	Y:	-0.050	Z:	0.507	yaw:	-1.082	yaw rate:	-0.043	Roll:	0.348	Pitch:	0.614	Yaw:	-0.464	Thrust:	64.474
Time:	4.106	Roll Set Point:	0.044	Pitch Set Point:	0.097	Yaw Set Point:	0.023	X_WP:	0.000	Y_WP:	0.000	Y_WP:	0.500	X:	-0.022	Y:	-0.048	Z:	0.511	yaw:	-1.336	yaw rate:	-25.431	Roll:	0.934	Pitch:	0.515	Yaw:	-6.861	Thrust:	63.715
Time:	4.118	Roll Set Point:	0.040	Pitch Set Point:	0.090	Yaw Set Point:	0.029	X_WP:	0.000	Y_WP:	0.000	Y_WP:	0.500	X:	-0.021	Y:	-0.045	Z:	0.522	yaw:	-1.677	yaw rate:	-26.402	Roll:	2.304	Pitch:	3.449	Yaw:	-8.779	Thrust:	45.829
Time:	4.129	Roll Set Point:	0.040	Pitch Set Point:	0.090	Yaw Set Point:	0.029	X_WP:	0.000	Y_WP:	0.000	Y_WP:	0.500	X:	-0.021	Y:	-0.045	Z:	0.522	yaw:	-1.677	yaw rate:	-26.402	Roll:	-0.613	Pitch:	-1.418	Yaw:	-1.301	Thrust:	80.347
Time:	4.140	Roll Set Point:	0.038	Pitch Set Point:	0.087	Yaw Set Point:	0.030	X_WP:	0.000	Y_WP:	0.000	Y_WP:	0.500	X:	-0.020	Y:	-0.043	Z:	0.526	yaw:	-1.744	yaw rate:	-6.724	Roll:	0.645	Pitch:	0.821	Yaw:	-2.996	Thrust:	64.063
Time:	4.151	Roll Set Point:	0.036	Pitch Set Point:	0.085	Yaw Set Point:	0.032	X_WP:	0.000	Y_WP:	0.000	Y_WP:	0.500	X:	-0.019	Y:	-0.042	Z:	0.530	yaw:	-1.852	yaw rate:	-10.802	Roll:	0.857	Pitch:	0.657	Yaw:	-4.121	Thrust:	63.374
Time:	4.162	Roll Set Point:	0.034	Pitch Set Point:	0.080	Yaw Set Point:	0.032	X_WP:	0.000	Y_WP:	0.000	Y_WP:	0.500	X:	-0.018	Y:	-0.040	Z:	0.536	yaw:	-1.825	yaw rate:	2.689	Roll:	1.245	Pitch:	2.081	Yaw:	-0.888	Thrust:	55.609
Time:	4.173	Roll Set Point:	0.032	Pitch Set Point:	0.078	Yaw Set Point:	0.032	X_WP:	0.000	Y_WP:	0.000	Y_WP:	0.500	X:	-0.017	Y:	-0.039	Z:	0.540	yaw:	-1.840	yaw rate:	-1.518	Roll:	0.909	Pitch:	0.861	Yaw:	-1.913	Thrust:	64.252
Time:	4.184	Roll Set Point:	0.031	Pitch Set Point:	0.075	Yaw Set Point:	0.032	X_WP:	0.000	Y_WP:	0.000	Y_WP:	0.500	X:	-0.016	Y:	-0.037	Z:	0.544	yaw:	-1.815	yaw rate:	2.496	Roll:	0.592	Pitch:	0.809	Yaw:	-0.935	Thrust:	62.703
Time:	4.195	Roll Set Point:	0.029	Pitch Set Point:	0.073	Yaw Set Point:	0.041	X_WP:	0.000	Y_WP:	0.000	Y_WP:	0.500	X:	-0.015	Y:	-0.036	Z:	0.547	yaw:	-2.371	yaw rate:	-55.609	Roll:	1.160	Pitch:	0.682	Yaw:	-15.540	Thrust:	63.497
Time:	4.206	Roll Set Point:	0.027	Pitch Set Point:	0.070	Yaw Set Point:	0.042	X_WP:	0.000	Y_WP:	0.000	Y_WP:	0.500	X:	-0.014	Y:	-0.035	Z:	0.551	yaw:	-2.410	yaw rate:	-3.831	Roll:	0.786	Pitch:	0.970	Yaw:	-3.279	Thrust:	64.092
Time:	4.217	Roll Set Point:	0.026	Pitch Set Point:	0.067	Yaw Set Point:	0.035	X_WP:	0.000	Y_WP:	0.000	Y_WP:	0.500	X:	-0.013	Y:	-0.033	Z:	0.555	yaw:	-2.014	yaw rate:	39.558	Roll:	0.673	Pitch:	1.267	Yaw:	7.581	Thrust:	62.820
Time:	4.228	Roll Set Point:	0.023	Pitch Set Point:	0.063	Yaw Set Point:	0.044	X_WP:	0.000	Y_WP:	0.000	Y_WP:	0.500	X:	-0.012	Y:	-0.031	Z:	0.560	yaw:	-2.522	yaw rate:	-50.782	Roll:	1.676	Pitch:	1.706	Yaw:	-14.601	Thrust:	55.849
Time:	4.239	Roll Set Point:	0.022	Pitch Set Point:	0.061	Yaw Set Point:	0.037	X_WP:	0.000	Y_WP:	0.000	Y_WP:	0.500	X:	-0.011	Y:	-0.030	Z:	0.564	yaw:	-2.121	yaw rate:	40.076	Roll:	0.460	Pitch:	1.326	Yaw:	7.501	Thrust:	63.432
Time:	4.250	Roll Set Point:	0.020	Pitch Set Point:	0.058	Yaw Set Point:	0.038	X_WP:	0.000	Y_WP:	0.000	Y_WP:	0.500	X:	-0.010	Y:	-0.029	Z:	0.567	yaw:	-2.198	yaw rate:	-7.687	Roll:	1.111	Pitch:	1.083	Yaw:	-3.937	Thrust:	62.906
Time:	4.261	Roll Set Point:	0.018	Pitch Set Point:	0.056	Yaw Set Point:	0.048	X_WP:	0.000	Y_WP:	0.000	Y_WP:	0.500	X:	-0.010	Y:	-0.028	Z:	0.571	yaw:	-2.726	yaw rate:	-52.834	Roll:	1.106	Pitch:	0.864	Yaw:	-15.422	Thrust:	62.815
Time:	4.272	Roll Set Point:	0.017	Pitch Set Point:	0.053	Yaw Set Point:	0.045	X_WP:	0.000	Y_WP:	0.000	Y_WP:	0.500	X:	-0.009	Y:	-0.026	Z:	0.574	yaw:	-2.581	yaw rate:	14.508	Roll:	0.854	Pitch:	0.796	Yaw:	0.772	Thrust:	62.874
Time:	4.283	Roll Set Point:	0.014	Pitch Set Point:	0.049	Yaw Set Point:	0.038	X_WP:	0.000	Y_WP:	0.000	Y_WP:	0.500	X:	-0.007	Y:	-0.024	Z:	0.579	yaw:	-2.195	yaw rate:	38.616	Roll:	1.609	Pitch:	2.675	Yaw:	7.023	Thrust:	56.240
Time:	4.294	Roll Set Point:	0.012	Pitch Set Point:	0.047	Yaw Set Point:	0.037	X_WP:	0.000	Y_WP:	0.000	Y_WP:	0.500	X:	-0.007	Y:	-0.023	Z:	0.582	yaw:	-2.136	yaw rate:	5.855	Roll:	0.919	Pitch:	0.907	Yaw:	-0.674	Thrust:	62.986
Time:	4.305	Roll Set Point:	0.011	Pitch Set Point:	0.044	Yaw Set Point:	0.042	X_WP:	0.000	Y_WP:	0.000	Y_WP:	0.500	X:	-0.006	Y:	-0.022	Z:	0.586	yaw:	-2.413	yaw rate:	-27.695	Roll:	1.172	Pitch:	1.256	Yaw:	-9.030	Thrust:	62.565
Time:	4.316	Roll Set Point:	0.009	Pitch Set Point:	0.042	Yaw Set Point:	0.043	X_WP:	0.000	Y_WP:	0.000	Y_WP:	0.500	X:	-0.005	Y:	-0.021	Z:	0.589	yaw:	-2.477	yaw rate:	-6.356	Roll:	0.938	Pitch:	1.103	Yaw:	-4.067	Thrust:	62.402
Time:	4.327	Roll Set Point:	0.007	Pitch Set Point:	0.038	Yaw Set Point:	0.046	X_WP:	0.000	Y_WP:	0.000	Y_WP:	0.500	X:	-0.004	Y:	-0.019	Z:	0.593	yaw:	-2.618	yaw rate:	-14.067	Roll:	1.688	Pitch:	2.040	Yaw:	-6.101	Thrust:	56.646
Time:	4.338	Roll Set Point:	0.005	Pitch Set Point:	0.036	Yaw Set Point:	0.051	X_WP:	0.000	Y_WP:	0.000	Y_WP:	0.500	X:	-0.003	Y:	-0.018	Z:	0.596	yaw:	-2.915	yaw rate:	-29.701	Roll:	1.132	Pitch:	1.220	Yaw:	-10.255	Thrust:	62.578
Time:	4.349	Roll Set Point:	0.004	Pitch Set Point:	0.034	Yaw Set Point:	0.057	X_WP:	0.000	Y_WP:	0.000	Y_WP:	0.500	X:	-0.002	Y:	-0.017	Z:	0.599	yaw:	-3.290	yaw rate:	-37.491	Roll:	1.074	Pitch:	0.811	Yaw:	-12.599	Thrust:	62.900
Time:	4.360	Roll Set Point:	0.002	Pitch Set Point:	0.031	Yaw Set Point:	0.051	X_WP:	0.000	Y_WP:	0.000	Y_WP:	0.500	X:	-0.001	Y:	-0.016	Z:	0.602	yaw:	-2.903	yaw rate:	38.637	Roll:	1.087	Pitch:	1.675	Yaw:	5.977	Thrust:	62.097
Time:	4.371	Roll Set Point:	0.000	Pitch Set Point:	0.029	Yaw Set Point:	0.052	X_WP:	0.000	Y_WP:	0.000	Y_WP:	0.500	X:	-0.001	Y:	-0.015	Z:	0.605	yaw:	-2.954	yaw rate:	-5.132	Roll:	1.129	Pitch:	1.169	Yaw:	-4.497	Thrust:	62.772
Time:	4.382	Roll Set Point:	-0.002	Pitch Set Point:	0.026	Yaw Set Point:	0.051	X_WP:	0.000	Y_WP:	0.000	Y_WP:	0.500	X:	0.001	Y:	-0.013	Z:	0.609	yaw:	-2.947	yaw rate:	0.706	Roll:	1.848	Pitch:	2.133	Yaw:	-3.114	Thrust:	56.385
Time:	4.393	Roll Set Point:	-0.003	Pitch Set Point:	0.024	Yaw Set Point:	0.058	X_WP:	0.000	Y_WP:	0.000	Y_WP:	0.500	X:	0.001	Y:	-0.012	Z:	0.612	yaw:	-3.334	yaw rate:	-38.616	Roll:	0.741	Pitch:	0.969	Yaw:	-12.988	Thrust:	63.332
Time:	4.404	Roll Set Point:	-0.005	Pitch Set Point:	0.021	Yaw Set Point:	0.053	X_WP:	0.000	Y_WP:	0.000	Y_WP:	0.500	X:	0.002	Y:	-0.011	Z:	0.614	yaw:	-3.012	yaw rate:	32.125	Roll:	1.448	Pitch:	1.491	Yaw:	4.223	Thrust:	62.385
Time:	4.415	Roll Set Point:	-0.007	Pitch Set Point:	0.019	Yaw Set Point:	0.050	X_WP:	0.000	Y_WP:	0.000	Y_WP:	0.500	X:	0.003	Y:	-0.010	Z:	0.617	yaw:	-2.840	yaw rate:	17.205	Roll:	1.360	Pitch:	1.260	Yaw:	0.917	Thrust:	62.333
Time:	4.426	Roll Set Point:	-0.008	Pitch Set Point:	0.018	Yaw Set Point:	0.058	X_WP:	0.000	Y_WP:	0.000	Y_WP:	0.500	X:	0.004	Y:	-0.009	Z:	0.619	yaw:	-3.300	yaw rate:	-45.942	Roll:	0.815	Pitch:	0.791	Yaw:	-14.749	Thrust:	62.387
Time:	4.437	Roll Set Point:	-0.011	Pitch Set Point:	0.015	Yaw Set Point:	0.048	X_WP:	0.000	Y_WP:	0.000	Y_WP:	0.500	X:	0.005	Y:	-0.007	Z:	0.623	yaw:	-2.772	yaw rate:	52.778	Roll:	2.130	Pitch:	2.255	Yaw:	9.433	Thrust:	58.065
Time:	4.448	Roll Set Point:	-0.012	Pitch Set Point:	0.012	Yaw Set Point:	0.054	X_WP:	0.000	Y_WP:	0.000	Y_WP:	0.500	X:	0.006	Y:	-0.006	Z:	0.625	yaw:	-3.097	yaw rate:	-32.502	Roll:	1.234	Pitch:	1.456	Yaw:	-11.253	Thrust:	63.169
Time:	4.459	Roll Set Point:	-0.014	Pitch Set Point:	0.010	Yaw Set Point:	0.056	X_WP:	0.000	Y_WP:	0.000	Y_WP:	0.500	X:	0.007	Y:	-0.005	Z:	0.627	yaw:	-3.188	yaw rate:	-9.099	Roll:	1.301	Pitch:	1.331	Yaw:	-5.865	Thrust:	62.181
Time:	4.470	Roll Set Point:	-0.015	Pitch Set Point:	0.009	Yaw Set Point:	0.055	X_WP:	0.000	Y_WP:	0.000	Y_WP:	0.500	X:	0.007	Y:	-0.005	Z:	0.629	yaw:	-3.162	yaw rate:	2.595	Roll:	1.122	Pitch:	1.109	Yaw:	-3.058	Thrust:	62.395
Time:	4.481	Roll Set Point:	-0.016	Pitch Set Point:	0.007	Yaw Set Point:	0.055	X_WP:	0.000	Y_WP:	0.000	Y_WP:	0.500	X:	0.008	Y:	-0.004	Z:	0.632	yaw:	-3.174	yaw rate:	-1.227	Roll:	1.251	Pitch:	1.359	Yaw:	-3.995	Thrust:	62.288
Time:	4.493	Roll Set Point:	-0.018	Pitch Set Point:	0.004	Yaw Set Point:	0.061	X_WP:	0.000	Y_WP:	0.000	Y_WP:	0.500	X:	0.009	Y:	-0.002	Z:	0.635	yaw:	-3.510	yaw rate:	-33.549	Roll:	1.837	Pitch:	2.110	Yaw:	-12.147	Thrust:	58.561
Time:	4.504	Roll Set Point:	-0.020	Pitch Set Point:	0.002	Yaw Set Point:	0.058	X_WP:	0.000	Y_WP:	0.000	Y_WP:	0.500	X:	0.010	Y:	-0.001	Z:	0.637	yaw:	-3.348	yaw rate:	16.192	Roll:	1.195	Pitch:	0.907	Yaw:	-0.128	Thrust:	62.379
Time:	4.515	Roll Set Point:	-0.021	Pitch Set Point:	0.001	Yaw Set Point:	0.055	X_WP:	0.000	Y_WP:	0.000	Y_WP:	0.500	X:	0.011	Y:	-0.001	Z:	0.638	yaw:	-3.150	yaw rate:	19.770	Roll:	1.469	Pitch:	1.303	Yaw:	0.984	Thrust:	62.983
Time:	4.526	Roll Set Point:	-0.023	Pitch Set Point:	-0.001	Yaw Set Point:	0.058	X_WP:	0.000	Y_WP:	0.000	Y_WP:	0.500	X:	0.011	Y:	0.000	Z:	0.640	yaw:	-3.324	yaw rate:	-17.372	Roll:	1.097	Pitch:	1.076	Yaw:	-8.086	Thrust:	62.320
Time:	4.537	Roll Set Point:	-0.024	Pitch Set Point:	-0.003	Yaw Set Point:	0.060	X_WP:	0.000	Y_WP:	0.000	Y_WP:	0.500	X:	0.012	Y:	0.001	Z:	0.642	yaw:	-3.420	yaw rate:	-9.592	Roll:	1.533	Pitch:	1.463	Yaw:	-6.380	Thrust:	62.494
Time:	4.548	Roll Set Point:	-0.026	Pitch Set Point:	-0.005	Yaw Set Point:	0.064	X_WP:	0.000	Y_WP:	0.000	Y_WP:	0.500	X:	0.013	Y:	0.002	Z:	0.644	yaw:	-3.640	yaw rate:	-22.004	Roll:	1.644	Pitch:	1.542	Yaw:	-9.666	Thrust:	59.069
Time:	4.559	Roll Set Point:	-0.028	Pitch Set Point:	-0.007	Yaw Set Point:	0.060	X_WP:	0.000	Y_WP:	0.000	Y_WP:	0.500	X:	0.014	Y:	0.003	Z:	0.646	yaw:	-3.418	yaw rate:	22.146	Roll:	1.651	Pitch:	1.466	Yaw:	1.111	Thrust:	62.335
Time:	4.570	Roll Set Point:	-0.029	Pitch Set Point:	-0.008	Yaw Set Point:	0.061	X_WP:	0.000	Y_WP:	0.000	Y_WP:	0.500	X:	0.015	Y:	0.004	Z:	0.648	yaw:	-3.469	yaw rate:	-5.071	Roll:	1.417	Pitch:	1.179	Yaw:	-5.427	Thrust:	62.109
Time:	4.581	Roll Set Point:	-0.031	Pitch Set Point:	-0.010	Yaw Set Point:	0.061	X_WP:	0.000	Y_WP:	0.000	Y_WP:	0.500	X:	0.016	Y:	0.004	Z:	0.649	yaw:	-3.472	yaw rate:	-0.320	Roll:	1.624	Pitch:	1.312	Yaw:	-4.307	Thrust:	63.282
Time:	4.592	Roll Set Point:	-0.033	Pitch Set Point:	-0.012	Yaw Set Point:	0.060	X_WP:	0.000	Y_WP:	0.000	Y_WP:	0.500	X:	0.017	Y:	0.005	Z:	0.651	yaw:	-3.410	yaw rate:	6.248	Roll:	1.816	Pitch:	1.607	Yaw:	-2.680	Thrust:	59.140
Time:	4.603	Roll Set Point:	-0.034	Pitch Set Point:	-0.013	Yaw Set Point:	0.059	X_WP:	0.000	Y_WP:	0.000	Y_WP:	0.500	X:	0.017	Y:	0.006	Z:	0.652	yaw:	-3.372	yaw rate:	3.791	Roll:	1.242	Pitch:	0.904	Yaw:	-3.224	Thrust:	62.873
Time:	4.614	Roll Set Point:	-0.035	Pitch Set Point:	-0.014	Yaw Set Point:	0.067	X_WP:	0.000	Y_WP:	0.000	Y_WP:	0.500	X:	0.018	Y:	0.006	Z:	0.654	yaw:	-3.858	yaw rate:	-48.664	Roll:	1.518	Pitch:	1.296	Yaw:	-16.331	Thrust:	62.464
Time:	4.626	Roll Set Point:	-0.037	Pitch Set Point:	-0.016	Yaw Set Point:	0.058	X_WP:	0.000	Y_WP:	0.000	Y_WP:	0.500	X:	0.019	Y:	0.007	Z:	0.655	yaw:	-3.340	yaw rate:	51.883	Roll:	1.734	Pitch:	1.173	Yaw:	7.702	Thrust:	65.594
Time:	4.637	Roll Set Point:	-0.038	Pitch Set Point:	-0.017	Yaw Set Point:	0.060	X_WP:	0.000	Y_WP:	0.000	Y_WP:	0.500	X:	0.019	Y:	0.008	Z:	0.656	yaw:	-3.419	yaw rate:	-7.890	Roll:	1.417	Pitch:	1.066	Yaw:	-6.102	Thrust:	61.995
Time:	4.648	Roll Set Point:	-0.042	Pitch Set Point:	-0.020	Yaw Set Point:	0.063	X_WP:	0.000	Y_WP:	0.000	Y_WP:	0.500	X:	0.021	Y:	0.009	Z:	0.659	yaw:	-3.637	yaw rate:	-15.409	Roll:	2.931	Pitch:	2.372	Yaw:	-9.498	Thrust:	59.708
Time:	4.659	Roll Set Point:	-0.042	Pitch Set Point:	-0.021	Yaw Set Point:	0.068	X_WP:	0.000	Y_WP:	0.000	Y_WP:	0.500	X:	0.022	Y:	0.010	Z:	0.660	yaw:	-3.895	yaw rate:	-25.797	Roll:	1.203	Pitch:	1.127	Yaw:	-11.045	Thrust:	62.742
Time:	4.670	Roll Set Point:	-0.044	Pitch Set Point:	-0.022	Yaw Set Point:	0.060	X_WP:	0.000	Y_WP:	0.000	Y_WP:	0.500	X:	0.022	Y:	0.010	Z:	0.661	yaw:	-3.430	yaw rate:	46.471	Roll:	1.846	Pitch:	1.032	Yaw:	6.717	Thrust:	61.690
Time:	4.681	Roll Set Point:	-0.045	Pitch Set Point:	-0.023	Yaw Set Point:	0.065	X_WP:	0.000	Y_WP:	0.000	Y_WP:	0.500	X:	0.023	Y:	0.011	Z:	0.662	yaw:	-3.749	yaw rate:	-31.901	Roll:	1.192	Pitch:	0.982	Yaw:	-12.322	Thrust:	62.710
Time:	4.692	Roll Set Point:	-0.047	Pitch Set Point:	-0.024	Yaw Set Point:	0.064	X_WP:	0.000	Y_WP:	0.000	Y_WP:	0.500	X:	0.024	Y:	0.011	Z:	0.663	yaw:	-3.649	yaw rate:	10.043	Roll:	1.806	Pitch:	0.970	Yaw:	-2.238	Thrust:	61.983
Time:	4.703	Roll Set Point:	-0.048	Pitch Set Point:	-0.025	Yaw Set Point:	0.059	X_WP:	0.000	Y_WP:	0.000	Y_WP:	0.500	X:	0.025	Y:	0.012	Z:	0.664	yaw:	-3.405	yaw rate:	24.362	Roll:	2.125	Pitch:	1.437	Yaw:	1.494	Thrust:	60.348
Time:	4.714	Roll Set Point:	-0.050	Pitch Set Point:	-0.026	Yaw Set Point:	0.060	X_WP:	0.000	Y_WP:	0.000	Y_WP:	0.500	X:	0.025	Y:	0.012	Z:	0.664	yaw:	-3.420	yaw rate:	-1.443	Roll:	1.470	Pitch:	0.695	Yaw:	-4.672	Thrust:	62.416
Time:	4.725	Roll Set Point:	-0.050	Pitch Set Point:	-0.026	Yaw Set Point:	0.062	X_WP:	0.000	Y_WP:	0.000	Y_WP:	0.500	X:	0.026	Y:	0.012	Z:	0.665	yaw:	-3.551	yaw rate:	-13.109	Roll:	1.203	Pitch:	0.974	Yaw:	-7.627	Thrust:	62.398
Time:	4.736	Roll Set Point:	-0.052	Pitch Set Point:	-0.028	Yaw Set Point:	0.057	X_WP:	0.000	Y_WP:	0.000	Y_WP:	0.500	X:	0.026	Y:	0.013	Z:	0.666	yaw:	-3.277	yaw rate:	27.361	Roll:	1.917	Pitch:	1.026	Yaw:	2.342	Thrust:	61.758
Time:	4.747	Roll Set Point:	-0.053	Pitch Set Point:	-0.028	Yaw Set Point:	0.061	X_WP:	0.000	Y_WP:	0.000	Y_WP:	0.500	X:	0.027	Y:	0.013	Z:	0.666	yaw:	-3.489	yaw rate:	-21.209	Roll:	1.621	Pitch:	0.935	Yaw:	-9.509	Thrust:	60.983
Time:	4.758	Roll Set Point:	-0.054	Pitch Set Point:	-0.029	Yaw Set Point:	0.061	X_WP:	0.000	Y_WP:	0.000	Y_WP:	0.500	X:	0.028	Y:	0.014	Z:	0.667	yaw:	-3.483	yaw rate:	0.629	Roll:	1.666	Pitch:	0.957	Yaw:	-4.320	Thrust:	61.717
Time:	4.769	Roll Set Point:	-0.056	Pitch Set Point:	-0.029	Yaw Set Point:	0.057	X_WP:	0.000	Y_WP:	0.000	Y_WP:	0.500	X:	0.028	Y:	0.014	Z:	0.667	yaw:	-3.289	yaw rate:	19.416	Roll:	1.865	Pitch:	0.641	Yaw:	0.398	Thrust:	61.970
Time:	4.780	Roll Set Point:	-0.056	Pitch Set Point:	-0.030	Yaw Set Point:	0.055	X_WP:	0.000	Y_WP:	0.000	Y_WP:	0.500	X:	0.029	Y:	0.014	Z:	0.668	yaw:	-3.143	yaw rate:	14.600	Roll:	1.304	Pitch:	0.904	Yaw:	-0.554	Thrust:	62.547
Time:	4.791	Roll Set Point:	-0.058	Pitch Set Point:	-0.031	Yaw Set Point:	0.059	X_WP:	0.000	Y_WP:	0.000	Y_WP:	0.500	X:	0.029	Y:	0.015	Z:	0.668	yaw:	-3.397	yaw rate:	-25.462	Roll:	1.548	Pitch:	1.183	Yaw:	-10.431	Thrust:	61.514
Time:	4.802	Roll Set Point:	-0.058	Pitch Set Point:	-0.031	Yaw Set Point:	0.066	X_WP:	0.000	Y_WP:	0.000	Y_WP:	0.500	X:	0.030	Y:	0.015	Z:	0.669	yaw:	-3.764	yaw rate:	-36.680	Roll:	1.324	Pitch:	0.835	Yaw:	-13.619	Thrust:	61.644
Time:	4.813	Roll Set Point:	-0.059	Pitch Set Point:	-0.032	Yaw Set Point:	0.066	X_WP:	0.000	Y_WP:	0.000	Y_WP:	0.500	X:	0.030	Y:	0.015	Z:	0.669	yaw:	-3.772	yaw rate:	-0.775	Roll:	1.520	Pitch:	0.782	Yaw:	-5.122	Thrust:	61.817
Time:	4.825	Roll Set Point:	-0.060	Pitch Set Point:	-0.032	Yaw Set Point:	0.061	X_WP:	0.000	Y_WP:	0.000	Y_WP:	0.500	X:	0.031	Y:	0.015	Z:	0.669	yaw:	-3.513	yaw rate:	25.901	Roll:	1.662	Pitch:	0.464	Yaw:	1.557	Thrust:	62.401
Time:	4.837	Roll Set Point:	-0.061	Pitch Set Point:	-0.033	Yaw Set Point:	0.065	X_WP:	0.000	Y_WP:	0.000	Y_WP:	0.500	X:	0.031	Y:	0.015	Z:	0.669	yaw:	-3.708	yaw rate:	-19.516	Roll:	1.194	Pitch:	0.798	Yaw:	-9.085	Thrust:	68.813
Time:	4.848	Roll Set Point:	-0.062	Pitch Set Point:	-0.033	Yaw Set Point:	0.059	X_WP:	0.000	Y_WP:	0.000	Y_WP:	0.500	X:	0.032	Y:	0.016	Z:	0.669	yaw:	-3.360	yaw rate:	34.819	Roll:	1.957	Pitch:	0.792	Yaw:	3.865	Thrust:	61.963
Time:	4.859	Roll Set Point:	-0.063	Pitch Set Point:	-0.034	Yaw Set Point:	0.061	X_WP:	0.000	Y_WP:	0.000	Y_WP:	0.500	X:	0.032	Y:	0.016	Z:	0.669	yaw:	-3.487	yaw rate:	-12.750	Roll:	1.659	Pitch:	0.759	Yaw:	-7.621	Thrust:	61.929
Time:	4.870	Roll Set Point:	-0.064	Pitch Set Point:	-0.034	Yaw Set Point:	0.061	X_WP:	0.000	Y_WP:	0.000	Y_WP:	0.500	X:	0.032	Y:	0.016	Z:	0.669	yaw:	-3.504	yaw rate:	-1.637	Roll:	1.291	Pitch:	0.581	Yaw:	-5.021	Thrust:	62.015
Time:	4.881	Roll Set Point:	-0.065	Pitch Set Point:	-0.034	Yaw Set Point:	0.060	X_WP:	0.000	Y_WP:	0.000	Y_WP:	0.500	X:	0.033	Y:	0.016	Z:	0.669	yaw:	-3.441	yaw rate:	6.306	Roll:	1.640	Pitch:	0.490	Yaw:	-3.062	Thrust:	62.095
Time:	4.892	Roll Set Point:	-0.065	Pitch Set Point:	-0.034	Yaw Set Point:	0.060	X_WP:	0.000	Y_WP:	0.000	Y_WP:	0.500	X:	0.033	Y:	0.016	Z:	0.668	yaw:	-3.466	yaw rate:	-2.544	Roll:	1.078	Pitch:	0.436	Yaw:	-5.210	Thrust:	62.557
Time:	4.903	Roll Set Point:	-0.066	Pitch Set Point:	-0.034	Yaw Set Point:	0.073	X_WP:	0.000	Y_WP:	0.000	Y_WP:	0.500	X:	0.033	Y:	0.016	Z:	0.668	yaw:	-4.162	yaw rate:	-69.584	Roll:	1.037	Pitch:	1.030	Yaw:	-22.108	Thrust:	62.182
Time:	4.914	Roll Set Point:	-0.066	Pitch Set Point:	-0.034	Yaw Set Point:	0.072	X_WP:	0.000	Y_WP:	0.000	Y_WP:	0.500	X:	0.034	Y:	0.016	Z:	0.668	yaw:	-4.099	yaw rate:	6.262	Roll:	1.603	Pitch:	0.492	Yaw:	-4.036	Thrust:	62.752
Time:	4.925	Roll Set Point:	-0.067	Pitch Set Point:	-0.034	Yaw Set Point:	0.063	X_WP:	0.000	Y_WP:	0.000	Y_WP:	0.500	X:	0.034	Y:	0.016	Z:	0.667	yaw:	-3.617	yaw rate:	48.276	Roll:	1.745	Pitch:	0.102	Yaw:	6.592	Thrust:	61.862
Time:	4.936	Roll Set Point:	-0.068	Pitch Set Point:	-0.034	Yaw Set Point:	0.064	X_WP:	0.000	Y_WP:	0.000	Y_WP:	0.500	X:	0.034	Y:	0.016	Z:	0.667	yaw:	-3.664	yaw rate:	-4.786	Roll:	1.221	Pitch:	0.537	Yaw:	-6.078	Thrust:	62.314
Time:	4.947	Roll Set Point:	-0.068	Pitch Set Point:	-0.035	Yaw Set Point:	0.065	X_WP:	0.000	Y_WP:	0.000	Y_WP:	0.500	X:	0.035	Y:	0.016	Z:	0.666	yaw:	-3.715	yaw rate:	-5.086	Roll:	1.395	Pitch:	0.558	Yaw:	-6.235	Thrust:	62.237
Time:	4.958	Roll Set Point:	-0.069	Pitch Set Point:	-0.034	Yaw Set Point:	0.070	X_WP:	0.000	Y_WP:	0.000	Y_WP:	0.500	X:	0.035	Y:	0.016	Z:	0.666	yaw:	-4.013	yaw rate:	-29.786	Roll:	1.119	Pitch:	0.494	Yaw:	-12.546	Thrust:	61.928
Time:	4.969	Roll Set Point:	-0.070	Pitch Set Point:	-0.034	Yaw Set Point:	0.059	X_WP:	0.000	Y_WP:	0.000	Y_WP:	0.500	X:	0.035	Y:	0.016	Z:	0.665	yaw:	-3.383	yaw rate:	63.014	Roll:	1.945	Pitch:	0.026	Yaw:	10.328	Thrust:	63.684
Time:	4.980	Roll Set Point:	-0.071	Pitch Set Point:	-0.034	Yaw Set Point:	0.053	X_WP:	0.000	Y_WP:	0.000	Y_WP:	0.500	X:	0.036	Y:	0.016	Z:	0.664	yaw:	-3.036	yaw rate:	34.677	Roll:	1.825	Pitch:	-0.130	Yaw:	4.106	Thrust:	62.324
Time:	4.991	Roll Set Point:	-0.071	Pitch Set Point:	-0.034	Yaw Set Point:	0.059	X_WP:	0.000	Y_WP:	0.000	Y_WP:	0.500	X:	0.036	Y:	0.016	Z:	0.664	yaw:	-3.389	yaw rate:	-35.249	Roll:	0.779	Pitch:	0.690	Yaw:	-13.017	Thrust:	62.298
Time:	5.002	Roll Set Point:	-0.071	Pitch Set Point:	-0.034	Yaw Set Point:	0.061	X_WP:	0.000	Y_WP:	0.000	Y_WP:	0.500	X:	0.036	Y:	0.016	Z:	0.663	yaw:	-3.488	yaw rate:	-9.932	Roll:	1.287	Pitch:	0.492	Yaw:	-7.130	Thrust:	61.875
