Time:	2.044	Roll Set Point:	-0.015	Pitch Set Point:	-0.074	Yaw Set Point:	0.205	X_WP:	0.000	Y_WP:	0.000	Y_WP:	0.500	X:	0.011	Y:	0.036	Z:	0.049	yaw:	-11.747	yaw rate:	2.654	Roll:	0.109	Pitch:	1.094	Yaw:	-16.403	Thrust:	24.830
Time:	2.056	Roll Set Point:	-0.015	Pitch Set Point:	-0.074	Yaw Set Point:	0.205	X_WP:	0.000	Y_WP:	0.000	Y_WP:	0.500	X:	0.011	Y:	0.036	Z:	0.049	yaw:	-11.761	yaw rate:	1.052	Roll:	0.092	Pitch:	1.080	Yaw:	-16.782	Thrust:	25.335
Time:	2.068	Roll Set Point:	-0.015	Pitch Set Point:	-0.074	Yaw Set Point:	0.205	X_WP:	0.000	Y_WP:	0.000	Y_WP:	0.500	X:	0.011	Y:	0.036	Z:	0.049	yaw:	-11.751	yaw rate:	1.022	Roll:	0.125	Pitch:	1.122	Yaw:	-16.284	Thrust:	26.245
Time:	2.083	Roll Set Point:	-0.015	Pitch Set Point:	-0.074	Yaw Set Point:	0.220	X_WP:	0.000	Y_WP:	0.000	Y_WP:	0.500	X:	0.011	Y:	0.036	Z:	0.048	yaw:	-12.631	yaw rate:	-88.048	Roll:	-0.471	Pitch:	1.051	Yaw:	-33.647	Thrust:	27.662
Time:	2.093	Roll Set Point:	-0.015	Pitch Set Point:	-0.074	Yaw Set Point:	0.211	X_WP:	0.000	Y_WP:	0.000	Y_WP:	0.500	X:	0.011	Y:	0.036	Z:	0.049	yaw:	-12.091	yaw rate:	54.054	Roll:	0.279	Pitch:	0.912	Yaw:	-4.237	Thrust:	25.306
Time:	2.107	Roll Set Point:	-0.015	Pitch Set Point:	-0.074	Yaw Set Point:	0.213	X_WP:	0.000	Y_WP:	0.000	Y_WP:	0.500	X:	0.011	Y:	0.036	Z:	0.049	yaw:	-12.202	yaw rate:	-11.103	Roll:	0.056	Pitch:	1.154	Yaw:	-19.401	Thrust:	29.723
Time:	2.120	Roll Set Point:	-0.015	Pitch Set Point:	-0.074	Yaw Set Point:	0.203	X_WP:	0.000	Y_WP:	0.000	Y_WP:	0.500	X:	0.011	Y:	0.036	Z:	0.049	yaw:	-11.612	yaw rate:	58.951	Roll:	0.756	Pitch:	1.232	Yaw:	-4.212	Thrust:	28.765
Time:	2.131	Roll Set Point:	-0.015	Pitch Set Point:	-0.074	Yaw Set Point:	0.207	X_WP:	0.000	Y_WP:	0.000	Y_WP:	0.500	X:	0.011	Y:	0.036	Z:	0.049	yaw:	-11.886	yaw rate:	37.829	Roll:	-0.303	Pitch:	0.973	Yaw:	-23.149	Thrust:	28.509
Time:	2.145	Roll Set Point:	-0.014	Pitch Set Point:	-0.074	Yaw Set Point:	0.215	X_WP:	0.000	Y_WP:	0.000	Y_WP:	0.500	X:	0.011	Y:	0.036	Z:	0.049	yaw:	-12.316	yaw rate:	-43.026	Roll:	-0.317	Pitch:	1.072	Yaw:	-25.658	Thrust:	31.278
Time:	2.156	Roll Set Point:	-0.015	Pitch Set Point:	-0.074	Yaw Set Point:	0.219	X_WP:	0.000	Y_WP:	0.000	Y_WP:	0.500	X:	0.011	Y:	0.036	Z:	0.049	yaw:	-12.547	yaw rate:	-23.059	Roll:	0.145	Pitch:	1.216	Yaw:	-23.650	Thrust:	30.540
Time:	2.168	Roll Set Point:	-0.015	Pitch Set Point:	-0.074	Yaw Set Point:	0.210	X_WP:	0.000	Y_WP:	0.000	Y_WP:	0.500	X:	0.011	Y:	0.036	Z:	0.049	yaw:	-12.021	yaw rate:	52.652	Roll:	0.480	Pitch:	0.993	Yaw:	-5.952	Thrust:	30.906
Time:	2.181	Roll Set Point:	-0.015	Pitch Set Point:	-0.073	Yaw Set Point:	0.213	X_WP:	0.000	Y_WP:	0.000	Y_WP:	0.500	X:	0.011	Y:	0.036	Z:	0.049	yaw:	-12.217	yaw rate:	-19.615	Roll:	-0.051	Pitch:	0.984	Yaw:	-21.731	Thrust:	32.622
Time:	2.191	Roll Set Point:	-0.015	Pitch Set Point:	-0.074	Yaw Set Point:	0.208	X_WP:	0.000	Y_WP:	0.000	Y_WP:	0.500	X:	0.011	Y:	0.036	Z:	0.049	yaw:	-11.907	yaw rate:	31.020	Roll:	0.296	Pitch:	1.316	Yaw:	-9.447	Thrust:	30.029
Time:	2.207	Roll Set Point:	-0.015	Pitch Set Point:	-0.074	Yaw Set Point:	0.204	X_WP:	0.000	Y_WP:	0.000	Y_WP:	0.500	X:	0.011	Y:	0.036	Z:	0.049	yaw:	-11.694	yaw rate:	21.239	Roll:	0.412	Pitch:	1.101	Yaw:	-13.301	Thrust:	35.787
Time:	2.221	Roll Set Point:	-0.015	Pitch Set Point:	-0.074	Yaw Set Point:	0.210	X_WP:	0.000	Y_WP:	0.000	Y_WP:	0.500	X:	0.011	Y:	0.036	Z:	0.049	yaw:	-12.058	yaw rate:	-6.130	Roll:	-0.108	Pitch:	1.020	Yaw:	-24.048	Thrust:	36.568
Time:	2.233	Roll Set Point:	-0.015	Pitch Set Point:	-0.074	Yaw Set Point:	0.213	X_WP:	0.000	Y_WP:	0.000	Y_WP:	0.500	X:	0.011	Y:	0.036	Z:	0.049	yaw:	-12.186	yaw rate:	-12.817	Roll:	0.043	Pitch:	1.220	Yaw:	-20.744	Thrust:	33.717
Time:	2.249	Roll Set Point:	-0.015	Pitch Set Point:	-0.074	Yaw Set Point:	0.207	X_WP:	0.000	Y_WP:	0.000	Y_WP:	0.500	X:	0.011	Y:	0.036	Z:	0.049	yaw:	-11.872	yaw rate:	31.328	Roll:	0.272	Pitch:	1.159	Yaw:	-12.928	Thrust:	39.017
Time:	2.260	Roll Set Point:	-0.015	Pitch Set Point:	-0.074	Yaw Set Point:	0.207	X_WP:	0.000	Y_WP:	0.000	Y_WP:	0.500	X:	0.011	Y:	0.036	Z:	0.049	yaw:	-11.876	yaw rate:	-0.324	Roll:	-0.029	Pitch:	1.105	Yaw:	-17.457	Thrust:	35.555
Time:	2.278	Roll Set Point:	-0.015	Pitch Set Point:	-0.074	Yaw Set Point:	0.211	X_WP:	0.000	Y_WP:	0.000	Y_WP:	0.500	X:	0.011	Y:	0.036	Z:	0.049	yaw:	-12.064	yaw rate:	-18.829	Roll:	0.064	Pitch:	1.019	Yaw:	-21.070	Thrust:	40.955
Time:	2.289	Roll Set Point:	-0.015	Pitch Set Point:	-0.074	Yaw Set Point:	0.212	X_WP:	0.000	Y_WP:	0.000	Y_WP:	0.500	X:	0.011	Y:	0.036	Z:	0.049	yaw:	-12.172	yaw rate:	9.526	Roll:	-0.037	Pitch:	1.122	Yaw:	-20.242	Thrust:	37.224
Time:	2.303	Roll Set Point:	-0.015	Pitch Set Point:	-0.074	Yaw Set Point:	0.205	X_WP:	0.000	Y_WP:	0.000	Y_WP:	0.500	X:	0.011	Y:	0.036	Z:	0.049	yaw:	-11.769	yaw rate:	40.296	Roll:	0.393	Pitch:	1.124	Yaw:	-9.442	Thrust:	39.920
Time:	2.314	Roll Set Point:	-0.015	Pitch Set Point:	-0.074	Yaw Set Point:	0.211	X_WP:	0.000	Y_WP:	0.000	Y_WP:	0.500	X:	0.011	Y:	0.036	Z:	0.049	yaw:	-12.110	yaw rate:	-34.095	Roll:	0.010	Pitch:	1.123	Yaw:	-25.390	Thrust:	38.044
Time:	2.325	Roll Set Point:	-0.015	Pitch Set Point:	-0.074	Yaw Set Point:	0.207	X_WP:	0.000	Y_WP:	0.000	Y_WP:	0.500	X:	0.011	Y:	0.036	Z:	0.049	yaw:	-11.872	yaw rate:	23.718	Roll:	0.251	Pitch:	1.243	Yaw:	-11.697	Thrust:	36.923
Time:	2.340	Roll Set Point:	-0.015	Pitch Set Point:	-0.073	Yaw Set Point:	0.212	X_WP:	0.000	Y_WP:	0.000	Y_WP:	0.500	X:	0.011	Y:	0.036	Z:	0.049	yaw:	-12.156	yaw rate:	-28.347	Roll:	-0.204	Pitch:	0.940	Yaw:	-23.357	Thrust:	42.650
Time:	2.353	Roll Set Point:	-0.015	Pitch Set Point:	-0.074	Yaw Set Point:	0.214	X_WP:	0.000	Y_WP:	0.000	Y_WP:	0.500	X:	0.011	Y:	0.036	Z:	0.049	yaw:	-12.270	yaw rate:	-23.274	Roll:	0.254	Pitch:	1.249	Yaw:	-20.702	Thrust:	43.478
Time:	2.365	Roll Set Point:	-0.015	Pitch Set Point:	-0.074	Yaw Set Point:	0.204	X_WP:	0.000	Y_WP:	0.000	Y_WP:	0.500	X:	0.011	Y:	0.036	Z:	0.049	yaw:	-11.693	yaw rate:	57.665	Roll:	0.447	Pitch:	1.165	Yaw:	-4.531	Thrust:	41.099
Time:	2.379	Roll Set Point:	-0.015	Pitch Set Point:	-0.074	Yaw Set Point:	0.205	X_WP:	0.000	Y_WP:	0.000	Y_WP:	0.500	X:	0.011	Y:	0.036	Z:	0.049	yaw:	-11.754	yaw rate:	-6.049	Roll:	0.096	Pitch:	1.041	Yaw:	-19.049	Thrust:	42.993
Time:	2.389	Roll Set Point:	-0.015	Pitch Set Point:	-0.074	Yaw Set Point:	0.204	X_WP:	0.000	Y_WP:	0.000	Y_WP:	0.500	X:	0.011	Y:	0.036	Z:	0.049	yaw:	-11.708	yaw rate:	4.586	Roll:	0.164	Pitch:	1.233	Yaw:	-16.506	Thrust:	41.077
Time:	2.401	Roll Set Point:	-0.015	Pitch Set Point:	-0.074	Yaw Set Point:	0.207	X_WP:	0.000	Y_WP:	0.000	Y_WP:	0.500	X:	0.011	Y:	0.036	Z:	0.049	yaw:	-11.847	yaw rate:	-13.918	Roll:	-0.106	Pitch:	1.050	Yaw:	-21.084	Thrust:	41.560
Time:	2.415	Roll Set Point:	-0.015	Pitch Set Point:	-0.073	Yaw Set Point:	0.212	X_WP:	0.000	Y_WP:	0.000	Y_WP:	0.500	X:	0.011	Y:	0.036	Z:	0.049	yaw:	-12.143	yaw rate:	-29.579	Roll:	-0.081	Pitch:	0.983	Yaw:	-24.046	Thrust:	47.454
Time:	2.427	Roll Set Point:	-0.015	Pitch Set Point:	-0.074	Yaw Set Point:	0.205	X_WP:	0.000	Y_WP:	0.000	Y_WP:	0.500	X:	0.011	Y:	0.036	Z:	0.049	yaw:	-11.765	yaw rate:	37.796	Roll:	0.306	Pitch:	1.176	Yaw:	-9.296	Thrust:	44.008
Time:	2.443	Roll Set Point:	-0.015	Pitch Set Point:	-0.074	Yaw Set Point:	0.206	X_WP:	0.000	Y_WP:	0.000	Y_WP:	0.500	X:	0.011	Y:	0.036	Z:	0.049	yaw:	-11.800	yaw rate:	-3.507	Roll:	0.142	Pitch:	1.236	Yaw:	-19.039	Thrust:	49.520
Time:	2.455	Roll Set Point:	-0.015	Pitch Set Point:	-0.074	Yaw Set Point:	0.208	X_WP:	0.000	Y_WP:	0.000	Y_WP:	0.500	X:	0.011	Y:	0.036	Z:	0.049	yaw:	-11.913	yaw rate:	24.078	Roll:	0.070	Pitch:	1.078	Yaw:	-20.642	Thrust:	47.356
Time:	2.468	Roll Set Point:	-0.015	Pitch Set Point:	-0.074	Yaw Set Point:	0.203	X_WP:	0.000	Y_WP:	0.000	Y_WP:	0.500	X:	0.011	Y:	0.036	Z:	0.049	yaw:	-11.637	yaw rate:	27.605	Roll:	0.438	Pitch:	1.152	Yaw:	-11.575	Thrust:	47.177
Time:	2.480	Roll Set Point:	-0.015	Pitch Set Point:	-0.073	Yaw Set Point:	0.212	X_WP:	0.000	Y_WP:	0.000	Y_WP:	0.500	X:	0.011	Y:	0.036	Z:	0.049	yaw:	-12.136	yaw rate:	-49.890	Roll:	-0.309	Pitch:	1.000	Yaw:	-28.798	Thrust:	47.240
Time:	2.492	Roll Set Point:	-0.015	Pitch Set Point:	-0.074	Yaw Set Point:	0.206	X_WP:	0.000	Y_WP:	0.000	Y_WP:	0.500	X:	0.011	Y:	0.036	Z:	0.049	yaw:	-11.819	yaw rate:	31.764	Roll:	0.201	Pitch:	1.239	Yaw:	-11.366	Thrust:	48.236
Time:	2.506	Roll Set Point:	-0.015	Pitch Set Point:	-0.074	Yaw Set Point:	0.206	X_WP:	0.000	Y_WP:	0.000	Y_WP:	0.500	X:	0.011	Y:	0.036	Z:	0.049	yaw:	-11.803	yaw rate:	1.516	Roll:	0.270	Pitch:	1.069	Yaw:	-18.223	Thrust:	51.770
Time:	2.519	Roll Set Point:	-0.015	Pitch Set Point:	-0.074	Yaw Set Point:	0.213	X_WP:	0.000	Y_WP:	0.000	Y_WP:	0.500	X:	0.011	Y:	0.036	Z:	0.049	yaw:	-12.184	yaw rate:	-0.824	Roll:	-0.229	Pitch:	1.143	Yaw:	-26.278	Thrust:	53.097
Time:	2.530	Roll Set Point:	-0.015	Pitch Set Point:	-0.073	Yaw Set Point:	0.210	X_WP:	0.000	Y_WP:	0.000	Y_WP:	0.500	X:	0.011	Y:	0.036	Z:	0.049	yaw:	-12.025	yaw rate:	15.926	Roll:	0.305	Pitch:	1.059	Yaw:	-14.511	Thrust:	46.432
Time:	2.545	Roll Set Point:	-0.015	Pitch Set Point:	-0.073	Yaw Set Point:	0.212	X_WP:	0.000	Y_WP:	0.000	Y_WP:	0.500	X:	0.011	Y:	0.036	Z:	0.049	yaw:	-12.142	yaw rate:	-11.720	Roll:	0.079	Pitch:	1.096	Yaw:	-21.435	Thrust:	55.085
Time:	2.556	Roll Set Point:	-0.015	Pitch Set Point:	-0.073	Yaw Set Point:	0.206	X_WP:	0.000	Y_WP:	0.000	Y_WP:	0.500	X:	0.011	Y:	0.036	Z:	0.049	yaw:	-11.805	yaw rate:	33.709	Roll:	0.436	Pitch:	1.203	Yaw:	-10.320	Thrust:	48.733
Time:	2.567	Roll Set Point:	-0.015	Pitch Set Point:	-0.073	Yaw Set Point:	0.207	X_WP:	0.000	Y_WP:	0.000	Y_WP:	0.500	X:	0.011	Y:	0.036	Z:	0.049	yaw:	-11.875	yaw rate:	-7.069	Roll:	0.194	Pitch:	1.101	Yaw:	-20.169	Thrust:	50.329
Time:	2.581	Roll Set Point:	-0.016	Pitch Set Point:	-0.073	Yaw Set Point:	0.207	X_WP:	0.000	Y_WP:	0.000	Y_WP:	0.500	X:	0.012	Y:	0.036	Z:	0.049	yaw:	-11.845	yaw rate:	3.037	Roll:	0.289	Pitch:	1.004	Yaw:	-18.332	Thrust:	54.589
Time:	2.591	Roll Set Point:	-0.016	Pitch Set Point:	-0.073	Yaw Set Point:	0.201	X_WP:	0.000	Y_WP:	0.000	Y_WP:	0.500	X:	0.012	Y:	0.036	Z:	0.049	yaw:	-11.536	yaw rate:	30.951	Roll:	0.308	Pitch:	1.152	Yaw:	-10.328	Thrust:	50.599
Time:	2.607	Roll Set Point:	-0.016	Pitch Set Point:	-0.073	Yaw Set Point:	0.202	X_WP:	0.000	Y_WP:	0.000	Y_WP:	0.500	X:	0.012	Y:	0.036	Z:	0.049	yaw:	-11.557	yaw rate:	-2.182	Roll:	0.308	Pitch:	1.101	Yaw:	-19.281	Thrust:	58.981
Time:	2.620	Roll Set Point:	-0.016	Pitch Set Point:	-0.073	Yaw Set Point:	0.208	X_WP:	0.000	Y_WP:	0.000	Y_WP:	0.500	X:	0.012	Y:	0.036	Z:	0.049	yaw:	-11.905	yaw rate:	-34.801	Roll:	0.141	Pitch:	1.215	Yaw:	-25.898	Thrust:	59.240
Time:	2.631	Roll Set Point:	-0.017	Pitch Set Point:	-0.073	Yaw Set Point:	0.187	X_WP:	0.000	Y_WP:	0.000	Y_WP:	0.500	X:	0.012	Y:	0.036	Z:	0.049	yaw:	-10.733	yaw rate:	33.526	Roll:	1.214	Pitch:	0.985	Yaw:	10.204	Thrust:	52.296
Time:	2.644	Roll Set Point:	-0.017	Pitch Set Point:	-0.073	Yaw Set Point:	0.183	X_WP:	0.000	Y_WP:	0.000	Y_WP:	0.500	X:	0.012	Y:	0.036	Z:	0.049	yaw:	-10.489	yaw rate:	24.359	Roll:	0.478	Pitch:	1.016	Yaw:	-12.161	Thrust:	57.333
Time:	2.655	Roll Set Point:	-0.018	Pitch Set Point:	-0.073	Yaw Set Point:	0.173	X_WP:	0.000	Y_WP:	0.000	Y_WP:	0.500	X:	0.012	Y:	0.036	Z:	0.049	yaw:	-9.930	yaw rate:	55.963	Roll:	0.955	Pitch:	1.077	Yaw:	-2.779	Thrust:	52.916
Time:	2.667	Roll Set Point:	-0.019	Pitch Set Point:	-0.073	Yaw Set Point:	0.159	X_WP:	0.000	Y_WP:	0.000	Y_WP:	0.500	X:	0.012	Y:	0.036	Z:	0.050	yaw:	-9.121	yaw rate:	80.845	Roll:	1.654	Pitch:	0.909	Yaw:	2.385	Thrust:	53.288
Time:	2.685	Roll Set Point:	-0.020	Pitch Set Point:	-0.072	Yaw Set Point:	0.148	X_WP:	0.000	Y_WP:	0.000	Y_WP:	0.500	X:	0.013	Y:	0.035	Z:	0.050	yaw:	-8.504	yaw rate:	61.767	Roll:	0.727	Pitch:	0.931	Yaw:	-6.173	Thrust:	73.401
Time:	2.697	Roll Set Point:	-0.021	Pitch Set Point:	-0.072	Yaw Set Point:	0.131	X_WP:	0.000	Y_WP:	0.000	Y_WP:	0.500	X:	0.013	Y:	0.035	Z:	0.050	yaw:	-7.522	yaw rate:	91.691	Roll:	1.798	Pitch:	1.009	Yaw:	9.481	Thrust:	55.614
Time:	2.710	Roll Set Point:	-0.022	Pitch Set Point:	-0.072	Yaw Set Point:	0.119	X_WP:	0.000	Y_WP:	0.000	Y_WP:	0.500	X:	0.013	Y:	0.035	Z:	0.051	yaw:	-6.834	yaw rate:	68.759	Roll:	1.069	Pitch:	0.791	Yaw:	1.611	Thrust:	58.353
Time:	2.721	Roll Set Point:	-0.023	Pitch Set Point:	-0.072	Yaw Set Point:	0.118	X_WP:	0.000	Y_WP:	0.000	Y_WP:	0.500	X:	0.014	Y:	0.035	Z:	0.051	yaw:	-6.757	yaw rate:	7.729	Roll:	0.788	Pitch:	1.160	Yaw:	-10.150	Thrust:	57.822
Time:	2.732	Roll Set Point:	-0.024	Pitch Set Point:	-0.071	Yaw Set Point:	0.106	X_WP:	0.000	Y_WP:	0.000	Y_WP:	0.500	X:	0.014	Y:	0.035	Z:	0.052	yaw:	-6.076	yaw rate:	68.118	Roll:	1.304	Pitch:	0.457	Yaw:	5.740	Thrust:	55.274
Time:	2.745	Roll Set Point:	-0.025	Pitch Set Point:	-0.071	Yaw Set Point:	0.103	X_WP:	0.000	Y_WP:	0.000	Y_WP:	0.500	X:	0.014	Y:	0.035	Z:	0.052	yaw:	-5.925	yaw rate:	15.133	Roll:	0.921	Pitch:	0.933	Yaw:	-7.855	Thrust:	61.870
Time:	2.756	Roll Set Point:	-0.025	Pitch Set Point:	-0.070	Yaw Set Point:	0.095	X_WP:	0.000	Y_WP:	0.000	Y_WP:	0.500	X:	0.014	Y:	0.034	Z:	0.053	yaw:	-5.422	yaw rate:	50.300	Roll:	0.748	Pitch:	0.406	Yaw:	2.165	Thrust:	53.646
Time:	2.766	Roll Set Point:	-0.026	Pitch Set Point:	-0.070	Yaw Set Point:	0.092	X_WP:	0.000	Y_WP:	0.000	Y_WP:	0.500	X:	0.015	Y:	0.034	Z:	0.054	yaw:	-5.247	yaw rate:	17.466	Roll:	1.329	Pitch:	0.918	Yaw:	-4.876	Thrust:	53.867
Time:	2.779	Roll Set Point:	-0.027	Pitch Set Point:	-0.069	Yaw Set Point:	0.080	X_WP:	0.000	Y_WP:	0.000	Y_WP:	0.500	X:	0.015	Y:	0.034	Z:	0.055	yaw:	-4.593	yaw rate:	65.411	Roll:	1.090	Pitch:	0.638	Yaw:	4.706	Thrust:	60.816
Time:	2.789	Roll Set Point:	-0.028	Pitch Set Point:	-0.068	Yaw Set Point:	0.069	X_WP:	0.000	Y_WP:	0.000	Y_WP:	0.500	X:	0.015	Y:	0.034	Z:	0.057	yaw:	-3.948	yaw rate:	64.444	Roll:	2.063	Pitch:	0.263	Yaw:	8.409	Thrust:	48.667
Time:	2.801	Roll Set Point:	-0.029	Pitch Set Point:	-0.068	Yaw Set Point:	0.062	X_WP:	0.000	Y_WP:	0.000	Y_WP:	0.500	X:	0.015	Y:	0.033	Z:	0.058	yaw:	-3.550	yaw rate:	39.819	Roll:	0.982	Pitch:	0.649	Yaw:	2.707	Thrust:	54.982
Time:	2.811	Roll Set Point:	-0.030	Pitch Set Point:	-0.068	Yaw Set Point:	0.062	X_WP:	0.000	Y_WP:	0.000	Y_WP:	0.500	X:	0.016	Y:	0.033	Z:	0.059	yaw:	-3.559	yaw rate:	-0.935	Roll:	1.064	Pitch:	1.020	Yaw:	-7.398	Thrust:	56.212
Time:	2.822	Roll Set Point:	-0.030	Pitch Set Point:	-0.067	Yaw Set Point:	0.057	X_WP:	0.000	Y_WP:	0.000	Y_WP:	0.500	X:	0.016	Y:	0.033	Z:	0.060	yaw:	-3.285	yaw rate:	27.468	Roll:	1.226	Pitch:	0.511	Yaw:	-0.272	Thrust:	55.807
Time:	2.834	Roll Set Point:	-0.031	Pitch Set Point:	-0.066	Yaw Set Point:	0.051	X_WP:	0.000	Y_WP:	0.000	Y_WP:	0.500	X:	0.016	Y:	0.033	Z:	0.061	yaw:	-2.926	yaw rate:	35.846	Roll:	1.084	Pitch:	0.458	Yaw:	1.695	Thrust:	58.906
Time:	2.846	Roll Set Point:	-0.032	Pitch Set Point:	-0.066	Yaw Set Point:	0.048	X_WP:	0.000	Y_WP:	0.000	Y_WP:	0.500	X:	0.017	Y:	0.033	Z:	0.063	yaw:	-2.747	yaw rate:	17.908	Roll:	0.999	Pitch:	0.644	Yaw:	-2.227	Thrust:	59.979
Time:	2.857	Roll Set Point:	-0.033	Pitch Set Point:	-0.066	Yaw Set Point:	0.035	X_WP:	0.000	Y_WP:	0.000	Y_WP:	0.500	X:	0.017	Y:	0.032	Z:	0.064	yaw:	-1.979	yaw rate:	76.868	Roll:	1.730	Pitch:	0.598	Yaw:	13.277	Thrust:	55.912
Time:	2.868	Roll Set Point:	-0.034	Pitch Set Point:	-0.065	Yaw Set Point:	0.030	X_WP:	0.000	Y_WP:	0.000	Y_WP:	0.500	X:	0.017	Y:	0.032	Z:	0.065	yaw:	-1.743	yaw rate:	23.598	Roll:	1.148	Pitch:	0.609	Yaw:	0.955	Thrust:	58.721
Time:	2.881	Roll Set Point:	-0.034	Pitch Set Point:	-0.065	Yaw Set Point:	0.030	X_WP:	0.000	Y_WP:	0.000	Y_WP:	0.500	X:	0.017	Y:	0.032	Z:	0.067	yaw:	-1.714	yaw rate:	2.855	Roll:	0.702	Pitch:	0.781	Yaw:	-4.433	Thrust:	66.721
Time:	2.892	Roll Set Point:	-0.035	Pitch Set Point:	-0.064	Yaw Set Point:	0.022	X_WP:	0.000	Y_WP:	0.000	Y_WP:	0.500	X:	0.018	Y:	0.032	Z:	0.068	yaw:	-1.278	yaw rate:	43.581	Roll:	1.209	Pitch:	0.263	Yaw:	6.302	Thrust:	58.468
Time:	2.907	Roll Set Point:	-0.036	Pitch Set Point:	-0.063	Yaw Set Point:	0.014	X_WP:	0.000	Y_WP:	0.000	Y_WP:	0.500	X:	0.018	Y:	0.031	Z:	0.071	yaw:	-0.810	yaw rate:	-49.163	Roll:	1.494	Pitch:	0.334	Yaw:	5.653	Thrust:	58.002
Time:	2.922	Roll Set Point:	-0.037	Pitch Set Point:	-0.062	Yaw Set Point:	0.000	X_WP:	0.000	Y_WP:	0.000	Y_WP:	0.500	X:	0.018	Y:	0.031	Z:	0.072	yaw:	-0.010	yaw rate:	79.950	Roll:	1.197	Pitch:	0.536	Yaw:	8.856	Thrust:	87.771
Time:	2.934	Roll Set Point:	-0.038	Pitch Set Point:	-0.061	Yaw Set Point:	-0.009	X_WP:	0.000	Y_WP:	0.000	Y_WP:	0.500	X:	0.019	Y:	0.031	Z:	0.075	yaw:	0.529	yaw rate:	53.918	Roll:	1.424	Pitch:	0.042	Yaw:	9.490	Thrust:	60.172
Time:	2.950	Roll Set Point:	-0.038	Pitch Set Point:	-0.060	Yaw Set Point:	-0.019	X_WP:	0.000	Y_WP:	0.000	Y_WP:	0.500	X:	0.019	Y:	0.030	Z:	0.079	yaw:	1.061	yaw rate:	-11.966	Roll:	1.147	Pitch:	0.256	Yaw:	6.951	Thrust:	75.507
Time:	2.961	Roll Set Point:	-0.039	Pitch Set Point:	-0.059	Yaw Set Point:	-0.022	X_WP:	0.000	Y_WP:	0.000	Y_WP:	0.500	X:	0.019	Y:	0.030	Z:	0.081	yaw:	1.262	yaw rate:	20.042	Roll:	0.807	Pitch:	0.462	Yaw:	4.319	Thrust:	59.217
Time:	2.977	Roll Set Point:	-0.039	Pitch Set Point:	-0.059	Yaw Set Point:	-0.026	X_WP:	0.000	Y_WP:	0.000	Y_WP:	0.500	X:	0.019	Y:	0.030	Z:	0.082	yaw:	1.487	yaw rate:	22.530	Roll:	0.846	Pitch:	0.761	Yaw:	3.213	Thrust:	75.952
Time:	2.989	Roll Set Point:	-0.039	Pitch Set Point:	-0.059	Yaw Set Point:	-0.026	X_WP:	0.000	Y_WP:	0.000	Y_WP:	0.500	X:	0.019	Y:	0.030	Z:	0.084	yaw:	1.512	yaw rate:	2.551	Roll:	0.697	Pitch:	0.605	Yaw:	0.157	Thrust:	66.705
Time:	3.000	Roll Set Point:	-0.040	Pitch Set Point:	-0.057	Yaw Set Point:	-0.039	X_WP:	0.000	Y_WP:	0.000	Y_WP:	0.500	X:	0.019	Y:	0.029	Z:	0.088	yaw:	2.260	yaw rate:	82.387	Roll:	1.606	Pitch:	-0.323	Yaw:	17.793	Thrust:	50.594
Time:	3.011	Roll Set Point:	-0.040	Pitch Set Point:	-0.057	Yaw Set Point:	-0.045	X_WP:	0.000	Y_WP:	0.000	Y_WP:	0.500	X:	0.019	Y:	0.029	Z:	0.090	yaw:	2.584	yaw rate:	32.364	Roll:	0.900	Pitch:	0.530	Yaw:	9.116	Thrust:	61.655
Time:	3.022	Roll Set Point:	-0.040	Pitch Set Point:	-0.056	Yaw Set Point:	-0.043	X_WP:	0.000	Y_WP:	0.000	Y_WP:	0.500	X:	0.020	Y:	0.029	Z:	0.093	yaw:	2.477	yaw rate:	-10.743	Roll:	0.791	Pitch:	0.315	Yaw:	-1.257	Thrust:	58.531
Time:	3.034	Roll Set Point:	-0.041	Pitch Set Point:	-0.056	Yaw Set Point:	-0.049	X_WP:	0.000	Y_WP:	0.000	Y_WP:	0.500	X:	0.020	Y:	0.028	Z:	0.095	yaw:	2.797	yaw rate:	32.006	Roll:	0.799	Pitch:	0.377	Yaw:	8.534	Thrust:	63.915
Time:	3.046	Roll Set Point:	-0.041	Pitch Set Point:	-0.055	Yaw Set Point:	-0.052	X_WP:	0.000	Y_WP:	0.000	Y_WP:	0.500	X:	0.020	Y:	0.028	Z:	0.098	yaw:	3.004	yaw rate:	20.684	Roll:	0.753	Pitch:	0.354	Yaw:	6.529	Thrust:	58.739
Time:	3.056	Roll Set Point:	-0.041	Pitch Set Point:	-0.054	Yaw Set Point:	-0.058	X_WP:	0.000	Y_WP:	0.000	Y_WP:	0.500	X:	0.020	Y:	0.028	Z:	0.101	yaw:	3.344	yaw rate:	34.057	Roll:	0.973	Pitch:	0.085	Yaw:	11.623	Thrust:	55.639
Time:	3.068	Roll Set Point:	-0.041	Pitch Set Point:	-0.054	Yaw Set Point:	-0.060	X_WP:	0.000	Y_WP:	0.000	Y_WP:	0.500	X:	0.020	Y:	0.027	Z:	0.104	yaw:	3.425	yaw rate:	8.079	Roll:	0.694	Pitch:	0.382	Yaw:	4.569	Thrust:	57.574
Time:	3.080	Roll Set Point:	-0.041	Pitch Set Point:	-0.052	Yaw Set Point:	-0.062	X_WP:	0.000	Y_WP:	0.000	Y_WP:	0.500	X:	0.020	Y:	0.027	Z:	0.110	yaw:	3.539	yaw rate:	11.452	Roll:	0.987	Pitch:	-0.094	Yaw:	4.923	Thrust:	54.737
Time:	3.091	Roll Set Point:	-0.041	Pitch Set Point:	-0.052	Yaw Set Point:	-0.057	X_WP:	0.000	Y_WP:	0.000	Y_WP:	0.500	X:	0.020	Y:	0.026	Z:	0.113	yaw:	3.294	yaw rate:	-24.533	Roll:	0.469	Pitch:	0.336	Yaw:	-3.159	Thrust:	60.844
Time:	3.102	Roll Set Point:	-0.042	Pitch Set Point:	-0.051	Yaw Set Point:	-0.063	X_WP:	0.000	Y_WP:	0.000	Y_WP:	0.500	X:	0.020	Y:	0.026	Z:	0.116	yaw:	3.626	yaw rate:	33.214	Roll:	0.982	Pitch:	0.262	Yaw:	10.854	Thrust:	54.311
Time:	3.117	Roll Set Point:	-0.042	Pitch Set Point:	-0.051	Yaw Set Point:	-0.069	X_WP:	0.000	Y_WP:	0.000	Y_WP:	0.500	X:	0.020	Y:	0.026	Z:	0.120	yaw:	3.926	yaw rate:	29.933	Roll:	0.824	Pitch:	0.439	Yaw:	8.143	Thrust:	76.624
Time:	3.128	Roll Set Point:	-0.042	Pitch Set Point:	-0.049	Yaw Set Point:	-0.067	X_WP:	0.000	Y_WP:	0.000	Y_WP:	0.500	X:	0.020	Y:	0.025	Z:	0.126	yaw:	3.815	yaw rate:	-25.724	Roll:	0.683	Pitch:	-0.121	Yaw:	0.670	Thrust:	51.600
Time:	3.143	Roll Set Point:	-0.042	Pitch Set Point:	-0.049	Yaw Set Point:	-0.067	X_WP:	0.000	Y_WP:	0.000	Y_WP:	0.500	X:	0.020	Y:	0.025	Z:	0.126	yaw:	3.815	yaw rate:	-25.724	Roll:	0.657	Pitch:	0.793	Yaw:	2.821	Thrust:	81.212
Time:	3.154	Roll Set Point:	-0.043	Pitch Set Point:	-0.048	Yaw Set Point:	-0.071	X_WP:	0.000	Y_WP:	0.000	Y_WP:	0.500	X:	0.021	Y:	0.025	Z:	0.134	yaw:	4.061	yaw rate:	7.895	Roll:	1.408	Pitch:	-0.251	Yaw:	8.505	Thrust:	56.237
Time:	3.165	Roll Set Point:	-0.043	Pitch Set Point:	-0.047	Yaw Set Point:	-0.069	X_WP:	0.000	Y_WP:	0.000	Y_WP:	0.500	X:	0.021	Y:	0.024	Z:	0.137	yaw:	3.927	yaw rate:	-13.320	Roll:	0.785	Pitch:	0.251	Yaw:	0.317	Thrust:	57.305
Time:	3.178	Roll Set Point:	-0.043	Pitch Set Point:	-0.046	Yaw Set Point:	-0.064	X_WP:	0.000	Y_WP:	0.000	Y_WP:	0.500	X:	0.021	Y:	0.024	Z:	0.141	yaw:	3.690	yaw rate:	-23.727	Roll:	0.618	Pitch:	0.408	Yaw:	-1.960	Thrust:	67.530
Time:	3.190	Roll Set Point:	-0.044	Pitch Set Point:	-0.045	Yaw Set Point:	-0.069	X_WP:	0.000	Y_WP:	0.000	Y_WP:	0.500	X:	0.021	Y:	0.023	Z:	0.148	yaw:	3.962	yaw rate:	27.149	Roll:	1.362	Pitch:	-0.590	Yaw:	9.999	Thrust:	46.356
Time:	3.204	Roll Set Point:	-0.044	Pitch Set Point:	-0.044	Yaw Set Point:	-0.070	X_WP:	0.000	Y_WP:	0.000	Y_WP:	0.500	X:	0.021	Y:	0.023	Z:	0.152	yaw:	3.997	yaw rate:	3.521	Roll:	0.929	Pitch:	0.083	Yaw:	4.098	Thrust:	59.772
Time:	3.219	Roll Set Point:	-0.045	Pitch Set Point:	-0.043	Yaw Set Point:	-0.065	X_WP:	0.000	Y_WP:	0.000	Y_WP:	0.500	X:	0.022	Y:	0.022	Z:	0.156	yaw:	3.749	yaw rate:	-24.760	Roll:	0.760	Pitch:	0.458	Yaw:	-1.638	Thrust:	92.265
Time:	3.229	Roll Set Point:	-0.046	Pitch Set Point:	-0.042	Yaw Set Point:	-0.063	X_WP:	0.000	Y_WP:	0.000	Y_WP:	0.500	X:	0.022	Y:	0.022	Z:	0.164	yaw:	3.611	yaw rate:	0.088	Roll:	1.325	Pitch:	-0.542	Yaw:	-0.159	Thrust:	41.869
Time:	3.242	Roll Set Point:	-0.046	Pitch Set Point:	-0.041	Yaw Set Point:	-0.066	X_WP:	0.000	Y_WP:	0.000	Y_WP:	0.500	X:	0.022	Y:	0.021	Z:	0.168	yaw:	3.796	yaw rate:	18.553	Roll:	1.002	Pitch:	0.053	Yaw:	6.731	Thrust:	66.570
Time:	3.253	Roll Set Point:	-0.046	Pitch Set Point:	-0.040	Yaw Set Point:	-0.063	X_WP:	0.000	Y_WP:	0.000	Y_WP:	0.500	X:	0.023	Y:	0.021	Z:	0.172	yaw:	3.611	yaw rate:	-18.505	Roll:	0.910	Pitch:	0.171	Yaw:	-1.255	Thrust:	57.643
Time:	3.264	Roll Set Point:	-0.047	Pitch Set Point:	-0.040	Yaw Set Point:	-0.058	X_WP:	0.000	Y_WP:	0.000	Y_WP:	0.500	X:	0.023	Y:	0.020	Z:	0.176	yaw:	3.310	yaw rate:	-30.106	Roll:	0.999	Pitch:	0.233	Yaw:	-4.395	Thrust:	60.679
Time:	3.279	Roll Set Point:	-0.047	Pitch Set Point:	-0.040	Yaw Set Point:	-0.058	X_WP:	0.000	Y_WP:	0.000	Y_WP:	0.500	X:	0.023	Y:	0.020	Z:	0.176	yaw:	3.310	yaw rate:	-30.106	Roll:	0.732	Pitch:	0.671	Yaw:	2.226	Thrust:	89.627
Time:	3.291	Roll Set Point:	-0.048	Pitch Set Point:	-0.037	Yaw Set Point:	-0.053	X_WP:	0.000	Y_WP:	0.000	Y_WP:	0.500	X:	0.023	Y:	0.019	Z:	0.187	yaw:	3.043	yaw rate:	-46.152	Roll:	1.421	Pitch:	-1.101	Yaw:	-3.576	Thrust:	37.767
Time:	3.304	Roll Set Point:	-0.049	Pitch Set Point:	-0.036	Yaw Set Point:	-0.059	X_WP:	0.000	Y_WP:	0.000	Y_WP:	0.500	X:	0.024	Y:	0.019	Z:	0.191	yaw:	3.357	yaw rate:	31.371	Roll:	1.320	Pitch:	-0.014	Yaw:	8.797	Thrust:	71.135
Time:	3.320	Roll Set Point:	-0.049	Pitch Set Point:	-0.035	Yaw Set Point:	-0.051	X_WP:	0.000	Y_WP:	0.000	Y_WP:	0.500	X:	0.024	Y:	0.018	Z:	0.194	yaw:	2.950	yaw rate:	-40.685	Roll:	0.824	Pitch:	0.217	Yaw:	-5.194	Thrust:	91.343
Time:	3.331	Roll Set Point:	-0.050	Pitch Set Point:	-0.034	Yaw Set Point:	-0.054	X_WP:	0.000	Y_WP:	0.000	Y_WP:	0.500	X:	0.024	Y:	0.018	Z:	0.197	yaw:	3.094	yaw rate:	14.348	Roll:	1.242	Pitch:	-0.316	Yaw:	5.831	Thrust:	61.567
Time:	3.344	Roll Set Point:	-0.050	Pitch Set Point:	-0.033	Yaw Set Point:	-0.055	X_WP:	0.000	Y_WP:	0.000	Y_WP:	0.500	X:	0.025	Y:	0.017	Z:	0.201	yaw:	3.177	yaw rate:	8.344	Roll:	1.367	Pitch:	-0.046	Yaw:	3.961	Thrust:	70.285
Time:	3.355	Roll Set Point:	-0.052	Pitch Set Point:	-0.032	Yaw Set Point:	-0.052	X_WP:	0.000	Y_WP:	0.000	Y_WP:	0.500	X:	0.025	Y:	0.016	Z:	0.207	yaw:	3.008	yaw rate:	-16.938	Roll:	1.524	Pitch:	-0.738	Yaw:	-1.625	Thrust:	52.925
Time:	3.366	Roll Set Point:	-0.052	Pitch Set Point:	-0.030	Yaw Set Point:	-0.051	X_WP:	0.000	Y_WP:	0.000	Y_WP:	0.500	X:	0.026	Y:	0.016	Z:	0.213	yaw:	2.899	yaw rate:	-10.890	Roll:	1.423	Pitch:	-0.734	Yaw:	-0.290	Thrust:	53.185
Time:	3.384	Roll Set Point:	-0.053	Pitch Set Point:	-0.029	Yaw Set Point:	-0.047	X_WP:	0.000	Y_WP:	0.000	Y_WP:	0.500	X:	0.026	Y:	0.015	Z:	0.216	yaw:	2.706	yaw rate:	-19.284	Roll:	1.048	Pitch:	0.064	Yaw:	-1.944	Thrust:	96.550
Time:	3.395	Roll Set Point:	-0.053	Pitch Set Point:	-0.028	Yaw Set Point:	-0.048	X_WP:	0.000	Y_WP:	0.000	Y_WP:	0.500	X:	0.026	Y:	0.015	Z:	0.219	yaw:	2.727	yaw rate:	2.105	Roll:	1.166	Pitch:	-0.322	Yaw:	2.430	Thrust:	66.323
Time:	3.409	Roll Set Point:	-0.054	Pitch Set Point:	-0.027	Yaw Set Point:	-0.045	X_WP:	0.000	Y_WP:	0.000	Y_WP:	0.500	X:	0.027	Y:	0.014	Z:	0.223	yaw:	2.599	yaw rate:	-12.860	Roll:	1.236	Pitch:	-0.049	Yaw:	-1.010	Thrust:	78.859
Time:	3.422	Roll Set Point:	-0.055	Pitch Set Point:	-0.026	Yaw Set Point:	-0.052	X_WP:	0.000	Y_WP:	0.000	Y_WP:	0.500	X:	0.027	Y:	0.014	Z:	0.226	yaw:	2.991	yaw rate:	39.234	Roll:	1.376	Pitch:	-0.430	Yaw:	10.390	Thrust:	75.558
Time:	3.434	Roll Set Point:	-0.057	Pitch Set Point:	-0.023	Yaw Set Point:	-0.050	X_WP:	0.000	Y_WP:	0.000	Y_WP:	0.500	X:	0.028	Y:	0.012	Z:	0.235	yaw:	2.873	yaw rate:	-11.040	Roll:	2.320	Pitch:	-1.504	Yaw:	-0.434	Thrust:	51.819
Time:	3.451	Roll Set Point:	-0.058	Pitch Set Point:	-0.022	Yaw Set Point:	-0.050	X_WP:	0.000	Y_WP:	0.000	Y_WP:	0.500	X:	0.028	Y:	0.012	Z:	0.239	yaw:	2.859	yaw rate:	-1.306	Roll:	1.156	Pitch:	-0.103	Yaw:	1.185	Thrust:	98.029
Time:	3.461	Roll Set Point:	-0.058	Pitch Set Point:	-0.021	Yaw Set Point:	-0.040	X_WP:	0.000	Y_WP:	0.000	Y_WP:	0.500	X:	0.029	Y:	0.011	Z:	0.242	yaw:	2.309	yaw rate:	-55.014	Roll:	1.126	Pitch:	0.037	Yaw:	-12.045	Thrust:	58.731
Time:	3.475	Roll Set Point:	-0.059	Pitch Set Point:	-0.020	Yaw Set Point:	-0.045	X_WP:	0.000	Y_WP:	0.000	Y_WP:	0.500	X:	0.029	Y:	0.011	Z:	0.246	yaw:	2.601	yaw rate:	29.178	Roll:	1.380	Pitch:	-0.392	Yaw:	6.890	Thrust:	81.475
Time:	3.488	Roll Set Point:	-0.059	Pitch Set Point:	-0.019	Yaw Set Point:	-0.041	X_WP:	0.000	Y_WP:	0.000	Y_WP:	0.500	X:	0.030	Y:	0.010	Z:	0.249	yaw:	2.348	yaw rate:	-25.339	Roll:	1.404	Pitch:	-0.129	Yaw:	-3.818	Thrust:	74.918
Time:	3.500	Roll Set Point:	-0.060	Pitch Set Point:	-0.018	Yaw Set Point:	-0.044	X_WP:	0.000	Y_WP:	0.000	Y_WP:	0.500	X:	0.030	Y:	0.010	Z:	0.253	yaw:	2.504	yaw rate:	15.662	Roll:	1.401	Pitch:	-0.381	Yaw:	5.507	Thrust:	60.287
Time:	3.512	Roll Set Point:	-0.062	Pitch Set Point:	-0.016	Yaw Set Point:	-0.050	X_WP:	0.000	Y_WP:	0.000	Y_WP:	0.500	X:	0.031	Y:	0.009	Z:	0.262	yaw:	2.880	yaw rate:	32.070	Roll:	1.946	Pitch:	-1.438	Yaw:	9.968	Thrust:	53.998
Time:	3.523	Roll Set Point:	-0.062	Pitch Set Point:	-0.015	Yaw Set Point:	-0.043	X_WP:	0.000	Y_WP:	0.000	Y_WP:	0.500	X:	0.031	Y:	0.008	Z:	0.266	yaw:	2.479	yaw rate:	-40.152	Roll:	1.182	Pitch:	-0.340	Yaw:	-7.400	Thrust:	62.182
Time:	3.534	Roll Set Point:	-0.063	Pitch Set Point:	-0.014	Yaw Set Point:	-0.047	X_WP:	0.000	Y_WP:	0.000	Y_WP:	0.500	X:	0.031	Y:	0.008	Z:	0.271	yaw:	2.719	yaw rate:	24.046	Roll:	2.056	Pitch:	-0.268	Yaw:	7.843	Thrust:	48.039
Time:	3.549	Roll Set Point:	-0.064	Pitch Set Point:	-0.013	Yaw Set Point:	-0.041	X_WP:	0.000	Y_WP:	0.000	Y_WP:	0.500	X:	0.032	Y:	0.007	Z:	0.276	yaw:	2.373	yaw rate:	-34.579	Roll:	1.329	Pitch:	-0.043	Yaw:	-4.945	Thrust:	88.891
Time:	3.560	Roll Set Point:	-0.066	Pitch Set Point:	-0.012	Yaw Set Point:	-0.041	X_WP:	0.000	Y_WP:	0.000	Y_WP:	0.500	X:	0.033	Y:	0.006	Z:	0.286	yaw:	2.346	yaw rate:	-2.782	Roll:	2.254	Pitch:	-1.230	Yaw:	1.010	Thrust:	33.682
Time:	3.571	Roll Set Point:	-0.067	Pitch Set Point:	-0.011	Yaw Set Point:	-0.040	X_WP:	0.000	Y_WP:	0.000	Y_WP:	0.500	X:	0.033	Y:	0.006	Z:	0.292	yaw:	2.295	yaw rate:	-5.103	Roll:	1.808	Pitch:	-0.121	Yaw:	0.390	Thrust:	44.526
Time:	3.585	Roll Set Point:	-0.068	Pitch Set Point:	-0.011	Yaw Set Point:	-0.035	X_WP:	0.000	Y_WP:	0.000	Y_WP:	0.500	X:	0.034	Y:	0.006	Z:	0.298	yaw:	2.034	yaw rate:	-26.054	Roll:	1.716	Pitch:	-0.020	Yaw:	-3.983	Thrust:	79.549
Time:	3.595	Roll Set Point:	-0.069	Pitch Set Point:	-0.010	Yaw Set Point:	-0.043	X_WP:	0.000	Y_WP:	0.000	Y_WP:	0.500	X:	0.034	Y:	0.006	Z:	0.303	yaw:	2.449	yaw rate:	41.466	Roll:	1.738	Pitch:	-0.681	Yaw:	12.187	Thrust:	47.964
Time:	3.608	Roll Set Point:	-0.070	Pitch Set Point:	-0.009	Yaw Set Point:	-0.042	X_WP:	0.000	Y_WP:	0.000	Y_WP:	0.500	X:	0.035	Y:	0.005	Z:	0.309	yaw:	2.395	yaw rate:	-5.411	Roll:	1.761	Pitch:	-0.110	Yaw:	0.390	Thrust:	63.191
Time:	3.620	Roll Set Point:	-0.071	Pitch Set Point:	-0.008	Yaw Set Point:	-0.036	X_WP:	0.000	Y_WP:	0.000	Y_WP:	0.500	X:	0.036	Y:	0.005	Z:	0.321	yaw:	2.042	yaw rate:	-14.640	Roll:	2.281	Pitch:	-0.627	Yaw:	-6.315	Thrust:	42.248
Time:	3.633	Roll Set Point:	-0.072	Pitch Set Point:	-0.007	Yaw Set Point:	-0.033	X_WP:	0.000	Y_WP:	0.000	Y_WP:	0.500	X:	0.036	Y:	0.004	Z:	0.327	yaw:	1.876	yaw rate:	-16.655	Roll:	1.694	Pitch:	-0.038	Yaw:	-2.638	Thrust:	57.157
Time:	3.645	Roll Set Point:	-0.073	Pitch Set Point:	-0.006	Yaw Set Point:	-0.038	X_WP:	0.000	Y_WP:	0.000	Y_WP:	0.500	X:	0.037	Y:	0.004	Z:	0.333	yaw:	2.167	yaw rate:	29.064	Roll:	1.728	Pitch:	-0.694	Yaw:	7.950	Thrust:	63.110
Time:	3.656	Roll Set Point:	-0.074	Pitch Set Point:	-0.006	Yaw Set Point:	-0.040	X_WP:	0.000	Y_WP:	0.000	Y_WP:	0.500	X:	0.037	Y:	0.004	Z:	0.339	yaw:	2.300	yaw rate:	13.336	Roll:	2.079	Pitch:	-0.433	Yaw:	4.806	Thrust:	46.737
Time:	3.667	Roll Set Point:	-0.075	Pitch Set Point:	-0.005	Yaw Set Point:	-0.036	X_WP:	0.000	Y_WP:	0.000	Y_WP:	0.500	X:	0.038	Y:	0.003	Z:	0.345	yaw:	2.034	yaw rate:	-26.578	Roll:	1.761	Pitch:	-0.077	Yaw:	-5.120	Thrust:	53.485
Time:	3.679	Roll Set Point:	-0.076	Pitch Set Point:	-0.004	Yaw Set Point:	-0.034	X_WP:	0.000	Y_WP:	0.000	Y_WP:	0.500	X:	0.038	Y:	0.003	Z:	0.350	yaw:	1.926	yaw rate:	-10.775	Roll:	1.646	Pitch:	-0.378	Yaw:	-1.326	Thrust:	63.554
Time:	3.690	Roll Set Point:	-0.077	Pitch Set Point:	-0.004	Yaw Set Point:	-0.036	X_WP:	0.000	Y_WP:	0.000	Y_WP:	0.500	X:	0.039	Y:	0.003	Z:	0.356	yaw:	2.087	yaw rate:	16.110	Roll:	2.216	Pitch:	-0.367	Yaw:	5.190	Thrust:	51.140
Time:	3.703	Roll Set Point:	-0.079	Pitch Set Point:	-0.003	Yaw Set Point:	-0.025	X_WP:	0.000	Y_WP:	0.000	Y_WP:	0.500	X:	0.039	Y:	0.002	Z:	0.368	yaw:	1.441	yaw rate:	-64.630	Roll:	2.298	Pitch:	-0.277	Yaw:	-13.234	Thrust:	42.812
Time:	3.714	Roll Set Point:	-0.080	Pitch Set Point:	-0.002	Yaw Set Point:	-0.034	X_WP:	0.000	Y_WP:	0.000	Y_WP:	0.500	X:	0.040	Y:	0.002	Z:	0.373	yaw:	1.957	yaw rate:	51.573	Roll:	1.946	Pitch:	-0.933	Yaw:	12.840	Thrust:	55.292
Time:	3.725	Roll Set Point:	-0.080	Pitch Set Point:	-0.001	Yaw Set Point:	-0.028	X_WP:	0.000	Y_WP:	0.000	Y_WP:	0.500	X:	0.040	Y:	0.001	Z:	0.379	yaw:	1.624	yaw rate:	-33.246	Roll:	1.641	Pitch:	-0.283	Yaw:	-7.436	Thrust:	47.468
Time:	3.743	Roll Set Point:	-0.081	Pitch Set Point:	-0.000	Yaw Set Point:	-0.028	X_WP:	0.000	Y_WP:	0.000	Y_WP:	0.500	X:	0.041	Y:	0.001	Z:	0.384	yaw:	1.622	yaw rate:	-0.257	Roll:	1.568	Pitch:	-0.268	Yaw:	-0.261	Thrust:	96.678
Time:	3.755	Roll Set Point:	-0.083	Pitch Set Point:	0.001	Yaw Set Point:	-0.022	X_WP:	0.000	Y_WP:	0.000	Y_WP:	0.500	X:	0.041	Y:	0.000	Z:	0.395	yaw:	1.235	yaw rate:	-46.888	Roll:	2.487	Pitch:	-0.260	Yaw:	-8.079	Thrust:	49.209
Time:	3.767	Roll Set Point:	-0.084	Pitch Set Point:	0.002	Yaw Set Point:	-0.030	X_WP:	0.000	Y_WP:	0.000	Y_WP:	0.500	X:	0.042	Y:	-0.000	Z:	0.400	yaw:	1.747	yaw rate:	51.207	Roll:	2.094	Pitch:	-1.028	Yaw:	11.784	Thrust:	65.600
Time:	3.781	Roll Set Point:	-0.085	Pitch Set Point:	0.002	Yaw Set Point:	-0.018	X_WP:	0.000	Y_WP:	0.000	Y_WP:	0.500	X:	0.042	Y:	-0.001	Z:	0.405	yaw:	1.024	yaw rate:	-72.335	Roll:	1.676	Pitch:	0.263	Yaw:	-14.832	Thrust:	69.108
Time:	3.792	Roll Set Point:	-0.086	Pitch Set Point:	0.003	Yaw Set Point:	-0.024	X_WP:	0.000	Y_WP:	0.000	Y_WP:	0.500	X:	0.043	Y:	-0.001	Z:	0.410	yaw:	1.365	yaw rate:	34.114	Roll:	1.906	Pitch:	-0.723	Yaw:	8.453	Thrust:	52.508
Time:	3.805	Roll Set Point:	-0.086	Pitch Set Point:	0.004	Yaw Set Point:	-0.021	X_WP:	0.000	Y_WP:	0.000	Y_WP:	0.500	X:	0.043	Y:	-0.001	Z:	0.414	yaw:	1.216	yaw rate:	-14.861	Roll:	1.693	Pitch:	-0.527	Yaw:	-3.101	Thrust:	65.237
Time:	3.819	Roll Set Point:	-0.088	Pitch Set Point:	0.006	Yaw Set Point:	-0.019	X_WP:	0.000	Y_WP:	0.000	Y_WP:	0.500	X:	0.044	Y:	-0.002	Z:	0.429	yaw:	1.104	yaw rate:	-9.159	Roll:	2.471	Pitch:	-1.076	Yaw:	-2.447	Thrust:	50.266
Time:	3.830	Roll Set Point:	-0.089	Pitch Set Point:	0.007	Yaw Set Point:	-0.017	X_WP:	0.000	Y_WP:	0.000	Y_WP:	0.500	X:	0.044	Y:	-0.003	Z:	0.433	yaw:	0.985	yaw rate:	-11.861	Roll:	1.848	Pitch:	-0.782	Yaw:	-2.923	Thrust:	57.430
Time:	3.842	Roll Set Point:	-0.089	Pitch Set Point:	0.008	Yaw Set Point:	-0.018	X_WP:	0.000	Y_WP:	0.000	Y_WP:	0.500	X:	0.045	Y:	-0.003	Z:	0.438	yaw:	1.005	yaw rate:	1.969	Roll:	1.714	Pitch:	-0.689	Yaw:	0.300	Thrust:	57.089
Time:	3.854	Roll Set Point:	-0.090	Pitch Set Point:	0.008	Yaw Set Point:	-0.016	X_WP:	0.000	Y_WP:	0.000	Y_WP:	0.500	X:	0.045	Y:	-0.004	Z:	0.443	yaw:	0.896	yaw rate:	-10.839	Roll:	1.852	Pitch:	-0.495	Yaw:	-2.753	Thrust:	60.211
Time:	3.865	Roll Set Point:	-0.091	Pitch Set Point:	0.009	Yaw Set Point:	-0.015	X_WP:	0.000	Y_WP:	0.000	Y_WP:	0.500	X:	0.045	Y:	-0.004	Z:	0.447	yaw:	0.863	yaw rate:	-3.349	Roll:	1.850	Pitch:	-0.613	Yaw:	-1.063	Thrust:	52.102
Time:	3.877	Roll Set Point:	-0.091	Pitch Set Point:	0.010	Yaw Set Point:	-0.013	X_WP:	0.000	Y_WP:	0.000	Y_WP:	0.500	X:	0.046	Y:	-0.005	Z:	0.452	yaw:	0.726	yaw rate:	-13.680	Roll:	1.687	Pitch:	-0.444	Yaw:	-3.562	Thrust:	59.452
Time:	3.889	Roll Set Point:	-0.091	Pitch Set Point:	0.011	Yaw Set Point:	-0.014	X_WP:	0.000	Y_WP:	0.000	Y_WP:	0.500	X:	0.046	Y:	-0.005	Z:	0.457	yaw:	0.776	yaw rate:	5.029	Roll:	1.605	Pitch:	-0.944	Yaw:	0.580	Thrust:	55.801
Time:	3.901	Roll Set Point:	-0.092	Pitch Set Point:	0.012	Yaw Set Point:	-0.009	X_WP:	0.000	Y_WP:	0.000	Y_WP:	0.500	X:	0.046	Y:	-0.006	Z:	0.462	yaw:	0.528	yaw rate:	-24.865	Roll:	1.914	Pitch:	-0.497	Yaw:	-6.344	Thrust:	57.746
Time:	3.913	Roll Set Point:	-0.092	Pitch Set Point:	0.013	Yaw Set Point:	-0.011	X_WP:	0.000	Y_WP:	0.000	Y_WP:	0.500	X:	0.046	Y:	-0.006	Z:	0.467	yaw:	0.633	yaw rate:	10.527	Roll:	1.660	Pitch:	-0.821	Yaw:	1.421	Thrust:	66.655
Time:	3.925	Roll Set Point:	-0.093	Pitch Set Point:	0.016	Yaw Set Point:	-0.014	X_WP:	0.000	Y_WP:	0.000	Y_WP:	0.500	X:	0.047	Y:	-0.008	Z:	0.481	yaw:	0.819	yaw rate:	-31.032	Roll:	2.193	Pitch:	-2.597	Yaw:	3.825	Thrust:	17.236
Time:	3.936	Roll Set Point:	-0.093	Pitch Set Point:	0.016	Yaw Set Point:	-0.014	X_WP:	0.000	Y_WP:	0.000	Y_WP:	0.500	X:	0.047	Y:	-0.008	Z:	0.481	yaw:	0.819	yaw rate:	-31.032	Roll:	1.434	Pitch:	-0.145	Yaw:	-0.312	Thrust:	70.033
Time:	3.948	Roll Set Point:	-0.094	Pitch Set Point:	0.018	Yaw Set Point:	-0.011	X_WP:	0.000	Y_WP:	0.000	Y_WP:	0.500	X:	0.047	Y:	-0.009	Z:	0.490	yaw:	0.636	yaw rate:	-6.006	Roll:	1.870	Pitch:	-1.430	Yaw:	-4.596	Thrust:	40.699
Time:	3.958	Roll Set Point:	-0.094	Pitch Set Point:	0.019	Yaw Set Point:	-0.014	X_WP:	0.000	Y_WP:	0.000	Y_WP:	0.500	X:	0.047	Y:	-0.009	Z:	0.495	yaw:	0.784	yaw rate:	14.832	Roll:	1.698	Pitch:	-1.236	Yaw:	3.648	Thrust:	45.639
Time:	3.972	Roll Set Point:	-0.095	Pitch Set Point:	0.020	Yaw Set Point:	-0.016	X_WP:	0.000	Y_WP:	0.000	Y_WP:	0.500	X:	0.048	Y:	-0.010	Z:	0.500	yaw:	0.939	yaw rate:	15.489	Roll:	1.823	Pitch:	-0.961	Yaw:	2.706	Thrust:	57.924
Time:	3.985	Roll Set Point:	-0.095	Pitch Set Point:	0.021	Yaw Set Point:	-0.018	X_WP:	0.000	Y_WP:	0.000	Y_WP:	0.500	X:	0.048	Y:	-0.010	Z:	0.505	yaw:	1.027	yaw rate:	8.829	Roll:	1.442	Pitch:	-0.820	Yaw:	1.499	Thrust:	72.348
Time:	3.996	Roll Set Point:	-0.095	Pitch Set Point:	0.022	Yaw Set Point:	-0.010	X_WP:	0.000	Y_WP:	0.000	Y_WP:	0.500	X:	0.048	Y:	-0.011	Z:	0.509	yaw:	0.595	yaw rate:	-43.253	Roll:	1.697	Pitch:	-0.639	Yaw:	-10.587	Thrust:	52.171
Time:	4.011	Roll Set Point:	-0.095	Pitch Set Point:	0.023	Yaw Set Point:	-0.008	X_WP:	0.000	Y_WP:	0.000	Y_WP:	0.500	X:	0.048	Y:	-0.011	Z:	0.514	yaw:	0.431	yaw rate:	-16.367	Roll:	1.573	Pitch:	-0.795	Yaw:	-4.240	Thrust:	71.934
Time:	4.022	Roll Set Point:	-0.095	Pitch Set Point:	0.024	Yaw Set Point:	-0.005	X_WP:	0.000	Y_WP:	0.000	Y_WP:	0.500	X:	0.048	Y:	-0.012	Z:	0.519	yaw:	0.269	yaw rate:	-16.242	Roll:	1.560	Pitch:	-1.051	Yaw:	-4.916	Thrust:	52.654
Time:	4.034	Roll Set Point:	-0.095	Pitch Set Point:	0.025	Yaw Set Point:	-0.009	X_WP:	0.000	Y_WP:	0.000	Y_WP:	0.500	X:	0.048	Y:	-0.013	Z:	0.523	yaw:	0.495	yaw rate:	22.677	Roll:	1.437	Pitch:	-1.311	Yaw:	4.059	Thrust:	49.090
Time:	4.045	Roll Set Point:	-0.095	Pitch Set Point:	0.029	Yaw Set Point:	-0.010	X_WP:	0.000	Y_WP:	0.000	Y_WP:	0.500	X:	0.048	Y:	-0.014	Z:	0.538	yaw:	0.555	yaw rate:	-9.822	Roll:	1.634	Pitch:	-2.892	Yaw:	0.748	Thrust:	14.806
Time:	4.056	Roll Set Point:	-0.095	Pitch Set Point:	0.030	Yaw Set Point:	-0.011	X_WP:	0.000	Y_WP:	0.000	Y_WP:	0.500	X:	0.048	Y:	-0.015	Z:	0.542	yaw:	0.645	yaw rate:	9.079	Roll:	1.325	Pitch:	-1.265	Yaw:	1.626	Thrust:	51.226
Time:	4.067	Roll Set Point:	-0.096	Pitch Set Point:	0.031	Yaw Set Point:	-0.013	X_WP:	0.000	Y_WP:	0.000	Y_WP:	0.500	X:	0.048	Y:	-0.015	Z:	0.547	yaw:	0.750	yaw rate:	10.486	Roll:	1.594	Pitch:	-1.466	Yaw:	1.875	Thrust:	45.356
Time:	4.079	Roll Set Point:	-0.095	Pitch Set Point:	0.032	Yaw Set Point:	-0.012	X_WP:	0.000	Y_WP:	0.000	Y_WP:	0.500	X:	0.048	Y:	-0.016	Z:	0.551	yaw:	0.673	yaw rate:	-7.761	Roll:	1.492	Pitch:	-0.955	Yaw:	-2.312	Thrust:	58.958
Time:	4.090	Roll Set Point:	-0.095	Pitch Set Point:	0.034	Yaw Set Point:	-0.011	X_WP:	0.000	Y_WP:	0.000	Y_WP:	0.500	X:	0.048	Y:	-0.017	Z:	0.556	yaw:	0.618	yaw rate:	-5.481	Roll:	1.383	Pitch:	-1.360	Yaw:	-1.861	Thrust:	47.899
Time:	4.101	Roll Set Point:	-0.095	Pitch Set Point:	0.035	Yaw Set Point:	-0.008	X_WP:	0.000	Y_WP:	0.000	Y_WP:	0.500	X:	0.048	Y:	-0.017	Z:	0.560	yaw:	0.476	yaw rate:	-14.156	Roll:	1.458	Pitch:	-1.249	Yaw:	-4.110	Thrust:	43.099
Time:	4.114	Roll Set Point:	-0.095	Pitch Set Point:	0.036	Yaw Set Point:	-0.017	X_WP:	0.000	Y_WP:	0.000	Y_WP:	0.500	X:	0.048	Y:	-0.018	Z:	0.564	yaw:	0.999	yaw rate:	52.260	Roll:	1.193	Pitch:	-1.591	Yaw:	10.238	Thrust:	66.744
Time:	4.125	Roll Set Point:	-0.095	Pitch Set Point:	0.037	Yaw Set Point:	-0.011	X_WP:	0.000	Y_WP:	0.000	Y_WP:	0.500	X:	0.048	Y:	-0.018	Z:	0.568	yaw:	0.648	yaw rate:	-35.142	Roll:	1.714	Pitch:	-0.811	Yaw:	-8.755	Thrust:	49.607
Time:	4.141	Roll Set Point:	-0.095	Pitch Set Point:	0.038	Yaw Set Point:	-0.007	X_WP:	0.000	Y_WP:	0.000	Y_WP:	0.500	X:	0.048	Y:	-0.019	Z:	0.572	yaw:	0.398	yaw rate:	-24.997	Roll:	1.420	Pitch:	-1.016	Yaw:	-5.612	Thrust:	83.069
Time:	4.154	Roll Set Point:	-0.095	Pitch Set Point:	0.040	Yaw Set Point:	-0.010	X_WP:	0.000	Y_WP:	0.000	Y_WP:	0.500	X:	0.047	Y:	-0.020	Z:	0.580	yaw:	0.559	yaw rate:	14.364	Roll:	1.333	Pitch:	-1.787	Yaw:	2.541	Thrust:	46.721
Time:	4.165	Roll Set Point:	-0.095	Pitch Set Point:	0.042	Yaw Set Point:	-0.018	X_WP:	0.000	Y_WP:	0.000	Y_WP:	0.500	X:	0.048	Y:	-0.020	Z:	0.583	yaw:	1.004	yaw rate:	44.573	Roll:	1.382	Pitch:	-1.853	Yaw:	10.030	Thrust:	54.048
Time:	4.178	Roll Set Point:	-0.095	Pitch Set Point:	0.042	Yaw Set Point:	-0.004	X_WP:	0.000	Y_WP:	0.000	Y_WP:	0.500	X:	0.047	Y:	-0.021	Z:	0.586	yaw:	0.257	yaw rate:	-74.780	Roll:	1.474	Pitch:	-0.654	Yaw:	-16.261	Thrust:	65.588
Time:	4.189	Roll Set Point:	-0.094	Pitch Set Point:	0.045	Yaw Set Point:	-0.011	X_WP:	0.000	Y_WP:	0.000	Y_WP:	0.500	X:	0.047	Y:	-0.022	Z:	0.592	yaw:	0.633	yaw rate:	37.673	Roll:	1.015	Pitch:	-2.518	Yaw:	8.423	Thrust:	38.958
Time:	4.201	Roll Set Point:	-0.094	Pitch Set Point:	0.046	Yaw Set Point:	-0.004	X_WP:	0.000	Y_WP:	0.000	Y_WP:	0.500	X:	0.047	Y:	-0.023	Z:	0.594	yaw:	0.248	yaw rate:	-38.558	Roll:	1.423	Pitch:	-1.167	Yaw:	-9.868	Thrust:	55.866
Time:	4.218	Roll Set Point:	-0.093	Pitch Set Point:	0.047	Yaw Set Point:	-0.010	X_WP:	0.000	Y_WP:	0.000	Y_WP:	0.500	X:	0.047	Y:	-0.023	Z:	0.597	yaw:	0.577	yaw rate:	32.923	Roll:	1.234	Pitch:	-1.281	Yaw:	3.490	Thrust:	95.725
Time:	4.230	Roll Set Point:	-0.093	Pitch Set Point:	0.049	Yaw Set Point:	-0.010	X_WP:	0.000	Y_WP:	0.000	Y_WP:	0.500	X:	0.047	Y:	-0.024	Z:	0.602	yaw:	0.589	yaw rate:	11.785	Roll:	1.037	Pitch:	-2.244	Yaw:	-0.437	Thrust:	50.089
Time:	4.245	Roll Set Point:	-0.092	Pitch Set Point:	0.050	Yaw Set Point:	-0.017	X_WP:	0.000	Y_WP:	0.000	Y_WP:	0.500	X:	0.046	Y:	-0.025	Z:	0.604	yaw:	0.961	yaw rate:	37.228	Roll:	1.141	Pitch:	-1.476	Yaw:	5.897	Thrust:	76.857
Time:	4.257	Roll Set Point:	-0.092	Pitch Set Point:	0.051	Yaw Set Point:	-0.010	X_WP:	0.000	Y_WP:	0.000	Y_WP:	0.500	X:	0.046	Y:	-0.026	Z:	0.606	yaw:	0.570	yaw rate:	-39.095	Roll:	1.477	Pitch:	-1.172	Yaw:	-9.541	Thrust:	59.922
Time:	4.267	Roll Set Point:	-0.092	Pitch Set Point:	0.052	Yaw Set Point:	-0.007	X_WP:	0.000	Y_WP:	0.000	Y_WP:	0.500	X:	0.046	Y:	-0.026	Z:	0.608	yaw:	0.397	yaw rate:	-17.357	Roll:	1.578	Pitch:	-1.020	Yaw:	-5.240	Thrust:	46.032
Time:	4.279	Roll Set Point:	-0.091	Pitch Set Point:	0.054	Yaw Set Point:	-0.012	X_WP:	0.000	Y_WP:	0.000	Y_WP:	0.500	X:	0.046	Y:	-0.027	Z:	0.612	yaw:	0.705	yaw rate:	30.827	Roll:	0.652	Pitch:	-2.618	Yaw:	5.833	Thrust:	52.175
Time:	4.291	Roll Set Point:	-0.091	Pitch Set Point:	0.055	Yaw Set Point:	-0.005	X_WP:	0.000	Y_WP:	0.000	Y_WP:	0.500	X:	0.046	Y:	-0.027	Z:	0.614	yaw:	0.295	yaw rate:	-40.963	Roll:	1.535	Pitch:	-0.821	Yaw:	-10.678	Thrust:	56.242
Time:	4.304	Roll Set Point:	-0.091	Pitch Set Point:	0.056	Yaw Set Point:	-0.004	X_WP:	0.000	Y_WP:	0.000	Y_WP:	0.500	X:	0.046	Y:	-0.028	Z:	0.616	yaw:	0.227	yaw rate:	-6.796	Roll:	1.381	Pitch:	-1.311	Yaw:	-2.675	Thrust:	62.506
Time:	4.320	Roll Set Point:	-0.090	Pitch Set Point:	0.057	Yaw Set Point:	-0.008	X_WP:	0.000	Y_WP:	0.000	Y_WP:	0.500	X:	0.045	Y:	-0.028	Z:	0.618	yaw:	0.485	yaw rate:	25.754	Roll:	1.048	Pitch:	-1.547	Yaw:	2.677	Thrust:	88.137
Time:	4.332	Roll Set Point:	-0.090	Pitch Set Point:	0.059	Yaw Set Point:	-0.005	X_WP:	0.000	Y_WP:	0.000	Y_WP:	0.500	X:	0.045	Y:	-0.029	Z:	0.622	yaw:	0.301	yaw rate:	-41.051	Roll:	1.278	Pitch:	-1.633	Yaw:	-5.315	Thrust:	43.577
Time:	4.343	Roll Set Point:	-0.090	Pitch Set Point:	0.060	Yaw Set Point:	-0.005	X_WP:	0.000	Y_WP:	0.000	Y_WP:	0.500	X:	0.045	Y:	-0.030	Z:	0.623	yaw:	0.261	yaw rate:	-4.024	Roll:	1.234	Pitch:	-1.391	Yaw:	-2.046	Thrust:	61.880
Time:	4.354	Roll Set Point:	-0.090	Pitch Set Point:	0.060	Yaw Set Point:	-0.006	X_WP:	0.000	Y_WP:	0.000	Y_WP:	0.500	X:	0.045	Y:	-0.030	Z:	0.625	yaw:	0.324	yaw rate:	6.325	Roll:	1.242	Pitch:	-1.448	Yaw:	0.575	Thrust:	51.736
Time:	4.365	Roll Set Point:	-0.089	Pitch Set Point:	0.062	Yaw Set Point:	-0.013	X_WP:	0.000	Y_WP:	0.000	Y_WP:	0.500	X:	0.045	Y:	-0.031	Z:	0.627	yaw:	0.736	yaw rate:	41.135	Roll:	0.796	Pitch:	-2.067	Yaw:	9.386	Thrust:	51.079
Time:	4.378	Roll Set Point:	-0.088	Pitch Set Point:	0.063	Yaw Set Point:	-0.013	X_WP:	0.000	Y_WP:	0.000	Y_WP:	0.500	X:	0.044	Y:	-0.031	Z:	0.631	yaw:	0.725	yaw rate:	-1.063	Roll:	1.012	Pitch:	-1.876	Yaw:	-0.779	Thrust:	54.090
Time:	4.389	Roll Set Point:	-0.088	Pitch Set Point:	0.064	Yaw Set Point:	-0.014	X_WP:	0.000	Y_WP:	0.000	Y_WP:	0.500	X:	0.044	Y:	-0.032	Z:	0.633	yaw:	0.818	yaw rate:	9.260	Roll:	1.047	Pitch:	-1.590	Yaw:	1.967	Thrust:	46.660
Time:	4.401	Roll Set Point:	-0.088	Pitch Set Point:	0.065	Yaw Set Point:	-0.021	X_WP:	0.000	Y_WP:	0.000	Y_WP:	0.500	X:	0.044	Y:	-0.032	Z:	0.635	yaw:	1.193	yaw rate:	37.509	Roll:	0.970	Pitch:	-1.686	Yaw:	8.467	Thrust:	55.109
Time:	4.417	Roll Set Point:	-0.088	Pitch Set Point:	0.065	Yaw Set Point:	-0.012	X_WP:	0.000	Y_WP:	0.000	Y_WP:	0.500	X:	0.044	Y:	-0.032	Z:	0.637	yaw:	0.698	yaw rate:	-49.454	Roll:	1.682	Pitch:	-0.742	Yaw:	-8.902	Thrust:	84.612
Time:	4.428	Roll Set Point:	-0.087	Pitch Set Point:	0.066	Yaw Set Point:	-0.012	X_WP:	0.000	Y_WP:	0.000	Y_WP:	0.500	X:	0.044	Y:	-0.033	Z:	0.640	yaw:	0.702	yaw rate:	0.336	Roll:	1.055	Pitch:	-1.559	Yaw:	-0.305	Thrust:	51.362
Time:	4.445	Roll Set Point:	-0.087	Pitch Set Point:	0.067	Yaw Set Point:	-0.010	X_WP:	0.000	Y_WP:	0.000	Y_WP:	0.500	X:	0.044	Y:	-0.033	Z:	0.641	yaw:	0.582	yaw rate:	-12.001	Roll:	1.136	Pitch:	-1.125	Yaw:	-3.126	Thrust:	84.554
Time:	4.457	Roll Set Point:	-0.087	Pitch Set Point:	0.068	Yaw Set Point:	-0.011	X_WP:	0.000	Y_WP:	0.000	Y_WP:	0.500	X:	0.044	Y:	-0.034	Z:	0.646	yaw:	0.603	yaw rate:	15.791	Roll:	1.377	Pitch:	-1.544	Yaw:	-0.253	Thrust:	50.502
Time:	4.469	Roll Set Point:	-0.086	Pitch Set Point:	0.068	Yaw Set Point:	-0.010	X_WP:	0.000	Y_WP:	0.000	Y_WP:	0.500	X:	0.043	Y:	-0.034	Z:	0.648	yaw:	0.563	yaw rate:	-4.035	Roll:	0.796	Pitch:	-1.582	Yaw:	-1.571	Thrust:	54.295
Time:	4.487	Roll Set Point:	-0.085	Pitch Set Point:	0.070	Yaw Set Point:	-0.013	X_WP:	0.000	Y_WP:	0.000	Y_WP:	0.500	X:	0.043	Y:	-0.034	Z:	0.652	yaw:	0.741	yaw rate:	17.819	Roll:	1.156	Pitch:	-1.481	Yaw:	1.670	Thrust:	81.183
Time:	4.499	Roll Set Point:	-0.085	Pitch Set Point:	0.070	Yaw Set Point:	0.000	X_WP:	0.000	Y_WP:	0.000	Y_WP:	0.500	X:	0.043	Y:	-0.035	Z:	0.655	yaw:	-0.022	yaw rate:	-18.618	Roll:	1.678	Pitch:	-0.608	Yaw:	-18.083	Thrust:	40.234
Time:	4.513	Roll Set Point:	-0.085	Pitch Set Point:	0.070	Yaw Set Point:	-0.001	X_WP:	0.000	Y_WP:	0.000	Y_WP:	0.500	X:	0.043	Y:	-0.035	Z:	0.657	yaw:	0.051	yaw rate:	7.338	Roll:	1.248	Pitch:	-1.259	Yaw:	-0.170	Thrust:	70.129
Time:	4.523	Roll Set Point:	-0.085	Pitch Set Point:	0.070	Yaw Set Point:	0.000	X_WP:	0.000	Y_WP:	0.000	Y_WP:	0.500	X:	0.043	Y:	-0.035	Z:	0.659	yaw:	-0.020	yaw rate:	-7.064	Roll:	1.441	Pitch:	-1.091	Yaw:	-3.073	Thrust:	43.512
Time:	4.534	Roll Set Point:	-0.084	Pitch Set Point:	0.071	Yaw Set Point:	-0.009	X_WP:	0.000	Y_WP:	0.000	Y_WP:	0.500	X:	0.042	Y:	-0.035	Z:	0.660	yaw:	0.516	yaw rate:	53.567	Roll:	0.048	Pitch:	-2.015	Yaw:	11.918	Thrust:	50.167
Time:	4.549	Roll Set Point:	-0.084	Pitch Set Point:	0.072	Yaw Set Point:	-0.017	X_WP:	0.000	Y_WP:	0.000	Y_WP:	0.500	X:	0.042	Y:	-0.036	Z:	0.662	yaw:	0.956	yaw rate:	43.996	Roll:	1.205	Pitch:	-1.498	Yaw:	7.475	Thrust:	68.709
Time:	4.560	Roll Set Point:	-0.084	Pitch Set Point:	0.072	Yaw Set Point:	-0.002	X_WP:	0.000	Y_WP:	0.000	Y_WP:	0.500	X:	0.042	Y:	-0.036	Z:	0.664	yaw:	0.096	yaw rate:	-85.954	Roll:	1.711	Pitch:	-0.301	Yaw:	-20.783	Thrust:	50.596
Time:	4.577	Roll Set Point:	-0.084	Pitch Set Point:	0.072	Yaw Set Point:	-0.016	X_WP:	0.000	Y_WP:	0.000	Y_WP:	0.500	X:	0.042	Y:	-0.036	Z:	0.665	yaw:	0.944	yaw rate:	84.735	Roll:	0.881	Pitch:	-1.689	Yaw:	12.207	Thrust:	84.792
Time:	4.588	Roll Set Point:	-0.083	Pitch Set Point:	0.073	Yaw Set Point:	-0.005	X_WP:	0.000	Y_WP:	0.000	Y_WP:	0.500	X:	0.042	Y:	-0.036	Z:	0.669	yaw:	0.270	yaw rate:	24.896	Roll:	1.376	Pitch:	-0.660	Yaw:	-16.964	Thrust:	33.254
Time:	4.598	Roll Set Point:	-0.082	Pitch Set Point:	0.073	Yaw Set Point:	-0.010	X_WP:	0.000	Y_WP:	0.000	Y_WP:	0.500	X:	0.041	Y:	-0.036	Z:	0.670	yaw:	0.550	yaw rate:	28.003	Roll:	0.524	Pitch:	-1.715	Yaw:	6.860	Thrust:	45.800
Time:	4.611	Roll Set Point:	-0.082	Pitch Set Point:	0.073	Yaw Set Point:	-0.019	X_WP:	0.000	Y_WP:	0.000	Y_WP:	0.500	X:	0.041	Y:	-0.036	Z:	0.671	yaw:	1.064	yaw rate:	51.472	Roll:	1.050	Pitch:	-1.465	Yaw:	10.713	Thrust:	57.466
Time:	4.622	Roll Set Point:	-0.083	Pitch Set Point:	0.073	Yaw Set Point:	-0.003	X_WP:	0.000	Y_WP:	0.000	Y_WP:	0.500	X:	0.041	Y:	-0.036	Z:	0.672	yaw:	0.165	yaw rate:	-89.904	Roll:	2.074	Pitch:	-0.047	Yaw:	-22.444	Thrust:	48.017
Time:	4.634	Roll Set Point:	-0.082	Pitch Set Point:	0.074	Yaw Set Point:	-0.008	X_WP:	0.000	Y_WP:	0.000	Y_WP:	0.500	X:	0.041	Y:	-0.037	Z:	0.673	yaw:	0.470	yaw rate:	30.490	Roll:	0.593	Pitch:	-1.638	Yaw:	6.533	Thrust:	49.102
Time:	4.645	Roll Set Point:	-0.081	Pitch Set Point:	0.074	Yaw Set Point:	-0.014	X_WP:	0.000	Y_WP:	0.000	Y_WP:	0.500	X:	0.041	Y:	-0.037	Z:	0.674	yaw:	0.776	yaw rate:	30.590	Roll:	0.972	Pitch:	-1.196	Yaw:	5.921	Thrust:	57.117
Time:	4.656	Roll Set Point:	-0.081	Pitch Set Point:	0.074	Yaw Set Point:	-0.011	X_WP:	0.000	Y_WP:	0.000	Y_WP:	0.500	X:	0.041	Y:	-0.037	Z:	0.675	yaw:	0.627	yaw rate:	-14.921	Roll:	1.210	Pitch:	-1.059	Yaw:	-3.994	Thrust:	45.887
Time:	4.667	Roll Set Point:	-0.081	Pitch Set Point:	0.074	Yaw Set Point:	-0.019	X_WP:	0.000	Y_WP:	0.000	Y_WP:	0.500	X:	0.041	Y:	-0.037	Z:	0.676	yaw:	1.078	yaw rate:	45.094	Roll:	1.169	Pitch:	-1.436	Yaw:	10.852	Thrust:	45.369
Time:	4.680	Roll Set Point:	-0.081	Pitch Set Point:	0.074	Yaw Set Point:	-0.013	X_WP:	0.000	Y_WP:	0.000	Y_WP:	0.500	X:	0.041	Y:	-0.037	Z:	0.677	yaw:	0.728	yaw rate:	-35.000	Roll:	1.236	Pitch:	-0.672	Yaw:	-7.783	Thrust:	61.187
Time:	4.691	Roll Set Point:	-0.081	Pitch Set Point:	0.073	Yaw Set Point:	-0.000	X_WP:	0.000	Y_WP:	0.000	Y_WP:	0.500	X:	0.041	Y:	-0.036	Z:	0.677	yaw:	0.003	yaw rate:	-72.487	Roll:	1.839	Pitch:	-0.083	Yaw:	-18.519	Thrust:	48.861
Time:	4.709	Roll Set Point:	-0.081	Pitch Set Point:	0.073	Yaw Set Point:	-0.001	X_WP:	0.000	Y_WP:	0.000	Y_WP:	0.500	X:	0.040	Y:	-0.036	Z:	0.677	yaw:	0.051	yaw rate:	4.767	Roll:	1.220	Pitch:	-0.952	Yaw:	-0.531	Thrust:	58.032
Time:	4.723	Roll Set Point:	-0.081	Pitch Set Point:	0.073	Yaw Set Point:	0.003	X_WP:	0.000	Y_WP:	0.000	Y_WP:	0.500	X:	0.040	Y:	-0.036	Z:	0.678	yaw:	-0.156	yaw rate:	-27.815	Roll:	1.413	Pitch:	-0.816	Yaw:	-5.353	Thrust:	93.333
Time:	4.734	Roll Set Point:	-0.081	Pitch Set Point:	0.073	Yaw Set Point:	-0.000	X_WP:	0.000	Y_WP:	0.000	Y_WP:	0.500	X:	0.040	Y:	-0.036	Z:	0.678	yaw:	0.014	yaw rate:	17.065	Roll:	1.165	Pitch:	-1.007	Yaw:	2.514	Thrust:	52.854
Time:	4.750	Roll Set Point:	-0.080	Pitch Set Point:	0.073	Yaw Set Point:	-0.002	X_WP:	0.000	Y_WP:	0.000	Y_WP:	0.500	X:	0.040	Y:	-0.036	Z:	0.677	yaw:	0.133	yaw rate:	11.863	Roll:	1.109	Pitch:	-1.048	Yaw:	0.318	Thrust:	75.437
Time:	4.760	Roll Set Point:	-0.080	Pitch Set Point:	0.072	Yaw Set Point:	0.000	X_WP:	0.000	Y_WP:	0.000	Y_WP:	0.500	X:	0.040	Y:	-0.036	Z:	0.677	yaw:	-0.015	yaw rate:	9.701	Roll:	1.276	Pitch:	-0.712	Yaw:	-4.961	Thrust:	49.884
Time:	4.777	Roll Set Point:	-0.080	Pitch Set Point:	0.072	Yaw Set Point:	0.000	X_WP:	0.000	Y_WP:	0.000	Y_WP:	0.500	X:	0.040	Y:	-0.036	Z:	0.677	yaw:	-0.015	yaw rate:	9.701	Roll:	1.390	Pitch:	-0.981	Yaw:	-1.944	Thrust:	76.524
Time:	4.788	Roll Set Point:	-0.079	Pitch Set Point:	0.073	Yaw Set Point:	-0.013	X_WP:	0.000	Y_WP:	0.000	Y_WP:	0.500	X:	0.040	Y:	-0.036	Z:	0.674	yaw:	0.767	yaw rate:	88.674	Roll:	-0.074	Pitch:	-1.707	Yaw:	16.677	Thrust:	63.479
Time:	4.798	Roll Set Point:	-0.079	Pitch Set Point:	0.072	Yaw Set Point:	-0.014	X_WP:	0.000	Y_WP:	0.000	Y_WP:	0.500	X:	0.040	Y:	-0.036	Z:	0.674	yaw:	0.812	yaw rate:	4.499	Roll:	1.946	Pitch:	-0.733	Yaw:	1.109	Thrust:	47.012
Time:	4.811	Roll Set Point:	-0.079	Pitch Set Point:	0.072	Yaw Set Point:	-0.006	X_WP:	0.000	Y_WP:	0.000	Y_WP:	0.500	X:	0.040	Y:	-0.036	Z:	0.672	yaw:	0.329	yaw rate:	-48.285	Roll:	1.444	Pitch:	-0.522	Yaw:	-11.475	Thrust:	58.391
Time:	4.822	Roll Set Point:	-0.079	Pitch Set Point:	0.072	Yaw Set Point:	-0.017	X_WP:	0.000	Y_WP:	0.000	Y_WP:	0.500	X:	0.040	Y:	-0.036	Z:	0.671	yaw:	0.992	yaw rate:	66.331	Roll:	0.803	Pitch:	-1.417	Yaw:	15.076	Thrust:	56.137
Time:	4.834	Roll Set Point:	-0.079	Pitch Set Point:	0.072	Yaw Set Point:	-0.004	X_WP:	0.000	Y_WP:	0.000	Y_WP:	0.500	X:	0.040	Y:	-0.036	Z:	0.670	yaw:	0.250	yaw rate:	-74.250	Roll:	1.774	Pitch:	-0.210	Yaw:	-17.869	Thrust:	56.128
Time:	4.852	Roll Set Point:	-0.080	Pitch Set Point:	0.071	Yaw Set Point:	-0.005	X_WP:	0.000	Y_WP:	0.000	Y_WP:	0.500	X:	0.040	Y:	-0.035	Z:	0.669	yaw:	0.272	yaw rate:	2.203	Roll:	1.659	Pitch:	-0.708	Yaw:	-1.441	Thrust:	88.601
Time:	4.864	Roll Set Point:	-0.079	Pitch Set Point:	0.071	Yaw Set Point:	0.000	X_WP:	0.000	Y_WP:	0.000	Y_WP:	0.500	X:	0.040	Y:	-0.035	Z:	0.666	yaw:	-0.012	yaw rate:	-30.645	Roll:	1.274	Pitch:	-0.504	Yaw:	-7.760	Thrust:	63.213
Time:	4.877	Roll Set Point:	-0.079	Pitch Set Point:	0.070	Yaw Set Point:	0.008	X_WP:	0.000	Y_WP:	0.000	Y_WP:	0.500	X:	0.040	Y:	-0.035	Z:	0.662	yaw:	-0.466	yaw rate:	-45.413	Roll:	1.605	Pitch:	-0.362	Yaw:	-11.008	Thrust:	70.703
Time:	4.888	Roll Set Point:	-0.079	Pitch Set Point:	0.070	Yaw Set Point:	-0.003	X_WP:	0.000	Y_WP:	0.000	Y_WP:	0.500	X:	0.040	Y:	-0.035	Z:	0.661	yaw:	0.149	yaw rate:	61.475	Roll:	0.979	Pitch:	-1.291	Yaw:	13.492	Thrust:	57.115
Time:	4.898	Roll Set Point:	-0.079	Pitch Set Point:	0.069	Yaw Set Point:	0.003	X_WP:	0.000	Y_WP:	0.000	Y_WP:	0.500	X:	0.040	Y:	-0.035	Z:	0.659	yaw:	-0.179	yaw rate:	-32.767	Roll:	1.317	Pitch:	-0.295	Yaw:	-9.617	Thrust:	52.808
Time:	4.915	Roll Set Point:	-0.079	Pitch Set Point:	0.069	Yaw Set Point:	0.004	X_WP:	0.000	Y_WP:	0.000	Y_WP:	0.500	X:	0.039	Y:	-0.035	Z:	0.657	yaw:	-0.255	yaw rate:	-7.635	Roll:	1.380	Pitch:	-0.784	Yaw:	-3.549	Thrust:	81.207
Time:	4.928	Roll Set Point:	-0.079	Pitch Set Point:	0.069	Yaw Set Point:	0.005	X_WP:	0.000	Y_WP:	0.000	Y_WP:	0.500	X:	0.039	Y:	-0.035	Z:	0.655	yaw:	-0.265	yaw rate:	-0.993	Roll:	1.415	Pitch:	-0.911	Yaw:	-2.109	Thrust:	66.989
Time:	4.943	Roll Set Point:	-0.079	Pitch Set Point:	0.069	Yaw Set Point:	0.004	X_WP:	0.000	Y_WP:	0.000	Y_WP:	0.500	X:	0.039	Y:	-0.034	Z:	0.654	yaw:	-0.239	yaw rate:	2.643	Roll:	1.239	Pitch:	-0.743	Yaw:	-1.514	Thrust:	68.773
Time:	4.955	Roll Set Point:	-0.079	Pitch Set Point:	0.069	Yaw Set Point:	0.003	X_WP:	0.000	Y_WP:	0.000	Y_WP:	0.500	X:	0.039	Y:	-0.034	Z:	0.650	yaw:	-0.178	yaw rate:	16.151	Roll:	1.277	Pitch:	-0.838	Yaw:	-0.454	Thrust:	68.293
Time:	4.966	Roll Set Point:	-0.079	Pitch Set Point:	0.068	Yaw Set Point:	0.002	X_WP:	0.000	Y_WP:	0.000	Y_WP:	0.500	X:	0.039	Y:	-0.034	Z:	0.648	yaw:	-0.132	yaw rate:	4.592	Roll:	1.356	Pitch:	-0.803	Yaw:	-0.274	Thrust:	52.021
Time:	4.978	Roll Set Point:	-0.079	Pitch Set Point:	0.068	Yaw Set Point:	0.003	X_WP:	0.000	Y_WP:	0.000	Y_WP:	0.500	X:	0.039	Y:	-0.034	Z:	0.645	yaw:	-0.161	yaw rate:	-2.924	Roll:	1.444	Pitch:	-0.506	Yaw:	-2.328	Thrust:	65.593
Time:	4.989	Roll Set Point:	-0.079	Pitch Set Point:	0.067	Yaw Set Point:	0.006	X_WP:	0.000	Y_WP:	0.000	Y_WP:	0.500	X:	0.039	Y:	-0.034	Z:	0.643	yaw:	-0.349	yaw rate:	-18.785	Roll:	1.514	Pitch:	-0.679	Yaw:	-6.260	Thrust:	56.267
Time:	5.000	Roll Set Point:	-0.079	Pitch Set Point:	0.067	Yaw Set Point:	0.005	X_WP:	0.000	Y_WP:	0.000	Y_WP:	0.500	X:	0.040	Y:	-0.034	Z:	0.642	yaw:	-0.289	yaw rate:	5.939	Roll:	1.418	Pitch:	-0.637	Yaw:	-0.363	Thrust:	52.541
Time:	5.013	Roll Set Point:	-0.079	Pitch Set Point:	0.067	Yaw Set Point:	0.006	X_WP:	0.000	Y_WP:	0.000	Y_WP:	0.500	X:	0.040	Y:	-0.034	Z:	0.640	yaw:	-0.336	yaw rate:	-4.647	Roll:	1.388	Pitch:	-0.809	Yaw:	-2.933	Thrust:	62.729
Time:	5.024	Roll Set Point:	-0.079	Pitch Set Point:	0.067	Yaw Set Point:	0.002	X_WP:	0.000	Y_WP:	0.000	Y_WP:	0.500	X:	0.040	Y:	-0.033	Z:	0.639	yaw:	-0.114	yaw rate:	22.191	Roll:	1.210	Pitch:	-0.773	Yaw:	3.739	Thrust:	53.087
Time:	5.038	Roll Set Point:	-0.079	Pitch Set Point:	0.067	Yaw Set Point:	-0.006	X_WP:	0.000	Y_WP:	0.000	Y_WP:	0.500	X:	0.040	Y:	-0.033	Z:	0.637	yaw:	0.352	yaw rate:	46.613	Roll:	1.150	Pitch:	-1.278	Yaw:	7.505	Thrust:	62.452
Time:	5.052	Roll Set Point:	-0.079	Pitch Set Point:	0.066	Yaw Set Point:	0.001	X_WP:	0.000	Y_WP:	0.000	Y_WP:	0.500	X:	0.040	Y:	-0.033	Z:	0.635	yaw:	-0.083	yaw rate:	-30.213	Roll:	1.644	Pitch:	-0.280	Yaw:	-9.794	Thrust:	74.527
Time:	5.063	Roll Set Point:	-0.080	Pitch Set Point:	0.066	Yaw Set Point:	0.001	X_WP:	0.000	Y_WP:	0.000	Y_WP:	0.500	X:	0.040	Y:	-0.033	Z:	0.632	yaw:	-0.050	yaw rate:	3.236	Roll:	1.421	Pitch:	-0.651	Yaw:	-0.622	Thrust:	61.224
Time:	5.078	Roll Set Point:	-0.080	Pitch Set Point:	0.066	Yaw Set Point:	0.001	X_WP:	0.000	Y_WP:	0.000	Y_WP:	0.500	X:	0.040	Y:	-0.033	Z:	0.632	yaw:	-0.050	yaw rate:	3.236	Roll:	1.395	Pitch:	-0.918	Yaw:	-1.748	Thrust:	61.887
Time:	5.089	Roll Set Point:	-0.080	Pitch Set Point:	0.065	Yaw Set Point:	0.004	X_WP:	0.000	Y_WP:	0.000	Y_WP:	0.500	X:	0.040	Y:	-0.032	Z:	0.629	yaw:	-0.248	yaw rate:	11.713	Roll:	1.635	Pitch:	-0.170	Yaw:	-6.212	Thrust:	60.736
Time:	5.101	Roll Set Point:	-0.080	Pitch Set Point:	0.064	Yaw Set Point:	0.009	X_WP:	0.000	Y_WP:	0.000	Y_WP:	0.500	X:	0.040	Y:	-0.032	Z:	0.627	yaw:	-0.509	yaw rate:	-26.093	Roll:	1.790	Pitch:	-0.284	Yaw:	-7.820	Thrust:	56.095
Time:	5.114	Roll Set Point:	-0.080	Pitch Set Point:	0.064	Yaw Set Point:	0.007	X_WP:	0.000	Y_WP:	0.000	Y_WP:	0.500	X:	0.040	Y:	-0.032	Z:	0.626	yaw:	-0.403	yaw rate:	10.604	Roll:	1.424	Pitch:	-0.898	Yaw:	0.011	Thrust:	61.605
Time:	5.125	Roll Set Point:	-0.080	Pitch Set Point:	0.064	Yaw Set Point:	0.005	X_WP:	0.000	Y_WP:	0.000	Y_WP:	0.500	X:	0.040	Y:	-0.032	Z:	0.625	yaw:	-0.281	yaw rate:	12.195	Roll:	1.308	Pitch:	-0.733	Yaw:	1.087	Thrust:	52.302
Time:	5.139	Roll Set Point:	-0.080	Pitch Set Point:	0.063	Yaw Set Point:	0.004	X_WP:	0.000	Y_WP:	0.000	Y_WP:	0.500	X:	0.040	Y:	-0.032	Z:	0.624	yaw:	-0.219	yaw rate:	6.206	Roll:	1.444	Pitch:	-0.683	Yaw:	-0.829	Thrust:	60.629
Time:	5.152	Roll Set Point:	-0.081	Pitch Set Point:	0.063	Yaw Set Point:	0.006	X_WP:	0.000	Y_WP:	0.000	Y_WP:	0.500	X:	0.040	Y:	-0.032	Z:	0.622	yaw:	-0.340	yaw rate:	-12.099	Roll:	1.689	Pitch:	-0.526	Yaw:	-4.465	Thrust:	62.463
Time:	5.165	Roll Set Point:	-0.081	Pitch Set Point:	0.063	Yaw Set Point:	-0.002	X_WP:	0.000	Y_WP:	0.000	Y_WP:	0.500	X:	0.040	Y:	-0.031	Z:	0.620	yaw:	0.120	yaw rate:	35.499	Roll:	1.242	Pitch:	-1.075	Yaw:	9.195	Thrust:	59.809
Time:	5.183	Roll Set Point:	-0.082	Pitch Set Point:	0.062	Yaw Set Point:	0.000	X_WP:	0.000	Y_WP:	0.000	Y_WP:	0.500	X:	0.041	Y:	-0.031	Z:	0.618	yaw:	-0.002	yaw rate:	-12.212	Roll:	1.928	Pitch:	-0.521	Yaw:	-3.940	Thrust:	82.882
Time:	5.195	Roll Set Point:	-0.082	Pitch Set Point:	0.062	Yaw Set Point:	0.007	X_WP:	0.000	Y_WP:	0.000	Y_WP:	0.500	X:	0.041	Y:	-0.031	Z:	0.617	yaw:	-0.377	yaw rate:	-37.497	Roll:	1.667	Pitch:	-0.387	Yaw:	-9.622	Thrust:	61.177
Time:	5.215	Roll Set Point:	-0.082	Pitch Set Point:	0.061	Yaw Set Point:	0.007	X_WP:	0.000	Y_WP:	0.000	Y_WP:	0.500	X:	0.041	Y:	-0.031	Z:	0.616	yaw:	-0.410	yaw rate:	-3.250	Roll:	1.552	Pitch:	-0.672	Yaw:	-3.307	Thrust:	81.840
Time:	5.227	Roll Set Point:	-0.082	Pitch Set Point:	0.060	Yaw Set Point:	0.008	X_WP:	0.000	Y_WP:	0.000	Y_WP:	0.500	X:	0.041	Y:	-0.030	Z:	0.614	yaw:	-0.451	yaw rate:	-1.812	Roll:	1.730	Pitch:	-0.247	Yaw:	-3.000	Thrust:	66.102
Time:	5.243	Roll Set Point:	-0.083	Pitch Set Point:	0.060	Yaw Set Point:	0.007	X_WP:	0.000	Y_WP:	0.000	Y_WP:	0.500	X:	0.041	Y:	-0.030	Z:	0.614	yaw:	-0.382	yaw rate:	6.869	Roll:	1.612	Pitch:	-0.675	Yaw:	-1.310	Thrust:	68.409
Time:	5.256	Roll Set Point:	-0.083	Pitch Set Point:	0.060	Yaw Set Point:	-0.002	X_WP:	0.000	Y_WP:	0.000	Y_WP:	0.500	X:	0.041	Y:	-0.030	Z:	0.613	yaw:	0.126	yaw rate:	50.763	Roll:	1.350	Pitch:	-1.185	Yaw:	8.362	Thrust:	60.409
Time:	5.270	Roll Set Point:	-0.083	Pitch Set Point:	0.060	Yaw Set Point:	0.005	X_WP:	0.000	Y_WP:	0.000	Y_WP:	0.500	X:	0.041	Y:	-0.030	Z:	0.612	yaw:	-0.260	yaw rate:	-38.589	Roll:	1.455	Pitch:	-0.402	Yaw:	-10.034	Thrust:	55.418
Time:	5.288	Roll Set Point:	-0.083	Pitch Set Point:	0.059	Yaw Set Point:	0.002	X_WP:	0.000	Y_WP:	0.000	Y_WP:	0.500	X:	0.042	Y:	-0.030	Z:	0.612	yaw:	-0.117	yaw rate:	-14.392	Roll:	1.764	Pitch:	-0.614	Yaw:	-0.385	Thrust:	79.627
Time:	5.304	Roll Set Point:	-0.083	Pitch Set Point:	0.058	Yaw Set Point:	0.006	X_WP:	0.000	Y_WP:	0.000	Y_WP:	0.500	X:	0.042	Y:	-0.029	Z:	0.612	yaw:	-0.330	yaw rate:	-21.250	Roll:	1.683	Pitch:	-0.385	Yaw:	-5.814	Thrust:	63.932
Time:	5.319	Roll Set Point:	-0.084	Pitch Set Point:	0.058	Yaw Set Point:	0.003	X_WP:	0.000	Y_WP:	0.000	Y_WP:	0.500	X:	0.042	Y:	-0.029	Z:	0.613	yaw:	-0.200	yaw rate:	-1.825	Roll:	1.648	Pitch:	-0.577	Yaw:	0.314	Thrust:	66.548
Time:	5.332	Roll Set Point:	-0.084	Pitch Set Point:	0.058	Yaw Set Point:	-0.002	X_WP:	0.000	Y_WP:	0.000	Y_WP:	0.500	X:	0.042	Y:	-0.029	Z:	0.614	yaw:	0.112	yaw rate:	31.198	Roll:	1.842	Pitch:	-0.722	Yaw:	4.500	Thrust:	52.223
Time:	5.345	Roll Set Point:	-0.084	Pitch Set Point:	0.056	Yaw Set Point:	0.008	X_WP:	0.000	Y_WP:	0.000	Y_WP:	0.500	X:	0.042	Y:	-0.028	Z:	0.616	yaw:	-0.464	yaw rate:	-57.649	Roll:	1.713	Pitch:	0.178	Yaw:	-14.200	Thrust:	48.070
Time:	5.356	Roll Set Point:	-0.085	Pitch Set Point:	0.056	Yaw Set Point:	0.004	X_WP:	0.000	Y_WP:	0.000	Y_WP:	0.500	X:	0.042	Y:	-0.028	Z:	0.617	yaw:	-0.213	yaw rate:	-22.187	Roll:	1.473	Pitch:	-0.514	Yaw:	4.002	Thrust:	42.065
Time:	5.372	Roll Set Point:	-0.085	Pitch Set Point:	0.055	Yaw Set Point:	0.007	X_WP:	0.000	Y_WP:	0.000	Y_WP:	0.500	X:	0.042	Y:	-0.028	Z:	0.619	yaw:	-0.423	yaw rate:	-21.017	Roll:	1.737	Pitch:	-0.395	Yaw:	-6.135	Thrust:	46.985
Time:	5.387	Roll Set Point:	-0.085	Pitch Set Point:	0.055	Yaw Set Point:	0.004	X_WP:	0.000	Y_WP:	0.000	Y_WP:	0.500	X:	0.042	Y:	-0.028	Z:	0.620	yaw:	-0.218	yaw rate:	20.544	Roll:	1.515	Pitch:	-0.667	Yaw:	1.277	Thrust:	68.135
