Time:	2.157	Roll Set Point:	-0.234	Pitch Set Point:	-0.121	Yaw Set Point:	-0.577	X_WP:	0.000	Y_WP:	0.000	Y_WP:	0.500	X:	0.099	Y:	0.095	Z:	0.399	yaw:	33.082	yaw rate:	-0.632	Roll:	3.919	Pitch:	0.748	Yaw:	46.192	Thrust:	5.556
Time:	2.172	Roll Set Point:	-0.234	Pitch Set Point:	-0.121	Yaw Set Point:	-0.578	X_WP:	0.000	Y_WP:	0.000	Y_WP:	0.500	X:	0.099	Y:	0.095	Z:	0.399	yaw:	33.095	yaw rate:	-2.470	Roll:	3.951	Pitch:	0.724	Yaw:	46.599	Thrust:	5.665
Time:	2.188	Roll Set Point:	-0.234	Pitch Set Point:	-0.121	Yaw Set Point:	-0.578	X_WP:	0.000	Y_WP:	0.000	Y_WP:	0.500	X:	0.099	Y:	0.095	Z:	0.399	yaw:	33.110	yaw rate:	1.535	Roll:	3.931	Pitch:	0.740	Yaw:	46.850	Thrust:	6.064
Time:	2.204	Roll Set Point:	-0.234	Pitch Set Point:	-0.121	Yaw Set Point:	-0.578	X_WP:	0.000	Y_WP:	0.000	Y_WP:	0.500	X:	0.099	Y:	0.095	Z:	0.399	yaw:	33.101	yaw rate:	-0.950	Roll:	3.917	Pitch:	0.745	Yaw:	46.618	Thrust:	6.138
Time:	2.228	Roll Set Point:	-0.234	Pitch Set Point:	-0.121	Yaw Set Point:	-0.578	X_WP:	0.000	Y_WP:	0.000	Y_WP:	0.500	X:	0.099	Y:	0.095	Z:	0.399	yaw:	33.093	yaw rate:	1.026	Roll:	3.954	Pitch:	0.773	Yaw:	47.219	Thrust:	6.637
Time:	2.243	Roll Set Point:	-0.234	Pitch Set Point:	-0.121	Yaw Set Point:	-0.577	X_WP:	0.000	Y_WP:	0.000	Y_WP:	0.500	X:	0.099	Y:	0.095	Z:	0.399	yaw:	33.079	yaw rate:	-1.467	Roll:	3.957	Pitch:	0.735	Yaw:	46.846	Thrust:	6.371
Time:	2.259	Roll Set Point:	-0.234	Pitch Set Point:	-0.121	Yaw Set Point:	-0.577	X_WP:	0.000	Y_WP:	0.000	Y_WP:	0.500	X:	0.099	Y:	0.095	Z:	0.399	yaw:	33.047	yaw rate:	-3.202	Roll:	3.921	Pitch:	0.861	Yaw:	46.689	Thrust:	6.796
Time:	2.276	Roll Set Point:	-0.234	Pitch Set Point:	-0.121	Yaw Set Point:	-0.577	X_WP:	0.000	Y_WP:	0.000	Y_WP:	0.500	X:	0.099	Y:	0.095	Z:	0.399	yaw:	33.047	yaw rate:	-3.202	Roll:	3.956	Pitch:	0.757	Yaw:	47.430	Thrust:	6.906
Time:	2.292	Roll Set Point:	-0.234	Pitch Set Point:	-0.121	Yaw Set Point:	-0.578	X_WP:	0.000	Y_WP:	0.000	Y_WP:	0.500	X:	0.099	Y:	0.095	Z:	0.399	yaw:	33.109	yaw rate:	0.627	Roll:	3.988	Pitch:	0.637	Yaw:	48.757	Thrust:	7.422
Time:	2.309	Roll Set Point:	-0.234	Pitch Set Point:	-0.121	Yaw Set Point:	-0.577	X_WP:	0.000	Y_WP:	0.000	Y_WP:	0.500	X:	0.099	Y:	0.095	Z:	0.399	yaw:	33.070	yaw rate:	-3.901	Roll:	3.954	Pitch:	0.784	Yaw:	47.243	Thrust:	7.007
Time:	2.324	Roll Set Point:	-0.234	Pitch Set Point:	-0.121	Yaw Set Point:	-0.578	X_WP:	0.000	Y_WP:	0.000	Y_WP:	0.500	X:	0.099	Y:	0.095	Z:	0.399	yaw:	33.089	yaw rate:	1.970	Roll:	3.982	Pitch:	0.805	Yaw:	48.093	Thrust:	7.797
Time:	2.340	Roll Set Point:	-0.234	Pitch Set Point:	-0.121	Yaw Set Point:	-0.577	X_WP:	0.000	Y_WP:	0.000	Y_WP:	0.500	X:	0.099	Y:	0.095	Z:	0.399	yaw:	33.051	yaw rate:	-3.844	Roll:	3.961	Pitch:	0.721	Yaw:	47.067	Thrust:	7.354
Time:	2.356	Roll Set Point:	-0.234	Pitch Set Point:	-0.121	Yaw Set Point:	-0.577	X_WP:	0.000	Y_WP:	0.000	Y_WP:	0.500	X:	0.099	Y:	0.095	Z:	0.399	yaw:	33.049	yaw rate:	-0.183	Roll:	3.988	Pitch:	0.823	Yaw:	47.678	Thrust:	7.897
Time:	2.371	Roll Set Point:	-0.234	Pitch Set Point:	-0.121	Yaw Set Point:	-0.577	X_WP:	0.000	Y_WP:	0.000	Y_WP:	0.500	X:	0.099	Y:	0.095	Z:	0.399	yaw:	33.088	yaw rate:	3.844	Roll:	3.777	Pitch:	0.620	Yaw:	48.406	Thrust:	7.767
Time:	2.387	Roll Set Point:	-0.234	Pitch Set Point:	-0.121	Yaw Set Point:	-0.578	X_WP:	0.000	Y_WP:	0.000	Y_WP:	0.500	X:	0.099	Y:	0.095	Z:	0.399	yaw:	33.096	yaw rate:	0.856	Roll:	4.010	Pitch:	0.710	Yaw:	47.917	Thrust:	8.125
Time:	2.402	Roll Set Point:	-0.234	Pitch Set Point:	-0.121	Yaw Set Point:	-0.577	X_WP:	0.000	Y_WP:	0.000	Y_WP:	0.500	X:	0.099	Y:	0.095	Z:	0.399	yaw:	33.064	yaw rate:	-3.245	Roll:	4.181	Pitch:	0.909	Yaw:	47.185	Thrust:	8.751
Time:	2.418	Roll Set Point:	-0.234	Pitch Set Point:	-0.121	Yaw Set Point:	-0.577	X_WP:	0.000	Y_WP:	0.000	Y_WP:	0.500	X:	0.099	Y:	0.095	Z:	0.399	yaw:	33.064	yaw rate:	-3.245	Roll:	4.003	Pitch:	0.764	Yaw:	47.728	Thrust:	8.584
Time:	2.434	Roll Set Point:	-0.234	Pitch Set Point:	-0.121	Yaw Set Point:	-0.577	X_WP:	0.000	Y_WP:	0.000	Y_WP:	0.500	X:	0.099	Y:	0.095	Z:	0.399	yaw:	33.077	yaw rate:	0.093	Roll:	4.004	Pitch:	0.803	Yaw:	47.960	Thrust:	8.762
Time:	2.449	Roll Set Point:	-0.234	Pitch Set Point:	-0.121	Yaw Set Point:	-0.577	X_WP:	0.000	Y_WP:	0.000	Y_WP:	0.500	X:	0.099	Y:	0.095	Z:	0.399	yaw:	33.067	yaw rate:	-0.955	Roll:	4.030	Pitch:	0.753	Yaw:	47.573	Thrust:	8.976
Time:	2.465	Roll Set Point:	-0.234	Pitch Set Point:	-0.121	Yaw Set Point:	-0.578	X_WP:	0.000	Y_WP:	0.000	Y_WP:	0.500	X:	0.099	Y:	0.095	Z:	0.399	yaw:	33.111	yaw rate:	4.449	Roll:	4.025	Pitch:	0.700	Yaw:	48.540	Thrust:	9.344
Time:	2.481	Roll Set Point:	-0.234	Pitch Set Point:	-0.121	Yaw Set Point:	-0.577	X_WP:	0.000	Y_WP:	0.000	Y_WP:	0.500	X:	0.099	Y:	0.095	Z:	0.399	yaw:	33.078	yaw rate:	-3.371	Roll:	4.019	Pitch:	0.754	Yaw:	47.183	Thrust:	9.134
Time:	2.496	Roll Set Point:	-0.234	Pitch Set Point:	-0.121	Yaw Set Point:	-0.577	X_WP:	0.000	Y_WP:	0.000	Y_WP:	0.500	X:	0.099	Y:	0.095	Z:	0.399	yaw:	33.066	yaw rate:	-1.184	Roll:	4.019	Pitch:	0.841	Yaw:	47.533	Thrust:	9.535
Time:	2.512	Roll Set Point:	-0.234	Pitch Set Point:	-0.121	Yaw Set Point:	-0.578	X_WP:	0.000	Y_WP:	0.000	Y_WP:	0.500	X:	0.099	Y:	0.095	Z:	0.399	yaw:	33.126	yaw rate:	6.052	Roll:	4.066	Pitch:	0.699	Yaw:	48.830	Thrust:	9.871
Time:	2.527	Roll Set Point:	-0.234	Pitch Set Point:	-0.121	Yaw Set Point:	-0.578	X_WP:	0.000	Y_WP:	0.000	Y_WP:	0.500	X:	0.099	Y:	0.095	Z:	0.399	yaw:	33.126	yaw rate:	6.052	Roll:	4.041	Pitch:	0.770	Yaw:	47.816	Thrust:	9.913
Time:	2.543	Roll Set Point:	-0.234	Pitch Set Point:	-0.121	Yaw Set Point:	-0.578	X_WP:	0.000	Y_WP:	0.000	Y_WP:	0.500	X:	0.099	Y:	0.095	Z:	0.399	yaw:	33.102	yaw rate:	-2.423	Roll:	4.029	Pitch:	0.822	Yaw:	47.376	Thrust:	10.060
Time:	2.559	Roll Set Point:	-0.234	Pitch Set Point:	-0.121	Yaw Set Point:	-0.578	X_WP:	0.000	Y_WP:	0.000	Y_WP:	0.500	X:	0.099	Y:	0.095	Z:	0.399	yaw:	33.131	yaw rate:	6.280	Roll:	4.074	Pitch:	0.732	Yaw:	48.298	Thrust:	10.524
Time:	2.574	Roll Set Point:	-0.234	Pitch Set Point:	-0.121	Yaw Set Point:	-0.578	X_WP:	0.000	Y_WP:	0.000	Y_WP:	0.500	X:	0.099	Y:	0.095	Z:	0.399	yaw:	33.089	yaw rate:	-4.167	Roll:	3.814	Pitch:	0.694	Yaw:	47.065	Thrust:	9.798
Time:	2.590	Roll Set Point:	-0.234	Pitch Set Point:	-0.121	Yaw Set Point:	-0.578	X_WP:	0.000	Y_WP:	0.000	Y_WP:	0.500	X:	0.099	Y:	0.095	Z:	0.399	yaw:	33.089	yaw rate:	-4.167	Roll:	4.056	Pitch:	0.772	Yaw:	47.764	Thrust:	10.661
Time:	2.606	Roll Set Point:	-0.234	Pitch Set Point:	-0.121	Yaw Set Point:	-0.577	X_WP:	0.000	Y_WP:	0.000	Y_WP:	0.500	X:	0.099	Y:	0.095	Z:	0.399	yaw:	33.086	yaw rate:	-0.588	Roll:	4.276	Pitch:	0.847	Yaw:	47.718	Thrust:	11.167
Time:	2.621	Roll Set Point:	-0.234	Pitch Set Point:	-0.121	Yaw Set Point:	-0.577	X_WP:	0.000	Y_WP:	0.000	Y_WP:	0.500	X:	0.099	Y:	0.095	Z:	0.399	yaw:	33.071	yaw rate:	-1.548	Roll:	4.071	Pitch:	0.782	Yaw:	47.479	Thrust:	11.033
Time:	2.637	Roll Set Point:	-0.234	Pitch Set Point:	-0.121	Yaw Set Point:	-0.577	X_WP:	0.000	Y_WP:	0.000	Y_WP:	0.500	X:	0.099	Y:	0.095	Z:	0.399	yaw:	33.085	yaw rate:	1.357	Roll:	4.062	Pitch:	0.839	Yaw:	47.985	Thrust:	11.369
Time:	2.652	Roll Set Point:	-0.234	Pitch Set Point:	-0.121	Yaw Set Point:	-0.577	X_WP:	0.000	Y_WP:	0.000	Y_WP:	0.500	X:	0.099	Y:	0.095	Z:	0.399	yaw:	33.047	yaw rate:	-3.729	Roll:	4.077	Pitch:	0.811	Yaw:	47.081	Thrust:	11.311
Time:	2.668	Roll Set Point:	-0.234	Pitch Set Point:	-0.121	Yaw Set Point:	-0.578	X_WP:	0.000	Y_WP:	0.000	Y_WP:	0.500	X:	0.099	Y:	0.095	Z:	0.399	yaw:	33.090	yaw rate:	4.323	Roll:	4.113	Pitch:	0.723	Yaw:	48.490	Thrust:	11.680
Time:	2.684	Roll Set Point:	-0.234	Pitch Set Point:	-0.121	Yaw Set Point:	-0.577	X_WP:	0.000	Y_WP:	0.000	Y_WP:	0.500	X:	0.099	Y:	0.095	Z:	0.399	yaw:	33.084	yaw rate:	-0.623	Roll:	4.096	Pitch:	0.752	Yaw:	47.652	Thrust:	11.820
Time:	2.699	Roll Set Point:	-0.234	Pitch Set Point:	-0.121	Yaw Set Point:	-0.577	X_WP:	0.000	Y_WP:	0.000	Y_WP:	0.500	X:	0.099	Y:	0.095	Z:	0.399	yaw:	33.067	yaw rate:	-1.726	Roll:	4.082	Pitch:	0.824	Yaw:	47.444	Thrust:	11.931
Time:	2.715	Roll Set Point:	-0.234	Pitch Set Point:	-0.121	Yaw Set Point:	-0.578	X_WP:	0.000	Y_WP:	0.000	Y_WP:	0.500	X:	0.099	Y:	0.095	Z:	0.399	yaw:	33.098	yaw rate:	3.091	Roll:	4.115	Pitch:	0.769	Yaw:	48.294	Thrust:	12.338
Time:	2.731	Roll Set Point:	-0.234	Pitch Set Point:	-0.121	Yaw Set Point:	-0.577	X_WP:	0.000	Y_WP:	0.000	Y_WP:	0.500	X:	0.099	Y:	0.095	Z:	0.399	yaw:	33.050	yaw rate:	-4.783	Roll:	4.092	Pitch:	0.814	Yaw:	46.908	Thrust:	12.137
Time:	2.746	Roll Set Point:	-0.234	Pitch Set Point:	-0.121	Yaw Set Point:	-0.578	X_WP:	0.000	Y_WP:	0.000	Y_WP:	0.500	X:	0.099	Y:	0.095	Z:	0.399	yaw:	33.098	yaw rate:	4.808	Roll:	3.922	Pitch:	0.617	Yaw:	48.582	Thrust:	12.366
Time:	2.762	Roll Set Point:	-0.234	Pitch Set Point:	-0.121	Yaw Set Point:	-0.578	X_WP:	0.000	Y_WP:	0.000	Y_WP:	0.500	X:	0.099	Y:	0.095	Z:	0.399	yaw:	33.098	yaw rate:	4.808	Roll:	4.114	Pitch:	0.783	Yaw:	47.776	Thrust:	12.745
Time:	2.777	Roll Set Point:	-0.234	Pitch Set Point:	-0.121	Yaw Set Point:	-0.577	X_WP:	0.000	Y_WP:	0.000	Y_WP:	0.500	X:	0.099	Y:	0.095	Z:	0.399	yaw:	33.066	yaw rate:	-3.207	Roll:	4.302	Pitch:	0.972	Yaw:	47.194	Thrust:	13.281
Time:	2.793	Roll Set Point:	-0.234	Pitch Set Point:	-0.121	Yaw Set Point:	-0.577	X_WP:	0.000	Y_WP:	0.000	Y_WP:	0.500	X:	0.099	Y:	0.095	Z:	0.399	yaw:	33.047	yaw rate:	-1.877	Roll:	4.129	Pitch:	0.808	Yaw:	47.391	Thrust:	13.057
Time:	2.809	Roll Set Point:	-0.234	Pitch Set Point:	-0.121	Yaw Set Point:	-0.577	X_WP:	0.000	Y_WP:	0.000	Y_WP:	0.500	X:	0.099	Y:	0.095	Z:	0.399	yaw:	33.085	yaw rate:	-1.274	Roll:	4.164	Pitch:	0.725	Yaw:	48.383	Thrust:	13.412
Time:	2.824	Roll Set Point:	-0.234	Pitch Set Point:	-0.121	Yaw Set Point:	-0.578	X_WP:	0.000	Y_WP:	0.000	Y_WP:	0.500	X:	0.099	Y:	0.095	Z:	0.399	yaw:	33.097	yaw rate:	1.224	Roll:	3.917	Pitch:	0.640	Yaw:	47.982	Thrust:	13.141
Time:	2.840	Roll Set Point:	-0.234	Pitch Set Point:	-0.121	Yaw Set Point:	-0.577	X_WP:	0.000	Y_WP:	0.000	Y_WP:	0.500	X:	0.099	Y:	0.095	Z:	0.399	yaw:	33.057	yaw rate:	-3.983	Roll:	4.326	Pitch:	1.016	Yaw:	47.048	Thrust:	14.046
Time:	2.856	Roll Set Point:	-0.234	Pitch Set Point:	-0.121	Yaw Set Point:	-0.578	X_WP:	0.000	Y_WP:	0.000	Y_WP:	0.500	X:	0.099	Y:	0.095	Z:	0.399	yaw:	33.113	yaw rate:	5.645	Roll:	4.227	Pitch:	0.649	Yaw:	48.744	Thrust:	13.904
Time:	2.871	Roll Set Point:	-0.234	Pitch Set Point:	-0.121	Yaw Set Point:	-0.578	X_WP:	0.000	Y_WP:	0.000	Y_WP:	0.500	X:	0.099	Y:	0.095	Z:	0.399	yaw:	33.113	yaw rate:	5.645	Roll:	4.158	Pitch:	0.792	Yaw:	47.801	Thrust:	14.095
Time:	2.887	Roll Set Point:	-0.234	Pitch Set Point:	-0.121	Yaw Set Point:	-0.578	X_WP:	0.000	Y_WP:	0.000	Y_WP:	0.500	X:	0.099	Y:	0.095	Z:	0.399	yaw:	33.113	yaw rate:	-0.009	Roll:	4.138	Pitch:	0.869	Yaw:	47.793	Thrust:	14.438
Time:	2.902	Roll Set Point:	-0.234	Pitch Set Point:	-0.121	Yaw Set Point:	-0.577	X_WP:	0.000	Y_WP:	0.000	Y_WP:	0.500	X:	0.099	Y:	0.095	Z:	0.399	yaw:	33.056	yaw rate:	-5.782	Roll:	4.137	Pitch:	0.786	Yaw:	46.748	Thrust:	14.166
Time:	2.918	Roll Set Point:	-0.234	Pitch Set Point:	-0.121	Yaw Set Point:	-0.577	X_WP:	0.000	Y_WP:	0.000	Y_WP:	0.500	X:	0.099	Y:	0.095	Z:	0.399	yaw:	33.056	yaw rate:	-5.782	Roll:	4.173	Pitch:	0.796	Yaw:	47.720	Thrust:	14.662
Time:	2.934	Roll Set Point:	-0.234	Pitch Set Point:	-0.121	Yaw Set Point:	-0.577	X_WP:	0.000	Y_WP:	0.000	Y_WP:	0.500	X:	0.099	Y:	0.095	Z:	0.399	yaw:	33.060	yaw rate:	-1.953	Roll:	4.181	Pitch:	0.855	Yaw:	47.798	Thrust:	14.839
Time:	2.949	Roll Set Point:	-0.234	Pitch Set Point:	-0.121	Yaw Set Point:	-0.577	X_WP:	0.000	Y_WP:	0.000	Y_WP:	0.500	X:	0.099	Y:	0.095	Z:	0.399	yaw:	33.060	yaw rate:	-1.953	Roll:	4.183	Pitch:	0.800	Yaw:	47.723	Thrust:	15.023
Time:	2.965	Roll Set Point:	-0.234	Pitch Set Point:	-0.121	Yaw Set Point:	-0.578	X_WP:	0.000	Y_WP:	0.000	Y_WP:	0.500	X:	0.099	Y:	0.095	Z:	0.399	yaw:	33.100	yaw rate:	3.941	Roll:	4.203	Pitch:	0.692	Yaw:	48.439	Thrust:	15.377
Time:	2.981	Roll Set Point:	-0.234	Pitch Set Point:	-0.121	Yaw Set Point:	-0.578	X_WP:	0.000	Y_WP:	0.000	Y_WP:	0.500	X:	0.099	Y:	0.095	Z:	0.399	yaw:	33.090	yaw rate:	1.994	Roll:	3.965	Pitch:	0.740	Yaw:	47.609	Thrust:	14.971
Time:	2.996	Roll Set Point:	-0.234	Pitch Set Point:	-0.121	Yaw Set Point:	-0.577	X_WP:	0.000	Y_WP:	0.000	Y_WP:	0.500	X:	0.099	Y:	0.095	Z:	0.399	yaw:	33.081	yaw rate:	-0.950	Roll:	4.442	Pitch:	0.902	Yaw:	47.589	Thrust:	15.819
Time:	3.012	Roll Set Point:	-0.234	Pitch Set Point:	-0.121	Yaw Set Point:	-0.577	X_WP:	0.000	Y_WP:	0.000	Y_WP:	0.500	X:	0.099	Y:	0.095	Z:	0.399	yaw:	33.082	yaw rate:	0.118	Roll:	4.171	Pitch:	0.851	Yaw:	47.776	Thrust:	15.928
Time:	3.027	Roll Set Point:	-0.234	Pitch Set Point:	-0.121	Yaw Set Point:	-0.577	X_WP:	0.000	Y_WP:	0.000	Y_WP:	0.500	X:	0.099	Y:	0.095	Z:	0.399	yaw:	33.088	yaw rate:	0.616	Roll:	3.994	Pitch:	0.576	Yaw:	47.863	Thrust:	15.565
Time:	3.043	Roll Set Point:	-0.234	Pitch Set Point:	-0.121	Yaw Set Point:	-0.577	X_WP:	0.000	Y_WP:	0.000	Y_WP:	0.500	X:	0.099	Y:	0.095	Z:	0.399	yaw:	33.088	yaw rate:	0.616	Roll:	4.209	Pitch:	0.799	Yaw:	47.761	Thrust:	16.148
Time:	3.059	Roll Set Point:	-0.234	Pitch Set Point:	-0.121	Yaw Set Point:	-0.578	X_WP:	0.000	Y_WP:	0.000	Y_WP:	0.500	X:	0.099	Y:	0.095	Z:	0.399	yaw:	33.099	yaw rate:	1.069	Roll:	4.434	Pitch:	0.959	Yaw:	47.956	Thrust:	16.817
Time:	3.074	Roll Set Point:	-0.234	Pitch Set Point:	-0.121	Yaw Set Point:	-0.577	X_WP:	0.000	Y_WP:	0.000	Y_WP:	0.500	X:	0.099	Y:	0.095	Z:	0.399	yaw:	33.040	yaw rate:	-4.273	Roll:	4.201	Pitch:	0.919	Yaw:	46.717	Thrust:	16.399
Time:	3.090	Roll Set Point:	-0.234	Pitch Set Point:	-0.121	Yaw Set Point:	-0.578	X_WP:	0.000	Y_WP:	0.000	Y_WP:	0.500	X:	0.099	Y:	0.095	Z:	0.399	yaw:	33.108	yaw rate:	6.805	Roll:	4.254	Pitch:	0.655	Yaw:	48.930	Thrust:	16.854
Time:	3.106	Roll Set Point:	-0.234	Pitch Set Point:	-0.121	Yaw Set Point:	-0.578	X_WP:	0.000	Y_WP:	0.000	Y_WP:	0.500	X:	0.099	Y:	0.095	Z:	0.399	yaw:	33.110	yaw rate:	0.209	Roll:	4.252	Pitch:	0.859	Yaw:	47.828	Thrust:	16.952
Time:	3.121	Roll Set Point:	-0.234	Pitch Set Point:	-0.121	Yaw Set Point:	-0.577	X_WP:	0.000	Y_WP:	0.000	Y_WP:	0.500	X:	0.099	Y:	0.095	Z:	0.399	yaw:	33.087	yaw rate:	-2.361	Roll:	4.232	Pitch:	0.842	Yaw:	47.365	Thrust:	16.901
Time:	3.139	Roll Set Point:	-0.234	Pitch Set Point:	-0.121	Yaw Set Point:	-0.577	X_WP:	0.000	Y_WP:	0.000	Y_WP:	0.500	X:	0.099	Y:	0.095	Z:	0.399	yaw:	33.062	yaw rate:	-2.452	Roll:	4.297	Pitch:	0.839	Yaw:	47.547	Thrust:	18.650
Time:	3.157	Roll Set Point:	-0.234	Pitch Set Point:	-0.121	Yaw Set Point:	-0.578	X_WP:	0.000	Y_WP:	0.000	Y_WP:	0.500	X:	0.099	Y:	0.095	Z:	0.399	yaw:	33.102	yaw rate:	3.975	Roll:	4.295	Pitch:	0.722	Yaw:	48.596	Thrust:	19.412
Time:	3.173	Roll Set Point:	-0.234	Pitch Set Point:	-0.121	Yaw Set Point:	-0.577	X_WP:	0.000	Y_WP:	0.000	Y_WP:	0.500	X:	0.099	Y:	0.095	Z:	0.399	yaw:	33.063	yaw rate:	-3.843	Roll:	4.244	Pitch:	0.901	Yaw:	47.142	Thrust:	17.967
Time:	3.192	Roll Set Point:	-0.234	Pitch Set Point:	-0.121	Yaw Set Point:	-0.577	X_WP:	0.000	Y_WP:	0.000	Y_WP:	0.500	X:	0.099	Y:	0.095	Z:	0.399	yaw:	33.063	yaw rate:	-3.843	Roll:	4.330	Pitch:	0.827	Yaw:	48.040	Thrust:	20.327
Time:	3.207	Roll Set Point:	-0.234	Pitch Set Point:	-0.121	Yaw Set Point:	-0.578	X_WP:	0.000	Y_WP:	0.000	Y_WP:	0.500	X:	0.099	Y:	0.095	Z:	0.399	yaw:	33.096	yaw rate:	3.309	Roll:	4.086	Pitch:	0.686	Yaw:	48.327	Thrust:	17.677
Time:	3.223	Roll Set Point:	-0.234	Pitch Set Point:	-0.121	Yaw Set Point:	-0.577	X_WP:	0.000	Y_WP:	0.000	Y_WP:	0.500	X:	0.099	Y:	0.095	Z:	0.399	yaw:	33.074	yaw rate:	-2.273	Roll:	4.448	Pitch:	0.902	Yaw:	47.361	Thrust:	18.593
Time:	3.238	Roll Set Point:	-0.234	Pitch Set Point:	-0.121	Yaw Set Point:	-0.578	X_WP:	0.000	Y_WP:	0.000	Y_WP:	0.500	X:	0.099	Y:	0.095	Z:	0.399	yaw:	33.092	yaw rate:	0.002	Roll:	4.304	Pitch:	0.843	Yaw:	48.068	Thrust:	18.468
Time:	3.254	Roll Set Point:	-0.234	Pitch Set Point:	-0.121	Yaw Set Point:	-0.578	X_WP:	0.000	Y_WP:	0.000	Y_WP:	0.500	X:	0.099	Y:	0.095	Z:	0.399	yaw:	33.107	yaw rate:	1.513	Roll:	4.291	Pitch:	0.810	Yaw:	48.042	Thrust:	18.775
Time:	3.270	Roll Set Point:	-0.234	Pitch Set Point:	-0.121	Yaw Set Point:	-0.577	X_WP:	0.000	Y_WP:	0.000	Y_WP:	0.500	X:	0.099	Y:	0.095	Z:	0.399	yaw:	33.050	yaw rate:	-5.675	Roll:	4.238	Pitch:	0.863	Yaw:	46.758	Thrust:	18.645
Time:	3.285	Roll Set Point:	-0.234	Pitch Set Point:	-0.121	Yaw Set Point:	-0.577	X_WP:	0.000	Y_WP:	0.000	Y_WP:	0.500	X:	0.099	Y:	0.095	Z:	0.399	yaw:	33.084	yaw rate:	3.440	Roll:	4.319	Pitch:	0.764	Yaw:	48.334	Thrust:	18.966
Time:	3.301	Roll Set Point:	-0.234	Pitch Set Point:	-0.121	Yaw Set Point:	-0.577	X_WP:	0.000	Y_WP:	0.000	Y_WP:	0.500	X:	0.099	Y:	0.095	Z:	0.399	yaw:	33.078	yaw rate:	-0.660	Roll:	4.105	Pitch:	0.747	Yaw:	47.638	Thrust:	18.866
Time:	3.317	Roll Set Point:	-0.234	Pitch Set Point:	-0.121	Yaw Set Point:	-0.577	X_WP:	0.000	Y_WP:	0.000	Y_WP:	0.500	X:	0.099	Y:	0.095	Z:	0.399	yaw:	33.039	yaw rate:	-3.930	Roll:	4.478	Pitch:	1.008	Yaw:	47.034	Thrust:	19.617
Time:	3.332	Roll Set Point:	-0.234	Pitch Set Point:	-0.121	Yaw Set Point:	-0.578	X_WP:	0.000	Y_WP:	0.000	Y_WP:	0.500	X:	0.099	Y:	0.095	Z:	0.399	yaw:	33.114	yaw rate:	7.509	Roll:	4.343	Pitch:	0.616	Yaw:	49.057	Thrust:	19.728
Time:	3.348	Roll Set Point:	-0.234	Pitch Set Point:	-0.121	Yaw Set Point:	-0.578	X_WP:	0.000	Y_WP:	0.000	Y_WP:	0.500	X:	0.099	Y:	0.095	Z:	0.399	yaw:	33.114	yaw rate:	7.509	Roll:	4.314	Pitch:	0.821	Yaw:	47.795	Thrust:	19.730
Time:	3.363	Roll Set Point:	-0.234	Pitch Set Point:	-0.121	Yaw Set Point:	-0.577	X_WP:	0.000	Y_WP:	0.000	Y_WP:	0.500	X:	0.099	Y:	0.095	Z:	0.399	yaw:	33.087	yaw rate:	1.314	Roll:	4.328	Pitch:	0.960	Yaw:	47.311	Thrust:	19.824
Time:	3.379	Roll Set Point:	-0.234	Pitch Set Point:	-0.121	Yaw Set Point:	-0.578	X_WP:	0.000	Y_WP:	0.000	Y_WP:	0.500	X:	0.099	Y:	0.095	Z:	0.399	yaw:	33.092	yaw rate:	0.568	Roll:	4.307	Pitch:	0.856	Yaw:	47.864	Thrust:	20.298
Time:	3.395	Roll Set Point:	-0.234	Pitch Set Point:	-0.121	Yaw Set Point:	-0.578	X_WP:	0.000	Y_WP:	0.000	Y_WP:	0.500	X:	0.099	Y:	0.095	Z:	0.399	yaw:	33.091	yaw rate:	-0.191	Roll:	4.315	Pitch:	0.738	Yaw:	47.737	Thrust:	20.353
Time:	3.410	Roll Set Point:	-0.234	Pitch Set Point:	-0.121	Yaw Set Point:	-0.578	X_WP:	0.000	Y_WP:	0.000	Y_WP:	0.500	X:	0.099	Y:	0.095	Z:	0.399	yaw:	33.091	yaw rate:	-0.191	Roll:	4.335	Pitch:	0.827	Yaw:	47.763	Thrust:	20.488
Time:	3.426	Roll Set Point:	-0.234	Pitch Set Point:	-0.121	Yaw Set Point:	-0.577	X_WP:	0.000	Y_WP:	0.000	Y_WP:	0.500	X:	0.099	Y:	0.095	Z:	0.399	yaw:	33.087	yaw rate:	-0.377	Roll:	4.360	Pitch:	0.795	Yaw:	47.697	Thrust:	20.708
Time:	3.442	Roll Set Point:	-0.234	Pitch Set Point:	-0.121	Yaw Set Point:	-0.578	X_WP:	0.000	Y_WP:	0.000	Y_WP:	0.500	X:	0.099	Y:	0.095	Z:	0.399	yaw:	33.091	yaw rate:	0.450	Roll:	4.361	Pitch:	0.861	Yaw:	47.845	Thrust:	20.851
Time:	3.457	Roll Set Point:	-0.234	Pitch Set Point:	-0.121	Yaw Set Point:	-0.577	X_WP:	0.000	Y_WP:	0.000	Y_WP:	0.500	X:	0.099	Y:	0.095	Z:	0.399	yaw:	33.076	yaw rate:	-1.525	Roll:	4.355	Pitch:	0.859	Yaw:	47.490	Thrust:	20.939
Time:	3.473	Roll Set Point:	-0.234	Pitch Set Point:	-0.121	Yaw Set Point:	-0.577	X_WP:	0.000	Y_WP:	0.000	Y_WP:	0.500	X:	0.099	Y:	0.095	Z:	0.399	yaw:	33.070	yaw rate:	-1.489	Roll:	4.315	Pitch:	0.818	Yaw:	47.625	Thrust:	21.353
Time:	3.488	Roll Set Point:	-0.234	Pitch Set Point:	-0.121	Yaw Set Point:	-0.578	X_WP:	0.000	Y_WP:	0.000	Y_WP:	0.500	X:	0.099	Y:	0.095	Z:	0.399	yaw:	33.104	yaw rate:	3.432	Roll:	4.402	Pitch:	0.862	Yaw:	48.360	Thrust:	21.607
Time:	3.504	Roll Set Point:	-0.234	Pitch Set Point:	-0.121	Yaw Set Point:	-0.577	X_WP:	0.000	Y_WP:	0.000	Y_WP:	0.500	X:	0.099	Y:	0.095	Z:	0.399	yaw:	33.056	yaw rate:	-4.749	Roll:	4.355	Pitch:	0.860	Yaw:	46.923	Thrust:	21.494
Time:	3.520	Roll Set Point:	-0.234	Pitch Set Point:	-0.121	Yaw Set Point:	-0.577	X_WP:	0.000	Y_WP:	0.000	Y_WP:	0.500	X:	0.099	Y:	0.095	Z:	0.399	yaw:	33.067	yaw rate:	1.039	Roll:	4.357	Pitch:	0.822	Yaw:	47.910	Thrust:	21.946
Time:	3.535	Roll Set Point:	-0.234	Pitch Set Point:	-0.121	Yaw Set Point:	-0.577	X_WP:	0.000	Y_WP:	0.000	Y_WP:	0.500	X:	0.099	Y:	0.095	Z:	0.399	yaw:	33.072	yaw rate:	0.546	Roll:	4.377	Pitch:	0.755	Yaw:	47.829	Thrust:	21.871
Time:	3.551	Roll Set Point:	-0.234	Pitch Set Point:	-0.121	Yaw Set Point:	-0.577	X_WP:	0.000	Y_WP:	0.000	Y_WP:	0.500	X:	0.099	Y:	0.095	Z:	0.399	yaw:	33.056	yaw rate:	-1.657	Roll:	4.405	Pitch:	0.921	Yaw:	47.440	Thrust:	22.170
Time:	3.567	Roll Set Point:	-0.234	Pitch Set Point:	-0.121	Yaw Set Point:	-0.578	X_WP:	0.000	Y_WP:	0.000	Y_WP:	0.500	X:	0.099	Y:	0.095	Z:	0.399	yaw:	33.105	yaw rate:	4.939	Roll:	4.412	Pitch:	0.828	Yaw:	48.615	Thrust:	22.714
Time:	3.582	Roll Set Point:	-0.234	Pitch Set Point:	-0.121	Yaw Set Point:	-0.577	X_WP:	0.000	Y_WP:	0.000	Y_WP:	0.500	X:	0.099	Y:	0.095	Z:	0.399	yaw:	33.081	yaw rate:	-2.366	Roll:	4.148	Pitch:	0.679	Yaw:	47.357	Thrust:	22.070
Time:	3.598	Roll Set Point:	-0.234	Pitch Set Point:	-0.121	Yaw Set Point:	-0.577	X_WP:	0.000	Y_WP:	0.000	Y_WP:	0.500	X:	0.099	Y:	0.095	Z:	0.399	yaw:	33.081	yaw rate:	-2.366	Roll:	4.394	Pitch:	0.836	Yaw:	47.753	Thrust:	22.780
Time:	3.613	Roll Set Point:	-0.234	Pitch Set Point:	-0.121	Yaw Set Point:	-0.578	X_WP:	0.000	Y_WP:	0.000	Y_WP:	0.500	X:	0.099	Y:	0.095	Z:	0.399	yaw:	33.096	yaw rate:	1.566	Roll:	4.657	Pitch:	0.959	Yaw:	48.008	Thrust:	23.336
Time:	3.629	Roll Set Point:	-0.234	Pitch Set Point:	-0.121	Yaw Set Point:	-0.577	X_WP:	0.000	Y_WP:	0.000	Y_WP:	0.500	X:	0.099	Y:	0.095	Z:	0.399	yaw:	33.068	yaw rate:	-2.740	Roll:	4.374	Pitch:	0.904	Yaw:	47.276	Thrust:	23.079
Time:	3.645	Roll Set Point:	-0.234	Pitch Set Point:	-0.121	Yaw Set Point:	-0.577	X_WP:	0.000	Y_WP:	0.000	Y_WP:	0.500	X:	0.099	Y:	0.095	Z:	0.399	yaw:	33.068	yaw rate:	-2.740	Roll:	4.416	Pitch:	0.844	Yaw:	47.738	Thrust:	23.387
Time:	3.660	Roll Set Point:	-0.234	Pitch Set Point:	-0.121	Yaw Set Point:	-0.578	X_WP:	0.000	Y_WP:	0.000	Y_WP:	0.500	X:	0.099	Y:	0.095	Z:	0.399	yaw:	33.106	yaw rate:	3.406	Roll:	4.406	Pitch:	0.759	Yaw:	48.422	Thrust:	23.859
Time:	3.676	Roll Set Point:	-0.234	Pitch Set Point:	-0.121	Yaw Set Point:	-0.578	X_WP:	0.000	Y_WP:	0.000	Y_WP:	0.500	X:	0.099	Y:	0.095	Z:	0.399	yaw:	33.106	yaw rate:	3.406	Roll:	4.426	Pitch:	0.844	Yaw:	47.787	Thrust:	23.738
Time:	3.692	Roll Set Point:	-0.234	Pitch Set Point:	-0.121	Yaw Set Point:	-0.578	X_WP:	0.000	Y_WP:	0.000	Y_WP:	0.500	X:	0.099	Y:	0.095	Z:	0.399	yaw:	33.094	yaw rate:	-1.216	Roll:	4.462	Pitch:	0.876	Yaw:	47.567	Thrust:	23.767
Time:	3.707	Roll Set Point:	-0.234	Pitch Set Point:	-0.121	Yaw Set Point:	-0.578	X_WP:	0.000	Y_WP:	0.000	Y_WP:	0.500	X:	0.099	Y:	0.095	Z:	0.399	yaw:	33.094	yaw rate:	-1.216	Roll:	4.436	Pitch:	0.846	Yaw:	47.767	Thrust:	24.075
Time:	3.723	Roll Set Point:	-0.234	Pitch Set Point:	-0.121	Yaw Set Point:	-0.577	X_WP:	0.000	Y_WP:	0.000	Y_WP:	0.500	X:	0.099	Y:	0.095	Z:	0.399	yaw:	33.074	yaw rate:	2.438	Roll:	4.168	Pitch:	0.731	Yaw:	47.415	Thrust:	23.860
Time:	3.738	Roll Set Point:	-0.234	Pitch Set Point:	-0.121	Yaw Set Point:	-0.577	X_WP:	0.000	Y_WP:	0.000	Y_WP:	0.500	X:	0.099	Y:	0.095	Z:	0.399	yaw:	33.074	yaw rate:	2.438	Roll:	4.440	Pitch:	0.845	Yaw:	47.743	Thrust:	24.486
Time:	3.754	Roll Set Point:	-0.234	Pitch Set Point:	-0.121	Yaw Set Point:	-0.577	X_WP:	0.000	Y_WP:	0.000	Y_WP:	0.500	X:	0.099	Y:	0.095	Z:	0.399	yaw:	33.055	yaw rate:	-4.337	Roll:	4.697	Pitch:	1.044	Yaw:	47.392	Thrust:	24.982
Time:	3.770	Roll Set Point:	-0.234	Pitch Set Point:	-0.121	Yaw Set Point:	-0.577	X_WP:	0.000	Y_WP:	0.000	Y_WP:	0.500	X:	0.099	Y:	0.095	Z:	0.399	yaw:	33.065	yaw rate:	1.028	Roll:	4.445	Pitch:	0.820	Yaw:	47.903	Thrust:	24.974
Time:	3.785	Roll Set Point:	-0.234	Pitch Set Point:	-0.121	Yaw Set Point:	-0.578	X_WP:	0.000	Y_WP:	0.000	Y_WP:	0.500	X:	0.099	Y:	0.095	Z:	0.399	yaw:	33.091	yaw rate:	2.550	Roll:	4.464	Pitch:	0.761	Yaw:	48.193	Thrust:	25.065
Time:	3.801	Roll Set Point:	-0.234	Pitch Set Point:	-0.121	Yaw Set Point:	-0.577	X_WP:	0.000	Y_WP:	0.000	Y_WP:	0.500	X:	0.099	Y:	0.095	Z:	0.399	yaw:	33.050	yaw rate:	-4.071	Roll:	4.460	Pitch:	0.935	Yaw:	47.028	Thrust:	25.121
Time:	3.817	Roll Set Point:	-0.234	Pitch Set Point:	-0.121	Yaw Set Point:	-0.577	X_WP:	0.000	Y_WP:	0.000	Y_WP:	0.500	X:	0.099	Y:	0.095	Z:	0.399	yaw:	33.050	yaw rate:	-4.071	Roll:	4.473	Pitch:	0.855	Yaw:	47.709	Thrust:	25.434
Time:	3.832	Roll Set Point:	-0.234	Pitch Set Point:	-0.121	Yaw Set Point:	-0.577	X_WP:	0.000	Y_WP:	0.000	Y_WP:	0.500	X:	0.099	Y:	0.095	Z:	0.399	yaw:	33.077	yaw rate:	-1.712	Roll:	4.501	Pitch:	0.877	Yaw:	48.189	Thrust:	25.834
Time:	3.848	Roll Set Point:	-0.234	Pitch Set Point:	-0.121	Yaw Set Point:	-0.577	X_WP:	0.000	Y_WP:	0.000	Y_WP:	0.500	X:	0.099	Y:	0.095	Z:	0.399	yaw:	33.077	yaw rate:	-1.712	Roll:	4.484	Pitch:	0.857	Yaw:	47.746	Thrust:	25.820
Time:	3.863	Roll Set Point:	-0.234	Pitch Set Point:	-0.121	Yaw Set Point:	-0.577	X_WP:	0.000	Y_WP:	0.000	Y_WP:	0.500	X:	0.099	Y:	0.095	Z:	0.399	yaw:	33.086	yaw rate:	-0.357	Roll:	4.506	Pitch:	0.793	Yaw:	47.912	Thrust:	25.908
Time:	3.879	Roll Set Point:	-0.234	Pitch Set Point:	-0.121	Yaw Set Point:	-0.577	X_WP:	0.000	Y_WP:	0.000	Y_WP:	0.500	X:	0.099	Y:	0.095	Z:	0.399	yaw:	33.079	yaw rate:	-0.706	Roll:	4.495	Pitch:	0.888	Yaw:	47.631	Thrust:	26.205
Time:	3.895	Roll Set Point:	-0.234	Pitch Set Point:	-0.121	Yaw Set Point:	-0.577	X_WP:	0.000	Y_WP:	0.000	Y_WP:	0.500	X:	0.099	Y:	0.095	Z:	0.399	yaw:	33.082	yaw rate:	0.354	Roll:	4.462	Pitch:	0.836	Yaw:	47.813	Thrust:	26.404
Time:	3.910	Roll Set Point:	-0.234	Pitch Set Point:	-0.121	Yaw Set Point:	-0.577	X_WP:	0.000	Y_WP:	0.000	Y_WP:	0.500	X:	0.099	Y:	0.095	Z:	0.399	yaw:	33.082	yaw rate:	0.354	Roll:	4.504	Pitch:	0.860	Yaw:	47.754	Thrust:	26.575
Time:	3.926	Roll Set Point:	-0.234	Pitch Set Point:	-0.121	Yaw Set Point:	-0.577	X_WP:	0.000	Y_WP:	0.000	Y_WP:	0.500	X:	0.099	Y:	0.095	Z:	0.399	yaw:	33.055	yaw rate:	-2.718	Roll:	4.492	Pitch:	0.885	Yaw:	47.261	Thrust:	26.680
Time:	3.942	Roll Set Point:	-0.234	Pitch Set Point:	-0.121	Yaw Set Point:	-0.578	X_WP:	0.000	Y_WP:	0.000	Y_WP:	0.500	X:	0.099	Y:	0.095	Z:	0.399	yaw:	33.114	yaw rate:	0.142	Roll:	4.567	Pitch:	0.847	Yaw:	48.789	Thrust:	27.231
Time:	3.957	Roll Set Point:	-0.234	Pitch Set Point:	-0.121	Yaw Set Point:	-0.578	X_WP:	0.000	Y_WP:	0.000	Y_WP:	0.500	X:	0.099	Y:	0.095	Z:	0.399	yaw:	33.094	yaw rate:	-1.969	Roll:	4.259	Pitch:	0.736	Yaw:	47.437	Thrust:	26.641
Time:	3.973	Roll Set Point:	-0.234	Pitch Set Point:	-0.121	Yaw Set Point:	-0.577	X_WP:	0.000	Y_WP:	0.000	Y_WP:	0.500	X:	0.099	Y:	0.095	Z:	0.399	yaw:	33.087	yaw rate:	-0.734	Roll:	4.693	Pitch:	0.955	Yaw:	47.638	Thrust:	27.632
Time:	3.988	Roll Set Point:	-0.234	Pitch Set Point:	-0.121	Yaw Set Point:	-0.578	X_WP:	0.000	Y_WP:	0.000	Y_WP:	0.500	X:	0.099	Y:	0.095	Z:	0.399	yaw:	33.101	yaw rate:	1.450	Roll:	4.324	Pitch:	0.721	Yaw:	48.024	Thrust:	27.104
Time:	4.004	Roll Set Point:	-0.234	Pitch Set Point:	-0.121	Yaw Set Point:	-0.577	X_WP:	0.000	Y_WP:	0.000	Y_WP:	0.500	X:	0.099	Y:	0.095	Z:	0.399	yaw:	33.083	yaw rate:	-1.812	Roll:	4.720	Pitch:	1.027	Yaw:	47.452	Thrust:	28.091
Time:	4.020	Roll Set Point:	-0.234	Pitch Set Point:	-0.121	Yaw Set Point:	-0.578	X_WP:	0.000	Y_WP:	0.000	Y_WP:	0.500	X:	0.099	Y:	0.095	Z:	0.399	yaw:	33.100	yaw rate:	1.663	Roll:	4.500	Pitch:	0.802	Yaw:	48.058	Thrust:	27.938
Time:	4.035	Roll Set Point:	-0.234	Pitch Set Point:	-0.121	Yaw Set Point:	-0.578	X_WP:	0.000	Y_WP:	0.000	Y_WP:	0.500	X:	0.099	Y:	0.095	Z:	0.399	yaw:	33.129	yaw rate:	2.856	Roll:	4.502	Pitch:	0.874	Yaw:	48.297	Thrust:	28.219
Time:	4.051	Roll Set Point:	-0.234	Pitch Set Point:	-0.121	Yaw Set Point:	-0.578	X_WP:	0.000	Y_WP:	0.000	Y_WP:	0.500	X:	0.099	Y:	0.095	Z:	0.399	yaw:	33.129	yaw rate:	2.856	Roll:	4.505	Pitch:	0.867	Yaw:	47.819	Thrust:	28.289
Time:	4.067	Roll Set Point:	-0.234	Pitch Set Point:	-0.121	Yaw Set Point:	-0.577	X_WP:	0.000	Y_WP:	0.000	Y_WP:	0.500	X:	0.099	Y:	0.095	Z:	0.399	yaw:	33.064	yaw rate:	-3.677	Roll:	4.482	Pitch:	0.976	Yaw:	46.639	Thrust:	28.231
Time:	4.082	Roll Set Point:	-0.234	Pitch Set Point:	-0.121	Yaw Set Point:	-0.577	X_WP:	0.000	Y_WP:	0.000	Y_WP:	0.500	X:	0.099	Y:	0.095	Z:	0.399	yaw:	33.064	yaw rate:	-3.677	Roll:	4.505	Pitch:	0.872	Yaw:	47.728	Thrust:	28.658
Time:	4.098	Roll Set Point:	-0.234	Pitch Set Point:	-0.121	Yaw Set Point:	-0.577	X_WP:	0.000	Y_WP:	0.000	Y_WP:	0.500	X:	0.099	Y:	0.095	Z:	0.399	yaw:	33.088	yaw rate:	2.421	Roll:	4.521	Pitch:	0.805	Yaw:	48.167	Thrust:	28.855
Time:	4.113	Roll Set Point:	-0.234	Pitch Set Point:	-0.121	Yaw Set Point:	-0.577	X_WP:	0.000	Y_WP:	0.000	Y_WP:	0.500	X:	0.099	Y:	0.095	Z:	0.399	yaw:	33.076	yaw rate:	-1.557	Roll:	4.513	Pitch:	0.951	Yaw:	47.544	Thrust:	29.116
Time:	4.129	Roll Set Point:	-0.234	Pitch Set Point:	-0.121	Yaw Set Point:	-0.577	X_WP:	0.000	Y_WP:	0.000	Y_WP:	0.500	X:	0.099	Y:	0.095	Z:	0.399	yaw:	33.086	yaw rate:	1.022	Roll:	4.500	Pitch:	0.860	Yaw:	47.931	Thrust:	29.271
Time:	4.157	Roll Set Point:	-0.234	Pitch Set Point:	-0.121	Yaw Set Point:	-0.578	X_WP:	0.000	Y_WP:	0.000	Y_WP:	0.500	X:	0.099	Y:	0.095	Z:	0.399	yaw:	33.135	yaw rate:	4.928	Roll:	4.967	Pitch:	0.902	Yaw:	49.484	Thrust:	47.625
Time:	4.172	Roll Set Point:	-0.234	Pitch Set Point:	-0.121	Yaw Set Point:	-0.577	X_WP:	0.000	Y_WP:	0.000	Y_WP:	0.500	X:	0.099	Y:	0.095	Z:	0.399	yaw:	33.081	yaw rate:	0.587	Roll:	4.455	Pitch:	0.978	Yaw:	46.850	Thrust:	29.445
Time:	4.188	Roll Set Point:	-0.234	Pitch Set Point:	-0.121	Yaw Set Point:	-0.578	X_WP:	0.000	Y_WP:	0.000	Y_WP:	0.500	X:	0.099	Y:	0.095	Z:	0.399	yaw:	33.116	yaw rate:	3.441	Roll:	4.557	Pitch:	0.834	Yaw:	48.377	Thrust:	29.946
Time:	4.203	Roll Set Point:	-0.234	Pitch Set Point:	-0.121	Yaw Set Point:	-0.578	X_WP:	0.000	Y_WP:	0.000	Y_WP:	0.500	X:	0.099	Y:	0.095	Z:	0.399	yaw:	33.097	yaw rate:	-1.831	Roll:	4.483	Pitch:	0.873	Yaw:	47.469	Thrust:	29.805
Time:	4.219	Roll Set Point:	-0.234	Pitch Set Point:	-0.121	Yaw Set Point:	-0.577	X_WP:	0.000	Y_WP:	0.000	Y_WP:	0.500	X:	0.099	Y:	0.095	Z:	0.399	yaw:	33.078	yaw rate:	-1.903	Roll:	4.495	Pitch:	0.902	Yaw:	47.430	Thrust:	30.209
Time:	4.235	Roll Set Point:	-0.234	Pitch Set Point:	-0.121	Yaw Set Point:	-0.578	X_WP:	0.000	Y_WP:	0.000	Y_WP:	0.500	X:	0.099	Y:	0.095	Z:	0.399	yaw:	33.089	yaw rate:	1.083	Roll:	4.310	Pitch:	0.743	Yaw:	47.945	Thrust:	30.022
Time:	4.250	Roll Set Point:	-0.234	Pitch Set Point:	-0.121	Yaw Set Point:	-0.577	X_WP:	0.000	Y_WP:	0.000	Y_WP:	0.500	X:	0.099	Y:	0.095	Z:	0.399	yaw:	33.081	yaw rate:	-0.787	Roll:	4.701	Pitch:	1.013	Yaw:	47.621	Thrust:	30.733
Time:	4.266	Roll Set Point:	-0.234	Pitch Set Point:	-0.121	Yaw Set Point:	-0.577	X_WP:	0.000	Y_WP:	0.000	Y_WP:	0.500	X:	0.099	Y:	0.095	Z:	0.399	yaw:	33.081	yaw rate:	-0.787	Roll:	4.505	Pitch:	0.882	Yaw:	47.753	Thrust:	30.740
Time:	4.282	Roll Set Point:	-0.234	Pitch Set Point:	-0.121	Yaw Set Point:	-0.578	X_WP:	0.000	Y_WP:	0.000	Y_WP:	0.500	X:	0.099	Y:	0.095	Z:	0.399	yaw:	33.098	yaw rate:	1.611	Roll:	4.287	Pitch:	0.735	Yaw:	48.048	Thrust:	30.770
Time:	4.297	Roll Set Point:	-0.234	Pitch Set Point:	-0.121	Yaw Set Point:	-0.578	X_WP:	0.000	Y_WP:	0.000	Y_WP:	0.500	X:	0.099	Y:	0.095	Z:	0.399	yaw:	33.089	yaw rate:	0.550	Roll:	4.699	Pitch:	1.082	Yaw:	47.612	Thrust:	31.548
Time:	4.313	Roll Set Point:	-0.234	Pitch Set Point:	-0.121	Yaw Set Point:	-0.577	X_WP:	0.000	Y_WP:	0.000	Y_WP:	0.500	X:	0.099	Y:	0.095	Z:	0.399	yaw:	33.069	yaw rate:	-1.970	Roll:	4.516	Pitch:	0.830	Yaw:	47.405	Thrust:	31.096
Time:	4.329	Roll Set Point:	-0.234	Pitch Set Point:	-0.121	Yaw Set Point:	-0.577	X_WP:	0.000	Y_WP:	0.000	Y_WP:	0.500	X:	0.099	Y:	0.095	Z:	0.399	yaw:	33.040	yaw rate:	-2.874	Roll:	4.482	Pitch:	0.961	Yaw:	47.218	Thrust:	31.581
Time:	4.344	Roll Set Point:	-0.234	Pitch Set Point:	-0.121	Yaw Set Point:	-0.577	X_WP:	0.000	Y_WP:	0.000	Y_WP:	0.500	X:	0.099	Y:	0.095	Z:	0.399	yaw:	33.040	yaw rate:	-2.874	Roll:	4.503	Pitch:	0.889	Yaw:	47.692	Thrust:	31.632
Time:	4.360	Roll Set Point:	-0.234	Pitch Set Point:	-0.121	Yaw Set Point:	-0.578	X_WP:	0.000	Y_WP:	0.000	Y_WP:	0.500	X:	0.099	Y:	0.095	Z:	0.399	yaw:	33.102	yaw rate:	6.212	Roll:	4.527	Pitch:	0.824	Yaw:	48.823	Thrust:	31.982
Time:	4.375	Roll Set Point:	-0.234	Pitch Set Point:	-0.121	Yaw Set Point:	-0.578	X_WP:	0.000	Y_WP:	0.000	Y_WP:	0.500	X:	0.099	Y:	0.095	Z:	0.399	yaw:	33.098	yaw rate:	2.895	Roll:	4.524	Pitch:	0.887	Yaw:	47.698	Thrust:	32.094
Time:	4.391	Roll Set Point:	-0.234	Pitch Set Point:	-0.121	Yaw Set Point:	-0.577	X_WP:	0.000	Y_WP:	0.000	Y_WP:	0.500	X:	0.099	Y:	0.095	Z:	0.399	yaw:	33.068	yaw rate:	-2.963	Roll:	4.475	Pitch:	0.909	Yaw:	47.235	Thrust:	32.165
Time:	4.407	Roll Set Point:	-0.234	Pitch Set Point:	-0.121	Yaw Set Point:	-0.577	X_WP:	0.000	Y_WP:	0.000	Y_WP:	0.500	X:	0.099	Y:	0.095	Z:	0.399	yaw:	33.078	yaw rate:	0.996	Roll:	4.507	Pitch:	0.837	Yaw:	47.915	Thrust:	32.355
Time:	4.422	Roll Set Point:	-0.234	Pitch Set Point:	-0.121	Yaw Set Point:	-0.578	X_WP:	0.000	Y_WP:	0.000	Y_WP:	0.500	X:	0.099	Y:	0.095	Z:	0.399	yaw:	33.096	yaw rate:	1.798	Roll:	4.524	Pitch:	0.892	Yaw:	48.074	Thrust:	32.750
Time:	4.438	Roll Set Point:	-0.234	Pitch Set Point:	-0.121	Yaw Set Point:	-0.577	X_WP:	0.000	Y_WP:	0.000	Y_WP:	0.500	X:	0.099	Y:	0.095	Z:	0.399	yaw:	33.072	yaw rate:	-2.375	Roll:	4.501	Pitch:	0.985	Yaw:	47.342	Thrust:	32.772
Time:	4.454	Roll Set Point:	-0.234	Pitch Set Point:	-0.121	Yaw Set Point:	-0.578	X_WP:	0.000	Y_WP:	0.000	Y_WP:	0.500	X:	0.099	Y:	0.095	Z:	0.399	yaw:	33.104	yaw rate:	3.229	Roll:	4.509	Pitch:	0.822	Yaw:	48.326	Thrust:	33.228
Time:	4.469	Roll Set Point:	-0.234	Pitch Set Point:	-0.121	Yaw Set Point:	-0.578	X_WP:	0.000	Y_WP:	0.000	Y_WP:	0.500	X:	0.099	Y:	0.095	Z:	0.399	yaw:	33.104	yaw rate:	3.229	Roll:	4.505	Pitch:	0.895	Yaw:	47.786	Thrust:	33.219
Time:	4.485	Roll Set Point:	-0.234	Pitch Set Point:	-0.121	Yaw Set Point:	-0.577	X_WP:	0.000	Y_WP:	0.000	Y_WP:	0.500	X:	0.099	Y:	0.095	Z:	0.399	yaw:	33.083	yaw rate:	1.738	Roll:	4.516	Pitch:	0.891	Yaw:	47.387	Thrust:	33.173
Time:	4.500	Roll Set Point:	-0.234	Pitch Set Point:	-0.121	Yaw Set Point:	-0.577	X_WP:	0.000	Y_WP:	0.000	Y_WP:	0.500	X:	0.099	Y:	0.095	Z:	0.399	yaw:	33.083	yaw rate:	1.738	Roll:	4.505	Pitch:	0.897	Yaw:	47.755	Thrust:	33.581
Time:	4.516	Roll Set Point:	-0.234	Pitch Set Point:	-0.121	Yaw Set Point:	-0.577	X_WP:	0.000	Y_WP:	0.000	Y_WP:	0.500	X:	0.099	Y:	0.095	Z:	0.399	yaw:	33.086	yaw rate:	4.687	Roll:	4.476	Pitch:	0.967	Yaw:	47.827	Thrust:	33.928
Time:	4.532	Roll Set Point:	-0.234	Pitch Set Point:	-0.121	Yaw Set Point:	-0.577	X_WP:	0.000	Y_WP:	0.000	Y_WP:	0.500	X:	0.099	Y:	0.095	Z:	0.399	yaw:	33.083	yaw rate:	-0.307	Roll:	4.509	Pitch:	0.832	Yaw:	47.701	Thrust:	33.845
Time:	4.547	Roll Set Point:	-0.234	Pitch Set Point:	-0.121	Yaw Set Point:	-0.578	X_WP:	0.000	Y_WP:	0.000	Y_WP:	0.500	X:	0.099	Y:	0.095	Z:	0.399	yaw:	33.095	yaw rate:	1.206	Roll:	4.528	Pitch:	0.952	Yaw:	47.974	Thrust:	34.408
Time:	4.563	Roll Set Point:	-0.234	Pitch Set Point:	-0.121	Yaw Set Point:	-0.577	X_WP:	0.000	Y_WP:	0.000	Y_WP:	0.500	X:	0.099	Y:	0.095	Z:	0.399	yaw:	33.087	yaw rate:	-0.824	Roll:	4.513	Pitch:	0.850	Yaw:	47.623	Thrust:	34.068
Time:	4.579	Roll Set Point:	-0.234	Pitch Set Point:	-0.121	Yaw Set Point:	-0.577	X_WP:	0.000	Y_WP:	0.000	Y_WP:	0.500	X:	0.099	Y:	0.095	Z:	0.399	yaw:	33.079	yaw rate:	-0.789	Roll:	4.269	Pitch:	0.821	Yaw:	47.617	Thrust:	34.230
Time:	4.594	Roll Set Point:	-0.234	Pitch Set Point:	-0.121	Yaw Set Point:	-0.577	X_WP:	0.000	Y_WP:	0.000	Y_WP:	0.500	X:	0.099	Y:	0.095	Z:	0.399	yaw:	33.079	yaw rate:	-0.789	Roll:	4.500	Pitch:	0.901	Yaw:	47.750	Thrust:	34.716
Time:	4.610	Roll Set Point:	-0.234	Pitch Set Point:	-0.121	Yaw Set Point:	-0.577	X_WP:	0.000	Y_WP:	0.000	Y_WP:	0.500	X:	0.099	Y:	0.095	Z:	0.399	yaw:	33.081	yaw rate:	0.182	Roll:	4.692	Pitch:	0.993	Yaw:	47.783	Thrust:	35.191
Time:	4.625	Roll Set Point:	-0.234	Pitch Set Point:	-0.121	Yaw Set Point:	-0.578	X_WP:	0.000	Y_WP:	0.000	Y_WP:	0.500	X:	0.099	Y:	0.095	Z:	0.399	yaw:	33.096	yaw rate:	2.759	Roll:	4.343	Pitch:	0.792	Yaw:	48.026	Thrust:	34.863
Time:	4.641	Roll Set Point:	-0.234	Pitch Set Point:	-0.121	Yaw Set Point:	-0.578	X_WP:	0.000	Y_WP:	0.000	Y_WP:	0.500	X:	0.099	Y:	0.095	Z:	0.399	yaw:	33.089	yaw rate:	-0.674	Roll:	4.688	Pitch:	0.980	Yaw:	47.651	Thrust:	35.542
Time:	4.657	Roll Set Point:	-0.234	Pitch Set Point:	-0.121	Yaw Set Point:	-0.577	X_WP:	0.000	Y_WP:	0.000	Y_WP:	0.500	X:	0.099	Y:	0.095	Z:	0.399	yaw:	33.072	yaw rate:	-1.685	Roll:	4.477	Pitch:	0.934	Yaw:	47.458	Thrust:	35.439
Time:	4.672	Roll Set Point:	-0.234	Pitch Set Point:	-0.121	Yaw Set Point:	-0.578	X_WP:	0.000	Y_WP:	0.000	Y_WP:	0.500	X:	0.099	Y:	0.095	Z:	0.399	yaw:	33.102	yaw rate:	2.937	Roll:	4.330	Pitch:	0.727	Yaw:	48.274	Thrust:	35.290
Time:	4.688	Roll Set Point:	-0.234	Pitch Set Point:	-0.121	Yaw Set Point:	-0.578	X_WP:	0.000	Y_WP:	0.000	Y_WP:	0.500	X:	0.099	Y:	0.095	Z:	0.399	yaw:	33.110	yaw rate:	0.816	Roll:	4.734	Pitch:	1.100	Yaw:	47.933	Thrust:	36.493
Time:	4.704	Roll Set Point:	-0.234	Pitch Set Point:	-0.121	Yaw Set Point:	-0.578	X_WP:	0.000	Y_WP:	0.000	Y_WP:	0.500	X:	0.099	Y:	0.095	Z:	0.399	yaw:	33.092	yaw rate:	-1.779	Roll:	4.462	Pitch:	0.883	Yaw:	47.466	Thrust:	35.878
Time:	4.719	Roll Set Point:	-0.234	Pitch Set Point:	-0.121	Yaw Set Point:	-0.577	X_WP:	0.000	Y_WP:	0.000	Y_WP:	0.500	X:	0.099	Y:	0.095	Z:	0.399	yaw:	33.085	yaw rate:	-0.684	Roll:	4.294	Pitch:	0.776	Yaw:	47.644	Thrust:	35.866
Time:	4.735	Roll Set Point:	-0.234	Pitch Set Point:	-0.121	Yaw Set Point:	-0.577	X_WP:	0.000	Y_WP:	0.000	Y_WP:	0.500	X:	0.099	Y:	0.095	Z:	0.399	yaw:	33.085	yaw rate:	-0.684	Roll:	4.500	Pitch:	0.908	Yaw:	47.761	Thrust:	36.473
Time:	4.750	Roll Set Point:	-0.234	Pitch Set Point:	-0.121	Yaw Set Point:	-0.577	X_WP:	0.000	Y_WP:	0.000	Y_WP:	0.500	X:	0.099	Y:	0.095	Z:	0.399	yaw:	33.076	yaw rate:	-2.683	Roll:	4.741	Pitch:	1.091	Yaw:	47.592	Thrust:	36.798
Time:	4.766	Roll Set Point:	-0.234	Pitch Set Point:	-0.121	Yaw Set Point:	-0.577	X_WP:	0.000	Y_WP:	0.000	Y_WP:	0.500	X:	0.099	Y:	0.095	Z:	0.399	yaw:	33.076	yaw rate:	-2.683	Roll:	4.506	Pitch:	0.915	Yaw:	47.746	Thrust:	36.802
Time:	4.782	Roll Set Point:	-0.234	Pitch Set Point:	-0.121	Yaw Set Point:	-0.577	X_WP:	0.000	Y_WP:	0.000	Y_WP:	0.500	X:	0.099	Y:	0.095	Z:	0.399	yaw:	33.065	yaw rate:	-6.541	Roll:	4.455	Pitch:	0.901	Yaw:	47.547	Thrust:	36.987
Time:	4.797	Roll Set Point:	-0.234	Pitch Set Point:	-0.121	Yaw Set Point:	-0.578	X_WP:	0.000	Y_WP:	0.000	Y_WP:	0.500	X:	0.099	Y:	0.095	Z:	0.399	yaw:	33.098	yaw rate:	3.257	Roll:	4.542	Pitch:	0.890	Yaw:	48.324	Thrust:	37.344
Time:	4.813	Roll Set Point:	-0.234	Pitch Set Point:	-0.121	Yaw Set Point:	-0.578	X_WP:	0.000	Y_WP:	0.000	Y_WP:	0.500	X:	0.099	Y:	0.095	Z:	0.399	yaw:	33.114	yaw rate:	1.559	Roll:	4.540	Pitch:	0.875	Yaw:	48.059	Thrust:	37.437
Time:	4.829	Roll Set Point:	-0.234	Pitch Set Point:	-0.121	Yaw Set Point:	-0.577	X_WP:	0.000	Y_WP:	0.000	Y_WP:	0.500	X:	0.099	Y:	0.095	Z:	0.399	yaw:	33.086	yaw rate:	-2.768	Roll:	4.456	Pitch:	1.001	Yaw:	47.292	Thrust:	37.436
Time:	4.844	Roll Set Point:	-0.234	Pitch Set Point:	-0.121	Yaw Set Point:	-0.577	X_WP:	0.000	Y_WP:	0.000	Y_WP:	0.500	X:	0.099	Y:	0.095	Z:	0.399	yaw:	33.086	yaw rate:	-2.768	Roll:	4.505	Pitch:	0.920	Yaw:	47.759	Thrust:	37.748
Time:	4.860	Roll Set Point:	-0.234	Pitch Set Point:	-0.121	Yaw Set Point:	-0.577	X_WP:	0.000	Y_WP:	0.000	Y_WP:	0.500	X:	0.099	Y:	0.095	Z:	0.399	yaw:	33.088	yaw rate:	0.199	Roll:	4.498	Pitch:	0.859	Yaw:	47.795	Thrust:	37.918
Time:	4.875	Roll Set Point:	-0.234	Pitch Set Point:	-0.121	Yaw Set Point:	-0.577	X_WP:	0.000	Y_WP:	0.000	Y_WP:	0.500	X:	0.099	Y:	0.095	Z:	0.399	yaw:	33.058	yaw rate:	-2.950	Roll:	4.506	Pitch:	1.028	Yaw:	47.232	Thrust:	38.203
Time:	4.891	Roll Set Point:	-0.234	Pitch Set Point:	-0.121	Yaw Set Point:	-0.578	X_WP:	0.000	Y_WP:	0.000	Y_WP:	0.500	X:	0.099	Y:	0.095	Z:	0.399	yaw:	33.107	yaw rate:	4.845	Roll:	4.323	Pitch:	0.708	Yaw:	48.600	Thrust:	37.962
Time:	4.907	Roll Set Point:	-0.234	Pitch Set Point:	-0.121	Yaw Set Point:	-0.578	X_WP:	0.000	Y_WP:	0.000	Y_WP:	0.500	X:	0.099	Y:	0.095	Z:	0.399	yaw:	33.107	yaw rate:	4.845	Roll:	4.500	Pitch:	0.919	Yaw:	47.788	Thrust:	38.484
Time:	4.922	Roll Set Point:	-0.234	Pitch Set Point:	-0.121	Yaw Set Point:	-0.577	X_WP:	0.000	Y_WP:	0.000	Y_WP:	0.500	X:	0.099	Y:	0.095	Z:	0.399	yaw:	33.047	yaw rate:	-3.024	Roll:	4.665	Pitch:	1.108	Yaw:	46.692	Thrust:	38.846
Time:	4.938	Roll Set Point:	-0.234	Pitch Set Point:	-0.121	Yaw Set Point:	-0.577	X_WP:	0.000	Y_WP:	0.000	Y_WP:	0.500	X:	0.099	Y:	0.095	Z:	0.399	yaw:	33.079	yaw rate:	3.230	Roll:	4.538	Pitch:	0.886	Yaw:	48.290	Thrust:	38.986
Time:	4.954	Roll Set Point:	-0.234	Pitch Set Point:	-0.121	Yaw Set Point:	-0.577	X_WP:	0.000	Y_WP:	0.000	Y_WP:	0.500	X:	0.099	Y:	0.095	Z:	0.399	yaw:	33.076	yaw rate:	-0.309	Roll:	4.290	Pitch:	0.868	Yaw:	47.693	Thrust:	38.777
Time:	4.969	Roll Set Point:	-0.234	Pitch Set Point:	-0.121	Yaw Set Point:	-0.577	X_WP:	0.000	Y_WP:	0.000	Y_WP:	0.500	X:	0.099	Y:	0.095	Z:	0.399	yaw:	33.076	yaw rate:	-0.309	Roll:	4.500	Pitch:	0.926	Yaw:	47.745	Thrust:	39.257
Time:	4.985	Roll Set Point:	-0.234	Pitch Set Point:	-0.121	Yaw Set Point:	-0.577	X_WP:	0.000	Y_WP:	0.000	Y_WP:	0.500	X:	0.099	Y:	0.095	Z:	0.399	yaw:	33.076	yaw rate:	2.395	Roll:	4.697	Pitch:	0.968	Yaw:	47.747	Thrust:	39.818
Time:	5.000	Roll Set Point:	-0.234	Pitch Set Point:	-0.121	Yaw Set Point:	-0.577	X_WP:	0.000	Y_WP:	0.000	Y_WP:	0.500	X:	0.099	Y:	0.095	Z:	0.399	yaw:	33.083	yaw rate:	0.765	Roll:	4.517	Pitch:	0.927	Yaw:	47.884	Thrust:	39.560
Time:	5.016	Roll Set Point:	-0.234	Pitch Set Point:	-0.121	Yaw Set Point:	-0.577	X_WP:	0.000	Y_WP:	0.000	Y_WP:	0.500	X:	0.099	Y:	0.095	Z:	0.399	yaw:	33.078	yaw rate:	-0.577	Roll:	4.528	Pitch:	0.966	Yaw:	47.648	Thrust:	39.930
Time:	5.032	Roll Set Point:	-0.234	Pitch Set Point:	-0.121	Yaw Set Point:	-0.577	X_WP:	0.000	Y_WP:	0.000	Y_WP:	0.500	X:	0.099	Y:	0.095	Z:	0.399	yaw:	33.078	yaw rate:	-0.577	Roll:	4.506	Pitch:	0.932	Yaw:	47.748	Thrust:	40.023
Time:	5.047	Roll Set Point:	-0.234	Pitch Set Point:	-0.121	Yaw Set Point:	-0.577	X_WP:	0.000	Y_WP:	0.000	Y_WP:	0.500	X:	0.099	Y:	0.095	Z:	0.399	yaw:	33.087	yaw rate:	-2.407	Roll:	4.455	Pitch:	0.897	Yaw:	47.909	Thrust:	40.135
Time:	5.063	Roll Set Point:	-0.234	Pitch Set Point:	-0.121	Yaw Set Point:	-0.577	X_WP:	0.000	Y_WP:	0.000	Y_WP:	0.500	X:	0.099	Y:	0.095	Z:	0.399	yaw:	33.087	yaw rate:	-2.407	Roll:	4.504	Pitch:	0.933	Yaw:	47.760	Thrust:	40.399
Time:	5.079	Roll Set Point:	-0.234	Pitch Set Point:	-0.121	Yaw Set Point:	-0.578	X_WP:	0.000	Y_WP:	0.000	Y_WP:	0.500	X:	0.099	Y:	0.095	Z:	0.399	yaw:	33.105	yaw rate:	1.877	Roll:	4.557	Pitch:	0.929	Yaw:	48.101	Thrust:	40.623
Time:	5.094	Roll Set Point:	-0.234	Pitch Set Point:	-0.121	Yaw Set Point:	-0.577	X_WP:	0.000	Y_WP:	0.000	Y_WP:	0.500	X:	0.099	Y:	0.095	Z:	0.399	yaw:	33.033	yaw rate:	-7.219	Roll:	4.484	Pitch:	1.063	Yaw:	46.476	Thrust:	40.682
Time:	5.110	Roll Set Point:	-0.234	Pitch Set Point:	-0.121	Yaw Set Point:	-0.578	X_WP:	0.000	Y_WP:	0.000	Y_WP:	0.500	X:	0.099	Y:	0.095	Z:	0.399	yaw:	33.089	yaw rate:	5.575	Roll:	4.506	Pitch:	0.793	Yaw:	48.697	Thrust:	41.100
Time:	5.125	Roll Set Point:	-0.234	Pitch Set Point:	-0.121	Yaw Set Point:	-0.577	X_WP:	0.000	Y_WP:	0.000	Y_WP:	0.500	X:	0.099	Y:	0.095	Z:	0.399	yaw:	33.059	yaw rate:	-7.507	Roll:	4.491	Pitch:	1.024	Yaw:	47.213	Thrust:	40.984
Time:	5.157	Roll Set Point:	-0.234	Pitch Set Point:	-0.121	Yaw Set Point:	-0.577	X_WP:	0.000	Y_WP:	0.000	Y_WP:	0.500	X:	0.099	Y:	0.095	Z:	0.399	yaw:	33.069	yaw rate:	0.131	Roll:	5.094	Pitch:	1.107	Yaw:	49.388	Thrust:	77.358
Time:	5.172	Roll Set Point:	-0.234	Pitch Set Point:	-0.121	Yaw Set Point:	-0.577	X_WP:	0.000	Y_WP:	0.000	Y_WP:	0.500	X:	0.099	Y:	0.095	Z:	0.399	yaw:	33.069	yaw rate:	0.131	Roll:	4.505	Pitch:	0.939	Yaw:	47.735	Thrust:	41.535
Time:	5.188	Roll Set Point:	-0.234	Pitch Set Point:	-0.121	Yaw Set Point:	-0.578	X_WP:	0.000	Y_WP:	0.000	Y_WP:	0.500	X:	0.099	Y:	0.095	Z:	0.399	yaw:	33.090	yaw rate:	2.500	Roll:	4.304	Pitch:	0.834	Yaw:	48.128	Thrust:	41.335
Time:	5.204	Roll Set Point:	-0.234	Pitch Set Point:	-0.121	Yaw Set Point:	-0.578	X_WP:	0.000	Y_WP:	0.000	Y_WP:	0.500	X:	0.099	Y:	0.095	Z:	0.399	yaw:	33.090	yaw rate:	2.500	Roll:	4.500	Pitch:	0.939	Yaw:	47.765	Thrust:	41.907
Time:	5.219	Roll Set Point:	-0.234	Pitch Set Point:	-0.121	Yaw Set Point:	-0.577	X_WP:	0.000	Y_WP:	0.000	Y_WP:	0.500	X:	0.099	Y:	0.095	Z:	0.399	yaw:	33.049	yaw rate:	-5.357	Roll:	4.685	Pitch:	1.094	Yaw:	47.012	Thrust:	42.366
Time:	5.235	Roll Set Point:	-0.234	Pitch Set Point:	-0.121	Yaw Set Point:	-0.577	X_WP:	0.000	Y_WP:	0.000	Y_WP:	0.500	X:	0.099	Y:	0.095	Z:	0.399	yaw:	33.056	yaw rate:	0.690	Roll:	4.496	Pitch:	0.911	Yaw:	47.833	Thrust:	42.364
Time:	5.251	Roll Set Point:	-0.234	Pitch Set Point:	-0.121	Yaw Set Point:	-0.578	X_WP:	0.000	Y_WP:	0.000	Y_WP:	0.500	X:	0.099	Y:	0.095	Z:	0.399	yaw:	33.119	yaw rate:	6.343	Roll:	4.559	Pitch:	0.833	Yaw:	48.868	Thrust:	42.629
Time:	5.266	Roll Set Point:	-0.234	Pitch Set Point:	-0.121	Yaw Set Point:	-0.578	X_WP:	0.000	Y_WP:	0.000	Y_WP:	0.500	X:	0.099	Y:	0.095	Z:	0.399	yaw:	33.090	yaw rate:	-2.876	Roll:	4.285	Pitch:	0.941	Yaw:	47.284	Thrust:	42.226
Time:	5.282	Roll Set Point:	-0.234	Pitch Set Point:	-0.121	Yaw Set Point:	-0.578	X_WP:	0.000	Y_WP:	0.000	Y_WP:	0.500	X:	0.099	Y:	0.095	Z:	0.399	yaw:	33.090	yaw rate:	-2.876	Roll:	4.500	Pitch:	0.944	Yaw:	47.765	Thrust:	42.845
Time:	5.297	Roll Set Point:	-0.234	Pitch Set Point:	-0.121	Yaw Set Point:	-0.577	X_WP:	0.000	Y_WP:	0.000	Y_WP:	0.500	X:	0.099	Y:	0.095	Z:	0.399	yaw:	33.065	yaw rate:	-2.504	Roll:	4.700	Pitch:	1.095	Yaw:	47.311	Thrust:	43.315
Time:	5.313	Roll Set Point:	-0.234	Pitch Set Point:	-0.121	Yaw Set Point:	-0.578	X_WP:	0.000	Y_WP:	0.000	Y_WP:	0.500	X:	0.099	Y:	0.095	Z:	0.399	yaw:	33.101	yaw rate:	1.545	Roll:	4.495	Pitch:	0.850	Yaw:	48.379	Thrust:	43.344
Time:	5.329	Roll Set Point:	-0.234	Pitch Set Point:	-0.121	Yaw Set Point:	-0.577	X_WP:	0.000	Y_WP:	0.000	Y_WP:	0.500	X:	0.099	Y:	0.095	Z:	0.399	yaw:	33.083	yaw rate:	-1.819	Roll:	4.306	Pitch:	0.903	Yaw:	47.450	Thrust:	43.038
Time:	5.344	Roll Set Point:	-0.234	Pitch Set Point:	-0.121	Yaw Set Point:	-0.577	X_WP:	0.000	Y_WP:	0.000	Y_WP:	0.500	X:	0.099	Y:	0.095	Z:	0.399	yaw:	33.083	yaw rate:	-1.819	Roll:	4.500	Pitch:	0.948	Yaw:	47.755	Thrust:	43.611
Time:	5.360	Roll Set Point:	-0.234	Pitch Set Point:	-0.121	Yaw Set Point:	-0.578	X_WP:	0.000	Y_WP:	0.000	Y_WP:	0.500	X:	0.099	Y:	0.095	Z:	0.399	yaw:	33.114	yaw rate:	3.135	Roll:	4.727	Pitch:	1.021	Yaw:	48.324	Thrust:	44.324
Time:	5.376	Roll Set Point:	-0.234	Pitch Set Point:	-0.121	Yaw Set Point:	-0.577	X_WP:	0.000	Y_WP:	0.000	Y_WP:	0.500	X:	0.099	Y:	0.095	Z:	0.399	yaw:	33.072	yaw rate:	-4.196	Roll:	4.252	Pitch:	0.832	Yaw:	47.037	Thrust:	43.475
Time:	5.391	Roll Set Point:	-0.234	Pitch Set Point:	-0.121	Yaw Set Point:	-0.577	X_WP:	0.000	Y_WP:	0.000	Y_WP:	0.500	X:	0.099	Y:	0.095	Z:	0.399	yaw:	33.073	yaw rate:	-4.786	Roll:	4.737	Pitch:	1.114	Yaw:	47.755	Thrust:	44.542
Time:	5.407	Roll Set Point:	-0.234	Pitch Set Point:	-0.121	Yaw Set Point:	-0.577	X_WP:	0.000	Y_WP:	0.000	Y_WP:	0.500	X:	0.099	Y:	0.095	Z:	0.399	yaw:	33.073	yaw rate:	-4.786	Roll:	4.504	Pitch:	0.955	Yaw:	47.738	Thrust:	44.298
Time:	5.422	Roll Set Point:	-0.234	Pitch Set Point:	-0.121	Yaw Set Point:	-0.577	X_WP:	0.000	Y_WP:	0.000	Y_WP:	0.500	X:	0.099	Y:	0.095	Z:	0.399	yaw:	33.080	yaw rate:	-0.225	Roll:	4.504	Pitch:	0.930	Yaw:	47.874	Thrust:	44.743
Time:	5.438	Roll Set Point:	-0.234	Pitch Set Point:	-0.121	Yaw Set Point:	-0.577	X_WP:	0.000	Y_WP:	0.000	Y_WP:	0.500	X:	0.099	Y:	0.095	Z:	0.399	yaw:	33.066	yaw rate:	-1.406	Roll:	4.496	Pitch:	0.957	Yaw:	47.496	Thrust:	44.591
Time:	5.454	Roll Set Point:	-0.234	Pitch Set Point:	-0.121	Yaw Set Point:	-0.578	X_WP:	0.000	Y_WP:	0.000	Y_WP:	0.500	X:	0.099	Y:	0.095	Z:	0.399	yaw:	33.106	yaw rate:	3.954	Roll:	4.533	Pitch:	0.912	Yaw:	48.449	Thrust:	44.994
Time:	5.469	Roll Set Point:	-0.234	Pitch Set Point:	-0.121	Yaw Set Point:	-0.578	X_WP:	0.000	Y_WP:	0.000	Y_WP:	0.500	X:	0.099	Y:	0.095	Z:	0.399	yaw:	33.106	yaw rate:	3.954	Roll:	4.506	Pitch:	0.957	Yaw:	47.787	Thrust:	45.141
Time:	5.485	Roll Set Point:	-0.234	Pitch Set Point:	-0.121	Yaw Set Point:	-0.578	X_WP:	0.000	Y_WP:	0.000	Y_WP:	0.500	X:	0.099	Y:	0.095	Z:	0.399	yaw:	33.100	yaw rate:	-0.554	Roll:	4.491	Pitch:	0.983	Yaw:	47.686	Thrust:	45.462
Time:	5.501	Roll Set Point:	-0.234	Pitch Set Point:	-0.121	Yaw Set Point:	-0.578	X_WP:	0.000	Y_WP:	0.000	Y_WP:	0.500	X:	0.099	Y:	0.095	Z:	0.399	yaw:	33.100	yaw rate:	-0.554	Roll:	4.505	Pitch:	0.960	Yaw:	47.779	Thrust:	45.513
Time:	5.516	Roll Set Point:	-0.234	Pitch Set Point:	-0.121	Yaw Set Point:	-0.578	X_WP:	0.000	Y_WP:	0.000	Y_WP:	0.500	X:	0.099	Y:	0.095	Z:	0.399	yaw:	33.094	yaw rate:	0.731	Roll:	4.516	Pitch:	0.963	Yaw:	47.663	Thrust:	45.574
Time:	5.532	Roll Set Point:	-0.234	Pitch Set Point:	-0.121	Yaw Set Point:	-0.578	X_WP:	0.000	Y_WP:	0.000	Y_WP:	0.500	X:	0.099	Y:	0.095	Z:	0.399	yaw:	33.094	yaw rate:	0.731	Roll:	4.507	Pitch:	0.962	Yaw:	47.773	Thrust:	45.975
Time:	5.547	Roll Set Point:	-0.234	Pitch Set Point:	-0.121	Yaw Set Point:	-0.578	X_WP:	0.000	Y_WP:	0.000	Y_WP:	0.500	X:	0.099	Y:	0.095	Z:	0.399	yaw:	33.094	yaw rate:	0.202	Roll:	4.486	Pitch:	0.986	Yaw:	47.782	Thrust:	46.150
Time:	5.563	Roll Set Point:	-0.234	Pitch Set Point:	-0.121	Yaw Set Point:	-0.578	X_WP:	0.000	Y_WP:	0.000	Y_WP:	0.500	X:	0.099	Y:	0.095	Z:	0.399	yaw:	33.092	yaw rate:	-0.232	Roll:	4.515	Pitch:	0.923	Yaw:	47.726	Thrust:	46.204
Time:	5.579	Roll Set Point:	-0.234	Pitch Set Point:	-0.121	Yaw Set Point:	-0.577	X_WP:	0.000	Y_WP:	0.000	Y_WP:	0.500	X:	0.099	Y:	0.095	Z:	0.399	yaw:	33.071	yaw rate:	-2.049	Roll:	4.485	Pitch:	1.005	Yaw:	47.396	Thrust:	46.253
Time:	5.594	Roll Set Point:	-0.234	Pitch Set Point:	-0.121	Yaw Set Point:	-0.577	X_WP:	0.000	Y_WP:	0.000	Y_WP:	0.500	X:	0.099	Y:	0.095	Z:	0.399	yaw:	33.071	yaw rate:	-2.049	Roll:	4.506	Pitch:	0.967	Yaw:	47.742	Thrust:	46.728
Time:	5.610	Roll Set Point:	-0.234	Pitch Set Point:	-0.121	Yaw Set Point:	-0.577	X_WP:	0.000	Y_WP:	0.000	Y_WP:	0.500	X:	0.099	Y:	0.095	Z:	0.399	yaw:	33.074	yaw rate:	0.278	Roll:	4.518	Pitch:	0.956	Yaw:	47.787	Thrust:	46.820
Time:	5.626	Roll Set Point:	-0.234	Pitch Set Point:	-0.121	Yaw Set Point:	-0.578	X_WP:	0.000	Y_WP:	0.000	Y_WP:	0.500	X:	0.099	Y:	0.095	Z:	0.399	yaw:	33.094	yaw rate:	1.510	Roll:	4.292	Pitch:	0.835	Yaw:	48.095	Thrust:	46.793
Time:	5.641	Roll Set Point:	-0.234	Pitch Set Point:	-0.121	Yaw Set Point:	-0.578	X_WP:	0.000	Y_WP:	0.000	Y_WP:	0.500	X:	0.099	Y:	0.095	Z:	0.399	yaw:	33.094	yaw rate:	1.510	Roll:	4.499	Pitch:	0.966	Yaw:	47.769	Thrust:	47.195
Time:	5.657	Roll Set Point:	-0.234	Pitch Set Point:	-0.121	Yaw Set Point:	-0.577	X_WP:	0.000	Y_WP:	0.000	Y_WP:	0.500	X:	0.099	Y:	0.095	Z:	0.399	yaw:	33.073	yaw rate:	-2.051	Roll:	4.709	Pitch:	1.155	Yaw:	47.398	Thrust:	47.811
Time:	5.672	Roll Set Point:	-0.234	Pitch Set Point:	-0.121	Yaw Set Point:	-0.577	X_WP:	0.000	Y_WP:	0.000	Y_WP:	0.500	X:	0.099	Y:	0.095	Z:	0.399	yaw:	33.053	yaw rate:	-3.347	Roll:	4.475	Pitch:	0.972	Yaw:	47.380	Thrust:	47.392
Time:	5.688	Roll Set Point:	-0.234	Pitch Set Point:	-0.121	Yaw Set Point:	-0.577	X_WP:	0.000	Y_WP:	0.000	Y_WP:	0.500	X:	0.099	Y:	0.095	Z:	0.399	yaw:	33.085	yaw rate:	3.203	Roll:	4.537	Pitch:	0.924	Yaw:	48.295	Thrust:	47.936
Time:	5.704	Roll Set Point:	-0.234	Pitch Set Point:	-0.121	Yaw Set Point:	-0.578	X_WP:	0.000	Y_WP:	0.000	Y_WP:	0.500	X:	0.099	Y:	0.095	Z:	0.399	yaw:	33.091	yaw rate:	0.621	Roll:	4.316	Pitch:	0.858	Yaw:	47.871	Thrust:	47.511
Time:	5.719	Roll Set Point:	-0.234	Pitch Set Point:	-0.121	Yaw Set Point:	-0.578	X_WP:	0.000	Y_WP:	0.000	Y_WP:	0.500	X:	0.099	Y:	0.095	Z:	0.399	yaw:	33.108	yaw rate:	1.683	Roll:	4.695	Pitch:	1.082	Yaw:	48.072	Thrust:	48.666
Time:	5.735	Roll Set Point:	-0.234	Pitch Set Point:	-0.121	Yaw Set Point:	-0.578	X_WP:	0.000	Y_WP:	0.000	Y_WP:	0.500	X:	0.099	Y:	0.095	Z:	0.399	yaw:	33.108	yaw rate:	1.683	Roll:	4.505	Pitch:	0.975	Yaw:	47.791	Thrust:	48.355
Time:	5.751	Roll Set Point:	-0.234	Pitch Set Point:	-0.121	Yaw Set Point:	-0.578	X_WP:	0.000	Y_WP:	0.000	Y_WP:	0.500	X:	0.099	Y:	0.095	Z:	0.399	yaw:	33.090	yaw rate:	3.182	Roll:	4.488	Pitch:	0.936	Yaw:	47.460	Thrust:	48.534
Time:	5.766	Roll Set Point:	-0.234	Pitch Set Point:	-0.121	Yaw Set Point:	-0.577	X_WP:	0.000	Y_WP:	0.000	Y_WP:	0.500	X:	0.099	Y:	0.095	Z:	0.399	yaw:	33.073	yaw rate:	-1.657	Roll:	4.515	Pitch:	1.023	Yaw:	47.463	Thrust:	48.491
Time:	5.782	Roll Set Point:	-0.234	Pitch Set Point:	-0.121	Yaw Set Point:	-0.578	X_WP:	0.000	Y_WP:	0.000	Y_WP:	0.500	X:	0.099	Y:	0.095	Z:	0.399	yaw:	33.116	yaw rate:	4.258	Roll:	4.530	Pitch:	0.927	Yaw:	48.515	Thrust:	49.085
Time:	5.798	Roll Set Point:	-0.234	Pitch Set Point:	-0.121	Yaw Set Point:	-0.577	X_WP:	0.000	Y_WP:	0.000	Y_WP:	0.500	X:	0.099	Y:	0.095	Z:	0.399	yaw:	33.061	yaw rate:	-5.476	Roll:	4.466	Pitch:	1.053	Yaw:	46.811	Thrust:	49.132
Time:	5.813	Roll Set Point:	-0.234	Pitch Set Point:	-0.121	Yaw Set Point:	-0.577	X_WP:	0.000	Y_WP:	0.000	Y_WP:	0.500	X:	0.099	Y:	0.095	Z:	0.399	yaw:	33.048	yaw rate:	-1.292	Roll:	4.507	Pitch:	0.980	Yaw:	47.523	Thrust:	50.051
Time:	5.828	Roll Set Point:	-0.234	Pitch Set Point:	-0.121	Yaw Set Point:	-0.578	X_WP:	0.000	Y_WP:	0.000	Y_WP:	0.500	X:	0.099	Y:	0.095	Z:	0.399	yaw:	33.107	yaw rate:	5.826	Roll:	4.327	Pitch:	0.762	Yaw:	48.744	Thrust:	47.665
Time:	5.849	Roll Set Point:	-0.234	Pitch Set Point:	-0.121	Yaw Set Point:	-0.577	X_WP:	0.000	Y_WP:	0.000	Y_WP:	0.500	X:	0.099	Y:	0.095	Z:	0.399	yaw:	33.086	yaw rate:	-2.035	Roll:	4.660	Pitch:	1.139	Yaw:	48.026	Thrust:	64.304
Time:	5.865	Roll Set Point:	-0.234	Pitch Set Point:	-0.121	Yaw Set Point:	-0.577	X_WP:	0.000	Y_WP:	0.000	Y_WP:	0.500	X:	0.099	Y:	0.095	Z:	0.399	yaw:	33.076	yaw rate:	-1.068	Roll:	4.701	Pitch:	1.018	Yaw:	47.565	Thrust:	50.148
Time:	5.881	Roll Set Point:	-0.234	Pitch Set Point:	-0.121	Yaw Set Point:	-0.577	X_WP:	0.000	Y_WP:	0.000	Y_WP:	0.500	X:	0.099	Y:	0.095	Z:	0.399	yaw:	33.087	yaw rate:	1.162	Roll:	4.518	Pitch:	0.970	Yaw:	47.958	Thrust:	50.262
Time:	5.896	Roll Set Point:	-0.234	Pitch Set Point:	-0.121	Yaw Set Point:	-0.577	X_WP:	0.000	Y_WP:	0.000	Y_WP:	0.500	X:	0.099	Y:	0.095	Z:	0.399	yaw:	33.087	yaw rate:	1.162	Roll:	4.504	Pitch:	0.984	Yaw:	47.758	Thrust:	50.159
Time:	5.912	Roll Set Point:	-0.234	Pitch Set Point:	-0.121	Yaw Set Point:	-0.578	X_WP:	0.000	Y_WP:	0.000	Y_WP:	0.500	X:	0.099	Y:	0.095	Z:	0.399	yaw:	33.091	yaw rate:	-1.362	Roll:	4.326	Pitch:	0.939	Yaw:	47.838	Thrust:	50.101
Time:	5.927	Roll Set Point:	-0.234	Pitch Set Point:	-0.121	Yaw Set Point:	-0.577	X_WP:	0.000	Y_WP:	0.000	Y_WP:	0.500	X:	0.099	Y:	0.095	Z:	0.399	yaw:	33.071	yaw rate:	-2.025	Roll:	4.657	Pitch:	1.083	Yaw:	47.400	Thrust:	50.817
Time:	5.943	Roll Set Point:	-0.234	Pitch Set Point:	-0.121	Yaw Set Point:	-0.578	X_WP:	0.000	Y_WP:	0.000	Y_WP:	0.500	X:	0.099	Y:	0.095	Z:	0.399	yaw:	33.090	yaw rate:	1.908	Roll:	4.552	Pitch:	1.017	Yaw:	48.085	Thrust:	51.018
Time:	5.959	Roll Set Point:	-0.234	Pitch Set Point:	-0.121	Yaw Set Point:	-0.578	X_WP:	0.000	Y_WP:	0.000	Y_WP:	0.500	X:	0.099	Y:	0.095	Z:	0.399	yaw:	33.090	yaw rate:	1.908	Roll:	4.506	Pitch:	0.990	Yaw:	47.765	Thrust:	51.004
Time:	5.974	Roll Set Point:	-0.234	Pitch Set Point:	-0.121	Yaw Set Point:	-0.577	X_WP:	0.000	Y_WP:	0.000	Y_WP:	0.500	X:	0.099	Y:	0.095	Z:	0.399	yaw:	33.083	yaw rate:	-0.776	Roll:	4.508	Pitch:	0.988	Yaw:	47.626	Thrust:	51.252
Time:	5.990	Roll Set Point:	-0.234	Pitch Set Point:	-0.121	Yaw Set Point:	-0.577	X_WP:	0.000	Y_WP:	0.000	Y_WP:	0.500	X:	0.099	Y:	0.095	Z:	0.399	yaw:	33.068	yaw rate:	-5.019	Roll:	4.475	Pitch:	0.973	Yaw:	47.492	Thrust:	51.189
Time:	6.006	Roll Set Point:	-0.081	Pitch Set Point:	-0.036	Yaw Set Point:	-0.577	X_WP:	0.081	Y_WP:	0.155	Y_WP:	0.500	X:	0.099	Y:	0.095	Z:	0.399	yaw:	33.068	yaw rate:	-5.019	Roll:	-30.000	Pitch:	-30.000	Yaw:	47.735	Thrust:	51.576
Time:	6.021	Roll Set Point:	-0.081	Pitch Set Point:	-0.036	Yaw Set Point:	-0.578	X_WP:	0.081	Y_WP:	0.155	Y_WP:	0.500	X:	0.099	Y:	0.095	Z:	0.399	yaw:	33.111	yaw rate:	0.004	Roll:	0.059	Pitch:	-1.491	Yaw:	48.505	Thrust:	51.873
Time:	6.037	Roll Set Point:	-0.081	Pitch Set Point:	-0.035	Yaw Set Point:	-0.578	X_WP:	0.081	Y_WP:	0.155	Y_WP:	0.500	X:	0.099	Y:	0.095	Z:	0.399	yaw:	33.108	yaw rate:	-0.217	Roll:	0.028	Pitch:	-1.465	Yaw:	47.754	Thrust:	51.523
Time:	6.052	Roll Set Point:	-0.081	Pitch Set Point:	-0.036	Yaw Set Point:	-0.578	X_WP:	0.081	Y_WP:	0.155	Y_WP:	0.500	X:	0.099	Y:	0.095	Z:	0.399	yaw:	33.102	yaw rate:	-0.645	Roll:	0.093	Pitch:	-1.506	Yaw:	47.674	Thrust:	52.467
Time:	6.068	Roll Set Point:	-0.081	Pitch Set Point:	-0.036	Yaw Set Point:	-0.577	X_WP:	0.081	Y_WP:	0.155	Y_WP:	0.500	X:	0.099	Y:	0.095	Z:	0.399	yaw:	33.086	yaw rate:	-1.649	Roll:	0.104	Pitch:	-1.523	Yaw:	47.482	Thrust:	52.531
Time:	6.084	Roll Set Point:	-0.081	Pitch Set Point:	-0.036	Yaw Set Point:	-0.578	X_WP:	0.081	Y_WP:	0.155	Y_WP:	0.500	X:	0.099	Y:	0.095	Z:	0.399	yaw:	33.136	yaw rate:	5.024	Roll:	0.013	Pitch:	-1.487	Yaw:	48.671	Thrust:	52.457
Time:	6.099	Roll Set Point:	-0.081	Pitch Set Point:	-0.036	Yaw Set Point:	-0.578	X_WP:	0.081	Y_WP:	0.155	Y_WP:	0.500	X:	0.099	Y:	0.095	Z:	0.399	yaw:	33.136	yaw rate:	5.024	Roll:	0.064	Pitch:	-1.503	Yaw:	47.829	Thrust:	52.714
Time:	6.115	Roll Set Point:	-0.081	Pitch Set Point:	-0.036	Yaw Set Point:	-0.577	X_WP:	0.081	Y_WP:	0.155	Y_WP:	0.500	X:	0.099	Y:	0.095	Z:	0.399	yaw:	33.067	yaw rate:	-5.912	Roll:	0.102	Pitch:	-1.511	Yaw:	46.572	Thrust:	52.678
Time:	6.132	Roll Set Point:	-0.081	Pitch Set Point:	-0.036	Yaw Set Point:	-0.577	X_WP:	0.081	Y_WP:	0.155	Y_WP:	0.500	X:	0.099	Y:	0.095	Z:	0.399	yaw:	33.055	yaw rate:	-1.180	Roll:	0.075	Pitch:	-1.518	Yaw:	47.702	Thrust:	53.179
Time:	6.157	Roll Set Point:	-0.081	Pitch Set Point:	-0.036	Yaw Set Point:	-0.578	X_WP:	0.081	Y_WP:	0.155	Y_WP:	0.500	X:	0.099	Y:	0.095	Z:	0.399	yaw:	33.133	yaw rate:	1.648	Roll:	0.432	Pitch:	-1.346	Yaw:	49.571	Thrust:	86.186
Time:	6.173	Roll Set Point:	-0.081	Pitch Set Point:	-0.036	Yaw Set Point:	-0.577	X_WP:	0.081	Y_WP:	0.155	Y_WP:	0.500	X:	0.099	Y:	0.095	Z:	0.399	yaw:	33.058	yaw rate:	-7.589	Roll:	0.128	Pitch:	-1.529	Yaw:	46.448	Thrust:	53.292
Time:	6.188	Roll Set Point:	-0.081	Pitch Set Point:	-0.036	Yaw Set Point:	-0.577	X_WP:	0.081	Y_WP:	0.155	Y_WP:	0.500	X:	0.099	Y:	0.095	Z:	0.399	yaw:	33.067	yaw rate:	0.964	Roll:	0.026	Pitch:	-1.504	Yaw:	47.895	Thrust:	53.694
Time:	6.204	Roll Set Point:	-0.081	Pitch Set Point:	-0.036	Yaw Set Point:	-0.577	X_WP:	0.081	Y_WP:	0.155	Y_WP:	0.500	X:	0.099	Y:	0.095	Z:	0.399	yaw:	33.067	yaw rate:	0.964	Roll:	0.061	Pitch:	-1.517	Yaw:	47.733	Thrust:	53.838
Time:	6.219	Roll Set Point:	-0.081	Pitch Set Point:	-0.036	Yaw Set Point:	-0.578	X_WP:	0.081	Y_WP:	0.155	Y_WP:	0.500	X:	0.099	Y:	0.095	Z:	0.399	yaw:	33.101	yaw rate:	1.277	Roll:	0.063	Pitch:	-1.503	Yaw:	48.338	Thrust:	54.178
Time:	6.235	Roll Set Point:	-0.081	Pitch Set Point:	-0.036	Yaw Set Point:	-0.578	X_WP:	0.081	Y_WP:	0.155	Y_WP:	0.500	X:	0.099	Y:	0.095	Z:	0.399	yaw:	33.106	yaw rate:	0.547	Roll:	0.069	Pitch:	-1.542	Yaw:	47.879	Thrust:	54.310
Time:	6.251	Roll Set Point:	-0.081	Pitch Set Point:	-0.036	Yaw Set Point:	-0.577	X_WP:	0.081	Y_WP:	0.155	Y_WP:	0.500	X:	0.099	Y:	0.095	Z:	0.399	yaw:	33.049	yaw rate:	-5.700	Roll:	0.075	Pitch:	-1.523	Yaw:	46.753	Thrust:	54.149
Time:	6.266	Roll Set Point:	-0.081	Pitch Set Point:	-0.036	Yaw Set Point:	-0.578	X_WP:	0.081	Y_WP:	0.155	Y_WP:	0.500	X:	0.099	Y:	0.095	Z:	0.399	yaw:	33.101	yaw rate:	5.242	Roll:	0.027	Pitch:	-1.521	Yaw:	48.659	Thrust:	54.756
Time:	6.282	Roll Set Point:	-0.081	Pitch Set Point:	-0.036	Yaw Set Point:	-0.578	X_WP:	0.081	Y_WP:	0.155	Y_WP:	0.500	X:	0.099	Y:	0.095	Z:	0.399	yaw:	33.101	yaw rate:	5.242	Roll:	0.057	Pitch:	-1.529	Yaw:	47.781	Thrust:	54.793
Time:	6.298	Roll Set Point:	-0.081	Pitch Set Point:	-0.036	Yaw Set Point:	-0.578	X_WP:	0.081	Y_WP:	0.155	Y_WP:	0.500	X:	0.099	Y:	0.095	Z:	0.399	yaw:	33.096	yaw rate:	-0.590	Roll:	0.047	Pitch:	-1.530	Yaw:	47.677	Thrust:	55.051
Time:	6.313	Roll Set Point:	-0.081	Pitch Set Point:	-0.036	Yaw Set Point:	-0.577	X_WP:	0.081	Y_WP:	0.155	Y_WP:	0.500	X:	0.099	Y:	0.095	Z:	0.399	yaw:	33.080	yaw rate:	0.251	Roll:	0.068	Pitch:	-1.540	Yaw:	47.481	Thrust:	55.061
Time:	6.329	Roll Set Point:	-0.081	Pitch Set Point:	-0.036	Yaw Set Point:	-0.577	X_WP:	0.081	Y_WP:	0.155	Y_WP:	0.500	X:	0.099	Y:	0.095	Z:	0.399	yaw:	33.080	yaw rate:	0.251	Roll:	0.056	Pitch:	-1.535	Yaw:	47.754	Thrust:	55.455
Time:	6.345	Roll Set Point:	-0.081	Pitch Set Point:	-0.036	Yaw Set Point:	-0.577	X_WP:	0.081	Y_WP:	0.155	Y_WP:	0.500	X:	0.099	Y:	0.095	Z:	0.399	yaw:	33.048	yaw rate:	-3.162	Roll:	0.100	Pitch:	-1.551	Yaw:	47.177	Thrust:	55.459
Time:	6.360	Roll Set Point:	-0.081	Pitch Set Point:	-0.035	Yaw Set Point:	-0.578	X_WP:	0.081	Y_WP:	0.155	Y_WP:	0.500	X:	0.099	Y:	0.095	Z:	0.399	yaw:	33.089	yaw rate:	2.981	Roll:	-0.017	Pitch:	-1.503	Yaw:	48.445	Thrust:	55.421
Time:	6.376	Roll Set Point:	-0.081	Pitch Set Point:	-0.036	Yaw Set Point:	-0.577	X_WP:	0.081	Y_WP:	0.155	Y_WP:	0.500	X:	0.099	Y:	0.095	Z:	0.399	yaw:	33.041	yaw rate:	-4.782	Roll:	0.124	Pitch:	-1.564	Yaw:	46.902	Thrust:	56.308
