Time:	2.036	Roll Set Point:	0.240	Pitch Set Point:	-0.098	Yaw Set Point:	0.014	X_WP:	0.100	Y_WP:	0.000	Y_WP:	0.500	X:	-0.070	Y:	0.050	Z:	0.057	yaw:	-0.782	yaw rate:	0.000	Roll:	-4.947	Pitch:	1.391	Yaw:	-1.093	Thrust:	24.385
Time:	2.047	Roll Set Point:	0.241	Pitch Set Point:	-0.098	Yaw Set Point:	0.014	X_WP:	0.100	Y_WP:	0.000	Y_WP:	0.500	X:	-0.070	Y:	0.050	Z:	0.057	yaw:	-0.782	yaw rate:	0.021	Roll:	-5.009	Pitch:	1.393	Yaw:	-1.090	Thrust:	25.046
Time:	2.058	Roll Set Point:	0.241	Pitch Set Point:	-0.098	Yaw Set Point:	0.014	X_WP:	0.100	Y_WP:	0.000	Y_WP:	0.500	X:	-0.070	Y:	0.050	Z:	0.057	yaw:	-0.787	yaw rate:	-0.493	Roll:	-4.956	Pitch:	1.375	Yaw:	-1.219	Thrust:	25.588
Time:	2.068	Roll Set Point:	0.241	Pitch Set Point:	-0.098	Yaw Set Point:	0.014	X_WP:	0.100	Y_WP:	0.000	Y_WP:	0.500	X:	-0.070	Y:	0.050	Z:	0.057	yaw:	-0.787	yaw rate:	0.066	Roll:	-4.978	Pitch:	1.413	Yaw:	-1.089	Thrust:	26.107
Time:	2.080	Roll Set Point:	0.241	Pitch Set Point:	-0.098	Yaw Set Point:	0.014	X_WP:	0.100	Y_WP:	0.000	Y_WP:	0.500	X:	-0.070	Y:	0.050	Z:	0.057	yaw:	-0.804	yaw rate:	-1.759	Roll:	-5.017	Pitch:	0.815	Yaw:	-1.518	Thrust:	26.810
Time:	2.092	Roll Set Point:	0.241	Pitch Set Point:	-0.098	Yaw Set Point:	0.015	X_WP:	0.100	Y_WP:	0.000	Y_WP:	0.500	X:	-0.070	Y:	0.050	Z:	0.057	yaw:	-0.874	yaw rate:	-7.033	Roll:	-5.875	Pitch:	0.801	Yaw:	-2.864	Thrust:	27.379
Time:	2.102	Roll Set Point:	0.241	Pitch Set Point:	-0.097	Yaw Set Point:	0.018	X_WP:	0.100	Y_WP:	0.000	Y_WP:	0.500	X:	-0.070	Y:	0.050	Z:	0.057	yaw:	-1.058	yaw rate:	-18.330	Roll:	-5.691	Pitch:	-1.940	Yaw:	-6.128	Thrust:	27.446
Time:	2.114	Roll Set Point:	0.241	Pitch Set Point:	-0.098	Yaw Set Point:	0.014	X_WP:	0.100	Y_WP:	0.000	Y_WP:	0.500	X:	-0.070	Y:	0.050	Z:	0.057	yaw:	-0.813	yaw rate:	24.437	Roll:	-3.670	Pitch:	5.458	Yaw:	4.369	Thrust:	28.838
Time:	2.125	Roll Set Point:	0.241	Pitch Set Point:	-0.098	Yaw Set Point:	0.015	X_WP:	0.100	Y_WP:	0.000	Y_WP:	0.500	X:	-0.070	Y:	0.050	Z:	0.057	yaw:	-0.865	yaw rate:	-5.140	Roll:	-5.299	Pitch:	0.346	Yaw:	-2.453	Thrust:	29.027
Time:	2.136	Roll Set Point:	0.241	Pitch Set Point:	-0.098	Yaw Set Point:	0.015	X_WP:	0.100	Y_WP:	0.000	Y_WP:	0.500	X:	-0.070	Y:	0.050	Z:	0.057	yaw:	-0.868	yaw rate:	-0.365	Roll:	-5.108	Pitch:	1.302	Yaw:	-1.328	Thrust:	29.665
Time:	2.147	Roll Set Point:	0.241	Pitch Set Point:	-0.096	Yaw Set Point:	0.022	X_WP:	0.100	Y_WP:	0.000	Y_WP:	0.500	X:	-0.070	Y:	0.050	Z:	0.057	yaw:	-1.246	yaw rate:	-37.795	Roll:	-6.149	Pitch:	-4.233	Yaw:	-10.337	Thrust:	30.298
Time:	2.158	Roll Set Point:	0.241	Pitch Set Point:	-0.098	Yaw Set Point:	0.015	X_WP:	0.100	Y_WP:	0.000	Y_WP:	0.500	X:	-0.070	Y:	0.050	Z:	0.057	yaw:	-0.847	yaw rate:	39.923	Roll:	-3.771	Pitch:	7.698	Yaw:	8.250	Thrust:	31.003
Time:	2.169	Roll Set Point:	0.241	Pitch Set Point:	-0.098	Yaw Set Point:	0.015	X_WP:	0.100	Y_WP:	0.000	Y_WP:	0.500	X:	-0.070	Y:	0.050	Z:	0.057	yaw:	-0.876	yaw rate:	-2.841	Roll:	-5.263	Pitch:	1.055	Yaw:	-1.967	Thrust:	31.449
Time:	2.181	Roll Set Point:	0.241	Pitch Set Point:	-0.098	Yaw Set Point:	0.015	X_WP:	0.100	Y_WP:	0.000	Y_WP:	0.500	X:	-0.070	Y:	0.050	Z:	0.057	yaw:	-0.859	yaw rate:	1.657	Roll:	-4.889	Pitch:	1.400	Yaw:	-0.887	Thrust:	32.481
Time:	2.193	Roll Set Point:	0.241	Pitch Set Point:	-0.098	Yaw Set Point:	0.016	X_WP:	0.100	Y_WP:	0.000	Y_WP:	0.500	X:	-0.070	Y:	0.050	Z:	0.057	yaw:	-0.893	yaw rate:	-3.381	Roll:	-5.189	Pitch:	1.210	Yaw:	-2.051	Thrust:	32.898
Time:	2.204	Roll Set Point:	0.241	Pitch Set Point:	-0.098	Yaw Set Point:	0.015	X_WP:	0.100	Y_WP:	0.000	Y_WP:	0.500	X:	-0.070	Y:	0.050	Z:	0.057	yaw:	-0.839	yaw rate:	5.425	Roll:	-4.944	Pitch:	2.194	Yaw:	0.075	Thrust:	33.294
Time:	2.215	Roll Set Point:	0.241	Pitch Set Point:	-0.098	Yaw Set Point:	0.014	X_WP:	0.100	Y_WP:	0.000	Y_WP:	0.500	X:	-0.070	Y:	0.050	Z:	0.057	yaw:	-0.816	yaw rate:	2.302	Roll:	-5.079	Pitch:	2.302	Yaw:	-0.675	Thrust:	34.422
Time:	2.226	Roll Set Point:	0.241	Pitch Set Point:	-0.098	Yaw Set Point:	0.014	X_WP:	0.100	Y_WP:	0.000	Y_WP:	0.500	X:	-0.070	Y:	0.050	Z:	0.057	yaw:	-0.812	yaw rate:	0.349	Roll:	-5.060	Pitch:	1.281	Yaw:	-1.103	Thrust:	33.910
Time:	2.236	Roll Set Point:	0.241	Pitch Set Point:	-0.097	Yaw Set Point:	0.018	X_WP:	0.100	Y_WP:	0.000	Y_WP:	0.500	X:	-0.070	Y:	0.050	Z:	0.057	yaw:	-1.057	yaw rate:	-24.508	Roll:	-6.492	Pitch:	-3.018	Yaw:	-7.643	Thrust:	34.226
Time:	2.248	Roll Set Point:	0.241	Pitch Set Point:	-0.098	Yaw Set Point:	0.015	X_WP:	0.100	Y_WP:	0.000	Y_WP:	0.500	X:	-0.070	Y:	0.050	Z:	0.057	yaw:	-0.881	yaw rate:	17.633	Roll:	-3.917	Pitch:	4.371	Yaw:	2.695	Thrust:	35.832
Time:	2.258	Roll Set Point:	0.241	Pitch Set Point:	-0.098	Yaw Set Point:	0.014	X_WP:	0.100	Y_WP:	0.000	Y_WP:	0.500	X:	-0.070	Y:	0.050	Z:	0.057	yaw:	-0.829	yaw rate:	5.183	Roll:	-5.061	Pitch:	2.410	Yaw:	0.067	Thrust:	36.208
Time:	2.269	Roll Set Point:	0.241	Pitch Set Point:	-0.098	Yaw Set Point:	0.015	X_WP:	0.100	Y_WP:	0.000	Y_WP:	0.500	X:	-0.070	Y:	0.050	Z:	0.057	yaw:	-0.868	yaw rate:	-3.948	Roll:	-5.293	Pitch:	0.599	Yaw:	-2.281	Thrust:	35.662
Time:	2.280	Roll Set Point:	0.241	Pitch Set Point:	-0.098	Yaw Set Point:	0.015	X_WP:	0.100	Y_WP:	0.000	Y_WP:	0.500	X:	-0.070	Y:	0.050	Z:	0.057	yaw:	-0.848	yaw rate:	2.021	Roll:	-5.017	Pitch:	2.054	Yaw:	-0.803	Thrust:	37.918
Time:	2.292	Roll Set Point:	0.241	Pitch Set Point:	-0.098	Yaw Set Point:	0.016	X_WP:	0.100	Y_WP:	0.000	Y_WP:	0.500	X:	-0.070	Y:	0.050	Z:	0.057	yaw:	-0.901	yaw rate:	-5.323	Roll:	-5.534	Pitch:	0.179	Yaw:	-2.506	Thrust:	39.240
Time:	2.302	Roll Set Point:	0.241	Pitch Set Point:	-0.097	Yaw Set Point:	0.019	X_WP:	0.100	Y_WP:	0.000	Y_WP:	0.500	X:	-0.070	Y:	0.050	Z:	0.057	yaw:	-1.069	yaw rate:	-16.775	Roll:	-6.150	Pitch:	-1.218	Yaw:	-5.944	Thrust:	36.676
Time:	2.314	Roll Set Point:	0.241	Pitch Set Point:	-0.098	Yaw Set Point:	0.015	X_WP:	0.100	Y_WP:	0.000	Y_WP:	0.500	X:	-0.070	Y:	0.050	Z:	0.057	yaw:	-0.848	yaw rate:	22.076	Roll:	-3.960	Pitch:	4.691	Yaw:	3.505	Thrust:	40.498
Time:	2.326	Roll Set Point:	0.241	Pitch Set Point:	-0.098	Yaw Set Point:	0.014	X_WP:	0.100	Y_WP:	0.000	Y_WP:	0.500	X:	-0.070	Y:	0.050	Z:	0.057	yaw:	-0.822	yaw rate:	2.611	Roll:	-5.002	Pitch:	1.730	Yaw:	-0.642	Thrust:	40.516
Time:	2.337	Roll Set Point:	0.241	Pitch Set Point:	-0.098	Yaw Set Point:	0.014	X_WP:	0.100	Y_WP:	0.000	Y_WP:	0.500	X:	-0.070	Y:	0.050	Z:	0.057	yaw:	-0.830	yaw rate:	-0.815	Roll:	-5.192	Pitch:	1.387	Yaw:	-1.443	Thrust:	40.077
Time:	2.349	Roll Set Point:	0.241	Pitch Set Point:	-0.098	Yaw Set Point:	0.014	X_WP:	0.100	Y_WP:	0.000	Y_WP:	0.500	X:	-0.070	Y:	0.050	Z:	0.057	yaw:	-0.817	yaw rate:	1.322	Roll:	-5.145	Pitch:	1.648	Yaw:	-0.963	Thrust:	42.736
Time:	2.360	Roll Set Point:	0.241	Pitch Set Point:	-0.098	Yaw Set Point:	0.016	X_WP:	0.100	Y_WP:	0.000	Y_WP:	0.500	X:	-0.070	Y:	0.050	Z:	0.057	yaw:	-0.894	yaw rate:	-7.642	Roll:	-5.787	Pitch:	0.269	Yaw:	-3.155	Thrust:	41.298
Time:	2.370	Roll Set Point:	0.241	Pitch Set Point:	-0.098	Yaw Set Point:	0.015	X_WP:	0.100	Y_WP:	0.000	Y_WP:	0.500	X:	-0.070	Y:	0.050	Z:	0.057	yaw:	-0.871	yaw rate:	2.226	Roll:	-4.983	Pitch:	1.901	Yaw:	-0.729	Thrust:	40.383
Time:	2.382	Roll Set Point:	0.241	Pitch Set Point:	-0.098	Yaw Set Point:	0.015	X_WP:	0.100	Y_WP:	0.000	Y_WP:	0.500	X:	-0.070	Y:	0.050	Z:	0.057	yaw:	-0.849	yaw rate:	2.289	Roll:	-5.146	Pitch:	1.687	Yaw:	-0.775	Thrust:	43.586
Time:	2.393	Roll Set Point:	0.241	Pitch Set Point:	-0.098	Yaw Set Point:	0.015	X_WP:	0.100	Y_WP:	0.000	Y_WP:	0.500	X:	-0.070	Y:	0.050	Z:	0.057	yaw:	-0.866	yaw rate:	-1.698	Roll:	-5.291	Pitch:	1.454	Yaw:	-1.709	Thrust:	43.703
Time:	2.404	Roll Set Point:	0.241	Pitch Set Point:	-0.097	Yaw Set Point:	0.018	X_WP:	0.100	Y_WP:	0.000	Y_WP:	0.500	X:	-0.070	Y:	0.050	Z:	0.057	yaw:	-1.044	yaw rate:	-17.802	Roll:	-6.305	Pitch:	-1.664	Yaw:	-5.821	Thrust:	43.477
Time:	2.415	Roll Set Point:	0.241	Pitch Set Point:	-0.098	Yaw Set Point:	0.014	X_WP:	0.100	Y_WP:	0.000	Y_WP:	0.500	X:	-0.070	Y:	0.050	Z:	0.057	yaw:	-0.809	yaw rate:	23.419	Roll:	-3.895	Pitch:	5.597	Yaw:	4.570	Thrust:	43.660
Time:	2.426	Roll Set Point:	0.241	Pitch Set Point:	-0.097	Yaw Set Point:	0.018	X_WP:	0.100	Y_WP:	0.000	Y_WP:	0.500	X:	-0.070	Y:	0.050	Z:	0.057	yaw:	-1.037	yaw rate:	-22.775	Roll:	-6.366	Pitch:	-2.344	Yaw:	-6.946	Thrust:	44.963
Time:	2.437	Roll Set Point:	0.241	Pitch Set Point:	-0.098	Yaw Set Point:	0.015	X_WP:	0.100	Y_WP:	0.000	Y_WP:	0.500	X:	-0.070	Y:	0.050	Z:	0.057	yaw:	-0.854	yaw rate:	18.321	Roll:	-4.346	Pitch:	4.556	Yaw:	2.993	Thrust:	45.664
Time:	2.449	Roll Set Point:	0.241	Pitch Set Point:	-0.098	Yaw Set Point:	0.015	X_WP:	0.100	Y_WP:	0.000	Y_WP:	0.500	X:	-0.070	Y:	0.050	Z:	0.057	yaw:	-0.847	yaw rate:	0.696	Roll:	-5.201	Pitch:	1.404	Yaw:	-1.156	Thrust:	47.236
Time:	2.459	Roll Set Point:	0.241	Pitch Set Point:	-0.097	Yaw Set Point:	0.019	X_WP:	0.100	Y_WP:	0.000	Y_WP:	0.500	X:	-0.070	Y:	0.050	Z:	0.057	yaw:	-1.080	yaw rate:	-23.292	Roll:	-6.556	Pitch:	-2.324	Yaw:	-7.349	Thrust:	45.737
Time:	2.471	Roll Set Point:	0.240	Pitch Set Point:	-0.098	Yaw Set Point:	0.014	X_WP:	0.100	Y_WP:	0.000	Y_WP:	0.500	X:	-0.070	Y:	0.050	Z:	0.057	yaw:	-0.825	yaw rate:	7.359	Roll:	-3.931	Pitch:	5.616	Yaw:	4.250	Thrust:	49.357
Time:	2.482	Roll Set Point:	0.241	Pitch Set Point:	-0.098	Yaw Set Point:	0.016	X_WP:	0.100	Y_WP:	0.000	Y_WP:	0.500	X:	-0.070	Y:	0.050	Z:	0.057	yaw:	-0.892	yaw rate:	-6.749	Roll:	-5.657	Pitch:	0.415	Yaw:	-2.982	Thrust:	48.030
Time:	2.494	Roll Set Point:	0.241	Pitch Set Point:	-0.098	Yaw Set Point:	0.015	X_WP:	0.100	Y_WP:	0.000	Y_WP:	0.500	X:	-0.070	Y:	0.050	Z:	0.057	yaw:	-0.860	yaw rate:	3.277	Roll:	-5.122	Pitch:	1.980	Yaw:	-0.521	Thrust:	47.449
Time:	2.505	Roll Set Point:	0.240	Pitch Set Point:	-0.098	Yaw Set Point:	0.015	X_WP:	0.100	Y_WP:	0.000	Y_WP:	0.500	X:	-0.070	Y:	0.050	Z:	0.057	yaw:	-0.886	yaw rate:	-2.683	Roll:	-5.277	Pitch:	1.032	Yaw:	-2.013	Thrust:	49.015
Time:	2.515	Roll Set Point:	0.240	Pitch Set Point:	-0.098	Yaw Set Point:	0.015	X_WP:	0.100	Y_WP:	0.000	Y_WP:	0.500	X:	-0.070	Y:	0.050	Z:	0.057	yaw:	-0.847	yaw rate:	3.964	Roll:	-5.101	Pitch:	2.208	Yaw:	-0.430	Thrust:	50.566
Time:	2.526	Roll Set Point:	0.240	Pitch Set Point:	-0.097	Yaw Set Point:	0.019	X_WP:	0.100	Y_WP:	0.000	Y_WP:	0.500	X:	-0.070	Y:	0.050	Z:	0.057	yaw:	-1.061	yaw rate:	-21.419	Roll:	-5.671	Pitch:	-1.497	Yaw:	-6.716	Thrust:	48.555
Time:	2.537	Roll Set Point:	0.240	Pitch Set Point:	-0.098	Yaw Set Point:	0.014	X_WP:	0.100	Y_WP:	0.000	Y_WP:	0.500	X:	-0.070	Y:	0.050	Z:	0.057	yaw:	-0.829	yaw rate:	23.182	Roll:	-4.837	Pitch:	4.867	Yaw:	4.445	Thrust:	51.149
Time:	2.548	Roll Set Point:	0.240	Pitch Set Point:	-0.098	Yaw Set Point:	0.015	X_WP:	0.100	Y_WP:	0.000	Y_WP:	0.500	X:	-0.070	Y:	0.050	Z:	0.057	yaw:	-0.874	yaw rate:	-4.471	Roll:	-5.526	Pitch:	0.750	Yaw:	-2.436	Thrust:	51.179
Time:	2.561	Roll Set Point:	0.241	Pitch Set Point:	-0.097	Yaw Set Point:	0.019	X_WP:	0.100	Y_WP:	0.000	Y_WP:	0.500	X:	-0.070	Y:	0.050	Z:	0.057	yaw:	-1.081	yaw rate:	-20.714	Roll:	-6.164	Pitch:	-1.687	Yaw:	-6.373	Thrust:	53.040
Time:	2.572	Roll Set Point:	0.240	Pitch Set Point:	-0.097	Yaw Set Point:	0.019	X_WP:	0.100	Y_WP:	0.000	Y_WP:	0.500	X:	-0.070	Y:	0.050	Z:	0.057	yaw:	-1.064	yaw rate:	1.745	Roll:	-5.064	Pitch:	1.650	Yaw:	-1.236	Thrust:	52.441
Time:	2.582	Roll Set Point:	0.240	Pitch Set Point:	-0.098	Yaw Set Point:	0.015	X_WP:	0.100	Y_WP:	0.000	Y_WP:	0.500	X:	-0.070	Y:	0.050	Z:	0.057	yaw:	-0.866	yaw rate:	19.756	Roll:	-3.783	Pitch:	4.847	Yaw:	3.108	Thrust:	54.052
Time:	2.594	Roll Set Point:	0.239	Pitch Set Point:	-0.098	Yaw Set Point:	0.016	X_WP:	0.100	Y_WP:	0.000	Y_WP:	0.500	X:	-0.069	Y:	0.050	Z:	0.057	yaw:	-0.894	yaw rate:	-2.809	Roll:	-4.694	Pitch:	0.990	Yaw:	-2.104	Thrust:	52.019
Time:	2.604	Roll Set Point:	0.239	Pitch Set Point:	-0.098	Yaw Set Point:	0.015	X_WP:	0.100	Y_WP:	0.000	Y_WP:	0.500	X:	-0.069	Y:	0.050	Z:	0.057	yaw:	-0.865	yaw rate:	2.913	Roll:	-4.656	Pitch:	1.954	Yaw:	-0.697	Thrust:	54.240
Time:	2.615	Roll Set Point:	0.239	Pitch Set Point:	-0.097	Yaw Set Point:	0.019	X_WP:	0.100	Y_WP:	0.000	Y_WP:	0.500	X:	-0.069	Y:	0.050	Z:	0.057	yaw:	-1.096	yaw rate:	-23.062	Roll:	-5.725	Pitch:	-2.703	Yaw:	-7.419	Thrust:	52.925
Time:	2.625	Roll Set Point:	0.239	Pitch Set Point:	-0.097	Yaw Set Point:	0.019	X_WP:	0.100	Y_WP:	0.000	Y_WP:	0.500	X:	-0.069	Y:	0.050	Z:	0.058	yaw:	-1.082	yaw rate:	1.311	Roll:	-4.221	Pitch:	1.926	Yaw:	-1.381	Thrust:	54.555
Time:	2.636	Roll Set Point:	0.237	Pitch Set Point:	-0.097	Yaw Set Point:	0.019	X_WP:	0.100	Y_WP:	0.000	Y_WP:	0.500	X:	-0.068	Y:	0.050	Z:	0.058	yaw:	-1.093	yaw rate:	-1.047	Roll:	-2.459	Pitch:	1.317	Yaw:	-1.964	Thrust:	52.920
Time:	2.647	Roll Set Point:	0.237	Pitch Set Point:	-0.097	Yaw Set Point:	0.019	X_WP:	0.100	Y_WP:	0.000	Y_WP:	0.500	X:	-0.068	Y:	0.050	Z:	0.058	yaw:	-1.075	yaw rate:	1.786	Roll:	-3.720	Pitch:	1.995	Yaw:	-1.268	Thrust:	55.942
Time:	2.658	Roll Set Point:	0.236	Pitch Set Point:	-0.097	Yaw Set Point:	0.019	X_WP:	0.100	Y_WP:	0.000	Y_WP:	0.500	X:	-0.067	Y:	0.050	Z:	0.058	yaw:	-1.067	yaw rate:	0.759	Roll:	-3.722	Pitch:	1.858	Yaw:	-1.506	Thrust:	56.201
Time:	2.669	Roll Set Point:	0.235	Pitch Set Point:	-0.097	Yaw Set Point:	0.019	X_WP:	0.100	Y_WP:	0.000	Y_WP:	0.500	X:	-0.067	Y:	0.050	Z:	0.059	yaw:	-1.062	yaw rate:	0.555	Roll:	-4.145	Pitch:	1.197	Yaw:	-1.532	Thrust:	54.235
Time:	2.681	Roll Set Point:	0.234	Pitch Set Point:	-0.097	Yaw Set Point:	0.019	X_WP:	0.100	Y_WP:	0.000	Y_WP:	0.500	X:	-0.067	Y:	0.050	Z:	0.059	yaw:	-1.085	yaw rate:	-2.296	Roll:	-3.654	Pitch:	1.540	Yaw:	-2.237	Thrust:	60.432
Time:	2.692	Roll Set Point:	0.233	Pitch Set Point:	-0.097	Yaw Set Point:	0.020	X_WP:	0.100	Y_WP:	0.000	Y_WP:	0.500	X:	-0.066	Y:	0.050	Z:	0.059	yaw:	-1.137	yaw rate:	-5.217	Roll:	-3.344	Pitch:	0.671	Yaw:	-3.015	Thrust:	58.640
Time:	2.702	Roll Set Point:	0.232	Pitch Set Point:	-0.097	Yaw Set Point:	0.021	X_WP:	0.100	Y_WP:	0.000	Y_WP:	0.500	X:	-0.066	Y:	0.050	Z:	0.059	yaw:	-1.198	yaw rate:	-6.085	Roll:	-2.834	Pitch:	0.728	Yaw:	-3.439	Thrust:	55.618
Time:	2.713	Roll Set Point:	0.231	Pitch Set Point:	-0.097	Yaw Set Point:	0.022	X_WP:	0.100	Y_WP:	0.000	Y_WP:	0.500	X:	-0.065	Y:	0.050	Z:	0.060	yaw:	-1.286	yaw rate:	-8.806	Roll:	-2.545	Pitch:	0.514	Yaw:	-4.101	Thrust:	59.385
Time:	2.725	Roll Set Point:	0.230	Pitch Set Point:	-0.096	Yaw Set Point:	0.026	X_WP:	0.100	Y_WP:	0.000	Y_WP:	0.500	X:	-0.064	Y:	0.050	Z:	0.060	yaw:	-1.504	yaw rate:	-21.835	Roll:	-3.368	Pitch:	-1.326	Yaw:	-7.288	Thrust:	61.490
Time:	2.735	Roll Set Point:	0.228	Pitch Set Point:	-0.093	Yaw Set Point:	0.043	X_WP:	0.100	Y_WP:	0.000	Y_WP:	0.500	X:	-0.063	Y:	0.050	Z:	0.060	yaw:	-2.457	yaw rate:	-95.296	Roll:	-3.207	Pitch:	-10.895	Yaw:	-26.611	Thrust:	58.718
Time:	2.747	Roll Set Point:	0.227	Pitch Set Point:	-0.092	Yaw Set Point:	0.049	X_WP:	0.100	Y_WP:	0.000	Y_WP:	0.500	X:	-0.062	Y:	0.050	Z:	0.061	yaw:	-2.799	yaw rate:	-34.174	Roll:	-2.305	Pitch:	-2.413	Yaw:	-11.593	Thrust:	63.969
Time:	2.758	Roll Set Point:	0.225	Pitch Set Point:	-0.091	Yaw Set Point:	0.055	X_WP:	0.100	Y_WP:	0.000	Y_WP:	0.500	X:	-0.061	Y:	0.050	Z:	0.061	yaw:	-3.163	yaw rate:	-36.353	Roll:	-2.530	Pitch:	-3.266	Yaw:	-13.303	Thrust:	61.804
Time:	2.770	Roll Set Point:	0.223	Pitch Set Point:	-0.090	Yaw Set Point:	0.061	X_WP:	0.100	Y_WP:	0.000	Y_WP:	0.500	X:	-0.060	Y:	0.050	Z:	0.061	yaw:	-3.523	yaw rate:	-36.088	Roll:	-2.154	Pitch:	-3.316	Yaw:	-13.689	Thrust:	61.835
Time:	2.781	Roll Set Point:	0.221	Pitch Set Point:	-0.090	Yaw Set Point:	0.062	X_WP:	0.100	Y_WP:	0.000	Y_WP:	0.500	X:	-0.059	Y:	0.050	Z:	0.061	yaw:	-3.563	yaw rate:	-3.923	Roll:	0.312	Pitch:	1.656	Yaw:	-6.177	Thrust:	62.684
Time:	2.792	Roll Set Point:	0.219	Pitch Set Point:	-0.089	Yaw Set Point:	0.071	X_WP:	0.100	Y_WP:	0.000	Y_WP:	0.500	X:	-0.058	Y:	0.050	Z:	0.061	yaw:	-4.041	yaw rate:	-47.794	Roll:	-0.964	Pitch:	-5.020	Yaw:	-17.274	Thrust:	63.318
Time:	2.802	Roll Set Point:	0.216	Pitch Set Point:	-0.088	Yaw Set Point:	0.075	X_WP:	0.100	Y_WP:	0.000	Y_WP:	0.500	X:	-0.056	Y:	0.050	Z:	0.062	yaw:	-4.290	yaw rate:	-24.969	Roll:	0.760	Pitch:	-1.979	Yaw:	-12.744	Thrust:	59.975
Time:	2.814	Roll Set Point:	0.213	Pitch Set Point:	-0.087	Yaw Set Point:	0.078	X_WP:	0.100	Y_WP:	0.000	Y_WP:	0.500	X:	-0.055	Y:	0.050	Z:	0.062	yaw:	-4.465	yaw rate:	-17.443	Roll:	0.073	Pitch:	-0.564	Yaw:	-10.226	Thrust:	69.697
Time:	2.826	Roll Set Point:	0.209	Pitch Set Point:	-0.088	Yaw Set Point:	0.075	X_WP:	0.100	Y_WP:	0.000	Y_WP:	0.500	X:	-0.053	Y:	0.050	Z:	0.062	yaw:	-4.326	yaw rate:	13.894	Roll:	3.324	Pitch:	3.940	Yaw:	-3.237	Thrust:	66.978
Time:	2.838	Roll Set Point:	0.206	Pitch Set Point:	-0.087	Yaw Set Point:	0.080	X_WP:	0.100	Y_WP:	0.000	Y_WP:	0.500	X:	-0.051	Y:	0.050	Z:	0.062	yaw:	-4.600	yaw rate:	-27.412	Roll:	1.202	Pitch:	-1.817	Yaw:	-12.946	Thrust:	67.427
Time:	2.849	Roll Set Point:	0.199	Pitch Set Point:	-0.086	Yaw Set Point:	0.087	X_WP:	0.100	Y_WP:	0.000	Y_WP:	0.500	X:	-0.048	Y:	0.050	Z:	0.063	yaw:	-4.957	yaw rate:	-35.664	Roll:	10.505	Pitch:	-2.868	Yaw:	-15.387	Thrust:	65.781
Time:	2.861	Roll Set Point:	0.195	Pitch Set Point:	-0.086	Yaw Set Point:	0.089	X_WP:	0.100	Y_WP:	0.000	Y_WP:	0.500	X:	-0.045	Y:	0.049	Z:	0.063	yaw:	-5.090	yaw rate:	-13.331	Roll:	3.804	Pitch:	-0.105	Yaw:	-10.643	Thrust:	66.429
Time:	2.871	Roll Set Point:	0.191	Pitch Set Point:	-0.086	Yaw Set Point:	0.089	X_WP:	0.100	Y_WP:	0.000	Y_WP:	0.500	X:	-0.043	Y:	0.049	Z:	0.064	yaw:	-5.117	yaw rate:	-2.707	Roll:	4.674	Pitch:	1.405	Yaw:	-8.196	Thrust:	65.857
Time:	2.883	Roll Set Point:	0.186	Pitch Set Point:	-0.085	Yaw Set Point:	0.091	X_WP:	0.100	Y_WP:	0.000	Y_WP:	0.500	X:	-0.041	Y:	0.049	Z:	0.065	yaw:	-5.200	yaw rate:	-8.292	Roll:	4.905	Pitch:	0.598	Yaw:	-9.589	Thrust:	68.166
Time:	2.894	Roll Set Point:	0.181	Pitch Set Point:	-0.085	Yaw Set Point:	0.092	X_WP:	0.100	Y_WP:	0.000	Y_WP:	0.500	X:	-0.039	Y:	0.049	Z:	0.065	yaw:	-5.277	yaw rate:	-7.743	Roll:	4.857	Pitch:	1.326	Yaw:	-9.605	Thrust:	68.514
Time:	2.905	Roll Set Point:	0.176	Pitch Set Point:	-0.085	Yaw Set Point:	0.094	X_WP:	0.100	Y_WP:	0.000	Y_WP:	0.500	X:	-0.036	Y:	0.049	Z:	0.066	yaw:	-5.366	yaw rate:	-8.852	Roll:	6.753	Pitch:	0.738	Yaw:	-10.072	Thrust:	66.899
Time:	2.917	Roll Set Point:	0.171	Pitch Set Point:	-0.086	Yaw Set Point:	0.090	X_WP:	0.100	Y_WP:	0.000	Y_WP:	0.500	X:	-0.034	Y:	0.049	Z:	0.067	yaw:	-5.151	yaw rate:	21.461	Roll:	7.262	Pitch:	4.860	Yaw:	-2.841	Thrust:	68.921
Time:	2.928	Roll Set Point:	0.166	Pitch Set Point:	-0.085	Yaw Set Point:	0.092	X_WP:	0.100	Y_WP:	0.000	Y_WP:	0.500	X:	-0.031	Y:	0.049	Z:	0.068	yaw:	-5.299	yaw rate:	-14.739	Roll:	6.014	Pitch:	-0.340	Yaw:	-11.399	Thrust:	66.428
Time:	2.938	Roll Set Point:	0.161	Pitch Set Point:	-0.086	Yaw Set Point:	0.094	X_WP:	0.100	Y_WP:	0.000	Y_WP:	0.500	X:	-0.028	Y:	0.049	Z:	0.068	yaw:	-5.360	yaw rate:	-6.101	Roll:	7.915	Pitch:	1.755	Yaw:	-9.499	Thrust:	65.447
Time:	2.951	Roll Set Point:	0.150	Pitch Set Point:	-0.086	Yaw Set Point:	0.092	X_WP:	0.100	Y_WP:	0.000	Y_WP:	0.500	X:	-0.023	Y:	0.049	Z:	0.071	yaw:	-5.248	yaw rate:	6.344	Roll:	18.000	Pitch:	3.886	Yaw:	-5.634	Thrust:	69.375
Time:	2.962	Roll Set Point:	0.144	Pitch Set Point:	-0.087	Yaw Set Point:	0.087	X_WP:	0.100	Y_WP:	0.000	Y_WP:	0.500	X:	-0.020	Y:	0.049	Z:	0.072	yaw:	-4.966	yaw rate:	28.193	Roll:	8.852	Pitch:	5.913	Yaw:	-0.478	Thrust:	64.062
Time:	2.974	Roll Set Point:	0.134	Pitch Set Point:	-0.087	Yaw Set Point:	0.088	X_WP:	0.100	Y_WP:	0.000	Y_WP:	0.500	X:	-0.015	Y:	0.049	Z:	0.075	yaw:	-5.054	yaw rate:	-8.763	Roll:	19.953	Pitch:	1.722	Yaw:	-9.607	Thrust:	60.612
Time:	2.988	Roll Set Point:	0.128	Pitch Set Point:	-0.088	Yaw Set Point:	0.087	X_WP:	0.100	Y_WP:	0.000	Y_WP:	0.500	X:	-0.012	Y:	0.049	Z:	0.077	yaw:	-4.974	yaw rate:	7.984	Roll:	4.954	Pitch:	2.868	Yaw:	-6.231	Thrust:	86.483
Time:	2.999	Roll Set Point:	0.123	Pitch Set Point:	-0.088	Yaw Set Point:	0.082	X_WP:	0.100	Y_WP:	0.000	Y_WP:	0.500	X:	-0.010	Y:	0.049	Z:	0.078	yaw:	-4.721	yaw rate:	25.309	Roll:	7.413	Pitch:	4.210	Yaw:	-1.422	Thrust:	68.848
Time:	3.012	Roll Set Point:	0.118	Pitch Set Point:	-0.088	Yaw Set Point:	0.080	X_WP:	0.100	Y_WP:	0.000	Y_WP:	0.500	X:	-0.007	Y:	0.049	Z:	0.080	yaw:	-4.605	yaw rate:	11.579	Roll:	7.159	Pitch:	2.787	Yaw:	-4.978	Thrust:	78.808
Time:	3.025	Roll Set Point:	0.112	Pitch Set Point:	-0.089	Yaw Set Point:	0.078	X_WP:	0.100	Y_WP:	0.000	Y_WP:	0.500	X:	-0.004	Y:	0.048	Z:	0.082	yaw:	-4.491	yaw rate:	11.459	Roll:	5.872	Pitch:	2.719	Yaw:	-4.502	Thrust:	71.923
Time:	3.036	Roll Set Point:	0.107	Pitch Set Point:	-0.090	Yaw Set Point:	0.072	X_WP:	0.100	Y_WP:	0.000	Y_WP:	0.500	X:	-0.002	Y:	0.049	Z:	0.084	yaw:	-4.097	yaw rate:	39.328	Roll:	9.088	Pitch:	6.178	Yaw:	2.829	Thrust:	67.431
Time:	3.047	Roll Set Point:	0.102	Pitch Set Point:	-0.089	Yaw Set Point:	0.074	X_WP:	0.100	Y_WP:	0.000	Y_WP:	0.500	X:	0.001	Y:	0.048	Z:	0.086	yaw:	-4.257	yaw rate:	-15.916	Roll:	5.873	Pitch:	-0.375	Yaw:	-10.283	Thrust:	69.166
Time:	3.058	Roll Set Point:	0.097	Pitch Set Point:	-0.090	Yaw Set Point:	0.067	X_WP:	0.100	Y_WP:	0.000	Y_WP:	0.500	X:	0.003	Y:	0.048	Z:	0.088	yaw:	-3.830	yaw rate:	42.661	Roll:	9.185	Pitch:	5.818	Yaw:	3.940	Thrust:	67.018
Time:	3.070	Roll Set Point:	0.092	Pitch Set Point:	-0.090	Yaw Set Point:	0.066	X_WP:	0.100	Y_WP:	0.000	Y_WP:	0.500	X:	0.005	Y:	0.048	Z:	0.091	yaw:	-3.773	yaw rate:	5.666	Roll:	6.647	Pitch:	0.952	Yaw:	-4.734	Thrust:	63.554
Time:	3.081	Roll Set Point:	0.084	Pitch Set Point:	-0.090	Yaw Set Point:	0.061	X_WP:	0.100	Y_WP:	0.000	Y_WP:	0.500	X:	0.009	Y:	0.048	Z:	0.096	yaw:	-3.510	yaw rate:	27.482	Roll:	15.176	Pitch:	2.997	Yaw:	0.445	Thrust:	63.560
Time:	3.092	Roll Set Point:	0.079	Pitch Set Point:	-0.090	Yaw Set Point:	0.057	X_WP:	0.100	Y_WP:	0.000	Y_WP:	0.500	X:	0.012	Y:	0.047	Z:	0.099	yaw:	-3.253	yaw rate:	25.723	Roll:	7.367	Pitch:	2.615	Yaw:	1.131	Thrust:	62.319
Time:	3.102	Roll Set Point:	0.075	Pitch Set Point:	-0.090	Yaw Set Point:	0.053	X_WP:	0.100	Y_WP:	0.000	Y_WP:	0.500	X:	0.014	Y:	0.047	Z:	0.101	yaw:	-3.039	yaw rate:	21.375	Roll:	6.732	Pitch:	2.639	Yaw:	0.589	Thrust:	59.847
Time:	3.114	Roll Set Point:	0.068	Pitch Set Point:	-0.089	Yaw Set Point:	0.045	X_WP:	0.100	Y_WP:	0.000	Y_WP:	0.500	X:	0.017	Y:	0.047	Z:	0.108	yaw:	-2.587	yaw rate:	45.172	Roll:	14.142	Pitch:	2.681	Yaw:	5.336	Thrust:	59.380
Time:	3.125	Roll Set Point:	0.064	Pitch Set Point:	-0.090	Yaw Set Point:	0.038	X_WP:	0.100	Y_WP:	0.000	Y_WP:	0.500	X:	0.019	Y:	0.046	Z:	0.111	yaw:	-2.187	yaw rate:	40.064	Roll:	6.516	Pitch:	3.484	Yaw:	5.802	Thrust:	63.166
Time:	3.136	Roll Set Point:	0.060	Pitch Set Point:	-0.088	Yaw Set Point:	0.038	X_WP:	0.100	Y_WP:	0.000	Y_WP:	0.500	X:	0.021	Y:	0.046	Z:	0.114	yaw:	-2.192	yaw rate:	-0.538	Roll:	3.577	Pitch:	-0.856	Yaw:	-4.016	Thrust:	66.925
Time:	3.147	Roll Set Point:	0.057	Pitch Set Point:	-0.088	Yaw Set Point:	0.035	X_WP:	0.100	Y_WP:	0.000	Y_WP:	0.500	X:	0.022	Y:	0.045	Z:	0.118	yaw:	-2.013	yaw rate:	17.938	Roll:	5.245	Pitch:	0.485	Yaw:	0.870	Thrust:	60.647
Time:	3.158	Roll Set Point:	0.054	Pitch Set Point:	-0.087	Yaw Set Point:	0.033	X_WP:	0.100	Y_WP:	0.000	Y_WP:	0.500	X:	0.024	Y:	0.045	Z:	0.121	yaw:	-1.913	yaw rate:	9.933	Roll:	4.818	Pitch:	-0.479	Yaw:	-1.130	Thrust:	63.862
Time:	3.169	Roll Set Point:	0.051	Pitch Set Point:	-0.086	Yaw Set Point:	0.031	X_WP:	0.100	Y_WP:	0.000	Y_WP:	0.500	X:	0.025	Y:	0.044	Z:	0.125	yaw:	-1.754	yaw rate:	15.924	Roll:	4.062	Pitch:	-0.033	Yaw:	0.558	Thrust:	63.344
Time:	3.180	Roll Set Point:	0.048	Pitch Set Point:	-0.085	Yaw Set Point:	0.027	X_WP:	0.100	Y_WP:	0.000	Y_WP:	0.500	X:	0.027	Y:	0.043	Z:	0.129	yaw:	-1.558	yaw rate:	19.620	Roll:	4.091	Pitch:	-0.073	Yaw:	1.447	Thrust:	67.003
Time:	3.191	Roll Set Point:	0.045	Pitch Set Point:	-0.084	Yaw Set Point:	0.025	X_WP:	0.100	Y_WP:	0.000	Y_WP:	0.500	X:	0.028	Y:	0.043	Z:	0.132	yaw:	-1.444	yaw rate:	11.414	Roll:	3.366	Pitch:	-0.975	Yaw:	-0.225	Thrust:	66.214
Time:	3.202	Roll Set Point:	0.042	Pitch Set Point:	-0.082	Yaw Set Point:	0.025	X_WP:	0.100	Y_WP:	0.000	Y_WP:	0.500	X:	0.029	Y:	0.042	Z:	0.136	yaw:	-1.411	yaw rate:	3.277	Roll:	3.021	Pitch:	-2.230	Yaw:	-1.910	Thrust:	59.428
Time:	3.214	Roll Set Point:	0.040	Pitch Set Point:	-0.081	Yaw Set Point:	0.020	X_WP:	0.100	Y_WP:	0.000	Y_WP:	0.500	X:	0.030	Y:	0.041	Z:	0.139	yaw:	-1.168	yaw rate:	24.308	Roll:	2.750	Pitch:	-0.342	Yaw:	2.724	Thrust:	72.441
Time:	3.225	Roll Set Point:	0.038	Pitch Set Point:	-0.079	Yaw Set Point:	0.019	X_WP:	0.100	Y_WP:	0.000	Y_WP:	0.500	X:	0.031	Y:	0.040	Z:	0.143	yaw:	-1.062	yaw rate:	10.648	Roll:	2.235	Pitch:	-1.694	Yaw:	0.194	Thrust:	65.777
Time:	3.236	Roll Set Point:	0.034	Pitch Set Point:	-0.076	Yaw Set Point:	0.014	X_WP:	0.100	Y_WP:	0.000	Y_WP:	0.500	X:	0.033	Y:	0.039	Z:	0.150	yaw:	-0.813	yaw rate:	24.825	Roll:	5.923	Pitch:	-5.220	Yaw:	3.987	Thrust:	50.886
Time:	3.247	Roll Set Point:	0.032	Pitch Set Point:	-0.074	Yaw Set Point:	0.013	X_WP:	0.100	Y_WP:	0.000	Y_WP:	0.500	X:	0.034	Y:	0.038	Z:	0.153	yaw:	-0.722	yaw rate:	9.142	Roll:	1.325	Pitch:	-2.725	Yaw:	0.304	Thrust:	66.410
Time:	3.258	Roll Set Point:	0.031	Pitch Set Point:	-0.072	Yaw Set Point:	0.011	X_WP:	0.100	Y_WP:	0.000	Y_WP:	0.500	X:	0.035	Y:	0.037	Z:	0.157	yaw:	-0.647	yaw rate:	7.520	Roll:	0.811	Pitch:	-2.432	Yaw:	-0.098	Thrust:	69.806
Time:	3.268	Roll Set Point:	0.029	Pitch Set Point:	-0.071	Yaw Set Point:	0.005	X_WP:	0.100	Y_WP:	0.000	Y_WP:	0.500	X:	0.036	Y:	0.036	Z:	0.160	yaw:	-0.289	yaw rate:	35.794	Roll:	1.792	Pitch:	-1.251	Yaw:	8.140	Thrust:	59.874
Time:	3.280	Roll Set Point:	0.028	Pitch Set Point:	-0.069	Yaw Set Point:	0.003	X_WP:	0.100	Y_WP:	0.000	Y_WP:	0.500	X:	0.036	Y:	0.035	Z:	0.164	yaw:	-0.195	yaw rate:	9.363	Roll:	0.200	Pitch:	-2.718	Yaw:	0.814	Thrust:	73.804
Time:	3.291	Roll Set Point:	0.027	Pitch Set Point:	-0.067	Yaw Set Point:	0.001	X_WP:	0.100	Y_WP:	0.000	Y_WP:	0.500	X:	0.037	Y:	0.033	Z:	0.168	yaw:	-0.059	yaw rate:	13.659	Roll:	0.097	Pitch:	-3.133	Yaw:	2.217	Thrust:	68.529
Time:	3.302	Roll Set Point:	0.025	Pitch Set Point:	-0.065	Yaw Set Point:	-0.001	X_WP:	0.100	Y_WP:	0.000	Y_WP:	0.500	X:	0.037	Y:	0.032	Z:	0.171	yaw:	0.039	yaw rate:	9.729	Roll:	0.291	Pitch:	-3.697	Yaw:	1.796	Thrust:	59.829
Time:	3.313	Roll Set Point:	0.024	Pitch Set Point:	-0.062	Yaw Set Point:	0.002	X_WP:	0.100	Y_WP:	0.000	Y_WP:	0.500	X:	0.038	Y:	0.031	Z:	0.175	yaw:	-0.088	yaw rate:	-12.706	Roll:	-0.558	Pitch:	-4.412	Yaw:	-3.909	Thrust:	70.536
Time:	3.325	Roll Set Point:	0.023	Pitch Set Point:	-0.061	Yaw Set Point:	-0.002	X_WP:	0.100	Y_WP:	0.000	Y_WP:	0.500	X:	0.038	Y:	0.030	Z:	0.179	yaw:	0.106	yaw rate:	19.454	Roll:	0.451	Pitch:	-1.817	Yaw:	3.532	Thrust:	72.347
Time:	3.336	Roll Set Point:	0.022	Pitch Set Point:	-0.058	Yaw Set Point:	-0.002	X_WP:	0.100	Y_WP:	0.000	Y_WP:	0.500	X:	0.039	Y:	0.029	Z:	0.183	yaw:	0.113	yaw rate:	0.714	Roll:	-0.780	Pitch:	-4.642	Yaw:	-0.510	Thrust:	64.894
Time:	3.348	Roll Set Point:	0.020	Pitch Set Point:	-0.054	Yaw Set Point:	-0.004	X_WP:	0.100	Y_WP:	0.000	Y_WP:	0.500	X:	0.040	Y:	0.027	Z:	0.190	yaw:	0.206	yaw rate:	9.284	Roll:	1.274	Pitch:	-7.625	Yaw:	1.356	Thrust:	60.289
Time:	3.359	Roll Set Point:	0.020	Pitch Set Point:	-0.052	Yaw Set Point:	-0.005	X_WP:	0.100	Y_WP:	0.000	Y_WP:	0.500	X:	0.040	Y:	0.026	Z:	0.194	yaw:	0.302	yaw rate:	9.535	Roll:	-1.047	Pitch:	-3.183	Yaw:	1.653	Thrust:	71.256
Time:	3.370	Roll Set Point:	0.019	Pitch Set Point:	-0.050	Yaw Set Point:	-0.007	X_WP:	0.100	Y_WP:	0.000	Y_WP:	0.500	X:	0.041	Y:	0.025	Z:	0.198	yaw:	0.377	yaw rate:	7.566	Roll:	-0.762	Pitch:	-3.432	Yaw:	1.449	Thrust:	67.137
Time:	3.382	Roll Set Point:	0.018	Pitch Set Point:	-0.048	Yaw Set Point:	-0.006	X_WP:	0.100	Y_WP:	0.000	Y_WP:	0.500	X:	0.041	Y:	0.024	Z:	0.202	yaw:	0.372	yaw rate:	-0.529	Roll:	-0.779	Pitch:	-3.558	Yaw:	-0.499	Thrust:	70.053
Time:	3.394	Roll Set Point:	0.017	Pitch Set Point:	-0.046	Yaw Set Point:	-0.008	X_WP:	0.100	Y_WP:	0.000	Y_WP:	0.500	X:	0.041	Y:	0.023	Z:	0.206	yaw:	0.471	yaw rate:	9.921	Roll:	-0.923	Pitch:	-3.567	Yaw:	1.991	Thrust:	63.171
Time:	3.404	Roll Set Point:	0.016	Pitch Set Point:	-0.044	Yaw Set Point:	-0.009	X_WP:	0.100	Y_WP:	0.000	Y_WP:	0.500	X:	0.042	Y:	0.022	Z:	0.210	yaw:	0.495	yaw rate:	2.346	Roll:	-1.017	Pitch:	-3.481	Yaw:	0.516	Thrust:	66.731
Time:	3.415	Roll Set Point:	0.016	Pitch Set Point:	-0.042	Yaw Set Point:	-0.009	X_WP:	0.100	Y_WP:	0.000	Y_WP:	0.500	X:	0.042	Y:	0.021	Z:	0.215	yaw:	0.533	yaw rate:	3.805	Roll:	-1.141	Pitch:	-3.142	Yaw:	0.715	Thrust:	70.066
Time:	3.427	Roll Set Point:	0.015	Pitch Set Point:	-0.040	Yaw Set Point:	-0.010	X_WP:	0.100	Y_WP:	0.000	Y_WP:	0.500	X:	0.042	Y:	0.020	Z:	0.219	yaw:	0.573	yaw rate:	3.995	Roll:	-1.101	Pitch:	-3.464	Yaw:	0.834	Thrust:	68.993
Time:	3.438	Roll Set Point:	0.014	Pitch Set Point:	-0.038	Yaw Set Point:	-0.015	X_WP:	0.100	Y_WP:	0.000	Y_WP:	0.500	X:	0.043	Y:	0.019	Z:	0.223	yaw:	0.873	yaw rate:	30.012	Roll:	-0.751	Pitch:	-1.641	Yaw:	7.423	Thrust:	66.898
Time:	3.448	Roll Set Point:	0.014	Pitch Set Point:	-0.036	Yaw Set Point:	-0.011	X_WP:	0.100	Y_WP:	0.000	Y_WP:	0.500	X:	0.043	Y:	0.018	Z:	0.228	yaw:	0.655	yaw rate:	-21.726	Roll:	-1.479	Pitch:	-4.987	Yaw:	-5.280	Thrust:	62.318
Time:	3.459	Roll Set Point:	0.013	Pitch Set Point:	-0.034	Yaw Set Point:	-0.013	X_WP:	0.100	Y_WP:	0.000	Y_WP:	0.500	X:	0.043	Y:	0.017	Z:	0.232	yaw:	0.746	yaw rate:	9.073	Roll:	-0.930	Pitch:	-3.042	Yaw:	2.323	Thrust:	66.667
Time:	3.469	Roll Set Point:	0.013	Pitch Set Point:	-0.033	Yaw Set Point:	-0.013	X_WP:	0.100	Y_WP:	0.000	Y_WP:	0.500	X:	0.044	Y:	0.016	Z:	0.237	yaw:	0.763	yaw rate:	1.715	Roll:	-1.207	Pitch:	-2.760	Yaw:	0.736	Thrust:	58.395
Time:	3.481	Roll Set Point:	0.011	Pitch Set Point:	-0.030	Yaw Set Point:	-0.012	X_WP:	0.100	Y_WP:	0.000	Y_WP:	0.500	X:	0.044	Y:	0.015	Z:	0.246	yaw:	0.687	yaw rate:	-7.649	Roll:	0.356	Pitch:	-6.080	Yaw:	-1.662	Thrust:	50.489
Time:	3.492	Roll Set Point:	0.011	Pitch Set Point:	-0.029	Yaw Set Point:	-0.014	X_WP:	0.100	Y_WP:	0.000	Y_WP:	0.500	X:	0.045	Y:	0.014	Z:	0.251	yaw:	0.777	yaw rate:	8.993	Roll:	-1.086	Pitch:	-1.726	Yaw:	2.444	Thrust:	63.209
Time:	3.502	Roll Set Point:	0.010	Pitch Set Point:	-0.027	Yaw Set Point:	-0.014	X_WP:	0.100	Y_WP:	0.000	Y_WP:	0.500	X:	0.045	Y:	0.013	Z:	0.255	yaw:	0.782	yaw rate:	0.563	Roll:	-0.803	Pitch:	-2.280	Yaw:	0.471	Thrust:	57.247
Time:	3.513	Roll Set Point:	0.009	Pitch Set Point:	-0.026	Yaw Set Point:	-0.014	X_WP:	0.100	Y_WP:	0.000	Y_WP:	0.500	X:	0.045	Y:	0.013	Z:	0.260	yaw:	0.804	yaw rate:	2.198	Roll:	-0.714	Pitch:	-1.637	Yaw:	0.745	Thrust:	68.915
Time:	3.524	Roll Set Point:	0.008	Pitch Set Point:	-0.025	Yaw Set Point:	-0.014	X_WP:	0.100	Y_WP:	0.000	Y_WP:	0.500	X:	0.046	Y:	0.012	Z:	0.265	yaw:	0.795	yaw rate:	-0.925	Roll:	-0.708	Pitch:	-1.805	Yaw:	0.061	Thrust:	64.736
Time:	3.534	Roll Set Point:	0.007	Pitch Set Point:	-0.024	Yaw Set Point:	-0.014	X_WP:	0.100	Y_WP:	0.000	Y_WP:	0.500	X:	0.046	Y:	0.012	Z:	0.270	yaw:	0.827	yaw rate:	3.163	Roll:	-0.736	Pitch:	-1.329	Yaw:	1.227	Thrust:	56.079
Time:	3.547	Roll Set Point:	0.006	Pitch Set Point:	-0.023	Yaw Set Point:	-0.015	X_WP:	0.100	Y_WP:	0.000	Y_WP:	0.500	X:	0.047	Y:	0.011	Z:	0.279	yaw:	0.881	yaw rate:	1.845	Roll:	1.344	Pitch:	-2.634	Yaw:	1.505	Thrust:	55.090
Time:	3.558	Roll Set Point:	0.005	Pitch Set Point:	-0.022	Yaw Set Point:	-0.016	X_WP:	0.100	Y_WP:	0.000	Y_WP:	0.500	X:	0.048	Y:	0.011	Z:	0.284	yaw:	0.892	yaw rate:	1.067	Roll:	-0.209	Pitch:	-0.834	Yaw:	0.676	Thrust:	60.730
Time:	3.568	Roll Set Point:	0.004	Pitch Set Point:	-0.022	Yaw Set Point:	-0.016	X_WP:	0.100	Y_WP:	0.000	Y_WP:	0.500	X:	0.048	Y:	0.010	Z:	0.289	yaw:	0.918	yaw rate:	2.630	Roll:	-0.144	Pitch:	-0.603	Yaw:	1.225	Thrust:	61.206
Time:	3.580	Roll Set Point:	0.003	Pitch Set Point:	-0.021	Yaw Set Point:	-0.016	X_WP:	0.100	Y_WP:	0.000	Y_WP:	0.500	X:	0.049	Y:	0.010	Z:	0.293	yaw:	0.912	yaw rate:	-0.553	Roll:	-0.409	Pitch:	-0.299	Yaw:	0.234	Thrust:	77.485
Time:	3.592	Roll Set Point:	0.001	Pitch Set Point:	-0.021	Yaw Set Point:	-0.020	X_WP:	0.100	Y_WP:	0.000	Y_WP:	0.500	X:	0.049	Y:	0.010	Z:	0.298	yaw:	1.120	yaw rate:	20.795	Roll:	0.257	Pitch:	1.172	Yaw:	5.503	Thrust:	68.521
Time:	3.604	Roll Set Point:	0.000	Pitch Set Point:	-0.021	Yaw Set Point:	-0.017	X_WP:	0.100	Y_WP:	0.000	Y_WP:	0.500	X:	0.050	Y:	0.010	Z:	0.303	yaw:	0.994	yaw rate:	-12.663	Roll:	-0.637	Pitch:	-0.811	Yaw:	-2.235	Thrust:	74.375
Time:	3.614	Roll Set Point:	-0.001	Pitch Set Point:	-0.021	Yaw Set Point:	-0.017	X_WP:	0.100	Y_WP:	0.000	Y_WP:	0.500	X:	0.050	Y:	0.010	Z:	0.307	yaw:	0.951	yaw rate:	-4.281	Roll:	0.452	Pitch:	-0.086	Yaw:	-0.501	Thrust:	62.115
Time:	3.625	Roll Set Point:	-0.003	Pitch Set Point:	-0.021	Yaw Set Point:	-0.016	X_WP:	0.100	Y_WP:	0.000	Y_WP:	0.500	X:	0.051	Y:	0.010	Z:	0.316	yaw:	0.916	yaw rate:	-3.490	Roll:	2.795	Pitch:	0.552	Yaw:	-0.347	Thrust:	48.215
Time:	3.636	Roll Set Point:	-0.004	Pitch Set Point:	-0.021	Yaw Set Point:	-0.017	X_WP:	0.100	Y_WP:	0.000	Y_WP:	0.500	X:	0.052	Y:	0.010	Z:	0.320	yaw:	0.963	yaw rate:	4.746	Roll:	0.241	Pitch:	1.038	Yaw:	1.664	Thrust:	66.849
Time:	3.648	Roll Set Point:	-0.006	Pitch Set Point:	-0.021	Yaw Set Point:	-0.017	X_WP:	0.100	Y_WP:	0.000	Y_WP:	0.500	X:	0.053	Y:	0.010	Z:	0.325	yaw:	1.002	yaw rate:	3.812	Roll:	0.528	Pitch:	1.120	Yaw:	1.435	Thrust:	70.230
Time:	3.658	Roll Set Point:	-0.007	Pitch Set Point:	-0.021	Yaw Set Point:	-0.020	X_WP:	0.100	Y_WP:	0.000	Y_WP:	0.500	X:	0.053	Y:	0.010	Z:	0.329	yaw:	1.139	yaw rate:	13.698	Roll:	1.075	Pitch:	2.204	Yaw:	4.349	Thrust:	59.531
Time:	3.669	Roll Set Point:	-0.008	Pitch Set Point:	-0.021	Yaw Set Point:	-0.015	X_WP:	0.100	Y_WP:	0.000	Y_WP:	0.500	X:	0.054	Y:	0.010	Z:	0.334	yaw:	0.881	yaw rate:	-25.704	Roll:	0.522	Pitch:	-0.226	Yaw:	-6.036	Thrust:	58.990
Time:	3.681	Roll Set Point:	-0.009	Pitch Set Point:	-0.022	Yaw Set Point:	-0.017	X_WP:	0.100	Y_WP:	0.000	Y_WP:	0.500	X:	0.055	Y:	0.010	Z:	0.338	yaw:	0.966	yaw rate:	8.421	Roll:	0.407	Pitch:	1.546	Yaw:	2.327	Thrust:	74.168
Time:	3.693	Roll Set Point:	-0.011	Pitch Set Point:	-0.023	Yaw Set Point:	-0.020	X_WP:	0.100	Y_WP:	0.000	Y_WP:	0.500	X:	0.055	Y:	0.011	Z:	0.343	yaw:	1.126	yaw rate:	16.025	Roll:	1.087	Pitch:	2.520	Yaw:	4.235	Thrust:	73.126
Time:	3.705	Roll Set Point:	-0.012	Pitch Set Point:	-0.022	Yaw Set Point:	-0.016	X_WP:	0.100	Y_WP:	0.000	Y_WP:	0.500	X:	0.056	Y:	0.011	Z:	0.347	yaw:	0.898	yaw rate:	-22.758	Roll:	0.283	Pitch:	0.029	Yaw:	-4.880	Thrust:	65.490
Time:	3.715	Roll Set Point:	-0.014	Pitch Set Point:	-0.023	Yaw Set Point:	-0.016	X_WP:	0.100	Y_WP:	0.000	Y_WP:	0.500	X:	0.057	Y:	0.011	Z:	0.352	yaw:	0.906	yaw rate:	0.767	Roll:	1.105	Pitch:	1.811	Yaw:	0.643	Thrust:	68.489
Time:	3.726	Roll Set Point:	-0.015	Pitch Set Point:	-0.024	Yaw Set Point:	-0.017	X_WP:	0.100	Y_WP:	0.000	Y_WP:	0.500	X:	0.058	Y:	0.011	Z:	0.357	yaw:	0.947	yaw rate:	4.103	Roll:	1.010	Pitch:	2.064	Yaw:	1.490	Thrust:	67.010
Time:	3.737	Roll Set Point:	-0.019	Pitch Set Point:	-0.025	Yaw Set Point:	-0.018	X_WP:	0.100	Y_WP:	0.000	Y_WP:	0.500	X:	0.059	Y:	0.012	Z:	0.366	yaw:	1.044	yaw rate:	9.694	Roll:	5.671	Pitch:	4.129	Yaw:	3.242	Thrust:	35.243
Time:	3.747	Roll Set Point:	-0.020	Pitch Set Point:	-0.025	Yaw Set Point:	-0.016	X_WP:	0.100	Y_WP:	0.000	Y_WP:	0.500	X:	0.060	Y:	0.012	Z:	0.371	yaw:	0.938	yaw rate:	-10.578	Roll:	1.121	Pitch:	1.276	Yaw:	-2.038	Thrust:	59.140
Time:	3.758	Roll Set Point:	-0.021	Pitch Set Point:	-0.026	Yaw Set Point:	-0.015	X_WP:	0.100	Y_WP:	0.000	Y_WP:	0.500	X:	0.061	Y:	0.013	Z:	0.376	yaw:	0.885	yaw rate:	-5.300	Roll:	1.310	Pitch:	1.739	Yaw:	-0.781	Thrust:	61.763
Time:	3.768	Roll Set Point:	-0.023	Pitch Set Point:	-0.027	Yaw Set Point:	-0.015	X_WP:	0.100	Y_WP:	0.000	Y_WP:	0.500	X:	0.061	Y:	0.013	Z:	0.381	yaw:	0.850	yaw rate:	-3.555	Roll:	2.077	Pitch:	2.255	Yaw:	-0.416	Thrust:	56.231
Time:	3.780	Roll Set Point:	-0.025	Pitch Set Point:	-0.027	Yaw Set Point:	-0.020	X_WP:	0.100	Y_WP:	0.000	Y_WP:	0.500	X:	0.062	Y:	0.013	Z:	0.386	yaw:	1.151	yaw rate:	30.155	Roll:	2.436	Pitch:	2.984	Yaw:	7.700	Thrust:	66.497
Time:	3.791	Roll Set Point:	-0.026	Pitch Set Point:	-0.028	Yaw Set Point:	-0.015	X_WP:	0.100	Y_WP:	0.000	Y_WP:	0.500	X:	0.063	Y:	0.014	Z:	0.391	yaw:	0.885	yaw rate:	-26.629	Roll:	0.664	Pitch:	1.362	Yaw:	-5.607	Thrust:	66.059
Time:	3.802	Roll Set Point:	-0.028	Pitch Set Point:	-0.028	Yaw Set Point:	-0.016	X_WP:	0.100	Y_WP:	0.000	Y_WP:	0.500	X:	0.064	Y:	0.014	Z:	0.397	yaw:	0.899	yaw rate:	1.372	Roll:	1.482	Pitch:	1.118	Yaw:	0.882	Thrust:	58.080
Time:	3.814	Roll Set Point:	-0.030	Pitch Set Point:	-0.029	Yaw Set Point:	-0.015	X_WP:	0.100	Y_WP:	0.000	Y_WP:	0.500	X:	0.065	Y:	0.014	Z:	0.402	yaw:	0.841	yaw rate:	-5.778	Roll:	1.730	Pitch:	2.690	Yaw:	-0.883	Thrust:	71.080
Time:	3.825	Roll Set Point:	-0.031	Pitch Set Point:	-0.029	Yaw Set Point:	-0.015	X_WP:	0.100	Y_WP:	0.000	Y_WP:	0.500	X:	0.066	Y:	0.014	Z:	0.407	yaw:	0.876	yaw rate:	3.493	Roll:	1.569	Pitch:	1.781	Yaw:	1.321	Thrust:	61.279
Time:	3.836	Roll Set Point:	-0.033	Pitch Set Point:	-0.030	Yaw Set Point:	-0.014	X_WP:	0.100	Y_WP:	0.000	Y_WP:	0.500	X:	0.067	Y:	0.015	Z:	0.412	yaw:	0.804	yaw rate:	-7.151	Roll:	2.461	Pitch:	2.658	Yaw:	-1.343	Thrust:	57.992
Time:	3.847	Roll Set Point:	-0.035	Pitch Set Point:	-0.031	Yaw Set Point:	-0.015	X_WP:	0.100	Y_WP:	0.000	Y_WP:	0.500	X:	0.067	Y:	0.015	Z:	0.417	yaw:	0.887	yaw rate:	8.233	Roll:	1.464	Pitch:	1.650	Yaw:	2.344	Thrust:	65.344
Time:	3.858	Roll Set Point:	-0.039	Pitch Set Point:	-0.032	Yaw Set Point:	-0.015	X_WP:	0.100	Y_WP:	0.000	Y_WP:	0.500	X:	0.069	Y:	0.016	Z:	0.427	yaw:	0.867	yaw rate:	-1.940	Roll:	5.934	Pitch:	3.118	Yaw:	0.029	Thrust:	39.758
Time:	3.869	Roll Set Point:	-0.040	Pitch Set Point:	-0.033	Yaw Set Point:	-0.018	X_WP:	0.100	Y_WP:	0.000	Y_WP:	0.500	X:	0.070	Y:	0.016	Z:	0.433	yaw:	1.004	yaw rate:	13.713	Roll:	3.013	Pitch:	3.032	Yaw:	4.189	Thrust:	54.391
Time:	3.881	Roll Set Point:	-0.042	Pitch Set Point:	-0.033	Yaw Set Point:	-0.015	X_WP:	0.100	Y_WP:	0.000	Y_WP:	0.500	X:	0.071	Y:	0.016	Z:	0.438	yaw:	0.867	yaw rate:	-13.765	Roll:	1.555	Pitch:	0.738	Yaw:	-2.661	Thrust:	64.251
Time:	3.892	Roll Set Point:	-0.044	Pitch Set Point:	-0.034	Yaw Set Point:	-0.019	X_WP:	0.100	Y_WP:	0.000	Y_WP:	0.500	X:	0.072	Y:	0.017	Z:	0.443	yaw:	1.067	yaw rate:	20.060	Roll:	3.014	Pitch:	3.058	Yaw:	5.302	Thrust:	64.068
Time:	3.902	Roll Set Point:	-0.046	Pitch Set Point:	-0.033	Yaw Set Point:	-0.016	X_WP:	0.100	Y_WP:	0.000	Y_WP:	0.500	X:	0.073	Y:	0.016	Z:	0.448	yaw:	0.928	yaw rate:	-13.938	Roll:	2.179	Pitch:	0.013	Yaw:	-2.902	Thrust:	53.813
Time:	3.914	Roll Set Point:	-0.048	Pitch Set Point:	-0.034	Yaw Set Point:	-0.019	X_WP:	0.100	Y_WP:	0.000	Y_WP:	0.500	X:	0.074	Y:	0.017	Z:	0.453	yaw:	1.097	yaw rate:	16.938	Roll:	2.456	Pitch:	3.084	Yaw:	4.443	Thrust:	64.130
Time:	3.925	Roll Set Point:	-0.050	Pitch Set Point:	-0.034	Yaw Set Point:	-0.015	X_WP:	0.100	Y_WP:	0.000	Y_WP:	0.500	X:	0.075	Y:	0.017	Z:	0.458	yaw:	0.867	yaw rate:	-23.035	Roll:	1.688	Pitch:	0.575	Yaw:	-4.832	Thrust:	67.259
Time:	3.937	Roll Set Point:	-0.051	Pitch Set Point:	-0.035	Yaw Set Point:	-0.016	X_WP:	0.100	Y_WP:	0.000	Y_WP:	0.500	X:	0.076	Y:	0.017	Z:	0.463	yaw:	0.932	yaw rate:	6.548	Roll:	1.895	Pitch:	1.333	Yaw:	2.134	Thrust:	60.544
Time:	3.947	Roll Set Point:	-0.053	Pitch Set Point:	-0.035	Yaw Set Point:	-0.016	X_WP:	0.100	Y_WP:	0.000	Y_WP:	0.500	X:	0.076	Y:	0.017	Z:	0.468	yaw:	0.914	yaw rate:	-1.855	Roll:	2.490	Pitch:	1.269	Yaw:	0.155	Thrust:	55.525
Time:	3.958	Roll Set Point:	-0.055	Pitch Set Point:	-0.035	Yaw Set Point:	-0.015	X_WP:	0.100	Y_WP:	0.000	Y_WP:	0.500	X:	0.077	Y:	0.017	Z:	0.473	yaw:	0.879	yaw rate:	-3.447	Roll:	2.505	Pitch:	1.274	Yaw:	-0.276	Thrust:	62.333
Time:	3.968	Roll Set Point:	-0.057	Pitch Set Point:	-0.035	Yaw Set Point:	-0.016	X_WP:	0.100	Y_WP:	0.000	Y_WP:	0.500	X:	0.078	Y:	0.017	Z:	0.478	yaw:	0.937	yaw rate:	5.747	Roll:	2.710	Pitch:	1.273	Yaw:	2.175	Thrust:	51.393
Time:	3.980	Roll Set Point:	-0.058	Pitch Set Point:	-0.035	Yaw Set Point:	-0.017	X_WP:	0.100	Y_WP:	0.000	Y_WP:	0.500	X:	0.079	Y:	0.017	Z:	0.483	yaw:	0.949	yaw rate:	1.184	Roll:	1.920	Pitch:	0.927	Yaw:	0.879	Thrust:	64.657
Time:	3.991	Roll Set Point:	-0.060	Pitch Set Point:	-0.035	Yaw Set Point:	-0.017	X_WP:	0.100	Y_WP:	0.000	Y_WP:	0.500	X:	0.080	Y:	0.017	Z:	0.487	yaw:	0.976	yaw rate:	2.756	Roll:	2.214	Pitch:	0.798	Yaw:	1.340	Thrust:	60.325
Time:	4.002	Roll Set Point:	-0.063	Pitch Set Point:	-0.035	Yaw Set Point:	-0.017	X_WP:	0.100	Y_WP:	0.000	Y_WP:	0.500	X:	0.081	Y:	0.017	Z:	0.496	yaw:	1.000	yaw rate:	2.364	Roll:	5.424	Pitch:	0.773	Yaw:	1.283	Thrust:	41.710
Time:	4.014	Roll Set Point:	-0.065	Pitch Set Point:	-0.035	Yaw Set Point:	-0.017	X_WP:	0.100	Y_WP:	0.000	Y_WP:	0.500	X:	0.082	Y:	0.017	Z:	0.501	yaw:	0.985	yaw rate:	-1.454	Roll:	1.678	Pitch:	0.279	Yaw:	0.345	Thrust:	64.965
Time:	4.025	Roll Set Point:	-0.068	Pitch Set Point:	-0.035	Yaw Set Point:	-0.019	X_WP:	0.100	Y_WP:	0.000	Y_WP:	0.500	X:	0.084	Y:	0.017	Z:	0.509	yaw:	1.060	yaw rate:	-21.873	Roll:	4.913	Pitch:	0.164	Yaw:	2.528	Thrust:	45.953
Time:	4.036	Roll Set Point:	-0.069	Pitch Set Point:	-0.034	Yaw Set Point:	-0.019	X_WP:	0.100	Y_WP:	0.000	Y_WP:	0.500	X:	0.084	Y:	0.017	Z:	0.513	yaw:	1.084	yaw rate:	2.348	Roll:	1.682	Pitch:	0.198	Yaw:	1.463	Thrust:	56.561
Time:	4.047	Roll Set Point:	-0.070	Pitch Set Point:	-0.034	Yaw Set Point:	-0.020	X_WP:	0.100	Y_WP:	0.000	Y_WP:	0.500	X:	0.085	Y:	0.017	Z:	0.517	yaw:	1.154	yaw rate:	6.998	Roll:	1.542	Pitch:	0.238	Yaw:	2.511	Thrust:	65.031
Time:	4.058	Roll Set Point:	-0.072	Pitch Set Point:	-0.034	Yaw Set Point:	-0.020	X_WP:	0.100	Y_WP:	0.000	Y_WP:	0.500	X:	0.086	Y:	0.017	Z:	0.521	yaw:	1.146	yaw rate:	-0.756	Roll:	1.305	Pitch:	0.013	Yaw:	0.768	Thrust:	60.591
Time:	4.068	Roll Set Point:	-0.073	Pitch Set Point:	-0.034	Yaw Set Point:	-0.019	X_WP:	0.100	Y_WP:	0.000	Y_WP:	0.500	X:	0.086	Y:	0.017	Z:	0.525	yaw:	1.107	yaw rate:	-3.969	Roll:	1.675	Pitch:	0.416	Yaw:	-0.065	Thrust:	56.042
Time:	4.080	Roll Set Point:	-0.074	Pitch Set Point:	-0.033	Yaw Set Point:	-0.021	X_WP:	0.100	Y_WP:	0.000	Y_WP:	0.500	X:	0.087	Y:	0.016	Z:	0.529	yaw:	1.223	yaw rate:	11.635	Roll:	1.029	Pitch:	-0.332	Yaw:	3.656	Thrust:	65.626
Time:	4.092	Roll Set Point:	-0.075	Pitch Set Point:	-0.032	Yaw Set Point:	-0.022	X_WP:	0.100	Y_WP:	0.000	Y_WP:	0.500	X:	0.087	Y:	0.016	Z:	0.533	yaw:	1.267	yaw rate:	4.412	Roll:	0.628	Pitch:	-0.698	Yaw:	2.112	Thrust:	65.106
Time:	4.102	Roll Set Point:	-0.076	Pitch Set Point:	-0.032	Yaw Set Point:	-0.022	X_WP:	0.100	Y_WP:	0.000	Y_WP:	0.500	X:	0.088	Y:	0.016	Z:	0.537	yaw:	1.254	yaw rate:	-1.342	Roll:	0.565	Pitch:	-0.571	Yaw:	0.817	Thrust:	54.424
Time:	4.114	Roll Set Point:	-0.077	Pitch Set Point:	-0.031	Yaw Set Point:	-0.021	X_WP:	0.100	Y_WP:	0.000	Y_WP:	0.500	X:	0.088	Y:	0.016	Z:	0.540	yaw:	1.228	yaw rate:	-2.538	Roll:	1.115	Pitch:	-0.052	Yaw:	0.475	Thrust:	69.341
Time:	4.125	Roll Set Point:	-0.079	Pitch Set Point:	-0.030	Yaw Set Point:	-0.023	X_WP:	0.100	Y_WP:	0.000	Y_WP:	0.500	X:	0.089	Y:	0.015	Z:	0.547	yaw:	1.318	yaw rate:	8.920	Roll:	2.637	Pitch:	-1.925	Yaw:	3.331	Thrust:	46.835
Time:	4.136	Roll Set Point:	-0.080	Pitch Set Point:	-0.030	Yaw Set Point:	-0.023	X_WP:	0.100	Y_WP:	0.000	Y_WP:	0.500	X:	0.090	Y:	0.015	Z:	0.551	yaw:	1.290	yaw rate:	-2.761	Roll:	0.624	Pitch:	-0.504	Yaw:	0.524	Thrust:	58.486
Time:	4.146	Roll Set Point:	-0.081	Pitch Set Point:	-0.029	Yaw Set Point:	-0.022	X_WP:	0.100	Y_WP:	0.000	Y_WP:	0.500	X:	0.090	Y:	0.015	Z:	0.554	yaw:	1.266	yaw rate:	-2.347	Roll:	0.914	Pitch:	-0.156	Yaw:	0.597	Thrust:	57.668
Time:	4.158	Roll Set Point:	-0.081	Pitch Set Point:	-0.029	Yaw Set Point:	-0.023	X_WP:	0.100	Y_WP:	0.000	Y_WP:	0.500	X:	0.090	Y:	0.014	Z:	0.557	yaw:	1.342	yaw rate:	7.574	Roll:	0.268	Pitch:	-0.915	Yaw:	3.061	Thrust:	60.965
Time:	4.170	Roll Set Point:	-0.082	Pitch Set Point:	-0.028	Yaw Set Point:	-0.023	X_WP:	0.100	Y_WP:	0.000	Y_WP:	0.500	X:	0.091	Y:	0.014	Z:	0.561	yaw:	1.332	yaw rate:	-0.985	Roll:	0.193	Pitch:	-0.574	Yaw:	0.966	Thrust:	66.042
Time:	4.180	Roll Set Point:	-0.083	Pitch Set Point:	-0.027	Yaw Set Point:	-0.022	X_WP:	0.100	Y_WP:	0.000	Y_WP:	0.500	X:	0.091	Y:	0.014	Z:	0.564	yaw:	1.288	yaw rate:	-4.481	Roll:	0.310	Pitch:	-0.858	Yaw:	0.112	Thrust:	65.088
Time:	4.192	Roll Set Point:	-0.083	Pitch Set Point:	-0.027	Yaw Set Point:	-0.024	X_WP:	0.100	Y_WP:	0.000	Y_WP:	0.500	X:	0.092	Y:	0.013	Z:	0.567	yaw:	1.383	yaw rate:	9.561	Roll:	0.115	Pitch:	-0.469	Yaw:	3.550	Thrust:	63.294
Time:	4.202	Roll Set Point:	-0.084	Pitch Set Point:	-0.026	Yaw Set Point:	-0.024	X_WP:	0.100	Y_WP:	0.000	Y_WP:	0.500	X:	0.092	Y:	0.013	Z:	0.570	yaw:	1.356	yaw rate:	-2.684	Roll:	0.295	Pitch:	-0.926	Yaw:	0.661	Thrust:	55.890
Time:	4.213	Roll Set Point:	-0.085	Pitch Set Point:	-0.025	Yaw Set Point:	-0.024	X_WP:	0.100	Y_WP:	0.000	Y_WP:	0.500	X:	0.092	Y:	0.013	Z:	0.573	yaw:	1.393	yaw rate:	3.703	Roll:	-0.112	Pitch:	-0.556	Yaw:	2.170	Thrust:	66.097
Time:	4.225	Roll Set Point:	-0.085	Pitch Set Point:	-0.025	Yaw Set Point:	-0.024	X_WP:	0.100	Y_WP:	0.000	Y_WP:	0.500	X:	0.092	Y:	0.012	Z:	0.576	yaw:	1.394	yaw rate:	0.036	Roll:	0.116	Pitch:	-0.892	Yaw:	1.359	Thrust:	64.266
Time:	4.236	Roll Set Point:	-0.086	Pitch Set Point:	-0.024	Yaw Set Point:	-0.025	X_WP:	0.100	Y_WP:	0.000	Y_WP:	0.500	X:	0.093	Y:	0.012	Z:	0.578	yaw:	1.424	yaw rate:	3.074	Roll:	0.052	Pitch:	-0.740	Yaw:	2.187	Thrust:	58.886
Time:	4.247	Roll Set Point:	-0.086	Pitch Set Point:	-0.024	Yaw Set Point:	-0.024	X_WP:	0.100	Y_WP:	0.000	Y_WP:	0.500	X:	0.093	Y:	0.012	Z:	0.581	yaw:	1.368	yaw rate:	-5.654	Roll:	0.210	Pitch:	-0.263	Yaw:	0.034	Thrust:	66.170
Time:	4.258	Roll Set Point:	-0.087	Pitch Set Point:	-0.023	Yaw Set Point:	-0.024	X_WP:	0.100	Y_WP:	0.000	Y_WP:	0.500	X:	0.093	Y:	0.011	Z:	0.584	yaw:	1.363	yaw rate:	-0.483	Roll:	-0.564	Pitch:	-1.488	Yaw:	1.225	Thrust:	61.586
Time:	4.268	Roll Set Point:	-0.088	Pitch Set Point:	-0.022	Yaw Set Point:	-0.023	X_WP:	0.100	Y_WP:	0.000	Y_WP:	0.500	X:	0.094	Y:	0.011	Z:	0.589	yaw:	1.333	yaw rate:	-3.041	Roll:	1.288	Pitch:	-1.725	Yaw:	0.563	Thrust:	43.758
Time:	4.280	Roll Set Point:	-0.088	Pitch Set Point:	-0.021	Yaw Set Point:	-0.024	X_WP:	0.100	Y_WP:	0.000	Y_WP:	0.500	X:	0.094	Y:	0.010	Z:	0.591	yaw:	1.373	yaw rate:	4.014	Roll:	-0.747	Pitch:	-1.052	Yaw:	2.195	Thrust:	68.472
Time:	4.291	Roll Set Point:	-0.089	Pitch Set Point:	-0.021	Yaw Set Point:	-0.024	X_WP:	0.100	Y_WP:	0.000	Y_WP:	0.500	X:	0.094	Y:	0.010	Z:	0.594	yaw:	1.379	yaw rate:	0.655	Roll:	0.273	Pitch:	-0.219	Yaw:	1.529	Thrust:	62.448
Time:	4.302	Roll Set Point:	-0.089	Pitch Set Point:	-0.020	Yaw Set Point:	-0.023	X_WP:	0.100	Y_WP:	0.000	Y_WP:	0.500	X:	0.094	Y:	0.010	Z:	0.596	yaw:	1.303	yaw rate:	-7.630	Roll:	-0.676	Pitch:	-1.311	Yaw:	-0.523	Thrust:	61.565
Time:	4.314	Roll Set Point:	-0.090	Pitch Set Point:	-0.019	Yaw Set Point:	-0.024	X_WP:	0.100	Y_WP:	0.000	Y_WP:	0.500	X:	0.095	Y:	0.010	Z:	0.599	yaw:	1.347	yaw rate:	4.356	Roll:	-0.391	Pitch:	-0.404	Yaw:	2.251	Thrust:	67.979
Time:	4.326	Roll Set Point:	-0.090	Pitch Set Point:	-0.019	Yaw Set Point:	-0.023	X_WP:	0.100	Y_WP:	0.000	Y_WP:	0.500	X:	0.095	Y:	0.009	Z:	0.601	yaw:	1.332	yaw rate:	-1.480	Roll:	-0.474	Pitch:	-0.759	Yaw:	0.968	Thrust:	64.472
Time:	4.337	Roll Set Point:	-0.091	Pitch Set Point:	-0.018	Yaw Set Point:	-0.024	X_WP:	0.100	Y_WP:	0.000	Y_WP:	0.500	X:	0.095	Y:	0.009	Z:	0.606	yaw:	1.383	yaw rate:	-15.054	Roll:	0.416	Pitch:	-1.597	Yaw:	2.551	Thrust:	55.501
Time:	4.349	Roll Set Point:	-0.091	Pitch Set Point:	-0.017	Yaw Set Point:	-0.024	X_WP:	0.100	Y_WP:	0.000	Y_WP:	0.500	X:	0.096	Y:	0.009	Z:	0.608	yaw:	1.360	yaw rate:	-2.326	Roll:	-0.028	Pitch:	-0.111	Yaw:	0.823	Thrust:	69.366
Time:	4.360	Roll Set Point:	-0.092	Pitch Set Point:	-0.016	Yaw Set Point:	-0.024	X_WP:	0.100	Y_WP:	0.000	Y_WP:	0.500	X:	0.096	Y:	0.008	Z:	0.610	yaw:	1.348	yaw rate:	-1.216	Roll:	-0.671	Pitch:	-0.939	Yaw:	1.081	Thrust:	58.942
Time:	4.371	Roll Set Point:	-0.092	Pitch Set Point:	-0.016	Yaw Set Point:	-0.024	X_WP:	0.100	Y_WP:	0.000	Y_WP:	0.500	X:	0.096	Y:	0.008	Z:	0.612	yaw:	1.352	yaw rate:	0.422	Roll:	-0.389	Pitch:	-0.451	Yaw:	1.477	Thrust:	60.858
Time:	4.383	Roll Set Point:	-0.092	Pitch Set Point:	-0.016	Yaw Set Point:	-0.022	X_WP:	0.100	Y_WP:	0.000	Y_WP:	0.500	X:	0.096	Y:	0.008	Z:	0.614	yaw:	1.288	yaw rate:	-6.385	Roll:	-0.231	Pitch:	-0.466	Yaw:	-0.178	Thrust:	64.575
Time:	4.393	Roll Set Point:	-0.093	Pitch Set Point:	-0.015	Yaw Set Point:	-0.023	X_WP:	0.100	Y_WP:	0.000	Y_WP:	0.500	X:	0.096	Y:	0.008	Z:	0.617	yaw:	1.300	yaw rate:	1.209	Roll:	-0.276	Pitch:	-0.509	Yaw:	1.635	Thrust:	56.667
Time:	4.405	Roll Set Point:	-0.094	Pitch Set Point:	-0.014	Yaw Set Point:	-0.021	X_WP:	0.100	Y_WP:	0.000	Y_WP:	0.500	X:	0.097	Y:	0.007	Z:	0.621	yaw:	1.183	yaw rate:	-11.719	Roll:	1.156	Pitch:	-0.851	Yaw:	-1.626	Thrust:	51.701
Time:	4.416	Roll Set Point:	-0.094	Pitch Set Point:	-0.014	Yaw Set Point:	-0.020	X_WP:	0.100	Y_WP:	0.000	Y_WP:	0.500	X:	0.097	Y:	0.007	Z:	0.623	yaw:	1.170	yaw rate:	-1.257	Roll:	-0.584	Pitch:	-0.597	Yaw:	0.834	Thrust:	63.563
Time:	4.427	Roll Set Point:	-0.095	Pitch Set Point:	-0.014	Yaw Set Point:	-0.021	X_WP:	0.100	Y_WP:	0.000	Y_WP:	0.500	X:	0.097	Y:	0.007	Z:	0.625	yaw:	1.194	yaw rate:	2.360	Roll:	0.291	Pitch:	0.369	Yaw:	1.771	Thrust:	57.351
Time:	4.437	Roll Set Point:	-0.095	Pitch Set Point:	-0.014	Yaw Set Point:	-0.024	X_WP:	0.100	Y_WP:	0.000	Y_WP:	0.500	X:	0.098	Y:	0.007	Z:	0.627	yaw:	1.367	yaw rate:	17.310	Roll:	0.630	Pitch:	0.436	Yaw:	5.720	Thrust:	56.113
Time:	4.449	Roll Set Point:	-0.095	Pitch Set Point:	-0.013	Yaw Set Point:	-0.021	X_WP:	0.100	Y_WP:	0.000	Y_WP:	0.500	X:	0.098	Y:	0.007	Z:	0.629	yaw:	1.204	yaw rate:	-16.310	Roll:	-1.080	Pitch:	-0.963	Yaw:	-2.510	Thrust:	62.838
Time:	4.460	Roll Set Point:	-0.096	Pitch Set Point:	-0.013	Yaw Set Point:	-0.020	X_WP:	0.100	Y_WP:	0.000	Y_WP:	0.500	X:	0.098	Y:	0.007	Z:	0.631	yaw:	1.140	yaw rate:	-6.363	Roll:	0.280	Pitch:	0.384	Yaw:	-0.421	Thrust:	57.171
Time:	4.471	Roll Set Point:	-0.097	Pitch Set Point:	-0.013	Yaw Set Point:	-0.021	X_WP:	0.100	Y_WP:	0.000	Y_WP:	0.500	X:	0.098	Y:	0.006	Z:	0.633	yaw:	1.180	yaw rate:	3.961	Roll:	-0.191	Pitch:	-0.534	Yaw:	2.129	Thrust:	58.164
Time:	4.483	Roll Set Point:	-0.097	Pitch Set Point:	-0.013	Yaw Set Point:	-0.020	X_WP:	0.100	Y_WP:	0.000	Y_WP:	0.500	X:	0.099	Y:	0.006	Z:	0.635	yaw:	1.125	yaw rate:	-5.510	Roll:	0.350	Pitch:	0.590	Yaw:	-0.164	Thrust:	63.084
Time:	4.493	Roll Set Point:	-0.098	Pitch Set Point:	-0.013	Yaw Set Point:	-0.019	X_WP:	0.100	Y_WP:	0.000	Y_WP:	0.500	X:	0.099	Y:	0.006	Z:	0.637	yaw:	1.076	yaw rate:	-4.877	Roll:	0.139	Pitch:	0.204	Yaw:	-0.143	Thrust:	55.835
Time:	4.503	Roll Set Point:	-0.098	Pitch Set Point:	-0.012	Yaw Set Point:	-0.018	X_WP:	0.100	Y_WP:	0.000	Y_WP:	0.500	X:	0.099	Y:	0.006	Z:	0.639	yaw:	1.028	yaw rate:	-4.825	Roll:	0.356	Pitch:	0.036	Yaw:	-0.238	Thrust:	51.481
Time:	4.514	Roll Set Point:	-0.099	Pitch Set Point:	-0.013	Yaw Set Point:	-0.023	X_WP:	0.100	Y_WP:	0.000	Y_WP:	0.500	X:	0.099	Y:	0.006	Z:	0.640	yaw:	1.290	yaw rate:	26.223	Roll:	0.665	Pitch:	0.991	Yaw:	7.284	Thrust:	62.677
Time:	4.525	Roll Set Point:	-0.099	Pitch Set Point:	-0.012	Yaw Set Point:	-0.018	X_WP:	0.100	Y_WP:	0.000	Y_WP:	0.500	X:	0.100	Y:	0.006	Z:	0.642	yaw:	1.042	yaw rate:	-24.820	Roll:	-0.394	Pitch:	-0.315	Yaw:	-4.883	Thrust:	58.929
Time:	4.536	Roll Set Point:	-0.101	Pitch Set Point:	-0.012	Yaw Set Point:	-0.018	X_WP:	0.100	Y_WP:	0.000	Y_WP:	0.500	X:	0.100	Y:	0.006	Z:	0.645	yaw:	1.054	yaw rate:	1.182	Roll:	1.437	Pitch:	0.265	Yaw:	1.304	Thrust:	53.265
Time:	4.548	Roll Set Point:	-0.101	Pitch Set Point:	-0.012	Yaw Set Point:	-0.019	X_WP:	0.100	Y_WP:	0.000	Y_WP:	0.500	X:	0.100	Y:	0.006	Z:	0.647	yaw:	1.110	yaw rate:	5.657	Roll:	-0.061	Pitch:	0.023	Yaw:	2.372	Thrust:	62.606
Time:	4.559	Roll Set Point:	-0.102	Pitch Set Point:	-0.012	Yaw Set Point:	-0.018	X_WP:	0.100	Y_WP:	0.000	Y_WP:	0.500	X:	0.101	Y:	0.006	Z:	0.648	yaw:	1.016	yaw rate:	-9.439	Roll:	0.677	Pitch:	0.941	Yaw:	-1.224	Thrust:	60.754
Time:	4.570	Roll Set Point:	-0.103	Pitch Set Point:	-0.012	Yaw Set Point:	-0.017	X_WP:	0.100	Y_WP:	0.000	Y_WP:	0.500	X:	0.101	Y:	0.006	Z:	0.649	yaw:	0.996	yaw rate:	-1.953	Roll:	0.591	Pitch:	0.682	Yaw:	0.498	Thrust:	59.324
Time:	4.582	Roll Set Point:	-0.103	Pitch Set Point:	-0.012	Yaw Set Point:	-0.018	X_WP:	0.100	Y_WP:	0.000	Y_WP:	0.500	X:	0.102	Y:	0.006	Z:	0.650	yaw:	1.050	yaw rate:	5.352	Roll:	0.461	Pitch:	0.444	Yaw:	2.227	Thrust:	63.289
Time:	4.592	Roll Set Point:	-0.104	Pitch Set Point:	-0.012	Yaw Set Point:	-0.017	X_WP:	0.100	Y_WP:	0.000	Y_WP:	0.500	X:	0.102	Y:	0.006	Z:	0.651	yaw:	0.983	yaw rate:	-6.667	Roll:	0.427	Pitch:	0.622	Yaw:	-0.686	Thrust:	55.947
Time:	4.603	Roll Set Point:	-0.105	Pitch Set Point:	-0.012	Yaw Set Point:	-0.017	X_WP:	0.100	Y_WP:	0.000	Y_WP:	0.500	X:	0.102	Y:	0.006	Z:	0.652	yaw:	0.998	yaw rate:	1.453	Roll:	0.700	Pitch:	0.492	Yaw:	1.320	Thrust:	59.466
Time:	4.614	Roll Set Point:	-0.105	Pitch Set Point:	-0.012	Yaw Set Point:	-0.017	X_WP:	0.100	Y_WP:	0.000	Y_WP:	0.500	X:	0.103	Y:	0.006	Z:	0.653	yaw:	1.001	yaw rate:	0.335	Roll:	0.850	Pitch:	0.733	Yaw:	1.084	Thrust:	56.177
Time:	4.625	Roll Set Point:	-0.106	Pitch Set Point:	-0.012	Yaw Set Point:	-0.017	X_WP:	0.100	Y_WP:	0.000	Y_WP:	0.500	X:	0.103	Y:	0.006	Z:	0.654	yaw:	0.976	yaw rate:	-2.557	Roll:	0.435	Pitch:	0.647	Yaw:	0.350	Thrust:	61.809
Time:	4.637	Roll Set Point:	-0.108	Pitch Set Point:	-0.012	Yaw Set Point:	-0.016	X_WP:	0.100	Y_WP:	0.000	Y_WP:	0.500	X:	0.104	Y:	0.006	Z:	0.656	yaw:	0.928	yaw rate:	-4.725	Roll:	2.298	Pitch:	1.054	Yaw:	-0.224	Thrust:	57.579
Time:	4.648	Roll Set Point:	-0.108	Pitch Set Point:	-0.012	Yaw Set Point:	-0.018	X_WP:	0.100	Y_WP:	0.000	Y_WP:	0.500	X:	0.104	Y:	0.006	Z:	0.657	yaw:	1.014	yaw rate:	8.559	Roll:	0.303	Pitch:	0.243	Yaw:	2.935	Thrust:	63.002
Time:	4.658	Roll Set Point:	-0.109	Pitch Set Point:	-0.013	Yaw Set Point:	-0.016	X_WP:	0.100	Y_WP:	0.000	Y_WP:	0.500	X:	0.104	Y:	0.006	Z:	0.657	yaw:	0.926	yaw rate:	-8.783	Roll:	1.269	Pitch:	1.106	Yaw:	-1.346	Thrust:	53.971
Time:	4.669	Roll Set Point:	-0.110	Pitch Set Point:	-0.012	Yaw Set Point:	-0.017	X_WP:	0.100	Y_WP:	0.000	Y_WP:	0.500	X:	0.105	Y:	0.006	Z:	0.658	yaw:	0.949	yaw rate:	2.288	Roll:	0.409	Pitch:	0.241	Yaw:	1.469	Thrust:	59.838
Time:	4.680	Roll Set Point:	-0.111	Pitch Set Point:	-0.013	Yaw Set Point:	-0.020	X_WP:	0.100	Y_WP:	0.000	Y_WP:	0.500	X:	0.105	Y:	0.007	Z:	0.658	yaw:	1.144	yaw rate:	19.480	Roll:	1.830	Pitch:	1.674	Yaw:	5.818	Thrust:	60.454
Time:	4.691	Roll Set Point:	-0.111	Pitch Set Point:	-0.013	Yaw Set Point:	-0.016	X_WP:	0.100	Y_WP:	0.000	Y_WP:	0.500	X:	0.106	Y:	0.006	Z:	0.659	yaw:	0.901	yaw rate:	-24.262	Roll:	0.312	Pitch:	0.189	Yaw:	-4.878	Thrust:	60.181
Time:	4.702	Roll Set Point:	-0.112	Pitch Set Point:	-0.013	Yaw Set Point:	-0.015	X_WP:	0.100	Y_WP:	0.000	Y_WP:	0.500	X:	0.106	Y:	0.006	Z:	0.659	yaw:	0.839	yaw rate:	-6.166	Roll:	0.875	Pitch:	0.732	Yaw:	-0.728	Thrust:	56.815
Time:	4.715	Roll Set Point:	-0.113	Pitch Set Point:	-0.013	Yaw Set Point:	-0.015	X_WP:	0.100	Y_WP:	0.000	Y_WP:	0.500	X:	0.106	Y:	0.007	Z:	0.659	yaw:	0.852	yaw rate:	1.228	Roll:	0.647	Pitch:	0.883	Yaw:	1.011	Thrust:	69.937
Time:	4.728	Roll Set Point:	-0.114	Pitch Set Point:	-0.013	Yaw Set Point:	-0.015	X_WP:	0.100	Y_WP:	0.000	Y_WP:	0.500	X:	0.107	Y:	0.007	Z:	0.659	yaw:	0.887	yaw rate:	3.528	Roll:	0.473	Pitch:	0.720	Yaw:	1.501	Thrust:	72.982
Time:	4.740	Roll Set Point:	-0.115	Pitch Set Point:	-0.013	Yaw Set Point:	-0.014	X_WP:	0.100	Y_WP:	0.000	Y_WP:	0.500	X:	0.108	Y:	0.007	Z:	0.659	yaw:	0.799	yaw rate:	0.417	Roll:	2.271	Pitch:	0.873	Yaw:	-1.263	Thrust:	63.346
Time:	4.753	Roll Set Point:	-0.116	Pitch Set Point:	-0.013	Yaw Set Point:	-0.014	X_WP:	0.100	Y_WP:	0.000	Y_WP:	0.500	X:	0.108	Y:	0.007	Z:	0.659	yaw:	0.797	yaw rate:	-0.234	Roll:	0.526	Pitch:	0.711	Yaw:	0.626	Thrust:	73.490
Time:	4.764	Roll Set Point:	-0.117	Pitch Set Point:	-0.013	Yaw Set Point:	-0.014	X_WP:	0.100	Y_WP:	0.000	Y_WP:	0.500	X:	0.108	Y:	0.007	Z:	0.659	yaw:	0.811	yaw rate:	1.365	Roll:	0.360	Pitch:	0.166	Yaw:	1.119	Thrust:	57.479
Time:	4.778	Roll Set Point:	-0.117	Pitch Set Point:	-0.013	Yaw Set Point:	-0.013	X_WP:	0.100	Y_WP:	0.000	Y_WP:	0.500	X:	0.109	Y:	0.007	Z:	0.659	yaw:	0.731	yaw rate:	-8.009	Roll:	1.193	Pitch:	1.087	Yaw:	-0.938	Thrust:	73.685
Time:	4.791	Roll Set Point:	-0.119	Pitch Set Point:	-0.013	Yaw Set Point:	-0.013	X_WP:	0.100	Y_WP:	0.000	Y_WP:	0.500	X:	0.109	Y:	0.007	Z:	0.659	yaw:	0.755	yaw rate:	2.457	Roll:	0.752	Pitch:	0.868	Yaw:	1.019	Thrust:	86.409
Time:	4.803	Roll Set Point:	-0.120	Pitch Set Point:	-0.013	Yaw Set Point:	-0.013	X_WP:	0.100	Y_WP:	0.000	Y_WP:	0.500	X:	0.110	Y:	0.007	Z:	0.658	yaw:	0.726	yaw rate:	2.795	Roll:	2.285	Pitch:	0.533	Yaw:	-0.048	Thrust:	64.891
Time:	4.814	Roll Set Point:	-0.121	Pitch Set Point:	-0.013	Yaw Set Point:	-0.011	X_WP:	0.100	Y_WP:	0.000	Y_WP:	0.500	X:	0.110	Y:	0.007	Z:	0.658	yaw:	0.644	yaw rate:	-8.127	Roll:	0.692	Pitch:	0.666	Yaw:	-1.253	Thrust:	67.210
Time:	4.826	Roll Set Point:	-0.122	Pitch Set Point:	-0.013	Yaw Set Point:	-0.010	X_WP:	0.100	Y_WP:	0.000	Y_WP:	0.500	X:	0.111	Y:	0.007	Z:	0.658	yaw:	0.596	yaw rate:	-4.817	Roll:	0.775	Pitch:	0.648	Yaw:	-0.631	Thrust:	63.332
Time:	4.839	Roll Set Point:	-0.122	Pitch Set Point:	-0.013	Yaw Set Point:	-0.011	X_WP:	0.100	Y_WP:	0.000	Y_WP:	0.500	X:	0.111	Y:	0.007	Z:	0.658	yaw:	0.604	yaw rate:	0.767	Roll:	-0.020	Pitch:	0.038	Yaw:	0.581	Thrust:	65.412
Time:	4.851	Roll Set Point:	-0.123	Pitch Set Point:	-0.013	Yaw Set Point:	-0.010	X_WP:	0.100	Y_WP:	0.000	Y_WP:	0.500	X:	0.111	Y:	0.007	Z:	0.658	yaw:	0.594	yaw rate:	-0.947	Roll:	0.449	Pitch:	0.656	Yaw:	0.242	Thrust:	68.423
Time:	4.863	Roll Set Point:	-0.124	Pitch Set Point:	-0.013	Yaw Set Point:	-0.009	X_WP:	0.100	Y_WP:	0.000	Y_WP:	0.500	X:	0.112	Y:	0.007	Z:	0.658	yaw:	0.494	yaw rate:	-10.064	Roll:	1.038	Pitch:	0.951	Yaw:	-1.944	Thrust:	58.975
Time:	4.878	Roll Set Point:	-0.124	Pitch Set Point:	-0.013	Yaw Set Point:	-0.009	X_WP:	0.100	Y_WP:	0.000	Y_WP:	0.500	X:	0.112	Y:	0.007	Z:	0.658	yaw:	0.497	yaw rate:	0.299	Roll:	0.676	Pitch:	0.491	Yaw:	0.345	Thrust:	63.769
Time:	4.892	Roll Set Point:	-0.125	Pitch Set Point:	-0.013	Yaw Set Point:	-0.009	X_WP:	0.100	Y_WP:	0.000	Y_WP:	0.500	X:	0.112	Y:	0.007	Z:	0.658	yaw:	0.513	yaw rate:	1.632	Roll:	-0.506	Pitch:	0.695	Yaw:	0.462	Thrust:	100.000
Time:	4.904	Roll Set Point:	-0.127	Pitch Set Point:	-0.013	Yaw Set Point:	-0.007	X_WP:	0.100	Y_WP:	0.000	Y_WP:	0.500	X:	0.113	Y:	0.007	Z:	0.660	yaw:	0.417	yaw rate:	-5.397	Roll:	2.648	Pitch:	0.254	Yaw:	-2.025	Thrust:	50.912
Time:	4.915	Roll Set Point:	-0.127	Pitch Set Point:	-0.013	Yaw Set Point:	-0.008	X_WP:	0.100	Y_WP:	0.000	Y_WP:	0.500	X:	0.114	Y:	0.007	Z:	0.661	yaw:	0.457	yaw rate:	3.972	Roll:	0.392	Pitch:	0.444	Yaw:	1.131	Thrust:	57.921
Time:	4.927	Roll Set Point:	-0.128	Pitch Set Point:	-0.013	Yaw Set Point:	-0.006	X_WP:	0.100	Y_WP:	0.000	Y_WP:	0.500	X:	0.114	Y:	0.007	Z:	0.662	yaw:	0.358	yaw rate:	-9.958	Roll:	0.557	Pitch:	0.521	Yaw:	-2.202	Thrust:	57.380
Time:	4.939	Roll Set Point:	-0.128	Pitch Set Point:	-0.013	Yaw Set Point:	-0.006	X_WP:	0.100	Y_WP:	0.000	Y_WP:	0.500	X:	0.114	Y:	0.006	Z:	0.662	yaw:	0.355	yaw rate:	-0.308	Roll:	0.347	Pitch:	0.168	Yaw:	0.073	Thrust:	56.573
Time:	4.950	Roll Set Point:	-0.129	Pitch Set Point:	-0.013	Yaw Set Point:	-0.009	X_WP:	0.100	Y_WP:	0.000	Y_WP:	0.500	X:	0.114	Y:	0.007	Z:	0.663	yaw:	0.519	yaw rate:	16.455	Roll:	0.997	Pitch:	0.694	Yaw:	3.933	Thrust:	56.396
Time:	4.961	Roll Set Point:	-0.129	Pitch Set Point:	-0.013	Yaw Set Point:	-0.006	X_WP:	0.100	Y_WP:	0.000	Y_WP:	0.500	X:	0.115	Y:	0.006	Z:	0.664	yaw:	0.316	yaw rate:	-20.307	Roll:	-0.160	Pitch:	-0.083	Yaw:	-4.507	Thrust:	52.836
Time:	4.972	Roll Set Point:	-0.130	Pitch Set Point:	-0.013	Yaw Set Point:	-0.005	X_WP:	0.100	Y_WP:	0.000	Y_WP:	0.500	X:	0.115	Y:	0.006	Z:	0.666	yaw:	0.274	yaw rate:	-4.247	Roll:	0.651	Pitch:	0.347	Yaw:	-1.029	Thrust:	51.963
Time:	4.984	Roll Set Point:	-0.130	Pitch Set Point:	-0.013	Yaw Set Point:	-0.009	X_WP:	0.100	Y_WP:	0.000	Y_WP:	0.500	X:	0.115	Y:	0.006	Z:	0.667	yaw:	0.504	yaw rate:	23.012	Roll:	0.738	Pitch:	0.533	Yaw:	5.122	Thrust:	58.379
Time:	4.996	Roll Set Point:	-0.131	Pitch Set Point:	-0.012	Yaw Set Point:	-0.004	X_WP:	0.100	Y_WP:	0.000	Y_WP:	0.500	X:	0.115	Y:	0.006	Z:	0.668	yaw:	0.202	yaw rate:	-30.144	Roll:	-0.070	Pitch:	-0.107	Yaw:	-7.504	Thrust:	51.982
Time:	5.008	Roll Set Point:	-0.131	Pitch Set Point:	-0.012	Yaw Set Point:	-0.005	X_WP:	0.100	Y_WP:	0.000	Y_WP:	0.500	X:	0.116	Y:	0.006	Z:	0.668	yaw:	0.263	yaw rate:	6.094	Roll:	0.356	Pitch:	0.166	Yaw:	1.337	Thrust:	57.967
Time:	5.025	Roll Set Point:	-0.132	Pitch Set Point:	-0.012	Yaw Set Point:	-0.003	X_WP:	0.100	Y_WP:	0.000	Y_WP:	0.500	X:	0.116	Y:	0.006	Z:	0.671	yaw:	0.177	yaw rate:	1.981	Roll:	0.541	Pitch:	0.359	Yaw:	-1.545	Thrust:	90.264
Time:	5.037	Roll Set Point:	-0.133	Pitch Set Point:	-0.011	Yaw Set Point:	-0.004	X_WP:	0.100	Y_WP:	0.000	Y_WP:	0.500	X:	0.116	Y:	0.006	Z:	0.671	yaw:	0.250	yaw rate:	7.366	Roll:	0.168	Pitch:	0.105	Yaw:	1.771	Thrust:	52.685
