Time:	2.460	Roll Set Point:	-0.015	Pitch Set Point:	0.029	Yaw Set Point:	-2.958	X_WP:	0.000	Y_WP:	0.000	Y_WP:	0.500	X:	0.163	Y:	0.069	Z:	0.401	yaw:	169.454	yaw rate:	2.116	Roll:	-4.280	Pitch:	-2.832	Yaw:	236.602	Thrust:	5.454
Time:	2.491	Roll Set Point:	-0.015	Pitch Set Point:	0.029	Yaw Set Point:	-2.957	X_WP:	0.000	Y_WP:	0.000	Y_WP:	0.500	X:	0.163	Y:	0.069	Z:	0.401	yaw:	169.429	yaw rate:	-2.437	Roll:	-4.250	Pitch:	-2.824	Yaw:	238.212	Thrust:	5.766
Time:	2.538	Roll Set Point:	-0.015	Pitch Set Point:	0.029	Yaw Set Point:	-2.958	X_WP:	0.000	Y_WP:	0.000	Y_WP:	0.500	X:	0.163	Y:	0.069	Z:	0.401	yaw:	169.460	yaw rate:	3.073	Roll:	-4.331	Pitch:	-2.824	Yaw:	241.470	Thrust:	6.601
Time:	2.569	Roll Set Point:	-0.015	Pitch Set Point:	0.029	Yaw Set Point:	-2.958	X_WP:	0.000	Y_WP:	0.000	Y_WP:	0.500	X:	0.163	Y:	0.069	Z:	0.401	yaw:	169.453	yaw rate:	-0.745	Roll:	-4.319	Pitch:	-2.863	Yaw:	239.663	Thrust:	6.468
Time:	2.600	Roll Set Point:	-0.015	Pitch Set Point:	0.029	Yaw Set Point:	-2.958	X_WP:	0.000	Y_WP:	0.000	Y_WP:	0.500	X:	0.163	Y:	0.069	Z:	0.401	yaw:	169.469	yaw rate:	1.617	Roll:	-4.364	Pitch:	-2.860	Yaw:	239.885	Thrust:	7.077
Time:	2.642	Roll Set Point:	-0.015	Pitch Set Point:	0.029	Yaw Set Point:	-2.957	X_WP:	0.000	Y_WP:	0.000	Y_WP:	0.500	X:	0.163	Y:	0.069	Z:	0.401	yaw:	169.433	yaw rate:	-3.616	Roll:	-4.305	Pitch:	-2.920	Yaw:	240.546	Thrust:	7.858
Time:	2.681	Roll Set Point:	-0.015	Pitch Set Point:	0.029	Yaw Set Point:	-2.958	X_WP:	0.000	Y_WP:	0.000	Y_WP:	0.500	X:	0.163	Y:	0.069	Z:	0.401	yaw:	169.453	yaw rate:	0.761	Roll:	-4.396	Pitch:	-2.832	Yaw:	240.579	Thrust:	8.247
Time:	2.712	Roll Set Point:	-0.015	Pitch Set Point:	0.029	Yaw Set Point:	-2.957	X_WP:	0.000	Y_WP:	0.000	Y_WP:	0.500	X:	0.163	Y:	0.069	Z:	0.401	yaw:	169.437	yaw rate:	-1.568	Roll:	-4.330	Pitch:	-2.939	Yaw:	239.609	Thrust:	8.053
Time:	2.747	Roll Set Point:	-0.015	Pitch Set Point:	0.029	Yaw Set Point:	-2.958	X_WP:	0.000	Y_WP:	0.000	Y_WP:	0.500	X:	0.163	Y:	0.069	Z:	0.401	yaw:	169.458	yaw rate:	0.916	Roll:	-4.396	Pitch:	-2.848	Yaw:	240.200	Thrust:	8.752
Time:	2.778	Roll Set Point:	-0.015	Pitch Set Point:	0.029	Yaw Set Point:	-2.957	X_WP:	0.000	Y_WP:	0.000	Y_WP:	0.500	X:	0.163	Y:	0.069	Z:	0.401	yaw:	169.425	yaw rate:	-3.306	Roll:	-4.343	Pitch:	-2.955	Yaw:	239.410	Thrust:	8.743
Time:	2.809	Roll Set Point:	-0.015	Pitch Set Point:	0.029	Yaw Set Point:	-2.957	X_WP:	0.000	Y_WP:	0.000	Y_WP:	0.500	X:	0.163	Y:	0.069	Z:	0.401	yaw:	169.442	yaw rate:	1.564	Roll:	-4.425	Pitch:	-2.877	Yaw:	239.856	Thrust:	9.180
Time:	2.841	Roll Set Point:	-0.015	Pitch Set Point:	0.029	Yaw Set Point:	-2.957	X_WP:	0.000	Y_WP:	0.000	Y_WP:	0.500	X:	0.163	Y:	0.069	Z:	0.401	yaw:	169.445	yaw rate:	0.242	Roll:	-4.431	Pitch:	-2.951	Yaw:	239.735	Thrust:	9.583
Time:	2.872	Roll Set Point:	-0.015	Pitch Set Point:	0.029	Yaw Set Point:	-2.958	X_WP:	0.000	Y_WP:	0.000	Y_WP:	0.500	X:	0.163	Y:	0.069	Z:	0.401	yaw:	169.461	yaw rate:	1.599	Roll:	-4.405	Pitch:	-2.873	Yaw:	239.870	Thrust:	9.904
Time:	2.903	Roll Set Point:	-0.015	Pitch Set Point:	0.029	Yaw Set Point:	-2.958	X_WP:	0.000	Y_WP:	0.000	Y_WP:	0.500	X:	0.163	Y:	0.069	Z:	0.401	yaw:	169.453	yaw rate:	-0.781	Roll:	-4.444	Pitch:	-2.963	Yaw:	239.661	Thrust:	10.277
Time:	2.934	Roll Set Point:	-0.015	Pitch Set Point:	0.029	Yaw Set Point:	-2.957	X_WP:	0.000	Y_WP:	0.000	Y_WP:	0.500	X:	0.163	Y:	0.069	Z:	0.401	yaw:	169.437	yaw rate:	0.245	Roll:	-4.404	Pitch:	-2.924	Yaw:	239.577	Thrust:	10.643
Time:	2.966	Roll Set Point:	-0.015	Pitch Set Point:	0.029	Yaw Set Point:	-2.957	X_WP:	0.000	Y_WP:	0.000	Y_WP:	0.500	X:	0.163	Y:	0.069	Z:	0.401	yaw:	169.425	yaw rate:	-1.249	Roll:	-4.422	Pitch:	-2.964	Yaw:	239.583	Thrust:	11.064
Time:	2.997	Roll Set Point:	-0.015	Pitch Set Point:	0.029	Yaw Set Point:	-2.957	X_WP:	0.000	Y_WP:	0.000	Y_WP:	0.500	X:	0.163	Y:	0.069	Z:	0.401	yaw:	169.434	yaw rate:	0.925	Roll:	-4.478	Pitch:	-2.945	Yaw:	239.778	Thrust:	11.425
Time:	3.028	Roll Set Point:	-0.015	Pitch Set Point:	0.029	Yaw Set Point:	-2.957	X_WP:	0.000	Y_WP:	0.000	Y_WP:	0.500	X:	0.163	Y:	0.069	Z:	0.401	yaw:	169.451	yaw rate:	1.637	Roll:	-4.499	Pitch:	-2.935	Yaw:	239.860	Thrust:	11.713
Time:	3.059	Roll Set Point:	-0.015	Pitch Set Point:	0.029	Yaw Set Point:	-2.957	X_WP:	0.000	Y_WP:	0.000	Y_WP:	0.500	X:	0.163	Y:	0.069	Z:	0.401	yaw:	169.448	yaw rate:	0.348	Roll:	-4.475	Pitch:	-2.972	Yaw:	239.702	Thrust:	12.225
Time:	3.091	Roll Set Point:	-0.015	Pitch Set Point:	0.029	Yaw Set Point:	-2.958	X_WP:	0.000	Y_WP:	0.000	Y_WP:	0.500	X:	0.163	Y:	0.069	Z:	0.401	yaw:	169.459	yaw rate:	1.053	Roll:	-4.516	Pitch:	-2.957	Yaw:	239.826	Thrust:	12.462
Time:	3.122	Roll Set Point:	-0.015	Pitch Set Point:	0.029	Yaw Set Point:	-2.958	X_WP:	0.000	Y_WP:	0.000	Y_WP:	0.500	X:	0.163	Y:	0.069	Z:	0.401	yaw:	169.453	yaw rate:	1.314	Roll:	-4.503	Pitch:	-2.986	Yaw:	239.672	Thrust:	12.863
Time:	3.153	Roll Set Point:	-0.015	Pitch Set Point:	0.029	Yaw Set Point:	-2.957	X_WP:	0.000	Y_WP:	0.000	Y_WP:	0.500	X:	0.163	Y:	0.069	Z:	0.401	yaw:	169.428	yaw rate:	-2.536	Roll:	-4.493	Pitch:	-3.047	Yaw:	239.478	Thrust:	13.280
Time:	3.184	Roll Set Point:	-0.015	Pitch Set Point:	0.029	Yaw Set Point:	-2.958	X_WP:	0.000	Y_WP:	0.000	Y_WP:	0.500	X:	0.163	Y:	0.069	Z:	0.401	yaw:	169.460	yaw rate:	0.160	Roll:	-4.597	Pitch:	-2.959	Yaw:	240.009	Thrust:	13.701
Time:	3.216	Roll Set Point:	-0.015	Pitch Set Point:	0.029	Yaw Set Point:	-2.958	X_WP:	0.000	Y_WP:	0.000	Y_WP:	0.500	X:	0.163	Y:	0.069	Z:	0.401	yaw:	169.453	yaw rate:	-0.672	Roll:	-4.499	Pitch:	-3.000	Yaw:	239.673	Thrust:	13.921
Time:	3.247	Roll Set Point:	-0.015	Pitch Set Point:	0.029	Yaw Set Point:	-2.957	X_WP:	0.000	Y_WP:	0.000	Y_WP:	0.500	X:	0.163	Y:	0.069	Z:	0.401	yaw:	169.446	yaw rate:	-0.262	Roll:	-4.565	Pitch:	-3.007	Yaw:	239.648	Thrust:	14.395
Time:	3.278	Roll Set Point:	-0.015	Pitch Set Point:	0.029	Yaw Set Point:	-2.957	X_WP:	0.000	Y_WP:	0.000	Y_WP:	0.500	X:	0.163	Y:	0.069	Z:	0.401	yaw:	169.435	yaw rate:	-1.070	Roll:	-4.529	Pitch:	-3.061	Yaw:	239.612	Thrust:	14.746
Time:	3.309	Roll Set Point:	-0.015	Pitch Set Point:	0.029	Yaw Set Point:	-2.957	X_WP:	0.000	Y_WP:	0.000	Y_WP:	0.500	X:	0.163	Y:	0.069	Z:	0.401	yaw:	169.434	yaw rate:	-0.333	Roll:	-4.588	Pitch:	-3.009	Yaw:	239.696	Thrust:	15.071
Time:	3.341	Roll Set Point:	-0.015	Pitch Set Point:	0.029	Yaw Set Point:	-2.957	X_WP:	0.000	Y_WP:	0.000	Y_WP:	0.500	X:	0.163	Y:	0.069	Z:	0.401	yaw:	169.443	yaw rate:	0.870	Roll:	-4.605	Pitch:	-3.039	Yaw:	239.785	Thrust:	15.587
Time:	3.372	Roll Set Point:	-0.015	Pitch Set Point:	0.029	Yaw Set Point:	-2.957	X_WP:	0.000	Y_WP:	0.000	Y_WP:	0.500	X:	0.163	Y:	0.069	Z:	0.401	yaw:	169.448	yaw rate:	1.218	Roll:	-4.602	Pitch:	-3.016	Yaw:	239.759	Thrust:	15.816
Time:	3.403	Roll Set Point:	-0.015	Pitch Set Point:	0.029	Yaw Set Point:	-2.957	X_WP:	0.000	Y_WP:	0.000	Y_WP:	0.500	X:	0.163	Y:	0.069	Z:	0.401	yaw:	169.426	yaw rate:	-2.190	Roll:	-4.590	Pitch:	-3.102	Yaw:	239.505	Thrust:	16.269
Time:	3.434	Roll Set Point:	-0.015	Pitch Set Point:	0.029	Yaw Set Point:	-2.958	X_WP:	0.000	Y_WP:	0.000	Y_WP:	0.500	X:	0.163	Y:	0.069	Z:	0.401	yaw:	169.454	yaw rate:	2.843	Roll:	-4.648	Pitch:	-3.004	Yaw:	239.967	Thrust:	16.571
Time:	3.466	Roll Set Point:	-0.015	Pitch Set Point:	0.029	Yaw Set Point:	-2.957	X_WP:	0.000	Y_WP:	0.000	Y_WP:	0.500	X:	0.163	Y:	0.069	Z:	0.401	yaw:	169.432	yaw rate:	-2.237	Roll:	-4.606	Pitch:	-3.112	Yaw:	239.511	Thrust:	16.975
Time:	3.497	Roll Set Point:	-0.015	Pitch Set Point:	0.029	Yaw Set Point:	-2.957	X_WP:	0.000	Y_WP:	0.000	Y_WP:	0.500	X:	0.163	Y:	0.069	Z:	0.401	yaw:	169.441	yaw rate:	-0.747	Roll:	-4.680	Pitch:	-3.093	Yaw:	239.785	Thrust:	17.424
Time:	3.528	Roll Set Point:	-0.015	Pitch Set Point:	0.029	Yaw Set Point:	-2.958	X_WP:	0.000	Y_WP:	0.000	Y_WP:	0.500	X:	0.163	Y:	0.069	Z:	0.401	yaw:	169.453	yaw rate:	1.180	Roll:	-4.662	Pitch:	-3.031	Yaw:	239.825	Thrust:	17.659
Time:	3.559	Roll Set Point:	-0.015	Pitch Set Point:	0.029	Yaw Set Point:	-2.957	X_WP:	0.000	Y_WP:	0.000	Y_WP:	0.500	X:	0.163	Y:	0.069	Z:	0.401	yaw:	169.449	yaw rate:	-1.447	Roll:	-4.676	Pitch:	-3.083	Yaw:	239.683	Thrust:	18.036
Time:	3.591	Roll Set Point:	-0.015	Pitch Set Point:	0.029	Yaw Set Point:	-2.957	X_WP:	0.000	Y_WP:	0.000	Y_WP:	0.500	X:	0.163	Y:	0.069	Z:	0.401	yaw:	169.425	yaw rate:	-2.404	Roll:	-4.649	Pitch:	-3.138	Yaw:	239.485	Thrust:	18.502
Time:	3.622	Roll Set Point:	-0.015	Pitch Set Point:	0.029	Yaw Set Point:	-2.958	X_WP:	0.000	Y_WP:	0.000	Y_WP:	0.500	X:	0.163	Y:	0.069	Z:	0.401	yaw:	169.456	yaw rate:	0.876	Roll:	-4.723	Pitch:	-3.065	Yaw:	240.036	Thrust:	19.059
Time:	3.663	Roll Set Point:	-0.015	Pitch Set Point:	0.029	Yaw Set Point:	-2.957	X_WP:	0.000	Y_WP:	0.000	Y_WP:	0.500	X:	0.163	Y:	0.069	Z:	0.401	yaw:	169.446	yaw rate:	1.657	Roll:	-4.837	Pitch:	-3.212	Yaw:	240.610	Thrust:	23.430
Time:	3.694	Roll Set Point:	-0.015	Pitch Set Point:	0.029	Yaw Set Point:	-2.958	X_WP:	0.000	Y_WP:	0.000	Y_WP:	0.500	X:	0.163	Y:	0.069	Z:	0.401	yaw:	169.458	yaw rate:	1.209	Roll:	-4.732	Pitch:	-3.085	Yaw:	239.832	Thrust:	19.513
Time:	3.727	Roll Set Point:	-0.015	Pitch Set Point:	0.029	Yaw Set Point:	-2.957	X_WP:	0.000	Y_WP:	0.000	Y_WP:	0.500	X:	0.163	Y:	0.069	Z:	0.401	yaw:	169.441	yaw rate:	-1.751	Roll:	-4.735	Pitch:	-3.191	Yaw:	239.680	Thrust:	20.511
Time:	3.758	Roll Set Point:	-0.015	Pitch Set Point:	0.029	Yaw Set Point:	-2.957	X_WP:	0.000	Y_WP:	0.000	Y_WP:	0.500	X:	0.163	Y:	0.069	Z:	0.401	yaw:	169.452	yaw rate:	1.140	Roll:	-4.743	Pitch:	-3.093	Yaw:	239.821	Thrust:	20.313
Time:	3.789	Roll Set Point:	-0.015	Pitch Set Point:	0.029	Yaw Set Point:	-2.957	X_WP:	0.000	Y_WP:	0.000	Y_WP:	0.500	X:	0.163	Y:	0.069	Z:	0.401	yaw:	169.439	yaw rate:	-1.336	Roll:	-4.744	Pitch:	-3.186	Yaw:	239.595	Thrust:	20.682
Time:	3.821	Roll Set Point:	-0.015	Pitch Set Point:	0.029	Yaw Set Point:	-2.957	X_WP:	0.000	Y_WP:	0.000	Y_WP:	0.500	X:	0.163	Y:	0.069	Z:	0.401	yaw:	169.447	yaw rate:	0.820	Roll:	-4.762	Pitch:	-3.119	Yaw:	239.788	Thrust:	21.089
Time:	3.852	Roll Set Point:	-0.015	Pitch Set Point:	0.029	Yaw Set Point:	-2.957	X_WP:	0.000	Y_WP:	0.000	Y_WP:	0.500	X:	0.163	Y:	0.069	Z:	0.401	yaw:	169.443	yaw rate:	-0.428	Roll:	-4.779	Pitch:	-3.165	Yaw:	239.678	Thrust:	21.437
Time:	3.883	Roll Set Point:	-0.015	Pitch Set Point:	0.029	Yaw Set Point:	-2.957	X_WP:	0.000	Y_WP:	0.000	Y_WP:	0.500	X:	0.163	Y:	0.069	Z:	0.401	yaw:	169.436	yaw rate:	-0.710	Roll:	-4.774	Pitch:	-3.172	Yaw:	239.640	Thrust:	21.767
Time:	3.914	Roll Set Point:	-0.015	Pitch Set Point:	0.029	Yaw Set Point:	-2.957	X_WP:	0.000	Y_WP:	0.000	Y_WP:	0.500	X:	0.163	Y:	0.069	Z:	0.401	yaw:	169.452	yaw rate:	1.656	Roll:	-4.802	Pitch:	-3.146	Yaw:	239.864	Thrust:	22.224
Time:	3.946	Roll Set Point:	-0.015	Pitch Set Point:	0.029	Yaw Set Point:	-2.957	X_WP:	0.000	Y_WP:	0.000	Y_WP:	0.500	X:	0.163	Y:	0.069	Z:	0.401	yaw:	169.452	yaw rate:	0.318	Roll:	-4.817	Pitch:	-3.191	Yaw:	239.723	Thrust:	22.612
Time:	3.977	Roll Set Point:	-0.015	Pitch Set Point:	0.029	Yaw Set Point:	-2.957	X_WP:	0.000	Y_WP:	0.000	Y_WP:	0.500	X:	0.163	Y:	0.069	Z:	0.401	yaw:	169.446	yaw rate:	0.361	Roll:	-4.820	Pitch:	-3.210	Yaw:	239.669	Thrust:	22.898
Time:	4.008	Roll Set Point:	-0.015	Pitch Set Point:	0.029	Yaw Set Point:	-2.957	X_WP:	0.000	Y_WP:	0.000	Y_WP:	0.500	X:	0.163	Y:	0.069	Z:	0.401	yaw:	169.436	yaw rate:	-0.963	Roll:	-4.826	Pitch:	-3.241	Yaw:	239.623	Thrust:	23.355
Time:	4.039	Roll Set Point:	-0.015	Pitch Set Point:	0.029	Yaw Set Point:	-2.958	X_WP:	0.000	Y_WP:	0.000	Y_WP:	0.500	X:	0.163	Y:	0.069	Z:	0.401	yaw:	169.453	yaw rate:	1.698	Roll:	-4.863	Pitch:	-3.125	Yaw:	239.869	Thrust:	23.597
Time:	4.071	Roll Set Point:	-0.015	Pitch Set Point:	0.029	Yaw Set Point:	-2.957	X_WP:	0.000	Y_WP:	0.000	Y_WP:	0.500	X:	0.163	Y:	0.069	Z:	0.401	yaw:	169.444	yaw rate:	1.644	Roll:	-4.853	Pitch:	-3.245	Yaw:	239.639	Thrust:	24.033
Time:	4.117	Roll Set Point:	-0.015	Pitch Set Point:	0.029	Yaw Set Point:	-2.958	X_WP:	0.000	Y_WP:	0.000	Y_WP:	0.500	X:	0.163	Y:	0.069	Z:	0.401	yaw:	169.460	yaw rate:	0.244	Roll:	-5.159	Pitch:	-3.376	Yaw:	241.383	Thrust:	33.874
Time:	4.149	Roll Set Point:	-0.015	Pitch Set Point:	0.029	Yaw Set Point:	-2.957	X_WP:	0.000	Y_WP:	0.000	Y_WP:	0.500	X:	0.163	Y:	0.069	Z:	0.401	yaw:	169.451	yaw rate:	1.590	Roll:	-4.876	Pitch:	-3.241	Yaw:	239.648	Thrust:	24.799
Time:	4.180	Roll Set Point:	-0.015	Pitch Set Point:	0.029	Yaw Set Point:	-2.957	X_WP:	0.000	Y_WP:	0.000	Y_WP:	0.500	X:	0.163	Y:	0.069	Z:	0.401	yaw:	169.451	yaw rate:	-0.018	Roll:	-4.874	Pitch:	-3.269	Yaw:	239.719	Thrust:	25.107
Time:	4.211	Roll Set Point:	-0.015	Pitch Set Point:	0.029	Yaw Set Point:	-2.957	X_WP:	0.000	Y_WP:	0.000	Y_WP:	0.500	X:	0.163	Y:	0.069	Z:	0.401	yaw:	169.427	yaw rate:	-2.339	Roll:	-4.887	Pitch:	-3.278	Yaw:	239.494	Thrust:	25.617
Time:	4.242	Roll Set Point:	-0.015	Pitch Set Point:	0.029	Yaw Set Point:	-2.957	X_WP:	0.000	Y_WP:	0.000	Y_WP:	0.500	X:	0.163	Y:	0.069	Z:	0.401	yaw:	169.452	yaw rate:	2.444	Roll:	-4.944	Pitch:	-3.201	Yaw:	239.929	Thrust:	25.860
Time:	4.274	Roll Set Point:	-0.015	Pitch Set Point:	0.029	Yaw Set Point:	-2.957	X_WP:	0.000	Y_WP:	0.000	Y_WP:	0.500	X:	0.163	Y:	0.069	Z:	0.401	yaw:	169.426	yaw rate:	-2.520	Roll:	-4.890	Pitch:	-3.304	Yaw:	239.478	Thrust:	26.254
Time:	4.305	Roll Set Point:	-0.015	Pitch Set Point:	0.029	Yaw Set Point:	-2.957	X_WP:	0.000	Y_WP:	0.000	Y_WP:	0.500	X:	0.163	Y:	0.069	Z:	0.401	yaw:	169.435	yaw rate:	-2.015	Roll:	-4.941	Pitch:	-3.253	Yaw:	239.769	Thrust:	26.631
Time:	4.336	Roll Set Point:	-0.015	Pitch Set Point:	0.029	Yaw Set Point:	-2.957	X_WP:	0.000	Y_WP:	0.000	Y_WP:	0.500	X:	0.163	Y:	0.069	Z:	0.401	yaw:	169.425	yaw rate:	-1.007	Roll:	-4.933	Pitch:	-3.301	Yaw:	239.602	Thrust:	27.061
Time:	4.367	Roll Set Point:	-0.015	Pitch Set Point:	0.029	Yaw Set Point:	-2.957	X_WP:	0.000	Y_WP:	0.000	Y_WP:	0.500	X:	0.163	Y:	0.069	Z:	0.401	yaw:	169.422	yaw rate:	-3.673	Roll:	-4.970	Pitch:	-3.254	Yaw:	239.657	Thrust:	27.348
Time:	4.399	Roll Set Point:	-0.015	Pitch Set Point:	0.029	Yaw Set Point:	-2.957	X_WP:	0.000	Y_WP:	0.000	Y_WP:	0.500	X:	0.163	Y:	0.069	Z:	0.401	yaw:	169.442	yaw rate:	2.033	Roll:	-4.984	Pitch:	-3.281	Yaw:	239.881	Thrust:	27.810
Time:	4.430	Roll Set Point:	-0.015	Pitch Set Point:	0.029	Yaw Set Point:	-2.957	X_WP:	0.000	Y_WP:	0.000	Y_WP:	0.500	X:	0.163	Y:	0.069	Z:	0.401	yaw:	169.426	yaw rate:	-2.281	Roll:	-4.963	Pitch:	-3.323	Yaw:	239.555	Thrust:	28.091
Time:	4.461	Roll Set Point:	-0.015	Pitch Set Point:	0.029	Yaw Set Point:	-2.958	X_WP:	0.000	Y_WP:	0.000	Y_WP:	0.500	X:	0.163	Y:	0.069	Z:	0.401	yaw:	169.458	yaw rate:	3.218	Roll:	-5.028	Pitch:	-3.233	Yaw:	240.003	Thrust:	28.523
Time:	4.492	Roll Set Point:	-0.015	Pitch Set Point:	0.029	Yaw Set Point:	-2.957	X_WP:	0.000	Y_WP:	0.000	Y_WP:	0.500	X:	0.163	Y:	0.069	Z:	0.401	yaw:	169.433	yaw rate:	-0.964	Roll:	-4.967	Pitch:	-3.361	Yaw:	239.492	Thrust:	28.852
Time:	4.524	Roll Set Point:	-0.015	Pitch Set Point:	0.029	Yaw Set Point:	-2.958	X_WP:	0.000	Y_WP:	0.000	Y_WP:	0.500	X:	0.163	Y:	0.069	Z:	0.401	yaw:	169.457	yaw rate:	2.750	Roll:	-5.053	Pitch:	-3.272	Yaw:	239.929	Thrust:	29.274
Time:	4.555	Roll Set Point:	-0.015	Pitch Set Point:	0.029	Yaw Set Point:	-2.957	X_WP:	0.000	Y_WP:	0.000	Y_WP:	0.500	X:	0.163	Y:	0.069	Z:	0.401	yaw:	169.414	yaw rate:	-4.381	Roll:	-4.979	Pitch:	-3.402	Yaw:	239.312	Thrust:	29.587
Time:	4.602	Roll Set Point:	-0.015	Pitch Set Point:	0.029	Yaw Set Point:	-2.958	X_WP:	0.000	Y_WP:	0.000	Y_WP:	0.500	X:	0.163	Y:	0.069	Z:	0.401	yaw:	169.464	yaw rate:	1.908	Roll:	-5.471	Pitch:	-3.516	Yaw:	241.583	Thrust:	42.318
Time:	4.633	Roll Set Point:	-0.015	Pitch Set Point:	0.029	Yaw Set Point:	-2.957	X_WP:	0.000	Y_WP:	0.000	Y_WP:	0.500	X:	0.163	Y:	0.069	Z:	0.401	yaw:	169.430	yaw rate:	-3.418	Roll:	-5.003	Pitch:	-3.433	Yaw:	239.407	Thrust:	30.274
Time:	4.663	Roll Set Point:	-0.015	Pitch Set Point:	0.029	Yaw Set Point:	-2.957	X_WP:	0.000	Y_WP:	0.000	Y_WP:	0.500	X:	0.163	Y:	0.069	Z:	0.401	yaw:	169.419	yaw rate:	-1.042	Roll:	-5.014	Pitch:	-3.315	Yaw:	239.457	Thrust:	29.662
Time:	4.694	Roll Set Point:	-0.015	Pitch Set Point:	0.029	Yaw Set Point:	-2.958	X_WP:	0.000	Y_WP:	0.000	Y_WP:	0.500	X:	0.163	Y:	0.069	Z:	0.401	yaw:	169.458	yaw rate:	0.390	Roll:	-5.109	Pitch:	-3.306	Yaw:	240.062	Thrust:	31.149
Time:	4.726	Roll Set Point:	-0.015	Pitch Set Point:	0.029	Yaw Set Point:	-2.958	X_WP:	0.000	Y_WP:	0.000	Y_WP:	0.500	X:	0.163	Y:	0.069	Z:	0.401	yaw:	169.461	yaw rate:	0.232	Roll:	-5.098	Pitch:	-3.355	Yaw:	239.757	Thrust:	31.486
Time:	4.757	Roll Set Point:	-0.015	Pitch Set Point:	0.029	Yaw Set Point:	-2.957	X_WP:	0.000	Y_WP:	0.000	Y_WP:	0.500	X:	0.163	Y:	0.069	Z:	0.401	yaw:	169.435	yaw rate:	-2.542	Roll:	-5.063	Pitch:	-3.417	Yaw:	239.489	Thrust:	31.805
Time:	4.804	Roll Set Point:	-0.015	Pitch Set Point:	0.029	Yaw Set Point:	-2.958	X_WP:	0.000	Y_WP:	0.000	Y_WP:	0.500	X:	0.163	Y:	0.069	Z:	0.401	yaw:	169.458	yaw rate:	0.156	Roll:	-5.541	Pitch:	-3.617	Yaw:	241.420	Thrust:	45.634
Time:	4.835	Roll Set Point:	-0.015	Pitch Set Point:	0.029	Yaw Set Point:	-2.957	X_WP:	0.000	Y_WP:	0.000	Y_WP:	0.500	X:	0.163	Y:	0.069	Z:	0.401	yaw:	169.425	yaw rate:	-0.626	Roll:	-5.053	Pitch:	-3.471	Yaw:	239.410	Thrust:	32.545
Time:	4.866	Roll Set Point:	-0.015	Pitch Set Point:	0.029	Yaw Set Point:	-2.958	X_WP:	0.000	Y_WP:	0.000	Y_WP:	0.500	X:	0.163	Y:	0.069	Z:	0.401	yaw:	169.461	yaw rate:	-1.509	Roll:	-5.211	Pitch:	-3.314	Yaw:	240.040	Thrust:	33.031
Time:	4.897	Roll Set Point:	-0.015	Pitch Set Point:	0.029	Yaw Set Point:	-2.957	X_WP:	0.000	Y_WP:	0.000	Y_WP:	0.500	X:	0.163	Y:	0.069	Z:	0.401	yaw:	169.421	yaw rate:	-3.981	Roll:	-5.060	Pitch:	-3.489	Yaw:	239.348	Thrust:	33.292
Time:	4.929	Roll Set Point:	-0.015	Pitch Set Point:	0.029	Yaw Set Point:	-2.958	X_WP:	0.000	Y_WP:	0.000	Y_WP:	0.500	X:	0.163	Y:	0.069	Z:	0.401	yaw:	169.457	yaw rate:	-0.643	Roll:	-5.211	Pitch:	-3.326	Yaw:	240.036	Thrust:	33.796
Time:	4.960	Roll Set Point:	-0.015	Pitch Set Point:	0.029	Yaw Set Point:	-2.957	X_WP:	0.000	Y_WP:	0.000	Y_WP:	0.500	X:	0.163	Y:	0.069	Z:	0.401	yaw:	169.440	yaw rate:	0.563	Roll:	-5.152	Pitch:	-3.477	Yaw:	239.565	Thrust:	33.986
Time:	4.991	Roll Set Point:	-0.015	Pitch Set Point:	0.029	Yaw Set Point:	-2.957	X_WP:	0.000	Y_WP:	0.000	Y_WP:	0.500	X:	0.163	Y:	0.069	Z:	0.401	yaw:	169.451	yaw rate:	1.112	Roll:	-5.198	Pitch:	-3.363	Yaw:	239.820	Thrust:	34.497
Time:	5.022	Roll Set Point:	-0.015	Pitch Set Point:	0.029	Yaw Set Point:	-2.957	X_WP:	0.000	Y_WP:	0.000	Y_WP:	0.500	X:	0.163	Y:	0.069	Z:	0.401	yaw:	169.442	yaw rate:	-0.960	Roll:	-5.155	Pitch:	-3.482	Yaw:	239.627	Thrust:	34.742
Time:	5.054	Roll Set Point:	-0.015	Pitch Set Point:	0.029	Yaw Set Point:	-2.957	X_WP:	0.000	Y_WP:	0.000	Y_WP:	0.500	X:	0.163	Y:	0.069	Z:	0.401	yaw:	169.441	yaw rate:	-0.029	Roll:	-5.232	Pitch:	-3.417	Yaw:	239.708	Thrust:	35.316
Time:	5.101	Roll Set Point:	-0.015	Pitch Set Point:	0.029	Yaw Set Point:	-2.958	X_WP:	0.000	Y_WP:	0.000	Y_WP:	0.500	X:	0.163	Y:	0.069	Z:	0.401	yaw:	169.456	yaw rate:	2.410	Roll:	-5.673	Pitch:	-3.754	Yaw:	241.372	Thrust:	50.547
Time:	5.132	Roll Set Point:	-0.015	Pitch Set Point:	0.029	Yaw Set Point:	-2.958	X_WP:	0.000	Y_WP:	0.000	Y_WP:	0.500	X:	0.163	Y:	0.069	Z:	0.401	yaw:	169.458	yaw rate:	1.276	Roll:	-5.255	Pitch:	-3.435	Yaw:	239.748	Thrust:	36.037
Time:	5.163	Roll Set Point:	-0.015	Pitch Set Point:	0.029	Yaw Set Point:	-2.957	X_WP:	0.000	Y_WP:	0.000	Y_WP:	0.500	X:	0.163	Y:	0.069	Z:	0.401	yaw:	169.442	yaw rate:	-1.544	Roll:	-5.195	Pitch:	-3.513	Yaw:	239.582	Thrust:	36.231
Time:	5.194	Roll Set Point:	-0.015	Pitch Set Point:	0.029	Yaw Set Point:	-2.958	X_WP:	0.000	Y_WP:	0.000	Y_WP:	0.500	X:	0.163	Y:	0.069	Z:	0.401	yaw:	169.453	yaw rate:	0.819	Roll:	-5.279	Pitch:	-3.418	Yaw:	239.822	Thrust:	36.753
Time:	5.226	Roll Set Point:	-0.015	Pitch Set Point:	0.029	Yaw Set Point:	-2.957	X_WP:	0.000	Y_WP:	0.000	Y_WP:	0.500	X:	0.163	Y:	0.069	Z:	0.401	yaw:	169.440	yaw rate:	-1.348	Roll:	-5.216	Pitch:	-3.521	Yaw:	239.595	Thrust:	37.002
Time:	5.257	Roll Set Point:	-0.015	Pitch Set Point:	0.029	Yaw Set Point:	-2.958	X_WP:	0.000	Y_WP:	0.000	Y_WP:	0.500	X:	0.163	Y:	0.069	Z:	0.401	yaw:	169.454	yaw rate:	1.367	Roll:	-5.296	Pitch:	-3.452	Yaw:	239.842	Thrust:	37.445
Time:	5.288	Roll Set Point:	-0.015	Pitch Set Point:	0.029	Yaw Set Point:	-2.957	X_WP:	0.000	Y_WP:	0.000	Y_WP:	0.500	X:	0.163	Y:	0.069	Z:	0.401	yaw:	169.427	yaw rate:	-2.642	Roll:	-5.250	Pitch:	-3.541	Yaw:	239.469	Thrust:	37.791
Time:	5.319	Roll Set Point:	-0.015	Pitch Set Point:	0.029	Yaw Set Point:	-2.958	X_WP:	0.000	Y_WP:	0.000	Y_WP:	0.500	X:	0.163	Y:	0.069	Z:	0.401	yaw:	169.472	yaw rate:	2.420	Roll:	-5.352	Pitch:	-3.420	Yaw:	240.130	Thrust:	38.196
Time:	5.351	Roll Set Point:	-0.015	Pitch Set Point:	0.029	Yaw Set Point:	-2.957	X_WP:	0.000	Y_WP:	0.000	Y_WP:	0.500	X:	0.163	Y:	0.069	Z:	0.401	yaw:	169.440	yaw rate:	-3.194	Roll:	-5.266	Pitch:	-3.561	Yaw:	239.441	Thrust:	38.513
Time:	5.382	Roll Set Point:	-0.015	Pitch Set Point:	0.029	Yaw Set Point:	-2.957	X_WP:	0.000	Y_WP:	0.000	Y_WP:	0.500	X:	0.163	Y:	0.069	Z:	0.401	yaw:	169.448	yaw rate:	-0.139	Roll:	-5.317	Pitch:	-3.502	Yaw:	239.787	Thrust:	38.943
Time:	5.413	Roll Set Point:	-0.015	Pitch Set Point:	0.029	Yaw Set Point:	-2.958	X_WP:	0.000	Y_WP:	0.000	Y_WP:	0.500	X:	0.163	Y:	0.069	Z:	0.401	yaw:	169.462	yaw rate:	1.395	Roll:	-5.369	Pitch:	-3.501	Yaw:	239.856	Thrust:	39.291
Time:	5.444	Roll Set Point:	-0.015	Pitch Set Point:	0.029	Yaw Set Point:	-2.958	X_WP:	0.000	Y_WP:	0.000	Y_WP:	0.500	X:	0.163	Y:	0.069	Z:	0.401	yaw:	169.454	yaw rate:	1.062	Roll:	-5.319	Pitch:	-3.538	Yaw:	239.659	Thrust:	39.639
Time:	5.476	Roll Set Point:	-0.015	Pitch Set Point:	0.029	Yaw Set Point:	-2.958	X_WP:	0.000	Y_WP:	0.000	Y_WP:	0.500	X:	0.163	Y:	0.069	Z:	0.401	yaw:	169.461	yaw rate:	0.747	Roll:	-5.391	Pitch:	-3.582	Yaw:	239.801	Thrust:	40.059
Time:	5.507	Roll Set Point:	-0.015	Pitch Set Point:	0.029	Yaw Set Point:	-2.957	X_WP:	0.000	Y_WP:	0.000	Y_WP:	0.500	X:	0.163	Y:	0.069	Z:	0.401	yaw:	169.436	yaw rate:	0.546	Roll:	-5.304	Pitch:	-3.547	Yaw:	239.489	Thrust:	40.347
Time:	5.538	Roll Set Point:	-0.015	Pitch Set Point:	0.029	Yaw Set Point:	-2.958	X_WP:	0.000	Y_WP:	0.000	Y_WP:	0.500	X:	0.163	Y:	0.069	Z:	0.401	yaw:	169.452	yaw rate:	1.647	Roll:	-5.409	Pitch:	-3.508	Yaw:	239.863	Thrust:	40.832
Time:	5.569	Roll Set Point:	-0.015	Pitch Set Point:	0.029	Yaw Set Point:	-2.957	X_WP:	0.000	Y_WP:	0.000	Y_WP:	0.500	X:	0.163	Y:	0.069	Z:	0.401	yaw:	169.452	yaw rate:	2.047	Roll:	-5.388	Pitch:	-3.633	Yaw:	239.721	Thrust:	41.147
Time:	5.601	Roll Set Point:	-0.015	Pitch Set Point:	0.029	Yaw Set Point:	-2.957	X_WP:	0.000	Y_WP:	0.000	Y_WP:	0.500	X:	0.163	Y:	0.069	Z:	0.401	yaw:	169.445	yaw rate:	-0.663	Roll:	-5.385	Pitch:	-3.532	Yaw:	239.713	Thrust:	42.115
Time:	5.634	Roll Set Point:	-0.015	Pitch Set Point:	0.029	Yaw Set Point:	-2.957	X_WP:	0.000	Y_WP:	0.000	Y_WP:	0.500	X:	0.163	Y:	0.069	Z:	0.401	yaw:	169.446	yaw rate:	0.294	Roll:	-5.461	Pitch:	-3.616	Yaw:	239.836	Thrust:	43.186
Time:	5.663	Roll Set Point:	-0.015	Pitch Set Point:	0.029	Yaw Set Point:	-2.957	X_WP:	0.000	Y_WP:	0.000	Y_WP:	0.500	X:	0.163	Y:	0.069	Z:	0.401	yaw:	169.435	yaw rate:	-1.039	Roll:	-5.354	Pitch:	-3.547	Yaw:	239.456	Thrust:	40.511
Time:	5.695	Roll Set Point:	-0.015	Pitch Set Point:	0.029	Yaw Set Point:	-2.957	X_WP:	0.000	Y_WP:	0.000	Y_WP:	0.500	X:	0.163	Y:	0.069	Z:	0.401	yaw:	169.446	yaw rate:	1.796	Roll:	-5.429	Pitch:	-3.592	Yaw:	239.806	Thrust:	42.546
Time:	5.727	Roll Set Point:	-0.015	Pitch Set Point:	0.029	Yaw Set Point:	-2.958	X_WP:	0.000	Y_WP:	0.000	Y_WP:	0.500	X:	0.163	Y:	0.069	Z:	0.401	yaw:	169.458	yaw rate:	-1.506	Roll:	-5.519	Pitch:	-3.610	Yaw:	239.950	Thrust:	44.567
Time:	5.758	Roll Set Point:	-0.015	Pitch Set Point:	0.029	Yaw Set Point:	-2.957	X_WP:	0.000	Y_WP:	0.000	Y_WP:	0.500	X:	0.163	Y:	0.069	Z:	0.401	yaw:	169.432	yaw rate:	-2.556	Roll:	-5.395	Pitch:	-3.650	Yaw:	239.484	Thrust:	43.271
Time:	5.805	Roll Set Point:	-0.015	Pitch Set Point:	0.029	Yaw Set Point:	-2.957	X_WP:	0.000	Y_WP:	0.000	Y_WP:	0.500	X:	0.163	Y:	0.069	Z:	0.401	yaw:	169.420	yaw rate:	-2.591	Roll:	-6.038	Pitch:	-4.018	Yaw:	241.175	Thrust:	62.912
Time:	5.852	Roll Set Point:	-0.015	Pitch Set Point:	0.029	Yaw Set Point:	-2.958	X_WP:	0.000	Y_WP:	0.000	Y_WP:	0.500	X:	0.163	Y:	0.069	Z:	0.401	yaw:	169.456	yaw rate:	1.337	Roll:	-6.068	Pitch:	-3.991	Yaw:	241.493	Thrust:	63.484
Time:	5.899	Roll Set Point:	-0.015	Pitch Set Point:	0.029	Yaw Set Point:	-2.957	X_WP:	0.000	Y_WP:	0.000	Y_WP:	0.500	X:	0.163	Y:	0.069	Z:	0.401	yaw:	169.442	yaw rate:	0.737	Roll:	-6.015	Pitch:	-4.045	Yaw:	241.194	Thrust:	63.994
Time:	5.946	Roll Set Point:	-0.015	Pitch Set Point:	0.029	Yaw Set Point:	-2.957	X_WP:	0.000	Y_WP:	0.000	Y_WP:	0.500	X:	0.163	Y:	0.069	Z:	0.401	yaw:	169.443	yaw rate:	-1.476	Roll:	-6.040	Pitch:	-4.036	Yaw:	241.281	Thrust:	64.552
Time:	5.977	Roll Set Point:	-0.015	Pitch Set Point:	0.029	Yaw Set Point:	-2.957	X_WP:	0.000	Y_WP:	0.000	Y_WP:	0.500	X:	0.163	Y:	0.069	Z:	0.401	yaw:	169.435	yaw rate:	-0.741	Roll:	-5.446	Pitch:	-3.655	Yaw:	239.641	Thrust:	45.183
Time:	6.008	Roll Set Point:	-0.167	Pitch Set Point:	-0.007	Yaw Set Point:	-2.957	X_WP:	0.155	Y_WP:	0.007	Y_WP:	0.500	X:	0.163	Y:	0.069	Z:	0.401	yaw:	169.449	yaw rate:	1.353	Roll:	30.000	Pitch:	16.602	Yaw:	239.833	Thrust:	45.651
Time:	6.040	Roll Set Point:	-0.167	Pitch Set Point:	-0.007	Yaw Set Point:	-2.957	X_WP:	0.155	Y_WP:	0.007	Y_WP:	0.500	X:	0.163	Y:	0.069	Z:	0.401	yaw:	169.447	yaw rate:	-0.204	Roll:	-1.060	Pitch:	-2.634	Yaw:	239.701	Thrust:	45.985
Time:	6.071	Roll Set Point:	-0.167	Pitch Set Point:	-0.007	Yaw Set Point:	-2.958	X_WP:	0.155	Y_WP:	0.007	Y_WP:	0.500	X:	0.163	Y:	0.069	Z:	0.401	yaw:	169.460	yaw rate:	1.278	Roll:	-1.068	Pitch:	-2.639	Yaw:	239.843	Thrust:	46.378
Time:	6.102	Roll Set Point:	-0.167	Pitch Set Point:	-0.007	Yaw Set Point:	-2.957	X_WP:	0.155	Y_WP:	0.007	Y_WP:	0.500	X:	0.163	Y:	0.069	Z:	0.401	yaw:	169.426	yaw rate:	-3.333	Roll:	-1.040	Pitch:	-2.642	Yaw:	239.410	Thrust:	46.661
Time:	6.133	Roll Set Point:	-0.167	Pitch Set Point:	-0.007	Yaw Set Point:	-2.957	X_WP:	0.155	Y_WP:	0.007	Y_WP:	0.500	X:	0.163	Y:	0.069	Z:	0.401	yaw:	169.450	yaw rate:	2.403	Roll:	-1.072	Pitch:	-2.646	Yaw:	239.924	Thrust:	47.172
Time:	6.165	Roll Set Point:	-0.167	Pitch Set Point:	-0.007	Yaw Set Point:	-2.957	X_WP:	0.155	Y_WP:	0.007	Y_WP:	0.500	X:	0.163	Y:	0.069	Z:	0.401	yaw:	169.444	yaw rate:	-0.651	Roll:	-1.057	Pitch:	-2.653	Yaw:	239.659	Thrust:	47.446
Time:	6.196	Roll Set Point:	-0.167	Pitch Set Point:	-0.007	Yaw Set Point:	-2.957	X_WP:	0.155	Y_WP:	0.007	Y_WP:	0.500	X:	0.163	Y:	0.069	Z:	0.401	yaw:	169.424	yaw rate:	-2.002	Roll:	-1.046	Pitch:	-2.661	Yaw:	239.518	Thrust:	47.815
Time:	6.227	Roll Set Point:	-0.167	Pitch Set Point:	-0.007	Yaw Set Point:	-2.957	X_WP:	0.155	Y_WP:	0.007	Y_WP:	0.500	X:	0.163	Y:	0.069	Z:	0.401	yaw:	169.423	yaw rate:	-0.098	Roll:	-1.059	Pitch:	-2.662	Yaw:	239.676	Thrust:	48.197
Time:	6.258	Roll Set Point:	-0.167	Pitch Set Point:	-0.007	Yaw Set Point:	-2.957	X_WP:	0.155	Y_WP:	0.007	Y_WP:	0.500	X:	0.163	Y:	0.069	Z:	0.401	yaw:	169.444	yaw rate:	-1.381	Roll:	-1.070	Pitch:	-2.670	Yaw:	239.894	Thrust:	48.631
Time:	6.290	Roll Set Point:	-0.167	Pitch Set Point:	-0.007	Yaw Set Point:	-2.957	X_WP:	0.155	Y_WP:	0.007	Y_WP:	0.500	X:	0.163	Y:	0.069	Z:	0.401	yaw:	169.451	yaw rate:	0.664	Roll:	-1.062	Pitch:	-2.673	Yaw:	239.779	Thrust:	48.896
Time:	6.321	Roll Set Point:	-0.167	Pitch Set Point:	-0.007	Yaw Set Point:	-2.958	X_WP:	0.155	Y_WP:	0.007	Y_WP:	0.500	X:	0.163	Y:	0.069	Z:	0.401	yaw:	169.453	yaw rate:	0.221	Roll:	-1.061	Pitch:	-2.678	Yaw:	239.745	Thrust:	49.351
Time:	6.352	Roll Set Point:	-0.167	Pitch Set Point:	-0.007	Yaw Set Point:	-2.958	X_WP:	0.155	Y_WP:	0.007	Y_WP:	0.500	X:	0.163	Y:	0.069	Z:	0.401	yaw:	169.453	yaw rate:	-0.045	Roll:	-1.056	Pitch:	-2.682	Yaw:	239.722	Thrust:	49.672
Time:	6.383	Roll Set Point:	-0.167	Pitch Set Point:	-0.007	Yaw Set Point:	-2.958	X_WP:	0.155	Y_WP:	0.007	Y_WP:	0.500	X:	0.163	Y:	0.069	Z:	0.401	yaw:	169.468	yaw rate:	3.256	Roll:	-1.067	Pitch:	-2.688	Yaw:	239.878	Thrust:	50.132
Time:	6.415	Roll Set Point:	-0.167	Pitch Set Point:	-0.007	Yaw Set Point:	-2.958	X_WP:	0.155	Y_WP:	0.007	Y_WP:	0.500	X:	0.163	Y:	0.069	Z:	0.401	yaw:	169.459	yaw rate:	-0.910	Roll:	-1.053	Pitch:	-2.693	Yaw:	239.659	Thrust:	50.389
Time:	6.446	Roll Set Point:	-0.167	Pitch Set Point:	-0.007	Yaw Set Point:	-2.957	X_WP:	0.155	Y_WP:	0.007	Y_WP:	0.500	X:	0.163	Y:	0.069	Z:	0.401	yaw:	169.444	yaw rate:	1.320	Roll:	-1.048	Pitch:	-2.696	Yaw:	239.585	Thrust:	50.773
Time:	6.477	Roll Set Point:	-0.167	Pitch Set Point:	-0.007	Yaw Set Point:	-2.958	X_WP:	0.155	Y_WP:	0.007	Y_WP:	0.500	X:	0.163	Y:	0.069	Z:	0.401	yaw:	169.456	yaw rate:	1.237	Roll:	-1.063	Pitch:	-2.702	Yaw:	239.834	Thrust:	51.201
Time:	6.508	Roll Set Point:	-0.167	Pitch Set Point:	-0.007	Yaw Set Point:	-2.957	X_WP:	0.155	Y_WP:	0.007	Y_WP:	0.500	X:	0.163	Y:	0.069	Z:	0.401	yaw:	169.433	yaw rate:	-0.519	Roll:	-1.044	Pitch:	-2.705	Yaw:	239.511	Thrust:	51.600
Time:	6.540	Roll Set Point:	-0.167	Pitch Set Point:	-0.007	Yaw Set Point:	-2.957	X_WP:	0.155	Y_WP:	0.007	Y_WP:	0.500	X:	0.163	Y:	0.069	Z:	0.401	yaw:	169.438	yaw rate:	0.415	Roll:	-1.058	Pitch:	-2.714	Yaw:	239.737	Thrust:	51.887
Time:	6.571	Roll Set Point:	-0.167	Pitch Set Point:	-0.007	Yaw Set Point:	-2.957	X_WP:	0.155	Y_WP:	0.007	Y_WP:	0.500	X:	0.163	Y:	0.069	Z:	0.401	yaw:	169.423	yaw rate:	-1.446	Roll:	-1.045	Pitch:	-2.716	Yaw:	239.563	Thrust:	52.314
Time:	6.602	Roll Set Point:	-0.167	Pitch Set Point:	-0.007	Yaw Set Point:	-2.958	X_WP:	0.155	Y_WP:	0.007	Y_WP:	0.500	X:	0.163	Y:	0.069	Z:	0.401	yaw:	169.462	yaw rate:	1.913	Roll:	-1.078	Pitch:	-2.722	Yaw:	240.068	Thrust:	52.721
Time:	6.633	Roll Set Point:	-0.167	Pitch Set Point:	-0.007	Yaw Set Point:	-2.957	X_WP:	0.155	Y_WP:	0.007	Y_WP:	0.500	X:	0.163	Y:	0.069	Z:	0.401	yaw:	169.443	yaw rate:	-1.951	Roll:	-1.045	Pitch:	-2.723	Yaw:	239.549	Thrust:	53.046
Time:	6.663	Roll Set Point:	-0.167	Pitch Set Point:	-0.007	Yaw Set Point:	-2.958	X_WP:	0.155	Y_WP:	0.007	Y_WP:	0.500	X:	0.163	Y:	0.069	Z:	0.401	yaw:	169.455	yaw rate:	-1.414	Roll:	-1.017	Pitch:	-2.697	Yaw:	239.710	Thrust:	51.438
Time:	6.695	Roll Set Point:	-0.167	Pitch Set Point:	-0.007	Yaw Set Point:	-2.957	X_WP:	0.155	Y_WP:	0.007	Y_WP:	0.500	X:	0.163	Y:	0.069	Z:	0.401	yaw:	169.437	yaw rate:	-1.784	Roll:	-1.044	Pitch:	-2.736	Yaw:	239.555	Thrust:	53.780
Time:	6.726	Roll Set Point:	-0.167	Pitch Set Point:	-0.007	Yaw Set Point:	-2.958	X_WP:	0.155	Y_WP:	0.007	Y_WP:	0.500	X:	0.163	Y:	0.069	Z:	0.401	yaw:	169.465	yaw rate:	2.121	Roll:	-1.069	Pitch:	-2.742	Yaw:	239.981	Thrust:	54.198
Time:	6.757	Roll Set Point:	-0.167	Pitch Set Point:	-0.007	Yaw Set Point:	-2.957	X_WP:	0.155	Y_WP:	0.007	Y_WP:	0.500	X:	0.163	Y:	0.069	Z:	0.401	yaw:	169.439	yaw rate:	-2.607	Roll:	-1.041	Pitch:	-2.743	Yaw:	239.489	Thrust:	54.450
Time:	6.788	Roll Set Point:	-0.167	Pitch Set Point:	-0.007	Yaw Set Point:	-2.958	X_WP:	0.155	Y_WP:	0.007	Y_WP:	0.500	X:	0.163	Y:	0.069	Z:	0.401	yaw:	169.463	yaw rate:	2.400	Roll:	-1.067	Pitch:	-2.753	Yaw:	239.942	Thrust:	55.004
Time:	6.820	Roll Set Point:	-0.167	Pitch Set Point:	-0.007	Yaw Set Point:	-2.957	X_WP:	0.155	Y_WP:	0.007	Y_WP:	0.500	X:	0.163	Y:	0.069	Z:	0.401	yaw:	169.447	yaw rate:	-1.600	Roll:	-1.045	Pitch:	-2.755	Yaw:	239.584	Thrust:	55.202
Time:	6.851	Roll Set Point:	-0.167	Pitch Set Point:	-0.007	Yaw Set Point:	-2.958	X_WP:	0.155	Y_WP:	0.007	Y_WP:	0.500	X:	0.163	Y:	0.069	Z:	0.401	yaw:	169.453	yaw rate:	0.531	Roll:	-1.056	Pitch:	-2.762	Yaw:	239.770	Thrust:	55.681
Time:	6.882	Roll Set Point:	-0.167	Pitch Set Point:	-0.007	Yaw Set Point:	-2.957	X_WP:	0.155	Y_WP:	0.007	Y_WP:	0.500	X:	0.163	Y:	0.069	Z:	0.401	yaw:	169.429	yaw rate:	-2.333	Roll:	-1.038	Pitch:	-2.765	Yaw:	239.498	Thrust:	56.037
Time:	6.913	Roll Set Point:	-0.167	Pitch Set Point:	-0.007	Yaw Set Point:	-2.957	X_WP:	0.155	Y_WP:	0.007	Y_WP:	0.500	X:	0.163	Y:	0.069	Z:	0.401	yaw:	169.452	yaw rate:	-1.295	Roll:	-1.065	Pitch:	-2.771	Yaw:	239.911	Thrust:	56.410
Time:	6.945	Roll Set Point:	-0.167	Pitch Set Point:	-0.007	Yaw Set Point:	-2.957	X_WP:	0.155	Y_WP:	0.007	Y_WP:	0.500	X:	0.163	Y:	0.069	Z:	0.401	yaw:	169.408	yaw rate:	-4.321	Roll:	-1.027	Pitch:	-2.772	Yaw:	239.302	Thrust:	56.683
Time:	6.976	Roll Set Point:	-0.167	Pitch Set Point:	-0.007	Yaw Set Point:	-2.957	X_WP:	0.155	Y_WP:	0.007	Y_WP:	0.500	X:	0.163	Y:	0.069	Z:	0.401	yaw:	169.452	yaw rate:	4.380	Roll:	-1.077	Pitch:	-2.781	Yaw:	240.092	Thrust:	57.159
Time:	7.007	Roll Set Point:	-0.167	Pitch Set Point:	-0.007	Yaw Set Point:	-2.957	X_WP:	0.155	Y_WP:	0.007	Y_WP:	0.500	X:	0.163	Y:	0.069	Z:	0.401	yaw:	169.444	yaw rate:	-0.789	Roll:	-1.047	Pitch:	-2.786	Yaw:	239.648	Thrust:	57.508
Time:	7.038	Roll Set Point:	-0.167	Pitch Set Point:	-0.007	Yaw Set Point:	-2.957	X_WP:	0.155	Y_WP:	0.007	Y_WP:	0.500	X:	0.163	Y:	0.069	Z:	0.401	yaw:	169.439	yaw rate:	-0.110	Roll:	-1.048	Pitch:	-2.789	Yaw:	239.662	Thrust:	57.900
Time:	7.070	Roll Set Point:	-0.167	Pitch Set Point:	-0.007	Yaw Set Point:	-2.958	X_WP:	0.155	Y_WP:	0.007	Y_WP:	0.500	X:	0.163	Y:	0.069	Z:	0.401	yaw:	169.457	yaw rate:	1.835	Roll:	-1.062	Pitch:	-2.796	Yaw:	239.886	Thrust:	58.202
Time:	7.101	Roll Set Point:	-0.167	Pitch Set Point:	-0.007	Yaw Set Point:	-2.958	X_WP:	0.155	Y_WP:	0.007	Y_WP:	0.500	X:	0.163	Y:	0.069	Z:	0.401	yaw:	169.463	yaw rate:	0.618	Roll:	-1.055	Pitch:	-2.799	Yaw:	239.793	Thrust:	58.615
Time:	7.132	Roll Set Point:	-0.167	Pitch Set Point:	-0.007	Yaw Set Point:	-2.957	X_WP:	0.155	Y_WP:	0.007	Y_WP:	0.500	X:	0.163	Y:	0.069	Z:	0.401	yaw:	169.440	yaw rate:	-2.380	Roll:	-1.037	Pitch:	-2.803	Yaw:	239.508	Thrust:	59.000
Time:	7.163	Roll Set Point:	-0.167	Pitch Set Point:	-0.007	Yaw Set Point:	-2.957	X_WP:	0.155	Y_WP:	0.007	Y_WP:	0.500	X:	0.163	Y:	0.069	Z:	0.401	yaw:	169.449	yaw rate:	0.974	Roll:	-1.055	Pitch:	-2.810	Yaw:	239.803	Thrust:	59.336
Time:	7.195	Roll Set Point:	-0.167	Pitch Set Point:	-0.007	Yaw Set Point:	-2.957	X_WP:	0.155	Y_WP:	0.007	Y_WP:	0.500	X:	0.163	Y:	0.069	Z:	0.401	yaw:	169.452	yaw rate:	0.287	Roll:	-1.051	Pitch:	-2.815	Yaw:	239.749	Thrust:	59.831
Time:	7.226	Roll Set Point:	-0.167	Pitch Set Point:	-0.007	Yaw Set Point:	-2.957	X_WP:	0.155	Y_WP:	0.007	Y_WP:	0.500	X:	0.163	Y:	0.069	Z:	0.401	yaw:	169.448	yaw rate:	-0.380	Roll:	-1.049	Pitch:	-2.820	Yaw:	239.691	Thrust:	60.057
Time:	7.257	Roll Set Point:	-0.167	Pitch Set Point:	-0.007	Yaw Set Point:	-2.957	X_WP:	0.155	Y_WP:	0.007	Y_WP:	0.500	X:	0.163	Y:	0.069	Z:	0.401	yaw:	169.426	yaw rate:	-2.228	Roll:	-1.035	Pitch:	-2.822	Yaw:	239.499	Thrust:	60.435
Time:	7.288	Roll Set Point:	-0.167	Pitch Set Point:	-0.007	Yaw Set Point:	-2.957	X_WP:	0.155	Y_WP:	0.007	Y_WP:	0.500	X:	0.163	Y:	0.069	Z:	0.401	yaw:	169.448	yaw rate:	2.181	Roll:	-1.062	Pitch:	-2.830	Yaw:	239.902	Thrust:	60.877
Time:	7.320	Roll Set Point:	-0.167	Pitch Set Point:	-0.007	Yaw Set Point:	-2.957	X_WP:	0.155	Y_WP:	0.007	Y_WP:	0.500	X:	0.163	Y:	0.069	Z:	0.401	yaw:	169.446	yaw rate:	0.979	Roll:	-1.046	Pitch:	-2.832	Yaw:	239.698	Thrust:	61.208
Time:	7.351	Roll Set Point:	-0.167	Pitch Set Point:	-0.007	Yaw Set Point:	-2.957	X_WP:	0.155	Y_WP:	0.007	Y_WP:	0.500	X:	0.163	Y:	0.069	Z:	0.401	yaw:	169.443	yaw rate:	-0.284	Roll:	-1.048	Pitch:	-2.838	Yaw:	239.689	Thrust:	61.611
Time:	7.382	Roll Set Point:	-0.167	Pitch Set Point:	-0.007	Yaw Set Point:	-2.957	X_WP:	0.155	Y_WP:	0.007	Y_WP:	0.500	X:	0.163	Y:	0.069	Z:	0.401	yaw:	169.445	yaw rate:	0.201	Roll:	-1.047	Pitch:	-2.843	Yaw:	239.731	Thrust:	61.910
Time:	7.413	Roll Set Point:	-0.167	Pitch Set Point:	-0.007	Yaw Set Point:	-2.957	X_WP:	0.155	Y_WP:	0.007	Y_WP:	0.500	X:	0.163	Y:	0.069	Z:	0.401	yaw:	169.438	yaw rate:	-2.630	Roll:	-1.044	Pitch:	-2.848	Yaw:	239.650	Thrust:	62.395
Time:	7.445	Roll Set Point:	-0.167	Pitch Set Point:	-0.007	Yaw Set Point:	-2.958	X_WP:	0.155	Y_WP:	0.007	Y_WP:	0.500	X:	0.163	Y:	0.069	Z:	0.401	yaw:	169.454	yaw rate:	1.522	Roll:	-1.058	Pitch:	-2.854	Yaw:	239.860	Thrust:	62.742
Time:	7.476	Roll Set Point:	-0.167	Pitch Set Point:	-0.007	Yaw Set Point:	-2.958	X_WP:	0.155	Y_WP:	0.007	Y_WP:	0.500	X:	0.163	Y:	0.069	Z:	0.401	yaw:	169.467	yaw rate:	1.823	Roll:	-1.053	Pitch:	-2.856	Yaw:	239.857	Thrust:	63.040
Time:	7.507	Roll Set Point:	-0.167	Pitch Set Point:	-0.007	Yaw Set Point:	-2.957	X_WP:	0.155	Y_WP:	0.007	Y_WP:	0.500	X:	0.163	Y:	0.069	Z:	0.401	yaw:	169.439	yaw rate:	-2.797	Roll:	-1.030	Pitch:	-2.863	Yaw:	239.473	Thrust:	63.478
Time:	7.538	Roll Set Point:	-0.167	Pitch Set Point:	-0.007	Yaw Set Point:	-2.958	X_WP:	0.155	Y_WP:	0.007	Y_WP:	0.500	X:	0.163	Y:	0.069	Z:	0.401	yaw:	169.466	yaw rate:	2.689	Roll:	-1.064	Pitch:	-2.865	Yaw:	239.970	Thrust:	63.788
Time:	7.570	Roll Set Point:	-0.167	Pitch Set Point:	-0.007	Yaw Set Point:	-2.957	X_WP:	0.155	Y_WP:	0.007	Y_WP:	0.500	X:	0.163	Y:	0.069	Z:	0.401	yaw:	169.428	yaw rate:	-3.779	Roll:	-1.025	Pitch:	-2.874	Yaw:	239.375	Thrust:	64.114
Time:	7.601	Roll Set Point:	-0.167	Pitch Set Point:	-0.007	Yaw Set Point:	-2.957	X_WP:	0.155	Y_WP:	0.007	Y_WP:	0.500	X:	0.163	Y:	0.069	Z:	0.401	yaw:	169.446	yaw rate:	-0.019	Roll:	-1.054	Pitch:	-2.876	Yaw:	239.865	Thrust:	64.733
Time:	7.632	Roll Set Point:	-0.167	Pitch Set Point:	-0.007	Yaw Set Point:	-2.957	X_WP:	0.155	Y_WP:	0.007	Y_WP:	0.500	X:	0.163	Y:	0.069	Z:	0.401	yaw:	169.439	yaw rate:	-0.751	Roll:	-1.043	Pitch:	-2.882	Yaw:	239.643	Thrust:	64.806
Time:	7.663	Roll Set Point:	-0.167	Pitch Set Point:	-0.007	Yaw Set Point:	-2.957	X_WP:	0.155	Y_WP:	0.007	Y_WP:	0.500	X:	0.163	Y:	0.069	Z:	0.401	yaw:	169.447	yaw rate:	0.884	Roll:	-1.032	Pitch:	-2.873	Yaw:	239.747	Thrust:	64.467
Time:	7.694	Roll Set Point:	-0.167	Pitch Set Point:	-0.007	Yaw Set Point:	-2.957	X_WP:	0.155	Y_WP:	0.007	Y_WP:	0.500	X:	0.163	Y:	0.069	Z:	0.401	yaw:	169.443	yaw rate:	3.082	Roll:	-1.043	Pitch:	-2.893	Yaw:	239.676	Thrust:	65.661
Time:	7.726	Roll Set Point:	-0.167	Pitch Set Point:	-0.007	Yaw Set Point:	-2.957	X_WP:	0.155	Y_WP:	0.007	Y_WP:	0.500	X:	0.163	Y:	0.069	Z:	0.401	yaw:	169.444	yaw rate:	0.067	Roll:	-1.045	Pitch:	-2.897	Yaw:	239.720	Thrust:	66.105
Time:	7.757	Roll Set Point:	-0.167	Pitch Set Point:	-0.007	Yaw Set Point:	-2.957	X_WP:	0.155	Y_WP:	0.007	Y_WP:	0.500	X:	0.163	Y:	0.069	Z:	0.401	yaw:	169.440	yaw rate:	-0.425	Roll:	-1.041	Pitch:	-2.901	Yaw:	239.672	Thrust:	66.340
Time:	7.788	Roll Set Point:	-0.167	Pitch Set Point:	-0.007	Yaw Set Point:	-2.957	X_WP:	0.155	Y_WP:	0.007	Y_WP:	0.500	X:	0.163	Y:	0.069	Z:	0.401	yaw:	169.441	yaw rate:	-0.793	Roll:	-1.044	Pitch:	-2.907	Yaw:	239.718	Thrust:	66.853
Time:	7.819	Roll Set Point:	-0.167	Pitch Set Point:	-0.007	Yaw Set Point:	-2.957	X_WP:	0.155	Y_WP:	0.007	Y_WP:	0.500	X:	0.163	Y:	0.069	Z:	0.401	yaw:	169.428	yaw rate:	0.056	Roll:	-1.037	Pitch:	-2.911	Yaw:	239.588	Thrust:	67.127
Time:	7.851	Roll Set Point:	-0.167	Pitch Set Point:	-0.007	Yaw Set Point:	-2.958	X_WP:	0.155	Y_WP:	0.007	Y_WP:	0.500	X:	0.163	Y:	0.069	Z:	0.401	yaw:	169.455	yaw rate:	2.722	Roll:	-1.058	Pitch:	-2.915	Yaw:	239.958	Thrust:	67.618
Time:	7.882	Roll Set Point:	-0.167	Pitch Set Point:	-0.007	Yaw Set Point:	-2.957	X_WP:	0.155	Y_WP:	0.007	Y_WP:	0.500	X:	0.163	Y:	0.069	Z:	0.401	yaw:	169.441	yaw rate:	-1.077	Roll:	-1.035	Pitch:	-2.920	Yaw:	239.587	Thrust:	67.817
Time:	7.913	Roll Set Point:	-0.167	Pitch Set Point:	-0.007	Yaw Set Point:	-2.958	X_WP:	0.155	Y_WP:	0.007	Y_WP:	0.500	X:	0.163	Y:	0.069	Z:	0.401	yaw:	169.456	yaw rate:	0.621	Roll:	-1.052	Pitch:	-2.928	Yaw:	239.861	Thrust:	68.351
Time:	7.944	Roll Set Point:	-0.167	Pitch Set Point:	-0.007	Yaw Set Point:	-2.958	X_WP:	0.155	Y_WP:	0.007	Y_WP:	0.500	X:	0.163	Y:	0.069	Z:	0.401	yaw:	169.461	yaw rate:	0.471	Roll:	-1.045	Pitch:	-2.931	Yaw:	239.777	Thrust:	68.642
Time:	7.976	Roll Set Point:	-0.167	Pitch Set Point:	-0.007	Yaw Set Point:	-2.957	X_WP:	0.155	Y_WP:	0.007	Y_WP:	0.500	X:	0.163	Y:	0.069	Z:	0.401	yaw:	169.447	yaw rate:	-1.418	Roll:	-1.035	Pitch:	-2.933	Yaw:	239.599	Thrust:	69.018
Time:	8.007	Roll Set Point:	-0.167	Pitch Set Point:	-0.007	Yaw Set Point:	-2.957	X_WP:	0.155	Y_WP:	0.007	Y_WP:	0.500	X:	0.163	Y:	0.069	Z:	0.401	yaw:	169.451	yaw rate:	0.420	Roll:	-1.044	Pitch:	-2.940	Yaw:	239.759	Thrust:	69.362
Time:	8.038	Roll Set Point:	-0.167	Pitch Set Point:	-0.007	Yaw Set Point:	-2.957	X_WP:	0.155	Y_WP:	0.007	Y_WP:	0.500	X:	0.163	Y:	0.069	Z:	0.401	yaw:	169.431	yaw rate:	-1.980	Roll:	-1.029	Pitch:	-2.943	Yaw:	239.530	Thrust:	69.862
Time:	8.069	Roll Set Point:	-0.167	Pitch Set Point:	-0.007	Yaw Set Point:	-2.958	X_WP:	0.155	Y_WP:	0.007	Y_WP:	0.500	X:	0.163	Y:	0.069	Z:	0.401	yaw:	169.469	yaw rate:	2.257	Roll:	-1.062	Pitch:	-2.953	Yaw:	240.065	Thrust:	70.165
Time:	8.101	Roll Set Point:	-0.167	Pitch Set Point:	-0.007	Yaw Set Point:	-2.957	X_WP:	0.155	Y_WP:	0.007	Y_WP:	0.500	X:	0.163	Y:	0.069	Z:	0.401	yaw:	169.440	yaw rate:	2.099	Roll:	-1.026	Pitch:	-2.958	Yaw:	239.468	Thrust:	70.396
Time:	8.132	Roll Set Point:	-0.167	Pitch Set Point:	-0.007	Yaw Set Point:	-2.957	X_WP:	0.155	Y_WP:	0.007	Y_WP:	0.500	X:	0.163	Y:	0.069	Z:	0.401	yaw:	169.424	yaw rate:	-5.352	Roll:	-1.030	Pitch:	-2.960	Yaw:	239.551	Thrust:	70.950
Time:	8.163	Roll Set Point:	-0.167	Pitch Set Point:	-0.007	Yaw Set Point:	-2.958	X_WP:	0.155	Y_WP:	0.007	Y_WP:	0.500	X:	0.163	Y:	0.069	Z:	0.401	yaw:	169.456	yaw rate:	3.163	Roll:	-1.060	Pitch:	-2.967	Yaw:	239.996	Thrust:	71.270
Time:	8.194	Roll Set Point:	-0.167	Pitch Set Point:	-0.007	Yaw Set Point:	-2.958	X_WP:	0.155	Y_WP:	0.007	Y_WP:	0.500	X:	0.163	Y:	0.069	Z:	0.401	yaw:	169.461	yaw rate:	0.553	Roll:	-1.043	Pitch:	-2.967	Yaw:	239.784	Thrust:	71.640
Time:	8.226	Roll Set Point:	-0.167	Pitch Set Point:	-0.007	Yaw Set Point:	-2.957	X_WP:	0.155	Y_WP:	0.007	Y_WP:	0.500	X:	0.163	Y:	0.069	Z:	0.401	yaw:	169.435	yaw rate:	-2.073	Roll:	-1.026	Pitch:	-2.975	Yaw:	239.485	Thrust:	71.895
Time:	8.257	Roll Set Point:	-0.167	Pitch Set Point:	-0.007	Yaw Set Point:	-2.958	X_WP:	0.155	Y_WP:	0.007	Y_WP:	0.500	X:	0.163	Y:	0.069	Z:	0.401	yaw:	169.461	yaw rate:	2.577	Roll:	-1.053	Pitch:	-2.977	Yaw:	239.954	Thrust:	72.522
Time:	8.288	Roll Set Point:	-0.167	Pitch Set Point:	-0.007	Yaw Set Point:	-2.957	X_WP:	0.155	Y_WP:	0.007	Y_WP:	0.500	X:	0.163	Y:	0.069	Z:	0.401	yaw:	169.420	yaw rate:	-2.206	Roll:	-1.015	Pitch:	-2.979	Yaw:	239.335	Thrust:	72.619
Time:	8.319	Roll Set Point:	-0.167	Pitch Set Point:	-0.007	Yaw Set Point:	-2.958	X_WP:	0.155	Y_WP:	0.007	Y_WP:	0.500	X:	0.163	Y:	0.069	Z:	0.401	yaw:	169.456	yaw rate:	1.368	Roll:	-1.060	Pitch:	-2.978	Yaw:	240.030	Thrust:	73.213
Time:	8.351	Roll Set Point:	-0.167	Pitch Set Point:	-0.007	Yaw Set Point:	-2.958	X_WP:	0.155	Y_WP:	0.007	Y_WP:	0.500	X:	0.163	Y:	0.069	Z:	0.401	yaw:	169.457	yaw rate:	0.094	Roll:	-1.039	Pitch:	-2.979	Yaw:	239.739	Thrust:	73.425
Time:	8.382	Roll Set Point:	-0.167	Pitch Set Point:	-0.007	Yaw Set Point:	-2.957	X_WP:	0.155	Y_WP:	0.007	Y_WP:	0.500	X:	0.163	Y:	0.069	Z:	0.401	yaw:	169.435	yaw rate:	-2.157	Roll:	-1.026	Pitch:	-2.976	Yaw:	239.521	Thrust:	73.946
Time:	8.413	Roll Set Point:	-0.167	Pitch Set Point:	-0.007	Yaw Set Point:	-2.957	X_WP:	0.155	Y_WP:	0.007	Y_WP:	0.500	X:	0.163	Y:	0.069	Z:	0.401	yaw:	169.449	yaw rate:	3.609	Roll:	-1.047	Pitch:	-2.980	Yaw:	239.835	Thrust:	74.176
Time:	8.444	Roll Set Point:	-0.167	Pitch Set Point:	-0.007	Yaw Set Point:	-2.957	X_WP:	0.155	Y_WP:	0.007	Y_WP:	0.500	X:	0.163	Y:	0.069	Z:	0.401	yaw:	169.449	yaw rate:	2.399	Roll:	-1.037	Pitch:	-2.976	Yaw:	239.724	Thrust:	74.639
Time:	8.476	Roll Set Point:	-0.167	Pitch Set Point:	-0.007	Yaw Set Point:	-2.957	X_WP:	0.155	Y_WP:	0.007	Y_WP:	0.500	X:	0.163	Y:	0.069	Z:	0.401	yaw:	169.441	yaw rate:	-0.828	Roll:	-1.033	Pitch:	-2.977	Yaw:	239.640	Thrust:	74.896
Time:	8.507	Roll Set Point:	-0.167	Pitch Set Point:	-0.007	Yaw Set Point:	-2.957	X_WP:	0.155	Y_WP:	0.007	Y_WP:	0.500	X:	0.163	Y:	0.069	Z:	0.401	yaw:	169.445	yaw rate:	0.347	Roll:	-1.039	Pitch:	-2.978	Yaw:	239.744	Thrust:	75.382
Time:	8.538	Roll Set Point:	-0.167	Pitch Set Point:	-0.007	Yaw Set Point:	-2.957	X_WP:	0.155	Y_WP:	0.007	Y_WP:	0.500	X:	0.163	Y:	0.069	Z:	0.401	yaw:	169.446	yaw rate:	0.125	Roll:	-1.038	Pitch:	-2.977	Yaw:	239.727	Thrust:	75.700
Time:	8.569	Roll Set Point:	-0.167	Pitch Set Point:	-0.007	Yaw Set Point:	-2.957	X_WP:	0.155	Y_WP:	0.007	Y_WP:	0.500	X:	0.163	Y:	0.069	Z:	0.401	yaw:	169.447	yaw rate:	1.439	Roll:	-1.037	Pitch:	-2.978	Yaw:	239.730	Thrust:	76.147
Time:	8.616	Roll Set Point:	-0.167	Pitch Set Point:	-0.007	Yaw Set Point:	-2.957	X_WP:	0.155	Y_WP:	0.007	Y_WP:	0.500	X:	0.163	Y:	0.069	Z:	0.401	yaw:	169.449	yaw rate:	0.187	Roll:	-1.610	Pitch:	-3.564	Yaw:	241.294	Thrust:	100.000
Time:	8.646	Roll Set Point:	-0.167	Pitch Set Point:	-0.007	Yaw Set Point:	-2.957	X_WP:	0.155	Y_WP:	0.007	Y_WP:	0.500	X:	0.163	Y:	0.069	Z:	0.401	yaw:	169.448	yaw rate:	-1.477	Roll:	-0.991	Pitch:	-2.931	Yaw:	239.587	Thrust:	74.053
Time:	8.680	Roll Set Point:	-0.167	Pitch Set Point:	-0.007	Yaw Set Point:	-2.957	X_WP:	0.155	Y_WP:	0.007	Y_WP:	0.500	X:	0.163	Y:	0.069	Z:	0.401	yaw:	169.434	yaw rate:	-1.358	Roll:	-1.104	Pitch:	-3.055	Yaw:	239.801	Thrust:	81.925
Time:	8.711	Roll Set Point:	-0.167	Pitch Set Point:	-0.007	Yaw Set Point:	-2.957	X_WP:	0.155	Y_WP:	0.007	Y_WP:	0.500	X:	0.163	Y:	0.069	Z:	0.401	yaw:	169.441	yaw rate:	0.065	Roll:	-1.037	Pitch:	-2.976	Yaw:	239.762	Thrust:	77.513
Time:	8.742	Roll Set Point:	-0.167	Pitch Set Point:	-0.007	Yaw Set Point:	-2.957	X_WP:	0.155	Y_WP:	0.007	Y_WP:	0.500	X:	0.163	Y:	0.069	Z:	0.401	yaw:	169.441	yaw rate:	0.020	Roll:	-1.035	Pitch:	-2.977	Yaw:	239.711	Thrust:	77.924
Time:	8.773	Roll Set Point:	-0.167	Pitch Set Point:	-0.007	Yaw Set Point:	-2.957	X_WP:	0.155	Y_WP:	0.007	Y_WP:	0.500	X:	0.163	Y:	0.069	Z:	0.401	yaw:	169.438	yaw rate:	-0.272	Roll:	-1.032	Pitch:	-2.976	Yaw:	239.683	Thrust:	78.420
Time:	8.805	Roll Set Point:	-0.167	Pitch Set Point:	-0.007	Yaw Set Point:	-2.957	X_WP:	0.155	Y_WP:	0.007	Y_WP:	0.500	X:	0.163	Y:	0.069	Z:	0.401	yaw:	169.421	yaw rate:	-1.702	Roll:	-1.026	Pitch:	-2.976	Yaw:	239.540	Thrust:	78.550
Time:	8.836	Roll Set Point:	-0.167	Pitch Set Point:	-0.007	Yaw Set Point:	-2.957	X_WP:	0.155	Y_WP:	0.007	Y_WP:	0.500	X:	0.163	Y:	0.069	Z:	0.401	yaw:	169.452	yaw rate:	3.042	Roll:	-1.051	Pitch:	-2.980	Yaw:	239.980	Thrust:	79.186
Time:	8.867	Roll Set Point:	-0.167	Pitch Set Point:	-0.007	Yaw Set Point:	-2.957	X_WP:	0.155	Y_WP:	0.007	Y_WP:	0.500	X:	0.163	Y:	0.069	Z:	0.401	yaw:	169.441	yaw rate:	0.562	Roll:	-1.026	Pitch:	-2.977	Yaw:	239.621	Thrust:	79.411
Time:	8.898	Roll Set Point:	-0.167	Pitch Set Point:	-0.007	Yaw Set Point:	-2.957	X_WP:	0.155	Y_WP:	0.007	Y_WP:	0.500	X:	0.163	Y:	0.069	Z:	0.401	yaw:	169.430	yaw rate:	-1.148	Roll:	-1.028	Pitch:	-2.976	Yaw:	239.598	Thrust:	79.770
Time:	8.930	Roll Set Point:	-0.167	Pitch Set Point:	-0.007	Yaw Set Point:	-2.957	X_WP:	0.155	Y_WP:	0.007	Y_WP:	0.500	X:	0.163	Y:	0.069	Z:	0.401	yaw:	169.444	yaw rate:	0.451	Roll:	-1.041	Pitch:	-2.979	Yaw:	239.832	Thrust:	80.199
Time:	8.961	Roll Set Point:	-0.167	Pitch Set Point:	-0.007	Yaw Set Point:	-2.957	X_WP:	0.155	Y_WP:	0.007	Y_WP:	0.500	X:	0.163	Y:	0.069	Z:	0.401	yaw:	169.451	yaw rate:	0.690	Roll:	-1.038	Pitch:	-2.977	Yaw:	239.781	Thrust:	80.574
Time:	8.992	Roll Set Point:	-0.167	Pitch Set Point:	-0.007	Yaw Set Point:	-2.957	X_WP:	0.155	Y_WP:	0.007	Y_WP:	0.500	X:	0.163	Y:	0.069	Z:	0.401	yaw:	169.448	yaw rate:	0.274	Roll:	-1.030	Pitch:	-2.978	Yaw:	239.693	Thrust:	80.928
Time:	9.023	Roll Set Point:	-0.167	Pitch Set Point:	-0.007	Yaw Set Point:	-2.957	X_WP:	0.155	Y_WP:	0.007	Y_WP:	0.500	X:	0.163	Y:	0.069	Z:	0.401	yaw:	169.435	yaw rate:	-1.267	Roll:	-1.026	Pitch:	-2.976	Yaw:	239.595	Thrust:	81.273
Time:	9.055	Roll Set Point:	-0.167	Pitch Set Point:	-0.007	Yaw Set Point:	-2.958	X_WP:	0.155	Y_WP:	0.007	Y_WP:	0.500	X:	0.163	Y:	0.069	Z:	0.401	yaw:	169.462	yaw rate:	2.708	Roll:	-1.046	Pitch:	-2.978	Yaw:	239.966	Thrust:	81.722
Time:	9.086	Roll Set Point:	-0.167	Pitch Set Point:	-0.007	Yaw Set Point:	-2.957	X_WP:	0.155	Y_WP:	0.007	Y_WP:	0.500	X:	0.163	Y:	0.069	Z:	0.401	yaw:	169.433	yaw rate:	-2.864	Roll:	-1.016	Pitch:	-2.978	Yaw:	239.459	Thrust:	81.977
Time:	9.117	Roll Set Point:	-0.167	Pitch Set Point:	-0.007	Yaw Set Point:	-2.958	X_WP:	0.155	Y_WP:	0.007	Y_WP:	0.500	X:	0.163	Y:	0.069	Z:	0.401	yaw:	169.457	yaw rate:	2.315	Roll:	-1.045	Pitch:	-2.979	Yaw:	239.925	Thrust:	82.435
Time:	9.148	Roll Set Point:	-0.167	Pitch Set Point:	-0.007	Yaw Set Point:	-2.957	X_WP:	0.155	Y_WP:	0.007	Y_WP:	0.500	X:	0.163	Y:	0.069	Z:	0.401	yaw:	169.442	yaw rate:	-1.429	Roll:	-1.024	Pitch:	-2.979	Yaw:	239.595	Thrust:	82.866
Time:	9.180	Roll Set Point:	-0.167	Pitch Set Point:	-0.007	Yaw Set Point:	-2.958	X_WP:	0.155	Y_WP:	0.007	Y_WP:	0.500	X:	0.163	Y:	0.069	Z:	0.401	yaw:	169.458	yaw rate:	1.613	Roll:	-1.029	Pitch:	-2.976	Yaw:	239.866	Thrust:	83.110
Time:	9.211	Roll Set Point:	-0.167	Pitch Set Point:	-0.007	Yaw Set Point:	-2.958	X_WP:	0.155	Y_WP:	0.007	Y_WP:	0.500	X:	0.163	Y:	0.069	Z:	0.401	yaw:	169.457	yaw rate:	-0.189	Roll:	-1.030	Pitch:	-2.976	Yaw:	239.717	Thrust:	83.558
Time:	9.242	Roll Set Point:	-0.167	Pitch Set Point:	-0.007	Yaw Set Point:	-2.957	X_WP:	0.155	Y_WP:	0.007	Y_WP:	0.500	X:	0.163	Y:	0.069	Z:	0.401	yaw:	169.415	yaw rate:	-4.199	Roll:	-1.006	Pitch:	-2.976	Yaw:	239.322	Thrust:	83.877
Time:	9.273	Roll Set Point:	-0.167	Pitch Set Point:	-0.007	Yaw Set Point:	-2.957	X_WP:	0.155	Y_WP:	0.007	Y_WP:	0.500	X:	0.163	Y:	0.069	Z:	0.401	yaw:	169.451	yaw rate:	3.684	Roll:	-1.051	Pitch:	-2.979	Yaw:	240.030	Thrust:	84.242
Time:	9.305	Roll Set Point:	-0.167	Pitch Set Point:	-0.007	Yaw Set Point:	-2.957	X_WP:	0.155	Y_WP:	0.007	Y_WP:	0.500	X:	0.163	Y:	0.069	Z:	0.401	yaw:	169.443	yaw rate:	0.760	Roll:	-1.025	Pitch:	-2.977	Yaw:	239.644	Thrust:	84.663
Time:	9.336	Roll Set Point:	-0.167	Pitch Set Point:	-0.007	Yaw Set Point:	-2.958	X_WP:	0.155	Y_WP:	0.007	Y_WP:	0.500	X:	0.163	Y:	0.069	Z:	0.401	yaw:	169.469	yaw rate:	2.581	Roll:	-1.045	Pitch:	-2.979	Yaw:	239.965	Thrust:	85.015
Time:	9.367	Roll Set Point:	-0.167	Pitch Set Point:	-0.007	Yaw Set Point:	-2.957	X_WP:	0.155	Y_WP:	0.007	Y_WP:	0.500	X:	0.163	Y:	0.069	Z:	0.401	yaw:	169.440	yaw rate:	-2.943	Roll:	-1.012	Pitch:	-2.977	Yaw:	239.461	Thrust:	85.335
Time:	9.398	Roll Set Point:	-0.167	Pitch Set Point:	-0.007	Yaw Set Point:	-2.957	X_WP:	0.155	Y_WP:	0.007	Y_WP:	0.500	X:	0.163	Y:	0.069	Z:	0.401	yaw:	169.443	yaw rate:	0.301	Roll:	-1.029	Pitch:	-2.978	Yaw:	239.737	Thrust:	85.814
Time:	9.430	Roll Set Point:	-0.167	Pitch Set Point:	-0.007	Yaw Set Point:	-2.957	X_WP:	0.155	Y_WP:	0.007	Y_WP:	0.500	X:	0.163	Y:	0.069	Z:	0.401	yaw:	169.451	yaw rate:	0.025	Roll:	-1.033	Pitch:	-2.977	Yaw:	239.794	Thrust:	86.059
Time:	9.461	Roll Set Point:	-0.167	Pitch Set Point:	-0.007	Yaw Set Point:	-2.957	X_WP:	0.155	Y_WP:	0.007	Y_WP:	0.500	X:	0.163	Y:	0.069	Z:	0.401	yaw:	169.438	yaw rate:	-1.667	Roll:	-1.020	Pitch:	-2.978	Yaw:	239.594	Thrust:	86.492
Time:	9.492	Roll Set Point:	-0.167	Pitch Set Point:	-0.007	Yaw Set Point:	-2.957	X_WP:	0.155	Y_WP:	0.007	Y_WP:	0.500	X:	0.163	Y:	0.069	Z:	0.401	yaw:	169.429	yaw rate:	-0.907	Roll:	-1.022	Pitch:	-2.976	Yaw:	239.617	Thrust:	86.889
Time:	9.523	Roll Set Point:	-0.167	Pitch Set Point:	-0.007	Yaw Set Point:	-2.957	X_WP:	0.155	Y_WP:	0.007	Y_WP:	0.500	X:	0.163	Y:	0.069	Z:	0.401	yaw:	169.443	yaw rate:	1.463	Roll:	-1.036	Pitch:	-2.978	Yaw:	239.835	Thrust:	87.303
Time:	9.566	Roll Set Point:	-0.167	Pitch Set Point:	-0.007	Yaw Set Point:	-2.957	X_WP:	0.155	Y_WP:	0.007	Y_WP:	0.500	X:	0.163	Y:	0.069	Z:	0.401	yaw:	169.432	yaw rate:	0.013	Roll:	-1.384	Pitch:	-3.389	Yaw:	240.723	Thrust:	100.000
Time:	9.598	Roll Set Point:	-0.167	Pitch Set Point:	-0.007	Yaw Set Point:	-2.958	X_WP:	0.155	Y_WP:	0.007	Y_WP:	0.500	X:	0.163	Y:	0.069	Z:	0.401	yaw:	169.460	yaw rate:	0.572	Roll:	-1.132	Pitch:	-3.030	Yaw:	240.104	Thrust:	91.977
Time:	9.640	Roll Set Point:	-0.167	Pitch Set Point:	-0.007	Yaw Set Point:	-2.957	X_WP:	0.155	Y_WP:	0.007	Y_WP:	0.500	X:	0.163	Y:	0.069	Z:	0.401	yaw:	169.434	yaw rate:	-2.575	Roll:	-1.381	Pitch:	-3.357	Yaw:	240.546	Thrust:	100.000
Time:	9.663	Roll Set Point:	-0.167	Pitch Set Point:	-0.007	Yaw Set Point:	-2.957	X_WP:	0.155	Y_WP:	0.007	Y_WP:	0.500	X:	0.163	Y:	0.069	Z:	0.401	yaw:	169.443	yaw rate:	0.883	Roll:	-0.757	Pitch:	-2.695	Yaw:	239.053	Thrust:	68.563
Time:	9.695	Roll Set Point:	-0.167	Pitch Set Point:	-0.007	Yaw Set Point:	-2.957	X_WP:	0.155	Y_WP:	0.007	Y_WP:	0.500	X:	0.163	Y:	0.069	Z:	0.401	yaw:	169.408	yaw rate:	-5.140	Roll:	-1.005	Pitch:	-2.976	Yaw:	239.375	Thrust:	89.022
Time:	9.727	Roll Set Point:	-0.167	Pitch Set Point:	-0.007	Yaw Set Point:	-2.957	X_WP:	0.155	Y_WP:	0.007	Y_WP:	0.500	X:	0.163	Y:	0.069	Z:	0.401	yaw:	169.450	yaw rate:	4.140	Roll:	-1.096	Pitch:	-3.029	Yaw:	240.190	Thrust:	93.254
Time:	9.758	Roll Set Point:	-0.167	Pitch Set Point:	-0.007	Yaw Set Point:	-2.957	X_WP:	0.155	Y_WP:	0.007	Y_WP:	0.500	X:	0.163	Y:	0.069	Z:	0.401	yaw:	169.432	yaw rate:	-1.816	Roll:	-1.014	Pitch:	-2.973	Yaw:	239.544	Thrust:	89.836
Time:	9.790	Roll Set Point:	-0.167	Pitch Set Point:	-0.007	Yaw Set Point:	-2.958	X_WP:	0.155	Y_WP:	0.007	Y_WP:	0.500	X:	0.163	Y:	0.069	Z:	0.401	yaw:	169.461	yaw rate:	2.949	Roll:	-1.044	Pitch:	-2.979	Yaw:	239.985	Thrust:	90.199
Time:	9.821	Roll Set Point:	-0.167	Pitch Set Point:	-0.007	Yaw Set Point:	-2.957	X_WP:	0.155	Y_WP:	0.007	Y_WP:	0.500	X:	0.163	Y:	0.069	Z:	0.401	yaw:	169.428	yaw rate:	-3.271	Roll:	-1.004	Pitch:	-2.981	Yaw:	239.418	Thrust:	90.577
Time:	9.852	Roll Set Point:	-0.167	Pitch Set Point:	-0.007	Yaw Set Point:	-2.957	X_WP:	0.155	Y_WP:	0.007	Y_WP:	0.500	X:	0.163	Y:	0.069	Z:	0.401	yaw:	169.450	yaw rate:	-0.144	Roll:	-1.036	Pitch:	-2.980	Yaw:	239.904	Thrust:	90.968
Time:	9.884	Roll Set Point:	-0.167	Pitch Set Point:	-0.007	Yaw Set Point:	-2.957	X_WP:	0.155	Y_WP:	0.007	Y_WP:	0.500	X:	0.163	Y:	0.069	Z:	0.401	yaw:	169.417	yaw rate:	-3.265	Roll:	-1.006	Pitch:	-2.975	Yaw:	239.407	Thrust:	91.344
Time:	9.915	Roll Set Point:	-0.167	Pitch Set Point:	-0.007	Yaw Set Point:	-2.958	X_WP:	0.155	Y_WP:	0.007	Y_WP:	0.500	X:	0.163	Y:	0.069	Z:	0.401	yaw:	169.453	yaw rate:	3.556	Roll:	-1.044	Pitch:	-2.980	Yaw:	240.024	Thrust:	91.789
Time:	9.946	Roll Set Point:	-0.167	Pitch Set Point:	-0.007	Yaw Set Point:	-2.957	X_WP:	0.155	Y_WP:	0.007	Y_WP:	0.500	X:	0.163	Y:	0.069	Z:	0.401	yaw:	169.438	yaw rate:	-1.465	Roll:	-1.014	Pitch:	-2.979	Yaw:	239.583	Thrust:	92.052
Time:	9.977	Roll Set Point:	-0.167	Pitch Set Point:	-0.007	Yaw Set Point:	-2.957	X_WP:	0.155	Y_WP:	0.007	Y_WP:	0.500	X:	0.163	Y:	0.069	Z:	0.401	yaw:	169.450	yaw rate:	1.124	Roll:	-1.029	Pitch:	-2.977	Yaw:	239.812	Thrust:	92.382
Time:	10.008	Roll Set Point:	-0.167	Pitch Set Point:	-0.007	Yaw Set Point:	-2.957	X_WP:	0.155	Y_WP:	0.007	Y_WP:	0.500	X:	0.163	Y:	0.069	Z:	0.401	yaw:	169.436	yaw rate:	-1.338	Roll:	-1.014	Pitch:	-2.977	Yaw:	239.591	Thrust:	92.764
Time:	10.040	Roll Set Point:	-0.167	Pitch Set Point:	-0.007	Yaw Set Point:	-2.957	X_WP:	0.155	Y_WP:	0.007	Y_WP:	0.500	X:	0.163	Y:	0.069	Z:	0.401	yaw:	169.437	yaw rate:	0.105	Roll:	-1.022	Pitch:	-2.977	Yaw:	239.713	Thrust:	93.240
Time:	10.071	Roll Set Point:	-0.167	Pitch Set Point:	-0.007	Yaw Set Point:	-2.957	X_WP:	0.155	Y_WP:	0.007	Y_WP:	0.500	X:	0.163	Y:	0.069	Z:	0.401	yaw:	169.442	yaw rate:	0.467	Roll:	-1.027	Pitch:	-2.980	Yaw:	239.755	Thrust:	93.733
Time:	10.118	Roll Set Point:	-0.167	Pitch Set Point:	-0.007	Yaw Set Point:	-2.957	X_WP:	0.155	Y_WP:	0.007	Y_WP:	0.500	X:	0.163	Y:	0.069	Z:	0.401	yaw:	169.424	yaw rate:	-1.761	Roll:	-1.580	Pitch:	-3.562	Yaw:	241.148	Thrust:	100.000
Time:	10.149	Roll Set Point:	-0.167	Pitch Set Point:	-0.007	Yaw Set Point:	-2.958	X_WP:	0.155	Y_WP:	0.007	Y_WP:	0.500	X:	0.163	Y:	0.069	Z:	0.401	yaw:	169.459	yaw rate:	1.975	Roll:	-1.040	Pitch:	-2.973	Yaw:	240.019	Thrust:	94.258
Time:	10.180	Roll Set Point:	-0.167	Pitch Set Point:	-0.007	Yaw Set Point:	-2.957	X_WP:	0.155	Y_WP:	0.007	Y_WP:	0.500	X:	0.163	Y:	0.069	Z:	0.401	yaw:	169.447	yaw rate:	-1.114	Roll:	-1.016	Pitch:	-2.979	Yaw:	239.628	Thrust:	94.722
Time:	10.212	Roll Set Point:	-0.167	Pitch Set Point:	-0.007	Yaw Set Point:	-2.957	X_WP:	0.155	Y_WP:	0.007	Y_WP:	0.500	X:	0.163	Y:	0.069	Z:	0.401	yaw:	169.447	yaw rate:	-0.038	Roll:	-1.018	Pitch:	-2.981	Yaw:	239.712	Thrust:	94.921
Time:	10.243	Roll Set Point:	-0.167	Pitch Set Point:	-0.007	Yaw Set Point:	-2.957	X_WP:	0.155	Y_WP:	0.007	Y_WP:	0.500	X:	0.163	Y:	0.069	Z:	0.401	yaw:	169.436	yaw rate:	-1.069	Roll:	-1.018	Pitch:	-2.976	Yaw:	239.617	Thrust:	95.518
Time:	10.274	Roll Set Point:	-0.167	Pitch Set Point:	-0.007	Yaw Set Point:	-2.957	X_WP:	0.155	Y_WP:	0.007	Y_WP:	0.500	X:	0.163	Y:	0.069	Z:	0.401	yaw:	169.433	yaw rate:	-0.787	Roll:	-1.017	Pitch:	-2.977	Yaw:	239.670	Thrust:	95.692
Time:	10.305	Roll Set Point:	-0.167	Pitch Set Point:	-0.007	Yaw Set Point:	-2.957	X_WP:	0.155	Y_WP:	0.007	Y_WP:	0.500	X:	0.163	Y:	0.069	Z:	0.401	yaw:	169.436	yaw rate:	0.376	Roll:	-1.022	Pitch:	-2.980	Yaw:	239.723	Thrust:	96.330
Time:	10.337	Roll Set Point:	-0.167	Pitch Set Point:	-0.007	Yaw Set Point:	-2.957	X_WP:	0.155	Y_WP:	0.007	Y_WP:	0.500	X:	0.163	Y:	0.069	Z:	0.401	yaw:	169.416	yaw rate:	-1.687	Roll:	-1.006	Pitch:	-2.975	Yaw:	239.510	Thrust:	96.402
Time:	10.368	Roll Set Point:	-0.167	Pitch Set Point:	-0.007	Yaw Set Point:	-2.958	X_WP:	0.155	Y_WP:	0.007	Y_WP:	0.500	X:	0.163	Y:	0.069	Z:	0.401	yaw:	169.455	yaw rate:	3.920	Roll:	-1.042	Pitch:	-2.976	Yaw:	240.058	Thrust:	96.949
Time:	10.399	Roll Set Point:	-0.167	Pitch Set Point:	-0.007	Yaw Set Point:	-2.957	X_WP:	0.155	Y_WP:	0.007	Y_WP:	0.500	X:	0.163	Y:	0.069	Z:	0.401	yaw:	169.431	yaw rate:	1.553	Roll:	-1.005	Pitch:	-2.980	Yaw:	239.496	Thrust:	97.367
Time:	10.446	Roll Set Point:	-0.167	Pitch Set Point:	-0.007	Yaw Set Point:	-2.957	X_WP:	0.155	Y_WP:	0.007	Y_WP:	0.500	X:	0.163	Y:	0.069	Z:	0.401	yaw:	169.430	yaw rate:	-0.117	Roll:	-1.583	Pitch:	-3.563	Yaw:	241.248	Thrust:	100.000
Time:	10.477	Roll Set Point:	-0.167	Pitch Set Point:	-0.007	Yaw Set Point:	-2.958	X_WP:	0.155	Y_WP:	0.007	Y_WP:	0.500	X:	0.163	Y:	0.069	Z:	0.401	yaw:	169.464	yaw rate:	2.145	Roll:	-1.037	Pitch:	-2.976	Yaw:	240.023	Thrust:	98.035
Time:	10.509	Roll Set Point:	-0.167	Pitch Set Point:	-0.007	Yaw Set Point:	-2.957	X_WP:	0.155	Y_WP:	0.007	Y_WP:	0.500	X:	0.163	Y:	0.069	Z:	0.401	yaw:	169.422	yaw rate:	-4.192	Roll:	-0.996	Pitch:	-2.977	Yaw:	239.332	Thrust:	98.395
Time:	10.540	Roll Set Point:	-0.167	Pitch Set Point:	-0.007	Yaw Set Point:	-2.957	X_WP:	0.155	Y_WP:	0.007	Y_WP:	0.500	X:	0.163	Y:	0.069	Z:	0.401	yaw:	169.436	yaw rate:	1.423	Roll:	-1.024	Pitch:	-2.978	Yaw:	239.822	Thrust:	98.741
Time:	10.571	Roll Set Point:	-0.167	Pitch Set Point:	-0.007	Yaw Set Point:	-2.957	X_WP:	0.155	Y_WP:	0.007	Y_WP:	0.500	X:	0.163	Y:	0.069	Z:	0.401	yaw:	169.443	yaw rate:	0.734	Roll:	-1.022	Pitch:	-2.978	Yaw:	239.774	Thrust:	99.206
Time:	10.602	Roll Set Point:	-0.167	Pitch Set Point:	-0.007	Yaw Set Point:	-2.957	X_WP:	0.155	Y_WP:	0.007	Y_WP:	0.500	X:	0.163	Y:	0.069	Z:	0.401	yaw:	169.446	yaw rate:	0.285	Roll:	-1.018	Pitch:	-2.978	Yaw:	239.741	Thrust:	99.471
Time:	10.634	Roll Set Point:	-0.167	Pitch Set Point:	-0.007	Yaw Set Point:	-2.957	X_WP:	0.155	Y_WP:	0.007	Y_WP:	0.500	X:	0.163	Y:	0.069	Z:	0.401	yaw:	169.427	yaw rate:	-2.155	Roll:	-1.006	Pitch:	-2.978	Yaw:	239.531	Thrust:	99.850
Time:	10.664	Roll Set Point:	-0.167	Pitch Set Point:	-0.007	Yaw Set Point:	-2.957	X_WP:	0.155	Y_WP:	0.007	Y_WP:	0.500	X:	0.163	Y:	0.069	Z:	0.401	yaw:	169.440	yaw rate:	1.256	Roll:	-1.005	Pitch:	-2.959	Yaw:	239.765	Thrust:	98.759
Time:	10.696	Roll Set Point:	-0.167	Pitch Set Point:	-0.007	Yaw Set Point:	-2.957	X_WP:	0.155	Y_WP:	0.007	Y_WP:	0.500	X:	0.163	Y:	0.069	Z:	0.401	yaw:	169.441	yaw rate:	-0.866	Roll:	-1.017	Pitch:	-2.975	Yaw:	239.724	Thrust:	100.000
Time:	10.731	Roll Set Point:	-0.167	Pitch Set Point:	-0.007	Yaw Set Point:	-2.957	X_WP:	0.155	Y_WP:	0.007	Y_WP:	0.500	X:	0.163	Y:	0.069	Z:	0.401	yaw:	169.445	yaw rate:	0.584	Roll:	-1.168	Pitch:	-3.137	Yaw:	240.155	Thrust:	100.000
Time:	10.762	Roll Set Point:	-0.167	Pitch Set Point:	-0.007	Yaw Set Point:	-2.957	X_WP:	0.155	Y_WP:	0.007	Y_WP:	0.500	X:	0.163	Y:	0.069	Z:	0.401	yaw:	169.425	yaw rate:	-2.005	Roll:	-1.004	Pitch:	-2.977	Yaw:	239.519	Thrust:	100.000
Time:	10.794	Roll Set Point:	-0.167	Pitch Set Point:	-0.007	Yaw Set Point:	-2.957	X_WP:	0.155	Y_WP:	0.007	Y_WP:	0.500	X:	0.163	Y:	0.069	Z:	0.401	yaw:	169.431	yaw rate:	-1.297	Roll:	-1.018	Pitch:	-2.974	Yaw:	239.747	Thrust:	100.000
Time:	10.825	Roll Set Point:	-0.167	Pitch Set Point:	-0.007	Yaw Set Point:	-2.957	X_WP:	0.155	Y_WP:	0.007	Y_WP:	0.500	X:	0.163	Y:	0.069	Z:	0.401	yaw:	169.447	yaw rate:	1.585	Roll:	-1.024	Pitch:	-2.979	Yaw:	239.850	Thrust:	100.000
Time:	10.856	Roll Set Point:	-0.167	Pitch Set Point:	-0.007	Yaw Set Point:	-2.958	X_WP:	0.155	Y_WP:	0.007	Y_WP:	0.500	X:	0.163	Y:	0.069	Z:	0.401	yaw:	169.457	yaw rate:	0.277	Roll:	-1.021	Pitch:	-2.978	Yaw:	239.819	Thrust:	100.000
