Time:	2.110	Roll Set Point:	-0.234	Pitch Set Point:	-0.122	Yaw Set Point:	-0.577	X_WP:	0.000	Y_WP:	0.000	Y_WP:	0.500	X:	0.099	Y:	0.096	Z:	0.399	yaw:	33.076	yaw rate:	-6.318	Roll:	3.924	Pitch:	0.755	Yaw:	46.182	Thrust:	5.575
Time:	2.125	Roll Set Point:	-0.234	Pitch Set Point:	-0.121	Yaw Set Point:	-0.579	X_WP:	0.000	Y_WP:	0.000	Y_WP:	0.500	X:	0.099	Y:	0.096	Z:	0.399	yaw:	33.159	yaw rate:	8.305	Roll:	3.916	Pitch:	0.533	Yaw:	47.870	Thrust:	5.722
Time:	2.141	Roll Set Point:	-0.234	Pitch Set Point:	-0.121	Yaw Set Point:	-0.579	X_WP:	0.000	Y_WP:	0.000	Y_WP:	0.500	X:	0.099	Y:	0.096	Z:	0.399	yaw:	33.151	yaw rate:	-0.729	Roll:	3.917	Pitch:	0.761	Yaw:	46.528	Thrust:	5.858
Time:	2.157	Roll Set Point:	-0.234	Pitch Set Point:	-0.121	Yaw Set Point:	-0.579	X_WP:	0.000	Y_WP:	0.000	Y_WP:	0.500	X:	0.099	Y:	0.096	Z:	0.399	yaw:	33.151	yaw rate:	-0.729	Roll:	3.939	Pitch:	0.752	Yaw:	46.829	Thrust:	6.141
Time:	2.172	Roll Set Point:	-0.234	Pitch Set Point:	-0.122	Yaw Set Point:	-0.577	X_WP:	0.000	Y_WP:	0.000	Y_WP:	0.500	X:	0.099	Y:	0.096	Z:	0.399	yaw:	33.086	yaw rate:	-5.270	Roll:	3.957	Pitch:	0.938	Yaw:	45.823	Thrust:	6.609
Time:	2.188	Roll Set Point:	-0.234	Pitch Set Point:	-0.122	Yaw Set Point:	-0.578	X_WP:	0.000	Y_WP:	0.000	Y_WP:	0.500	X:	0.099	Y:	0.096	Z:	0.399	yaw:	33.112	yaw rate:	2.585	Roll:	3.923	Pitch:	0.720	Yaw:	47.570	Thrust:	6.170
Time:	2.204	Roll Set Point:	-0.234	Pitch Set Point:	-0.122	Yaw Set Point:	-0.578	X_WP:	0.000	Y_WP:	0.000	Y_WP:	0.500	X:	0.099	Y:	0.096	Z:	0.399	yaw:	33.112	yaw rate:	2.585	Roll:	3.954	Pitch:	0.759	Yaw:	47.317	Thrust:	6.711
Time:	2.219	Roll Set Point:	-0.234	Pitch Set Point:	-0.121	Yaw Set Point:	-0.579	X_WP:	0.000	Y_WP:	0.000	Y_WP:	0.500	X:	0.099	Y:	0.096	Z:	0.399	yaw:	33.173	yaw rate:	2.687	Roll:	3.977	Pitch:	0.616	Yaw:	48.602	Thrust:	7.104
Time:	2.235	Roll Set Point:	-0.234	Pitch Set Point:	-0.122	Yaw Set Point:	-0.577	X_WP:	0.000	Y_WP:	0.000	Y_WP:	0.500	X:	0.099	Y:	0.096	Z:	0.399	yaw:	33.064	yaw rate:	-10.821	Roll:	3.944	Pitch:	1.008	Yaw:	45.799	Thrust:	7.104
Time:	2.250	Roll Set Point:	-0.234	Pitch Set Point:	-0.122	Yaw Set Point:	-0.579	X_WP:	0.000	Y_WP:	0.000	Y_WP:	0.500	X:	0.099	Y:	0.096	Z:	0.399	yaw:	33.159	yaw rate:	9.481	Roll:	4.001	Pitch:	0.583	Yaw:	49.450	Thrust:	7.186
Time:	2.266	Roll Set Point:	-0.234	Pitch Set Point:	-0.122	Yaw Set Point:	-0.579	X_WP:	0.000	Y_WP:	0.000	Y_WP:	0.500	X:	0.099	Y:	0.096	Z:	0.399	yaw:	33.150	yaw rate:	-0.928	Roll:	3.961	Pitch:	0.739	Yaw:	47.697	Thrust:	7.523
Time:	2.282	Roll Set Point:	-0.234	Pitch Set Point:	-0.122	Yaw Set Point:	-0.579	X_WP:	0.000	Y_WP:	0.000	Y_WP:	0.500	X:	0.099	Y:	0.096	Z:	0.399	yaw:	33.150	yaw rate:	-0.928	Roll:	3.981	Pitch:	0.762	Yaw:	47.849	Thrust:	7.664
Time:	2.297	Roll Set Point:	-0.234	Pitch Set Point:	-0.122	Yaw Set Point:	-0.579	X_WP:	0.000	Y_WP:	0.000	Y_WP:	0.500	X:	0.099	Y:	0.096	Z:	0.399	yaw:	33.159	yaw rate:	0.921	Roll:	3.977	Pitch:	0.763	Yaw:	48.016	Thrust:	7.863
Time:	2.313	Roll Set Point:	-0.234	Pitch Set Point:	-0.122	Yaw Set Point:	-0.577	X_WP:	0.000	Y_WP:	0.000	Y_WP:	0.500	X:	0.099	Y:	0.096	Z:	0.399	yaw:	33.087	yaw rate:	-3.931	Roll:	4.013	Pitch:	0.977	Yaw:	46.548	Thrust:	8.249
Time:	2.329	Roll Set Point:	-0.234	Pitch Set Point:	-0.122	Yaw Set Point:	-0.579	X_WP:	0.000	Y_WP:	0.000	Y_WP:	0.500	X:	0.099	Y:	0.096	Z:	0.399	yaw:	33.166	yaw rate:	7.888	Roll:	4.009	Pitch:	0.542	Yaw:	49.192	Thrust:	7.997
Time:	2.344	Roll Set Point:	-0.234	Pitch Set Point:	-0.122	Yaw Set Point:	-0.578	X_WP:	0.000	Y_WP:	0.000	Y_WP:	0.500	X:	0.099	Y:	0.096	Z:	0.399	yaw:	33.141	yaw rate:	-2.501	Roll:	3.966	Pitch:	0.807	Yaw:	47.417	Thrust:	8.455
Time:	2.360	Roll Set Point:	-0.234	Pitch Set Point:	-0.122	Yaw Set Point:	-0.578	X_WP:	0.000	Y_WP:	0.000	Y_WP:	0.500	X:	0.099	Y:	0.096	Z:	0.399	yaw:	33.130	yaw rate:	-1.105	Roll:	3.997	Pitch:	0.814	Yaw:	47.636	Thrust:	8.471
Time:	2.375	Roll Set Point:	-0.234	Pitch Set Point:	-0.122	Yaw Set Point:	-0.578	X_WP:	0.000	Y_WP:	0.000	Y_WP:	0.500	X:	0.099	Y:	0.096	Z:	0.399	yaw:	33.130	yaw rate:	-1.105	Roll:	4.012	Pitch:	0.770	Yaw:	47.820	Thrust:	8.802
Time:	2.391	Roll Set Point:	-0.234	Pitch Set Point:	-0.122	Yaw Set Point:	-0.578	X_WP:	0.000	Y_WP:	0.000	Y_WP:	0.500	X:	0.099	Y:	0.096	Z:	0.399	yaw:	33.119	yaw rate:	-1.026	Roll:	4.082	Pitch:	0.851	Yaw:	47.636	Thrust:	9.405
Time:	2.407	Roll Set Point:	-0.234	Pitch Set Point:	-0.121	Yaw Set Point:	-0.578	X_WP:	0.000	Y_WP:	0.000	Y_WP:	0.500	X:	0.099	Y:	0.096	Z:	0.399	yaw:	33.133	yaw rate:	2.763	Roll:	3.970	Pitch:	0.620	Yaw:	48.055	Thrust:	8.787
Time:	2.422	Roll Set Point:	-0.234	Pitch Set Point:	-0.122	Yaw Set Point:	-0.578	X_WP:	0.000	Y_WP:	0.000	Y_WP:	0.500	X:	0.099	Y:	0.096	Z:	0.399	yaw:	33.135	yaw rate:	0.231	Roll:	4.051	Pitch:	0.815	Yaw:	47.867	Thrust:	9.376
Time:	2.438	Roll Set Point:	-0.234	Pitch Set Point:	-0.122	Yaw Set Point:	-0.579	X_WP:	0.000	Y_WP:	0.000	Y_WP:	0.500	X:	0.099	Y:	0.096	Z:	0.399	yaw:	33.147	yaw rate:	1.121	Roll:	4.052	Pitch:	0.772	Yaw:	48.032	Thrust:	9.607
Time:	2.454	Roll Set Point:	-0.234	Pitch Set Point:	-0.122	Yaw Set Point:	-0.579	X_WP:	0.000	Y_WP:	0.000	Y_WP:	0.500	X:	0.099	Y:	0.096	Z:	0.399	yaw:	33.164	yaw rate:	1.759	Roll:	4.034	Pitch:	0.746	Yaw:	48.163	Thrust:	9.859
Time:	2.469	Roll Set Point:	-0.234	Pitch Set Point:	-0.122	Yaw Set Point:	-0.578	X_WP:	0.000	Y_WP:	0.000	Y_WP:	0.500	X:	0.099	Y:	0.096	Z:	0.399	yaw:	33.126	yaw rate:	-3.811	Roll:	4.001	Pitch:	0.777	Yaw:	47.177	Thrust:	9.785
Time:	2.485	Roll Set Point:	-0.234	Pitch Set Point:	-0.122	Yaw Set Point:	-0.579	X_WP:	0.000	Y_WP:	0.000	Y_WP:	0.500	X:	0.099	Y:	0.096	Z:	0.399	yaw:	33.163	yaw rate:	3.675	Roll:	4.075	Pitch:	0.746	Yaw:	48.482	Thrust:	10.269
Time:	2.501	Roll Set Point:	-0.234	Pitch Set Point:	-0.122	Yaw Set Point:	-0.579	X_WP:	0.000	Y_WP:	0.000	Y_WP:	0.500	X:	0.099	Y:	0.096	Z:	0.399	yaw:	33.163	yaw rate:	3.675	Roll:	4.055	Pitch:	0.776	Yaw:	47.867	Thrust:	10.325
Time:	2.516	Roll Set Point:	-0.234	Pitch Set Point:	-0.122	Yaw Set Point:	-0.577	X_WP:	0.000	Y_WP:	0.000	Y_WP:	0.500	X:	0.099	Y:	0.096	Z:	0.399	yaw:	33.063	yaw rate:	-3.541	Roll:	4.065	Pitch:	1.008	Yaw:	46.055	Thrust:	10.658
Time:	2.532	Roll Set Point:	-0.234	Pitch Set Point:	-0.122	Yaw Set Point:	-0.578	X_WP:	0.000	Y_WP:	0.000	Y_WP:	0.500	X:	0.099	Y:	0.096	Z:	0.399	yaw:	33.142	yaw rate:	7.877	Roll:	4.056	Pitch:	0.560	Yaw:	49.157	Thrust:	10.416
Time:	2.547	Roll Set Point:	-0.234	Pitch Set Point:	-0.121	Yaw Set Point:	-0.579	X_WP:	0.000	Y_WP:	0.000	Y_WP:	0.500	X:	0.099	Y:	0.096	Z:	0.399	yaw:	33.173	yaw rate:	3.163	Roll:	4.077	Pitch:	0.725	Yaw:	48.411	Thrust:	10.955
Time:	2.563	Roll Set Point:	-0.234	Pitch Set Point:	-0.121	Yaw Set Point:	-0.579	X_WP:	0.000	Y_WP:	0.000	Y_WP:	0.500	X:	0.099	Y:	0.096	Z:	0.399	yaw:	33.173	yaw rate:	3.163	Roll:	4.076	Pitch:	0.778	Yaw:	47.882	Thrust:	11.083
Time:	2.579	Roll Set Point:	-0.234	Pitch Set Point:	-0.122	Yaw Set Point:	-0.579	X_WP:	0.000	Y_WP:	0.000	Y_WP:	0.500	X:	0.099	Y:	0.096	Z:	0.399	yaw:	33.153	yaw rate:	2.888	Roll:	4.106	Pitch:	0.922	Yaw:	47.503	Thrust:	11.468
Time:	2.594	Roll Set Point:	-0.234	Pitch Set Point:	-0.121	Yaw Set Point:	-0.579	X_WP:	0.000	Y_WP:	0.000	Y_WP:	0.500	X:	0.099	Y:	0.096	Z:	0.399	yaw:	33.156	yaw rate:	0.342	Roll:	4.067	Pitch:	0.661	Yaw:	47.914	Thrust:	11.343
Time:	2.610	Roll Set Point:	-0.235	Pitch Set Point:	-0.121	Yaw Set Point:	-0.577	X_WP:	0.000	Y_WP:	0.000	Y_WP:	0.500	X:	0.099	Y:	0.096	Z:	0.399	yaw:	33.038	yaw rate:	-11.782	Roll:	4.081	Pitch:	0.899	Yaw:	45.719	Thrust:	11.759
Time:	2.626	Roll Set Point:	-0.234	Pitch Set Point:	-0.122	Yaw Set Point:	-0.577	X_WP:	0.000	Y_WP:	0.000	Y_WP:	0.500	X:	0.099	Y:	0.096	Z:	0.399	yaw:	33.057	yaw rate:	1.910	Roll:	4.096	Pitch:	0.914	Yaw:	48.040	Thrust:	11.812
Time:	2.641	Roll Set Point:	-0.234	Pitch Set Point:	-0.122	Yaw Set Point:	-0.576	X_WP:	0.000	Y_WP:	0.000	Y_WP:	0.500	X:	0.099	Y:	0.096	Z:	0.399	yaw:	33.020	yaw rate:	-3.723	Roll:	4.076	Pitch:	0.879	Yaw:	47.042	Thrust:	11.885
Time:	2.657	Roll Set Point:	-0.234	Pitch Set Point:	-0.122	Yaw Set Point:	-0.578	X_WP:	0.000	Y_WP:	0.000	Y_WP:	0.500	X:	0.099	Y:	0.096	Z:	0.399	yaw:	33.127	yaw rate:	10.737	Roll:	4.101	Pitch:	0.543	Yaw:	49.616	Thrust:	12.313
Time:	2.672	Roll Set Point:	-0.234	Pitch Set Point:	-0.122	Yaw Set Point:	-0.578	X_WP:	0.000	Y_WP:	0.000	Y_WP:	0.500	X:	0.099	Y:	0.096	Z:	0.399	yaw:	33.142	yaw rate:	1.488	Roll:	4.133	Pitch:	0.760	Yaw:	48.087	Thrust:	12.426
Time:	2.688	Roll Set Point:	-0.234	Pitch Set Point:	-0.122	Yaw Set Point:	-0.578	X_WP:	0.000	Y_WP:	0.000	Y_WP:	0.500	X:	0.099	Y:	0.096	Z:	0.399	yaw:	33.105	yaw rate:	-3.697	Roll:	4.163	Pitch:	0.865	Yaw:	47.167	Thrust:	12.708
Time:	2.704	Roll Set Point:	-0.234	Pitch Set Point:	-0.122	Yaw Set Point:	-0.578	X_WP:	0.000	Y_WP:	0.000	Y_WP:	0.500	X:	0.099	Y:	0.096	Z:	0.399	yaw:	33.138	yaw rate:	3.274	Roll:	4.088	Pitch:	0.747	Yaw:	48.381	Thrust:	12.605
Time:	2.719	Roll Set Point:	-0.234	Pitch Set Point:	-0.122	Yaw Set Point:	-0.578	X_WP:	0.000	Y_WP:	0.000	Y_WP:	0.500	X:	0.099	Y:	0.096	Z:	0.399	yaw:	33.127	yaw rate:	-1.133	Roll:	4.117	Pitch:	0.827	Yaw:	47.627	Thrust:	12.916
Time:	2.735	Roll Set Point:	-0.234	Pitch Set Point:	-0.121	Yaw Set Point:	-0.579	X_WP:	0.000	Y_WP:	0.000	Y_WP:	0.500	X:	0.099	Y:	0.096	Z:	0.399	yaw:	33.158	yaw rate:	3.152	Roll:	4.140	Pitch:	0.645	Yaw:	48.389	Thrust:	13.257
Time:	2.750	Roll Set Point:	-0.234	Pitch Set Point:	-0.122	Yaw Set Point:	-0.578	X_WP:	0.000	Y_WP:	0.000	Y_WP:	0.500	X:	0.099	Y:	0.096	Z:	0.399	yaw:	33.111	yaw rate:	-4.681	Roll:	4.184	Pitch:	0.933	Yaw:	47.005	Thrust:	13.728
Time:	2.766	Roll Set Point:	-0.234	Pitch Set Point:	-0.122	Yaw Set Point:	-0.578	X_WP:	0.000	Y_WP:	0.000	Y_WP:	0.500	X:	0.099	Y:	0.096	Z:	0.399	yaw:	33.111	yaw rate:	-4.681	Roll:	4.146	Pitch:	0.795	Yaw:	47.795	Thrust:	13.561
Time:	2.782	Roll Set Point:	-0.234	Pitch Set Point:	-0.122	Yaw Set Point:	-0.577	X_WP:	0.000	Y_WP:	0.000	Y_WP:	0.500	X:	0.099	Y:	0.096	Z:	0.399	yaw:	33.087	yaw rate:	-0.011	Roll:	4.150	Pitch:	0.882	Yaw:	47.345	Thrust:	13.539
Time:	2.797	Roll Set Point:	-0.234	Pitch Set Point:	-0.121	Yaw Set Point:	-0.578	X_WP:	0.000	Y_WP:	0.000	Y_WP:	0.500	X:	0.099	Y:	0.096	Z:	0.399	yaw:	33.143	yaw rate:	5.677	Roll:	4.125	Pitch:	0.601	Yaw:	48.791	Thrust:	13.760
Time:	2.813	Roll Set Point:	-0.234	Pitch Set Point:	-0.122	Yaw Set Point:	-0.579	X_WP:	0.000	Y_WP:	0.000	Y_WP:	0.500	X:	0.099	Y:	0.096	Z:	0.399	yaw:	33.149	yaw rate:	0.517	Roll:	4.155	Pitch:	0.891	Yaw:	47.933	Thrust:	14.268
Time:	2.829	Roll Set Point:	-0.234	Pitch Set Point:	-0.122	Yaw Set Point:	-0.577	X_WP:	0.000	Y_WP:	0.000	Y_WP:	0.500	X:	0.099	Y:	0.096	Z:	0.399	yaw:	33.079	yaw rate:	-6.984	Roll:	4.185	Pitch:	0.935	Yaw:	46.579	Thrust:	14.372
Time:	2.844	Roll Set Point:	-0.234	Pitch Set Point:	-0.122	Yaw Set Point:	-0.577	X_WP:	0.000	Y_WP:	0.000	Y_WP:	0.500	X:	0.099	Y:	0.096	Z:	0.399	yaw:	33.079	yaw rate:	-6.984	Roll:	4.172	Pitch:	0.803	Yaw:	47.750	Thrust:	14.509
Time:	2.860	Roll Set Point:	-0.234	Pitch Set Point:	-0.122	Yaw Set Point:	-0.579	X_WP:	0.000	Y_WP:	0.000	Y_WP:	0.500	X:	0.099	Y:	0.096	Z:	0.399	yaw:	33.148	yaw rate:	-1.184	Roll:	4.153	Pitch:	0.642	Yaw:	49.000	Thrust:	14.453
Time:	2.876	Roll Set Point:	-0.234	Pitch Set Point:	-0.121	Yaw Set Point:	-0.579	X_WP:	0.000	Y_WP:	0.000	Y_WP:	0.500	X:	0.099	Y:	0.096	Z:	0.399	yaw:	33.187	yaw rate:	3.979	Roll:	4.212	Pitch:	0.699	Yaw:	48.568	Thrust:	15.037
Time:	2.891	Roll Set Point:	-0.234	Pitch Set Point:	-0.122	Yaw Set Point:	-0.578	X_WP:	0.000	Y_WP:	0.000	Y_WP:	0.500	X:	0.099	Y:	0.096	Z:	0.399	yaw:	33.137	yaw rate:	-5.022	Roll:	4.167	Pitch:	0.934	Yaw:	46.990	Thrust:	14.989
Time:	2.907	Roll Set Point:	-0.234	Pitch Set Point:	-0.122	Yaw Set Point:	-0.578	X_WP:	0.000	Y_WP:	0.000	Y_WP:	0.500	X:	0.099	Y:	0.096	Z:	0.399	yaw:	33.137	yaw rate:	-5.022	Roll:	4.192	Pitch:	0.804	Yaw:	47.830	Thrust:	15.261
Time:	2.922	Roll Set Point:	-0.234	Pitch Set Point:	-0.121	Yaw Set Point:	-0.579	X_WP:	0.000	Y_WP:	0.000	Y_WP:	0.500	X:	0.099	Y:	0.096	Z:	0.399	yaw:	33.160	yaw rate:	10.283	Roll:	4.175	Pitch:	0.710	Yaw:	48.251	Thrust:	15.562
Time:	2.938	Roll Set Point:	-0.234	Pitch Set Point:	-0.121	Yaw Set Point:	-0.579	X_WP:	0.000	Y_WP:	0.000	Y_WP:	0.500	X:	0.099	Y:	0.096	Z:	0.399	yaw:	33.167	yaw rate:	0.621	Roll:	4.211	Pitch:	0.765	Yaw:	47.979	Thrust:	15.527
Time:	2.954	Roll Set Point:	-0.234	Pitch Set Point:	-0.121	Yaw Set Point:	-0.579	X_WP:	0.000	Y_WP:	0.000	Y_WP:	0.500	X:	0.099	Y:	0.096	Z:	0.399	yaw:	33.167	yaw rate:	0.621	Roll:	4.208	Pitch:	0.804	Yaw:	47.872	Thrust:	15.835
Time:	2.969	Roll Set Point:	-0.234	Pitch Set Point:	-0.122	Yaw Set Point:	-0.577	X_WP:	0.000	Y_WP:	0.000	Y_WP:	0.500	X:	0.099	Y:	0.096	Z:	0.399	yaw:	33.035	yaw rate:	-6.518	Roll:	4.212	Pitch:	1.148	Yaw:	45.489	Thrust:	16.142
Time:	2.985	Roll Set Point:	-0.234	Pitch Set Point:	-0.122	Yaw Set Point:	-0.578	X_WP:	0.000	Y_WP:	0.000	Y_WP:	0.500	X:	0.099	Y:	0.096	Z:	0.399	yaw:	33.144	yaw rate:	10.899	Roll:	4.213	Pitch:	0.587	Yaw:	49.667	Thrust:	16.202
Time:	3.001	Roll Set Point:	-0.234	Pitch Set Point:	-0.122	Yaw Set Point:	-0.578	X_WP:	0.000	Y_WP:	0.000	Y_WP:	0.500	X:	0.099	Y:	0.096	Z:	0.399	yaw:	33.144	yaw rate:	10.899	Roll:	4.223	Pitch:	0.810	Yaw:	47.838	Thrust:	16.385
Time:	3.016	Roll Set Point:	-0.234	Pitch Set Point:	-0.121	Yaw Set Point:	-0.579	X_WP:	0.000	Y_WP:	0.000	Y_WP:	0.500	X:	0.099	Y:	0.096	Z:	0.399	yaw:	33.194	yaw rate:	4.944	Roll:	4.255	Pitch:	0.694	Yaw:	48.738	Thrust:	16.736
Time:	3.032	Roll Set Point:	-0.234	Pitch Set Point:	-0.122	Yaw Set Point:	-0.577	X_WP:	0.000	Y_WP:	0.000	Y_WP:	0.500	X:	0.099	Y:	0.096	Z:	0.399	yaw:	33.080	yaw rate:	-6.990	Roll:	4.214	Pitch:	1.105	Yaw:	45.848	Thrust:	16.828
Time:	3.047	Roll Set Point:	-0.234	Pitch Set Point:	-0.122	Yaw Set Point:	-0.577	X_WP:	0.000	Y_WP:	0.000	Y_WP:	0.500	X:	0.099	Y:	0.096	Z:	0.399	yaw:	33.080	yaw rate:	-6.990	Roll:	4.240	Pitch:	0.817	Yaw:	47.751	Thrust:	16.980
Time:	3.063	Roll Set Point:	-0.234	Pitch Set Point:	-0.122	Yaw Set Point:	-0.579	X_WP:	0.000	Y_WP:	0.000	Y_WP:	0.500	X:	0.099	Y:	0.096	Z:	0.399	yaw:	33.146	yaw rate:	6.629	Roll:	4.239	Pitch:	0.611	Yaw:	48.954	Thrust:	16.954
Time:	3.079	Roll Set Point:	-0.234	Pitch Set Point:	-0.122	Yaw Set Point:	-0.579	X_WP:	0.000	Y_WP:	0.000	Y_WP:	0.500	X:	0.099	Y:	0.096	Z:	0.399	yaw:	33.146	yaw rate:	6.629	Roll:	4.250	Pitch:	0.814	Yaw:	47.844	Thrust:	17.356
Time:	3.094	Roll Set Point:	-0.234	Pitch Set Point:	-0.122	Yaw Set Point:	-0.577	X_WP:	0.000	Y_WP:	0.000	Y_WP:	0.500	X:	0.099	Y:	0.096	Z:	0.399	yaw:	33.069	yaw rate:	-9.487	Roll:	4.265	Pitch:	1.021	Yaw:	46.440	Thrust:	17.719
Time:	3.110	Roll Set Point:	-0.234	Pitch Set Point:	-0.122	Yaw Set Point:	-0.577	X_WP:	0.000	Y_WP:	0.000	Y_WP:	0.500	X:	0.099	Y:	0.096	Z:	0.399	yaw:	33.069	yaw rate:	-9.487	Roll:	4.261	Pitch:	0.821	Yaw:	47.736	Thrust:	17.740
Time:	3.126	Roll Set Point:	-0.234	Pitch Set Point:	-0.122	Yaw Set Point:	-0.578	X_WP:	0.000	Y_WP:	0.000	Y_WP:	0.500	X:	0.099	Y:	0.096	Z:	0.399	yaw:	33.137	yaw rate:	-1.397	Roll:	4.227	Pitch:	0.658	Yaw:	48.963	Thrust:	17.680
Time:	3.141	Roll Set Point:	-0.234	Pitch Set Point:	-0.122	Yaw Set Point:	-0.579	X_WP:	0.000	Y_WP:	0.000	Y_WP:	0.500	X:	0.099	Y:	0.096	Z:	0.399	yaw:	33.168	yaw rate:	3.131	Roll:	4.321	Pitch:	0.776	Yaw:	48.398	Thrust:	18.351
Time:	3.157	Roll Set Point:	-0.234	Pitch Set Point:	-0.122	Yaw Set Point:	-0.579	X_WP:	0.000	Y_WP:	0.000	Y_WP:	0.500	X:	0.099	Y:	0.096	Z:	0.399	yaw:	33.168	yaw rate:	3.131	Roll:	4.277	Pitch:	0.819	Yaw:	47.874	Thrust:	18.309
Time:	3.172	Roll Set Point:	-0.234	Pitch Set Point:	-0.122	Yaw Set Point:	-0.579	X_WP:	0.000	Y_WP:	0.000	Y_WP:	0.500	X:	0.099	Y:	0.096	Z:	0.399	yaw:	33.165	yaw rate:	11.396	Roll:	4.275	Pitch:	0.818	Yaw:	47.824	Thrust:	18.435
Time:	3.188	Roll Set Point:	-0.234	Pitch Set Point:	-0.122	Yaw Set Point:	-0.579	X_WP:	0.000	Y_WP:	0.000	Y_WP:	0.500	X:	0.099	Y:	0.096	Z:	0.399	yaw:	33.148	yaw rate:	-1.761	Roll:	4.291	Pitch:	0.817	Yaw:	47.551	Thrust:	18.589
Time:	3.204	Roll Set Point:	-0.234	Pitch Set Point:	-0.122	Yaw Set Point:	-0.579	X_WP:	0.000	Y_WP:	0.000	Y_WP:	0.500	X:	0.099	Y:	0.096	Z:	0.399	yaw:	33.148	yaw rate:	-1.761	Roll:	4.293	Pitch:	0.822	Yaw:	47.845	Thrust:	18.875
Time:	3.219	Roll Set Point:	-0.234	Pitch Set Point:	-0.122	Yaw Set Point:	-0.579	X_WP:	0.000	Y_WP:	0.000	Y_WP:	0.500	X:	0.099	Y:	0.096	Z:	0.399	yaw:	33.161	yaw rate:	1.491	Roll:	4.324	Pitch:	0.857	Yaw:	48.087	Thrust:	19.100
Time:	3.235	Roll Set Point:	-0.234	Pitch Set Point:	-0.122	Yaw Set Point:	-0.579	X_WP:	0.000	Y_WP:	0.000	Y_WP:	0.500	X:	0.099	Y:	0.096	Z:	0.399	yaw:	33.161	yaw rate:	1.491	Roll:	4.304	Pitch:	0.825	Yaw:	47.864	Thrust:	19.257
Time:	3.251	Roll Set Point:	-0.234	Pitch Set Point:	-0.122	Yaw Set Point:	-0.579	X_WP:	0.000	Y_WP:	0.000	Y_WP:	0.500	X:	0.099	Y:	0.096	Z:	0.399	yaw:	33.159	yaw rate:	-0.178	Roll:	4.290	Pitch:	0.824	Yaw:	47.832	Thrust:	19.507
Time:	3.266	Roll Set Point:	-0.234	Pitch Set Point:	-0.122	Yaw Set Point:	-0.579	X_WP:	0.000	Y_WP:	0.000	Y_WP:	0.500	X:	0.099	Y:	0.096	Z:	0.399	yaw:	33.150	yaw rate:	-1.721	Roll:	4.311	Pitch:	0.805	Yaw:	47.688	Thrust:	19.659
Time:	3.282	Roll Set Point:	-0.234	Pitch Set Point:	-0.122	Yaw Set Point:	-0.579	X_WP:	0.000	Y_WP:	0.000	Y_WP:	0.500	X:	0.099	Y:	0.096	Z:	0.399	yaw:	33.150	yaw rate:	-1.721	Roll:	4.319	Pitch:	0.827	Yaw:	47.848	Thrust:	19.832
Time:	3.297	Roll Set Point:	-0.234	Pitch Set Point:	-0.122	Yaw Set Point:	-0.577	X_WP:	0.000	Y_WP:	0.000	Y_WP:	0.500	X:	0.099	Y:	0.096	Z:	0.399	yaw:	33.081	yaw rate:	-4.590	Roll:	4.310	Pitch:	1.016	Yaw:	46.608	Thrust:	20.159
Time:	3.313	Roll Set Point:	-0.234	Pitch Set Point:	-0.122	Yaw Set Point:	-0.577	X_WP:	0.000	Y_WP:	0.000	Y_WP:	0.500	X:	0.099	Y:	0.096	Z:	0.399	yaw:	33.081	yaw rate:	-4.590	Roll:	4.329	Pitch:	0.834	Yaw:	47.753	Thrust:	20.210
Time:	3.329	Roll Set Point:	-0.234	Pitch Set Point:	-0.121	Yaw Set Point:	-0.579	X_WP:	0.000	Y_WP:	0.000	Y_WP:	0.500	X:	0.099	Y:	0.096	Z:	0.399	yaw:	33.147	yaw rate:	-1.363	Roll:	4.344	Pitch:	0.607	Yaw:	48.947	Thrust:	20.237
Time:	3.344	Roll Set Point:	-0.234	Pitch Set Point:	-0.121	Yaw Set Point:	-0.579	X_WP:	0.000	Y_WP:	0.000	Y_WP:	0.500	X:	0.099	Y:	0.096	Z:	0.399	yaw:	33.147	yaw rate:	-1.363	Roll:	4.340	Pitch:	0.830	Yaw:	47.845	Thrust:	20.588
Time:	3.360	Roll Set Point:	-0.234	Pitch Set Point:	-0.122	Yaw Set Point:	-0.578	X_WP:	0.000	Y_WP:	0.000	Y_WP:	0.500	X:	0.099	Y:	0.096	Z:	0.399	yaw:	33.099	yaw rate:	-4.771	Roll:	4.375	Pitch:	0.999	Yaw:	46.979	Thrust:	20.910
Time:	3.376	Roll Set Point:	-0.234	Pitch Set Point:	-0.122	Yaw Set Point:	-0.578	X_WP:	0.000	Y_WP:	0.000	Y_WP:	0.500	X:	0.099	Y:	0.096	Z:	0.399	yaw:	33.125	yaw rate:	3.293	Roll:	4.308	Pitch:	0.767	Yaw:	48.247	Thrust:	20.769
Time:	3.391	Roll Set Point:	-0.234	Pitch Set Point:	-0.121	Yaw Set Point:	-0.579	X_WP:	0.000	Y_WP:	0.000	Y_WP:	0.500	X:	0.099	Y:	0.096	Z:	0.399	yaw:	33.182	yaw rate:	5.720	Roll:	4.372	Pitch:	0.697	Yaw:	48.852	Thrust:	21.183
Time:	3.407	Roll Set Point:	-0.234	Pitch Set Point:	-0.122	Yaw Set Point:	-0.578	X_WP:	0.000	Y_WP:	0.000	Y_WP:	0.500	X:	0.099	Y:	0.096	Z:	0.399	yaw:	33.110	yaw rate:	-7.273	Roll:	4.406	Pitch:	0.976	Yaw:	46.573	Thrust:	21.650
Time:	3.422	Roll Set Point:	-0.234	Pitch Set Point:	-0.122	Yaw Set Point:	-0.577	X_WP:	0.000	Y_WP:	0.000	Y_WP:	0.500	X:	0.099	Y:	0.096	Z:	0.399	yaw:	33.033	yaw rate:	-7.712	Roll:	4.285	Pitch:	1.006	Yaw:	46.393	Thrust:	21.186
Time:	3.438	Roll Set Point:	-0.234	Pitch Set Point:	-0.122	Yaw Set Point:	-0.577	X_WP:	0.000	Y_WP:	0.000	Y_WP:	0.500	X:	0.099	Y:	0.096	Z:	0.399	yaw:	33.033	yaw rate:	-7.712	Roll:	4.371	Pitch:	0.843	Yaw:	47.685	Thrust:	21.731
Time:	3.454	Roll Set Point:	-0.234	Pitch Set Point:	-0.122	Yaw Set Point:	-0.578	X_WP:	0.000	Y_WP:	0.000	Y_WP:	0.500	X:	0.099	Y:	0.096	Z:	0.399	yaw:	33.136	yaw rate:	-0.670	Roll:	4.394	Pitch:	0.622	Yaw:	49.555	Thrust:	21.880
Time:	3.469	Roll Set Point:	-0.234	Pitch Set Point:	-0.122	Yaw Set Point:	-0.579	X_WP:	0.000	Y_WP:	0.000	Y_WP:	0.500	X:	0.099	Y:	0.096	Z:	0.399	yaw:	33.171	yaw rate:	3.502	Roll:	4.400	Pitch:	0.793	Yaw:	48.464	Thrust:	22.261
Time:	3.485	Roll Set Point:	-0.234	Pitch Set Point:	-0.122	Yaw Set Point:	-0.578	X_WP:	0.000	Y_WP:	0.000	Y_WP:	0.500	X:	0.099	Y:	0.096	Z:	0.399	yaw:	33.128	yaw rate:	-4.212	Roll:	4.376	Pitch:	0.939	Yaw:	47.117	Thrust:	22.116
Time:	3.501	Roll Set Point:	-0.234	Pitch Set Point:	-0.122	Yaw Set Point:	-0.578	X_WP:	0.000	Y_WP:	0.000	Y_WP:	0.500	X:	0.099	Y:	0.096	Z:	0.399	yaw:	33.143	yaw rate:	1.423	Roll:	4.410	Pitch:	0.842	Yaw:	48.075	Thrust:	22.687
Time:	3.516	Roll Set Point:	-0.234	Pitch Set Point:	-0.121	Yaw Set Point:	-0.578	X_WP:	0.000	Y_WP:	0.000	Y_WP:	0.500	X:	0.099	Y:	0.096	Z:	0.399	yaw:	33.122	yaw rate:	-2.026	Roll:	4.377	Pitch:	0.772	Yaw:	47.474	Thrust:	22.465
Time:	3.532	Roll Set Point:	-0.234	Pitch Set Point:	-0.122	Yaw Set Point:	-0.579	X_WP:	0.000	Y_WP:	0.000	Y_WP:	0.500	X:	0.099	Y:	0.096	Z:	0.399	yaw:	33.161	yaw rate:	3.825	Roll:	4.427	Pitch:	0.828	Yaw:	48.503	Thrust:	23.042
Time:	3.547	Roll Set Point:	-0.234	Pitch Set Point:	-0.122	Yaw Set Point:	-0.578	X_WP:	0.000	Y_WP:	0.000	Y_WP:	0.500	X:	0.099	Y:	0.096	Z:	0.399	yaw:	33.136	yaw rate:	-2.474	Roll:	4.395	Pitch:	0.908	Yaw:	47.415	Thrust:	22.939
Time:	3.563	Roll Set Point:	-0.234	Pitch Set Point:	-0.122	Yaw Set Point:	-0.577	X_WP:	0.000	Y_WP:	0.000	Y_WP:	0.500	X:	0.099	Y:	0.096	Z:	0.399	yaw:	33.054	yaw rate:	-8.171	Roll:	4.396	Pitch:	1.038	Yaw:	46.352	Thrust:	23.443
Time:	3.579	Roll Set Point:	-0.234	Pitch Set Point:	-0.122	Yaw Set Point:	-0.577	X_WP:	0.000	Y_WP:	0.000	Y_WP:	0.500	X:	0.099	Y:	0.096	Z:	0.399	yaw:	33.054	yaw rate:	-8.171	Roll:	4.418	Pitch:	0.852	Yaw:	47.712	Thrust:	23.402
Time:	3.594	Roll Set Point:	-0.234	Pitch Set Point:	-0.122	Yaw Set Point:	-0.578	X_WP:	0.000	Y_WP:	0.000	Y_WP:	0.500	X:	0.099	Y:	0.096	Z:	0.399	yaw:	33.120	yaw rate:	5.292	Roll:	4.423	Pitch:	0.710	Yaw:	48.910	Thrust:	23.491
Time:	3.610	Roll Set Point:	-0.234	Pitch Set Point:	-0.122	Yaw Set Point:	-0.578	X_WP:	0.000	Y_WP:	0.000	Y_WP:	0.500	X:	0.099	Y:	0.096	Z:	0.399	yaw:	33.114	yaw rate:	-0.620	Roll:	4.429	Pitch:	0.868	Yaw:	47.695	Thrust:	23.708
Time:	3.626	Roll Set Point:	-0.234	Pitch Set Point:	-0.122	Yaw Set Point:	-0.578	X_WP:	0.000	Y_WP:	0.000	Y_WP:	0.500	X:	0.099	Y:	0.096	Z:	0.399	yaw:	33.114	yaw rate:	-0.620	Roll:	4.436	Pitch:	0.852	Yaw:	47.801	Thrust:	24.037
Time:	3.641	Roll Set Point:	-0.234	Pitch Set Point:	-0.122	Yaw Set Point:	-0.577	X_WP:	0.000	Y_WP:	0.000	Y_WP:	0.500	X:	0.099	Y:	0.096	Z:	0.399	yaw:	33.073	yaw rate:	-7.393	Roll:	4.458	Pitch:	0.928	Yaw:	47.054	Thrust:	24.497
Time:	3.657	Roll Set Point:	-0.234	Pitch Set Point:	-0.122	Yaw Set Point:	-0.577	X_WP:	0.000	Y_WP:	0.000	Y_WP:	0.500	X:	0.099	Y:	0.096	Z:	0.399	yaw:	33.073	yaw rate:	-7.393	Roll:	4.445	Pitch:	0.856	Yaw:	47.738	Thrust:	24.350
Time:	3.672	Roll Set Point:	-0.234	Pitch Set Point:	-0.122	Yaw Set Point:	-0.578	X_WP:	0.000	Y_WP:	0.000	Y_WP:	0.500	X:	0.099	Y:	0.096	Z:	0.399	yaw:	33.141	yaw rate:	-0.205	Roll:	4.443	Pitch:	0.676	Yaw:	48.985	Thrust:	24.424
Time:	3.688	Roll Set Point:	-0.234	Pitch Set Point:	-0.122	Yaw Set Point:	-0.577	X_WP:	0.000	Y_WP:	0.000	Y_WP:	0.500	X:	0.099	Y:	0.096	Z:	0.399	yaw:	33.063	yaw rate:	-7.806	Roll:	4.463	Pitch:	1.026	Yaw:	46.420	Thrust:	24.917
Time:	3.704	Roll Set Point:	-0.234	Pitch Set Point:	-0.122	Yaw Set Point:	-0.578	X_WP:	0.000	Y_WP:	0.000	Y_WP:	0.500	X:	0.099	Y:	0.096	Z:	0.399	yaw:	33.130	yaw rate:	6.690	Roll:	4.465	Pitch:	0.745	Yaw:	48.941	Thrust:	24.674
Time:	3.719	Roll Set Point:	-0.234	Pitch Set Point:	-0.122	Yaw Set Point:	-0.577	X_WP:	0.000	Y_WP:	0.000	Y_WP:	0.500	X:	0.099	Y:	0.096	Z:	0.399	yaw:	33.084	yaw rate:	-4.623	Roll:	4.505	Pitch:	0.951	Yaw:	46.990	Thrust:	25.622
Time:	3.735	Roll Set Point:	-0.234	Pitch Set Point:	-0.122	Yaw Set Point:	-0.577	X_WP:	0.000	Y_WP:	0.000	Y_WP:	0.500	X:	0.099	Y:	0.096	Z:	0.399	yaw:	33.084	yaw rate:	-4.623	Roll:	4.471	Pitch:	0.860	Yaw:	47.751	Thrust:	25.276
Time:	3.750	Roll Set Point:	-0.234	Pitch Set Point:	-0.122	Yaw Set Point:	-0.578	X_WP:	0.000	Y_WP:	0.000	Y_WP:	0.500	X:	0.099	Y:	0.096	Z:	0.399	yaw:	33.140	yaw rate:	0.870	Roll:	4.374	Pitch:	0.734	Yaw:	48.733	Thrust:	23.974
Time:	3.766	Roll Set Point:	-0.234	Pitch Set Point:	-0.122	Yaw Set Point:	-0.578	X_WP:	0.000	Y_WP:	0.000	Y_WP:	0.500	X:	0.099	Y:	0.096	Z:	0.399	yaw:	33.140	yaw rate:	0.870	Roll:	4.520	Pitch:	0.867	Yaw:	47.941	Thrust:	27.095
Time:	3.782	Roll Set Point:	-0.234	Pitch Set Point:	-0.122	Yaw Set Point:	-0.578	X_WP:	0.000	Y_WP:	0.000	Y_WP:	0.500	X:	0.099	Y:	0.096	Z:	0.399	yaw:	33.125	yaw rate:	-1.394	Roll:	4.525	Pitch:	0.911	Yaw:	47.570	Thrust:	25.926
Time:	3.798	Roll Set Point:	-0.234	Pitch Set Point:	-0.122	Yaw Set Point:	-0.579	X_WP:	0.000	Y_WP:	0.000	Y_WP:	0.500	X:	0.099	Y:	0.096	Z:	0.399	yaw:	33.172	yaw rate:	4.723	Roll:	4.509	Pitch:	0.748	Yaw:	48.671	Thrust:	26.145
Time:	3.813	Roll Set Point:	-0.234	Pitch Set Point:	-0.122	Yaw Set Point:	-0.579	X_WP:	0.000	Y_WP:	0.000	Y_WP:	0.500	X:	0.099	Y:	0.096	Z:	0.399	yaw:	33.149	yaw rate:	-2.328	Roll:	4.493	Pitch:	0.938	Yaw:	47.457	Thrust:	26.272
Time:	3.829	Roll Set Point:	-0.234	Pitch Set Point:	-0.122	Yaw Set Point:	-0.577	X_WP:	0.000	Y_WP:	0.000	Y_WP:	0.500	X:	0.099	Y:	0.096	Z:	0.399	yaw:	33.086	yaw rate:	-6.300	Roll:	4.509	Pitch:	0.974	Yaw:	46.704	Thrust:	26.661
Time:	3.844	Roll Set Point:	-0.234	Pitch Set Point:	-0.122	Yaw Set Point:	-0.577	X_WP:	0.000	Y_WP:	0.000	Y_WP:	0.500	X:	0.099	Y:	0.096	Z:	0.399	yaw:	33.086	yaw rate:	-6.300	Roll:	4.509	Pitch:	0.868	Yaw:	47.759	Thrust:	26.671
Time:	3.860	Roll Set Point:	-0.234	Pitch Set Point:	-0.121	Yaw Set Point:	-0.579	X_WP:	0.000	Y_WP:	0.000	Y_WP:	0.500	X:	0.099	Y:	0.096	Z:	0.399	yaw:	33.158	yaw rate:	4.947	Roll:	4.494	Pitch:	0.639	Yaw:	49.061	Thrust:	26.679
Time:	3.876	Roll Set Point:	-0.234	Pitch Set Point:	-0.122	Yaw Set Point:	-0.577	X_WP:	0.000	Y_WP:	0.000	Y_WP:	0.500	X:	0.099	Y:	0.096	Z:	0.399	yaw:	33.073	yaw rate:	-8.493	Roll:	4.494	Pitch:	1.080	Yaw:	46.318	Thrust:	27.222
Time:	3.891	Roll Set Point:	-0.234	Pitch Set Point:	-0.122	Yaw Set Point:	-0.578	X_WP:	0.000	Y_WP:	0.000	Y_WP:	0.500	X:	0.099	Y:	0.096	Z:	0.399	yaw:	33.127	yaw rate:	5.407	Roll:	4.502	Pitch:	0.819	Yaw:	48.722	Thrust:	27.043
Time:	3.907	Roll Set Point:	-0.234	Pitch Set Point:	-0.121	Yaw Set Point:	-0.579	X_WP:	0.000	Y_WP:	0.000	Y_WP:	0.500	X:	0.099	Y:	0.096	Z:	0.399	yaw:	33.161	yaw rate:	3.418	Roll:	4.507	Pitch:	0.733	Yaw:	48.437	Thrust:	27.448
Time:	3.923	Roll Set Point:	-0.234	Pitch Set Point:	-0.122	Yaw Set Point:	-0.579	X_WP:	0.000	Y_WP:	0.000	Y_WP:	0.500	X:	0.099	Y:	0.096	Z:	0.399	yaw:	33.162	yaw rate:	0.109	Roll:	4.507	Pitch:	0.880	Yaw:	47.887	Thrust:	27.735
Time:	3.938	Roll Set Point:	-0.234	Pitch Set Point:	-0.122	Yaw Set Point:	-0.578	X_WP:	0.000	Y_WP:	0.000	Y_WP:	0.500	X:	0.099	Y:	0.096	Z:	0.399	yaw:	33.125	yaw rate:	-3.668	Roll:	4.497	Pitch:	0.928	Yaw:	47.196	Thrust:	27.603
Time:	3.954	Roll Set Point:	-0.234	Pitch Set Point:	-0.122	Yaw Set Point:	-0.578	X_WP:	0.000	Y_WP:	0.000	Y_WP:	0.500	X:	0.099	Y:	0.096	Z:	0.399	yaw:	33.125	yaw rate:	-3.668	Roll:	4.508	Pitch:	0.872	Yaw:	47.815	Thrust:	27.999
Time:	3.969	Roll Set Point:	-0.234	Pitch Set Point:	-0.122	Yaw Set Point:	-0.577	X_WP:	0.000	Y_WP:	0.000	Y_WP:	0.500	X:	0.099	Y:	0.096	Z:	0.399	yaw:	33.070	yaw rate:	-5.539	Roll:	4.540	Pitch:	1.014	Yaw:	46.809	Thrust:	28.352
Time:	3.985	Roll Set Point:	-0.234	Pitch Set Point:	-0.122	Yaw Set Point:	-0.577	X_WP:	0.000	Y_WP:	0.000	Y_WP:	0.500	X:	0.099	Y:	0.096	Z:	0.399	yaw:	33.070	yaw rate:	-5.539	Roll:	4.509	Pitch:	0.877	Yaw:	47.737	Thrust:	28.381
Time:	4.001	Roll Set Point:	-0.234	Pitch Set Point:	-0.122	Yaw Set Point:	-0.578	X_WP:	0.000	Y_WP:	0.000	Y_WP:	0.500	X:	0.099	Y:	0.096	Z:	0.399	yaw:	33.139	yaw rate:	6.869	Roll:	4.488	Pitch:	0.707	Yaw:	48.984	Thrust:	28.513
Time:	4.016	Roll Set Point:	-0.234	Pitch Set Point:	-0.122	Yaw Set Point:	-0.578	X_WP:	0.000	Y_WP:	0.000	Y_WP:	0.500	X:	0.099	Y:	0.096	Z:	0.399	yaw:	33.130	yaw rate:	-0.905	Roll:	4.519	Pitch:	0.915	Yaw:	47.668	Thrust:	28.630
Time:	4.032	Roll Set Point:	-0.234	Pitch Set Point:	-0.122	Yaw Set Point:	-0.578	X_WP:	0.000	Y_WP:	0.000	Y_WP:	0.500	X:	0.099	Y:	0.096	Z:	0.399	yaw:	33.130	yaw rate:	-0.905	Roll:	4.508	Pitch:	0.877	Yaw:	47.821	Thrust:	28.949
Time:	4.048	Roll Set Point:	-0.234	Pitch Set Point:	-0.122	Yaw Set Point:	-0.578	X_WP:	0.000	Y_WP:	0.000	Y_WP:	0.500	X:	0.099	Y:	0.096	Z:	0.399	yaw:	33.110	yaw rate:	-1.940	Roll:	4.561	Pitch:	0.933	Yaw:	47.472	Thrust:	29.527
Time:	4.063	Roll Set Point:	-0.234	Pitch Set Point:	-0.121	Yaw Set Point:	-0.579	X_WP:	0.000	Y_WP:	0.000	Y_WP:	0.500	X:	0.099	Y:	0.096	Z:	0.399	yaw:	33.150	yaw rate:	3.984	Roll:	4.486	Pitch:	0.742	Yaw:	48.517	Thrust:	29.044
Time:	4.079	Roll Set Point:	-0.234	Pitch Set Point:	-0.122	Yaw Set Point:	-0.579	X_WP:	0.000	Y_WP:	0.000	Y_WP:	0.500	X:	0.099	Y:	0.096	Z:	0.399	yaw:	33.168	yaw rate:	1.792	Roll:	4.513	Pitch:	0.872	Yaw:	48.174	Thrust:	29.629
Time:	4.095	Roll Set Point:	-0.234	Pitch Set Point:	-0.122	Yaw Set Point:	-0.577	X_WP:	0.000	Y_WP:	0.000	Y_WP:	0.500	X:	0.099	Y:	0.096	Z:	0.399	yaw:	33.067	yaw rate:	-10.106	Roll:	4.500	Pitch:	1.122	Yaw:	46.033	Thrust:	29.748
Time:	4.110	Roll Set Point:	-0.234	Pitch Set Point:	-0.122	Yaw Set Point:	-0.578	X_WP:	0.000	Y_WP:	0.000	Y_WP:	0.500	X:	0.099	Y:	0.096	Z:	0.399	yaw:	33.128	yaw rate:	6.089	Roll:	4.489	Pitch:	0.744	Yaw:	48.839	Thrust:	29.660
Time:	4.126	Roll Set Point:	-0.234	Pitch Set Point:	-0.121	Yaw Set Point:	-0.579	X_WP:	0.000	Y_WP:	0.000	Y_WP:	0.500	X:	0.099	Y:	0.096	Z:	0.399	yaw:	33.190	yaw rate:	6.236	Roll:	4.511	Pitch:	0.736	Yaw:	48.950	Thrust:	30.399
Time:	4.141	Roll Set Point:	-0.234	Pitch Set Point:	-0.122	Yaw Set Point:	-0.578	X_WP:	0.000	Y_WP:	0.000	Y_WP:	0.500	X:	0.099	Y:	0.096	Z:	0.399	yaw:	33.143	yaw rate:	-4.734	Roll:	4.493	Pitch:	1.000	Yaw:	47.041	Thrust:	29.974
Time:	4.157	Roll Set Point:	-0.234	Pitch Set Point:	-0.122	Yaw Set Point:	-0.578	X_WP:	0.000	Y_WP:	0.000	Y_WP:	0.500	X:	0.099	Y:	0.096	Z:	0.399	yaw:	33.123	yaw rate:	-1.964	Roll:	4.528	Pitch:	0.894	Yaw:	47.482	Thrust:	30.363
Time:	4.173	Roll Set Point:	-0.234	Pitch Set Point:	-0.121	Yaw Set Point:	-0.579	X_WP:	0.000	Y_WP:	0.000	Y_WP:	0.500	X:	0.099	Y:	0.096	Z:	0.399	yaw:	33.177	yaw rate:	5.338	Roll:	4.528	Pitch:	0.766	Yaw:	48.781	Thrust:	30.920
Time:	4.188	Roll Set Point:	-0.234	Pitch Set Point:	-0.121	Yaw Set Point:	-0.579	X_WP:	0.000	Y_WP:	0.000	Y_WP:	0.500	X:	0.099	Y:	0.096	Z:	0.399	yaw:	33.177	yaw rate:	5.338	Roll:	4.509	Pitch:	0.884	Yaw:	47.886	Thrust:	30.851
Time:	4.204	Roll Set Point:	-0.234	Pitch Set Point:	-0.122	Yaw Set Point:	-0.578	X_WP:	0.000	Y_WP:	0.000	Y_WP:	0.500	X:	0.099	Y:	0.096	Z:	0.399	yaw:	33.126	yaw rate:	-3.185	Roll:	4.485	Pitch:	1.003	Yaw:	46.959	Thrust:	30.937
Time:	4.220	Roll Set Point:	-0.234	Pitch Set Point:	-0.122	Yaw Set Point:	-0.577	X_WP:	0.000	Y_WP:	0.000	Y_WP:	0.500	X:	0.099	Y:	0.096	Z:	0.399	yaw:	33.048	yaw rate:	-7.734	Roll:	4.507	Pitch:	1.048	Yaw:	46.411	Thrust:	31.362
Time:	4.235	Roll Set Point:	-0.234	Pitch Set Point:	-0.122	Yaw Set Point:	-0.577	X_WP:	0.000	Y_WP:	0.000	Y_WP:	0.500	X:	0.099	Y:	0.096	Z:	0.399	yaw:	33.048	yaw rate:	-7.734	Roll:	4.510	Pitch:	0.894	Yaw:	47.710	Thrust:	31.470
Time:	4.251	Roll Set Point:	-0.234	Pitch Set Point:	-0.122	Yaw Set Point:	-0.578	X_WP:	0.000	Y_WP:	0.000	Y_WP:	0.500	X:	0.099	Y:	0.096	Z:	0.399	yaw:	33.141	yaw rate:	9.243	Roll:	4.510	Pitch:	0.719	Yaw:	49.385	Thrust:	31.489
Time:	4.266	Roll Set Point:	-0.234	Pitch Set Point:	-0.122	Yaw Set Point:	-0.578	X_WP:	0.000	Y_WP:	0.000	Y_WP:	0.500	X:	0.099	Y:	0.096	Z:	0.399	yaw:	33.133	yaw rate:	1.044	Roll:	4.505	Pitch:	0.907	Yaw:	47.700	Thrust:	31.797
Time:	4.282	Roll Set Point:	-0.234	Pitch Set Point:	-0.122	Yaw Set Point:	-0.577	X_WP:	0.000	Y_WP:	0.000	Y_WP:	0.500	X:	0.099	Y:	0.096	Z:	0.399	yaw:	33.061	yaw rate:	-7.196	Roll:	4.522	Pitch:	1.013	Yaw:	46.514	Thrust:	31.994
Time:	4.298	Roll Set Point:	-0.234	Pitch Set Point:	-0.121	Yaw Set Point:	-0.579	X_WP:	0.000	Y_WP:	0.000	Y_WP:	0.500	X:	0.099	Y:	0.095	Z:	0.399	yaw:	33.155	yaw rate:	9.384	Roll:	4.273	Pitch:	0.632	Yaw:	49.428	Thrust:	31.700
Time:	4.313	Roll Set Point:	-0.234	Pitch Set Point:	-0.122	Yaw Set Point:	-0.579	X_WP:	0.000	Y_WP:	0.000	Y_WP:	0.500	X:	0.099	Y:	0.096	Z:	0.399	yaw:	33.146	yaw rate:	-0.921	Roll:	4.733	Pitch:	1.028	Yaw:	47.689	Thrust:	32.863
Time:	4.329	Roll Set Point:	-0.234	Pitch Set Point:	-0.122	Yaw Set Point:	-0.578	X_WP:	0.000	Y_WP:	0.000	Y_WP:	0.500	X:	0.099	Y:	0.096	Z:	0.399	yaw:	33.125	yaw rate:	-2.070	Roll:	4.491	Pitch:	0.920	Yaw:	47.464	Thrust:	32.456
Time:	4.345	Roll Set Point:	-0.234	Pitch Set Point:	-0.122	Yaw Set Point:	-0.578	X_WP:	0.000	Y_WP:	0.000	Y_WP:	0.500	X:	0.099	Y:	0.096	Z:	0.399	yaw:	33.105	yaw rate:	-2.018	Roll:	4.545	Pitch:	0.909	Yaw:	47.451	Thrust:	32.960
Time:	4.360	Roll Set Point:	-0.234	Pitch Set Point:	-0.122	Yaw Set Point:	-0.578	X_WP:	0.000	Y_WP:	0.000	Y_WP:	0.500	X:	0.099	Y:	0.096	Z:	0.399	yaw:	33.092	yaw rate:	-1.319	Roll:	4.477	Pitch:	0.963	Yaw:	47.543	Thrust:	32.848
Time:	4.376	Roll Set Point:	-0.234	Pitch Set Point:	-0.122	Yaw Set Point:	-0.578	X_WP:	0.000	Y_WP:	0.000	Y_WP:	0.500	X:	0.099	Y:	0.096	Z:	0.399	yaw:	33.092	yaw rate:	-1.319	Roll:	4.508	Pitch:	0.901	Yaw:	47.768	Thrust:	33.130
Time:	4.391	Roll Set Point:	-0.234	Pitch Set Point:	-0.121	Yaw Set Point:	-0.578	X_WP:	0.000	Y_WP:	0.000	Y_WP:	0.500	X:	0.099	Y:	0.096	Z:	0.399	yaw:	33.142	yaw rate:	-2.291	Roll:	4.515	Pitch:	0.751	Yaw:	48.680	Thrust:	33.081
Time:	4.407	Roll Set Point:	-0.234	Pitch Set Point:	-0.121	Yaw Set Point:	-0.579	X_WP:	0.000	Y_WP:	0.000	Y_WP:	0.500	X:	0.099	Y:	0.096	Z:	0.399	yaw:	33.161	yaw rate:	1.919	Roll:	4.514	Pitch:	0.867	Yaw:	48.186	Thrust:	33.659
Time:	4.423	Roll Set Point:	-0.234	Pitch Set Point:	-0.122	Yaw Set Point:	-0.577	X_WP:	0.000	Y_WP:	0.000	Y_WP:	0.500	X:	0.099	Y:	0.096	Z:	0.399	yaw:	33.042	yaw rate:	-11.891	Roll:	4.490	Pitch:	1.159	Yaw:	45.706	Thrust:	33.830
Time:	4.438	Roll Set Point:	-0.234	Pitch Set Point:	-0.122	Yaw Set Point:	-0.578	X_WP:	0.000	Y_WP:	0.000	Y_WP:	0.500	X:	0.099	Y:	0.096	Z:	0.399	yaw:	33.125	yaw rate:	8.241	Roll:	4.504	Pitch:	0.784	Yaw:	49.194	Thrust:	33.736
Time:	4.454	Roll Set Point:	-0.234	Pitch Set Point:	-0.122	Yaw Set Point:	-0.578	X_WP:	0.000	Y_WP:	0.000	Y_WP:	0.500	X:	0.099	Y:	0.096	Z:	0.399	yaw:	33.125	yaw rate:	8.241	Roll:	4.508	Pitch:	0.905	Yaw:	47.814	Thrust:	34.078
Time:	4.470	Roll Set Point:	-0.234	Pitch Set Point:	-0.122	Yaw Set Point:	-0.579	X_WP:	0.000	Y_WP:	0.000	Y_WP:	0.500	X:	0.099	Y:	0.096	Z:	0.399	yaw:	33.151	yaw rate:	-2.661	Roll:	4.539	Pitch:	0.821	Yaw:	48.282	Thrust:	34.300
Time:	4.485	Roll Set Point:	-0.234	Pitch Set Point:	-0.122	Yaw Set Point:	-0.577	X_WP:	0.000	Y_WP:	0.000	Y_WP:	0.500	X:	0.099	Y:	0.096	Z:	0.399	yaw:	33.084	yaw rate:	-6.672	Roll:	4.473	Pitch:	1.071	Yaw:	46.639	Thrust:	34.662
Time:	4.501	Roll Set Point:	-0.234	Pitch Set Point:	-0.122	Yaw Set Point:	-0.577	X_WP:	0.000	Y_WP:	0.000	Y_WP:	0.500	X:	0.099	Y:	0.096	Z:	0.399	yaw:	33.073	yaw rate:	-1.054	Roll:	4.505	Pitch:	0.898	Yaw:	47.565	Thrust:	34.610
Time:	4.516	Roll Set Point:	-0.234	Pitch Set Point:	-0.122	Yaw Set Point:	-0.579	X_WP:	0.000	Y_WP:	0.000	Y_WP:	0.500	X:	0.099	Y:	0.096	Z:	0.399	yaw:	33.163	yaw rate:	8.965	Roll:	4.534	Pitch:	0.763	Yaw:	49.369	Thrust:	34.857
Time:	4.532	Roll Set Point:	-0.234	Pitch Set Point:	-0.122	Yaw Set Point:	-0.578	X_WP:	0.000	Y_WP:	0.000	Y_WP:	0.500	X:	0.099	Y:	0.096	Z:	0.399	yaw:	33.129	yaw rate:	-3.358	Roll:	4.476	Pitch:	0.952	Yaw:	47.259	Thrust:	34.905
Time:	4.548	Roll Set Point:	-0.234	Pitch Set Point:	-0.122	Yaw Set Point:	-0.578	X_WP:	0.000	Y_WP:	0.000	Y_WP:	0.500	X:	0.099	Y:	0.096	Z:	0.399	yaw:	33.129	yaw rate:	-3.358	Roll:	4.508	Pitch:	0.910	Yaw:	47.821	Thrust:	35.232
Time:	4.563	Roll Set Point:	-0.234	Pitch Set Point:	-0.122	Yaw Set Point:	-0.578	X_WP:	0.000	Y_WP:	0.000	Y_WP:	0.500	X:	0.099	Y:	0.096	Z:	0.399	yaw:	33.116	yaw rate:	-1.305	Roll:	4.536	Pitch:	0.990	Yaw:	47.581	Thrust:	35.760
Time:	4.579	Roll Set Point:	-0.234	Pitch Set Point:	-0.122	Yaw Set Point:	-0.579	X_WP:	0.000	Y_WP:	0.000	Y_WP:	0.500	X:	0.099	Y:	0.096	Z:	0.399	yaw:	33.169	yaw rate:	-1.130	Roll:	4.521	Pitch:	0.764	Yaw:	48.749	Thrust:	35.224
Time:	4.595	Roll Set Point:	-0.234	Pitch Set Point:	-0.121	Yaw Set Point:	-0.578	X_WP:	0.000	Y_WP:	0.000	Y_WP:	0.500	X:	0.099	Y:	0.096	Z:	0.399	yaw:	33.142	yaw rate:	-2.638	Roll:	4.497	Pitch:	0.917	Yaw:	47.396	Thrust:	35.747
Time:	4.610	Roll Set Point:	-0.234	Pitch Set Point:	-0.122	Yaw Set Point:	-0.578	X_WP:	0.000	Y_WP:	0.000	Y_WP:	0.500	X:	0.099	Y:	0.096	Z:	0.399	yaw:	33.124	yaw rate:	-1.790	Roll:	4.489	Pitch:	0.957	Yaw:	47.513	Thrust:	35.939
Time:	4.626	Roll Set Point:	-0.234	Pitch Set Point:	-0.122	Yaw Set Point:	-0.578	X_WP:	0.000	Y_WP:	0.000	Y_WP:	0.500	X:	0.099	Y:	0.096	Z:	0.399	yaw:	33.114	yaw rate:	-1.013	Roll:	4.554	Pitch:	0.973	Yaw:	47.629	Thrust:	36.476
Time:	4.641	Roll Set Point:	-0.234	Pitch Set Point:	-0.122	Yaw Set Point:	-0.579	X_WP:	0.000	Y_WP:	0.000	Y_WP:	0.500	X:	0.099	Y:	0.096	Z:	0.399	yaw:	33.154	yaw rate:	3.951	Roll:	4.512	Pitch:	0.800	Yaw:	48.516	Thrust:	36.018
Time:	4.657	Roll Set Point:	-0.234	Pitch Set Point:	-0.122	Yaw Set Point:	-0.578	X_WP:	0.000	Y_WP:	0.000	Y_WP:	0.500	X:	0.099	Y:	0.096	Z:	0.399	yaw:	33.128	yaw rate:	-2.564	Roll:	4.470	Pitch:	0.981	Yaw:	47.388	Thrust:	36.691
Time:	4.673	Roll Set Point:	-0.234	Pitch Set Point:	-0.122	Yaw Set Point:	-0.578	X_WP:	0.000	Y_WP:	0.000	Y_WP:	0.500	X:	0.099	Y:	0.096	Z:	0.399	yaw:	33.128	yaw rate:	-2.564	Roll:	4.509	Pitch:	0.918	Yaw:	47.821	Thrust:	36.800
Time:	4.688	Roll Set Point:	-0.234	Pitch Set Point:	-0.122	Yaw Set Point:	-0.579	X_WP:	0.000	Y_WP:	0.000	Y_WP:	0.500	X:	0.099	Y:	0.096	Z:	0.399	yaw:	33.154	yaw rate:	0.206	Roll:	4.529	Pitch:	0.888	Yaw:	48.299	Thrust:	36.868
Time:	4.704	Roll Set Point:	-0.234	Pitch Set Point:	-0.122	Yaw Set Point:	-0.579	X_WP:	0.000	Y_WP:	0.000	Y_WP:	0.500	X:	0.099	Y:	0.096	Z:	0.399	yaw:	33.154	yaw rate:	0.206	Roll:	4.508	Pitch:	0.919	Yaw:	47.852	Thrust:	37.054
Time:	4.720	Roll Set Point:	-0.234	Pitch Set Point:	-0.122	Yaw Set Point:	-0.578	X_WP:	0.000	Y_WP:	0.000	Y_WP:	0.500	X:	0.099	Y:	0.096	Z:	0.399	yaw:	33.106	yaw rate:	3.859	Roll:	4.525	Pitch:	0.970	Yaw:	46.975	Thrust:	37.702
Time:	4.735	Roll Set Point:	-0.234	Pitch Set Point:	-0.121	Yaw Set Point:	-0.579	X_WP:	0.000	Y_WP:	0.000	Y_WP:	0.500	X:	0.099	Y:	0.096	Z:	0.399	yaw:	33.150	yaw rate:	4.416	Roll:	4.476	Pitch:	0.848	Yaw:	48.588	Thrust:	37.274
Time:	4.765	Roll Set Point:	-0.234	Pitch Set Point:	-0.122	Yaw Set Point:	-0.579	X_WP:	0.000	Y_WP:	0.000	Y_WP:	0.500	X:	0.099	Y:	0.096	Z:	0.399	yaw:	33.157	yaw rate:	0.730	Roll:	5.066	Pitch:	1.083	Yaw:	49.382	Thrust:	67.669
Time:	4.781	Roll Set Point:	-0.234	Pitch Set Point:	-0.122	Yaw Set Point:	-0.577	X_WP:	0.000	Y_WP:	0.000	Y_WP:	0.500	X:	0.099	Y:	0.096	Z:	0.399	yaw:	33.086	yaw rate:	-5.988	Roll:	4.520	Pitch:	1.038	Yaw:	46.580	Thrust:	38.236
Time:	4.797	Roll Set Point:	-0.234	Pitch Set Point:	-0.122	Yaw Set Point:	-0.579	X_WP:	0.000	Y_WP:	0.000	Y_WP:	0.500	X:	0.099	Y:	0.096	Z:	0.399	yaw:	33.160	yaw rate:	7.383	Roll:	4.483	Pitch:	0.818	Yaw:	49.099	Thrust:	37.778
Time:	4.812	Roll Set Point:	-0.234	Pitch Set Point:	-0.122	Yaw Set Point:	-0.578	X_WP:	0.000	Y_WP:	0.000	Y_WP:	0.500	X:	0.099	Y:	0.096	Z:	0.399	yaw:	33.136	yaw rate:	-2.452	Roll:	4.520	Pitch:	1.010	Yaw:	47.419	Thrust:	38.197
Time:	4.828	Roll Set Point:	-0.234	Pitch Set Point:	-0.122	Yaw Set Point:	-0.578	X_WP:	0.000	Y_WP:	0.000	Y_WP:	0.500	X:	0.099	Y:	0.096	Z:	0.399	yaw:	33.136	yaw rate:	-2.452	Roll:	4.509	Pitch:	0.928	Yaw:	47.829	Thrust:	38.445
Time:	4.844	Roll Set Point:	-0.234	Pitch Set Point:	-0.122	Yaw Set Point:	-0.578	X_WP:	0.000	Y_WP:	0.000	Y_WP:	0.500	X:	0.099	Y:	0.096	Z:	0.399	yaw:	33.136	yaw rate:	-1.299	Roll:	4.503	Pitch:	0.854	Yaw:	47.834	Thrust:	38.546
Time:	4.859	Roll Set Point:	-0.234	Pitch Set Point:	-0.122	Yaw Set Point:	-0.578	X_WP:	0.000	Y_WP:	0.000	Y_WP:	0.500	X:	0.099	Y:	0.096	Z:	0.399	yaw:	33.136	yaw rate:	-1.299	Roll:	4.510	Pitch:	0.929	Yaw:	47.833	Thrust:	38.903
Time:	4.875	Roll Set Point:	-0.234	Pitch Set Point:	-0.122	Yaw Set Point:	-0.578	X_WP:	0.000	Y_WP:	0.000	Y_WP:	0.500	X:	0.099	Y:	0.096	Z:	0.399	yaw:	33.128	yaw rate:	-0.828	Roll:	4.493	Pitch:	0.970	Yaw:	47.675	Thrust:	39.062
Time:	4.891	Roll Set Point:	-0.234	Pitch Set Point:	-0.122	Yaw Set Point:	-0.578	X_WP:	0.000	Y_WP:	0.000	Y_WP:	0.500	X:	0.099	Y:	0.096	Z:	0.399	yaw:	33.128	yaw rate:	-0.828	Roll:	4.510	Pitch:	0.932	Yaw:	47.822	Thrust:	39.297
Time:	4.906	Roll Set Point:	-0.234	Pitch Set Point:	-0.122	Yaw Set Point:	-0.578	X_WP:	0.000	Y_WP:	0.000	Y_WP:	0.500	X:	0.099	Y:	0.096	Z:	0.399	yaw:	33.133	yaw rate:	5.709	Roll:	4.533	Pitch:	0.916	Yaw:	47.911	Thrust:	39.230
Time:	4.922	Roll Set Point:	-0.234	Pitch Set Point:	-0.122	Yaw Set Point:	-0.578	X_WP:	0.000	Y_WP:	0.000	Y_WP:	0.500	X:	0.099	Y:	0.096	Z:	0.399	yaw:	33.136	yaw rate:	0.340	Roll:	4.507	Pitch:	0.935	Yaw:	47.890	Thrust:	39.631
Time:	4.937	Roll Set Point:	-0.234	Pitch Set Point:	-0.122	Yaw Set Point:	-0.578	X_WP:	0.000	Y_WP:	0.000	Y_WP:	0.500	X:	0.099	Y:	0.096	Z:	0.399	yaw:	33.093	yaw rate:	-4.329	Roll:	4.475	Pitch:	0.998	Yaw:	47.045	Thrust:	39.622
Time:	4.953	Roll Set Point:	-0.234	Pitch Set Point:	-0.122	Yaw Set Point:	-0.578	X_WP:	0.000	Y_WP:	0.000	Y_WP:	0.500	X:	0.099	Y:	0.096	Z:	0.399	yaw:	33.093	yaw rate:	-4.329	Roll:	4.507	Pitch:	0.936	Yaw:	47.766	Thrust:	39.893
Time:	4.969	Roll Set Point:	-0.234	Pitch Set Point:	-0.122	Yaw Set Point:	-0.579	X_WP:	0.000	Y_WP:	0.000	Y_WP:	0.500	X:	0.099	Y:	0.096	Z:	0.399	yaw:	33.152	yaw rate:	9.173	Roll:	4.527	Pitch:	0.874	Yaw:	48.835	Thrust:	40.320
Time:	4.984	Roll Set Point:	-0.234	Pitch Set Point:	-0.122	Yaw Set Point:	-0.578	X_WP:	0.000	Y_WP:	0.000	Y_WP:	0.500	X:	0.099	Y:	0.096	Z:	0.399	yaw:	33.140	yaw rate:	-1.187	Roll:	4.500	Pitch:	0.959	Yaw:	47.636	Thrust:	40.426
Time:	5.000	Roll Set Point:	-0.234	Pitch Set Point:	-0.122	Yaw Set Point:	-0.578	X_WP:	0.000	Y_WP:	0.000	Y_WP:	0.500	X:	0.099	Y:	0.096	Z:	0.399	yaw:	33.140	yaw rate:	-1.187	Roll:	4.509	Pitch:	0.939	Yaw:	47.838	Thrust:	40.612
Time:	5.015	Roll Set Point:	-0.234	Pitch Set Point:	-0.122	Yaw Set Point:	-0.579	X_WP:	0.000	Y_WP:	0.000	Y_WP:	0.500	X:	0.099	Y:	0.096	Z:	0.399	yaw:	33.148	yaw rate:	0.830	Roll:	4.534	Pitch:	0.949	Yaw:	47.983	Thrust:	40.731
Time:	5.031	Roll Set Point:	-0.234	Pitch Set Point:	-0.122	Yaw Set Point:	-0.579	X_WP:	0.000	Y_WP:	0.000	Y_WP:	0.500	X:	0.099	Y:	0.096	Z:	0.399	yaw:	33.156	yaw rate:	9.652	Roll:	4.494	Pitch:	0.929	Yaw:	47.978	Thrust:	40.978
Time:	5.047	Roll Set Point:	-0.234	Pitch Set Point:	-0.122	Yaw Set Point:	-0.577	X_WP:	0.000	Y_WP:	0.000	Y_WP:	0.500	X:	0.099	Y:	0.096	Z:	0.399	yaw:	33.065	yaw rate:	-9.069	Roll:	4.514	Pitch:	1.022	Yaw:	46.211	Thrust:	41.152
Time:	5.062	Roll Set Point:	-0.234	Pitch Set Point:	-0.122	Yaw Set Point:	-0.579	X_WP:	0.000	Y_WP:	0.000	Y_WP:	0.500	X:	0.099	Y:	0.096	Z:	0.399	yaw:	33.147	yaw rate:	8.224	Roll:	4.488	Pitch:	0.939	Yaw:	49.223	Thrust:	41.163
Time:	5.078	Roll Set Point:	-0.234	Pitch Set Point:	-0.122	Yaw Set Point:	-0.579	X_WP:	0.000	Y_WP:	0.000	Y_WP:	0.500	X:	0.099	Y:	0.096	Z:	0.399	yaw:	33.147	yaw rate:	8.224	Roll:	4.508	Pitch:	0.946	Yaw:	47.845	Thrust:	41.490
Time:	5.094	Roll Set Point:	-0.234	Pitch Set Point:	-0.122	Yaw Set Point:	-0.577	X_WP:	0.000	Y_WP:	0.000	Y_WP:	0.500	X:	0.099	Y:	0.096	Z:	0.399	yaw:	33.056	yaw rate:	-9.138	Roll:	4.518	Pitch:	1.055	Yaw:	46.186	Thrust:	41.788
Time:	5.109	Roll Set Point:	-0.234	Pitch Set Point:	-0.121	Yaw Set Point:	-0.578	X_WP:	0.000	Y_WP:	0.000	Y_WP:	0.500	X:	0.099	Y:	0.096	Z:	0.399	yaw:	33.127	yaw rate:	-2.123	Roll:	4.504	Pitch:	0.726	Yaw:	49.012	Thrust:	41.616
Time:	5.125	Roll Set Point:	-0.234	Pitch Set Point:	-0.122	Yaw Set Point:	-0.578	X_WP:	0.000	Y_WP:	0.000	Y_WP:	0.500	X:	0.099	Y:	0.096	Z:	0.399	yaw:	33.117	yaw rate:	-0.992	Roll:	4.534	Pitch:	1.076	Yaw:	47.637	Thrust:	42.147
Time:	5.141	Roll Set Point:	-0.234	Pitch Set Point:	-0.122	Yaw Set Point:	-0.579	X_WP:	0.000	Y_WP:	0.000	Y_WP:	0.500	X:	0.099	Y:	0.096	Z:	0.399	yaw:	33.153	yaw rate:	3.538	Roll:	4.533	Pitch:	0.872	Yaw:	48.445	Thrust:	42.295
Time:	5.156	Roll Set Point:	-0.234	Pitch Set Point:	-0.122	Yaw Set Point:	-0.577	X_WP:	0.000	Y_WP:	0.000	Y_WP:	0.500	X:	0.099	Y:	0.096	Z:	0.399	yaw:	33.060	yaw rate:	-9.276	Roll:	4.461	Pitch:	1.120	Yaw:	46.168	Thrust:	42.701
Time:	5.172	Roll Set Point:	-0.234	Pitch Set Point:	-0.122	Yaw Set Point:	-0.579	X_WP:	0.000	Y_WP:	0.000	Y_WP:	0.500	X:	0.099	Y:	0.096	Z:	0.399	yaw:	33.149	yaw rate:	8.880	Roll:	4.504	Pitch:	0.769	Yaw:	49.335	Thrust:	42.397
Time:	5.187	Roll Set Point:	-0.234	Pitch Set Point:	-0.122	Yaw Set Point:	-0.579	X_WP:	0.000	Y_WP:	0.000	Y_WP:	0.500	X:	0.099	Y:	0.096	Z:	0.399	yaw:	33.147	yaw rate:	-0.145	Roll:	4.555	Pitch:	0.899	Yaw:	47.821	Thrust:	42.779
Time:	5.203	Roll Set Point:	-0.234	Pitch Set Point:	-0.122	Yaw Set Point:	-0.577	X_WP:	0.000	Y_WP:	0.000	Y_WP:	0.500	X:	0.099	Y:	0.096	Z:	0.399	yaw:	33.079	yaw rate:	-6.791	Roll:	4.516	Pitch:	1.136	Yaw:	46.612	Thrust:	43.216
Time:	5.219	Roll Set Point:	-0.234	Pitch Set Point:	-0.122	Yaw Set Point:	-0.579	X_WP:	0.000	Y_WP:	0.000	Y_WP:	0.500	X:	0.099	Y:	0.096	Z:	0.399	yaw:	33.148	yaw rate:	6.892	Roll:	4.493	Pitch:	0.781	Yaw:	49.001	Thrust:	42.968
Time:	5.234	Roll Set Point:	-0.234	Pitch Set Point:	-0.122	Yaw Set Point:	-0.579	X_WP:	0.000	Y_WP:	0.000	Y_WP:	0.500	X:	0.099	Y:	0.096	Z:	0.399	yaw:	33.172	yaw rate:	2.376	Roll:	4.490	Pitch:	0.910	Yaw:	48.277	Thrust:	43.522
Time:	5.250	Roll Set Point:	-0.234	Pitch Set Point:	-0.122	Yaw Set Point:	-0.579	X_WP:	0.000	Y_WP:	0.000	Y_WP:	0.500	X:	0.099	Y:	0.096	Z:	0.399	yaw:	33.146	yaw rate:	-2.552	Roll:	4.518	Pitch:	0.989	Yaw:	47.416	Thrust:	43.411
Time:	5.266	Roll Set Point:	-0.234	Pitch Set Point:	-0.122	Yaw Set Point:	-0.579	X_WP:	0.000	Y_WP:	0.000	Y_WP:	0.500	X:	0.099	Y:	0.096	Z:	0.399	yaw:	33.146	yaw rate:	-2.552	Roll:	4.509	Pitch:	0.955	Yaw:	47.844	Thrust:	43.767
Time:	5.281	Roll Set Point:	-0.234	Pitch Set Point:	-0.122	Yaw Set Point:	-0.579	X_WP:	0.000	Y_WP:	0.000	Y_WP:	0.500	X:	0.099	Y:	0.096	Z:	0.399	yaw:	33.187	yaw rate:	3.225	Roll:	4.531	Pitch:	0.917	Yaw:	48.584	Thrust:	44.182
Time:	5.297	Roll Set Point:	-0.234	Pitch Set Point:	-0.122	Yaw Set Point:	-0.578	X_WP:	0.000	Y_WP:	0.000	Y_WP:	0.500	X:	0.099	Y:	0.096	Z:	0.399	yaw:	33.133	yaw rate:	-5.416	Roll:	4.465	Pitch:	1.045	Yaw:	46.918	Thrust:	44.030
Time:	5.312	Roll Set Point:	-0.234	Pitch Set Point:	-0.122	Yaw Set Point:	-0.578	X_WP:	0.000	Y_WP:	0.000	Y_WP:	0.500	X:	0.099	Y:	0.096	Z:	0.399	yaw:	33.133	yaw rate:	-5.416	Roll:	4.508	Pitch:	0.959	Yaw:	47.825	Thrust:	44.340
Time:	5.328	Roll Set Point:	-0.234	Pitch Set Point:	-0.122	Yaw Set Point:	-0.578	X_WP:	0.000	Y_WP:	0.000	Y_WP:	0.500	X:	0.099	Y:	0.096	Z:	0.399	yaw:	33.118	yaw rate:	-3.270	Roll:	4.510	Pitch:	0.991	Yaw:	47.560	Thrust:	44.384
Time:	5.344	Roll Set Point:	-0.234	Pitch Set Point:	-0.122	Yaw Set Point:	-0.578	X_WP:	0.000	Y_WP:	0.000	Y_WP:	0.500	X:	0.099	Y:	0.096	Z:	0.399	yaw:	33.134	yaw rate:	1.527	Roll:	4.507	Pitch:	0.897	Yaw:	48.082	Thrust:	44.879
Time:	5.359	Roll Set Point:	-0.234	Pitch Set Point:	-0.122	Yaw Set Point:	-0.579	X_WP:	0.000	Y_WP:	0.000	Y_WP:	0.500	X:	0.099	Y:	0.096	Z:	0.399	yaw:	33.147	yaw rate:	1.363	Roll:	4.520	Pitch:	0.962	Yaw:	48.073	Thrust:	44.981
Time:	5.375	Roll Set Point:	-0.234	Pitch Set Point:	-0.122	Yaw Set Point:	-0.579	X_WP:	0.000	Y_WP:	0.000	Y_WP:	0.500	X:	0.099	Y:	0.096	Z:	0.399	yaw:	33.147	yaw rate:	1.363	Roll:	4.509	Pitch:	0.962	Yaw:	47.845	Thrust:	45.103
Time:	5.391	Roll Set Point:	-0.234	Pitch Set Point:	-0.122	Yaw Set Point:	-0.578	X_WP:	0.000	Y_WP:	0.000	Y_WP:	0.500	X:	0.099	Y:	0.096	Z:	0.399	yaw:	33.136	yaw rate:	-1.174	Roll:	4.510	Pitch:	1.006	Yaw:	47.632	Thrust:	45.211
Time:	5.406	Roll Set Point:	-0.234	Pitch Set Point:	-0.122	Yaw Set Point:	-0.578	X_WP:	0.000	Y_WP:	0.000	Y_WP:	0.500	X:	0.099	Y:	0.096	Z:	0.399	yaw:	33.119	yaw rate:	-3.200	Roll:	4.501	Pitch:	1.005	Yaw:	47.540	Thrust:	45.458
Time:	5.422	Roll Set Point:	-0.234	Pitch Set Point:	-0.122	Yaw Set Point:	-0.579	X_WP:	0.000	Y_WP:	0.000	Y_WP:	0.500	X:	0.099	Y:	0.096	Z:	0.399	yaw:	33.165	yaw rate:	4.520	Roll:	4.511	Pitch:	0.850	Yaw:	48.625	Thrust:	45.787
Time:	5.437	Roll Set Point:	-0.234	Pitch Set Point:	-0.122	Yaw Set Point:	-0.579	X_WP:	0.000	Y_WP:	0.000	Y_WP:	0.500	X:	0.099	Y:	0.096	Z:	0.399	yaw:	33.165	yaw rate:	4.520	Roll:	4.510	Pitch:	0.966	Yaw:	47.872	Thrust:	45.941
Time:	5.453	Roll Set Point:	-0.234	Pitch Set Point:	-0.122	Yaw Set Point:	-0.579	X_WP:	0.000	Y_WP:	0.000	Y_WP:	0.500	X:	0.099	Y:	0.096	Z:	0.399	yaw:	33.161	yaw rate:	-1.032	Roll:	4.538	Pitch:	0.989	Yaw:	47.798	Thrust:	45.886
Time:	5.469	Roll Set Point:	-0.234	Pitch Set Point:	-0.122	Yaw Set Point:	-0.579	X_WP:	0.000	Y_WP:	0.000	Y_WP:	0.500	X:	0.099	Y:	0.096	Z:	0.399	yaw:	33.161	yaw rate:	-1.032	Roll:	4.511	Pitch:	0.968	Yaw:	47.867	Thrust:	46.323
Time:	5.484	Roll Set Point:	-0.234	Pitch Set Point:	-0.122	Yaw Set Point:	-0.579	X_WP:	0.000	Y_WP:	0.000	Y_WP:	0.500	X:	0.099	Y:	0.096	Z:	0.399	yaw:	33.147	yaw rate:	-1.339	Roll:	4.468	Pitch:	1.035	Yaw:	47.617	Thrust:	46.488
Time:	5.500	Roll Set Point:	-0.234	Pitch Set Point:	-0.122	Yaw Set Point:	-0.579	X_WP:	0.000	Y_WP:	0.000	Y_WP:	0.500	X:	0.099	Y:	0.096	Z:	0.399	yaw:	33.147	yaw rate:	-1.339	Roll:	4.508	Pitch:	0.972	Yaw:	47.845	Thrust:	46.622
Time:	5.516	Roll Set Point:	-0.234	Pitch Set Point:	-0.122	Yaw Set Point:	-0.578	X_WP:	0.000	Y_WP:	0.000	Y_WP:	0.500	X:	0.099	Y:	0.096	Z:	0.399	yaw:	33.133	yaw rate:	-0.234	Roll:	4.517	Pitch:	0.980	Yaw:	47.585	Thrust:	46.648
Time:	5.531	Roll Set Point:	-0.234	Pitch Set Point:	-0.122	Yaw Set Point:	-0.579	X_WP:	0.000	Y_WP:	0.000	Y_WP:	0.500	X:	0.099	Y:	0.096	Z:	0.399	yaw:	33.161	yaw rate:	2.755	Roll:	4.516	Pitch:	0.922	Yaw:	48.325	Thrust:	47.128
Time:	5.547	Roll Set Point:	-0.234	Pitch Set Point:	-0.122	Yaw Set Point:	-0.579	X_WP:	0.000	Y_WP:	0.000	Y_WP:	0.500	X:	0.099	Y:	0.096	Z:	0.399	yaw:	33.166	yaw rate:	0.570	Roll:	4.496	Pitch:	0.984	Yaw:	47.967	Thrust:	47.360
Time:	5.562	Roll Set Point:	-0.234	Pitch Set Point:	-0.122	Yaw Set Point:	-0.578	X_WP:	0.000	Y_WP:	0.000	Y_WP:	0.500	X:	0.099	Y:	0.096	Z:	0.399	yaw:	33.114	yaw rate:	-5.269	Roll:	4.485	Pitch:	1.059	Yaw:	46.910	Thrust:	47.077
Time:	5.578	Roll Set Point:	-0.234	Pitch Set Point:	-0.122	Yaw Set Point:	-0.578	X_WP:	0.000	Y_WP:	0.000	Y_WP:	0.500	X:	0.099	Y:	0.096	Z:	0.399	yaw:	33.114	yaw rate:	-5.269	Roll:	4.509	Pitch:	0.978	Yaw:	47.801	Thrust:	47.649
Time:	5.594	Roll Set Point:	-0.234	Pitch Set Point:	-0.122	Yaw Set Point:	-0.578	X_WP:	0.000	Y_WP:	0.000	Y_WP:	0.500	X:	0.099	Y:	0.096	Z:	0.399	yaw:	33.135	yaw rate:	0.807	Roll:	4.549	Pitch:	0.893	Yaw:	48.192	Thrust:	47.708
Time:	5.609	Roll Set Point:	-0.234	Pitch Set Point:	-0.122	Yaw Set Point:	-0.578	X_WP:	0.000	Y_WP:	0.000	Y_WP:	0.500	X:	0.099	Y:	0.096	Z:	0.399	yaw:	33.142	yaw rate:	0.641	Roll:	4.489	Pitch:	0.959	Yaw:	47.945	Thrust:	47.986
Time:	5.625	Roll Set Point:	-0.234	Pitch Set Point:	-0.122	Yaw Set Point:	-0.579	X_WP:	0.000	Y_WP:	0.000	Y_WP:	0.500	X:	0.099	Y:	0.096	Z:	0.399	yaw:	33.163	yaw rate:	2.134	Roll:	4.532	Pitch:	0.961	Yaw:	48.224	Thrust:	48.336
Time:	5.641	Roll Set Point:	-0.234	Pitch Set Point:	-0.122	Yaw Set Point:	-0.579	X_WP:	0.000	Y_WP:	0.000	Y_WP:	0.500	X:	0.099	Y:	0.096	Z:	0.399	yaw:	33.163	yaw rate:	2.134	Roll:	4.508	Pitch:	0.978	Yaw:	47.864	Thrust:	48.252
Time:	5.656	Roll Set Point:	-0.234	Pitch Set Point:	-0.122	Yaw Set Point:	-0.578	X_WP:	0.000	Y_WP:	0.000	Y_WP:	0.500	X:	0.099	Y:	0.096	Z:	0.399	yaw:	33.121	yaw rate:	7.454	Roll:	4.491	Pitch:	1.054	Yaw:	47.112	Thrust:	48.293
Time:	5.672	Roll Set Point:	-0.234	Pitch Set Point:	-0.122	Yaw Set Point:	-0.578	X_WP:	0.000	Y_WP:	0.000	Y_WP:	0.500	X:	0.099	Y:	0.096	Z:	0.399	yaw:	33.132	yaw rate:	1.067	Roll:	4.498	Pitch:	0.958	Yaw:	48.003	Thrust:	48.692
Time:	5.687	Roll Set Point:	-0.234	Pitch Set Point:	-0.122	Yaw Set Point:	-0.578	X_WP:	0.000	Y_WP:	0.000	Y_WP:	0.500	X:	0.099	Y:	0.096	Z:	0.399	yaw:	33.145	yaw rate:	1.279	Roll:	4.523	Pitch:	0.961	Yaw:	48.056	Thrust:	48.939
Time:	5.703	Roll Set Point:	-0.234	Pitch Set Point:	-0.122	Yaw Set Point:	-0.578	X_WP:	0.000	Y_WP:	0.000	Y_WP:	0.500	X:	0.099	Y:	0.096	Z:	0.399	yaw:	33.139	yaw rate:	-0.607	Roll:	4.505	Pitch:	1.055	Yaw:	47.732	Thrust:	49.308
Time:	5.719	Roll Set Point:	-0.234	Pitch Set Point:	-0.122	Yaw Set Point:	-0.578	X_WP:	0.000	Y_WP:	0.000	Y_WP:	0.500	X:	0.099	Y:	0.096	Z:	0.399	yaw:	33.139	yaw rate:	-0.607	Roll:	4.508	Pitch:	0.986	Yaw:	47.833	Thrust:	49.279
Time:	5.734	Roll Set Point:	-0.234	Pitch Set Point:	-0.122	Yaw Set Point:	-0.579	X_WP:	0.000	Y_WP:	0.000	Y_WP:	0.500	X:	0.099	Y:	0.096	Z:	0.399	yaw:	33.158	yaw rate:	1.583	Roll:	4.516	Pitch:	0.919	Yaw:	48.189	Thrust:	49.502
Time:	5.766	Roll Set Point:	-0.234	Pitch Set Point:	-0.122	Yaw Set Point:	-0.579	X_WP:	0.000	Y_WP:	0.000	Y_WP:	0.500	X:	0.099	Y:	0.096	Z:	0.399	yaw:	33.148	yaw rate:	-1.024	Roll:	5.107	Pitch:	1.234	Yaw:	49.355	Thrust:	94.553
Time:	5.782	Roll Set Point:	-0.234	Pitch Set Point:	-0.122	Yaw Set Point:	-0.579	X_WP:	0.000	Y_WP:	0.000	Y_WP:	0.500	X:	0.099	Y:	0.096	Z:	0.399	yaw:	33.154	yaw rate:	0.551	Roll:	4.496	Pitch:	0.975	Yaw:	47.946	Thrust:	49.806
Time:	5.797	Roll Set Point:	-0.234	Pitch Set Point:	-0.122	Yaw Set Point:	-0.579	X_WP:	0.000	Y_WP:	0.000	Y_WP:	0.500	X:	0.099	Y:	0.096	Z:	0.399	yaw:	33.154	yaw rate:	0.551	Roll:	4.508	Pitch:	0.989	Yaw:	47.854	Thrust:	50.041
Time:	5.813	Roll Set Point:	-0.234	Pitch Set Point:	-0.122	Yaw Set Point:	-0.579	X_WP:	0.000	Y_WP:	0.000	Y_WP:	0.500	X:	0.099	Y:	0.096	Z:	0.399	yaw:	33.156	yaw rate:	0.282	Roll:	4.510	Pitch:	1.016	Yaw:	47.905	Thrust:	50.316
Time:	5.828	Roll Set Point:	-0.234	Pitch Set Point:	-0.122	Yaw Set Point:	-0.579	X_WP:	0.000	Y_WP:	0.000	Y_WP:	0.500	X:	0.099	Y:	0.096	Z:	0.399	yaw:	33.156	yaw rate:	0.282	Roll:	4.508	Pitch:	0.991	Yaw:	47.858	Thrust:	50.420
Time:	5.844	Roll Set Point:	-0.234	Pitch Set Point:	-0.122	Yaw Set Point:	-0.578	X_WP:	0.000	Y_WP:	0.000	Y_WP:	0.500	X:	0.099	Y:	0.096	Z:	0.399	yaw:	33.137	yaw rate:	-2.057	Roll:	4.487	Pitch:	1.031	Yaw:	47.497	Thrust:	50.563
Time:	5.860	Roll Set Point:	-0.234	Pitch Set Point:	-0.122	Yaw Set Point:	-0.578	X_WP:	0.000	Y_WP:	0.000	Y_WP:	0.500	X:	0.099	Y:	0.096	Z:	0.399	yaw:	33.121	yaw rate:	-1.571	Roll:	4.498	Pitch:	0.976	Yaw:	47.545	Thrust:	50.661
Time:	5.875	Roll Set Point:	-0.234	Pitch Set Point:	-0.122	Yaw Set Point:	-0.578	X_WP:	0.000	Y_WP:	0.000	Y_WP:	0.500	X:	0.099	Y:	0.096	Z:	0.399	yaw:	33.121	yaw rate:	-1.571	Roll:	4.508	Pitch:	0.995	Yaw:	47.809	Thrust:	51.013
Time:	5.891	Roll Set Point:	-0.234	Pitch Set Point:	-0.122	Yaw Set Point:	-0.578	X_WP:	0.000	Y_WP:	0.000	Y_WP:	0.500	X:	0.099	Y:	0.096	Z:	0.399	yaw:	33.113	yaw rate:	-0.804	Roll:	4.517	Pitch:	1.052	Yaw:	47.663	Thrust:	51.236
Time:	5.907	Roll Set Point:	-0.234	Pitch Set Point:	-0.122	Yaw Set Point:	-0.579	X_WP:	0.000	Y_WP:	0.000	Y_WP:	0.500	X:	0.099	Y:	0.096	Z:	0.399	yaw:	33.162	yaw rate:	2.026	Roll:	4.522	Pitch:	0.893	Yaw:	48.683	Thrust:	51.332
Time:	5.922	Roll Set Point:	-0.234	Pitch Set Point:	-0.122	Yaw Set Point:	-0.578	X_WP:	0.000	Y_WP:	0.000	Y_WP:	0.500	X:	0.099	Y:	0.096	Z:	0.399	yaw:	33.137	yaw rate:	-2.458	Roll:	4.502	Pitch:	1.029	Yaw:	47.418	Thrust:	51.498
Time:	5.938	Roll Set Point:	-0.234	Pitch Set Point:	-0.122	Yaw Set Point:	-0.578	X_WP:	0.000	Y_WP:	0.000	Y_WP:	0.500	X:	0.099	Y:	0.096	Z:	0.399	yaw:	33.135	yaw rate:	-0.249	Roll:	4.504	Pitch:	1.037	Yaw:	47.786	Thrust:	51.906
Time:	5.953	Roll Set Point:	-0.234	Pitch Set Point:	-0.122	Yaw Set Point:	-0.579	X_WP:	0.000	Y_WP:	0.000	Y_WP:	0.500	X:	0.099	Y:	0.096	Z:	0.399	yaw:	33.149	yaw rate:	1.459	Roll:	4.530	Pitch:	0.947	Yaw:	48.092	Thrust:	52.003
Time:	5.969	Roll Set Point:	-0.234	Pitch Set Point:	-0.121	Yaw Set Point:	-0.579	X_WP:	0.000	Y_WP:	0.000	Y_WP:	0.500	X:	0.099	Y:	0.096	Z:	0.399	yaw:	33.185	yaw rate:	3.624	Roll:	4.529	Pitch:	0.874	Yaw:	48.505	Thrust:	52.089
Time:	5.985	Roll Set Point:	-0.234	Pitch Set Point:	-0.122	Yaw Set Point:	-0.579	X_WP:	0.000	Y_WP:	0.000	Y_WP:	0.500	X:	0.099	Y:	0.096	Z:	0.399	yaw:	33.157	yaw rate:	-2.818	Roll:	4.487	Pitch:	1.094	Yaw:	47.387	Thrust:	52.273
Time:	6.000	Roll Set Point:	-0.081	Pitch Set Point:	-0.036	Yaw Set Point:	-0.579	X_WP:	0.082	Y_WP:	0.156	Y_WP:	0.500	X:	0.099	Y:	0.096	Z:	0.399	yaw:	33.147	yaw rate:	-0.992	Roll:	-30.000	Pitch:	-30.000	Yaw:	47.679	Thrust:	52.496
Time:	6.016	Roll Set Point:	-0.081	Pitch Set Point:	-0.036	Yaw Set Point:	-0.579	X_WP:	0.082	Y_WP:	0.156	Y_WP:	0.500	X:	0.099	Y:	0.096	Z:	0.399	yaw:	33.147	yaw rate:	-0.992	Roll:	0.061	Pitch:	-1.483	Yaw:	47.845	Thrust:	52.699
Time:	6.032	Roll Set Point:	-0.081	Pitch Set Point:	-0.036	Yaw Set Point:	-0.578	X_WP:	0.082	Y_WP:	0.156	Y_WP:	0.500	X:	0.099	Y:	0.096	Z:	0.399	yaw:	33.143	yaw rate:	-0.461	Roll:	0.074	Pitch:	-1.489	Yaw:	47.761	Thrust:	53.009
Time:	6.047	Roll Set Point:	-0.081	Pitch Set Point:	-0.036	Yaw Set Point:	-0.578	X_WP:	0.082	Y_WP:	0.156	Y_WP:	0.500	X:	0.099	Y:	0.096	Z:	0.399	yaw:	33.133	yaw rate:	-1.011	Roll:	0.048	Pitch:	-1.482	Yaw:	47.655	Thrust:	52.986
Time:	6.063	Roll Set Point:	-0.081	Pitch Set Point:	-0.036	Yaw Set Point:	-0.578	X_WP:	0.082	Y_WP:	0.156	Y_WP:	0.500	X:	0.099	Y:	0.096	Z:	0.399	yaw:	33.133	yaw rate:	-1.011	Roll:	0.059	Pitch:	-1.490	Yaw:	47.825	Thrust:	53.277
Time:	6.078	Roll Set Point:	-0.081	Pitch Set Point:	-0.036	Yaw Set Point:	-0.579	X_WP:	0.082	Y_WP:	0.156	Y_WP:	0.500	X:	0.099	Y:	0.096	Z:	0.399	yaw:	33.155	yaw rate:	9.973	Roll:	0.043	Pitch:	-1.481	Yaw:	48.237	Thrust:	53.523
Time:	6.094	Roll Set Point:	-0.081	Pitch Set Point:	-0.036	Yaw Set Point:	-0.579	X_WP:	0.082	Y_WP:	0.156	Y_WP:	0.500	X:	0.099	Y:	0.096	Z:	0.399	yaw:	33.155	yaw rate:	9.973	Roll:	0.058	Pitch:	-1.494	Yaw:	47.858	Thrust:	53.698
Time:	6.110	Roll Set Point:	-0.081	Pitch Set Point:	-0.036	Yaw Set Point:	-0.579	X_WP:	0.082	Y_WP:	0.156	Y_WP:	0.500	X:	0.099	Y:	0.096	Z:	0.399	yaw:	33.153	yaw rate:	0.967	Roll:	0.048	Pitch:	-1.505	Yaw:	47.805	Thrust:	53.787
Time:	6.125	Roll Set Point:	-0.081	Pitch Set Point:	-0.036	Yaw Set Point:	-0.579	X_WP:	0.082	Y_WP:	0.156	Y_WP:	0.500	X:	0.099	Y:	0.096	Z:	0.399	yaw:	33.152	yaw rate:	-0.031	Roll:	0.067	Pitch:	-1.503	Yaw:	47.847	Thrust:	54.077
Time:	6.141	Roll Set Point:	-0.081	Pitch Set Point:	-0.036	Yaw Set Point:	-0.579	X_WP:	0.082	Y_WP:	0.156	Y_WP:	0.500	X:	0.099	Y:	0.096	Z:	0.399	yaw:	33.152	yaw rate:	-0.031	Roll:	0.055	Pitch:	-1.502	Yaw:	47.852	Thrust:	54.230
Time:	6.157	Roll Set Point:	-0.081	Pitch Set Point:	-0.036	Yaw Set Point:	-0.578	X_WP:	0.082	Y_WP:	0.156	Y_WP:	0.500	X:	0.099	Y:	0.096	Z:	0.399	yaw:	33.120	yaw rate:	-5.779	Roll:	0.079	Pitch:	-1.511	Yaw:	47.264	Thrust:	54.296
Time:	6.172	Roll Set Point:	-0.081	Pitch Set Point:	-0.036	Yaw Set Point:	-0.579	X_WP:	0.082	Y_WP:	0.156	Y_WP:	0.500	X:	0.099	Y:	0.096	Z:	0.399	yaw:	33.153	yaw rate:	3.319	Roll:	0.016	Pitch:	-1.497	Yaw:	48.409	Thrust:	54.681
Time:	6.188	Roll Set Point:	-0.081	Pitch Set Point:	-0.036	Yaw Set Point:	-0.578	X_WP:	0.082	Y_WP:	0.156	Y_WP:	0.500	X:	0.099	Y:	0.096	Z:	0.399	yaw:	33.138	yaw rate:	-1.478	Roll:	0.071	Pitch:	-1.514	Yaw:	47.585	Thrust:	54.734
Time:	6.203	Roll Set Point:	-0.081	Pitch Set Point:	-0.036	Yaw Set Point:	-0.578	X_WP:	0.082	Y_WP:	0.156	Y_WP:	0.500	X:	0.099	Y:	0.096	Z:	0.399	yaw:	33.138	yaw rate:	-1.478	Roll:	0.052	Pitch:	-1.511	Yaw:	47.833	Thrust:	54.982
Time:	6.219	Roll Set Point:	-0.081	Pitch Set Point:	-0.036	Yaw Set Point:	-0.578	X_WP:	0.082	Y_WP:	0.156	Y_WP:	0.500	X:	0.099	Y:	0.096	Z:	0.399	yaw:	33.137	yaw rate:	0.504	Roll:	0.059	Pitch:	-1.515	Yaw:	47.803	Thrust:	55.128
Time:	6.235	Roll Set Point:	-0.081	Pitch Set Point:	-0.036	Yaw Set Point:	-0.579	X_WP:	0.082	Y_WP:	0.156	Y_WP:	0.500	X:	0.099	Y:	0.096	Z:	0.399	yaw:	33.147	yaw rate:	1.012	Roll:	0.036	Pitch:	-1.512	Yaw:	48.014	Thrust:	55.302
Time:	6.250	Roll Set Point:	-0.081	Pitch Set Point:	-0.036	Yaw Set Point:	-0.579	X_WP:	0.082	Y_WP:	0.156	Y_WP:	0.500	X:	0.099	Y:	0.096	Z:	0.399	yaw:	33.147	yaw rate:	1.012	Roll:	0.050	Pitch:	-1.518	Yaw:	47.844	Thrust:	55.553
Time:	6.266	Roll Set Point:	-0.081	Pitch Set Point:	-0.036	Yaw Set Point:	-0.579	X_WP:	0.082	Y_WP:	0.156	Y_WP:	0.500	X:	0.099	Y:	0.096	Z:	0.399	yaw:	33.162	yaw rate:	1.556	Roll:	0.053	Pitch:	-1.519	Yaw:	48.129	Thrust:	55.905
Time:	6.282	Roll Set Point:	-0.081	Pitch Set Point:	-0.036	Yaw Set Point:	-0.579	X_WP:	0.082	Y_WP:	0.156	Y_WP:	0.500	X:	0.099	Y:	0.096	Z:	0.399	yaw:	33.147	yaw rate:	9.153	Roll:	0.067	Pitch:	-1.523	Yaw:	47.586	Thrust:	56.013
Time:	6.297	Roll Set Point:	-0.081	Pitch Set Point:	-0.036	Yaw Set Point:	-0.579	X_WP:	0.082	Y_WP:	0.156	Y_WP:	0.500	X:	0.099	Y:	0.096	Z:	0.399	yaw:	33.148	yaw rate:	0.104	Roll:	0.022	Pitch:	-1.523	Yaw:	47.866	Thrust:	56.016
