Time:	2.035	Roll Set Point:	-0.015	Pitch Set Point:	-0.074	Yaw Set Point:	0.205	X_WP:	0.000	Y_WP:	0.000	Y_WP:	0.500	X:	0.011	Y:	0.036	Z:	0.049	yaw:	-11.751	yaw rate:	0.998	Roll:	0.109	Pitch:	1.093	Yaw:	-16.407	Thrust:	24.830
Time:	2.046	Roll Set Point:	-0.015	Pitch Set Point:	-0.074	Yaw Set Point:	0.205	X_WP:	0.000	Y_WP:	0.000	Y_WP:	0.500	X:	0.011	Y:	0.036	Z:	0.049	yaw:	-11.740	yaw rate:	1.060	Roll:	0.125	Pitch:	1.112	Yaw:	-16.186	Thrust:	25.431
Time:	2.059	Roll Set Point:	-0.015	Pitch Set Point:	-0.074	Yaw Set Point:	0.205	X_WP:	0.000	Y_WP:	0.000	Y_WP:	0.500	X:	0.011	Y:	0.036	Z:	0.049	yaw:	-11.736	yaw rate:	2.765	Roll:	0.090	Pitch:	1.126	Yaw:	-16.412	Thrust:	26.202
Time:	2.069	Roll Set Point:	-0.015	Pitch Set Point:	-0.074	Yaw Set Point:	0.205	X_WP:	0.000	Y_WP:	0.000	Y_WP:	0.500	X:	0.011	Y:	0.036	Z:	0.049	yaw:	-11.735	yaw rate:	0.105	Roll:	0.170	Pitch:	1.090	Yaw:	-16.489	Thrust:	26.573
Time:	2.081	Roll Set Point:	-0.015	Pitch Set Point:	-0.074	Yaw Set Point:	0.205	X_WP:	0.000	Y_WP:	0.000	Y_WP:	0.500	X:	0.011	Y:	0.036	Z:	0.049	yaw:	-11.735	yaw rate:	0.105	Roll:	0.110	Pitch:	1.098	Yaw:	-16.566	Thrust:	27.223
Time:	2.097	Roll Set Point:	-0.015	Pitch Set Point:	-0.074	Yaw Set Point:	0.206	X_WP:	0.000	Y_WP:	0.000	Y_WP:	0.500	X:	0.011	Y:	0.036	Z:	0.049	yaw:	-11.775	yaw rate:	-4.105	Roll:	0.031	Pitch:	1.047	Yaw:	-17.414	Thrust:	29.088
Time:	2.109	Roll Set Point:	-0.015	Pitch Set Point:	-0.074	Yaw Set Point:	0.205	X_WP:	0.000	Y_WP:	0.000	Y_WP:	0.500	X:	0.011	Y:	0.036	Z:	0.049	yaw:	-11.739	yaw rate:	3.525	Roll:	0.150	Pitch:	1.125	Yaw:	-15.832	Thrust:	28.508
Time:	2.121	Roll Set Point:	-0.015	Pitch Set Point:	-0.074	Yaw Set Point:	0.205	X_WP:	0.000	Y_WP:	0.000	Y_WP:	0.500	X:	0.011	Y:	0.036	Z:	0.049	yaw:	-11.743	yaw rate:	-0.316	Roll:	0.135	Pitch:	1.122	Yaw:	-16.846	Thrust:	29.858
Time:	2.132	Roll Set Point:	-0.015	Pitch Set Point:	-0.074	Yaw Set Point:	0.205	X_WP:	0.000	Y_WP:	0.000	Y_WP:	0.500	X:	0.011	Y:	0.036	Z:	0.049	yaw:	-11.727	yaw rate:	1.574	Roll:	0.108	Pitch:	1.096	Yaw:	-16.362	Thrust:	29.742
Time:	2.143	Roll Set Point:	-0.015	Pitch Set Point:	-0.074	Yaw Set Point:	0.205	X_WP:	0.000	Y_WP:	0.000	Y_WP:	0.500	X:	0.011	Y:	0.036	Z:	0.049	yaw:	-11.741	yaw rate:	-1.369	Roll:	0.090	Pitch:	1.113	Yaw:	-17.125	Thrust:	30.148
Time:	2.155	Roll Set Point:	-0.015	Pitch Set Point:	-0.074	Yaw Set Point:	0.205	X_WP:	0.000	Y_WP:	0.000	Y_WP:	0.500	X:	0.011	Y:	0.036	Z:	0.049	yaw:	-11.756	yaw rate:	-1.500	Roll:	0.079	Pitch:	1.074	Yaw:	-17.234	Thrust:	31.396
Time:	2.166	Roll Set Point:	-0.015	Pitch Set Point:	-0.074	Yaw Set Point:	0.205	X_WP:	0.000	Y_WP:	0.000	Y_WP:	0.500	X:	0.011	Y:	0.036	Z:	0.049	yaw:	-11.770	yaw rate:	1.032	Roll:	0.111	Pitch:	1.113	Yaw:	-17.266	Thrust:	31.268
Time:	2.177	Roll Set Point:	-0.015	Pitch Set Point:	-0.074	Yaw Set Point:	0.205	X_WP:	0.000	Y_WP:	0.000	Y_WP:	0.500	X:	0.011	Y:	0.036	Z:	0.049	yaw:	-11.752	yaw rate:	1.732	Roll:	0.135	Pitch:	1.114	Yaw:	-16.502	Thrust:	31.946
Time:	2.189	Roll Set Point:	-0.015	Pitch Set Point:	-0.074	Yaw Set Point:	0.206	X_WP:	0.000	Y_WP:	0.000	Y_WP:	0.500	X:	0.011	Y:	0.036	Z:	0.049	yaw:	-11.775	yaw rate:	-2.310	Roll:	0.097	Pitch:	1.108	Yaw:	-17.581	Thrust:	32.800
Time:	2.200	Roll Set Point:	-0.015	Pitch Set Point:	-0.074	Yaw Set Point:	0.205	X_WP:	0.000	Y_WP:	0.000	Y_WP:	0.500	X:	0.011	Y:	0.036	Z:	0.049	yaw:	-11.759	yaw rate:	1.661	Roll:	0.140	Pitch:	1.134	Yaw:	-16.657	Thrust:	32.986
Time:	2.210	Roll Set Point:	-0.015	Pitch Set Point:	-0.074	Yaw Set Point:	0.205	X_WP:	0.000	Y_WP:	0.000	Y_WP:	0.500	X:	0.011	Y:	0.036	Z:	0.049	yaw:	-11.748	yaw rate:	1.053	Roll:	0.094	Pitch:	1.099	Yaw:	-16.750	Thrust:	33.530
Time:	2.222	Roll Set Point:	-0.015	Pitch Set Point:	-0.074	Yaw Set Point:	0.205	X_WP:	0.000	Y_WP:	0.000	Y_WP:	0.500	X:	0.011	Y:	0.036	Z:	0.049	yaw:	-11.768	yaw rate:	-1.996	Roll:	0.073	Pitch:	1.086	Yaw:	-17.671	Thrust:	35.576
Time:	2.233	Roll Set Point:	-0.015	Pitch Set Point:	-0.074	Yaw Set Point:	0.205	X_WP:	0.000	Y_WP:	0.000	Y_WP:	0.500	X:	0.011	Y:	0.036	Z:	0.049	yaw:	-11.755	yaw rate:	1.349	Roll:	0.120	Pitch:	1.114	Yaw:	-16.862	Thrust:	35.104
Time:	2.244	Roll Set Point:	-0.015	Pitch Set Point:	-0.074	Yaw Set Point:	0.205	X_WP:	0.000	Y_WP:	0.000	Y_WP:	0.500	X:	0.011	Y:	0.036	Z:	0.049	yaw:	-11.767	yaw rate:	-1.265	Roll:	0.128	Pitch:	1.132	Yaw:	-17.545	Thrust:	35.614
Time:	2.256	Roll Set Point:	-0.015	Pitch Set Point:	-0.074	Yaw Set Point:	0.205	X_WP:	0.000	Y_WP:	0.000	Y_WP:	0.500	X:	0.011	Y:	0.036	Z:	0.049	yaw:	-11.774	yaw rate:	-0.671	Roll:	0.125	Pitch:	1.112	Yaw:	-17.493	Thrust:	36.660
Time:	2.267	Roll Set Point:	-0.015	Pitch Set Point:	-0.074	Yaw Set Point:	0.205	X_WP:	0.000	Y_WP:	0.000	Y_WP:	0.500	X:	0.011	Y:	0.036	Z:	0.049	yaw:	-11.749	yaw rate:	2.484	Roll:	0.086	Pitch:	1.095	Yaw:	-16.720	Thrust:	36.679
Time:	2.278	Roll Set Point:	-0.015	Pitch Set Point:	-0.074	Yaw Set Point:	0.205	X_WP:	0.000	Y_WP:	0.000	Y_WP:	0.500	X:	0.011	Y:	0.036	Z:	0.049	yaw:	-11.741	yaw rate:	0.832	Roll:	0.143	Pitch:	1.124	Yaw:	-17.162	Thrust:	37.635
Time:	2.290	Roll Set Point:	-0.015	Pitch Set Point:	-0.074	Yaw Set Point:	0.205	X_WP:	0.000	Y_WP:	0.000	Y_WP:	0.500	X:	0.011	Y:	0.036	Z:	0.049	yaw:	-11.770	yaw rate:	-2.881	Roll:	0.079	Pitch:	1.111	Yaw:	-18.130	Thrust:	38.634
Time:	2.301	Roll Set Point:	-0.015	Pitch Set Point:	-0.074	Yaw Set Point:	0.205	X_WP:	0.000	Y_WP:	0.000	Y_WP:	0.500	X:	0.011	Y:	0.036	Z:	0.049	yaw:	-11.757	yaw rate:	1.269	Roll:	0.142	Pitch:	1.139	Yaw:	-17.156	Thrust:	37.991
Time:	2.311	Roll Set Point:	-0.015	Pitch Set Point:	-0.074	Yaw Set Point:	0.205	X_WP:	0.000	Y_WP:	0.000	Y_WP:	0.500	X:	0.011	Y:	0.036	Z:	0.049	yaw:	-11.745	yaw rate:	1.171	Roll:	0.101	Pitch:	1.105	Yaw:	-17.081	Thrust:	38.401
Time:	2.322	Roll Set Point:	-0.015	Pitch Set Point:	-0.074	Yaw Set Point:	0.205	X_WP:	0.000	Y_WP:	0.000	Y_WP:	0.500	X:	0.011	Y:	0.036	Z:	0.049	yaw:	-11.766	yaw rate:	-2.108	Roll:	0.101	Pitch:	1.108	Yaw:	-18.091	Thrust:	40.421
Time:	2.334	Roll Set Point:	-0.015	Pitch Set Point:	-0.074	Yaw Set Point:	0.205	X_WP:	0.000	Y_WP:	0.000	Y_WP:	0.500	X:	0.011	Y:	0.036	Z:	0.049	yaw:	-11.743	yaw rate:	2.379	Roll:	0.122	Pitch:	1.123	Yaw:	-17.086	Thrust:	41.126
Time:	2.345	Roll Set Point:	-0.015	Pitch Set Point:	-0.074	Yaw Set Point:	0.205	X_WP:	0.000	Y_WP:	0.000	Y_WP:	0.500	X:	0.011	Y:	0.036	Z:	0.049	yaw:	-11.770	yaw rate:	-2.758	Roll:	0.090	Pitch:	1.151	Yaw:	-18.311	Thrust:	41.096
Time:	2.356	Roll Set Point:	-0.015	Pitch Set Point:	-0.074	Yaw Set Point:	0.205	X_WP:	0.000	Y_WP:	0.000	Y_WP:	0.500	X:	0.011	Y:	0.036	Z:	0.049	yaw:	-11.752	yaw rate:	1.851	Roll:	0.141	Pitch:	1.094	Yaw:	-17.243	Thrust:	41.439
Time:	2.368	Roll Set Point:	-0.015	Pitch Set Point:	-0.074	Yaw Set Point:	0.205	X_WP:	0.000	Y_WP:	0.000	Y_WP:	0.500	X:	0.011	Y:	0.036	Z:	0.049	yaw:	-11.761	yaw rate:	-0.972	Roll:	0.105	Pitch:	1.119	Yaw:	-18.065	Thrust:	43.771
Time:	2.379	Roll Set Point:	-0.015	Pitch Set Point:	-0.074	Yaw Set Point:	0.203	X_WP:	0.000	Y_WP:	0.000	Y_WP:	0.500	X:	0.011	Y:	0.036	Z:	0.048	yaw:	-11.636	yaw rate:	12.504	Roll:	0.035	Pitch:	1.142	Yaw:	-14.723	Thrust:	42.079
Time:	2.400	Roll Set Point:	-0.015	Pitch Set Point:	-0.074	Yaw Set Point:	0.205	X_WP:	0.000	Y_WP:	0.000	Y_WP:	0.500	X:	0.011	Y:	0.036	Z:	0.049	yaw:	-11.743	yaw rate:	-10.645	Roll:	0.173	Pitch:	1.163	Yaw:	-20.367	Thrust:	59.978
Time:	2.411	Roll Set Point:	-0.015	Pitch Set Point:	-0.074	Yaw Set Point:	0.205	X_WP:	0.000	Y_WP:	0.000	Y_WP:	0.500	X:	0.011	Y:	0.036	Z:	0.049	yaw:	-11.737	yaw rate:	4.426	Roll:	0.092	Pitch:	1.141	Yaw:	-17.686	Thrust:	44.823
Time:	2.429	Roll Set Point:	-0.015	Pitch Set Point:	-0.074	Yaw Set Point:	0.205	X_WP:	0.000	Y_WP:	0.000	Y_WP:	0.500	X:	0.011	Y:	0.036	Z:	0.049	yaw:	-11.760	yaw rate:	-2.365	Roll:	0.101	Pitch:	1.133	Yaw:	-19.266	Thrust:	57.975
Time:	2.442	Roll Set Point:	-0.015	Pitch Set Point:	-0.074	Yaw Set Point:	0.205	X_WP:	0.000	Y_WP:	0.000	Y_WP:	0.500	X:	0.011	Y:	0.036	Z:	0.049	yaw:	-11.747	yaw rate:	-0.264	Roll:	0.115	Pitch:	1.148	Yaw:	-17.877	Thrust:	48.031
Time:	2.461	Roll Set Point:	-0.015	Pitch Set Point:	-0.074	Yaw Set Point:	0.206	X_WP:	0.000	Y_WP:	0.000	Y_WP:	0.500	X:	0.011	Y:	0.036	Z:	0.049	yaw:	-11.776	yaw rate:	-2.835	Roll:	0.089	Pitch:	1.136	Yaw:	-19.551	Thrust:	60.638
Time:	2.474	Roll Set Point:	-0.015	Pitch Set Point:	-0.074	Yaw Set Point:	0.205	X_WP:	0.000	Y_WP:	0.000	Y_WP:	0.500	X:	0.011	Y:	0.036	Z:	0.049	yaw:	-11.742	yaw rate:	0.733	Roll:	0.169	Pitch:	1.155	Yaw:	-17.592	Thrust:	49.933
Time:	2.487	Roll Set Point:	-0.015	Pitch Set Point:	-0.074	Yaw Set Point:	0.205	X_WP:	0.000	Y_WP:	0.000	Y_WP:	0.500	X:	0.011	Y:	0.036	Z:	0.049	yaw:	-11.750	yaw rate:	-0.848	Roll:	0.099	Pitch:	1.127	Yaw:	-18.489	Thrust:	49.926
Time:	2.500	Roll Set Point:	-0.015	Pitch Set Point:	-0.074	Yaw Set Point:	0.205	X_WP:	0.000	Y_WP:	0.000	Y_WP:	0.500	X:	0.011	Y:	0.036	Z:	0.049	yaw:	-11.765	yaw rate:	-1.536	Roll:	0.088	Pitch:	1.138	Yaw:	-18.834	Thrust:	51.546
Time:	2.511	Roll Set Point:	-0.015	Pitch Set Point:	-0.074	Yaw Set Point:	0.205	X_WP:	0.000	Y_WP:	0.000	Y_WP:	0.500	X:	0.011	Y:	0.036	Z:	0.049	yaw:	-11.756	yaw rate:	0.913	Roll:	0.128	Pitch:	1.140	Yaw:	-17.963	Thrust:	49.329
Time:	2.531	Roll Set Point:	-0.015	Pitch Set Point:	-0.074	Yaw Set Point:	0.203	X_WP:	0.000	Y_WP:	0.000	Y_WP:	0.500	X:	0.011	Y:	0.036	Z:	0.048	yaw:	-11.643	yaw rate:	11.332	Roll:	0.095	Pitch:	1.160	Yaw:	-18.072	Thrust:	67.502
Time:	2.545	Roll Set Point:	-0.015	Pitch Set Point:	-0.074	Yaw Set Point:	0.203	X_WP:	0.000	Y_WP:	0.000	Y_WP:	0.500	X:	0.011	Y:	0.036	Z:	0.048	yaw:	-11.606	yaw rate:	13.017	Roll:	0.109	Pitch:	1.135	Yaw:	-17.880	Thrust:	57.117
Time:	2.562	Roll Set Point:	-0.015	Pitch Set Point:	-0.074	Yaw Set Point:	0.205	X_WP:	0.000	Y_WP:	0.000	Y_WP:	0.500	X:	0.011	Y:	0.036	Z:	0.049	yaw:	-11.754	yaw rate:	-14.725	Roll:	0.119	Pitch:	1.184	Yaw:	-21.609	Thrust:	63.445
Time:	2.574	Roll Set Point:	-0.015	Pitch Set Point:	-0.074	Yaw Set Point:	0.205	X_WP:	0.000	Y_WP:	0.000	Y_WP:	0.500	X:	0.011	Y:	0.036	Z:	0.049	yaw:	-11.750	yaw rate:	0.428	Roll:	0.142	Pitch:	1.145	Yaw:	-18.535	Thrust:	53.930
Time:	2.593	Roll Set Point:	-0.015	Pitch Set Point:	-0.074	Yaw Set Point:	0.205	X_WP:	0.000	Y_WP:	0.000	Y_WP:	0.500	X:	0.011	Y:	0.036	Z:	0.049	yaw:	-11.750	yaw rate:	0.428	Roll:	0.115	Pitch:	1.164	Yaw:	-19.664	Thrust:	66.686
Time:	2.605	Roll Set Point:	-0.015	Pitch Set Point:	-0.074	Yaw Set Point:	0.205	X_WP:	0.000	Y_WP:	0.000	Y_WP:	0.500	X:	0.011	Y:	0.036	Z:	0.049	yaw:	-11.754	yaw rate:	-1.518	Roll:	0.087	Pitch:	1.138	Yaw:	-18.722	Thrust:	55.505
Time:	2.617	Roll Set Point:	-0.015	Pitch Set Point:	-0.074	Yaw Set Point:	0.205	X_WP:	0.000	Y_WP:	0.000	Y_WP:	0.500	X:	0.011	Y:	0.036	Z:	0.049	yaw:	-11.773	yaw rate:	-1.922	Roll:	0.124	Pitch:	1.156	Yaw:	-19.126	Thrust:	54.907
Time:	2.630	Roll Set Point:	-0.015	Pitch Set Point:	-0.074	Yaw Set Point:	0.205	X_WP:	0.000	Y_WP:	0.000	Y_WP:	0.500	X:	0.011	Y:	0.036	Z:	0.049	yaw:	-11.723	yaw rate:	5.029	Roll:	0.159	Pitch:	1.162	Yaw:	-18.005	Thrust:	59.261
Time:	2.641	Roll Set Point:	-0.015	Pitch Set Point:	-0.074	Yaw Set Point:	0.204	X_WP:	0.000	Y_WP:	0.000	Y_WP:	0.500	X:	0.011	Y:	0.036	Z:	0.049	yaw:	-11.716	yaw rate:	0.679	Roll:	0.103	Pitch:	1.132	Yaw:	-18.368	Thrust:	53.462
Time:	2.659	Roll Set Point:	-0.015	Pitch Set Point:	-0.074	Yaw Set Point:	0.205	X_WP:	0.000	Y_WP:	0.000	Y_WP:	0.500	X:	0.011	Y:	0.036	Z:	0.049	yaw:	-11.752	yaw rate:	-3.662	Roll:	0.085	Pitch:	1.168	Yaw:	-20.365	Thrust:	68.519
Time:	2.672	Roll Set Point:	-0.015	Pitch Set Point:	-0.074	Yaw Set Point:	0.205	X_WP:	0.000	Y_WP:	0.000	Y_WP:	0.500	X:	0.011	Y:	0.036	Z:	0.049	yaw:	-11.730	yaw rate:	0.799	Roll:	0.134	Pitch:	1.141	Yaw:	-18.823	Thrust:	64.734
Time:	2.686	Roll Set Point:	-0.015	Pitch Set Point:	-0.074	Yaw Set Point:	0.205	X_WP:	0.000	Y_WP:	0.000	Y_WP:	0.500	X:	0.011	Y:	0.036	Z:	0.049	yaw:	-11.734	yaw rate:	-0.373	Roll:	0.123	Pitch:	1.194	Yaw:	-18.872	Thrust:	58.126
Time:	2.702	Roll Set Point:	-0.015	Pitch Set Point:	-0.074	Yaw Set Point:	0.205	X_WP:	0.000	Y_WP:	0.000	Y_WP:	0.500	X:	0.011	Y:	0.036	Z:	0.049	yaw:	-11.761	yaw rate:	-0.668	Roll:	0.107	Pitch:	1.175	Yaw:	-20.336	Thrust:	74.294
Time:	2.713	Roll Set Point:	-0.015	Pitch Set Point:	-0.074	Yaw Set Point:	0.205	X_WP:	0.000	Y_WP:	0.000	Y_WP:	0.500	X:	0.011	Y:	0.036	Z:	0.049	yaw:	-11.755	yaw rate:	0.609	Roll:	0.112	Pitch:	1.157	Yaw:	-18.475	Thrust:	56.481
Time:	2.729	Roll Set Point:	-0.015	Pitch Set Point:	-0.074	Yaw Set Point:	0.205	X_WP:	0.000	Y_WP:	0.000	Y_WP:	0.500	X:	0.011	Y:	0.036	Z:	0.049	yaw:	-11.759	yaw rate:	-0.385	Roll:	0.111	Pitch:	1.164	Yaw:	-19.595	Thrust:	68.833
Time:	2.741	Roll Set Point:	-0.015	Pitch Set Point:	-0.074	Yaw Set Point:	0.205	X_WP:	0.000	Y_WP:	0.000	Y_WP:	0.500	X:	0.011	Y:	0.036	Z:	0.049	yaw:	-11.732	yaw rate:	2.668	Roll:	0.126	Pitch:	1.157	Yaw:	-18.207	Thrust:	62.281
Time:	2.759	Roll Set Point:	-0.015	Pitch Set Point:	-0.074	Yaw Set Point:	0.203	X_WP:	0.000	Y_WP:	0.000	Y_WP:	0.500	X:	0.011	Y:	0.036	Z:	0.048	yaw:	-11.618	yaw rate:	11.380	Roll:	0.087	Pitch:	1.173	Yaw:	-18.045	Thrust:	77.039
Time:	2.772	Roll Set Point:	-0.015	Pitch Set Point:	-0.074	Yaw Set Point:	0.205	X_WP:	0.000	Y_WP:	0.000	Y_WP:	0.500	X:	0.011	Y:	0.036	Z:	0.049	yaw:	-11.757	yaw rate:	0.983	Roll:	0.131	Pitch:	1.176	Yaw:	-21.812	Thrust:	67.618
Time:	2.788	Roll Set Point:	-0.015	Pitch Set Point:	-0.074	Yaw Set Point:	0.205	X_WP:	0.000	Y_WP:	0.000	Y_WP:	0.500	X:	0.011	Y:	0.036	Z:	0.049	yaw:	-11.739	yaw rate:	1.866	Roll:	0.136	Pitch:	1.183	Yaw:	-19.194	Thrust:	70.758
Time:	2.801	Roll Set Point:	-0.015	Pitch Set Point:	-0.074	Yaw Set Point:	0.205	X_WP:	0.000	Y_WP:	0.000	Y_WP:	0.500	X:	0.011	Y:	0.036	Z:	0.049	yaw:	-11.752	yaw rate:	0.471	Roll:	0.137	Pitch:	1.203	Yaw:	-19.457	Thrust:	72.806
Time:	2.813	Roll Set Point:	-0.015	Pitch Set Point:	-0.074	Yaw Set Point:	0.205	X_WP:	0.000	Y_WP:	0.000	Y_WP:	0.500	X:	0.011	Y:	0.036	Z:	0.049	yaw:	-11.762	yaw rate:	-1.030	Roll:	0.062	Pitch:	1.109	Yaw:	-18.785	Thrust:	58.988
Time:	2.824	Roll Set Point:	-0.015	Pitch Set Point:	-0.074	Yaw Set Point:	0.205	X_WP:	0.000	Y_WP:	0.000	Y_WP:	0.500	X:	0.011	Y:	0.036	Z:	0.049	yaw:	-11.742	yaw rate:	1.966	Roll:	0.151	Pitch:	1.172	Yaw:	-18.506	Thrust:	66.545
Time:	2.836	Roll Set Point:	-0.015	Pitch Set Point:	-0.074	Yaw Set Point:	0.205	X_WP:	0.000	Y_WP:	0.000	Y_WP:	0.500	X:	0.011	Y:	0.036	Z:	0.049	yaw:	-11.748	yaw rate:	-0.559	Roll:	0.094	Pitch:	1.166	Yaw:	-18.931	Thrust:	65.282
Time:	2.848	Roll Set Point:	-0.015	Pitch Set Point:	-0.074	Yaw Set Point:	0.205	X_WP:	0.000	Y_WP:	0.000	Y_WP:	0.500	X:	0.011	Y:	0.036	Z:	0.049	yaw:	-11.755	yaw rate:	-0.680	Roll:	0.125	Pitch:	1.168	Yaw:	-18.780	Thrust:	62.403
Time:	2.865	Roll Set Point:	-0.015	Pitch Set Point:	-0.074	Yaw Set Point:	0.205	X_WP:	0.000	Y_WP:	0.000	Y_WP:	0.500	X:	0.011	Y:	0.036	Z:	0.049	yaw:	-11.750	yaw rate:	-0.962	Roll:	0.121	Pitch:	1.185	Yaw:	-19.865	Thrust:	84.333
Time:	2.876	Roll Set Point:	-0.015	Pitch Set Point:	-0.074	Yaw Set Point:	0.205	X_WP:	0.000	Y_WP:	0.000	Y_WP:	0.500	X:	0.011	Y:	0.036	Z:	0.049	yaw:	-11.765	yaw rate:	-1.512	Roll:	0.090	Pitch:	1.185	Yaw:	-19.011	Thrust:	65.864
Time:	2.892	Roll Set Point:	-0.015	Pitch Set Point:	-0.074	Yaw Set Point:	0.205	X_WP:	0.000	Y_WP:	0.000	Y_WP:	0.500	X:	0.011	Y:	0.036	Z:	0.049	yaw:	-11.747	yaw rate:	1.807	Roll:	0.127	Pitch:	1.189	Yaw:	-19.320	Thrust:	82.155
Time:	2.904	Roll Set Point:	-0.015	Pitch Set Point:	-0.074	Yaw Set Point:	0.205	X_WP:	0.000	Y_WP:	0.000	Y_WP:	0.500	X:	0.011	Y:	0.036	Z:	0.049	yaw:	-11.728	yaw rate:	1.932	Roll:	0.141	Pitch:	1.165	Yaw:	-18.368	Thrust:	68.594
Time:	2.916	Roll Set Point:	-0.015	Pitch Set Point:	-0.074	Yaw Set Point:	0.205	X_WP:	0.000	Y_WP:	0.000	Y_WP:	0.500	X:	0.011	Y:	0.036	Z:	0.049	yaw:	-11.754	yaw rate:	-2.631	Roll:	0.101	Pitch:	1.159	Yaw:	-19.394	Thrust:	69.274
Time:	2.929	Roll Set Point:	-0.015	Pitch Set Point:	-0.074	Yaw Set Point:	0.205	X_WP:	0.000	Y_WP:	0.000	Y_WP:	0.500	X:	0.011	Y:	0.036	Z:	0.049	yaw:	-11.741	yaw rate:	1.319	Roll:	0.110	Pitch:	1.191	Yaw:	-18.625	Thrust:	71.783
Time:	2.940	Roll Set Point:	-0.015	Pitch Set Point:	-0.074	Yaw Set Point:	0.205	X_WP:	0.000	Y_WP:	0.000	Y_WP:	0.500	X:	0.011	Y:	0.036	Z:	0.049	yaw:	-11.751	yaw rate:	-1.053	Roll:	0.068	Pitch:	1.111	Yaw:	-18.864	Thrust:	64.620
Time:	2.957	Roll Set Point:	-0.015	Pitch Set Point:	-0.074	Yaw Set Point:	0.203	X_WP:	0.000	Y_WP:	0.000	Y_WP:	0.500	X:	0.011	Y:	0.036	Z:	0.048	yaw:	-11.625	yaw rate:	12.225	Roll:	0.132	Pitch:	1.226	Yaw:	-17.536	Thrust:	88.988
Time:	2.969	Roll Set Point:	-0.015	Pitch Set Point:	-0.074	Yaw Set Point:	0.205	X_WP:	0.000	Y_WP:	0.000	Y_WP:	0.500	X:	0.011	Y:	0.036	Z:	0.049	yaw:	-11.747	yaw rate:	-12.221	Roll:	0.143	Pitch:	1.178	Yaw:	-21.467	Thrust:	73.126
Time:	2.979	Roll Set Point:	-0.015	Pitch Set Point:	-0.074	Yaw Set Point:	0.205	X_WP:	0.000	Y_WP:	0.000	Y_WP:	0.500	X:	0.011	Y:	0.036	Z:	0.049	yaw:	-11.736	yaw rate:	1.035	Roll:	0.100	Pitch:	1.156	Yaw:	-18.125	Thrust:	64.559
Time:	2.994	Roll Set Point:	-0.015	Pitch Set Point:	-0.074	Yaw Set Point:	0.205	X_WP:	0.000	Y_WP:	0.000	Y_WP:	0.500	X:	0.011	Y:	0.036	Z:	0.049	yaw:	-11.726	yaw rate:	1.052	Roll:	0.152	Pitch:	1.225	Yaw:	-19.204	Thrust:	85.208
Time:	3.005	Roll Set Point:	-0.015	Pitch Set Point:	-0.074	Yaw Set Point:	0.205	X_WP:	0.000	Y_WP:	0.000	Y_WP:	0.500	X:	0.011	Y:	0.036	Z:	0.049	yaw:	-11.733	yaw rate:	1.295	Roll:	0.111	Pitch:	1.168	Yaw:	-18.756	Thrust:	69.725
Time:	3.017	Roll Set Point:	-0.015	Pitch Set Point:	-0.074	Yaw Set Point:	0.205	X_WP:	0.000	Y_WP:	0.000	Y_WP:	0.500	X:	0.011	Y:	0.036	Z:	0.049	yaw:	-11.759	yaw rate:	-2.648	Roll:	0.085	Pitch:	1.160	Yaw:	-19.402	Thrust:	70.288
Time:	3.034	Roll Set Point:	-0.015	Pitch Set Point:	-0.074	Yaw Set Point:	0.205	X_WP:	0.000	Y_WP:	0.000	Y_WP:	0.500	X:	0.011	Y:	0.036	Z:	0.049	yaw:	-11.721	yaw rate:	3.890	Roll:	0.135	Pitch:	1.216	Yaw:	-19.300	Thrust:	100.000
Time:	3.046	Roll Set Point:	-0.015	Pitch Set Point:	-0.074	Yaw Set Point:	0.205	X_WP:	0.000	Y_WP:	0.000	Y_WP:	0.500	X:	0.011	Y:	0.036	Z:	0.049	yaw:	-11.734	yaw rate:	-1.394	Roll:	0.116	Pitch:	1.171	Yaw:	-19.007	Thrust:	71.416
Time:	3.062	Roll Set Point:	-0.015	Pitch Set Point:	-0.074	Yaw Set Point:	0.205	X_WP:	0.000	Y_WP:	0.000	Y_WP:	0.500	X:	0.011	Y:	0.036	Z:	0.049	yaw:	-11.723	yaw rate:	2.741	Roll:	0.142	Pitch:	1.245	Yaw:	-19.388	Thrust:	95.829
Time:	3.073	Roll Set Point:	-0.015	Pitch Set Point:	-0.074	Yaw Set Point:	0.205	X_WP:	0.000	Y_WP:	0.000	Y_WP:	0.500	X:	0.011	Y:	0.036	Z:	0.049	yaw:	-11.755	yaw rate:	-3.224	Roll:	0.062	Pitch:	1.137	Yaw:	-19.387	Thrust:	72.535
Time:	3.093	Roll Set Point:	-0.015	Pitch Set Point:	-0.074	Yaw Set Point:	0.206	X_WP:	0.000	Y_WP:	0.000	Y_WP:	0.500	X:	0.011	Y:	0.036	Z:	0.049	yaw:	-11.786	yaw rate:	-4.899	Roll:	0.125	Pitch:	1.269	Yaw:	-20.883	Thrust:	100.000
Time:	3.103	Roll Set Point:	-0.015	Pitch Set Point:	-0.074	Yaw Set Point:	0.205	X_WP:	0.000	Y_WP:	0.000	Y_WP:	0.500	X:	0.011	Y:	0.036	Z:	0.049	yaw:	-11.753	yaw rate:	3.304	Roll:	0.154	Pitch:	1.162	Yaw:	-17.554	Thrust:	71.542
Time:	3.124	Roll Set Point:	-0.015	Pitch Set Point:	-0.074	Yaw Set Point:	0.205	X_WP:	0.000	Y_WP:	0.000	Y_WP:	0.500	X:	0.011	Y:	0.036	Z:	0.049	yaw:	-11.739	yaw rate:	1.435	Roll:	0.099	Pitch:	1.189	Yaw:	-19.593	Thrust:	83.477
Time:	3.137	Roll Set Point:	-0.015	Pitch Set Point:	-0.074	Yaw Set Point:	0.205	X_WP:	0.000	Y_WP:	0.000	Y_WP:	0.500	X:	0.011	Y:	0.036	Z:	0.049	yaw:	-11.753	yaw rate:	-1.567	Roll:	0.123	Pitch:	1.270	Yaw:	-20.040	Thrust:	100.000
Time:	3.156	Roll Set Point:	-0.015	Pitch Set Point:	-0.074	Yaw Set Point:	0.205	X_WP:	0.000	Y_WP:	0.000	Y_WP:	0.500	X:	0.011	Y:	0.036	Z:	0.049	yaw:	-11.744	yaw rate:	0.925	Roll:	0.134	Pitch:	1.201	Yaw:	-19.834	Thrust:	100.000
Time:	3.168	Roll Set Point:	-0.015	Pitch Set Point:	-0.074	Yaw Set Point:	0.206	X_WP:	0.000	Y_WP:	0.000	Y_WP:	0.500	X:	0.011	Y:	0.036	Z:	0.049	yaw:	-11.777	yaw rate:	-0.368	Roll:	0.111	Pitch:	1.233	Yaw:	-19.717	Thrust:	87.799
Time:	3.178	Roll Set Point:	-0.015	Pitch Set Point:	-0.074	Yaw Set Point:	0.205	X_WP:	0.000	Y_WP:	0.000	Y_WP:	0.500	X:	0.011	Y:	0.036	Z:	0.049	yaw:	-11.725	yaw rate:	5.261	Roll:	0.157	Pitch:	1.188	Yaw:	-17.071	Thrust:	73.141
Time:	3.192	Roll Set Point:	-0.015	Pitch Set Point:	-0.074	Yaw Set Point:	0.205	X_WP:	0.000	Y_WP:	0.000	Y_WP:	0.500	X:	0.011	Y:	0.036	Z:	0.049	yaw:	-11.747	yaw rate:	-2.223	Roll:	0.090	Pitch:	1.192	Yaw:	-19.636	Thrust:	92.108
Time:	3.204	Roll Set Point:	-0.015	Pitch Set Point:	-0.074	Yaw Set Point:	0.205	X_WP:	0.000	Y_WP:	0.000	Y_WP:	0.500	X:	0.011	Y:	0.036	Z:	0.049	yaw:	-11.739	yaw rate:	0.798	Roll:	0.145	Pitch:	1.171	Yaw:	-18.420	Thrust:	78.198
Time:	3.217	Roll Set Point:	-0.015	Pitch Set Point:	-0.074	Yaw Set Point:	0.205	X_WP:	0.000	Y_WP:	0.000	Y_WP:	0.500	X:	0.011	Y:	0.036	Z:	0.049	yaw:	-11.743	yaw rate:	-0.386	Roll:	0.084	Pitch:	1.199	Yaw:	-18.887	Thrust:	83.507
Time:	3.233	Roll Set Point:	-0.015	Pitch Set Point:	-0.074	Yaw Set Point:	0.205	X_WP:	0.000	Y_WP:	0.000	Y_WP:	0.500	X:	0.011	Y:	0.036	Z:	0.049	yaw:	-11.743	yaw rate:	0.020	Roll:	0.134	Pitch:	1.280	Yaw:	-19.908	Thrust:	100.000
Time:	3.244	Roll Set Point:	-0.015	Pitch Set Point:	-0.074	Yaw Set Point:	0.205	X_WP:	0.000	Y_WP:	0.000	Y_WP:	0.500	X:	0.011	Y:	0.036	Z:	0.049	yaw:	-11.749	yaw rate:	-0.655	Roll:	0.127	Pitch:	1.166	Yaw:	-18.673	Thrust:	77.102
Time:	3.259	Roll Set Point:	-0.015	Pitch Set Point:	-0.074	Yaw Set Point:	0.205	X_WP:	0.000	Y_WP:	0.000	Y_WP:	0.500	X:	0.011	Y:	0.036	Z:	0.049	yaw:	-11.754	yaw rate:	-1.662	Roll:	0.121	Pitch:	1.226	Yaw:	-19.311	Thrust:	95.488
Time:	3.270	Roll Set Point:	-0.015	Pitch Set Point:	-0.074	Yaw Set Point:	0.205	X_WP:	0.000	Y_WP:	0.000	Y_WP:	0.500	X:	0.011	Y:	0.036	Z:	0.049	yaw:	-11.761	yaw rate:	-0.616	Roll:	0.105	Pitch:	1.178	Yaw:	-19.066	Thrust:	88.863
Time:	3.283	Roll Set Point:	-0.015	Pitch Set Point:	-0.074	Yaw Set Point:	0.205	X_WP:	0.000	Y_WP:	0.000	Y_WP:	0.500	X:	0.011	Y:	0.036	Z:	0.049	yaw:	-11.769	yaw rate:	-0.798	Roll:	0.105	Pitch:	1.190	Yaw:	-19.204	Thrust:	86.856
Time:	3.297	Roll Set Point:	-0.015	Pitch Set Point:	-0.074	Yaw Set Point:	0.205	X_WP:	0.000	Y_WP:	0.000	Y_WP:	0.500	X:	0.011	Y:	0.036	Z:	0.049	yaw:	-11.740	yaw rate:	2.818	Roll:	0.167	Pitch:	1.256	Yaw:	-18.678	Thrust:	100.000
Time:	3.309	Roll Set Point:	-0.015	Pitch Set Point:	-0.074	Yaw Set Point:	0.205	X_WP:	0.000	Y_WP:	0.000	Y_WP:	0.500	X:	0.011	Y:	0.036	Z:	0.049	yaw:	-11.722	yaw rate:	1.858	Roll:	0.112	Pitch:	1.198	Yaw:	-18.377	Thrust:	88.267
Time:	3.330	Roll Set Point:	-0.015	Pitch Set Point:	-0.074	Yaw Set Point:	0.205	X_WP:	0.000	Y_WP:	0.000	Y_WP:	0.500	X:	0.011	Y:	0.036	Z:	0.049	yaw:	-11.736	yaw rate:	-1.394	Roll:	0.134	Pitch:	1.286	Yaw:	-20.585	Thrust:	100.000
Time:	3.341	Roll Set Point:	-0.015	Pitch Set Point:	-0.074	Yaw Set Point:	0.205	X_WP:	0.000	Y_WP:	0.000	Y_WP:	0.500	X:	0.011	Y:	0.036	Z:	0.049	yaw:	-11.764	yaw rate:	-1.327	Roll:	0.057	Pitch:	1.175	Yaw:	-19.378	Thrust:	86.562
Time:	3.357	Roll Set Point:	-0.015	Pitch Set Point:	-0.074	Yaw Set Point:	0.205	X_WP:	0.000	Y_WP:	0.000	Y_WP:	0.500	X:	0.011	Y:	0.036	Z:	0.049	yaw:	-11.771	yaw rate:	-0.685	Roll:	0.127	Pitch:	1.233	Yaw:	-19.669	Thrust:	100.000
Time:	3.369	Roll Set Point:	-0.015	Pitch Set Point:	-0.074	Yaw Set Point:	0.205	X_WP:	0.000	Y_WP:	0.000	Y_WP:	0.500	X:	0.011	Y:	0.036	Z:	0.049	yaw:	-11.752	yaw rate:	1.907	Roll:	0.187	Pitch:	1.241	Yaw:	-18.281	Thrust:	90.610
Time:	3.380	Roll Set Point:	-0.015	Pitch Set Point:	-0.074	Yaw Set Point:	0.205	X_WP:	0.000	Y_WP:	0.000	Y_WP:	0.500	X:	0.011	Y:	0.036	Z:	0.049	yaw:	-11.759	yaw rate:	0.580	Roll:	0.072	Pitch:	1.173	Yaw:	-18.877	Thrust:	83.021
Time:	3.391	Roll Set Point:	-0.015	Pitch Set Point:	-0.074	Yaw Set Point:	0.205	X_WP:	0.000	Y_WP:	0.000	Y_WP:	0.500	X:	0.011	Y:	0.036	Z:	0.049	yaw:	-11.753	yaw rate:	0.522	Roll:	0.094	Pitch:	1.199	Yaw:	-18.611	Thrust:	95.193
Time:	3.404	Roll Set Point:	-0.015	Pitch Set Point:	-0.074	Yaw Set Point:	0.205	X_WP:	0.000	Y_WP:	0.000	Y_WP:	0.500	X:	0.011	Y:	0.036	Z:	0.049	yaw:	-11.745	yaw rate:	0.872	Roll:	0.134	Pitch:	1.231	Yaw:	-18.836	Thrust:	92.824
Time:	3.419	Roll Set Point:	-0.015	Pitch Set Point:	-0.074	Yaw Set Point:	0.205	X_WP:	0.000	Y_WP:	0.000	Y_WP:	0.500	X:	0.011	Y:	0.036	Z:	0.049	yaw:	-11.751	yaw rate:	-0.590	Roll:	0.121	Pitch:	1.183	Yaw:	-19.136	Thrust:	93.070
Time:	3.434	Roll Set Point:	-0.015	Pitch Set Point:	-0.074	Yaw Set Point:	0.205	X_WP:	0.000	Y_WP:	0.000	Y_WP:	0.500	X:	0.011	Y:	0.036	Z:	0.049	yaw:	-11.737	yaw rate:	0.790	Roll:	0.129	Pitch:	1.308	Yaw:	-19.484	Thrust:	100.000
Time:	3.445	Roll Set Point:	-0.015	Pitch Set Point:	-0.074	Yaw Set Point:	0.205	X_WP:	0.000	Y_WP:	0.000	Y_WP:	0.500	X:	0.011	Y:	0.036	Z:	0.049	yaw:	-11.774	yaw rate:	-3.662	Roll:	0.129	Pitch:	1.202	Yaw:	-19.514	Thrust:	88.710
Time:	3.460	Roll Set Point:	-0.015	Pitch Set Point:	-0.074	Yaw Set Point:	0.205	X_WP:	0.000	Y_WP:	0.000	Y_WP:	0.500	X:	0.011	Y:	0.036	Z:	0.049	yaw:	-11.754	yaw rate:	1.946	Roll:	0.116	Pitch:	1.206	Yaw:	-18.977	Thrust:	100.000
Time:	3.472	Roll Set Point:	-0.015	Pitch Set Point:	-0.074	Yaw Set Point:	0.203	X_WP:	0.000	Y_WP:	0.000	Y_WP:	0.500	X:	0.011	Y:	0.036	Z:	0.048	yaw:	-11.616	yaw rate:	13.787	Roll:	0.100	Pitch:	1.203	Yaw:	-15.153	Thrust:	90.417
Time:	3.484	Roll Set Point:	-0.015	Pitch Set Point:	-0.074	Yaw Set Point:	0.206	X_WP:	0.000	Y_WP:	0.000	Y_WP:	0.500	X:	0.011	Y:	0.036	Z:	0.049	yaw:	-11.778	yaw rate:	-16.191	Roll:	0.086	Pitch:	1.227	Yaw:	-22.304	Thrust:	96.015
Time:	3.499	Roll Set Point:	-0.015	Pitch Set Point:	-0.074	Yaw Set Point:	0.205	X_WP:	0.000	Y_WP:	0.000	Y_WP:	0.500	X:	0.011	Y:	0.036	Z:	0.049	yaw:	-11.757	yaw rate:	2.084	Roll:	0.170	Pitch:	1.279	Yaw:	-19.070	Thrust:	100.000
Time:	3.510	Roll Set Point:	-0.015	Pitch Set Point:	-0.074	Yaw Set Point:	0.205	X_WP:	0.000	Y_WP:	0.000	Y_WP:	0.500	X:	0.011	Y:	0.036	Z:	0.049	yaw:	-11.731	yaw rate:	2.689	Roll:	0.120	Pitch:	1.207	Yaw:	-17.947	Thrust:	91.829
Time:	3.525	Roll Set Point:	-0.015	Pitch Set Point:	-0.074	Yaw Set Point:	0.204	X_WP:	0.000	Y_WP:	0.000	Y_WP:	0.500	X:	0.011	Y:	0.036	Z:	0.049	yaw:	-11.714	yaw rate:	1.632	Roll:	0.125	Pitch:	1.247	Yaw:	-19.096	Thrust:	100.000
Time:	3.537	Roll Set Point:	-0.015	Pitch Set Point:	-0.074	Yaw Set Point:	0.205	X_WP:	0.000	Y_WP:	0.000	Y_WP:	0.500	X:	0.011	Y:	0.036	Z:	0.049	yaw:	-11.757	yaw rate:	-0.781	Roll:	0.116	Pitch:	1.221	Yaw:	-19.764	Thrust:	99.177
Time:	3.550	Roll Set Point:	-0.015	Pitch Set Point:	-0.074	Yaw Set Point:	0.205	X_WP:	0.000	Y_WP:	0.000	Y_WP:	0.500	X:	0.011	Y:	0.036	Z:	0.049	yaw:	-11.718	yaw rate:	3.978	Roll:	0.162	Pitch:	1.264	Yaw:	-18.040	Thrust:	96.616
Time:	3.567	Roll Set Point:	-0.015	Pitch Set Point:	-0.074	Yaw Set Point:	0.205	X_WP:	0.000	Y_WP:	0.000	Y_WP:	0.500	X:	0.011	Y:	0.036	Z:	0.049	yaw:	-11.736	yaw rate:	-1.850	Roll:	0.103	Pitch:	1.264	Yaw:	-19.992	Thrust:	100.000
Time:	3.577	Roll Set Point:	-0.015	Pitch Set Point:	-0.074	Yaw Set Point:	0.205	X_WP:	0.000	Y_WP:	0.000	Y_WP:	0.500	X:	0.011	Y:	0.036	Z:	0.049	yaw:	-11.758	yaw rate:	-4.815	Roll:	0.085	Pitch:	1.243	Yaw:	-19.148	Thrust:	95.698
Time:	3.592	Roll Set Point:	-0.015	Pitch Set Point:	-0.074	Yaw Set Point:	0.205	X_WP:	0.000	Y_WP:	0.000	Y_WP:	0.500	X:	0.011	Y:	0.036	Z:	0.049	yaw:	-11.726	yaw rate:	3.160	Roll:	0.172	Pitch:	1.218	Yaw:	-18.596	Thrust:	100.000
Time:	3.604	Roll Set Point:	-0.015	Pitch Set Point:	-0.074	Yaw Set Point:	0.205	X_WP:	0.000	Y_WP:	0.000	Y_WP:	0.500	X:	0.011	Y:	0.036	Z:	0.049	yaw:	-11.766	yaw rate:	-3.954	Roll:	0.092	Pitch:	1.260	Yaw:	-19.760	Thrust:	100.000
Time:	3.622	Roll Set Point:	-0.015	Pitch Set Point:	-0.074	Yaw Set Point:	0.205	X_WP:	0.000	Y_WP:	0.000	Y_WP:	0.500	X:	0.011	Y:	0.036	Z:	0.049	yaw:	-11.738	yaw rate:	2.757	Roll:	0.137	Pitch:	1.206	Yaw:	-19.496	Thrust:	100.000
Time:	3.635	Roll Set Point:	-0.015	Pitch Set Point:	-0.074	Yaw Set Point:	0.204	X_WP:	0.000	Y_WP:	0.000	Y_WP:	0.500	X:	0.011	Y:	0.036	Z:	0.049	yaw:	-11.703	yaw rate:	3.953	Roll:	0.148	Pitch:	1.323	Yaw:	-18.493	Thrust:	100.000
Time:	3.647	Roll Set Point:	-0.015	Pitch Set Point:	-0.074	Yaw Set Point:	0.205	X_WP:	0.000	Y_WP:	0.000	Y_WP:	0.500	X:	0.011	Y:	0.036	Z:	0.049	yaw:	-11.751	yaw rate:	-4.803	Roll:	0.089	Pitch:	1.217	Yaw:	-19.859	Thrust:	100.000
Time:	3.659	Roll Set Point:	-0.015	Pitch Set Point:	-0.074	Yaw Set Point:	0.205	X_WP:	0.000	Y_WP:	0.000	Y_WP:	0.500	X:	0.011	Y:	0.036	Z:	0.049	yaw:	-11.742	yaw rate:	0.915	Roll:	0.125	Pitch:	1.224	Yaw:	-18.551	Thrust:	100.000
Time:	3.671	Roll Set Point:	-0.015	Pitch Set Point:	-0.074	Yaw Set Point:	0.205	X_WP:	0.000	Y_WP:	0.000	Y_WP:	0.500	X:	0.011	Y:	0.036	Z:	0.049	yaw:	-11.739	yaw rate:	0.244	Roll:	0.144	Pitch:	1.247	Yaw:	-18.643	Thrust:	100.000
Time:	3.683	Roll Set Point:	-0.015	Pitch Set Point:	-0.074	Yaw Set Point:	0.206	X_WP:	0.000	Y_WP:	0.000	Y_WP:	0.500	X:	0.011	Y:	0.036	Z:	0.049	yaw:	-11.782	yaw rate:	-4.226	Roll:	0.075	Pitch:	1.263	Yaw:	-19.776	Thrust:	100.000
Time:	3.701	Roll Set Point:	-0.015	Pitch Set Point:	-0.074	Yaw Set Point:	0.205	X_WP:	0.000	Y_WP:	0.000	Y_WP:	0.500	X:	0.011	Y:	0.036	Z:	0.049	yaw:	-11.741	yaw rate:	0.329	Roll:	0.150	Pitch:	1.305	Yaw:	-19.544	Thrust:	100.000
Time:	3.713	Roll Set Point:	-0.015	Pitch Set Point:	-0.074	Yaw Set Point:	0.205	X_WP:	0.000	Y_WP:	0.000	Y_WP:	0.500	X:	0.011	Y:	0.036	Z:	0.049	yaw:	-11.768	yaw rate:	-2.635	Roll:	0.075	Pitch:	1.203	Yaw:	-19.336	Thrust:	100.000
Time:	3.727	Roll Set Point:	-0.015	Pitch Set Point:	-0.074	Yaw Set Point:	0.205	X_WP:	0.000	Y_WP:	0.000	Y_WP:	0.500	X:	0.011	Y:	0.036	Z:	0.049	yaw:	-11.743	yaw rate:	2.463	Roll:	0.179	Pitch:	1.262	Yaw:	-18.633	Thrust:	100.000
Time:	3.740	Roll Set Point:	-0.015	Pitch Set Point:	-0.074	Yaw Set Point:	0.205	X_WP:	0.000	Y_WP:	0.000	Y_WP:	0.500	X:	0.011	Y:	0.036	Z:	0.049	yaw:	-11.742	yaw rate:	0.093	Roll:	0.103	Pitch:	1.256	Yaw:	-18.983	Thrust:	100.000
Time:	3.750	Roll Set Point:	-0.015	Pitch Set Point:	-0.074	Yaw Set Point:	0.206	X_WP:	0.000	Y_WP:	0.000	Y_WP:	0.500	X:	0.011	Y:	0.036	Z:	0.049	yaw:	-11.774	yaw rate:	-3.215	Roll:	0.112	Pitch:	1.252	Yaw:	-19.392	Thrust:	100.000
Time:	3.769	Roll Set Point:	-0.015	Pitch Set Point:	-0.074	Yaw Set Point:	0.205	X_WP:	0.000	Y_WP:	0.000	Y_WP:	0.500	X:	0.011	Y:	0.036	Z:	0.049	yaw:	-11.742	yaw rate:	4.179	Roll:	0.159	Pitch:	1.331	Yaw:	-19.744	Thrust:	100.000
Time:	3.792	Roll Set Point:	-0.015	Pitch Set Point:	-0.074	Yaw Set Point:	0.205	X_WP:	0.000	Y_WP:	0.000	Y_WP:	0.500	X:	0.011	Y:	0.036	Z:	0.049	yaw:	-11.731	yaw rate:	1.150	Roll:	0.124	Pitch:	1.368	Yaw:	-20.773	Thrust:	100.000
Time:	3.804	Roll Set Point:	-0.015	Pitch Set Point:	-0.074	Yaw Set Point:	0.205	X_WP:	0.000	Y_WP:	0.000	Y_WP:	0.500	X:	0.011	Y:	0.036	Z:	0.049	yaw:	-11.744	yaw rate:	-0.374	Roll:	0.117	Pitch:	1.235	Yaw:	-19.089	Thrust:	100.000
Time:	3.823	Roll Set Point:	-0.015	Pitch Set Point:	-0.074	Yaw Set Point:	0.205	X_WP:	0.000	Y_WP:	0.000	Y_WP:	0.500	X:	0.011	Y:	0.036	Z:	0.049	yaw:	-11.764	yaw rate:	-2.001	Roll:	0.125	Pitch:	1.336	Yaw:	-20.516	Thrust:	100.000
Time:	3.837	Roll Set Point:	-0.015	Pitch Set Point:	-0.074	Yaw Set Point:	0.205	X_WP:	0.000	Y_WP:	0.000	Y_WP:	0.500	X:	0.011	Y:	0.036	Z:	0.049	yaw:	-11.768	yaw rate:	-0.410	Roll:	0.120	Pitch:	1.254	Yaw:	-19.217	Thrust:	100.000
Time:	3.854	Roll Set Point:	-0.015	Pitch Set Point:	-0.074	Yaw Set Point:	0.205	X_WP:	0.000	Y_WP:	0.000	Y_WP:	0.500	X:	0.011	Y:	0.036	Z:	0.049	yaw:	-11.773	yaw rate:	-0.538	Roll:	0.117	Pitch:	1.250	Yaw:	-19.849	Thrust:	100.000
Time:	3.867	Roll Set Point:	-0.015	Pitch Set Point:	-0.074	Yaw Set Point:	0.205	X_WP:	0.000	Y_WP:	0.000	Y_WP:	0.500	X:	0.011	Y:	0.036	Z:	0.049	yaw:	-11.724	yaw rate:	1.953	Roll:	0.164	Pitch:	1.327	Yaw:	-18.107	Thrust:	100.000
Time:	3.877	Roll Set Point:	-0.015	Pitch Set Point:	-0.074	Yaw Set Point:	0.205	X_WP:	0.000	Y_WP:	0.000	Y_WP:	0.500	X:	0.011	Y:	0.036	Z:	0.049	yaw:	-11.754	yaw rate:	-3.062	Roll:	0.072	Pitch:	1.202	Yaw:	-19.297	Thrust:	100.000
Time:	3.893	Roll Set Point:	-0.015	Pitch Set Point:	-0.074	Yaw Set Point:	0.205	X_WP:	0.000	Y_WP:	0.000	Y_WP:	0.500	X:	0.011	Y:	0.036	Z:	0.049	yaw:	-11.774	yaw rate:	-1.935	Roll:	0.144	Pitch:	1.316	Yaw:	-19.789	Thrust:	100.000
Time:	3.905	Roll Set Point:	-0.015	Pitch Set Point:	-0.074	Yaw Set Point:	0.205	X_WP:	0.000	Y_WP:	0.000	Y_WP:	0.500	X:	0.011	Y:	0.036	Z:	0.049	yaw:	-11.762	yaw rate:	-2.334	Roll:	0.125	Pitch:	1.246	Yaw:	-18.348	Thrust:	100.000
Time:	3.917	Roll Set Point:	-0.015	Pitch Set Point:	-0.074	Yaw Set Point:	0.205	X_WP:	0.000	Y_WP:	0.000	Y_WP:	0.500	X:	0.011	Y:	0.036	Z:	0.049	yaw:	-11.754	yaw rate:	0.749	Roll:	0.111	Pitch:	1.235	Yaw:	-18.656	Thrust:	100.000
Time:	3.928	Roll Set Point:	-0.015	Pitch Set Point:	-0.074	Yaw Set Point:	0.205	X_WP:	0.000	Y_WP:	0.000	Y_WP:	0.500	X:	0.011	Y:	0.036	Z:	0.049	yaw:	-11.748	yaw rate:	0.633	Roll:	0.148	Pitch:	1.264	Yaw:	-18.785	Thrust:	100.000
Time:	3.939	Roll Set Point:	-0.015	Pitch Set Point:	-0.074	Yaw Set Point:	0.205	X_WP:	0.000	Y_WP:	0.000	Y_WP:	0.500	X:	0.011	Y:	0.036	Z:	0.049	yaw:	-11.764	yaw rate:	-1.632	Roll:	0.098	Pitch:	1.228	Yaw:	-19.019	Thrust:	100.000
Time:	3.956	Roll Set Point:	-0.015	Pitch Set Point:	-0.074	Yaw Set Point:	0.205	X_WP:	0.000	Y_WP:	0.000	Y_WP:	0.500	X:	0.011	Y:	0.036	Z:	0.049	yaw:	-11.744	yaw rate:	2.039	Roll:	0.142	Pitch:	1.313	Yaw:	-19.282	Thrust:	100.000
Time:	3.968	Roll Set Point:	-0.015	Pitch Set Point:	-0.074	Yaw Set Point:	0.205	X_WP:	0.000	Y_WP:	0.000	Y_WP:	0.500	X:	0.011	Y:	0.036	Z:	0.049	yaw:	-11.751	yaw rate:	-0.702	Roll:	0.107	Pitch:	1.287	Yaw:	-19.059	Thrust:	100.000
Time:	3.980	Roll Set Point:	-0.015	Pitch Set Point:	-0.074	Yaw Set Point:	0.205	X_WP:	0.000	Y_WP:	0.000	Y_WP:	0.500	X:	0.011	Y:	0.036	Z:	0.049	yaw:	-11.718	yaw rate:	1.554	Roll:	0.158	Pitch:	1.240	Yaw:	-17.824	Thrust:	100.000
Time:	3.992	Roll Set Point:	-0.015	Pitch Set Point:	-0.074	Yaw Set Point:	0.205	X_WP:	0.000	Y_WP:	0.000	Y_WP:	0.500	X:	0.011	Y:	0.036	Z:	0.049	yaw:	-11.732	yaw rate:	-1.400	Roll:	0.137	Pitch:	1.281	Yaw:	-19.186	Thrust:	100.000
Time:	4.004	Roll Set Point:	-0.015	Pitch Set Point:	-0.074	Yaw Set Point:	0.205	X_WP:	0.000	Y_WP:	0.000	Y_WP:	0.500	X:	0.011	Y:	0.036	Z:	0.049	yaw:	-11.735	yaw rate:	-0.328	Roll:	0.148	Pitch:	1.241	Yaw:	-18.865	Thrust:	100.000
Time:	4.015	Roll Set Point:	-0.015	Pitch Set Point:	-0.074	Yaw Set Point:	0.205	X_WP:	0.000	Y_WP:	0.000	Y_WP:	0.500	X:	0.011	Y:	0.036	Z:	0.049	yaw:	-11.746	yaw rate:	-1.072	Roll:	0.043	Pitch:	1.260	Yaw:	-18.863	Thrust:	100.000
Time:	4.026	Roll Set Point:	-0.015	Pitch Set Point:	-0.074	Yaw Set Point:	0.205	X_WP:	0.000	Y_WP:	0.000	Y_WP:	0.500	X:	0.011	Y:	0.036	Z:	0.049	yaw:	-11.750	yaw rate:	-0.364	Roll:	0.115	Pitch:	1.233	Yaw:	-18.702	Thrust:	100.000
Time:	4.037	Roll Set Point:	-0.015	Pitch Set Point:	-0.074	Yaw Set Point:	0.203	X_WP:	0.000	Y_WP:	0.000	Y_WP:	0.500	X:	0.011	Y:	0.036	Z:	0.048	yaw:	-11.641	yaw rate:	10.930	Roll:	0.127	Pitch:	1.244	Yaw:	-16.078	Thrust:	100.000
Time:	4.048	Roll Set Point:	-0.015	Pitch Set Point:	-0.074	Yaw Set Point:	0.205	X_WP:	0.000	Y_WP:	0.000	Y_WP:	0.500	X:	0.011	Y:	0.036	Z:	0.049	yaw:	-11.763	yaw rate:	-12.254	Roll:	0.178	Pitch:	1.276	Yaw:	-21.539	Thrust:	100.000
Time:	4.059	Roll Set Point:	-0.015	Pitch Set Point:	-0.074	Yaw Set Point:	0.205	X_WP:	0.000	Y_WP:	0.000	Y_WP:	0.500	X:	0.011	Y:	0.036	Z:	0.049	yaw:	-11.754	yaw rate:	0.916	Roll:	0.088	Pitch:	1.235	Yaw:	-18.412	Thrust:	100.000
Time:	4.070	Roll Set Point:	-0.015	Pitch Set Point:	-0.074	Yaw Set Point:	0.205	X_WP:	0.000	Y_WP:	0.000	Y_WP:	0.500	X:	0.011	Y:	0.036	Z:	0.049	yaw:	-11.746	yaw rate:	0.837	Roll:	0.123	Pitch:	1.269	Yaw:	-18.358	Thrust:	100.000
Time:	4.082	Roll Set Point:	-0.015	Pitch Set Point:	-0.074	Yaw Set Point:	0.205	X_WP:	0.000	Y_WP:	0.000	Y_WP:	0.500	X:	0.011	Y:	0.036	Z:	0.049	yaw:	-11.731	yaw rate:	1.404	Roll:	0.180	Pitch:	1.261	Yaw:	-18.481	Thrust:	100.000
Time:	4.095	Roll Set Point:	-0.015	Pitch Set Point:	-0.074	Yaw Set Point:	0.205	X_WP:	0.000	Y_WP:	0.000	Y_WP:	0.500	X:	0.011	Y:	0.036	Z:	0.049	yaw:	-11.751	yaw rate:	-1.964	Roll:	0.073	Pitch:	1.274	Yaw:	-19.349	Thrust:	100.000
Time:	4.105	Roll Set Point:	-0.015	Pitch Set Point:	-0.074	Yaw Set Point:	0.205	X_WP:	0.000	Y_WP:	0.000	Y_WP:	0.500	X:	0.011	Y:	0.036	Z:	0.049	yaw:	-11.774	yaw rate:	-2.253	Roll:	0.132	Pitch:	1.275	Yaw:	-19.108	Thrust:	100.000
Time:	4.124	Roll Set Point:	-0.015	Pitch Set Point:	-0.074	Yaw Set Point:	0.205	X_WP:	0.000	Y_WP:	0.000	Y_WP:	0.500	X:	0.011	Y:	0.036	Z:	0.049	yaw:	-11.746	yaw rate:	2.733	Roll:	0.141	Pitch:	1.328	Yaw:	-19.398	Thrust:	100.000
Time:	4.135	Roll Set Point:	-0.015	Pitch Set Point:	-0.074	Yaw Set Point:	0.205	X_WP:	0.000	Y_WP:	0.000	Y_WP:	0.500	X:	0.011	Y:	0.036	Z:	0.049	yaw:	-11.755	yaw rate:	-1.193	Roll:	0.138	Pitch:	1.315	Yaw:	-19.195	Thrust:	100.000
Time:	4.147	Roll Set Point:	-0.015	Pitch Set Point:	-0.074	Yaw Set Point:	0.205	X_WP:	0.000	Y_WP:	0.000	Y_WP:	0.500	X:	0.011	Y:	0.036	Z:	0.049	yaw:	-11.756	yaw rate:	-0.118	Roll:	0.121	Pitch:	1.232	Yaw:	-18.751	Thrust:	100.000
Time:	4.160	Roll Set Point:	-0.015	Pitch Set Point:	-0.074	Yaw Set Point:	0.205	X_WP:	0.000	Y_WP:	0.000	Y_WP:	0.500	X:	0.011	Y:	0.036	Z:	0.049	yaw:	-11.751	yaw rate:	0.482	Roll:	0.143	Pitch:	1.329	Yaw:	-18.924	Thrust:	100.000
Time:	4.171	Roll Set Point:	-0.015	Pitch Set Point:	-0.074	Yaw Set Point:	0.205	X_WP:	0.000	Y_WP:	0.000	Y_WP:	0.500	X:	0.011	Y:	0.036	Z:	0.049	yaw:	-11.757	yaw rate:	-0.604	Roll:	0.099	Pitch:	1.265	Yaw:	-18.778	Thrust:	100.000
Time:	4.183	Roll Set Point:	-0.015	Pitch Set Point:	-0.074	Yaw Set Point:	0.205	X_WP:	0.000	Y_WP:	0.000	Y_WP:	0.500	X:	0.011	Y:	0.036	Z:	0.049	yaw:	-11.743	yaw rate:	1.429	Roll:	0.135	Pitch:	1.257	Yaw:	-18.493	Thrust:	100.000
Time:	4.198	Roll Set Point:	-0.015	Pitch Set Point:	-0.074	Yaw Set Point:	0.205	X_WP:	0.000	Y_WP:	0.000	Y_WP:	0.500	X:	0.011	Y:	0.036	Z:	0.049	yaw:	-11.749	yaw rate:	-1.689	Roll:	0.130	Pitch:	1.305	Yaw:	-19.415	Thrust:	100.000
Time:	4.209	Roll Set Point:	-0.015	Pitch Set Point:	-0.074	Yaw Set Point:	0.205	X_WP:	0.000	Y_WP:	0.000	Y_WP:	0.500	X:	0.011	Y:	0.036	Z:	0.049	yaw:	-11.746	yaw rate:	0.227	Roll:	0.115	Pitch:	1.290	Yaw:	-18.553	Thrust:	100.000
Time:	4.225	Roll Set Point:	-0.015	Pitch Set Point:	-0.074	Yaw Set Point:	0.205	X_WP:	0.000	Y_WP:	0.000	Y_WP:	0.500	X:	0.011	Y:	0.036	Z:	0.049	yaw:	-11.746	yaw rate:	0.072	Roll:	0.147	Pitch:	1.320	Yaw:	-19.402	Thrust:	100.000
Time:	4.236	Roll Set Point:	-0.015	Pitch Set Point:	-0.074	Yaw Set Point:	0.205	X_WP:	0.000	Y_WP:	0.000	Y_WP:	0.500	X:	0.011	Y:	0.036	Z:	0.049	yaw:	-11.744	yaw rate:	0.127	Roll:	0.142	Pitch:	1.312	Yaw:	-18.877	Thrust:	100.000
Time:	4.251	Roll Set Point:	-0.015	Pitch Set Point:	-0.074	Yaw Set Point:	0.206	X_WP:	0.000	Y_WP:	0.000	Y_WP:	0.500	X:	0.011	Y:	0.036	Z:	0.049	yaw:	-11.783	yaw rate:	-1.778	Roll:	0.083	Pitch:	1.273	Yaw:	-19.804	Thrust:	100.000
Time:	4.267	Roll Set Point:	-0.015	Pitch Set Point:	-0.074	Yaw Set Point:	0.205	X_WP:	0.000	Y_WP:	0.000	Y_WP:	0.500	X:	0.011	Y:	0.036	Z:	0.049	yaw:	-11.741	yaw rate:	4.214	Roll:	0.157	Pitch:	1.363	Yaw:	-19.342	Thrust:	100.000
Time:	4.280	Roll Set Point:	-0.015	Pitch Set Point:	-0.074	Yaw Set Point:	0.205	X_WP:	0.000	Y_WP:	0.000	Y_WP:	0.500	X:	0.011	Y:	0.036	Z:	0.049	yaw:	-11.739	yaw rate:	0.245	Roll:	0.127	Pitch:	1.312	Yaw:	-18.848	Thrust:	100.000
Time:	4.293	Roll Set Point:	-0.015	Pitch Set Point:	-0.074	Yaw Set Point:	0.205	X_WP:	0.000	Y_WP:	0.000	Y_WP:	0.500	X:	0.011	Y:	0.036	Z:	0.049	yaw:	-11.731	yaw rate:	0.763	Roll:	0.139	Pitch:	1.306	Yaw:	-18.836	Thrust:	100.000
Time:	4.304	Roll Set Point:	-0.015	Pitch Set Point:	-0.074	Yaw Set Point:	0.205	X_WP:	0.000	Y_WP:	0.000	Y_WP:	0.500	X:	0.011	Y:	0.036	Z:	0.049	yaw:	-11.751	yaw rate:	-2.981	Roll:	0.110	Pitch:	1.310	Yaw:	-19.129	Thrust:	100.000
Time:	4.317	Roll Set Point:	-0.015	Pitch Set Point:	-0.074	Yaw Set Point:	0.205	X_WP:	0.000	Y_WP:	0.000	Y_WP:	0.500	X:	0.011	Y:	0.036	Z:	0.049	yaw:	-11.752	yaw rate:	-0.049	Roll:	0.107	Pitch:	1.241	Yaw:	-18.817	Thrust:	100.000
Time:	4.332	Roll Set Point:	-0.015	Pitch Set Point:	-0.074	Yaw Set Point:	0.205	X_WP:	0.000	Y_WP:	0.000	Y_WP:	0.500	X:	0.011	Y:	0.036	Z:	0.049	yaw:	-11.734	yaw rate:	1.733	Roll:	0.174	Pitch:	1.377	Yaw:	-19.394	Thrust:	100.000
Time:	4.343	Roll Set Point:	-0.015	Pitch Set Point:	-0.074	Yaw Set Point:	0.205	X_WP:	0.000	Y_WP:	0.000	Y_WP:	0.500	X:	0.011	Y:	0.036	Z:	0.049	yaw:	-11.753	yaw rate:	-1.897	Roll:	0.095	Pitch:	1.301	Yaw:	-19.067	Thrust:	100.000
Time:	4.357	Roll Set Point:	-0.015	Pitch Set Point:	-0.074	Yaw Set Point:	0.205	X_WP:	0.000	Y_WP:	0.000	Y_WP:	0.500	X:	0.011	Y:	0.036	Z:	0.049	yaw:	-11.742	yaw rate:	1.136	Roll:	0.116	Pitch:	1.275	Yaw:	-19.018	Thrust:	100.000
Time:	4.368	Roll Set Point:	-0.015	Pitch Set Point:	-0.074	Yaw Set Point:	0.203	X_WP:	0.000	Y_WP:	0.000	Y_WP:	0.500	X:	0.011	Y:	0.036	Z:	0.048	yaw:	-11.611	yaw rate:	13.108	Roll:	0.118	Pitch:	1.286	Yaw:	-15.143	Thrust:	100.000
Time:	4.381	Roll Set Point:	-0.015	Pitch Set Point:	-0.074	Yaw Set Point:	0.205	X_WP:	0.000	Y_WP:	0.000	Y_WP:	0.500	X:	0.011	Y:	0.036	Z:	0.049	yaw:	-11.758	yaw rate:	1.676	Roll:	0.152	Pitch:	1.306	Yaw:	-22.016	Thrust:	100.000
Time:	4.394	Roll Set Point:	-0.015	Pitch Set Point:	-0.074	Yaw Set Point:	0.205	X_WP:	0.000	Y_WP:	0.000	Y_WP:	0.500	X:	0.011	Y:	0.036	Z:	0.049	yaw:	-11.757	yaw rate:	0.154	Roll:	0.132	Pitch:	1.331	Yaw:	-19.105	Thrust:	100.000
Time:	4.405	Roll Set Point:	-0.015	Pitch Set Point:	-0.074	Yaw Set Point:	0.205	X_WP:	0.000	Y_WP:	0.000	Y_WP:	0.500	X:	0.011	Y:	0.036	Z:	0.049	yaw:	-11.730	yaw rate:	2.638	Roll:	0.143	Pitch:	1.277	Yaw:	-17.841	Thrust:	100.000
Time:	4.418	Roll Set Point:	-0.015	Pitch Set Point:	-0.074	Yaw Set Point:	0.205	X_WP:	0.000	Y_WP:	0.000	Y_WP:	0.500	X:	0.011	Y:	0.036	Z:	0.049	yaw:	-11.752	yaw rate:	-2.183	Roll:	0.096	Pitch:	1.319	Yaw:	-19.456	Thrust:	100.000
Time:	4.432	Roll Set Point:	-0.015	Pitch Set Point:	-0.074	Yaw Set Point:	0.205	X_WP:	0.000	Y_WP:	0.000	Y_WP:	0.500	X:	0.011	Y:	0.036	Z:	0.049	yaw:	-11.759	yaw rate:	-0.667	Roll:	0.130	Pitch:	1.339	Yaw:	-19.331	Thrust:	100.000
Time:	4.444	Roll Set Point:	-0.015	Pitch Set Point:	-0.074	Yaw Set Point:	0.205	X_WP:	0.000	Y_WP:	0.000	Y_WP:	0.500	X:	0.011	Y:	0.036	Z:	0.049	yaw:	-11.769	yaw rate:	-1.376	Roll:	0.146	Pitch:	1.311	Yaw:	-19.174	Thrust:	100.000
Time:	4.456	Roll Set Point:	-0.015	Pitch Set Point:	-0.074	Yaw Set Point:	0.205	X_WP:	0.000	Y_WP:	0.000	Y_WP:	0.500	X:	0.011	Y:	0.036	Z:	0.049	yaw:	-11.743	yaw rate:	2.594	Roll:	0.142	Pitch:	1.303	Yaw:	-18.064	Thrust:	100.000
Time:	4.467	Roll Set Point:	-0.015	Pitch Set Point:	-0.074	Yaw Set Point:	0.205	X_WP:	0.000	Y_WP:	0.000	Y_WP:	0.500	X:	0.011	Y:	0.036	Z:	0.049	yaw:	-11.741	yaw rate:	0.169	Roll:	0.138	Pitch:	1.286	Yaw:	-18.661	Thrust:	100.000
Time:	4.479	Roll Set Point:	-0.015	Pitch Set Point:	-0.074	Yaw Set Point:	0.205	X_WP:	0.000	Y_WP:	0.000	Y_WP:	0.500	X:	0.011	Y:	0.036	Z:	0.049	yaw:	-11.748	yaw rate:	-0.667	Roll:	0.137	Pitch:	1.335	Yaw:	-19.021	Thrust:	100.000
Time:	4.492	Roll Set Point:	-0.015	Pitch Set Point:	-0.074	Yaw Set Point:	0.205	X_WP:	0.000	Y_WP:	0.000	Y_WP:	0.500	X:	0.011	Y:	0.036	Z:	0.049	yaw:	-11.726	yaw rate:	2.184	Roll:	0.127	Pitch:	1.280	Yaw:	-18.306	Thrust:	100.000
Time:	4.503	Roll Set Point:	-0.015	Pitch Set Point:	-0.074	Yaw Set Point:	0.205	X_WP:	0.000	Y_WP:	0.000	Y_WP:	0.500	X:	0.011	Y:	0.036	Z:	0.049	yaw:	-11.759	yaw rate:	-3.336	Roll:	0.111	Pitch:	1.304	Yaw:	-19.457	Thrust:	100.000
Time:	4.517	Roll Set Point:	-0.015	Pitch Set Point:	-0.074	Yaw Set Point:	0.205	X_WP:	0.000	Y_WP:	0.000	Y_WP:	0.500	X:	0.011	Y:	0.036	Z:	0.049	yaw:	-11.753	yaw rate:	0.635	Roll:	0.119	Pitch:	1.336	Yaw:	-19.103	Thrust:	100.000
Time:	4.530	Roll Set Point:	-0.015	Pitch Set Point:	-0.074	Yaw Set Point:	0.205	X_WP:	0.000	Y_WP:	0.000	Y_WP:	0.500	X:	0.011	Y:	0.036	Z:	0.049	yaw:	-11.762	yaw rate:	-4.479	Roll:	0.136	Pitch:	1.330	Yaw:	-19.222	Thrust:	100.000
Time:	4.541	Roll Set Point:	-0.015	Pitch Set Point:	-0.074	Yaw Set Point:	0.205	X_WP:	0.000	Y_WP:	0.000	Y_WP:	0.500	X:	0.011	Y:	0.036	Z:	0.049	yaw:	-11.728	yaw rate:	3.415	Roll:	0.152	Pitch:	1.309	Yaw:	-17.771	Thrust:	100.000
Time:	4.553	Roll Set Point:	-0.015	Pitch Set Point:	-0.074	Yaw Set Point:	0.205	X_WP:	0.000	Y_WP:	0.000	Y_WP:	0.500	X:	0.011	Y:	0.036	Z:	0.049	yaw:	-11.744	yaw rate:	-1.632	Roll:	0.109	Pitch:	1.297	Yaw:	-19.162	Thrust:	100.000
Time:	4.565	Roll Set Point:	-0.015	Pitch Set Point:	-0.074	Yaw Set Point:	0.205	X_WP:	0.000	Y_WP:	0.000	Y_WP:	0.500	X:	0.011	Y:	0.036	Z:	0.049	yaw:	-11.725	yaw rate:	1.970	Roll:	0.160	Pitch:	1.319	Yaw:	-18.124	Thrust:	100.000
Time:	4.576	Roll Set Point:	-0.015	Pitch Set Point:	-0.074	Yaw Set Point:	0.205	X_WP:	0.000	Y_WP:	0.000	Y_WP:	0.500	X:	0.011	Y:	0.036	Z:	0.049	yaw:	-11.737	yaw rate:	-1.200	Roll:	0.146	Pitch:	1.309	Yaw:	-19.042	Thrust:	100.000
Time:	4.587	Roll Set Point:	-0.015	Pitch Set Point:	-0.074	Yaw Set Point:	0.205	X_WP:	0.000	Y_WP:	0.000	Y_WP:	0.500	X:	0.011	Y:	0.036	Z:	0.049	yaw:	-11.730	yaw rate:	0.654	Roll:	0.112	Pitch:	1.263	Yaw:	-18.434	Thrust:	100.000
Time:	4.598	Roll Set Point:	-0.015	Pitch Set Point:	-0.074	Yaw Set Point:	0.205	X_WP:	0.000	Y_WP:	0.000	Y_WP:	0.500	X:	0.011	Y:	0.036	Z:	0.049	yaw:	-11.740	yaw rate:	-0.999	Roll:	0.126	Pitch:	1.318	Yaw:	-18.844	Thrust:	100.000
Time:	4.609	Roll Set Point:	-0.015	Pitch Set Point:	-0.074	Yaw Set Point:	0.205	X_WP:	0.000	Y_WP:	0.000	Y_WP:	0.500	X:	0.011	Y:	0.036	Z:	0.049	yaw:	-11.750	yaw rate:	-1.008	Roll:	0.113	Pitch:	1.305	Yaw:	-18.877	Thrust:	100.000
Time:	4.621	Roll Set Point:	-0.015	Pitch Set Point:	-0.074	Yaw Set Point:	0.205	X_WP:	0.000	Y_WP:	0.000	Y_WP:	0.500	X:	0.011	Y:	0.036	Z:	0.049	yaw:	-11.750	yaw rate:	0.020	Roll:	0.130	Pitch:	1.322	Yaw:	-18.712	Thrust:	100.000
Time:	4.632	Roll Set Point:	-0.015	Pitch Set Point:	-0.074	Yaw Set Point:	0.205	X_WP:	0.000	Y_WP:	0.000	Y_WP:	0.500	X:	0.011	Y:	0.036	Z:	0.049	yaw:	-11.722	yaw rate:	2.834	Roll:	0.150	Pitch:	1.292	Yaw:	-17.932	Thrust:	100.000
Time:	4.643	Roll Set Point:	-0.015	Pitch Set Point:	-0.074	Yaw Set Point:	0.205	X_WP:	0.000	Y_WP:	0.000	Y_WP:	0.500	X:	0.011	Y:	0.036	Z:	0.049	yaw:	-11.733	yaw rate:	-1.149	Roll:	0.119	Pitch:	1.287	Yaw:	-18.774	Thrust:	100.000
Time:	4.655	Roll Set Point:	-0.015	Pitch Set Point:	-0.074	Yaw Set Point:	0.205	X_WP:	0.000	Y_WP:	0.000	Y_WP:	0.500	X:	0.011	Y:	0.036	Z:	0.049	yaw:	-11.731	yaw rate:	0.254	Roll:	0.158	Pitch:	1.320	Yaw:	-18.725	Thrust:	100.000
Time:	4.666	Roll Set Point:	-0.015	Pitch Set Point:	-0.074	Yaw Set Point:	0.205	X_WP:	0.000	Y_WP:	0.000	Y_WP:	0.500	X:	0.011	Y:	0.036	Z:	0.049	yaw:	-11.753	yaw rate:	-2.197	Roll:	0.085	Pitch:	1.328	Yaw:	-19.157	Thrust:	100.000
Time:	4.677	Roll Set Point:	-0.015	Pitch Set Point:	-0.074	Yaw Set Point:	0.205	X_WP:	0.000	Y_WP:	0.000	Y_WP:	0.500	X:	0.011	Y:	0.036	Z:	0.049	yaw:	-11.743	yaw rate:	-0.207	Roll:	0.121	Pitch:	1.285	Yaw:	-18.443	Thrust:	100.000
Time:	4.689	Roll Set Point:	-0.015	Pitch Set Point:	-0.074	Yaw Set Point:	0.205	X_WP:	0.000	Y_WP:	0.000	Y_WP:	0.500	X:	0.011	Y:	0.036	Z:	0.049	yaw:	-11.739	yaw rate:	0.489	Roll:	0.164	Pitch:	1.338	Yaw:	-18.570	Thrust:	100.000
Time:	4.699	Roll Set Point:	-0.015	Pitch Set Point:	-0.074	Yaw Set Point:	0.205	X_WP:	0.000	Y_WP:	0.000	Y_WP:	0.500	X:	0.011	Y:	0.036	Z:	0.049	yaw:	-11.724	yaw rate:	1.425	Roll:	0.152	Pitch:	1.287	Yaw:	-18.203	Thrust:	100.000
Time:	4.710	Roll Set Point:	-0.015	Pitch Set Point:	-0.074	Yaw Set Point:	0.205	X_WP:	0.000	Y_WP:	0.000	Y_WP:	0.500	X:	0.011	Y:	0.036	Z:	0.049	yaw:	-11.754	yaw rate:	-2.930	Roll:	0.106	Pitch:	1.307	Yaw:	-19.310	Thrust:	100.000
Time:	4.722	Roll Set Point:	-0.015	Pitch Set Point:	-0.074	Yaw Set Point:	0.205	X_WP:	0.000	Y_WP:	0.000	Y_WP:	0.500	X:	0.011	Y:	0.036	Z:	0.049	yaw:	-11.755	yaw rate:	-0.121	Roll:	0.093	Pitch:	1.313	Yaw:	-18.830	Thrust:	100.000
Time:	4.733	Roll Set Point:	-0.015	Pitch Set Point:	-0.074	Yaw Set Point:	0.205	X_WP:	0.000	Y_WP:	0.000	Y_WP:	0.500	X:	0.011	Y:	0.036	Z:	0.049	yaw:	-11.757	yaw rate:	-0.232	Roll:	0.154	Pitch:	1.322	Yaw:	-18.682	Thrust:	100.000
Time:	4.746	Roll Set Point:	-0.015	Pitch Set Point:	-0.074	Yaw Set Point:	0.205	X_WP:	0.000	Y_WP:	0.000	Y_WP:	0.500	X:	0.011	Y:	0.036	Z:	0.049	yaw:	-11.739	yaw rate:	1.830	Roll:	0.118	Pitch:	1.316	Yaw:	-18.442	Thrust:	100.000
Time:	4.757	Roll Set Point:	-0.015	Pitch Set Point:	-0.074	Yaw Set Point:	0.205	X_WP:	0.000	Y_WP:	0.000	Y_WP:	0.500	X:	0.011	Y:	0.036	Z:	0.049	yaw:	-11.746	yaw rate:	-0.730	Roll:	0.142	Pitch:	1.351	Yaw:	-18.789	Thrust:	100.000
Time:	4.768	Roll Set Point:	-0.015	Pitch Set Point:	-0.074	Yaw Set Point:	0.205	X_WP:	0.000	Y_WP:	0.000	Y_WP:	0.500	X:	0.011	Y:	0.036	Z:	0.049	yaw:	-11.759	yaw rate:	-1.323	Roll:	0.126	Pitch:	1.280	Yaw:	-18.890	Thrust:	100.000
Time:	4.778	Roll Set Point:	-0.015	Pitch Set Point:	-0.074	Yaw Set Point:	0.205	X_WP:	0.000	Y_WP:	0.000	Y_WP:	0.500	X:	0.011	Y:	0.036	Z:	0.049	yaw:	-11.730	yaw rate:	2.928	Roll:	0.168	Pitch:	1.326	Yaw:	-17.804	Thrust:	100.000
Time:	4.790	Roll Set Point:	-0.015	Pitch Set Point:	-0.074	Yaw Set Point:	0.205	X_WP:	0.000	Y_WP:	0.000	Y_WP:	0.500	X:	0.011	Y:	0.036	Z:	0.049	yaw:	-11.730	yaw rate:	-0.028	Roll:	0.106	Pitch:	1.319	Yaw:	-18.702	Thrust:	100.000
Time:	4.801	Roll Set Point:	-0.015	Pitch Set Point:	-0.074	Yaw Set Point:	0.205	X_WP:	0.000	Y_WP:	0.000	Y_WP:	0.500	X:	0.011	Y:	0.036	Z:	0.049	yaw:	-11.738	yaw rate:	-0.782	Roll:	0.124	Pitch:	1.314	Yaw:	-18.787	Thrust:	100.000
Time:	4.813	Roll Set Point:	-0.015	Pitch Set Point:	-0.074	Yaw Set Point:	0.205	X_WP:	0.000	Y_WP:	0.000	Y_WP:	0.500	X:	0.011	Y:	0.036	Z:	0.049	yaw:	-11.743	yaw rate:	-0.501	Roll:	0.123	Pitch:	1.313	Yaw:	-18.689	Thrust:	100.000
Time:	4.823	Roll Set Point:	-0.015	Pitch Set Point:	-0.074	Yaw Set Point:	0.205	X_WP:	0.000	Y_WP:	0.000	Y_WP:	0.500	X:	0.011	Y:	0.036	Z:	0.049	yaw:	-11.739	yaw rate:	0.456	Roll:	0.169	Pitch:	1.343	Yaw:	-18.605	Thrust:	100.000
Time:	4.834	Roll Set Point:	-0.015	Pitch Set Point:	-0.074	Yaw Set Point:	0.205	X_WP:	0.000	Y_WP:	0.000	Y_WP:	0.500	X:	0.011	Y:	0.036	Z:	0.049	yaw:	-11.768	yaw rate:	-2.889	Roll:	0.121	Pitch:	1.326	Yaw:	-19.344	Thrust:	100.000
Time:	4.846	Roll Set Point:	-0.015	Pitch Set Point:	-0.074	Yaw Set Point:	0.205	X_WP:	0.000	Y_WP:	0.000	Y_WP:	0.500	X:	0.011	Y:	0.036	Z:	0.049	yaw:	-11.738	yaw rate:	2.949	Roll:	0.135	Pitch:	1.336	Yaw:	-18.087	Thrust:	100.000
Time:	4.860	Roll Set Point:	-0.015	Pitch Set Point:	-0.074	Yaw Set Point:	0.205	X_WP:	0.000	Y_WP:	0.000	Y_WP:	0.500	X:	0.011	Y:	0.036	Z:	0.049	yaw:	-11.737	yaw rate:	0.107	Roll:	0.110	Pitch:	1.324	Yaw:	-18.976	Thrust:	100.000
Time:	4.871	Roll Set Point:	-0.015	Pitch Set Point:	-0.074	Yaw Set Point:	0.205	X_WP:	0.000	Y_WP:	0.000	Y_WP:	0.500	X:	0.011	Y:	0.036	Z:	0.049	yaw:	-11.763	yaw rate:	-1.431	Roll:	0.119	Pitch:	1.359	Yaw:	-19.359	Thrust:	100.000
Time:	4.883	Roll Set Point:	-0.015	Pitch Set Point:	-0.074	Yaw Set Point:	0.205	X_WP:	0.000	Y_WP:	0.000	Y_WP:	0.500	X:	0.011	Y:	0.036	Z:	0.049	yaw:	-11.763	yaw rate:	-1.431	Roll:	0.131	Pitch:	1.343	Yaw:	-18.821	Thrust:	100.000
Time:	4.895	Roll Set Point:	-0.015	Pitch Set Point:	-0.074	Yaw Set Point:	0.205	X_WP:	0.000	Y_WP:	0.000	Y_WP:	0.500	X:	0.011	Y:	0.036	Z:	0.049	yaw:	-11.746	yaw rate:	-3.239	Roll:	0.151	Pitch:	1.349	Yaw:	-18.313	Thrust:	100.000
Time:	4.906	Roll Set Point:	-0.015	Pitch Set Point:	-0.074	Yaw Set Point:	0.205	X_WP:	0.000	Y_WP:	0.000	Y_WP:	0.500	X:	0.011	Y:	0.036	Z:	0.049	yaw:	-11.756	yaw rate:	-0.994	Roll:	0.138	Pitch:	1.325	Yaw:	-18.917	Thrust:	100.000
Time:	4.922	Roll Set Point:	-0.015	Pitch Set Point:	-0.074	Yaw Set Point:	0.205	X_WP:	0.000	Y_WP:	0.000	Y_WP:	0.500	X:	0.011	Y:	0.036	Z:	0.049	yaw:	-11.740	yaw rate:	1.537	Roll:	0.124	Pitch:	1.387	Yaw:	-19.154	Thrust:	100.000
Time:	4.936	Roll Set Point:	-0.015	Pitch Set Point:	-0.074	Yaw Set Point:	0.205	X_WP:	0.000	Y_WP:	0.000	Y_WP:	0.500	X:	0.011	Y:	0.036	Z:	0.049	yaw:	-11.746	yaw rate:	-0.534	Roll:	0.161	Pitch:	1.442	Yaw:	-19.388	Thrust:	100.000
Time:	4.952	Roll Set Point:	-0.015	Pitch Set Point:	-0.074	Yaw Set Point:	0.205	X_WP:	0.000	Y_WP:	0.000	Y_WP:	0.500	X:	0.011	Y:	0.036	Z:	0.049	yaw:	-11.751	yaw rate:	-1.467	Roll:	0.118	Pitch:	1.416	Yaw:	-19.864	Thrust:	100.000
Time:	4.964	Roll Set Point:	-0.015	Pitch Set Point:	-0.074	Yaw Set Point:	0.205	X_WP:	0.000	Y_WP:	0.000	Y_WP:	0.500	X:	0.011	Y:	0.036	Z:	0.049	yaw:	-11.748	yaw rate:	0.365	Roll:	0.161	Pitch:	1.354	Yaw:	-18.539	Thrust:	100.000
Time:	4.975	Roll Set Point:	-0.015	Pitch Set Point:	-0.074	Yaw Set Point:	0.205	X_WP:	0.000	Y_WP:	0.000	Y_WP:	0.500	X:	0.011	Y:	0.036	Z:	0.049	yaw:	-11.741	yaw rate:	0.659	Roll:	0.124	Pitch:	1.334	Yaw:	-18.562	Thrust:	100.000
Time:	4.986	Roll Set Point:	-0.015	Pitch Set Point:	-0.074	Yaw Set Point:	0.205	X_WP:	0.000	Y_WP:	0.000	Y_WP:	0.500	X:	0.011	Y:	0.036	Z:	0.049	yaw:	-11.754	yaw rate:	-1.295	Roll:	0.155	Pitch:	1.347	Yaw:	-18.894	Thrust:	100.000
Time:	4.998	Roll Set Point:	-0.015	Pitch Set Point:	-0.074	Yaw Set Point:	0.205	X_WP:	0.000	Y_WP:	0.000	Y_WP:	0.500	X:	0.011	Y:	0.036	Z:	0.049	yaw:	-11.736	yaw rate:	1.814	Roll:	0.136	Pitch:	1.371	Yaw:	-18.338	Thrust:	100.000
Time:	5.008	Roll Set Point:	-0.015	Pitch Set Point:	-0.074	Yaw Set Point:	0.205	X_WP:	0.000	Y_WP:	0.000	Y_WP:	0.500	X:	0.011	Y:	0.036	Z:	0.049	yaw:	-11.747	yaw rate:	-1.127	Roll:	0.111	Pitch:	1.279	Yaw:	-18.803	Thrust:	100.000
Time:	5.022	Roll Set Point:	-0.015	Pitch Set Point:	-0.074	Yaw Set Point:	0.205	X_WP:	0.000	Y_WP:	0.000	Y_WP:	0.500	X:	0.011	Y:	0.036	Z:	0.049	yaw:	-11.726	yaw rate:	2.130	Roll:	0.125	Pitch:	1.380	Yaw:	-18.559	Thrust:	100.000
Time:	5.036	Roll Set Point:	-0.015	Pitch Set Point:	-0.074	Yaw Set Point:	0.205	X_WP:	0.000	Y_WP:	0.000	Y_WP:	0.500	X:	0.011	Y:	0.036	Z:	0.049	yaw:	-11.738	yaw rate:	-1.098	Roll:	0.149	Pitch:	1.429	Yaw:	-19.530	Thrust:	100.000
Time:	5.048	Roll Set Point:	-0.015	Pitch Set Point:	-0.074	Yaw Set Point:	0.205	X_WP:	0.000	Y_WP:	0.000	Y_WP:	0.500	X:	0.011	Y:	0.036	Z:	0.049	yaw:	-11.720	yaw rate:	1.852	Roll:	0.182	Pitch:	1.353	Yaw:	-18.409	Thrust:	100.000
Time:	5.061	Roll Set Point:	-0.015	Pitch Set Point:	-0.074	Yaw Set Point:	0.205	X_WP:	0.000	Y_WP:	0.000	Y_WP:	0.500	X:	0.011	Y:	0.036	Z:	0.049	yaw:	-11.750	yaw rate:	-3.037	Roll:	0.131	Pitch:	1.416	Yaw:	-19.632	Thrust:	100.000
Time:	5.072	Roll Set Point:	-0.015	Pitch Set Point:	-0.074	Yaw Set Point:	0.205	X_WP:	0.000	Y_WP:	0.000	Y_WP:	0.500	X:	0.011	Y:	0.036	Z:	0.049	yaw:	-11.722	yaw rate:	2.863	Roll:	0.115	Pitch:	1.348	Yaw:	-17.923	Thrust:	100.000
Time:	5.090	Roll Set Point:	-0.015	Pitch Set Point:	-0.074	Yaw Set Point:	0.203	X_WP:	0.000	Y_WP:	0.000	Y_WP:	0.500	X:	0.011	Y:	0.036	Z:	0.048	yaw:	-11.619	yaw rate:	10.273	Roll:	0.086	Pitch:	1.361	Yaw:	-18.055	Thrust:	100.000
Time:	5.104	Roll Set Point:	-0.015	Pitch Set Point:	-0.074	Yaw Set Point:	0.205	X_WP:	0.000	Y_WP:	0.000	Y_WP:	0.500	X:	0.011	Y:	0.036	Z:	0.049	yaw:	-11.769	yaw rate:	-3.079	Roll:	0.153	Pitch:	1.505	Yaw:	-22.054	Thrust:	100.000
Time:	5.116	Roll Set Point:	-0.015	Pitch Set Point:	-0.074	Yaw Set Point:	0.205	X_WP:	0.000	Y_WP:	0.000	Y_WP:	0.500	X:	0.011	Y:	0.036	Z:	0.049	yaw:	-11.755	yaw rate:	1.455	Roll:	0.160	Pitch:	1.345	Yaw:	-18.510	Thrust:	100.000
Time:	5.128	Roll Set Point:	-0.015	Pitch Set Point:	-0.074	Yaw Set Point:	0.205	X_WP:	0.000	Y_WP:	0.000	Y_WP:	0.500	X:	0.011	Y:	0.036	Z:	0.049	yaw:	-11.746	yaw rate:	0.898	Roll:	0.156	Pitch:	1.385	Yaw:	-18.577	Thrust:	100.000
Time:	5.140	Roll Set Point:	-0.015	Pitch Set Point:	-0.074	Yaw Set Point:	0.205	X_WP:	0.000	Y_WP:	0.000	Y_WP:	0.500	X:	0.011	Y:	0.036	Z:	0.049	yaw:	-11.762	yaw rate:	-1.652	Roll:	0.090	Pitch:	1.349	Yaw:	-19.060	Thrust:	100.000
Time:	5.155	Roll Set Point:	-0.015	Pitch Set Point:	-0.074	Yaw Set Point:	0.205	X_WP:	0.000	Y_WP:	0.000	Y_WP:	0.500	X:	0.011	Y:	0.036	Z:	0.049	yaw:	-11.729	yaw rate:	3.354	Roll:	0.165	Pitch:	1.404	Yaw:	-18.680	Thrust:	100.000
Time:	5.168	Roll Set Point:	-0.015	Pitch Set Point:	-0.074	Yaw Set Point:	0.205	X_WP:	0.000	Y_WP:	0.000	Y_WP:	0.500	X:	0.011	Y:	0.036	Z:	0.049	yaw:	-11.767	yaw rate:	-2.279	Roll:	0.134	Pitch:	1.422	Yaw:	-19.902	Thrust:	100.000
Time:	5.179	Roll Set Point:	-0.015	Pitch Set Point:	-0.074	Yaw Set Point:	0.205	X_WP:	0.000	Y_WP:	0.000	Y_WP:	0.500	X:	0.011	Y:	0.036	Z:	0.049	yaw:	-11.753	yaw rate:	1.387	Roll:	0.149	Pitch:	1.333	Yaw:	-18.291	Thrust:	100.000
Time:	5.189	Roll Set Point:	-0.015	Pitch Set Point:	-0.074	Yaw Set Point:	0.205	X_WP:	0.000	Y_WP:	0.000	Y_WP:	0.500	X:	0.011	Y:	0.036	Z:	0.049	yaw:	-11.764	yaw rate:	-1.101	Roll:	0.128	Pitch:	1.365	Yaw:	-18.809	Thrust:	100.000
Time:	5.200	Roll Set Point:	-0.015	Pitch Set Point:	-0.074	Yaw Set Point:	0.205	X_WP:	0.000	Y_WP:	0.000	Y_WP:	0.500	X:	0.011	Y:	0.036	Z:	0.049	yaw:	-11.750	yaw rate:	1.386	Roll:	0.131	Pitch:	1.365	Yaw:	-18.291	Thrust:	100.000
Time:	5.213	Roll Set Point:	-0.015	Pitch Set Point:	-0.074	Yaw Set Point:	0.205	X_WP:	0.000	Y_WP:	0.000	Y_WP:	0.500	X:	0.011	Y:	0.036	Z:	0.049	yaw:	-11.742	yaw rate:	0.781	Roll:	0.147	Pitch:	1.364	Yaw:	-18.655	Thrust:	100.000
Time:	5.226	Roll Set Point:	-0.015	Pitch Set Point:	-0.074	Yaw Set Point:	0.205	X_WP:	0.000	Y_WP:	0.000	Y_WP:	0.500	X:	0.011	Y:	0.036	Z:	0.049	yaw:	-11.762	yaw rate:	-2.005	Roll:	0.117	Pitch:	1.411	Yaw:	-19.568	Thrust:	100.000
Time:	5.238	Roll Set Point:	-0.015	Pitch Set Point:	-0.074	Yaw Set Point:	0.205	X_WP:	0.000	Y_WP:	0.000	Y_WP:	0.500	X:	0.011	Y:	0.036	Z:	0.049	yaw:	-11.769	yaw rate:	-0.678	Roll:	0.125	Pitch:	1.366	Yaw:	-18.869	Thrust:	100.000
Time:	5.253	Roll Set Point:	-0.015	Pitch Set Point:	-0.074	Yaw Set Point:	0.205	X_WP:	0.000	Y_WP:	0.000	Y_WP:	0.500	X:	0.011	Y:	0.036	Z:	0.049	yaw:	-11.735	yaw rate:	3.380	Roll:	0.197	Pitch:	1.438	Yaw:	-18.813	Thrust:	100.000
Time:	5.265	Roll Set Point:	-0.015	Pitch Set Point:	-0.074	Yaw Set Point:	0.205	X_WP:	0.000	Y_WP:	0.000	Y_WP:	0.500	X:	0.011	Y:	0.036	Z:	0.049	yaw:	-11.745	yaw rate:	-1.026	Roll:	0.133	Pitch:	1.406	Yaw:	-19.066	Thrust:	100.000
Time:	5.279	Roll Set Point:	-0.015	Pitch Set Point:	-0.074	Yaw Set Point:	0.205	X_WP:	0.000	Y_WP:	0.000	Y_WP:	0.500	X:	0.011	Y:	0.036	Z:	0.049	yaw:	-11.765	yaw rate:	-1.988	Roll:	0.079	Pitch:	1.371	Yaw:	-19.314	Thrust:	100.000
Time:	5.290	Roll Set Point:	-0.015	Pitch Set Point:	-0.074	Yaw Set Point:	0.205	X_WP:	0.000	Y_WP:	0.000	Y_WP:	0.500	X:	0.011	Y:	0.036	Z:	0.049	yaw:	-11.731	yaw rate:	3.362	Roll:	0.171	Pitch:	1.362	Yaw:	-18.006	Thrust:	100.000
Time:	5.301	Roll Set Point:	-0.015	Pitch Set Point:	-0.074	Yaw Set Point:	0.205	X_WP:	0.000	Y_WP:	0.000	Y_WP:	0.500	X:	0.011	Y:	0.036	Z:	0.049	yaw:	-11.739	yaw rate:	-0.781	Roll:	0.124	Pitch:	1.378	Yaw:	-18.819	Thrust:	100.000
Time:	5.313	Roll Set Point:	-0.015	Pitch Set Point:	-0.074	Yaw Set Point:	0.205	X_WP:	0.000	Y_WP:	0.000	Y_WP:	0.500	X:	0.011	Y:	0.036	Z:	0.049	yaw:	-11.736	yaw rate:	0.308	Roll:	0.173	Pitch:	1.378	Yaw:	-18.739	Thrust:	100.000
Time:	5.328	Roll Set Point:	-0.015	Pitch Set Point:	-0.074	Yaw Set Point:	0.205	X_WP:	0.000	Y_WP:	0.000	Y_WP:	0.500	X:	0.011	Y:	0.036	Z:	0.049	yaw:	-11.752	yaw rate:	-1.096	Roll:	0.124	Pitch:	1.475	Yaw:	-19.717	Thrust:	100.000
Time:	5.340	Roll Set Point:	-0.015	Pitch Set Point:	-0.074	Yaw Set Point:	0.205	X_WP:	0.000	Y_WP:	0.000	Y_WP:	0.500	X:	0.011	Y:	0.036	Z:	0.049	yaw:	-11.751	yaw rate:	0.148	Roll:	0.133	Pitch:	1.381	Yaw:	-18.680	Thrust:	100.000
Time:	5.355	Roll Set Point:	-0.015	Pitch Set Point:	-0.074	Yaw Set Point:	0.205	X_WP:	0.000	Y_WP:	0.000	Y_WP:	0.500	X:	0.011	Y:	0.036	Z:	0.049	yaw:	-11.752	yaw rate:	-0.134	Roll:	0.125	Pitch:	1.378	Yaw:	-19.313	Thrust:	100.000
Time:	5.369	Roll Set Point:	-0.015	Pitch Set Point:	-0.074	Yaw Set Point:	0.205	X_WP:	0.000	Y_WP:	0.000	Y_WP:	0.500	X:	0.011	Y:	0.036	Z:	0.049	yaw:	-11.718	yaw rate:	3.467	Roll:	0.182	Pitch:	1.468	Yaw:	-18.642	Thrust:	100.000
Time:	5.386	Roll Set Point:	-0.015	Pitch Set Point:	-0.074	Yaw Set Point:	0.205	X_WP:	0.000	Y_WP:	0.000	Y_WP:	0.500	X:	0.011	Y:	0.036	Z:	0.049	yaw:	-11.754	yaw rate:	-3.638	Roll:	0.122	Pitch:	1.414	Yaw:	-20.146	Thrust:	100.000
Time:	5.400	Roll Set Point:	-0.015	Pitch Set Point:	-0.074	Yaw Set Point:	0.205	X_WP:	0.000	Y_WP:	0.000	Y_WP:	0.500	X:	0.011	Y:	0.036	Z:	0.049	yaw:	-11.743	yaw rate:	1.723	Roll:	0.141	Pitch:	1.566	Yaw:	-19.357	Thrust:	100.000
Time:	5.413	Roll Set Point:	-0.015	Pitch Set Point:	-0.074	Yaw Set Point:	0.205	X_WP:	0.000	Y_WP:	0.000	Y_WP:	0.500	X:	0.011	Y:	0.036	Z:	0.049	yaw:	-11.723	yaw rate:	1.999	Roll:	0.160	Pitch:	1.401	Yaw:	-18.461	Thrust:	100.000
Time:	5.429	Roll Set Point:	-0.015	Pitch Set Point:	-0.074	Yaw Set Point:	0.205	X_WP:	0.000	Y_WP:	0.000	Y_WP:	0.500	X:	0.011	Y:	0.036	Z:	0.049	yaw:	-11.755	yaw rate:	-1.520	Roll:	0.141	Pitch:	1.492	Yaw:	-20.223	Thrust:	100.000
Time:	5.441	Roll Set Point:	-0.015	Pitch Set Point:	-0.074	Yaw Set Point:	0.205	X_WP:	0.000	Y_WP:	0.000	Y_WP:	0.500	X:	0.011	Y:	0.036	Z:	0.049	yaw:	-11.763	yaw rate:	-0.869	Roll:	0.165	Pitch:	1.407	Yaw:	-18.928	Thrust:	100.000
