Time:	2.455	Roll Set Point:	-0.015	Pitch Set Point:	0.029	Yaw Set Point:	-2.957	X_WP:	0.000	Y_WP:	0.000	Y_WP:	0.500	X:	0.163	Y:	0.069	Z:	0.401	yaw:	169.449	yaw rate:	1.217	Roll:	-4.280	Pitch:	-2.830	Yaw:	236.595	Thrust:	5.453
Time:	2.486	Roll Set Point:	-0.015	Pitch Set Point:	0.029	Yaw Set Point:	-2.958	X_WP:	0.000	Y_WP:	0.000	Y_WP:	0.500	X:	0.163	Y:	0.069	Z:	0.401	yaw:	169.455	yaw rate:	0.647	Roll:	-4.289	Pitch:	-2.811	Yaw:	238.507	Thrust:	5.873
Time:	2.518	Roll Set Point:	-0.015	Pitch Set Point:	0.029	Yaw Set Point:	-2.957	X_WP:	0.000	Y_WP:	0.000	Y_WP:	0.500	X:	0.163	Y:	0.069	Z:	0.401	yaw:	169.425	yaw rate:	-3.026	Roll:	-4.254	Pitch:	-2.907	Yaw:	239.434	Thrust:	6.139
Time:	2.549	Roll Set Point:	-0.015	Pitch Set Point:	0.029	Yaw Set Point:	-2.957	X_WP:	0.000	Y_WP:	0.000	Y_WP:	0.500	X:	0.163	Y:	0.069	Z:	0.401	yaw:	169.444	yaw rate:	1.866	Roll:	-4.342	Pitch:	-2.798	Yaw:	239.869	Thrust:	6.616
Time:	2.580	Roll Set Point:	-0.015	Pitch Set Point:	0.029	Yaw Set Point:	-2.957	X_WP:	0.000	Y_WP:	0.000	Y_WP:	0.500	X:	0.163	Y:	0.069	Z:	0.401	yaw:	169.436	yaw rate:	-0.779	Roll:	-4.311	Pitch:	-2.916	Yaw:	239.637	Thrust:	6.905
Time:	2.611	Roll Set Point:	-0.015	Pitch Set Point:	0.029	Yaw Set Point:	-2.958	X_WP:	0.000	Y_WP:	0.000	Y_WP:	0.500	X:	0.163	Y:	0.069	Z:	0.401	yaw:	169.455	yaw rate:	-0.612	Roll:	-4.377	Pitch:	-2.793	Yaw:	239.895	Thrust:	7.377
Time:	2.643	Roll Set Point:	-0.015	Pitch Set Point:	0.029	Yaw Set Point:	-2.957	X_WP:	0.000	Y_WP:	0.000	Y_WP:	0.500	X:	0.163	Y:	0.069	Z:	0.401	yaw:	169.425	yaw rate:	-2.282	Roll:	-4.282	Pitch:	-2.967	Yaw:	239.426	Thrust:	7.642
Time:	2.674	Roll Set Point:	-0.015	Pitch Set Point:	0.029	Yaw Set Point:	-2.958	X_WP:	0.000	Y_WP:	0.000	Y_WP:	0.500	X:	0.163	Y:	0.069	Z:	0.401	yaw:	169.455	yaw rate:	3.066	Roll:	-4.423	Pitch:	-2.798	Yaw:	239.986	Thrust:	8.087
Time:	2.705	Roll Set Point:	-0.015	Pitch Set Point:	0.029	Yaw Set Point:	-2.957	X_WP:	0.000	Y_WP:	0.000	Y_WP:	0.500	X:	0.163	Y:	0.069	Z:	0.401	yaw:	169.434	yaw rate:	-2.120	Roll:	-4.326	Pitch:	-2.959	Yaw:	239.526	Thrust:	8.370
Time:	2.736	Roll Set Point:	-0.015	Pitch Set Point:	0.029	Yaw Set Point:	-2.957	X_WP:	0.000	Y_WP:	0.000	Y_WP:	0.500	X:	0.163	Y:	0.069	Z:	0.401	yaw:	169.446	yaw rate:	0.533	Roll:	-4.408	Pitch:	-2.858	Yaw:	239.817	Thrust:	8.832
Time:	2.762	Roll Set Point:	-0.015	Pitch Set Point:	0.029	Yaw Set Point:	-2.957	X_WP:	0.000	Y_WP:	0.000	Y_WP:	0.500	X:	0.163	Y:	0.069	Z:	0.401	yaw:	169.445	yaw rate:	-0.438	Roll:	-4.370	Pitch:	-2.918	Yaw:	239.150	Thrust:	8.517
Time:	2.796	Roll Set Point:	-0.015	Pitch Set Point:	0.029	Yaw Set Point:	-2.958	X_WP:	0.000	Y_WP:	0.000	Y_WP:	0.500	X:	0.163	Y:	0.069	Z:	0.401	yaw:	169.457	yaw rate:	3.121	Roll:	-4.439	Pitch:	-2.877	Yaw:	240.133	Thrust:	10.002
Time:	2.828	Roll Set Point:	-0.015	Pitch Set Point:	0.029	Yaw Set Point:	-2.957	X_WP:	0.000	Y_WP:	0.000	Y_WP:	0.500	X:	0.163	Y:	0.069	Z:	0.401	yaw:	169.432	yaw rate:	-2.575	Roll:	-4.370	Pitch:	-2.981	Yaw:	239.484	Thrust:	9.811
Time:	2.859	Roll Set Point:	-0.015	Pitch Set Point:	0.029	Yaw Set Point:	-2.957	X_WP:	0.000	Y_WP:	0.000	Y_WP:	0.500	X:	0.163	Y:	0.069	Z:	0.401	yaw:	169.438	yaw rate:	0.687	Roll:	-4.455	Pitch:	-2.905	Yaw:	239.760	Thrust:	10.344
Time:	2.890	Roll Set Point:	-0.015	Pitch Set Point:	0.029	Yaw Set Point:	-2.957	X_WP:	0.000	Y_WP:	0.000	Y_WP:	0.500	X:	0.163	Y:	0.069	Z:	0.401	yaw:	169.447	yaw rate:	0.810	Roll:	-4.443	Pitch:	-2.930	Yaw:	239.788	Thrust:	10.651
Time:	2.921	Roll Set Point:	-0.015	Pitch Set Point:	0.029	Yaw Set Point:	-2.957	X_WP:	0.000	Y_WP:	0.000	Y_WP:	0.500	X:	0.163	Y:	0.069	Z:	0.401	yaw:	169.446	yaw rate:	0.910	Roll:	-4.461	Pitch:	-2.934	Yaw:	239.713	Thrust:	11.080
Time:	2.953	Roll Set Point:	-0.015	Pitch Set Point:	0.029	Yaw Set Point:	-2.957	X_WP:	0.000	Y_WP:	0.000	Y_WP:	0.500	X:	0.163	Y:	0.069	Z:	0.401	yaw:	169.442	yaw rate:	-0.898	Roll:	-4.426	Pitch:	-2.996	Yaw:	239.670	Thrust:	11.306
Time:	2.984	Roll Set Point:	-0.015	Pitch Set Point:	0.029	Yaw Set Point:	-2.957	X_WP:	0.000	Y_WP:	0.000	Y_WP:	0.500	X:	0.163	Y:	0.069	Z:	0.401	yaw:	169.434	yaw rate:	-0.985	Roll:	-4.485	Pitch:	-2.952	Yaw:	239.638	Thrust:	11.849
Time:	3.015	Roll Set Point:	-0.015	Pitch Set Point:	0.029	Yaw Set Point:	-2.958	X_WP:	0.000	Y_WP:	0.000	Y_WP:	0.500	X:	0.163	Y:	0.069	Z:	0.401	yaw:	169.461	yaw rate:	2.710	Roll:	-4.535	Pitch:	-2.903	Yaw:	239.965	Thrust:	12.141
Time:	3.046	Roll Set Point:	-0.015	Pitch Set Point:	0.029	Yaw Set Point:	-2.958	X_WP:	0.000	Y_WP:	0.000	Y_WP:	0.500	X:	0.163	Y:	0.069	Z:	0.401	yaw:	169.463	yaw rate:	3.231	Roll:	-4.477	Pitch:	-2.989	Yaw:	239.752	Thrust:	12.488
Time:	3.078	Roll Set Point:	-0.015	Pitch Set Point:	0.029	Yaw Set Point:	-2.958	X_WP:	0.000	Y_WP:	0.000	Y_WP:	0.500	X:	0.163	Y:	0.069	Z:	0.401	yaw:	169.455	yaw rate:	-0.824	Roll:	-4.519	Pitch:	-2.988	Yaw:	239.660	Thrust:	12.919
Time:	3.109	Roll Set Point:	-0.015	Pitch Set Point:	0.029	Yaw Set Point:	-2.957	X_WP:	0.000	Y_WP:	0.000	Y_WP:	0.500	X:	0.163	Y:	0.069	Z:	0.401	yaw:	169.432	yaw rate:	-2.304	Roll:	-4.473	Pitch:	-3.047	Yaw:	239.506	Thrust:	13.231
Time:	3.140	Roll Set Point:	-0.015	Pitch Set Point:	0.029	Yaw Set Point:	-2.957	X_WP:	0.000	Y_WP:	0.000	Y_WP:	0.500	X:	0.163	Y:	0.069	Z:	0.401	yaw:	169.449	yaw rate:	2.094	Roll:	-4.550	Pitch:	-2.950	Yaw:	239.866	Thrust:	13.636
Time:	3.171	Roll Set Point:	-0.015	Pitch Set Point:	0.029	Yaw Set Point:	-2.957	X_WP:	0.000	Y_WP:	0.000	Y_WP:	0.500	X:	0.163	Y:	0.069	Z:	0.401	yaw:	169.439	yaw rate:	1.750	Roll:	-4.548	Pitch:	-3.029	Yaw:	239.625	Thrust:	13.981
Time:	3.203	Roll Set Point:	-0.015	Pitch Set Point:	0.029	Yaw Set Point:	-2.958	X_WP:	0.000	Y_WP:	0.000	Y_WP:	0.500	X:	0.163	Y:	0.069	Z:	0.401	yaw:	169.462	yaw rate:	2.226	Roll:	-4.589	Pitch:	-2.961	Yaw:	239.925	Thrust:	14.471
Time:	3.234	Roll Set Point:	-0.015	Pitch Set Point:	0.029	Yaw Set Point:	-2.957	X_WP:	0.000	Y_WP:	0.000	Y_WP:	0.500	X:	0.163	Y:	0.069	Z:	0.401	yaw:	169.439	yaw rate:	2.009	Roll:	-4.543	Pitch:	-3.122	Yaw:	239.518	Thrust:	14.734
Time:	3.265	Roll Set Point:	-0.015	Pitch Set Point:	0.029	Yaw Set Point:	-2.957	X_WP:	0.000	Y_WP:	0.000	Y_WP:	0.500	X:	0.163	Y:	0.069	Z:	0.401	yaw:	169.443	yaw rate:	0.390	Roll:	-4.580	Pitch:	-2.952	Yaw:	239.745	Thrust:	15.170
Time:	3.297	Roll Set Point:	-0.015	Pitch Set Point:	0.029	Yaw Set Point:	-2.957	X_WP:	0.000	Y_WP:	0.000	Y_WP:	0.500	X:	0.163	Y:	0.069	Z:	0.401	yaw:	169.445	yaw rate:	-1.834	Roll:	-4.582	Pitch:	-3.061	Yaw:	239.728	Thrust:	15.382
Time:	3.328	Roll Set Point:	-0.015	Pitch Set Point:	0.029	Yaw Set Point:	-2.958	X_WP:	0.000	Y_WP:	0.000	Y_WP:	0.500	X:	0.163	Y:	0.069	Z:	0.401	yaw:	169.456	yaw rate:	1.165	Roll:	-4.643	Pitch:	-3.050	Yaw:	239.828	Thrust:	16.037
Time:	3.359	Roll Set Point:	-0.015	Pitch Set Point:	0.029	Yaw Set Point:	-2.957	X_WP:	0.000	Y_WP:	0.000	Y_WP:	0.500	X:	0.163	Y:	0.069	Z:	0.401	yaw:	169.429	yaw rate:	-2.668	Roll:	-4.558	Pitch:	-3.064	Yaw:	239.470	Thrust:	16.046
Time:	3.406	Roll Set Point:	-0.015	Pitch Set Point:	0.029	Yaw Set Point:	-2.957	X_WP:	0.000	Y_WP:	0.000	Y_WP:	0.500	X:	0.163	Y:	0.069	Z:	0.401	yaw:	169.448	yaw rate:	1.898	Roll:	-4.823	Pitch:	-3.143	Yaw:	241.389	Thrust:	22.215
Time:	3.437	Roll Set Point:	-0.015	Pitch Set Point:	0.029	Yaw Set Point:	-2.958	X_WP:	0.000	Y_WP:	0.000	Y_WP:	0.500	X:	0.163	Y:	0.069	Z:	0.401	yaw:	169.458	yaw rate:	1.129	Roll:	-4.637	Pitch:	-3.064	Yaw:	239.812	Thrust:	17.018
Time:	3.500	Roll Set Point:	-0.015	Pitch Set Point:	0.029	Yaw Set Point:	-2.957	X_WP:	0.000	Y_WP:	0.000	Y_WP:	0.500	X:	0.163	Y:	0.069	Z:	0.401	yaw:	169.452	yaw rate:	0.623	Roll:	-5.005	Pitch:	-3.326	Yaw:	242.827	Thrust:	29.249
Time:	3.531	Roll Set Point:	-0.015	Pitch Set Point:	0.029	Yaw Set Point:	-2.957	X_WP:	0.000	Y_WP:	0.000	Y_WP:	0.500	X:	0.163	Y:	0.069	Z:	0.401	yaw:	169.426	yaw rate:	-2.654	Roll:	-4.651	Pitch:	-3.098	Yaw:	239.466	Thrust:	17.746
Time:	3.578	Roll Set Point:	-0.015	Pitch Set Point:	0.029	Yaw Set Point:	-2.958	X_WP:	0.000	Y_WP:	0.000	Y_WP:	0.500	X:	0.163	Y:	0.069	Z:	0.401	yaw:	169.456	yaw rate:	2.981	Roll:	-4.898	Pitch:	-3.180	Yaw:	241.465	Thrust:	24.417
Time:	3.609	Roll Set Point:	-0.015	Pitch Set Point:	0.029	Yaw Set Point:	-2.957	X_WP:	0.000	Y_WP:	0.000	Y_WP:	0.500	X:	0.163	Y:	0.069	Z:	0.401	yaw:	169.430	yaw rate:	-2.585	Roll:	-4.635	Pitch:	-3.170	Yaw:	239.478	Thrust:	18.445
Time:	3.656	Roll Set Point:	-0.015	Pitch Set Point:	0.029	Yaw Set Point:	-2.958	X_WP:	0.000	Y_WP:	0.000	Y_WP:	0.500	X:	0.163	Y:	0.069	Z:	0.401	yaw:	169.469	yaw rate:	1.790	Roll:	-4.943	Pitch:	-3.186	Yaw:	241.525	Thrust:	25.564
Time:	3.687	Roll Set Point:	-0.015	Pitch Set Point:	0.029	Yaw Set Point:	-2.957	X_WP:	0.000	Y_WP:	0.000	Y_WP:	0.500	X:	0.163	Y:	0.069	Z:	0.401	yaw:	169.444	yaw rate:	-2.420	Roll:	-4.669	Pitch:	-3.158	Yaw:	239.511	Thrust:	19.141
Time:	3.718	Roll Set Point:	-0.015	Pitch Set Point:	0.029	Yaw Set Point:	-2.957	X_WP:	0.000	Y_WP:	0.000	Y_WP:	0.500	X:	0.163	Y:	0.069	Z:	0.401	yaw:	169.446	yaw rate:	-1.345	Roll:	-4.735	Pitch:	-3.111	Yaw:	239.734	Thrust:	19.642
Time:	3.750	Roll Set Point:	-0.015	Pitch Set Point:	0.029	Yaw Set Point:	-2.957	X_WP:	0.000	Y_WP:	0.000	Y_WP:	0.500	X:	0.163	Y:	0.069	Z:	0.401	yaw:	169.429	yaw rate:	-1.772	Roll:	-4.688	Pitch:	-3.160	Yaw:	239.544	Thrust:	19.909
Time:	3.781	Roll Set Point:	-0.015	Pitch Set Point:	0.029	Yaw Set Point:	-2.958	X_WP:	0.000	Y_WP:	0.000	Y_WP:	0.500	X:	0.163	Y:	0.069	Z:	0.401	yaw:	169.467	yaw rate:	2.788	Roll:	-4.780	Pitch:	-3.084	Yaw:	240.061	Thrust:	20.407
Time:	3.812	Roll Set Point:	-0.015	Pitch Set Point:	0.029	Yaw Set Point:	-2.957	X_WP:	0.000	Y_WP:	0.000	Y_WP:	0.500	X:	0.163	Y:	0.069	Z:	0.401	yaw:	169.438	yaw rate:	-3.092	Roll:	-4.725	Pitch:	-3.187	Yaw:	239.457	Thrust:	20.551
Time:	3.843	Roll Set Point:	-0.015	Pitch Set Point:	0.029	Yaw Set Point:	-2.957	X_WP:	0.000	Y_WP:	0.000	Y_WP:	0.500	X:	0.163	Y:	0.069	Z:	0.401	yaw:	169.452	yaw rate:	1.417	Roll:	-4.786	Pitch:	-3.119	Yaw:	239.843	Thrust:	21.187
Time:	3.875	Roll Set Point:	-0.015	Pitch Set Point:	0.029	Yaw Set Point:	-2.957	X_WP:	0.000	Y_WP:	0.000	Y_WP:	0.500	X:	0.163	Y:	0.069	Z:	0.401	yaw:	169.424	yaw rate:	-2.729	Roll:	-4.730	Pitch:	-3.216	Yaw:	239.458	Thrust:	21.431
Time:	3.906	Roll Set Point:	-0.015	Pitch Set Point:	0.029	Yaw Set Point:	-2.957	X_WP:	0.000	Y_WP:	0.000	Y_WP:	0.500	X:	0.163	Y:	0.069	Z:	0.401	yaw:	169.435	yaw rate:	1.053	Roll:	-4.811	Pitch:	-3.136	Yaw:	239.789	Thrust:	21.803
Time:	3.937	Roll Set Point:	-0.015	Pitch Set Point:	0.029	Yaw Set Point:	-2.957	X_WP:	0.000	Y_WP:	0.000	Y_WP:	0.500	X:	0.163	Y:	0.069	Z:	0.401	yaw:	169.430	yaw rate:	-4.164	Roll:	-4.768	Pitch:	-3.195	Yaw:	239.652	Thrust:	22.143
Time:	3.968	Roll Set Point:	-0.015	Pitch Set Point:	0.029	Yaw Set Point:	-2.957	X_WP:	0.000	Y_WP:	0.000	Y_WP:	0.500	X:	0.163	Y:	0.069	Z:	0.401	yaw:	169.431	yaw rate:	0.076	Roll:	-4.833	Pitch:	-3.160	Yaw:	239.705	Thrust:	22.592
Time:	4.000	Roll Set Point:	-0.015	Pitch Set Point:	0.029	Yaw Set Point:	-2.957	X_WP:	0.000	Y_WP:	0.000	Y_WP:	0.500	X:	0.163	Y:	0.069	Z:	0.401	yaw:	169.445	yaw rate:	-0.503	Roll:	-4.840	Pitch:	-3.179	Yaw:	239.837	Thrust:	22.972
Time:	4.031	Roll Set Point:	-0.015	Pitch Set Point:	0.029	Yaw Set Point:	-2.958	X_WP:	0.000	Y_WP:	0.000	Y_WP:	0.500	X:	0.163	Y:	0.069	Z:	0.401	yaw:	169.460	yaw rate:	1.506	Roll:	-4.850	Pitch:	-3.160	Yaw:	239.862	Thrust:	23.226
Time:	4.062	Roll Set Point:	-0.015	Pitch Set Point:	0.029	Yaw Set Point:	-2.957	X_WP:	0.000	Y_WP:	0.000	Y_WP:	0.500	X:	0.163	Y:	0.069	Z:	0.401	yaw:	169.450	yaw rate:	-2.429	Roll:	-4.833	Pitch:	-3.222	Yaw:	239.638	Thrust:	23.701
Time:	4.093	Roll Set Point:	-0.015	Pitch Set Point:	0.029	Yaw Set Point:	-2.957	X_WP:	0.000	Y_WP:	0.000	Y_WP:	0.500	X:	0.163	Y:	0.069	Z:	0.401	yaw:	169.447	yaw rate:	-0.513	Roll:	-4.859	Pitch:	-3.220	Yaw:	239.685	Thrust:	24.065
Time:	4.125	Roll Set Point:	-0.015	Pitch Set Point:	0.029	Yaw Set Point:	-2.957	X_WP:	0.000	Y_WP:	0.000	Y_WP:	0.500	X:	0.163	Y:	0.069	Z:	0.401	yaw:	169.438	yaw rate:	-0.821	Roll:	-4.857	Pitch:	-3.236	Yaw:	239.640	Thrust:	24.482
Time:	4.156	Roll Set Point:	-0.015	Pitch Set Point:	0.029	Yaw Set Point:	-2.957	X_WP:	0.000	Y_WP:	0.000	Y_WP:	0.500	X:	0.163	Y:	0.069	Z:	0.401	yaw:	169.434	yaw rate:	-0.419	Roll:	-4.832	Pitch:	-3.240	Yaw:	239.662	Thrust:	24.694
Time:	4.187	Roll Set Point:	-0.015	Pitch Set Point:	0.029	Yaw Set Point:	-2.957	X_WP:	0.000	Y_WP:	0.000	Y_WP:	0.500	X:	0.163	Y:	0.069	Z:	0.401	yaw:	169.445	yaw rate:	-3.790	Roll:	-4.942	Pitch:	-3.199	Yaw:	239.809	Thrust:	25.235
Time:	4.218	Roll Set Point:	-0.015	Pitch Set Point:	0.029	Yaw Set Point:	-2.957	X_WP:	0.000	Y_WP:	0.000	Y_WP:	0.500	X:	0.163	Y:	0.069	Z:	0.401	yaw:	169.426	yaw rate:	-1.907	Roll:	-4.865	Pitch:	-3.277	Yaw:	239.529	Thrust:	25.437
Time:	4.250	Roll Set Point:	-0.015	Pitch Set Point:	0.029	Yaw Set Point:	-2.958	X_WP:	0.000	Y_WP:	0.000	Y_WP:	0.500	X:	0.163	Y:	0.069	Z:	0.401	yaw:	169.468	yaw rate:	4.187	Roll:	-4.962	Pitch:	-3.179	Yaw:	240.101	Thrust:	26.005
Time:	4.281	Roll Set Point:	-0.015	Pitch Set Point:	0.029	Yaw Set Point:	-2.957	X_WP:	0.000	Y_WP:	0.000	Y_WP:	0.500	X:	0.163	Y:	0.069	Z:	0.401	yaw:	169.446	yaw rate:	-2.197	Roll:	-4.893	Pitch:	-3.299	Yaw:	239.530	Thrust:	26.220
Time:	4.312	Roll Set Point:	-0.015	Pitch Set Point:	0.029	Yaw Set Point:	-2.958	X_WP:	0.000	Y_WP:	0.000	Y_WP:	0.500	X:	0.163	Y:	0.069	Z:	0.401	yaw:	169.461	yaw rate:	2.409	Roll:	-4.984	Pitch:	-3.222	Yaw:	239.864	Thrust:	26.712
Time:	4.359	Roll Set Point:	-0.015	Pitch Set Point:	0.029	Yaw Set Point:	-2.958	X_WP:	0.000	Y_WP:	0.000	Y_WP:	0.500	X:	0.163	Y:	0.069	Z:	0.401	yaw:	169.455	yaw rate:	2.495	Roll:	-5.264	Pitch:	-3.506	Yaw:	241.254	Thrust:	37.785
Time:	4.390	Roll Set Point:	-0.015	Pitch Set Point:	0.029	Yaw Set Point:	-2.957	X_WP:	0.000	Y_WP:	0.000	Y_WP:	0.500	X:	0.163	Y:	0.069	Z:	0.401	yaw:	169.451	yaw rate:	-0.425	Roll:	-4.964	Pitch:	-3.278	Yaw:	239.690	Thrust:	27.424
Time:	4.422	Roll Set Point:	-0.015	Pitch Set Point:	0.029	Yaw Set Point:	-2.957	X_WP:	0.000	Y_WP:	0.000	Y_WP:	0.500	X:	0.163	Y:	0.069	Z:	0.401	yaw:	169.446	yaw rate:	-0.486	Roll:	-4.941	Pitch:	-3.312	Yaw:	239.673	Thrust:	27.663
Time:	4.453	Roll Set Point:	-0.015	Pitch Set Point:	0.029	Yaw Set Point:	-2.957	X_WP:	0.000	Y_WP:	0.000	Y_WP:	0.500	X:	0.163	Y:	0.069	Z:	0.401	yaw:	169.451	yaw rate:	0.523	Roll:	-5.013	Pitch:	-3.272	Yaw:	239.770	Thrust:	28.235
Time:	4.484	Roll Set Point:	-0.015	Pitch Set Point:	0.029	Yaw Set Point:	-2.957	X_WP:	0.000	Y_WP:	0.000	Y_WP:	0.500	X:	0.163	Y:	0.069	Z:	0.401	yaw:	169.426	yaw rate:	-1.469	Roll:	-4.961	Pitch:	-3.350	Yaw:	239.477	Thrust:	28.402
Time:	4.515	Roll Set Point:	-0.015	Pitch Set Point:	0.029	Yaw Set Point:	-2.957	X_WP:	0.000	Y_WP:	0.000	Y_WP:	0.500	X:	0.163	Y:	0.069	Z:	0.401	yaw:	169.451	yaw rate:	2.505	Roll:	-5.045	Pitch:	-3.275	Yaw:	239.934	Thrust:	28.959
Time:	4.547	Roll Set Point:	-0.015	Pitch Set Point:	0.029	Yaw Set Point:	-2.957	X_WP:	0.000	Y_WP:	0.000	Y_WP:	0.500	X:	0.163	Y:	0.069	Z:	0.401	yaw:	169.440	yaw rate:	-1.105	Roll:	-4.989	Pitch:	-3.314	Yaw:	239.616	Thrust:	29.199
Time:	4.593	Roll Set Point:	-0.015	Pitch Set Point:	0.029	Yaw Set Point:	-2.957	X_WP:	0.000	Y_WP:	0.000	Y_WP:	0.500	X:	0.163	Y:	0.069	Z:	0.401	yaw:	169.451	yaw rate:	1.127	Roll:	-5.420	Pitch:	-3.575	Yaw:	241.349	Thrust:	41.774
Time:	4.625	Roll Set Point:	-0.015	Pitch Set Point:	0.029	Yaw Set Point:	-2.957	X_WP:	0.000	Y_WP:	0.000	Y_WP:	0.500	X:	0.163	Y:	0.069	Z:	0.401	yaw:	169.431	yaw rate:	-1.413	Roll:	-5.000	Pitch:	-3.372	Yaw:	239.526	Thrust:	29.939
Time:	4.656	Roll Set Point:	-0.015	Pitch Set Point:	0.029	Yaw Set Point:	-2.957	X_WP:	0.000	Y_WP:	0.000	Y_WP:	0.500	X:	0.163	Y:	0.069	Z:	0.401	yaw:	169.432	yaw rate:	0.148	Roll:	-5.072	Pitch:	-3.331	Yaw:	239.710	Thrust:	30.425
Time:	4.687	Roll Set Point:	-0.015	Pitch Set Point:	0.029	Yaw Set Point:	-2.957	X_WP:	0.000	Y_WP:	0.000	Y_WP:	0.500	X:	0.163	Y:	0.069	Z:	0.401	yaw:	169.440	yaw rate:	-0.862	Roll:	-5.051	Pitch:	-3.346	Yaw:	239.773	Thrust:	30.691
Time:	4.718	Roll Set Point:	-0.015	Pitch Set Point:	0.029	Yaw Set Point:	-2.957	X_WP:	0.000	Y_WP:	0.000	Y_WP:	0.500	X:	0.163	Y:	0.069	Z:	0.401	yaw:	169.450	yaw rate:	-1.326	Roll:	-5.107	Pitch:	-3.324	Yaw:	239.803	Thrust:	31.128
Time:	4.750	Roll Set Point:	-0.015	Pitch Set Point:	0.029	Yaw Set Point:	-2.957	X_WP:	0.000	Y_WP:	0.000	Y_WP:	0.500	X:	0.163	Y:	0.069	Z:	0.401	yaw:	169.441	yaw rate:	-0.851	Roll:	-5.050	Pitch:	-3.385	Yaw:	239.639	Thrust:	31.461
Time:	4.781	Roll Set Point:	-0.015	Pitch Set Point:	0.029	Yaw Set Point:	-2.958	X_WP:	0.000	Y_WP:	0.000	Y_WP:	0.500	X:	0.163	Y:	0.069	Z:	0.401	yaw:	169.453	yaw rate:	1.122	Roll:	-5.127	Pitch:	-3.365	Yaw:	239.866	Thrust:	32.289
Time:	4.813	Roll Set Point:	-0.015	Pitch Set Point:	0.029	Yaw Set Point:	-2.957	X_WP:	0.000	Y_WP:	0.000	Y_WP:	0.500	X:	0.163	Y:	0.069	Z:	0.401	yaw:	169.446	yaw rate:	0.326	Roll:	-5.094	Pitch:	-3.377	Yaw:	239.659	Thrust:	32.196
Time:	4.875	Roll Set Point:	-0.015	Pitch Set Point:	0.029	Yaw Set Point:	-2.957	X_WP:	0.000	Y_WP:	0.000	Y_WP:	0.500	X:	0.163	Y:	0.069	Z:	0.401	yaw:	169.450	yaw rate:	0.407	Roll:	-5.972	Pitch:	-3.940	Yaw:	242.861	Thrust:	59.761
Time:	4.922	Roll Set Point:	-0.015	Pitch Set Point:	0.029	Yaw Set Point:	-2.958	X_WP:	0.000	Y_WP:	0.000	Y_WP:	0.500	X:	0.163	Y:	0.069	Z:	0.401	yaw:	169.465	yaw rate:	1.494	Roll:	-5.579	Pitch:	-3.666	Yaw:	241.389	Thrust:	46.738
Time:	5.000	Roll Set Point:	-0.015	Pitch Set Point:	0.029	Yaw Set Point:	-2.957	X_WP:	0.000	Y_WP:	0.000	Y_WP:	0.500	X:	0.163	Y:	0.069	Z:	0.401	yaw:	169.447	yaw rate:	1.177	Roll:	-6.423	Pitch:	-4.262	Yaw:	244.345	Thrust:	75.161
Time:	5.047	Roll Set Point:	-0.015	Pitch Set Point:	0.029	Yaw Set Point:	-2.957	X_WP:	0.000	Y_WP:	0.000	Y_WP:	0.500	X:	0.163	Y:	0.069	Z:	0.401	yaw:	169.452	yaw rate:	0.527	Roll:	-5.617	Pitch:	-3.702	Yaw:	241.319	Thrust:	47.877
Time:	5.078	Roll Set Point:	-0.015	Pitch Set Point:	0.029	Yaw Set Point:	-2.957	X_WP:	0.000	Y_WP:	0.000	Y_WP:	0.500	X:	0.163	Y:	0.069	Z:	0.401	yaw:	169.441	yaw rate:	-1.122	Roll:	-5.134	Pitch:	-3.422	Yaw:	239.615	Thrust:	33.976
Time:	5.110	Roll Set Point:	-0.015	Pitch Set Point:	0.029	Yaw Set Point:	-2.957	X_WP:	0.000	Y_WP:	0.000	Y_WP:	0.500	X:	0.163	Y:	0.069	Z:	0.401	yaw:	169.451	yaw rate:	1.019	Roll:	-5.180	Pitch:	-3.437	Yaw:	239.809	Thrust:	34.603
Time:	5.141	Roll Set Point:	-0.015	Pitch Set Point:	0.029	Yaw Set Point:	-2.958	X_WP:	0.000	Y_WP:	0.000	Y_WP:	0.500	X:	0.163	Y:	0.069	Z:	0.401	yaw:	169.455	yaw rate:	0.395	Roll:	-5.191	Pitch:	-3.395	Yaw:	239.762	Thrust:	34.789
Time:	5.172	Roll Set Point:	-0.015	Pitch Set Point:	0.029	Yaw Set Point:	-2.957	X_WP:	0.000	Y_WP:	0.000	Y_WP:	0.500	X:	0.163	Y:	0.069	Z:	0.401	yaw:	169.430	yaw rate:	-2.562	Roll:	-5.179	Pitch:	-3.497	Yaw:	239.479	Thrust:	35.186
Time:	5.203	Roll Set Point:	-0.015	Pitch Set Point:	0.029	Yaw Set Point:	-2.958	X_WP:	0.000	Y_WP:	0.000	Y_WP:	0.500	X:	0.163	Y:	0.069	Z:	0.401	yaw:	169.453	yaw rate:	2.302	Roll:	-5.227	Pitch:	-3.405	Yaw:	239.919	Thrust:	35.585
Time:	5.235	Roll Set Point:	-0.015	Pitch Set Point:	0.029	Yaw Set Point:	-2.958	X_WP:	0.000	Y_WP:	0.000	Y_WP:	0.500	X:	0.163	Y:	0.069	Z:	0.401	yaw:	169.453	yaw rate:	0.477	Roll:	-5.251	Pitch:	-3.452	Yaw:	239.727	Thrust:	35.964
Time:	5.266	Roll Set Point:	-0.015	Pitch Set Point:	0.029	Yaw Set Point:	-2.957	X_WP:	0.000	Y_WP:	0.000	Y_WP:	0.500	X:	0.163	Y:	0.069	Z:	0.401	yaw:	169.427	yaw rate:	-2.553	Roll:	-5.208	Pitch:	-3.508	Yaw:	239.480	Thrust:	36.377
Time:	5.313	Roll Set Point:	-0.015	Pitch Set Point:	0.029	Yaw Set Point:	-2.957	X_WP:	0.000	Y_WP:	0.000	Y_WP:	0.500	X:	0.163	Y:	0.069	Z:	0.401	yaw:	169.426	yaw rate:	-3.793	Roll:	-5.729	Pitch:	-3.792	Yaw:	241.245	Thrust:	52.271
Time:	5.344	Roll Set Point:	-0.015	Pitch Set Point:	0.029	Yaw Set Point:	-2.958	X_WP:	0.000	Y_WP:	0.000	Y_WP:	0.500	X:	0.163	Y:	0.069	Z:	0.401	yaw:	169.452	yaw rate:	2.587	Roll:	-5.280	Pitch:	-3.422	Yaw:	239.942	Thrust:	36.969
Time:	5.375	Roll Set Point:	-0.015	Pitch Set Point:	0.029	Yaw Set Point:	-2.958	X_WP:	0.000	Y_WP:	0.000	Y_WP:	0.500	X:	0.163	Y:	0.069	Z:	0.401	yaw:	169.457	yaw rate:	0.455	Roll:	-5.293	Pitch:	-3.545	Yaw:	239.770	Thrust:	37.540
Time:	5.407	Roll Set Point:	-0.015	Pitch Set Point:	0.029	Yaw Set Point:	-2.957	X_WP:	0.000	Y_WP:	0.000	Y_WP:	0.500	X:	0.163	Y:	0.069	Z:	0.401	yaw:	169.446	yaw rate:	-0.226	Roll:	-5.253	Pitch:	-3.450	Yaw:	239.630	Thrust:	37.757
Time:	5.438	Roll Set Point:	-0.015	Pitch Set Point:	0.029	Yaw Set Point:	-2.957	X_WP:	0.000	Y_WP:	0.000	Y_WP:	0.500	X:	0.163	Y:	0.069	Z:	0.401	yaw:	169.431	yaw rate:	-1.564	Roll:	-5.282	Pitch:	-3.543	Yaw:	239.561	Thrust:	38.177
Time:	5.469	Roll Set Point:	-0.015	Pitch Set Point:	0.029	Yaw Set Point:	-2.958	X_WP:	0.000	Y_WP:	0.000	Y_WP:	0.500	X:	0.163	Y:	0.069	Z:	0.401	yaw:	169.453	yaw rate:	2.230	Roll:	-5.328	Pitch:	-3.450	Yaw:	239.916	Thrust:	38.582
Time:	5.500	Roll Set Point:	-0.015	Pitch Set Point:	0.029	Yaw Set Point:	-2.957	X_WP:	0.000	Y_WP:	0.000	Y_WP:	0.500	X:	0.163	Y:	0.069	Z:	0.401	yaw:	169.437	yaw rate:	-1.557	Roll:	-5.301	Pitch:	-3.561	Yaw:	239.574	Thrust:	38.955
Time:	5.531	Roll Set Point:	-0.015	Pitch Set Point:	0.029	Yaw Set Point:	-2.957	X_WP:	0.000	Y_WP:	0.000	Y_WP:	0.500	X:	0.163	Y:	0.069	Z:	0.401	yaw:	169.442	yaw rate:	0.475	Roll:	-5.349	Pitch:	-3.492	Yaw:	239.748	Thrust:	39.227
Time:	5.563	Roll Set Point:	-0.015	Pitch Set Point:	0.029	Yaw Set Point:	-2.957	X_WP:	0.000	Y_WP:	0.000	Y_WP:	0.500	X:	0.163	Y:	0.069	Z:	0.401	yaw:	169.440	yaw rate:	0.316	Roll:	-5.323	Pitch:	-3.566	Yaw:	239.690	Thrust:	39.732
Time:	5.594	Roll Set Point:	-0.015	Pitch Set Point:	0.029	Yaw Set Point:	-2.958	X_WP:	0.000	Y_WP:	0.000	Y_WP:	0.500	X:	0.163	Y:	0.069	Z:	0.401	yaw:	169.454	yaw rate:	1.426	Roll:	-5.386	Pitch:	-3.492	Yaw:	239.847	Thrust:	40.057
Time:	5.625	Roll Set Point:	-0.015	Pitch Set Point:	0.029	Yaw Set Point:	-2.957	X_WP:	0.000	Y_WP:	0.000	Y_WP:	0.500	X:	0.163	Y:	0.069	Z:	0.401	yaw:	169.438	yaw rate:	-0.066	Roll:	-5.319	Pitch:	-3.594	Yaw:	239.572	Thrust:	40.333
Time:	5.657	Roll Set Point:	-0.015	Pitch Set Point:	0.029	Yaw Set Point:	-2.958	X_WP:	0.000	Y_WP:	0.000	Y_WP:	0.500	X:	0.163	Y:	0.069	Z:	0.401	yaw:	169.455	yaw rate:	1.824	Roll:	-5.405	Pitch:	-3.512	Yaw:	239.868	Thrust:	40.862
Time:	5.688	Roll Set Point:	-0.015	Pitch Set Point:	0.029	Yaw Set Point:	-2.957	X_WP:	0.000	Y_WP:	0.000	Y_WP:	0.500	X:	0.163	Y:	0.069	Z:	0.401	yaw:	169.438	yaw rate:	-1.622	Roll:	-5.347	Pitch:	-3.584	Yaw:	239.570	Thrust:	41.059
Time:	5.719	Roll Set Point:	-0.015	Pitch Set Point:	0.029	Yaw Set Point:	-2.957	X_WP:	0.000	Y_WP:	0.000	Y_WP:	0.500	X:	0.163	Y:	0.069	Z:	0.401	yaw:	169.433	yaw rate:	-0.486	Roll:	-5.410	Pitch:	-3.571	Yaw:	239.656	Thrust:	41.560
Time:	5.750	Roll Set Point:	-0.015	Pitch Set Point:	0.029	Yaw Set Point:	-2.957	X_WP:	0.000	Y_WP:	0.000	Y_WP:	0.500	X:	0.163	Y:	0.069	Z:	0.401	yaw:	169.445	yaw rate:	1.115	Roll:	-5.425	Pitch:	-3.565	Yaw:	239.808	Thrust:	41.913
Time:	5.781	Roll Set Point:	-0.015	Pitch Set Point:	0.029	Yaw Set Point:	-2.957	X_WP:	0.000	Y_WP:	0.000	Y_WP:	0.500	X:	0.163	Y:	0.069	Z:	0.401	yaw:	169.434	yaw rate:	-1.025	Roll:	-5.368	Pitch:	-3.594	Yaw:	239.551	Thrust:	41.447
Time:	5.812	Roll Set Point:	-0.015	Pitch Set Point:	0.029	Yaw Set Point:	-2.957	X_WP:	0.000	Y_WP:	0.000	Y_WP:	0.500	X:	0.163	Y:	0.069	Z:	0.401	yaw:	169.430	yaw rate:	0.161	Roll:	-5.425	Pitch:	-3.611	Yaw:	239.654	Thrust:	42.687
Time:	5.843	Roll Set Point:	-0.015	Pitch Set Point:	0.029	Yaw Set Point:	-2.957	X_WP:	0.000	Y_WP:	0.000	Y_WP:	0.500	X:	0.163	Y:	0.069	Z:	0.401	yaw:	169.446	yaw rate:	1.358	Roll:	-5.478	Pitch:	-3.555	Yaw:	239.854	Thrust:	43.044
Time:	5.875	Roll Set Point:	-0.015	Pitch Set Point:	0.029	Yaw Set Point:	-2.957	X_WP:	0.000	Y_WP:	0.000	Y_WP:	0.500	X:	0.163	Y:	0.069	Z:	0.401	yaw:	169.445	yaw rate:	-0.146	Roll:	-5.425	Pitch:	-3.612	Yaw:	239.705	Thrust:	43.370
Time:	5.906	Roll Set Point:	-0.015	Pitch Set Point:	0.029	Yaw Set Point:	-2.957	X_WP:	0.000	Y_WP:	0.000	Y_WP:	0.500	X:	0.163	Y:	0.069	Z:	0.401	yaw:	169.438	yaw rate:	-0.713	Roll:	-5.467	Pitch:	-3.644	Yaw:	239.643	Thrust:	43.801
Time:	5.937	Roll Set Point:	-0.015	Pitch Set Point:	0.029	Yaw Set Point:	-2.958	X_WP:	0.000	Y_WP:	0.000	Y_WP:	0.500	X:	0.163	Y:	0.069	Z:	0.401	yaw:	169.466	yaw rate:	2.789	Roll:	-5.487	Pitch:	-3.559	Yaw:	240.002	Thrust:	44.404
Time:	5.970	Roll Set Point:	-0.015	Pitch Set Point:	0.029	Yaw Set Point:	-2.958	X_WP:	0.000	Y_WP:	0.000	Y_WP:	0.500	X:	0.163	Y:	0.069	Z:	0.401	yaw:	169.459	yaw rate:	-0.701	Roll:	-5.500	Pitch:	-3.685	Yaw:	239.828	Thrust:	46.372
Time:	6.001	Roll Set Point:	-0.167	Pitch Set Point:	-0.007	Yaw Set Point:	-2.958	X_WP:	0.155	Y_WP:	0.007	Y_WP:	0.500	X:	0.163	Y:	0.069	Z:	0.401	yaw:	169.458	yaw rate:	-0.577	Roll:	30.000	Pitch:	16.567	Yaw:	239.728	Thrust:	44.872
Time:	6.033	Roll Set Point:	-0.167	Pitch Set Point:	-0.007	Yaw Set Point:	-2.957	X_WP:	0.155	Y_WP:	0.007	Y_WP:	0.500	X:	0.163	Y:	0.069	Z:	0.401	yaw:	169.437	yaw rate:	-2.116	Roll:	-1.050	Pitch:	-2.615	Yaw:	239.526	Thrust:	45.267
Time:	6.064	Roll Set Point:	-0.167	Pitch Set Point:	-0.007	Yaw Set Point:	-2.958	X_WP:	0.155	Y_WP:	0.007	Y_WP:	0.500	X:	0.163	Y:	0.069	Z:	0.401	yaw:	169.464	yaw rate:	2.713	Roll:	-1.075	Pitch:	-2.624	Yaw:	239.969	Thrust:	45.656
Time:	6.111	Roll Set Point:	-0.167	Pitch Set Point:	-0.007	Yaw Set Point:	-2.957	X_WP:	0.155	Y_WP:	0.007	Y_WP:	0.500	X:	0.163	Y:	0.069	Z:	0.401	yaw:	169.428	yaw rate:	-3.536	Roll:	-1.632	Pitch:	-3.040	Yaw:	241.061	Thrust:	66.256
Time:	6.142	Roll Set Point:	-0.167	Pitch Set Point:	-0.007	Yaw Set Point:	-2.957	X_WP:	0.155	Y_WP:	0.007	Y_WP:	0.500	X:	0.163	Y:	0.069	Z:	0.401	yaw:	169.452	yaw rate:	-0.559	Roll:	-1.072	Pitch:	-2.636	Yaw:	239.917	Thrust:	46.339
Time:	6.173	Roll Set Point:	-0.167	Pitch Set Point:	-0.007	Yaw Set Point:	-2.957	X_WP:	0.155	Y_WP:	0.007	Y_WP:	0.500	X:	0.163	Y:	0.069	Z:	0.401	yaw:	169.441	yaw rate:	-1.798	Roll:	-1.054	Pitch:	-2.638	Yaw:	239.624	Thrust:	46.709
Time:	6.220	Roll Set Point:	-0.167	Pitch Set Point:	-0.007	Yaw Set Point:	-2.957	X_WP:	0.155	Y_WP:	0.007	Y_WP:	0.500	X:	0.163	Y:	0.069	Z:	0.401	yaw:	169.452	yaw rate:	1.019	Roll:	-1.648	Pitch:	-3.061	Yaw:	241.344	Thrust:	67.922
Time:	6.267	Roll Set Point:	-0.167	Pitch Set Point:	-0.007	Yaw Set Point:	-2.957	X_WP:	0.155	Y_WP:	0.007	Y_WP:	0.500	X:	0.163	Y:	0.069	Z:	0.401	yaw:	169.438	yaw rate:	-1.362	Roll:	-1.639	Pitch:	-3.070	Yaw:	241.193	Thrust:	68.517
Time:	6.298	Roll Set Point:	-0.167	Pitch Set Point:	-0.007	Yaw Set Point:	-2.957	X_WP:	0.155	Y_WP:	0.007	Y_WP:	0.500	X:	0.163	Y:	0.069	Z:	0.401	yaw:	169.439	yaw rate:	0.051	Roll:	-1.060	Pitch:	-2.650	Yaw:	239.710	Thrust:	47.854
Time:	6.361	Roll Set Point:	-0.167	Pitch Set Point:	-0.007	Yaw Set Point:	-2.957	X_WP:	0.155	Y_WP:	0.007	Y_WP:	0.500	X:	0.163	Y:	0.069	Z:	0.401	yaw:	169.449	yaw rate:	1.036	Roll:	-2.230	Pitch:	-3.511	Yaw:	242.889	Thrust:	90.953
Time:	6.408	Roll Set Point:	-0.167	Pitch Set Point:	-0.007	Yaw Set Point:	-2.958	X_WP:	0.155	Y_WP:	0.007	Y_WP:	0.500	X:	0.163	Y:	0.069	Z:	0.401	yaw:	169.463	yaw rate:	1.380	Roll:	-1.648	Pitch:	-3.090	Yaw:	241.380	Thrust:	70.216
Time:	6.455	Roll Set Point:	-0.167	Pitch Set Point:	-0.007	Yaw Set Point:	-2.958	X_WP:	0.155	Y_WP:	0.007	Y_WP:	0.500	X:	0.163	Y:	0.069	Z:	0.401	yaw:	169.455	yaw rate:	-0.769	Roll:	-1.639	Pitch:	-3.098	Yaw:	241.249	Thrust:	70.725
Time:	6.486	Roll Set Point:	-0.167	Pitch Set Point:	-0.007	Yaw Set Point:	-2.957	X_WP:	0.155	Y_WP:	0.007	Y_WP:	0.500	X:	0.163	Y:	0.069	Z:	0.401	yaw:	169.430	yaw rate:	-2.514	Roll:	-1.045	Pitch:	-2.669	Yaw:	239.484	Thrust:	49.253
Time:	6.517	Roll Set Point:	-0.167	Pitch Set Point:	-0.007	Yaw Set Point:	-2.958	X_WP:	0.155	Y_WP:	0.007	Y_WP:	0.500	X:	0.163	Y:	0.069	Z:	0.401	yaw:	169.470	yaw rate:	3.976	Roll:	-1.079	Pitch:	-2.678	Yaw:	240.083	Thrust:	49.789
Time:	6.548	Roll Set Point:	-0.167	Pitch Set Point:	-0.007	Yaw Set Point:	-2.957	X_WP:	0.155	Y_WP:	0.007	Y_WP:	0.500	X:	0.163	Y:	0.069	Z:	0.401	yaw:	169.451	yaw rate:	-1.872	Roll:	-1.046	Pitch:	-2.682	Yaw:	239.567	Thrust:	50.025
Time:	6.580	Roll Set Point:	-0.167	Pitch Set Point:	-0.007	Yaw Set Point:	-2.958	X_WP:	0.155	Y_WP:	0.007	Y_WP:	0.500	X:	0.163	Y:	0.069	Z:	0.401	yaw:	169.456	yaw rate:	0.494	Roll:	-1.058	Pitch:	-2.687	Yaw:	239.772	Thrust:	50.487
Time:	6.611	Roll Set Point:	-0.167	Pitch Set Point:	-0.007	Yaw Set Point:	-2.957	X_WP:	0.155	Y_WP:	0.007	Y_WP:	0.500	X:	0.163	Y:	0.069	Z:	0.401	yaw:	169.422	yaw rate:	-0.521	Roll:	-1.037	Pitch:	-2.691	Yaw:	239.397	Thrust:	50.742
Time:	6.642	Roll Set Point:	-0.167	Pitch Set Point:	-0.007	Yaw Set Point:	-2.958	X_WP:	0.155	Y_WP:	0.007	Y_WP:	0.500	X:	0.163	Y:	0.069	Z:	0.401	yaw:	169.462	yaw rate:	4.050	Roll:	-1.079	Pitch:	-2.698	Yaw:	240.079	Thrust:	51.284
Time:	6.673	Roll Set Point:	-0.167	Pitch Set Point:	-0.007	Yaw Set Point:	-2.958	X_WP:	0.155	Y_WP:	0.007	Y_WP:	0.500	X:	0.163	Y:	0.069	Z:	0.401	yaw:	169.468	yaw rate:	0.520	Roll:	-1.060	Pitch:	-2.702	Yaw:	239.791	Thrust:	51.572
Time:	6.705	Roll Set Point:	-0.167	Pitch Set Point:	-0.007	Yaw Set Point:	-2.958	X_WP:	0.155	Y_WP:	0.007	Y_WP:	0.500	X:	0.163	Y:	0.069	Z:	0.401	yaw:	169.453	yaw rate:	0.349	Roll:	-1.047	Pitch:	-2.705	Yaw:	239.607	Thrust:	51.953
Time:	6.736	Roll Set Point:	-0.167	Pitch Set Point:	-0.007	Yaw Set Point:	-2.957	X_WP:	0.155	Y_WP:	0.007	Y_WP:	0.500	X:	0.163	Y:	0.069	Z:	0.401	yaw:	169.439	yaw rate:	-1.445	Roll:	-1.046	Pitch:	-2.712	Yaw:	239.586	Thrust:	52.277
Time:	6.781	Roll Set Point:	-0.167	Pitch Set Point:	-0.007	Yaw Set Point:	-2.958	X_WP:	0.155	Y_WP:	0.007	Y_WP:	0.500	X:	0.163	Y:	0.069	Z:	0.401	yaw:	169.458	yaw rate:	1.893	Roll:	-1.595	Pitch:	-3.131	Yaw:	241.268	Thrust:	74.244
Time:	6.813	Roll Set Point:	-0.167	Pitch Set Point:	-0.007	Yaw Set Point:	-2.957	X_WP:	0.155	Y_WP:	0.007	Y_WP:	0.500	X:	0.163	Y:	0.069	Z:	0.401	yaw:	169.436	yaw rate:	0.288	Roll:	-1.039	Pitch:	-2.719	Yaw:	239.519	Thrust:	53.066
Time:	6.844	Roll Set Point:	-0.167	Pitch Set Point:	-0.007	Yaw Set Point:	-2.958	X_WP:	0.155	Y_WP:	0.007	Y_WP:	0.500	X:	0.163	Y:	0.069	Z:	0.401	yaw:	169.456	yaw rate:	1.988	Roll:	-1.067	Pitch:	-2.726	Yaw:	239.897	Thrust:	53.444
Time:	6.875	Roll Set Point:	-0.167	Pitch Set Point:	-0.007	Yaw Set Point:	-2.957	X_WP:	0.155	Y_WP:	0.007	Y_WP:	0.500	X:	0.163	Y:	0.069	Z:	0.401	yaw:	169.422	yaw rate:	-1.440	Roll:	-1.032	Pitch:	-2.731	Yaw:	239.399	Thrust:	53.676
Time:	6.906	Roll Set Point:	-0.167	Pitch Set Point:	-0.007	Yaw Set Point:	-2.957	X_WP:	0.155	Y_WP:	0.007	Y_WP:	0.500	X:	0.163	Y:	0.069	Z:	0.401	yaw:	169.452	yaw rate:	1.142	Roll:	-1.070	Pitch:	-2.736	Yaw:	239.975	Thrust:	54.260
Time:	6.938	Roll Set Point:	-0.167	Pitch Set Point:	-0.007	Yaw Set Point:	-2.957	X_WP:	0.155	Y_WP:	0.007	Y_WP:	0.500	X:	0.163	Y:	0.069	Z:	0.401	yaw:	169.444	yaw rate:	-0.805	Roll:	-1.050	Pitch:	-2.740	Yaw:	239.649	Thrust:	54.500
Time:	6.985	Roll Set Point:	-0.167	Pitch Set Point:	-0.007	Yaw Set Point:	-2.958	X_WP:	0.155	Y_WP:	0.007	Y_WP:	0.500	X:	0.163	Y:	0.069	Z:	0.401	yaw:	169.459	yaw rate:	1.479	Roll:	-1.641	Pitch:	-3.215	Yaw:	241.380	Thrust:	79.702
Time:	7.016	Roll Set Point:	-0.167	Pitch Set Point:	-0.007	Yaw Set Point:	-2.957	X_WP:	0.155	Y_WP:	0.007	Y_WP:	0.500	X:	0.163	Y:	0.069	Z:	0.401	yaw:	169.407	yaw rate:	-5.145	Roll:	-1.021	Pitch:	-2.747	Yaw:	239.224	Thrust:	55.169
Time:	7.047	Roll Set Point:	-0.167	Pitch Set Point:	-0.007	Yaw Set Point:	-2.958	X_WP:	0.155	Y_WP:	0.007	Y_WP:	0.500	X:	0.163	Y:	0.069	Z:	0.401	yaw:	169.453	yaw rate:	-0.028	Roll:	-1.078	Pitch:	-2.757	Yaw:	240.109	Thrust:	55.700
Time:	7.094	Roll Set Point:	-0.167	Pitch Set Point:	-0.007	Yaw Set Point:	-2.957	X_WP:	0.155	Y_WP:	0.007	Y_WP:	0.500	X:	0.163	Y:	0.069	Z:	0.401	yaw:	169.445	yaw rate:	-2.354	Roll:	-1.049	Pitch:	-2.760	Yaw:	241.237	Thrust:	55.979
Time:	7.141	Roll Set Point:	-0.167	Pitch Set Point:	-0.007	Yaw Set Point:	-2.957	X_WP:	0.155	Y_WP:	0.007	Y_WP:	0.500	X:	0.163	Y:	0.069	Z:	0.401	yaw:	169.430	yaw rate:	-1.874	Roll:	-2.208	Pitch:	-3.723	Yaw:	241.170	Thrust:	100.000
Time:	7.188	Roll Set Point:	-0.167	Pitch Set Point:	-0.007	Yaw Set Point:	-2.958	X_WP:	0.155	Y_WP:	0.007	Y_WP:	0.500	X:	0.163	Y:	0.069	Z:	0.401	yaw:	169.453	yaw rate:	0.074	Roll:	-1.641	Pitch:	-3.252	Yaw:	241.422	Thrust:	82.419
Time:	7.235	Roll Set Point:	-0.167	Pitch Set Point:	-0.007	Yaw Set Point:	-2.957	X_WP:	0.155	Y_WP:	0.007	Y_WP:	0.500	X:	0.163	Y:	0.069	Z:	0.401	yaw:	169.436	yaw rate:	-1.776	Roll:	-1.626	Pitch:	-3.258	Yaw:	241.166	Thrust:	83.046
Time:	7.281	Roll Set Point:	-0.167	Pitch Set Point:	-0.007	Yaw Set Point:	-2.957	X_WP:	0.155	Y_WP:	0.007	Y_WP:	0.500	X:	0.163	Y:	0.069	Z:	0.401	yaw:	169.441	yaw rate:	-1.074	Roll:	-1.634	Pitch:	-3.267	Yaw:	241.305	Thrust:	83.501
Time:	7.328	Roll Set Point:	-0.167	Pitch Set Point:	-0.007	Yaw Set Point:	-2.958	X_WP:	0.155	Y_WP:	0.007	Y_WP:	0.500	X:	0.163	Y:	0.069	Z:	0.401	yaw:	169.464	yaw rate:	-14.803	Roll:	-1.640	Pitch:	-3.272	Yaw:	241.433	Thrust:	84.124
Time:	7.391	Roll Set Point:	-0.167	Pitch Set Point:	-0.007	Yaw Set Point:	-2.957	X_WP:	0.155	Y_WP:	0.007	Y_WP:	0.500	X:	0.163	Y:	0.069	Z:	0.401	yaw:	169.432	yaw rate:	-1.352	Roll:	-2.202	Pitch:	-3.773	Yaw:	242.687	Thrust:	100.000
Time:	7.422	Roll Set Point:	-0.167	Pitch Set Point:	-0.007	Yaw Set Point:	-2.957	X_WP:	0.155	Y_WP:	0.007	Y_WP:	0.500	X:	0.163	Y:	0.069	Z:	0.401	yaw:	169.443	yaw rate:	1.056	Roll:	-1.057	Pitch:	-2.794	Yaw:	239.800	Thrust:	58.655
Time:	7.453	Roll Set Point:	-0.167	Pitch Set Point:	-0.007	Yaw Set Point:	-2.957	X_WP:	0.155	Y_WP:	0.007	Y_WP:	0.500	X:	0.163	Y:	0.069	Z:	0.401	yaw:	169.422	yaw rate:	-2.557	Roll:	-1.037	Pitch:	-2.797	Yaw:	239.511	Thrust:	58.978
Time:	7.485	Roll Set Point:	-0.167	Pitch Set Point:	-0.007	Yaw Set Point:	-2.957	X_WP:	0.155	Y_WP:	0.007	Y_WP:	0.500	X:	0.163	Y:	0.069	Z:	0.401	yaw:	169.440	yaw rate:	1.809	Roll:	-1.059	Pitch:	-2.806	Yaw:	239.860	Thrust:	59.363
Time:	7.516	Roll Set Point:	-0.167	Pitch Set Point:	-0.007	Yaw Set Point:	-2.957	X_WP:	0.155	Y_WP:	0.007	Y_WP:	0.500	X:	0.163	Y:	0.069	Z:	0.401	yaw:	169.452	yaw rate:	1.163	Roll:	-1.052	Pitch:	-2.804	Yaw:	239.822	Thrust:	59.859
Time:	7.547	Roll Set Point:	-0.167	Pitch Set Point:	-0.007	Yaw Set Point:	-2.957	X_WP:	0.155	Y_WP:	0.007	Y_WP:	0.500	X:	0.163	Y:	0.069	Z:	0.401	yaw:	169.447	yaw rate:	-0.485	Roll:	-1.048	Pitch:	-2.814	Yaw:	239.677	Thrust:	59.995
Time:	7.594	Roll Set Point:	-0.167	Pitch Set Point:	-0.007	Yaw Set Point:	-2.957	X_WP:	0.155	Y_WP:	0.007	Y_WP:	0.500	X:	0.163	Y:	0.069	Z:	0.401	yaw:	169.436	yaw rate:	-1.640	Roll:	-1.624	Pitch:	-3.326	Yaw:	241.203	Thrust:	88.054
Time:	7.625	Roll Set Point:	-0.167	Pitch Set Point:	-0.007	Yaw Set Point:	-2.957	X_WP:	0.155	Y_WP:	0.007	Y_WP:	0.500	X:	0.163	Y:	0.069	Z:	0.401	yaw:	169.446	yaw rate:	0.979	Roll:	-1.054	Pitch:	-2.822	Yaw:	239.798	Thrust:	60.868
Time:	7.672	Roll Set Point:	-0.167	Pitch Set Point:	-0.007	Yaw Set Point:	-2.957	X_WP:	0.155	Y_WP:	0.007	Y_WP:	0.500	X:	0.163	Y:	0.069	Z:	0.401	yaw:	169.434	yaw rate:	-1.205	Roll:	-1.622	Pitch:	-3.339	Yaw:	241.195	Thrust:	89.114
Time:	7.703	Roll Set Point:	-0.167	Pitch Set Point:	-0.007	Yaw Set Point:	-2.957	X_WP:	0.155	Y_WP:	0.007	Y_WP:	0.500	X:	0.163	Y:	0.069	Z:	0.401	yaw:	169.443	yaw rate:	1.510	Roll:	-1.052	Pitch:	-2.834	Yaw:	239.790	Thrust:	61.688
Time:	7.735	Roll Set Point:	-0.167	Pitch Set Point:	-0.007	Yaw Set Point:	-2.957	X_WP:	0.155	Y_WP:	0.007	Y_WP:	0.500	X:	0.163	Y:	0.069	Z:	0.401	yaw:	169.431	yaw rate:	-1.227	Roll:	-1.040	Pitch:	-2.837	Yaw:	239.592	Thrust:	61.922
Time:	7.781	Roll Set Point:	-0.167	Pitch Set Point:	-0.007	Yaw Set Point:	-2.958	X_WP:	0.155	Y_WP:	0.007	Y_WP:	0.500	X:	0.163	Y:	0.069	Z:	0.401	yaw:	169.462	yaw rate:	-13.610	Roll:	-1.633	Pitch:	-3.354	Yaw:	241.465	Thrust:	90.563
Time:	7.813	Roll Set Point:	-0.167	Pitch Set Point:	-0.007	Yaw Set Point:	-2.957	X_WP:	0.155	Y_WP:	0.007	Y_WP:	0.500	X:	0.163	Y:	0.069	Z:	0.401	yaw:	169.449	yaw rate:	-1.322	Roll:	-1.041	Pitch:	-2.848	Yaw:	239.610	Thrust:	62.677
Time:	7.844	Roll Set Point:	-0.167	Pitch Set Point:	-0.007	Yaw Set Point:	-2.958	X_WP:	0.155	Y_WP:	0.007	Y_WP:	0.500	X:	0.163	Y:	0.069	Z:	0.401	yaw:	169.461	yaw rate:	1.204	Roll:	-1.053	Pitch:	-2.854	Yaw:	239.838	Thrust:	63.092
Time:	7.875	Roll Set Point:	-0.167	Pitch Set Point:	-0.007	Yaw Set Point:	-2.958	X_WP:	0.155	Y_WP:	0.007	Y_WP:	0.500	X:	0.163	Y:	0.069	Z:	0.401	yaw:	169.453	yaw rate:	-0.774	Roll:	-1.040	Pitch:	-2.856	Yaw:	239.662	Thrust:	63.481
Time:	7.906	Roll Set Point:	-0.167	Pitch Set Point:	-0.007	Yaw Set Point:	-2.957	X_WP:	0.155	Y_WP:	0.007	Y_WP:	0.500	X:	0.163	Y:	0.069	Z:	0.401	yaw:	169.424	yaw rate:	-2.877	Roll:	-1.030	Pitch:	-2.860	Yaw:	239.445	Thrust:	63.857
Time:	7.938	Roll Set Point:	-0.167	Pitch Set Point:	-0.007	Yaw Set Point:	-2.957	X_WP:	0.155	Y_WP:	0.007	Y_WP:	0.500	X:	0.163	Y:	0.069	Z:	0.401	yaw:	169.439	yaw rate:	1.461	Roll:	-1.054	Pitch:	-2.869	Yaw:	239.829	Thrust:	64.206
Time:	7.969	Roll Set Point:	-0.167	Pitch Set Point:	-0.007	Yaw Set Point:	-2.957	X_WP:	0.155	Y_WP:	0.007	Y_WP:	0.500	X:	0.163	Y:	0.069	Z:	0.401	yaw:	169.426	yaw rate:	-1.250	Roll:	-1.037	Pitch:	-2.871	Yaw:	239.585	Thrust:	64.627
Time:	8.000	Roll Set Point:	-0.167	Pitch Set Point:	-0.007	Yaw Set Point:	-2.958	X_WP:	0.155	Y_WP:	0.007	Y_WP:	0.500	X:	0.163	Y:	0.069	Z:	0.401	yaw:	169.470	yaw rate:	4.356	Roll:	-1.070	Pitch:	-2.878	Yaw:	240.115	Thrust:	64.984
Time:	8.031	Roll Set Point:	-0.167	Pitch Set Point:	-0.007	Yaw Set Point:	-2.957	X_WP:	0.155	Y_WP:	0.007	Y_WP:	0.500	X:	0.163	Y:	0.069	Z:	0.401	yaw:	169.433	yaw rate:	-3.669	Roll:	-1.024	Pitch:	-2.880	Yaw:	239.391	Thrust:	65.258
Time:	8.063	Roll Set Point:	-0.167	Pitch Set Point:	-0.007	Yaw Set Point:	-2.957	X_WP:	0.155	Y_WP:	0.007	Y_WP:	0.500	X:	0.163	Y:	0.069	Z:	0.401	yaw:	169.434	yaw rate:	-2.745	Roll:	-1.043	Pitch:	-2.885	Yaw:	239.707	Thrust:	65.678
Time:	8.094	Roll Set Point:	-0.167	Pitch Set Point:	-0.007	Yaw Set Point:	-2.957	X_WP:	0.155	Y_WP:	0.007	Y_WP:	0.500	X:	0.163	Y:	0.069	Z:	0.401	yaw:	169.438	yaw rate:	0.379	Roll:	-1.045	Pitch:	-2.891	Yaw:	239.737	Thrust:	66.156
Time:	8.125	Roll Set Point:	-0.167	Pitch Set Point:	-0.007	Yaw Set Point:	-2.957	X_WP:	0.155	Y_WP:	0.007	Y_WP:	0.500	X:	0.163	Y:	0.069	Z:	0.401	yaw:	169.441	yaw rate:	0.251	Roll:	-1.046	Pitch:	-2.896	Yaw:	239.730	Thrust:	66.377
Time:	8.156	Roll Set Point:	-0.167	Pitch Set Point:	-0.007	Yaw Set Point:	-2.957	X_WP:	0.155	Y_WP:	0.007	Y_WP:	0.500	X:	0.163	Y:	0.069	Z:	0.401	yaw:	169.425	yaw rate:	-1.517	Roll:	-1.033	Pitch:	-2.902	Yaw:	239.561	Thrust:	66.796
Time:	8.188	Roll Set Point:	-0.167	Pitch Set Point:	-0.007	Yaw Set Point:	-2.957	X_WP:	0.155	Y_WP:	0.007	Y_WP:	0.500	X:	0.163	Y:	0.069	Z:	0.401	yaw:	169.447	yaw rate:	2.135	Roll:	-1.055	Pitch:	-2.907	Yaw:	239.899	Thrust:	67.275
Time:	8.219	Roll Set Point:	-0.167	Pitch Set Point:	-0.007	Yaw Set Point:	-2.958	X_WP:	0.155	Y_WP:	0.007	Y_WP:	0.500	X:	0.163	Y:	0.069	Z:	0.401	yaw:	169.454	yaw rate:	0.770	Roll:	-1.048	Pitch:	-2.910	Yaw:	239.790	Thrust:	67.482
Time:	8.250	Roll Set Point:	-0.167	Pitch Set Point:	-0.007	Yaw Set Point:	-2.957	X_WP:	0.155	Y_WP:	0.007	Y_WP:	0.500	X:	0.163	Y:	0.069	Z:	0.401	yaw:	169.434	yaw rate:	-2.082	Roll:	-1.029	Pitch:	-2.914	Yaw:	239.525	Thrust:	67.955
Time:	8.281	Roll Set Point:	-0.167	Pitch Set Point:	-0.007	Yaw Set Point:	-2.957	X_WP:	0.155	Y_WP:	0.007	Y_WP:	0.500	X:	0.163	Y:	0.069	Z:	0.401	yaw:	169.406	yaw rate:	-2.749	Roll:	-1.027	Pitch:	-2.920	Yaw:	239.434	Thrust:	68.335
Time:	8.313	Roll Set Point:	-0.167	Pitch Set Point:	-0.007	Yaw Set Point:	-2.957	X_WP:	0.155	Y_WP:	0.007	Y_WP:	0.500	X:	0.163	Y:	0.069	Z:	0.401	yaw:	169.452	yaw rate:	4.565	Roll:	-1.067	Pitch:	-2.926	Yaw:	240.107	Thrust:	68.770
Time:	8.344	Roll Set Point:	-0.167	Pitch Set Point:	-0.007	Yaw Set Point:	-2.957	X_WP:	0.155	Y_WP:	0.007	Y_WP:	0.500	X:	0.163	Y:	0.069	Z:	0.401	yaw:	169.424	yaw rate:	-4.116	Roll:	-1.025	Pitch:	-2.929	Yaw:	239.449	Thrust:	68.957
Time:	8.375	Roll Set Point:	-0.167	Pitch Set Point:	-0.007	Yaw Set Point:	-2.958	X_WP:	0.155	Y_WP:	0.007	Y_WP:	0.500	X:	0.163	Y:	0.069	Z:	0.401	yaw:	169.464	yaw rate:	4.011	Roll:	-1.063	Pitch:	-2.936	Yaw:	240.074	Thrust:	69.422
Time:	8.406	Roll Set Point:	-0.167	Pitch Set Point:	-0.007	Yaw Set Point:	-2.957	X_WP:	0.155	Y_WP:	0.007	Y_WP:	0.500	X:	0.163	Y:	0.069	Z:	0.401	yaw:	169.442	yaw rate:	-2.163	Roll:	-1.028	Pitch:	-2.940	Yaw:	239.530	Thrust:	69.737
Time:	8.438	Roll Set Point:	-0.167	Pitch Set Point:	-0.007	Yaw Set Point:	-2.957	X_WP:	0.155	Y_WP:	0.007	Y_WP:	0.500	X:	0.163	Y:	0.069	Z:	0.401	yaw:	169.449	yaw rate:	0.651	Roll:	-1.045	Pitch:	-2.945	Yaw:	239.775	Thrust:	70.177
Time:	8.469	Roll Set Point:	-0.167	Pitch Set Point:	-0.007	Yaw Set Point:	-2.957	X_WP:	0.155	Y_WP:	0.007	Y_WP:	0.500	X:	0.163	Y:	0.069	Z:	0.401	yaw:	169.435	yaw rate:	-1.384	Roll:	-1.032	Pitch:	-2.949	Yaw:	239.585	Thrust:	70.475
Time:	8.500	Roll Set Point:	-0.167	Pitch Set Point:	-0.007	Yaw Set Point:	-2.958	X_WP:	0.155	Y_WP:	0.007	Y_WP:	0.500	X:	0.163	Y:	0.069	Z:	0.401	yaw:	169.456	yaw rate:	2.107	Roll:	-1.053	Pitch:	-2.955	Yaw:	239.907	Thrust:	70.980
Time:	8.531	Roll Set Point:	-0.167	Pitch Set Point:	-0.007	Yaw Set Point:	-2.957	X_WP:	0.155	Y_WP:	0.007	Y_WP:	0.500	X:	0.163	Y:	0.069	Z:	0.401	yaw:	169.448	yaw rate:	-0.771	Roll:	-1.034	Pitch:	-2.957	Yaw:	239.654	Thrust:	71.275
Time:	8.563	Roll Set Point:	-0.167	Pitch Set Point:	-0.007	Yaw Set Point:	-2.957	X_WP:	0.155	Y_WP:	0.007	Y_WP:	0.500	X:	0.163	Y:	0.069	Z:	0.401	yaw:	169.431	yaw rate:	-1.683	Roll:	-1.031	Pitch:	-2.964	Yaw:	239.557	Thrust:	71.644
Time:	8.594	Roll Set Point:	-0.167	Pitch Set Point:	-0.007	Yaw Set Point:	-2.957	X_WP:	0.155	Y_WP:	0.007	Y_WP:	0.500	X:	0.163	Y:	0.069	Z:	0.401	yaw:	169.439	yaw rate:	0.166	Roll:	-1.042	Pitch:	-2.969	Yaw:	239.770	Thrust:	72.009
Time:	8.625	Roll Set Point:	-0.167	Pitch Set Point:	-0.007	Yaw Set Point:	-2.957	X_WP:	0.155	Y_WP:	0.007	Y_WP:	0.500	X:	0.163	Y:	0.069	Z:	0.401	yaw:	169.429	yaw rate:	-1.044	Roll:	-1.034	Pitch:	-2.974	Yaw:	239.608	Thrust:	72.385
Time:	8.656	Roll Set Point:	-0.167	Pitch Set Point:	-0.007	Yaw Set Point:	-2.958	X_WP:	0.155	Y_WP:	0.007	Y_WP:	0.500	X:	0.163	Y:	0.069	Z:	0.401	yaw:	169.466	yaw rate:	-1.115	Roll:	-1.059	Pitch:	-2.979	Yaw:	240.058	Thrust:	72.784
Time:	8.688	Roll Set Point:	-0.167	Pitch Set Point:	-0.007	Yaw Set Point:	-2.957	X_WP:	0.155	Y_WP:	0.007	Y_WP:	0.500	X:	0.163	Y:	0.069	Z:	0.401	yaw:	169.440	yaw rate:	-2.589	Roll:	-1.026	Pitch:	-2.976	Yaw:	239.495	Thrust:	73.142
Time:	8.719	Roll Set Point:	-0.167	Pitch Set Point:	-0.007	Yaw Set Point:	-2.958	X_WP:	0.155	Y_WP:	0.007	Y_WP:	0.500	X:	0.163	Y:	0.069	Z:	0.401	yaw:	169.464	yaw rate:	2.359	Roll:	-1.048	Pitch:	-2.976	Yaw:	239.936	Thrust:	73.527
Time:	8.750	Roll Set Point:	-0.167	Pitch Set Point:	-0.007	Yaw Set Point:	-2.957	X_WP:	0.155	Y_WP:	0.007	Y_WP:	0.500	X:	0.163	Y:	0.069	Z:	0.401	yaw:	169.431	yaw rate:	-0.847	Roll:	-1.019	Pitch:	-2.979	Yaw:	239.417	Thrust:	73.805
Time:	8.783	Roll Set Point:	-0.167	Pitch Set Point:	-0.007	Yaw Set Point:	-2.957	X_WP:	0.155	Y_WP:	0.007	Y_WP:	0.500	X:	0.163	Y:	0.069	Z:	0.401	yaw:	169.434	yaw rate:	-1.643	Roll:	-1.029	Pitch:	-2.970	Yaw:	239.927	Thrust:	73.782
Time:	8.816	Roll Set Point:	-0.167	Pitch Set Point:	-0.007	Yaw Set Point:	-2.957	X_WP:	0.155	Y_WP:	0.007	Y_WP:	0.500	X:	0.163	Y:	0.069	Z:	0.401	yaw:	169.433	yaw rate:	-0.100	Roll:	-1.176	Pitch:	-3.120	Yaw:	239.844	Thrust:	82.997
Time:	8.848	Roll Set Point:	-0.167	Pitch Set Point:	-0.007	Yaw Set Point:	-2.957	X_WP:	0.155	Y_WP:	0.007	Y_WP:	0.500	X:	0.163	Y:	0.069	Z:	0.401	yaw:	169.452	yaw rate:	1.349	Roll:	-0.989	Pitch:	-2.956	Yaw:	239.920	Thrust:	73.699
Time:	8.895	Roll Set Point:	-0.167	Pitch Set Point:	-0.007	Yaw Set Point:	-2.957	X_WP:	0.155	Y_WP:	0.007	Y_WP:	0.500	X:	0.163	Y:	0.069	Z:	0.401	yaw:	169.446	yaw rate:	0.632	Roll:	-1.647	Pitch:	-3.603	Yaw:	241.253	Thrust:	100.000
Time:	8.926	Roll Set Point:	-0.167	Pitch Set Point:	-0.007	Yaw Set Point:	-2.958	X_WP:	0.155	Y_WP:	0.007	Y_WP:	0.500	X:	0.163	Y:	0.069	Z:	0.401	yaw:	169.453	yaw rate:	0.678	Roll:	-1.039	Pitch:	-2.977	Yaw:	239.783	Thrust:	75.729
Time:	8.960	Roll Set Point:	-0.167	Pitch Set Point:	-0.007	Yaw Set Point:	-2.957	X_WP:	0.155	Y_WP:	0.007	Y_WP:	0.500	X:	0.163	Y:	0.069	Z:	0.401	yaw:	169.435	yaw rate:	-0.561	Roll:	-1.127	Pitch:	-3.079	Yaw:	239.836	Thrust:	82.229
Time:	9.003	Roll Set Point:	-0.167	Pitch Set Point:	-0.007	Yaw Set Point:	-2.957	X_WP:	0.155	Y_WP:	0.007	Y_WP:	0.500	X:	0.163	Y:	0.069	Z:	0.401	yaw:	169.442	yaw rate:	-1.084	Roll:	-1.434	Pitch:	-3.384	Yaw:	240.933	Thrust:	100.000
Time:	9.069	Roll Set Point:	-0.167	Pitch Set Point:	-0.007	Yaw Set Point:	-2.957	X_WP:	0.155	Y_WP:	0.007	Y_WP:	0.500	X:	0.163	Y:	0.069	Z:	0.401	yaw:	169.446	yaw rate:	2.839	Roll:	-2.317	Pitch:	-4.324	Yaw:	243.222	Thrust:	100.000
Time:	9.136	Roll Set Point:	-0.167	Pitch Set Point:	-0.007	Yaw Set Point:	-2.957	X_WP:	0.155	Y_WP:	0.007	Y_WP:	0.500	X:	0.163	Y:	0.069	Z:	0.401	yaw:	169.429	yaw rate:	-1.811	Roll:	-2.347	Pitch:	-4.325	Yaw:	243.223	Thrust:	100.000
Time:	9.184	Roll Set Point:	-0.167	Pitch Set Point:	-0.007	Yaw Set Point:	-2.957	X_WP:	0.155	Y_WP:	0.007	Y_WP:	0.500	X:	0.163	Y:	0.069	Z:	0.401	yaw:	169.442	yaw rate:	-1.172	Roll:	-1.621	Pitch:	-3.574	Yaw:	241.369	Thrust:	100.000
Time:	9.244	Roll Set Point:	-0.167	Pitch Set Point:	-0.007	Yaw Set Point:	-2.957	X_WP:	0.155	Y_WP:	0.007	Y_WP:	0.500	X:	0.163	Y:	0.069	Z:	0.401	yaw:	169.452	yaw rate:	-1.230	Roll:	-2.132	Pitch:	-4.062	Yaw:	242.656	Thrust:	100.000
Time:	9.309	Roll Set Point:	-0.167	Pitch Set Point:	-0.007	Yaw Set Point:	-2.958	X_WP:	0.155	Y_WP:	0.007	Y_WP:	0.500	X:	0.163	Y:	0.069	Z:	0.401	yaw:	169.457	yaw rate:	1.335	Roll:	-2.279	Pitch:	-4.250	Yaw:	243.148	Thrust:	100.000
Time:	9.347	Roll Set Point:	-0.167	Pitch Set Point:	-0.007	Yaw Set Point:	-2.957	X_WP:	0.155	Y_WP:	0.007	Y_WP:	0.500	X:	0.163	Y:	0.069	Z:	0.401	yaw:	169.443	yaw rate:	1.650	Roll:	-1.277	Pitch:	-3.232	Yaw:	240.296	Thrust:	94.705
Time:	9.380	Roll Set Point:	-0.167	Pitch Set Point:	-0.007	Yaw Set Point:	-2.957	X_WP:	0.155	Y_WP:	0.007	Y_WP:	0.500	X:	0.163	Y:	0.069	Z:	0.401	yaw:	169.447	yaw rate:	-1.448	Roll:	-1.103	Pitch:	-3.047	Yaw:	239.932	Thrust:	83.497
Time:	9.421	Roll Set Point:	-0.167	Pitch Set Point:	-0.007	Yaw Set Point:	-2.957	X_WP:	0.155	Y_WP:	0.007	Y_WP:	0.500	X:	0.163	Y:	0.069	Z:	0.401	yaw:	169.434	yaw rate:	-1.120	Roll:	-1.365	Pitch:	-3.324	Yaw:	240.542	Thrust:	100.000
Time:	9.460	Roll Set Point:	-0.167	Pitch Set Point:	-0.007	Yaw Set Point:	-2.957	X_WP:	0.155	Y_WP:	0.007	Y_WP:	0.500	X:	0.163	Y:	0.069	Z:	0.401	yaw:	169.441	yaw rate:	-1.145	Roll:	-1.322	Pitch:	-3.273	Yaw:	240.537	Thrust:	98.501
Time:	9.498	Roll Set Point:	-0.167	Pitch Set Point:	-0.007	Yaw Set Point:	-2.957	X_WP:	0.155	Y_WP:	0.007	Y_WP:	0.500	X:	0.163	Y:	0.069	Z:	0.401	yaw:	169.440	yaw rate:	-0.978	Roll:	-1.246	Pitch:	-3.196	Yaw:	240.288	Thrust:	94.212
Time:	9.534	Roll Set Point:	-0.167	Pitch Set Point:	-0.007	Yaw Set Point:	-2.957	X_WP:	0.155	Y_WP:	0.007	Y_WP:	0.500	X:	0.163	Y:	0.069	Z:	0.401	yaw:	169.425	yaw rate:	-3.555	Roll:	-1.238	Pitch:	-3.198	Yaw:	240.167	Thrust:	94.594
Time:	9.576	Roll Set Point:	-0.167	Pitch Set Point:	-0.007	Yaw Set Point:	-2.957	X_WP:	0.155	Y_WP:	0.007	Y_WP:	0.500	X:	0.163	Y:	0.069	Z:	0.401	yaw:	169.439	yaw rate:	-0.185	Roll:	-1.398	Pitch:	-3.345	Yaw:	240.779	Thrust:	100.000
Time:	9.632	Roll Set Point:	-0.167	Pitch Set Point:	-0.007	Yaw Set Point:	-2.958	X_WP:	0.155	Y_WP:	0.007	Y_WP:	0.500	X:	0.163	Y:	0.069	Z:	0.401	yaw:	169.454	yaw rate:	2.052	Roll:	-1.947	Pitch:	-3.912	Yaw:	242.386	Thrust:	100.000
Time:	9.671	Roll Set Point:	-0.167	Pitch Set Point:	-0.007	Yaw Set Point:	-2.957	X_WP:	0.155	Y_WP:	0.007	Y_WP:	0.500	X:	0.163	Y:	0.069	Z:	0.401	yaw:	169.438	yaw rate:	-1.760	Roll:	-1.346	Pitch:	-3.310	Yaw:	240.382	Thrust:	100.000
Time:	9.710	Roll Set Point:	-0.167	Pitch Set Point:	-0.007	Yaw Set Point:	-2.957	X_WP:	0.155	Y_WP:	0.007	Y_WP:	0.500	X:	0.163	Y:	0.069	Z:	0.401	yaw:	169.439	yaw rate:	0.125	Roll:	-1.318	Pitch:	-3.271	Yaw:	240.498	Thrust:	100.000
Time:	9.759	Roll Set Point:	-0.167	Pitch Set Point:	-0.006	Yaw Set Point:	-2.965	X_WP:	0.156	Y_WP:	0.007	Y_WP:	0.500	X:	0.163	Y:	0.069	Z:	0.401	yaw:	169.898	yaw rate:	44.018	Roll:	-1.829	Pitch:	-3.608	Yaw:	244.536	Thrust:	100.000
Time:	9.791	Roll Set Point:	-0.167	Pitch Set Point:	-0.006	Yaw Set Point:	-2.965	X_WP:	0.156	Y_WP:	0.007	Y_WP:	0.500	X:	0.163	Y:	0.069	Z:	0.401	yaw:	169.909	yaw rate:	-1.291	Roll:	-1.078	Pitch:	-3.029	Yaw:	240.536	Thrust:	84.812
Time:	9.812	Roll Set Point:	-0.167	Pitch Set Point:	-0.006	Yaw Set Point:	-2.966	X_WP:	0.156	Y_WP:	0.007	Y_WP:	0.500	X:	0.163	Y:	0.069	Z:	0.401	yaw:	169.939	yaw rate:	3.496	Roll:	-0.726	Pitch:	-2.627	Yaw:	239.815	Thrust:	59.690
Time:	9.846	Roll Set Point:	-0.167	Pitch Set Point:	-0.006	Yaw Set Point:	-2.965	X_WP:	0.156	Y_WP:	0.007	Y_WP:	0.500	X:	0.163	Y:	0.069	Z:	0.401	yaw:	169.908	yaw rate:	-3.583	Roll:	-1.107	Pitch:	-3.059	Yaw:	240.344	Thrust:	89.040
Time:	9.877	Roll Set Point:	-0.167	Pitch Set Point:	-0.006	Yaw Set Point:	-2.965	X_WP:	0.156	Y_WP:	0.007	Y_WP:	0.500	X:	0.163	Y:	0.069	Z:	0.401	yaw:	169.908	yaw rate:	0.031	Roll:	-1.044	Pitch:	-2.980	Yaw:	240.365	Thrust:	83.890
Time:	9.908	Roll Set Point:	-0.167	Pitch Set Point:	-0.006	Yaw Set Point:	-2.966	X_WP:	0.156	Y_WP:	0.007	Y_WP:	0.500	X:	0.163	Y:	0.069	Z:	0.401	yaw:	169.917	yaw rate:	-1.631	Roll:	-1.048	Pitch:	-2.977	Yaw:	240.449	Thrust:	84.325
Time:	9.942	Roll Set Point:	-0.167	Pitch Set Point:	-0.006	Yaw Set Point:	-2.966	X_WP:	0.156	Y_WP:	0.007	Y_WP:	0.500	X:	0.163	Y:	0.069	Z:	0.401	yaw:	169.923	yaw rate:	1.510	Roll:	-1.145	Pitch:	-3.081	Yaw:	240.694	Thrust:	91.267
Time:	9.976	Roll Set Point:	-0.167	Pitch Set Point:	-0.006	Yaw Set Point:	-2.965	X_WP:	0.156	Y_WP:	0.007	Y_WP:	0.500	X:	0.163	Y:	0.069	Z:	0.401	yaw:	169.901	yaw rate:	-2.364	Roll:	-1.133	Pitch:	-3.084	Yaw:	240.465	Thrust:	92.304
Time:	10.009	Roll Set Point:	-0.167	Pitch Set Point:	-0.007	Yaw Set Point:	-2.967	X_WP:	0.156	Y_WP:	0.007	Y_WP:	0.500	X:	0.163	Y:	0.069	Z:	0.401	yaw:	169.971	yaw rate:	6.322	Roll:	-1.115	Pitch:	-3.008	Yaw:	241.103	Thrust:	87.616
Time:	10.044	Roll Set Point:	-0.167	Pitch Set Point:	-0.006	Yaw Set Point:	-2.966	X_WP:	0.156	Y_WP:	0.007	Y_WP:	0.500	X:	0.163	Y:	0.069	Z:	0.401	yaw:	169.926	yaw rate:	1.875	Roll:	-1.158	Pitch:	-3.124	Yaw:	240.441	Thrust:	95.518
Time:	10.084	Roll Set Point:	-0.167	Pitch Set Point:	-0.006	Yaw Set Point:	-2.966	X_WP:	0.156	Y_WP:	0.007	Y_WP:	0.500	X:	0.163	Y:	0.069	Z:	0.401	yaw:	169.916	yaw rate:	-0.342	Roll:	-1.361	Pitch:	-3.312	Yaw:	241.191	Thrust:	100.000
Time:	10.118	Roll Set Point:	-0.167	Pitch Set Point:	-0.006	Yaw Set Point:	-2.966	X_WP:	0.156	Y_WP:	0.007	Y_WP:	0.500	X:	0.163	Y:	0.069	Z:	0.401	yaw:	169.928	yaw rate:	0.432	Roll:	-1.151	Pitch:	-3.085	Yaw:	240.762	Thrust:	93.797
Time:	10.152	Roll Set Point:	-0.167	Pitch Set Point:	-0.006	Yaw Set Point:	-2.966	X_WP:	0.156	Y_WP:	0.007	Y_WP:	0.500	X:	0.163	Y:	0.069	Z:	0.401	yaw:	169.943	yaw rate:	2.447	Roll:	-1.154	Pitch:	-3.083	Yaw:	240.808	Thrust:	94.386
Time:	10.182	Roll Set Point:	-0.167	Pitch Set Point:	-0.006	Yaw Set Point:	-2.966	X_WP:	0.156	Y_WP:	0.007	Y_WP:	0.500	X:	0.163	Y:	0.069	Z:	0.401	yaw:	169.919	yaw rate:	-2.345	Roll:	-0.984	Pitch:	-2.932	Yaw:	240.056	Thrust:	83.987
Time:	10.218	Roll Set Point:	-0.167	Pitch Set Point:	-0.006	Yaw Set Point:	-2.966	X_WP:	0.156	Y_WP:	0.007	Y_WP:	0.500	X:	0.163	Y:	0.069	Z:	0.401	yaw:	169.925	yaw rate:	1.077	Roll:	-1.221	Pitch:	-3.162	Yaw:	240.916	Thrust:	100.000
Time:	10.249	Roll Set Point:	-0.167	Pitch Set Point:	-0.006	Yaw Set Point:	-2.966	X_WP:	0.156	Y_WP:	0.007	Y_WP:	0.500	X:	0.163	Y:	0.069	Z:	0.401	yaw:	169.911	yaw rate:	-2.454	Roll:	-0.988	Pitch:	-2.935	Yaw:	240.227	Thrust:	84.892
Time:	10.280	Roll Set Point:	-0.167	Pitch Set Point:	-0.006	Yaw Set Point:	-2.966	X_WP:	0.156	Y_WP:	0.007	Y_WP:	0.500	X:	0.163	Y:	0.069	Z:	0.401	yaw:	169.911	yaw rate:	-3.497	Roll:	-1.072	Pitch:	-3.005	Yaw:	240.353	Thrust:	90.569
Time:	10.314	Roll Set Point:	-0.167	Pitch Set Point:	-0.006	Yaw Set Point:	-2.966	X_WP:	0.156	Y_WP:	0.007	Y_WP:	0.500	X:	0.163	Y:	0.069	Z:	0.401	yaw:	169.913	yaw rate:	-1.146	Roll:	-1.107	Pitch:	-3.088	Yaw:	240.663	Thrust:	96.213
Time:	10.345	Roll Set Point:	-0.167	Pitch Set Point:	-0.006	Yaw Set Point:	-2.966	X_WP:	0.156	Y_WP:	0.007	Y_WP:	0.500	X:	0.163	Y:	0.069	Z:	0.401	yaw:	169.911	yaw rate:	-0.109	Roll:	-1.070	Pitch:	-2.972	Yaw:	240.337	Thrust:	88.586
Time:	10.381	Roll Set Point:	-0.167	Pitch Set Point:	-0.006	Yaw Set Point:	-2.965	X_WP:	0.156	Y_WP:	0.007	Y_WP:	0.500	X:	0.163	Y:	0.069	Z:	0.401	yaw:	169.910	yaw rate:	-1.910	Roll:	-1.141	Pitch:	-3.085	Yaw:	240.639	Thrust:	97.041
Time:	10.417	Roll Set Point:	-0.167	Pitch Set Point:	-0.006	Yaw Set Point:	-2.965	X_WP:	0.156	Y_WP:	0.007	Y_WP:	0.500	X:	0.163	Y:	0.069	Z:	0.401	yaw:	169.906	yaw rate:	-1.563	Roll:	-1.251	Pitch:	-3.198	Yaw:	240.915	Thrust:	100.000
Time:	10.450	Roll Set Point:	-0.167	Pitch Set Point:	-0.006	Yaw Set Point:	-2.966	X_WP:	0.156	Y_WP:	0.007	Y_WP:	0.500	X:	0.163	Y:	0.069	Z:	0.401	yaw:	169.914	yaw rate:	-0.196	Roll:	-1.110	Pitch:	-3.047	Yaw:	240.621	Thrust:	95.086
Time:	10.493	Roll Set Point:	-0.167	Pitch Set Point:	-0.006	Yaw Set Point:	-2.966	X_WP:	0.156	Y_WP:	0.007	Y_WP:	0.500	X:	0.163	Y:	0.069	Z:	0.401	yaw:	169.911	yaw rate:	-0.242	Roll:	-1.468	Pitch:	-3.423	Yaw:	241.531	Thrust:	100.000
Time:	10.528	Roll Set Point:	-0.167	Pitch Set Point:	-0.006	Yaw Set Point:	-2.966	X_WP:	0.156	Y_WP:	0.007	Y_WP:	0.500	X:	0.163	Y:	0.069	Z:	0.401	yaw:	169.911	yaw rate:	0.049	Roll:	-1.179	Pitch:	-3.123	Yaw:	240.750	Thrust:	100.000
Time:	10.564	Roll Set Point:	-0.167	Pitch Set Point:	-0.006	Yaw Set Point:	-2.965	X_WP:	0.156	Y_WP:	0.007	Y_WP:	0.500	X:	0.163	Y:	0.069	Z:	0.401	yaw:	169.910	yaw rate:	-0.006	Roll:	-1.213	Pitch:	-3.158	Yaw:	240.841	Thrust:	100.000
Time:	10.612	Roll Set Point:	-0.167	Pitch Set Point:	-0.006	Yaw Set Point:	-2.966	X_WP:	0.156	Y_WP:	0.007	Y_WP:	0.500	X:	0.163	Y:	0.069	Z:	0.401	yaw:	169.920	yaw rate:	0.447	Roll:	-1.647	Pitch:	-3.603	Yaw:	242.098	Thrust:	100.000
Time:	10.643	Roll Set Point:	-0.167	Pitch Set Point:	-0.006	Yaw Set Point:	-2.965	X_WP:	0.156	Y_WP:	0.007	Y_WP:	0.500	X:	0.163	Y:	0.069	Z:	0.401	yaw:	169.907	yaw rate:	1.361	Roll:	-1.031	Pitch:	-2.978	Yaw:	240.257	Thrust:	91.950
Time:	10.674	Roll Set Point:	-0.167	Pitch Set Point:	-0.006	Yaw Set Point:	-2.966	X_WP:	0.156	Y_WP:	0.007	Y_WP:	0.500	X:	0.163	Y:	0.069	Z:	0.401	yaw:	169.925	yaw rate:	1.252	Roll:	-1.047	Pitch:	-2.980	Yaw:	240.534	Thrust:	92.442
Time:	10.706	Roll Set Point:	-0.167	Pitch Set Point:	-0.006	Yaw Set Point:	-2.966	X_WP:	0.156	Y_WP:	0.007	Y_WP:	0.500	X:	0.163	Y:	0.069	Z:	0.401	yaw:	169.931	yaw rate:	0.628	Roll:	-1.042	Pitch:	-2.980	Yaw:	240.450	Thrust:	92.844
Time:	10.737	Roll Set Point:	-0.167	Pitch Set Point:	-0.006	Yaw Set Point:	-2.966	X_WP:	0.156	Y_WP:	0.007	Y_WP:	0.500	X:	0.163	Y:	0.069	Z:	0.401	yaw:	169.911	yaw rate:	-2.027	Roll:	-1.027	Pitch:	-2.977	Yaw:	240.197	Thrust:	93.119
Time:	10.781	Roll Set Point:	-0.167	Pitch Set Point:	-0.006	Yaw Set Point:	-2.965	X_WP:	0.156	Y_WP:	0.007	Y_WP:	0.500	X:	0.163	Y:	0.069	Z:	0.401	yaw:	169.886	yaw rate:	-2.273	Roll:	-1.496	Pitch:	-3.464	Yaw:	241.480	Thrust:	100.000
Time:	10.812	Roll Set Point:	-0.167	Pitch Set Point:	-0.006	Yaw Set Point:	-2.966	X_WP:	0.156	Y_WP:	0.007	Y_WP:	0.500	X:	0.163	Y:	0.069	Z:	0.401	yaw:	169.927	yaw rate:	0.715	Roll:	-1.059	Pitch:	-2.980	Yaw:	240.725	Thrust:	93.954
Time:	10.844	Roll Set Point:	-0.167	Pitch Set Point:	-0.006	Yaw Set Point:	-2.965	X_WP:	0.156	Y_WP:	0.007	Y_WP:	0.500	X:	0.163	Y:	0.069	Z:	0.401	yaw:	169.907	yaw rate:	-1.916	Roll:	-1.023	Pitch:	-2.978	Yaw:	240.197	Thrust:	94.146
Time:	10.875	Roll Set Point:	-0.167	Pitch Set Point:	-0.006	Yaw Set Point:	-2.966	X_WP:	0.156	Y_WP:	0.007	Y_WP:	0.500	X:	0.163	Y:	0.069	Z:	0.401	yaw:	169.914	yaw rate:	0.349	Roll:	-1.045	Pitch:	-2.984	Yaw:	240.436	Thrust:	95.032
Time:	10.915	Roll Set Point:	-0.167	Pitch Set Point:	-0.006	Yaw Set Point:	-2.965	X_WP:	0.156	Y_WP:	0.007	Y_WP:	0.500	X:	0.163	Y:	0.069	Z:	0.401	yaw:	169.907	yaw rate:	0.048	Roll:	-1.347	Pitch:	-3.303	Yaw:	241.183	Thrust:	100.000
Time:	10.946	Roll Set Point:	-0.167	Pitch Set Point:	-0.006	Yaw Set Point:	-2.966	X_WP:	0.156	Y_WP:	0.007	Y_WP:	0.500	X:	0.163	Y:	0.069	Z:	0.401	yaw:	169.914	yaw rate:	0.677	Roll:	-1.037	Pitch:	-2.977	Yaw:	240.423	Thrust:	95.350
Time:	10.977	Roll Set Point:	-0.167	Pitch Set Point:	-0.006	Yaw Set Point:	-2.966	X_WP:	0.156	Y_WP:	0.007	Y_WP:	0.500	X:	0.163	Y:	0.069	Z:	0.401	yaw:	169.917	yaw rate:	0.322	Roll:	-1.037	Pitch:	-2.979	Yaw:	240.401	Thrust:	95.666
Time:	11.009	Roll Set Point:	-0.167	Pitch Set Point:	-0.006	Yaw Set Point:	-2.966	X_WP:	0.156	Y_WP:	0.007	Y_WP:	0.500	X:	0.163	Y:	0.069	Z:	0.401	yaw:	169.941	yaw rate:	2.418	Roll:	-1.051	Pitch:	-2.980	Yaw:	240.610	Thrust:	96.135
Time:	11.040	Roll Set Point:	-0.167	Pitch Set Point:	-0.006	Yaw Set Point:	-2.966	X_WP:	0.156	Y_WP:	0.007	Y_WP:	0.500	X:	0.163	Y:	0.069	Z:	0.401	yaw:	169.917	yaw rate:	-2.364	Roll:	-1.022	Pitch:	-2.978	Yaw:	240.179	Thrust:	96.543
Time:	11.087	Roll Set Point:	-0.167	Pitch Set Point:	-0.006	Yaw Set Point:	-2.966	X_WP:	0.156	Y_WP:	0.007	Y_WP:	0.500	X:	0.163	Y:	0.069	Z:	0.401	yaw:	169.917	yaw rate:	0.007	Roll:	-1.600	Pitch:	-3.564	Yaw:	241.938	Thrust:	100.000
Time:	11.118	Roll Set Point:	-0.167	Pitch Set Point:	-0.006	Yaw Set Point:	-2.966	X_WP:	0.156	Y_WP:	0.007	Y_WP:	0.500	X:	0.163	Y:	0.069	Z:	0.401	yaw:	169.920	yaw rate:	0.295	Roll:	-1.035	Pitch:	-2.977	Yaw:	240.401	Thrust:	97.065
Time:	11.149	Roll Set Point:	-0.167	Pitch Set Point:	-0.006	Yaw Set Point:	-2.966	X_WP:	0.156	Y_WP:	0.007	Y_WP:	0.500	X:	0.163	Y:	0.069	Z:	0.401	yaw:	169.926	yaw rate:	0.021	Roll:	-1.040	Pitch:	-2.981	Yaw:	240.437	Thrust:	97.706
Time:	11.181	Roll Set Point:	-0.167	Pitch Set Point:	-0.006	Yaw Set Point:	-2.965	X_WP:	0.156	Y_WP:	0.007	Y_WP:	0.500	X:	0.163	Y:	0.069	Z:	0.401	yaw:	169.906	yaw rate:	-1.907	Roll:	-1.021	Pitch:	-2.978	Yaw:	240.194	Thrust:	97.936
Time:	11.212	Roll Set Point:	-0.167	Pitch Set Point:	-0.006	Yaw Set Point:	-2.966	X_WP:	0.156	Y_WP:	0.007	Y_WP:	0.500	X:	0.163	Y:	0.069	Z:	0.401	yaw:	169.934	yaw rate:	2.723	Roll:	-1.049	Pitch:	-2.979	Yaw:	240.623	Thrust:	98.274
Time:	11.243	Roll Set Point:	-0.167	Pitch Set Point:	-0.006	Yaw Set Point:	-2.965	X_WP:	0.156	Y_WP:	0.007	Y_WP:	0.500	X:	0.163	Y:	0.069	Z:	0.401	yaw:	169.907	yaw rate:	-2.649	Roll:	-1.018	Pitch:	-2.977	Yaw:	240.139	Thrust:	98.612
Time:	11.275	Roll Set Point:	-0.167	Pitch Set Point:	-0.006	Yaw Set Point:	-2.966	X_WP:	0.156	Y_WP:	0.007	Y_WP:	0.500	X:	0.163	Y:	0.069	Z:	0.401	yaw:	169.932	yaw rate:	1.581	Roll:	-1.052	Pitch:	-2.983	Yaw:	240.712	Thrust:	99.469
Time:	11.313	Roll Set Point:	-0.167	Pitch Set Point:	-0.006	Yaw Set Point:	-2.966	X_WP:	0.156	Y_WP:	0.007	Y_WP:	0.500	X:	0.163	Y:	0.069	Z:	0.401	yaw:	169.923	yaw rate:	-2.383	Roll:	-1.301	Pitch:	-3.258	Yaw:	240.977	Thrust:	100.000
Time:	11.344	Roll Set Point:	-0.167	Pitch Set Point:	-0.006	Yaw Set Point:	-2.965	X_WP:	0.156	Y_WP:	0.007	Y_WP:	0.500	X:	0.163	Y:	0.069	Z:	0.401	yaw:	169.910	yaw rate:	-1.345	Roll:	-1.024	Pitch:	-2.982	Yaw:	240.245	Thrust:	99.688
Time:	11.376	Roll Set Point:	-0.167	Pitch Set Point:	-0.006	Yaw Set Point:	-2.966	X_WP:	0.156	Y_WP:	0.007	Y_WP:	0.500	X:	0.163	Y:	0.069	Z:	0.401	yaw:	169.913	yaw rate:	-5.217	Roll:	-1.034	Pitch:	-2.973	Yaw:	240.401	Thrust:	100.000
Time:	11.407	Roll Set Point:	-0.167	Pitch Set Point:	-0.006	Yaw Set Point:	-2.965	X_WP:	0.156	Y_WP:	0.007	Y_WP:	0.500	X:	0.163	Y:	0.069	Z:	0.401	yaw:	169.896	yaw rate:	-1.757	Roll:	-1.023	Pitch:	-2.984	Yaw:	240.201	Thrust:	100.000
Time:	11.438	Roll Set Point:	-0.167	Pitch Set Point:	-0.006	Yaw Set Point:	-2.966	X_WP:	0.156	Y_WP:	0.007	Y_WP:	0.500	X:	0.163	Y:	0.069	Z:	0.401	yaw:	169.926	yaw rate:	3.040	Roll:	-1.048	Pitch:	-2.979	Yaw:	240.641	Thrust:	100.000
Time:	11.470	Roll Set Point:	-0.167	Pitch Set Point:	-0.006	Yaw Set Point:	-2.966	X_WP:	0.156	Y_WP:	0.007	Y_WP:	0.500	X:	0.163	Y:	0.069	Z:	0.401	yaw:	169.915	yaw rate:	-1.129	Roll:	-1.023	Pitch:	-2.978	Yaw:	240.273	Thrust:	100.000
Time:	11.501	Roll Set Point:	-0.167	Pitch Set Point:	-0.006	Yaw Set Point:	-2.966	X_WP:	0.156	Y_WP:	0.007	Y_WP:	0.500	X:	0.163	Y:	0.069	Z:	0.401	yaw:	169.918	yaw rate:	-0.405	Roll:	-1.033	Pitch:	-2.979	Yaw:	240.401	Thrust:	100.000
Time:	11.532	Roll Set Point:	-0.167	Pitch Set Point:	-0.006	Yaw Set Point:	-2.965	X_WP:	0.156	Y_WP:	0.007	Y_WP:	0.500	X:	0.163	Y:	0.069	Z:	0.401	yaw:	169.908	yaw rate:	-1.038	Roll:	-1.026	Pitch:	-2.979	Yaw:	240.277	Thrust:	100.000
Time:	11.565	Roll Set Point:	-0.167	Pitch Set Point:	-0.006	Yaw Set Point:	-2.966	X_WP:	0.156	Y_WP:	0.007	Y_WP:	0.500	X:	0.163	Y:	0.069	Z:	0.401	yaw:	169.933	yaw rate:	2.599	Roll:	-1.053	Pitch:	-2.988	Yaw:	240.718	Thrust:	100.000
