Time:	2.037	Roll Set Point:	0.109	Pitch Set Point:	-0.095	Yaw Set Point:	-0.536	X_WP:	0.100	Y_WP:	0.000	Y_WP:	0.500	X:	-0.017	Y:	0.019	Z:	0.075	yaw:	30.685	yaw rate:	0.821	Roll:	-2.648	Pitch:	2.201	Yaw:	42.844	Thrust:	23.353
Time:	2.054	Roll Set Point:	0.109	Pitch Set Point:	-0.095	Yaw Set Point:	-0.536	X_WP:	0.100	Y_WP:	0.000	Y_WP:	0.500	X:	-0.017	Y:	0.019	Z:	0.075	yaw:	30.690	yaw rate:	0.477	Roll:	-2.651	Pitch:	2.218	Yaw:	43.106	Thrust:	24.214
Time:	2.065	Roll Set Point:	0.109	Pitch Set Point:	-0.095	Yaw Set Point:	-0.536	X_WP:	0.100	Y_WP:	0.000	Y_WP:	0.500	X:	-0.017	Y:	0.019	Z:	0.075	yaw:	30.692	yaw rate:	-0.513	Roll:	-2.648	Pitch:	2.213	Yaw:	43.139	Thrust:	24.538
Time:	2.076	Roll Set Point:	0.109	Pitch Set Point:	-0.095	Yaw Set Point:	-0.535	X_WP:	0.100	Y_WP:	0.000	Y_WP:	0.500	X:	-0.017	Y:	0.019	Z:	0.075	yaw:	30.676	yaw rate:	-1.574	Roll:	-2.672	Pitch:	2.188	Yaw:	42.815	Thrust:	25.136
Time:	2.090	Roll Set Point:	0.109	Pitch Set Point:	-0.095	Yaw Set Point:	-0.536	X_WP:	0.100	Y_WP:	0.000	Y_WP:	0.500	X:	-0.017	Y:	0.019	Z:	0.075	yaw:	30.702	yaw rate:	2.572	Roll:	-2.619	Pitch:	2.241	Yaw:	43.942	Thrust:	25.931
Time:	2.101	Roll Set Point:	0.109	Pitch Set Point:	-0.095	Yaw Set Point:	-0.536	X_WP:	0.100	Y_WP:	0.000	Y_WP:	0.500	X:	-0.017	Y:	0.019	Z:	0.075	yaw:	30.732	yaw rate:	3.088	Roll:	-2.626	Pitch:	2.272	Yaw:	44.229	Thrust:	26.207
Time:	2.111	Roll Set Point:	0.109	Pitch Set Point:	-0.095	Yaw Set Point:	-0.536	X_WP:	0.100	Y_WP:	0.000	Y_WP:	0.500	X:	-0.017	Y:	0.019	Z:	0.075	yaw:	30.694	yaw rate:	-3.820	Roll:	-2.744	Pitch:	2.148	Yaw:	42.559	Thrust:	26.609
Time:	2.123	Roll Set Point:	0.109	Pitch Set Point:	-0.095	Yaw Set Point:	-0.535	X_WP:	0.100	Y_WP:	0.000	Y_WP:	0.500	X:	-0.017	Y:	0.019	Z:	0.075	yaw:	30.670	yaw rate:	-2.384	Roll:	-2.693	Pitch:	2.186	Yaw:	43.206	Thrust:	27.732
Time:	2.135	Roll Set Point:	0.109	Pitch Set Point:	-0.095	Yaw Set Point:	-0.536	X_WP:	0.100	Y_WP:	0.000	Y_WP:	0.500	X:	-0.017	Y:	0.019	Z:	0.075	yaw:	30.698	yaw rate:	2.794	Roll:	-2.618	Pitch:	2.245	Yaw:	44.485	Thrust:	27.780
Time:	2.146	Roll Set Point:	0.109	Pitch Set Point:	-0.095	Yaw Set Point:	-0.536	X_WP:	0.100	Y_WP:	0.000	Y_WP:	0.500	X:	-0.017	Y:	0.019	Z:	0.075	yaw:	30.702	yaw rate:	0.406	Roll:	-2.698	Pitch:	2.244	Yaw:	43.985	Thrust:	28.279
Time:	2.161	Roll Set Point:	0.109	Pitch Set Point:	-0.095	Yaw Set Point:	-0.535	X_WP:	0.100	Y_WP:	0.000	Y_WP:	0.500	X:	-0.017	Y:	0.019	Z:	0.075	yaw:	30.681	yaw rate:	1.377	Roll:	-2.675	Pitch:	2.180	Yaw:	43.971	Thrust:	31.099
Time:	2.172	Roll Set Point:	0.109	Pitch Set Point:	-0.095	Yaw Set Point:	-0.535	X_WP:	0.100	Y_WP:	0.000	Y_WP:	0.500	X:	-0.017	Y:	0.019	Z:	0.075	yaw:	30.666	yaw rate:	-1.499	Roll:	-2.724	Pitch:	2.235	Yaw:	43.589	Thrust:	29.652
Time:	2.187	Roll Set Point:	0.109	Pitch Set Point:	-0.095	Yaw Set Point:	-0.536	X_WP:	0.100	Y_WP:	0.000	Y_WP:	0.500	X:	-0.017	Y:	0.019	Z:	0.075	yaw:	30.689	yaw rate:	2.312	Roll:	-2.650	Pitch:	2.246	Yaw:	44.757	Thrust:	31.887
Time:	2.198	Roll Set Point:	0.109	Pitch Set Point:	-0.095	Yaw Set Point:	-0.536	X_WP:	0.100	Y_WP:	0.000	Y_WP:	0.500	X:	-0.017	Y:	0.019	Z:	0.075	yaw:	30.693	yaw rate:	0.364	Roll:	-2.679	Pitch:	2.239	Yaw:	44.095	Thrust:	31.312
Time:	2.208	Roll Set Point:	0.109	Pitch Set Point:	-0.095	Yaw Set Point:	-0.535	X_WP:	0.100	Y_WP:	0.000	Y_WP:	0.500	X:	-0.017	Y:	0.019	Z:	0.075	yaw:	30.680	yaw rate:	-1.271	Roll:	-2.684	Pitch:	2.195	Yaw:	43.509	Thrust:	30.964
Time:	2.223	Roll Set Point:	0.109	Pitch Set Point:	-0.095	Yaw Set Point:	-0.535	X_WP:	0.100	Y_WP:	0.000	Y_WP:	0.500	X:	-0.017	Y:	0.019	Z:	0.075	yaw:	30.678	yaw rate:	-0.238	Roll:	-2.706	Pitch:	2.265	Yaw:	44.196	Thrust:	33.789
Time:	2.234	Roll Set Point:	0.109	Pitch Set Point:	-0.095	Yaw Set Point:	-0.535	X_WP:	0.100	Y_WP:	0.000	Y_WP:	0.500	X:	-0.017	Y:	0.019	Z:	0.075	yaw:	30.680	yaw rate:	0.199	Roll:	-2.697	Pitch:	2.234	Yaw:	44.083	Thrust:	33.400
Time:	2.249	Roll Set Point:	0.109	Pitch Set Point:	-0.095	Yaw Set Point:	-0.535	X_WP:	0.100	Y_WP:	0.000	Y_WP:	0.500	X:	-0.017	Y:	0.019	Z:	0.075	yaw:	30.680	yaw rate:	-0.928	Roll:	-2.700	Pitch:	2.235	Yaw:	44.198	Thrust:	34.773
Time:	2.265	Roll Set Point:	0.109	Pitch Set Point:	-0.095	Yaw Set Point:	-0.535	X_WP:	0.100	Y_WP:	0.000	Y_WP:	0.500	X:	-0.017	Y:	0.019	Z:	0.075	yaw:	30.670	yaw rate:	-1.042	Roll:	-2.729	Pitch:	2.270	Yaw:	44.367	Thrust:	39.412
Time:	2.276	Roll Set Point:	0.109	Pitch Set Point:	-0.095	Yaw Set Point:	-0.536	X_WP:	0.100	Y_WP:	0.000	Y_WP:	0.500	X:	-0.017	Y:	0.019	Z:	0.075	yaw:	30.694	yaw rate:	2.443	Roll:	-2.663	Pitch:	2.246	Yaw:	44.540	Thrust:	33.952
Time:	2.290	Roll Set Point:	0.109	Pitch Set Point:	-0.095	Yaw Set Point:	-0.536	X_WP:	0.100	Y_WP:	0.000	Y_WP:	0.500	X:	-0.017	Y:	0.019	Z:	0.075	yaw:	30.703	yaw rate:	0.897	Roll:	-2.692	Pitch:	2.272	Yaw:	44.398	Thrust:	36.619
Time:	2.303	Roll Set Point:	0.109	Pitch Set Point:	-0.095	Yaw Set Point:	-0.536	X_WP:	0.100	Y_WP:	0.000	Y_WP:	0.500	X:	-0.017	Y:	0.019	Z:	0.075	yaw:	30.701	yaw rate:	2.568	Roll:	-2.721	Pitch:	2.250	Yaw:	44.120	Thrust:	37.871
Time:	2.314	Roll Set Point:	0.109	Pitch Set Point:	-0.095	Yaw Set Point:	-0.536	X_WP:	0.100	Y_WP:	0.000	Y_WP:	0.500	X:	-0.017	Y:	0.019	Z:	0.075	yaw:	30.687	yaw rate:	-1.346	Roll:	-2.732	Pitch:	2.225	Yaw:	43.697	Thrust:	36.247
Time:	2.329	Roll Set Point:	0.109	Pitch Set Point:	-0.095	Yaw Set Point:	-0.535	X_WP:	0.100	Y_WP:	0.000	Y_WP:	0.500	X:	-0.017	Y:	0.019	Z:	0.075	yaw:	30.675	yaw rate:	-1.243	Roll:	-2.743	Pitch:	2.258	Yaw:	44.098	Thrust:	40.845
Time:	2.340	Roll Set Point:	0.109	Pitch Set Point:	-0.095	Yaw Set Point:	-0.536	X_WP:	0.100	Y_WP:	0.000	Y_WP:	0.500	X:	-0.017	Y:	0.019	Z:	0.075	yaw:	30.688	yaw rate:	1.291	Roll:	-2.695	Pitch:	2.267	Yaw:	44.267	Thrust:	37.011
Time:	2.355	Roll Set Point:	0.109	Pitch Set Point:	-0.095	Yaw Set Point:	-0.536	X_WP:	0.100	Y_WP:	0.000	Y_WP:	0.500	X:	-0.017	Y:	0.019	Z:	0.075	yaw:	30.684	yaw rate:	-0.389	Roll:	-2.691	Pitch:	2.261	Yaw:	44.175	Thrust:	41.260
Time:	2.367	Roll Set Point:	0.109	Pitch Set Point:	-0.095	Yaw Set Point:	-0.536	X_WP:	0.100	Y_WP:	0.000	Y_WP:	0.500	X:	-0.017	Y:	0.019	Z:	0.075	yaw:	30.695	yaw rate:	1.536	Roll:	-2.745	Pitch:	2.296	Yaw:	44.397	Thrust:	40.525
Time:	2.379	Roll Set Point:	0.109	Pitch Set Point:	-0.095	Yaw Set Point:	-0.536	X_WP:	0.100	Y_WP:	0.000	Y_WP:	0.500	X:	-0.017	Y:	0.019	Z:	0.075	yaw:	30.692	yaw rate:	-0.352	Roll:	-2.711	Pitch:	2.235	Yaw:	43.994	Thrust:	38.716
Time:	2.393	Roll Set Point:	0.109	Pitch Set Point:	-0.095	Yaw Set Point:	-0.535	X_WP:	0.100	Y_WP:	0.000	Y_WP:	0.500	X:	-0.017	Y:	0.019	Z:	0.075	yaw:	30.671	yaw rate:	-2.078	Roll:	-2.774	Pitch:	2.265	Yaw:	43.782	Thrust:	44.245
Time:	2.404	Roll Set Point:	0.109	Pitch Set Point:	-0.095	Yaw Set Point:	-0.535	X_WP:	0.100	Y_WP:	0.000	Y_WP:	0.500	X:	-0.017	Y:	0.019	Z:	0.075	yaw:	30.679	yaw rate:	0.843	Roll:	-2.719	Pitch:	2.287	Yaw:	44.140	Thrust:	38.900
Time:	2.421	Roll Set Point:	0.109	Pitch Set Point:	-0.095	Yaw Set Point:	-0.536	X_WP:	0.100	Y_WP:	0.000	Y_WP:	0.500	X:	-0.017	Y:	0.019	Z:	0.075	yaw:	30.695	yaw rate:	1.535	Roll:	-2.696	Pitch:	2.281	Yaw:	44.717	Thrust:	45.514
Time:	2.434	Roll Set Point:	0.109	Pitch Set Point:	-0.095	Yaw Set Point:	-0.535	X_WP:	0.100	Y_WP:	0.000	Y_WP:	0.500	X:	-0.017	Y:	0.019	Z:	0.075	yaw:	30.681	yaw rate:	-0.255	Roll:	-2.782	Pitch:	2.275	Yaw:	43.921	Thrust:	48.061
Time:	2.445	Roll Set Point:	0.109	Pitch Set Point:	-0.095	Yaw Set Point:	-0.536	X_WP:	0.100	Y_WP:	0.000	Y_WP:	0.500	X:	-0.017	Y:	0.019	Z:	0.075	yaw:	30.687	yaw rate:	0.633	Roll:	-2.727	Pitch:	2.297	Yaw:	44.100	Thrust:	41.244
Time:	2.457	Roll Set Point:	0.109	Pitch Set Point:	-0.095	Yaw Set Point:	-0.535	X_WP:	0.100	Y_WP:	0.000	Y_WP:	0.500	X:	-0.017	Y:	0.019	Z:	0.075	yaw:	30.670	yaw rate:	-1.687	Roll:	-2.791	Pitch:	2.250	Yaw:	43.660	Thrust:	43.614
Time:	2.468	Roll Set Point:	0.109	Pitch Set Point:	-0.095	Yaw Set Point:	-0.535	X_WP:	0.100	Y_WP:	0.000	Y_WP:	0.500	X:	-0.017	Y:	0.019	Z:	0.075	yaw:	30.679	yaw rate:	0.854	Roll:	-2.691	Pitch:	2.277	Yaw:	44.141	Thrust:	42.463
Time:	2.478	Roll Set Point:	0.109	Pitch Set Point:	-0.095	Yaw Set Point:	-0.536	X_WP:	0.100	Y_WP:	0.000	Y_WP:	0.500	X:	-0.017	Y:	0.019	Z:	0.075	yaw:	30.689	yaw rate:	1.055	Roll:	-2.702	Pitch:	2.291	Yaw:	44.128	Thrust:	41.347
Time:	2.491	Roll Set Point:	0.109	Pitch Set Point:	-0.095	Yaw Set Point:	-0.536	X_WP:	0.100	Y_WP:	0.000	Y_WP:	0.500	X:	-0.017	Y:	0.019	Z:	0.075	yaw:	30.683	yaw rate:	-0.585	Roll:	-2.754	Pitch:	2.271	Yaw:	44.031	Thrust:	47.301
Time:	2.502	Roll Set Point:	0.109	Pitch Set Point:	-0.095	Yaw Set Point:	-0.535	X_WP:	0.100	Y_WP:	0.000	Y_WP:	0.500	X:	-0.017	Y:	0.019	Z:	0.075	yaw:	30.673	yaw rate:	-1.052	Roll:	-2.791	Pitch:	2.272	Yaw:	43.680	Thrust:	43.108
Time:	2.513	Roll Set Point:	0.109	Pitch Set Point:	-0.095	Yaw Set Point:	-0.536	X_WP:	0.100	Y_WP:	0.000	Y_WP:	0.500	X:	-0.017	Y:	0.019	Z:	0.075	yaw:	30.687	yaw rate:	1.458	Roll:	-2.701	Pitch:	2.293	Yaw:	44.233	Thrust:	43.758
Time:	2.527	Roll Set Point:	0.109	Pitch Set Point:	-0.095	Yaw Set Point:	-0.535	X_WP:	0.100	Y_WP:	0.000	Y_WP:	0.500	X:	-0.017	Y:	0.019	Z:	0.075	yaw:	30.673	yaw rate:	-1.445	Roll:	-2.780	Pitch:	2.293	Yaw:	44.025	Thrust:	52.384
Time:	2.538	Roll Set Point:	0.109	Pitch Set Point:	-0.095	Yaw Set Point:	-0.536	X_WP:	0.100	Y_WP:	0.000	Y_WP:	0.500	X:	-0.017	Y:	0.019	Z:	0.075	yaw:	30.688	yaw rate:	1.547	Roll:	-2.753	Pitch:	2.312	Yaw:	44.319	Thrust:	45.746
Time:	2.553	Roll Set Point:	0.109	Pitch Set Point:	-0.095	Yaw Set Point:	-0.536	X_WP:	0.100	Y_WP:	0.000	Y_WP:	0.500	X:	-0.017	Y:	0.019	Z:	0.075	yaw:	30.700	yaw rate:	1.197	Roll:	-2.757	Pitch:	2.305	Yaw:	44.579	Thrust:	52.690
Time:	2.565	Roll Set Point:	0.109	Pitch Set Point:	-0.095	Yaw Set Point:	-0.536	X_WP:	0.100	Y_WP:	0.000	Y_WP:	0.500	X:	-0.017	Y:	0.019	Z:	0.075	yaw:	30.685	yaw rate:	1.461	Roll:	-2.784	Pitch:	2.320	Yaw:	43.772	Thrust:	52.391
Time:	2.576	Roll Set Point:	0.109	Pitch Set Point:	-0.095	Yaw Set Point:	-0.536	X_WP:	0.100	Y_WP:	0.000	Y_WP:	0.500	X:	-0.017	Y:	0.019	Z:	0.075	yaw:	30.702	yaw rate:	1.708	Roll:	-2.746	Pitch:	2.313	Yaw:	44.348	Thrust:	46.459
Time:	2.588	Roll Set Point:	0.109	Pitch Set Point:	-0.095	Yaw Set Point:	-0.535	X_WP:	0.100	Y_WP:	0.000	Y_WP:	0.500	X:	-0.017	Y:	0.019	Z:	0.075	yaw:	30.681	yaw rate:	-2.061	Roll:	-2.798	Pitch:	2.254	Yaw:	43.594	Thrust:	50.278
Time:	2.600	Roll Set Point:	0.109	Pitch Set Point:	-0.095	Yaw Set Point:	-0.536	X_WP:	0.100	Y_WP:	0.000	Y_WP:	0.500	X:	-0.017	Y:	0.019	Z:	0.075	yaw:	30.685	yaw rate:	0.389	Roll:	-2.770	Pitch:	2.338	Yaw:	44.088	Thrust:	49.948
Time:	2.610	Roll Set Point:	0.109	Pitch Set Point:	-0.095	Yaw Set Point:	-0.536	X_WP:	0.100	Y_WP:	0.000	Y_WP:	0.500	X:	-0.017	Y:	0.019	Z:	0.075	yaw:	30.685	yaw rate:	0.006	Roll:	-2.756	Pitch:	2.267	Yaw:	43.905	Thrust:	48.190
Time:	2.624	Roll Set Point:	0.109	Pitch Set Point:	-0.095	Yaw Set Point:	-0.536	X_WP:	0.100	Y_WP:	0.000	Y_WP:	0.500	X:	-0.017	Y:	0.019	Z:	0.075	yaw:	30.689	yaw rate:	0.352	Roll:	-2.764	Pitch:	2.313	Yaw:	44.272	Thrust:	55.782
Time:	2.636	Roll Set Point:	0.109	Pitch Set Point:	-0.095	Yaw Set Point:	-0.535	X_WP:	0.100	Y_WP:	0.000	Y_WP:	0.500	X:	-0.017	Y:	0.019	Z:	0.075	yaw:	30.671	yaw rate:	-1.776	Roll:	-2.835	Pitch:	2.291	Yaw:	43.574	Thrust:	51.484
Time:	2.653	Roll Set Point:	0.109	Pitch Set Point:	-0.095	Yaw Set Point:	-0.536	X_WP:	0.100	Y_WP:	0.000	Y_WP:	0.500	X:	-0.017	Y:	0.019	Z:	0.075	yaw:	30.698	yaw rate:	2.698	Roll:	-2.769	Pitch:	2.387	Yaw:	45.066	Thrust:	66.219
Time:	2.665	Roll Set Point:	0.109	Pitch Set Point:	-0.095	Yaw Set Point:	-0.535	X_WP:	0.100	Y_WP:	0.000	Y_WP:	0.500	X:	-0.017	Y:	0.019	Z:	0.075	yaw:	30.665	yaw rate:	-2.564	Roll:	-2.868	Pitch:	2.291	Yaw:	43.301	Thrust:	56.601
Time:	2.677	Roll Set Point:	0.109	Pitch Set Point:	-0.095	Yaw Set Point:	-0.536	X_WP:	0.100	Y_WP:	0.000	Y_WP:	0.500	X:	-0.017	Y:	0.019	Z:	0.075	yaw:	30.697	yaw rate:	3.226	Roll:	-2.753	Pitch:	2.379	Yaw:	44.749	Thrust:	53.414
Time:	2.692	Roll Set Point:	0.109	Pitch Set Point:	-0.095	Yaw Set Point:	-0.536	X_WP:	0.100	Y_WP:	0.000	Y_WP:	0.500	X:	-0.017	Y:	0.019	Z:	0.075	yaw:	30.689	yaw rate:	-0.821	Roll:	-2.820	Pitch:	2.305	Yaw:	44.214	Thrust:	63.310
Time:	2.703	Roll Set Point:	0.109	Pitch Set Point:	-0.095	Yaw Set Point:	-0.535	X_WP:	0.100	Y_WP:	0.000	Y_WP:	0.500	X:	-0.017	Y:	0.019	Z:	0.075	yaw:	30.667	yaw rate:	-2.156	Roll:	-2.811	Pitch:	2.286	Yaw:	43.411	Thrust:	51.927
Time:	2.715	Roll Set Point:	0.109	Pitch Set Point:	-0.095	Yaw Set Point:	-0.536	X_WP:	0.100	Y_WP:	0.000	Y_WP:	0.500	X:	-0.017	Y:	0.019	Z:	0.075	yaw:	30.694	yaw rate:	2.637	Roll:	-2.735	Pitch:	2.383	Yaw:	44.609	Thrust:	56.450
Time:	2.730	Roll Set Point:	0.109	Pitch Set Point:	-0.095	Yaw Set Point:	-0.535	X_WP:	0.100	Y_WP:	0.000	Y_WP:	0.500	X:	-0.017	Y:	0.019	Z:	0.075	yaw:	30.681	yaw rate:	-1.228	Roll:	-2.868	Pitch:	2.355	Yaw:	44.190	Thrust:	66.936
Time:	2.741	Roll Set Point:	0.109	Pitch Set Point:	-0.095	Yaw Set Point:	-0.535	X_WP:	0.100	Y_WP:	0.000	Y_WP:	0.500	X:	-0.017	Y:	0.019	Z:	0.075	yaw:	30.670	yaw rate:	-1.113	Roll:	-2.818	Pitch:	2.275	Yaw:	43.666	Thrust:	54.957
Time:	2.755	Roll Set Point:	0.109	Pitch Set Point:	-0.095	Yaw Set Point:	-0.536	X_WP:	0.100	Y_WP:	0.000	Y_WP:	0.500	X:	-0.017	Y:	0.019	Z:	0.075	yaw:	30.682	yaw rate:	1.181	Roll:	-2.783	Pitch:	2.349	Yaw:	44.382	Thrust:	59.752
Time:	2.767	Roll Set Point:	0.109	Pitch Set Point:	-0.095	Yaw Set Point:	-0.535	X_WP:	0.100	Y_WP:	0.000	Y_WP:	0.500	X:	-0.017	Y:	0.019	Z:	0.075	yaw:	30.677	yaw rate:	-0.511	Roll:	-2.840	Pitch:	2.348	Yaw:	44.033	Thrust:	61.776
Time:	2.778	Roll Set Point:	0.109	Pitch Set Point:	-0.095	Yaw Set Point:	-0.535	X_WP:	0.100	Y_WP:	0.000	Y_WP:	0.500	X:	-0.017	Y:	0.019	Z:	0.075	yaw:	30.680	yaw rate:	0.326	Roll:	-2.805	Pitch:	2.336	Yaw:	43.973	Thrust:	56.677
Time:	2.791	Roll Set Point:	0.109	Pitch Set Point:	-0.095	Yaw Set Point:	-0.536	X_WP:	0.100	Y_WP:	0.000	Y_WP:	0.500	X:	-0.017	Y:	0.019	Z:	0.075	yaw:	30.700	yaw rate:	2.023	Roll:	-2.777	Pitch:	2.374	Yaw:	44.613	Thrust:	63.303
Time:	2.802	Roll Set Point:	0.109	Pitch Set Point:	-0.095	Yaw Set Point:	-0.535	X_WP:	0.100	Y_WP:	0.000	Y_WP:	0.500	X:	-0.017	Y:	0.019	Z:	0.075	yaw:	30.674	yaw rate:	-2.665	Roll:	-2.847	Pitch:	2.275	Yaw:	43.299	Thrust:	59.152
Time:	2.817	Roll Set Point:	0.109	Pitch Set Point:	-0.095	Yaw Set Point:	-0.536	X_WP:	0.100	Y_WP:	0.000	Y_WP:	0.500	X:	-0.017	Y:	0.019	Z:	0.075	yaw:	30.691	yaw rate:	1.707	Roll:	-2.812	Pitch:	2.393	Yaw:	44.655	Thrust:	67.631
Time:	2.832	Roll Set Point:	0.109	Pitch Set Point:	-0.095	Yaw Set Point:	-0.536	X_WP:	0.100	Y_WP:	0.000	Y_WP:	0.500	X:	-0.017	Y:	0.019	Z:	0.075	yaw:	30.685	yaw rate:	-0.765	Roll:	-2.890	Pitch:	2.383	Yaw:	44.193	Thrust:	73.353
Time:	2.843	Roll Set Point:	0.109	Pitch Set Point:	-0.095	Yaw Set Point:	-0.536	X_WP:	0.100	Y_WP:	0.000	Y_WP:	0.500	X:	-0.017	Y:	0.019	Z:	0.075	yaw:	30.706	yaw rate:	2.067	Roll:	-2.797	Pitch:	2.382	Yaw:	44.467	Thrust:	59.208
Time:	2.856	Roll Set Point:	0.109	Pitch Set Point:	-0.095	Yaw Set Point:	-0.536	X_WP:	0.100	Y_WP:	0.000	Y_WP:	0.500	X:	-0.017	Y:	0.019	Z:	0.075	yaw:	30.684	yaw rate:	-2.170	Roll:	-2.881	Pitch:	2.319	Yaw:	43.710	Thrust:	66.503
Time:	2.867	Roll Set Point:	0.109	Pitch Set Point:	-0.095	Yaw Set Point:	-0.535	X_WP:	0.100	Y_WP:	0.000	Y_WP:	0.500	X:	-0.017	Y:	0.019	Z:	0.075	yaw:	30.677	yaw rate:	-0.735	Roll:	-2.797	Pitch:	2.338	Yaw:	43.761	Thrust:	60.513
Time:	2.879	Roll Set Point:	0.109	Pitch Set Point:	-0.095	Yaw Set Point:	-0.536	X_WP:	0.100	Y_WP:	0.000	Y_WP:	0.500	X:	-0.017	Y:	0.019	Z:	0.075	yaw:	30.688	yaw rate:	1.165	Roll:	-2.802	Pitch:	2.373	Yaw:	44.268	Thrust:	59.398
Time:	2.891	Roll Set Point:	0.109	Pitch Set Point:	-0.095	Yaw Set Point:	-0.536	X_WP:	0.100	Y_WP:	0.000	Y_WP:	0.500	X:	-0.017	Y:	0.019	Z:	0.075	yaw:	30.689	yaw rate:	0.063	Roll:	-2.838	Pitch:	2.338	Yaw:	44.019	Thrust:	66.809
Time:	2.902	Roll Set Point:	0.109	Pitch Set Point:	-0.095	Yaw Set Point:	-0.536	X_WP:	0.100	Y_WP:	0.000	Y_WP:	0.500	X:	-0.017	Y:	0.019	Z:	0.075	yaw:	30.708	yaw rate:	1.959	Roll:	-2.800	Pitch:	2.388	Yaw:	44.474	Thrust:	62.065
Time:	2.913	Roll Set Point:	0.109	Pitch Set Point:	-0.095	Yaw Set Point:	-0.536	X_WP:	0.100	Y_WP:	0.000	Y_WP:	0.500	X:	-0.017	Y:	0.019	Z:	0.075	yaw:	30.686	yaw rate:	-2.261	Roll:	-2.858	Pitch:	2.311	Yaw:	43.259	Thrust:	60.992
Time:	2.924	Roll Set Point:	0.109	Pitch Set Point:	-0.095	Yaw Set Point:	-0.536	X_WP:	0.100	Y_WP:	0.000	Y_WP:	0.500	X:	-0.017	Y:	0.019	Z:	0.075	yaw:	30.684	yaw rate:	-0.151	Roll:	-2.835	Pitch:	2.361	Yaw:	44.081	Thrust:	69.256
Time:	2.935	Roll Set Point:	0.109	Pitch Set Point:	-0.095	Yaw Set Point:	-0.536	X_WP:	0.100	Y_WP:	0.000	Y_WP:	0.500	X:	-0.017	Y:	0.019	Z:	0.075	yaw:	30.693	yaw rate:	0.826	Roll:	-2.813	Pitch:	2.345	Yaw:	44.113	Thrust:	60.119
Time:	2.946	Roll Set Point:	0.109	Pitch Set Point:	-0.095	Yaw Set Point:	-0.535	X_WP:	0.100	Y_WP:	0.000	Y_WP:	0.500	X:	-0.017	Y:	0.019	Z:	0.075	yaw:	30.675	yaw rate:	-1.767	Roll:	-2.887	Pitch:	2.335	Yaw:	43.451	Thrust:	64.490
Time:	2.962	Roll Set Point:	0.109	Pitch Set Point:	-0.095	Yaw Set Point:	-0.536	X_WP:	0.100	Y_WP:	0.000	Y_WP:	0.500	X:	-0.017	Y:	0.019	Z:	0.075	yaw:	30.682	yaw rate:	-1.004	Roll:	-2.889	Pitch:	2.440	Yaw:	44.613	Thrust:	85.813
Time:	2.973	Roll Set Point:	0.109	Pitch Set Point:	-0.095	Yaw Set Point:	-0.535	X_WP:	0.100	Y_WP:	0.000	Y_WP:	0.500	X:	-0.017	Y:	0.019	Z:	0.075	yaw:	30.670	yaw rate:	-1.275	Roll:	-2.864	Pitch:	2.330	Yaw:	43.562	Thrust:	63.648
Time:	2.986	Roll Set Point:	0.109	Pitch Set Point:	-0.095	Yaw Set Point:	-0.536	X_WP:	0.100	Y_WP:	0.000	Y_WP:	0.500	X:	-0.017	Y:	0.019	Z:	0.075	yaw:	30.706	yaw rate:	3.661	Roll:	-2.794	Pitch:	2.444	Yaw:	44.874	Thrust:	65.990
Time:	2.998	Roll Set Point:	0.109	Pitch Set Point:	-0.095	Yaw Set Point:	-0.536	X_WP:	0.100	Y_WP:	0.000	Y_WP:	0.500	X:	-0.017	Y:	0.019	Z:	0.075	yaw:	30.715	yaw rate:	0.836	Roll:	-2.882	Pitch:	2.409	Yaw:	44.405	Thrust:	80.599
Time:	3.009	Roll Set Point:	0.109	Pitch Set Point:	-0.095	Yaw Set Point:	-0.535	X_WP:	0.100	Y_WP:	0.000	Y_WP:	0.500	X:	-0.017	Y:	0.019	Z:	0.075	yaw:	30.681	yaw rate:	-3.410	Roll:	-2.892	Pitch:	2.319	Yaw:	43.132	Thrust:	67.254
Time:	3.022	Roll Set Point:	0.109	Pitch Set Point:	-0.095	Yaw Set Point:	-0.535	X_WP:	0.100	Y_WP:	0.000	Y_WP:	0.500	X:	-0.017	Y:	0.019	Z:	0.075	yaw:	30.673	yaw rate:	-0.728	Roll:	-2.899	Pitch:	2.367	Yaw:	43.873	Thrust:	71.787
Time:	3.034	Roll Set Point:	0.109	Pitch Set Point:	-0.095	Yaw Set Point:	-0.536	X_WP:	0.100	Y_WP:	0.000	Y_WP:	0.500	X:	-0.017	Y:	0.019	Z:	0.075	yaw:	30.704	yaw rate:	3.026	Roll:	-2.809	Pitch:	2.434	Yaw:	44.758	Thrust:	72.445
Time:	3.045	Roll Set Point:	0.109	Pitch Set Point:	-0.095	Yaw Set Point:	-0.536	X_WP:	0.100	Y_WP:	0.000	Y_WP:	0.500	X:	-0.017	Y:	0.019	Z:	0.075	yaw:	30.687	yaw rate:	1.720	Roll:	-2.884	Pitch:	2.358	Yaw:	43.634	Thrust:	73.337
Time:	3.058	Roll Set Point:	0.109	Pitch Set Point:	-0.095	Yaw Set Point:	-0.535	X_WP:	0.100	Y_WP:	0.000	Y_WP:	0.500	X:	-0.017	Y:	0.019	Z:	0.075	yaw:	30.677	yaw rate:	-1.022	Roll:	-2.902	Pitch:	2.364	Yaw:	43.873	Thrust:	75.728
Time:	3.070	Roll Set Point:	0.109	Pitch Set Point:	-0.095	Yaw Set Point:	-0.536	X_WP:	0.100	Y_WP:	0.000	Y_WP:	0.500	X:	-0.017	Y:	0.019	Z:	0.075	yaw:	30.690	yaw rate:	1.332	Roll:	-2.850	Pitch:	2.408	Yaw:	44.298	Thrust:	71.474
Time:	3.081	Roll Set Point:	0.109	Pitch Set Point:	-0.095	Yaw Set Point:	-0.536	X_WP:	0.100	Y_WP:	0.000	Y_WP:	0.500	X:	-0.017	Y:	0.019	Z:	0.075	yaw:	30.684	yaw rate:	-0.655	Roll:	-2.901	Pitch:	2.410	Yaw:	43.906	Thrust:	74.958
Time:	3.097	Roll Set Point:	0.109	Pitch Set Point:	-0.095	Yaw Set Point:	-0.535	X_WP:	0.100	Y_WP:	0.000	Y_WP:	0.500	X:	-0.017	Y:	0.019	Z:	0.075	yaw:	30.681	yaw rate:	-0.252	Roll:	-2.950	Pitch:	2.425	Yaw:	44.353	Thrust:	90.745
Time:	3.107	Roll Set Point:	0.109	Pitch Set Point:	-0.095	Yaw Set Point:	-0.535	X_WP:	0.100	Y_WP:	0.000	Y_WP:	0.500	X:	-0.017	Y:	0.019	Z:	0.075	yaw:	30.681	yaw rate:	-0.033	Roll:	-2.850	Pitch:	2.370	Yaw:	43.883	Thrust:	69.547
Time:	3.122	Roll Set Point:	0.109	Pitch Set Point:	-0.095	Yaw Set Point:	-0.535	X_WP:	0.100	Y_WP:	0.000	Y_WP:	0.500	X:	-0.017	Y:	0.019	Z:	0.075	yaw:	30.676	yaw rate:	-0.455	Roll:	-2.926	Pitch:	2.422	Yaw:	44.047	Thrust:	81.148
Time:	3.135	Roll Set Point:	0.109	Pitch Set Point:	-0.095	Yaw Set Point:	-0.535	X_WP:	0.100	Y_WP:	0.000	Y_WP:	0.500	X:	-0.017	Y:	0.019	Z:	0.075	yaw:	30.675	yaw rate:	-1.845	Roll:	-2.925	Pitch:	2.430	Yaw:	44.216	Thrust:	86.371
Time:	3.150	Roll Set Point:	0.109	Pitch Set Point:	-0.095	Yaw Set Point:	-0.535	X_WP:	0.100	Y_WP:	0.000	Y_WP:	0.500	X:	-0.017	Y:	0.019	Z:	0.075	yaw:	30.680	yaw rate:	0.478	Roll:	-2.873	Pitch:	2.429	Yaw:	44.331	Thrust:	82.536
Time:	3.163	Roll Set Point:	0.109	Pitch Set Point:	-0.095	Yaw Set Point:	-0.536	X_WP:	0.100	Y_WP:	0.000	Y_WP:	0.500	X:	-0.017	Y:	0.019	Z:	0.075	yaw:	30.683	yaw rate:	0.243	Roll:	-2.998	Pitch:	2.457	Yaw:	44.338	Thrust:	94.571
Time:	3.173	Roll Set Point:	0.109	Pitch Set Point:	-0.095	Yaw Set Point:	-0.536	X_WP:	0.100	Y_WP:	0.000	Y_WP:	0.500	X:	-0.017	Y:	0.019	Z:	0.075	yaw:	30.712	yaw rate:	2.943	Roll:	-2.821	Pitch:	2.450	Yaw:	44.653	Thrust:	69.759
Time:	3.187	Roll Set Point:	0.109	Pitch Set Point:	-0.095	Yaw Set Point:	-0.536	X_WP:	0.100	Y_WP:	0.000	Y_WP:	0.500	X:	-0.017	Y:	0.019	Z:	0.075	yaw:	30.692	yaw rate:	-2.046	Roll:	-2.909	Pitch:	2.376	Yaw:	43.877	Thrust:	84.532
Time:	3.201	Roll Set Point:	0.109	Pitch Set Point:	-0.095	Yaw Set Point:	-0.536	X_WP:	0.100	Y_WP:	0.000	Y_WP:	0.500	X:	-0.017	Y:	0.019	Z:	0.075	yaw:	30.699	yaw rate:	1.458	Roll:	-2.987	Pitch:	2.473	Yaw:	44.359	Thrust:	92.344
Time:	3.212	Roll Set Point:	0.109	Pitch Set Point:	-0.095	Yaw Set Point:	-0.536	X_WP:	0.100	Y_WP:	0.000	Y_WP:	0.500	X:	-0.017	Y:	0.019	Z:	0.075	yaw:	30.686	yaw rate:	-1.303	Roll:	-2.914	Pitch:	2.414	Yaw:	43.644	Thrust:	76.401
Time:	3.227	Roll Set Point:	0.109	Pitch Set Point:	-0.095	Yaw Set Point:	-0.535	X_WP:	0.100	Y_WP:	0.000	Y_WP:	0.500	X:	-0.017	Y:	0.019	Z:	0.075	yaw:	30.671	yaw rate:	-1.437	Roll:	-2.951	Pitch:	2.425	Yaw:	44.027	Thrust:	94.067
Time:	3.238	Roll Set Point:	0.109	Pitch Set Point:	-0.095	Yaw Set Point:	-0.536	X_WP:	0.100	Y_WP:	0.000	Y_WP:	0.500	X:	-0.017	Y:	0.019	Z:	0.075	yaw:	30.695	yaw rate:	2.387	Roll:	-2.881	Pitch:	2.436	Yaw:	44.528	Thrust:	77.332
Time:	3.254	Roll Set Point:	0.109	Pitch Set Point:	-0.095	Yaw Set Point:	-0.536	X_WP:	0.100	Y_WP:	0.000	Y_WP:	0.500	X:	-0.017	Y:	0.019	Z:	0.075	yaw:	30.686	yaw rate:	-0.911	Roll:	-2.959	Pitch:	2.473	Yaw:	44.302	Thrust:	100.000
Time:	3.268	Roll Set Point:	0.109	Pitch Set Point:	-0.095	Yaw Set Point:	-0.535	X_WP:	0.100	Y_WP:	0.000	Y_WP:	0.500	X:	-0.017	Y:	0.019	Z:	0.075	yaw:	30.677	yaw rate:	1.382	Roll:	-3.028	Pitch:	2.448	Yaw:	44.076	Thrust:	93.387
Time:	3.279	Roll Set Point:	0.109	Pitch Set Point:	-0.095	Yaw Set Point:	-0.535	X_WP:	0.100	Y_WP:	0.000	Y_WP:	0.500	X:	-0.017	Y:	0.019	Z:	0.075	yaw:	30.681	yaw rate:	0.397	Roll:	-2.871	Pitch:	2.438	Yaw:	44.085	Thrust:	79.217
Time:	3.293	Roll Set Point:	0.109	Pitch Set Point:	-0.095	Yaw Set Point:	-0.535	X_WP:	0.100	Y_WP:	0.000	Y_WP:	0.500	X:	-0.017	Y:	0.019	Z:	0.075	yaw:	30.663	yaw rate:	-1.797	Roll:	-2.969	Pitch:	2.431	Yaw:	43.824	Thrust:	94.969
Time:	3.304	Roll Set Point:	0.109	Pitch Set Point:	-0.095	Yaw Set Point:	-0.536	X_WP:	0.100	Y_WP:	0.000	Y_WP:	0.500	X:	-0.017	Y:	0.019	Z:	0.075	yaw:	30.682	yaw rate:	1.870	Roll:	-2.919	Pitch:	2.463	Yaw:	44.387	Thrust:	82.636
Time:	3.318	Roll Set Point:	0.109	Pitch Set Point:	-0.095	Yaw Set Point:	-0.535	X_WP:	0.100	Y_WP:	0.000	Y_WP:	0.500	X:	-0.017	Y:	0.019	Z:	0.075	yaw:	30.676	yaw rate:	-0.607	Roll:	-2.908	Pitch:	2.445	Yaw:	44.179	Thrust:	93.911
Time:	3.331	Roll Set Point:	0.109	Pitch Set Point:	-0.095	Yaw Set Point:	-0.536	X_WP:	0.100	Y_WP:	0.000	Y_WP:	0.500	X:	-0.017	Y:	0.019	Z:	0.075	yaw:	30.686	yaw rate:	0.944	Roll:	-3.000	Pitch:	2.481	Yaw:	44.296	Thrust:	94.477
Time:	3.342	Roll Set Point:	0.109	Pitch Set Point:	-0.095	Yaw Set Point:	-0.536	X_WP:	0.100	Y_WP:	0.000	Y_WP:	0.500	X:	-0.017	Y:	0.019	Z:	0.075	yaw:	30.693	yaw rate:	0.715	Roll:	-2.917	Pitch:	2.402	Yaw:	44.138	Thrust:	82.285
Time:	3.357	Roll Set Point:	0.109	Pitch Set Point:	-0.095	Yaw Set Point:	-0.536	X_WP:	0.100	Y_WP:	0.000	Y_WP:	0.500	X:	-0.017	Y:	0.019	Z:	0.075	yaw:	30.689	yaw rate:	-0.403	Roll:	-2.937	Pitch:	2.472	Yaw:	44.125	Thrust:	93.106
Time:	3.369	Roll Set Point:	0.109	Pitch Set Point:	-0.095	Yaw Set Point:	-0.536	X_WP:	0.100	Y_WP:	0.000	Y_WP:	0.500	X:	-0.017	Y:	0.019	Z:	0.075	yaw:	30.685	yaw rate:	0.577	Roll:	-2.984	Pitch:	2.459	Yaw:	44.064	Thrust:	93.768
Time:	3.382	Roll Set Point:	0.109	Pitch Set Point:	-0.095	Yaw Set Point:	-0.536	X_WP:	0.100	Y_WP:	0.000	Y_WP:	0.500	X:	-0.017	Y:	0.019	Z:	0.075	yaw:	30.695	yaw rate:	1.038	Roll:	-2.941	Pitch:	2.470	Yaw:	44.330	Thrust:	89.064
Time:	3.395	Roll Set Point:	0.109	Pitch Set Point:	-0.095	Yaw Set Point:	-0.536	X_WP:	0.100	Y_WP:	0.000	Y_WP:	0.500	X:	-0.017	Y:	0.019	Z:	0.075	yaw:	30.686	yaw rate:	-0.875	Roll:	-3.021	Pitch:	2.481	Yaw:	44.091	Thrust:	100.000
Time:	3.406	Roll Set Point:	0.109	Pitch Set Point:	-0.095	Yaw Set Point:	-0.535	X_WP:	0.100	Y_WP:	0.000	Y_WP:	0.500	X:	-0.017	Y:	0.019	Z:	0.075	yaw:	30.674	yaw rate:	-1.180	Roll:	-2.963	Pitch:	2.415	Yaw:	43.631	Thrust:	86.398
Time:	3.421	Roll Set Point:	0.109	Pitch Set Point:	-0.095	Yaw Set Point:	-0.535	X_WP:	0.100	Y_WP:	0.000	Y_WP:	0.500	X:	-0.017	Y:	0.019	Z:	0.075	yaw:	30.674	yaw rate:	0.002	Roll:	-2.982	Pitch:	2.479	Yaw:	44.334	Thrust:	100.000
Time:	3.434	Roll Set Point:	0.109	Pitch Set Point:	-0.095	Yaw Set Point:	-0.535	X_WP:	0.100	Y_WP:	0.000	Y_WP:	0.500	X:	-0.017	Y:	0.019	Z:	0.075	yaw:	30.673	yaw rate:	-0.864	Roll:	-3.011	Pitch:	2.485	Yaw:	43.996	Thrust:	91.469
Time:	3.445	Roll Set Point:	0.109	Pitch Set Point:	-0.095	Yaw Set Point:	-0.536	X_WP:	0.100	Y_WP:	0.000	Y_WP:	0.500	X:	-0.017	Y:	0.019	Z:	0.075	yaw:	30.692	yaw rate:	1.965	Roll:	-2.880	Pitch:	2.478	Yaw:	44.457	Thrust:	89.539
Time:	3.457	Roll Set Point:	0.109	Pitch Set Point:	-0.095	Yaw Set Point:	-0.535	X_WP:	0.100	Y_WP:	0.000	Y_WP:	0.500	X:	-0.017	Y:	0.019	Z:	0.075	yaw:	30.664	yaw rate:	-2.800	Roll:	-3.009	Pitch:	2.432	Yaw:	43.485	Thrust:	95.566
Time:	3.468	Roll Set Point:	0.109	Pitch Set Point:	-0.095	Yaw Set Point:	-0.536	X_WP:	0.100	Y_WP:	0.000	Y_WP:	0.500	X:	-0.017	Y:	0.019	Z:	0.075	yaw:	30.690	yaw rate:	2.566	Roll:	-2.882	Pitch:	2.471	Yaw:	44.563	Thrust:	87.365
Time:	3.484	Roll Set Point:	0.109	Pitch Set Point:	-0.095	Yaw Set Point:	-0.536	X_WP:	0.100	Y_WP:	0.000	Y_WP:	0.500	X:	-0.017	Y:	0.019	Z:	0.075	yaw:	30.692	yaw rate:	0.168	Roll:	-3.033	Pitch:	2.521	Yaw:	44.388	Thrust:	100.000
Time:	3.498	Roll Set Point:	0.109	Pitch Set Point:	-0.095	Yaw Set Point:	-0.536	X_WP:	0.100	Y_WP:	0.000	Y_WP:	0.500	X:	-0.017	Y:	0.019	Z:	0.075	yaw:	30.683	yaw rate:	-1.169	Roll:	-3.069	Pitch:	2.537	Yaw:	44.194	Thrust:	100.000
Time:	3.509	Roll Set Point:	0.109	Pitch Set Point:	-0.095	Yaw Set Point:	-0.536	X_WP:	0.100	Y_WP:	0.000	Y_WP:	0.500	X:	-0.017	Y:	0.019	Z:	0.075	yaw:	30.691	yaw rate:	0.744	Roll:	-2.951	Pitch:	2.453	Yaw:	44.094	Thrust:	86.267
Time:	3.521	Roll Set Point:	0.109	Pitch Set Point:	-0.095	Yaw Set Point:	-0.535	X_WP:	0.100	Y_WP:	0.000	Y_WP:	0.500	X:	-0.017	Y:	0.019	Z:	0.075	yaw:	30.676	yaw rate:	-1.492	Roll:	-2.985	Pitch:	2.447	Yaw:	43.710	Thrust:	95.657
Time:	3.533	Roll Set Point:	0.109	Pitch Set Point:	-0.095	Yaw Set Point:	-0.536	X_WP:	0.100	Y_WP:	0.000	Y_WP:	0.500	X:	-0.017	Y:	0.019	Z:	0.075	yaw:	30.699	yaw rate:	2.274	Roll:	-2.954	Pitch:	2.530	Yaw:	44.594	Thrust:	96.577
Time:	3.545	Roll Set Point:	0.109	Pitch Set Point:	-0.095	Yaw Set Point:	-0.536	X_WP:	0.100	Y_WP:	0.000	Y_WP:	0.500	X:	-0.017	Y:	0.019	Z:	0.075	yaw:	30.691	yaw rate:	-0.730	Roll:	-2.942	Pitch:	2.426	Yaw:	43.786	Thrust:	94.087
Time:	3.557	Roll Set Point:	0.109	Pitch Set Point:	-0.095	Yaw Set Point:	-0.535	X_WP:	0.100	Y_WP:	0.000	Y_WP:	0.500	X:	-0.017	Y:	0.019	Z:	0.075	yaw:	30.681	yaw rate:	-1.020	Roll:	-3.010	Pitch:	2.480	Yaw:	43.880	Thrust:	97.528
Time:	3.569	Roll Set Point:	0.109	Pitch Set Point:	-0.095	Yaw Set Point:	-0.536	X_WP:	0.100	Y_WP:	0.000	Y_WP:	0.500	X:	-0.017	Y:	0.019	Z:	0.075	yaw:	30.684	yaw rate:	0.275	Roll:	-3.017	Pitch:	2.480	Yaw:	44.106	Thrust:	98.043
Time:	3.581	Roll Set Point:	0.109	Pitch Set Point:	-0.095	Yaw Set Point:	-0.536	X_WP:	0.100	Y_WP:	0.000	Y_WP:	0.500	X:	-0.017	Y:	0.019	Z:	0.075	yaw:	30.687	yaw rate:	0.295	Roll:	-2.913	Pitch:	2.456	Yaw:	44.023	Thrust:	95.822
Time:	3.597	Roll Set Point:	0.109	Pitch Set Point:	-0.095	Yaw Set Point:	-0.536	X_WP:	0.100	Y_WP:	0.000	Y_WP:	0.500	X:	-0.017	Y:	0.019	Z:	0.075	yaw:	30.687	yaw rate:	0.008	Roll:	-3.115	Pitch:	2.592	Yaw:	44.501	Thrust:	100.000
Time:	3.607	Roll Set Point:	0.109	Pitch Set Point:	-0.095	Yaw Set Point:	-0.536	X_WP:	0.100	Y_WP:	0.000	Y_WP:	0.500	X:	-0.017	Y:	0.019	Z:	0.075	yaw:	30.684	yaw rate:	-0.262	Roll:	-2.989	Pitch:	2.464	Yaw:	43.789	Thrust:	87.871
Time:	3.623	Roll Set Point:	0.109	Pitch Set Point:	-0.095	Yaw Set Point:	-0.536	X_WP:	0.100	Y_WP:	0.000	Y_WP:	0.500	X:	-0.017	Y:	0.019	Z:	0.075	yaw:	30.684	yaw rate:	-0.056	Roll:	-3.019	Pitch:	2.529	Yaw:	44.392	Thrust:	100.000
Time:	3.634	Roll Set Point:	0.109	Pitch Set Point:	-0.095	Yaw Set Point:	-0.536	X_WP:	0.100	Y_WP:	0.000	Y_WP:	0.500	X:	-0.017	Y:	0.019	Z:	0.075	yaw:	30.685	yaw rate:	-0.216	Roll:	-3.051	Pitch:	2.522	Yaw:	44.068	Thrust:	100.000
Time:	3.652	Roll Set Point:	0.109	Pitch Set Point:	-0.095	Yaw Set Point:	-0.536	X_WP:	0.100	Y_WP:	0.000	Y_WP:	0.500	X:	-0.017	Y:	0.019	Z:	0.075	yaw:	30.688	yaw rate:	0.365	Roll:	-2.979	Pitch:	2.517	Yaw:	44.566	Thrust:	100.000
Time:	3.665	Roll Set Point:	0.109	Pitch Set Point:	-0.095	Yaw Set Point:	-0.535	X_WP:	0.100	Y_WP:	0.000	Y_WP:	0.500	X:	-0.017	Y:	0.019	Z:	0.075	yaw:	30.681	yaw rate:	-0.726	Roll:	-3.218	Pitch:	2.616	Yaw:	44.107	Thrust:	100.000
Time:	3.677	Roll Set Point:	0.109	Pitch Set Point:	-0.095	Yaw Set Point:	-0.536	X_WP:	0.100	Y_WP:	0.000	Y_WP:	0.500	X:	-0.017	Y:	0.019	Z:	0.075	yaw:	30.684	yaw rate:	0.286	Roll:	-2.971	Pitch:	2.495	Yaw:	43.970	Thrust:	96.776
Time:	3.688	Roll Set Point:	0.109	Pitch Set Point:	-0.095	Yaw Set Point:	-0.535	X_WP:	0.100	Y_WP:	0.000	Y_WP:	0.500	X:	-0.017	Y:	0.019	Z:	0.075	yaw:	30.673	yaw rate:	-1.078	Roll:	-3.008	Pitch:	2.473	Yaw:	43.806	Thrust:	100.000
Time:	3.700	Roll Set Point:	0.109	Pitch Set Point:	-0.095	Yaw Set Point:	-0.536	X_WP:	0.100	Y_WP:	0.000	Y_WP:	0.500	X:	-0.017	Y:	0.019	Z:	0.075	yaw:	30.703	yaw rate:	1.265	Roll:	-2.976	Pitch:	2.548	Yaw:	44.717	Thrust:	100.000
Time:	3.711	Roll Set Point:	0.109	Pitch Set Point:	-0.095	Yaw Set Point:	-0.535	X_WP:	0.100	Y_WP:	0.000	Y_WP:	0.500	X:	-0.017	Y:	0.019	Z:	0.075	yaw:	30.655	yaw rate:	-4.764	Roll:	-3.062	Pitch:	2.394	Yaw:	42.781	Thrust:	98.326
Time:	3.723	Roll Set Point:	0.109	Pitch Set Point:	-0.095	Yaw Set Point:	-0.536	X_WP:	0.100	Y_WP:	0.000	Y_WP:	0.500	X:	-0.017	Y:	0.019	Z:	0.075	yaw:	30.686	yaw rate:	3.031	Roll:	-2.968	Pitch:	2.559	Yaw:	44.733	Thrust:	100.000
Time:	3.735	Roll Set Point:	0.109	Pitch Set Point:	-0.095	Yaw Set Point:	-0.535	X_WP:	0.100	Y_WP:	0.000	Y_WP:	0.500	X:	-0.017	Y:	0.019	Z:	0.075	yaw:	30.675	yaw rate:	-1.019	Roll:	-3.037	Pitch:	2.484	Yaw:	43.752	Thrust:	99.156
Time:	3.746	Roll Set Point:	0.109	Pitch Set Point:	-0.095	Yaw Set Point:	-0.535	X_WP:	0.100	Y_WP:	0.000	Y_WP:	0.500	X:	-0.017	Y:	0.019	Z:	0.075	yaw:	30.660	yaw rate:	-1.561	Roll:	-3.026	Pitch:	2.447	Yaw:	43.535	Thrust:	100.000
Time:	3.758	Roll Set Point:	0.109	Pitch Set Point:	-0.095	Yaw Set Point:	-0.536	X_WP:	0.100	Y_WP:	0.000	Y_WP:	0.500	X:	-0.017	Y:	0.019	Z:	0.075	yaw:	30.684	yaw rate:	2.411	Roll:	-2.985	Pitch:	2.554	Yaw:	44.600	Thrust:	100.000
Time:	3.769	Roll Set Point:	0.109	Pitch Set Point:	-0.095	Yaw Set Point:	-0.535	X_WP:	0.100	Y_WP:	0.000	Y_WP:	0.500	X:	-0.017	Y:	0.019	Z:	0.075	yaw:	30.675	yaw rate:	-0.851	Roll:	-2.975	Pitch:	2.476	Yaw:	43.611	Thrust:	97.500
Time:	3.779	Roll Set Point:	0.109	Pitch Set Point:	-0.095	Yaw Set Point:	-0.535	X_WP:	0.100	Y_WP:	0.000	Y_WP:	0.500	X:	-0.017	Y:	0.019	Z:	0.075	yaw:	30.654	yaw rate:	-2.179	Roll:	-3.047	Pitch:	2.426	Yaw:	43.311	Thrust:	97.845
Time:	3.792	Roll Set Point:	0.109	Pitch Set Point:	-0.095	Yaw Set Point:	-0.536	X_WP:	0.100	Y_WP:	0.000	Y_WP:	0.500	X:	-0.017	Y:	0.019	Z:	0.075	yaw:	30.710	yaw rate:	5.686	Roll:	-2.950	Pitch:	2.624	Yaw:	45.321	Thrust:	100.000
Time:	3.803	Roll Set Point:	0.109	Pitch Set Point:	-0.095	Yaw Set Point:	-0.536	X_WP:	0.100	Y_WP:	0.000	Y_WP:	0.500	X:	-0.017	Y:	0.019	Z:	0.075	yaw:	30.694	yaw rate:	-1.604	Roll:	-2.998	Pitch:	2.463	Yaw:	43.511	Thrust:	99.019
Time:	3.816	Roll Set Point:	0.109	Pitch Set Point:	-0.095	Yaw Set Point:	-0.535	X_WP:	0.100	Y_WP:	0.000	Y_WP:	0.500	X:	-0.017	Y:	0.019	Z:	0.075	yaw:	30.662	yaw rate:	-3.198	Roll:	-3.100	Pitch:	2.507	Yaw:	43.627	Thrust:	100.000
Time:	3.832	Roll Set Point:	0.109	Pitch Set Point:	-0.095	Yaw Set Point:	-0.536	X_WP:	0.100	Y_WP:	0.000	Y_WP:	0.500	X:	-0.017	Y:	0.019	Z:	0.075	yaw:	30.700	yaw rate:	3.801	Roll:	-3.165	Pitch:	2.682	Yaw:	45.062	Thrust:	100.000
Time:	3.843	Roll Set Point:	0.109	Pitch Set Point:	-0.095	Yaw Set Point:	-0.535	X_WP:	0.100	Y_WP:	0.000	Y_WP:	0.500	X:	-0.017	Y:	0.019	Z:	0.075	yaw:	30.672	yaw rate:	-1.311	Roll:	-3.049	Pitch:	2.483	Yaw:	43.267	Thrust:	100.000
Time:	3.855	Roll Set Point:	0.109	Pitch Set Point:	-0.095	Yaw Set Point:	-0.535	X_WP:	0.100	Y_WP:	0.000	Y_WP:	0.500	X:	-0.017	Y:	0.019	Z:	0.075	yaw:	30.681	yaw rate:	0.837	Roll:	-3.016	Pitch:	2.505	Yaw:	44.267	Thrust:	100.000
Time:	3.866	Roll Set Point:	0.109	Pitch Set Point:	-0.095	Yaw Set Point:	-0.536	X_WP:	0.100	Y_WP:	0.000	Y_WP:	0.500	X:	-0.017	Y:	0.019	Z:	0.075	yaw:	30.688	yaw rate:	0.780	Roll:	-3.049	Pitch:	2.554	Yaw:	44.136	Thrust:	100.000
Time:	3.879	Roll Set Point:	0.109	Pitch Set Point:	-0.095	Yaw Set Point:	-0.535	X_WP:	0.100	Y_WP:	0.000	Y_WP:	0.500	X:	-0.017	Y:	0.019	Z:	0.075	yaw:	30.682	yaw rate:	-0.662	Roll:	-3.067	Pitch:	2.529	Yaw:	43.827	Thrust:	100.000
Time:	3.891	Roll Set Point:	0.109	Pitch Set Point:	-0.095	Yaw Set Point:	-0.535	X_WP:	0.100	Y_WP:	0.000	Y_WP:	0.500	X:	-0.017	Y:	0.019	Z:	0.075	yaw:	30.681	yaw rate:	-0.040	Roll:	-3.060	Pitch:	2.522	Yaw:	44.066	Thrust:	100.000
Time:	3.901	Roll Set Point:	0.109	Pitch Set Point:	-0.095	Yaw Set Point:	-0.535	X_WP:	0.100	Y_WP:	0.000	Y_WP:	0.500	X:	-0.017	Y:	0.019	Z:	0.075	yaw:	30.679	yaw rate:	-0.272	Roll:	-2.988	Pitch:	2.499	Yaw:	43.874	Thrust:	100.000
Time:	3.912	Roll Set Point:	0.109	Pitch Set Point:	-0.095	Yaw Set Point:	-0.536	X_WP:	0.100	Y_WP:	0.000	Y_WP:	0.500	X:	-0.017	Y:	0.019	Z:	0.075	yaw:	30.684	yaw rate:	0.530	Roll:	-3.001	Pitch:	2.531	Yaw:	44.073	Thrust:	100.000
Time:	3.924	Roll Set Point:	0.109	Pitch Set Point:	-0.095	Yaw Set Point:	-0.536	X_WP:	0.100	Y_WP:	0.000	Y_WP:	0.500	X:	-0.017	Y:	0.019	Z:	0.075	yaw:	30.699	yaw rate:	1.467	Roll:	-3.069	Pitch:	2.578	Yaw:	44.352	Thrust:	100.000
Time:	3.934	Roll Set Point:	0.109	Pitch Set Point:	-0.095	Yaw Set Point:	-0.536	X_WP:	0.100	Y_WP:	0.000	Y_WP:	0.500	X:	-0.017	Y:	0.019	Z:	0.075	yaw:	30.696	yaw rate:	-0.268	Roll:	-3.007	Pitch:	2.501	Yaw:	43.846	Thrust:	100.000
Time:	3.945	Roll Set Point:	0.109	Pitch Set Point:	-0.095	Yaw Set Point:	-0.535	X_WP:	0.100	Y_WP:	0.000	Y_WP:	0.500	X:	-0.017	Y:	0.019	Z:	0.075	yaw:	30.663	yaw rate:	-3.263	Roll:	-3.079	Pitch:	2.458	Yaw:	43.144	Thrust:	100.000
Time:	3.959	Roll Set Point:	0.109	Pitch Set Point:	-0.095	Yaw Set Point:	-0.536	X_WP:	0.100	Y_WP:	0.000	Y_WP:	0.500	X:	-0.017	Y:	0.019	Z:	0.075	yaw:	30.688	yaw rate:	2.510	Roll:	-3.086	Pitch:	2.619	Yaw:	44.657	Thrust:	100.000
Time:	3.970	Roll Set Point:	0.109	Pitch Set Point:	-0.095	Yaw Set Point:	-0.536	X_WP:	0.100	Y_WP:	0.000	Y_WP:	0.500	X:	-0.017	Y:	0.019	Z:	0.075	yaw:	30.712	yaw rate:	2.363	Roll:	-2.994	Pitch:	2.580	Yaw:	44.572	Thrust:	100.000
Time:	3.988	Roll Set Point:	0.109	Pitch Set Point:	-0.095	Yaw Set Point:	-0.535	X_WP:	0.100	Y_WP:	0.000	Y_WP:	0.500	X:	-0.017	Y:	0.019	Z:	0.075	yaw:	30.678	yaw rate:	-3.391	Roll:	-3.220	Pitch:	2.617	Yaw:	44.022	Thrust:	100.000
Time:	3.999	Roll Set Point:	0.109	Pitch Set Point:	-0.095	Yaw Set Point:	-0.536	X_WP:	0.100	Y_WP:	0.000	Y_WP:	0.500	X:	-0.017	Y:	0.019	Z:	0.075	yaw:	30.687	yaw rate:	2.012	Roll:	-3.214	Pitch:	2.643	Yaw:	44.285	Thrust:	100.000
Time:	4.010	Roll Set Point:	0.109	Pitch Set Point:	-0.095	Yaw Set Point:	-0.536	X_WP:	0.100	Y_WP:	0.000	Y_WP:	0.500	X:	-0.017	Y:	0.019	Z:	0.075	yaw:	30.683	yaw rate:	-0.412	Roll:	-3.046	Pitch:	2.493	Yaw:	43.795	Thrust:	100.000
Time:	4.022	Roll Set Point:	0.109	Pitch Set Point:	-0.095	Yaw Set Point:	-0.535	X_WP:	0.100	Y_WP:	0.000	Y_WP:	0.500	X:	-0.017	Y:	0.019	Z:	0.075	yaw:	30.670	yaw rate:	-1.294	Roll:	-3.060	Pitch:	2.545	Yaw:	43.619	Thrust:	100.000
Time:	4.033	Roll Set Point:	0.109	Pitch Set Point:	-0.095	Yaw Set Point:	-0.535	X_WP:	0.100	Y_WP:	0.000	Y_WP:	0.500	X:	-0.017	Y:	0.019	Z:	0.075	yaw:	30.671	yaw rate:	0.089	Roll:	-3.061	Pitch:	2.514	Yaw:	44.000	Thrust:	100.000
Time:	4.044	Roll Set Point:	0.109	Pitch Set Point:	-0.095	Yaw Set Point:	-0.535	X_WP:	0.100	Y_WP:	0.000	Y_WP:	0.500	X:	-0.017	Y:	0.019	Z:	0.075	yaw:	30.665	yaw rate:	-0.545	Roll:	-3.045	Pitch:	2.516	Yaw:	43.799	Thrust:	100.000
Time:	4.057	Roll Set Point:	0.109	Pitch Set Point:	-0.095	Yaw Set Point:	-0.536	X_WP:	0.100	Y_WP:	0.000	Y_WP:	0.500	X:	-0.017	Y:	0.019	Z:	0.075	yaw:	30.688	yaw rate:	2.273	Roll:	-3.083	Pitch:	2.645	Yaw:	44.609	Thrust:	100.000
Time:	4.068	Roll Set Point:	0.109	Pitch Set Point:	-0.095	Yaw Set Point:	-0.536	X_WP:	0.100	Y_WP:	0.000	Y_WP:	0.500	X:	-0.017	Y:	0.019	Z:	0.075	yaw:	30.693	yaw rate:	0.464	Roll:	-3.075	Pitch:	2.578	Yaw:	44.068	Thrust:	100.000
Time:	4.080	Roll Set Point:	0.109	Pitch Set Point:	-0.095	Yaw Set Point:	-0.535	X_WP:	0.100	Y_WP:	0.000	Y_WP:	0.500	X:	-0.017	Y:	0.019	Z:	0.075	yaw:	30.681	yaw rate:	-1.135	Roll:	-3.091	Pitch:	2.563	Yaw:	43.819	Thrust:	100.000
Time:	4.095	Roll Set Point:	0.109	Pitch Set Point:	-0.095	Yaw Set Point:	-0.536	X_WP:	0.100	Y_WP:	0.000	Y_WP:	0.500	X:	-0.017	Y:	0.019	Z:	0.075	yaw:	30.692	yaw rate:	1.058	Roll:	-3.201	Pitch:	2.682	Yaw:	44.505	Thrust:	100.000
Time:	4.105	Roll Set Point:	0.109	Pitch Set Point:	-0.095	Yaw Set Point:	-0.536	X_WP:	0.100	Y_WP:	0.000	Y_WP:	0.500	X:	-0.017	Y:	0.019	Z:	0.075	yaw:	30.685	yaw rate:	-0.709	Roll:	-3.097	Pitch:	2.495	Yaw:	43.722	Thrust:	100.000
Time:	4.117	Roll Set Point:	0.109	Pitch Set Point:	-0.095	Yaw Set Point:	-0.536	X_WP:	0.100	Y_WP:	0.000	Y_WP:	0.500	X:	-0.017	Y:	0.019	Z:	0.075	yaw:	30.682	yaw rate:	-0.279	Roll:	-3.046	Pitch:	2.580	Yaw:	43.984	Thrust:	100.000
Time:	4.129	Roll Set Point:	0.109	Pitch Set Point:	-0.095	Yaw Set Point:	-0.536	X_WP:	0.100	Y_WP:	0.000	Y_WP:	0.500	X:	-0.017	Y:	0.019	Z:	0.075	yaw:	30.693	yaw rate:	1.044	Roll:	-3.104	Pitch:	2.596	Yaw:	44.285	Thrust:	100.000
Time:	4.140	Roll Set Point:	0.109	Pitch Set Point:	-0.095	Yaw Set Point:	-0.535	X_WP:	0.100	Y_WP:	0.000	Y_WP:	0.500	X:	-0.017	Y:	0.019	Z:	0.075	yaw:	30.677	yaw rate:	-1.589	Roll:	-3.125	Pitch:	2.527	Yaw:	43.566	Thrust:	100.000
Time:	4.154	Roll Set Point:	0.109	Pitch Set Point:	-0.095	Yaw Set Point:	-0.536	X_WP:	0.100	Y_WP:	0.000	Y_WP:	0.500	X:	-0.017	Y:	0.019	Z:	0.075	yaw:	30.690	yaw rate:	0.048	Roll:	-3.090	Pitch:	2.659	Yaw:	44.417	Thrust:	100.000
Time:	4.166	Roll Set Point:	0.109	Pitch Set Point:	-0.095	Yaw Set Point:	-0.536	X_WP:	0.100	Y_WP:	0.000	Y_WP:	0.500	X:	-0.017	Y:	0.019	Z:	0.075	yaw:	30.704	yaw rate:	1.448	Roll:	-3.071	Pitch:	2.601	Yaw:	44.426	Thrust:	100.000
Time:	4.176	Roll Set Point:	0.109	Pitch Set Point:	-0.095	Yaw Set Point:	-0.536	X_WP:	0.100	Y_WP:	0.000	Y_WP:	0.500	X:	-0.017	Y:	0.019	Z:	0.075	yaw:	30.700	yaw rate:	-0.407	Roll:	-3.056	Pitch:	2.561	Yaw:	43.762	Thrust:	100.000
Time:	4.190	Roll Set Point:	0.109	Pitch Set Point:	-0.095	Yaw Set Point:	-0.536	X_WP:	0.100	Y_WP:	0.000	Y_WP:	0.500	X:	-0.017	Y:	0.019	Z:	0.075	yaw:	30.694	yaw rate:	-0.599	Roll:	-3.143	Pitch:	2.612	Yaw:	44.100	Thrust:	100.000
Time:	4.202	Roll Set Point:	0.109	Pitch Set Point:	-0.095	Yaw Set Point:	-0.536	X_WP:	0.100	Y_WP:	0.000	Y_WP:	0.500	X:	-0.017	Y:	0.019	Z:	0.075	yaw:	30.685	yaw rate:	-0.886	Roll:	-3.138	Pitch:	2.581	Yaw:	43.854	Thrust:	100.000
Time:	4.213	Roll Set Point:	0.109	Pitch Set Point:	-0.095	Yaw Set Point:	-0.535	X_WP:	0.100	Y_WP:	0.000	Y_WP:	0.500	X:	-0.017	Y:	0.019	Z:	0.075	yaw:	30.675	yaw rate:	-1.013	Roll:	-3.073	Pitch:	2.528	Yaw:	43.757	Thrust:	100.000
Time:	4.227	Roll Set Point:	0.109	Pitch Set Point:	-0.095	Yaw Set Point:	-0.536	X_WP:	0.100	Y_WP:	0.000	Y_WP:	0.500	X:	-0.017	Y:	0.019	Z:	0.075	yaw:	30.689	yaw rate:	1.349	Roll:	-3.146	Pitch:	2.708	Yaw:	44.466	Thrust:	100.000
Time:	4.237	Roll Set Point:	0.109	Pitch Set Point:	-0.095	Yaw Set Point:	-0.535	X_WP:	0.100	Y_WP:	0.000	Y_WP:	0.500	X:	-0.017	Y:	0.019	Z:	0.075	yaw:	30.670	yaw rate:	-1.846	Roll:	-3.093	Pitch:	2.497	Yaw:	43.417	Thrust:	100.000
Time:	4.251	Roll Set Point:	0.109	Pitch Set Point:	-0.095	Yaw Set Point:	-0.535	X_WP:	0.100	Y_WP:	0.000	Y_WP:	0.500	X:	-0.017	Y:	0.019	Z:	0.075	yaw:	30.675	yaw rate:	0.469	Roll:	-3.106	Pitch:	2.693	Yaw:	44.280	Thrust:	100.000
Time:	4.264	Roll Set Point:	0.109	Pitch Set Point:	-0.095	Yaw Set Point:	-0.536	X_WP:	0.100	Y_WP:	0.000	Y_WP:	0.500	X:	-0.017	Y:	0.019	Z:	0.075	yaw:	30.704	yaw rate:	2.333	Roll:	-3.160	Pitch:	2.692	Yaw:	44.794	Thrust:	100.000
Time:	4.275	Roll Set Point:	0.109	Pitch Set Point:	-0.095	Yaw Set Point:	-0.536	X_WP:	0.100	Y_WP:	0.000	Y_WP:	0.500	X:	-0.017	Y:	0.019	Z:	0.075	yaw:	30.689	yaw rate:	-1.515	Roll:	-3.095	Pitch:	2.550	Yaw:	43.529	Thrust:	100.000
Time:	4.288	Roll Set Point:	0.109	Pitch Set Point:	-0.095	Yaw Set Point:	-0.536	X_WP:	0.100	Y_WP:	0.000	Y_WP:	0.500	X:	-0.017	Y:	0.019	Z:	0.075	yaw:	30.706	yaw rate:	1.672	Roll:	-3.019	Pitch:	2.648	Yaw:	44.522	Thrust:	100.000
Time:	4.300	Roll Set Point:	0.109	Pitch Set Point:	-0.095	Yaw Set Point:	-0.535	X_WP:	0.100	Y_WP:	0.000	Y_WP:	0.500	X:	-0.017	Y:	0.019	Z:	0.075	yaw:	30.680	yaw rate:	-2.629	Roll:	-3.200	Pitch:	2.590	Yaw:	43.393	Thrust:	100.000
Time:	4.310	Roll Set Point:	0.109	Pitch Set Point:	-0.095	Yaw Set Point:	-0.535	X_WP:	0.100	Y_WP:	0.000	Y_WP:	0.500	X:	-0.017	Y:	0.019	Z:	0.075	yaw:	30.672	yaw rate:	-0.790	Roll:	-3.063	Pitch:	2.558	Yaw:	43.699	Thrust:	100.000
Time:	4.323	Roll Set Point:	0.109	Pitch Set Point:	-0.095	Yaw Set Point:	-0.536	X_WP:	0.100	Y_WP:	0.000	Y_WP:	0.500	X:	-0.017	Y:	0.019	Z:	0.075	yaw:	30.695	yaw rate:	2.312	Roll:	-3.091	Pitch:	2.695	Yaw:	44.629	Thrust:	100.000
Time:	4.334	Roll Set Point:	0.109	Pitch Set Point:	-0.095	Yaw Set Point:	-0.536	X_WP:	0.100	Y_WP:	0.000	Y_WP:	0.500	X:	-0.017	Y:	0.019	Z:	0.075	yaw:	30.688	yaw rate:	-0.639	Roll:	-3.075	Pitch:	2.554	Yaw:	43.800	Thrust:	100.000
Time:	4.345	Roll Set Point:	0.109	Pitch Set Point:	-0.095	Yaw Set Point:	-0.536	X_WP:	0.100	Y_WP:	0.000	Y_WP:	0.500	X:	-0.017	Y:	0.019	Z:	0.075	yaw:	30.685	yaw rate:	-0.303	Roll:	-3.060	Pitch:	2.598	Yaw:	43.879	Thrust:	100.000
Time:	4.357	Roll Set Point:	0.109	Pitch Set Point:	-0.095	Yaw Set Point:	-0.535	X_WP:	0.100	Y_WP:	0.000	Y_WP:	0.500	X:	-0.017	Y:	0.019	Z:	0.075	yaw:	30.671	yaw rate:	-1.400	Roll:	-3.113	Pitch:	2.582	Yaw:	43.661	Thrust:	100.000
Time:	4.368	Roll Set Point:	0.109	Pitch Set Point:	-0.095	Yaw Set Point:	-0.536	X_WP:	0.100	Y_WP:	0.000	Y_WP:	0.500	X:	-0.017	Y:	0.019	Z:	0.075	yaw:	30.697	yaw rate:	0.978	Roll:	-3.036	Pitch:	2.664	Yaw:	44.592	Thrust:	100.000
Time:	4.380	Roll Set Point:	0.109	Pitch Set Point:	-0.095	Yaw Set Point:	-0.536	X_WP:	0.100	Y_WP:	0.000	Y_WP:	0.500	X:	-0.017	Y:	0.019	Z:	0.075	yaw:	30.697	yaw rate:	0.002	Roll:	-3.059	Pitch:	2.597	Yaw:	43.915	Thrust:	100.000
Time:	4.394	Roll Set Point:	0.109	Pitch Set Point:	-0.095	Yaw Set Point:	-0.536	X_WP:	0.100	Y_WP:	0.000	Y_WP:	0.500	X:	-0.017	Y:	0.019	Z:	0.075	yaw:	30.693	yaw rate:	-0.410	Roll:	-3.184	Pitch:	2.711	Yaw:	44.294	Thrust:	100.000
Time:	4.405	Roll Set Point:	0.109	Pitch Set Point:	-0.095	Yaw Set Point:	-0.536	X_WP:	0.100	Y_WP:	0.000	Y_WP:	0.500	X:	-0.017	Y:	0.019	Z:	0.075	yaw:	30.694	yaw rate:	0.147	Roll:	-3.079	Pitch:	2.617	Yaw:	43.965	Thrust:	100.000
Time:	4.422	Roll Set Point:	0.109	Pitch Set Point:	-0.095	Yaw Set Point:	-0.535	X_WP:	0.100	Y_WP:	0.000	Y_WP:	0.500	X:	-0.017	Y:	0.019	Z:	0.075	yaw:	30.677	yaw rate:	-1.770	Roll:	-3.165	Pitch:	2.724	Yaw:	44.267	Thrust:	100.000
Time:	4.435	Roll Set Point:	0.109	Pitch Set Point:	-0.095	Yaw Set Point:	-0.536	X_WP:	0.100	Y_WP:	0.000	Y_WP:	0.500	X:	-0.017	Y:	0.019	Z:	0.075	yaw:	30.687	yaw rate:	1.008	Roll:	-3.224	Pitch:	2.734	Yaw:	44.355	Thrust:	100.000
Time:	4.450	Roll Set Point:	0.109	Pitch Set Point:	-0.095	Yaw Set Point:	-0.536	X_WP:	0.100	Y_WP:	0.000	Y_WP:	0.500	X:	-0.017	Y:	0.019	Z:	0.075	yaw:	30.690	yaw rate:	-0.403	Roll:	-3.139	Pitch:	2.680	Yaw:	44.168	Thrust:	100.000
Time:	4.463	Roll Set Point:	0.109	Pitch Set Point:	-0.095	Yaw Set Point:	-0.536	X_WP:	0.100	Y_WP:	0.000	Y_WP:	0.500	X:	-0.017	Y:	0.019	Z:	0.075	yaw:	30.692	yaw rate:	0.258	Roll:	-3.231	Pitch:	2.776	Yaw:	44.354	Thrust:	100.000
Time:	4.473	Roll Set Point:	0.109	Pitch Set Point:	-0.095	Yaw Set Point:	-0.535	X_WP:	0.100	Y_WP:	0.000	Y_WP:	0.500	X:	-0.017	Y:	0.019	Z:	0.075	yaw:	30.681	yaw rate:	-1.077	Roll:	-3.075	Pitch:	2.552	Yaw:	43.629	Thrust:	100.000
Time:	4.487	Roll Set Point:	0.109	Pitch Set Point:	-0.095	Yaw Set Point:	-0.535	X_WP:	0.100	Y_WP:	0.000	Y_WP:	0.500	X:	-0.017	Y:	0.019	Z:	0.075	yaw:	30.680	yaw rate:	-0.087	Roll:	-3.053	Pitch:	2.648	Yaw:	44.226	Thrust:	100.000
Time:	4.499	Roll Set Point:	0.109	Pitch Set Point:	-0.095	Yaw Set Point:	-0.535	X_WP:	0.100	Y_WP:	0.000	Y_WP:	0.500	X:	-0.017	Y:	0.019	Z:	0.075	yaw:	30.672	yaw rate:	-0.837	Roll:	-3.183	Pitch:	2.705	Yaw:	43.829	Thrust:	100.000
Time:	4.510	Roll Set Point:	0.109	Pitch Set Point:	-0.095	Yaw Set Point:	-0.536	X_WP:	0.100	Y_WP:	0.000	Y_WP:	0.500	X:	-0.017	Y:	0.019	Z:	0.075	yaw:	30.704	yaw rate:	3.171	Roll:	-3.044	Pitch:	2.683	Yaw:	44.726	Thrust:	100.000
Time:	4.523	Roll Set Point:	0.109	Pitch Set Point:	-0.095	Yaw Set Point:	-0.535	X_WP:	0.100	Y_WP:	0.000	Y_WP:	0.500	X:	-0.017	Y:	0.019	Z:	0.075	yaw:	30.667	yaw rate:	-1.437	Roll:	-3.112	Pitch:	2.606	Yaw:	43.310	Thrust:	100.000
Time:	4.534	Roll Set Point:	0.109	Pitch Set Point:	-0.095	Yaw Set Point:	-0.535	X_WP:	0.100	Y_WP:	0.000	Y_WP:	0.500	X:	-0.017	Y:	0.019	Z:	0.075	yaw:	30.677	yaw rate:	0.950	Roll:	-3.117	Pitch:	2.645	Yaw:	44.201	Thrust:	100.000
Time:	4.545	Roll Set Point:	0.109	Pitch Set Point:	-0.095	Yaw Set Point:	-0.536	X_WP:	0.100	Y_WP:	0.000	Y_WP:	0.500	X:	-0.017	Y:	0.019	Z:	0.075	yaw:	30.685	yaw rate:	0.824	Roll:	-3.047	Pitch:	2.625	Yaw:	44.143	Thrust:	100.000
Time:	4.557	Roll Set Point:	0.109	Pitch Set Point:	-0.095	Yaw Set Point:	-0.535	X_WP:	0.100	Y_WP:	0.000	Y_WP:	0.500	X:	-0.017	Y:	0.019	Z:	0.075	yaw:	30.671	yaw rate:	-1.378	Roll:	-3.114	Pitch:	2.624	Yaw:	43.728	Thrust:	100.000
Time:	4.568	Roll Set Point:	0.109	Pitch Set Point:	-0.095	Yaw Set Point:	-0.535	X_WP:	0.100	Y_WP:	0.000	Y_WP:	0.500	X:	-0.017	Y:	0.019	Z:	0.075	yaw:	30.675	yaw rate:	0.407	Roll:	-3.057	Pitch:	2.621	Yaw:	44.030	Thrust:	100.000
Time:	4.579	Roll Set Point:	0.109	Pitch Set Point:	-0.095	Yaw Set Point:	-0.536	X_WP:	0.100	Y_WP:	0.000	Y_WP:	0.500	X:	-0.017	Y:	0.019	Z:	0.075	yaw:	30.688	yaw rate:	1.234	Roll:	-3.031	Pitch:	2.630	Yaw:	44.175	Thrust:	100.000
Time:	4.590	Roll Set Point:	0.109	Pitch Set Point:	-0.095	Yaw Set Point:	-0.536	X_WP:	0.100	Y_WP:	0.000	Y_WP:	0.500	X:	-0.017	Y:	0.019	Z:	0.075	yaw:	30.696	yaw rate:	0.861	Roll:	-3.077	Pitch:	2.664	Yaw:	44.295	Thrust:	100.000
Time:	4.601	Roll Set Point:	0.109	Pitch Set Point:	-0.095	Yaw Set Point:	-0.536	X_WP:	0.100	Y_WP:	0.000	Y_WP:	0.500	X:	-0.017	Y:	0.019	Z:	0.075	yaw:	30.687	yaw rate:	-0.939	Roll:	-3.096	Pitch:	2.613	Yaw:	43.727	Thrust:	100.000
Time:	4.613	Roll Set Point:	0.109	Pitch Set Point:	-0.095	Yaw Set Point:	-0.535	X_WP:	0.100	Y_WP:	0.000	Y_WP:	0.500	X:	-0.017	Y:	0.019	Z:	0.075	yaw:	30.679	yaw rate:	-0.787	Roll:	-3.075	Pitch:	2.617	Yaw:	43.752	Thrust:	100.000
Time:	4.625	Roll Set Point:	0.109	Pitch Set Point:	-0.095	Yaw Set Point:	-0.535	X_WP:	0.100	Y_WP:	0.000	Y_WP:	0.500	X:	-0.017	Y:	0.019	Z:	0.075	yaw:	30.669	yaw rate:	-0.994	Roll:	-3.123	Pitch:	2.615	Yaw:	43.868	Thrust:	100.000
Time:	4.635	Roll Set Point:	0.109	Pitch Set Point:	-0.095	Yaw Set Point:	-0.536	X_WP:	0.100	Y_WP:	0.000	Y_WP:	0.500	X:	-0.017	Y:	0.019	Z:	0.075	yaw:	30.693	yaw rate:	2.380	Roll:	-2.985	Pitch:	2.658	Yaw:	44.500	Thrust:	100.000
Time:	4.647	Roll Set Point:	0.109	Pitch Set Point:	-0.095	Yaw Set Point:	-0.536	X_WP:	0.100	Y_WP:	0.000	Y_WP:	0.500	X:	-0.017	Y:	0.019	Z:	0.075	yaw:	30.687	yaw rate:	-0.604	Roll:	-3.077	Pitch:	2.601	Yaw:	43.868	Thrust:	100.000
Time:	4.662	Roll Set Point:	0.109	Pitch Set Point:	-0.095	Yaw Set Point:	-0.536	X_WP:	0.100	Y_WP:	0.000	Y_WP:	0.500	X:	-0.017	Y:	0.019	Z:	0.075	yaw:	30.688	yaw rate:	0.099	Roll:	-3.216	Pitch:	2.760	Yaw:	44.269	Thrust:	100.000
Time:	4.672	Roll Set Point:	0.109	Pitch Set Point:	-0.095	Yaw Set Point:	-0.535	X_WP:	0.100	Y_WP:	0.000	Y_WP:	0.500	X:	-0.017	Y:	0.019	Z:	0.075	yaw:	30.654	yaw rate:	-3.353	Roll:	-3.097	Pitch:	2.534	Yaw:	43.025	Thrust:	100.000
Time:	4.686	Roll Set Point:	0.109	Pitch Set Point:	-0.095	Yaw Set Point:	-0.536	X_WP:	0.100	Y_WP:	0.000	Y_WP:	0.500	X:	-0.017	Y:	0.019	Z:	0.075	yaw:	30.683	yaw rate:	2.897	Roll:	-3.025	Pitch:	2.707	Yaw:	44.676	Thrust:	100.000
Time:	4.699	Roll Set Point:	0.109	Pitch Set Point:	-0.095	Yaw Set Point:	-0.535	X_WP:	0.100	Y_WP:	0.000	Y_WP:	0.500	X:	-0.017	Y:	0.019	Z:	0.075	yaw:	30.673	yaw rate:	-3.295	Roll:	-3.235	Pitch:	2.751	Yaw:	44.156	Thrust:	100.000
Time:	4.710	Roll Set Point:	0.109	Pitch Set Point:	-0.095	Yaw Set Point:	-0.535	X_WP:	0.100	Y_WP:	0.000	Y_WP:	0.500	X:	-0.017	Y:	0.019	Z:	0.075	yaw:	30.676	yaw rate:	0.309	Roll:	-3.100	Pitch:	2.630	Yaw:	44.011	Thrust:	100.000
Time:	4.722	Roll Set Point:	0.109	Pitch Set Point:	-0.095	Yaw Set Point:	-0.536	X_WP:	0.100	Y_WP:	0.000	Y_WP:	0.500	X:	-0.017	Y:	0.019	Z:	0.075	yaw:	30.687	yaw rate:	1.081	Roll:	-3.034	Pitch:	2.617	Yaw:	44.285	Thrust:	100.000
Time:	4.733	Roll Set Point:	0.109	Pitch Set Point:	-0.095	Yaw Set Point:	-0.535	X_WP:	0.100	Y_WP:	0.000	Y_WP:	0.500	X:	-0.017	Y:	0.019	Z:	0.075	yaw:	30.660	yaw rate:	-2.650	Roll:	-3.149	Pitch:	2.616	Yaw:	43.362	Thrust:	100.000
Time:	4.744	Roll Set Point:	0.109	Pitch Set Point:	-0.095	Yaw Set Point:	-0.536	X_WP:	0.100	Y_WP:	0.000	Y_WP:	0.500	X:	-0.017	Y:	0.019	Z:	0.075	yaw:	30.685	yaw rate:	2.482	Roll:	-2.997	Pitch:	2.671	Yaw:	44.539	Thrust:	100.000
Time:	4.756	Roll Set Point:	0.109	Pitch Set Point:	-0.095	Yaw Set Point:	-0.536	X_WP:	0.100	Y_WP:	0.000	Y_WP:	0.500	X:	-0.017	Y:	0.019	Z:	0.075	yaw:	30.701	yaw rate:	1.569	Roll:	-3.093	Pitch:	2.678	Yaw:	44.411	Thrust:	100.000
Time:	4.768	Roll Set Point:	0.109	Pitch Set Point:	-0.095	Yaw Set Point:	-0.535	X_WP:	0.100	Y_WP:	0.000	Y_WP:	0.500	X:	-0.017	Y:	0.019	Z:	0.075	yaw:	30.681	yaw rate:	-2.003	Roll:	-3.086	Pitch:	2.586	Yaw:	43.465	Thrust:	100.000
Time:	4.780	Roll Set Point:	0.109	Pitch Set Point:	-0.095	Yaw Set Point:	-0.536	X_WP:	0.100	Y_WP:	0.000	Y_WP:	0.500	X:	-0.017	Y:	0.019	Z:	0.075	yaw:	30.706	yaw rate:	2.553	Roll:	-3.048	Pitch:	2.675	Yaw:	44.634	Thrust:	100.000
Time:	4.793	Roll Set Point:	0.109	Pitch Set Point:	-0.095	Yaw Set Point:	-0.535	X_WP:	0.100	Y_WP:	0.000	Y_WP:	0.500	X:	-0.017	Y:	0.019	Z:	0.075	yaw:	30.673	yaw rate:	-3.271	Roll:	-3.212	Pitch:	2.692	Yaw:	43.557	Thrust:	100.000
Time:	4.804	Roll Set Point:	0.109	Pitch Set Point:	-0.095	Yaw Set Point:	-0.535	X_WP:	0.100	Y_WP:	0.000	Y_WP:	0.500	X:	-0.017	Y:	0.019	Z:	0.075	yaw:	30.659	yaw rate:	-1.472	Roll:	-3.086	Pitch:	2.596	Yaw:	43.563	Thrust:	100.000
Time:	4.814	Roll Set Point:	0.109	Pitch Set Point:	-0.095	Yaw Set Point:	-0.535	X_WP:	0.100	Y_WP:	0.000	Y_WP:	0.500	X:	-0.017	Y:	0.019	Z:	0.075	yaw:	30.681	yaw rate:	2.190	Roll:	-3.027	Pitch:	2.607	Yaw:	44.413	Thrust:	100.000
Time:	4.830	Roll Set Point:	0.109	Pitch Set Point:	-0.095	Yaw Set Point:	-0.536	X_WP:	0.100	Y_WP:	0.000	Y_WP:	0.500	X:	-0.017	Y:	0.019	Z:	0.075	yaw:	30.703	yaw rate:	2.281	Roll:	-3.169	Pitch:	2.806	Yaw:	44.812	Thrust:	100.000
Time:	4.840	Roll Set Point:	0.109	Pitch Set Point:	-0.095	Yaw Set Point:	-0.535	X_WP:	0.100	Y_WP:	0.000	Y_WP:	0.500	X:	-0.017	Y:	0.019	Z:	0.075	yaw:	30.670	yaw rate:	-3.338	Roll:	-3.146	Pitch:	2.549	Yaw:	43.065	Thrust:	100.000
Time:	4.853	Roll Set Point:	0.109	Pitch Set Point:	-0.095	Yaw Set Point:	-0.536	X_WP:	0.100	Y_WP:	0.000	Y_WP:	0.500	X:	-0.017	Y:	0.019	Z:	0.075	yaw:	30.685	yaw rate:	1.529	Roll:	-3.012	Pitch:	2.661	Yaw:	44.456	Thrust:	100.000
Time:	4.865	Roll Set Point:	0.109	Pitch Set Point:	-0.095	Yaw Set Point:	-0.535	X_WP:	0.100	Y_WP:	0.000	Y_WP:	0.500	X:	-0.017	Y:	0.019	Z:	0.075	yaw:	30.682	yaw rate:	1.496	Roll:	-3.164	Pitch:	2.677	Yaw:	43.859	Thrust:	100.000
Time:	4.875	Roll Set Point:	0.109	Pitch Set Point:	-0.095	Yaw Set Point:	-0.535	X_WP:	0.100	Y_WP:	0.000	Y_WP:	0.500	X:	-0.017	Y:	0.019	Z:	0.075	yaw:	30.676	yaw rate:	-0.630	Roll:	-3.019	Pitch:	2.562	Yaw:	43.728	Thrust:	100.000
Time:	4.888	Roll Set Point:	0.109	Pitch Set Point:	-0.095	Yaw Set Point:	-0.536	X_WP:	0.100	Y_WP:	0.000	Y_WP:	0.500	X:	-0.017	Y:	0.019	Z:	0.075	yaw:	30.701	yaw rate:	2.530	Roll:	-3.032	Pitch:	2.680	Yaw:	44.678	Thrust:	100.000
Time:	4.900	Roll Set Point:	0.109	Pitch Set Point:	-0.095	Yaw Set Point:	-0.536	X_WP:	0.100	Y_WP:	0.000	Y_WP:	0.500	X:	-0.017	Y:	0.019	Z:	0.075	yaw:	30.691	yaw rate:	-0.956	Roll:	-3.150	Pitch:	2.655	Yaw:	43.790	Thrust:	100.000
Time:	4.911	Roll Set Point:	0.109	Pitch Set Point:	-0.095	Yaw Set Point:	-0.536	X_WP:	0.100	Y_WP:	0.000	Y_WP:	0.500	X:	-0.017	Y:	0.019	Z:	0.075	yaw:	30.701	yaw rate:	0.921	Roll:	-3.071	Pitch:	2.659	Yaw:	44.190	Thrust:	100.000
Time:	4.922	Roll Set Point:	0.109	Pitch Set Point:	-0.095	Yaw Set Point:	-0.536	X_WP:	0.100	Y_WP:	0.000	Y_WP:	0.500	X:	-0.017	Y:	0.019	Z:	0.075	yaw:	30.689	yaw rate:	-1.107	Roll:	-3.092	Pitch:	2.591	Yaw:	43.753	Thrust:	100.000
Time:	4.933	Roll Set Point:	0.109	Pitch Set Point:	-0.095	Yaw Set Point:	-0.535	X_WP:	0.100	Y_WP:	0.000	Y_WP:	0.500	X:	-0.017	Y:	0.019	Z:	0.075	yaw:	30.671	yaw rate:	-1.849	Roll:	-3.075	Pitch:	2.548	Yaw:	43.418	Thrust:	100.000
Time:	4.943	Roll Set Point:	0.109	Pitch Set Point:	-0.095	Yaw Set Point:	-0.536	X_WP:	0.100	Y_WP:	0.000	Y_WP:	0.500	X:	-0.017	Y:	0.019	Z:	0.075	yaw:	30.713	yaw rate:	4.160	Roll:	-2.958	Pitch:	2.698	Yaw:	44.971	Thrust:	100.000
Time:	4.956	Roll Set Point:	0.109	Pitch Set Point:	-0.095	Yaw Set Point:	-0.536	X_WP:	0.100	Y_WP:	0.000	Y_WP:	0.500	X:	-0.017	Y:	0.019	Z:	0.075	yaw:	30.684	yaw rate:	-2.900	Roll:	-3.193	Pitch:	2.658	Yaw:	43.635	Thrust:	100.000
Time:	4.968	Roll Set Point:	0.109	Pitch Set Point:	-0.095	Yaw Set Point:	-0.536	X_WP:	0.100	Y_WP:	0.000	Y_WP:	0.500	X:	-0.017	Y:	0.019	Z:	0.075	yaw:	30.683	yaw rate:	-0.082	Roll:	-3.079	Pitch:	2.604	Yaw:	43.975	Thrust:	100.000
Time:	4.978	Roll Set Point:	0.109	Pitch Set Point:	-0.095	Yaw Set Point:	-0.535	X_WP:	0.100	Y_WP:	0.000	Y_WP:	0.500	X:	-0.017	Y:	0.019	Z:	0.075	yaw:	30.678	yaw rate:	-0.434	Roll:	-3.055	Pitch:	2.608	Yaw:	43.784	Thrust:	100.000
Time:	4.993	Roll Set Point:	0.109	Pitch Set Point:	-0.095	Yaw Set Point:	-0.536	X_WP:	0.100	Y_WP:	0.000	Y_WP:	0.500	X:	-0.017	Y:	0.019	Z:	0.075	yaw:	30.703	yaw rate:	2.483	Roll:	-3.125	Pitch:	2.763	Yaw:	44.741	Thrust:	100.000
Time:	5.004	Roll Set Point:	0.109	Pitch Set Point:	-0.095	Yaw Set Point:	-0.536	X_WP:	0.100	Y_WP:	0.000	Y_WP:	0.500	X:	-0.017	Y:	0.019	Z:	0.075	yaw:	30.698	yaw rate:	-0.561	Roll:	-3.081	Pitch:	2.598	Yaw:	43.832	Thrust:	100.000
Time:	5.017	Roll Set Point:	0.109	Pitch Set Point:	-0.095	Yaw Set Point:	-0.535	X_WP:	0.100	Y_WP:	0.000	Y_WP:	0.500	X:	-0.017	Y:	0.019	Z:	0.075	yaw:	30.677	yaw rate:	0.986	Roll:	-3.139	Pitch:	2.668	Yaw:	43.705	Thrust:	100.000
Time:	5.030	Roll Set Point:	0.109	Pitch Set Point:	-0.095	Yaw Set Point:	-0.536	X_WP:	0.100	Y_WP:	0.000	Y_WP:	0.500	X:	-0.017	Y:	0.019	Z:	0.075	yaw:	30.706	yaw rate:	2.825	Roll:	-3.137	Pitch:	2.733	Yaw:	44.772	Thrust:	100.000
Time:	5.041	Roll Set Point:	0.109	Pitch Set Point:	-0.095	Yaw Set Point:	-0.536	X_WP:	0.100	Y_WP:	0.000	Y_WP:	0.500	X:	-0.017	Y:	0.019	Z:	0.075	yaw:	30.689	yaw rate:	-1.608	Roll:	-3.102	Pitch:	2.591	Yaw:	43.506	Thrust:	100.000
Time:	5.054	Roll Set Point:	0.109	Pitch Set Point:	-0.095	Yaw Set Point:	-0.536	X_WP:	0.100	Y_WP:	0.000	Y_WP:	0.500	X:	-0.017	Y:	0.019	Z:	0.075	yaw:	30.692	yaw rate:	0.220	Roll:	-3.052	Pitch:	2.661	Yaw:	44.202	Thrust:	100.000
Time:	5.067	Roll Set Point:	0.109	Pitch Set Point:	-0.095	Yaw Set Point:	-0.535	X_WP:	0.100	Y_WP:	0.000	Y_WP:	0.500	X:	-0.017	Y:	0.019	Z:	0.075	yaw:	30.674	yaw rate:	-1.801	Roll:	-3.203	Pitch:	2.665	Yaw:	43.770	Thrust:	100.000
Time:	5.080	Roll Set Point:	0.109	Pitch Set Point:	-0.095	Yaw Set Point:	-0.535	X_WP:	0.100	Y_WP:	0.000	Y_WP:	0.500	X:	-0.017	Y:	0.019	Z:	0.075	yaw:	30.682	yaw rate:	0.785	Roll:	-3.087	Pitch:	2.671	Yaw:	44.345	Thrust:	100.000
Time:	5.095	Roll Set Point:	0.109	Pitch Set Point:	-0.095	Yaw Set Point:	-0.535	X_WP:	0.100	Y_WP:	0.000	Y_WP:	0.500	X:	-0.017	Y:	0.019	Z:	0.075	yaw:	30.672	yaw rate:	-0.707	Roll:	-3.285	Pitch:	2.808	Yaw:	44.105	Thrust:	100.000
Time:	5.106	Roll Set Point:	0.109	Pitch Set Point:	-0.095	Yaw Set Point:	-0.535	X_WP:	0.100	Y_WP:	0.000	Y_WP:	0.500	X:	-0.017	Y:	0.019	Z:	0.075	yaw:	30.673	yaw rate:	0.009	Roll:	-3.048	Pitch:	2.622	Yaw:	43.987	Thrust:	100.000
Time:	5.124	Roll Set Point:	0.109	Pitch Set Point:	-0.095	Yaw Set Point:	-0.536	X_WP:	0.100	Y_WP:	0.000	Y_WP:	0.500	X:	-0.017	Y:	0.019	Z:	0.075	yaw:	30.686	yaw rate:	1.363	Roll:	-3.075	Pitch:	2.746	Yaw:	44.765	Thrust:	100.000
Time:	5.136	Roll Set Point:	0.109	Pitch Set Point:	-0.095	Yaw Set Point:	-0.536	X_WP:	0.100	Y_WP:	0.000	Y_WP:	0.500	X:	-0.017	Y:	0.019	Z:	0.075	yaw:	30.684	yaw rate:	0.313	Roll:	-3.280	Pitch:	2.760	Yaw:	44.061	Thrust:	100.000
Time:	5.157	Roll Set Point:	0.109	Pitch Set Point:	-0.095	Yaw Set Point:	-0.536	X_WP:	0.100	Y_WP:	0.000	Y_WP:	0.500	X:	-0.017	Y:	0.019	Z:	0.075	yaw:	30.689	yaw rate:	0.430	Roll:	-3.204	Pitch:	2.865	Yaw:	44.960	Thrust:	100.000
Time:	5.169	Roll Set Point:	0.109	Pitch Set Point:	-0.095	Yaw Set Point:	-0.536	X_WP:	0.100	Y_WP:	0.000	Y_WP:	0.500	X:	-0.017	Y:	0.019	Z:	0.075	yaw:	30.698	yaw rate:	3.078	Roll:	-3.329	Pitch:	2.790	Yaw:	44.299	Thrust:	100.000
Time:	5.184	Roll Set Point:	0.109	Pitch Set Point:	-0.095	Yaw Set Point:	-0.535	X_WP:	0.100	Y_WP:	0.000	Y_WP:	0.500	X:	-0.017	Y:	0.019	Z:	0.075	yaw:	30.680	yaw rate:	-1.755	Roll:	-3.174	Pitch:	2.704	Yaw:	43.914	Thrust:	100.000
Time:	5.198	Roll Set Point:	0.109	Pitch Set Point:	-0.095	Yaw Set Point:	-0.535	X_WP:	0.100	Y_WP:	0.000	Y_WP:	0.500	X:	-0.017	Y:	0.019	Z:	0.075	yaw:	30.682	yaw rate:	0.185	Roll:	-3.246	Pitch:	2.792	Yaw:	44.379	Thrust:	100.000
Time:	5.210	Roll Set Point:	0.109	Pitch Set Point:	-0.095	Yaw Set Point:	-0.536	X_WP:	0.100	Y_WP:	0.000	Y_WP:	0.500	X:	-0.017	Y:	0.019	Z:	0.075	yaw:	30.700	yaw rate:	2.642	Roll:	-3.087	Pitch:	2.662	Yaw:	44.405	Thrust:	100.000
Time:	5.227	Roll Set Point:	0.109	Pitch Set Point:	-0.095	Yaw Set Point:	-0.536	X_WP:	0.100	Y_WP:	0.000	Y_WP:	0.500	X:	-0.017	Y:	0.019	Z:	0.075	yaw:	30.700	yaw rate:	2.642	Roll:	-3.137	Pitch:	2.786	Yaw:	44.624	Thrust:	100.000
Time:	5.241	Roll Set Point:	0.109	Pitch Set Point:	-0.095	Yaw Set Point:	-0.536	X_WP:	0.100	Y_WP:	0.000	Y_WP:	0.500	X:	-0.017	Y:	0.019	Z:	0.075	yaw:	30.694	yaw rate:	0.715	Roll:	-3.252	Pitch:	2.754	Yaw:	44.022	Thrust:	100.000
Time:	5.256	Roll Set Point:	0.109	Pitch Set Point:	-0.095	Yaw Set Point:	-0.536	X_WP:	0.100	Y_WP:	0.000	Y_WP:	0.500	X:	-0.017	Y:	0.019	Z:	0.075	yaw:	30.705	yaw rate:	1.139	Roll:	-3.132	Pitch:	2.715	Yaw:	44.574	Thrust:	100.000
Time:	5.267	Roll Set Point:	0.109	Pitch Set Point:	-0.095	Yaw Set Point:	-0.536	X_WP:	0.100	Y_WP:	0.000	Y_WP:	0.500	X:	-0.017	Y:	0.019	Z:	0.075	yaw:	30.684	yaw rate:	-1.374	Roll:	-3.229	Pitch:	2.701	Yaw:	43.656	Thrust:	100.000
Time:	5.282	Roll Set Point:	0.109	Pitch Set Point:	-0.095	Yaw Set Point:	-0.536	X_WP:	0.100	Y_WP:	0.000	Y_WP:	0.500	X:	-0.017	Y:	0.019	Z:	0.075	yaw:	30.699	yaw rate:	1.520	Roll:	-3.047	Pitch:	2.671	Yaw:	44.438	Thrust:	100.000
Time:	5.295	Roll Set Point:	0.109	Pitch Set Point:	-0.095	Yaw Set Point:	-0.535	X_WP:	0.100	Y_WP:	0.000	Y_WP:	0.500	X:	-0.017	Y:	0.019	Z:	0.075	yaw:	30.680	yaw rate:	-1.949	Roll:	-3.271	Pitch:	2.763	Yaw:	43.940	Thrust:	100.000
Time:	5.306	Roll Set Point:	0.109	Pitch Set Point:	-0.095	Yaw Set Point:	-0.536	X_WP:	0.100	Y_WP:	0.000	Y_WP:	0.500	X:	-0.017	Y:	0.019	Z:	0.075	yaw:	30.690	yaw rate:	1.025	Roll:	-3.057	Pitch:	2.605	Yaw:	44.239	Thrust:	100.000
Time:	5.323	Roll Set Point:	0.109	Pitch Set Point:	-0.095	Yaw Set Point:	-0.536	X_WP:	0.100	Y_WP:	0.000	Y_WP:	0.500	X:	-0.017	Y:	0.019	Z:	0.075	yaw:	30.706	yaw rate:	1.650	Roll:	-3.023	Pitch:	2.724	Yaw:	44.793	Thrust:	100.000
