Time:	2.058	Roll Set Point:	-0.001	Pitch Set Point:	-0.015	Yaw Set Point:	-0.008	X_WP:	0.000	Y_WP:	0.000	Y_WP:	0.500	X:	0.000	Y:	0.008	Z:	0.050	yaw:	0.481	yaw rate:	1.115	Roll:	0.015	Pitch:	0.220	Yaw:	0.671	Thrust:	24.764
Time:	2.069	Roll Set Point:	-0.001	Pitch Set Point:	-0.015	Yaw Set Point:	-0.008	X_WP:	0.000	Y_WP:	0.000	Y_WP:	0.500	X:	0.000	Y:	0.008	Z:	0.050	yaw:	0.471	yaw rate:	-1.027	Roll:	0.045	Pitch:	0.250	Yaw:	0.416	Thrust:	25.430
Time:	2.080	Roll Set Point:	-0.001	Pitch Set Point:	-0.015	Yaw Set Point:	-0.008	X_WP:	0.000	Y_WP:	0.000	Y_WP:	0.500	X:	0.000	Y:	0.008	Z:	0.050	yaw:	0.468	yaw rate:	-0.230	Roll:	0.021	Pitch:	0.221	Yaw:	0.603	Thrust:	25.834
Time:	2.091	Roll Set Point:	-0.001	Pitch Set Point:	-0.016	Yaw Set Point:	-0.012	X_WP:	0.000	Y_WP:	0.000	Y_WP:	0.500	X:	0.001	Y:	0.008	Z:	0.050	yaw:	0.683	yaw rate:	21.466	Roll:	0.200	Pitch:	0.460	Yaw:	6.054	Thrust:	26.563
Time:	2.102	Roll Set Point:	-0.001	Pitch Set Point:	-0.016	Yaw Set Point:	-0.013	X_WP:	0.000	Y_WP:	0.000	Y_WP:	0.500	X:	0.001	Y:	0.008	Z:	0.050	yaw:	0.727	yaw rate:	4.404	Roll:	0.070	Pitch:	0.233	Yaw:	2.069	Thrust:	27.356
Time:	2.113	Roll Set Point:	-0.001	Pitch Set Point:	-0.015	Yaw Set Point:	-0.008	X_WP:	0.000	Y_WP:	0.000	Y_WP:	0.500	X:	0.000	Y:	0.008	Z:	0.050	yaw:	0.441	yaw rate:	-28.569	Roll:	-0.182	Pitch:	0.149	Yaw:	-6.168	Thrust:	27.304
Time:	2.124	Roll Set Point:	-0.001	Pitch Set Point:	-0.015	Yaw Set Point:	-0.016	X_WP:	0.000	Y_WP:	0.000	Y_WP:	0.500	X:	0.000	Y:	0.008	Z:	0.050	yaw:	0.906	yaw rate:	46.486	Roll:	-0.081	Pitch:	0.226	Yaw:	12.312	Thrust:	29.364
Time:	2.135	Roll Set Point:	-0.001	Pitch Set Point:	-0.015	Yaw Set Point:	-0.017	X_WP:	0.000	Y_WP:	0.000	Y_WP:	0.500	X:	0.001	Y:	0.008	Z:	0.049	yaw:	0.974	yaw rate:	6.758	Roll:	0.350	Pitch:	0.031	Yaw:	2.963	Thrust:	29.427
Time:	2.147	Roll Set Point:	-0.001	Pitch Set Point:	-0.015	Yaw Set Point:	-0.011	X_WP:	0.000	Y_WP:	0.000	Y_WP:	0.500	X:	0.000	Y:	0.008	Z:	0.050	yaw:	0.628	yaw rate:	-34.561	Roll:	-0.179	Pitch:	0.159	Yaw:	-6.893	Thrust:	29.118
Time:	2.158	Roll Set Point:	-0.001	Pitch Set Point:	-0.015	Yaw Set Point:	-0.007	X_WP:	0.000	Y_WP:	0.000	Y_WP:	0.500	X:	0.000	Y:	0.008	Z:	0.050	yaw:	0.391	yaw rate:	-23.706	Roll:	-0.125	Pitch:	0.369	Yaw:	-5.059	Thrust:	29.552
Time:	2.169	Roll Set Point:	-0.001	Pitch Set Point:	-0.015	Yaw Set Point:	-0.012	X_WP:	0.000	Y_WP:	0.000	Y_WP:	0.500	X:	0.000	Y:	0.008	Z:	0.050	yaw:	0.716	yaw rate:	32.466	Roll:	0.132	Pitch:	0.324	Yaw:	8.714	Thrust:	31.799
Time:	2.180	Roll Set Point:	-0.001	Pitch Set Point:	-0.015	Yaw Set Point:	-0.008	X_WP:	0.000	Y_WP:	0.000	Y_WP:	0.500	X:	0.001	Y:	0.008	Z:	0.050	yaw:	0.476	yaw rate:	-23.947	Roll:	0.139	Pitch:	0.105	Yaw:	-5.004	Thrust:	30.453
Time:	2.191	Roll Set Point:	-0.001	Pitch Set Point:	-0.016	Yaw Set Point:	-0.013	X_WP:	0.000	Y_WP:	0.000	Y_WP:	0.500	X:	0.001	Y:	0.008	Z:	0.050	yaw:	0.768	yaw rate:	29.193	Roll:	-0.005	Pitch:	0.440	Yaw:	8.013	Thrust:	32.209
Time:	2.202	Roll Set Point:	-0.001	Pitch Set Point:	-0.015	Yaw Set Point:	-0.017	X_WP:	0.000	Y_WP:	0.000	Y_WP:	0.500	X:	0.001	Y:	0.008	Z:	0.050	yaw:	0.949	yaw rate:	18.033	Roll:	0.109	Pitch:	0.170	Yaw:	5.636	Thrust:	32.407
Time:	2.214	Roll Set Point:	-0.001	Pitch Set Point:	-0.015	Yaw Set Point:	-0.015	X_WP:	0.000	Y_WP:	0.000	Y_WP:	0.500	X:	0.000	Y:	0.008	Z:	0.050	yaw:	0.844	yaw rate:	-10.464	Roll:	-0.263	Pitch:	0.232	Yaw:	-1.083	Thrust:	34.095
Time:	2.225	Roll Set Point:	-0.001	Pitch Set Point:	-0.015	Yaw Set Point:	-0.008	X_WP:	0.000	Y_WP:	0.000	Y_WP:	0.500	X:	0.000	Y:	0.008	Z:	0.050	yaw:	0.460	yaw rate:	-38.383	Roll:	0.034	Pitch:	0.234	Yaw:	-8.432	Thrust:	33.685
Time:	2.236	Roll Set Point:	-0.001	Pitch Set Point:	-0.015	Yaw Set Point:	-0.013	X_WP:	0.000	Y_WP:	0.000	Y_WP:	0.500	X:	0.000	Y:	0.008	Z:	0.050	yaw:	0.730	yaw rate:	26.984	Roll:	0.069	Pitch:	0.210	Yaw:	7.465	Thrust:	34.665
Time:	2.247	Roll Set Point:	-0.001	Pitch Set Point:	-0.016	Yaw Set Point:	-0.012	X_WP:	0.000	Y_WP:	0.000	Y_WP:	0.500	X:	0.000	Y:	0.008	Z:	0.050	yaw:	0.703	yaw rate:	-2.659	Roll:	0.083	Pitch:	0.329	Yaw:	0.392	Thrust:	33.736
Time:	2.258	Roll Set Point:	-0.001	Pitch Set Point:	-0.015	Yaw Set Point:	-0.012	X_WP:	0.000	Y_WP:	0.000	Y_WP:	0.500	X:	0.000	Y:	0.008	Z:	0.050	yaw:	0.661	yaw rate:	-4.256	Roll:	-0.093	Pitch:	-0.059	Yaw:	-0.042	Thrust:	36.479
Time:	2.269	Roll Set Point:	-0.001	Pitch Set Point:	-0.015	Yaw Set Point:	-0.015	X_WP:	0.000	Y_WP:	0.000	Y_WP:	0.500	X:	0.000	Y:	0.008	Z:	0.050	yaw:	0.841	yaw rate:	17.984	Roll:	0.130	Pitch:	0.439	Yaw:	5.490	Thrust:	36.027
Time:	2.280	Roll Set Point:	-0.001	Pitch Set Point:	-0.016	Yaw Set Point:	-0.011	X_WP:	0.000	Y_WP:	0.000	Y_WP:	0.500	X:	0.001	Y:	0.008	Z:	0.050	yaw:	0.633	yaw rate:	-20.745	Roll:	0.202	Pitch:	0.338	Yaw:	-3.979	Thrust:	35.688
Time:	2.291	Roll Set Point:	-0.001	Pitch Set Point:	-0.016	Yaw Set Point:	-0.008	X_WP:	0.000	Y_WP:	0.000	Y_WP:	0.500	X:	0.001	Y:	0.008	Z:	0.050	yaw:	0.486	yaw rate:	-14.711	Roll:	-0.175	Pitch:	0.128	Yaw:	-2.767	Thrust:	37.621
Time:	2.302	Roll Set Point:	-0.001	Pitch Set Point:	-0.015	Yaw Set Point:	-0.008	X_WP:	0.000	Y_WP:	0.000	Y_WP:	0.500	X:	0.001	Y:	0.008	Z:	0.050	yaw:	0.442	yaw rate:	-4.413	Roll:	0.001	Pitch:	0.106	Yaw:	-0.373	Thrust:	37.944
Time:	2.313	Roll Set Point:	-0.001	Pitch Set Point:	-0.015	Yaw Set Point:	-0.016	X_WP:	0.000	Y_WP:	0.000	Y_WP:	0.500	X:	0.000	Y:	0.008	Z:	0.049	yaw:	0.922	yaw rate:	47.971	Roll:	-0.260	Pitch:	0.272	Yaw:	12.730	Thrust:	40.036
Time:	2.324	Roll Set Point:	-0.001	Pitch Set Point:	-0.015	Yaw Set Point:	-0.006	X_WP:	0.000	Y_WP:	0.000	Y_WP:	0.500	X:	0.000	Y:	0.008	Z:	0.050	yaw:	0.354	yaw rate:	-56.730	Roll:	0.240	Pitch:	0.144	Yaw:	-12.934	Thrust:	37.383
Time:	2.335	Roll Set Point:	-0.001	Pitch Set Point:	-0.015	Yaw Set Point:	-0.007	X_WP:	0.000	Y_WP:	0.000	Y_WP:	0.500	X:	0.000	Y:	0.008	Z:	0.050	yaw:	0.380	yaw rate:	2.539	Roll:	-0.031	Pitch:	0.313	Yaw:	1.194	Thrust:	39.930
Time:	2.346	Roll Set Point:	-0.001	Pitch Set Point:	-0.015	Yaw Set Point:	-0.013	X_WP:	0.000	Y_WP:	0.000	Y_WP:	0.500	X:	0.000	Y:	0.008	Z:	0.050	yaw:	0.743	yaw rate:	36.282	Roll:	0.137	Pitch:	0.280	Yaw:	9.713	Thrust:	40.894
Time:	2.357	Roll Set Point:	-0.001	Pitch Set Point:	-0.015	Yaw Set Point:	-0.010	X_WP:	0.000	Y_WP:	0.000	Y_WP:	0.500	X:	0.000	Y:	0.008	Z:	0.049	yaw:	0.568	yaw rate:	-17.494	Roll:	-0.083	Pitch:	0.193	Yaw:	-3.294	Thrust:	41.501
Time:	2.368	Roll Set Point:	-0.001	Pitch Set Point:	-0.016	Yaw Set Point:	-0.007	X_WP:	0.000	Y_WP:	0.000	Y_WP:	0.500	X:	0.000	Y:	0.008	Z:	0.050	yaw:	0.379	yaw rate:	-18.843	Roll:	0.039	Pitch:	0.318	Yaw:	-3.883	Thrust:	40.762
Time:	2.380	Roll Set Point:	-0.001	Pitch Set Point:	-0.015	Yaw Set Point:	-0.010	X_WP:	0.000	Y_WP:	0.000	Y_WP:	0.500	X:	0.001	Y:	0.008	Z:	0.050	yaw:	0.589	yaw rate:	20.963	Roll:	0.111	Pitch:	0.113	Yaw:	5.858	Thrust:	42.053
Time:	2.391	Roll Set Point:	-0.001	Pitch Set Point:	-0.016	Yaw Set Point:	-0.013	X_WP:	0.000	Y_WP:	0.000	Y_WP:	0.500	X:	0.000	Y:	0.008	Z:	0.050	yaw:	0.762	yaw rate:	17.321	Roll:	0.022	Pitch:	0.355	Yaw:	5.249	Thrust:	42.476
Time:	2.402	Roll Set Point:	-0.001	Pitch Set Point:	-0.015	Yaw Set Point:	-0.007	X_WP:	0.000	Y_WP:	0.000	Y_WP:	0.500	X:	0.000	Y:	0.008	Z:	0.050	yaw:	0.425	yaw rate:	-33.672	Roll:	-0.067	Pitch:	-0.088	Yaw:	-7.317	Thrust:	42.606
Time:	2.413	Roll Set Point:	-0.001	Pitch Set Point:	-0.015	Yaw Set Point:	-0.008	X_WP:	0.000	Y_WP:	0.000	Y_WP:	0.500	X:	0.000	Y:	0.008	Z:	0.050	yaw:	0.444	yaw rate:	1.858	Roll:	0.013	Pitch:	0.398	Yaw:	1.139	Thrust:	43.725
Time:	2.424	Roll Set Point:	-0.001	Pitch Set Point:	-0.015	Yaw Set Point:	-0.015	X_WP:	0.000	Y_WP:	0.000	Y_WP:	0.500	X:	0.001	Y:	0.008	Z:	0.050	yaw:	0.875	yaw rate:	43.156	Roll:	0.332	Pitch:	0.174	Yaw:	11.544	Thrust:	45.193
Time:	2.436	Roll Set Point:	-0.001	Pitch Set Point:	-0.015	Yaw Set Point:	-0.007	X_WP:	0.000	Y_WP:	0.000	Y_WP:	0.500	X:	0.000	Y:	0.008	Z:	0.050	yaw:	0.381	yaw rate:	-23.630	Roll:	-0.269	Pitch:	0.321	Yaw:	-10.129	Thrust:	46.624
Time:	2.448	Roll Set Point:	-0.001	Pitch Set Point:	-0.015	Yaw Set Point:	-0.013	X_WP:	0.000	Y_WP:	0.000	Y_WP:	0.500	X:	0.000	Y:	0.008	Z:	0.050	yaw:	0.759	yaw rate:	37.751	Roll:	0.106	Pitch:	0.146	Yaw:	9.432	Thrust:	47.308
Time:	2.459	Roll Set Point:	-0.001	Pitch Set Point:	-0.015	Yaw Set Point:	-0.009	X_WP:	0.000	Y_WP:	0.000	Y_WP:	0.500	X:	0.001	Y:	0.008	Z:	0.050	yaw:	0.537	yaw rate:	-22.152	Roll:	0.143	Pitch:	0.217	Yaw:	-4.435	Thrust:	46.469
Time:	2.470	Roll Set Point:	-0.001	Pitch Set Point:	-0.015	Yaw Set Point:	-0.010	X_WP:	0.000	Y_WP:	0.000	Y_WP:	0.500	X:	0.001	Y:	0.008	Z:	0.050	yaw:	0.571	yaw rate:	3.410	Roll:	-0.011	Pitch:	0.238	Yaw:	1.696	Thrust:	46.823
Time:	2.481	Roll Set Point:	-0.001	Pitch Set Point:	-0.015	Yaw Set Point:	-0.006	X_WP:	0.000	Y_WP:	0.000	Y_WP:	0.500	X:	0.000	Y:	0.008	Z:	0.050	yaw:	0.369	yaw rate:	-20.285	Roll:	-0.205	Pitch:	0.190	Yaw:	-4.196	Thrust:	46.837
Time:	2.492	Roll Set Point:	-0.001	Pitch Set Point:	-0.015	Yaw Set Point:	-0.011	X_WP:	0.000	Y_WP:	0.000	Y_WP:	0.500	X:	0.001	Y:	0.008	Z:	0.050	yaw:	0.612	yaw rate:	24.389	Roll:	0.261	Pitch:	0.354	Yaw:	6.736	Thrust:	48.463
Time:	2.503	Roll Set Point:	-0.001	Pitch Set Point:	-0.015	Yaw Set Point:	-0.015	X_WP:	0.000	Y_WP:	0.000	Y_WP:	0.500	X:	0.000	Y:	0.008	Z:	0.050	yaw:	0.850	yaw rate:	23.754	Roll:	-0.189	Pitch:	0.152	Yaw:	6.866	Thrust:	49.034
Time:	2.514	Roll Set Point:	-0.001	Pitch Set Point:	-0.015	Yaw Set Point:	-0.013	X_WP:	0.000	Y_WP:	0.000	Y_WP:	0.500	X:	0.001	Y:	0.008	Z:	0.050	yaw:	0.764	yaw rate:	-8.601	Roll:	0.225	Pitch:	0.320	Yaw:	-0.882	Thrust:	48.706
Time:	2.525	Roll Set Point:	-0.001	Pitch Set Point:	-0.015	Yaw Set Point:	-0.011	X_WP:	0.000	Y_WP:	0.000	Y_WP:	0.500	X:	0.001	Y:	0.008	Z:	0.050	yaw:	0.642	yaw rate:	-12.203	Roll:	-0.018	Pitch:	-0.013	Yaw:	-1.892	Thrust:	49.390
Time:	2.536	Roll Set Point:	-0.001	Pitch Set Point:	-0.015	Yaw Set Point:	-0.017	X_WP:	0.000	Y_WP:	0.000	Y_WP:	0.500	X:	0.001	Y:	0.008	Z:	0.050	yaw:	0.992	yaw rate:	34.982	Roll:	0.057	Pitch:	0.428	Yaw:	9.790	Thrust:	51.161
Time:	2.547	Roll Set Point:	-0.001	Pitch Set Point:	-0.015	Yaw Set Point:	-0.009	X_WP:	0.000	Y_WP:	0.000	Y_WP:	0.500	X:	0.000	Y:	0.008	Z:	0.050	yaw:	0.503	yaw rate:	-48.924	Roll:	-0.372	Pitch:	0.288	Yaw:	-10.805	Thrust:	51.244
Time:	2.558	Roll Set Point:	-0.001	Pitch Set Point:	-0.015	Yaw Set Point:	-0.013	X_WP:	0.000	Y_WP:	0.000	Y_WP:	0.500	X:	0.000	Y:	0.008	Z:	0.050	yaw:	0.760	yaw rate:	25.717	Roll:	0.242	Pitch:	0.178	Yaw:	7.289	Thrust:	51.700
Time:	2.569	Roll Set Point:	-0.001	Pitch Set Point:	-0.015	Yaw Set Point:	-0.013	X_WP:	0.000	Y_WP:	0.000	Y_WP:	0.500	X:	0.000	Y:	0.008	Z:	0.050	yaw:	0.762	yaw rate:	0.257	Roll:	0.012	Pitch:	0.254	Yaw:	1.237	Thrust:	52.003
Time:	2.580	Roll Set Point:	-0.001	Pitch Set Point:	-0.015	Yaw Set Point:	-0.016	X_WP:	0.000	Y_WP:	0.000	Y_WP:	0.500	X:	0.001	Y:	0.008	Z:	0.050	yaw:	0.888	yaw rate:	12.605	Roll:	0.112	Pitch:	0.175	Yaw:	4.346	Thrust:	52.681
Time:	2.591	Roll Set Point:	-0.001	Pitch Set Point:	-0.015	Yaw Set Point:	-0.009	X_WP:	0.000	Y_WP:	0.000	Y_WP:	0.500	X:	0.001	Y:	0.008	Z:	0.050	yaw:	0.494	yaw rate:	-39.474	Roll:	0.054	Pitch:	0.244	Yaw:	-8.587	Thrust:	52.867
Time:	2.602	Roll Set Point:	-0.001	Pitch Set Point:	-0.015	Yaw Set Point:	-0.015	X_WP:	0.000	Y_WP:	0.000	Y_WP:	0.500	X:	0.001	Y:	0.008	Z:	0.050	yaw:	0.856	yaw rate:	36.234	Roll:	0.116	Pitch:	0.118	Yaw:	9.894	Thrust:	53.919
Time:	2.613	Roll Set Point:	-0.001	Pitch Set Point:	-0.015	Yaw Set Point:	-0.008	X_WP:	0.000	Y_WP:	0.000	Y_WP:	0.500	X:	0.001	Y:	0.007	Z:	0.050	yaw:	0.454	yaw rate:	-40.146	Roll:	-0.032	Pitch:	0.078	Yaw:	-8.796	Thrust:	54.487
Time:	2.624	Roll Set Point:	-0.001	Pitch Set Point:	-0.015	Yaw Set Point:	-0.006	X_WP:	0.000	Y_WP:	0.000	Y_WP:	0.500	X:	0.001	Y:	0.008	Z:	0.050	yaw:	0.334	yaw rate:	-12.079	Roll:	0.065	Pitch:	0.241	Yaw:	-2.276	Thrust:	55.428
Time:	2.635	Roll Set Point:	-0.001	Pitch Set Point:	-0.015	Yaw Set Point:	-0.011	X_WP:	0.000	Y_WP:	0.000	Y_WP:	0.500	X:	0.001	Y:	0.008	Z:	0.050	yaw:	0.650	yaw rate:	31.642	Roll:	0.147	Pitch:	0.415	Yaw:	8.532	Thrust:	54.485
Time:	2.647	Roll Set Point:	-0.001	Pitch Set Point:	-0.015	Yaw Set Point:	-0.006	X_WP:	0.000	Y_WP:	0.000	Y_WP:	0.500	X:	0.001	Y:	0.008	Z:	0.050	yaw:	0.349	yaw rate:	-30.118	Roll:	-0.119	Pitch:	0.215	Yaw:	-5.937	Thrust:	58.639
Time:	2.658	Roll Set Point:	-0.001	Pitch Set Point:	-0.015	Yaw Set Point:	-0.009	X_WP:	0.000	Y_WP:	0.000	Y_WP:	0.500	X:	0.001	Y:	0.008	Z:	0.050	yaw:	0.540	yaw rate:	19.154	Roll:	0.139	Pitch:	0.284	Yaw:	5.431	Thrust:	56.237
Time:	2.669	Roll Set Point:	-0.001	Pitch Set Point:	-0.015	Yaw Set Point:	-0.015	X_WP:	0.000	Y_WP:	0.000	Y_WP:	0.500	X:	0.001	Y:	0.008	Z:	0.050	yaw:	0.834	yaw rate:	29.362	Roll:	-0.140	Pitch:	0.245	Yaw:	8.253	Thrust:	58.006
Time:	2.680	Roll Set Point:	-0.001	Pitch Set Point:	-0.015	Yaw Set Point:	-0.011	X_WP:	0.000	Y_WP:	0.000	Y_WP:	0.500	X:	0.001	Y:	0.008	Z:	0.050	yaw:	0.633	yaw rate:	-20.086	Roll:	-0.096	Pitch:	0.241	Yaw:	-3.758	Thrust:	57.094
Time:	2.691	Roll Set Point:	-0.001	Pitch Set Point:	-0.015	Yaw Set Point:	-0.015	X_WP:	0.000	Y_WP:	0.000	Y_WP:	0.500	X:	0.000	Y:	0.008	Z:	0.050	yaw:	0.869	yaw rate:	23.543	Roll:	-0.337	Pitch:	0.227	Yaw:	6.939	Thrust:	59.105
Time:	2.702	Roll Set Point:	-0.001	Pitch Set Point:	-0.016	Yaw Set Point:	-0.024	X_WP:	0.000	Y_WP:	0.000	Y_WP:	0.500	X:	0.000	Y:	0.008	Z:	0.051	yaw:	1.366	yaw rate:	49.717	Roll:	0.184	Pitch:	0.779	Yaw:	13.827	Thrust:	57.248
Time:	2.713	Roll Set Point:	-0.000	Pitch Set Point:	-0.016	Yaw Set Point:	-0.021	X_WP:	0.000	Y_WP:	0.000	Y_WP:	0.500	X:	0.000	Y:	0.008	Z:	0.051	yaw:	1.214	yaw rate:	-15.227	Roll:	-0.443	Pitch:	0.244	Yaw:	-1.775	Thrust:	60.834
Time:	2.724	Roll Set Point:	-0.000	Pitch Set Point:	-0.016	Yaw Set Point:	-0.029	X_WP:	0.000	Y_WP:	0.000	Y_WP:	0.500	X:	0.000	Y:	0.008	Z:	0.051	yaw:	1.674	yaw rate:	46.001	Roll:	0.247	Pitch:	0.608	Yaw:	13.426	Thrust:	58.485
Time:	2.735	Roll Set Point:	-0.000	Pitch Set Point:	-0.017	Yaw Set Point:	-0.033	X_WP:	0.000	Y_WP:	0.000	Y_WP:	0.500	X:	-0.000	Y:	0.008	Z:	0.051	yaw:	1.869	yaw rate:	19.580	Roll:	-0.280	Pitch:	0.536	Yaw:	7.415	Thrust:	59.856
Time:	2.746	Roll Set Point:	0.001	Pitch Set Point:	-0.017	Yaw Set Point:	-0.031	X_WP:	0.000	Y_WP:	0.000	Y_WP:	0.500	X:	-0.000	Y:	0.008	Z:	0.052	yaw:	1.788	yaw rate:	-8.114	Roll:	-0.451	Pitch:	0.398	Yaw:	0.736	Thrust:	60.618
Time:	2.758	Roll Set Point:	0.001	Pitch Set Point:	-0.017	Yaw Set Point:	-0.040	X_WP:	0.000	Y_WP:	0.000	Y_WP:	0.500	X:	-0.001	Y:	0.009	Z:	0.052	yaw:	2.295	yaw rate:	50.716	Roll:	-0.685	Pitch:	0.652	Yaw:	15.386	Thrust:	61.239
Time:	2.769	Roll Set Point:	0.002	Pitch Set Point:	-0.018	Yaw Set Point:	-0.040	X_WP:	0.000	Y_WP:	0.000	Y_WP:	0.500	X:	-0.001	Y:	0.009	Z:	0.052	yaw:	2.296	yaw rate:	0.087	Roll:	-0.426	Pitch:	0.565	Yaw:	3.415	Thrust:	62.843
Time:	2.780	Roll Set Point:	0.003	Pitch Set Point:	-0.018	Yaw Set Point:	-0.042	X_WP:	0.000	Y_WP:	0.000	Y_WP:	0.500	X:	-0.001	Y:	0.009	Z:	0.053	yaw:	2.399	yaw rate:	10.324	Roll:	-0.408	Pitch:	0.348	Yaw:	6.009	Thrust:	61.965
Time:	2.791	Roll Set Point:	0.003	Pitch Set Point:	-0.018	Yaw Set Point:	-0.046	X_WP:	0.000	Y_WP:	0.000	Y_WP:	0.500	X:	-0.002	Y:	0.009	Z:	0.053	yaw:	2.628	yaw rate:	22.870	Roll:	-0.526	Pitch:	0.697	Yaw:	9.310	Thrust:	62.025
Time:	2.802	Roll Set Point:	0.004	Pitch Set Point:	-0.018	Yaw Set Point:	-0.038	X_WP:	0.000	Y_WP:	0.000	Y_WP:	0.500	X:	-0.002	Y:	0.009	Z:	0.053	yaw:	2.166	yaw rate:	-46.209	Roll:	-0.978	Pitch:	0.238	Yaw:	-7.735	Thrust:	62.816
Time:	2.813	Roll Set Point:	0.006	Pitch Set Point:	-0.019	Yaw Set Point:	-0.042	X_WP:	0.000	Y_WP:	0.000	Y_WP:	0.500	X:	-0.003	Y:	0.009	Z:	0.054	yaw:	2.427	yaw rate:	26.130	Roll:	-0.980	Pitch:	0.672	Yaw:	9.809	Thrust:	62.642
Time:	2.824	Roll Set Point:	0.007	Pitch Set Point:	-0.020	Yaw Set Point:	-0.055	X_WP:	0.000	Y_WP:	0.000	Y_WP:	0.500	X:	-0.004	Y:	0.010	Z:	0.055	yaw:	3.139	yaw rate:	71.129	Roll:	-0.796	Pitch:	1.234	Yaw:	21.492	Thrust:	60.781
Time:	2.835	Roll Set Point:	0.008	Pitch Set Point:	-0.021	Yaw Set Point:	-0.057	X_WP:	0.000	Y_WP:	0.000	Y_WP:	0.500	X:	-0.004	Y:	0.010	Z:	0.056	yaw:	3.289	yaw rate:	15.012	Roll:	-0.961	Pitch:	0.918	Yaw:	8.394	Thrust:	62.820
Time:	2.846	Roll Set Point:	0.009	Pitch Set Point:	-0.021	Yaw Set Point:	-0.061	X_WP:	0.000	Y_WP:	0.000	Y_WP:	0.500	X:	-0.005	Y:	0.010	Z:	0.057	yaw:	3.498	yaw rate:	20.873	Roll:	-0.971	Pitch:	0.731	Yaw:	10.089	Thrust:	63.456
Time:	2.857	Roll Set Point:	0.011	Pitch Set Point:	-0.022	Yaw Set Point:	-0.062	X_WP:	0.000	Y_WP:	0.000	Y_WP:	0.500	X:	-0.006	Y:	0.011	Z:	0.058	yaw:	3.577	yaw rate:	7.988	Roll:	-1.500	Pitch:	0.747	Yaw:	7.156	Thrust:	63.158
Time:	2.868	Roll Set Point:	0.013	Pitch Set Point:	-0.022	Yaw Set Point:	-0.055	X_WP:	0.000	Y_WP:	0.000	Y_WP:	0.500	X:	-0.007	Y:	0.011	Z:	0.059	yaw:	3.152	yaw rate:	-42.537	Roll:	-2.064	Pitch:	0.656	Yaw:	-5.417	Thrust:	62.179
Time:	2.879	Roll Set Point:	0.015	Pitch Set Point:	-0.023	Yaw Set Point:	-0.062	X_WP:	0.000	Y_WP:	0.000	Y_WP:	0.500	X:	-0.008	Y:	0.011	Z:	0.060	yaw:	3.573	yaw rate:	42.130	Roll:	-1.417	Pitch:	1.359	Yaw:	15.281	Thrust:	63.340
Time:	2.890	Roll Set Point:	0.017	Pitch Set Point:	-0.024	Yaw Set Point:	-0.076	X_WP:	0.000	Y_WP:	0.000	Y_WP:	0.500	X:	-0.009	Y:	0.012	Z:	0.061	yaw:	4.353	yaw rate:	77.993	Roll:	-1.596	Pitch:	0.837	Yaw:	24.897	Thrust:	64.248
Time:	2.901	Roll Set Point:	0.019	Pitch Set Point:	-0.024	Yaw Set Point:	-0.063	X_WP:	0.000	Y_WP:	0.000	Y_WP:	0.500	X:	-0.010	Y:	0.012	Z:	0.063	yaw:	3.616	yaw rate:	-73.732	Roll:	-1.907	Pitch:	0.917	Yaw:	-12.130	Thrust:	63.258
Time:	2.912	Roll Set Point:	0.020	Pitch Set Point:	-0.026	Yaw Set Point:	-0.069	X_WP:	0.000	Y_WP:	0.000	Y_WP:	0.500	X:	-0.011	Y:	0.012	Z:	0.064	yaw:	3.961	yaw rate:	34.459	Roll:	-1.495	Pitch:	1.340	Yaw:	14.044	Thrust:	64.272
Time:	2.923	Roll Set Point:	0.024	Pitch Set Point:	-0.026	Yaw Set Point:	-0.071	X_WP:	0.000	Y_WP:	0.000	Y_WP:	0.500	X:	-0.012	Y:	0.013	Z:	0.066	yaw:	4.088	yaw rate:	12.778	Roll:	-2.884	Pitch:	1.122	Yaw:	9.092	Thrust:	61.755
Time:	2.934	Roll Set Point:	0.026	Pitch Set Point:	-0.027	Yaw Set Point:	-0.076	X_WP:	0.000	Y_WP:	0.000	Y_WP:	0.500	X:	-0.014	Y:	0.013	Z:	0.068	yaw:	4.376	yaw rate:	28.724	Roll:	-1.956	Pitch:	1.115	Yaw:	13.281	Thrust:	64.333
Time:	2.945	Roll Set Point:	0.028	Pitch Set Point:	-0.028	Yaw Set Point:	-0.081	X_WP:	0.000	Y_WP:	0.000	Y_WP:	0.500	X:	-0.015	Y:	0.013	Z:	0.069	yaw:	4.629	yaw rate:	25.384	Roll:	-1.851	Pitch:	1.131	Yaw:	12.872	Thrust:	65.239
Time:	2.956	Roll Set Point:	0.031	Pitch Set Point:	-0.028	Yaw Set Point:	-0.080	X_WP:	0.000	Y_WP:	0.000	Y_WP:	0.500	X:	-0.016	Y:	0.014	Z:	0.071	yaw:	4.571	yaw rate:	-5.835	Roll:	-2.485	Pitch:	0.986	Yaw:	5.398	Thrust:	64.967
Time:	2.967	Roll Set Point:	0.033	Pitch Set Point:	-0.029	Yaw Set Point:	-0.083	X_WP:	0.000	Y_WP:	0.000	Y_WP:	0.500	X:	-0.017	Y:	0.014	Z:	0.073	yaw:	4.758	yaw rate:	18.706	Roll:	-2.390	Pitch:	1.076	Yaw:	11.502	Thrust:	65.148
Time:	2.979	Roll Set Point:	0.036	Pitch Set Point:	-0.030	Yaw Set Point:	-0.086	X_WP:	0.000	Y_WP:	0.000	Y_WP:	0.500	X:	-0.019	Y:	0.014	Z:	0.074	yaw:	4.902	yaw rate:	14.377	Roll:	-2.631	Pitch:	1.025	Yaw:	10.686	Thrust:	66.205
Time:	2.990	Roll Set Point:	0.040	Pitch Set Point:	-0.030	Yaw Set Point:	-0.086	X_WP:	0.000	Y_WP:	0.000	Y_WP:	0.500	X:	-0.021	Y:	0.014	Z:	0.077	yaw:	4.933	yaw rate:	3.109	Roll:	-3.803	Pitch:	1.280	Yaw:	8.081	Thrust:	63.262
Time:	3.001	Roll Set Point:	0.043	Pitch Set Point:	-0.031	Yaw Set Point:	-0.096	X_WP:	0.000	Y_WP:	0.000	Y_WP:	0.500	X:	-0.022	Y:	0.015	Z:	0.078	yaw:	5.506	yaw rate:	57.333	Roll:	-2.489	Pitch:	1.338	Yaw:	21.807	Thrust:	66.240
Time:	3.012	Roll Set Point:	0.045	Pitch Set Point:	-0.032	Yaw Set Point:	-0.096	X_WP:	0.000	Y_WP:	0.000	Y_WP:	0.500	X:	-0.024	Y:	0.015	Z:	0.080	yaw:	5.483	yaw rate:	-2.346	Roll:	-2.597	Pitch:	1.159	Yaw:	7.597	Thrust:	66.174
Time:	3.023	Roll Set Point:	0.049	Pitch Set Point:	-0.032	Yaw Set Point:	-0.085	X_WP:	0.000	Y_WP:	0.000	Y_WP:	0.500	X:	-0.025	Y:	0.015	Z:	0.082	yaw:	4.895	yaw rate:	-58.765	Roll:	-3.500	Pitch:	0.507	Yaw:	-6.597	Thrust:	66.043
Time:	3.034	Roll Set Point:	0.052	Pitch Set Point:	-0.033	Yaw Set Point:	-0.096	X_WP:	0.000	Y_WP:	0.000	Y_WP:	0.500	X:	-0.027	Y:	0.015	Z:	0.084	yaw:	5.500	yaw rate:	60.482	Roll:	-2.562	Pitch:	1.775	Yaw:	22.577	Thrust:	66.504
Time:	3.045	Roll Set Point:	0.056	Pitch Set Point:	-0.034	Yaw Set Point:	-0.100	X_WP:	0.000	Y_WP:	0.000	Y_WP:	0.500	X:	-0.029	Y:	0.016	Z:	0.087	yaw:	5.714	yaw rate:	21.382	Roll:	-4.391	Pitch:	1.327	Yaw:	13.608	Thrust:	63.290
Time:	3.056	Roll Set Point:	0.060	Pitch Set Point:	-0.035	Yaw Set Point:	-0.105	X_WP:	0.000	Y_WP:	0.000	Y_WP:	0.500	X:	-0.031	Y:	0.016	Z:	0.089	yaw:	6.007	yaw rate:	29.336	Roll:	-3.444	Pitch:	1.309	Yaw:	15.944	Thrust:	68.028
Time:	3.067	Roll Set Point:	0.063	Pitch Set Point:	-0.035	Yaw Set Point:	-0.102	X_WP:	0.000	Y_WP:	0.000	Y_WP:	0.500	X:	-0.032	Y:	0.016	Z:	0.091	yaw:	5.839	yaw rate:	-16.790	Roll:	-3.475	Pitch:	0.956	Yaw:	4.769	Thrust:	67.045
Time:	3.078	Roll Set Point:	0.066	Pitch Set Point:	-0.036	Yaw Set Point:	-0.101	X_WP:	0.000	Y_WP:	0.000	Y_WP:	0.500	X:	-0.034	Y:	0.016	Z:	0.094	yaw:	5.794	yaw rate:	-4.484	Roll:	-3.473	Pitch:	1.232	Yaw:	7.655	Thrust:	67.475
Time:	3.089	Roll Set Point:	0.070	Pitch Set Point:	-0.036	Yaw Set Point:	-0.106	X_WP:	0.000	Y_WP:	0.000	Y_WP:	0.500	X:	-0.036	Y:	0.016	Z:	0.096	yaw:	6.051	yaw rate:	25.640	Roll:	-3.295	Pitch:	1.232	Yaw:	15.181	Thrust:	67.120
Time:	3.100	Roll Set Point:	0.075	Pitch Set Point:	-0.037	Yaw Set Point:	-0.103	X_WP:	0.000	Y_WP:	0.000	Y_WP:	0.500	X:	-0.038	Y:	0.017	Z:	0.100	yaw:	5.923	yaw rate:	-12.744	Roll:	-5.128	Pitch:	1.432	Yaw:	5.914	Thrust:	62.823
Time:	3.111	Roll Set Point:	0.079	Pitch Set Point:	-0.038	Yaw Set Point:	-0.106	X_WP:	0.000	Y_WP:	0.000	Y_WP:	0.500	X:	-0.040	Y:	0.017	Z:	0.102	yaw:	6.075	yaw rate:	15.122	Roll:	-3.926	Pitch:	1.360	Yaw:	12.770	Thrust:	67.736
Time:	3.122	Roll Set Point:	0.082	Pitch Set Point:	-0.038	Yaw Set Point:	-0.105	X_WP:	0.000	Y_WP:	0.000	Y_WP:	0.500	X:	-0.042	Y:	0.017	Z:	0.104	yaw:	6.015	yaw rate:	-6.009	Roll:	-3.867	Pitch:	1.168	Yaw:	7.693	Thrust:	67.970
Time:	3.133	Roll Set Point:	0.086	Pitch Set Point:	-0.038	Yaw Set Point:	-0.102	X_WP:	0.000	Y_WP:	0.000	Y_WP:	0.500	X:	-0.044	Y:	0.017	Z:	0.107	yaw:	5.857	yaw rate:	-15.781	Roll:	-4.109	Pitch:	0.746	Yaw:	5.168	Thrust:	68.696
Time:	3.144	Roll Set Point:	0.091	Pitch Set Point:	-0.040	Yaw Set Point:	-0.110	X_WP:	0.000	Y_WP:	0.000	Y_WP:	0.500	X:	-0.047	Y:	0.017	Z:	0.111	yaw:	6.277	yaw rate:	41.980	Roll:	-5.509	Pitch:	2.301	Yaw:	19.487	Thrust:	63.246
Time:	3.156	Roll Set Point:	0.095	Pitch Set Point:	-0.040	Yaw Set Point:	-0.110	X_WP:	0.000	Y_WP:	0.000	Y_WP:	0.500	X:	-0.049	Y:	0.017	Z:	0.113	yaw:	6.290	yaw rate:	1.395	Roll:	-4.157	Pitch:	1.108	Yaw:	9.943	Thrust:	74.970
Time:	3.167	Roll Set Point:	0.099	Pitch Set Point:	-0.041	Yaw Set Point:	-0.108	X_WP:	0.000	Y_WP:	0.000	Y_WP:	0.500	X:	-0.051	Y:	0.018	Z:	0.116	yaw:	6.214	yaw rate:	-7.668	Roll:	-4.138	Pitch:	1.254	Yaw:	7.666	Thrust:	68.713
Time:	3.178	Roll Set Point:	0.103	Pitch Set Point:	-0.040	Yaw Set Point:	-0.100	X_WP:	0.000	Y_WP:	0.000	Y_WP:	0.500	X:	-0.053	Y:	0.018	Z:	0.119	yaw:	5.757	yaw rate:	-45.663	Roll:	-4.801	Pitch:	0.381	Yaw:	-1.937	Thrust:	68.683
Time:	3.190	Roll Set Point:	0.107	Pitch Set Point:	-0.041	Yaw Set Point:	-0.104	X_WP:	0.000	Y_WP:	0.000	Y_WP:	0.500	X:	-0.055	Y:	0.018	Z:	0.121	yaw:	5.942	yaw rate:	18.518	Roll:	-4.253	Pitch:	1.584	Yaw:	13.300	Thrust:	74.498
Time:	3.201	Roll Set Point:	0.112	Pitch Set Point:	-0.043	Yaw Set Point:	-0.113	X_WP:	0.000	Y_WP:	0.000	Y_WP:	0.500	X:	-0.057	Y:	0.018	Z:	0.125	yaw:	6.502	yaw rate:	55.978	Roll:	-5.562	Pitch:	2.607	Yaw:	23.245	Thrust:	63.369
Time:	3.212	Roll Set Point:	0.117	Pitch Set Point:	-0.042	Yaw Set Point:	-0.102	X_WP:	0.000	Y_WP:	0.000	Y_WP:	0.500	X:	-0.060	Y:	0.018	Z:	0.128	yaw:	5.817	yaw rate:	-68.493	Roll:	-5.555	Pitch:	-0.022	Yaw:	-7.232	Thrust:	69.265
Time:	3.223	Roll Set Point:	0.121	Pitch Set Point:	-0.044	Yaw Set Point:	-0.109	X_WP:	0.000	Y_WP:	0.000	Y_WP:	0.500	X:	-0.061	Y:	0.019	Z:	0.131	yaw:	6.238	yaw rate:	42.121	Roll:	-4.235	Pitch:	2.182	Yaw:	19.635	Thrust:	69.616
Time:	3.234	Roll Set Point:	0.125	Pitch Set Point:	-0.044	Yaw Set Point:	-0.106	X_WP:	0.000	Y_WP:	0.000	Y_WP:	0.500	X:	-0.063	Y:	0.019	Z:	0.134	yaw:	6.075	yaw rate:	-16.339	Roll:	-5.015	Pitch:	0.904	Yaw:	5.555	Thrust:	70.416
Time:	3.245	Roll Set Point:	0.129	Pitch Set Point:	-0.044	Yaw Set Point:	-0.108	X_WP:	0.000	Y_WP:	0.000	Y_WP:	0.500	X:	-0.065	Y:	0.019	Z:	0.137	yaw:	6.190	yaw rate:	11.494	Roll:	-4.797	Pitch:	1.591	Yaw:	12.345	Thrust:	69.463
Time:	3.256	Roll Set Point:	0.132	Pitch Set Point:	-0.045	Yaw Set Point:	-0.111	X_WP:	0.000	Y_WP:	0.000	Y_WP:	0.500	X:	-0.067	Y:	0.019	Z:	0.140	yaw:	6.359	yaw rate:	16.886	Roll:	-4.702	Pitch:	1.631	Yaw:	13.884	Thrust:	69.517
Time:	3.267	Roll Set Point:	0.136	Pitch Set Point:	-0.045	Yaw Set Point:	-0.107	X_WP:	0.000	Y_WP:	0.000	Y_WP:	0.500	X:	-0.069	Y:	0.019	Z:	0.143	yaw:	6.136	yaw rate:	-22.305	Roll:	-5.191	Pitch:	0.875	Yaw:	4.294	Thrust:	70.079
Time:	3.278	Roll Set Point:	0.142	Pitch Set Point:	-0.045	Yaw Set Point:	-0.103	X_WP:	0.000	Y_WP:	0.000	Y_WP:	0.500	X:	-0.072	Y:	0.019	Z:	0.147	yaw:	5.887	yaw rate:	-24.879	Roll:	-6.826	Pitch:	0.865	Yaw:	3.360	Thrust:	64.158
Time:	3.289	Roll Set Point:	0.146	Pitch Set Point:	-0.046	Yaw Set Point:	-0.102	X_WP:	0.000	Y_WP:	0.000	Y_WP:	0.500	X:	-0.074	Y:	0.019	Z:	0.151	yaw:	5.820	yaw rate:	-6.693	Roll:	-5.195	Pitch:	1.229	Yaw:	7.606	Thrust:	70.219
Time:	3.300	Roll Set Point:	0.150	Pitch Set Point:	-0.046	Yaw Set Point:	-0.107	X_WP:	0.000	Y_WP:	0.000	Y_WP:	0.500	X:	-0.076	Y:	0.019	Z:	0.154	yaw:	6.148	yaw rate:	32.752	Roll:	-4.781	Pitch:	1.842	Yaw:	17.449	Thrust:	69.734
Time:	3.311	Roll Set Point:	0.155	Pitch Set Point:	-0.045	Yaw Set Point:	-0.094	X_WP:	0.000	Y_WP:	0.000	Y_WP:	0.500	X:	-0.078	Y:	0.019	Z:	0.157	yaw:	5.389	yaw rate:	-75.862	Roll:	-6.114	Pitch:	-0.553	Yaw:	-9.255	Thrust:	70.708
Time:	3.322	Roll Set Point:	0.158	Pitch Set Point:	-0.046	Yaw Set Point:	-0.094	X_WP:	0.000	Y_WP:	0.000	Y_WP:	0.500	X:	-0.080	Y:	0.019	Z:	0.160	yaw:	5.381	yaw rate:	-0.752	Roll:	-5.098	Pitch:	1.222	Yaw:	8.436	Thrust:	70.165
Time:	3.333	Roll Set Point:	0.162	Pitch Set Point:	-0.047	Yaw Set Point:	-0.101	X_WP:	0.000	Y_WP:	0.000	Y_WP:	0.500	X:	-0.082	Y:	0.019	Z:	0.164	yaw:	5.761	yaw rate:	37.945	Roll:	-4.952	Pitch:	2.223	Yaw:	18.154	Thrust:	69.888
Time:	3.344	Roll Set Point:	0.168	Pitch Set Point:	-0.047	Yaw Set Point:	-0.097	X_WP:	0.000	Y_WP:	0.000	Y_WP:	0.500	X:	-0.085	Y:	0.019	Z:	0.169	yaw:	5.562	yaw rate:	-19.899	Roll:	-6.885	Pitch:	0.900	Yaw:	4.146	Thrust:	63.581
Time:	3.355	Roll Set Point:	0.171	Pitch Set Point:	-0.047	Yaw Set Point:	-0.097	X_WP:	0.000	Y_WP:	0.000	Y_WP:	0.500	X:	-0.087	Y:	0.019	Z:	0.173	yaw:	5.579	yaw rate:	1.728	Roll:	-5.274	Pitch:	1.189	Yaw:	9.303	Thrust:	69.765
Time:	3.366	Roll Set Point:	0.175	Pitch Set Point:	-0.048	Yaw Set Point:	-0.098	X_WP:	0.000	Y_WP:	0.000	Y_WP:	0.500	X:	-0.089	Y:	0.020	Z:	0.176	yaw:	5.629	yaw rate:	5.015	Roll:	-5.320	Pitch:	1.459	Yaw:	10.153	Thrust:	69.771
Time:	3.378	Roll Set Point:	0.178	Pitch Set Point:	-0.048	Yaw Set Point:	-0.095	X_WP:	0.000	Y_WP:	0.000	Y_WP:	0.500	X:	-0.090	Y:	0.020	Z:	0.180	yaw:	5.419	yaw rate:	-20.987	Roll:	-5.478	Pitch:	0.659	Yaw:	3.688	Thrust:	70.167
Time:	3.389	Roll Set Point:	0.184	Pitch Set Point:	-0.048	Yaw Set Point:	-0.091	X_WP:	0.000	Y_WP:	0.000	Y_WP:	0.500	X:	-0.093	Y:	0.020	Z:	0.185	yaw:	5.224	yaw rate:	-19.516	Roll:	-6.821	Pitch:	0.894	Yaw:	3.765	Thrust:	62.530
Time:	3.400	Roll Set Point:	0.188	Pitch Set Point:	-0.048	Yaw Set Point:	-0.087	X_WP:	0.000	Y_WP:	0.000	Y_WP:	0.500	X:	-0.095	Y:	0.020	Z:	0.189	yaw:	4.966	yaw rate:	-25.791	Roll:	-5.754	Pitch:	0.476	Yaw:	1.915	Thrust:	70.982
Time:	3.411	Roll Set Point:	0.191	Pitch Set Point:	-0.048	Yaw Set Point:	-0.086	X_WP:	0.000	Y_WP:	0.000	Y_WP:	0.500	X:	-0.096	Y:	0.020	Z:	0.193	yaw:	4.927	yaw rate:	-3.897	Roll:	-5.200	Pitch:	1.148	Yaw:	7.058	Thrust:	69.647
Time:	3.422	Roll Set Point:	0.194	Pitch Set Point:	-0.048	Yaw Set Point:	-0.088	X_WP:	0.000	Y_WP:	0.000	Y_WP:	0.500	X:	-0.098	Y:	0.020	Z:	0.197	yaw:	5.023	yaw rate:	9.569	Roll:	-5.140	Pitch:	1.501	Yaw:	10.388	Thrust:	69.519
Time:	3.433	Roll Set Point:	0.197	Pitch Set Point:	-0.048	Yaw Set Point:	-0.083	X_WP:	0.000	Y_WP:	0.000	Y_WP:	0.500	X:	-0.100	Y:	0.020	Z:	0.201	yaw:	4.782	yaw rate:	-24.131	Roll:	-5.588	Pitch:	0.325	Yaw:	2.052	Thrust:	70.026
Time:	3.444	Roll Set Point:	0.202	Pitch Set Point:	-0.049	Yaw Set Point:	-0.086	X_WP:	0.000	Y_WP:	0.000	Y_WP:	0.500	X:	-0.102	Y:	0.020	Z:	0.207	yaw:	4.924	yaw rate:	14.263	Roll:	-6.312	Pitch:	1.919	Yaw:	11.358	Thrust:	61.507
Time:	3.455	Roll Set Point:	0.205	Pitch Set Point:	-0.048	Yaw Set Point:	-0.077	X_WP:	0.000	Y_WP:	0.000	Y_WP:	0.500	X:	-0.103	Y:	0.020	Z:	0.210	yaw:	4.415	yaw rate:	-50.899	Roll:	-5.699	Pitch:	-0.546	Yaw:	-4.804	Thrust:	70.658
Time:	3.466	Roll Set Point:	0.207	Pitch Set Point:	-0.049	Yaw Set Point:	-0.080	X_WP:	0.000	Y_WP:	0.000	Y_WP:	0.500	X:	-0.105	Y:	0.020	Z:	0.215	yaw:	4.576	yaw rate:	16.017	Roll:	-5.040	Pitch:	2.017	Yaw:	11.287	Thrust:	69.310
Time:	3.477	Roll Set Point:	0.210	Pitch Set Point:	-0.049	Yaw Set Point:	-0.078	X_WP:	0.000	Y_WP:	0.000	Y_WP:	0.500	X:	-0.106	Y:	0.020	Z:	0.219	yaw:	4.497	yaw rate:	-7.820	Roll:	-5.162	Pitch:	0.922	Yaw:	5.528	Thrust:	70.213
Time:	3.488	Roll Set Point:	0.214	Pitch Set Point:	-0.050	Yaw Set Point:	-0.078	X_WP:	0.000	Y_WP:	0.000	Y_WP:	0.500	X:	-0.108	Y:	0.021	Z:	0.225	yaw:	4.472	yaw rate:	-2.498	Roll:	-6.187	Pitch:	1.465	Yaw:	6.750	Thrust:	61.095
Time:	3.499	Roll Set Point:	0.216	Pitch Set Point:	-0.050	Yaw Set Point:	-0.080	X_WP:	0.000	Y_WP:	0.000	Y_WP:	0.500	X:	-0.109	Y:	0.021	Z:	0.229	yaw:	4.559	yaw rate:	8.647	Roll:	-4.941	Pitch:	1.437	Yaw:	9.518	Thrust:	69.607
Time:	3.510	Roll Set Point:	0.219	Pitch Set Point:	-0.050	Yaw Set Point:	-0.077	X_WP:	0.000	Y_WP:	0.000	Y_WP:	0.500	X:	-0.110	Y:	0.021	Z:	0.233	yaw:	4.411	yaw rate:	-14.749	Roll:	-4.996	Pitch:	0.984	Yaw:	3.762	Thrust:	70.415
Time:	3.521	Roll Set Point:	0.221	Pitch Set Point:	-0.049	Yaw Set Point:	-0.068	X_WP:	0.000	Y_WP:	0.000	Y_WP:	0.500	X:	-0.112	Y:	0.021	Z:	0.237	yaw:	3.888	yaw rate:	-52.354	Roll:	-5.633	Pitch:	-0.653	Yaw:	-5.903	Thrust:	68.994
Time:	3.532	Roll Set Point:	0.223	Pitch Set Point:	-0.050	Yaw Set Point:	-0.066	X_WP:	0.000	Y_WP:	0.000	Y_WP:	0.500	X:	-0.112	Y:	0.021	Z:	0.241	yaw:	3.802	yaw rate:	-8.535	Roll:	-4.795	Pitch:	1.092	Yaw:	4.380	Thrust:	69.518
Time:	3.543	Roll Set Point:	0.226	Pitch Set Point:	-0.052	Yaw Set Point:	-0.074	X_WP:	0.000	Y_WP:	0.000	Y_WP:	0.500	X:	-0.114	Y:	0.022	Z:	0.248	yaw:	4.228	yaw rate:	42.595	Roll:	-5.137	Pitch:	3.129	Yaw:	17.117	Thrust:	60.349
Time:	3.554	Roll Set Point:	0.228	Pitch Set Point:	-0.052	Yaw Set Point:	-0.074	X_WP:	0.000	Y_WP:	0.000	Y_WP:	0.500	X:	-0.115	Y:	0.022	Z:	0.252	yaw:	4.265	yaw rate:	3.627	Roll:	-5.100	Pitch:	1.031	Yaw:	7.919	Thrust:	70.462
Time:	3.565	Roll Set Point:	0.230	Pitch Set Point:	-0.052	Yaw Set Point:	-0.069	X_WP:	0.000	Y_WP:	0.000	Y_WP:	0.500	X:	-0.116	Y:	0.022	Z:	0.256	yaw:	3.942	yaw rate:	-32.264	Roll:	-4.670	Pitch:	0.666	Yaw:	-1.051	Thrust:	69.327
Time:	3.576	Roll Set Point:	0.231	Pitch Set Point:	-0.053	Yaw Set Point:	-0.070	X_WP:	0.000	Y_WP:	0.000	Y_WP:	0.500	X:	-0.116	Y:	0.022	Z:	0.261	yaw:	4.038	yaw rate:	9.557	Roll:	-4.418	Pitch:	1.822	Yaw:	9.009	Thrust:	69.305
Time:	3.587	Roll Set Point:	0.233	Pitch Set Point:	-0.053	Yaw Set Point:	-0.070	X_WP:	0.000	Y_WP:	0.000	Y_WP:	0.500	X:	-0.117	Y:	0.023	Z:	0.265	yaw:	4.034	yaw rate:	-0.374	Roll:	-4.630	Pitch:	1.441	Yaw:	6.645	Thrust:	69.193
Time:	3.598	Roll Set Point:	0.234	Pitch Set Point:	-0.054	Yaw Set Point:	-0.071	X_WP:	0.000	Y_WP:	0.000	Y_WP:	0.500	X:	-0.118	Y:	0.023	Z:	0.270	yaw:	4.069	yaw rate:	3.479	Roll:	-4.524	Pitch:	1.454	Yaw:	7.610	Thrust:	69.577
Time:	3.609	Roll Set Point:	0.235	Pitch Set Point:	-0.056	Yaw Set Point:	-0.074	X_WP:	0.000	Y_WP:	0.000	Y_WP:	0.500	X:	-0.119	Y:	0.023	Z:	0.276	yaw:	4.263	yaw rate:	19.477	Roll:	-4.498	Pitch:	2.601	Yaw:	11.678	Thrust:	60.324
Time:	3.620	Roll Set Point:	0.237	Pitch Set Point:	-0.056	Yaw Set Point:	-0.071	X_WP:	0.000	Y_WP:	0.000	Y_WP:	0.500	X:	-0.119	Y:	0.024	Z:	0.281	yaw:	4.092	yaw rate:	-17.183	Roll:	-4.488	Pitch:	1.007	Yaw:	2.736	Thrust:	68.832
Time:	3.631	Roll Set Point:	0.238	Pitch Set Point:	-0.056	Yaw Set Point:	-0.068	X_WP:	0.000	Y_WP:	0.000	Y_WP:	0.500	X:	-0.120	Y:	0.024	Z:	0.285	yaw:	3.919	yaw rate:	-17.271	Roll:	-4.409	Pitch:	1.003	Yaw:	2.475	Thrust:	68.880
Time:	3.642	Roll Set Point:	0.239	Pitch Set Point:	-0.057	Yaw Set Point:	-0.068	X_WP:	0.000	Y_WP:	0.000	Y_WP:	0.500	X:	-0.120	Y:	0.024	Z:	0.290	yaw:	3.874	yaw rate:	-4.463	Roll:	-4.265	Pitch:	1.422	Yaw:	5.453	Thrust:	68.893
Time:	3.653	Roll Set Point:	0.240	Pitch Set Point:	-0.056	Yaw Set Point:	-0.054	X_WP:	0.000	Y_WP:	0.000	Y_WP:	0.500	X:	-0.121	Y:	0.025	Z:	0.297	yaw:	3.103	yaw rate:	-77.095	Roll:	-5.075	Pitch:	-0.872	Yaw:	-12.864	Thrust:	59.507
Time:	3.664	Roll Set Point:	0.240	Pitch Set Point:	-0.058	Yaw Set Point:	-0.061	X_WP:	0.000	Y_WP:	0.000	Y_WP:	0.500	X:	-0.121	Y:	0.025	Z:	0.301	yaw:	3.517	yaw rate:	41.346	Roll:	-3.227	Pitch:	3.209	Yaw:	15.827	Thrust:	68.557
Time:	3.675	Roll Set Point:	0.240	Pitch Set Point:	-0.059	Yaw Set Point:	-0.062	X_WP:	0.000	Y_WP:	0.000	Y_WP:	0.500	X:	-0.121	Y:	0.026	Z:	0.306	yaw:	3.548	yaw rate:	3.139	Roll:	-3.835	Pitch:	1.751	Yaw:	6.803	Thrust:	67.815
Time:	3.686	Roll Set Point:	0.241	Pitch Set Point:	-0.059	Yaw Set Point:	-0.062	X_WP:	0.000	Y_WP:	0.000	Y_WP:	0.500	X:	-0.121	Y:	0.026	Z:	0.311	yaw:	3.533	yaw rate:	-1.496	Roll:	-3.923	Pitch:	1.507	Yaw:	5.679	Thrust:	67.876
Time:	3.697	Roll Set Point:	0.241	Pitch Set Point:	-0.060	Yaw Set Point:	-0.060	X_WP:	0.000	Y_WP:	0.000	Y_WP:	0.500	X:	-0.121	Y:	0.027	Z:	0.315	yaw:	3.410	yaw rate:	-12.301	Roll:	-3.883	Pitch:	1.426	Yaw:	2.953	Thrust:	69.123
Time:	3.708	Roll Set Point:	0.241	Pitch Set Point:	-0.061	Yaw Set Point:	-0.055	X_WP:	0.000	Y_WP:	0.000	Y_WP:	0.500	X:	-0.121	Y:	0.027	Z:	0.322	yaw:	3.167	yaw rate:	-24.349	Roll:	-3.758	Pitch:	1.225	Yaw:	-0.236	Thrust:	58.632
Time:	3.720	Roll Set Point:	0.241	Pitch Set Point:	-0.062	Yaw Set Point:	-0.058	X_WP:	0.000	Y_WP:	0.000	Y_WP:	0.500	X:	-0.121	Y:	0.028	Z:	0.327	yaw:	3.295	yaw rate:	12.839	Roll:	-3.467	Pitch:	1.996	Yaw:	8.607	Thrust:	76.108
Time:	3.731	Roll Set Point:	0.241	Pitch Set Point:	-0.063	Yaw Set Point:	-0.055	X_WP:	0.000	Y_WP:	0.000	Y_WP:	0.500	X:	-0.121	Y:	0.028	Z:	0.332	yaw:	3.164	yaw rate:	-13.065	Roll:	-3.538	Pitch:	1.432	Yaw:	2.429	Thrust:	68.352
Time:	3.743	Roll Set Point:	0.241	Pitch Set Point:	-0.063	Yaw Set Point:	-0.048	X_WP:	0.000	Y_WP:	0.000	Y_WP:	0.500	X:	-0.121	Y:	0.028	Z:	0.336	yaw:	2.762	yaw rate:	-40.240	Roll:	-3.663	Pitch:	0.265	Yaw:	-4.592	Thrust:	67.735
Time:	3.754	Roll Set Point:	0.240	Pitch Set Point:	-0.064	Yaw Set Point:	-0.052	X_WP:	0.000	Y_WP:	0.000	Y_WP:	0.500	X:	-0.121	Y:	0.029	Z:	0.341	yaw:	2.983	yaw rate:	22.060	Roll:	-3.073	Pitch:	2.791	Yaw:	10.513	Thrust:	66.433
Time:	3.765	Roll Set Point:	0.239	Pitch Set Point:	-0.065	Yaw Set Point:	-0.050	X_WP:	0.000	Y_WP:	0.000	Y_WP:	0.500	X:	-0.120	Y:	0.030	Z:	0.348	yaw:	2.882	yaw rate:	-10.040	Roll:	-2.756	Pitch:	1.657	Yaw:	2.744	Thrust:	58.065
Time:	3.776	Roll Set Point:	0.238	Pitch Set Point:	-0.066	Yaw Set Point:	-0.049	X_WP:	0.000	Y_WP:	0.000	Y_WP:	0.500	X:	-0.120	Y:	0.030	Z:	0.353	yaw:	2.802	yaw rate:	-7.990	Roll:	-3.131	Pitch:	1.650	Yaw:	3.119	Thrust:	65.991
Time:	3.787	Roll Set Point:	0.238	Pitch Set Point:	-0.067	Yaw Set Point:	-0.047	X_WP:	0.000	Y_WP:	0.000	Y_WP:	0.500	X:	-0.120	Y:	0.031	Z:	0.358	yaw:	2.687	yaw rate:	-11.541	Roll:	-3.018	Pitch:	1.510	Yaw:	2.115	Thrust:	67.395
Time:	3.798	Roll Set Point:	0.237	Pitch Set Point:	-0.068	Yaw Set Point:	-0.047	X_WP:	0.000	Y_WP:	0.000	Y_WP:	0.500	X:	-0.119	Y:	0.031	Z:	0.363	yaw:	2.689	yaw rate:	0.191	Roll:	-2.876	Pitch:	1.819	Yaw:	4.902	Thrust:	66.371
Time:	3.809	Roll Set Point:	0.236	Pitch Set Point:	-0.069	Yaw Set Point:	-0.048	X_WP:	0.000	Y_WP:	0.000	Y_WP:	0.500	X:	-0.119	Y:	0.032	Z:	0.368	yaw:	2.775	yaw rate:	8.593	Roll:	-2.774	Pitch:	2.193	Yaw:	7.015	Thrust:	67.225
Time:	3.820	Roll Set Point:	0.234	Pitch Set Point:	-0.070	Yaw Set Point:	-0.049	X_WP:	0.000	Y_WP:	0.000	Y_WP:	0.500	X:	-0.118	Y:	0.032	Z:	0.375	yaw:	2.796	yaw rate:	2.140	Roll:	-2.104	Pitch:	2.308	Yaw:	5.515	Thrust:	56.034
Time:	3.831	Roll Set Point:	0.233	Pitch Set Point:	-0.070	Yaw Set Point:	-0.041	X_WP:	0.000	Y_WP:	0.000	Y_WP:	0.500	X:	-0.117	Y:	0.033	Z:	0.380	yaw:	2.323	yaw rate:	-47.291	Roll:	-2.878	Pitch:	0.435	Yaw:	-6.899	Thrust:	65.578
Time:	3.842	Roll Set Point:	0.231	Pitch Set Point:	-0.072	Yaw Set Point:	-0.043	X_WP:	0.000	Y_WP:	0.000	Y_WP:	0.500	X:	-0.116	Y:	0.033	Z:	0.385	yaw:	2.461	yaw rate:	13.787	Roll:	-2.216	Pitch:	2.538	Yaw:	7.812	Thrust:	66.454
Time:	3.853	Roll Set Point:	0.230	Pitch Set Point:	-0.073	Yaw Set Point:	-0.042	X_WP:	0.000	Y_WP:	0.000	Y_WP:	0.500	X:	-0.116	Y:	0.034	Z:	0.390	yaw:	2.402	yaw rate:	-5.882	Roll:	-2.703	Pitch:	1.621	Yaw:	3.061	Thrust:	65.951
Time:	3.864	Roll Set Point:	0.229	Pitch Set Point:	-0.072	Yaw Set Point:	-0.028	X_WP:	0.000	Y_WP:	0.000	Y_WP:	0.500	X:	-0.115	Y:	0.034	Z:	0.395	yaw:	1.608	yaw rate:	-79.475	Roll:	-3.317	Pitch:	-0.657	Yaw:	-15.477	Thrust:	66.355
Time:	3.875	Roll Set Point:	0.226	Pitch Set Point:	-0.074	Yaw Set Point:	-0.030	X_WP:	0.000	Y_WP:	0.000	Y_WP:	0.500	X:	-0.114	Y:	0.035	Z:	0.402	yaw:	1.732	yaw rate:	12.454	Roll:	-1.060	Pitch:	3.056	Yaw:	6.478	Thrust:	55.410
Time:	3.886	Roll Set Point:	0.225	Pitch Set Point:	-0.074	Yaw Set Point:	-0.025	X_WP:	0.000	Y_WP:	0.000	Y_WP:	0.500	X:	-0.113	Y:	0.036	Z:	0.407	yaw:	1.407	yaw rate:	-32.474	Roll:	-2.677	Pitch:	0.747	Yaw:	-4.657	Thrust:	65.717
Time:	3.898	Roll Set Point:	0.224	Pitch Set Point:	-0.075	Yaw Set Point:	-0.021	X_WP:	0.000	Y_WP:	0.000	Y_WP:	0.500	X:	-0.112	Y:	0.036	Z:	0.412	yaw:	1.179	yaw rate:	-22.856	Roll:	-2.494	Pitch:	1.295	Yaw:	-2.323	Thrust:	71.970
Time:	3.909	Roll Set Point:	0.222	Pitch Set Point:	-0.076	Yaw Set Point:	-0.019	X_WP:	0.000	Y_WP:	0.000	Y_WP:	0.500	X:	-0.111	Y:	0.037	Z:	0.417	yaw:	1.080	yaw rate:	-9.843	Roll:	-1.860	Pitch:	1.836	Yaw:	0.276	Thrust:	65.244
Time:	3.920	Roll Set Point:	0.218	Pitch Set Point:	-0.079	Yaw Set Point:	-0.025	X_WP:	0.000	Y_WP:	0.000	Y_WP:	0.500	X:	-0.109	Y:	0.038	Z:	0.424	yaw:	1.415	yaw rate:	33.437	Roll:	-0.303	Pitch:	3.914	Yaw:	11.017	Thrust:	54.755
Time:	3.931	Roll Set Point:	0.216	Pitch Set Point:	-0.080	Yaw Set Point:	-0.024	X_WP:	0.000	Y_WP:	0.000	Y_WP:	0.500	X:	-0.109	Y:	0.038	Z:	0.429	yaw:	1.403	yaw rate:	-1.201	Roll:	-1.822	Pitch:	1.984	Yaw:	2.777	Thrust:	66.267
Time:	3.942	Roll Set Point:	0.214	Pitch Set Point:	-0.080	Yaw Set Point:	-0.018	X_WP:	0.000	Y_WP:	0.000	Y_WP:	0.500	X:	-0.107	Y:	0.039	Z:	0.433	yaw:	1.049	yaw rate:	-35.396	Roll:	-2.066	Pitch:	1.018	Yaw:	-5.837	Thrust:	65.652
Time:	3.953	Roll Set Point:	0.212	Pitch Set Point:	-0.081	Yaw Set Point:	-0.016	X_WP:	0.000	Y_WP:	0.000	Y_WP:	0.500	X:	-0.106	Y:	0.040	Z:	0.438	yaw:	0.920	yaw rate:	-12.829	Roll:	-1.617	Pitch:	2.085	Yaw:	-0.666	Thrust:	64.822
Time:	3.964	Roll Set Point:	0.210	Pitch Set Point:	-0.082	Yaw Set Point:	-0.014	X_WP:	0.000	Y_WP:	0.000	Y_WP:	0.500	X:	-0.105	Y:	0.040	Z:	0.443	yaw:	0.806	yaw rate:	-11.498	Roll:	-1.633	Pitch:	1.728	Yaw:	-0.493	Thrust:	65.273
Time:	3.975	Roll Set Point:	0.207	Pitch Set Point:	-0.082	Yaw Set Point:	-0.001	X_WP:	0.000	Y_WP:	0.000	Y_WP:	0.500	X:	-0.103	Y:	0.041	Z:	0.449	yaw:	0.039	yaw rate:	-76.637	Roll:	-1.431	Pitch:	0.396	Yaw:	-16.821	Thrust:	57.188
Time:	3.986	Roll Set Point:	0.204	Pitch Set Point:	-0.084	Yaw Set Point:	-0.005	X_WP:	0.000	Y_WP:	0.000	Y_WP:	0.500	X:	-0.102	Y:	0.042	Z:	0.454	yaw:	0.278	yaw rate:	23.894	Roll:	-1.052	Pitch:	3.001	Yaw:	7.164	Thrust:	65.555
Time:	3.997	Roll Set Point:	0.201	Pitch Set Point:	-0.086	Yaw Set Point:	-0.008	X_WP:	0.000	Y_WP:	0.000	Y_WP:	0.500	X:	-0.101	Y:	0.043	Z:	0.459	yaw:	0.444	yaw rate:	16.637	Roll:	-0.761	Pitch:	3.123	Yaw:	5.672	Thrust:	64.415
Time:	4.008	Roll Set Point:	0.199	Pitch Set Point:	-0.086	Yaw Set Point:	0.002	X_WP:	0.000	Y_WP:	0.000	Y_WP:	0.500	X:	-0.100	Y:	0.043	Z:	0.463	yaw:	-0.118	yaw rate:	-56.195	Roll:	-1.946	Pitch:	0.451	Yaw:	-12.400	Thrust:	65.147
Time:	4.019	Roll Set Point:	0.196	Pitch Set Point:	-0.088	Yaw Set Point:	-0.005	X_WP:	0.000	Y_WP:	0.000	Y_WP:	0.500	X:	-0.098	Y:	0.044	Z:	0.467	yaw:	0.298	yaw rate:	41.570	Roll:	-0.401	Pitch:	3.847	Yaw:	11.386	Thrust:	65.100
Time:	4.030	Roll Set Point:	0.193	Pitch Set Point:	-0.089	Yaw Set Point:	0.007	X_WP:	0.000	Y_WP:	0.000	Y_WP:	0.500	X:	-0.096	Y:	0.045	Z:	0.474	yaw:	-0.405	yaw rate:	-70.362	Roll:	-1.046	Pitch:	0.785	Yaw:	-16.165	Thrust:	55.978
Time:	4.041	Roll Set Point:	0.191	Pitch Set Point:	-0.090	Yaw Set Point:	-0.002	X_WP:	0.000	Y_WP:	0.000	Y_WP:	0.500	X:	-0.096	Y:	0.045	Z:	0.476	yaw:	0.122	yaw rate:	52.763	Roll:	-1.143	Pitch:	3.410	Yaw:	13.797	Thrust:	74.049
Time:	4.052	Roll Set Point:	0.187	Pitch Set Point:	-0.092	Yaw Set Point:	0.002	X_WP:	0.000	Y_WP:	0.000	Y_WP:	0.500	X:	-0.093	Y:	0.046	Z:	0.483	yaw:	-0.127	yaw rate:	-24.955	Roll:	0.340	Pitch:	2.573	Yaw:	-4.999	Thrust:	55.735
Time:	4.063	Roll Set Point:	0.184	Pitch Set Point:	-0.094	Yaw Set Point:	0.001	X_WP:	0.000	Y_WP:	0.000	Y_WP:	0.500	X:	-0.092	Y:	0.047	Z:	0.487	yaw:	-0.064	yaw rate:	6.299	Roll:	-0.713	Pitch:	2.614	Yaw:	2.507	Thrust:	64.739
Time:	4.074	Roll Set Point:	0.181	Pitch Set Point:	-0.095	Yaw Set Point:	0.007	X_WP:	0.000	Y_WP:	0.000	Y_WP:	0.500	X:	-0.091	Y:	0.048	Z:	0.491	yaw:	-0.375	yaw rate:	-31.050	Roll:	-1.169	Pitch:	1.880	Yaw:	-6.792	Thrust:	64.206
Time:	4.085	Roll Set Point:	0.177	Pitch Set Point:	-0.097	Yaw Set Point:	0.008	X_WP:	0.000	Y_WP:	0.000	Y_WP:	0.500	X:	-0.088	Y:	0.049	Z:	0.498	yaw:	-0.470	yaw rate:	-9.541	Roll:	0.362	Pitch:	2.764	Yaw:	-1.821	Thrust:	56.503
Time:	4.096	Roll Set Point:	0.175	Pitch Set Point:	-0.098	Yaw Set Point:	0.014	X_WP:	0.000	Y_WP:	0.000	Y_WP:	0.500	X:	-0.087	Y:	0.049	Z:	0.502	yaw:	-0.774	yaw rate:	-30.398	Roll:	-0.967	Pitch:	1.965	Yaw:	-7.199	Thrust:	65.088
Time:	4.107	Roll Set Point:	0.171	Pitch Set Point:	-0.099	Yaw Set Point:	0.015	X_WP:	0.000	Y_WP:	0.000	Y_WP:	0.500	X:	-0.085	Y:	0.050	Z:	0.506	yaw:	-0.883	yaw rate:	-10.890	Roll:	-0.399	Pitch:	2.440	Yaw:	-2.723	Thrust:	64.256
Time:	4.118	Roll Set Point:	0.169	Pitch Set Point:	-0.099	Yaw Set Point:	0.026	X_WP:	0.000	Y_WP:	0.000	Y_WP:	0.500	X:	-0.084	Y:	0.051	Z:	0.510	yaw:	-1.490	yaw rate:	-60.685	Roll:	-1.451	Pitch:	1.030	Yaw:	-15.393	Thrust:	64.716
Time:	4.129	Roll Set Point:	0.166	Pitch Set Point:	-0.101	Yaw Set Point:	0.023	X_WP:	0.000	Y_WP:	0.000	Y_WP:	0.500	X:	-0.082	Y:	0.051	Z:	0.514	yaw:	-1.295	yaw rate:	19.507	Roll:	-0.171	Pitch:	3.020	Yaw:	3.910	Thrust:	64.707
Time:	4.140	Roll Set Point:	0.161	Pitch Set Point:	-0.104	Yaw Set Point:	0.022	X_WP:	0.000	Y_WP:	0.000	Y_WP:	0.500	X:	-0.080	Y:	0.053	Z:	0.520	yaw:	-1.249	yaw rate:	4.626	Roll:	1.415	Pitch:	3.977	Yaw:	0.435	Thrust:	55.447
Time:	4.152	Roll Set Point:	0.155	Pitch Set Point:	-0.106	Yaw Set Point:	0.030	X_WP:	0.000	Y_WP:	0.000	Y_WP:	0.500	X:	-0.077	Y:	0.054	Z:	0.527	yaw:	-1.695	yaw rate:	-54.178	Roll:	1.142	Pitch:	2.676	Yaw:	-10.924	Thrust:	59.010
Time:	4.163	Roll Set Point:	0.152	Pitch Set Point:	-0.107	Yaw Set Point:	0.032	X_WP:	0.000	Y_WP:	0.000	Y_WP:	0.500	X:	-0.075	Y:	0.055	Z:	0.531	yaw:	-1.843	yaw rate:	-14.827	Roll:	-0.173	Pitch:	2.606	Yaw:	-5.023	Thrust:	64.296
Time:	4.174	Roll Set Point:	0.148	Pitch Set Point:	-0.110	Yaw Set Point:	0.024	X_WP:	0.000	Y_WP:	0.000	Y_WP:	0.500	X:	-0.073	Y:	0.056	Z:	0.535	yaw:	-1.347	yaw rate:	49.664	Roll:	1.023	Pitch:	4.045	Yaw:	10.971	Thrust:	64.334
Time:	4.185	Roll Set Point:	0.148	Pitch Set Point:	-0.110	Yaw Set Point:	0.024	X_WP:	0.000	Y_WP:	0.000	Y_WP:	0.500	X:	-0.073	Y:	0.056	Z:	0.535	yaw:	-1.347	yaw rate:	49.664	Roll:	-2.431	Pitch:	1.679	Yaw:	-0.823	Thrust:	79.420
Time:	4.196	Roll Set Point:	0.144	Pitch Set Point:	-0.112	Yaw Set Point:	0.027	X_WP:	0.000	Y_WP:	0.000	Y_WP:	0.500	X:	-0.071	Y:	0.057	Z:	0.540	yaw:	-1.569	yaw rate:	-22.216	Roll:	0.953	Pitch:	3.161	Yaw:	-6.411	Thrust:	56.329
Time:	4.207	Roll Set Point:	0.140	Pitch Set Point:	-0.113	Yaw Set Point:	0.027	X_WP:	0.000	Y_WP:	0.000	Y_WP:	0.500	X:	-0.069	Y:	0.058	Z:	0.544	yaw:	-1.526	yaw rate:	4.284	Roll:	0.185	Pitch:	3.037	Yaw:	-0.068	Thrust:	65.197
Time:	4.218	Roll Set Point:	0.138	Pitch Set Point:	-0.114	Yaw Set Point:	0.035	X_WP:	0.000	Y_WP:	0.000	Y_WP:	0.500	X:	-0.068	Y:	0.058	Z:	0.547	yaw:	-2.012	yaw rate:	-48.632	Roll:	-0.626	Pitch:	1.879	Yaw:	-13.313	Thrust:	64.189
Time:	4.230	Roll Set Point:	0.134	Pitch Set Point:	-0.115	Yaw Set Point:	0.037	X_WP:	0.000	Y_WP:	0.000	Y_WP:	0.500	X:	-0.066	Y:	0.059	Z:	0.551	yaw:	-2.092	yaw rate:	-8.014	Roll:	0.173	Pitch:	2.892	Yaw:	-3.790	Thrust:	64.304
Time:	4.241	Roll Set Point:	0.130	Pitch Set Point:	-0.117	Yaw Set Point:	0.041	X_WP:	0.000	Y_WP:	0.000	Y_WP:	0.500	X:	-0.064	Y:	0.060	Z:	0.556	yaw:	-2.356	yaw rate:	-26.346	Roll:	0.934	Pitch:	3.182	Yaw:	-8.460	Thrust:	58.013
Time:	4.252	Roll Set Point:	0.126	Pitch Set Point:	-0.120	Yaw Set Point:	0.035	X_WP:	0.000	Y_WP:	0.000	Y_WP:	0.500	X:	-0.062	Y:	0.061	Z:	0.559	yaw:	-1.985	yaw rate:	37.043	Roll:	1.158	Pitch:	3.762	Yaw:	7.052	Thrust:	63.700
Time:	4.263	Roll Set Point:	0.123	Pitch Set Point:	-0.121	Yaw Set Point:	0.034	X_WP:	0.000	Y_WP:	0.000	Y_WP:	0.500	X:	-0.060	Y:	0.062	Z:	0.562	yaw:	-1.973	yaw rate:	1.225	Roll:	0.423	Pitch:	3.270	Yaw:	-1.455	Thrust:	64.121
Time:	4.274	Roll Set Point:	0.119	Pitch Set Point:	-0.123	Yaw Set Point:	0.032	X_WP:	0.000	Y_WP:	0.000	Y_WP:	0.500	X:	-0.059	Y:	0.062	Z:	0.566	yaw:	-1.836	yaw rate:	13.717	Roll:	0.641	Pitch:	3.391	Yaw:	1.692	Thrust:	63.907
Time:	4.285	Roll Set Point:	0.114	Pitch Set Point:	-0.125	Yaw Set Point:	0.031	X_WP:	0.000	Y_WP:	0.000	Y_WP:	0.500	X:	-0.056	Y:	0.064	Z:	0.570	yaw:	-1.804	yaw rate:	3.169	Roll:	1.842	Pitch:	3.741	Yaw:	-0.774	Thrust:	57.998
Time:	4.296	Roll Set Point:	0.112	Pitch Set Point:	-0.126	Yaw Set Point:	0.041	X_WP:	0.000	Y_WP:	0.000	Y_WP:	0.500	X:	-0.055	Y:	0.064	Z:	0.573	yaw:	-2.339	yaw rate:	-53.481	Roll:	-0.613	Pitch:	1.996	Yaw:	-14.974	Thrust:	63.807
Time:	4.307	Roll Set Point:	0.108	Pitch Set Point:	-0.128	Yaw Set Point:	0.034	X_WP:	0.000	Y_WP:	0.000	Y_WP:	0.500	X:	-0.053	Y:	0.065	Z:	0.577	yaw:	-1.934	yaw rate:	40.459	Roll:	1.412	Pitch:	3.921	Yaw:	7.894	Thrust:	63.334
Time:	4.318	Roll Set Point:	0.105	Pitch Set Point:	-0.130	Yaw Set Point:	0.032	X_WP:	0.000	Y_WP:	0.000	Y_WP:	0.500	X:	-0.051	Y:	0.066	Z:	0.580	yaw:	-1.813	yaw rate:	12.134	Roll:	0.720	Pitch:	3.412	Yaw:	1.318	Thrust:	63.536
Time:	4.329	Roll Set Point:	0.103	Pitch Set Point:	-0.130	Yaw Set Point:	0.041	X_WP:	0.000	Y_WP:	0.000	Y_WP:	0.500	X:	-0.050	Y:	0.066	Z:	0.583	yaw:	-2.323	yaw rate:	-50.977	Roll:	-0.427	Pitch:	2.137	Yaw:	-14.355	Thrust:	63.581
Time:	4.340	Roll Set Point:	0.099	Pitch Set Point:	-0.132	Yaw Set Point:	0.038	X_WP:	0.000	Y_WP:	0.000	Y_WP:	0.500	X:	-0.048	Y:	0.067	Z:	0.586	yaw:	-2.184	yaw rate:	13.855	Roll:	1.141	Pitch:	3.763	Yaw:	1.192	Thrust:	62.998
Time:	4.351	Roll Set Point:	0.094	Pitch Set Point:	-0.134	Yaw Set Point:	0.039	X_WP:	0.000	Y_WP:	0.000	Y_WP:	0.500	X:	-0.046	Y:	0.068	Z:	0.590	yaw:	-2.209	yaw rate:	-2.436	Roll:	1.756	Pitch:	3.577	Yaw:	-2.720	Thrust:	57.328
Time:	4.362	Roll Set Point:	0.092	Pitch Set Point:	-0.136	Yaw Set Point:	0.038	X_WP:	0.000	Y_WP:	0.000	Y_WP:	0.500	X:	-0.044	Y:	0.069	Z:	0.593	yaw:	-2.203	yaw rate:	0.579	Roll:	0.554	Pitch:	3.258	Yaw:	-2.002	Thrust:	63.777
Time:	4.373	Roll Set Point:	0.089	Pitch Set Point:	-0.136	Yaw Set Point:	0.047	X_WP:	0.000	Y_WP:	0.000	Y_WP:	0.500	X:	-0.043	Y:	0.069	Z:	0.596	yaw:	-2.708	yaw rate:	-50.478	Roll:	-0.251	Pitch:	2.293	Yaw:	-14.808	Thrust:	63.493
Time:	4.384	Roll Set Point:	0.085	Pitch Set Point:	-0.138	Yaw Set Point:	0.039	X_WP:	0.000	Y_WP:	0.000	Y_WP:	0.500	X:	-0.041	Y:	0.070	Z:	0.598	yaw:	-2.249	yaw rate:	45.826	Roll:	1.638	Pitch:	3.916	Yaw:	8.653	Thrust:	62.714
Time:	4.395	Roll Set Point:	0.083	Pitch Set Point:	-0.139	Yaw Set Point:	0.048	X_WP:	0.000	Y_WP:	0.000	Y_WP:	0.500	X:	-0.040	Y:	0.071	Z:	0.601	yaw:	-2.758	yaw rate:	-50.897	Roll:	-0.062	Pitch:	2.578	Yaw:	-15.028	Thrust:	62.864
Time:	4.406	Roll Set Point:	0.078	Pitch Set Point:	-0.141	Yaw Set Point:	0.044	X_WP:	0.000	Y_WP:	0.000	Y_WP:	0.500	X:	-0.038	Y:	0.071	Z:	0.605	yaw:	-2.501	yaw rate:	25.724	Roll:	2.424	Pitch:	4.134	Yaw:	3.522	Thrust:	56.903
Time:	4.417	Roll Set Point:	0.075	Pitch Set Point:	-0.143	Yaw Set Point:	0.038	X_WP:	0.000	Y_WP:	0.000	Y_WP:	0.500	X:	-0.036	Y:	0.072	Z:	0.608	yaw:	-2.199	yaw rate:	30.204	Roll:	1.550	Pitch:	3.749	Yaw:	4.974	Thrust:	63.140
Time:	4.428	Roll Set Point:	0.071	Pitch Set Point:	-0.144	Yaw Set Point:	0.038	X_WP:	0.000	Y_WP:	0.000	Y_WP:	0.500	X:	-0.034	Y:	0.073	Z:	0.610	yaw:	-2.157	yaw rate:	4.210	Roll:	1.158	Pitch:	3.195	Yaw:	-1.132	Thrust:	62.360
Time:	4.439	Roll Set Point:	0.069	Pitch Set Point:	-0.145	Yaw Set Point:	0.044	X_WP:	0.000	Y_WP:	0.000	Y_WP:	0.500	X:	-0.033	Y:	0.073	Z:	0.613	yaw:	-2.528	yaw rate:	-37.103	Roll:	-0.133	Pitch:	2.613	Yaw:	-11.466	Thrust:	63.365
Time:	4.450	Roll Set Point:	0.065	Pitch Set Point:	-0.147	Yaw Set Point:	0.045	X_WP:	0.000	Y_WP:	0.000	Y_WP:	0.500	X:	-0.031	Y:	0.074	Z:	0.616	yaw:	-2.603	yaw rate:	-7.492	Roll:	1.886	Pitch:	3.724	Yaw:	-4.555	Thrust:	57.380
Time:	4.461	Roll Set Point:	0.062	Pitch Set Point:	-0.148	Yaw Set Point:	0.040	X_WP:	0.000	Y_WP:	0.000	Y_WP:	0.500	X:	-0.029	Y:	0.075	Z:	0.619	yaw:	-2.279	yaw rate:	32.379	Roll:	1.716	Pitch:	3.710	Yaw:	5.356	Thrust:	61.903
Time:	4.472	Roll Set Point:	0.060	Pitch Set Point:	-0.149	Yaw Set Point:	0.046	X_WP:	0.000	Y_WP:	0.000	Y_WP:	0.500	X:	-0.028	Y:	0.075	Z:	0.621	yaw:	-2.631	yaw rate:	-35.197	Roll:	-0.055	Pitch:	2.664	Yaw:	-11.162	Thrust:	63.075
Time:	4.483	Roll Set Point:	0.057	Pitch Set Point:	-0.150	Yaw Set Point:	0.042	X_WP:	0.000	Y_WP:	0.000	Y_WP:	0.500	X:	-0.027	Y:	0.076	Z:	0.624	yaw:	-2.390	yaw rate:	24.130	Roll:	1.439	Pitch:	3.638	Yaw:	3.228	Thrust:	61.638
Time:	4.494	Roll Set Point:	0.055	Pitch Set Point:	-0.151	Yaw Set Point:	0.050	X_WP:	0.000	Y_WP:	0.000	Y_WP:	0.500	X:	-0.025	Y:	0.076	Z:	0.626	yaw:	-2.885	yaw rate:	-49.568	Roll:	-0.252	Pitch:	2.649	Yaw:	-14.970	Thrust:	62.446
Time:	4.505	Roll Set Point:	0.051	Pitch Set Point:	-0.152	Yaw Set Point:	0.045	X_WP:	0.000	Y_WP:	0.000	Y_WP:	0.500	X:	-0.024	Y:	0.077	Z:	0.628	yaw:	-2.554	yaw rate:	33.107	Roll:	1.657	Pitch:	3.592	Yaw:	5.090	Thrust:	62.029
Time:	4.516	Roll Set Point:	0.048	Pitch Set Point:	-0.153	Yaw Set Point:	0.047	X_WP:	0.000	Y_WP:	0.000	Y_WP:	0.500	X:	-0.022	Y:	0.077	Z:	0.631	yaw:	-2.686	yaw rate:	-13.144	Roll:	1.468	Pitch:	3.089	Yaw:	-6.067	Thrust:	58.025
Time:	4.527	Roll Set Point:	0.045	Pitch Set Point:	-0.155	Yaw Set Point:	0.046	X_WP:	0.000	Y_WP:	0.000	Y_WP:	0.500	X:	-0.021	Y:	0.078	Z:	0.633	yaw:	-2.616	yaw rate:	7.002	Roll:	1.306	Pitch:	3.513	Yaw:	-1.198	Thrust:	61.767
Time:	4.538	Roll Set Point:	0.042	Pitch Set Point:	-0.156	Yaw Set Point:	0.040	X_WP:	0.000	Y_WP:	0.000	Y_WP:	0.500	X:	-0.019	Y:	0.078	Z:	0.635	yaw:	-2.301	yaw rate:	31.486	Roll:	1.870	Pitch:	3.665	Yaw:	5.044	Thrust:	61.452
Time:	4.549	Roll Set Point:	0.040	Pitch Set Point:	-0.156	Yaw Set Point:	0.046	X_WP:	0.000	Y_WP:	0.000	Y_WP:	0.500	X:	-0.018	Y:	0.079	Z:	0.637	yaw:	-2.630	yaw rate:	-32.931	Roll:	-0.147	Pitch:	2.655	Yaw:	-10.716	Thrust:	62.035
Time:	4.561	Roll Set Point:	0.037	Pitch Set Point:	-0.158	Yaw Set Point:	0.046	X_WP:	0.000	Y_WP:	0.000	Y_WP:	0.500	X:	-0.017	Y:	0.079	Z:	0.640	yaw:	-2.612	yaw rate:	1.780	Roll:	1.931	Pitch:	3.732	Yaw:	-2.459	Thrust:	58.149
Time:	4.572	Roll Set Point:	0.035	Pitch Set Point:	-0.159	Yaw Set Point:	0.048	X_WP:	0.000	Y_WP:	0.000	Y_WP:	0.500	X:	-0.015	Y:	0.080	Z:	0.642	yaw:	-2.773	yaw rate:	-16.084	Roll:	0.496	Pitch:	2.884	Yaw:	-6.936	Thrust:	62.004
Time:	4.583	Roll Set Point:	0.032	Pitch Set Point:	-0.159	Yaw Set Point:	0.049	X_WP:	0.000	Y_WP:	0.000	Y_WP:	0.500	X:	-0.014	Y:	0.080	Z:	0.644	yaw:	-2.788	yaw rate:	-1.428	Roll:	0.875	Pitch:	3.031	Yaw:	-3.488	Thrust:	61.820
Time:	4.594	Roll Set Point:	0.030	Pitch Set Point:	-0.160	Yaw Set Point:	0.052	X_WP:	0.000	Y_WP:	0.000	Y_WP:	0.500	X:	-0.013	Y:	0.081	Z:	0.646	yaw:	-3.007	yaw rate:	-21.988	Roll:	0.539	Pitch:	3.295	Yaw:	-8.686	Thrust:	60.933
Time:	4.605	Roll Set Point:	0.027	Pitch Set Point:	-0.162	Yaw Set Point:	0.039	X_WP:	0.000	Y_WP:	0.000	Y_WP:	0.500	X:	-0.012	Y:	0.081	Z:	0.647	yaw:	-2.249	yaw rate:	75.873	Roll:	2.884	Pitch:	3.709	Yaw:	15.554	Thrust:	61.872
Time:	4.616	Roll Set Point:	0.025	Pitch Set Point:	-0.162	Yaw Set Point:	0.053	X_WP:	0.000	Y_WP:	0.000	Y_WP:	0.500	X:	-0.010	Y:	0.081	Z:	0.650	yaw:	-3.030	yaw rate:	-78.151	Roll:	-0.275	Pitch:	2.901	Yaw:	-22.111	Thrust:	58.292
Time:	4.627	Roll Set Point:	0.022	Pitch Set Point:	-0.163	Yaw Set Point:	0.049	X_WP:	0.000	Y_WP:	0.000	Y_WP:	0.500	X:	-0.009	Y:	0.082	Z:	0.651	yaw:	-2.784	yaw rate:	24.619	Roll:	1.427	Pitch:	3.536	Yaw:	2.657	Thrust:	61.655
Time:	4.638	Roll Set Point:	0.020	Pitch Set Point:	-0.164	Yaw Set Point:	0.046	X_WP:	0.000	Y_WP:	0.000	Y_WP:	0.500	X:	-0.008	Y:	0.082	Z:	0.653	yaw:	-2.626	yaw rate:	15.817	Roll:	1.310	Pitch:	3.093	Yaw:	0.778	Thrust:	61.479
Time:	4.649	Roll Set Point:	0.019	Pitch Set Point:	-0.164	Yaw Set Point:	0.051	X_WP:	0.000	Y_WP:	0.000	Y_WP:	0.500	X:	-0.007	Y:	0.082	Z:	0.654	yaw:	-2.929	yaw rate:	-30.279	Roll:	0.101	Pitch:	2.889	Yaw:	-10.596	Thrust:	61.777
Time:	4.660	Roll Set Point:	0.016	Pitch Set Point:	-0.165	Yaw Set Point:	0.043	X_WP:	0.000	Y_WP:	0.000	Y_WP:	0.500	X:	-0.006	Y:	0.083	Z:	0.655	yaw:	-2.455	yaw rate:	47.390	Roll:	2.342	Pitch:	3.565	Yaw:	8.489	Thrust:	61.668
Time:	4.671	Roll Set Point:	0.015	Pitch Set Point:	-0.166	Yaw Set Point:	0.044	X_WP:	0.000	Y_WP:	0.000	Y_WP:	0.500	X:	-0.005	Y:	0.083	Z:	0.656	yaw:	-2.539	yaw rate:	-8.410	Roll:	0.088	Pitch:	2.729	Yaw:	-4.883	Thrust:	61.527
Time:	4.682	Roll Set Point:	0.012	Pitch Set Point:	-0.167	Yaw Set Point:	0.048	X_WP:	0.000	Y_WP:	0.000	Y_WP:	0.500	X:	-0.004	Y:	0.084	Z:	0.658	yaw:	-2.728	yaw rate:	-18.919	Roll:	1.325	Pitch:	3.630	Yaw:	-7.650	Thrust:	59.342
Time:	4.693	Roll Set Point:	0.010	Pitch Set Point:	-0.167	Yaw Set Point:	0.047	X_WP:	0.000	Y_WP:	0.000	Y_WP:	0.500	X:	-0.003	Y:	0.084	Z:	0.659	yaw:	-2.703	yaw rate:	2.506	Roll:	1.035	Pitch:	3.057	Yaw:	-2.541	Thrust:	62.171
Time:	4.704	Roll Set Point:	0.009	Pitch Set Point:	-0.168	Yaw Set Point:	0.049	X_WP:	0.000	Y_WP:	0.000	Y_WP:	0.500	X:	-0.002	Y:	0.084	Z:	0.660	yaw:	-2.830	yaw rate:	-12.679	Roll:	0.357	Pitch:	3.114	Yaw:	-6.332	Thrust:	61.654
Time:	4.715	Roll Set Point:	0.006	Pitch Set Point:	-0.169	Yaw Set Point:	0.055	X_WP:	0.000	Y_WP:	0.000	Y_WP:	0.500	X:	-0.001	Y:	0.084	Z:	0.661	yaw:	-3.140	yaw rate:	-31.058	Roll:	0.827	Pitch:	3.241	Yaw:	-11.140	Thrust:	60.104
Time:	4.726	Roll Set Point:	0.005	Pitch Set Point:	-0.169	Yaw Set Point:	0.051	X_WP:	0.000	Y_WP:	0.000	Y_WP:	0.500	X:	-0.000	Y:	0.085	Z:	0.662	yaw:	-2.907	yaw rate:	23.340	Roll:	0.934	Pitch:	3.069	Yaw:	2.086	Thrust:	61.756
Time:	4.737	Roll Set Point:	0.003	Pitch Set Point:	-0.170	Yaw Set Point:	0.053	X_WP:	0.000	Y_WP:	0.000	Y_WP:	0.500	X:	0.001	Y:	0.085	Z:	0.663	yaw:	-3.016	yaw rate:	-10.882	Roll:	0.605	Pitch:	3.179	Yaw:	-6.200	Thrust:	61.778
Time:	4.748	Roll Set Point:	0.003	Pitch Set Point:	-0.170	Yaw Set Point:	0.060	X_WP:	0.000	Y_WP:	0.000	Y_WP:	0.500	X:	0.001	Y:	0.085	Z:	0.664	yaw:	-3.422	yaw rate:	-40.654	Roll:	-0.369	Pitch:	2.829	Yaw:	-13.846	Thrust:	62.383
Time:	4.759	Roll Set Point:	0.001	Pitch Set Point:	-0.170	Yaw Set Point:	0.058	X_WP:	0.000	Y_WP:	0.000	Y_WP:	0.500	X:	0.002	Y:	0.085	Z:	0.664	yaw:	-3.295	yaw rate:	12.690	Roll:	1.312	Pitch:	3.147	Yaw:	-1.016	Thrust:	61.374
Time:	4.771	Roll Set Point:	-0.004	Pitch Set Point:	-0.172	Yaw Set Point:	0.047	X_WP:	0.000	Y_WP:	0.000	Y_WP:	0.500	X:	0.004	Y:	0.086	Z:	0.666	yaw:	-2.711	yaw rate:	18.223	Roll:	3.435	Pitch:	3.626	Yaw:	9.988	Thrust:	63.810
Time:	4.782	Roll Set Point:	-0.005	Pitch Set Point:	-0.172	Yaw Set Point:	0.048	X_WP:	0.000	Y_WP:	0.000	Y_WP:	0.500	X:	0.005	Y:	0.086	Z:	0.666	yaw:	-2.722	yaw rate:	-1.091	Roll:	0.854	Pitch:	3.130	Yaw:	-3.513	Thrust:	62.250
Time:	4.793	Roll Set Point:	-0.005	Pitch Set Point:	-0.172	Yaw Set Point:	0.048	X_WP:	0.000	Y_WP:	0.000	Y_WP:	0.500	X:	0.005	Y:	0.086	Z:	0.666	yaw:	-2.722	yaw rate:	-1.091	Roll:	-0.299	Pitch:	2.724	Yaw:	-3.265	Thrust:	63.766
Time:	4.804	Roll Set Point:	-0.005	Pitch Set Point:	-0.172	Yaw Set Point:	0.060	X_WP:	0.000	Y_WP:	0.000	Y_WP:	0.500	X:	0.005	Y:	0.086	Z:	0.666	yaw:	-3.450	yaw rate:	-72.830	Roll:	-1.416	Pitch:	2.770	Yaw:	-21.579	Thrust:	62.211
Time:	4.815	Roll Set Point:	-0.007	Pitch Set Point:	-0.173	Yaw Set Point:	0.053	X_WP:	0.000	Y_WP:	0.000	Y_WP:	0.500	X:	0.006	Y:	0.086	Z:	0.667	yaw:	-3.047	yaw rate:	40.329	Roll:	1.713	Pitch:	3.442	Yaw:	5.830	Thrust:	61.827
Time:	4.826	Roll Set Point:	-0.008	Pitch Set Point:	-0.173	Yaw Set Point:	0.056	X_WP:	0.000	Y_WP:	0.000	Y_WP:	0.500	X:	0.006	Y:	0.087	Z:	0.667	yaw:	-3.181	yaw rate:	-13.389	Roll:	0.491	Pitch:	3.093	Yaw:	-7.119	Thrust:	61.939
Time:	4.837	Roll Set Point:	-0.009	Pitch Set Point:	-0.174	Yaw Set Point:	0.057	X_WP:	0.000	Y_WP:	0.000	Y_WP:	0.500	X:	0.007	Y:	0.087	Z:	0.667	yaw:	-3.257	yaw rate:	-7.611	Roll:	0.395	Pitch:	2.973	Yaw:	-5.862	Thrust:	62.577
Time:	4.848	Roll Set Point:	-0.010	Pitch Set Point:	-0.174	Yaw Set Point:	0.057	X_WP:	0.000	Y_WP:	0.000	Y_WP:	0.500	X:	0.007	Y:	0.087	Z:	0.667	yaw:	-3.244	yaw rate:	1.261	Roll:	0.567	Pitch:	2.972	Yaw:	-3.755	Thrust:	62.151
Time:	4.859	Roll Set Point:	-0.011	Pitch Set Point:	-0.174	Yaw Set Point:	0.053	X_WP:	0.000	Y_WP:	0.000	Y_WP:	0.500	X:	0.008	Y:	0.087	Z:	0.667	yaw:	-3.041	yaw rate:	20.353	Roll:	1.016	Pitch:	2.820	Yaw:	1.057	Thrust:	62.196
Time:	4.870	Roll Set Point:	-0.012	Pitch Set Point:	-0.174	Yaw Set Point:	0.058	X_WP:	0.000	Y_WP:	0.000	Y_WP:	0.500	X:	0.009	Y:	0.087	Z:	0.667	yaw:	-3.308	yaw rate:	-26.691	Roll:	0.129	Pitch:	2.864	Yaw:	-10.503	Thrust:	62.884
Time:	4.881	Roll Set Point:	-0.013	Pitch Set Point:	-0.175	Yaw Set Point:	0.061	X_WP:	0.000	Y_WP:	0.000	Y_WP:	0.500	X:	0.009	Y:	0.087	Z:	0.667	yaw:	-3.519	yaw rate:	-21.089	Roll:	0.245	Pitch:	3.343	Yaw:	-9.480	Thrust:	62.018
Time:	4.892	Roll Set Point:	-0.014	Pitch Set Point:	-0.175	Yaw Set Point:	0.058	X_WP:	0.000	Y_WP:	0.000	Y_WP:	0.500	X:	0.010	Y:	0.087	Z:	0.667	yaw:	-3.319	yaw rate:	19.941	Roll:	0.999	Pitch:	2.790	Yaw:	0.524	Thrust:	62.453
Time:	4.903	Roll Set Point:	-0.015	Pitch Set Point:	-0.175	Yaw Set Point:	0.058	X_WP:	0.000	Y_WP:	0.000	Y_WP:	0.500	X:	0.010	Y:	0.087	Z:	0.667	yaw:	-3.308	yaw rate:	1.113	Roll:	0.419	Pitch:	2.865	Yaw:	-3.942	Thrust:	62.145
Time:	4.914	Roll Set Point:	-0.017	Pitch Set Point:	-0.175	Yaw Set Point:	0.050	X_WP:	0.000	Y_WP:	0.000	Y_WP:	0.500	X:	0.010	Y:	0.087	Z:	0.666	yaw:	-2.868	yaw rate:	44.052	Roll:	1.519	Pitch:	3.027	Yaw:	6.850	Thrust:	62.250
Time:	4.925	Roll Set Point:	-0.018	Pitch Set Point:	-0.175	Yaw Set Point:	0.049	X_WP:	0.000	Y_WP:	0.000	Y_WP:	0.500	X:	0.011	Y:	0.087	Z:	0.666	yaw:	-2.792	yaw rate:	7.515	Roll:	0.930	Pitch:	2.932	Yaw:	-1.723	Thrust:	62.604
Time:	4.936	Roll Set Point:	-0.019	Pitch Set Point:	-0.175	Yaw Set Point:	0.046	X_WP:	0.000	Y_WP:	0.000	Y_WP:	0.500	X:	0.011	Y:	0.087	Z:	0.666	yaw:	-2.608	yaw rate:	18.463	Roll:	0.855	Pitch:	2.698	Yaw:	1.110	Thrust:	62.733
Time:	4.947	Roll Set Point:	-0.020	Pitch Set Point:	-0.175	Yaw Set Point:	0.048	X_WP:	0.000	Y_WP:	0.000	Y_WP:	0.500	X:	0.012	Y:	0.087	Z:	0.665	yaw:	-2.765	yaw rate:	-15.757	Roll:	0.337	Pitch:	3.004	Yaw:	-7.236	Thrust:	61.808
Time:	4.958	Roll Set Point:	-0.020	Pitch Set Point:	-0.175	Yaw Set Point:	0.046	X_WP:	0.000	Y_WP:	0.000	Y_WP:	0.500	X:	0.012	Y:	0.087	Z:	0.665	yaw:	-2.613	yaw rate:	15.211	Roll:	0.735	Pitch:	2.861	Yaw:	0.317	Thrust:	62.671
Time:	4.969	Roll Set Point:	-0.021	Pitch Set Point:	-0.175	Yaw Set Point:	0.045	X_WP:	0.000	Y_WP:	0.000	Y_WP:	0.500	X:	0.013	Y:	0.087	Z:	0.664	yaw:	-2.557	yaw rate:	5.657	Roll:	0.750	Pitch:	2.849	Yaw:	-1.897	Thrust:	63.577
Time:	4.980	Roll Set Point:	-0.022	Pitch Set Point:	-0.175	Yaw Set Point:	0.046	X_WP:	0.000	Y_WP:	0.000	Y_WP:	0.500	X:	0.013	Y:	0.087	Z:	0.663	yaw:	-2.628	yaw rate:	-7.144	Roll:	0.227	Pitch:	2.873	Yaw:	-5.024	Thrust:	63.663
Time:	4.993	Roll Set Point:	-0.023	Pitch Set Point:	-0.175	Yaw Set Point:	0.046	X_WP:	0.000	Y_WP:	0.000	Y_WP:	0.500	X:	0.013	Y:	0.087	Z:	0.662	yaw:	-2.643	yaw rate:	-3.943	Roll:	0.554	Pitch:	2.737	Yaw:	-3.646	Thrust:	70.764
Time:	5.004	Roll Set Point:	-0.023	Pitch Set Point:	-0.175	Yaw Set Point:	0.048	X_WP:	0.000	Y_WP:	0.000	Y_WP:	0.500	X:	0.013	Y:	0.087	Z:	0.661	yaw:	-2.763	yaw rate:	-12.038	Roll:	-0.219	Pitch:	2.651	Yaw:	-6.391	Thrust:	63.151
