Time:	2.141	Roll Set Point:	-0.017	Pitch Set Point:	0.032	Yaw Set Point:	-2.937	X_WP:	0.000	Y_WP:	0.000	Y_WP:	0.500	X:	0.163	Y:	0.066	Z:	0.404	yaw:	168.273	yaw rate:	3.982	Roll:	-4.226	Pitch:	-2.838	Yaw:	234.954	Thrust:	5.256
Time:	2.157	Roll Set Point:	-0.017	Pitch Set Point:	0.032	Yaw Set Point:	-2.936	X_WP:	0.000	Y_WP:	0.000	Y_WP:	0.500	X:	0.163	Y:	0.066	Z:	0.405	yaw:	168.215	yaw rate:	-5.777	Roll:	-4.133	Pitch:	-2.953	Yaw:	234.819	Thrust:	5.230
Time:	2.172	Roll Set Point:	-0.017	Pitch Set Point:	0.032	Yaw Set Point:	-2.936	X_WP:	0.000	Y_WP:	0.000	Y_WP:	0.500	X:	0.163	Y:	0.066	Z:	0.404	yaw:	168.246	yaw rate:	-1.338	Roll:	-4.310	Pitch:	-2.760	Yaw:	236.997	Thrust:	5.705
Time:	2.188	Roll Set Point:	-0.017	Pitch Set Point:	0.032	Yaw Set Point:	-2.937	X_WP:	0.000	Y_WP:	0.000	Y_WP:	0.500	X:	0.163	Y:	0.066	Z:	0.404	yaw:	168.278	yaw rate:	3.186	Roll:	-4.286	Pitch:	-2.815	Yaw:	237.057	Thrust:	5.859
Time:	2.204	Roll Set Point:	-0.017	Pitch Set Point:	0.032	Yaw Set Point:	-2.936	X_WP:	0.000	Y_WP:	0.000	Y_WP:	0.500	X:	0.163	Y:	0.066	Z:	0.404	yaw:	168.237	yaw rate:	-4.155	Roll:	-4.170	Pitch:	-2.973	Yaw:	235.769	Thrust:	5.869
Time:	2.219	Roll Set Point:	-0.017	Pitch Set Point:	0.032	Yaw Set Point:	-2.937	X_WP:	0.000	Y_WP:	0.000	Y_WP:	0.500	X:	0.163	Y:	0.066	Z:	0.404	yaw:	168.252	yaw rate:	1.565	Roll:	-4.286	Pitch:	-2.816	Yaw:	236.749	Thrust:	6.279
Time:	2.235	Roll Set Point:	-0.017	Pitch Set Point:	0.032	Yaw Set Point:	-2.936	X_WP:	0.000	Y_WP:	0.000	Y_WP:	0.500	X:	0.163	Y:	0.066	Z:	0.404	yaw:	168.231	yaw rate:	-2.119	Roll:	-4.217	Pitch:	-2.868	Yaw:	236.102	Thrust:	6.170
Time:	2.266	Roll Set Point:	-0.017	Pitch Set Point:	0.032	Yaw Set Point:	-2.936	X_WP:	0.000	Y_WP:	0.000	Y_WP:	0.500	X:	0.163	Y:	0.066	Z:	0.404	yaw:	168.242	yaw rate:	-0.815	Roll:	-4.318	Pitch:	-2.907	Yaw:	238.091	Thrust:	7.779
Time:	2.281	Roll Set Point:	-0.017	Pitch Set Point:	0.032	Yaw Set Point:	-2.936	X_WP:	0.000	Y_WP:	0.000	Y_WP:	0.500	X:	0.163	Y:	0.066	Z:	0.404	yaw:	168.242	yaw rate:	-0.815	Roll:	-4.271	Pitch:	-2.871	Yaw:	236.473	Thrust:	6.688
Time:	2.297	Roll Set Point:	-0.017	Pitch Set Point:	0.032	Yaw Set Point:	-2.937	X_WP:	0.000	Y_WP:	0.000	Y_WP:	0.500	X:	0.163	Y:	0.066	Z:	0.404	yaw:	168.255	yaw rate:	1.102	Roll:	-4.281	Pitch:	-2.844	Yaw:	236.704	Thrust:	6.936
Time:	2.313	Roll Set Point:	-0.017	Pitch Set Point:	0.032	Yaw Set Point:	-2.937	X_WP:	0.000	Y_WP:	0.000	Y_WP:	0.500	X:	0.163	Y:	0.066	Z:	0.404	yaw:	168.255	yaw rate:	1.102	Roll:	-4.282	Pitch:	-2.878	Yaw:	236.491	Thrust:	7.047
Time:	2.328	Roll Set Point:	-0.017	Pitch Set Point:	0.032	Yaw Set Point:	-2.937	X_WP:	0.000	Y_WP:	0.000	Y_WP:	0.500	X:	0.163	Y:	0.066	Z:	0.405	yaw:	168.267	yaw rate:	1.214	Roll:	-4.321	Pitch:	-2.814	Yaw:	236.714	Thrust:	7.027
Time:	2.344	Roll Set Point:	-0.017	Pitch Set Point:	0.032	Yaw Set Point:	-2.936	X_WP:	0.000	Y_WP:	0.000	Y_WP:	0.500	X:	0.163	Y:	0.066	Z:	0.404	yaw:	168.229	yaw rate:	-3.818	Roll:	-4.217	Pitch:	-2.997	Yaw:	235.811	Thrust:	7.542
Time:	2.360	Roll Set Point:	-0.017	Pitch Set Point:	0.032	Yaw Set Point:	-2.937	X_WP:	0.000	Y_WP:	0.000	Y_WP:	0.500	X:	0.163	Y:	0.066	Z:	0.404	yaw:	168.268	yaw rate:	2.114	Roll:	-4.370	Pitch:	-2.761	Yaw:	237.177	Thrust:	7.681
Time:	2.375	Roll Set Point:	-0.017	Pitch Set Point:	0.032	Yaw Set Point:	-2.936	X_WP:	0.000	Y_WP:	0.000	Y_WP:	0.500	X:	0.163	Y:	0.066	Z:	0.405	yaw:	168.231	yaw rate:	-3.759	Roll:	-4.231	Pitch:	-2.964	Yaw:	235.820	Thrust:	7.508
Time:	2.391	Roll Set Point:	-0.017	Pitch Set Point:	0.032	Yaw Set Point:	-2.936	X_WP:	0.000	Y_WP:	0.000	Y_WP:	0.500	X:	0.163	Y:	0.066	Z:	0.405	yaw:	168.231	yaw rate:	-3.759	Roll:	-4.309	Pitch:	-2.897	Yaw:	236.457	Thrust:	7.939
Time:	2.406	Roll Set Point:	-0.017	Pitch Set Point:	0.032	Yaw Set Point:	-2.936	X_WP:	0.000	Y_WP:	0.000	Y_WP:	0.500	X:	0.163	Y:	0.066	Z:	0.404	yaw:	168.224	yaw rate:	-1.075	Roll:	-4.326	Pitch:	-2.967	Yaw:	236.341	Thrust:	8.198
Time:	2.422	Roll Set Point:	-0.017	Pitch Set Point:	0.032	Yaw Set Point:	-2.936	X_WP:	0.000	Y_WP:	0.000	Y_WP:	0.500	X:	0.163	Y:	0.066	Z:	0.405	yaw:	168.228	yaw rate:	0.381	Roll:	-4.325	Pitch:	-2.862	Yaw:	236.517	Thrust:	8.210
Time:	2.438	Roll Set Point:	-0.017	Pitch Set Point:	0.032	Yaw Set Point:	-2.937	X_WP:	0.000	Y_WP:	0.000	Y_WP:	0.500	X:	0.163	Y:	0.066	Z:	0.404	yaw:	168.276	yaw rate:	4.826	Roll:	-4.406	Pitch:	-2.849	Yaw:	237.329	Thrust:	8.788
Time:	2.453	Roll Set Point:	-0.017	Pitch Set Point:	0.032	Yaw Set Point:	-2.937	X_WP:	0.000	Y_WP:	0.000	Y_WP:	0.500	X:	0.163	Y:	0.066	Z:	0.404	yaw:	168.276	yaw rate:	4.826	Roll:	-4.335	Pitch:	-2.911	Yaw:	236.524	Thrust:	8.668
Time:	2.469	Roll Set Point:	-0.017	Pitch Set Point:	0.032	Yaw Set Point:	-2.937	X_WP:	0.000	Y_WP:	0.000	Y_WP:	0.500	X:	0.163	Y:	0.066	Z:	0.404	yaw:	168.281	yaw rate:	4.048	Roll:	-4.339	Pitch:	-2.862	Yaw:	236.598	Thrust:	8.697
Time:	2.485	Roll Set Point:	-0.017	Pitch Set Point:	0.032	Yaw Set Point:	-2.936	X_WP:	0.000	Y_WP:	0.000	Y_WP:	0.500	X:	0.163	Y:	0.066	Z:	0.404	yaw:	168.246	yaw rate:	-3.529	Roll:	-4.293	Pitch:	-2.995	Yaw:	235.886	Thrust:	9.017
Time:	2.500	Roll Set Point:	-0.017	Pitch Set Point:	0.032	Yaw Set Point:	-2.937	X_WP:	0.000	Y_WP:	0.000	Y_WP:	0.500	X:	0.163	Y:	0.066	Z:	0.404	yaw:	168.270	yaw rate:	2.427	Roll:	-4.412	Pitch:	-2.896	Yaw:	236.918	Thrust:	9.171
Time:	2.516	Roll Set Point:	-0.017	Pitch Set Point:	0.032	Yaw Set Point:	-2.937	X_WP:	0.000	Y_WP:	0.000	Y_WP:	0.500	X:	0.163	Y:	0.066	Z:	0.404	yaw:	168.270	yaw rate:	2.427	Roll:	-4.357	Pitch:	-2.926	Yaw:	236.512	Thrust:	9.375
Time:	2.531	Roll Set Point:	-0.017	Pitch Set Point:	0.032	Yaw Set Point:	-2.937	X_WP:	0.000	Y_WP:	0.000	Y_WP:	0.500	X:	0.163	Y:	0.066	Z:	0.404	yaw:	168.281	yaw rate:	4.148	Roll:	-4.368	Pitch:	-2.897	Yaw:	236.711	Thrust:	9.618
Time:	2.547	Roll Set Point:	-0.017	Pitch Set Point:	0.032	Yaw Set Point:	-2.936	X_WP:	0.000	Y_WP:	0.000	Y_WP:	0.500	X:	0.163	Y:	0.066	Z:	0.405	yaw:	168.235	yaw rate:	-4.608	Roll:	-4.290	Pitch:	-3.013	Yaw:	235.691	Thrust:	9.538
Time:	2.563	Roll Set Point:	-0.017	Pitch Set Point:	0.032	Yaw Set Point:	-2.937	X_WP:	0.000	Y_WP:	0.000	Y_WP:	0.500	X:	0.163	Y:	0.066	Z:	0.404	yaw:	168.265	yaw rate:	3.050	Roll:	-4.412	Pitch:	-2.879	Yaw:	237.016	Thrust:	10.106
Time:	2.578	Roll Set Point:	-0.017	Pitch Set Point:	0.032	Yaw Set Point:	-2.937	X_WP:	0.000	Y_WP:	0.000	Y_WP:	0.500	X:	0.163	Y:	0.066	Z:	0.404	yaw:	168.265	yaw rate:	3.050	Roll:	-4.379	Pitch:	-2.941	Yaw:	236.505	Thrust:	10.092
Time:	2.594	Roll Set Point:	-0.017	Pitch Set Point:	0.032	Yaw Set Point:	-2.936	X_WP:	0.000	Y_WP:	0.000	Y_WP:	0.500	X:	0.163	Y:	0.066	Z:	0.404	yaw:	168.237	yaw rate:	-2.833	Roll:	-4.314	Pitch:	-3.025	Yaw:	235.991	Thrust:	10.200
Time:	2.610	Roll Set Point:	-0.017	Pitch Set Point:	0.032	Yaw Set Point:	-2.936	X_WP:	0.000	Y_WP:	0.000	Y_WP:	0.500	X:	0.163	Y:	0.066	Z:	0.404	yaw:	168.239	yaw rate:	0.206	Roll:	-4.409	Pitch:	-2.918	Yaw:	236.503	Thrust:	10.430
Time:	2.625	Roll Set Point:	-0.017	Pitch Set Point:	0.032	Yaw Set Point:	-2.936	X_WP:	0.000	Y_WP:	0.000	Y_WP:	0.500	X:	0.163	Y:	0.066	Z:	0.404	yaw:	168.239	yaw rate:	0.206	Roll:	-4.395	Pitch:	-2.954	Yaw:	236.472	Thrust:	10.639
Time:	2.641	Roll Set Point:	-0.017	Pitch Set Point:	0.032	Yaw Set Point:	-2.936	X_WP:	0.000	Y_WP:	0.000	Y_WP:	0.500	X:	0.163	Y:	0.066	Z:	0.404	yaw:	168.225	yaw rate:	0.227	Roll:	-4.370	Pitch:	-3.009	Yaw:	236.215	Thrust:	10.762
Time:	2.656	Roll Set Point:	-0.017	Pitch Set Point:	0.032	Yaw Set Point:	-2.936	X_WP:	0.000	Y_WP:	0.000	Y_WP:	0.500	X:	0.163	Y:	0.066	Z:	0.404	yaw:	168.225	yaw rate:	0.227	Roll:	-4.406	Pitch:	-2.963	Yaw:	236.449	Thrust:	10.986
Time:	2.672	Roll Set Point:	-0.017	Pitch Set Point:	0.032	Yaw Set Point:	-2.936	X_WP:	0.000	Y_WP:	0.000	Y_WP:	0.500	X:	0.163	Y:	0.066	Z:	0.404	yaw:	168.232	yaw rate:	0.651	Roll:	-4.438	Pitch:	-3.005	Yaw:	236.570	Thrust:	11.247
Time:	2.688	Roll Set Point:	-0.017	Pitch Set Point:	0.032	Yaw Set Point:	-2.936	X_WP:	0.000	Y_WP:	0.000	Y_WP:	0.500	X:	0.163	Y:	0.066	Z:	0.405	yaw:	168.247	yaw rate:	0.711	Roll:	-4.446	Pitch:	-2.864	Yaw:	236.739	Thrust:	11.216
Time:	2.703	Roll Set Point:	-0.017	Pitch Set Point:	0.032	Yaw Set Point:	-2.937	X_WP:	0.000	Y_WP:	0.000	Y_WP:	0.500	X:	0.163	Y:	0.066	Z:	0.404	yaw:	168.263	yaw rate:	1.534	Roll:	-4.463	Pitch:	-3.028	Yaw:	236.759	Thrust:	11.727
Time:	2.719	Roll Set Point:	-0.017	Pitch Set Point:	0.032	Yaw Set Point:	-2.937	X_WP:	0.000	Y_WP:	0.000	Y_WP:	0.500	X:	0.163	Y:	0.066	Z:	0.404	yaw:	168.263	yaw rate:	1.534	Roll:	-4.431	Pitch:	-2.978	Yaw:	236.505	Thrust:	11.717
Time:	2.735	Roll Set Point:	-0.017	Pitch Set Point:	0.032	Yaw Set Point:	-2.936	X_WP:	0.000	Y_WP:	0.000	Y_WP:	0.500	X:	0.163	Y:	0.066	Z:	0.404	yaw:	168.223	yaw rate:	0.150	Roll:	-4.333	Pitch:	-3.026	Yaw:	235.776	Thrust:	11.788
Time:	2.750	Roll Set Point:	-0.017	Pitch Set Point:	0.032	Yaw Set Point:	-2.936	X_WP:	0.000	Y_WP:	0.000	Y_WP:	0.500	X:	0.163	Y:	0.066	Z:	0.404	yaw:	168.223	yaw rate:	0.150	Roll:	-4.440	Pitch:	-2.987	Yaw:	236.446	Thrust:	12.062
Time:	2.766	Roll Set Point:	-0.017	Pitch Set Point:	0.032	Yaw Set Point:	-2.936	X_WP:	0.000	Y_WP:	0.000	Y_WP:	0.500	X:	0.163	Y:	0.066	Z:	0.404	yaw:	168.217	yaw rate:	-2.612	Roll:	-4.437	Pitch:	-2.972	Yaw:	236.352	Thrust:	12.274
Time:	2.781	Roll Set Point:	-0.017	Pitch Set Point:	0.032	Yaw Set Point:	-2.936	X_WP:	0.000	Y_WP:	0.000	Y_WP:	0.500	X:	0.163	Y:	0.066	Z:	0.405	yaw:	168.241	yaw rate:	2.323	Roll:	-4.503	Pitch:	-2.920	Yaw:	236.856	Thrust:	12.270
Time:	2.797	Roll Set Point:	-0.017	Pitch Set Point:	0.032	Yaw Set Point:	-2.936	X_WP:	0.000	Y_WP:	0.000	Y_WP:	0.500	X:	0.163	Y:	0.066	Z:	0.404	yaw:	168.242	yaw rate:	0.117	Roll:	-4.446	Pitch:	-3.044	Yaw:	236.492	Thrust:	12.783
Time:	2.813	Roll Set Point:	-0.017	Pitch Set Point:	0.032	Yaw Set Point:	-2.936	X_WP:	0.000	Y_WP:	0.000	Y_WP:	0.500	X:	0.163	Y:	0.066	Z:	0.404	yaw:	168.242	yaw rate:	0.117	Roll:	-4.464	Pitch:	-3.001	Yaw:	236.475	Thrust:	12.792
Time:	2.828	Roll Set Point:	-0.017	Pitch Set Point:	0.032	Yaw Set Point:	-2.937	X_WP:	0.000	Y_WP:	0.000	Y_WP:	0.500	X:	0.163	Y:	0.066	Z:	0.404	yaw:	168.261	yaw rate:	1.938	Roll:	-4.530	Pitch:	-2.938	Yaw:	236.822	Thrust:	12.935
Time:	2.844	Roll Set Point:	-0.017	Pitch Set Point:	0.032	Yaw Set Point:	-2.937	X_WP:	0.000	Y_WP:	0.000	Y_WP:	0.500	X:	0.163	Y:	0.066	Z:	0.404	yaw:	168.302	yaw rate:	8.562	Roll:	-4.546	Pitch:	-2.955	Yaw:	237.241	Thrust:	13.216
Time:	2.860	Roll Set Point:	-0.017	Pitch Set Point:	0.032	Yaw Set Point:	-2.936	X_WP:	0.000	Y_WP:	0.000	Y_WP:	0.500	X:	0.163	Y:	0.066	Z:	0.405	yaw:	168.217	yaw rate:	-8.530	Roll:	-4.344	Pitch:	-3.168	Yaw:	235.009	Thrust:	12.969
Time:	2.875	Roll Set Point:	-0.017	Pitch Set Point:	0.032	Yaw Set Point:	-2.937	X_WP:	0.000	Y_WP:	0.000	Y_WP:	0.500	X:	0.163	Y:	0.066	Z:	0.404	yaw:	168.262	yaw rate:	4.485	Roll:	-4.546	Pitch:	-2.930	Yaw:	237.251	Thrust:	13.764
Time:	2.891	Roll Set Point:	-0.017	Pitch Set Point:	0.032	Yaw Set Point:	-2.937	X_WP:	0.000	Y_WP:	0.000	Y_WP:	0.500	X:	0.163	Y:	0.066	Z:	0.404	yaw:	168.262	yaw rate:	4.485	Roll:	-4.493	Pitch:	-3.019	Yaw:	236.500	Thrust:	13.676
Time:	2.906	Roll Set Point:	-0.017	Pitch Set Point:	0.032	Yaw Set Point:	-2.936	X_WP:	0.000	Y_WP:	0.000	Y_WP:	0.500	X:	0.163	Y:	0.066	Z:	0.404	yaw:	168.226	yaw rate:	-3.580	Roll:	-4.451	Pitch:	-3.098	Yaw:	235.851	Thrust:	13.735
Time:	2.922	Roll Set Point:	-0.017	Pitch Set Point:	0.032	Yaw Set Point:	-2.937	X_WP:	0.000	Y_WP:	0.000	Y_WP:	0.500	X:	0.163	Y:	0.066	Z:	0.404	yaw:	168.253	yaw rate:	0.982	Roll:	-4.534	Pitch:	-2.943	Yaw:	236.951	Thrust:	14.026
Time:	2.938	Roll Set Point:	-0.017	Pitch Set Point:	0.032	Yaw Set Point:	-2.937	X_WP:	0.000	Y_WP:	0.000	Y_WP:	0.500	X:	0.163	Y:	0.066	Z:	0.404	yaw:	168.258	yaw rate:	0.501	Roll:	-4.514	Pitch:	-3.018	Yaw:	236.580	Thrust:	14.327
Time:	2.953	Roll Set Point:	-0.017	Pitch Set Point:	0.032	Yaw Set Point:	-2.937	X_WP:	0.000	Y_WP:	0.000	Y_WP:	0.500	X:	0.163	Y:	0.066	Z:	0.404	yaw:	168.258	yaw rate:	0.501	Roll:	-4.515	Pitch:	-3.033	Yaw:	236.496	Thrust:	14.393
Time:	2.969	Roll Set Point:	-0.017	Pitch Set Point:	0.032	Yaw Set Point:	-2.936	X_WP:	0.000	Y_WP:	0.000	Y_WP:	0.500	X:	0.163	Y:	0.066	Z:	0.404	yaw:	168.244	yaw rate:	-1.454	Roll:	-4.502	Pitch:	-3.062	Yaw:	236.232	Thrust:	14.456
Time:	2.985	Roll Set Point:	-0.017	Pitch Set Point:	0.032	Yaw Set Point:	-2.936	X_WP:	0.000	Y_WP:	0.000	Y_WP:	0.500	X:	0.163	Y:	0.066	Z:	0.404	yaw:	168.239	yaw rate:	2.493	Roll:	-4.513	Pitch:	-3.077	Yaw:	236.385	Thrust:	14.791
Time:	3.000	Roll Set Point:	-0.017	Pitch Set Point:	0.032	Yaw Set Point:	-2.936	X_WP:	0.000	Y_WP:	0.000	Y_WP:	0.500	X:	0.163	Y:	0.066	Z:	0.404	yaw:	168.235	yaw rate:	-0.432	Roll:	-4.518	Pitch:	-3.043	Yaw:	236.390	Thrust:	14.870
Time:	3.016	Roll Set Point:	-0.017	Pitch Set Point:	0.032	Yaw Set Point:	-2.937	X_WP:	0.000	Y_WP:	0.000	Y_WP:	0.500	X:	0.163	Y:	0.066	Z:	0.404	yaw:	168.276	yaw rate:	4.185	Roll:	-4.634	Pitch:	-2.980	Yaw:	237.222	Thrust:	15.296
Time:	3.031	Roll Set Point:	-0.017	Pitch Set Point:	0.032	Yaw Set Point:	-2.937	X_WP:	0.000	Y_WP:	0.000	Y_WP:	0.500	X:	0.163	Y:	0.066	Z:	0.404	yaw:	168.276	yaw rate:	4.185	Roll:	-4.545	Pitch:	-3.052	Yaw:	236.521	Thrust:	15.288
Time:	3.047	Roll Set Point:	-0.017	Pitch Set Point:	0.032	Yaw Set Point:	-2.936	X_WP:	0.000	Y_WP:	0.000	Y_WP:	0.500	X:	0.163	Y:	0.066	Z:	0.404	yaw:	168.245	yaw rate:	-1.188	Roll:	-4.472	Pitch:	-3.152	Yaw:	235.946	Thrust:	15.415
Time:	3.063	Roll Set Point:	-0.017	Pitch Set Point:	0.032	Yaw Set Point:	-2.937	X_WP:	0.000	Y_WP:	0.000	Y_WP:	0.500	X:	0.163	Y:	0.066	Z:	0.405	yaw:	168.249	yaw rate:	0.440	Roll:	-4.580	Pitch:	-3.002	Yaw:	236.556	Thrust:	15.476
Time:	3.078	Roll Set Point:	-0.017	Pitch Set Point:	0.032	Yaw Set Point:	-2.937	X_WP:	0.000	Y_WP:	0.000	Y_WP:	0.500	X:	0.163	Y:	0.066	Z:	0.405	yaw:	168.249	yaw rate:	0.440	Roll:	-4.562	Pitch:	-3.065	Yaw:	236.486	Thrust:	15.843
Time:	3.094	Roll Set Point:	-0.017	Pitch Set Point:	0.032	Yaw Set Point:	-2.936	X_WP:	0.000	Y_WP:	0.000	Y_WP:	0.500	X:	0.163	Y:	0.066	Z:	0.404	yaw:	168.243	yaw rate:	-0.624	Roll:	-4.554	Pitch:	-3.096	Yaw:	236.367	Thrust:	16.169
Time:	3.110	Roll Set Point:	-0.017	Pitch Set Point:	0.032	Yaw Set Point:	-2.937	X_WP:	0.000	Y_WP:	0.000	Y_WP:	0.500	X:	0.163	Y:	0.066	Z:	0.404	yaw:	168.260	yaw rate:	2.560	Roll:	-4.604	Pitch:	-3.032	Yaw:	236.785	Thrust:	16.110
Time:	3.125	Roll Set Point:	-0.017	Pitch Set Point:	0.032	Yaw Set Point:	-2.936	X_WP:	0.000	Y_WP:	0.000	Y_WP:	0.500	X:	0.163	Y:	0.066	Z:	0.405	yaw:	168.222	yaw rate:	-3.817	Roll:	-4.506	Pitch:	-3.190	Yaw:	235.809	Thrust:	16.233
Time:	3.141	Roll Set Point:	-0.017	Pitch Set Point:	0.032	Yaw Set Point:	-2.936	X_WP:	0.000	Y_WP:	0.000	Y_WP:	0.500	X:	0.163	Y:	0.066	Z:	0.405	yaw:	168.222	yaw rate:	-3.817	Roll:	-4.582	Pitch:	-3.082	Yaw:	236.442	Thrust:	16.519
Time:	3.157	Roll Set Point:	-0.017	Pitch Set Point:	0.032	Yaw Set Point:	-2.937	X_WP:	0.000	Y_WP:	0.000	Y_WP:	0.500	X:	0.163	Y:	0.066	Z:	0.404	yaw:	168.276	yaw rate:	5.423	Roll:	-4.706	Pitch:	-2.962	Yaw:	237.431	Thrust:	16.955
Time:	3.172	Roll Set Point:	-0.017	Pitch Set Point:	0.032	Yaw Set Point:	-2.937	X_WP:	0.000	Y_WP:	0.000	Y_WP:	0.500	X:	0.163	Y:	0.066	Z:	0.404	yaw:	168.254	yaw rate:	0.368	Roll:	-4.543	Pitch:	-3.095	Yaw:	236.119	Thrust:	16.709
Time:	3.188	Roll Set Point:	-0.017	Pitch Set Point:	0.032	Yaw Set Point:	-2.937	X_WP:	0.000	Y_WP:	0.000	Y_WP:	0.500	X:	0.163	Y:	0.066	Z:	0.404	yaw:	168.254	yaw rate:	0.368	Roll:	-4.601	Pitch:	-3.091	Yaw:	236.489	Thrust:	17.072
Time:	3.203	Roll Set Point:	-0.017	Pitch Set Point:	0.032	Yaw Set Point:	-2.936	X_WP:	0.000	Y_WP:	0.000	Y_WP:	0.500	X:	0.163	Y:	0.066	Z:	0.404	yaw:	168.246	yaw rate:	-3.572	Roll:	-4.602	Pitch:	-3.152	Yaw:	236.335	Thrust:	17.258
Time:	3.219	Roll Set Point:	-0.017	Pitch Set Point:	0.032	Yaw Set Point:	-2.936	X_WP:	0.000	Y_WP:	0.000	Y_WP:	0.500	X:	0.163	Y:	0.066	Z:	0.404	yaw:	168.240	yaw rate:	-0.583	Roll:	-4.567	Pitch:	-3.078	Yaw:	236.372	Thrust:	17.504
Time:	3.235	Roll Set Point:	-0.017	Pitch Set Point:	0.032	Yaw Set Point:	-2.937	X_WP:	0.000	Y_WP:	0.000	Y_WP:	0.500	X:	0.163	Y:	0.066	Z:	0.404	yaw:	168.255	yaw rate:	1.522	Roll:	-4.675	Pitch:	-3.102	Yaw:	236.746	Thrust:	17.609
Time:	3.250	Roll Set Point:	-0.017	Pitch Set Point:	0.032	Yaw Set Point:	-2.937	X_WP:	0.000	Y_WP:	0.000	Y_WP:	0.500	X:	0.163	Y:	0.066	Z:	0.404	yaw:	168.254	yaw rate:	-0.101	Roll:	-4.602	Pitch:	-3.064	Yaw:	236.487	Thrust:	17.906
Time:	3.266	Roll Set Point:	-0.017	Pitch Set Point:	0.032	Yaw Set Point:	-2.937	X_WP:	0.000	Y_WP:	0.000	Y_WP:	0.500	X:	0.163	Y:	0.066	Z:	0.404	yaw:	168.254	yaw rate:	-0.101	Roll:	-4.629	Pitch:	-3.110	Yaw:	236.490	Thrust:	17.973
Time:	3.282	Roll Set Point:	-0.017	Pitch Set Point:	0.032	Yaw Set Point:	-2.937	X_WP:	0.000	Y_WP:	0.000	Y_WP:	0.500	X:	0.163	Y:	0.066	Z:	0.404	yaw:	168.268	yaw rate:	3.580	Roll:	-4.676	Pitch:	-3.152	Yaw:	236.733	Thrust:	18.376
Time:	3.297	Roll Set Point:	-0.017	Pitch Set Point:	0.032	Yaw Set Point:	-2.936	X_WP:	0.000	Y_WP:	0.000	Y_WP:	0.500	X:	0.163	Y:	0.066	Z:	0.405	yaw:	168.218	yaw rate:	-5.000	Roll:	-4.545	Pitch:	-3.167	Yaw:	235.601	Thrust:	17.930
Time:	3.313	Roll Set Point:	-0.017	Pitch Set Point:	0.032	Yaw Set Point:	-2.936	X_WP:	0.000	Y_WP:	0.000	Y_WP:	0.500	X:	0.163	Y:	0.066	Z:	0.405	yaw:	168.218	yaw rate:	-5.000	Roll:	-4.645	Pitch:	-3.123	Yaw:	236.439	Thrust:	18.508
Time:	3.329	Roll Set Point:	-0.017	Pitch Set Point:	0.032	Yaw Set Point:	-2.937	X_WP:	0.000	Y_WP:	0.000	Y_WP:	0.500	X:	0.163	Y:	0.066	Z:	0.404	yaw:	168.275	yaw rate:	3.691	Roll:	-4.757	Pitch:	-3.061	Yaw:	237.477	Thrust:	19.023
Time:	3.344	Roll Set Point:	-0.017	Pitch Set Point:	0.032	Yaw Set Point:	-2.936	X_WP:	0.000	Y_WP:	0.000	Y_WP:	0.500	X:	0.163	Y:	0.066	Z:	0.405	yaw:	168.226	yaw rate:	-4.872	Roll:	-4.562	Pitch:	-3.184	Yaw:	235.634	Thrust:	18.634
Time:	3.360	Roll Set Point:	-0.017	Pitch Set Point:	0.032	Yaw Set Point:	-2.937	X_WP:	0.000	Y_WP:	0.000	Y_WP:	0.500	X:	0.163	Y:	0.066	Z:	0.404	yaw:	168.257	yaw rate:	3.136	Roll:	-4.729	Pitch:	-3.067	Yaw:	237.020	Thrust:	19.157
Time:	3.375	Roll Set Point:	-0.017	Pitch Set Point:	0.032	Yaw Set Point:	-2.937	X_WP:	0.000	Y_WP:	0.000	Y_WP:	0.500	X:	0.163	Y:	0.066	Z:	0.404	yaw:	168.262	yaw rate:	0.415	Roll:	-4.670	Pitch:	-3.119	Yaw:	236.570	Thrust:	19.256
Time:	3.391	Roll Set Point:	-0.017	Pitch Set Point:	0.032	Yaw Set Point:	-2.936	X_WP:	0.000	Y_WP:	0.000	Y_WP:	0.500	X:	0.163	Y:	0.066	Z:	0.405	yaw:	168.236	yaw rate:	-2.570	Roll:	-4.634	Pitch:	-3.243	Yaw:	236.038	Thrust:	19.297
Time:	3.407	Roll Set Point:	-0.017	Pitch Set Point:	0.032	Yaw Set Point:	-2.936	X_WP:	0.000	Y_WP:	0.000	Y_WP:	0.500	X:	0.163	Y:	0.066	Z:	0.404	yaw:	168.246	yaw rate:	1.038	Roll:	-4.700	Pitch:	-3.105	Yaw:	236.653	Thrust:	19.804
Time:	3.422	Roll Set Point:	-0.017	Pitch Set Point:	0.032	Yaw Set Point:	-2.937	X_WP:	0.000	Y_WP:	0.000	Y_WP:	0.500	X:	0.163	Y:	0.066	Z:	0.404	yaw:	168.262	yaw rate:	1.600	Roll:	-4.692	Pitch:	-3.115	Yaw:	236.767	Thrust:	19.766
Time:	3.438	Roll Set Point:	-0.017	Pitch Set Point:	0.032	Yaw Set Point:	-2.937	X_WP:	0.000	Y_WP:	0.000	Y_WP:	0.500	X:	0.163	Y:	0.066	Z:	0.405	yaw:	168.250	yaw rate:	-1.191	Roll:	-4.694	Pitch:	-3.133	Yaw:	236.285	Thrust:	19.686
Time:	3.454	Roll Set Point:	-0.017	Pitch Set Point:	0.032	Yaw Set Point:	-2.937	X_WP:	0.000	Y_WP:	0.000	Y_WP:	0.500	X:	0.163	Y:	0.066	Z:	0.404	yaw:	168.256	yaw rate:	0.606	Roll:	-4.707	Pitch:	-3.210	Yaw:	236.597	Thrust:	20.276
Time:	3.469	Roll Set Point:	-0.017	Pitch Set Point:	0.032	Yaw Set Point:	-2.937	X_WP:	0.000	Y_WP:	0.000	Y_WP:	0.500	X:	0.163	Y:	0.066	Z:	0.404	yaw:	168.256	yaw rate:	0.606	Roll:	-4.704	Pitch:	-3.161	Yaw:	236.493	Thrust:	20.303
Time:	3.485	Roll Set Point:	-0.017	Pitch Set Point:	0.032	Yaw Set Point:	-2.937	X_WP:	0.000	Y_WP:	0.000	Y_WP:	0.500	X:	0.163	Y:	0.066	Z:	0.404	yaw:	168.265	yaw rate:	4.110	Roll:	-4.719	Pitch:	-3.090	Yaw:	236.654	Thrust:	20.513
Time:	3.500	Roll Set Point:	-0.017	Pitch Set Point:	0.032	Yaw Set Point:	-2.937	X_WP:	0.000	Y_WP:	0.000	Y_WP:	0.500	X:	0.163	Y:	0.066	Z:	0.404	yaw:	168.256	yaw rate:	-0.904	Roll:	-4.718	Pitch:	-3.215	Yaw:	236.341	Thrust:	20.514
Time:	3.516	Roll Set Point:	-0.017	Pitch Set Point:	0.032	Yaw Set Point:	-2.937	X_WP:	0.000	Y_WP:	0.000	Y_WP:	0.500	X:	0.163	Y:	0.066	Z:	0.404	yaw:	168.249	yaw rate:	-0.724	Roll:	-4.690	Pitch:	-3.206	Yaw:	236.361	Thrust:	20.978
Time:	3.532	Roll Set Point:	-0.017	Pitch Set Point:	0.032	Yaw Set Point:	-2.936	X_WP:	0.000	Y_WP:	0.000	Y_WP:	0.500	X:	0.163	Y:	0.066	Z:	0.405	yaw:	168.239	yaw rate:	-0.976	Roll:	-4.714	Pitch:	-3.150	Yaw:	236.306	Thrust:	20.850
Time:	3.547	Roll Set Point:	-0.017	Pitch Set Point:	0.032	Yaw Set Point:	-2.936	X_WP:	0.000	Y_WP:	0.000	Y_WP:	0.500	X:	0.163	Y:	0.066	Z:	0.404	yaw:	168.243	yaw rate:	0.384	Roll:	-4.748	Pitch:	-3.181	Yaw:	236.544	Thrust:	21.288
Time:	3.563	Roll Set Point:	-0.017	Pitch Set Point:	0.032	Yaw Set Point:	-2.936	X_WP:	0.000	Y_WP:	0.000	Y_WP:	0.500	X:	0.163	Y:	0.066	Z:	0.404	yaw:	168.243	yaw rate:	0.384	Roll:	-4.735	Pitch:	-3.182	Yaw:	236.469	Thrust:	21.319
Time:	3.579	Roll Set Point:	-0.017	Pitch Set Point:	0.032	Yaw Set Point:	-2.936	X_WP:	0.000	Y_WP:	0.000	Y_WP:	0.500	X:	0.163	Y:	0.066	Z:	0.405	yaw:	168.243	yaw rate:	-0.051	Roll:	-4.749	Pitch:	-3.217	Yaw:	236.468	Thrust:	21.560
Time:	3.594	Roll Set Point:	-0.017	Pitch Set Point:	0.032	Yaw Set Point:	-2.936	X_WP:	0.000	Y_WP:	0.000	Y_WP:	0.500	X:	0.163	Y:	0.066	Z:	0.405	yaw:	168.243	yaw rate:	-0.051	Roll:	-4.748	Pitch:	-3.191	Yaw:	236.471	Thrust:	21.701
Time:	3.610	Roll Set Point:	-0.017	Pitch Set Point:	0.032	Yaw Set Point:	-2.937	X_WP:	0.000	Y_WP:	0.000	Y_WP:	0.500	X:	0.163	Y:	0.066	Z:	0.404	yaw:	168.271	yaw rate:	2.793	Roll:	-4.800	Pitch:	-3.173	Yaw:	236.981	Thrust:	22.126
Time:	3.625	Roll Set Point:	-0.017	Pitch Set Point:	0.032	Yaw Set Point:	-2.936	X_WP:	0.000	Y_WP:	0.000	Y_WP:	0.500	X:	0.163	Y:	0.066	Z:	0.404	yaw:	168.248	yaw rate:	-2.219	Roll:	-4.704	Pitch:	-3.180	Yaw:	236.110	Thrust:	21.972
Time:	3.641	Roll Set Point:	-0.017	Pitch Set Point:	0.032	Yaw Set Point:	-2.936	X_WP:	0.000	Y_WP:	0.000	Y_WP:	0.500	X:	0.163	Y:	0.066	Z:	0.404	yaw:	168.248	yaw rate:	-2.219	Roll:	-4.766	Pitch:	-3.202	Yaw:	236.482	Thrust:	22.272
Time:	3.657	Roll Set Point:	-0.017	Pitch Set Point:	0.032	Yaw Set Point:	-2.936	X_WP:	0.000	Y_WP:	0.000	Y_WP:	0.500	X:	0.163	Y:	0.066	Z:	0.404	yaw:	168.237	yaw rate:	0.958	Roll:	-4.754	Pitch:	-3.243	Yaw:	236.275	Thrust:	22.373
Time:	3.672	Roll Set Point:	-0.017	Pitch Set Point:	0.032	Yaw Set Point:	-2.936	X_WP:	0.000	Y_WP:	0.000	Y_WP:	0.500	X:	0.163	Y:	0.066	Z:	0.404	yaw:	168.237	yaw rate:	0.958	Roll:	-4.777	Pitch:	-3.211	Yaw:	236.466	Thrust:	22.630
Time:	3.688	Roll Set Point:	-0.017	Pitch Set Point:	0.032	Yaw Set Point:	-2.937	X_WP:	0.000	Y_WP:	0.000	Y_WP:	0.500	X:	0.163	Y:	0.066	Z:	0.404	yaw:	168.256	yaw rate:	1.757	Roll:	-4.829	Pitch:	-3.172	Yaw:	236.813	Thrust:	22.946
Time:	3.704	Roll Set Point:	-0.017	Pitch Set Point:	0.032	Yaw Set Point:	-2.936	X_WP:	0.000	Y_WP:	0.000	Y_WP:	0.500	X:	0.163	Y:	0.066	Z:	0.405	yaw:	168.221	yaw rate:	-3.557	Roll:	-4.727	Pitch:	-3.300	Yaw:	235.847	Thrust:	22.836
Time:	3.719	Roll Set Point:	-0.017	Pitch Set Point:	0.032	Yaw Set Point:	-2.936	X_WP:	0.000	Y_WP:	0.000	Y_WP:	0.500	X:	0.163	Y:	0.066	Z:	0.404	yaw:	168.229	yaw rate:	0.850	Roll:	-4.782	Pitch:	-3.254	Yaw:	236.598	Thrust:	23.357
Time:	3.735	Roll Set Point:	-0.017	Pitch Set Point:	0.032	Yaw Set Point:	-2.937	X_WP:	0.000	Y_WP:	0.000	Y_WP:	0.500	X:	0.163	Y:	0.066	Z:	0.404	yaw:	168.279	yaw rate:	5.030	Roll:	-4.911	Pitch:	-3.054	Yaw:	237.369	Thrust:	23.217
Time:	3.750	Roll Set Point:	-0.017	Pitch Set Point:	0.032	Yaw Set Point:	-2.937	X_WP:	0.000	Y_WP:	0.000	Y_WP:	0.500	X:	0.163	Y:	0.066	Z:	0.404	yaw:	168.255	yaw rate:	-2.447	Roll:	-4.747	Pitch:	-3.255	Yaw:	236.081	Thrust:	23.618
Time:	3.766	Roll Set Point:	-0.017	Pitch Set Point:	0.032	Yaw Set Point:	-2.936	X_WP:	0.000	Y_WP:	0.000	Y_WP:	0.500	X:	0.163	Y:	0.066	Z:	0.404	yaw:	168.226	yaw rate:	-2.925	Roll:	-4.786	Pitch:	-3.388	Yaw:	235.956	Thrust:	23.590
Time:	3.782	Roll Set Point:	-0.017	Pitch Set Point:	0.032	Yaw Set Point:	-2.936	X_WP:	0.000	Y_WP:	0.000	Y_WP:	0.500	X:	0.163	Y:	0.066	Z:	0.404	yaw:	168.226	yaw rate:	-2.925	Roll:	-4.810	Pitch:	-3.240	Yaw:	236.450	Thrust:	23.883
Time:	3.797	Roll Set Point:	-0.017	Pitch Set Point:	0.032	Yaw Set Point:	-2.937	X_WP:	0.000	Y_WP:	0.000	Y_WP:	0.500	X:	0.163	Y:	0.066	Z:	0.404	yaw:	168.287	yaw rate:	5.662	Roll:	-4.925	Pitch:	-3.042	Yaw:	237.555	Thrust:	24.168
Time:	3.813	Roll Set Point:	-0.017	Pitch Set Point:	0.032	Yaw Set Point:	-2.937	X_WP:	0.000	Y_WP:	0.000	Y_WP:	0.500	X:	0.163	Y:	0.066	Z:	0.404	yaw:	168.287	yaw rate:	5.662	Roll:	-4.815	Pitch:	-3.243	Yaw:	236.538	Thrust:	24.281
Time:	3.829	Roll Set Point:	-0.017	Pitch Set Point:	0.032	Yaw Set Point:	-2.936	X_WP:	0.000	Y_WP:	0.000	Y_WP:	0.500	X:	0.163	Y:	0.066	Z:	0.404	yaw:	168.232	yaw rate:	-5.431	Roll:	-4.696	Pitch:	-3.368	Yaw:	235.544	Thrust:	24.363
Time:	3.844	Roll Set Point:	-0.017	Pitch Set Point:	0.032	Yaw Set Point:	-2.936	X_WP:	0.000	Y_WP:	0.000	Y_WP:	0.500	X:	0.163	Y:	0.066	Z:	0.404	yaw:	168.232	yaw rate:	-5.431	Roll:	-4.811	Pitch:	-3.253	Yaw:	236.460	Thrust:	24.606
Time:	3.860	Roll Set Point:	-0.017	Pitch Set Point:	0.032	Yaw Set Point:	-2.936	X_WP:	0.000	Y_WP:	0.000	Y_WP:	0.500	X:	0.163	Y:	0.066	Z:	0.405	yaw:	168.226	yaw rate:	-0.607	Roll:	-4.795	Pitch:	-3.303	Yaw:	236.352	Thrust:	24.683
Time:	3.875	Roll Set Point:	-0.017	Pitch Set Point:	0.032	Yaw Set Point:	-2.936	X_WP:	0.000	Y_WP:	0.000	Y_WP:	0.500	X:	0.163	Y:	0.066	Z:	0.404	yaw:	168.242	yaw rate:	-1.627	Roll:	-4.851	Pitch:	-3.181	Yaw:	236.737	Thrust:	24.948
Time:	3.891	Roll Set Point:	-0.017	Pitch Set Point:	0.032	Yaw Set Point:	-2.936	X_WP:	0.000	Y_WP:	0.000	Y_WP:	0.500	X:	0.163	Y:	0.066	Z:	0.404	yaw:	168.239	yaw rate:	-0.288	Roll:	-4.780	Pitch:	-3.329	Yaw:	236.421	Thrust:	25.291
Time:	3.907	Roll Set Point:	-0.017	Pitch Set Point:	0.032	Yaw Set Point:	-2.936	X_WP:	0.000	Y_WP:	0.000	Y_WP:	0.500	X:	0.163	Y:	0.066	Z:	0.404	yaw:	168.232	yaw rate:	-0.731	Roll:	-4.810	Pitch:	-3.247	Yaw:	236.336	Thrust:	25.165
Time:	3.922	Roll Set Point:	-0.017	Pitch Set Point:	0.032	Yaw Set Point:	-2.937	X_WP:	0.000	Y_WP:	0.000	Y_WP:	0.500	X:	0.163	Y:	0.066	Z:	0.404	yaw:	168.251	yaw rate:	1.906	Roll:	-4.840	Pitch:	-3.220	Yaw:	236.807	Thrust:	25.594
Time:	3.938	Roll Set Point:	-0.017	Pitch Set Point:	0.032	Yaw Set Point:	-2.937	X_WP:	0.000	Y_WP:	0.000	Y_WP:	0.500	X:	0.163	Y:	0.066	Z:	0.404	yaw:	168.251	yaw rate:	1.906	Roll:	-4.810	Pitch:	-3.274	Yaw:	236.483	Thrust:	25.641
Time:	3.954	Roll Set Point:	-0.017	Pitch Set Point:	0.032	Yaw Set Point:	-2.936	X_WP:	0.000	Y_WP:	0.000	Y_WP:	0.500	X:	0.163	Y:	0.066	Z:	0.404	yaw:	168.226	yaw rate:	-4.317	Roll:	-4.772	Pitch:	-3.390	Yaw:	236.035	Thrust:	26.024
Time:	3.969	Roll Set Point:	-0.017	Pitch Set Point:	0.032	Yaw Set Point:	-2.936	X_WP:	0.000	Y_WP:	0.000	Y_WP:	0.500	X:	0.163	Y:	0.066	Z:	0.405	yaw:	168.228	yaw rate:	0.253	Roll:	-4.824	Pitch:	-3.263	Yaw:	236.491	Thrust:	25.721
Time:	3.985	Roll Set Point:	-0.017	Pitch Set Point:	0.032	Yaw Set Point:	-2.937	X_WP:	0.000	Y_WP:	0.000	Y_WP:	0.500	X:	0.163	Y:	0.066	Z:	0.404	yaw:	168.274	yaw rate:	4.603	Roll:	-4.881	Pitch:	-3.190	Yaw:	237.289	Thrust:	26.499
Time:	4.000	Roll Set Point:	-0.017	Pitch Set Point:	0.032	Yaw Set Point:	-2.937	X_WP:	0.000	Y_WP:	0.000	Y_WP:	0.500	X:	0.163	Y:	0.066	Z:	0.404	yaw:	168.252	yaw rate:	-2.194	Roll:	-4.770	Pitch:	-3.248	Yaw:	236.120	Thrust:	26.213
Time:	4.016	Roll Set Point:	-0.017	Pitch Set Point:	0.032	Yaw Set Point:	-2.936	X_WP:	0.000	Y_WP:	0.000	Y_WP:	0.500	X:	0.163	Y:	0.066	Z:	0.404	yaw:	168.222	yaw rate:	-3.076	Roll:	-4.763	Pitch:	-3.451	Yaw:	235.929	Thrust:	26.554
Time:	4.032	Roll Set Point:	-0.017	Pitch Set Point:	0.032	Yaw Set Point:	-2.936	X_WP:	0.000	Y_WP:	0.000	Y_WP:	0.500	X:	0.163	Y:	0.066	Z:	0.404	yaw:	168.222	yaw rate:	-3.076	Roll:	-4.810	Pitch:	-3.300	Yaw:	236.444	Thrust:	26.748
Time:	4.047	Roll Set Point:	-0.017	Pitch Set Point:	0.032	Yaw Set Point:	-2.936	X_WP:	0.000	Y_WP:	0.000	Y_WP:	0.500	X:	0.163	Y:	0.066	Z:	0.404	yaw:	168.223	yaw rate:	-3.020	Roll:	-4.808	Pitch:	-3.285	Yaw:	236.467	Thrust:	26.976
Time:	4.063	Roll Set Point:	-0.017	Pitch Set Point:	0.032	Yaw Set Point:	-2.937	X_WP:	0.000	Y_WP:	0.000	Y_WP:	0.500	X:	0.163	Y:	0.066	Z:	0.404	yaw:	168.254	yaw rate:	3.101	Roll:	-4.885	Pitch:	-3.198	Yaw:	237.009	Thrust:	27.110
Time:	4.079	Roll Set Point:	-0.017	Pitch Set Point:	0.032	Yaw Set Point:	-2.936	X_WP:	0.000	Y_WP:	0.000	Y_WP:	0.500	X:	0.163	Y:	0.066	Z:	0.404	yaw:	168.238	yaw rate:	-1.566	Roll:	-4.759	Pitch:	-3.379	Yaw:	236.206	Thrust:	27.406
Time:	4.094	Roll Set Point:	-0.017	Pitch Set Point:	0.032	Yaw Set Point:	-2.936	X_WP:	0.000	Y_WP:	0.000	Y_WP:	0.500	X:	0.163	Y:	0.066	Z:	0.404	yaw:	168.236	yaw rate:	-0.218	Roll:	-4.832	Pitch:	-3.358	Yaw:	236.430	Thrust:	27.363
Time:	4.110	Roll Set Point:	-0.017	Pitch Set Point:	0.032	Yaw Set Point:	-2.936	X_WP:	0.000	Y_WP:	0.000	Y_WP:	0.500	X:	0.163	Y:	0.066	Z:	0.404	yaw:	168.236	yaw rate:	-0.218	Roll:	-4.810	Pitch:	-3.318	Yaw:	236.461	Thrust:	27.600
Time:	4.125	Roll Set Point:	-0.017	Pitch Set Point:	0.032	Yaw Set Point:	-2.936	X_WP:	0.000	Y_WP:	0.000	Y_WP:	0.500	X:	0.163	Y:	0.066	Z:	0.405	yaw:	168.238	yaw rate:	0.228	Roll:	-4.809	Pitch:	-3.271	Yaw:	236.506	Thrust:	27.759
Time:	4.141	Roll Set Point:	-0.017	Pitch Set Point:	0.032	Yaw Set Point:	-2.936	X_WP:	0.000	Y_WP:	0.000	Y_WP:	0.500	X:	0.163	Y:	0.066	Z:	0.404	yaw:	168.230	yaw rate:	-0.876	Roll:	-4.782	Pitch:	-3.328	Yaw:	236.309	Thrust:	28.064
Time:	4.157	Roll Set Point:	-0.017	Pitch Set Point:	0.032	Yaw Set Point:	-2.936	X_WP:	0.000	Y_WP:	0.000	Y_WP:	0.500	X:	0.163	Y:	0.066	Z:	0.404	yaw:	168.230	yaw rate:	-0.876	Roll:	-4.810	Pitch:	-3.329	Yaw:	236.455	Thrust:	28.182
Time:	4.172	Roll Set Point:	-0.017	Pitch Set Point:	0.032	Yaw Set Point:	-2.936	X_WP:	0.000	Y_WP:	0.000	Y_WP:	0.500	X:	0.163	Y:	0.066	Z:	0.404	yaw:	168.243	yaw rate:	1.609	Roll:	-4.837	Pitch:	-3.357	Yaw:	236.699	Thrust:	28.431
Time:	4.188	Roll Set Point:	-0.017	Pitch Set Point:	0.032	Yaw Set Point:	-2.937	X_WP:	0.000	Y_WP:	0.000	Y_WP:	0.500	X:	0.163	Y:	0.066	Z:	0.404	yaw:	168.250	yaw rate:	0.663	Roll:	-4.803	Pitch:	-3.242	Yaw:	236.595	Thrust:	28.526
Time:	4.204	Roll Set Point:	-0.017	Pitch Set Point:	0.032	Yaw Set Point:	-2.936	X_WP:	0.000	Y_WP:	0.000	Y_WP:	0.500	X:	0.163	Y:	0.066	Z:	0.404	yaw:	168.234	yaw rate:	-1.543	Roll:	-4.803	Pitch:	-3.393	Yaw:	236.204	Thrust:	28.654
Time:	4.219	Roll Set Point:	-0.017	Pitch Set Point:	0.032	Yaw Set Point:	-2.936	X_WP:	0.000	Y_WP:	0.000	Y_WP:	0.500	X:	0.163	Y:	0.066	Z:	0.404	yaw:	168.241	yaw rate:	0.674	Roll:	-4.804	Pitch:	-3.392	Yaw:	236.587	Thrust:	29.132
Time:	4.235	Roll Set Point:	-0.017	Pitch Set Point:	0.032	Yaw Set Point:	-2.937	X_WP:	0.000	Y_WP:	0.000	Y_WP:	0.500	X:	0.163	Y:	0.066	Z:	0.404	yaw:	168.253	yaw rate:	1.243	Roll:	-4.845	Pitch:	-3.269	Yaw:	236.695	Thrust:	28.853
Time:	4.250	Roll Set Point:	-0.017	Pitch Set Point:	0.032	Yaw Set Point:	-2.936	X_WP:	0.000	Y_WP:	0.000	Y_WP:	0.500	X:	0.163	Y:	0.066	Z:	0.404	yaw:	168.243	yaw rate:	-1.040	Roll:	-4.757	Pitch:	-3.342	Yaw:	236.222	Thrust:	28.278
Time:	4.265	Roll Set Point:	-0.017	Pitch Set Point:	0.032	Yaw Set Point:	-2.936	X_WP:	0.000	Y_WP:	0.000	Y_WP:	0.500	X:	0.163	Y:	0.066	Z:	0.404	yaw:	168.243	yaw rate:	-1.040	Roll:	-4.812	Pitch:	-3.356	Yaw:	236.477	Thrust:	29.486
Time:	4.281	Roll Set Point:	-0.017	Pitch Set Point:	0.032	Yaw Set Point:	-2.936	X_WP:	0.000	Y_WP:	0.000	Y_WP:	0.500	X:	0.163	Y:	0.066	Z:	0.404	yaw:	168.243	yaw rate:	0.013	Roll:	-4.813	Pitch:	-3.405	Yaw:	236.474	Thrust:	29.631
Time:	4.297	Roll Set Point:	-0.017	Pitch Set Point:	0.032	Yaw Set Point:	-2.936	X_WP:	0.000	Y_WP:	0.000	Y_WP:	0.500	X:	0.163	Y:	0.066	Z:	0.405	yaw:	168.221	yaw rate:	-2.237	Roll:	-4.787	Pitch:	-3.397	Yaw:	236.072	Thrust:	29.652
Time:	4.312	Roll Set Point:	-0.017	Pitch Set Point:	0.032	Yaw Set Point:	-2.936	X_WP:	0.000	Y_WP:	0.000	Y_WP:	0.500	X:	0.163	Y:	0.066	Z:	0.405	yaw:	168.221	yaw rate:	-2.237	Roll:	-4.810	Pitch:	-3.369	Yaw:	236.443	Thrust:	29.976
Time:	4.328	Roll Set Point:	-0.017	Pitch Set Point:	0.032	Yaw Set Point:	-2.936	X_WP:	0.000	Y_WP:	0.000	Y_WP:	0.500	X:	0.163	Y:	0.066	Z:	0.405	yaw:	168.230	yaw rate:	-1.497	Roll:	-4.830	Pitch:	-3.351	Yaw:	236.609	Thrust:	30.157
Time:	4.344	Roll Set Point:	-0.017	Pitch Set Point:	0.032	Yaw Set Point:	-2.937	X_WP:	0.000	Y_WP:	0.000	Y_WP:	0.500	X:	0.163	Y:	0.066	Z:	0.404	yaw:	168.253	yaw rate:	2.339	Roll:	-4.840	Pitch:	-3.338	Yaw:	236.878	Thrust:	30.422
Time:	4.359	Roll Set Point:	-0.017	Pitch Set Point:	0.032	Yaw Set Point:	-2.936	X_WP:	0.000	Y_WP:	0.000	Y_WP:	0.500	X:	0.163	Y:	0.066	Z:	0.404	yaw:	168.245	yaw rate:	-0.784	Roll:	-4.796	Pitch:	-3.338	Yaw:	236.352	Thrust:	30.590
Time:	4.375	Roll Set Point:	-0.017	Pitch Set Point:	0.032	Yaw Set Point:	-2.936	X_WP:	0.000	Y_WP:	0.000	Y_WP:	0.500	X:	0.163	Y:	0.066	Z:	0.404	yaw:	168.245	yaw rate:	-0.784	Roll:	-4.809	Pitch:	-3.380	Yaw:	236.472	Thrust:	30.604
Time:	4.390	Roll Set Point:	-0.017	Pitch Set Point:	0.032	Yaw Set Point:	-2.936	X_WP:	0.000	Y_WP:	0.000	Y_WP:	0.500	X:	0.163	Y:	0.066	Z:	0.404	yaw:	168.217	yaw rate:	-4.950	Roll:	-4.763	Pitch:	-3.530	Yaw:	235.965	Thrust:	30.827
Time:	4.406	Roll Set Point:	-0.017	Pitch Set Point:	0.032	Yaw Set Point:	-2.936	X_WP:	0.000	Y_WP:	0.000	Y_WP:	0.500	X:	0.163	Y:	0.066	Z:	0.404	yaw:	168.217	yaw rate:	-4.950	Roll:	-4.810	Pitch:	-3.393	Yaw:	236.438	Thrust:	31.050
Time:	4.422	Roll Set Point:	-0.017	Pitch Set Point:	0.032	Yaw Set Point:	-2.937	X_WP:	0.000	Y_WP:	0.000	Y_WP:	0.500	X:	0.163	Y:	0.066	Z:	0.404	yaw:	168.251	yaw rate:	2.633	Roll:	-4.887	Pitch:	-3.265	Yaw:	237.059	Thrust:	31.180
Time:	4.437	Roll Set Point:	-0.017	Pitch Set Point:	0.032	Yaw Set Point:	-2.937	X_WP:	0.000	Y_WP:	0.000	Y_WP:	0.500	X:	0.163	Y:	0.066	Z:	0.404	yaw:	168.254	yaw rate:	0.316	Roll:	-4.810	Pitch:	-3.367	Yaw:	236.543	Thrust:	31.514
Time:	4.453	Roll Set Point:	-0.017	Pitch Set Point:	0.032	Yaw Set Point:	-2.936	X_WP:	0.000	Y_WP:	0.000	Y_WP:	0.500	X:	0.163	Y:	0.066	Z:	0.404	yaw:	168.239	yaw rate:	-1.590	Roll:	-4.771	Pitch:	-3.477	Yaw:	236.206	Thrust:	31.603
Time:	4.469	Roll Set Point:	-0.017	Pitch Set Point:	0.032	Yaw Set Point:	-2.936	X_WP:	0.000	Y_WP:	0.000	Y_WP:	0.500	X:	0.163	Y:	0.066	Z:	0.404	yaw:	168.239	yaw rate:	-1.590	Roll:	-4.809	Pitch:	-3.405	Yaw:	236.465	Thrust:	31.711
Time:	4.484	Roll Set Point:	-0.017	Pitch Set Point:	0.032	Yaw Set Point:	-2.937	X_WP:	0.000	Y_WP:	0.000	Y_WP:	0.500	X:	0.163	Y:	0.066	Z:	0.404	yaw:	168.250	yaw rate:	2.335	Roll:	-4.842	Pitch:	-3.364	Yaw:	236.671	Thrust:	31.919
Time:	4.500	Roll Set Point:	-0.017	Pitch Set Point:	0.032	Yaw Set Point:	-2.937	X_WP:	0.000	Y_WP:	0.000	Y_WP:	0.500	X:	0.163	Y:	0.066	Z:	0.404	yaw:	168.250	yaw rate:	2.335	Roll:	-4.811	Pitch:	-3.412	Yaw:	236.484	Thrust:	32.125
Time:	4.515	Roll Set Point:	-0.017	Pitch Set Point:	0.032	Yaw Set Point:	-2.937	X_WP:	0.000	Y_WP:	0.000	Y_WP:	0.500	X:	0.163	Y:	0.066	Z:	0.404	yaw:	168.272	yaw rate:	2.255	Roll:	-4.854	Pitch:	-3.344	Yaw:	236.893	Thrust:	32.322
Time:	4.531	Roll Set Point:	-0.017	Pitch Set Point:	0.032	Yaw Set Point:	-2.937	X_WP:	0.000	Y_WP:	0.000	Y_WP:	0.500	X:	0.163	Y:	0.066	Z:	0.404	yaw:	168.256	yaw rate:	1.385	Roll:	-4.780	Pitch:	-3.573	Yaw:	236.219	Thrust:	32.566
Time:	4.547	Roll Set Point:	-0.017	Pitch Set Point:	0.032	Yaw Set Point:	-2.936	X_WP:	0.000	Y_WP:	0.000	Y_WP:	0.500	X:	0.163	Y:	0.066	Z:	0.404	yaw:	168.240	yaw rate:	-1.621	Roll:	-4.777	Pitch:	-3.409	Yaw:	236.198	Thrust:	32.602
Time:	4.562	Roll Set Point:	-0.017	Pitch Set Point:	0.032	Yaw Set Point:	-2.937	X_WP:	0.000	Y_WP:	0.000	Y_WP:	0.500	X:	0.163	Y:	0.066	Z:	0.404	yaw:	168.267	yaw rate:	2.677	Roll:	-4.862	Pitch:	-3.326	Yaw:	236.956	Thrust:	32.813
Time:	4.578	Roll Set Point:	-0.017	Pitch Set Point:	0.032	Yaw Set Point:	-2.936	X_WP:	0.000	Y_WP:	0.000	Y_WP:	0.500	X:	0.163	Y:	0.066	Z:	0.404	yaw:	168.225	yaw rate:	-4.162	Roll:	-4.736	Pitch:	-3.534	Yaw:	235.752	Thrust:	33.069
Time:	4.594	Roll Set Point:	-0.017	Pitch Set Point:	0.032	Yaw Set Point:	-2.936	X_WP:	0.000	Y_WP:	0.000	Y_WP:	0.500	X:	0.163	Y:	0.066	Z:	0.404	yaw:	168.225	yaw rate:	-4.162	Roll:	-4.810	Pitch:	-3.427	Yaw:	236.449	Thrust:	33.202
Time:	4.609	Roll Set Point:	-0.017	Pitch Set Point:	0.032	Yaw Set Point:	-2.936	X_WP:	0.000	Y_WP:	0.000	Y_WP:	0.500	X:	0.163	Y:	0.066	Z:	0.404	yaw:	168.245	yaw rate:	2.022	Roll:	-4.872	Pitch:	-3.420	Yaw:	236.816	Thrust:	33.311
Time:	4.625	Roll Set Point:	-0.017	Pitch Set Point:	0.032	Yaw Set Point:	-2.936	X_WP:	0.000	Y_WP:	0.000	Y_WP:	0.500	X:	0.163	Y:	0.066	Z:	0.404	yaw:	168.245	yaw rate:	2.022	Roll:	-4.812	Pitch:	-3.426	Yaw:	236.477	Thrust:	33.555
Time:	4.640	Roll Set Point:	-0.017	Pitch Set Point:	0.032	Yaw Set Point:	-2.937	X_WP:	0.000	Y_WP:	0.000	Y_WP:	0.500	X:	0.163	Y:	0.066	Z:	0.404	yaw:	168.275	yaw rate:	2.963	Roll:	-4.830	Pitch:	-3.237	Yaw:	237.015	Thrust:	33.775
Time:	4.656	Roll Set Point:	-0.017	Pitch Set Point:	0.032	Yaw Set Point:	-2.936	X_WP:	0.000	Y_WP:	0.000	Y_WP:	0.500	X:	0.163	Y:	0.066	Z:	0.404	yaw:	168.232	yaw rate:	-1.721	Roll:	-4.751	Pitch:	-3.644	Yaw:	235.734	Thrust:	33.821
Time:	4.672	Roll Set Point:	-0.017	Pitch Set Point:	0.032	Yaw Set Point:	-2.936	X_WP:	0.000	Y_WP:	0.000	Y_WP:	0.500	X:	0.163	Y:	0.066	Z:	0.404	yaw:	168.226	yaw rate:	-0.532	Roll:	-4.792	Pitch:	-3.416	Yaw:	236.365	Thrust:	34.258
Time:	4.687	Roll Set Point:	-0.017	Pitch Set Point:	0.032	Yaw Set Point:	-2.937	X_WP:	0.000	Y_WP:	0.000	Y_WP:	0.500	X:	0.163	Y:	0.066	Z:	0.404	yaw:	168.258	yaw rate:	3.124	Roll:	-4.852	Pitch:	-3.289	Yaw:	237.016	Thrust:	34.162
Time:	4.703	Roll Set Point:	-0.017	Pitch Set Point:	0.032	Yaw Set Point:	-2.936	X_WP:	0.000	Y_WP:	0.000	Y_WP:	0.500	X:	0.163	Y:	0.066	Z:	0.404	yaw:	168.238	yaw rate:	-1.975	Roll:	-4.771	Pitch:	-3.516	Yaw:	236.140	Thrust:	34.610
Time:	4.719	Roll Set Point:	-0.017	Pitch Set Point:	0.032	Yaw Set Point:	-2.936	X_WP:	0.000	Y_WP:	0.000	Y_WP:	0.500	X:	0.163	Y:	0.066	Z:	0.404	yaw:	168.229	yaw rate:	-0.870	Roll:	-4.806	Pitch:	-3.461	Yaw:	236.309	Thrust:	34.542
Time:	4.734	Roll Set Point:	-0.017	Pitch Set Point:	0.032	Yaw Set Point:	-2.936	X_WP:	0.000	Y_WP:	0.000	Y_WP:	0.500	X:	0.163	Y:	0.066	Z:	0.404	yaw:	168.215	yaw rate:	-1.358	Roll:	-4.776	Pitch:	-3.465	Yaw:	236.208	Thrust:	34.822
Time:	4.750	Roll Set Point:	-0.017	Pitch Set Point:	0.032	Yaw Set Point:	-2.937	X_WP:	0.000	Y_WP:	0.000	Y_WP:	0.500	X:	0.163	Y:	0.066	Z:	0.404	yaw:	168.250	yaw rate:	3.480	Roll:	-4.898	Pitch:	-3.309	Yaw:	237.069	Thrust:	35.057
Time:	4.766	Roll Set Point:	-0.017	Pitch Set Point:	0.032	Yaw Set Point:	-2.937	X_WP:	0.000	Y_WP:	0.000	Y_WP:	0.500	X:	0.163	Y:	0.066	Z:	0.404	yaw:	168.250	yaw rate:	3.480	Roll:	-4.811	Pitch:	-3.425	Yaw:	236.485	Thrust:	35.178
Time:	4.781	Roll Set Point:	-0.017	Pitch Set Point:	0.032	Yaw Set Point:	-2.937	X_WP:	0.000	Y_WP:	0.000	Y_WP:	0.500	X:	0.163	Y:	0.066	Z:	0.404	yaw:	168.264	yaw rate:	1.380	Roll:	-4.829	Pitch:	-3.410	Yaw:	236.730	Thrust:	35.164
Time:	4.797	Roll Set Point:	-0.017	Pitch Set Point:	0.032	Yaw Set Point:	-2.937	X_WP:	0.000	Y_WP:	0.000	Y_WP:	0.500	X:	0.163	Y:	0.066	Z:	0.404	yaw:	168.264	yaw rate:	1.380	Roll:	-4.812	Pitch:	-3.424	Yaw:	236.504	Thrust:	35.525
Time:	4.812	Roll Set Point:	-0.017	Pitch Set Point:	0.032	Yaw Set Point:	-2.936	X_WP:	0.000	Y_WP:	0.000	Y_WP:	0.500	X:	0.163	Y:	0.066	Z:	0.404	yaw:	168.222	yaw rate:	-4.243	Roll:	-4.729	Pitch:	-3.567	Yaw:	235.734	Thrust:	35.804
Time:	4.828	Roll Set Point:	-0.017	Pitch Set Point:	0.032	Yaw Set Point:	-2.936	X_WP:	0.000	Y_WP:	0.000	Y_WP:	0.500	X:	0.163	Y:	0.066	Z:	0.404	yaw:	168.232	yaw rate:	-3.870	Roll:	-4.816	Pitch:	-3.326	Yaw:	236.624	Thrust:	35.844
Time:	4.844	Roll Set Point:	-0.017	Pitch Set Point:	0.032	Yaw Set Point:	-2.936	X_WP:	0.000	Y_WP:	0.000	Y_WP:	0.500	X:	0.163	Y:	0.066	Z:	0.404	yaw:	168.236	yaw rate:	0.493	Roll:	-4.830	Pitch:	-3.474	Yaw:	236.548	Thrust:	36.082
Time:	4.859	Roll Set Point:	-0.017	Pitch Set Point:	0.032	Yaw Set Point:	-2.936	X_WP:	0.000	Y_WP:	0.000	Y_WP:	0.500	X:	0.163	Y:	0.066	Z:	0.404	yaw:	168.245	yaw rate:	0.841	Roll:	-4.833	Pitch:	-3.394	Yaw:	236.621	Thrust:	36.230
Time:	4.875	Roll Set Point:	-0.017	Pitch Set Point:	0.032	Yaw Set Point:	-2.937	X_WP:	0.000	Y_WP:	0.000	Y_WP:	0.500	X:	0.163	Y:	0.066	Z:	0.404	yaw:	168.267	yaw rate:	2.235	Roll:	-4.850	Pitch:	-3.355	Yaw:	236.880	Thrust:	36.469
Time:	4.891	Roll Set Point:	-0.017	Pitch Set Point:	0.032	Yaw Set Point:	-2.936	X_WP:	0.000	Y_WP:	0.000	Y_WP:	0.500	X:	0.163	Y:	0.066	Z:	0.404	yaw:	168.231	yaw rate:	-3.660	Roll:	-4.744	Pitch:	-3.479	Yaw:	235.847	Thrust:	36.593
Time:	4.906	Roll Set Point:	-0.017	Pitch Set Point:	0.032	Yaw Set Point:	-2.936	X_WP:	0.000	Y_WP:	0.000	Y_WP:	0.500	X:	0.163	Y:	0.066	Z:	0.404	yaw:	168.231	yaw rate:	-3.660	Roll:	-4.809	Pitch:	-3.424	Yaw:	236.454	Thrust:	36.731
Time:	4.922	Roll Set Point:	-0.017	Pitch Set Point:	0.032	Yaw Set Point:	-2.936	X_WP:	0.000	Y_WP:	0.000	Y_WP:	0.500	X:	0.163	Y:	0.066	Z:	0.405	yaw:	168.230	yaw rate:	-1.404	Roll:	-4.826	Pitch:	-3.495	Yaw:	236.454	Thrust:	36.944
Time:	4.937	Roll Set Point:	-0.017	Pitch Set Point:	0.032	Yaw Set Point:	-2.937	X_WP:	0.000	Y_WP:	0.000	Y_WP:	0.500	X:	0.163	Y:	0.066	Z:	0.404	yaw:	168.253	yaw rate:	2.312	Roll:	-4.842	Pitch:	-3.347	Yaw:	236.874	Thrust:	37.219
Time:	4.953	Roll Set Point:	-0.017	Pitch Set Point:	0.032	Yaw Set Point:	-2.937	X_WP:	0.000	Y_WP:	0.000	Y_WP:	0.500	X:	0.163	Y:	0.066	Z:	0.404	yaw:	168.258	yaw rate:	0.500	Roll:	-4.835	Pitch:	-3.376	Yaw:	236.583	Thrust:	37.290
Time:	4.969	Roll Set Point:	-0.017	Pitch Set Point:	0.032	Yaw Set Point:	-2.937	X_WP:	0.000	Y_WP:	0.000	Y_WP:	0.500	X:	0.163	Y:	0.066	Z:	0.404	yaw:	168.262	yaw rate:	0.333	Roll:	-4.821	Pitch:	-3.490	Yaw:	236.553	Thrust:	37.568
Time:	4.984	Roll Set Point:	-0.017	Pitch Set Point:	0.032	Yaw Set Point:	-2.936	X_WP:	0.000	Y_WP:	0.000	Y_WP:	0.500	X:	0.163	Y:	0.066	Z:	0.405	yaw:	168.218	yaw rate:	-4.381	Roll:	-4.731	Pitch:	-3.475	Yaw:	235.705	Thrust:	37.395
Time:	5.000	Roll Set Point:	-0.017	Pitch Set Point:	0.032	Yaw Set Point:	-2.936	X_WP:	0.000	Y_WP:	0.000	Y_WP:	0.500	X:	0.163	Y:	0.066	Z:	0.404	yaw:	168.247	yaw rate:	2.941	Roll:	-4.835	Pitch:	-3.366	Yaw:	236.973	Thrust:	38.217
Time:	5.016	Roll Set Point:	-0.017	Pitch Set Point:	0.032	Yaw Set Point:	-2.937	X_WP:	0.000	Y_WP:	0.000	Y_WP:	0.500	X:	0.163	Y:	0.066	Z:	0.404	yaw:	168.257	yaw rate:	0.936	Roll:	-4.853	Pitch:	-3.365	Yaw:	236.650	Thrust:	37.838
Time:	5.031	Roll Set Point:	-0.017	Pitch Set Point:	0.032	Yaw Set Point:	-2.937	X_WP:	0.000	Y_WP:	0.000	Y_WP:	0.500	X:	0.163	Y:	0.066	Z:	0.404	yaw:	168.251	yaw rate:	-0.523	Roll:	-4.777	Pitch:	-3.503	Yaw:	236.398	Thrust:	38.249
Time:	5.047	Roll Set Point:	-0.017	Pitch Set Point:	0.032	Yaw Set Point:	-2.937	X_WP:	0.000	Y_WP:	0.000	Y_WP:	0.500	X:	0.163	Y:	0.066	Z:	0.404	yaw:	168.262	yaw rate:	1.095	Roll:	-4.839	Pitch:	-3.424	Yaw:	236.685	Thrust:	38.392
Time:	5.062	Roll Set Point:	-0.017	Pitch Set Point:	0.032	Yaw Set Point:	-2.936	X_WP:	0.000	Y_WP:	0.000	Y_WP:	0.500	X:	0.163	Y:	0.066	Z:	0.404	yaw:	168.228	yaw rate:	-3.479	Roll:	-4.741	Pitch:	-3.431	Yaw:	235.871	Thrust:	38.545
Time:	5.078	Roll Set Point:	-0.017	Pitch Set Point:	0.032	Yaw Set Point:	-2.937	X_WP:	0.000	Y_WP:	0.000	Y_WP:	0.500	X:	0.163	Y:	0.066	Z:	0.404	yaw:	168.262	yaw rate:	3.431	Roll:	-4.884	Pitch:	-3.344	Yaw:	237.076	Thrust:	38.865
Time:	5.094	Roll Set Point:	-0.017	Pitch Set Point:	0.032	Yaw Set Point:	-2.936	X_WP:	0.000	Y_WP:	0.000	Y_WP:	0.500	X:	0.163	Y:	0.066	Z:	0.405	yaw:	168.241	yaw rate:	-2.119	Roll:	-4.782	Pitch:	-3.493	Yaw:	236.116	Thrust:	38.758
Time:	5.109	Roll Set Point:	-0.017	Pitch Set Point:	0.032	Yaw Set Point:	-2.936	X_WP:	0.000	Y_WP:	0.000	Y_WP:	0.500	X:	0.163	Y:	0.066	Z:	0.404	yaw:	168.238	yaw rate:	-0.227	Roll:	-4.799	Pitch:	-3.501	Yaw:	236.446	Thrust:	39.629
Time:	5.138	Roll Set Point:	-0.017	Pitch Set Point:	0.032	Yaw Set Point:	-2.936	X_WP:	0.000	Y_WP:	0.000	Y_WP:	0.500	X:	0.163	Y:	0.066	Z:	0.405	yaw:	168.244	yaw rate:	0.567	Roll:	-5.309	Pitch:	-3.885	Yaw:	237.840	Thrust:	67.794
Time:	5.154	Roll Set Point:	-0.017	Pitch Set Point:	0.032	Yaw Set Point:	-2.936	X_WP:	0.000	Y_WP:	0.000	Y_WP:	0.500	X:	0.163	Y:	0.066	Z:	0.404	yaw:	168.238	yaw rate:	-0.620	Roll:	-4.800	Pitch:	-3.404	Yaw:	236.365	Thrust:	39.545
Time:	5.169	Roll Set Point:	-0.017	Pitch Set Point:	0.032	Yaw Set Point:	-2.936	X_WP:	0.000	Y_WP:	0.000	Y_WP:	0.500	X:	0.163	Y:	0.066	Z:	0.404	yaw:	168.238	yaw rate:	-0.620	Roll:	-4.810	Pitch:	-3.425	Yaw:	236.467	Thrust:	39.638
Time:	5.185	Roll Set Point:	-0.017	Pitch Set Point:	0.032	Yaw Set Point:	-2.936	X_WP:	0.000	Y_WP:	0.000	Y_WP:	0.500	X:	0.163	Y:	0.066	Z:	0.404	yaw:	168.239	yaw rate:	1.578	Roll:	-4.828	Pitch:	-3.494	Yaw:	236.498	Thrust:	40.031
Time:	5.201	Roll Set Point:	-0.017	Pitch Set Point:	0.032	Yaw Set Point:	-2.937	X_WP:	0.000	Y_WP:	0.000	Y_WP:	0.500	X:	0.163	Y:	0.066	Z:	0.404	yaw:	168.250	yaw rate:	1.051	Roll:	-4.811	Pitch:	-3.317	Yaw:	236.660	Thrust:	39.993
Time:	5.216	Roll Set Point:	-0.017	Pitch Set Point:	0.032	Yaw Set Point:	-2.936	X_WP:	0.000	Y_WP:	0.000	Y_WP:	0.500	X:	0.163	Y:	0.066	Z:	0.404	yaw:	168.246	yaw rate:	-0.418	Roll:	-4.827	Pitch:	-3.465	Yaw:	236.402	Thrust:	40.013
Time:	5.232	Roll Set Point:	-0.017	Pitch Set Point:	0.032	Yaw Set Point:	-2.936	X_WP:	0.000	Y_WP:	0.000	Y_WP:	0.500	X:	0.163	Y:	0.066	Z:	0.404	yaw:	168.226	yaw rate:	-1.938	Roll:	-4.750	Pitch:	-3.496	Yaw:	236.126	Thrust:	40.335
Time:	5.246	Roll Set Point:	-0.017	Pitch Set Point:	0.032	Yaw Set Point:	-2.936	X_WP:	0.000	Y_WP:	0.000	Y_WP:	0.500	X:	0.163	Y:	0.066	Z:	0.404	yaw:	168.249	yaw rate:	2.224	Roll:	-4.807	Pitch:	-3.346	Yaw:	236.753	Thrust:	37.542
Time:	5.266	Roll Set Point:	-0.017	Pitch Set Point:	0.032	Yaw Set Point:	-2.936	X_WP:	0.000	Y_WP:	0.000	Y_WP:	0.500	X:	0.163	Y:	0.066	Z:	0.404	yaw:	168.249	yaw rate:	2.224	Roll:	-4.964	Pitch:	-3.579	Yaw:	236.890	Thrust:	49.973
Time:	5.282	Roll Set Point:	-0.017	Pitch Set Point:	0.032	Yaw Set Point:	-2.936	X_WP:	0.000	Y_WP:	0.000	Y_WP:	0.500	X:	0.163	Y:	0.066	Z:	0.404	yaw:	168.241	yaw rate:	-2.352	Roll:	-4.798	Pitch:	-3.391	Yaw:	236.342	Thrust:	40.834
Time:	5.297	Roll Set Point:	-0.017	Pitch Set Point:	0.032	Yaw Set Point:	-2.936	X_WP:	0.000	Y_WP:	0.000	Y_WP:	0.500	X:	0.163	Y:	0.066	Z:	0.404	yaw:	168.238	yaw rate:	-0.301	Roll:	-4.814	Pitch:	-3.459	Yaw:	236.417	Thrust:	41.042
Time:	5.313	Roll Set Point:	-0.017	Pitch Set Point:	0.032	Yaw Set Point:	-2.936	X_WP:	0.000	Y_WP:	0.000	Y_WP:	0.500	X:	0.163	Y:	0.066	Z:	0.404	yaw:	168.222	yaw rate:	-1.616	Roll:	-4.767	Pitch:	-3.474	Yaw:	236.174	Thrust:	41.317
Time:	5.328	Roll Set Point:	-0.017	Pitch Set Point:	0.032	Yaw Set Point:	-2.936	X_WP:	0.000	Y_WP:	0.000	Y_WP:	0.500	X:	0.163	Y:	0.066	Z:	0.405	yaw:	168.218	yaw rate:	-0.396	Roll:	-4.812	Pitch:	-3.400	Yaw:	236.373	Thrust:	41.329
Time:	5.344	Roll Set Point:	-0.017	Pitch Set Point:	0.032	Yaw Set Point:	-2.937	X_WP:	0.000	Y_WP:	0.000	Y_WP:	0.500	X:	0.163	Y:	0.066	Z:	0.404	yaw:	168.274	yaw rate:	5.606	Roll:	-4.910	Pitch:	-3.316	Yaw:	237.456	Thrust:	41.812
Time:	5.360	Roll Set Point:	-0.017	Pitch Set Point:	0.032	Yaw Set Point:	-2.937	X_WP:	0.000	Y_WP:	0.000	Y_WP:	0.500	X:	0.163	Y:	0.066	Z:	0.404	yaw:	168.274	yaw rate:	5.606	Roll:	-4.812	Pitch:	-3.424	Yaw:	236.517	Thrust:	41.800
Time:	5.375	Roll Set Point:	-0.017	Pitch Set Point:	0.032	Yaw Set Point:	-2.936	X_WP:	0.000	Y_WP:	0.000	Y_WP:	0.500	X:	0.163	Y:	0.066	Z:	0.405	yaw:	168.237	yaw rate:	-1.161	Roll:	-4.730	Pitch:	-3.501	Yaw:	235.854	Thrust:	41.800
Time:	5.391	Roll Set Point:	-0.017	Pitch Set Point:	0.032	Yaw Set Point:	-2.936	X_WP:	0.000	Y_WP:	0.000	Y_WP:	0.500	X:	0.163	Y:	0.066	Z:	0.404	yaw:	168.242	yaw rate:	0.496	Roll:	-4.823	Pitch:	-3.411	Yaw:	236.556	Thrust:	42.212
Time:	5.407	Roll Set Point:	-0.017	Pitch Set Point:	0.032	Yaw Set Point:	-2.937	X_WP:	0.000	Y_WP:	0.000	Y_WP:	0.500	X:	0.163	Y:	0.066	Z:	0.404	yaw:	168.260	yaw rate:	1.745	Roll:	-4.855	Pitch:	-3.394	Yaw:	236.790	Thrust:	42.426
Time:	5.422	Roll Set Point:	-0.017	Pitch Set Point:	0.032	Yaw Set Point:	-2.936	X_WP:	0.000	Y_WP:	0.000	Y_WP:	0.500	X:	0.163	Y:	0.066	Z:	0.404	yaw:	168.237	yaw rate:	-2.310	Roll:	-4.763	Pitch:	-3.432	Yaw:	236.078	Thrust:	42.435
Time:	5.438	Roll Set Point:	-0.017	Pitch Set Point:	0.032	Yaw Set Point:	-2.936	X_WP:	0.000	Y_WP:	0.000	Y_WP:	0.500	X:	0.163	Y:	0.066	Z:	0.404	yaw:	168.237	yaw rate:	-2.310	Roll:	-4.810	Pitch:	-3.425	Yaw:	236.465	Thrust:	42.693
Time:	5.453	Roll Set Point:	-0.017	Pitch Set Point:	0.032	Yaw Set Point:	-2.936	X_WP:	0.000	Y_WP:	0.000	Y_WP:	0.500	X:	0.163	Y:	0.066	Z:	0.404	yaw:	168.242	yaw rate:	0.547	Roll:	-4.811	Pitch:	-3.472	Yaw:	236.565	Thrust:	42.891
Time:	5.469	Roll Set Point:	-0.017	Pitch Set Point:	0.032	Yaw Set Point:	-2.936	X_WP:	0.000	Y_WP:	0.000	Y_WP:	0.500	X:	0.163	Y:	0.066	Z:	0.404	yaw:	168.229	yaw rate:	-2.283	Roll:	-4.804	Pitch:	-3.414	Yaw:	236.232	Thrust:	43.163
Time:	5.485	Roll Set Point:	-0.017	Pitch Set Point:	0.032	Yaw Set Point:	-2.936	X_WP:	0.000	Y_WP:	0.000	Y_WP:	0.500	X:	0.163	Y:	0.066	Z:	0.404	yaw:	168.229	yaw rate:	-2.283	Roll:	-4.809	Pitch:	-3.425	Yaw:	236.451	Thrust:	43.158
Time:	5.500	Roll Set Point:	-0.017	Pitch Set Point:	0.032	Yaw Set Point:	-2.937	X_WP:	0.000	Y_WP:	0.000	Y_WP:	0.500	X:	0.163	Y:	0.066	Z:	0.404	yaw:	168.264	yaw rate:	-0.001	Roll:	-4.870	Pitch:	-3.393	Yaw:	237.093	Thrust:	43.398
Time:	5.516	Roll Set Point:	-0.017	Pitch Set Point:	0.032	Yaw Set Point:	-2.937	X_WP:	0.000	Y_WP:	0.000	Y_WP:	0.500	X:	0.163	Y:	0.066	Z:	0.404	yaw:	168.264	yaw rate:	-0.001	Roll:	-4.812	Pitch:	-3.425	Yaw:	236.503	Thrust:	43.589
Time:	5.532	Roll Set Point:	-0.017	Pitch Set Point:	0.032	Yaw Set Point:	-2.936	X_WP:	0.000	Y_WP:	0.000	Y_WP:	0.500	X:	0.163	Y:	0.066	Z:	0.404	yaw:	168.242	yaw rate:	-2.179	Roll:	-4.783	Pitch:	-3.470	Yaw:	236.109	Thrust:	43.711
Time:	5.547	Roll Set Point:	-0.017	Pitch Set Point:	0.032	Yaw Set Point:	-2.936	X_WP:	0.000	Y_WP:	0.000	Y_WP:	0.500	X:	0.163	Y:	0.066	Z:	0.404	yaw:	168.242	yaw rate:	-2.179	Roll:	-4.811	Pitch:	-3.426	Yaw:	236.472	Thrust:	43.915
Time:	5.563	Roll Set Point:	-0.017	Pitch Set Point:	0.032	Yaw Set Point:	-2.936	X_WP:	0.000	Y_WP:	0.000	Y_WP:	0.500	X:	0.163	Y:	0.066	Z:	0.405	yaw:	168.223	yaw rate:	-2.043	Roll:	-4.749	Pitch:	-3.434	Yaw:	236.130	Thrust:	44.112
Time:	5.578	Roll Set Point:	-0.017	Pitch Set Point:	0.032	Yaw Set Point:	-2.936	X_WP:	0.000	Y_WP:	0.000	Y_WP:	0.500	X:	0.163	Y:	0.066	Z:	0.405	yaw:	168.223	yaw rate:	-2.043	Roll:	-4.809	Pitch:	-3.426	Yaw:	236.446	Thrust:	44.309
Time:	5.594	Roll Set Point:	-0.017	Pitch Set Point:	0.032	Yaw Set Point:	-2.936	X_WP:	0.000	Y_WP:	0.000	Y_WP:	0.500	X:	0.163	Y:	0.066	Z:	0.404	yaw:	168.231	yaw rate:	0.790	Roll:	-4.844	Pitch:	-3.474	Yaw:	236.592	Thrust:	44.733
Time:	5.610	Roll Set Point:	-0.017	Pitch Set Point:	0.032	Yaw Set Point:	-2.937	X_WP:	0.000	Y_WP:	0.000	Y_WP:	0.500	X:	0.163	Y:	0.066	Z:	0.404	yaw:	168.254	yaw rate:	2.299	Roll:	-4.854	Pitch:	-3.321	Yaw:	236.875	Thrust:	44.676
Time:	5.625	Roll Set Point:	-0.017	Pitch Set Point:	0.032	Yaw Set Point:	-2.937	X_WP:	0.000	Y_WP:	0.000	Y_WP:	0.500	X:	0.163	Y:	0.066	Z:	0.404	yaw:	168.267	yaw rate:	1.348	Roll:	-4.841	Pitch:	-3.407	Yaw:	236.729	Thrust:	44.607
Time:	5.641	Roll Set Point:	-0.017	Pitch Set Point:	0.032	Yaw Set Point:	-2.937	X_WP:	0.000	Y_WP:	0.000	Y_WP:	0.500	X:	0.163	Y:	0.066	Z:	0.404	yaw:	168.267	yaw rate:	1.348	Roll:	-4.812	Pitch:	-3.424	Yaw:	236.508	Thrust:	45.020
Time:	5.657	Roll Set Point:	-0.017	Pitch Set Point:	0.032	Yaw Set Point:	-2.936	X_WP:	0.000	Y_WP:	0.000	Y_WP:	0.500	X:	0.163	Y:	0.066	Z:	0.404	yaw:	168.249	yaw rate:	2.785	Roll:	-4.766	Pitch:	-3.453	Yaw:	236.177	Thrust:	45.181
Time:	5.672	Roll Set Point:	-0.017	Pitch Set Point:	0.032	Yaw Set Point:	-2.937	X_WP:	0.000	Y_WP:	0.000	Y_WP:	0.500	X:	0.163	Y:	0.066	Z:	0.404	yaw:	168.252	yaw rate:	0.286	Roll:	-4.830	Pitch:	-3.399	Yaw:	236.535	Thrust:	45.440
Time:	5.688	Roll Set Point:	-0.017	Pitch Set Point:	0.032	Yaw Set Point:	-2.937	X_WP:	0.000	Y_WP:	0.000	Y_WP:	0.500	X:	0.163	Y:	0.066	Z:	0.404	yaw:	168.250	yaw rate:	-0.201	Roll:	-4.801	Pitch:	-3.465	Yaw:	236.450	Thrust:	45.623
Time:	5.703	Roll Set Point:	-0.017	Pitch Set Point:	0.032	Yaw Set Point:	-2.936	X_WP:	0.000	Y_WP:	0.000	Y_WP:	0.500	X:	0.163	Y:	0.066	Z:	0.404	yaw:	168.237	yaw rate:	-1.243	Roll:	-4.782	Pitch:	-3.464	Yaw:	236.258	Thrust:	45.620
Time:	5.719	Roll Set Point:	-0.017	Pitch Set Point:	0.032	Yaw Set Point:	-2.936	X_WP:	0.000	Y_WP:	0.000	Y_WP:	0.500	X:	0.163	Y:	0.066	Z:	0.404	yaw:	168.222	yaw rate:	-1.525	Roll:	-4.795	Pitch:	-3.445	Yaw:	236.190	Thrust:	45.887
Time:	5.735	Roll Set Point:	-0.017	Pitch Set Point:	0.032	Yaw Set Point:	-2.937	X_WP:	0.000	Y_WP:	0.000	Y_WP:	0.500	X:	0.163	Y:	0.066	Z:	0.404	yaw:	168.257	yaw rate:	3.480	Roll:	-4.867	Pitch:	-3.366	Yaw:	237.077	Thrust:	46.187
Time:	5.750	Roll Set Point:	-0.017	Pitch Set Point:	0.032	Yaw Set Point:	-2.937	X_WP:	0.000	Y_WP:	0.000	Y_WP:	0.500	X:	0.163	Y:	0.066	Z:	0.404	yaw:	168.253	yaw rate:	-0.444	Roll:	-4.812	Pitch:	-3.399	Yaw:	236.413	Thrust:	46.245
Time:	5.766	Roll Set Point:	-0.017	Pitch Set Point:	0.032	Yaw Set Point:	-2.937	X_WP:	0.000	Y_WP:	0.000	Y_WP:	0.500	X:	0.163	Y:	0.066	Z:	0.404	yaw:	168.253	yaw rate:	-0.444	Roll:	-4.812	Pitch:	-3.425	Yaw:	236.488	Thrust:	46.453
Time:	5.782	Roll Set Point:	-0.017	Pitch Set Point:	0.032	Yaw Set Point:	-2.936	X_WP:	0.000	Y_WP:	0.000	Y_WP:	0.500	X:	0.163	Y:	0.066	Z:	0.404	yaw:	168.231	yaw rate:	-2.091	Roll:	-4.759	Pitch:	-3.478	Yaw:	236.102	Thrust:	46.578
Time:	5.797	Roll Set Point:	-0.017	Pitch Set Point:	0.032	Yaw Set Point:	-2.936	X_WP:	0.000	Y_WP:	0.000	Y_WP:	0.500	X:	0.163	Y:	0.066	Z:	0.404	yaw:	168.239	yaw rate:	0.735	Roll:	-4.829	Pitch:	-3.429	Yaw:	236.591	Thrust:	46.887
Time:	5.813	Roll Set Point:	-0.017	Pitch Set Point:	0.032	Yaw Set Point:	-2.937	X_WP:	0.000	Y_WP:	0.000	Y_WP:	0.500	X:	0.163	Y:	0.066	Z:	0.404	yaw:	168.254	yaw rate:	1.535	Roll:	-4.819	Pitch:	-3.388	Yaw:	236.747	Thrust:	47.077
Time:	5.828	Roll Set Point:	-0.017	Pitch Set Point:	0.032	Yaw Set Point:	-2.936	X_WP:	0.000	Y_WP:	0.000	Y_WP:	0.500	X:	0.163	Y:	0.066	Z:	0.404	yaw:	168.238	yaw rate:	-1.572	Roll:	-4.806	Pitch:	-3.457	Yaw:	236.204	Thrust:	47.086
Time:	5.844	Roll Set Point:	-0.017	Pitch Set Point:	0.032	Yaw Set Point:	-2.937	X_WP:	0.000	Y_WP:	0.000	Y_WP:	0.500	X:	0.163	Y:	0.066	Z:	0.404	yaw:	168.258	yaw rate:	1.992	Roll:	-4.839	Pitch:	-3.366	Yaw:	236.829	Thrust:	47.306
Time:	5.860	Roll Set Point:	-0.017	Pitch Set Point:	0.032	Yaw Set Point:	-2.937	X_WP:	0.000	Y_WP:	0.000	Y_WP:	0.500	X:	0.163	Y:	0.066	Z:	0.404	yaw:	168.258	yaw rate:	1.992	Roll:	-4.812	Pitch:	-3.425	Yaw:	236.497	Thrust:	47.575
Time:	5.875	Roll Set Point:	-0.017	Pitch Set Point:	0.032	Yaw Set Point:	-2.936	X_WP:	0.000	Y_WP:	0.000	Y_WP:	0.500	X:	0.163	Y:	0.066	Z:	0.405	yaw:	168.224	yaw rate:	-4.955	Roll:	-4.755	Pitch:	-3.461	Yaw:	235.868	Thrust:	47.524
Time:	5.891	Roll Set Point:	-0.017	Pitch Set Point:	0.032	Yaw Set Point:	-2.937	X_WP:	0.000	Y_WP:	0.000	Y_WP:	0.500	X:	0.163	Y:	0.066	Z:	0.404	yaw:	168.270	yaw rate:	4.661	Roll:	-4.890	Pitch:	-3.395	Yaw:	237.293	Thrust:	48.164
Time:	5.907	Roll Set Point:	-0.017	Pitch Set Point:	0.032	Yaw Set Point:	-2.936	X_WP:	0.000	Y_WP:	0.000	Y_WP:	0.500	X:	0.163	Y:	0.066	Z:	0.404	yaw:	168.248	yaw rate:	-2.274	Roll:	-4.767	Pitch:	-3.441	Yaw:	236.103	Thrust:	48.071
Time:	5.922	Roll Set Point:	-0.017	Pitch Set Point:	0.032	Yaw Set Point:	-2.936	X_WP:	0.000	Y_WP:	0.000	Y_WP:	0.500	X:	0.163	Y:	0.066	Z:	0.404	yaw:	168.248	yaw rate:	-2.274	Roll:	-4.810	Pitch:	-3.424	Yaw:	236.478	Thrust:	48.164
Time:	5.938	Roll Set Point:	-0.017	Pitch Set Point:	0.032	Yaw Set Point:	-2.936	X_WP:	0.000	Y_WP:	0.000	Y_WP:	0.500	X:	0.163	Y:	0.066	Z:	0.404	yaw:	168.241	yaw rate:	-0.646	Roll:	-4.802	Pitch:	-3.424	Yaw:	236.364	Thrust:	48.391
Time:	5.953	Roll Set Point:	-0.017	Pitch Set Point:	0.032	Yaw Set Point:	-2.936	X_WP:	0.000	Y_WP:	0.000	Y_WP:	0.500	X:	0.163	Y:	0.066	Z:	0.404	yaw:	168.241	yaw rate:	-0.646	Roll:	-4.811	Pitch:	-3.425	Yaw:	236.472	Thrust:	48.599
Time:	5.969	Roll Set Point:	-0.017	Pitch Set Point:	0.032	Yaw Set Point:	-2.936	X_WP:	0.000	Y_WP:	0.000	Y_WP:	0.500	X:	0.163	Y:	0.066	Z:	0.405	yaw:	168.227	yaw rate:	1.015	Roll:	-4.782	Pitch:	-3.466	Yaw:	236.221	Thrust:	48.771
Time:	5.985	Roll Set Point:	-0.017	Pitch Set Point:	0.032	Yaw Set Point:	-2.937	X_WP:	0.000	Y_WP:	0.000	Y_WP:	0.500	X:	0.163	Y:	0.066	Z:	0.404	yaw:	168.260	yaw rate:	3.276	Roll:	-4.874	Pitch:	-3.362	Yaw:	237.049	Thrust:	49.262
Time:	6.000	Roll Set Point:	-0.162	Pitch Set Point:	-0.129	Yaw Set Point:	-2.936	X_WP:	0.175	Y_WP:	0.127	Y_WP:	0.500	X:	0.163	Y:	0.066	Z:	0.404	yaw:	168.248	yaw rate:	-1.223	Roll:	30.000	Pitch:	30.000	Yaw:	236.276	Thrust:	49.083
Time:	6.016	Roll Set Point:	-0.162	Pitch Set Point:	-0.129	Yaw Set Point:	-2.936	X_WP:	0.175	Y_WP:	0.127	Y_WP:	0.500	X:	0.163	Y:	0.066	Z:	0.404	yaw:	168.248	yaw rate:	-1.223	Roll:	-0.594	Pitch:	1.228	Yaw:	236.475	Thrust:	49.158
Time:	6.032	Roll Set Point:	-0.162	Pitch Set Point:	-0.129	Yaw Set Point:	-2.936	X_WP:	0.175	Y_WP:	0.127	Y_WP:	0.500	X:	0.163	Y:	0.066	Z:	0.404	yaw:	168.234	yaw rate:	1.919	Roll:	-0.607	Pitch:	1.227	Yaw:	236.238	Thrust:	49.489
Time:	6.047	Roll Set Point:	-0.162	Pitch Set Point:	-0.129	Yaw Set Point:	-2.937	X_WP:	0.175	Y_WP:	0.127	Y_WP:	0.500	X:	0.163	Y:	0.066	Z:	0.405	yaw:	168.252	yaw rate:	1.779	Roll:	-0.568	Pitch:	1.231	Yaw:	236.785	Thrust:	49.565
Time:	6.063	Roll Set Point:	-0.162	Pitch Set Point:	-0.129	Yaw Set Point:	-2.937	X_WP:	0.175	Y_WP:	0.127	Y_WP:	0.500	X:	0.163	Y:	0.066	Z:	0.404	yaw:	168.266	yaw rate:	1.378	Roll:	-0.580	Pitch:	1.234	Yaw:	236.737	Thrust:	49.911
Time:	6.079	Roll Set Point:	-0.162	Pitch Set Point:	-0.129	Yaw Set Point:	-2.936	X_WP:	0.175	Y_WP:	0.127	Y_WP:	0.500	X:	0.163	Y:	0.066	Z:	0.404	yaw:	168.240	yaw rate:	-2.562	Roll:	-0.648	Pitch:	1.231	Yaw:	236.042	Thrust:	50.151
Time:	6.094	Roll Set Point:	-0.162	Pitch Set Point:	-0.129	Yaw Set Point:	-2.937	X_WP:	0.175	Y_WP:	0.127	Y_WP:	0.500	X:	0.163	Y:	0.066	Z:	0.404	yaw:	168.250	yaw rate:	1.006	Roll:	-0.576	Pitch:	1.242	Yaw:	236.652	Thrust:	50.167
Time:	6.110	Roll Set Point:	-0.162	Pitch Set Point:	-0.129	Yaw Set Point:	-2.937	X_WP:	0.175	Y_WP:	0.127	Y_WP:	0.500	X:	0.163	Y:	0.066	Z:	0.404	yaw:	168.266	yaw rate:	1.547	Roll:	-0.555	Pitch:	1.234	Yaw:	236.765	Thrust:	50.297
Time:	6.125	Roll Set Point:	-0.162	Pitch Set Point:	-0.129	Yaw Set Point:	-2.937	X_WP:	0.175	Y_WP:	0.127	Y_WP:	0.500	X:	0.163	Y:	0.066	Z:	0.404	yaw:	168.251	yaw rate:	-1.530	Roll:	-0.625	Pitch:	1.246	Yaw:	236.228	Thrust:	50.714
Time:	6.143	Roll Set Point:	-0.162	Pitch Set Point:	-0.129	Yaw Set Point:	-2.936	X_WP:	0.175	Y_WP:	0.127	Y_WP:	0.500	X:	0.163	Y:	0.066	Z:	0.404	yaw:	168.225	yaw rate:	-2.531	Roll:	-0.675	Pitch:	1.208	Yaw:	236.155	Thrust:	53.685
Time:	6.161	Roll Set Point:	-0.162	Pitch Set Point:	-0.129	Yaw Set Point:	-2.936	X_WP:	0.175	Y_WP:	0.127	Y_WP:	0.500	X:	0.163	Y:	0.066	Z:	0.404	yaw:	168.228	yaw rate:	0.294	Roll:	-0.638	Pitch:	1.161	Yaw:	236.736	Thrust:	57.897
Time:	6.187	Roll Set Point:	-0.162	Pitch Set Point:	-0.129	Yaw Set Point:	-2.937	X_WP:	0.175	Y_WP:	0.127	Y_WP:	0.500	X:	0.163	Y:	0.066	Z:	0.404	yaw:	168.258	yaw rate:	-0.571	Roll:	-1.019	Pitch:	0.858	Yaw:	237.881	Thrust:	83.230
Time:	6.202	Roll Set Point:	-0.162	Pitch Set Point:	-0.129	Yaw Set Point:	-2.937	X_WP:	0.175	Y_WP:	0.127	Y_WP:	0.500	X:	0.163	Y:	0.066	Z:	0.404	yaw:	168.258	yaw rate:	-0.571	Roll:	-0.595	Pitch:	1.253	Yaw:	236.492	Thrust:	51.213
Time:	6.218	Roll Set Point:	-0.162	Pitch Set Point:	-0.129	Yaw Set Point:	-2.936	X_WP:	0.175	Y_WP:	0.127	Y_WP:	0.500	X:	0.163	Y:	0.066	Z:	0.404	yaw:	168.237	yaw rate:	1.653	Roll:	-0.641	Pitch:	1.255	Yaw:	236.121	Thrust:	51.459
Time:	6.233	Roll Set Point:	-0.162	Pitch Set Point:	-0.129	Yaw Set Point:	-2.937	X_WP:	0.175	Y_WP:	0.127	Y_WP:	0.500	X:	0.163	Y:	0.066	Z:	0.404	yaw:	168.274	yaw rate:	3.691	Roll:	-0.528	Pitch:	1.256	Yaw:	237.136	Thrust:	51.579
Time:	6.248	Roll Set Point:	-0.162	Pitch Set Point:	-0.129	Yaw Set Point:	-2.936	X_WP:	0.175	Y_WP:	0.127	Y_WP:	0.500	X:	0.163	Y:	0.066	Z:	0.404	yaw:	168.230	yaw rate:	-4.384	Roll:	-0.617	Pitch:	1.291	Yaw:	235.600	Thrust:	49.362
Time:	6.266	Roll Set Point:	-0.162	Pitch Set Point:	-0.129	Yaw Set Point:	-2.936	X_WP:	0.175	Y_WP:	0.127	Y_WP:	0.500	X:	0.163	Y:	0.066	Z:	0.404	yaw:	168.230	yaw rate:	-4.384	Roll:	-0.673	Pitch:	1.190	Yaw:	236.661	Thrust:	58.126
Time:	6.282	Roll Set Point:	-0.162	Pitch Set Point:	-0.129	Yaw Set Point:	-2.936	X_WP:	0.175	Y_WP:	0.127	Y_WP:	0.500	X:	0.163	Y:	0.066	Z:	0.404	yaw:	168.223	yaw rate:	-0.219	Roll:	-0.629	Pitch:	1.264	Yaw:	236.328	Thrust:	52.249
