Time:	2.038	Roll Set Point:	-0.016	Pitch Set Point:	0.073	Yaw Set Point:	-0.710	X_WP:	0.100	Y_WP:	0.000	Y_WP:	0.500	X:	0.072	Y:	-0.052	Z:	1.108	yaw:	40.688	yaw rate:	18.959	Roll:	-1.608	Pitch:	-0.613	Yaw:	56.811	Thrust:	0.000
Time:	2.049	Roll Set Point:	-0.018	Pitch Set Point:	0.074	Yaw Set Point:	-0.714	X_WP:	0.100	Y_WP:	0.000	Y_WP:	0.500	X:	0.073	Y:	-0.053	Z:	1.115	yaw:	40.890	yaw rate:	20.241	Roll:	-0.727	Pitch:	-1.836	Yaw:	62.243	Thrust:	0.000
Time:	2.062	Roll Set Point:	-0.021	Pitch Set Point:	0.076	Yaw Set Point:	-0.700	X_WP:	0.100	Y_WP:	0.000	Y_WP:	0.500	X:	0.074	Y:	-0.052	Z:	1.123	yaw:	40.111	yaw rate:	-77.941	Roll:	0.758	Pitch:	-2.552	Yaw:	40.733	Thrust:	0.000
Time:	2.073	Roll Set Point:	-0.023	Pitch Set Point:	0.077	Yaw Set Point:	-0.697	X_WP:	0.100	Y_WP:	0.000	Y_WP:	0.500	X:	0.076	Y:	-0.053	Z:	1.130	yaw:	39.953	yaw rate:	-15.783	Roll:	-0.630	Pitch:	-2.561	Yaw:	52.689	Thrust:	0.000
Time:	2.084	Roll Set Point:	-0.025	Pitch Set Point:	0.078	Yaw Set Point:	-0.689	X_WP:	0.100	Y_WP:	0.000	Y_WP:	0.500	X:	0.077	Y:	-0.053	Z:	1.138	yaw:	39.483	yaw rate:	-47.009	Roll:	0.168	Pitch:	-2.478	Yaw:	44.528	Thrust:	0.000
Time:	2.101	Roll Set Point:	-0.028	Pitch Set Point:	0.079	Yaw Set Point:	-0.679	X_WP:	0.100	Y_WP:	0.000	Y_WP:	0.500	X:	0.078	Y:	-0.052	Z:	1.145	yaw:	38.902	yaw rate:	-58.066	Roll:	-0.032	Pitch:	-1.983	Yaw:	46.314	Thrust:	0.000
Time:	2.113	Roll Set Point:	-0.032	Pitch Set Point:	0.081	Yaw Set Point:	-0.647	X_WP:	0.100	Y_WP:	0.000	Y_WP:	0.500	X:	0.080	Y:	-0.052	Z:	1.159	yaw:	37.089	yaw rate:	-55.756	Roll:	2.063	Pitch:	-4.016	Yaw:	13.325	Thrust:	0.000
Time:	2.125	Roll Set Point:	-0.034	Pitch Set Point:	0.081	Yaw Set Point:	-0.640	X_WP:	0.100	Y_WP:	0.000	Y_WP:	0.500	X:	0.081	Y:	-0.052	Z:	1.166	yaw:	36.693	yaw rate:	-39.569	Roll:	0.350	Pitch:	-1.810	Yaw:	43.825	Thrust:	0.000
Time:	2.138	Roll Set Point:	-0.036	Pitch Set Point:	0.081	Yaw Set Point:	-0.636	X_WP:	0.100	Y_WP:	0.000	Y_WP:	0.500	X:	0.081	Y:	-0.051	Z:	1.173	yaw:	36.463	yaw rate:	-23.045	Roll:	-0.127	Pitch:	-1.157	Yaw:	47.360	Thrust:	0.000
Time:	2.148	Roll Set Point:	-0.038	Pitch Set Point:	0.081	Yaw Set Point:	-0.630	X_WP:	0.100	Y_WP:	0.000	Y_WP:	0.500	X:	0.082	Y:	-0.051	Z:	1.179	yaw:	36.117	yaw rate:	-34.560	Roll:	0.187	Pitch:	-1.479	Yaw:	42.457	Thrust:	0.000
Time:	2.163	Roll Set Point:	-0.041	Pitch Set Point:	0.081	Yaw Set Point:	-0.614	X_WP:	0.100	Y_WP:	0.000	Y_WP:	0.500	X:	0.083	Y:	-0.050	Z:	1.192	yaw:	35.190	yaw rate:	-92.689	Roll:	1.612	Pitch:	-1.685	Yaw:	33.868	Thrust:	0.000
Time:	2.174	Roll Set Point:	-0.043	Pitch Set Point:	0.080	Yaw Set Point:	-0.598	X_WP:	0.100	Y_WP:	0.000	Y_WP:	0.500	X:	0.084	Y:	-0.049	Z:	1.204	yaw:	34.270	yaw rate:	-38.024	Roll:	0.928	Pitch:	-1.246	Yaw:	29.039	Thrust:	0.000
Time:	2.184	Roll Set Point:	-0.044	Pitch Set Point:	0.079	Yaw Set Point:	-0.592	X_WP:	0.100	Y_WP:	0.000	Y_WP:	0.500	X:	0.084	Y:	-0.048	Z:	1.210	yaw:	33.921	yaw rate:	-34.958	Roll:	-0.142	Pitch:	-0.623	Yaw:	39.320	Thrust:	0.000
Time:	2.195	Roll Set Point:	-0.045	Pitch Set Point:	0.079	Yaw Set Point:	-0.584	X_WP:	0.100	Y_WP:	0.000	Y_WP:	0.500	X:	0.084	Y:	-0.048	Z:	1.216	yaw:	33.476	yaw rate:	-44.501	Roll:	-0.029	Pitch:	-0.852	Yaw:	37.333	Thrust:	0.000
Time:	2.206	Roll Set Point:	-0.045	Pitch Set Point:	0.078	Yaw Set Point:	-0.582	X_WP:	0.100	Y_WP:	0.000	Y_WP:	0.500	X:	0.084	Y:	-0.047	Z:	1.222	yaw:	33.320	yaw rate:	-15.555	Roll:	-0.952	Pitch:	-0.137	Yaw:	43.934	Thrust:	0.000
Time:	2.217	Roll Set Point:	-0.045	Pitch Set Point:	0.077	Yaw Set Point:	-0.579	X_WP:	0.100	Y_WP:	0.000	Y_WP:	0.500	X:	0.084	Y:	-0.046	Z:	1.227	yaw:	33.170	yaw rate:	-15.016	Roll:	-0.633	Pitch:	-0.292	Yaw:	43.855	Thrust:	0.000
Time:	2.228	Roll Set Point:	-0.045	Pitch Set Point:	0.076	Yaw Set Point:	-0.578	X_WP:	0.100	Y_WP:	0.000	Y_WP:	0.500	X:	0.084	Y:	-0.046	Z:	1.232	yaw:	33.125	yaw rate:	-4.525	Roll:	-0.772	Pitch:	-0.100	Yaw:	46.282	Thrust:	0.000
Time:	2.240	Roll Set Point:	-0.045	Pitch Set Point:	0.074	Yaw Set Point:	-0.582	X_WP:	0.100	Y_WP:	0.000	Y_WP:	0.500	X:	0.083	Y:	-0.045	Z:	1.237	yaw:	33.324	yaw rate:	19.951	Roll:	-1.264	Pitch:	0.552	Yaw:	52.212	Thrust:	0.000
Time:	2.251	Roll Set Point:	-0.045	Pitch Set Point:	0.073	Yaw Set Point:	-0.580	X_WP:	0.100	Y_WP:	0.000	Y_WP:	0.500	X:	0.083	Y:	-0.045	Z:	1.242	yaw:	33.215	yaw rate:	-10.943	Roll:	-0.943	Pitch:	0.015	Yaw:	44.882	Thrust:	0.000
Time:	2.262	Roll Set Point:	-0.044	Pitch Set Point:	0.070	Yaw Set Point:	-0.592	X_WP:	0.100	Y_WP:	0.000	Y_WP:	0.500	X:	0.083	Y:	-0.043	Z:	1.251	yaw:	33.923	yaw rate:	70.817	Roll:	-1.011	Pitch:	1.788	Yaw:	65.236	Thrust:	0.000
Time:	2.273	Roll Set Point:	-0.045	Pitch Set Point:	0.069	Yaw Set Point:	-0.597	X_WP:	0.100	Y_WP:	0.000	Y_WP:	0.500	X:	0.083	Y:	-0.043	Z:	1.255	yaw:	34.187	yaw rate:	26.352	Roll:	-0.769	Pitch:	0.049	Yaw:	55.091	Thrust:	0.000
Time:	2.284	Roll Set Point:	-0.046	Pitch Set Point:	0.068	Yaw Set Point:	-0.598	X_WP:	0.100	Y_WP:	0.000	Y_WP:	0.500	X:	0.083	Y:	-0.042	Z:	1.259	yaw:	34.234	yaw rate:	4.790	Roll:	-0.267	Pitch:	-0.239	Yaw:	50.041	Thrust:	0.000
Time:	2.301	Roll Set Point:	-0.047	Pitch Set Point:	0.067	Yaw Set Point:	-0.597	X_WP:	0.100	Y_WP:	0.000	Y_WP:	0.500	X:	0.084	Y:	-0.042	Z:	1.263	yaw:	34.232	yaw rate:	-0.235	Roll:	-0.254	Pitch:	-0.399	Yaw:	49.366	Thrust:	0.000
Time:	2.315	Roll Set Point:	-0.048	Pitch Set Point:	0.066	Yaw Set Point:	-0.593	X_WP:	0.100	Y_WP:	0.000	Y_WP:	0.500	X:	0.084	Y:	-0.041	Z:	1.266	yaw:	33.973	yaw rate:	-25.903	Roll:	-0.033	Pitch:	-0.683	Yaw:	44.222	Thrust:	0.000
Time:	2.329	Roll Set Point:	-0.049	Pitch Set Point:	0.065	Yaw Set Point:	-0.595	X_WP:	0.100	Y_WP:	0.000	Y_WP:	0.500	X:	0.085	Y:	-0.040	Z:	1.270	yaw:	34.079	yaw rate:	10.602	Roll:	-0.218	Pitch:	-0.396	Yaw:	50.963	Thrust:	0.000
Time:	2.341	Roll Set Point:	-0.053	Pitch Set Point:	0.063	Yaw Set Point:	-0.581	X_WP:	0.100	Y_WP:	0.000	Y_WP:	0.500	X:	0.086	Y:	-0.039	Z:	1.278	yaw:	33.263	yaw rate:	-36.858	Roll:	2.375	Pitch:	-0.408	Yaw:	29.887	Thrust:	0.000
Time:	2.351	Roll Set Point:	-0.054	Pitch Set Point:	0.063	Yaw Set Point:	-0.583	X_WP:	0.100	Y_WP:	0.000	Y_WP:	0.500	X:	0.087	Y:	-0.038	Z:	1.281	yaw:	33.398	yaw rate:	13.506	Roll:	-0.021	Pitch:	-0.434	Yaw:	51.157	Thrust:	0.000
Time:	2.363	Roll Set Point:	-0.056	Pitch Set Point:	0.060	Yaw Set Point:	-0.602	X_WP:	0.100	Y_WP:	0.000	Y_WP:	0.500	X:	0.087	Y:	-0.037	Z:	1.285	yaw:	34.485	yaw rate:	108.651	Roll:	0.070	Pitch:	1.309	Yaw:	72.952	Thrust:	0.000
Time:	2.374	Roll Set Point:	-0.058	Pitch Set Point:	0.057	Yaw Set Point:	-0.612	X_WP:	0.100	Y_WP:	0.000	Y_WP:	0.500	X:	0.088	Y:	-0.035	Z:	1.291	yaw:	35.080	yaw rate:	59.496	Roll:	1.358	Pitch:	1.338	Yaw:	63.641	Thrust:	0.000
Time:	2.385	Roll Set Point:	-0.059	Pitch Set Point:	0.055	Yaw Set Point:	-0.615	X_WP:	0.100	Y_WP:	0.000	Y_WP:	0.500	X:	0.088	Y:	-0.034	Z:	1.295	yaw:	35.224	yaw rate:	14.432	Roll:	0.219	Pitch:	0.332	Yaw:	53.823	Thrust:	0.000
Time:	2.396	Roll Set Point:	-0.060	Pitch Set Point:	0.053	Yaw Set Point:	-0.618	X_WP:	0.100	Y_WP:	0.000	Y_WP:	0.500	X:	0.088	Y:	-0.033	Z:	1.298	yaw:	35.434	yaw rate:	20.931	Roll:	0.092	Pitch:	0.653	Yaw:	55.371	Thrust:	0.000
Time:	2.407	Roll Set Point:	-0.060	Pitch Set Point:	0.051	Yaw Set Point:	-0.621	X_WP:	0.100	Y_WP:	0.000	Y_WP:	0.500	X:	0.088	Y:	-0.032	Z:	1.301	yaw:	35.609	yaw rate:	17.550	Roll:	0.058	Pitch:	1.056	Yaw:	55.136	Thrust:	0.000
Time:	2.417	Roll Set Point:	-0.061	Pitch Set Point:	0.049	Yaw Set Point:	-0.624	X_WP:	0.100	Y_WP:	0.000	Y_WP:	0.500	X:	0.088	Y:	-0.031	Z:	1.304	yaw:	35.775	yaw rate:	16.559	Roll:	-0.049	Pitch:	1.077	Yaw:	55.120	Thrust:	0.000
Time:	2.435	Roll Set Point:	-0.061	Pitch Set Point:	0.047	Yaw Set Point:	-0.626	X_WP:	0.100	Y_WP:	0.000	Y_WP:	0.500	X:	0.088	Y:	-0.030	Z:	1.308	yaw:	35.878	yaw rate:	10.384	Roll:	-0.260	Pitch:	0.751	Yaw:	53.393	Thrust:	0.000
Time:	2.447	Roll Set Point:	-0.062	Pitch Set Point:	0.042	Yaw Set Point:	-0.632	X_WP:	0.100	Y_WP:	0.000	Y_WP:	0.500	X:	0.088	Y:	-0.027	Z:	1.314	yaw:	36.202	yaw rate:	17.453	Roll:	0.564	Pitch:	2.568	Yaw:	58.388	Thrust:	0.000
Time:	2.460	Roll Set Point:	-0.062	Pitch Set Point:	0.042	Yaw Set Point:	-0.632	X_WP:	0.100	Y_WP:	0.000	Y_WP:	0.500	X:	0.088	Y:	-0.027	Z:	1.314	yaw:	36.202	yaw rate:	17.453	Roll:	-0.789	Pitch:	-0.452	Yaw:	51.751	Thrust:	0.000
Time:	2.472	Roll Set Point:	-0.065	Pitch Set Point:	0.035	Yaw Set Point:	-0.633	X_WP:	0.100	Y_WP:	0.000	Y_WP:	0.500	X:	0.088	Y:	-0.023	Z:	1.321	yaw:	36.270	yaw rate:	1.070	Roll:	2.572	Pitch:	3.900	Yaw:	53.326	Thrust:	0.000
Time:	2.484	Roll Set Point:	-0.066	Pitch Set Point:	0.032	Yaw Set Point:	-0.632	X_WP:	0.100	Y_WP:	0.000	Y_WP:	0.500	X:	0.088	Y:	-0.022	Z:	1.323	yaw:	36.227	yaw rate:	-4.346	Roll:	0.726	Pitch:	0.944	Yaw:	50.750	Thrust:	0.000
Time:	2.496	Roll Set Point:	-0.067	Pitch Set Point:	0.030	Yaw Set Point:	-0.629	X_WP:	0.100	Y_WP:	0.000	Y_WP:	0.500	X:	0.089	Y:	-0.020	Z:	1.325	yaw:	36.053	yaw rate:	-17.437	Roll:	0.751	Pitch:	0.855	Yaw:	47.749	Thrust:	0.000
Time:	2.506	Roll Set Point:	-0.068	Pitch Set Point:	0.028	Yaw Set Point:	-0.627	X_WP:	0.100	Y_WP:	0.000	Y_WP:	0.500	X:	0.089	Y:	-0.019	Z:	1.327	yaw:	35.942	yaw rate:	-11.042	Roll:	0.875	Pitch:	1.015	Yaw:	48.492	Thrust:	0.000
Time:	2.517	Roll Set Point:	-0.070	Pitch Set Point:	0.026	Yaw Set Point:	-0.625	X_WP:	0.100	Y_WP:	0.000	Y_WP:	0.500	X:	0.089	Y:	-0.018	Z:	1.329	yaw:	35.792	yaw rate:	-15.012	Roll:	0.793	Pitch:	0.911	Yaw:	47.297	Thrust:	0.000
Time:	2.529	Roll Set Point:	-0.071	Pitch Set Point:	0.024	Yaw Set Point:	-0.621	X_WP:	0.100	Y_WP:	0.000	Y_WP:	0.500	X:	0.089	Y:	-0.017	Z:	1.330	yaw:	35.595	yaw rate:	-19.740	Roll:	0.723	Pitch:	0.946	Yaw:	46.391	Thrust:	0.000
Time:	2.539	Roll Set Point:	-0.071	Pitch Set Point:	0.022	Yaw Set Point:	-0.621	X_WP:	0.100	Y_WP:	0.000	Y_WP:	0.500	X:	0.089	Y:	-0.016	Z:	1.332	yaw:	35.556	yaw rate:	-3.872	Roll:	0.455	Pitch:	1.166	Yaw:	49.829	Thrust:	0.000
Time:	2.550	Roll Set Point:	-0.072	Pitch Set Point:	0.020	Yaw Set Point:	-0.617	X_WP:	0.100	Y_WP:	0.000	Y_WP:	0.500	X:	0.089	Y:	-0.015	Z:	1.334	yaw:	35.333	yaw rate:	-22.263	Roll:	0.831	Pitch:	0.859	Yaw:	45.154	Thrust:	0.000
Time:	2.562	Roll Set Point:	-0.073	Pitch Set Point:	0.019	Yaw Set Point:	-0.613	X_WP:	0.100	Y_WP:	0.000	Y_WP:	0.500	X:	0.090	Y:	-0.014	Z:	1.335	yaw:	35.138	yaw rate:	-19.541	Roll:	0.558	Pitch:	1.005	Yaw:	45.781	Thrust:	0.000
Time:	2.573	Roll Set Point:	-0.074	Pitch Set Point:	0.017	Yaw Set Point:	-0.612	X_WP:	0.100	Y_WP:	0.000	Y_WP:	0.500	X:	0.090	Y:	-0.012	Z:	1.336	yaw:	35.093	yaw rate:	-4.471	Roll:	0.659	Pitch:	0.969	Yaw:	49.137	Thrust:	0.000
Time:	2.584	Roll Set Point:	-0.075	Pitch Set Point:	0.015	Yaw Set Point:	-0.612	X_WP:	0.100	Y_WP:	0.000	Y_WP:	0.500	X:	0.090	Y:	-0.012	Z:	1.337	yaw:	35.040	yaw rate:	-5.343	Roll:	0.571	Pitch:	0.878	Yaw:	48.652	Thrust:	0.000
Time:	2.595	Roll Set Point:	-0.076	Pitch Set Point:	0.014	Yaw Set Point:	-0.612	X_WP:	0.100	Y_WP:	0.000	Y_WP:	0.500	X:	0.090	Y:	-0.011	Z:	1.338	yaw:	35.061	yaw rate:	2.161	Roll:	0.476	Pitch:	0.950	Yaw:	50.600	Thrust:	0.000
Time:	2.607	Roll Set Point:	-0.076	Pitch Set Point:	0.012	Yaw Set Point:	-0.612	X_WP:	0.100	Y_WP:	0.000	Y_WP:	0.500	X:	0.090	Y:	-0.010	Z:	1.339	yaw:	35.091	yaw rate:	2.989	Roll:	0.392	Pitch:	0.738	Yaw:	50.809	Thrust:	0.000
Time:	2.617	Roll Set Point:	-0.078	Pitch Set Point:	0.010	Yaw Set Point:	-0.612	X_WP:	0.100	Y_WP:	0.000	Y_WP:	0.500	X:	0.090	Y:	-0.008	Z:	1.339	yaw:	35.082	yaw rate:	-0.943	Roll:	1.113	Pitch:	1.481	Yaw:	49.866	Thrust:	0.000
Time:	2.634	Roll Set Point:	-0.078	Pitch Set Point:	0.009	Yaw Set Point:	-0.613	X_WP:	0.100	Y_WP:	0.000	Y_WP:	0.500	X:	0.091	Y:	-0.008	Z:	1.340	yaw:	35.099	yaw rate:	1.689	Roll:	0.076	Pitch:	0.375	Yaw:	50.888	Thrust:	0.000
Time:	2.646	Roll Set Point:	-0.079	Pitch Set Point:	0.007	Yaw Set Point:	-0.610	X_WP:	0.100	Y_WP:	0.000	Y_WP:	0.500	X:	0.091	Y:	-0.007	Z:	1.340	yaw:	34.948	yaw rate:	-9.597	Roll:	0.566	Pitch:	0.792	Yaw:	46.726	Thrust:	0.000
Time:	2.663	Roll Set Point:	-0.080	Pitch Set Point:	0.007	Yaw Set Point:	-0.609	X_WP:	0.100	Y_WP:	0.000	Y_WP:	0.500	X:	0.091	Y:	-0.007	Z:	1.340	yaw:	34.905	yaw rate:	-4.238	Roll:	0.007	Pitch:	0.240	Yaw:	49.583	Thrust:	0.000
Time:	2.677	Roll Set Point:	-0.080	Pitch Set Point:	0.006	Yaw Set Point:	-0.610	X_WP:	0.100	Y_WP:	0.000	Y_WP:	0.500	X:	0.091	Y:	-0.006	Z:	1.340	yaw:	34.938	yaw rate:	3.289	Roll:	-0.254	Pitch:	0.126	Yaw:	50.926	Thrust:	0.000
Time:	2.689	Roll Set Point:	-0.080	Pitch Set Point:	0.006	Yaw Set Point:	-0.612	X_WP:	0.100	Y_WP:	0.000	Y_WP:	0.500	X:	0.091	Y:	-0.006	Z:	1.340	yaw:	35.071	yaw rate:	13.316	Roll:	-0.186	Pitch:	0.200	Yaw:	53.233	Thrust:	0.000
Time:	2.703	Roll Set Point:	-0.080	Pitch Set Point:	0.006	Yaw Set Point:	-0.626	X_WP:	0.100	Y_WP:	0.000	Y_WP:	0.500	X:	0.091	Y:	-0.006	Z:	1.340	yaw:	35.843	yaw rate:	77.132	Roll:	-0.390	Pitch:	0.365	Yaw:	65.372	Thrust:	0.000
Time:	2.713	Roll Set Point:	-0.080	Pitch Set Point:	0.006	Yaw Set Point:	-0.623	X_WP:	0.100	Y_WP:	0.000	Y_WP:	0.500	X:	0.091	Y:	-0.006	Z:	1.340	yaw:	35.699	yaw rate:	-14.338	Roll:	-0.284	Pitch:	-0.210	Yaw:	47.333	Thrust:	0.000
Time:	2.725	Roll Set Point:	-0.080	Pitch Set Point:	0.006	Yaw Set Point:	-0.623	X_WP:	0.100	Y_WP:	0.000	Y_WP:	0.500	X:	0.091	Y:	-0.006	Z:	1.340	yaw:	35.675	yaw rate:	-2.444	Roll:	-0.516	Pitch:	-0.061	Yaw:	50.485	Thrust:	0.000
Time:	2.738	Roll Set Point:	-0.079	Pitch Set Point:	0.006	Yaw Set Point:	-0.619	X_WP:	0.100	Y_WP:	0.000	Y_WP:	0.500	X:	0.091	Y:	-0.006	Z:	1.341	yaw:	35.478	yaw rate:	-10.300	Roll:	-0.704	Pitch:	-0.245	Yaw:	46.881	Thrust:	0.000
Time:	2.749	Roll Set Point:	-0.079	Pitch Set Point:	0.007	Yaw Set Point:	-0.618	X_WP:	0.100	Y_WP:	0.000	Y_WP:	0.500	X:	0.091	Y:	-0.007	Z:	1.341	yaw:	35.389	yaw rate:	-8.870	Roll:	-0.683	Pitch:	-0.183	Yaw:	48.263	Thrust:	0.000
Time:	2.762	Roll Set Point:	-0.079	Pitch Set Point:	0.007	Yaw Set Point:	-0.617	X_WP:	0.100	Y_WP:	0.000	Y_WP:	0.500	X:	0.091	Y:	-0.007	Z:	1.342	yaw:	35.332	yaw rate:	-5.773	Roll:	-0.686	Pitch:	-0.223	Yaw:	49.385	Thrust:	0.000
Time:	2.773	Roll Set Point:	-0.078	Pitch Set Point:	0.007	Yaw Set Point:	-0.617	X_WP:	0.100	Y_WP:	0.000	Y_WP:	0.500	X:	0.090	Y:	-0.007	Z:	1.342	yaw:	35.344	yaw rate:	1.212	Roll:	-0.837	Pitch:	-0.240	Yaw:	50.777	Thrust:	0.000
Time:	2.784	Roll Set Point:	-0.078	Pitch Set Point:	0.008	Yaw Set Point:	-0.617	X_WP:	0.100	Y_WP:	0.000	Y_WP:	0.500	X:	0.090	Y:	-0.007	Z:	1.342	yaw:	35.345	yaw rate:	0.169	Roll:	-0.864	Pitch:	-0.169	Yaw:	50.447	Thrust:	0.000
Time:	2.802	Roll Set Point:	-0.077	Pitch Set Point:	0.008	Yaw Set Point:	-0.616	X_WP:	0.100	Y_WP:	0.000	Y_WP:	0.500	X:	0.090	Y:	-0.008	Z:	1.343	yaw:	35.291	yaw rate:	-5.463	Roll:	-1.184	Pitch:	-0.208	Yaw:	50.220	Thrust:	0.000
Time:	2.813	Roll Set Point:	-0.075	Pitch Set Point:	0.009	Yaw Set Point:	-0.618	X_WP:	0.100	Y_WP:	0.000	Y_WP:	0.500	X:	0.089	Y:	-0.008	Z:	1.345	yaw:	35.396	yaw rate:	14.343	Roll:	-1.480	Pitch:	0.061	Yaw:	52.923	Thrust:	0.000
Time:	2.825	Roll Set Point:	-0.075	Pitch Set Point:	0.009	Yaw Set Point:	-0.612	X_WP:	0.100	Y_WP:	0.000	Y_WP:	0.500	X:	0.089	Y:	-0.009	Z:	1.345	yaw:	35.059	yaw rate:	-33.726	Roll:	-0.915	Pitch:	-0.291	Yaw:	42.831	Thrust:	0.000
Time:	2.837	Roll Set Point:	-0.074	Pitch Set Point:	0.009	Yaw Set Point:	-0.609	X_WP:	0.100	Y_WP:	0.000	Y_WP:	0.500	X:	0.088	Y:	-0.009	Z:	1.346	yaw:	34.899	yaw rate:	-16.032	Roll:	-1.081	Pitch:	-0.183	Yaw:	46.241	Thrust:	0.000
Time:	2.847	Roll Set Point:	-0.073	Pitch Set Point:	0.010	Yaw Set Point:	-0.605	X_WP:	0.100	Y_WP:	0.000	Y_WP:	0.500	X:	0.088	Y:	-0.009	Z:	1.347	yaw:	34.685	yaw rate:	-21.357	Roll:	-1.353	Pitch:	-0.168	Yaw:	44.173	Thrust:	0.000
Time:	2.860	Roll Set Point:	-0.072	Pitch Set Point:	0.010	Yaw Set Point:	-0.607	X_WP:	0.100	Y_WP:	0.000	Y_WP:	0.500	X:	0.087	Y:	-0.009	Z:	1.347	yaw:	34.800	yaw rate:	11.453	Roll:	-1.544	Pitch:	0.162	Yaw:	52.232	Thrust:	0.000
Time:	2.872	Roll Set Point:	-0.071	Pitch Set Point:	0.010	Yaw Set Point:	-0.600	X_WP:	0.100	Y_WP:	0.000	Y_WP:	0.500	X:	0.087	Y:	-0.010	Z:	1.348	yaw:	34.366	yaw rate:	-43.377	Roll:	-1.223	Pitch:	-0.235	Yaw:	40.172	Thrust:	0.000
Time:	2.884	Roll Set Point:	-0.069	Pitch Set Point:	0.011	Yaw Set Point:	-0.595	X_WP:	0.100	Y_WP:	0.000	Y_WP:	0.500	X:	0.086	Y:	-0.010	Z:	1.348	yaw:	34.107	yaw rate:	-25.932	Roll:	-1.600	Pitch:	0.044	Yaw:	42.906	Thrust:	0.000
Time:	2.896	Roll Set Point:	-0.067	Pitch Set Point:	0.011	Yaw Set Point:	-0.593	X_WP:	0.100	Y_WP:	0.000	Y_WP:	0.500	X:	0.085	Y:	-0.010	Z:	1.349	yaw:	33.962	yaw rate:	-14.458	Roll:	-1.936	Pitch:	0.249	Yaw:	45.314	Thrust:	0.000
Time:	2.907	Roll Set Point:	-0.063	Pitch Set Point:	0.011	Yaw Set Point:	-0.595	X_WP:	0.100	Y_WP:	0.000	Y_WP:	0.500	X:	0.083	Y:	-0.011	Z:	1.349	yaw:	34.087	yaw rate:	12.484	Roll:	-3.932	Pitch:	1.319	Yaw:	51.629	Thrust:	0.000
Time:	2.917	Roll Set Point:	-0.061	Pitch Set Point:	0.010	Yaw Set Point:	-0.589	X_WP:	0.100	Y_WP:	0.000	Y_WP:	0.500	X:	0.082	Y:	-0.011	Z:	1.350	yaw:	33.752	yaw rate:	-33.504	Roll:	-2.327	Pitch:	0.581	Yaw:	39.859	Thrust:	0.000
Time:	2.929	Roll Set Point:	-0.057	Pitch Set Point:	0.010	Yaw Set Point:	-0.593	X_WP:	0.100	Y_WP:	0.000	Y_WP:	0.500	X:	0.080	Y:	-0.011	Z:	1.350	yaw:	33.970	yaw rate:	21.775	Roll:	-3.189	Pitch:	1.173	Yaw:	53.511	Thrust:	0.000
Time:	2.940	Roll Set Point:	-0.054	Pitch Set Point:	0.009	Yaw Set Point:	-0.592	X_WP:	0.100	Y_WP:	0.000	Y_WP:	0.500	X:	0.079	Y:	-0.012	Z:	1.351	yaw:	33.893	yaw rate:	-7.683	Roll:	-2.899	Pitch:	1.082	Yaw:	46.732	Thrust:	0.000
Time:	2.950	Roll Set Point:	-0.050	Pitch Set Point:	0.009	Yaw Set Point:	-0.594	X_WP:	0.100	Y_WP:	0.000	Y_WP:	0.500	X:	0.076	Y:	-0.012	Z:	1.351	yaw:	34.040	yaw rate:	14.741	Roll:	-3.877	Pitch:	1.736	Yaw:	52.381	Thrust:	0.000
Time:	2.962	Roll Set Point:	-0.046	Pitch Set Point:	0.008	Yaw Set Point:	-0.596	X_WP:	0.100	Y_WP:	0.000	Y_WP:	0.500	X:	0.074	Y:	-0.012	Z:	1.351	yaw:	34.135	yaw rate:	9.511	Roll:	-4.330	Pitch:	1.945	Yaw:	51.012	Thrust:	0.000
Time:	2.973	Roll Set Point:	-0.040	Pitch Set Point:	0.007	Yaw Set Point:	-0.595	X_WP:	0.100	Y_WP:	0.000	Y_WP:	0.500	X:	0.071	Y:	-0.012	Z:	1.351	yaw:	34.097	yaw rate:	-3.806	Roll:	-4.726	Pitch:	2.312	Yaw:	47.808	Thrust:	0.000
Time:	2.984	Roll Set Point:	-0.034	Pitch Set Point:	0.005	Yaw Set Point:	-0.592	X_WP:	0.100	Y_WP:	0.000	Y_WP:	0.500	X:	0.068	Y:	-0.013	Z:	1.351	yaw:	33.923	yaw rate:	-17.455	Roll:	-5.217	Pitch:	2.447	Yaw:	44.340	Thrust:	0.000
Time:	3.002	Roll Set Point:	-0.027	Pitch Set Point:	0.004	Yaw Set Point:	-0.586	X_WP:	0.100	Y_WP:	0.000	Y_WP:	0.500	X:	0.064	Y:	-0.013	Z:	1.351	yaw:	33.555	yaw rate:	-36.811	Roll:	-5.118	Pitch:	2.135	Yaw:	43.319	Thrust:	0.000
Time:	3.015	Roll Set Point:	-0.010	Pitch Set Point:	-0.000	Yaw Set Point:	-0.557	X_WP:	0.100	Y_WP:	0.000	Y_WP:	0.500	X:	0.055	Y:	-0.013	Z:	1.352	yaw:	31.919	yaw rate:	-86.291	Roll:	-9.202	Pitch:	4.450	Yaw:	13.795	Thrust:	0.000
Time:	3.027	Roll Set Point:	0.000	Pitch Set Point:	-0.002	Yaw Set Point:	-0.540	X_WP:	0.100	Y_WP:	0.000	Y_WP:	0.500	X:	0.050	Y:	-0.013	Z:	1.353	yaw:	30.964	yaw rate:	-95.505	Roll:	-9.142	Pitch:	3.584	Yaw:	23.671	Thrust:	0.000
Time:	3.039	Roll Set Point:	0.012	Pitch Set Point:	-0.005	Yaw Set Point:	-0.525	X_WP:	0.100	Y_WP:	0.000	Y_WP:	0.500	X:	0.043	Y:	-0.013	Z:	1.354	yaw:	30.084	yaw rate:	-87.977	Roll:	-9.326	Pitch:	3.815	Yaw:	24.065	Thrust:	0.000
Time:	3.051	Roll Set Point:	0.056	Pitch Set Point:	-0.013	Yaw Set Point:	-0.494	X_WP:	0.100	Y_WP:	0.000	Y_WP:	0.500	X:	0.020	Y:	-0.013	Z:	1.355	yaw:	28.305	yaw rate:	-75.534	Roll:	-30.000	Pitch:	13.710	Yaw:	0.500	Thrust:	0.000
Time:	3.063	Roll Set Point:	0.073	Pitch Set Point:	-0.018	Yaw Set Point:	-0.501	X_WP:	0.100	Y_WP:	0.000	Y_WP:	0.500	X:	0.011	Y:	-0.013	Z:	1.355	yaw:	28.697	yaw rate:	39.230	Roll:	-13.139	Pitch:	7.239	Yaw:	49.514	Thrust:	0.000
Time:	3.074	Roll Set Point:	0.089	Pitch Set Point:	-0.024	Yaw Set Point:	-0.524	X_WP:	0.100	Y_WP:	0.000	Y_WP:	0.500	X:	0.002	Y:	-0.013	Z:	1.355	yaw:	30.025	yaw rate:	132.819	Roll:	-13.738	Pitch:	11.286	Yaw:	74.553	Thrust:	0.000
Time:	3.085	Roll Set Point:	0.106	Pitch Set Point:	-0.029	Yaw Set Point:	-0.525	X_WP:	0.100	Y_WP:	0.000	Y_WP:	0.500	X:	-0.007	Y:	-0.013	Z:	1.354	yaw:	30.102	yaw rate:	7.705	Roll:	-15.125	Pitch:	8.273	Yaw:	44.965	Thrust:	0.000
Time:	3.097	Roll Set Point:	0.126	Pitch Set Point:	-0.033	Yaw Set Point:	-0.522	X_WP:	0.100	Y_WP:	0.000	Y_WP:	0.500	X:	-0.018	Y:	-0.014	Z:	1.353	yaw:	29.889	yaw rate:	-21.301	Roll:	-17.193	Pitch:	7.869	Yaw:	38.328	Thrust:	0.000
Time:	3.108	Roll Set Point:	0.148	Pitch Set Point:	-0.036	Yaw Set Point:	-0.514	X_WP:	0.100	Y_WP:	0.000	Y_WP:	0.500	X:	-0.029	Y:	-0.014	Z:	1.353	yaw:	29.471	yaw rate:	-41.831	Roll:	-20.474	Pitch:	8.147	Yaw:	31.800	Thrust:	0.000
Time:	3.118	Roll Set Point:	0.172	Pitch Set Point:	-0.040	Yaw Set Point:	-0.509	X_WP:	0.100	Y_WP:	0.000	Y_WP:	0.500	X:	-0.041	Y:	-0.015	Z:	1.352	yaw:	29.169	yaw rate:	-30.222	Roll:	-21.573	Pitch:	8.808	Yaw:	34.268	Thrust:	0.000
Time:	3.136	Roll Set Point:	0.196	Pitch Set Point:	-0.044	Yaw Set Point:	-0.504	X_WP:	0.100	Y_WP:	0.000	Y_WP:	0.500	X:	-0.054	Y:	-0.016	Z:	1.351	yaw:	28.855	yaw rate:	-31.308	Roll:	-17.217	Pitch:	6.649	Yaw:	37.002	Thrust:	0.000
Time:	3.147	Roll Set Point:	0.222	Pitch Set Point:	-0.050	Yaw Set Point:	-0.504	X_WP:	0.100	Y_WP:	0.000	Y_WP:	0.500	X:	-0.067	Y:	-0.017	Z:	1.350	yaw:	28.853	yaw rate:	-0.281	Roll:	-20.301	Pitch:	10.258	Yaw:	41.384	Thrust:	0.000
Time:	3.159	Roll Set Point:	0.248	Pitch Set Point:	-0.056	Yaw Set Point:	-0.511	X_WP:	0.100	Y_WP:	0.000	Y_WP:	0.500	X:	-0.081	Y:	-0.017	Z:	1.349	yaw:	29.276	yaw rate:	42.336	Roll:	-23.492	Pitch:	12.283	Yaw:	51.286	Thrust:	0.000
Time:	3.172	Roll Set Point:	0.331	Pitch Set Point:	-0.076	Yaw Set Point:	-0.518	X_WP:	0.100	Y_WP:	0.000	Y_WP:	0.500	X:	-0.126	Y:	-0.019	Z:	1.348	yaw:	29.672	yaw rate:	-20.282	Roll:	-30.000	Pitch:	30.000	Yaw:	50.668	Thrust:	0.000
Time:	3.182	Roll Set Point:	0.361	Pitch Set Point:	-0.082	Yaw Set Point:	-0.509	X_WP:	0.100	Y_WP:	0.000	Y_WP:	0.500	X:	-0.141	Y:	-0.019	Z:	1.348	yaw:	29.158	yaw rate:	-51.371	Roll:	-28.489	Pitch:	11.630	Yaw:	29.062	Thrust:	0.000
Time:	3.196	Roll Set Point:	0.391	Pitch Set Point:	-0.088	Yaw Set Point:	-0.502	X_WP:	0.100	Y_WP:	0.000	Y_WP:	0.500	X:	-0.157	Y:	-0.019	Z:	1.348	yaw:	28.738	yaw rate:	-41.937	Roll:	-26.369	Pitch:	11.090	Yaw:	33.441	Thrust:	0.000
Time:	3.209	Roll Set Point:	0.426	Pitch Set Point:	-0.087	Yaw Set Point:	-0.464	X_WP:	0.100	Y_WP:	0.000	Y_WP:	0.500	X:	-0.173	Y:	-0.018	Z:	1.348	yaw:	26.608	yaw rate:	-213.090	Roll:	-30.000	Pitch:	1.760	Yaw:	-4.361	Thrust:	0.000
Time:	3.220	Roll Set Point:	0.457	Pitch Set Point:	-0.093	Yaw Set Point:	-0.457	X_WP:	0.100	Y_WP:	0.000	Y_WP:	0.500	X:	-0.189	Y:	-0.018	Z:	1.347	yaw:	26.158	yaw rate:	-45.002	Roll:	-30.000	Pitch:	11.605	Yaw:	26.405	Thrust:	0.000
Time:	3.230	Roll Set Point:	0.490	Pitch Set Point:	-0.097	Yaw Set Point:	-0.436	X_WP:	0.100	Y_WP:	0.000	Y_WP:	0.500	X:	-0.206	Y:	-0.017	Z:	1.347	yaw:	24.974	yaw rate:	-118.355	Roll:	-30.000	Pitch:	7.242	Yaw:	6.591	Thrust:	0.000
Time:	3.241	Roll Set Point:	0.523	Pitch Set Point:	-0.103	Yaw Set Point:	-0.425	X_WP:	0.100	Y_WP:	0.000	Y_WP:	0.500	X:	-0.223	Y:	-0.016	Z:	1.347	yaw:	24.370	yaw rate:	-60.429	Roll:	-30.000	Pitch:	11.067	Yaw:	20.784	Thrust:	0.000
Time:	3.252	Roll Set Point:	0.557	Pitch Set Point:	-0.107	Yaw Set Point:	-0.412	X_WP:	0.100	Y_WP:	0.000	Y_WP:	0.500	X:	-0.240	Y:	-0.015	Z:	1.347	yaw:	23.587	yaw rate:	-78.234	Roll:	-30.000	Pitch:	9.167	Yaw:	14.732	Thrust:	0.000
Time:	3.263	Roll Set Point:	0.591	Pitch Set Point:	-0.115	Yaw Set Point:	-0.408	X_WP:	0.100	Y_WP:	0.000	Y_WP:	0.500	X:	-0.257	Y:	-0.014	Z:	1.347	yaw:	23.354	yaw rate:	-23.353	Roll:	-30.000	Pitch:	14.437	Yaw:	28.156	Thrust:	0.000
Time:	3.275	Roll Set Point:	0.661	Pitch Set Point:	-0.133	Yaw Set Point:	-0.406	X_WP:	0.100	Y_WP:	0.000	Y_WP:	0.500	X:	-0.294	Y:	-0.012	Z:	1.348	yaw:	23.266	yaw rate:	-8.771	Roll:	-30.000	Pitch:	27.235	Yaw:	31.788	Thrust:	0.000
Time:	3.285	Roll Set Point:	0.698	Pitch Set Point:	-0.144	Yaw Set Point:	-0.406	X_WP:	0.100	Y_WP:	0.000	Y_WP:	0.500	X:	-0.314	Y:	-0.010	Z:	1.348	yaw:	23.280	yaw rate:	1.411	Roll:	-30.000	Pitch:	18.837	Yaw:	33.880	Thrust:	0.000
Time:	3.297	Roll Set Point:	0.735	Pitch Set Point:	-0.153	Yaw Set Point:	-0.403	X_WP:	0.100	Y_WP:	0.000	Y_WP:	0.500	X:	-0.333	Y:	-0.009	Z:	1.349	yaw:	23.072	yaw rate:	-20.846	Roll:	-30.000	Pitch:	16.088	Yaw:	28.896	Thrust:	0.000
Time:	3.308	Roll Set Point:	0.774	Pitch Set Point:	-0.161	Yaw Set Point:	-0.395	X_WP:	0.100	Y_WP:	0.000	Y_WP:	0.500	X:	-0.353	Y:	-0.007	Z:	1.349	yaw:	22.622	yaw rate:	-44.929	Roll:	-30.000	Pitch:	13.630	Yaw:	22.369	Thrust:	0.000
Time:	3.318	Roll Set Point:	0.814	Pitch Set Point:	-0.168	Yaw Set Point:	-0.386	X_WP:	0.100	Y_WP:	0.000	Y_WP:	0.500	X:	-0.374	Y:	-0.005	Z:	1.349	yaw:	22.116	yaw rate:	-50.647	Roll:	-30.000	Pitch:	14.515	Yaw:	18.728	Thrust:	0.000
Time:	3.333	Roll Set Point:	0.855	Pitch Set Point:	-0.175	Yaw Set Point:	-0.374	X_WP:	0.100	Y_WP:	0.000	Y_WP:	0.500	X:	-0.394	Y:	-0.003	Z:	1.349	yaw:	21.451	yaw rate:	-66.455	Roll:	-30.000	Pitch:	10.539	Yaw:	19.915	Thrust:	0.000
Time:	3.347	Roll Set Point:	0.939	Pitch Set Point:	-0.190	Yaw Set Point:	-0.359	X_WP:	0.100	Y_WP:	0.000	Y_WP:	0.500	X:	-0.437	Y:	0.001	Z:	1.349	yaw:	20.593	yaw rate:	-89.959	Roll:	-30.000	Pitch:	19.356	Yaw:	12.838	Thrust:	0.000
Time:	3.360	Roll Set Point:	0.980	Pitch Set Point:	-0.201	Yaw Set Point:	-0.357	X_WP:	0.100	Y_WP:	0.000	Y_WP:	0.500	X:	-0.458	Y:	0.003	Z:	1.349	yaw:	20.443	yaw rate:	-15.030	Roll:	-30.000	Pitch:	16.550	Yaw:	26.995	Thrust:	0.000
Time:	3.373	Roll Set Point:	1.022	Pitch Set Point:	-0.213	Yaw Set Point:	-0.356	X_WP:	0.100	Y_WP:	0.000	Y_WP:	0.500	X:	-0.480	Y:	0.006	Z:	1.349	yaw:	20.376	yaw rate:	-6.674	Roll:	-30.000	Pitch:	18.132	Yaw:	28.310	Thrust:	0.000
Time:	3.384	Roll Set Point:	1.064	Pitch Set Point:	-0.222	Yaw Set Point:	-0.351	X_WP:	0.100	Y_WP:	0.000	Y_WP:	0.500	X:	-0.502	Y:	0.008	Z:	1.350	yaw:	20.098	yaw rate:	-27.848	Roll:	-30.000	Pitch:	16.946	Yaw:	22.943	Thrust:	0.000
Time:	3.397	Roll Set Point:	1.108	Pitch Set Point:	-0.230	Yaw Set Point:	-0.342	X_WP:	0.100	Y_WP:	0.000	Y_WP:	0.500	X:	-0.524	Y:	0.011	Z:	1.350	yaw:	19.604	yaw rate:	-49.375	Roll:	-30.000	Pitch:	13.759	Yaw:	17.842	Thrust:	0.000
Time:	3.408	Roll Set Point:	1.151	Pitch Set Point:	-0.241	Yaw Set Point:	-0.338	X_WP:	0.100	Y_WP:	0.000	Y_WP:	0.500	X:	-0.546	Y:	0.014	Z:	1.351	yaw:	19.347	yaw rate:	-25.639	Roll:	-30.000	Pitch:	17.537	Yaw:	22.346	Thrust:	0.000
Time:	3.418	Roll Set Point:	1.237	Pitch Set Point:	-0.259	Yaw Set Point:	-0.326	X_WP:	0.100	Y_WP:	0.000	Y_WP:	0.500	X:	-0.590	Y:	0.020	Z:	1.351	yaw:	18.665	yaw rate:	-68.231	Roll:	-30.000	Pitch:	27.409	Yaw:	10.152	Thrust:	0.000
Time:	3.430	Roll Set Point:	1.281	Pitch Set Point:	-0.269	Yaw Set Point:	-0.320	X_WP:	0.100	Y_WP:	0.000	Y_WP:	0.500	X:	-0.612	Y:	0.023	Z:	1.352	yaw:	18.361	yaw rate:	-30.390	Roll:	-30.000	Pitch:	17.302	Yaw:	19.931	Thrust:	0.000
Time:	3.440	Roll Set Point:	1.329	Pitch Set Point:	-0.266	Yaw Set Point:	-0.294	X_WP:	0.100	Y_WP:	0.000	Y_WP:	0.500	X:	-0.634	Y:	0.027	Z:	1.352	yaw:	16.861	yaw rate:	-149.996	Roll:	-30.000	Pitch:	-5.004	Yaw:	-12.705	Thrust:	0.000
Time:	3.451	Roll Set Point:	1.373	Pitch Set Point:	-0.271	Yaw Set Point:	-0.283	X_WP:	0.100	Y_WP:	0.000	Y_WP:	0.500	X:	-0.656	Y:	0.030	Z:	1.352	yaw:	16.209	yaw rate:	-65.234	Roll:	-30.000	Pitch:	9.383	Yaw:	7.604	Thrust:	0.000
Time:	3.468	Roll Set Point:	1.417	Pitch Set Point:	-0.276	Yaw Set Point:	-0.273	X_WP:	0.100	Y_WP:	0.000	Y_WP:	0.500	X:	-0.678	Y:	0.034	Z:	1.352	yaw:	15.632	yaw rate:	-57.732	Roll:	-30.000	Pitch:	9.137	Yaw:	14.673	Thrust:	0.000
Time:	3.480	Roll Set Point:	1.500	Pitch Set Point:	-0.297	Yaw Set Point:	-0.267	X_WP:	0.100	Y_WP:	0.000	Y_WP:	0.500	X:	-0.720	Y:	0.041	Z:	1.351	yaw:	15.317	yaw rate:	15.429	Roll:	-30.000	Pitch:	26.503	Yaw:	15.400	Thrust:	0.000
Time:	3.493	Roll Set Point:	1.541	Pitch Set Point:	-0.304	Yaw Set Point:	-0.261	X_WP:	0.100	Y_WP:	0.000	Y_WP:	0.500	X:	-0.741	Y:	0.044	Z:	1.351	yaw:	14.960	yaw rate:	-35.697	Roll:	-30.000	Pitch:	12.888	Yaw:	15.022	Thrust:	0.000
Time:	3.504	Roll Set Point:	1.585	Pitch Set Point:	-0.303	Yaw Set Point:	-0.244	X_WP:	0.100	Y_WP:	0.000	Y_WP:	0.500	X:	-0.761	Y:	0.048	Z:	1.352	yaw:	14.000	yaw rate:	-96.043	Roll:	-30.000	Pitch:	0.663	Yaw:	-2.140	Thrust:	0.000
Time:	3.514	Roll Set Point:	1.626	Pitch Set Point:	-0.308	Yaw Set Point:	-0.236	X_WP:	0.100	Y_WP:	0.000	Y_WP:	0.500	X:	-0.781	Y:	0.052	Z:	1.353	yaw:	13.495	yaw rate:	-50.452	Roll:	-30.000	Pitch:	9.519	Yaw:	7.352	Thrust:	0.000
Time:	3.527	Roll Set Point:	1.666	Pitch Set Point:	-0.314	Yaw Set Point:	-0.229	X_WP:	0.100	Y_WP:	0.000	Y_WP:	0.500	X:	-0.801	Y:	0.056	Z:	1.353	yaw:	13.094	yaw rate:	-40.156	Roll:	-30.000	Pitch:	10.954	Yaw:	11.171	Thrust:	0.000
Time:	3.539	Roll Set Point:	1.707	Pitch Set Point:	-0.317	Yaw Set Point:	-0.218	X_WP:	0.100	Y_WP:	0.000	Y_WP:	0.500	X:	-0.821	Y:	0.060	Z:	1.354	yaw:	12.486	yaw rate:	-60.755	Roll:	-30.000	Pitch:	6.062	Yaw:	5.979	Thrust:	0.000
Time:	3.550	Roll Set Point:	1.781	Pitch Set Point:	-0.337	Yaw Set Point:	-0.215	X_WP:	0.100	Y_WP:	0.000	Y_WP:	0.500	X:	-0.859	Y:	0.067	Z:	1.355	yaw:	12.303	yaw rate:	-18.283	Roll:	-30.000	Pitch:	26.447	Yaw:	13.943	Thrust:	0.000
Time:	3.562	Roll Set Point:	1.809	Pitch Set Point:	-0.369	Yaw Set Point:	-0.240	X_WP:	0.100	Y_WP:	0.000	Y_WP:	0.500	X:	-0.877	Y:	0.069	Z:	1.356	yaw:	13.739	yaw rate:	143.525	Roll:	-30.000	Pitch:	30.000	Yaw:	54.195	Thrust:	0.000
Time:	3.572	Roll Set Point:	1.846	Pitch Set Point:	-0.372	Yaw Set Point:	-0.231	X_WP:	0.100	Y_WP:	0.000	Y_WP:	0.500	X:	-0.895	Y:	0.073	Z:	1.357	yaw:	13.214	yaw rate:	-52.455	Roll:	-30.000	Pitch:	7.518	Yaw:	7.096	Thrust:	0.000
Time:	3.583	Roll Set Point:	1.879	Pitch Set Point:	-0.383	Yaw Set Point:	-0.230	X_WP:	0.100	Y_WP:	0.000	Y_WP:	0.500	X:	-0.912	Y:	0.077	Z:	1.358	yaw:	13.186	yaw rate:	-2.828	Roll:	-30.000	Pitch:	19.918	Yaw:	18.776	Thrust:	0.000
Time:	3.595	Roll Set Point:	1.914	Pitch Set Point:	-0.383	Yaw Set Point:	-0.219	X_WP:	0.100	Y_WP:	0.000	Y_WP:	0.500	X:	-0.928	Y:	0.081	Z:	1.359	yaw:	12.553	yaw rate:	-63.308	Roll:	-30.000	Pitch:	3.945	Yaw:	5.002	Thrust:	0.000
Time:	3.607	Roll Set Point:	1.981	Pitch Set Point:	-0.380	Yaw Set Point:	-0.196	X_WP:	0.100	Y_WP:	0.000	Y_WP:	0.500	X:	-0.959	Y:	0.088	Z:	1.361	yaw:	11.252	yaw rate:	-69.203	Roll:	-30.000	Pitch:	-5.274	Yaw:	-12.670	Thrust:	0.000
Time:	3.618	Roll Set Point:	2.011	Pitch Set Point:	-0.385	Yaw Set Point:	-0.192	X_WP:	0.100	Y_WP:	0.000	Y_WP:	0.500	X:	-0.974	Y:	0.091	Z:	1.362	yaw:	11.016	yaw rate:	-23.551	Roll:	-30.000	Pitch:	11.564	Yaw:	10.934	Thrust:	0.000
Time:	3.630	Roll Set Point:	2.042	Pitch Set Point:	-0.382	Yaw Set Point:	-0.181	X_WP:	0.100	Y_WP:	0.000	Y_WP:	0.500	X:	-0.988	Y:	0.094	Z:	1.363	yaw:	10.355	yaw rate:	-66.129	Roll:	-30.000	Pitch:	-0.631	Yaw:	0.685	Thrust:	0.000
Time:	3.640	Roll Set Point:	2.070	Pitch Set Point:	-0.384	Yaw Set Point:	-0.174	X_WP:	0.100	Y_WP:	0.000	Y_WP:	0.500	X:	-1.002	Y:	0.097	Z:	1.364	yaw:	9.997	yaw rate:	-35.767	Roll:	-30.000	Pitch:	6.595	Yaw:	6.601	Thrust:	0.000
Time:	3.651	Roll Set Point:	2.095	Pitch Set Point:	-0.387	Yaw Set Point:	-0.170	X_WP:	0.100	Y_WP:	0.000	Y_WP:	0.500	X:	-1.014	Y:	0.100	Z:	1.366	yaw:	9.737	yaw rate:	-26.065	Roll:	-30.000	Pitch:	8.837	Yaw:	7.861	Thrust:	0.000
Time:	3.666	Roll Set Point:	2.120	Pitch Set Point:	-0.386	Yaw Set Point:	-0.162	X_WP:	0.100	Y_WP:	0.000	Y_WP:	0.500	X:	-1.026	Y:	0.103	Z:	1.367	yaw:	9.272	yaw rate:	-46.434	Roll:	-30.000	Pitch:	3.183	Yaw:	6.403	Thrust:	0.000
Time:	3.679	Roll Set Point:	2.162	Pitch Set Point:	-0.388	Yaw Set Point:	-0.152	X_WP:	0.100	Y_WP:	0.000	Y_WP:	0.500	X:	-1.046	Y:	0.108	Z:	1.370	yaw:	8.692	yaw rate:	-58.083	Roll:	-30.000	Pitch:	4.878	Yaw:	2.427	Thrust:	0.000
Time:	3.695	Roll Set Point:	2.175	Pitch Set Point:	-0.406	Yaw Set Point:	-0.163	X_WP:	0.100	Y_WP:	0.000	Y_WP:	0.500	X:	-1.054	Y:	0.110	Z:	1.371	yaw:	9.366	yaw rate:	67.400	Roll:	-30.000	Pitch:	27.896	Yaw:	26.642	Thrust:	0.000
Time:	3.706	Roll Set Point:	2.200	Pitch Set Point:	-0.419	Yaw Set Point:	-0.169	X_WP:	0.100	Y_WP:	0.000	Y_WP:	0.500	X:	-1.068	Y:	0.112	Z:	1.373	yaw:	9.706	yaw rate:	-10.680	Roll:	-30.000	Pitch:	24.707	Yaw:	21.926	Thrust:	0.000
Time:	3.718	Roll Set Point:	2.212	Pitch Set Point:	-0.417	Yaw Set Point:	-0.165	X_WP:	0.100	Y_WP:	0.000	Y_WP:	0.500	X:	-1.073	Y:	0.113	Z:	1.374	yaw:	9.461	yaw rate:	-24.589	Roll:	-30.000	Pitch:	4.326	Yaw:	8.496	Thrust:	0.000
Time:	3.730	Roll Set Point:	2.220	Pitch Set Point:	-0.416	Yaw Set Point:	-0.163	X_WP:	0.100	Y_WP:	0.000	Y_WP:	0.500	X:	-1.077	Y:	0.114	Z:	1.375	yaw:	9.327	yaw rate:	-13.388	Roll:	-30.000	Pitch:	7.069	Yaw:	11.317	Thrust:	0.000
Time:	3.741	Roll Set Point:	2.225	Pitch Set Point:	-0.418	Yaw Set Point:	-0.163	X_WP:	0.100	Y_WP:	0.000	Y_WP:	0.500	X:	-1.080	Y:	0.114	Z:	1.376	yaw:	9.327	yaw rate:	0.075	Roll:	-30.000	Pitch:	10.242	Yaw:	14.194	Thrust:	0.000
Time:	3.752	Roll Set Point:	2.228	Pitch Set Point:	-0.421	Yaw Set Point:	-0.165	X_WP:	0.100	Y_WP:	0.000	Y_WP:	0.500	X:	-1.081	Y:	0.114	Z:	1.377	yaw:	9.470	yaw rate:	14.220	Roll:	-30.000	Pitch:	13.825	Yaw:	17.756	Thrust:	0.000
Time:	3.762	Roll Set Point:	2.228	Pitch Set Point:	-0.426	Yaw Set Point:	-0.171	X_WP:	0.100	Y_WP:	0.000	Y_WP:	0.500	X:	-1.082	Y:	0.114	Z:	1.378	yaw:	9.774	yaw rate:	30.478	Roll:	-30.000	Pitch:	18.736	Yaw:	22.261	Thrust:	0.000
Time:	3.773	Roll Set Point:	2.232	Pitch Set Point:	-0.405	Yaw Set Point:	-0.153	X_WP:	0.100	Y_WP:	0.000	Y_WP:	0.500	X:	-1.081	Y:	0.113	Z:	1.379	yaw:	8.758	yaw rate:	-101.648	Roll:	-30.000	Pitch:	-26.684	Yaw:	-11.992	Thrust:	0.000
Time:	3.784	Roll Set Point:	2.239	Pitch Set Point:	-0.370	Yaw Set Point:	-0.124	X_WP:	0.100	Y_WP:	0.000	Y_WP:	0.500	X:	-1.081	Y:	0.113	Z:	1.379	yaw:	7.088	yaw rate:	-166.953	Roll:	-30.000	Pitch:	-30.000	Yaw:	-30.563	Thrust:	0.000
Time:	3.801	Roll Set Point:	2.237	Pitch Set Point:	-0.363	Yaw Set Point:	-0.120	X_WP:	0.100	Y_WP:	0.000	Y_WP:	0.500	X:	-1.080	Y:	0.111	Z:	1.379	yaw:	6.858	yaw rate:	-22.997	Roll:	-30.000	Pitch:	1.276	Yaw:	7.603	Thrust:	0.000
Time:	3.813	Roll Set Point:	2.231	Pitch Set Point:	-0.348	Yaw Set Point:	-0.113	X_WP:	0.100	Y_WP:	0.000	Y_WP:	0.500	X:	-1.075	Y:	0.108	Z:	1.378	yaw:	6.502	yaw rate:	-35.626	Roll:	-30.000	Pitch:	-7.291	Yaw:	2.883	Thrust:	0.000
Time:	3.826	Roll Set Point:	2.223	Pitch Set Point:	-0.354	Yaw Set Point:	-0.123	X_WP:	0.100	Y_WP:	0.000	Y_WP:	0.500	X:	-1.072	Y:	0.106	Z:	1.378	yaw:	7.023	yaw rate:	52.114	Roll:	-27.450	Pitch:	18.262	Yaw:	21.832	Thrust:	0.000
Time:	3.837	Roll Set Point:	2.207	Pitch Set Point:	-0.360	Yaw Set Point:	-0.136	X_WP:	0.100	Y_WP:	0.000	Y_WP:	0.500	X:	-1.066	Y:	0.102	Z:	1.377	yaw:	7.792	yaw rate:	21.240	Roll:	-19.456	Pitch:	23.459	Yaw:	28.804	Thrust:	0.000
Time:	3.848	Roll Set Point:	2.196	Pitch Set Point:	-0.368	Yaw Set Point:	-0.147	X_WP:	0.100	Y_WP:	0.000	Y_WP:	0.500	X:	-1.061	Y:	0.099	Z:	1.376	yaw:	8.444	yaw rate:	65.157	Roll:	-22.712	Pitch:	23.758	Yaw:	28.998	Thrust:	0.000
Time:	3.860	Roll Set Point:	2.186	Pitch Set Point:	-0.366	Yaw Set Point:	-0.150	X_WP:	0.100	Y_WP:	0.000	Y_WP:	0.500	X:	-1.057	Y:	0.097	Z:	1.376	yaw:	8.613	yaw rate:	16.939	Roll:	-24.951	Pitch:	8.670	Yaw:	16.915	Thrust:	0.000
Time:	3.871	Roll Set Point:	2.181	Pitch Set Point:	-0.346	Yaw Set Point:	-0.136	X_WP:	0.100	Y_WP:	0.000	Y_WP:	0.500	X:	-1.052	Y:	0.095	Z:	1.376	yaw:	7.782	yaw rate:	-83.172	Roll:	-30.000	Pitch:	-18.904	Yaw:	-6.860	Thrust:	0.000
Time:	3.882	Roll Set Point:	2.170	Pitch Set Point:	-0.338	Yaw Set Point:	-0.135	X_WP:	0.100	Y_WP:	0.000	Y_WP:	0.500	X:	-1.046	Y:	0.092	Z:	1.375	yaw:	7.755	yaw rate:	-2.649	Roll:	-24.853	Pitch:	0.752	Yaw:	11.239	Thrust:	0.000
Time:	3.893	Roll Set Point:	2.159	Pitch Set Point:	-0.334	Yaw Set Point:	-0.136	X_WP:	0.100	Y_WP:	0.000	Y_WP:	0.500	X:	-1.041	Y:	0.090	Z:	1.375	yaw:	7.815	yaw rate:	6.019	Roll:	-24.799	Pitch:	4.338	Yaw:	13.444	Thrust:	0.000
Time:	3.905	Roll Set Point:	2.148	Pitch Set Point:	-0.330	Yaw Set Point:	-0.139	X_WP:	0.100	Y_WP:	0.000	Y_WP:	0.500	X:	-1.035	Y:	0.087	Z:	1.374	yaw:	7.936	yaw rate:	12.080	Roll:	-24.111	Pitch:	5.816	Yaw:	14.912	Thrust:	0.000
Time:	3.916	Roll Set Point:	2.137	Pitch Set Point:	-0.320	Yaw Set Point:	-0.136	X_WP:	0.100	Y_WP:	0.000	Y_WP:	0.500	X:	-1.029	Y:	0.084	Z:	1.374	yaw:	7.779	yaw rate:	-15.716	Roll:	-24.944	Pitch:	-2.866	Yaw:	8.007	Thrust:	0.000
Time:	3.928	Roll Set Point:	2.123	Pitch Set Point:	-0.327	Yaw Set Point:	-0.148	X_WP:	0.100	Y_WP:	0.000	Y_WP:	0.500	X:	-1.023	Y:	0.081	Z:	1.373	yaw:	8.492	yaw rate:	71.327	Roll:	-19.369	Pitch:	22.086	Yaw:	28.533	Thrust:	0.000
Time:	3.940	Roll Set Point:	2.110	Pitch Set Point:	-0.322	Yaw Set Point:	-0.149	X_WP:	0.100	Y_WP:	0.000	Y_WP:	0.500	X:	-1.017	Y:	0.078	Z:	1.372	yaw:	8.564	yaw rate:	7.193	Roll:	-23.885	Pitch:	4.169	Yaw:	14.714	Thrust:	0.000
Time:	3.952	Roll Set Point:	2.079	Pitch Set Point:	-0.329	Yaw Set Point:	-0.169	X_WP:	0.100	Y_WP:	0.000	Y_WP:	0.500	X:	-1.003	Y:	0.072	Z:	1.370	yaw:	9.710	yaw rate:	114.584	Roll:	-7.913	Pitch:	27.112	Yaw:	39.806	Thrust:	0.000
Time:	3.964	Roll Set Point:	2.048	Pitch Set Point:	-0.322	Yaw Set Point:	-0.177	X_WP:	0.100	Y_WP:	0.000	Y_WP:	0.500	X:	-0.989	Y:	0.065	Z:	1.368	yaw:	10.158	yaw rate:	14.839	Roll:	-8.446	Pitch:	6.860	Yaw:	25.127	Thrust:	0.000
Time:	3.976	Roll Set Point:	2.034	Pitch Set Point:	-0.315	Yaw Set Point:	-0.178	X_WP:	0.100	Y_WP:	0.000	Y_WP:	0.500	X:	-0.981	Y:	0.062	Z:	1.367	yaw:	10.179	yaw rate:	2.137	Roll:	-21.395	Pitch:	1.803	Yaw:	15.858	Thrust:	0.000
Time:	3.986	Roll Set Point:	2.020	Pitch Set Point:	-0.307	Yaw Set Point:	-0.178	X_WP:	0.100	Y_WP:	0.000	Y_WP:	0.500	X:	-0.974	Y:	0.059	Z:	1.366	yaw:	10.210	yaw rate:	3.034	Roll:	-19.075	Pitch:	0.948	Yaw:	16.050	Thrust:	0.000
Time:	4.001	Roll Set Point:	2.004	Pitch Set Point:	-0.307	Yaw Set Point:	-0.185	X_WP:	0.100	Y_WP:	0.000	Y_WP:	0.500	X:	-0.966	Y:	0.056	Z:	1.365	yaw:	10.613	yaw rate:	40.339	Roll:	-19.200	Pitch:	11.160	Yaw:	23.528	Thrust:	0.000
Time:	4.014	Roll Set Point:	1.987	Pitch Set Point:	-0.312	Yaw Set Point:	-0.197	X_WP:	0.100	Y_WP:	0.000	Y_WP:	0.500	X:	-0.959	Y:	0.052	Z:	1.364	yaw:	11.314	yaw rate:	70.099	Roll:	-19.457	Pitch:	17.904	Yaw:	31.190	Thrust:	0.000
Time:	4.027	Roll Set Point:	1.970	Pitch Set Point:	-0.318	Yaw Set Point:	-0.211	X_WP:	0.100	Y_WP:	0.000	Y_WP:	0.500	X:	-0.952	Y:	0.049	Z:	1.363	yaw:	12.077	yaw rate:	76.345	Roll:	-14.362	Pitch:	21.085	Yaw:	34.664	Thrust:	0.000
Time:	4.039	Roll Set Point:	1.953	Pitch Set Point:	-0.320	Yaw Set Point:	-0.220	X_WP:	0.100	Y_WP:	0.000	Y_WP:	0.500	X:	-0.944	Y:	0.046	Z:	1.362	yaw:	12.621	yaw rate:	54.383	Roll:	-18.233	Pitch:	15.259	Yaw:	29.838	Thrust:	0.000
Time:	4.050	Roll Set Point:	1.937	Pitch Set Point:	-0.318	Yaw Set Point:	-0.226	X_WP:	0.100	Y_WP:	0.000	Y_WP:	0.500	X:	-0.937	Y:	0.043	Z:	1.362	yaw:	12.963	yaw rate:	34.193	Roll:	-17.742	Pitch:	10.617	Yaw:	27.052	Thrust:	0.000
Time:	4.062	Roll Set Point:	1.891	Pitch Set Point:	-0.310	Yaw Set Point:	-0.240	X_WP:	0.100	Y_WP:	0.000	Y_WP:	0.500	X:	-0.914	Y:	0.035	Z:	1.359	yaw:	13.734	yaw rate:	34.648	Roll:	6.028	Pitch:	8.047	Yaw:	37.125	Thrust:	0.000
Time:	4.073	Roll Set Point:	1.876	Pitch Set Point:	-0.304	Yaw Set Point:	-0.242	X_WP:	0.100	Y_WP:	0.000	Y_WP:	0.500	X:	-0.907	Y:	0.032	Z:	1.358	yaw:	13.848	yaw rate:	11.376	Roll:	-17.288	Pitch:	4.375	Yaw:	23.216	Thrust:	0.000
Time:	4.084	Roll Set Point:	1.861	Pitch Set Point:	-0.298	Yaw Set Point:	-0.243	X_WP:	0.100	Y_WP:	0.000	Y_WP:	0.500	X:	-0.899	Y:	0.029	Z:	1.357	yaw:	13.903	yaw rate:	5.563	Roll:	-17.327	Pitch:	2.740	Yaw:	21.835	Thrust:	0.000
Time:	4.095	Roll Set Point:	1.845	Pitch Set Point:	-0.296	Yaw Set Point:	-0.248	X_WP:	0.100	Y_WP:	0.000	Y_WP:	0.500	X:	-0.891	Y:	0.027	Z:	1.356	yaw:	14.238	yaw rate:	33.449	Roll:	-14.937	Pitch:	9.898	Yaw:	28.630	Thrust:	0.000
Time:	4.106	Roll Set Point:	1.829	Pitch Set Point:	-0.293	Yaw Set Point:	-0.252	X_WP:	0.100	Y_WP:	0.000	Y_WP:	0.500	X:	-0.883	Y:	0.024	Z:	1.355	yaw:	14.457	yaw rate:	21.924	Roll:	-15.296	Pitch:	6.880	Yaw:	26.493	Thrust:	0.000
Time:	4.117	Roll Set Point:	1.813	Pitch Set Point:	-0.290	Yaw Set Point:	-0.256	X_WP:	0.100	Y_WP:	0.000	Y_WP:	0.500	X:	-0.875	Y:	0.022	Z:	1.354	yaw:	14.671	yaw rate:	21.418	Roll:	-15.019	Pitch:	6.966	Yaw:	26.848	Thrust:	0.000
Time:	4.135	Roll Set Point:	1.796	Pitch Set Point:	-0.289	Yaw Set Point:	-0.263	X_WP:	0.100	Y_WP:	0.000	Y_WP:	0.500	X:	-0.867	Y:	0.019	Z:	1.353	yaw:	15.056	yaw rate:	38.532	Roll:	-17.975	Pitch:	10.470	Yaw:	28.526	Thrust:	0.000
Time:	4.146	Roll Set Point:	1.763	Pitch Set Point:	-0.284	Yaw Set Point:	-0.271	X_WP:	0.100	Y_WP:	0.000	Y_WP:	0.500	X:	-0.851	Y:	0.015	Z:	1.351	yaw:	15.526	yaw rate:	12.078	Roll:	-6.178	Pitch:	7.209	Yaw:	33.080	Thrust:	0.000
Time:	4.159	Roll Set Point:	1.763	Pitch Set Point:	-0.284	Yaw Set Point:	-0.271	X_WP:	0.100	Y_WP:	0.000	Y_WP:	0.500	X:	-0.851	Y:	0.015	Z:	1.351	yaw:	15.526	yaw rate:	12.078	Roll:	-26.863	Pitch:	8.257	Yaw:	22.981	Thrust:	0.000
Time:	4.171	Roll Set Point:	1.732	Pitch Set Point:	-0.276	Yaw Set Point:	-0.275	X_WP:	0.100	Y_WP:	0.000	Y_WP:	0.500	X:	-0.835	Y:	0.011	Z:	1.349	yaw:	15.767	yaw rate:	5.777	Roll:	-5.929	Pitch:	1.831	Yaw:	29.050	Thrust:	0.000
Time:	4.181	Roll Set Point:	1.717	Pitch Set Point:	-0.271	Yaw Set Point:	-0.276	X_WP:	0.100	Y_WP:	0.000	Y_WP:	0.500	X:	-0.827	Y:	0.009	Z:	1.348	yaw:	15.801	yaw rate:	3.359	Roll:	-14.648	Pitch:	2.460	Yaw:	23.950	Thrust:	0.000
Time:	4.194	Roll Set Point:	1.717	Pitch Set Point:	-0.271	Yaw Set Point:	-0.276	X_WP:	0.100	Y_WP:	0.000	Y_WP:	0.500	X:	-0.827	Y:	0.009	Z:	1.348	yaw:	15.801	yaw rate:	3.359	Roll:	-26.254	Pitch:	8.055	Yaw:	23.368	Thrust:	0.000
Time:	4.206	Roll Set Point:	1.666	Pitch Set Point:	-0.270	Yaw Set Point:	-0.294	X_WP:	0.100	Y_WP:	0.000	Y_WP:	0.500	X:	-0.803	Y:	0.004	Z:	1.345	yaw:	16.856	yaw rate:	48.203	Roll:	9.047	Pitch:	14.288	Yaw:	46.823	Thrust:	0.000
Time:	4.216	Roll Set Point:	1.648	Pitch Set Point:	-0.272	Yaw Set Point:	-0.302	X_WP:	0.100	Y_WP:	0.000	Y_WP:	0.500	X:	-0.795	Y:	0.003	Z:	1.344	yaw:	17.306	yaw rate:	45.046	Roll:	-9.836	Pitch:	12.745	Yaw:	36.728	Thrust:	0.000
Time:	4.228	Roll Set Point:	1.631	Pitch Set Point:	-0.272	Yaw Set Point:	-0.309	X_WP:	0.100	Y_WP:	0.000	Y_WP:	0.500	X:	-0.786	Y:	0.001	Z:	1.344	yaw:	17.714	yaw rate:	40.799	Roll:	-10.922	Pitch:	11.333	Yaw:	34.795	Thrust:	0.000
Time:	4.239	Roll Set Point:	1.613	Pitch Set Point:	-0.271	Yaw Set Point:	-0.314	X_WP:	0.100	Y_WP:	0.000	Y_WP:	0.500	X:	-0.778	Y:	0.000	Z:	1.343	yaw:	18.006	yaw rate:	29.233	Roll:	-10.539	Pitch:	8.927	Yaw:	33.183	Thrust:	0.000
Time:	4.250	Roll Set Point:	1.595	Pitch Set Point:	-0.270	Yaw Set Point:	-0.318	X_WP:	0.100	Y_WP:	0.000	Y_WP:	0.500	X:	-0.769	Y:	-0.001	Z:	1.342	yaw:	18.231	yaw rate:	22.504	Roll:	-10.688	Pitch:	7.286	Yaw:	32.105	Thrust:	0.000
Time:	4.263	Roll Set Point:	1.577	Pitch Set Point:	-0.268	Yaw Set Point:	-0.323	X_WP:	0.100	Y_WP:	0.000	Y_WP:	0.500	X:	-0.761	Y:	-0.002	Z:	1.341	yaw:	18.512	yaw rate:	28.040	Roll:	-11.282	Pitch:	8.494	Yaw:	33.106	Thrust:	0.000
Time:	4.274	Roll Set Point:	1.560	Pitch Set Point:	-0.265	Yaw Set Point:	-0.325	X_WP:	0.100	Y_WP:	0.000	Y_WP:	0.500	X:	-0.752	Y:	-0.004	Z:	1.340	yaw:	18.634	yaw rate:	12.222	Roll:	-10.770	Pitch:	5.139	Yaw:	29.948	Thrust:	0.000
Time:	4.285	Roll Set Point:	1.543	Pitch Set Point:	-0.262	Yaw Set Point:	-0.327	X_WP:	0.100	Y_WP:	0.000	Y_WP:	0.500	X:	-0.743	Y:	-0.005	Z:	1.339	yaw:	18.739	yaw rate:	10.484	Roll:	-11.055	Pitch:	4.528	Yaw:	29.755	Thrust:	0.000
Time:	4.296	Roll Set Point:	1.525	Pitch Set Point:	-0.260	Yaw Set Point:	-0.331	X_WP:	0.100	Y_WP:	0.000	Y_WP:	0.500	X:	-0.734	Y:	-0.006	Z:	1.338	yaw:	18.956	yaw rate:	21.751	Roll:	-9.273	Pitch:	6.973	Yaw:	32.558	Thrust:	0.000
Time:	4.307	Roll Set Point:	1.506	Pitch Set Point:	-0.260	Yaw Set Point:	-0.337	X_WP:	0.100	Y_WP:	0.000	Y_WP:	0.500	X:	-0.725	Y:	-0.006	Z:	1.337	yaw:	19.307	yaw rate:	35.023	Roll:	-7.990	Pitch:	9.647	Yaw:	36.373	Thrust:	0.000
Time:	4.318	Roll Set Point:	1.465	Pitch Set Point:	-0.269	Yaw Set Point:	-0.360	X_WP:	0.100	Y_WP:	0.000	Y_WP:	0.500	X:	-0.707	Y:	-0.008	Z:	1.336	yaw:	20.637	yaw rate:	133.045	Roll:	12.407	Pitch:	24.599	Yaw:	62.465	Thrust:	0.000
Time:	4.335	Roll Set Point:	1.447	Pitch Set Point:	-0.267	Yaw Set Point:	-0.364	X_WP:	0.100	Y_WP:	0.000	Y_WP:	0.500	X:	-0.698	Y:	-0.009	Z:	1.335	yaw:	20.849	yaw rate:	21.242	Roll:	-11.352	Pitch:	7.379	Yaw:	34.079	Thrust:	0.000
Time:	4.348	Roll Set Point:	1.411	Pitch Set Point:	-0.259	Yaw Set Point:	-0.365	X_WP:	0.100	Y_WP:	0.000	Y_WP:	0.500	X:	-0.680	Y:	-0.010	Z:	1.334	yaw:	20.911	yaw rate:	6.241	Roll:	-3.311	Pitch:	0.565	Yaw:	31.744	Thrust:	0.000
Time:	4.361	Roll Set Point:	1.394	Pitch Set Point:	-0.257	Yaw Set Point:	-0.367	X_WP:	0.100	Y_WP:	0.000	Y_WP:	0.500	X:	-0.671	Y:	-0.010	Z:	1.334	yaw:	21.037	yaw rate:	12.568	Roll:	-7.766	Pitch:	5.399	Yaw:	33.252	Thrust:	0.000
Time:	4.373	Roll Set Point:	1.375	Pitch Set Point:	-0.256	Yaw Set Point:	-0.372	X_WP:	0.100	Y_WP:	0.000	Y_WP:	0.500	X:	-0.662	Y:	-0.011	Z:	1.334	yaw:	21.293	yaw rate:	25.594	Roll:	-9.486	Pitch:	7.632	Yaw:	36.330	Thrust:	0.000
Time:	4.385	Roll Set Point:	1.358	Pitch Set Point:	-0.251	Yaw Set Point:	-0.372	X_WP:	0.100	Y_WP:	0.000	Y_WP:	0.500	X:	-0.653	Y:	-0.011	Z:	1.333	yaw:	21.287	yaw rate:	-0.593	Roll:	-9.440	Pitch:	2.364	Yaw:	30.731	Thrust:	0.000
Time:	4.397	Roll Set Point:	1.323	Pitch Set Point:	-0.250	Yaw Set Point:	-0.382	X_WP:	0.100	Y_WP:	0.000	Y_WP:	0.500	X:	-0.635	Y:	-0.012	Z:	1.333	yaw:	21.871	yaw rate:	25.714	Roll:	5.740	Pitch:	8.015	Yaw:	44.447	Thrust:	0.000
Time:	4.408	Roll Set Point:	1.305	Pitch Set Point:	-0.250	Yaw Set Point:	-0.388	X_WP:	0.100	Y_WP:	0.000	Y_WP:	0.500	X:	-0.627	Y:	-0.013	Z:	1.332	yaw:	22.215	yaw rate:	34.325	Roll:	-4.972	Pitch:	8.780	Yaw:	40.268	Thrust:	0.000
Time:	4.418	Roll Set Point:	1.287	Pitch Set Point:	-0.250	Yaw Set Point:	-0.392	X_WP:	0.100	Y_WP:	0.000	Y_WP:	0.500	X:	-0.619	Y:	-0.013	Z:	1.332	yaw:	22.477	yaw rate:	26.220	Roll:	-6.177	Pitch:	7.487	Yaw:	38.952	Thrust:	0.000
Time:	4.430	Roll Set Point:	1.271	Pitch Set Point:	-0.248	Yaw Set Point:	-0.396	X_WP:	0.100	Y_WP:	0.000	Y_WP:	0.500	X:	-0.610	Y:	-0.013	Z:	1.332	yaw:	22.686	yaw rate:	20.892	Roll:	-6.426	Pitch:	6.420	Yaw:	37.568	Thrust:	0.000
Time:	4.441	Roll Set Point:	1.254	Pitch Set Point:	-0.246	Yaw Set Point:	-0.398	X_WP:	0.100	Y_WP:	0.000	Y_WP:	0.500	X:	-0.602	Y:	-0.014	Z:	1.331	yaw:	22.817	yaw rate:	13.128	Roll:	-6.702	Pitch:	4.588	Yaw:	36.078	Thrust:	0.000
Time:	4.451	Roll Set Point:	1.222	Pitch Set Point:	-0.241	Yaw Set Point:	-0.402	X_WP:	0.100	Y_WP:	0.000	Y_WP:	0.500	X:	-0.585	Y:	-0.014	Z:	1.330	yaw:	23.056	yaw rate:	23.880	Roll:	6.641	Pitch:	0.860	Yaw:	39.394	Thrust:	0.000
Time:	4.468	Roll Set Point:	1.206	Pitch Set Point:	-0.239	Yaw Set Point:	-0.405	X_WP:	0.100	Y_WP:	0.000	Y_WP:	0.500	X:	-0.577	Y:	-0.015	Z:	1.330	yaw:	23.226	yaw rate:	17.045	Roll:	-10.031	Pitch:	6.293	Yaw:	36.750	Thrust:	0.000
Time:	4.479	Roll Set Point:	1.190	Pitch Set Point:	-0.237	Yaw Set Point:	-0.407	X_WP:	0.100	Y_WP:	0.000	Y_WP:	0.500	X:	-0.569	Y:	-0.015	Z:	1.330	yaw:	23.319	yaw rate:	9.216	Roll:	-8.331	Pitch:	4.499	Yaw:	35.827	Thrust:	0.000
Time:	4.492	Roll Set Point:	1.175	Pitch Set Point:	-0.234	Yaw Set Point:	-0.408	X_WP:	0.100	Y_WP:	0.000	Y_WP:	0.500	X:	-0.562	Y:	-0.015	Z:	1.329	yaw:	23.390	yaw rate:	7.101	Roll:	-7.782	Pitch:	4.212	Yaw:	35.387	Thrust:	0.000
Time:	4.504	Roll Set Point:	1.160	Pitch Set Point:	-0.232	Yaw Set Point:	-0.410	X_WP:	0.100	Y_WP:	0.000	Y_WP:	0.500	X:	-0.554	Y:	-0.015	Z:	1.329	yaw:	23.516	yaw rate:	12.641	Roll:	-7.862	Pitch:	5.287	Yaw:	36.787	Thrust:	0.000
Time:	4.515	Roll Set Point:	1.130	Pitch Set Point:	-0.228	Yaw Set Point:	-0.415	X_WP:	0.100	Y_WP:	0.000	Y_WP:	0.500	X:	-0.539	Y:	-0.015	Z:	1.329	yaw:	23.752	yaw rate:	9.566	Roll:	3.891	Pitch:	1.846	Yaw:	39.875	Thrust:	0.000
Time:	4.528	Roll Set Point:	1.130	Pitch Set Point:	-0.228	Yaw Set Point:	-0.415	X_WP:	0.100	Y_WP:	0.000	Y_WP:	0.500	X:	-0.539	Y:	-0.015	Z:	1.329	yaw:	23.752	yaw rate:	9.566	Roll:	-17.557	Pitch:	7.473	Yaw:	34.421	Thrust:	0.000
Time:	4.539	Roll Set Point:	1.101	Pitch Set Point:	-0.226	Yaw Set Point:	-0.422	X_WP:	0.100	Y_WP:	0.000	Y_WP:	0.500	X:	-0.525	Y:	-0.015	Z:	1.328	yaw:	24.169	yaw rate:	16.552	Roll:	2.921	Pitch:	5.169	Yaw:	44.367	Thrust:	0.000
Time:	4.550	Roll Set Point:	1.087	Pitch Set Point:	-0.225	Yaw Set Point:	-0.425	X_WP:	0.100	Y_WP:	0.000	Y_WP:	0.500	X:	-0.518	Y:	-0.016	Z:	1.328	yaw:	24.372	yaw rate:	20.362	Roll:	-6.085	Pitch:	5.875	Yaw:	40.045	Thrust:	0.000
Time:	4.562	Roll Set Point:	1.074	Pitch Set Point:	-0.223	Yaw Set Point:	-0.427	X_WP:	0.100	Y_WP:	0.000	Y_WP:	0.500	X:	-0.511	Y:	-0.016	Z:	1.328	yaw:	24.439	yaw rate:	6.703	Roll:	-6.853	Pitch:	3.951	Yaw:	36.797	Thrust:	0.000
Time:	4.573	Roll Set Point:	1.060	Pitch Set Point:	-0.220	Yaw Set Point:	-0.428	X_WP:	0.100	Y_WP:	0.000	Y_WP:	0.500	X:	-0.504	Y:	-0.016	Z:	1.328	yaw:	24.500	yaw rate:	6.065	Roll:	-6.654	Pitch:	3.637	Yaw:	36.751	Thrust:	0.000
Time:	4.583	Roll Set Point:	1.047	Pitch Set Point:	-0.218	Yaw Set Point:	-0.429	X_WP:	0.100	Y_WP:	0.000	Y_WP:	0.500	X:	-0.497	Y:	-0.016	Z:	1.328	yaw:	24.586	yaw rate:	8.602	Roll:	-6.558	Pitch:	4.078	Yaw:	37.520	Thrust:	0.000
Time:	4.596	Roll Set Point:	1.022	Pitch Set Point:	-0.213	Yaw Set Point:	-0.429	X_WP:	0.100	Y_WP:	0.000	Y_WP:	0.500	X:	-0.484	Y:	-0.016	Z:	1.328	yaw:	24.604	yaw rate:	1.842	Roll:	0.578	Pitch:	-0.257	Yaw:	35.998	Thrust:	0.000
Time:	4.607	Roll Set Point:	1.010	Pitch Set Point:	-0.211	Yaw Set Point:	-0.430	X_WP:	0.100	Y_WP:	0.000	Y_WP:	0.500	X:	-0.478	Y:	-0.016	Z:	1.329	yaw:	24.629	yaw rate:	2.406	Roll:	-6.807	Pitch:	3.401	Yaw:	36.062	Thrust:	0.000
Time:	4.618	Roll Set Point:	0.998	Pitch Set Point:	-0.209	Yaw Set Point:	-0.430	X_WP:	0.100	Y_WP:	0.000	Y_WP:	0.500	X:	-0.472	Y:	-0.016	Z:	1.329	yaw:	24.650	yaw rate:	2.129	Roll:	-6.771	Pitch:	3.417	Yaw:	36.000	Thrust:	0.000
Time:	4.629	Roll Set Point:	0.987	Pitch Set Point:	-0.206	Yaw Set Point:	-0.430	X_WP:	0.100	Y_WP:	0.000	Y_WP:	0.500	X:	-0.466	Y:	-0.016	Z:	1.329	yaw:	24.611	yaw rate:	-3.897	Roll:	-7.206	Pitch:	2.899	Yaw:	34.637	Thrust:	0.000
Time:	4.641	Roll Set Point:	0.972	Pitch Set Point:	-0.211	Yaw Set Point:	-0.444	X_WP:	0.100	Y_WP:	0.000	Y_WP:	0.500	X:	-0.460	Y:	-0.015	Z:	1.330	yaw:	25.453	yaw rate:	84.229	Roll:	-2.441	Pitch:	14.661	Yaw:	55.814	Thrust:	0.000
Time:	4.652	Roll Set Point:	0.961	Pitch Set Point:	-0.210	Yaw Set Point:	-0.445	X_WP:	0.100	Y_WP:	0.000	Y_WP:	0.500	X:	-0.454	Y:	-0.015	Z:	1.330	yaw:	25.496	yaw rate:	4.329	Roll:	-7.084	Pitch:	4.175	Yaw:	37.730	Thrust:	0.000
Time:	4.667	Roll Set Point:	0.950	Pitch Set Point:	-0.208	Yaw Set Point:	-0.445	X_WP:	0.100	Y_WP:	0.000	Y_WP:	0.500	X:	-0.449	Y:	-0.015	Z:	1.331	yaw:	25.496	yaw rate:	-0.061	Roll:	-8.312	Pitch:	4.295	Yaw:	37.048	Thrust:	0.000
Time:	4.678	Roll Set Point:	0.940	Pitch Set Point:	-0.207	Yaw Set Point:	-0.446	X_WP:	0.100	Y_WP:	0.000	Y_WP:	0.500	X:	-0.443	Y:	-0.014	Z:	1.331	yaw:	25.533	yaw rate:	3.719	Roll:	-8.369	Pitch:	4.694	Yaw:	37.663	Thrust:	0.000
Time:	4.688	Roll Set Point:	0.919	Pitch Set Point:	-0.203	Yaw Set Point:	-0.446	X_WP:	0.100	Y_WP:	0.000	Y_WP:	0.500	X:	-0.433	Y:	-0.014	Z:	1.332	yaw:	25.539	yaw rate:	0.643	Roll:	2.232	Pitch:	0.038	Yaw:	36.831	Thrust:	0.000
Time:	4.702	Roll Set Point:	0.909	Pitch Set Point:	-0.202	Yaw Set Point:	-0.446	X_WP:	0.100	Y_WP:	0.000	Y_WP:	0.500	X:	-0.427	Y:	-0.014	Z:	1.333	yaw:	25.559	yaw rate:	1.918	Roll:	-7.815	Pitch:	4.310	Yaw:	37.451	Thrust:	0.000
Time:	4.714	Roll Set Point:	0.890	Pitch Set Point:	-0.197	Yaw Set Point:	-0.443	X_WP:	0.100	Y_WP:	0.000	Y_WP:	0.500	X:	-0.417	Y:	-0.013	Z:	1.333	yaw:	25.386	yaw rate:	-9.739	Roll:	-2.653	Pitch:	-0.759	Yaw:	32.902	Thrust:	0.000
Time:	4.726	Roll Set Point:	0.881	Pitch Set Point:	-0.197	Yaw Set Point:	-0.445	X_WP:	0.100	Y_WP:	0.000	Y_WP:	0.500	X:	-0.413	Y:	-0.013	Z:	1.334	yaw:	25.511	yaw rate:	12.455	Roll:	-6.953	Pitch:	5.478	Yaw:	39.571	Thrust:	0.000
Time:	4.737	Roll Set Point:	0.874	Pitch Set Point:	-0.190	Yaw Set Point:	-0.433	X_WP:	0.100	Y_WP:	0.000	Y_WP:	0.500	X:	-0.408	Y:	-0.012	Z:	1.334	yaw:	24.803	yaw rate:	-70.771	Roll:	-11.220	Pitch:	-5.861	Yaw:	18.090	Thrust:	0.000
Time:	4.748	Roll Set Point:	0.866	Pitch Set Point:	-0.188	Yaw Set Point:	-0.432	X_WP:	0.100	Y_WP:	0.000	Y_WP:	0.500	X:	-0.403	Y:	-0.012	Z:	1.334	yaw:	24.770	yaw rate:	-3.340	Roll:	-7.613	Pitch:	3.090	Yaw:	34.936	Thrust:	0.000
Time:	4.763	Roll Set Point:	0.856	Pitch Set Point:	-0.188	Yaw Set Point:	-0.436	X_WP:	0.100	Y_WP:	0.000	Y_WP:	0.500	X:	-0.399	Y:	-0.012	Z:	1.334	yaw:	25.008	yaw rate:	23.817	Roll:	-6.718	Pitch:	6.296	Yaw:	40.655	Thrust:	0.000
Time:	4.774	Roll Set Point:	0.847	Pitch Set Point:	-0.186	Yaw Set Point:	-0.436	X_WP:	0.100	Y_WP:	0.000	Y_WP:	0.500	X:	-0.394	Y:	-0.012	Z:	1.334	yaw:	24.995	yaw rate:	-1.267	Roll:	-8.417	Pitch:	3.602	Yaw:	35.765	Thrust:	0.000
Time:	4.786	Roll Set Point:	0.838	Pitch Set Point:	-0.185	Yaw Set Point:	-0.437	X_WP:	0.100	Y_WP:	0.000	Y_WP:	0.500	X:	-0.390	Y:	-0.012	Z:	1.334	yaw:	25.063	yaw rate:	6.756	Roll:	-6.672	Pitch:	3.946	Yaw:	37.681	Thrust:	0.000
Time:	4.797	Roll Set Point:	0.830	Pitch Set Point:	-0.183	Yaw Set Point:	-0.437	X_WP:	0.100	Y_WP:	0.000	Y_WP:	0.500	X:	-0.385	Y:	-0.012	Z:	1.334	yaw:	25.023	yaw rate:	-3.949	Roll:	-7.493	Pitch:	2.957	Yaw:	35.114	Thrust:	0.000
Time:	4.807	Roll Set Point:	0.811	Pitch Set Point:	-0.183	Yaw Set Point:	-0.446	X_WP:	0.100	Y_WP:	0.000	Y_WP:	0.500	X:	-0.376	Y:	-0.012	Z:	1.334	yaw:	25.560	yaw rate:	53.703	Roll:	3.105	Pitch:	6.736	Yaw:	50.096	Thrust:	0.000
Time:	4.818	Roll Set Point:	0.805	Pitch Set Point:	-0.176	Yaw Set Point:	-0.434	X_WP:	0.100	Y_WP:	0.000	Y_WP:	0.500	X:	-0.372	Y:	-0.012	Z:	1.334	yaw:	24.888	yaw rate:	-67.269	Roll:	-10.552	Pitch:	-4.703	Yaw:	18.929	Thrust:	0.000
Time:	4.829	Roll Set Point:	0.798	Pitch Set Point:	-0.174	Yaw Set Point:	-0.432	X_WP:	0.100	Y_WP:	0.000	Y_WP:	0.500	X:	-0.368	Y:	-0.012	Z:	1.334	yaw:	24.764	yaw rate:	-12.326	Roll:	-7.603	Pitch:	1.932	Yaw:	32.957	Thrust:	0.000
Time:	4.840	Roll Set Point:	0.789	Pitch Set Point:	-0.173	Yaw Set Point:	-0.434	X_WP:	0.100	Y_WP:	0.000	Y_WP:	0.500	X:	-0.364	Y:	-0.012	Z:	1.335	yaw:	24.854	yaw rate:	8.909	Roll:	-6.407	Pitch:	4.051	Yaw:	37.920	Thrust:	0.000
Time:	4.851	Roll Set Point:	0.779	Pitch Set Point:	-0.176	Yaw Set Point:	-0.445	X_WP:	0.100	Y_WP:	0.000	Y_WP:	0.500	X:	-0.360	Y:	-0.012	Z:	1.335	yaw:	25.510	yaw rate:	65.664	Roll:	-4.059	Pitch:	10.608	Yaw:	52.265	Thrust:	0.000
Time:	4.868	Roll Set Point:	0.774	Pitch Set Point:	-0.169	Yaw Set Point:	-0.433	X_WP:	0.100	Y_WP:	0.000	Y_WP:	0.500	X:	-0.356	Y:	-0.012	Z:	1.335	yaw:	24.816	yaw rate:	-69.422	Roll:	-10.981	Pitch:	-1.620	Yaw:	25.332	Thrust:	0.000
Time:	4.880	Roll Set Point:	0.759	Pitch Set Point:	-0.165	Yaw Set Point:	-0.431	X_WP:	0.100	Y_WP:	0.000	Y_WP:	0.500	X:	-0.347	Y:	-0.012	Z:	1.336	yaw:	24.701	yaw rate:	-9.302	Roll:	-4.090	Pitch:	0.039	Yaw:	33.226	Thrust:	0.000
Time:	4.893	Roll Set Point:	0.752	Pitch Set Point:	-0.162	Yaw Set Point:	-0.429	X_WP:	0.100	Y_WP:	0.000	Y_WP:	0.500	X:	-0.343	Y:	-0.012	Z:	1.336	yaw:	24.573	yaw rate:	-12.883	Roll:	-7.765	Pitch:	2.199	Yaw:	33.030	Thrust:	0.000
Time:	4.905	Roll Set Point:	0.743	Pitch Set Point:	-0.163	Yaw Set Point:	-0.438	X_WP:	0.100	Y_WP:	0.000	Y_WP:	0.500	X:	-0.340	Y:	-0.012	Z:	1.336	yaw:	25.099	yaw rate:	52.615	Roll:	-5.120	Pitch:	8.170	Yaw:	48.125	Thrust:	0.000
Time:	4.915	Roll Set Point:	0.736	Pitch Set Point:	-0.161	Yaw Set Point:	-0.437	X_WP:	0.100	Y_WP:	0.000	Y_WP:	0.500	X:	-0.336	Y:	-0.012	Z:	1.337	yaw:	25.026	yaw rate:	-7.230	Roll:	-6.600	Pitch:	1.910	Yaw:	34.058	Thrust:	0.000
Time:	4.926	Roll Set Point:	0.726	Pitch Set Point:	-0.164	Yaw Set Point:	-0.449	X_WP:	0.100	Y_WP:	0.000	Y_WP:	0.500	X:	-0.332	Y:	-0.012	Z:	1.337	yaw:	25.736	yaw rate:	70.947	Roll:	-3.035	Pitch:	10.339	Yaw:	53.867	Thrust:	0.000
Time:	4.940	Roll Set Point:	0.705	Pitch Set Point:	-0.156	Yaw Set Point:	-0.444	X_WP:	0.100	Y_WP:	0.000	Y_WP:	0.500	X:	-0.320	Y:	-0.013	Z:	1.337	yaw:	25.428	yaw rate:	28.331	Roll:	0.193	Pitch:	-3.750	Yaw:	31.180	Thrust:	0.000
Time:	4.951	Roll Set Point:	0.696	Pitch Set Point:	-0.158	Yaw Set Point:	-0.454	X_WP:	0.100	Y_WP:	0.000	Y_WP:	0.500	X:	-0.316	Y:	-0.013	Z:	1.337	yaw:	26.006	yaw rate:	57.786	Roll:	-4.343	Pitch:	8.332	Yaw:	50.552	Thrust:	0.000
Time:	4.962	Roll Set Point:	0.691	Pitch Set Point:	-0.152	Yaw Set Point:	-0.443	X_WP:	0.100	Y_WP:	0.000	Y_WP:	0.500	X:	-0.312	Y:	-0.013	Z:	1.337	yaw:	25.361	yaw rate:	-64.492	Roll:	-9.158	Pitch:	-4.464	Yaw:	21.239	Thrust:	0.000
Time:	4.973	Roll Set Point:	0.684	Pitch Set Point:	-0.150	Yaw Set Point:	-0.443	X_WP:	0.100	Y_WP:	0.000	Y_WP:	0.500	X:	-0.309	Y:	-0.013	Z:	1.338	yaw:	25.383	yaw rate:	2.195	Roll:	-6.363	Pitch:	2.635	Yaw:	37.066	Thrust:	0.000
Time:	4.984	Roll Set Point:	0.678	Pitch Set Point:	-0.148	Yaw Set Point:	-0.442	X_WP:	0.100	Y_WP:	0.000	Y_WP:	0.500	X:	-0.305	Y:	-0.014	Z:	1.338	yaw:	25.345	yaw rate:	-3.884	Roll:	-6.806	Pitch:	2.083	Yaw:	35.480	Thrust:	0.000
Time:	4.995	Roll Set Point:	0.668	Pitch Set Point:	-0.150	Yaw Set Point:	-0.454	X_WP:	0.100	Y_WP:	0.000	Y_WP:	0.500	X:	-0.302	Y:	-0.014	Z:	1.338	yaw:	26.039	yaw rate:	69.448	Roll:	-2.531	Pitch:	8.955	Yaw:	54.569	Thrust:	0.000
Time:	5.006	Roll Set Point:	0.660	Pitch Set Point:	-0.153	Yaw Set Point:	-0.469	X_WP:	0.100	Y_WP:	0.000	Y_WP:	0.500	X:	-0.298	Y:	-0.014	Z:	1.338	yaw:	26.855	yaw rate:	81.630	Roll:	-2.596	Pitch:	10.653	Yaw:	57.973	Thrust:	0.000
Time:	5.017	Roll Set Point:	0.655	Pitch Set Point:	-0.146	Yaw Set Point:	-0.457	X_WP:	0.100	Y_WP:	0.000	Y_WP:	0.500	X:	-0.295	Y:	-0.015	Z:	1.338	yaw:	26.159	yaw rate:	-69.621	Roll:	-9.215	Pitch:	-4.951	Yaw:	21.153	Thrust:	0.000
Time:	5.028	Roll Set Point:	0.655	Pitch Set Point:	-0.146	Yaw Set Point:	-0.457	X_WP:	0.100	Y_WP:	0.000	Y_WP:	0.500	X:	-0.295	Y:	-0.015	Z:	1.338	yaw:	26.159	yaw rate:	-69.621	Roll:	-10.894	Pitch:	5.114	Yaw:	37.680	Thrust:	0.000
Time:	5.040	Roll Set Point:	0.642	Pitch Set Point:	-0.143	Yaw Set Point:	-0.460	X_WP:	0.100	Y_WP:	0.000	Y_WP:	0.500	X:	-0.288	Y:	-0.015	Z:	1.338	yaw:	26.338	yaw rate:	17.018	Roll:	-1.173	Pitch:	1.040	Yaw:	41.964	Thrust:	0.000
Time:	5.052	Roll Set Point:	0.636	Pitch Set Point:	-0.139	Yaw Set Point:	-0.456	X_WP:	0.100	Y_WP:	0.000	Y_WP:	0.500	X:	-0.284	Y:	-0.016	Z:	1.337	yaw:	26.139	yaw rate:	-19.907	Roll:	-7.073	Pitch:	0.373	Yaw:	33.376	Thrust:	0.000
Time:	5.072	Roll Set Point:	0.620	Pitch Set Point:	-0.140	Yaw Set Point:	-0.473	X_WP:	0.100	Y_WP:	0.000	Y_WP:	0.500	X:	-0.277	Y:	-0.017	Z:	1.337	yaw:	27.117	yaw rate:	97.739	Roll:	0.904	Pitch:	7.172	Yaw:	53.506	Thrust:	0.000
Time:	5.085	Roll Set Point:	0.607	Pitch Set Point:	-0.137	Yaw Set Point:	-0.479	X_WP:	0.100	Y_WP:	0.000	Y_WP:	0.500	X:	-0.270	Y:	-0.018	Z:	1.336	yaw:	27.441	yaw rate:	19.832	Roll:	-4.917	Pitch:	3.117	Yaw:	45.767	Thrust:	0.000
Time:	5.097	Roll Set Point:	0.600	Pitch Set Point:	-0.136	Yaw Set Point:	-0.481	X_WP:	0.100	Y_WP:	0.000	Y_WP:	0.500	X:	-0.267	Y:	-0.018	Z:	1.336	yaw:	27.582	yaw rate:	14.134	Roll:	-5.508	Pitch:	3.414	Yaw:	42.784	Thrust:	0.000
Time:	5.108	Roll Set Point:	0.593	Pitch Set Point:	-0.134	Yaw Set Point:	-0.485	X_WP:	0.100	Y_WP:	0.000	Y_WP:	0.500	X:	-0.263	Y:	-0.019	Z:	1.335	yaw:	27.797	yaw rate:	21.478	Roll:	-5.002	Pitch:	3.804	Yaw:	44.842	Thrust:	0.000
Time:	5.120	Roll Set Point:	0.587	Pitch Set Point:	-0.132	Yaw Set Point:	-0.485	X_WP:	0.100	Y_WP:	0.000	Y_WP:	0.500	X:	-0.260	Y:	-0.019	Z:	1.335	yaw:	27.784	yaw rate:	-1.307	Roll:	-5.791	Pitch:	1.762	Yaw:	39.654	Thrust:	0.000
Time:	5.131	Roll Set Point:	0.581	Pitch Set Point:	-0.131	Yaw Set Point:	-0.487	X_WP:	0.100	Y_WP:	0.000	Y_WP:	0.500	X:	-0.257	Y:	-0.019	Z:	1.334	yaw:	27.930	yaw rate:	14.558	Roll:	-5.065	Pitch:	3.163	Yaw:	43.495	Thrust:	0.000
Time:	5.143	Roll Set Point:	0.574	Pitch Set Point:	-0.129	Yaw Set Point:	-0.490	X_WP:	0.100	Y_WP:	0.000	Y_WP:	0.500	X:	-0.253	Y:	-0.020	Z:	1.334	yaw:	28.088	yaw rate:	15.840	Roll:	-4.878	Pitch:	2.959	Yaw:	44.209	Thrust:	0.000
Time:	5.154	Roll Set Point:	0.567	Pitch Set Point:	-0.128	Yaw Set Point:	-0.495	X_WP:	0.100	Y_WP:	0.000	Y_WP:	0.500	X:	-0.249	Y:	-0.020	Z:	1.333	yaw:	28.370	yaw rate:	28.194	Roll:	-4.030	Pitch:	3.904	Yaw:	47.390	Thrust:	0.000
Time:	5.165	Roll Set Point:	0.560	Pitch Set Point:	-0.127	Yaw Set Point:	-0.498	X_WP:	0.100	Y_WP:	0.000	Y_WP:	0.500	X:	-0.246	Y:	-0.021	Z:	1.332	yaw:	28.561	yaw rate:	19.088	Roll:	-4.208	Pitch:	3.281	Yaw:	45.228	Thrust:	0.000
Time:	5.176	Roll Set Point:	0.553	Pitch Set Point:	-0.125	Yaw Set Point:	-0.502	X_WP:	0.100	Y_WP:	0.000	Y_WP:	0.500	X:	-0.242	Y:	-0.021	Z:	1.332	yaw:	28.755	yaw rate:	19.444	Roll:	-4.558	Pitch:	3.093	Yaw:	45.703	Thrust:	0.000
Time:	5.187	Roll Set Point:	0.540	Pitch Set Point:	-0.123	Yaw Set Point:	-0.515	X_WP:	0.100	Y_WP:	0.000	Y_WP:	0.500	X:	-0.236	Y:	-0.023	Z:	1.331	yaw:	29.500	yaw rate:	74.448	Roll:	1.089	Pitch:	4.198	Yaw:	61.631	Thrust:	0.000
