Time:	2.142	Roll Set Point:	-0.017	Pitch Set Point:	0.032	Yaw Set Point:	-2.937	X_WP:	0.000	Y_WP:	0.000	Y_WP:	0.500	X:	0.163	Y:	0.066	Z:	0.404	yaw:	168.286	yaw rate:	1.990	Roll:	-4.227	Pitch:	-2.836	Yaw:	234.972	Thrust:	5.253
Time:	2.157	Roll Set Point:	-0.017	Pitch Set Point:	0.032	Yaw Set Point:	-2.937	X_WP:	0.000	Y_WP:	0.000	Y_WP:	0.500	X:	0.163	Y:	0.066	Z:	0.404	yaw:	168.276	yaw rate:	-0.968	Roll:	-4.188	Pitch:	-2.850	Yaw:	235.714	Thrust:	5.456
Time:	2.173	Roll Set Point:	-0.017	Pitch Set Point:	0.032	Yaw Set Point:	-2.937	X_WP:	0.000	Y_WP:	0.000	Y_WP:	0.500	X:	0.163	Y:	0.066	Z:	0.404	yaw:	168.265	yaw rate:	-1.180	Roll:	-4.229	Pitch:	-2.931	Yaw:	236.310	Thrust:	5.605
Time:	2.188	Roll Set Point:	-0.017	Pitch Set Point:	0.032	Yaw Set Point:	-2.937	X_WP:	0.000	Y_WP:	0.000	Y_WP:	0.500	X:	0.163	Y:	0.066	Z:	0.404	yaw:	168.278	yaw rate:	1.320	Roll:	-4.286	Pitch:	-2.841	Yaw:	236.741	Thrust:	5.844
Time:	2.204	Roll Set Point:	-0.017	Pitch Set Point:	0.032	Yaw Set Point:	-2.937	X_WP:	0.000	Y_WP:	0.000	Y_WP:	0.500	X:	0.163	Y:	0.066	Z:	0.404	yaw:	168.278	yaw rate:	1.320	Roll:	-4.250	Pitch:	-2.854	Yaw:	236.523	Thrust:	5.971
Time:	2.220	Roll Set Point:	-0.017	Pitch Set Point:	0.032	Yaw Set Point:	-2.937	X_WP:	0.000	Y_WP:	0.000	Y_WP:	0.500	X:	0.163	Y:	0.066	Z:	0.404	yaw:	168.260	yaw rate:	-1.810	Roll:	-4.192	Pitch:	-2.840	Yaw:	236.194	Thrust:	6.101
Time:	2.235	Roll Set Point:	-0.017	Pitch Set Point:	0.032	Yaw Set Point:	-2.937	X_WP:	0.000	Y_WP:	0.000	Y_WP:	0.500	X:	0.163	Y:	0.066	Z:	0.404	yaw:	168.259	yaw rate:	-0.062	Roll:	-4.278	Pitch:	-2.923	Yaw:	236.487	Thrust:	6.346
Time:	2.251	Roll Set Point:	-0.017	Pitch Set Point:	0.032	Yaw Set Point:	-2.937	X_WP:	0.000	Y_WP:	0.000	Y_WP:	0.500	X:	0.163	Y:	0.066	Z:	0.404	yaw:	168.259	yaw rate:	-0.062	Roll:	-4.265	Pitch:	-2.866	Yaw:	236.496	Thrust:	6.507
Time:	2.267	Roll Set Point:	-0.017	Pitch Set Point:	0.032	Yaw Set Point:	-2.937	X_WP:	0.000	Y_WP:	0.000	Y_WP:	0.500	X:	0.163	Y:	0.066	Z:	0.405	yaw:	168.268	yaw rate:	0.866	Roll:	-4.275	Pitch:	-2.768	Yaw:	236.654	Thrust:	6.574
Time:	2.282	Roll Set Point:	-0.017	Pitch Set Point:	0.032	Yaw Set Point:	-2.937	X_WP:	0.000	Y_WP:	0.000	Y_WP:	0.500	X:	0.163	Y:	0.066	Z:	0.405	yaw:	168.268	yaw rate:	0.866	Roll:	-4.277	Pitch:	-2.871	Yaw:	236.509	Thrust:	6.864
Time:	2.298	Roll Set Point:	-0.017	Pitch Set Point:	0.032	Yaw Set Point:	-2.936	X_WP:	0.000	Y_WP:	0.000	Y_WP:	0.500	X:	0.163	Y:	0.066	Z:	0.405	yaw:	168.233	yaw rate:	-3.514	Roll:	-4.220	Pitch:	-3.032	Yaw:	235.875	Thrust:	7.040
Time:	2.313	Roll Set Point:	-0.017	Pitch Set Point:	0.032	Yaw Set Point:	-2.936	X_WP:	0.000	Y_WP:	0.000	Y_WP:	0.500	X:	0.163	Y:	0.066	Z:	0.405	yaw:	168.233	yaw rate:	-3.514	Roll:	-4.287	Pitch:	-2.883	Yaw:	236.457	Thrust:	7.218
Time:	2.329	Roll Set Point:	-0.017	Pitch Set Point:	0.032	Yaw Set Point:	-2.937	X_WP:	0.000	Y_WP:	0.000	Y_WP:	0.500	X:	0.163	Y:	0.066	Z:	0.404	yaw:	168.258	yaw rate:	-1.115	Roll:	-4.333	Pitch:	-2.752	Yaw:	236.919	Thrust:	7.497
Time:	2.345	Roll Set Point:	-0.017	Pitch Set Point:	0.032	Yaw Set Point:	-2.937	X_WP:	0.000	Y_WP:	0.000	Y_WP:	0.500	X:	0.163	Y:	0.066	Z:	0.405	yaw:	168.254	yaw rate:	-0.413	Roll:	-4.298	Pitch:	-2.949	Yaw:	236.420	Thrust:	7.475
Time:	2.360	Roll Set Point:	-0.017	Pitch Set Point:	0.032	Yaw Set Point:	-2.937	X_WP:	0.000	Y_WP:	0.000	Y_WP:	0.500	X:	0.163	Y:	0.066	Z:	0.404	yaw:	168.256	yaw rate:	0.217	Roll:	-4.307	Pitch:	-2.946	Yaw:	236.526	Thrust:	7.915
Time:	2.376	Roll Set Point:	-0.017	Pitch Set Point:	0.032	Yaw Set Point:	-2.937	X_WP:	0.000	Y_WP:	0.000	Y_WP:	0.500	X:	0.163	Y:	0.066	Z:	0.404	yaw:	168.249	yaw rate:	-0.663	Roll:	-4.311	Pitch:	-2.837	Yaw:	236.372	Thrust:	7.844
Time:	2.392	Roll Set Point:	-0.017	Pitch Set Point:	0.032	Yaw Set Point:	-2.937	X_WP:	0.000	Y_WP:	0.000	Y_WP:	0.500	X:	0.163	Y:	0.066	Z:	0.404	yaw:	168.249	yaw rate:	-0.663	Roll:	-4.316	Pitch:	-2.900	Yaw:	236.486	Thrust:	8.124
Time:	2.407	Roll Set Point:	-0.017	Pitch Set Point:	0.032	Yaw Set Point:	-2.937	X_WP:	0.000	Y_WP:	0.000	Y_WP:	0.500	X:	0.163	Y:	0.066	Z:	0.404	yaw:	168.259	yaw rate:	0.966	Roll:	-4.326	Pitch:	-2.870	Yaw:	236.658	Thrust:	8.285
Time:	2.423	Roll Set Point:	-0.017	Pitch Set Point:	0.032	Yaw Set Point:	-2.937	X_WP:	0.000	Y_WP:	0.000	Y_WP:	0.500	X:	0.163	Y:	0.066	Z:	0.405	yaw:	168.275	yaw rate:	0.620	Roll:	-4.373	Pitch:	-2.937	Yaw:	236.789	Thrust:	8.455
Time:	2.439	Roll Set Point:	-0.017	Pitch Set Point:	0.032	Yaw Set Point:	-2.936	X_WP:	0.000	Y_WP:	0.000	Y_WP:	0.500	X:	0.163	Y:	0.066	Z:	0.404	yaw:	168.245	yaw rate:	-2.997	Roll:	-4.264	Pitch:	-2.945	Yaw:	235.975	Thrust:	8.732
Time:	2.454	Roll Set Point:	-0.017	Pitch Set Point:	0.032	Yaw Set Point:	-2.937	X_WP:	0.000	Y_WP:	0.000	Y_WP:	0.500	X:	0.163	Y:	0.066	Z:	0.404	yaw:	168.266	yaw rate:	2.101	Roll:	-4.405	Pitch:	-2.850	Yaw:	236.859	Thrust:	8.806
Time:	2.470	Roll Set Point:	-0.017	Pitch Set Point:	0.032	Yaw Set Point:	-2.937	X_WP:	0.000	Y_WP:	0.000	Y_WP:	0.500	X:	0.163	Y:	0.066	Z:	0.404	yaw:	168.269	yaw rate:	0.272	Roll:	-4.321	Pitch:	-2.927	Yaw:	236.556	Thrust:	9.082
Time:	2.486	Roll Set Point:	-0.017	Pitch Set Point:	0.032	Yaw Set Point:	-2.936	X_WP:	0.000	Y_WP:	0.000	Y_WP:	0.500	X:	0.163	Y:	0.066	Z:	0.405	yaw:	168.229	yaw rate:	-4.013	Roll:	-4.284	Pitch:	-3.009	Yaw:	235.900	Thrust:	9.288
Time:	2.515	Roll Set Point:	-0.017	Pitch Set Point:	0.032	Yaw Set Point:	-2.937	X_WP:	0.000	Y_WP:	0.000	Y_WP:	0.500	X:	0.163	Y:	0.066	Z:	0.404	yaw:	168.269	yaw rate:	4.059	Roll:	-4.513	Pitch:	-2.973	Yaw:	238.197	Thrust:	12.884
Time:	2.531	Roll Set Point:	-0.017	Pitch Set Point:	0.032	Yaw Set Point:	-2.937	X_WP:	0.000	Y_WP:	0.000	Y_WP:	0.500	X:	0.163	Y:	0.066	Z:	0.404	yaw:	168.257	yaw rate:	-1.260	Roll:	-4.345	Pitch:	-2.897	Yaw:	236.282	Thrust:	9.548
Time:	2.546	Roll Set Point:	-0.017	Pitch Set Point:	0.032	Yaw Set Point:	-2.937	X_WP:	0.000	Y_WP:	0.000	Y_WP:	0.500	X:	0.163	Y:	0.066	Z:	0.404	yaw:	168.286	yaw rate:	1.632	Roll:	-4.426	Pitch:	-2.932	Yaw:	237.020	Thrust:	9.836
Time:	2.562	Roll Set Point:	-0.017	Pitch Set Point:	0.032	Yaw Set Point:	-2.937	X_WP:	0.000	Y_WP:	0.000	Y_WP:	0.500	X:	0.163	Y:	0.066	Z:	0.404	yaw:	168.286	yaw rate:	1.632	Roll:	-4.375	Pitch:	-2.937	Yaw:	236.534	Thrust:	9.912
Time:	2.577	Roll Set Point:	-0.017	Pitch Set Point:	0.032	Yaw Set Point:	-2.937	X_WP:	0.000	Y_WP:	0.000	Y_WP:	0.500	X:	0.163	Y:	0.066	Z:	0.404	yaw:	168.276	yaw rate:	3.558	Roll:	-4.354	Pitch:	-2.935	Yaw:	236.285	Thrust:	9.852
Time:	2.594	Roll Set Point:	-0.017	Pitch Set Point:	0.032	Yaw Set Point:	-2.937	X_WP:	0.000	Y_WP:	0.000	Y_WP:	0.500	X:	0.163	Y:	0.066	Z:	0.404	yaw:	168.276	yaw rate:	3.558	Roll:	-4.397	Pitch:	-2.952	Yaw:	236.626	Thrust:	10.610
Time:	2.609	Roll Set Point:	-0.017	Pitch Set Point:	0.032	Yaw Set Point:	-2.937	X_WP:	0.000	Y_WP:	0.000	Y_WP:	0.500	X:	0.163	Y:	0.066	Z:	0.405	yaw:	168.268	yaw rate:	1.964	Roll:	-4.361	Pitch:	-2.932	Yaw:	236.382	Thrust:	10.327
Time:	2.625	Roll Set Point:	-0.017	Pitch Set Point:	0.032	Yaw Set Point:	-2.937	X_WP:	0.000	Y_WP:	0.000	Y_WP:	0.500	X:	0.163	Y:	0.066	Z:	0.404	yaw:	168.273	yaw rate:	0.476	Roll:	-4.402	Pitch:	-2.954	Yaw:	236.592	Thrust:	10.730
Time:	2.641	Roll Set Point:	-0.017	Pitch Set Point:	0.032	Yaw Set Point:	-2.937	X_WP:	0.000	Y_WP:	0.000	Y_WP:	0.500	X:	0.163	Y:	0.066	Z:	0.404	yaw:	168.273	yaw rate:	0.476	Roll:	-4.402	Pitch:	-2.956	Yaw:	236.515	Thrust:	10.807
Time:	2.656	Roll Set Point:	-0.017	Pitch Set Point:	0.032	Yaw Set Point:	-2.937	X_WP:	0.000	Y_WP:	0.000	Y_WP:	0.500	X:	0.163	Y:	0.066	Z:	0.404	yaw:	168.275	yaw rate:	0.267	Roll:	-4.442	Pitch:	-2.972	Yaw:	236.567	Thrust:	10.995
Time:	2.672	Roll Set Point:	-0.017	Pitch Set Point:	0.032	Yaw Set Point:	-2.937	X_WP:	0.000	Y_WP:	0.000	Y_WP:	0.500	X:	0.163	Y:	0.066	Z:	0.404	yaw:	168.284	yaw rate:	0.880	Roll:	-4.418	Pitch:	-2.892	Yaw:	236.676	Thrust:	11.111
Time:	2.687	Roll Set Point:	-0.017	Pitch Set Point:	0.032	Yaw Set Point:	-2.936	X_WP:	0.000	Y_WP:	0.000	Y_WP:	0.500	X:	0.163	Y:	0.066	Z:	0.404	yaw:	168.231	yaw rate:	-4.402	Roll:	-4.284	Pitch:	-3.132	Yaw:	235.567	Thrust:	11.320
Time:	2.703	Roll Set Point:	-0.017	Pitch Set Point:	0.032	Yaw Set Point:	-2.937	X_WP:	0.000	Y_WP:	0.000	Y_WP:	0.500	X:	0.163	Y:	0.066	Z:	0.404	yaw:	168.270	yaw rate:	3.976	Roll:	-4.535	Pitch:	-2.861	Yaw:	237.178	Thrust:	11.570
Time:	2.719	Roll Set Point:	-0.017	Pitch Set Point:	0.032	Yaw Set Point:	-2.936	X_WP:	0.000	Y_WP:	0.000	Y_WP:	0.500	X:	0.163	Y:	0.066	Z:	0.404	yaw:	168.240	yaw rate:	-3.023	Roll:	-4.356	Pitch:	-3.065	Yaw:	235.962	Thrust:	11.793
Time:	2.734	Roll Set Point:	-0.017	Pitch Set Point:	0.032	Yaw Set Point:	-2.937	X_WP:	0.000	Y_WP:	0.000	Y_WP:	0.500	X:	0.163	Y:	0.066	Z:	0.404	yaw:	168.266	yaw rate:	2.625	Roll:	-4.485	Pitch:	-2.872	Yaw:	236.946	Thrust:	11.853
Time:	2.750	Roll Set Point:	-0.017	Pitch Set Point:	0.032	Yaw Set Point:	-2.937	X_WP:	0.000	Y_WP:	0.000	Y_WP:	0.500	X:	0.163	Y:	0.066	Z:	0.404	yaw:	168.282	yaw rate:	1.601	Roll:	-4.492	Pitch:	-2.987	Yaw:	236.800	Thrust:	12.019
Time:	2.766	Roll Set Point:	-0.017	Pitch Set Point:	0.032	Yaw Set Point:	-2.936	X_WP:	0.000	Y_WP:	0.000	Y_WP:	0.500	X:	0.163	Y:	0.066	Z:	0.405	yaw:	168.241	yaw rate:	-4.106	Roll:	-4.366	Pitch:	-3.112	Yaw:	235.784	Thrust:	12.141
Time:	2.781	Roll Set Point:	-0.017	Pitch Set Point:	0.032	Yaw Set Point:	-2.936	X_WP:	0.000	Y_WP:	0.000	Y_WP:	0.500	X:	0.163	Y:	0.066	Z:	0.405	yaw:	168.241	yaw rate:	-4.106	Roll:	-4.452	Pitch:	-2.993	Yaw:	236.472	Thrust:	12.416
Time:	2.797	Roll Set Point:	-0.017	Pitch Set Point:	0.032	Yaw Set Point:	-2.937	X_WP:	0.000	Y_WP:	0.000	Y_WP:	0.500	X:	0.163	Y:	0.066	Z:	0.404	yaw:	168.266	yaw rate:	2.438	Roll:	-4.516	Pitch:	-2.886	Yaw:	236.912	Thrust:	12.620
Time:	2.812	Roll Set Point:	-0.017	Pitch Set Point:	0.032	Yaw Set Point:	-2.937	X_WP:	0.000	Y_WP:	0.000	Y_WP:	0.500	X:	0.163	Y:	0.066	Z:	0.404	yaw:	168.266	yaw rate:	2.438	Roll:	-4.465	Pitch:	-2.998	Yaw:	236.506	Thrust:	12.776
Time:	2.828	Roll Set Point:	-0.017	Pitch Set Point:	0.032	Yaw Set Point:	-2.937	X_WP:	0.000	Y_WP:	0.000	Y_WP:	0.500	X:	0.163	Y:	0.066	Z:	0.404	yaw:	168.272	yaw rate:	0.629	Roll:	-4.462	Pitch:	-3.040	Yaw:	236.625	Thrust:	13.122
Time:	2.844	Roll Set Point:	-0.017	Pitch Set Point:	0.032	Yaw Set Point:	-2.936	X_WP:	0.000	Y_WP:	0.000	Y_WP:	0.500	X:	0.163	Y:	0.066	Z:	0.405	yaw:	168.238	yaw rate:	-3.365	Roll:	-4.437	Pitch:	-3.054	Yaw:	235.904	Thrust:	12.962
Time:	2.859	Roll Set Point:	-0.017	Pitch Set Point:	0.032	Yaw Set Point:	-2.937	X_WP:	0.000	Y_WP:	0.000	Y_WP:	0.500	X:	0.163	Y:	0.066	Z:	0.404	yaw:	168.265	yaw rate:	-1.825	Roll:	-4.507	Pitch:	-2.930	Yaw:	236.943	Thrust:	13.378
Time:	2.875	Roll Set Point:	-0.017	Pitch Set Point:	0.032	Yaw Set Point:	-2.937	X_WP:	0.000	Y_WP:	0.000	Y_WP:	0.500	X:	0.163	Y:	0.066	Z:	0.404	yaw:	168.265	yaw rate:	-1.825	Roll:	-4.488	Pitch:	-3.014	Yaw:	236.508	Thrust:	13.510
Time:	2.891	Roll Set Point:	-0.017	Pitch Set Point:	0.032	Yaw Set Point:	-2.937	X_WP:	0.000	Y_WP:	0.000	Y_WP:	0.500	X:	0.163	Y:	0.066	Z:	0.404	yaw:	168.255	yaw rate:	-1.018	Roll:	-4.455	Pitch:	-3.089	Yaw:	236.320	Thrust:	13.622
Time:	2.906	Roll Set Point:	-0.017	Pitch Set Point:	0.032	Yaw Set Point:	-2.937	X_WP:	0.000	Y_WP:	0.000	Y_WP:	0.500	X:	0.163	Y:	0.066	Z:	0.404	yaw:	168.258	yaw rate:	0.322	Roll:	-4.518	Pitch:	-3.030	Yaw:	236.546	Thrust:	13.873
Time:	2.922	Roll Set Point:	-0.017	Pitch Set Point:	0.032	Yaw Set Point:	-2.937	X_WP:	0.000	Y_WP:	0.000	Y_WP:	0.500	X:	0.163	Y:	0.066	Z:	0.404	yaw:	168.255	yaw rate:	-0.278	Roll:	-4.514	Pitch:	-2.992	Yaw:	236.445	Thrust:	14.068
Time:	2.937	Roll Set Point:	-0.017	Pitch Set Point:	0.032	Yaw Set Point:	-2.937	X_WP:	0.000	Y_WP:	0.000	Y_WP:	0.500	X:	0.163	Y:	0.066	Z:	0.404	yaw:	168.255	yaw rate:	-0.278	Roll:	-4.511	Pitch:	-3.030	Yaw:	236.494	Thrust:	14.228
Time:	2.953	Roll Set Point:	-0.017	Pitch Set Point:	0.032	Yaw Set Point:	-2.937	X_WP:	0.000	Y_WP:	0.000	Y_WP:	0.500	X:	0.163	Y:	0.066	Z:	0.404	yaw:	168.253	yaw rate:	-2.164	Roll:	-4.486	Pitch:	-3.072	Yaw:	236.459	Thrust:	14.307
Time:	2.969	Roll Set Point:	-0.017	Pitch Set Point:	0.032	Yaw Set Point:	-2.937	X_WP:	0.000	Y_WP:	0.000	Y_WP:	0.500	X:	0.163	Y:	0.066	Z:	0.404	yaw:	168.286	yaw rate:	3.207	Roll:	-4.611	Pitch:	-2.944	Yaw:	237.071	Thrust:	14.573
Time:	2.984	Roll Set Point:	-0.017	Pitch Set Point:	0.032	Yaw Set Point:	-2.937	X_WP:	0.000	Y_WP:	0.000	Y_WP:	0.500	X:	0.163	Y:	0.066	Z:	0.404	yaw:	168.267	yaw rate:	-1.888	Roll:	-4.472	Pitch:	-3.070	Yaw:	236.191	Thrust:	14.785
Time:	3.000	Roll Set Point:	-0.017	Pitch Set Point:	0.032	Yaw Set Point:	-2.937	X_WP:	0.000	Y_WP:	0.000	Y_WP:	0.500	X:	0.163	Y:	0.066	Z:	0.404	yaw:	168.276	yaw rate:	0.956	Roll:	-4.564	Pitch:	-3.035	Yaw:	236.681	Thrust:	14.935
Time:	3.016	Roll Set Point:	-0.017	Pitch Set Point:	0.032	Yaw Set Point:	-2.937	X_WP:	0.000	Y_WP:	0.000	Y_WP:	0.500	X:	0.163	Y:	0.066	Z:	0.404	yaw:	168.276	yaw rate:	0.956	Roll:	-4.540	Pitch:	-3.048	Yaw:	236.524	Thrust:	15.124
Time:	3.031	Roll Set Point:	-0.017	Pitch Set Point:	0.032	Yaw Set Point:	-2.937	X_WP:	0.000	Y_WP:	0.000	Y_WP:	0.500	X:	0.163	Y:	0.066	Z:	0.404	yaw:	168.257	yaw rate:	-2.780	Roll:	-4.495	Pitch:	-3.136	Yaw:	236.168	Thrust:	15.344
Time:	3.047	Roll Set Point:	-0.017	Pitch Set Point:	0.032	Yaw Set Point:	-2.937	X_WP:	0.000	Y_WP:	0.000	Y_WP:	0.500	X:	0.163	Y:	0.066	Z:	0.404	yaw:	168.275	yaw rate:	1.823	Roll:	-4.588	Pitch:	-2.943	Yaw:	236.822	Thrust:	15.382
Time:	3.062	Roll Set Point:	-0.017	Pitch Set Point:	0.032	Yaw Set Point:	-2.937	X_WP:	0.000	Y_WP:	0.000	Y_WP:	0.500	X:	0.163	Y:	0.066	Z:	0.404	yaw:	168.254	yaw rate:	-2.128	Roll:	-4.509	Pitch:	-3.146	Yaw:	236.133	Thrust:	15.580
Time:	3.078	Roll Set Point:	-0.017	Pitch Set Point:	0.032	Yaw Set Point:	-2.937	X_WP:	0.000	Y_WP:	0.000	Y_WP:	0.500	X:	0.163	Y:	0.066	Z:	0.405	yaw:	168.267	yaw rate:	1.308	Roll:	-4.608	Pitch:	-3.060	Yaw:	236.727	Thrust:	15.789
Time:	3.094	Roll Set Point:	-0.017	Pitch Set Point:	0.032	Yaw Set Point:	-2.937	X_WP:	0.000	Y_WP:	0.000	Y_WP:	0.500	X:	0.163	Y:	0.066	Z:	0.405	yaw:	168.267	yaw rate:	1.308	Roll:	-4.568	Pitch:	-3.069	Yaw:	236.507	Thrust:	16.000
Time:	3.109	Roll Set Point:	-0.017	Pitch Set Point:	0.032	Yaw Set Point:	-2.936	X_WP:	0.000	Y_WP:	0.000	Y_WP:	0.500	X:	0.163	Y:	0.066	Z:	0.405	yaw:	168.246	yaw rate:	-2.041	Roll:	-4.525	Pitch:	-3.059	Yaw:	236.137	Thrust:	16.162
Time:	3.125	Roll Set Point:	-0.017	Pitch Set Point:	0.032	Yaw Set Point:	-2.937	X_WP:	0.000	Y_WP:	0.000	Y_WP:	0.500	X:	0.163	Y:	0.066	Z:	0.404	yaw:	168.292	yaw rate:	4.543	Roll:	-4.659	Pitch:	-2.984	Yaw:	237.305	Thrust:	16.575
Time:	3.141	Roll Set Point:	-0.017	Pitch Set Point:	0.032	Yaw Set Point:	-2.937	X_WP:	0.000	Y_WP:	0.000	Y_WP:	0.500	X:	0.163	Y:	0.066	Z:	0.404	yaw:	168.292	yaw rate:	4.543	Roll:	-4.585	Pitch:	-3.077	Yaw:	236.542	Thrust:	16.538
Time:	3.156	Roll Set Point:	-0.017	Pitch Set Point:	0.032	Yaw Set Point:	-2.937	X_WP:	0.000	Y_WP:	0.000	Y_WP:	0.500	X:	0.163	Y:	0.066	Z:	0.405	yaw:	168.250	yaw rate:	-4.175	Roll:	-4.514	Pitch:	-3.191	Yaw:	235.780	Thrust:	16.479
Time:	3.172	Roll Set Point:	-0.017	Pitch Set Point:	0.032	Yaw Set Point:	-2.936	X_WP:	0.000	Y_WP:	0.000	Y_WP:	0.500	X:	0.163	Y:	0.066	Z:	0.404	yaw:	168.241	yaw rate:	-1.759	Roll:	-4.599	Pitch:	-3.109	Yaw:	236.332	Thrust:	17.001
Time:	3.187	Roll Set Point:	-0.017	Pitch Set Point:	0.032	Yaw Set Point:	-2.936	X_WP:	0.000	Y_WP:	0.000	Y_WP:	0.500	X:	0.163	Y:	0.066	Z:	0.404	yaw:	168.241	yaw rate:	-1.759	Roll:	-4.601	Pitch:	-3.092	Yaw:	236.472	Thrust:	17.074
Time:	3.203	Roll Set Point:	-0.017	Pitch Set Point:	0.032	Yaw Set Point:	-2.937	X_WP:	0.000	Y_WP:	0.000	Y_WP:	0.500	X:	0.163	Y:	0.066	Z:	0.404	yaw:	168.250	yaw rate:	-3.842	Roll:	-4.585	Pitch:	-3.109	Yaw:	236.624	Thrust:	17.256
Time:	3.219	Roll Set Point:	-0.017	Pitch Set Point:	0.032	Yaw Set Point:	-2.936	X_WP:	0.000	Y_WP:	0.000	Y_WP:	0.500	X:	0.163	Y:	0.066	Z:	0.404	yaw:	168.248	yaw rate:	-0.228	Roll:	-4.619	Pitch:	-3.096	Yaw:	236.443	Thrust:	17.400
Time:	3.234	Roll Set Point:	-0.017	Pitch Set Point:	0.032	Yaw Set Point:	-2.937	X_WP:	0.000	Y_WP:	0.000	Y_WP:	0.500	X:	0.163	Y:	0.066	Z:	0.404	yaw:	168.270	yaw rate:	2.213	Roll:	-4.650	Pitch:	-3.004	Yaw:	236.883	Thrust:	17.674
Time:	3.250	Roll Set Point:	-0.017	Pitch Set Point:	0.032	Yaw Set Point:	-2.937	X_WP:	0.000	Y_WP:	0.000	Y_WP:	0.500	X:	0.163	Y:	0.066	Z:	0.404	yaw:	168.268	yaw rate:	-0.203	Roll:	-4.647	Pitch:	-3.128	Yaw:	236.474	Thrust:	17.712
Time:	3.266	Roll Set Point:	-0.017	Pitch Set Point:	0.032	Yaw Set Point:	-2.937	X_WP:	0.000	Y_WP:	0.000	Y_WP:	0.500	X:	0.163	Y:	0.066	Z:	0.404	yaw:	168.270	yaw rate:	0.204	Roll:	-4.622	Pitch:	-3.139	Yaw:	236.546	Thrust:	18.065
Time:	3.281	Roll Set Point:	-0.017	Pitch Set Point:	0.032	Yaw Set Point:	-2.937	X_WP:	0.000	Y_WP:	0.000	Y_WP:	0.500	X:	0.163	Y:	0.066	Z:	0.404	yaw:	168.270	yaw rate:	0.204	Roll:	-4.637	Pitch:	-3.115	Yaw:	236.515	Thrust:	18.176
Time:	3.297	Roll Set Point:	-0.017	Pitch Set Point:	0.032	Yaw Set Point:	-2.937	X_WP:	0.000	Y_WP:	0.000	Y_WP:	0.500	X:	0.163	Y:	0.066	Z:	0.404	yaw:	168.274	yaw rate:	6.011	Roll:	-4.623	Pitch:	-3.066	Yaw:	236.581	Thrust:	18.396
Time:	3.312	Roll Set Point:	-0.017	Pitch Set Point:	0.032	Yaw Set Point:	-2.936	X_WP:	0.000	Y_WP:	0.000	Y_WP:	0.500	X:	0.163	Y:	0.066	Z:	0.405	yaw:	168.237	yaw rate:	-3.727	Roll:	-4.627	Pitch:	-3.202	Yaw:	235.841	Thrust:	18.248
Time:	3.328	Roll Set Point:	-0.017	Pitch Set Point:	0.032	Yaw Set Point:	-2.936	X_WP:	0.000	Y_WP:	0.000	Y_WP:	0.500	X:	0.163	Y:	0.066	Z:	0.405	yaw:	168.237	yaw rate:	-3.727	Roll:	-4.652	Pitch:	-3.126	Yaw:	236.465	Thrust:	18.685
Time:	3.344	Roll Set Point:	-0.017	Pitch Set Point:	0.032	Yaw Set Point:	-2.937	X_WP:	0.000	Y_WP:	0.000	Y_WP:	0.500	X:	0.163	Y:	0.066	Z:	0.404	yaw:	168.256	yaw rate:	1.946	Roll:	-4.666	Pitch:	-3.121	Yaw:	236.821	Thrust:	18.972
Time:	3.359	Roll Set Point:	-0.017	Pitch Set Point:	0.032	Yaw Set Point:	-2.937	X_WP:	0.000	Y_WP:	0.000	Y_WP:	0.500	X:	0.163	Y:	0.066	Z:	0.404	yaw:	168.256	yaw rate:	1.946	Roll:	-4.663	Pitch:	-3.133	Yaw:	236.489	Thrust:	19.019
Time:	3.375	Roll Set Point:	-0.017	Pitch Set Point:	0.032	Yaw Set Point:	-2.937	X_WP:	0.000	Y_WP:	0.000	Y_WP:	0.500	X:	0.163	Y:	0.066	Z:	0.404	yaw:	168.290	yaw rate:	3.383	Roll:	-4.732	Pitch:	-3.021	Yaw:	237.108	Thrust:	19.328
Time:	3.391	Roll Set Point:	-0.017	Pitch Set Point:	0.032	Yaw Set Point:	-2.936	X_WP:	0.000	Y_WP:	0.000	Y_WP:	0.500	X:	0.163	Y:	0.066	Z:	0.404	yaw:	168.248	yaw rate:	-2.775	Roll:	-4.609	Pitch:	-3.304	Yaw:	235.784	Thrust:	19.421
Time:	3.406	Roll Set Point:	-0.017	Pitch Set Point:	0.032	Yaw Set Point:	-2.936	X_WP:	0.000	Y_WP:	0.000	Y_WP:	0.500	X:	0.163	Y:	0.066	Z:	0.404	yaw:	168.248	yaw rate:	-2.775	Roll:	-4.681	Pitch:	-3.147	Yaw:	236.485	Thrust:	19.611
Time:	3.422	Roll Set Point:	-0.017	Pitch Set Point:	0.032	Yaw Set Point:	-2.937	X_WP:	0.000	Y_WP:	0.000	Y_WP:	0.500	X:	0.163	Y:	0.066	Z:	0.405	yaw:	168.274	yaw rate:	1.624	Roll:	-4.732	Pitch:	-3.020	Yaw:	236.941	Thrust:	19.587
Time:	3.437	Roll Set Point:	-0.017	Pitch Set Point:	0.032	Yaw Set Point:	-2.937	X_WP:	0.000	Y_WP:	0.000	Y_WP:	0.500	X:	0.163	Y:	0.066	Z:	0.404	yaw:	168.266	yaw rate:	-0.819	Roll:	-4.665	Pitch:	-3.192	Yaw:	236.369	Thrust:	20.045
Time:	3.453	Roll Set Point:	-0.017	Pitch Set Point:	0.032	Yaw Set Point:	-2.937	X_WP:	0.000	Y_WP:	0.000	Y_WP:	0.500	X:	0.163	Y:	0.066	Z:	0.404	yaw:	168.273	yaw rate:	0.744	Roll:	-4.739	Pitch:	-3.155	Yaw:	236.641	Thrust:	20.071
Time:	3.469	Roll Set Point:	-0.017	Pitch Set Point:	0.032	Yaw Set Point:	-2.937	X_WP:	0.000	Y_WP:	0.000	Y_WP:	0.500	X:	0.163	Y:	0.066	Z:	0.404	yaw:	168.273	yaw rate:	0.744	Roll:	-4.705	Pitch:	-3.159	Yaw:	236.516	Thrust:	20.299
Time:	3.484	Roll Set Point:	-0.017	Pitch Set Point:	0.032	Yaw Set Point:	-2.937	X_WP:	0.000	Y_WP:	0.000	Y_WP:	0.500	X:	0.163	Y:	0.066	Z:	0.404	yaw:	168.268	yaw rate:	0.109	Roll:	-4.681	Pitch:	-3.147	Yaw:	236.424	Thrust:	20.503
Time:	3.500	Roll Set Point:	-0.017	Pitch Set Point:	0.032	Yaw Set Point:	-2.937	X_WP:	0.000	Y_WP:	0.000	Y_WP:	0.500	X:	0.163	Y:	0.066	Z:	0.404	yaw:	168.272	yaw rate:	0.382	Roll:	-4.715	Pitch:	-3.151	Yaw:	236.584	Thrust:	20.721
Time:	3.516	Roll Set Point:	-0.017	Pitch Set Point:	0.032	Yaw Set Point:	-2.937	X_WP:	0.000	Y_WP:	0.000	Y_WP:	0.500	X:	0.163	Y:	0.066	Z:	0.405	yaw:	168.257	yaw rate:	-1.456	Roll:	-4.729	Pitch:	-3.266	Yaw:	236.244	Thrust:	20.699
Time:	3.531	Roll Set Point:	-0.017	Pitch Set Point:	0.032	Yaw Set Point:	-2.936	X_WP:	0.000	Y_WP:	0.000	Y_WP:	0.500	X:	0.163	Y:	0.066	Z:	0.404	yaw:	168.246	yaw rate:	-1.175	Roll:	-4.693	Pitch:	-3.165	Yaw:	236.284	Thrust:	21.158
Time:	3.547	Roll Set Point:	-0.017	Pitch Set Point:	0.032	Yaw Set Point:	-2.936	X_WP:	0.000	Y_WP:	0.000	Y_WP:	0.500	X:	0.163	Y:	0.066	Z:	0.404	yaw:	168.246	yaw rate:	-1.175	Roll:	-4.732	Pitch:	-3.180	Yaw:	236.478	Thrust:	21.195
Time:	3.562	Roll Set Point:	-0.017	Pitch Set Point:	0.032	Yaw Set Point:	-2.936	X_WP:	0.000	Y_WP:	0.000	Y_WP:	0.500	X:	0.163	Y:	0.066	Z:	0.404	yaw:	168.239	yaw rate:	-1.332	Roll:	-4.692	Pitch:	-3.189	Yaw:	236.350	Thrust:	21.327
Time:	3.593	Roll Set Point:	-0.017	Pitch Set Point:	0.032	Yaw Set Point:	-2.937	X_WP:	0.000	Y_WP:	0.000	Y_WP:	0.500	X:	0.163	Y:	0.066	Z:	0.404	yaw:	168.269	yaw rate:	3.013	Roll:	-5.282	Pitch:	-3.503	Yaw:	238.278	Thrust:	37.339
Time:	3.609	Roll Set Point:	-0.017	Pitch Set Point:	0.032	Yaw Set Point:	-2.937	X_WP:	0.000	Y_WP:	0.000	Y_WP:	0.500	X:	0.163	Y:	0.066	Z:	0.404	yaw:	168.293	yaw rate:	3.303	Roll:	-4.796	Pitch:	-3.116	Yaw:	236.947	Thrust:	21.725
Time:	3.624	Roll Set Point:	-0.017	Pitch Set Point:	0.032	Yaw Set Point:	-2.937	X_WP:	0.000	Y_WP:	0.000	Y_WP:	0.500	X:	0.163	Y:	0.066	Z:	0.404	yaw:	168.293	yaw rate:	3.303	Roll:	-4.757	Pitch:	-3.192	Yaw:	236.544	Thrust:	21.914
Time:	3.640	Roll Set Point:	-0.017	Pitch Set Point:	0.032	Yaw Set Point:	-2.937	X_WP:	0.000	Y_WP:	0.000	Y_WP:	0.500	X:	0.163	Y:	0.066	Z:	0.405	yaw:	168.283	yaw rate:	-1.003	Roll:	-4.749	Pitch:	-3.155	Yaw:	236.362	Thrust:	21.949
Time:	3.656	Roll Set Point:	-0.017	Pitch Set Point:	0.032	Yaw Set Point:	-2.937	X_WP:	0.000	Y_WP:	0.000	Y_WP:	0.500	X:	0.163	Y:	0.066	Z:	0.404	yaw:	168.288	yaw rate:	0.503	Roll:	-4.785	Pitch:	-3.288	Yaw:	236.621	Thrust:	22.417
Time:	3.671	Roll Set Point:	-0.017	Pitch Set Point:	0.032	Yaw Set Point:	-2.937	X_WP:	0.000	Y_WP:	0.000	Y_WP:	0.500	X:	0.163	Y:	0.066	Z:	0.404	yaw:	168.286	yaw rate:	4.726	Roll:	-4.753	Pitch:	-3.149	Yaw:	236.508	Thrust:	22.394
Time:	3.687	Roll Set Point:	-0.017	Pitch Set Point:	0.032	Yaw Set Point:	-2.937	X_WP:	0.000	Y_WP:	0.000	Y_WP:	0.500	X:	0.163	Y:	0.066	Z:	0.404	yaw:	168.286	yaw rate:	4.726	Roll:	-4.779	Pitch:	-3.207	Yaw:	236.535	Thrust:	22.627
Time:	3.703	Roll Set Point:	-0.017	Pitch Set Point:	0.032	Yaw Set Point:	-2.937	X_WP:	0.000	Y_WP:	0.000	Y_WP:	0.500	X:	0.163	Y:	0.066	Z:	0.404	yaw:	168.260	yaw rate:	0.177	Roll:	-4.747	Pitch:	-3.344	Yaw:	236.056	Thrust:	22.822
Time:	3.718	Roll Set Point:	-0.017	Pitch Set Point:	0.032	Yaw Set Point:	-2.936	X_WP:	0.000	Y_WP:	0.000	Y_WP:	0.500	X:	0.163	Y:	0.066	Z:	0.405	yaw:	168.211	yaw rate:	-4.847	Roll:	-4.688	Pitch:	-3.249	Yaw:	235.618	Thrust:	22.781
Time:	3.734	Roll Set Point:	-0.017	Pitch Set Point:	0.032	Yaw Set Point:	-2.937	X_WP:	0.000	Y_WP:	0.000	Y_WP:	0.500	X:	0.163	Y:	0.066	Z:	0.404	yaw:	168.285	yaw rate:	7.315	Roll:	-4.940	Pitch:	-3.075	Yaw:	237.759	Thrust:	23.402
Time:	3.749	Roll Set Point:	-0.017	Pitch Set Point:	0.032	Yaw Set Point:	-2.937	X_WP:	0.000	Y_WP:	0.000	Y_WP:	0.500	X:	0.163	Y:	0.066	Z:	0.404	yaw:	168.285	yaw rate:	7.315	Roll:	-4.800	Pitch:	-3.222	Yaw:	236.529	Thrust:	23.303
Time:	3.765	Roll Set Point:	-0.017	Pitch Set Point:	0.032	Yaw Set Point:	-2.937	X_WP:	0.000	Y_WP:	0.000	Y_WP:	0.500	X:	0.163	Y:	0.066	Z:	0.404	yaw:	168.253	yaw rate:	-1.418	Roll:	-4.729	Pitch:	-3.321	Yaw:	235.956	Thrust:	23.524
Time:	3.781	Roll Set Point:	-0.017	Pitch Set Point:	0.032	Yaw Set Point:	-2.936	X_WP:	0.000	Y_WP:	0.000	Y_WP:	0.500	X:	0.163	Y:	0.066	Z:	0.404	yaw:	168.227	yaw rate:	-2.625	Roll:	-4.773	Pitch:	-3.279	Yaw:	236.015	Thrust:	23.659
Time:	3.796	Roll Set Point:	-0.017	Pitch Set Point:	0.032	Yaw Set Point:	-2.937	X_WP:	0.000	Y_WP:	0.000	Y_WP:	0.500	X:	0.163	Y:	0.066	Z:	0.404	yaw:	168.272	yaw rate:	4.586	Roll:	-4.886	Pitch:	-3.124	Yaw:	237.282	Thrust:	23.961
Time:	3.812	Roll Set Point:	-0.017	Pitch Set Point:	0.032	Yaw Set Point:	-2.937	X_WP:	0.000	Y_WP:	0.000	Y_WP:	0.500	X:	0.163	Y:	0.066	Z:	0.404	yaw:	168.272	yaw rate:	4.586	Roll:	-4.812	Pitch:	-3.239	Yaw:	236.515	Thrust:	24.056
Time:	3.828	Roll Set Point:	-0.017	Pitch Set Point:	0.032	Yaw Set Point:	-2.936	X_WP:	0.000	Y_WP:	0.000	Y_WP:	0.500	X:	0.163	Y:	0.066	Z:	0.405	yaw:	168.231	yaw rate:	-4.137	Roll:	-4.750	Pitch:	-3.309	Yaw:	235.777	Thrust:	24.140
Time:	3.843	Roll Set Point:	-0.017	Pitch Set Point:	0.032	Yaw Set Point:	-2.937	X_WP:	0.000	Y_WP:	0.000	Y_WP:	0.500	X:	0.163	Y:	0.066	Z:	0.404	yaw:	168.267	yaw rate:	3.604	Roll:	-4.881	Pitch:	-3.229	Yaw:	237.106	Thrust:	24.522
Time:	3.859	Roll Set Point:	-0.017	Pitch Set Point:	0.032	Yaw Set Point:	-2.937	X_WP:	0.000	Y_WP:	0.000	Y_WP:	0.500	X:	0.163	Y:	0.066	Z:	0.404	yaw:	168.292	yaw rate:	4.738	Roll:	-4.860	Pitch:	-3.142	Yaw:	236.955	Thrust:	24.495
Time:	3.875	Roll Set Point:	-0.017	Pitch Set Point:	0.032	Yaw Set Point:	-2.938	X_WP:	0.000	Y_WP:	0.000	Y_WP:	0.500	X:	0.163	Y:	0.066	Z:	0.404	yaw:	168.312	yaw rate:	2.047	Roll:	-4.850	Pitch:	-3.263	Yaw:	236.914	Thrust:	25.038
Time:	3.890	Roll Set Point:	-0.017	Pitch Set Point:	0.032	Yaw Set Point:	-2.936	X_WP:	0.000	Y_WP:	0.000	Y_WP:	0.500	X:	0.163	Y:	0.066	Z:	0.405	yaw:	168.245	yaw rate:	-6.748	Roll:	-4.672	Pitch:	-3.341	Yaw:	235.351	Thrust:	24.562
Time:	3.906	Roll Set Point:	-0.017	Pitch Set Point:	0.032	Yaw Set Point:	-2.936	X_WP:	0.000	Y_WP:	0.000	Y_WP:	0.500	X:	0.163	Y:	0.066	Z:	0.405	yaw:	168.245	yaw rate:	-6.748	Roll:	-4.809	Pitch:	-3.262	Yaw:	236.474	Thrust:	25.093
Time:	3.921	Roll Set Point:	-0.017	Pitch Set Point:	0.032	Yaw Set Point:	-2.936	X_WP:	0.000	Y_WP:	0.000	Y_WP:	0.500	X:	0.163	Y:	0.066	Z:	0.405	yaw:	168.246	yaw rate:	-3.108	Roll:	-4.818	Pitch:	-3.308	Yaw:	236.511	Thrust:	25.496
Time:	3.937	Roll Set Point:	-0.017	Pitch Set Point:	0.032	Yaw Set Point:	-2.936	X_WP:	0.000	Y_WP:	0.000	Y_WP:	0.500	X:	0.163	Y:	0.066	Z:	0.405	yaw:	168.246	yaw rate:	-3.108	Roll:	-4.810	Pitch:	-3.271	Yaw:	236.476	Thrust:	25.452
Time:	3.953	Roll Set Point:	-0.017	Pitch Set Point:	0.032	Yaw Set Point:	-2.937	X_WP:	0.000	Y_WP:	0.000	Y_WP:	0.500	X:	0.163	Y:	0.066	Z:	0.405	yaw:	168.282	yaw rate:	-0.058	Roll:	-4.901	Pitch:	-3.178	Yaw:	237.124	Thrust:	25.670
Time:	3.968	Roll Set Point:	-0.017	Pitch Set Point:	0.032	Yaw Set Point:	-2.937	X_WP:	0.000	Y_WP:	0.000	Y_WP:	0.500	X:	0.163	Y:	0.066	Z:	0.404	yaw:	168.268	yaw rate:	-1.438	Roll:	-4.760	Pitch:	-3.353	Yaw:	236.268	Thrust:	25.974
Time:	3.984	Roll Set Point:	-0.017	Pitch Set Point:	0.032	Yaw Set Point:	-2.937	X_WP:	0.000	Y_WP:	0.000	Y_WP:	0.500	X:	0.163	Y:	0.066	Z:	0.405	yaw:	168.290	yaw rate:	2.226	Roll:	-4.869	Pitch:	-3.191	Yaw:	236.914	Thrust:	25.941
Time:	4.000	Roll Set Point:	-0.017	Pitch Set Point:	0.032	Yaw Set Point:	-2.937	X_WP:	0.000	Y_WP:	0.000	Y_WP:	0.500	X:	0.163	Y:	0.066	Z:	0.404	yaw:	168.282	yaw rate:	-0.836	Roll:	-4.798	Pitch:	-3.315	Yaw:	236.388	Thrust:	26.239
Time:	4.015	Roll Set Point:	-0.017	Pitch Set Point:	0.032	Yaw Set Point:	-2.937	X_WP:	0.000	Y_WP:	0.000	Y_WP:	0.500	X:	0.163	Y:	0.066	Z:	0.404	yaw:	168.282	yaw rate:	-0.836	Roll:	-4.813	Pitch:	-3.289	Yaw:	236.528	Thrust:	26.391
Time:	4.031	Roll Set Point:	-0.017	Pitch Set Point:	0.032	Yaw Set Point:	-2.937	X_WP:	0.000	Y_WP:	0.000	Y_WP:	0.500	X:	0.163	Y:	0.066	Z:	0.405	yaw:	168.272	yaw rate:	-1.228	Roll:	-4.788	Pitch:	-3.277	Yaw:	236.347	Thrust:	26.519
Time:	4.046	Roll Set Point:	-0.017	Pitch Set Point:	0.032	Yaw Set Point:	-2.937	X_WP:	0.000	Y_WP:	0.000	Y_WP:	0.500	X:	0.163	Y:	0.066	Z:	0.404	yaw:	168.252	yaw rate:	-1.942	Roll:	-4.774	Pitch:	-3.383	Yaw:	236.162	Thrust:	26.824
Time:	4.062	Roll Set Point:	-0.017	Pitch Set Point:	0.032	Yaw Set Point:	-2.936	X_WP:	0.000	Y_WP:	0.000	Y_WP:	0.500	X:	0.163	Y:	0.066	Z:	0.405	yaw:	168.237	yaw rate:	-1.492	Roll:	-4.773	Pitch:	-3.335	Yaw:	236.220	Thrust:	26.788
Time:	4.109	Roll Set Point:	-0.017	Pitch Set Point:	0.032	Yaw Set Point:	-2.937	X_WP:	0.000	Y_WP:	0.000	Y_WP:	0.500	X:	0.163	Y:	0.066	Z:	0.404	yaw:	168.289	yaw rate:	5.187	Roll:	-5.439	Pitch:	-4.194	Yaw:	239.951	Thrust:	70.865
Time:	4.125	Roll Set Point:	-0.017	Pitch Set Point:	0.032	Yaw Set Point:	-2.937	X_WP:	0.000	Y_WP:	0.000	Y_WP:	0.500	X:	0.163	Y:	0.066	Z:	0.405	yaw:	168.257	yaw rate:	-3.256	Roll:	-5.374	Pitch:	-3.414	Yaw:	235.948	Thrust:	27.041
Time:	4.140	Roll Set Point:	-0.017	Pitch Set Point:	0.032	Yaw Set Point:	-2.937	X_WP:	0.000	Y_WP:	0.000	Y_WP:	0.500	X:	0.163	Y:	0.066	Z:	0.405	yaw:	168.257	yaw rate:	-3.256	Roll:	-4.811	Pitch:	-3.314	Yaw:	236.493	Thrust:	27.462
Time:	4.156	Roll Set Point:	-0.017	Pitch Set Point:	0.032	Yaw Set Point:	-2.937	X_WP:	0.000	Y_WP:	0.000	Y_WP:	0.500	X:	0.163	Y:	0.066	Z:	0.404	yaw:	168.277	yaw rate:	2.059	Roll:	-4.858	Pitch:	-3.279	Yaw:	236.869	Thrust:	27.887
Time:	4.171	Roll Set Point:	-0.017	Pitch Set Point:	0.032	Yaw Set Point:	-2.937	X_WP:	0.000	Y_WP:	0.000	Y_WP:	0.500	X:	0.163	Y:	0.066	Z:	0.404	yaw:	168.277	yaw rate:	2.059	Roll:	-4.812	Pitch:	-3.320	Yaw:	236.522	Thrust:	27.817
Time:	4.187	Roll Set Point:	-0.017	Pitch Set Point:	0.032	Yaw Set Point:	-2.936	X_WP:	0.000	Y_WP:	0.000	Y_WP:	0.500	X:	0.163	Y:	0.066	Z:	0.404	yaw:	168.246	yaw rate:	-4.039	Roll:	-4.749	Pitch:	-3.401	Yaw:	235.949	Thrust:	27.868
Time:	4.204	Roll Set Point:	-0.017	Pitch Set Point:	0.032	Yaw Set Point:	-2.937	X_WP:	0.000	Y_WP:	0.000	Y_WP:	0.500	X:	0.163	Y:	0.066	Z:	0.405	yaw:	168.257	yaw rate:	1.096	Roll:	-4.902	Pitch:	-3.298	Yaw:	236.808	Thrust:	30.227
Time:	4.221	Roll Set Point:	-0.017	Pitch Set Point:	0.032	Yaw Set Point:	-2.937	X_WP:	0.000	Y_WP:	0.000	Y_WP:	0.500	X:	0.163	Y:	0.066	Z:	0.404	yaw:	168.304	yaw rate:	4.731	Roll:	-4.912	Pitch:	-3.260	Yaw:	237.412	Thrust:	30.202
Time:	4.237	Roll Set Point:	-0.017	Pitch Set Point:	0.032	Yaw Set Point:	-2.937	X_WP:	0.000	Y_WP:	0.000	Y_WP:	0.500	X:	0.163	Y:	0.066	Z:	0.404	yaw:	168.304	yaw rate:	4.731	Roll:	-4.813	Pitch:	-3.332	Yaw:	236.559	Thrust:	28.530
Time:	4.252	Roll Set Point:	-0.017	Pitch Set Point:	0.032	Yaw Set Point:	-2.937	X_WP:	0.000	Y_WP:	0.000	Y_WP:	0.500	X:	0.163	Y:	0.066	Z:	0.404	yaw:	168.272	yaw rate:	-3.185	Roll:	-4.768	Pitch:	-3.439	Yaw:	235.987	Thrust:	28.758
Time:	4.268	Roll Set Point:	-0.017	Pitch Set Point:	0.032	Yaw Set Point:	-2.937	X_WP:	0.000	Y_WP:	0.000	Y_WP:	0.500	X:	0.163	Y:	0.066	Z:	0.404	yaw:	168.264	yaw rate:	2.929	Roll:	-4.789	Pitch:	-3.367	Yaw:	236.355	Thrust:	28.813
Time:	4.283	Roll Set Point:	-0.017	Pitch Set Point:	0.032	Yaw Set Point:	-2.937	X_WP:	0.000	Y_WP:	0.000	Y_WP:	0.500	X:	0.163	Y:	0.066	Z:	0.404	yaw:	168.283	yaw rate:	1.919	Roll:	-4.843	Pitch:	-3.287	Yaw:	236.852	Thrust:	29.122
Time:	4.299	Roll Set Point:	-0.017	Pitch Set Point:	0.032	Yaw Set Point:	-2.937	X_WP:	0.000	Y_WP:	0.000	Y_WP:	0.500	X:	0.163	Y:	0.066	Z:	0.405	yaw:	168.273	yaw rate:	-0.996	Roll:	-4.794	Pitch:	-3.304	Yaw:	236.352	Thrust:	29.120
Time:	4.315	Roll Set Point:	-0.017	Pitch Set Point:	0.032	Yaw Set Point:	-2.937	X_WP:	0.000	Y_WP:	0.000	Y_WP:	0.500	X:	0.163	Y:	0.066	Z:	0.404	yaw:	168.291	yaw rate:	1.859	Roll:	-4.844	Pitch:	-3.410	Yaw:	236.853	Thrust:	29.707
Time:	4.330	Roll Set Point:	-0.017	Pitch Set Point:	0.032	Yaw Set Point:	-2.937	X_WP:	0.000	Y_WP:	0.000	Y_WP:	0.500	X:	0.163	Y:	0.066	Z:	0.405	yaw:	168.261	yaw rate:	-3.001	Roll:	-4.777	Pitch:	-3.411	Yaw:	235.997	Thrust:	29.382
Time:	4.346	Roll Set Point:	-0.017	Pitch Set Point:	0.032	Yaw Set Point:	-2.937	X_WP:	0.000	Y_WP:	0.000	Y_WP:	0.500	X:	0.163	Y:	0.066	Z:	0.404	yaw:	168.262	yaw rate:	0.072	Roll:	-4.807	Pitch:	-3.357	Yaw:	236.510	Thrust:	29.803
Time:	4.362	Roll Set Point:	-0.017	Pitch Set Point:	0.032	Yaw Set Point:	-2.937	X_WP:	0.000	Y_WP:	0.000	Y_WP:	0.500	X:	0.163	Y:	0.066	Z:	0.404	yaw:	168.267	yaw rate:	0.490	Roll:	-4.832	Pitch:	-3.348	Yaw:	236.593	Thrust:	30.029
Time:	4.377	Roll Set Point:	-0.017	Pitch Set Point:	0.032	Yaw Set Point:	-2.937	X_WP:	0.000	Y_WP:	0.000	Y_WP:	0.500	X:	0.163	Y:	0.066	Z:	0.404	yaw:	168.267	yaw rate:	0.490	Roll:	-4.811	Pitch:	-3.369	Yaw:	236.505	Thrust:	30.098
Time:	4.393	Roll Set Point:	-0.017	Pitch Set Point:	0.032	Yaw Set Point:	-2.937	X_WP:	0.000	Y_WP:	0.000	Y_WP:	0.500	X:	0.163	Y:	0.066	Z:	0.404	yaw:	168.267	yaw rate:	-0.023	Roll:	-4.789	Pitch:	-3.382	Yaw:	236.504	Thrust:	30.371
Time:	4.408	Roll Set Point:	-0.017	Pitch Set Point:	0.032	Yaw Set Point:	-2.937	X_WP:	0.000	Y_WP:	0.000	Y_WP:	0.500	X:	0.163	Y:	0.066	Z:	0.404	yaw:	168.267	yaw rate:	-0.023	Roll:	-4.812	Pitch:	-3.378	Yaw:	236.508	Thrust:	30.512
Time:	4.424	Roll Set Point:	-0.017	Pitch Set Point:	0.032	Yaw Set Point:	-2.937	X_WP:	0.000	Y_WP:	0.000	Y_WP:	0.500	X:	0.163	Y:	0.066	Z:	0.404	yaw:	168.278	yaw rate:	2.046	Roll:	-4.830	Pitch:	-3.342	Yaw:	236.706	Thrust:	30.698
Time:	4.440	Roll Set Point:	-0.017	Pitch Set Point:	0.032	Yaw Set Point:	-2.937	X_WP:	0.000	Y_WP:	0.000	Y_WP:	0.500	X:	0.163	Y:	0.066	Z:	0.404	yaw:	168.278	yaw rate:	2.046	Roll:	-4.813	Pitch:	-3.385	Yaw:	236.526	Thrust:	30.921
Time:	4.455	Roll Set Point:	-0.017	Pitch Set Point:	0.032	Yaw Set Point:	-2.937	X_WP:	0.000	Y_WP:	0.000	Y_WP:	0.500	X:	0.163	Y:	0.066	Z:	0.405	yaw:	168.256	yaw rate:	-2.210	Roll:	-4.783	Pitch:	-3.406	Yaw:	236.117	Thrust:	30.862
Time:	4.471	Roll Set Point:	-0.017	Pitch Set Point:	0.032	Yaw Set Point:	-2.937	X_WP:	0.000	Y_WP:	0.000	Y_WP:	0.500	X:	0.163	Y:	0.066	Z:	0.404	yaw:	168.279	yaw rate:	2.302	Roll:	-4.864	Pitch:	-3.405	Yaw:	236.914	Thrust:	31.451
Time:	4.487	Roll Set Point:	-0.017	Pitch Set Point:	0.032	Yaw Set Point:	-2.937	X_WP:	0.000	Y_WP:	0.000	Y_WP:	0.500	X:	0.163	Y:	0.066	Z:	0.404	yaw:	168.282	yaw rate:	3.575	Roll:	-4.792	Pitch:	-3.372	Yaw:	236.580	Thrust:	31.537
Time:	4.502	Roll Set Point:	-0.017	Pitch Set Point:	0.032	Yaw Set Point:	-2.937	X_WP:	0.000	Y_WP:	0.000	Y_WP:	0.500	X:	0.163	Y:	0.066	Z:	0.404	yaw:	168.282	yaw rate:	3.575	Roll:	-4.813	Pitch:	-3.400	Yaw:	236.529	Thrust:	31.605
Time:	4.518	Roll Set Point:	-0.017	Pitch Set Point:	0.032	Yaw Set Point:	-2.937	X_WP:	0.000	Y_WP:	0.000	Y_WP:	0.500	X:	0.163	Y:	0.066	Z:	0.404	yaw:	168.298	yaw rate:	4.943	Roll:	-4.859	Pitch:	-3.367	Yaw:	236.821	Thrust:	31.498
Time:	4.533	Roll Set Point:	-0.017	Pitch Set Point:	0.032	Yaw Set Point:	-2.937	X_WP:	0.000	Y_WP:	0.000	Y_WP:	0.500	X:	0.163	Y:	0.066	Z:	0.404	yaw:	168.298	yaw rate:	4.943	Roll:	-4.815	Pitch:	-3.408	Yaw:	236.557	Thrust:	32.036
Time:	4.549	Roll Set Point:	-0.017	Pitch Set Point:	0.032	Yaw Set Point:	-2.937	X_WP:	0.000	Y_WP:	0.000	Y_WP:	0.500	X:	0.163	Y:	0.066	Z:	0.404	yaw:	168.251	yaw rate:	-0.306	Roll:	-4.698	Pitch:	-3.451	Yaw:	235.687	Thrust:	32.061
Time:	4.565	Roll Set Point:	-0.017	Pitch Set Point:	0.032	Yaw Set Point:	-2.937	X_WP:	0.000	Y_WP:	0.000	Y_WP:	0.500	X:	0.163	Y:	0.066	Z:	0.404	yaw:	168.251	yaw rate:	-0.306	Roll:	-4.810	Pitch:	-3.415	Yaw:	236.485	Thrust:	32.299
Time:	4.594	Roll Set Point:	-0.017	Pitch Set Point:	0.032	Yaw Set Point:	-2.937	X_WP:	0.000	Y_WP:	0.000	Y_WP:	0.500	X:	0.163	Y:	0.066	Z:	0.405	yaw:	168.251	yaw rate:	-2.002	Roll:	-5.354	Pitch:	-3.955	Yaw:	237.900	Thrust:	57.001
Time:	4.610	Roll Set Point:	-0.017	Pitch Set Point:	0.032	Yaw Set Point:	-2.937	X_WP:	0.000	Y_WP:	0.000	Y_WP:	0.500	X:	0.163	Y:	0.066	Z:	0.405	yaw:	168.262	yaw rate:	1.126	Roll:	-4.822	Pitch:	-3.421	Yaw:	236.688	Thrust:	32.586
Time:	4.626	Roll Set Point:	-0.017	Pitch Set Point:	0.032	Yaw Set Point:	-2.937	X_WP:	0.000	Y_WP:	0.000	Y_WP:	0.500	X:	0.163	Y:	0.066	Z:	0.404	yaw:	168.264	yaw rate:	0.115	Roll:	-4.819	Pitch:	-3.433	Yaw:	236.530	Thrust:	33.159
Time:	4.642	Roll Set Point:	-0.017	Pitch Set Point:	0.032	Yaw Set Point:	-2.936	X_WP:	0.000	Y_WP:	0.000	Y_WP:	0.500	X:	0.163	Y:	0.066	Z:	0.405	yaw:	168.222	yaw rate:	-4.491	Roll:	-4.751	Pitch:	-3.511	Yaw:	235.782	Thrust:	33.301
Time:	4.662	Roll Set Point:	-0.017	Pitch Set Point:	0.032	Yaw Set Point:	-2.936	X_WP:	0.000	Y_WP:	0.000	Y_WP:	0.500	X:	0.163	Y:	0.066	Z:	0.405	yaw:	168.222	yaw rate:	-4.491	Roll:	-5.005	Pitch:	-3.621	Yaw:	236.965	Thrust:	42.495
Time:	4.678	Roll Set Point:	-0.017	Pitch Set Point:	0.032	Yaw Set Point:	-2.937	X_WP:	0.000	Y_WP:	0.000	Y_WP:	0.500	X:	0.163	Y:	0.066	Z:	0.404	yaw:	168.262	yaw rate:	1.027	Roll:	-4.887	Pitch:	-3.344	Yaw:	237.174	Thrust:	33.475
Time:	4.694	Roll Set Point:	-0.017	Pitch Set Point:	0.032	Yaw Set Point:	-2.936	X_WP:	0.000	Y_WP:	0.000	Y_WP:	0.500	X:	0.163	Y:	0.066	Z:	0.404	yaw:	168.238	yaw rate:	-2.458	Roll:	-4.744	Pitch:	-3.481	Yaw:	236.043	Thrust:	33.330
Time:	4.709	Roll Set Point:	-0.017	Pitch Set Point:	0.032	Yaw Set Point:	-2.936	X_WP:	0.000	Y_WP:	0.000	Y_WP:	0.500	X:	0.163	Y:	0.066	Z:	0.404	yaw:	168.238	yaw rate:	-2.458	Roll:	-4.810	Pitch:	-3.426	Yaw:	236.467	Thrust:	33.734
Time:	4.725	Roll Set Point:	-0.017	Pitch Set Point:	0.032	Yaw Set Point:	-2.936	X_WP:	0.000	Y_WP:	0.000	Y_WP:	0.500	X:	0.163	Y:	0.066	Z:	0.404	yaw:	168.221	yaw rate:	-1.649	Roll:	-4.780	Pitch:	-3.490	Yaw:	236.178	Thrust:	34.119
Time:	4.740	Roll Set Point:	-0.017	Pitch Set Point:	0.032	Yaw Set Point:	-2.936	X_WP:	0.000	Y_WP:	0.000	Y_WP:	0.500	X:	0.163	Y:	0.066	Z:	0.404	yaw:	168.246	yaw rate:	2.528	Roll:	-4.850	Pitch:	-3.353	Yaw:	236.898	Thrust:	33.938
Time:	4.756	Roll Set Point:	-0.017	Pitch Set Point:	0.032	Yaw Set Point:	-2.936	X_WP:	0.000	Y_WP:	0.000	Y_WP:	0.500	X:	0.163	Y:	0.066	Z:	0.404	yaw:	168.246	yaw rate:	2.528	Roll:	-4.809	Pitch:	-3.424	Yaw:	236.476	Thrust:	34.211
Time:	4.772	Roll Set Point:	-0.017	Pitch Set Point:	0.032	Yaw Set Point:	-2.937	X_WP:	0.000	Y_WP:	0.000	Y_WP:	0.500	X:	0.163	Y:	0.066	Z:	0.404	yaw:	168.285	yaw rate:	-1.311	Roll:	-4.916	Pitch:	-3.365	Yaw:	237.183	Thrust:	34.546
Time:	4.803	Roll Set Point:	-0.017	Pitch Set Point:	0.032	Yaw Set Point:	-2.937	X_WP:	0.000	Y_WP:	0.000	Y_WP:	0.500	X:	0.163	Y:	0.066	Z:	0.404	yaw:	168.274	yaw rate:	2.191	Roll:	-5.380	Pitch:	-4.012	Yaw:	237.991	Thrust:	64.054
Time:	4.819	Roll Set Point:	-0.017	Pitch Set Point:	0.032	Yaw Set Point:	-2.937	X_WP:	0.000	Y_WP:	0.000	Y_WP:	0.500	X:	0.163	Y:	0.066	Z:	0.404	yaw:	168.256	yaw rate:	-1.815	Roll:	-4.758	Pitch:	-3.429	Yaw:	236.185	Thrust:	34.661
Time:	4.834	Roll Set Point:	-0.017	Pitch Set Point:	0.032	Yaw Set Point:	-2.937	X_WP:	0.000	Y_WP:	0.000	Y_WP:	0.500	X:	0.163	Y:	0.066	Z:	0.404	yaw:	168.293	yaw rate:	3.728	Roll:	-4.909	Pitch:	-3.396	Yaw:	237.169	Thrust:	34.961
Time:	4.850	Roll Set Point:	-0.017	Pitch Set Point:	0.032	Yaw Set Point:	-2.936	X_WP:	0.000	Y_WP:	0.000	Y_WP:	0.500	X:	0.163	Y:	0.066	Z:	0.404	yaw:	168.238	yaw rate:	-5.515	Roll:	-4.689	Pitch:	-3.536	Yaw:	235.548	Thrust:	35.306
Time:	4.865	Roll Set Point:	-0.017	Pitch Set Point:	0.032	Yaw Set Point:	-2.937	X_WP:	0.000	Y_WP:	0.000	Y_WP:	0.500	X:	0.163	Y:	0.066	Z:	0.404	yaw:	168.258	yaw rate:	1.939	Roll:	-4.849	Pitch:	-3.357	Yaw:	236.817	Thrust:	35.277
Time:	4.881	Roll Set Point:	-0.017	Pitch Set Point:	0.032	Yaw Set Point:	-2.936	X_WP:	0.000	Y_WP:	0.000	Y_WP:	0.500	X:	0.163	Y:	0.066	Z:	0.405	yaw:	168.246	yaw rate:	-1.145	Roll:	-4.798	Pitch:	-3.433	Yaw:	236.287	Thrust:	35.447
Time:	4.897	Roll Set Point:	-0.017	Pitch Set Point:	0.032	Yaw Set Point:	-2.936	X_WP:	0.000	Y_WP:	0.000	Y_WP:	0.500	X:	0.163	Y:	0.066	Z:	0.405	yaw:	168.246	yaw rate:	-1.145	Roll:	-4.811	Pitch:	-3.425	Yaw:	236.478	Thrust:	35.701
Time:	4.912	Roll Set Point:	-0.017	Pitch Set Point:	0.032	Yaw Set Point:	-2.937	X_WP:	0.000	Y_WP:	0.000	Y_WP:	0.500	X:	0.163	Y:	0.066	Z:	0.404	yaw:	168.263	yaw rate:	1.661	Roll:	-4.837	Pitch:	-3.452	Yaw:	236.780	Thrust:	36.063
Time:	4.928	Roll Set Point:	-0.017	Pitch Set Point:	0.032	Yaw Set Point:	-2.938	X_WP:	0.000	Y_WP:	0.000	Y_WP:	0.500	X:	0.163	Y:	0.066	Z:	0.404	yaw:	168.310	yaw rate:	7.180	Roll:	-4.907	Pitch:	-3.287	Yaw:	237.352	Thrust:	36.027
Time:	4.944	Roll Set Point:	-0.017	Pitch Set Point:	0.032	Yaw Set Point:	-2.936	X_WP:	0.000	Y_WP:	0.000	Y_WP:	0.500	X:	0.163	Y:	0.066	Z:	0.404	yaw:	168.236	yaw rate:	-7.342	Roll:	-4.676	Pitch:	-3.592	Yaw:	235.236	Thrust:	36.163
Time:	4.959	Roll Set Point:	-0.017	Pitch Set Point:	0.032	Yaw Set Point:	-2.937	X_WP:	0.000	Y_WP:	0.000	Y_WP:	0.500	X:	0.163	Y:	0.066	Z:	0.404	yaw:	168.261	yaw rate:	2.522	Roll:	-4.853	Pitch:	-3.394	Yaw:	236.925	Thrust:	36.479
Time:	4.975	Roll Set Point:	-0.017	Pitch Set Point:	0.032	Yaw Set Point:	-2.937	X_WP:	0.000	Y_WP:	0.000	Y_WP:	0.500	X:	0.163	Y:	0.066	Z:	0.404	yaw:	168.261	yaw rate:	2.522	Roll:	-4.810	Pitch:	-3.424	Yaw:	236.496	Thrust:	36.512
Time:	4.990	Roll Set Point:	-0.017	Pitch Set Point:	0.032	Yaw Set Point:	-2.937	X_WP:	0.000	Y_WP:	0.000	Y_WP:	0.500	X:	0.163	Y:	0.066	Z:	0.404	yaw:	168.292	yaw rate:	4.159	Roll:	-4.861	Pitch:	-3.274	Yaw:	237.063	Thrust:	36.881
Time:	5.006	Roll Set Point:	-0.017	Pitch Set Point:	0.032	Yaw Set Point:	-2.937	X_WP:	0.000	Y_WP:	0.000	Y_WP:	0.500	X:	0.163	Y:	0.066	Z:	0.404	yaw:	168.292	yaw rate:	4.159	Roll:	-4.813	Pitch:	-3.421	Yaw:	236.543	Thrust:	36.954
Time:	5.022	Roll Set Point:	-0.017	Pitch Set Point:	0.032	Yaw Set Point:	-2.937	X_WP:	0.000	Y_WP:	0.000	Y_WP:	0.500	X:	0.163	Y:	0.066	Z:	0.405	yaw:	168.273	yaw rate:	-1.966	Roll:	-4.790	Pitch:	-3.478	Yaw:	236.186	Thrust:	36.954
Time:	5.037	Roll Set Point:	-0.017	Pitch Set Point:	0.032	Yaw Set Point:	-2.937	X_WP:	0.000	Y_WP:	0.000	Y_WP:	0.500	X:	0.163	Y:	0.066	Z:	0.404	yaw:	168.279	yaw rate:	3.845	Roll:	-4.828	Pitch:	-3.480	Yaw:	236.628	Thrust:	37.477
Time:	5.053	Roll Set Point:	-0.017	Pitch Set Point:	0.032	Yaw Set Point:	-2.937	X_WP:	0.000	Y_WP:	0.000	Y_WP:	0.500	X:	0.163	Y:	0.066	Z:	0.405	yaw:	168.272	yaw rate:	-0.698	Roll:	-4.794	Pitch:	-3.322	Yaw:	236.398	Thrust:	37.349
Time:	5.069	Roll Set Point:	-0.017	Pitch Set Point:	0.032	Yaw Set Point:	-2.937	X_WP:	0.000	Y_WP:	0.000	Y_WP:	0.500	X:	0.163	Y:	0.066	Z:	0.405	yaw:	168.272	yaw rate:	-0.698	Roll:	-4.812	Pitch:	-3.422	Yaw:	236.515	Thrust:	37.672
Time:	5.084	Roll Set Point:	-0.017	Pitch Set Point:	0.032	Yaw Set Point:	-2.936	X_WP:	0.000	Y_WP:	0.000	Y_WP:	0.500	X:	0.163	Y:	0.066	Z:	0.404	yaw:	168.219	yaw rate:	-7.385	Roll:	-4.704	Pitch:	-3.640	Yaw:	235.555	Thrust:	37.912
Time:	5.100	Roll Set Point:	-0.017	Pitch Set Point:	0.032	Yaw Set Point:	-2.936	X_WP:	0.000	Y_WP:	0.000	Y_WP:	0.500	X:	0.163	Y:	0.066	Z:	0.404	yaw:	168.238	yaw rate:	1.905	Roll:	-4.840	Pitch:	-3.375	Yaw:	236.789	Thrust:	38.080
Time:	5.116	Roll Set Point:	-0.017	Pitch Set Point:	0.032	Yaw Set Point:	-2.936	X_WP:	0.000	Y_WP:	0.000	Y_WP:	0.500	X:	0.163	Y:	0.066	Z:	0.404	yaw:	168.238	yaw rate:	1.905	Roll:	-4.810	Pitch:	-3.426	Yaw:	236.468	Thrust:	38.218
Time:	5.131	Roll Set Point:	-0.017	Pitch Set Point:	0.032	Yaw Set Point:	-2.937	X_WP:	0.000	Y_WP:	0.000	Y_WP:	0.500	X:	0.163	Y:	0.066	Z:	0.404	yaw:	168.302	yaw rate:	3.742	Roll:	-4.938	Pitch:	-3.252	Yaw:	237.620	Thrust:	38.478
Time:	5.147	Roll Set Point:	-0.017	Pitch Set Point:	0.032	Yaw Set Point:	-2.936	X_WP:	0.000	Y_WP:	0.000	Y_WP:	0.500	X:	0.163	Y:	0.066	Z:	0.405	yaw:	168.248	yaw rate:	-5.350	Roll:	-4.724	Pitch:	-3.542	Yaw:	235.584	Thrust:	38.271
Time:	5.162	Roll Set Point:	-0.017	Pitch Set Point:	0.032	Yaw Set Point:	-2.937	X_WP:	0.000	Y_WP:	0.000	Y_WP:	0.500	X:	0.163	Y:	0.066	Z:	0.404	yaw:	168.266	yaw rate:	1.821	Roll:	-4.836	Pitch:	-3.471	Yaw:	236.812	Thrust:	38.975
Time:	5.178	Roll Set Point:	-0.017	Pitch Set Point:	0.032	Yaw Set Point:	-2.937	X_WP:	0.000	Y_WP:	0.000	Y_WP:	0.500	X:	0.163	Y:	0.066	Z:	0.404	yaw:	168.256	yaw rate:	-1.026	Roll:	-4.795	Pitch:	-3.378	Yaw:	236.320	Thrust:	38.870
Time:	5.194	Roll Set Point:	-0.017	Pitch Set Point:	0.032	Yaw Set Point:	-2.937	X_WP:	0.000	Y_WP:	0.000	Y_WP:	0.500	X:	0.163	Y:	0.066	Z:	0.404	yaw:	168.284	yaw rate:	2.805	Roll:	-4.861	Pitch:	-3.331	Yaw:	237.002	Thrust:	39.158
Time:	5.209	Roll Set Point:	-0.017	Pitch Set Point:	0.032	Yaw Set Point:	-2.937	X_WP:	0.000	Y_WP:	0.000	Y_WP:	0.500	X:	0.163	Y:	0.066	Z:	0.404	yaw:	168.263	yaw rate:	-2.125	Roll:	-4.788	Pitch:	-3.554	Yaw:	236.146	Thrust:	39.300
Time:	5.225	Roll Set Point:	-0.017	Pitch Set Point:	0.032	Yaw Set Point:	-2.937	X_WP:	0.000	Y_WP:	0.000	Y_WP:	0.500	X:	0.163	Y:	0.066	Z:	0.404	yaw:	168.263	yaw rate:	-2.125	Roll:	-4.812	Pitch:	-3.426	Yaw:	236.502	Thrust:	39.467
Time:	5.241	Roll Set Point:	-0.017	Pitch Set Point:	0.032	Yaw Set Point:	-2.937	X_WP:	0.000	Y_WP:	0.000	Y_WP:	0.500	X:	0.163	Y:	0.066	Z:	0.404	yaw:	168.253	yaw rate:	-0.941	Roll:	-4.784	Pitch:	-3.405	Yaw:	236.331	Thrust:	39.536
Time:	5.256	Roll Set Point:	-0.017	Pitch Set Point:	0.032	Yaw Set Point:	-2.937	X_WP:	0.000	Y_WP:	0.000	Y_WP:	0.500	X:	0.163	Y:	0.066	Z:	0.404	yaw:	168.271	yaw rate:	1.770	Roll:	-4.834	Pitch:	-3.345	Yaw:	236.810	Thrust:	39.851
Time:	5.272	Roll Set Point:	-0.017	Pitch Set Point:	0.032	Yaw Set Point:	-2.937	X_WP:	0.000	Y_WP:	0.000	Y_WP:	0.500	X:	0.163	Y:	0.066	Z:	0.404	yaw:	168.270	yaw rate:	-0.150	Roll:	-4.818	Pitch:	-3.465	Yaw:	236.486	Thrust:	40.074
Time:	5.287	Roll Set Point:	-0.017	Pitch Set Point:	0.032	Yaw Set Point:	-2.937	X_WP:	0.000	Y_WP:	0.000	Y_WP:	0.500	X:	0.163	Y:	0.066	Z:	0.404	yaw:	168.261	yaw rate:	-0.849	Roll:	-4.813	Pitch:	-3.490	Yaw:	236.357	Thrust:	40.077
Time:	5.303	Roll Set Point:	-0.017	Pitch Set Point:	0.032	Yaw Set Point:	-2.937	X_WP:	0.000	Y_WP:	0.000	Y_WP:	0.500	X:	0.163	Y:	0.066	Z:	0.404	yaw:	168.251	yaw rate:	-1.020	Roll:	-4.784	Pitch:	-3.426	Yaw:	236.316	Thrust:	40.403
Time:	5.320	Roll Set Point:	-0.017	Pitch Set Point:	0.032	Yaw Set Point:	-2.937	X_WP:	0.000	Y_WP:	0.000	Y_WP:	0.500	X:	0.163	Y:	0.066	Z:	0.404	yaw:	168.260	yaw rate:	0.448	Roll:	-4.853	Pitch:	-3.411	Yaw:	236.776	Thrust:	43.915
Time:	5.337	Roll Set Point:	-0.017	Pitch Set Point:	0.032	Yaw Set Point:	-2.937	X_WP:	0.000	Y_WP:	0.000	Y_WP:	0.500	X:	0.163	Y:	0.066	Z:	0.404	yaw:	168.260	yaw rate:	0.448	Roll:	-4.867	Pitch:	-3.480	Yaw:	236.648	Thrust:	44.144
Time:	5.353	Roll Set Point:	-0.017	Pitch Set Point:	0.032	Yaw Set Point:	-2.936	X_WP:	0.000	Y_WP:	0.000	Y_WP:	0.500	X:	0.163	Y:	0.066	Z:	0.405	yaw:	168.241	yaw rate:	0.389	Roll:	-4.805	Pitch:	-3.515	Yaw:	236.169	Thrust:	40.811
Time:	5.369	Roll Set Point:	-0.017	Pitch Set Point:	0.032	Yaw Set Point:	-2.937	X_WP:	0.000	Y_WP:	0.000	Y_WP:	0.500	X:	0.163	Y:	0.066	Z:	0.404	yaw:	168.249	yaw rate:	0.802	Roll:	-4.813	Pitch:	-3.339	Yaw:	236.618	Thrust:	41.134
Time:	5.384	Roll Set Point:	-0.017	Pitch Set Point:	0.032	Yaw Set Point:	-2.937	X_WP:	0.000	Y_WP:	0.000	Y_WP:	0.500	X:	0.163	Y:	0.066	Z:	0.404	yaw:	168.270	yaw rate:	2.075	Roll:	-4.860	Pitch:	-3.430	Yaw:	236.860	Thrust:	41.360
Time:	5.400	Roll Set Point:	-0.017	Pitch Set Point:	0.032	Yaw Set Point:	-2.936	X_WP:	0.000	Y_WP:	0.000	Y_WP:	0.500	X:	0.163	Y:	0.066	Z:	0.404	yaw:	168.238	yaw rate:	-3.227	Roll:	-4.756	Pitch:	-3.505	Yaw:	235.926	Thrust:	41.360
Time:	5.415	Roll Set Point:	-0.017	Pitch Set Point:	0.032	Yaw Set Point:	-2.936	X_WP:	0.000	Y_WP:	0.000	Y_WP:	0.500	X:	0.163	Y:	0.066	Z:	0.405	yaw:	168.237	yaw rate:	-0.072	Roll:	-4.798	Pitch:	-3.454	Yaw:	236.454	Thrust:	41.507
Time:	5.431	Roll Set Point:	-0.017	Pitch Set Point:	0.032	Yaw Set Point:	-2.936	X_WP:	0.000	Y_WP:	0.000	Y_WP:	0.500	X:	0.163	Y:	0.066	Z:	0.405	yaw:	168.237	yaw rate:	-0.072	Roll:	-4.810	Pitch:	-3.427	Yaw:	236.466	Thrust:	41.791
Time:	5.447	Roll Set Point:	-0.017	Pitch Set Point:	0.032	Yaw Set Point:	-2.937	X_WP:	0.000	Y_WP:	0.000	Y_WP:	0.500	X:	0.163	Y:	0.066	Z:	0.405	yaw:	168.265	yaw rate:	-2.413	Roll:	-4.875	Pitch:	-3.280	Yaw:	236.977	Thrust:	41.951
Time:	5.462	Roll Set Point:	-0.017	Pitch Set Point:	0.032	Yaw Set Point:	-2.937	X_WP:	0.000	Y_WP:	0.000	Y_WP:	0.500	X:	0.163	Y:	0.066	Z:	0.405	yaw:	168.265	yaw rate:	-2.413	Roll:	-4.812	Pitch:	-3.423	Yaw:	236.505	Thrust:	42.149
Time:	5.478	Roll Set Point:	-0.017	Pitch Set Point:	0.032	Yaw Set Point:	-2.937	X_WP:	0.000	Y_WP:	0.000	Y_WP:	0.500	X:	0.163	Y:	0.066	Z:	0.404	yaw:	168.258	yaw rate:	-0.741	Roll:	-4.780	Pitch:	-3.487	Yaw:	236.371	Thrust:	42.419
Time:	5.494	Roll Set Point:	-0.017	Pitch Set Point:	0.032	Yaw Set Point:	-2.937	X_WP:	0.000	Y_WP:	0.000	Y_WP:	0.500	X:	0.163	Y:	0.066	Z:	0.404	yaw:	168.256	yaw rate:	-2.122	Roll:	-4.830	Pitch:	-3.405	Yaw:	236.465	Thrust:	42.480
Time:	5.509	Roll Set Point:	-0.017	Pitch Set Point:	0.032	Yaw Set Point:	-2.937	X_WP:	0.000	Y_WP:	0.000	Y_WP:	0.500	X:	0.163	Y:	0.066	Z:	0.404	yaw:	168.288	yaw rate:	3.206	Roll:	-4.863	Pitch:	-3.351	Yaw:	237.075	Thrust:	42.827
Time:	5.525	Roll Set Point:	-0.017	Pitch Set Point:	0.032	Yaw Set Point:	-2.937	X_WP:	0.000	Y_WP:	0.000	Y_WP:	0.500	X:	0.163	Y:	0.066	Z:	0.404	yaw:	168.265	yaw rate:	-2.361	Roll:	-4.761	Pitch:	-3.503	Yaw:	236.109	Thrust:	42.799
Time:	5.540	Roll Set Point:	-0.017	Pitch Set Point:	0.032	Yaw Set Point:	-2.937	X_WP:	0.000	Y_WP:	0.000	Y_WP:	0.500	X:	0.163	Y:	0.066	Z:	0.404	yaw:	168.265	yaw rate:	-2.361	Roll:	-4.812	Pitch:	-3.424	Yaw:	236.505	Thrust:	43.046
Time:	5.557	Roll Set Point:	-0.017	Pitch Set Point:	0.032	Yaw Set Point:	-2.936	X_WP:	0.000	Y_WP:	0.000	Y_WP:	0.500	X:	0.163	Y:	0.066	Z:	0.404	yaw:	168.237	yaw rate:	-0.862	Roll:	-4.762	Pitch:	-3.493	Yaw:	236.110	Thrust:	43.270
Time:	5.571	Roll Set Point:	-0.017	Pitch Set Point:	0.032	Yaw Set Point:	-2.937	X_WP:	0.000	Y_WP:	0.000	Y_WP:	0.500	X:	0.163	Y:	0.066	Z:	0.404	yaw:	168.258	yaw rate:	2.085	Roll:	-4.838	Pitch:	-3.374	Yaw:	236.725	Thrust:	41.459
Time:	5.594	Roll Set Point:	-0.017	Pitch Set Point:	0.032	Yaw Set Point:	-2.937	X_WP:	0.000	Y_WP:	0.000	Y_WP:	0.500	X:	0.163	Y:	0.066	Z:	0.404	yaw:	168.257	yaw rate:	0.249	Roll:	-5.056	Pitch:	-3.672	Yaw:	237.189	Thrust:	60.883
Time:	5.609	Roll Set Point:	-0.017	Pitch Set Point:	0.032	Yaw Set Point:	-2.937	X_WP:	0.000	Y_WP:	0.000	Y_WP:	0.500	X:	0.163	Y:	0.066	Z:	0.404	yaw:	168.295	yaw rate:	3.789	Roll:	-4.894	Pitch:	-3.392	Yaw:	237.182	Thrust:	43.929
Time:	5.625	Roll Set Point:	-0.017	Pitch Set Point:	0.032	Yaw Set Point:	-2.937	X_WP:	0.000	Y_WP:	0.000	Y_WP:	0.500	X:	0.163	Y:	0.066	Z:	0.404	yaw:	168.260	yaw rate:	-3.544	Roll:	-4.739	Pitch:	-3.432	Yaw:	235.903	Thrust:	43.866
Time:	5.641	Roll Set Point:	-0.017	Pitch Set Point:	0.032	Yaw Set Point:	-2.937	X_WP:	0.000	Y_WP:	0.000	Y_WP:	0.500	X:	0.163	Y:	0.066	Z:	0.404	yaw:	168.270	yaw rate:	1.005	Roll:	-4.843	Pitch:	-3.381	Yaw:	236.703	Thrust:	44.684
Time:	5.657	Roll Set Point:	-0.017	Pitch Set Point:	0.032	Yaw Set Point:	-2.937	X_WP:	0.000	Y_WP:	0.000	Y_WP:	0.500	X:	0.163	Y:	0.066	Z:	0.404	yaw:	168.266	yaw rate:	-0.339	Roll:	-4.843	Pitch:	-3.537	Yaw:	236.556	Thrust:	47.012
Time:	5.673	Roll Set Point:	-0.017	Pitch Set Point:	0.032	Yaw Set Point:	-2.937	X_WP:	0.000	Y_WP:	0.000	Y_WP:	0.500	X:	0.163	Y:	0.066	Z:	0.405	yaw:	168.267	yaw rate:	0.069	Roll:	-4.814	Pitch:	-3.388	Yaw:	236.519	Thrust:	44.274
Time:	5.689	Roll Set Point:	-0.017	Pitch Set Point:	0.032	Yaw Set Point:	-2.937	X_WP:	0.000	Y_WP:	0.000	Y_WP:	0.500	X:	0.163	Y:	0.066	Z:	0.405	yaw:	168.267	yaw rate:	0.069	Roll:	-4.812	Pitch:	-3.424	Yaw:	236.508	Thrust:	44.658
Time:	5.704	Roll Set Point:	-0.017	Pitch Set Point:	0.032	Yaw Set Point:	-2.937	X_WP:	0.000	Y_WP:	0.000	Y_WP:	0.500	X:	0.163	Y:	0.066	Z:	0.404	yaw:	168.276	yaw rate:	0.901	Roll:	-4.843	Pitch:	-3.407	Yaw:	236.672	Thrust:	44.926
Time:	5.720	Roll Set Point:	-0.017	Pitch Set Point:	0.032	Yaw Set Point:	-2.936	X_WP:	0.000	Y_WP:	0.000	Y_WP:	0.500	X:	0.163	Y:	0.066	Z:	0.404	yaw:	168.247	yaw rate:	-2.844	Roll:	-4.743	Pitch:	-3.456	Yaw:	236.003	Thrust:	44.971
Time:	5.736	Roll Set Point:	-0.017	Pitch Set Point:	0.032	Yaw Set Point:	-2.936	X_WP:	0.000	Y_WP:	0.000	Y_WP:	0.500	X:	0.163	Y:	0.066	Z:	0.404	yaw:	168.247	yaw rate:	-2.844	Roll:	-4.811	Pitch:	-3.424	Yaw:	236.481	Thrust:	45.197
Time:	5.751	Roll Set Point:	-0.017	Pitch Set Point:	0.032	Yaw Set Point:	-2.937	X_WP:	0.000	Y_WP:	0.000	Y_WP:	0.500	X:	0.163	Y:	0.066	Z:	0.404	yaw:	168.271	yaw rate:	2.319	Roll:	-4.869	Pitch:	-3.424	Yaw:	236.901	Thrust:	45.477
Time:	5.767	Roll Set Point:	-0.017	Pitch Set Point:	0.032	Yaw Set Point:	-2.937	X_WP:	0.000	Y_WP:	0.000	Y_WP:	0.500	X:	0.163	Y:	0.066	Z:	0.404	yaw:	168.271	yaw rate:	2.319	Roll:	-4.812	Pitch:	-3.424	Yaw:	236.513	Thrust:	45.557
Time:	5.782	Roll Set Point:	-0.017	Pitch Set Point:	0.032	Yaw Set Point:	-2.937	X_WP:	0.000	Y_WP:	0.000	Y_WP:	0.500	X:	0.163	Y:	0.066	Z:	0.404	yaw:	168.267	yaw rate:	1.426	Roll:	-4.797	Pitch:	-3.419	Yaw:	236.452	Thrust:	45.770
Time:	5.798	Roll Set Point:	-0.017	Pitch Set Point:	0.032	Yaw Set Point:	-2.937	X_WP:	0.000	Y_WP:	0.000	Y_WP:	0.500	X:	0.163	Y:	0.066	Z:	0.404	yaw:	168.267	yaw rate:	-0.079	Roll:	-4.823	Pitch:	-3.421	Yaw:	236.494	Thrust:	45.847
Time:	5.814	Roll Set Point:	-0.017	Pitch Set Point:	0.032	Yaw Set Point:	-2.936	X_WP:	0.000	Y_WP:	0.000	Y_WP:	0.500	X:	0.163	Y:	0.066	Z:	0.405	yaw:	168.239	yaw rate:	-2.791	Roll:	-4.751	Pitch:	-3.492	Yaw:	236.001	Thrust:	45.980
Time:	5.829	Roll Set Point:	-0.017	Pitch Set Point:	0.032	Yaw Set Point:	-2.936	X_WP:	0.000	Y_WP:	0.000	Y_WP:	0.500	X:	0.163	Y:	0.066	Z:	0.405	yaw:	168.239	yaw rate:	-2.791	Roll:	-4.810	Pitch:	-3.426	Yaw:	236.468	Thrust:	46.268
Time:	5.845	Roll Set Point:	-0.017	Pitch Set Point:	0.032	Yaw Set Point:	-2.937	X_WP:	0.000	Y_WP:	0.000	Y_WP:	0.500	X:	0.163	Y:	0.066	Z:	0.404	yaw:	168.269	yaw rate:	0.609	Roll:	-4.861	Pitch:	-3.341	Yaw:	237.016	Thrust:	46.518
Time:	5.861	Roll Set Point:	-0.017	Pitch Set Point:	0.032	Yaw Set Point:	-2.937	X_WP:	0.000	Y_WP:	0.000	Y_WP:	0.500	X:	0.163	Y:	0.066	Z:	0.404	yaw:	168.269	yaw rate:	0.609	Roll:	-4.812	Pitch:	-3.424	Yaw:	236.510	Thrust:	46.628
Time:	5.876	Roll Set Point:	-0.017	Pitch Set Point:	0.032	Yaw Set Point:	-2.937	X_WP:	0.000	Y_WP:	0.000	Y_WP:	0.500	X:	0.163	Y:	0.066	Z:	0.404	yaw:	168.258	yaw rate:	-1.109	Roll:	-4.796	Pitch:	-3.444	Yaw:	236.309	Thrust:	46.849
Time:	5.892	Roll Set Point:	-0.017	Pitch Set Point:	0.032	Yaw Set Point:	-2.937	X_WP:	0.000	Y_WP:	0.000	Y_WP:	0.500	X:	0.163	Y:	0.066	Z:	0.404	yaw:	168.266	yaw rate:	1.268	Roll:	-4.825	Pitch:	-3.480	Yaw:	236.639	Thrust:	47.033
Time:	5.907	Roll Set Point:	-0.017	Pitch Set Point:	0.032	Yaw Set Point:	-2.937	X_WP:	0.000	Y_WP:	0.000	Y_WP:	0.500	X:	0.163	Y:	0.066	Z:	0.404	yaw:	168.266	yaw rate:	1.268	Roll:	-4.812	Pitch:	-3.426	Yaw:	236.506	Thrust:	47.166
Time:	5.923	Roll Set Point:	-0.017	Pitch Set Point:	0.032	Yaw Set Point:	-2.938	X_WP:	0.000	Y_WP:	0.000	Y_WP:	0.500	X:	0.163	Y:	0.066	Z:	0.404	yaw:	168.310	yaw rate:	7.930	Roll:	-4.904	Pitch:	-3.284	Yaw:	237.312	Thrust:	47.409
Time:	5.939	Roll Set Point:	-0.017	Pitch Set Point:	0.032	Yaw Set Point:	-2.937	X_WP:	0.000	Y_WP:	0.000	Y_WP:	0.500	X:	0.163	Y:	0.066	Z:	0.404	yaw:	168.261	yaw rate:	-4.914	Roll:	-4.719	Pitch:	-3.529	Yaw:	235.676	Thrust:	47.356
Time:	5.954	Roll Set Point:	-0.017	Pitch Set Point:	0.032	Yaw Set Point:	-2.936	X_WP:	0.000	Y_WP:	0.000	Y_WP:	0.500	X:	0.163	Y:	0.066	Z:	0.404	yaw:	168.229	yaw rate:	-3.216	Roll:	-4.747	Pitch:	-3.547	Yaw:	235.920	Thrust:	47.867
Time:	5.970	Roll Set Point:	-0.017	Pitch Set Point:	0.032	Yaw Set Point:	-2.936	X_WP:	0.000	Y_WP:	0.000	Y_WP:	0.500	X:	0.163	Y:	0.066	Z:	0.404	yaw:	168.229	yaw rate:	-3.216	Roll:	-4.809	Pitch:	-3.427	Yaw:	236.451	Thrust:	47.801
Time:	5.986	Roll Set Point:	-0.017	Pitch Set Point:	0.032	Yaw Set Point:	-2.937	X_WP:	0.000	Y_WP:	0.000	Y_WP:	0.500	X:	0.163	Y:	0.066	Z:	0.404	yaw:	168.263	yaw rate:	3.480	Roll:	-4.865	Pitch:	-3.245	Yaw:	237.074	Thrust:	48.097
Time:	6.001	Roll Set Point:	-0.162	Pitch Set Point:	-0.129	Yaw Set Point:	-2.937	X_WP:	0.175	Y_WP:	0.127	Y_WP:	0.500	X:	0.163	Y:	0.066	Z:	0.404	yaw:	168.263	yaw rate:	3.480	Roll:	30.000	Pitch:	30.000	Yaw:	236.499	Thrust:	48.172
Time:	6.017	Roll Set Point:	-0.162	Pitch Set Point:	-0.129	Yaw Set Point:	-2.937	X_WP:	0.175	Y_WP:	0.127	Y_WP:	0.500	X:	0.163	Y:	0.066	Z:	0.404	yaw:	168.284	yaw rate:	2.111	Roll:	-0.589	Pitch:	1.223	Yaw:	236.887	Thrust:	48.566
Time:	6.032	Roll Set Point:	-0.162	Pitch Set Point:	-0.129	Yaw Set Point:	-2.936	X_WP:	0.175	Y_WP:	0.127	Y_WP:	0.500	X:	0.163	Y:	0.066	Z:	0.405	yaw:	168.217	yaw rate:	-3.032	Roll:	-0.669	Pitch:	1.227	Yaw:	235.324	Thrust:	48.418
Time:	6.048	Roll Set Point:	-0.162	Pitch Set Point:	-0.129	Yaw Set Point:	-2.937	X_WP:	0.175	Y_WP:	0.127	Y_WP:	0.500	X:	0.163	Y:	0.066	Z:	0.404	yaw:	168.292	yaw rate:	7.420	Roll:	-0.507	Pitch:	1.235	Yaw:	237.785	Thrust:	48.980
Time:	6.064	Roll Set Point:	-0.162	Pitch Set Point:	-0.129	Yaw Set Point:	-2.937	X_WP:	0.175	Y_WP:	0.127	Y_WP:	0.500	X:	0.163	Y:	0.066	Z:	0.404	yaw:	168.274	yaw rate:	-1.802	Roll:	-0.609	Pitch:	1.230	Yaw:	236.217	Thrust:	48.934
Time:	6.079	Roll Set Point:	-0.162	Pitch Set Point:	-0.129	Yaw Set Point:	-2.937	X_WP:	0.175	Y_WP:	0.127	Y_WP:	0.500	X:	0.163	Y:	0.066	Z:	0.404	yaw:	168.274	yaw rate:	-1.802	Roll:	-0.596	Pitch:	1.235	Yaw:	236.517	Thrust:	49.154
Time:	6.095	Roll Set Point:	-0.162	Pitch Set Point:	-0.129	Yaw Set Point:	-2.936	X_WP:	0.175	Y_WP:	0.127	Y_WP:	0.500	X:	0.163	Y:	0.066	Z:	0.404	yaw:	168.243	yaw rate:	-1.508	Roll:	-0.656	Pitch:	1.238	Yaw:	235.958	Thrust:	49.257
Time:	6.111	Roll Set Point:	-0.162	Pitch Set Point:	-0.129	Yaw Set Point:	-2.937	X_WP:	0.175	Y_WP:	0.127	Y_WP:	0.500	X:	0.163	Y:	0.066	Z:	0.405	yaw:	168.276	yaw rate:	3.262	Roll:	-0.522	Pitch:	1.235	Yaw:	237.066	Thrust:	49.310
Time:	6.126	Roll Set Point:	-0.162	Pitch Set Point:	-0.129	Yaw Set Point:	-2.937	X_WP:	0.175	Y_WP:	0.127	Y_WP:	0.500	X:	0.163	Y:	0.066	Z:	0.405	yaw:	168.276	yaw rate:	3.262	Roll:	-0.595	Pitch:	1.242	Yaw:	236.520	Thrust:	49.675
Time:	6.142	Roll Set Point:	-0.162	Pitch Set Point:	-0.129	Yaw Set Point:	-2.937	X_WP:	0.175	Y_WP:	0.127	Y_WP:	0.500	X:	0.163	Y:	0.066	Z:	0.404	yaw:	168.259	yaw rate:	-1.681	Roll:	-0.643	Pitch:	1.247	Yaw:	236.215	Thrust:	50.017
Time:	6.157	Roll Set Point:	-0.162	Pitch Set Point:	-0.129	Yaw Set Point:	-2.937	X_WP:	0.175	Y_WP:	0.127	Y_WP:	0.500	X:	0.163	Y:	0.066	Z:	0.404	yaw:	168.259	yaw rate:	-1.681	Roll:	-0.597	Pitch:	1.246	Yaw:	236.499	Thrust:	50.120
Time:	6.173	Roll Set Point:	-0.162	Pitch Set Point:	-0.129	Yaw Set Point:	-2.937	X_WP:	0.175	Y_WP:	0.127	Y_WP:	0.500	X:	0.163	Y:	0.066	Z:	0.404	yaw:	168.275	yaw rate:	3.079	Roll:	-0.561	Pitch:	1.254	Yaw:	236.792	Thrust:	50.073
Time:	6.189	Roll Set Point:	-0.162	Pitch Set Point:	-0.129	Yaw Set Point:	-2.937	X_WP:	0.175	Y_WP:	0.127	Y_WP:	0.500	X:	0.163	Y:	0.066	Z:	0.404	yaw:	168.305	yaw rate:	2.960	Roll:	-0.572	Pitch:	1.252	Yaw:	237.057	Thrust:	50.460
Time:	6.204	Roll Set Point:	-0.162	Pitch Set Point:	-0.129	Yaw Set Point:	-2.937	X_WP:	0.175	Y_WP:	0.127	Y_WP:	0.500	X:	0.163	Y:	0.066	Z:	0.404	yaw:	168.305	yaw rate:	2.960	Roll:	-0.587	Pitch:	1.254	Yaw:	236.564	Thrust:	50.666
Time:	6.220	Roll Set Point:	-0.162	Pitch Set Point:	-0.129	Yaw Set Point:	-2.936	X_WP:	0.175	Y_WP:	0.127	Y_WP:	0.500	X:	0.163	Y:	0.066	Z:	0.404	yaw:	168.248	yaw rate:	-5.661	Roll:	-0.653	Pitch:	1.256	Yaw:	235.531	Thrust:	50.569
Time:	6.236	Roll Set Point:	-0.162	Pitch Set Point:	-0.129	Yaw Set Point:	-2.937	X_WP:	0.175	Y_WP:	0.127	Y_WP:	0.500	X:	0.163	Y:	0.066	Z:	0.404	yaw:	168.281	yaw rate:	5.855	Roll:	-0.563	Pitch:	1.262	Yaw:	237.080	Thrust:	50.970
Time:	6.251	Roll Set Point:	-0.162	Pitch Set Point:	-0.129	Yaw Set Point:	-2.937	X_WP:	0.175	Y_WP:	0.127	Y_WP:	0.500	X:	0.163	Y:	0.066	Z:	0.404	yaw:	168.281	yaw rate:	5.855	Roll:	-0.598	Pitch:	1.262	Yaw:	236.528	Thrust:	51.110
Time:	6.267	Roll Set Point:	-0.162	Pitch Set Point:	-0.129	Yaw Set Point:	-2.937	X_WP:	0.175	Y_WP:	0.127	Y_WP:	0.500	X:	0.163	Y:	0.066	Z:	0.405	yaw:	168.251	yaw rate:	-5.160	Roll:	-0.620	Pitch:	1.265	Yaw:	235.973	Thrust:	51.085
Time:	6.282	Roll Set Point:	-0.162	Pitch Set Point:	-0.129	Yaw Set Point:	-2.937	X_WP:	0.175	Y_WP:	0.127	Y_WP:	0.500	X:	0.163	Y:	0.066	Z:	0.404	yaw:	168.283	yaw rate:	3.181	Roll:	-0.596	Pitch:	1.259	Yaw:	237.062	Thrust:	51.771
Time:	6.298	Roll Set Point:	-0.162	Pitch Set Point:	-0.129	Yaw Set Point:	-2.937	X_WP:	0.175	Y_WP:	0.127	Y_WP:	0.500	X:	0.163	Y:	0.066	Z:	0.405	yaw:	168.257	yaw rate:	-2.580	Roll:	-0.590	Pitch:	1.270	Yaw:	236.061	Thrust:	51.383
Time:	6.314	Roll Set Point:	-0.162	Pitch Set Point:	-0.129	Yaw Set Point:	-2.937	X_WP:	0.175	Y_WP:	0.127	Y_WP:	0.500	X:	0.163	Y:	0.066	Z:	0.404	yaw:	168.278	yaw rate:	2.164	Roll:	-0.578	Pitch:	1.277	Yaw:	236.886	Thrust:	51.944
Time:	6.329	Roll Set Point:	-0.162	Pitch Set Point:	-0.129	Yaw Set Point:	-2.937	X_WP:	0.175	Y_WP:	0.127	Y_WP:	0.500	X:	0.163	Y:	0.066	Z:	0.404	yaw:	168.250	yaw rate:	-2.796	Roll:	-0.644	Pitch:	1.274	Yaw:	236.016	Thrust:	52.014
Time:	6.345	Roll Set Point:	-0.162	Pitch Set Point:	-0.129	Yaw Set Point:	-2.936	X_WP:	0.175	Y_WP:	0.127	Y_WP:	0.500	X:	0.163	Y:	0.066	Z:	0.404	yaw:	168.240	yaw rate:	-0.997	Roll:	-0.603	Pitch:	1.277	Yaw:	236.307	Thrust:	52.238
