Time:	2.147	Roll Set Point:	-0.017	Pitch Set Point:	0.032	Yaw Set Point:	-2.937	X_WP:	0.000	Y_WP:	0.000	Y_WP:	0.500	X:	0.163	Y:	0.066	Z:	0.404	yaw:	168.261	yaw rate:	-1.815	Roll:	-4.225	Pitch:	-2.839	Yaw:	234.937	Thrust:	5.254
Time:	2.163	Roll Set Point:	-0.017	Pitch Set Point:	0.032	Yaw Set Point:	-2.937	X_WP:	0.000	Y_WP:	0.000	Y_WP:	0.500	X:	0.163	Y:	0.066	Z:	0.404	yaw:	168.282	yaw rate:	2.050	Roll:	-4.286	Pitch:	-2.749	Yaw:	236.227	Thrust:	5.379
Time:	2.178	Roll Set Point:	-0.017	Pitch Set Point:	0.032	Yaw Set Point:	-2.937	X_WP:	0.000	Y_WP:	0.000	Y_WP:	0.500	X:	0.163	Y:	0.066	Z:	0.404	yaw:	168.300	yaw rate:	1.809	Roll:	-4.253	Pitch:	-2.790	Yaw:	236.857	Thrust:	5.666
Time:	2.194	Roll Set Point:	-0.017	Pitch Set Point:	0.032	Yaw Set Point:	-2.937	X_WP:	0.000	Y_WP:	0.000	Y_WP:	0.500	X:	0.163	Y:	0.066	Z:	0.404	yaw:	168.303	yaw rate:	0.281	Roll:	-4.254	Pitch:	-2.858	Yaw:	236.604	Thrust:	5.793
Time:	2.209	Roll Set Point:	-0.017	Pitch Set Point:	0.032	Yaw Set Point:	-2.937	X_WP:	0.000	Y_WP:	0.000	Y_WP:	0.500	X:	0.163	Y:	0.066	Z:	0.404	yaw:	168.270	yaw rate:	-3.228	Roll:	-4.191	Pitch:	-2.917	Yaw:	235.971	Thrust:	5.983
Time:	2.225	Roll Set Point:	-0.017	Pitch Set Point:	0.032	Yaw Set Point:	-2.937	X_WP:	0.000	Y_WP:	0.000	Y_WP:	0.500	X:	0.163	Y:	0.066	Z:	0.404	yaw:	168.270	yaw rate:	-3.228	Roll:	-4.254	Pitch:	-2.856	Yaw:	236.512	Thrust:	6.150
Time:	2.241	Roll Set Point:	-0.017	Pitch Set Point:	0.032	Yaw Set Point:	-2.937	X_WP:	0.000	Y_WP:	0.000	Y_WP:	0.500	X:	0.163	Y:	0.066	Z:	0.404	yaw:	168.277	yaw rate:	0.692	Roll:	-4.276	Pitch:	-2.873	Yaw:	236.638	Thrust:	6.330
Time:	2.256	Roll Set Point:	-0.017	Pitch Set Point:	0.032	Yaw Set Point:	-2.936	X_WP:	0.000	Y_WP:	0.000	Y_WP:	0.500	X:	0.163	Y:	0.066	Z:	0.404	yaw:	168.237	yaw rate:	-2.973	Roll:	-4.191	Pitch:	-2.970	Yaw:	235.794	Thrust:	6.446
Time:	2.272	Roll Set Point:	-0.017	Pitch Set Point:	0.032	Yaw Set Point:	-2.937	X_WP:	0.000	Y_WP:	0.000	Y_WP:	0.500	X:	0.163	Y:	0.066	Z:	0.404	yaw:	168.282	yaw rate:	4.457	Roll:	-4.354	Pitch:	-2.759	Yaw:	237.275	Thrust:	6.802
Time:	2.288	Roll Set Point:	-0.017	Pitch Set Point:	0.032	Yaw Set Point:	-2.937	X_WP:	0.000	Y_WP:	0.000	Y_WP:	0.500	X:	0.163	Y:	0.066	Z:	0.404	yaw:	168.255	yaw rate:	-2.621	Roll:	-4.238	Pitch:	-2.879	Yaw:	236.052	Thrust:	6.739
Time:	2.303	Roll Set Point:	-0.017	Pitch Set Point:	0.032	Yaw Set Point:	-2.937	X_WP:	0.000	Y_WP:	0.000	Y_WP:	0.500	X:	0.163	Y:	0.066	Z:	0.404	yaw:	168.297	yaw rate:	4.125	Roll:	-4.347	Pitch:	-2.806	Yaw:	237.242	Thrust:	7.121
Time:	2.319	Roll Set Point:	-0.017	Pitch Set Point:	0.032	Yaw Set Point:	-2.937	X_WP:	0.000	Y_WP:	0.000	Y_WP:	0.500	X:	0.163	Y:	0.066	Z:	0.404	yaw:	168.269	yaw rate:	-2.792	Roll:	-4.252	Pitch:	-2.972	Yaw:	236.043	Thrust:	7.194
Time:	2.335	Roll Set Point:	-0.017	Pitch Set Point:	0.032	Yaw Set Point:	-2.936	X_WP:	0.000	Y_WP:	0.000	Y_WP:	0.500	X:	0.163	Y:	0.066	Z:	0.404	yaw:	168.238	yaw rate:	-3.126	Roll:	-4.222	Pitch:	-2.965	Yaw:	235.946	Thrust:	7.380
Time:	2.350	Roll Set Point:	-0.017	Pitch Set Point:	0.032	Yaw Set Point:	-2.937	X_WP:	0.000	Y_WP:	0.000	Y_WP:	0.500	X:	0.163	Y:	0.066	Z:	0.404	yaw:	168.251	yaw rate:	1.380	Roll:	-4.319	Pitch:	-2.809	Yaw:	236.717	Thrust:	7.627
Time:	2.366	Roll Set Point:	-0.017	Pitch Set Point:	0.032	Yaw Set Point:	-2.937	X_WP:	0.000	Y_WP:	0.000	Y_WP:	0.500	X:	0.163	Y:	0.066	Z:	0.404	yaw:	168.300	yaw rate:	4.856	Roll:	-4.402	Pitch:	-2.805	Yaw:	237.364	Thrust:	7.776
Time:	2.381	Roll Set Point:	-0.017	Pitch Set Point:	0.032	Yaw Set Point:	-2.937	X_WP:	0.000	Y_WP:	0.000	Y_WP:	0.500	X:	0.163	Y:	0.066	Z:	0.404	yaw:	168.300	yaw rate:	4.856	Roll:	-4.312	Pitch:	-2.893	Yaw:	236.554	Thrust:	7.941
Time:	2.413	Roll Set Point:	-0.017	Pitch Set Point:	0.032	Yaw Set Point:	-2.936	X_WP:	0.000	Y_WP:	0.000	Y_WP:	0.500	X:	0.163	Y:	0.066	Z:	0.404	yaw:	168.245	yaw rate:	-2.627	Roll:	-4.353	Pitch:	-3.025	Yaw:	237.614	Thrust:	11.049
Time:	2.429	Roll Set Point:	-0.017	Pitch Set Point:	0.032	Yaw Set Point:	-2.936	X_WP:	0.000	Y_WP:	0.000	Y_WP:	0.500	X:	0.163	Y:	0.066	Z:	0.404	yaw:	168.241	yaw rate:	-0.402	Roll:	-4.322	Pitch:	-2.928	Yaw:	236.404	Thrust:	8.293
Time:	2.444	Roll Set Point:	-0.017	Pitch Set Point:	0.032	Yaw Set Point:	-2.937	X_WP:	0.000	Y_WP:	0.000	Y_WP:	0.500	X:	0.163	Y:	0.066	Z:	0.404	yaw:	168.266	yaw rate:	-2.040	Roll:	-4.381	Pitch:	-2.839	Yaw:	236.919	Thrust:	8.449
Time:	2.460	Roll Set Point:	-0.017	Pitch Set Point:	0.032	Yaw Set Point:	-2.937	X_WP:	0.000	Y_WP:	0.000	Y_WP:	0.500	X:	0.163	Y:	0.066	Z:	0.404	yaw:	168.266	yaw rate:	-2.040	Roll:	-4.334	Pitch:	-2.911	Yaw:	236.506	Thrust:	8.658
Time:	2.475	Roll Set Point:	-0.017	Pitch Set Point:	0.032	Yaw Set Point:	-2.937	X_WP:	0.000	Y_WP:	0.000	Y_WP:	0.500	X:	0.163	Y:	0.066	Z:	0.404	yaw:	168.294	yaw rate:	3.744	Roll:	-4.396	Pitch:	-2.833	Yaw:	237.015	Thrust:	8.779
Time:	2.491	Roll Set Point:	-0.017	Pitch Set Point:	0.032	Yaw Set Point:	-2.937	X_WP:	0.000	Y_WP:	0.000	Y_WP:	0.500	X:	0.163	Y:	0.066	Z:	0.404	yaw:	168.253	yaw rate:	-4.016	Roll:	-4.261	Pitch:	-3.023	Yaw:	235.816	Thrust:	9.099
Time:	2.507	Roll Set Point:	-0.016	Pitch Set Point:	0.031	Yaw Set Point:	-2.943	X_WP:	0.000	Y_WP:	0.000	Y_WP:	0.500	X:	0.162	Y:	0.066	Z:	0.404	yaw:	168.647	yaw rate:	39.368	Roll:	-4.978	Pitch:	-1.845	Yaw:	243.635	Thrust:	9.487
Time:	2.522	Roll Set Point:	-0.017	Pitch Set Point:	0.032	Yaw Set Point:	-2.937	X_WP:	0.000	Y_WP:	0.000	Y_WP:	0.500	X:	0.163	Y:	0.066	Z:	0.404	yaw:	168.257	yaw rate:	-38.994	Roll:	-3.751	Pitch:	-3.952	Yaw:	229.961	Thrust:	9.061
Time:	2.538	Roll Set Point:	-0.017	Pitch Set Point:	0.032	Yaw Set Point:	-2.937	X_WP:	0.000	Y_WP:	0.000	Y_WP:	0.500	X:	0.163	Y:	0.066	Z:	0.404	yaw:	168.287	yaw rate:	2.991	Roll:	-4.425	Pitch:	-2.895	Yaw:	237.037	Thrust:	9.656
Time:	2.554	Roll Set Point:	-0.017	Pitch Set Point:	0.032	Yaw Set Point:	-2.937	X_WP:	0.000	Y_WP:	0.000	Y_WP:	0.500	X:	0.163	Y:	0.066	Z:	0.405	yaw:	168.266	yaw rate:	-2.114	Roll:	-4.321	Pitch:	-2.923	Yaw:	236.153	Thrust:	9.500
Time:	2.569	Roll Set Point:	-0.017	Pitch Set Point:	0.032	Yaw Set Point:	-2.937	X_WP:	0.000	Y_WP:	0.000	Y_WP:	0.500	X:	0.163	Y:	0.066	Z:	0.404	yaw:	168.288	yaw rate:	2.168	Roll:	-4.402	Pitch:	-2.950	Yaw:	236.899	Thrust:	10.121
Time:	2.585	Roll Set Point:	-0.017	Pitch Set Point:	0.032	Yaw Set Point:	-2.937	X_WP:	0.000	Y_WP:	0.000	Y_WP:	0.500	X:	0.163	Y:	0.066	Z:	0.404	yaw:	168.249	yaw rate:	-3.821	Roll:	-4.318	Pitch:	-3.004	Yaw:	235.843	Thrust:	10.033
Time:	2.600	Roll Set Point:	-0.017	Pitch Set Point:	0.032	Yaw Set Point:	-2.936	X_WP:	0.000	Y_WP:	0.000	Y_WP:	0.500	X:	0.163	Y:	0.066	Z:	0.404	yaw:	168.237	yaw rate:	-1.198	Roll:	-4.358	Pitch:	-2.967	Yaw:	236.265	Thrust:	10.241
Time:	2.616	Roll Set Point:	-0.017	Pitch Set Point:	0.032	Yaw Set Point:	-2.937	X_WP:	0.000	Y_WP:	0.000	Y_WP:	0.500	X:	0.163	Y:	0.066	Z:	0.404	yaw:	168.298	yaw rate:	6.099	Roll:	-4.519	Pitch:	-2.799	Yaw:	237.573	Thrust:	10.484
Time:	2.632	Roll Set Point:	-0.017	Pitch Set Point:	0.032	Yaw Set Point:	-2.937	X_WP:	0.000	Y_WP:	0.000	Y_WP:	0.500	X:	0.163	Y:	0.066	Z:	0.404	yaw:	168.298	yaw rate:	6.099	Roll:	-4.398	Pitch:	-2.950	Yaw:	236.552	Thrust:	10.629
Time:	2.647	Roll Set Point:	-0.017	Pitch Set Point:	0.032	Yaw Set Point:	-2.937	X_WP:	0.000	Y_WP:	0.000	Y_WP:	0.500	X:	0.163	Y:	0.066	Z:	0.404	yaw:	168.273	yaw rate:	-2.565	Roll:	-4.317	Pitch:	-3.005	Yaw:	236.086	Thrust:	10.756
Time:	2.663	Roll Set Point:	-0.017	Pitch Set Point:	0.032	Yaw Set Point:	-2.936	X_WP:	0.000	Y_WP:	0.000	Y_WP:	0.500	X:	0.163	Y:	0.066	Z:	0.405	yaw:	168.245	yaw rate:	-2.827	Roll:	-4.377	Pitch:	-3.045	Yaw:	236.007	Thrust:	10.920
Time:	2.679	Roll Set Point:	-0.017	Pitch Set Point:	0.032	Yaw Set Point:	-2.937	X_WP:	0.000	Y_WP:	0.000	Y_WP:	0.500	X:	0.163	Y:	0.066	Z:	0.404	yaw:	168.299	yaw rate:	5.441	Roll:	-4.519	Pitch:	-2.871	Yaw:	237.463	Thrust:	11.396
Time:	2.694	Roll Set Point:	-0.017	Pitch Set Point:	0.032	Yaw Set Point:	-2.937	X_WP:	0.000	Y_WP:	0.000	Y_WP:	0.500	X:	0.163	Y:	0.066	Z:	0.404	yaw:	168.299	yaw rate:	5.441	Roll:	-4.420	Pitch:	-2.967	Yaw:	236.552	Thrust:	11.347
Time:	2.710	Roll Set Point:	-0.017	Pitch Set Point:	0.032	Yaw Set Point:	-2.937	X_WP:	0.000	Y_WP:	0.000	Y_WP:	0.500	X:	0.163	Y:	0.066	Z:	0.405	yaw:	168.280	yaw rate:	-1.925	Roll:	-4.374	Pitch:	-2.951	Yaw:	236.203	Thrust:	11.285
Time:	2.726	Roll Set Point:	-0.017	Pitch Set Point:	0.032	Yaw Set Point:	-2.937	X_WP:	0.000	Y_WP:	0.000	Y_WP:	0.500	X:	0.163	Y:	0.066	Z:	0.404	yaw:	168.292	yaw rate:	1.203	Roll:	-4.478	Pitch:	-3.008	Yaw:	236.747	Thrust:	11.831
Time:	2.741	Roll Set Point:	-0.017	Pitch Set Point:	0.032	Yaw Set Point:	-2.937	X_WP:	0.000	Y_WP:	0.000	Y_WP:	0.500	X:	0.163	Y:	0.066	Z:	0.404	yaw:	168.255	yaw rate:	0.571	Roll:	-4.364	Pitch:	-3.050	Yaw:	235.877	Thrust:	11.906
Time:	2.757	Roll Set Point:	-0.017	Pitch Set Point:	0.032	Yaw Set Point:	-2.937	X_WP:	0.000	Y_WP:	0.000	Y_WP:	0.500	X:	0.163	Y:	0.066	Z:	0.404	yaw:	168.271	yaw rate:	1.682	Roll:	-4.458	Pitch:	-2.974	Yaw:	236.788	Thrust:	11.969
Time:	2.772	Roll Set Point:	-0.017	Pitch Set Point:	0.032	Yaw Set Point:	-2.937	X_WP:	0.000	Y_WP:	0.000	Y_WP:	0.500	X:	0.163	Y:	0.066	Z:	0.404	yaw:	168.282	yaw rate:	1.105	Roll:	-4.475	Pitch:	-2.933	Yaw:	236.714	Thrust:	12.275
Time:	2.788	Roll Set Point:	-0.017	Pitch Set Point:	0.032	Yaw Set Point:	-2.937	X_WP:	0.000	Y_WP:	0.000	Y_WP:	0.500	X:	0.163	Y:	0.066	Z:	0.405	yaw:	168.253	yaw rate:	-2.988	Roll:	-4.410	Pitch:	-3.002	Yaw:	235.991	Thrust:	12.321
Time:	2.804	Roll Set Point:	-0.017	Pitch Set Point:	0.032	Yaw Set Point:	-2.938	X_WP:	0.000	Y_WP:	0.000	Y_WP:	0.500	X:	0.163	Y:	0.066	Z:	0.404	yaw:	168.318	yaw rate:	6.563	Roll:	-4.586	Pitch:	-2.919	Yaw:	237.678	Thrust:	12.863
Time:	2.819	Roll Set Point:	-0.017	Pitch Set Point:	0.032	Yaw Set Point:	-2.936	X_WP:	0.000	Y_WP:	0.000	Y_WP:	0.500	X:	0.163	Y:	0.066	Z:	0.405	yaw:	168.249	yaw rate:	-6.937	Roll:	-4.333	Pitch:	-3.134	Yaw:	235.326	Thrust:	12.464
Time:	2.835	Roll Set Point:	-0.017	Pitch Set Point:	0.032	Yaw Set Point:	-2.936	X_WP:	0.000	Y_WP:	0.000	Y_WP:	0.500	X:	0.163	Y:	0.066	Z:	0.405	yaw:	168.249	yaw rate:	-6.937	Roll:	-4.469	Pitch:	-3.003	Yaw:	236.479	Thrust:	12.938
Time:	2.851	Roll Set Point:	-0.017	Pitch Set Point:	0.032	Yaw Set Point:	-2.937	X_WP:	0.000	Y_WP:	0.000	Y_WP:	0.500	X:	0.163	Y:	0.066	Z:	0.404	yaw:	168.284	yaw rate:	3.559	Roll:	-4.543	Pitch:	-2.951	Yaw:	237.130	Thrust:	13.300
Time:	2.866	Roll Set Point:	-0.016	Pitch Set Point:	0.031	Yaw Set Point:	-2.943	X_WP:	0.000	Y_WP:	0.000	Y_WP:	0.500	X:	0.162	Y:	0.066	Z:	0.404	yaw:	168.641	yaw rate:	35.687	Roll:	-5.035	Pitch:	-1.987	Yaw:	243.018	Thrust:	13.722
Time:	2.882	Roll Set Point:	-0.017	Pitch Set Point:	0.032	Yaw Set Point:	-2.937	X_WP:	0.000	Y_WP:	0.000	Y_WP:	0.500	X:	0.163	Y:	0.066	Z:	0.404	yaw:	168.282	yaw rate:	-0.656	Roll:	-3.939	Pitch:	-3.992	Yaw:	230.515	Thrust:	13.071
Time:	2.897	Roll Set Point:	-0.017	Pitch Set Point:	0.032	Yaw Set Point:	-2.937	X_WP:	0.000	Y_WP:	0.000	Y_WP:	0.500	X:	0.163	Y:	0.066	Z:	0.404	yaw:	168.249	yaw rate:	-3.308	Roll:	-4.422	Pitch:	-3.126	Yaw:	235.929	Thrust:	13.662
Time:	2.913	Roll Set Point:	-0.017	Pitch Set Point:	0.032	Yaw Set Point:	-2.937	X_WP:	0.000	Y_WP:	0.000	Y_WP:	0.500	X:	0.163	Y:	0.066	Z:	0.405	yaw:	168.252	yaw rate:	0.304	Roll:	-4.514	Pitch:	-2.967	Yaw:	236.538	Thrust:	13.799
Time:	2.929	Roll Set Point:	-0.017	Pitch Set Point:	0.032	Yaw Set Point:	-2.937	X_WP:	0.000	Y_WP:	0.000	Y_WP:	0.500	X:	0.163	Y:	0.066	Z:	0.405	yaw:	168.252	yaw rate:	0.304	Roll:	-4.504	Pitch:	-3.026	Yaw:	236.487	Thrust:	14.031
Time:	2.944	Roll Set Point:	-0.017	Pitch Set Point:	0.032	Yaw Set Point:	-2.937	X_WP:	0.000	Y_WP:	0.000	Y_WP:	0.500	X:	0.163	Y:	0.066	Z:	0.404	yaw:	168.277	yaw rate:	2.520	Roll:	-4.544	Pitch:	-2.955	Yaw:	236.945	Thrust:	14.329
Time:	2.960	Roll Set Point:	-0.017	Pitch Set Point:	0.032	Yaw Set Point:	-2.937	X_WP:	0.000	Y_WP:	0.000	Y_WP:	0.500	X:	0.163	Y:	0.066	Z:	0.404	yaw:	168.267	yaw rate:	-1.085	Roll:	-4.500	Pitch:	-3.084	Yaw:	236.329	Thrust:	14.348
Time:	2.976	Roll Set Point:	-0.017	Pitch Set Point:	0.032	Yaw Set Point:	-2.937	X_WP:	0.000	Y_WP:	0.000	Y_WP:	0.500	X:	0.163	Y:	0.066	Z:	0.404	yaw:	168.267	yaw rate:	-1.085	Roll:	-4.521	Pitch:	-3.036	Yaw:	236.504	Thrust:	14.549
Time:	2.991	Roll Set Point:	-0.017	Pitch Set Point:	0.032	Yaw Set Point:	-2.937	X_WP:	0.000	Y_WP:	0.000	Y_WP:	0.500	X:	0.163	Y:	0.066	Z:	0.404	yaw:	168.279	yaw rate:	1.286	Roll:	-4.550	Pitch:	-3.008	Yaw:	236.741	Thrust:	14.816
Time:	3.007	Roll Set Point:	-0.017	Pitch Set Point:	0.032	Yaw Set Point:	-2.937	X_WP:	0.000	Y_WP:	0.000	Y_WP:	0.500	X:	0.163	Y:	0.066	Z:	0.404	yaw:	168.279	yaw rate:	1.286	Roll:	-4.533	Pitch:	-3.044	Yaw:	236.525	Thrust:	14.927
Time:	3.022	Roll Set Point:	-0.017	Pitch Set Point:	0.032	Yaw Set Point:	-2.937	X_WP:	0.000	Y_WP:	0.000	Y_WP:	0.500	X:	0.163	Y:	0.066	Z:	0.404	yaw:	168.257	yaw rate:	-3.529	Roll:	-4.504	Pitch:	-3.116	Yaw:	236.109	Thrust:	15.023
Time:	3.038	Roll Set Point:	-0.017	Pitch Set Point:	0.032	Yaw Set Point:	-2.937	X_WP:	0.000	Y_WP:	0.000	Y_WP:	0.500	X:	0.163	Y:	0.066	Z:	0.404	yaw:	168.266	yaw rate:	0.990	Roll:	-4.553	Pitch:	-3.022	Yaw:	236.673	Thrust:	15.264
Time:	3.054	Roll Set Point:	-0.017	Pitch Set Point:	0.032	Yaw Set Point:	-2.937	X_WP:	0.000	Y_WP:	0.000	Y_WP:	0.500	X:	0.163	Y:	0.066	Z:	0.404	yaw:	168.262	yaw rate:	-0.445	Roll:	-4.548	Pitch:	-3.050	Yaw:	236.430	Thrust:	15.570
Time:	3.069	Roll Set Point:	-0.017	Pitch Set Point:	0.032	Yaw Set Point:	-2.937	X_WP:	0.000	Y_WP:	0.000	Y_WP:	0.500	X:	0.163	Y:	0.066	Z:	0.404	yaw:	168.278	yaw rate:	1.571	Roll:	-4.599	Pitch:	-3.027	Yaw:	236.783	Thrust:	15.619
Time:	3.085	Roll Set Point:	-0.017	Pitch Set Point:	0.032	Yaw Set Point:	-2.937	X_WP:	0.000	Y_WP:	0.000	Y_WP:	0.500	X:	0.163	Y:	0.066	Z:	0.404	yaw:	168.264	yaw rate:	-1.329	Roll:	-4.516	Pitch:	-3.094	Yaw:	236.282	Thrust:	15.776
Time:	3.101	Roll Set Point:	-0.017	Pitch Set Point:	0.032	Yaw Set Point:	-2.937	X_WP:	0.000	Y_WP:	0.000	Y_WP:	0.500	X:	0.163	Y:	0.066	Z:	0.404	yaw:	168.264	yaw rate:	-1.329	Roll:	-4.567	Pitch:	-3.068	Yaw:	236.507	Thrust:	16.024
Time:	3.116	Roll Set Point:	-0.017	Pitch Set Point:	0.032	Yaw Set Point:	-2.937	X_WP:	0.000	Y_WP:	0.000	Y_WP:	0.500	X:	0.163	Y:	0.066	Z:	0.404	yaw:	168.273	yaw rate:	0.876	Roll:	-4.594	Pitch:	-3.083	Yaw:	236.660	Thrust:	16.321
Time:	3.132	Roll Set Point:	-0.017	Pitch Set Point:	0.032	Yaw Set Point:	-2.937	X_WP:	0.000	Y_WP:	0.000	Y_WP:	0.500	X:	0.163	Y:	0.066	Z:	0.404	yaw:	168.273	yaw rate:	0.876	Roll:	-4.579	Pitch:	-3.075	Yaw:	236.516	Thrust:	16.363
Time:	3.147	Roll Set Point:	-0.017	Pitch Set Point:	0.032	Yaw Set Point:	-2.937	X_WP:	0.000	Y_WP:	0.000	Y_WP:	0.500	X:	0.163	Y:	0.066	Z:	0.404	yaw:	168.292	yaw rate:	2.869	Roll:	-4.614	Pitch:	-3.020	Yaw:	236.854	Thrust:	16.428
Time:	3.163	Roll Set Point:	-0.017	Pitch Set Point:	0.032	Yaw Set Point:	-2.937	X_WP:	0.000	Y_WP:	0.000	Y_WP:	0.500	X:	0.163	Y:	0.066	Z:	0.404	yaw:	168.292	yaw rate:	2.869	Roll:	-4.591	Pitch:	-3.081	Yaw:	236.542	Thrust:	16.719
Time:	3.179	Roll Set Point:	-0.017	Pitch Set Point:	0.032	Yaw Set Point:	-2.937	X_WP:	0.000	Y_WP:	0.000	Y_WP:	0.500	X:	0.163	Y:	0.066	Z:	0.404	yaw:	168.294	yaw rate:	0.176	Roll:	-4.601	Pitch:	-3.050	Yaw:	236.574	Thrust:	16.833
Time:	3.194	Roll Set Point:	-0.017	Pitch Set Point:	0.032	Yaw Set Point:	-2.937	X_WP:	0.000	Y_WP:	0.000	Y_WP:	0.500	X:	0.163	Y:	0.066	Z:	0.404	yaw:	168.294	yaw rate:	0.176	Roll:	-4.602	Pitch:	-3.088	Yaw:	236.545	Thrust:	17.076
Time:	3.210	Roll Set Point:	-0.017	Pitch Set Point:	0.032	Yaw Set Point:	-2.937	X_WP:	0.000	Y_WP:	0.000	Y_WP:	0.500	X:	0.163	Y:	0.066	Z:	0.404	yaw:	168.278	yaw rate:	-2.514	Roll:	-4.602	Pitch:	-3.165	Yaw:	236.257	Thrust:	17.416
Time:	3.226	Roll Set Point:	-0.017	Pitch Set Point:	0.032	Yaw Set Point:	-2.937	X_WP:	0.000	Y_WP:	0.000	Y_WP:	0.500	X:	0.163	Y:	0.066	Z:	0.405	yaw:	168.265	yaw rate:	-1.243	Roll:	-4.581	Pitch:	-3.106	Yaw:	236.293	Thrust:	17.102
Time:	3.241	Roll Set Point:	-0.017	Pitch Set Point:	0.032	Yaw Set Point:	-2.937	X_WP:	0.000	Y_WP:	0.000	Y_WP:	0.500	X:	0.163	Y:	0.066	Z:	0.404	yaw:	168.283	yaw rate:	1.762	Roll:	-4.647	Pitch:	-3.110	Yaw:	236.825	Thrust:	17.935
Time:	3.257	Roll Set Point:	-0.017	Pitch Set Point:	0.032	Yaw Set Point:	-2.937	X_WP:	0.000	Y_WP:	0.000	Y_WP:	0.500	X:	0.163	Y:	0.066	Z:	0.404	yaw:	168.262	yaw rate:	-2.033	Roll:	-4.595	Pitch:	-3.085	Yaw:	236.161	Thrust:	17.641
Time:	3.272	Roll Set Point:	-0.017	Pitch Set Point:	0.032	Yaw Set Point:	-2.937	X_WP:	0.000	Y_WP:	0.000	Y_WP:	0.500	X:	0.163	Y:	0.066	Z:	0.404	yaw:	168.262	yaw rate:	-2.033	Roll:	-4.630	Pitch:	-3.109	Yaw:	236.501	Thrust:	17.972
Time:	3.288	Roll Set Point:	-0.017	Pitch Set Point:	0.032	Yaw Set Point:	-2.938	X_WP:	0.000	Y_WP:	0.000	Y_WP:	0.500	X:	0.163	Y:	0.066	Z:	0.404	yaw:	168.307	yaw rate:	1.752	Roll:	-4.711	Pitch:	-3.059	Yaw:	237.320	Thrust:	18.261
Time:	3.304	Roll Set Point:	-0.017	Pitch Set Point:	0.032	Yaw Set Point:	-2.937	X_WP:	0.000	Y_WP:	0.000	Y_WP:	0.500	X:	0.163	Y:	0.066	Z:	0.405	yaw:	168.269	yaw rate:	-3.821	Roll:	-4.578	Pitch:	-3.178	Yaw:	235.871	Thrust:	18.180
Time:	3.319	Roll Set Point:	-0.017	Pitch Set Point:	0.032	Yaw Set Point:	-2.937	X_WP:	0.000	Y_WP:	0.000	Y_WP:	0.500	X:	0.163	Y:	0.066	Z:	0.405	yaw:	168.269	yaw rate:	-3.821	Roll:	-4.647	Pitch:	-3.121	Yaw:	236.511	Thrust:	18.507
Time:	3.335	Roll Set Point:	-0.017	Pitch Set Point:	0.032	Yaw Set Point:	-2.937	X_WP:	0.000	Y_WP:	0.000	Y_WP:	0.500	X:	0.163	Y:	0.066	Z:	0.404	yaw:	168.259	yaw rate:	-1.072	Roll:	-4.633	Pitch:	-3.136	Yaw:	236.317	Thrust:	18.789
Time:	3.351	Roll Set Point:	-0.017	Pitch Set Point:	0.032	Yaw Set Point:	-2.937	X_WP:	0.000	Y_WP:	0.000	Y_WP:	0.500	X:	0.163	Y:	0.066	Z:	0.404	yaw:	168.279	yaw rate:	2.581	Roll:	-4.692	Pitch:	-3.127	Yaw:	236.873	Thrust:	18.846
Time:	3.366	Roll Set Point:	-0.017	Pitch Set Point:	0.032	Yaw Set Point:	-2.937	X_WP:	0.000	Y_WP:	0.000	Y_WP:	0.500	X:	0.163	Y:	0.066	Z:	0.405	yaw:	168.268	yaw rate:	-1.101	Roll:	-4.657	Pitch:	-3.126	Yaw:	236.325	Thrust:	18.955
Time:	3.382	Roll Set Point:	-0.017	Pitch Set Point:	0.032	Yaw Set Point:	-2.937	X_WP:	0.000	Y_WP:	0.000	Y_WP:	0.500	X:	0.163	Y:	0.066	Z:	0.404	yaw:	168.293	yaw rate:	2.454	Roll:	-4.704	Pitch:	-3.094	Yaw:	236.955	Thrust:	19.414
Time:	3.413	Roll Set Point:	-0.017	Pitch Set Point:	0.032	Yaw Set Point:	-2.937	X_WP:	0.000	Y_WP:	0.000	Y_WP:	0.500	X:	0.163	Y:	0.066	Z:	0.404	yaw:	168.264	yaw rate:	-2.924	Roll:	-5.110	Pitch:	-3.466	Yaw:	237.860	Thrust:	33.840
Time:	3.429	Roll Set Point:	-0.017	Pitch Set Point:	0.032	Yaw Set Point:	-2.937	X_WP:	0.000	Y_WP:	0.000	Y_WP:	0.500	X:	0.163	Y:	0.066	Z:	0.404	yaw:	168.275	yaw rate:	2.437	Roll:	-4.699	Pitch:	-3.158	Yaw:	236.715	Thrust:	19.595
Time:	3.445	Roll Set Point:	-0.017	Pitch Set Point:	0.032	Yaw Set Point:	-2.937	X_WP:	0.000	Y_WP:	0.000	Y_WP:	0.500	X:	0.163	Y:	0.066	Z:	0.404	yaw:	168.280	yaw rate:	0.463	Roll:	-4.685	Pitch:	-3.071	Yaw:	236.603	Thrust:	19.774
Time:	3.460	Roll Set Point:	-0.017	Pitch Set Point:	0.032	Yaw Set Point:	-2.937	X_WP:	0.000	Y_WP:	0.000	Y_WP:	0.500	X:	0.163	Y:	0.066	Z:	0.404	yaw:	168.289	yaw rate:	0.932	Roll:	-4.733	Pitch:	-3.151	Yaw:	236.695	Thrust:	19.890
Time:	3.476	Roll Set Point:	-0.017	Pitch Set Point:	0.032	Yaw Set Point:	-2.937	X_WP:	0.000	Y_WP:	0.000	Y_WP:	0.500	X:	0.163	Y:	0.066	Z:	0.404	yaw:	168.289	yaw rate:	0.932	Roll:	-4.699	Pitch:	-3.153	Yaw:	236.539	Thrust:	20.121
Time:	3.492	Roll Set Point:	-0.017	Pitch Set Point:	0.032	Yaw Set Point:	-2.937	X_WP:	0.000	Y_WP:	0.000	Y_WP:	0.500	X:	0.163	Y:	0.066	Z:	0.405	yaw:	168.261	yaw rate:	-1.344	Roll:	-4.638	Pitch:	-3.247	Yaw:	236.019	Thrust:	20.201
Time:	3.507	Roll Set Point:	-0.017	Pitch Set Point:	0.032	Yaw Set Point:	-2.937	X_WP:	0.000	Y_WP:	0.000	Y_WP:	0.500	X:	0.163	Y:	0.066	Z:	0.405	yaw:	168.261	yaw rate:	-1.344	Roll:	-4.709	Pitch:	-3.163	Yaw:	236.499	Thrust:	20.477
Time:	3.523	Roll Set Point:	-0.017	Pitch Set Point:	0.032	Yaw Set Point:	-2.937	X_WP:	0.000	Y_WP:	0.000	Y_WP:	0.500	X:	0.163	Y:	0.066	Z:	0.404	yaw:	168.264	yaw rate:	-0.835	Roll:	-4.728	Pitch:	-3.156	Yaw:	236.566	Thrust:	20.791
Time:	3.538	Roll Set Point:	-0.017	Pitch Set Point:	0.032	Yaw Set Point:	-2.936	X_WP:	0.000	Y_WP:	0.000	Y_WP:	0.500	X:	0.163	Y:	0.066	Z:	0.405	yaw:	168.248	yaw rate:	-1.592	Roll:	-4.676	Pitch:	-3.162	Yaw:	236.215	Thrust:	20.740
Time:	3.554	Roll Set Point:	-0.017	Pitch Set Point:	0.032	Yaw Set Point:	-2.937	X_WP:	0.000	Y_WP:	0.000	Y_WP:	0.500	X:	0.163	Y:	0.066	Z:	0.404	yaw:	168.288	yaw rate:	3.915	Roll:	-4.800	Pitch:	-3.137	Yaw:	237.193	Thrust:	21.196
Time:	3.570	Roll Set Point:	-0.017	Pitch Set Point:	0.032	Yaw Set Point:	-2.937	X_WP:	0.000	Y_WP:	0.000	Y_WP:	0.500	X:	0.163	Y:	0.066	Z:	0.404	yaw:	168.288	yaw rate:	3.915	Roll:	-4.733	Pitch:	-3.177	Yaw:	236.536	Thrust:	21.195
Time:	3.585	Roll Set Point:	-0.017	Pitch Set Point:	0.032	Yaw Set Point:	-2.936	X_WP:	0.000	Y_WP:	0.000	Y_WP:	0.500	X:	0.163	Y:	0.066	Z:	0.405	yaw:	168.240	yaw rate:	-4.754	Roll:	-4.647	Pitch:	-3.279	Yaw:	235.677	Thrust:	21.238
Time:	3.601	Roll Set Point:	-0.017	Pitch Set Point:	0.032	Yaw Set Point:	-2.937	X_WP:	0.000	Y_WP:	0.000	Y_WP:	0.500	X:	0.163	Y:	0.066	Z:	0.404	yaw:	168.272	yaw rate:	3.172	Roll:	-4.817	Pitch:	-3.106	Yaw:	237.044	Thrust:	21.660
Time:	3.617	Roll Set Point:	-0.017	Pitch Set Point:	0.032	Yaw Set Point:	-2.937	X_WP:	0.000	Y_WP:	0.000	Y_WP:	0.500	X:	0.163	Y:	0.066	Z:	0.404	yaw:	168.275	yaw rate:	0.342	Roll:	-4.738	Pitch:	-3.167	Yaw:	236.576	Thrust:	21.675
Time:	3.632	Roll Set Point:	-0.017	Pitch Set Point:	0.032	Yaw Set Point:	-2.936	X_WP:	0.000	Y_WP:	0.000	Y_WP:	0.500	X:	0.163	Y:	0.066	Z:	0.405	yaw:	168.235	yaw rate:	-4.003	Roll:	-4.701	Pitch:	-3.288	Yaw:	235.792	Thrust:	21.809
Time:	3.648	Roll Set Point:	-0.017	Pitch Set Point:	0.032	Yaw Set Point:	-2.936	X_WP:	0.000	Y_WP:	0.000	Y_WP:	0.500	X:	0.163	Y:	0.066	Z:	0.405	yaw:	168.235	yaw rate:	-4.003	Roll:	-4.759	Pitch:	-3.199	Yaw:	236.463	Thrust:	22.092
Time:	3.663	Roll Set Point:	-0.017	Pitch Set Point:	0.032	Yaw Set Point:	-2.937	X_WP:	0.000	Y_WP:	0.000	Y_WP:	0.500	X:	0.163	Y:	0.066	Z:	0.404	yaw:	168.303	yaw rate:	2.709	Roll:	-4.890	Pitch:	-3.049	Yaw:	237.703	Thrust:	22.451
Time:	3.679	Roll Set Point:	-0.017	Pitch Set Point:	0.032	Yaw Set Point:	-2.937	X_WP:	0.000	Y_WP:	0.000	Y_WP:	0.500	X:	0.163	Y:	0.066	Z:	0.404	yaw:	168.286	yaw rate:	-1.748	Roll:	-4.734	Pitch:	-3.228	Yaw:	236.241	Thrust:	22.316
Time:	3.695	Roll Set Point:	-0.017	Pitch Set Point:	0.032	Yaw Set Point:	-2.937	X_WP:	0.000	Y_WP:	0.000	Y_WP:	0.500	X:	0.163	Y:	0.066	Z:	0.404	yaw:	168.281	yaw rate:	-0.449	Roll:	-4.774	Pitch:	-3.260	Yaw:	236.452	Thrust:	22.687
Time:	3.710	Roll Set Point:	-0.017	Pitch Set Point:	0.032	Yaw Set Point:	-2.937	X_WP:	0.000	Y_WP:	0.000	Y_WP:	0.500	X:	0.163	Y:	0.066	Z:	0.404	yaw:	168.281	yaw rate:	-0.449	Roll:	-4.785	Pitch:	-3.213	Yaw:	236.530	Thrust:	22.837
Time:	3.726	Roll Set Point:	-0.017	Pitch Set Point:	0.032	Yaw Set Point:	-2.937	X_WP:	0.000	Y_WP:	0.000	Y_WP:	0.500	X:	0.163	Y:	0.066	Z:	0.404	yaw:	168.270	yaw rate:	-1.136	Roll:	-4.770	Pitch:	-3.204	Yaw:	236.319	Thrust:	22.922
Time:	3.742	Roll Set Point:	-0.017	Pitch Set Point:	0.032	Yaw Set Point:	-2.937	X_WP:	0.000	Y_WP:	0.000	Y_WP:	0.500	X:	0.163	Y:	0.066	Z:	0.404	yaw:	168.258	yaw rate:	-1.194	Roll:	-4.777	Pitch:	-3.249	Yaw:	236.295	Thrust:	23.240
Time:	3.757	Roll Set Point:	-0.017	Pitch Set Point:	0.032	Yaw Set Point:	-2.936	X_WP:	0.000	Y_WP:	0.000	Y_WP:	0.500	X:	0.163	Y:	0.066	Z:	0.404	yaw:	168.247	yaw rate:	-1.760	Roll:	-4.750	Pitch:	-3.291	Yaw:	236.300	Thrust:	23.253
Time:	3.773	Roll Set Point:	-0.017	Pitch Set Point:	0.032	Yaw Set Point:	-2.936	X_WP:	0.000	Y_WP:	0.000	Y_WP:	0.500	X:	0.163	Y:	0.066	Z:	0.404	yaw:	168.239	yaw rate:	-0.881	Roll:	-4.809	Pitch:	-3.209	Yaw:	236.321	Thrust:	23.558
Time:	3.788	Roll Set Point:	-0.017	Pitch Set Point:	0.032	Yaw Set Point:	-2.937	X_WP:	0.000	Y_WP:	0.000	Y_WP:	0.500	X:	0.163	Y:	0.066	Z:	0.404	yaw:	168.290	yaw rate:	5.099	Roll:	-4.908	Pitch:	-3.164	Yaw:	237.394	Thrust:	23.919
Time:	3.804	Roll Set Point:	-0.017	Pitch Set Point:	0.032	Yaw Set Point:	-2.937	X_WP:	0.000	Y_WP:	0.000	Y_WP:	0.500	X:	0.163	Y:	0.066	Z:	0.405	yaw:	168.268	yaw rate:	-2.122	Roll:	-4.775	Pitch:	-3.209	Yaw:	236.154	Thrust:	23.605
Time:	3.820	Roll Set Point:	-0.017	Pitch Set Point:	0.032	Yaw Set Point:	-2.937	X_WP:	0.000	Y_WP:	0.000	Y_WP:	0.500	X:	0.163	Y:	0.066	Z:	0.404	yaw:	168.272	yaw rate:	0.404	Roll:	-4.805	Pitch:	-3.273	Yaw:	236.583	Thrust:	24.144
Time:	3.835	Roll Set Point:	-0.017	Pitch Set Point:	0.032	Yaw Set Point:	-2.937	X_WP:	0.000	Y_WP:	0.000	Y_WP:	0.500	X:	0.163	Y:	0.066	Z:	0.404	yaw:	168.252	yaw rate:	-2.054	Roll:	-4.763	Pitch:	-3.310	Yaw:	236.142	Thrust:	24.281
Time:	3.851	Roll Set Point:	-0.017	Pitch Set Point:	0.032	Yaw Set Point:	-2.937	X_WP:	0.000	Y_WP:	0.000	Y_WP:	0.500	X:	0.163	Y:	0.066	Z:	0.404	yaw:	168.271	yaw rate:	1.872	Roll:	-4.882	Pitch:	-3.135	Yaw:	236.826	Thrust:	24.371
Time:	3.867	Roll Set Point:	-0.017	Pitch Set Point:	0.032	Yaw Set Point:	-2.937	X_WP:	0.000	Y_WP:	0.000	Y_WP:	0.500	X:	0.163	Y:	0.066	Z:	0.404	yaw:	168.286	yaw rate:	1.534	Roll:	-4.828	Pitch:	-3.257	Yaw:	236.791	Thrust:	24.739
Time:	3.882	Roll Set Point:	-0.017	Pitch Set Point:	0.032	Yaw Set Point:	-2.937	X_WP:	0.000	Y_WP:	0.000	Y_WP:	0.500	X:	0.163	Y:	0.066	Z:	0.404	yaw:	168.286	yaw rate:	1.534	Roll:	-4.812	Pitch:	-3.253	Yaw:	236.534	Thrust:	24.779
Time:	3.898	Roll Set Point:	-0.017	Pitch Set Point:	0.032	Yaw Set Point:	-2.936	X_WP:	0.000	Y_WP:	0.000	Y_WP:	0.500	X:	0.163	Y:	0.066	Z:	0.405	yaw:	168.242	yaw rate:	-4.352	Roll:	-4.718	Pitch:	-3.388	Yaw:	235.744	Thrust:	24.693
Time:	3.914	Roll Set Point:	-0.017	Pitch Set Point:	0.032	Yaw Set Point:	-2.937	X_WP:	0.000	Y_WP:	0.000	Y_WP:	0.500	X:	0.163	Y:	0.066	Z:	0.404	yaw:	168.284	yaw rate:	4.125	Roll:	-4.892	Pitch:	-3.183	Yaw:	237.224	Thrust:	25.357
Time:	3.929	Roll Set Point:	-0.017	Pitch Set Point:	0.032	Yaw Set Point:	-2.937	X_WP:	0.000	Y_WP:	0.000	Y_WP:	0.500	X:	0.163	Y:	0.066	Z:	0.404	yaw:	168.267	yaw rate:	-1.617	Roll:	-4.792	Pitch:	-3.201	Yaw:	236.244	Thrust:	25.364
Time:	3.945	Roll Set Point:	-0.017	Pitch Set Point:	0.032	Yaw Set Point:	-2.937	X_WP:	0.000	Y_WP:	0.000	Y_WP:	0.500	X:	0.163	Y:	0.066	Z:	0.404	yaw:	168.269	yaw rate:	-1.356	Roll:	-4.801	Pitch:	-3.341	Yaw:	236.529	Thrust:	25.439
Time:	3.960	Roll Set Point:	-0.017	Pitch Set Point:	0.032	Yaw Set Point:	-2.937	X_WP:	0.000	Y_WP:	0.000	Y_WP:	0.500	X:	0.163	Y:	0.066	Z:	0.404	yaw:	168.269	yaw rate:	-1.356	Roll:	-4.810	Pitch:	-3.273	Yaw:	236.506	Thrust:	25.618
Time:	3.976	Roll Set Point:	-0.017	Pitch Set Point:	0.032	Yaw Set Point:	-2.936	X_WP:	0.000	Y_WP:	0.000	Y_WP:	0.500	X:	0.163	Y:	0.066	Z:	0.404	yaw:	168.242	yaw rate:	-2.623	Roll:	-4.781	Pitch:	-3.376	Yaw:	236.034	Thrust:	25.846
Time:	3.992	Roll Set Point:	-0.017	Pitch Set Point:	0.032	Yaw Set Point:	-2.937	X_WP:	0.000	Y_WP:	0.000	Y_WP:	0.500	X:	0.163	Y:	0.066	Z:	0.404	yaw:	168.279	yaw rate:	-0.100	Roll:	-4.870	Pitch:	-3.152	Yaw:	237.132	Thrust:	26.094
Time:	4.007	Roll Set Point:	-0.017	Pitch Set Point:	0.032	Yaw Set Point:	-2.937	X_WP:	0.000	Y_WP:	0.000	Y_WP:	0.500	X:	0.163	Y:	0.066	Z:	0.404	yaw:	168.281	yaw rate:	0.207	Roll:	-4.812	Pitch:	-3.282	Yaw:	236.562	Thrust:	26.082
Time:	4.023	Roll Set Point:	-0.017	Pitch Set Point:	0.032	Yaw Set Point:	-2.937	X_WP:	0.000	Y_WP:	0.000	Y_WP:	0.500	X:	0.163	Y:	0.066	Z:	0.405	yaw:	168.265	yaw rate:	-1.558	Roll:	-4.785	Pitch:	-3.347	Yaw:	236.244	Thrust:	26.365
Time:	4.038	Roll Set Point:	-0.017	Pitch Set Point:	0.032	Yaw Set Point:	-2.937	X_WP:	0.000	Y_WP:	0.000	Y_WP:	0.500	X:	0.163	Y:	0.066	Z:	0.405	yaw:	168.265	yaw rate:	-1.558	Roll:	-4.811	Pitch:	-3.294	Yaw:	236.505	Thrust:	26.568
Time:	4.054	Roll Set Point:	-0.017	Pitch Set Point:	0.032	Yaw Set Point:	-2.937	X_WP:	0.000	Y_WP:	0.000	Y_WP:	0.500	X:	0.163	Y:	0.066	Z:	0.405	yaw:	168.256	yaw rate:	-3.247	Roll:	-4.791	Pitch:	-3.253	Yaw:	236.333	Thrust:	26.749
Time:	4.070	Roll Set Point:	-0.017	Pitch Set Point:	0.032	Yaw Set Point:	-2.937	X_WP:	0.000	Y_WP:	0.000	Y_WP:	0.500	X:	0.163	Y:	0.066	Z:	0.404	yaw:	168.269	yaw rate:	1.282	Roll:	-4.844	Pitch:	-3.335	Yaw:	236.725	Thrust:	27.079
Time:	4.085	Roll Set Point:	-0.017	Pitch Set Point:	0.032	Yaw Set Point:	-2.937	X_WP:	0.000	Y_WP:	0.000	Y_WP:	0.500	X:	0.163	Y:	0.066	Z:	0.404	yaw:	168.269	yaw rate:	1.282	Roll:	-4.812	Pitch:	-3.305	Yaw:	236.510	Thrust:	27.109
Time:	4.101	Roll Set Point:	-0.017	Pitch Set Point:	0.032	Yaw Set Point:	-2.937	X_WP:	0.000	Y_WP:	0.000	Y_WP:	0.500	X:	0.163	Y:	0.066	Z:	0.404	yaw:	168.266	yaw rate:	1.389	Roll:	-4.787	Pitch:	-3.278	Yaw:	236.458	Thrust:	27.180
Time:	4.117	Roll Set Point:	-0.017	Pitch Set Point:	0.032	Yaw Set Point:	-2.937	X_WP:	0.000	Y_WP:	0.000	Y_WP:	0.500	X:	0.163	Y:	0.066	Z:	0.404	yaw:	168.265	yaw rate:	-0.092	Roll:	-4.831	Pitch:	-3.340	Yaw:	236.489	Thrust:	27.502
Time:	4.132	Roll Set Point:	-0.017	Pitch Set Point:	0.032	Yaw Set Point:	-2.937	X_WP:	0.000	Y_WP:	0.000	Y_WP:	0.500	X:	0.163	Y:	0.066	Z:	0.404	yaw:	168.259	yaw rate:	-0.539	Roll:	-4.797	Pitch:	-3.363	Yaw:	236.407	Thrust:	27.684
Time:	4.148	Roll Set Point:	-0.017	Pitch Set Point:	0.032	Yaw Set Point:	-2.937	X_WP:	0.000	Y_WP:	0.000	Y_WP:	0.500	X:	0.163	Y:	0.066	Z:	0.404	yaw:	168.281	yaw rate:	2.129	Roll:	-4.865	Pitch:	-3.224	Yaw:	236.884	Thrust:	27.731
Time:	4.163	Roll Set Point:	-0.017	Pitch Set Point:	0.032	Yaw Set Point:	-2.937	X_WP:	0.000	Y_WP:	0.000	Y_WP:	0.500	X:	0.163	Y:	0.066	Z:	0.404	yaw:	168.281	yaw rate:	2.129	Roll:	-4.813	Pitch:	-3.323	Yaw:	236.527	Thrust:	28.002
Time:	4.179	Roll Set Point:	-0.017	Pitch Set Point:	0.032	Yaw Set Point:	-2.937	X_WP:	0.000	Y_WP:	0.000	Y_WP:	0.500	X:	0.163	Y:	0.066	Z:	0.405	yaw:	168.257	yaw rate:	-2.395	Roll:	-4.749	Pitch:	-3.391	Yaw:	236.092	Thrust:	28.152
Time:	4.195	Roll Set Point:	-0.017	Pitch Set Point:	0.032	Yaw Set Point:	-2.937	X_WP:	0.000	Y_WP:	0.000	Y_WP:	0.500	X:	0.163	Y:	0.066	Z:	0.404	yaw:	168.254	yaw rate:	-3.305	Roll:	-4.801	Pitch:	-3.319	Yaw:	236.434	Thrust:	28.395
Time:	4.210	Roll Set Point:	-0.017	Pitch Set Point:	0.032	Yaw Set Point:	-2.937	X_WP:	0.000	Y_WP:	0.000	Y_WP:	0.500	X:	0.163	Y:	0.066	Z:	0.404	yaw:	168.265	yaw rate:	1.168	Roll:	-4.829	Pitch:	-3.349	Yaw:	236.701	Thrust:	28.601
Time:	4.226	Roll Set Point:	-0.017	Pitch Set Point:	0.032	Yaw Set Point:	-2.937	X_WP:	0.000	Y_WP:	0.000	Y_WP:	0.500	X:	0.163	Y:	0.066	Z:	0.404	yaw:	168.249	yaw rate:	-1.612	Roll:	-4.799	Pitch:	-3.380	Yaw:	236.212	Thrust:	28.689
Time:	4.242	Roll Set Point:	-0.017	Pitch Set Point:	0.032	Yaw Set Point:	-2.937	X_WP:	0.000	Y_WP:	0.000	Y_WP:	0.500	X:	0.163	Y:	0.066	Z:	0.404	yaw:	168.301	yaw rate:	5.222	Roll:	-4.905	Pitch:	-3.165	Yaw:	237.430	Thrust:	28.869
Time:	4.257	Roll Set Point:	-0.017	Pitch Set Point:	0.032	Yaw Set Point:	-2.937	X_WP:	0.000	Y_WP:	0.000	Y_WP:	0.500	X:	0.163	Y:	0.066	Z:	0.404	yaw:	168.261	yaw rate:	-4.049	Roll:	-4.730	Pitch:	-3.480	Yaw:	235.821	Thrust:	29.163
Time:	4.273	Roll Set Point:	-0.017	Pitch Set Point:	0.032	Yaw Set Point:	-2.937	X_WP:	0.000	Y_WP:	0.000	Y_WP:	0.500	X:	0.163	Y:	0.066	Z:	0.404	yaw:	168.279	yaw rate:	1.856	Roll:	-4.847	Pitch:	-3.310	Yaw:	236.836	Thrust:	29.234
Time:	4.289	Roll Set Point:	-0.017	Pitch Set Point:	0.032	Yaw Set Point:	-2.937	X_WP:	0.000	Y_WP:	0.000	Y_WP:	0.500	X:	0.163	Y:	0.066	Z:	0.404	yaw:	168.279	yaw rate:	1.856	Roll:	-4.812	Pitch:	-3.354	Yaw:	236.525	Thrust:	29.436
Time:	4.304	Roll Set Point:	-0.017	Pitch Set Point:	0.032	Yaw Set Point:	-2.937	X_WP:	0.000	Y_WP:	0.000	Y_WP:	0.500	X:	0.163	Y:	0.066	Z:	0.404	yaw:	168.291	yaw rate:	3.868	Roll:	-4.840	Pitch:	-3.320	Yaw:	236.730	Thrust:	29.633
Time:	4.320	Roll Set Point:	-0.017	Pitch Set Point:	0.032	Yaw Set Point:	-2.937	X_WP:	0.000	Y_WP:	0.000	Y_WP:	0.500	X:	0.163	Y:	0.066	Z:	0.404	yaw:	168.260	yaw rate:	-3.056	Roll:	-4.752	Pitch:	-3.402	Yaw:	235.986	Thrust:	29.748
Time:	4.335	Roll Set Point:	-0.017	Pitch Set Point:	0.032	Yaw Set Point:	-2.937	X_WP:	0.000	Y_WP:	0.000	Y_WP:	0.500	X:	0.163	Y:	0.066	Z:	0.404	yaw:	168.260	yaw rate:	-3.056	Roll:	-4.811	Pitch:	-3.365	Yaw:	236.498	Thrust:	29.972
Time:	4.351	Roll Set Point:	-0.017	Pitch Set Point:	0.032	Yaw Set Point:	-2.937	X_WP:	0.000	Y_WP:	0.000	Y_WP:	0.500	X:	0.163	Y:	0.066	Z:	0.404	yaw:	168.268	yaw rate:	1.077	Roll:	-4.812	Pitch:	-3.363	Yaw:	236.637	Thrust:	30.135
Time:	4.367	Roll Set Point:	-0.017	Pitch Set Point:	0.032	Yaw Set Point:	-2.937	X_WP:	0.000	Y_WP:	0.000	Y_WP:	0.500	X:	0.163	Y:	0.066	Z:	0.405	yaw:	168.280	yaw rate:	1.197	Roll:	-4.845	Pitch:	-3.346	Yaw:	236.725	Thrust:	30.284
Time:	4.382	Roll Set Point:	-0.017	Pitch Set Point:	0.032	Yaw Set Point:	-2.937	X_WP:	0.000	Y_WP:	0.000	Y_WP:	0.500	X:	0.163	Y:	0.066	Z:	0.404	yaw:	168.266	yaw rate:	-1.352	Roll:	-4.781	Pitch:	-3.441	Yaw:	236.280	Thrust:	30.683
Time:	4.413	Roll Set Point:	-0.017	Pitch Set Point:	0.032	Yaw Set Point:	-2.937	X_WP:	0.000	Y_WP:	0.000	Y_WP:	0.500	X:	0.163	Y:	0.066	Z:	0.404	yaw:	168.271	yaw rate:	0.499	Roll:	-5.372	Pitch:	-3.888	Yaw:	238.034	Thrust:	54.723
Time:	4.428	Roll Set Point:	-0.017	Pitch Set Point:	0.032	Yaw Set Point:	-2.937	X_WP:	0.000	Y_WP:	0.000	Y_WP:	0.500	X:	0.163	Y:	0.066	Z:	0.404	yaw:	168.284	yaw rate:	0.912	Roll:	-4.826	Pitch:	-3.356	Yaw:	236.744	Thrust:	30.848
Time:	4.444	Roll Set Point:	-0.017	Pitch Set Point:	0.032	Yaw Set Point:	-2.937	X_WP:	0.000	Y_WP:	0.000	Y_WP:	0.500	X:	0.163	Y:	0.066	Z:	0.404	yaw:	168.284	yaw rate:	0.912	Roll:	-4.812	Pitch:	-3.388	Yaw:	236.531	Thrust:	31.050
Time:	4.460	Roll Set Point:	-0.017	Pitch Set Point:	0.032	Yaw Set Point:	-2.937	X_WP:	0.000	Y_WP:	0.000	Y_WP:	0.500	X:	0.163	Y:	0.066	Z:	0.404	yaw:	168.264	yaw rate:	0.853	Roll:	-4.784	Pitch:	-3.409	Yaw:	236.180	Thrust:	31.200
Time:	4.476	Roll Set Point:	-0.017	Pitch Set Point:	0.032	Yaw Set Point:	-2.937	X_WP:	0.000	Y_WP:	0.000	Y_WP:	0.500	X:	0.163	Y:	0.066	Z:	0.405	yaw:	168.277	yaw rate:	1.268	Roll:	-4.853	Pitch:	-3.400	Yaw:	236.815	Thrust:	32.028
Time:	4.503	Roll Set Point:	-0.017	Pitch Set Point:	0.032	Yaw Set Point:	-2.937	X_WP:	0.000	Y_WP:	0.000	Y_WP:	0.500	X:	0.163	Y:	0.066	Z:	0.405	yaw:	168.277	yaw rate:	1.268	Roll:	-5.253	Pitch:	-3.822	Yaw:	237.648	Thrust:	51.399
Time:	4.519	Roll Set Point:	-0.017	Pitch Set Point:	0.032	Yaw Set Point:	-2.937	X_WP:	0.000	Y_WP:	0.000	Y_WP:	0.500	X:	0.163	Y:	0.066	Z:	0.404	yaw:	168.275	yaw rate:	1.072	Roll:	-4.808	Pitch:	-3.399	Yaw:	236.482	Thrust:	31.871
Time:	4.534	Roll Set Point:	-0.017	Pitch Set Point:	0.032	Yaw Set Point:	-2.937	X_WP:	0.000	Y_WP:	0.000	Y_WP:	0.500	X:	0.163	Y:	0.066	Z:	0.404	yaw:	168.275	yaw rate:	1.072	Roll:	-4.812	Pitch:	-3.407	Yaw:	236.519	Thrust:	31.945
Time:	4.550	Roll Set Point:	-0.017	Pitch Set Point:	0.032	Yaw Set Point:	-2.937	X_WP:	0.000	Y_WP:	0.000	Y_WP:	0.500	X:	0.163	Y:	0.066	Z:	0.404	yaw:	168.276	yaw rate:	0.097	Roll:	-4.813	Pitch:	-3.415	Yaw:	236.536	Thrust:	32.047
Time:	4.565	Roll Set Point:	-0.017	Pitch Set Point:	0.032	Yaw Set Point:	-2.937	X_WP:	0.000	Y_WP:	0.000	Y_WP:	0.500	X:	0.163	Y:	0.066	Z:	0.404	yaw:	168.283	yaw rate:	0.698	Roll:	-4.820	Pitch:	-3.398	Yaw:	236.647	Thrust:	32.340
Time:	4.581	Roll Set Point:	-0.017	Pitch Set Point:	0.032	Yaw Set Point:	-2.937	X_WP:	0.000	Y_WP:	0.000	Y_WP:	0.500	X:	0.163	Y:	0.066	Z:	0.404	yaw:	168.283	yaw rate:	0.698	Roll:	-4.812	Pitch:	-3.418	Yaw:	236.530	Thrust:	32.485
Time:	4.597	Roll Set Point:	-0.017	Pitch Set Point:	0.032	Yaw Set Point:	-2.937	X_WP:	0.000	Y_WP:	0.000	Y_WP:	0.500	X:	0.163	Y:	0.066	Z:	0.404	yaw:	168.273	yaw rate:	-0.999	Roll:	-4.805	Pitch:	-3.400	Yaw:	236.349	Thrust:	32.677
Time:	4.612	Roll Set Point:	-0.017	Pitch Set Point:	0.032	Yaw Set Point:	-2.937	X_WP:	0.000	Y_WP:	0.000	Y_WP:	0.500	X:	0.163	Y:	0.066	Z:	0.404	yaw:	168.258	yaw rate:	-2.800	Roll:	-4.771	Pitch:	-3.505	Yaw:	236.242	Thrust:	32.761
Time:	4.628	Roll Set Point:	-0.017	Pitch Set Point:	0.032	Yaw Set Point:	-2.937	X_WP:	0.000	Y_WP:	0.000	Y_WP:	0.500	X:	0.163	Y:	0.066	Z:	0.404	yaw:	168.258	yaw rate:	-2.800	Roll:	-4.811	Pitch:	-3.425	Yaw:	236.495	Thrust:	33.014
Time:	4.644	Roll Set Point:	-0.017	Pitch Set Point:	0.032	Yaw Set Point:	-2.937	X_WP:	0.000	Y_WP:	0.000	Y_WP:	0.500	X:	0.163	Y:	0.066	Z:	0.405	yaw:	168.254	yaw rate:	-2.297	Roll:	-4.816	Pitch:	-3.393	Yaw:	236.430	Thrust:	33.119
Time:	4.659	Roll Set Point:	-0.017	Pitch Set Point:	0.032	Yaw Set Point:	-2.937	X_WP:	0.000	Y_WP:	0.000	Y_WP:	0.500	X:	0.163	Y:	0.066	Z:	0.404	yaw:	168.295	yaw rate:	4.086	Roll:	-4.891	Pitch:	-3.376	Yaw:	237.232	Thrust:	33.709
Time:	4.675	Roll Set Point:	-0.017	Pitch Set Point:	0.032	Yaw Set Point:	-2.937	X_WP:	0.000	Y_WP:	0.000	Y_WP:	0.500	X:	0.163	Y:	0.066	Z:	0.405	yaw:	168.253	yaw rate:	-4.191	Roll:	-4.726	Pitch:	-3.481	Yaw:	235.786	Thrust:	33.242
Time:	4.690	Roll Set Point:	-0.017	Pitch Set Point:	0.032	Yaw Set Point:	-2.937	X_WP:	0.000	Y_WP:	0.000	Y_WP:	0.500	X:	0.163	Y:	0.066	Z:	0.405	yaw:	168.253	yaw rate:	-4.191	Roll:	-4.811	Pitch:	-3.424	Yaw:	236.489	Thrust:	33.734
Time:	4.706	Roll Set Point:	-0.017	Pitch Set Point:	0.032	Yaw Set Point:	-2.936	X_WP:	0.000	Y_WP:	0.000	Y_WP:	0.500	X:	0.163	Y:	0.066	Z:	0.405	yaw:	168.233	yaw rate:	-7.232	Roll:	-4.764	Pitch:	-3.473	Yaw:	236.122	Thrust:	33.918
Time:	4.722	Roll Set Point:	-0.017	Pitch Set Point:	0.032	Yaw Set Point:	-2.937	X_WP:	0.000	Y_WP:	0.000	Y_WP:	0.500	X:	0.163	Y:	0.066	Z:	0.404	yaw:	168.262	yaw rate:	2.902	Roll:	-4.868	Pitch:	-3.370	Yaw:	236.987	Thrust:	34.232
Time:	4.737	Roll Set Point:	-0.017	Pitch Set Point:	0.032	Yaw Set Point:	-2.937	X_WP:	0.000	Y_WP:	0.000	Y_WP:	0.500	X:	0.163	Y:	0.066	Z:	0.404	yaw:	168.262	yaw rate:	2.902	Roll:	-4.811	Pitch:	-3.424	Yaw:	236.502	Thrust:	34.287
Time:	4.753	Roll Set Point:	-0.017	Pitch Set Point:	0.032	Yaw Set Point:	-2.937	X_WP:	0.000	Y_WP:	0.000	Y_WP:	0.500	X:	0.163	Y:	0.066	Z:	0.404	yaw:	168.281	yaw rate:	2.117	Roll:	-4.849	Pitch:	-3.409	Yaw:	236.838	Thrust:	34.439
Time:	4.769	Roll Set Point:	-0.017	Pitch Set Point:	0.032	Yaw Set Point:	-2.937	X_WP:	0.000	Y_WP:	0.000	Y_WP:	0.500	X:	0.163	Y:	0.066	Z:	0.404	yaw:	168.281	yaw rate:	2.117	Roll:	-4.813	Pitch:	-3.425	Yaw:	236.530	Thrust:	34.688
Time:	4.784	Roll Set Point:	-0.017	Pitch Set Point:	0.032	Yaw Set Point:	-2.937	X_WP:	0.000	Y_WP:	0.000	Y_WP:	0.500	X:	0.163	Y:	0.066	Z:	0.405	yaw:	168.258	yaw rate:	-3.427	Roll:	-4.770	Pitch:	-3.422	Yaw:	236.124	Thrust:	34.663
Time:	4.800	Roll Set Point:	-0.017	Pitch Set Point:	0.032	Yaw Set Point:	-2.937	X_WP:	0.000	Y_WP:	0.000	Y_WP:	0.500	X:	0.163	Y:	0.066	Z:	0.404	yaw:	168.290	yaw rate:	3.143	Roll:	-4.875	Pitch:	-3.446	Yaw:	237.064	Thrust:	35.192
Time:	4.816	Roll Set Point:	-0.017	Pitch Set Point:	0.032	Yaw Set Point:	-2.937	X_WP:	0.000	Y_WP:	0.000	Y_WP:	0.500	X:	0.163	Y:	0.066	Z:	0.405	yaw:	168.258	yaw rate:	-3.215	Roll:	-4.739	Pitch:	-3.371	Yaw:	235.956	Thrust:	34.893
Time:	4.831	Roll Set Point:	-0.017	Pitch Set Point:	0.032	Yaw Set Point:	-2.937	X_WP:	0.000	Y_WP:	0.000	Y_WP:	0.500	X:	0.163	Y:	0.066	Z:	0.404	yaw:	168.256	yaw rate:	-0.188	Roll:	-4.792	Pitch:	-3.527	Yaw:	236.461	Thrust:	35.609
Time:	4.847	Roll Set Point:	-0.017	Pitch Set Point:	0.032	Yaw Set Point:	-2.936	X_WP:	0.000	Y_WP:	0.000	Y_WP:	0.500	X:	0.163	Y:	0.066	Z:	0.405	yaw:	168.241	yaw rate:	-1.497	Roll:	-4.798	Pitch:	-3.409	Yaw:	236.221	Thrust:	35.308
Time:	4.862	Roll Set Point:	-0.017	Pitch Set Point:	0.032	Yaw Set Point:	-2.937	X_WP:	0.000	Y_WP:	0.000	Y_WP:	0.500	X:	0.163	Y:	0.066	Z:	0.404	yaw:	168.272	yaw rate:	3.072	Roll:	-4.866	Pitch:	-3.380	Yaw:	237.029	Thrust:	35.847
Time:	4.878	Roll Set Point:	-0.017	Pitch Set Point:	0.032	Yaw Set Point:	-2.937	X_WP:	0.000	Y_WP:	0.000	Y_WP:	0.500	X:	0.163	Y:	0.066	Z:	0.404	yaw:	168.272	yaw rate:	3.072	Roll:	-4.811	Pitch:	-3.424	Yaw:	236.514	Thrust:	35.886
Time:	4.894	Roll Set Point:	-0.017	Pitch Set Point:	0.032	Yaw Set Point:	-2.937	X_WP:	0.000	Y_WP:	0.000	Y_WP:	0.500	X:	0.163	Y:	0.066	Z:	0.404	yaw:	168.292	yaw rate:	4.024	Roll:	-4.849	Pitch:	-3.375	Yaw:	236.892	Thrust:	36.133
Time:	4.909	Roll Set Point:	-0.017	Pitch Set Point:	0.032	Yaw Set Point:	-2.937	X_WP:	0.000	Y_WP:	0.000	Y_WP:	0.500	X:	0.163	Y:	0.066	Z:	0.404	yaw:	168.292	yaw rate:	4.024	Roll:	-4.812	Pitch:	-3.423	Yaw:	236.543	Thrust:	36.248
Time:	4.925	Roll Set Point:	-0.017	Pitch Set Point:	0.032	Yaw Set Point:	-2.937	X_WP:	0.000	Y_WP:	0.000	Y_WP:	0.500	X:	0.163	Y:	0.066	Z:	0.404	yaw:	168.276	yaw rate:	1.910	Roll:	-4.786	Pitch:	-3.508	Yaw:	236.245	Thrust:	36.465
Time:	4.941	Roll Set Point:	-0.017	Pitch Set Point:	0.032	Yaw Set Point:	-2.937	X_WP:	0.000	Y_WP:	0.000	Y_WP:	0.500	X:	0.163	Y:	0.066	Z:	0.405	yaw:	168.252	yaw rate:	-2.450	Roll:	-4.781	Pitch:	-3.426	Yaw:	236.074	Thrust:	36.256
Time:	4.956	Roll Set Point:	-0.017	Pitch Set Point:	0.032	Yaw Set Point:	-2.937	X_WP:	0.000	Y_WP:	0.000	Y_WP:	0.500	X:	0.163	Y:	0.066	Z:	0.405	yaw:	168.252	yaw rate:	-2.450	Roll:	-4.816	Pitch:	-3.430	Yaw:	236.499	Thrust:	37.043
Time:	4.970	Roll Set Point:	-0.017	Pitch Set Point:	0.032	Yaw Set Point:	-2.937	X_WP:	0.000	Y_WP:	0.000	Y_WP:	0.500	X:	0.163	Y:	0.066	Z:	0.404	yaw:	168.291	yaw rate:	0.291	Roll:	-4.823	Pitch:	-3.276	Yaw:	237.115	Thrust:	34.086
Time:	4.987	Roll Set Point:	-0.016	Pitch Set Point:	0.031	Yaw Set Point:	-2.942	X_WP:	0.000	Y_WP:	0.000	Y_WP:	0.500	X:	0.162	Y:	0.066	Z:	0.404	yaw:	168.542	yaw rate:	25.123	Roll:	-5.216	Pitch:	-2.833	Yaw:	240.928	Thrust:	39.560
Time:	5.003	Roll Set Point:	-0.016	Pitch Set Point:	0.031	Yaw Set Point:	-2.942	X_WP:	0.000	Y_WP:	0.000	Y_WP:	0.500	X:	0.162	Y:	0.066	Z:	0.404	yaw:	168.542	yaw rate:	25.123	Roll:	-4.824	Pitch:	-3.406	Yaw:	236.894	Thrust:	37.378
Time:	5.018	Roll Set Point:	-0.017	Pitch Set Point:	0.032	Yaw Set Point:	-2.937	X_WP:	0.000	Y_WP:	0.000	Y_WP:	0.500	X:	0.163	Y:	0.066	Z:	0.405	yaw:	168.290	yaw rate:	0.469	Roll:	-4.450	Pitch:	-4.070	Yaw:	232.301	Thrust:	37.119
Time:	5.034	Roll Set Point:	-0.017	Pitch Set Point:	0.032	Yaw Set Point:	-2.937	X_WP:	0.000	Y_WP:	0.000	Y_WP:	0.500	X:	0.163	Y:	0.066	Z:	0.405	yaw:	168.290	yaw rate:	0.469	Roll:	-4.813	Pitch:	-3.423	Yaw:	236.539	Thrust:	37.675
Time:	5.050	Roll Set Point:	-0.017	Pitch Set Point:	0.032	Yaw Set Point:	-2.937	X_WP:	0.000	Y_WP:	0.000	Y_WP:	0.500	X:	0.163	Y:	0.066	Z:	0.404	yaw:	168.277	yaw rate:	-1.234	Roll:	-4.767	Pitch:	-3.455	Yaw:	236.315	Thrust:	38.023
Time:	5.065	Roll Set Point:	-0.017	Pitch Set Point:	0.032	Yaw Set Point:	-2.937	X_WP:	0.000	Y_WP:	0.000	Y_WP:	0.500	X:	0.163	Y:	0.066	Z:	0.404	yaw:	168.272	yaw rate:	2.639	Roll:	-4.787	Pitch:	-3.484	Yaw:	236.421	Thrust:	38.092
Time:	5.081	Roll Set Point:	-0.017	Pitch Set Point:	0.032	Yaw Set Point:	-2.937	X_WP:	0.000	Y_WP:	0.000	Y_WP:	0.500	X:	0.163	Y:	0.066	Z:	0.405	yaw:	168.262	yaw rate:	-0.945	Roll:	-4.822	Pitch:	-3.366	Yaw:	236.343	Thrust:	37.914
Time:	5.097	Roll Set Point:	-0.017	Pitch Set Point:	0.032	Yaw Set Point:	-2.937	X_WP:	0.000	Y_WP:	0.000	Y_WP:	0.500	X:	0.163	Y:	0.066	Z:	0.405	yaw:	168.262	yaw rate:	-0.945	Roll:	-4.813	Pitch:	-3.425	Yaw:	236.504	Thrust:	38.456
Time:	5.112	Roll Set Point:	-0.017	Pitch Set Point:	0.032	Yaw Set Point:	-2.937	X_WP:	0.000	Y_WP:	0.000	Y_WP:	0.500	X:	0.163	Y:	0.066	Z:	0.404	yaw:	168.272	yaw rate:	0.972	Roll:	-4.834	Pitch:	-3.414	Yaw:	236.678	Thrust:	38.660
Time:	5.128	Roll Set Point:	-0.017	Pitch Set Point:	0.032	Yaw Set Point:	-2.936	X_WP:	0.000	Y_WP:	0.000	Y_WP:	0.500	X:	0.163	Y:	0.066	Z:	0.404	yaw:	168.246	yaw rate:	-2.636	Roll:	-4.752	Pitch:	-3.493	Yaw:	236.037	Thrust:	38.796
Time:	5.143	Roll Set Point:	-0.017	Pitch Set Point:	0.032	Yaw Set Point:	-2.936	X_WP:	0.000	Y_WP:	0.000	Y_WP:	0.500	X:	0.163	Y:	0.066	Z:	0.404	yaw:	168.246	yaw rate:	-2.636	Roll:	-4.811	Pitch:	-3.426	Yaw:	236.480	Thrust:	38.974
Time:	5.159	Roll Set Point:	-0.017	Pitch Set Point:	0.032	Yaw Set Point:	-2.937	X_WP:	0.000	Y_WP:	0.000	Y_WP:	0.500	X:	0.163	Y:	0.066	Z:	0.404	yaw:	168.285	yaw rate:	3.174	Roll:	-4.873	Pitch:	-3.341	Yaw:	237.185	Thrust:	39.081
Time:	5.175	Roll Set Point:	-0.017	Pitch Set Point:	0.032	Yaw Set Point:	-2.937	X_WP:	0.000	Y_WP:	0.000	Y_WP:	0.500	X:	0.163	Y:	0.066	Z:	0.405	yaw:	168.282	yaw rate:	-0.236	Roll:	-4.817	Pitch:	-3.395	Yaw:	236.490	Thrust:	39.098
Time:	5.190	Roll Set Point:	-0.017	Pitch Set Point:	0.032	Yaw Set Point:	-2.936	X_WP:	0.000	Y_WP:	0.000	Y_WP:	0.500	X:	0.163	Y:	0.066	Z:	0.404	yaw:	168.240	yaw rate:	-4.228	Roll:	-4.743	Pitch:	-3.610	Yaw:	235.762	Thrust:	39.625
Time:	5.206	Roll Set Point:	-0.017	Pitch Set Point:	0.032	Yaw Set Point:	-2.937	X_WP:	0.000	Y_WP:	0.000	Y_WP:	0.500	X:	0.163	Y:	0.066	Z:	0.404	yaw:	168.284	yaw rate:	4.380	Roll:	-4.873	Pitch:	-3.287	Yaw:	237.265	Thrust:	39.603
Time:	5.221	Roll Set Point:	-0.017	Pitch Set Point:	0.032	Yaw Set Point:	-2.937	X_WP:	0.000	Y_WP:	0.000	Y_WP:	0.500	X:	0.163	Y:	0.066	Z:	0.405	yaw:	168.256	yaw rate:	-2.783	Roll:	-4.773	Pitch:	-3.426	Yaw:	236.026	Thrust:	39.710
Time:	5.237	Roll Set Point:	-0.017	Pitch Set Point:	0.032	Yaw Set Point:	-2.938	X_WP:	0.000	Y_WP:	0.000	Y_WP:	0.500	X:	0.163	Y:	0.066	Z:	0.404	yaw:	168.310	yaw rate:	5.427	Roll:	-4.899	Pitch:	-3.337	Yaw:	237.479	Thrust:	40.325
Time:	5.253	Roll Set Point:	-0.017	Pitch Set Point:	0.032	Yaw Set Point:	-2.938	X_WP:	0.000	Y_WP:	0.000	Y_WP:	0.500	X:	0.163	Y:	0.066	Z:	0.404	yaw:	168.310	yaw rate:	5.427	Roll:	-4.812	Pitch:	-3.420	Yaw:	236.565	Thrust:	40.120
Time:	5.268	Roll Set Point:	-0.017	Pitch Set Point:	0.032	Yaw Set Point:	-2.937	X_WP:	0.000	Y_WP:	0.000	Y_WP:	0.500	X:	0.163	Y:	0.066	Z:	0.404	yaw:	168.269	yaw rate:	0.669	Roll:	-4.743	Pitch:	-3.562	Yaw:	235.816	Thrust:	40.309
Time:	5.284	Roll Set Point:	-0.017	Pitch Set Point:	0.032	Yaw Set Point:	-2.937	X_WP:	0.000	Y_WP:	0.000	Y_WP:	0.500	X:	0.163	Y:	0.066	Z:	0.404	yaw:	168.258	yaw rate:	-1.120	Roll:	-4.785	Pitch:	-3.368	Yaw:	236.307	Thrust:	40.446
Time:	5.300	Roll Set Point:	-0.017	Pitch Set Point:	0.032	Yaw Set Point:	-2.937	X_WP:	0.000	Y_WP:	0.000	Y_WP:	0.500	X:	0.163	Y:	0.066	Z:	0.404	yaw:	168.263	yaw rate:	0.504	Roll:	-4.818	Pitch:	-3.430	Yaw:	236.586	Thrust:	40.867
Time:	5.315	Roll Set Point:	-0.017	Pitch Set Point:	0.032	Yaw Set Point:	-2.937	X_WP:	0.000	Y_WP:	0.000	Y_WP:	0.500	X:	0.163	Y:	0.066	Z:	0.404	yaw:	168.263	yaw rate:	0.504	Roll:	-4.811	Pitch:	-3.423	Yaw:	236.502	Thrust:	40.899
Time:	5.331	Roll Set Point:	-0.017	Pitch Set Point:	0.032	Yaw Set Point:	-2.937	X_WP:	0.000	Y_WP:	0.000	Y_WP:	0.500	X:	0.163	Y:	0.066	Z:	0.405	yaw:	168.254	yaw rate:	-0.884	Roll:	-4.818	Pitch:	-3.477	Yaw:	236.341	Thrust:	40.823
Time:	5.346	Roll Set Point:	-0.017	Pitch Set Point:	0.032	Yaw Set Point:	-2.937	X_WP:	0.000	Y_WP:	0.000	Y_WP:	0.500	X:	0.163	Y:	0.066	Z:	0.404	yaw:	168.286	yaw rate:	0.535	Roll:	-4.849	Pitch:	-3.358	Yaw:	237.075	Thrust:	41.446
Time:	5.362	Roll Set Point:	-0.017	Pitch Set Point:	0.032	Yaw Set Point:	-2.937	X_WP:	0.000	Y_WP:	0.000	Y_WP:	0.500	X:	0.163	Y:	0.066	Z:	0.404	yaw:	168.286	yaw rate:	0.535	Roll:	-4.812	Pitch:	-3.423	Yaw:	236.535	Thrust:	41.439
Time:	5.379	Roll Set Point:	-0.017	Pitch Set Point:	0.032	Yaw Set Point:	-2.937	X_WP:	0.000	Y_WP:	0.000	Y_WP:	0.500	X:	0.163	Y:	0.066	Z:	0.404	yaw:	168.279	yaw rate:	-0.897	Roll:	-4.809	Pitch:	-3.481	Yaw:	236.398	Thrust:	41.675
Time:	5.394	Roll Set Point:	-0.017	Pitch Set Point:	0.032	Yaw Set Point:	-2.936	X_WP:	0.000	Y_WP:	0.000	Y_WP:	0.500	X:	0.163	Y:	0.066	Z:	0.405	yaw:	168.236	yaw rate:	-4.301	Roll:	-4.744	Pitch:	-3.527	Yaw:	235.810	Thrust:	42.681
Time:	5.414	Roll Set Point:	-0.017	Pitch Set Point:	0.032	Yaw Set Point:	-2.936	X_WP:	0.000	Y_WP:	0.000	Y_WP:	0.500	X:	0.163	Y:	0.066	Z:	0.405	yaw:	168.236	yaw rate:	-4.301	Roll:	-4.965	Pitch:	-3.582	Yaw:	236.877	Thrust:	51.679
Time:	5.429	Roll Set Point:	-0.017	Pitch Set Point:	0.032	Yaw Set Point:	-2.937	X_WP:	0.000	Y_WP:	0.000	Y_WP:	0.500	X:	0.163	Y:	0.066	Z:	0.404	yaw:	168.295	yaw rate:	0.038	Roll:	-4.950	Pitch:	-3.245	Yaw:	237.548	Thrust:	42.425
Time:	5.445	Roll Set Point:	-0.017	Pitch Set Point:	0.032	Yaw Set Point:	-2.937	X_WP:	0.000	Y_WP:	0.000	Y_WP:	0.500	X:	0.163	Y:	0.066	Z:	0.404	yaw:	168.295	yaw rate:	0.038	Roll:	-4.812	Pitch:	-3.421	Yaw:	236.544	Thrust:	42.267
Time:	5.461	Roll Set Point:	-0.017	Pitch Set Point:	0.032	Yaw Set Point:	-2.937	X_WP:	0.000	Y_WP:	0.000	Y_WP:	0.500	X:	0.163	Y:	0.066	Z:	0.405	yaw:	168.255	yaw rate:	-3.985	Roll:	-4.733	Pitch:	-3.564	Yaw:	235.842	Thrust:	42.606
Time:	5.477	Roll Set Point:	-0.017	Pitch Set Point:	0.032	Yaw Set Point:	-2.937	X_WP:	0.000	Y_WP:	0.000	Y_WP:	0.500	X:	0.163	Y:	0.066	Z:	0.405	yaw:	168.255	yaw rate:	-3.985	Roll:	-4.852	Pitch:	-3.466	Yaw:	236.599	Thrust:	45.267
Time:	5.493	Roll Set Point:	-0.017	Pitch Set Point:	0.032	Yaw Set Point:	-2.937	X_WP:	0.000	Y_WP:	0.000	Y_WP:	0.500	X:	0.163	Y:	0.066	Z:	0.404	yaw:	168.278	yaw rate:	2.269	Roll:	-4.838	Pitch:	-3.315	Yaw:	236.905	Thrust:	43.061
Time:	5.509	Roll Set Point:	-0.017	Pitch Set Point:	0.032	Yaw Set Point:	-2.937	X_WP:	0.000	Y_WP:	0.000	Y_WP:	0.500	X:	0.163	Y:	0.066	Z:	0.404	yaw:	168.252	yaw rate:	-4.245	Roll:	-4.765	Pitch:	-3.573	Yaw:	236.059	Thrust:	43.111
Time:	5.524	Roll Set Point:	-0.017	Pitch Set Point:	0.032	Yaw Set Point:	-2.937	X_WP:	0.000	Y_WP:	0.000	Y_WP:	0.500	X:	0.163	Y:	0.066	Z:	0.404	yaw:	168.252	yaw rate:	-4.245	Roll:	-4.811	Pitch:	-3.427	Yaw:	236.487	Thrust:	43.223
Time:	5.540	Roll Set Point:	-0.017	Pitch Set Point:	0.032	Yaw Set Point:	-2.936	X_WP:	0.000	Y_WP:	0.000	Y_WP:	0.500	X:	0.163	Y:	0.066	Z:	0.404	yaw:	168.232	yaw rate:	-2.031	Roll:	-4.781	Pitch:	-3.445	Yaw:	236.115	Thrust:	43.208
Time:	5.556	Roll Set Point:	-0.016	Pitch Set Point:	0.031	Yaw Set Point:	-2.943	X_WP:	0.000	Y_WP:	0.000	Y_WP:	0.500	X:	0.162	Y:	0.066	Z:	0.404	yaw:	168.646	yaw rate:	36.435	Roll:	-5.485	Pitch:	-2.240	Yaw:	243.939	Thrust:	44.262
Time:	5.571	Roll Set Point:	-0.017	Pitch Set Point:	0.032	Yaw Set Point:	-2.937	X_WP:	0.000	Y_WP:	0.000	Y_WP:	0.500	X:	0.163	Y:	0.066	Z:	0.404	yaw:	168.269	yaw rate:	-37.747	Roll:	-4.197	Pitch:	-4.470	Yaw:	230.181	Thrust:	43.448
Time:	5.587	Roll Set Point:	-0.017	Pitch Set Point:	0.032	Yaw Set Point:	-2.937	X_WP:	0.000	Y_WP:	0.000	Y_WP:	0.500	X:	0.163	Y:	0.066	Z:	0.404	yaw:	168.269	yaw rate:	-37.747	Roll:	-4.808	Pitch:	-3.421	Yaw:	236.501	Thrust:	43.723
Time:	5.602	Roll Set Point:	-0.017	Pitch Set Point:	0.032	Yaw Set Point:	-2.936	X_WP:	0.000	Y_WP:	0.000	Y_WP:	0.500	X:	0.163	Y:	0.066	Z:	0.405	yaw:	168.247	yaw rate:	-2.157	Roll:	-4.803	Pitch:	-3.518	Yaw:	236.119	Thrust:	43.936
Time:	5.618	Roll Set Point:	-0.017	Pitch Set Point:	0.032	Yaw Set Point:	-2.937	X_WP:	0.000	Y_WP:	0.000	Y_WP:	0.500	X:	0.163	Y:	0.066	Z:	0.404	yaw:	168.305	yaw rate:	3.596	Roll:	-4.911	Pitch:	-3.184	Yaw:	237.528	Thrust:	44.472
Time:	5.634	Roll Set Point:	-0.017	Pitch Set Point:	0.032	Yaw Set Point:	-2.937	X_WP:	0.000	Y_WP:	0.000	Y_WP:	0.500	X:	0.163	Y:	0.066	Z:	0.404	yaw:	168.305	yaw rate:	3.596	Roll:	-4.814	Pitch:	-3.420	Yaw:	236.561	Thrust:	44.486
Time:	5.649	Roll Set Point:	-0.017	Pitch Set Point:	0.032	Yaw Set Point:	-2.937	X_WP:	0.000	Y_WP:	0.000	Y_WP:	0.500	X:	0.163	Y:	0.066	Z:	0.404	yaw:	168.287	yaw rate:	-1.840	Roll:	-4.780	Pitch:	-3.590	Yaw:	236.227	Thrust:	44.668
Time:	5.665	Roll Set Point:	-0.017	Pitch Set Point:	0.032	Yaw Set Point:	-2.937	X_WP:	0.000	Y_WP:	0.000	Y_WP:	0.500	X:	0.163	Y:	0.066	Z:	0.404	yaw:	168.287	yaw rate:	-1.840	Roll:	-4.813	Pitch:	-3.425	Yaw:	236.535	Thrust:	44.849
Time:	5.680	Roll Set Point:	-0.017	Pitch Set Point:	0.032	Yaw Set Point:	-2.937	X_WP:	0.000	Y_WP:	0.000	Y_WP:	0.500	X:	0.163	Y:	0.066	Z:	0.404	yaw:	168.274	yaw rate:	-1.243	Roll:	-4.773	Pitch:	-3.363	Yaw:	236.309	Thrust:	44.969
Time:	5.696	Roll Set Point:	-0.017	Pitch Set Point:	0.032	Yaw Set Point:	-2.937	X_WP:	0.000	Y_WP:	0.000	Y_WP:	0.500	X:	0.163	Y:	0.066	Z:	0.404	yaw:	168.274	yaw rate:	-1.243	Roll:	-4.812	Pitch:	-3.423	Yaw:	236.518	Thrust:	45.202
Time:	5.712	Roll Set Point:	-0.017	Pitch Set Point:	0.032	Yaw Set Point:	-2.937	X_WP:	0.000	Y_WP:	0.000	Y_WP:	0.500	X:	0.163	Y:	0.066	Z:	0.404	yaw:	168.275	yaw rate:	-1.112	Roll:	-4.820	Pitch:	-3.489	Yaw:	236.526	Thrust:	45.399
Time:	5.727	Roll Set Point:	-0.017	Pitch Set Point:	0.032	Yaw Set Point:	-2.937	X_WP:	0.000	Y_WP:	0.000	Y_WP:	0.500	X:	0.163	Y:	0.066	Z:	0.405	yaw:	168.260	yaw rate:	-1.422	Roll:	-4.802	Pitch:	-3.422	Yaw:	236.260	Thrust:	45.396
Time:	5.743	Roll Set Point:	-0.017	Pitch Set Point:	0.032	Yaw Set Point:	-2.937	X_WP:	0.000	Y_WP:	0.000	Y_WP:	0.500	X:	0.163	Y:	0.066	Z:	0.404	yaw:	168.276	yaw rate:	1.613	Roll:	-4.832	Pitch:	-3.403	Yaw:	236.794	Thrust:	46.040
Time:	5.759	Roll Set Point:	-0.016	Pitch Set Point:	0.031	Yaw Set Point:	-2.942	X_WP:	0.000	Y_WP:	0.000	Y_WP:	0.500	X:	0.162	Y:	0.066	Z:	0.404	yaw:	168.548	yaw rate:	27.141	Roll:	-5.244	Pitch:	-2.658	Yaw:	241.451	Thrust:	46.069
Time:	5.774	Roll Set Point:	-0.017	Pitch Set Point:	0.032	Yaw Set Point:	-2.937	X_WP:	0.000	Y_WP:	0.000	Y_WP:	0.500	X:	0.163	Y:	0.066	Z:	0.404	yaw:	168.274	yaw rate:	-27.375	Roll:	-4.383	Pitch:	-4.211	Yaw:	231.929	Thrust:	45.795
Time:	5.790	Roll Set Point:	-0.017	Pitch Set Point:	0.032	Yaw Set Point:	-2.937	X_WP:	0.000	Y_WP:	0.000	Y_WP:	0.500	X:	0.163	Y:	0.066	Z:	0.405	yaw:	168.265	yaw rate:	-0.880	Roll:	-4.803	Pitch:	-3.382	Yaw:	236.358	Thrust:	46.100
Time:	5.805	Roll Set Point:	-0.017	Pitch Set Point:	0.032	Yaw Set Point:	-2.937	X_WP:	0.000	Y_WP:	0.000	Y_WP:	0.500	X:	0.163	Y:	0.066	Z:	0.404	yaw:	168.262	yaw rate:	-0.365	Roll:	-4.809	Pitch:	-3.408	Yaw:	236.439	Thrust:	46.579
Time:	5.821	Roll Set Point:	-0.017	Pitch Set Point:	0.032	Yaw Set Point:	-2.937	X_WP:	0.000	Y_WP:	0.000	Y_WP:	0.500	X:	0.163	Y:	0.066	Z:	0.404	yaw:	168.299	yaw rate:	3.687	Roll:	-4.878	Pitch:	-3.319	Yaw:	237.169	Thrust:	46.729
Time:	5.837	Roll Set Point:	-0.017	Pitch Set Point:	0.032	Yaw Set Point:	-2.937	X_WP:	0.000	Y_WP:	0.000	Y_WP:	0.500	X:	0.163	Y:	0.066	Z:	0.404	yaw:	168.299	yaw rate:	3.687	Roll:	-4.813	Pitch:	-3.421	Yaw:	236.552	Thrust:	46.813
Time:	5.852	Roll Set Point:	-0.017	Pitch Set Point:	0.032	Yaw Set Point:	-2.937	X_WP:	0.000	Y_WP:	0.000	Y_WP:	0.500	X:	0.163	Y:	0.066	Z:	0.404	yaw:	168.254	yaw rate:	-4.475	Roll:	-4.719	Pitch:	-3.624	Yaw:	235.739	Thrust:	46.897
Time:	5.868	Roll Set Point:	-0.017	Pitch Set Point:	0.032	Yaw Set Point:	-2.937	X_WP:	0.000	Y_WP:	0.000	Y_WP:	0.500	X:	0.163	Y:	0.066	Z:	0.404	yaw:	168.254	yaw rate:	-4.475	Roll:	-4.811	Pitch:	-3.426	Yaw:	236.489	Thrust:	47.173
Time:	5.884	Roll Set Point:	-0.017	Pitch Set Point:	0.032	Yaw Set Point:	-2.937	X_WP:	0.000	Y_WP:	0.000	Y_WP:	0.500	X:	0.163	Y:	0.066	Z:	0.404	yaw:	168.287	yaw rate:	3.117	Roll:	-4.882	Pitch:	-3.265	Yaw:	237.094	Thrust:	47.450
Time:	5.899	Roll Set Point:	-0.017	Pitch Set Point:	0.032	Yaw Set Point:	-2.937	X_WP:	0.000	Y_WP:	0.000	Y_WP:	0.500	X:	0.163	Y:	0.066	Z:	0.405	yaw:	168.263	yaw rate:	-2.437	Roll:	-4.762	Pitch:	-3.498	Yaw:	236.094	Thrust:	47.310
Time:	5.915	Roll Set Point:	-0.017	Pitch Set Point:	0.032	Yaw Set Point:	-2.937	X_WP:	0.000	Y_WP:	0.000	Y_WP:	0.500	X:	0.163	Y:	0.066	Z:	0.404	yaw:	168.270	yaw rate:	0.749	Roll:	-4.833	Pitch:	-3.500	Yaw:	236.638	Thrust:	47.925
Time:	5.930	Roll Set Point:	-0.017	Pitch Set Point:	0.032	Yaw Set Point:	-2.937	X_WP:	0.000	Y_WP:	0.000	Y_WP:	0.500	X:	0.163	Y:	0.066	Z:	0.404	yaw:	168.257	yaw rate:	-1.323	Roll:	-4.777	Pitch:	-3.383	Yaw:	236.273	Thrust:	47.763
Time:	5.946	Roll Set Point:	-0.017	Pitch Set Point:	0.032	Yaw Set Point:	-2.937	X_WP:	0.000	Y_WP:	0.000	Y_WP:	0.500	X:	0.163	Y:	0.066	Z:	0.404	yaw:	168.257	yaw rate:	-1.323	Roll:	-4.811	Pitch:	-3.425	Yaw:	236.494	Thrust:	48.058
Time:	5.962	Roll Set Point:	-0.017	Pitch Set Point:	0.032	Yaw Set Point:	-2.937	X_WP:	0.000	Y_WP:	0.000	Y_WP:	0.500	X:	0.163	Y:	0.066	Z:	0.404	yaw:	168.275	yaw rate:	0.519	Roll:	-4.859	Pitch:	-3.347	Yaw:	236.823	Thrust:	48.244
Time:	5.977	Roll Set Point:	-0.017	Pitch Set Point:	0.032	Yaw Set Point:	-2.937	X_WP:	0.000	Y_WP:	0.000	Y_WP:	0.500	X:	0.163	Y:	0.066	Z:	0.404	yaw:	168.267	yaw rate:	-0.823	Roll:	-4.780	Pitch:	-3.515	Yaw:	236.370	Thrust:	48.485
Time:	5.993	Roll Set Point:	-0.017	Pitch Set Point:	0.032	Yaw Set Point:	-2.936	X_WP:	0.000	Y_WP:	0.000	Y_WP:	0.500	X:	0.163	Y:	0.066	Z:	0.405	yaw:	168.247	yaw rate:	-2.046	Roll:	-4.791	Pitch:	-3.449	Yaw:	236.136	Thrust:	48.517
Time:	6.009	Roll Set Point:	-0.162	Pitch Set Point:	-0.129	Yaw Set Point:	-2.937	X_WP:	0.175	Y_WP:	0.127	Y_WP:	0.500	X:	0.163	Y:	0.066	Z:	0.404	yaw:	168.291	yaw rate:	4.465	Roll:	30.000	Pitch:	30.000	Yaw:	237.290	Thrust:	48.929
Time:	6.024	Roll Set Point:	-0.162	Pitch Set Point:	-0.129	Yaw Set Point:	-2.937	X_WP:	0.175	Y_WP:	0.127	Y_WP:	0.500	X:	0.163	Y:	0.066	Z:	0.404	yaw:	168.291	yaw rate:	4.465	Roll:	-0.596	Pitch:	1.225	Yaw:	236.542	Thrust:	48.965
Time:	6.040	Roll Set Point:	-0.162	Pitch Set Point:	-0.129	Yaw Set Point:	-2.936	X_WP:	0.175	Y_WP:	0.127	Y_WP:	0.500	X:	0.163	Y:	0.066	Z:	0.404	yaw:	168.243	yaw rate:	-0.504	Roll:	-0.672	Pitch:	1.225	Yaw:	235.662	Thrust:	49.103
Time:	6.056	Roll Set Point:	-0.162	Pitch Set Point:	-0.129	Yaw Set Point:	-2.937	X_WP:	0.175	Y_WP:	0.127	Y_WP:	0.500	X:	0.163	Y:	0.066	Z:	0.404	yaw:	168.258	yaw rate:	1.525	Roll:	-0.582	Pitch:	1.230	Yaw:	236.751	Thrust:	49.402
Time:	6.071	Roll Set Point:	-0.162	Pitch Set Point:	-0.129	Yaw Set Point:	-2.937	X_WP:	0.175	Y_WP:	0.127	Y_WP:	0.500	X:	0.163	Y:	0.066	Z:	0.405	yaw:	168.265	yaw rate:	0.726	Roll:	-0.552	Pitch:	1.227	Yaw:	236.626	Thrust:	49.326
Time:	6.087	Roll Set Point:	-0.162	Pitch Set Point:	-0.129	Yaw Set Point:	-2.937	X_WP:	0.175	Y_WP:	0.127	Y_WP:	0.500	X:	0.163	Y:	0.066	Z:	0.404	yaw:	168.299	yaw rate:	3.344	Roll:	-0.579	Pitch:	1.240	Yaw:	237.112	Thrust:	49.890
Time:	6.102	Roll Set Point:	-0.162	Pitch Set Point:	-0.129	Yaw Set Point:	-2.937	X_WP:	0.175	Y_WP:	0.127	Y_WP:	0.500	X:	0.163	Y:	0.066	Z:	0.405	yaw:	168.259	yaw rate:	-3.949	Roll:	-0.639	Pitch:	1.242	Yaw:	235.833	Thrust:	49.616
Time:	6.118	Roll Set Point:	-0.162	Pitch Set Point:	-0.129	Yaw Set Point:	-2.937	X_WP:	0.175	Y_WP:	0.127	Y_WP:	0.500	X:	0.163	Y:	0.066	Z:	0.405	yaw:	168.259	yaw rate:	-3.949	Roll:	-0.596	Pitch:	1.240	Yaw:	236.497	Thrust:	50.035
Time:	6.134	Roll Set Point:	-0.162	Pitch Set Point:	-0.129	Yaw Set Point:	-2.937	X_WP:	0.175	Y_WP:	0.127	Y_WP:	0.500	X:	0.163	Y:	0.066	Z:	0.404	yaw:	168.274	yaw rate:	1.814	Roll:	-0.574	Pitch:	1.240	Yaw:	236.762	Thrust:	50.321
Time:	6.149	Roll Set Point:	-0.162	Pitch Set Point:	-0.129	Yaw Set Point:	-2.937	X_WP:	0.175	Y_WP:	0.127	Y_WP:	0.500	X:	0.163	Y:	0.066	Z:	0.404	yaw:	168.277	yaw rate:	0.283	Roll:	-0.589	Pitch:	1.247	Yaw:	236.568	Thrust:	50.401
Time:	6.165	Roll Set Point:	-0.162	Pitch Set Point:	-0.129	Yaw Set Point:	-2.937	X_WP:	0.175	Y_WP:	0.127	Y_WP:	0.500	X:	0.163	Y:	0.066	Z:	0.404	yaw:	168.280	yaw rate:	0.379	Roll:	-0.602	Pitch:	1.245	Yaw:	236.590	Thrust:	50.544
Time:	6.181	Roll Set Point:	-0.162	Pitch Set Point:	-0.129	Yaw Set Point:	-2.936	X_WP:	0.175	Y_WP:	0.127	Y_WP:	0.500	X:	0.163	Y:	0.066	Z:	0.404	yaw:	168.246	yaw rate:	-3.450	Roll:	-0.639	Pitch:	1.253	Yaw:	235.900	Thrust:	50.696
Time:	6.196	Roll Set Point:	-0.162	Pitch Set Point:	-0.129	Yaw Set Point:	-2.936	X_WP:	0.175	Y_WP:	0.127	Y_WP:	0.500	X:	0.163	Y:	0.066	Z:	0.404	yaw:	168.246	yaw rate:	-3.450	Roll:	-0.597	Pitch:	1.252	Yaw:	236.478	Thrust:	50.936
Time:	6.212	Roll Set Point:	-0.162	Pitch Set Point:	-0.129	Yaw Set Point:	-2.937	X_WP:	0.175	Y_WP:	0.127	Y_WP:	0.500	X:	0.163	Y:	0.066	Z:	0.404	yaw:	168.270	yaw rate:	2.439	Roll:	-0.563	Pitch:	1.255	Yaw:	236.921	Thrust:	51.121
Time:	6.227	Roll Set Point:	-0.162	Pitch Set Point:	-0.129	Yaw Set Point:	-2.937	X_WP:	0.175	Y_WP:	0.127	Y_WP:	0.500	X:	0.163	Y:	0.066	Z:	0.404	yaw:	168.273	yaw rate:	0.507	Roll:	-0.594	Pitch:	1.255	Yaw:	236.560	Thrust:	51.436
Time:	6.243	Roll Set Point:	-0.162	Pitch Set Point:	-0.129	Yaw Set Point:	-2.936	X_WP:	0.175	Y_WP:	0.127	Y_WP:	0.500	X:	0.163	Y:	0.066	Z:	0.405	yaw:	168.242	yaw rate:	-3.124	Roll:	-0.633	Pitch:	1.261	Yaw:	235.949	Thrust:	51.217
Time:	6.259	Roll Set Point:	-0.162	Pitch Set Point:	-0.129	Yaw Set Point:	-2.937	X_WP:	0.175	Y_WP:	0.127	Y_WP:	0.500	X:	0.163	Y:	0.066	Z:	0.404	yaw:	168.288	yaw rate:	4.638	Roll:	-0.545	Pitch:	1.262	Yaw:	237.314	Thrust:	51.839
Time:	6.274	Roll Set Point:	-0.162	Pitch Set Point:	-0.129	Yaw Set Point:	-2.937	X_WP:	0.175	Y_WP:	0.127	Y_WP:	0.500	X:	0.163	Y:	0.066	Z:	0.404	yaw:	168.288	yaw rate:	4.638	Roll:	-0.595	Pitch:	1.264	Yaw:	236.537	Thrust:	51.831
Time:	6.290	Roll Set Point:	-0.162	Pitch Set Point:	-0.129	Yaw Set Point:	-2.937	X_WP:	0.175	Y_WP:	0.127	Y_WP:	0.500	X:	0.163	Y:	0.066	Z:	0.405	yaw:	168.256	yaw rate:	-1.229	Roll:	-0.625	Pitch:	1.267	Yaw:	235.954	Thrust:	51.876
Time:	6.306	Roll Set Point:	-0.162	Pitch Set Point:	-0.129	Yaw Set Point:	-2.937	X_WP:	0.175	Y_WP:	0.127	Y_WP:	0.500	X:	0.163	Y:	0.066	Z:	0.404	yaw:	168.279	yaw rate:	2.301	Roll:	-0.574	Pitch:	1.270	Yaw:	236.910	Thrust:	52.302
