Time:	2.058	Roll Set Point:	0.001	Pitch Set Point:	-0.042	Yaw Set Point:	-0.113	X_WP:	0.000	Y_WP:	0.000	Y_WP:	0.500	X:	-0.001	Y:	0.021	Z:	0.050	yaw:	6.467	yaw rate:	-10.427	Roll:	0.026	Pitch:	0.610	Yaw:	9.030	Thrust:	24.761
Time:	2.069	Roll Set Point:	0.001	Pitch Set Point:	-0.042	Yaw Set Point:	-0.113	X_WP:	0.000	Y_WP:	0.000	Y_WP:	0.500	X:	-0.001	Y:	0.021	Z:	0.050	yaw:	6.474	yaw rate:	0.709	Roll:	0.061	Pitch:	0.635	Yaw:	9.233	Thrust:	25.460
Time:	2.081	Roll Set Point:	0.001	Pitch Set Point:	-0.042	Yaw Set Point:	-0.113	X_WP:	0.000	Y_WP:	0.000	Y_WP:	0.500	X:	-0.001	Y:	0.021	Z:	0.050	yaw:	6.459	yaw rate:	-1.512	Roll:	0.006	Pitch:	0.643	Yaw:	8.745	Thrust:	26.030
Time:	2.092	Roll Set Point:	0.001	Pitch Set Point:	-0.042	Yaw Set Point:	-0.115	X_WP:	0.000	Y_WP:	0.000	Y_WP:	0.500	X:	-0.001	Y:	0.021	Z:	0.050	yaw:	6.568	yaw rate:	10.911	Roll:	0.032	Pitch:	0.490	Yaw:	11.836	Thrust:	26.794
Time:	2.103	Roll Set Point:	0.001	Pitch Set Point:	-0.042	Yaw Set Point:	-0.113	X_WP:	0.000	Y_WP:	0.000	Y_WP:	0.500	X:	-0.001	Y:	0.021	Z:	0.050	yaw:	6.465	yaw rate:	-10.270	Roll:	0.025	Pitch:	0.715	Yaw:	6.690	Thrust:	26.978
Time:	2.115	Roll Set Point:	0.001	Pitch Set Point:	-0.042	Yaw Set Point:	-0.115	X_WP:	0.000	Y_WP:	0.000	Y_WP:	0.500	X:	-0.001	Y:	0.021	Z:	0.050	yaw:	6.610	yaw rate:	14.030	Roll:	0.067	Pitch:	0.481	Yaw:	12.558	Thrust:	28.101
Time:	2.126	Roll Set Point:	0.001	Pitch Set Point:	-0.042	Yaw Set Point:	-0.115	X_WP:	0.000	Y_WP:	0.000	Y_WP:	0.500	X:	-0.001	Y:	0.021	Z:	0.050	yaw:	6.610	yaw rate:	14.030	Roll:	0.027	Pitch:	0.611	Yaw:	9.380	Thrust:	28.349
Time:	2.137	Roll Set Point:	0.001	Pitch Set Point:	-0.042	Yaw Set Point:	-0.113	X_WP:	0.000	Y_WP:	0.000	Y_WP:	0.500	X:	-0.001	Y:	0.021	Z:	0.050	yaw:	6.491	yaw rate:	-11.918	Roll:	-0.005	Pitch:	0.740	Yaw:	6.402	Thrust:	28.736
Time:	2.148	Roll Set Point:	0.001	Pitch Set Point:	-0.042	Yaw Set Point:	-0.113	X_WP:	0.000	Y_WP:	0.000	Y_WP:	0.500	X:	-0.001	Y:	0.021	Z:	0.050	yaw:	6.469	yaw rate:	-2.204	Roll:	-0.014	Pitch:	0.616	Yaw:	8.710	Thrust:	29.496
Time:	2.159	Roll Set Point:	0.001	Pitch Set Point:	-0.042	Yaw Set Point:	-0.113	X_WP:	0.000	Y_WP:	0.000	Y_WP:	0.500	X:	-0.001	Y:	0.021	Z:	0.050	yaw:	6.455	yaw rate:	-1.398	Roll:	0.028	Pitch:	0.639	Yaw:	8.906	Thrust:	30.180
Time:	2.170	Roll Set Point:	0.001	Pitch Set Point:	-0.042	Yaw Set Point:	-0.113	X_WP:	0.000	Y_WP:	0.000	Y_WP:	0.500	X:	-0.001	Y:	0.021	Z:	0.050	yaw:	6.455	yaw rate:	-0.023	Roll:	0.010	Pitch:	0.618	Yaw:	9.257	Thrust:	30.819
Time:	2.181	Roll Set Point:	0.001	Pitch Set Point:	-0.042	Yaw Set Point:	-0.114	X_WP:	0.000	Y_WP:	0.000	Y_WP:	0.500	X:	-0.001	Y:	0.021	Z:	0.050	yaw:	6.523	yaw rate:	6.833	Roll:	0.074	Pitch:	0.494	Yaw:	10.983	Thrust:	31.362
Time:	2.193	Roll Set Point:	0.001	Pitch Set Point:	-0.042	Yaw Set Point:	-0.113	X_WP:	0.000	Y_WP:	0.000	Y_WP:	0.500	X:	-0.001	Y:	0.021	Z:	0.050	yaw:	6.503	yaw rate:	-1.997	Roll:	0.027	Pitch:	0.688	Yaw:	8.946	Thrust:	32.273
Time:	2.205	Roll Set Point:	0.001	Pitch Set Point:	-0.042	Yaw Set Point:	-0.114	X_WP:	0.000	Y_WP:	0.000	Y_WP:	0.500	X:	-0.001	Y:	0.021	Z:	0.050	yaw:	6.559	yaw rate:	5.637	Roll:	0.046	Pitch:	0.549	Yaw:	10.738	Thrust:	33.353
Time:	2.216	Roll Set Point:	0.001	Pitch Set Point:	-0.042	Yaw Set Point:	-0.113	X_WP:	0.000	Y_WP:	0.000	Y_WP:	0.500	X:	-0.001	Y:	0.021	Z:	0.050	yaw:	6.474	yaw rate:	-8.549	Roll:	-0.004	Pitch:	0.747	Yaw:	7.356	Thrust:	32.862
Time:	2.227	Roll Set Point:	0.001	Pitch Set Point:	-0.042	Yaw Set Point:	-0.114	X_WP:	0.000	Y_WP:	0.000	Y_WP:	0.500	X:	-0.001	Y:	0.021	Z:	0.050	yaw:	6.533	yaw rate:	5.937	Roll:	0.061	Pitch:	0.449	Yaw:	10.905	Thrust:	33.920
Time:	2.239	Roll Set Point:	0.001	Pitch Set Point:	-0.042	Yaw Set Point:	-0.113	X_WP:	0.000	Y_WP:	0.000	Y_WP:	0.500	X:	-0.001	Y:	0.021	Z:	0.050	yaw:	6.449	yaw rate:	-8.445	Roll:	-0.005	Pitch:	0.751	Yaw:	7.604	Thrust:	34.943
Time:	2.250	Roll Set Point:	0.001	Pitch Set Point:	-0.042	Yaw Set Point:	-0.113	X_WP:	0.000	Y_WP:	0.000	Y_WP:	0.500	X:	-0.001	Y:	0.021	Z:	0.050	yaw:	6.479	yaw rate:	3.026	Roll:	0.018	Pitch:	0.610	Yaw:	10.190	Thrust:	34.970
Time:	2.261	Roll Set Point:	0.001	Pitch Set Point:	-0.042	Yaw Set Point:	-0.114	X_WP:	0.000	Y_WP:	0.000	Y_WP:	0.500	X:	-0.001	Y:	0.021	Z:	0.050	yaw:	6.556	yaw rate:	7.748	Roll:	0.076	Pitch:	0.527	Yaw:	11.448	Thrust:	35.581
Time:	2.272	Roll Set Point:	0.001	Pitch Set Point:	-0.042	Yaw Set Point:	-0.113	X_WP:	0.000	Y_WP:	0.000	Y_WP:	0.500	X:	-0.001	Y:	0.021	Z:	0.050	yaw:	6.494	yaw rate:	-6.240	Roll:	0.002	Pitch:	0.698	Yaw:	8.062	Thrust:	35.816
Time:	2.283	Roll Set Point:	0.001	Pitch Set Point:	-0.042	Yaw Set Point:	-0.114	X_WP:	0.000	Y_WP:	0.000	Y_WP:	0.500	X:	-0.001	Y:	0.021	Z:	0.050	yaw:	6.545	yaw rate:	5.068	Roll:	0.007	Pitch:	0.565	Yaw:	10.842	Thrust:	37.060
Time:	2.294	Roll Set Point:	0.001	Pitch Set Point:	-0.042	Yaw Set Point:	-0.115	X_WP:	0.000	Y_WP:	0.000	Y_WP:	0.500	X:	-0.001	Y:	0.021	Z:	0.050	yaw:	6.596	yaw rate:	5.166	Roll:	0.050	Pitch:	0.600	Yaw:	10.963	Thrust:	37.324
Time:	2.306	Roll Set Point:	0.001	Pitch Set Point:	-0.042	Yaw Set Point:	-0.113	X_WP:	0.000	Y_WP:	0.000	Y_WP:	0.500	X:	-0.001	Y:	0.021	Z:	0.050	yaw:	6.496	yaw rate:	-9.990	Roll:	0.012	Pitch:	0.689	Yaw:	7.505	Thrust:	38.841
Time:	2.317	Roll Set Point:	0.001	Pitch Set Point:	-0.042	Yaw Set Point:	-0.113	X_WP:	0.000	Y_WP:	0.000	Y_WP:	0.500	X:	-0.001	Y:	0.021	Z:	0.050	yaw:	6.495	yaw rate:	-0.111	Roll:	0.029	Pitch:	0.646	Yaw:	9.618	Thrust:	38.455
Time:	2.328	Roll Set Point:	0.001	Pitch Set Point:	-0.042	Yaw Set Point:	-0.114	X_WP:	0.000	Y_WP:	0.000	Y_WP:	0.500	X:	-0.001	Y:	0.021	Z:	0.050	yaw:	6.558	yaw rate:	6.250	Roll:	0.039	Pitch:	0.537	Yaw:	11.239	Thrust:	39.256
Time:	2.339	Roll Set Point:	0.001	Pitch Set Point:	-0.042	Yaw Set Point:	-0.115	X_WP:	0.000	Y_WP:	0.000	Y_WP:	0.500	X:	-0.001	Y:	0.021	Z:	0.050	yaw:	6.594	yaw rate:	3.634	Roll:	0.054	Pitch:	0.606	Yaw:	10.697	Thrust:	39.735
Time:	2.350	Roll Set Point:	0.001	Pitch Set Point:	-0.042	Yaw Set Point:	-0.115	X_WP:	0.000	Y_WP:	0.000	Y_WP:	0.500	X:	-0.001	Y:	0.021	Z:	0.050	yaw:	6.571	yaw rate:	-2.360	Roll:	0.008	Pitch:	0.633	Yaw:	9.266	Thrust:	40.228
Time:	2.361	Roll Set Point:	0.001	Pitch Set Point:	-0.042	Yaw Set Point:	-0.115	X_WP:	0.000	Y_WP:	0.000	Y_WP:	0.500	X:	-0.001	Y:	0.021	Z:	0.050	yaw:	6.567	yaw rate:	-0.326	Roll:	0.009	Pitch:	0.621	Yaw:	9.770	Thrust:	40.674
Time:	2.372	Roll Set Point:	0.001	Pitch Set Point:	-0.042	Yaw Set Point:	-0.113	X_WP:	0.000	Y_WP:	0.000	Y_WP:	0.500	X:	-0.001	Y:	0.021	Z:	0.050	yaw:	6.490	yaw rate:	-7.774	Roll:	0.018	Pitch:	0.699	Yaw:	7.919	Thrust:	41.436
Time:	2.383	Roll Set Point:	0.001	Pitch Set Point:	-0.042	Yaw Set Point:	-0.115	X_WP:	0.000	Y_WP:	0.000	Y_WP:	0.500	X:	-0.001	Y:	0.021	Z:	0.050	yaw:	6.577	yaw rate:	8.702	Roll:	0.074	Pitch:	0.558	Yaw:	11.976	Thrust:	42.259
Time:	2.394	Roll Set Point:	0.001	Pitch Set Point:	-0.042	Yaw Set Point:	-0.112	X_WP:	0.000	Y_WP:	0.000	Y_WP:	0.500	X:	-0.001	Y:	0.021	Z:	0.050	yaw:	6.438	yaw rate:	-13.867	Roll:	-0.030	Pitch:	0.740	Yaw:	6.450	Thrust:	42.376
Time:	2.405	Roll Set Point:	0.001	Pitch Set Point:	-0.042	Yaw Set Point:	-0.114	X_WP:	0.000	Y_WP:	0.000	Y_WP:	0.500	X:	-0.001	Y:	0.021	Z:	0.050	yaw:	6.513	yaw rate:	7.463	Roll:	0.044	Pitch:	0.591	Yaw:	11.642	Thrust:	43.325
Time:	2.416	Roll Set Point:	0.001	Pitch Set Point:	-0.042	Yaw Set Point:	-0.114	X_WP:	0.000	Y_WP:	0.000	Y_WP:	0.500	X:	-0.001	Y:	0.021	Z:	0.050	yaw:	6.542	yaw rate:	2.940	Roll:	0.048	Pitch:	0.556	Yaw:	10.635	Thrust:	43.952
Time:	2.427	Roll Set Point:	0.000	Pitch Set Point:	-0.042	Yaw Set Point:	-0.113	X_WP:	0.000	Y_WP:	0.000	Y_WP:	0.500	X:	-0.001	Y:	0.021	Z:	0.050	yaw:	6.493	yaw rate:	-4.921	Roll:	0.077	Pitch:	0.663	Yaw:	8.721	Thrust:	44.085
Time:	2.439	Roll Set Point:	0.001	Pitch Set Point:	-0.042	Yaw Set Point:	-0.115	X_WP:	0.000	Y_WP:	0.000	Y_WP:	0.500	X:	-0.001	Y:	0.021	Z:	0.050	yaw:	6.581	yaw rate:	8.779	Roll:	0.015	Pitch:	0.582	Yaw:	12.028	Thrust:	47.126
Time:	2.450	Roll Set Point:	0.001	Pitch Set Point:	-0.042	Yaw Set Point:	-0.114	X_WP:	0.000	Y_WP:	0.000	Y_WP:	0.500	X:	-0.001	Y:	0.021	Z:	0.050	yaw:	6.542	yaw rate:	-3.894	Roll:	-0.029	Pitch:	0.642	Yaw:	9.088	Thrust:	45.649
Time:	2.461	Roll Set Point:	0.001	Pitch Set Point:	-0.042	Yaw Set Point:	-0.113	X_WP:	0.000	Y_WP:	0.000	Y_WP:	0.500	X:	-0.001	Y:	0.021	Z:	0.050	yaw:	6.493	yaw rate:	-4.900	Roll:	0.029	Pitch:	0.701	Yaw:	8.805	Thrust:	46.056
Time:	2.472	Roll Set Point:	0.001	Pitch Set Point:	-0.042	Yaw Set Point:	-0.114	X_WP:	0.000	Y_WP:	0.000	Y_WP:	0.500	X:	-0.001	Y:	0.021	Z:	0.050	yaw:	6.525	yaw rate:	3.278	Roll:	0.047	Pitch:	0.637	Yaw:	10.818	Thrust:	46.931
Time:	2.483	Roll Set Point:	0.001	Pitch Set Point:	-0.042	Yaw Set Point:	-0.115	X_WP:	0.000	Y_WP:	0.000	Y_WP:	0.500	X:	-0.001	Y:	0.021	Z:	0.050	yaw:	6.569	yaw rate:	4.393	Roll:	0.028	Pitch:	0.565	Yaw:	11.169	Thrust:	47.437
Time:	2.495	Roll Set Point:	0.001	Pitch Set Point:	-0.042	Yaw Set Point:	-0.115	X_WP:	0.000	Y_WP:	0.000	Y_WP:	0.500	X:	-0.001	Y:	0.021	Z:	0.050	yaw:	6.583	yaw rate:	1.354	Roll:	0.026	Pitch:	0.601	Yaw:	10.493	Thrust:	47.964
Time:	2.506	Roll Set Point:	0.001	Pitch Set Point:	-0.042	Yaw Set Point:	-0.115	X_WP:	0.000	Y_WP:	0.000	Y_WP:	0.500	X:	-0.001	Y:	0.021	Z:	0.050	yaw:	6.584	yaw rate:	0.164	Roll:	0.034	Pitch:	0.640	Yaw:	10.235	Thrust:	48.545
Time:	2.517	Roll Set Point:	0.001	Pitch Set Point:	-0.042	Yaw Set Point:	-0.115	X_WP:	0.000	Y_WP:	0.000	Y_WP:	0.500	X:	-0.001	Y:	0.021	Z:	0.050	yaw:	6.600	yaw rate:	1.586	Roll:	0.037	Pitch:	0.621	Yaw:	10.622	Thrust:	49.379
Time:	2.528	Roll Set Point:	0.001	Pitch Set Point:	-0.042	Yaw Set Point:	-0.113	X_WP:	0.000	Y_WP:	0.000	Y_WP:	0.500	X:	-0.001	Y:	0.021	Z:	0.050	yaw:	6.473	yaw rate:	-12.739	Roll:	-0.007	Pitch:	0.714	Yaw:	7.077	Thrust:	49.491
Time:	2.539	Roll Set Point:	0.001	Pitch Set Point:	-0.042	Yaw Set Point:	-0.113	X_WP:	0.000	Y_WP:	0.000	Y_WP:	0.500	X:	-0.001	Y:	0.021	Z:	0.050	yaw:	6.461	yaw rate:	-1.161	Roll:	0.018	Pitch:	0.657	Yaw:	9.826	Thrust:	50.429
Time:	2.550	Roll Set Point:	0.001	Pitch Set Point:	-0.042	Yaw Set Point:	-0.113	X_WP:	0.000	Y_WP:	0.000	Y_WP:	0.500	X:	-0.001	Y:	0.021	Z:	0.050	yaw:	6.501	yaw rate:	3.923	Roll:	0.024	Pitch:	0.616	Yaw:	11.111	Thrust:	51.018
Time:	2.561	Roll Set Point:	0.001	Pitch Set Point:	-0.042	Yaw Set Point:	-0.114	X_WP:	0.000	Y_WP:	0.000	Y_WP:	0.500	X:	-0.001	Y:	0.021	Z:	0.050	yaw:	6.542	yaw rate:	4.149	Roll:	0.089	Pitch:	0.545	Yaw:	11.222	Thrust:	51.621
Time:	2.572	Roll Set Point:	0.001	Pitch Set Point:	-0.042	Yaw Set Point:	-0.115	X_WP:	0.000	Y_WP:	0.000	Y_WP:	0.500	X:	-0.001	Y:	0.021	Z:	0.050	yaw:	6.564	yaw rate:	2.151	Roll:	0.041	Pitch:	0.650	Yaw:	10.792	Thrust:	52.934
Time:	2.583	Roll Set Point:	0.001	Pitch Set Point:	-0.042	Yaw Set Point:	-0.114	X_WP:	0.000	Y_WP:	0.000	Y_WP:	0.500	X:	-0.002	Y:	0.021	Z:	0.050	yaw:	6.505	yaw rate:	-5.835	Roll:	-0.074	Pitch:	0.714	Yaw:	8.796	Thrust:	52.414
Time:	2.594	Roll Set Point:	0.001	Pitch Set Point:	-0.042	Yaw Set Point:	-0.113	X_WP:	0.000	Y_WP:	0.000	Y_WP:	0.500	X:	-0.001	Y:	0.021	Z:	0.050	yaw:	6.470	yaw rate:	-3.515	Roll:	0.051	Pitch:	0.638	Yaw:	9.302	Thrust:	53.289
Time:	2.605	Roll Set Point:	0.001	Pitch Set Point:	-0.042	Yaw Set Point:	-0.113	X_WP:	0.000	Y_WP:	0.000	Y_WP:	0.500	X:	-0.001	Y:	0.021	Z:	0.050	yaw:	6.455	yaw rate:	-1.495	Roll:	0.032	Pitch:	0.668	Yaw:	9.765	Thrust:	54.143
Time:	2.616	Roll Set Point:	0.001	Pitch Set Point:	-0.042	Yaw Set Point:	-0.113	X_WP:	0.000	Y_WP:	0.000	Y_WP:	0.500	X:	-0.001	Y:	0.021	Z:	0.050	yaw:	6.468	yaw rate:	1.279	Roll:	0.044	Pitch:	0.641	Yaw:	10.437	Thrust:	54.620
Time:	2.628	Roll Set Point:	0.001	Pitch Set Point:	-0.042	Yaw Set Point:	-0.115	X_WP:	0.000	Y_WP:	0.000	Y_WP:	0.500	X:	-0.001	Y:	0.021	Z:	0.050	yaw:	6.572	yaw rate:	10.424	Roll:	0.030	Pitch:	0.565	Yaw:	12.697	Thrust:	56.554
Time:	2.639	Roll Set Point:	0.001	Pitch Set Point:	-0.042	Yaw Set Point:	-0.114	X_WP:	0.000	Y_WP:	0.000	Y_WP:	0.500	X:	-0.001	Y:	0.021	Z:	0.050	yaw:	6.544	yaw rate:	-2.835	Roll:	0.047	Pitch:	0.652	Yaw:	9.571	Thrust:	55.892
Time:	2.651	Roll Set Point:	0.001	Pitch Set Point:	-0.042	Yaw Set Point:	-0.115	X_WP:	0.000	Y_WP:	0.000	Y_WP:	0.500	X:	-0.001	Y:	0.021	Z:	0.050	yaw:	6.568	yaw rate:	2.452	Roll:	0.030	Pitch:	0.609	Yaw:	10.908	Thrust:	59.229
Time:	2.662	Roll Set Point:	0.001	Pitch Set Point:	-0.042	Yaw Set Point:	-0.113	X_WP:	0.000	Y_WP:	0.000	Y_WP:	0.500	X:	-0.001	Y:	0.021	Z:	0.050	yaw:	6.470	yaw rate:	-9.826	Roll:	-0.006	Pitch:	0.744	Yaw:	7.797	Thrust:	56.625
Time:	2.673	Roll Set Point:	0.001	Pitch Set Point:	-0.042	Yaw Set Point:	-0.113	X_WP:	0.000	Y_WP:	0.000	Y_WP:	0.500	X:	-0.001	Y:	0.021	Z:	0.050	yaw:	6.459	yaw rate:	-1.078	Roll:	0.039	Pitch:	0.644	Yaw:	9.866	Thrust:	57.565
Time:	2.684	Roll Set Point:	0.001	Pitch Set Point:	-0.042	Yaw Set Point:	-0.113	X_WP:	0.000	Y_WP:	0.000	Y_WP:	0.500	X:	-0.001	Y:	0.021	Z:	0.050	yaw:	6.489	yaw rate:	2.940	Roll:	0.016	Pitch:	0.630	Yaw:	10.862	Thrust:	58.248
Time:	2.696	Roll Set Point:	0.001	Pitch Set Point:	-0.042	Yaw Set Point:	-0.115	X_WP:	0.000	Y_WP:	0.000	Y_WP:	0.500	X:	-0.001	Y:	0.021	Z:	0.050	yaw:	6.566	yaw rate:	7.736	Roll:	0.067	Pitch:	0.557	Yaw:	12.055	Thrust:	61.859
Time:	2.707	Roll Set Point:	0.001	Pitch Set Point:	-0.042	Yaw Set Point:	-0.114	X_WP:	0.000	Y_WP:	0.000	Y_WP:	0.500	X:	-0.001	Y:	0.021	Z:	0.050	yaw:	6.551	yaw rate:	-1.466	Roll:	0.028	Pitch:	0.649	Yaw:	9.902	Thrust:	59.374
Time:	2.718	Roll Set Point:	0.001	Pitch Set Point:	-0.042	Yaw Set Point:	-0.113	X_WP:	0.000	Y_WP:	0.000	Y_WP:	0.500	X:	-0.001	Y:	0.021	Z:	0.050	yaw:	6.467	yaw rate:	-8.404	Roll:	-0.031	Pitch:	0.747	Yaw:	8.145	Thrust:	59.798
Time:	2.729	Roll Set Point:	0.001	Pitch Set Point:	-0.042	Yaw Set Point:	-0.113	X_WP:	0.000	Y_WP:	0.000	Y_WP:	0.500	X:	-0.001	Y:	0.021	Z:	0.050	yaw:	6.480	yaw rate:	1.249	Roll:	0.039	Pitch:	0.626	Yaw:	10.447	Thrust:	60.576
Time:	2.740	Roll Set Point:	0.001	Pitch Set Point:	-0.042	Yaw Set Point:	-0.114	X_WP:	0.000	Y_WP:	0.000	Y_WP:	0.500	X:	-0.001	Y:	0.021	Z:	0.050	yaw:	6.556	yaw rate:	7.607	Roll:	0.081	Pitch:	0.566	Yaw:	12.062	Thrust:	61.291
Time:	2.751	Roll Set Point:	0.001	Pitch Set Point:	-0.042	Yaw Set Point:	-0.113	X_WP:	0.000	Y_WP:	0.000	Y_WP:	0.500	X:	-0.001	Y:	0.021	Z:	0.050	yaw:	6.466	yaw rate:	-8.978	Roll:	-0.018	Pitch:	0.732	Yaw:	8.000	Thrust:	61.556
Time:	2.762	Roll Set Point:	0.001	Pitch Set Point:	-0.042	Yaw Set Point:	-0.115	X_WP:	0.000	Y_WP:	0.000	Y_WP:	0.500	X:	-0.001	Y:	0.021	Z:	0.050	yaw:	6.600	yaw rate:	13.342	Roll:	0.079	Pitch:	0.539	Yaw:	13.484	Thrust:	62.430
Time:	2.773	Roll Set Point:	0.001	Pitch Set Point:	-0.042	Yaw Set Point:	-0.115	X_WP:	0.000	Y_WP:	0.000	Y_WP:	0.500	X:	-0.001	Y:	0.021	Z:	0.050	yaw:	6.561	yaw rate:	-3.846	Roll:	0.008	Pitch:	0.660	Yaw:	9.351	Thrust:	62.884
Time:	2.784	Roll Set Point:	0.001	Pitch Set Point:	-0.042	Yaw Set Point:	-0.115	X_WP:	0.000	Y_WP:	0.000	Y_WP:	0.500	X:	-0.001	Y:	0.021	Z:	0.050	yaw:	6.575	yaw rate:	1.423	Roll:	0.038	Pitch:	0.650	Yaw:	10.622	Thrust:	63.548
Time:	2.795	Roll Set Point:	0.001	Pitch Set Point:	-0.042	Yaw Set Point:	-0.113	X_WP:	0.000	Y_WP:	0.000	Y_WP:	0.500	X:	-0.001	Y:	0.021	Z:	0.050	yaw:	6.464	yaw rate:	-11.160	Roll:	-0.017	Pitch:	0.750	Yaw:	7.469	Thrust:	63.833
Time:	2.806	Roll Set Point:	0.001	Pitch Set Point:	-0.042	Yaw Set Point:	-0.113	X_WP:	0.000	Y_WP:	0.000	Y_WP:	0.500	X:	-0.001	Y:	0.021	Z:	0.050	yaw:	6.482	yaw rate:	1.791	Roll:	0.027	Pitch:	0.613	Yaw:	10.580	Thrust:	64.712
Time:	2.817	Roll Set Point:	0.001	Pitch Set Point:	-0.042	Yaw Set Point:	-0.113	X_WP:	0.000	Y_WP:	0.000	Y_WP:	0.500	X:	-0.001	Y:	0.021	Z:	0.050	yaw:	6.485	yaw rate:	0.328	Roll:	0.039	Pitch:	0.657	Yaw:	10.235	Thrust:	65.226
Time:	2.828	Roll Set Point:	0.000	Pitch Set Point:	-0.042	Yaw Set Point:	-0.114	X_WP:	0.000	Y_WP:	0.000	Y_WP:	0.500	X:	-0.001	Y:	0.021	Z:	0.050	yaw:	6.547	yaw rate:	6.179	Roll:	0.133	Pitch:	0.503	Yaw:	11.710	Thrust:	66.017
Time:	2.839	Roll Set Point:	0.001	Pitch Set Point:	-0.042	Yaw Set Point:	-0.115	X_WP:	0.000	Y_WP:	0.000	Y_WP:	0.500	X:	-0.001	Y:	0.021	Z:	0.050	yaw:	6.570	yaw rate:	2.367	Roll:	-0.032	Pitch:	0.701	Yaw:	10.839	Thrust:	66.530
Time:	2.850	Roll Set Point:	0.001	Pitch Set Point:	-0.042	Yaw Set Point:	-0.115	X_WP:	0.000	Y_WP:	0.000	Y_WP:	0.500	X:	-0.001	Y:	0.021	Z:	0.050	yaw:	6.571	yaw rate:	0.017	Roll:	0.017	Pitch:	0.671	Yaw:	10.281	Thrust:	67.092
Time:	2.861	Roll Set Point:	0.001	Pitch Set Point:	-0.042	Yaw Set Point:	-0.113	X_WP:	0.000	Y_WP:	0.000	Y_WP:	0.500	X:	-0.001	Y:	0.021	Z:	0.050	yaw:	6.461	yaw rate:	-10.946	Roll:	-0.004	Pitch:	0.729	Yaw:	7.526	Thrust:	67.457
Time:	2.872	Roll Set Point:	0.001	Pitch Set Point:	-0.042	Yaw Set Point:	-0.114	X_WP:	0.000	Y_WP:	0.000	Y_WP:	0.500	X:	-0.001	Y:	0.021	Z:	0.050	yaw:	6.539	yaw rate:	7.841	Roll:	0.044	Pitch:	0.554	Yaw:	12.097	Thrust:	68.456
Time:	2.883	Roll Set Point:	0.001	Pitch Set Point:	-0.042	Yaw Set Point:	-0.113	X_WP:	0.000	Y_WP:	0.000	Y_WP:	0.500	X:	-0.001	Y:	0.021	Z:	0.050	yaw:	6.503	yaw rate:	-3.679	Roll:	0.024	Pitch:	0.736	Yaw:	9.309	Thrust:	68.663
Time:	2.894	Roll Set Point:	0.000	Pitch Set Point:	-0.042	Yaw Set Point:	-0.113	X_WP:	0.000	Y_WP:	0.000	Y_WP:	0.500	X:	-0.001	Y:	0.021	Z:	0.050	yaw:	6.458	yaw rate:	-4.447	Roll:	0.066	Pitch:	0.635	Yaw:	9.071	Thrust:	69.359
Time:	2.905	Roll Set Point:	0.001	Pitch Set Point:	-0.042	Yaw Set Point:	-0.113	X_WP:	0.000	Y_WP:	0.000	Y_WP:	0.500	X:	-0.001	Y:	0.021	Z:	0.050	yaw:	6.456	yaw rate:	-0.244	Roll:	-0.033	Pitch:	0.693	Yaw:	10.058	Thrust:	70.076
Time:	2.916	Roll Set Point:	0.001	Pitch Set Point:	-0.042	Yaw Set Point:	-0.115	X_WP:	0.000	Y_WP:	0.000	Y_WP:	0.500	X:	-0.001	Y:	0.021	Z:	0.050	yaw:	6.589	yaw rate:	13.354	Roll:	0.090	Pitch:	0.576	Yaw:	13.472	Thrust:	71.014
Time:	2.927	Roll Set Point:	0.001	Pitch Set Point:	-0.042	Yaw Set Point:	-0.114	X_WP:	0.000	Y_WP:	0.000	Y_WP:	0.500	X:	-0.001	Y:	0.021	Z:	0.050	yaw:	6.554	yaw rate:	-3.552	Roll:	-0.006	Pitch:	0.635	Yaw:	9.411	Thrust:	71.124
Time:	2.939	Roll Set Point:	0.001	Pitch Set Point:	-0.042	Yaw Set Point:	-0.114	X_WP:	0.000	Y_WP:	0.000	Y_WP:	0.500	X:	-0.001	Y:	0.021	Z:	0.050	yaw:	6.537	yaw rate:	5.203	Roll:	0.024	Pitch:	0.667	Yaw:	9.959	Thrust:	76.163
Time:	2.950	Roll Set Point:	0.001	Pitch Set Point:	-0.042	Yaw Set Point:	-0.114	X_WP:	0.000	Y_WP:	0.000	Y_WP:	0.500	X:	-0.001	Y:	0.021	Z:	0.050	yaw:	6.537	yaw rate:	5.203	Roll:	0.028	Pitch:	0.655	Yaw:	10.230	Thrust:	72.444
Time:	2.962	Roll Set Point:	0.001	Pitch Set Point:	-0.042	Yaw Set Point:	-0.115	X_WP:	0.000	Y_WP:	0.000	Y_WP:	0.500	X:	-0.001	Y:	0.021	Z:	0.050	yaw:	6.567	yaw rate:	8.272	Roll:	0.050	Pitch:	0.658	Yaw:	10.985	Thrust:	73.048
Time:	2.974	Roll Set Point:	0.001	Pitch Set Point:	-0.042	Yaw Set Point:	-0.114	X_WP:	0.000	Y_WP:	0.000	Y_WP:	0.500	X:	-0.001	Y:	0.021	Z:	0.050	yaw:	6.554	yaw rate:	-1.278	Roll:	0.014	Pitch:	0.657	Yaw:	10.073	Thrust:	77.851
Time:	2.985	Roll Set Point:	0.001	Pitch Set Point:	-0.042	Yaw Set Point:	-0.115	X_WP:	0.000	Y_WP:	0.000	Y_WP:	0.500	X:	-0.001	Y:	0.021	Z:	0.050	yaw:	6.568	yaw rate:	1.395	Roll:	0.046	Pitch:	0.654	Yaw:	10.607	Thrust:	74.383
Time:	2.997	Roll Set Point:	0.001	Pitch Set Point:	-0.042	Yaw Set Point:	-0.113	X_WP:	0.000	Y_WP:	0.000	Y_WP:	0.500	X:	-0.001	Y:	0.021	Z:	0.050	yaw:	6.467	yaw rate:	-10.117	Roll:	-0.004	Pitch:	0.759	Yaw:	8.031	Thrust:	79.321
Time:	3.008	Roll Set Point:	0.001	Pitch Set Point:	-0.042	Yaw Set Point:	-0.113	X_WP:	0.000	Y_WP:	0.000	Y_WP:	0.500	X:	-0.001	Y:	0.021	Z:	0.050	yaw:	6.475	yaw rate:	0.792	Roll:	0.036	Pitch:	0.640	Yaw:	10.330	Thrust:	75.319
Time:	3.019	Roll Set Point:	0.001	Pitch Set Point:	-0.042	Yaw Set Point:	-0.114	X_WP:	0.000	Y_WP:	0.000	Y_WP:	0.500	X:	-0.001	Y:	0.021	Z:	0.050	yaw:	6.545	yaw rate:	6.992	Roll:	0.056	Pitch:	0.573	Yaw:	11.901	Thrust:	76.145
Time:	3.030	Roll Set Point:	0.001	Pitch Set Point:	-0.042	Yaw Set Point:	-0.113	X_WP:	0.000	Y_WP:	0.000	Y_WP:	0.500	X:	-0.001	Y:	0.021	Z:	0.050	yaw:	6.492	yaw rate:	-5.225	Roll:	0.034	Pitch:	0.732	Yaw:	8.934	Thrust:	76.564
Time:	3.041	Roll Set Point:	0.001	Pitch Set Point:	-0.042	Yaw Set Point:	-0.115	X_WP:	0.000	Y_WP:	0.000	Y_WP:	0.500	X:	-0.001	Y:	0.021	Z:	0.050	yaw:	6.572	yaw rate:	8.010	Roll:	0.021	Pitch:	0.570	Yaw:	12.182	Thrust:	77.365
Time:	3.052	Roll Set Point:	0.001	Pitch Set Point:	-0.042	Yaw Set Point:	-0.114	X_WP:	0.000	Y_WP:	0.000	Y_WP:	0.500	X:	-0.001	Y:	0.021	Z:	0.050	yaw:	6.556	yaw rate:	-1.607	Roll:	0.034	Pitch:	0.690	Yaw:	9.876	Thrust:	77.782
Time:	3.063	Roll Set Point:	0.000	Pitch Set Point:	-0.042	Yaw Set Point:	-0.114	X_WP:	0.000	Y_WP:	0.000	Y_WP:	0.500	X:	-0.001	Y:	0.021	Z:	0.050	yaw:	6.533	yaw rate:	-2.382	Roll:	0.059	Pitch:	0.600	Yaw:	9.659	Thrust:	78.230
Time:	3.074	Roll Set Point:	0.001	Pitch Set Point:	-0.042	Yaw Set Point:	-0.115	X_WP:	0.000	Y_WP:	0.000	Y_WP:	0.500	X:	-0.001	Y:	0.021	Z:	0.050	yaw:	6.567	yaw rate:	3.491	Roll:	0.000	Pitch:	0.693	Yaw:	11.102	Thrust:	79.125
Time:	3.085	Roll Set Point:	0.001	Pitch Set Point:	-0.042	Yaw Set Point:	-0.113	X_WP:	0.000	Y_WP:	0.000	Y_WP:	0.500	X:	-0.001	Y:	0.021	Z:	0.050	yaw:	6.499	yaw rate:	-6.834	Roll:	0.004	Pitch:	0.749	Yaw:	8.549	Thrust:	79.369
Time:	3.096	Roll Set Point:	0.001	Pitch Set Point:	-0.042	Yaw Set Point:	-0.113	X_WP:	0.000	Y_WP:	0.000	Y_WP:	0.500	X:	-0.001	Y:	0.021	Z:	0.050	yaw:	6.478	yaw rate:	-2.128	Roll:	0.008	Pitch:	0.676	Yaw:	9.647	Thrust:	80.380
Time:	3.107	Roll Set Point:	0.001	Pitch Set Point:	-0.042	Yaw Set Point:	-0.113	X_WP:	0.000	Y_WP:	0.000	Y_WP:	0.500	X:	-0.001	Y:	0.021	Z:	0.050	yaw:	6.454	yaw rate:	-2.380	Roll:	0.046	Pitch:	0.678	Yaw:	9.549	Thrust:	80.637
Time:	3.118	Roll Set Point:	0.001	Pitch Set Point:	-0.042	Yaw Set Point:	-0.115	X_WP:	0.000	Y_WP:	0.000	Y_WP:	0.500	X:	-0.001	Y:	0.021	Z:	0.050	yaw:	6.563	yaw rate:	10.899	Roll:	0.041	Pitch:	0.570	Yaw:	12.854	Thrust:	81.539
Time:	3.129	Roll Set Point:	0.001	Pitch Set Point:	-0.042	Yaw Set Point:	-0.113	X_WP:	0.000	Y_WP:	0.000	Y_WP:	0.500	X:	-0.001	Y:	0.021	Z:	0.050	yaw:	6.483	yaw rate:	-8.032	Roll:	0.004	Pitch:	0.732	Yaw:	8.242	Thrust:	81.594
Time:	3.140	Roll Set Point:	0.001	Pitch Set Point:	-0.042	Yaw Set Point:	-0.113	X_WP:	0.000	Y_WP:	0.000	Y_WP:	0.500	X:	-0.001	Y:	0.021	Z:	0.050	yaw:	6.487	yaw rate:	0.382	Roll:	0.052	Pitch:	0.699	Yaw:	10.250	Thrust:	82.705
Time:	3.151	Roll Set Point:	0.001	Pitch Set Point:	-0.042	Yaw Set Point:	-0.113	X_WP:	0.000	Y_WP:	0.000	Y_WP:	0.500	X:	-0.001	Y:	0.021	Z:	0.050	yaw:	6.462	yaw rate:	-2.452	Roll:	-0.006	Pitch:	0.636	Yaw:	9.548	Thrust:	83.218
Time:	3.162	Roll Set Point:	0.001	Pitch Set Point:	-0.042	Yaw Set Point:	-0.115	X_WP:	0.000	Y_WP:	0.000	Y_WP:	0.500	X:	-0.001	Y:	0.021	Z:	0.050	yaw:	6.582	yaw rate:	11.988	Roll:	0.056	Pitch:	0.550	Yaw:	13.139	Thrust:	83.905
Time:	3.173	Roll Set Point:	0.001	Pitch Set Point:	-0.042	Yaw Set Point:	-0.112	X_WP:	0.000	Y_WP:	0.000	Y_WP:	0.500	X:	-0.001	Y:	0.021	Z:	0.050	yaw:	6.442	yaw rate:	-13.990	Roll:	0.032	Pitch:	0.815	Yaw:	6.766	Thrust:	84.182
Time:	3.184	Roll Set Point:	0.001	Pitch Set Point:	-0.042	Yaw Set Point:	-0.115	X_WP:	0.000	Y_WP:	0.000	Y_WP:	0.500	X:	-0.001	Y:	0.021	Z:	0.050	yaw:	6.592	yaw rate:	14.971	Roll:	0.040	Pitch:	0.548	Yaw:	13.860	Thrust:	85.093
Time:	3.195	Roll Set Point:	0.001	Pitch Set Point:	-0.042	Yaw Set Point:	-0.113	X_WP:	0.000	Y_WP:	0.000	Y_WP:	0.500	X:	-0.001	Y:	0.021	Z:	0.050	yaw:	6.476	yaw rate:	-11.543	Roll:	0.022	Pitch:	0.743	Yaw:	7.414	Thrust:	85.378
Time:	3.206	Roll Set Point:	0.001	Pitch Set Point:	-0.042	Yaw Set Point:	-0.113	X_WP:	0.000	Y_WP:	0.000	Y_WP:	0.500	X:	-0.001	Y:	0.021	Z:	0.050	yaw:	6.492	yaw rate:	1.589	Roll:	0.036	Pitch:	0.687	Yaw:	10.543	Thrust:	85.993
Time:	3.217	Roll Set Point:	0.001	Pitch Set Point:	-0.042	Yaw Set Point:	-0.113	X_WP:	0.000	Y_WP:	0.000	Y_WP:	0.500	X:	-0.001	Y:	0.021	Z:	0.050	yaw:	6.462	yaw rate:	-2.986	Roll:	0.025	Pitch:	0.680	Yaw:	9.421	Thrust:	86.844
Time:	3.228	Roll Set Point:	0.001	Pitch Set Point:	-0.042	Yaw Set Point:	-0.114	X_WP:	0.000	Y_WP:	0.000	Y_WP:	0.500	X:	-0.001	Y:	0.021	Z:	0.050	yaw:	6.538	yaw rate:	7.525	Roll:	0.052	Pitch:	0.588	Yaw:	12.019	Thrust:	87.543
Time:	3.239	Roll Set Point:	0.001	Pitch Set Point:	-0.042	Yaw Set Point:	-0.113	X_WP:	0.000	Y_WP:	0.000	Y_WP:	0.500	X:	-0.001	Y:	0.021	Z:	0.050	yaw:	6.471	yaw rate:	-6.692	Roll:	-0.011	Pitch:	0.742	Yaw:	8.549	Thrust:	87.622
Time:	3.250	Roll Set Point:	0.001	Pitch Set Point:	-0.042	Yaw Set Point:	-0.113	X_WP:	0.000	Y_WP:	0.000	Y_WP:	0.500	X:	-0.001	Y:	0.021	Z:	0.050	yaw:	6.476	yaw rate:	0.518	Roll:	0.020	Pitch:	0.685	Yaw:	10.268	Thrust:	88.489
Time:	3.261	Roll Set Point:	0.001	Pitch Set Point:	-0.042	Yaw Set Point:	-0.113	X_WP:	0.000	Y_WP:	0.000	Y_WP:	0.500	X:	-0.001	Y:	0.021	Z:	0.050	yaw:	6.476	yaw rate:	-0.002	Roll:	0.057	Pitch:	0.646	Yaw:	10.145	Thrust:	89.233
Time:	3.272	Roll Set Point:	0.001	Pitch Set Point:	-0.042	Yaw Set Point:	-0.115	X_WP:	0.000	Y_WP:	0.000	Y_WP:	0.500	X:	-0.001	Y:	0.021	Z:	0.050	yaw:	6.604	yaw rate:	12.834	Roll:	0.050	Pitch:	0.579	Yaw:	13.366	Thrust:	90.071
Time:	3.283	Roll Set Point:	0.001	Pitch Set Point:	-0.042	Yaw Set Point:	-0.113	X_WP:	0.000	Y_WP:	0.000	Y_WP:	0.500	X:	-0.001	Y:	0.021	Z:	0.050	yaw:	6.471	yaw rate:	-13.365	Roll:	-0.013	Pitch:	0.792	Yaw:	6.957	Thrust:	89.946
Time:	3.294	Roll Set Point:	0.001	Pitch Set Point:	-0.042	Yaw Set Point:	-0.114	X_WP:	0.000	Y_WP:	0.000	Y_WP:	0.500	X:	-0.001	Y:	0.021	Z:	0.050	yaw:	6.544	yaw rate:	7.299	Roll:	0.048	Pitch:	0.554	Yaw:	11.971	Thrust:	91.238
Time:	3.305	Roll Set Point:	0.000	Pitch Set Point:	-0.042	Yaw Set Point:	-0.112	X_WP:	0.000	Y_WP:	0.000	Y_WP:	0.500	X:	-0.001	Y:	0.021	Z:	0.050	yaw:	6.445	yaw rate:	-9.850	Roll:	0.061	Pitch:	0.748	Yaw:	7.756	Thrust:	91.069
Time:	3.316	Roll Set Point:	0.001	Pitch Set Point:	-0.042	Yaw Set Point:	-0.115	X_WP:	0.000	Y_WP:	0.000	Y_WP:	0.500	X:	-0.001	Y:	0.021	Z:	0.050	yaw:	6.576	yaw rate:	13.106	Roll:	0.019	Pitch:	0.634	Yaw:	13.391	Thrust:	92.681
Time:	3.327	Roll Set Point:	0.001	Pitch Set Point:	-0.042	Yaw Set Point:	-0.113	X_WP:	0.000	Y_WP:	0.000	Y_WP:	0.500	X:	-0.001	Y:	0.021	Z:	0.050	yaw:	6.490	yaw rate:	-8.572	Roll:	0.014	Pitch:	0.734	Yaw:	8.129	Thrust:	92.205
Time:	3.339	Roll Set Point:	0.000	Pitch Set Point:	-0.042	Yaw Set Point:	-0.114	X_WP:	0.000	Y_WP:	0.000	Y_WP:	0.500	X:	-0.001	Y:	0.021	Z:	0.050	yaw:	6.520	yaw rate:	2.938	Roll:	0.131	Pitch:	0.560	Yaw:	10.904	Thrust:	93.369
Time:	3.350	Roll Set Point:	0.000	Pitch Set Point:	-0.042	Yaw Set Point:	-0.114	X_WP:	0.000	Y_WP:	0.000	Y_WP:	0.500	X:	-0.001	Y:	0.021	Z:	0.050	yaw:	6.550	yaw rate:	3.023	Roll:	0.016	Pitch:	0.651	Yaw:	10.965	Thrust:	93.855
Time:	3.361	Roll Set Point:	0.001	Pitch Set Point:	-0.042	Yaw Set Point:	-0.113	X_WP:	0.000	Y_WP:	0.000	Y_WP:	0.500	X:	-0.001	Y:	0.021	Z:	0.050	yaw:	6.463	yaw rate:	-8.708	Roll:	-0.091	Pitch:	0.836	Yaw:	8.060	Thrust:	94.359
Time:	3.372	Roll Set Point:	0.001	Pitch Set Point:	-0.042	Yaw Set Point:	-0.113	X_WP:	0.000	Y_WP:	0.000	Y_WP:	0.500	X:	-0.001	Y:	0.021	Z:	0.050	yaw:	6.474	yaw rate:	1.065	Roll:	0.054	Pitch:	0.689	Yaw:	10.395	Thrust:	95.274
Time:	3.383	Roll Set Point:	0.001	Pitch Set Point:	-0.042	Yaw Set Point:	-0.113	X_WP:	0.000	Y_WP:	0.000	Y_WP:	0.500	X:	-0.001	Y:	0.021	Z:	0.050	yaw:	6.471	yaw rate:	-0.230	Roll:	0.016	Pitch:	0.678	Yaw:	10.083	Thrust:	95.469
Time:	3.394	Roll Set Point:	0.001	Pitch Set Point:	-0.042	Yaw Set Point:	-0.113	X_WP:	0.000	Y_WP:	0.000	Y_WP:	0.500	X:	-0.001	Y:	0.021	Z:	0.050	yaw:	6.466	yaw rate:	-0.483	Roll:	0.044	Pitch:	0.661	Yaw:	10.017	Thrust:	96.212
Time:	3.405	Roll Set Point:	0.001	Pitch Set Point:	-0.042	Yaw Set Point:	-0.115	X_WP:	0.000	Y_WP:	0.000	Y_WP:	0.500	X:	-0.001	Y:	0.021	Z:	0.050	yaw:	6.583	yaw rate:	11.634	Roll:	0.055	Pitch:	0.592	Yaw:	13.056	Thrust:	97.203
Time:	3.416	Roll Set Point:	0.001	Pitch Set Point:	-0.042	Yaw Set Point:	-0.115	X_WP:	0.000	Y_WP:	0.000	Y_WP:	0.500	X:	-0.001	Y:	0.021	Z:	0.050	yaw:	6.600	yaw rate:	1.692	Roll:	0.034	Pitch:	0.681	Yaw:	10.719	Thrust:	97.415
Time:	3.427	Roll Set Point:	0.001	Pitch Set Point:	-0.042	Yaw Set Point:	-0.115	X_WP:	0.000	Y_WP:	0.000	Y_WP:	0.500	X:	-0.001	Y:	0.021	Z:	0.050	yaw:	6.581	yaw rate:	-1.901	Roll:	0.031	Pitch:	0.675	Yaw:	9.844	Thrust:	98.229
Time:	3.438	Roll Set Point:	0.001	Pitch Set Point:	-0.042	Yaw Set Point:	-0.113	X_WP:	0.000	Y_WP:	0.000	Y_WP:	0.500	X:	-0.001	Y:	0.021	Z:	0.050	yaw:	6.481	yaw rate:	-9.953	Roll:	-0.007	Pitch:	0.766	Yaw:	7.781	Thrust:	98.254
Time:	3.449	Roll Set Point:	0.001	Pitch Set Point:	-0.042	Yaw Set Point:	-0.113	X_WP:	0.000	Y_WP:	0.000	Y_WP:	0.500	X:	-0.001	Y:	0.021	Z:	0.050	yaw:	6.482	yaw rate:	0.063	Roll:	0.023	Pitch:	0.706	Yaw:	10.171	Thrust:	99.451
Time:	3.461	Roll Set Point:	0.001	Pitch Set Point:	-0.042	Yaw Set Point:	-0.115	X_WP:	0.000	Y_WP:	0.000	Y_WP:	0.500	X:	-0.002	Y:	0.021	Z:	0.050	yaw:	6.591	yaw rate:	10.935	Roll:	0.027	Pitch:	0.571	Yaw:	12.785	Thrust:	100.000
Time:	3.472	Roll Set Point:	0.000	Pitch Set Point:	-0.042	Yaw Set Point:	-0.115	X_WP:	0.000	Y_WP:	0.000	Y_WP:	0.500	X:	-0.001	Y:	0.021	Z:	0.050	yaw:	6.571	yaw rate:	-1.965	Roll:	0.111	Pitch:	0.649	Yaw:	9.808	Thrust:	100.000
Time:	3.483	Roll Set Point:	0.001	Pitch Set Point:	-0.042	Yaw Set Point:	-0.115	X_WP:	0.000	Y_WP:	0.000	Y_WP:	0.500	X:	-0.001	Y:	0.021	Z:	0.050	yaw:	6.596	yaw rate:	2.440	Roll:	-0.006	Pitch:	0.732	Yaw:	10.892	Thrust:	100.000
Time:	3.494	Roll Set Point:	0.001	Pitch Set Point:	-0.042	Yaw Set Point:	-0.115	X_WP:	0.000	Y_WP:	0.000	Y_WP:	0.500	X:	-0.001	Y:	0.021	Z:	0.050	yaw:	6.575	yaw rate:	-2.083	Roll:	0.014	Pitch:	0.696	Yaw:	9.793	Thrust:	100.000
Time:	3.505	Roll Set Point:	0.001	Pitch Set Point:	-0.042	Yaw Set Point:	-0.115	X_WP:	0.000	Y_WP:	0.000	Y_WP:	0.500	X:	-0.002	Y:	0.021	Z:	0.050	yaw:	6.565	yaw rate:	-0.997	Roll:	-0.012	Pitch:	0.674	Yaw:	10.032	Thrust:	100.000
Time:	3.516	Roll Set Point:	0.001	Pitch Set Point:	-0.042	Yaw Set Point:	-0.113	X_WP:	0.000	Y_WP:	0.000	Y_WP:	0.500	X:	-0.001	Y:	0.021	Z:	0.050	yaw:	6.475	yaw rate:	-8.971	Roll:	0.054	Pitch:	0.804	Yaw:	8.015	Thrust:	100.000
Time:	3.527	Roll Set Point:	0.001	Pitch Set Point:	-0.042	Yaw Set Point:	-0.114	X_WP:	0.000	Y_WP:	0.000	Y_WP:	0.500	X:	-0.001	Y:	0.021	Z:	0.050	yaw:	6.554	yaw rate:	7.874	Roll:	0.045	Pitch:	0.569	Yaw:	12.123	Thrust:	100.000
Time:	3.538	Roll Set Point:	0.001	Pitch Set Point:	-0.042	Yaw Set Point:	-0.113	X_WP:	0.000	Y_WP:	0.000	Y_WP:	0.500	X:	-0.001	Y:	0.021	Z:	0.050	yaw:	6.476	yaw rate:	-7.822	Roll:	0.031	Pitch:	0.785	Yaw:	8.288	Thrust:	100.000
Time:	3.549	Roll Set Point:	0.001	Pitch Set Point:	-0.042	Yaw Set Point:	-0.115	X_WP:	0.000	Y_WP:	0.000	Y_WP:	0.500	X:	-0.001	Y:	0.021	Z:	0.050	yaw:	6.581	yaw rate:	10.550	Roll:	0.040	Pitch:	0.587	Yaw:	12.796	Thrust:	100.000
Time:	3.560	Roll Set Point:	0.001	Pitch Set Point:	-0.042	Yaw Set Point:	-0.114	X_WP:	0.000	Y_WP:	0.000	Y_WP:	0.500	X:	-0.001	Y:	0.021	Z:	0.050	yaw:	6.531	yaw rate:	-5.059	Roll:	0.038	Pitch:	0.705	Yaw:	9.021	Thrust:	100.000
Time:	3.571	Roll Set Point:	0.001	Pitch Set Point:	-0.042	Yaw Set Point:	-0.115	X_WP:	0.000	Y_WP:	0.000	Y_WP:	0.500	X:	-0.001	Y:	0.021	Z:	0.050	yaw:	6.577	yaw rate:	4.644	Roll:	0.000	Pitch:	0.687	Yaw:	11.389	Thrust:	100.000
Time:	3.582	Roll Set Point:	0.001	Pitch Set Point:	-0.042	Yaw Set Point:	-0.113	X_WP:	0.000	Y_WP:	0.000	Y_WP:	0.500	X:	-0.001	Y:	0.021	Z:	0.050	yaw:	6.465	yaw rate:	-11.198	Roll:	0.031	Pitch:	0.777	Yaw:	7.472	Thrust:	100.000
Time:	3.593	Roll Set Point:	0.001	Pitch Set Point:	-0.042	Yaw Set Point:	-0.114	X_WP:	0.000	Y_WP:	0.000	Y_WP:	0.500	X:	-0.002	Y:	0.021	Z:	0.050	yaw:	6.517	yaw rate:	5.178	Roll:	-0.016	Pitch:	0.609	Yaw:	11.431	Thrust:	100.000
Time:	3.604	Roll Set Point:	0.001	Pitch Set Point:	-0.042	Yaw Set Point:	-0.113	X_WP:	0.000	Y_WP:	0.000	Y_WP:	0.500	X:	-0.001	Y:	0.021	Z:	0.050	yaw:	6.469	yaw rate:	-4.813	Roll:	0.057	Pitch:	0.752	Yaw:	8.993	Thrust:	100.000
Time:	3.615	Roll Set Point:	0.001	Pitch Set Point:	-0.042	Yaw Set Point:	-0.115	X_WP:	0.000	Y_WP:	0.000	Y_WP:	0.500	X:	-0.001	Y:	0.021	Z:	0.050	yaw:	6.587	yaw rate:	11.785	Roll:	0.106	Pitch:	0.606	Yaw:	13.098	Thrust:	100.000
Time:	3.626	Roll Set Point:	0.001	Pitch Set Point:	-0.042	Yaw Set Point:	-0.113	X_WP:	0.000	Y_WP:	0.000	Y_WP:	0.500	X:	-0.001	Y:	0.021	Z:	0.050	yaw:	6.462	yaw rate:	-12.509	Roll:	-0.037	Pitch:	0.802	Yaw:	7.158	Thrust:	100.000
Time:	3.637	Roll Set Point:	0.001	Pitch Set Point:	-0.042	Yaw Set Point:	-0.115	X_WP:	0.000	Y_WP:	0.000	Y_WP:	0.500	X:	-0.002	Y:	0.021	Z:	0.050	yaw:	6.573	yaw rate:	11.121	Roll:	0.026	Pitch:	0.592	Yaw:	12.921	Thrust:	100.000
Time:	3.648	Roll Set Point:	0.001	Pitch Set Point:	-0.042	Yaw Set Point:	-0.113	X_WP:	0.000	Y_WP:	0.000	Y_WP:	0.500	X:	-0.001	Y:	0.021	Z:	0.050	yaw:	6.488	yaw rate:	-8.482	Roll:	0.010	Pitch:	0.752	Yaw:	8.151	Thrust:	100.000
Time:	3.659	Roll Set Point:	0.001	Pitch Set Point:	-0.042	Yaw Set Point:	-0.113	X_WP:	0.000	Y_WP:	0.000	Y_WP:	0.500	X:	-0.001	Y:	0.021	Z:	0.050	yaw:	6.485	yaw rate:	-0.294	Roll:	0.062	Pitch:	0.712	Yaw:	10.085	Thrust:	100.000
Time:	3.670	Roll Set Point:	0.001	Pitch Set Point:	-0.042	Yaw Set Point:	-0.113	X_WP:	0.000	Y_WP:	0.000	Y_WP:	0.500	X:	-0.001	Y:	0.021	Z:	0.050	yaw:	6.454	yaw rate:	-3.071	Roll:	-0.003	Pitch:	0.711	Yaw:	9.390	Thrust:	100.000
Time:	3.681	Roll Set Point:	0.001	Pitch Set Point:	-0.042	Yaw Set Point:	-0.115	X_WP:	0.000	Y_WP:	0.000	Y_WP:	0.500	X:	-0.001	Y:	0.021	Z:	0.050	yaw:	6.574	yaw rate:	11.998	Roll:	0.087	Pitch:	0.580	Yaw:	13.129	Thrust:	100.000
Time:	3.692	Roll Set Point:	0.001	Pitch Set Point:	-0.042	Yaw Set Point:	-0.115	X_WP:	0.000	Y_WP:	0.000	Y_WP:	0.500	X:	-0.001	Y:	0.021	Z:	0.050	yaw:	6.561	yaw rate:	-1.376	Roll:	0.017	Pitch:	0.685	Yaw:	9.936	Thrust:	100.000
Time:	3.703	Roll Set Point:	0.001	Pitch Set Point:	-0.042	Yaw Set Point:	-0.115	X_WP:	0.000	Y_WP:	0.000	Y_WP:	0.500	X:	-0.001	Y:	0.021	Z:	0.050	yaw:	6.593	yaw rate:	3.255	Roll:	0.060	Pitch:	0.704	Yaw:	11.081	Thrust:	100.000
Time:	3.715	Roll Set Point:	0.001	Pitch Set Point:	-0.042	Yaw Set Point:	-0.113	X_WP:	0.000	Y_WP:	0.000	Y_WP:	0.500	X:	-0.001	Y:	0.021	Z:	0.050	yaw:	6.485	yaw rate:	-10.826	Roll:	-0.039	Pitch:	0.774	Yaw:	7.595	Thrust:	100.000
Time:	3.726	Roll Set Point:	0.001	Pitch Set Point:	-0.042	Yaw Set Point:	-0.113	X_WP:	0.000	Y_WP:	0.000	Y_WP:	0.500	X:	-0.001	Y:	0.021	Z:	0.050	yaw:	6.471	yaw rate:	-1.378	Roll:	0.029	Pitch:	0.712	Yaw:	9.808	Thrust:	100.000
Time:	3.737	Roll Set Point:	0.001	Pitch Set Point:	-0.042	Yaw Set Point:	-0.113	X_WP:	0.000	Y_WP:	0.000	Y_WP:	0.500	X:	-0.001	Y:	0.021	Z:	0.050	yaw:	6.471	yaw rate:	0.034	Roll:	0.043	Pitch:	0.709	Yaw:	10.147	Thrust:	100.000
Time:	3.748	Roll Set Point:	0.001	Pitch Set Point:	-0.042	Yaw Set Point:	-0.113	X_WP:	0.000	Y_WP:	0.000	Y_WP:	0.500	X:	-0.001	Y:	0.021	Z:	0.050	yaw:	6.464	yaw rate:	-0.737	Roll:	0.033	Pitch:	0.704	Yaw:	9.954	Thrust:	100.000
Time:	3.759	Roll Set Point:	0.001	Pitch Set Point:	-0.042	Yaw Set Point:	-0.114	X_WP:	0.000	Y_WP:	0.000	Y_WP:	0.500	X:	-0.001	Y:	0.021	Z:	0.050	yaw:	6.559	yaw rate:	9.513	Roll:	0.061	Pitch:	0.590	Yaw:	12.516	Thrust:	100.000
Time:	3.770	Roll Set Point:	0.001	Pitch Set Point:	-0.042	Yaw Set Point:	-0.114	X_WP:	0.000	Y_WP:	0.000	Y_WP:	0.500	X:	-0.001	Y:	0.021	Z:	0.050	yaw:	6.551	yaw rate:	-0.820	Roll:	0.018	Pitch:	0.717	Yaw:	10.053	Thrust:	100.000
Time:	3.781	Roll Set Point:	0.001	Pitch Set Point:	-0.042	Yaw Set Point:	-0.113	X_WP:	0.000	Y_WP:	0.000	Y_WP:	0.500	X:	-0.001	Y:	0.021	Z:	0.050	yaw:	6.470	yaw rate:	-8.119	Roll:	0.008	Pitch:	0.764	Yaw:	8.213	Thrust:	100.000
Time:	3.792	Roll Set Point:	0.001	Pitch Set Point:	-0.042	Yaw Set Point:	-0.113	X_WP:	0.000	Y_WP:	0.000	Y_WP:	0.500	X:	-0.001	Y:	0.021	Z:	0.050	yaw:	6.474	yaw rate:	0.378	Roll:	0.030	Pitch:	0.682	Yaw:	10.231	Thrust:	100.000
Time:	3.803	Roll Set Point:	0.001	Pitch Set Point:	-0.042	Yaw Set Point:	-0.113	X_WP:	0.000	Y_WP:	0.000	Y_WP:	0.500	X:	-0.001	Y:	0.021	Z:	0.050	yaw:	6.502	yaw rate:	2.807	Roll:	0.078	Pitch:	0.672	Yaw:	10.846	Thrust:	100.000
Time:	3.814	Roll Set Point:	0.001	Pitch Set Point:	-0.042	Yaw Set Point:	-0.114	X_WP:	0.000	Y_WP:	0.000	Y_WP:	0.500	X:	-0.001	Y:	0.021	Z:	0.050	yaw:	6.549	yaw rate:	4.697	Roll:	0.018	Pitch:	0.670	Yaw:	11.362	Thrust:	100.000
Time:	3.825	Roll Set Point:	0.001	Pitch Set Point:	-0.042	Yaw Set Point:	-0.113	X_WP:	0.000	Y_WP:	0.000	Y_WP:	0.500	X:	-0.001	Y:	0.021	Z:	0.050	yaw:	6.460	yaw rate:	-8.841	Roll:	0.015	Pitch:	0.790	Yaw:	8.024	Thrust:	100.000
Time:	3.836	Roll Set Point:	0.001	Pitch Set Point:	-0.042	Yaw Set Point:	-0.115	X_WP:	0.000	Y_WP:	0.000	Y_WP:	0.500	X:	-0.001	Y:	0.021	Z:	0.050	yaw:	6.592	yaw rate:	13.139	Roll:	0.058	Pitch:	0.577	Yaw:	13.425	Thrust:	100.000
Time:	3.847	Roll Set Point:	0.001	Pitch Set Point:	-0.042	Yaw Set Point:	-0.115	X_WP:	0.000	Y_WP:	0.000	Y_WP:	0.500	X:	-0.001	Y:	0.021	Z:	0.050	yaw:	6.567	yaw rate:	-2.510	Roll:	0.038	Pitch:	0.732	Yaw:	9.676	Thrust:	100.000
Time:	3.858	Roll Set Point:	0.001	Pitch Set Point:	-0.042	Yaw Set Point:	-0.113	X_WP:	0.000	Y_WP:	0.000	Y_WP:	0.500	X:	-0.001	Y:	0.021	Z:	0.050	yaw:	6.469	yaw rate:	-9.746	Roll:	-0.017	Pitch:	0.821	Yaw:	7.831	Thrust:	100.000
Time:	3.869	Roll Set Point:	0.001	Pitch Set Point:	-0.042	Yaw Set Point:	-0.115	X_WP:	0.000	Y_WP:	0.000	Y_WP:	0.500	X:	-0.001	Y:	0.021	Z:	0.050	yaw:	6.587	yaw rate:	11.773	Roll:	0.088	Pitch:	0.561	Yaw:	13.099	Thrust:	100.000
Time:	3.880	Roll Set Point:	0.001	Pitch Set Point:	-0.042	Yaw Set Point:	-0.113	X_WP:	0.000	Y_WP:	0.000	Y_WP:	0.500	X:	-0.001	Y:	0.021	Z:	0.050	yaw:	6.477	yaw rate:	-11.016	Roll:	-0.034	Pitch:	0.817	Yaw:	7.531	Thrust:	100.000
Time:	3.891	Roll Set Point:	0.001	Pitch Set Point:	-0.042	Yaw Set Point:	-0.114	X_WP:	0.000	Y_WP:	0.000	Y_WP:	0.500	X:	-0.001	Y:	0.021	Z:	0.050	yaw:	6.542	yaw rate:	6.488	Roll:	0.069	Pitch:	0.616	Yaw:	11.777	Thrust:	100.000
Time:	3.902	Roll Set Point:	0.001	Pitch Set Point:	-0.042	Yaw Set Point:	-0.113	X_WP:	0.000	Y_WP:	0.000	Y_WP:	0.500	X:	-0.001	Y:	0.021	Z:	0.050	yaw:	6.460	yaw rate:	-8.144	Roll:	0.005	Pitch:	0.796	Yaw:	8.190	Thrust:	100.000
Time:	3.913	Roll Set Point:	0.000	Pitch Set Point:	-0.042	Yaw Set Point:	-0.113	X_WP:	0.000	Y_WP:	0.000	Y_WP:	0.500	X:	-0.001	Y:	0.021	Z:	0.050	yaw:	6.482	yaw rate:	2.149	Roll:	0.081	Pitch:	0.643	Yaw:	10.670	Thrust:	100.000
Time:	3.924	Roll Set Point:	0.001	Pitch Set Point:	-0.042	Yaw Set Point:	-0.114	X_WP:	0.000	Y_WP:	0.000	Y_WP:	0.500	X:	-0.001	Y:	0.021	Z:	0.050	yaw:	6.549	yaw rate:	6.695	Roll:	0.011	Pitch:	0.670	Yaw:	11.840	Thrust:	100.000
Time:	3.936	Roll Set Point:	0.001	Pitch Set Point:	-0.042	Yaw Set Point:	-0.114	X_WP:	0.000	Y_WP:	0.000	Y_WP:	0.500	X:	-0.001	Y:	0.021	Z:	0.050	yaw:	6.534	yaw rate:	-1.471	Roll:	0.036	Pitch:	0.737	Yaw:	10.005	Thrust:	100.000
Time:	3.947	Roll Set Point:	0.001	Pitch Set Point:	-0.042	Yaw Set Point:	-0.115	X_WP:	0.000	Y_WP:	0.000	Y_WP:	0.500	X:	-0.001	Y:	0.021	Z:	0.050	yaw:	6.569	yaw rate:	3.489	Roll:	0.034	Pitch:	0.667	Yaw:	11.102	Thrust:	100.000
Time:	3.958	Roll Set Point:	0.001	Pitch Set Point:	-0.042	Yaw Set Point:	-0.114	X_WP:	0.000	Y_WP:	0.000	Y_WP:	0.500	X:	-0.001	Y:	0.021	Z:	0.050	yaw:	6.503	yaw rate:	-6.533	Roll:	-0.010	Pitch:	0.804	Yaw:	8.638	Thrust:	100.000
Time:	3.969	Roll Set Point:	0.001	Pitch Set Point:	-0.042	Yaw Set Point:	-0.113	X_WP:	0.000	Y_WP:	0.000	Y_WP:	0.500	X:	-0.001	Y:	0.021	Z:	0.050	yaw:	6.471	yaw rate:	-3.267	Roll:	0.015	Pitch:	0.715	Yaw:	9.363	Thrust:	100.000
Time:	3.980	Roll Set Point:	0.001	Pitch Set Point:	-0.042	Yaw Set Point:	-0.114	X_WP:	0.000	Y_WP:	0.000	Y_WP:	0.500	X:	-0.001	Y:	0.021	Z:	0.050	yaw:	6.556	yaw rate:	8.567	Roll:	0.071	Pitch:	0.634	Yaw:	12.291	Thrust:	100.000
Time:	3.991	Roll Set Point:	0.001	Pitch Set Point:	-0.042	Yaw Set Point:	-0.115	X_WP:	0.000	Y_WP:	0.000	Y_WP:	0.500	X:	-0.001	Y:	0.021	Z:	0.050	yaw:	6.584	yaw rate:	2.784	Roll:	0.064	Pitch:	0.683	Yaw:	10.957	Thrust:	100.000
Time:	4.002	Roll Set Point:	0.001	Pitch Set Point:	-0.042	Yaw Set Point:	-0.113	X_WP:	0.000	Y_WP:	0.000	Y_WP:	0.500	X:	-0.001	Y:	0.021	Z:	0.050	yaw:	6.470	yaw rate:	-11.428	Roll:	-0.008	Pitch:	0.836	Yaw:	7.424	Thrust:	100.000
Time:	4.013	Roll Set Point:	0.001	Pitch Set Point:	-0.042	Yaw Set Point:	-0.115	X_WP:	0.000	Y_WP:	0.000	Y_WP:	0.500	X:	-0.001	Y:	0.021	Z:	0.050	yaw:	6.592	yaw rate:	12.186	Roll:	0.078	Pitch:	0.531	Yaw:	13.199	Thrust:	100.000
Time:	4.024	Roll Set Point:	0.001	Pitch Set Point:	-0.042	Yaw Set Point:	-0.113	X_WP:	0.000	Y_WP:	0.000	Y_WP:	0.500	X:	-0.001	Y:	0.021	Z:	0.050	yaw:	6.469	yaw rate:	-12.264	Roll:	-0.043	Pitch:	0.852	Yaw:	7.225	Thrust:	100.000
Time:	4.035	Roll Set Point:	0.001	Pitch Set Point:	-0.042	Yaw Set Point:	-0.115	X_WP:	0.000	Y_WP:	0.000	Y_WP:	0.500	X:	-0.001	Y:	0.021	Z:	0.050	yaw:	6.565	yaw rate:	9.562	Roll:	0.075	Pitch:	0.638	Yaw:	12.542	Thrust:	100.000
Time:	4.046	Roll Set Point:	0.001	Pitch Set Point:	-0.042	Yaw Set Point:	-0.114	X_WP:	0.000	Y_WP:	0.000	Y_WP:	0.500	X:	-0.001	Y:	0.021	Z:	0.050	yaw:	6.542	yaw rate:	-2.288	Roll:	0.021	Pitch:	0.724	Yaw:	9.697	Thrust:	100.000
Time:	4.057	Roll Set Point:	0.001	Pitch Set Point:	-0.042	Yaw Set Point:	-0.113	X_WP:	0.000	Y_WP:	0.000	Y_WP:	0.500	X:	-0.001	Y:	0.021	Z:	0.050	yaw:	6.489	yaw rate:	-5.244	Roll:	-0.006	Pitch:	0.794	Yaw:	8.920	Thrust:	100.000
Time:	4.068	Roll Set Point:	0.001	Pitch Set Point:	-0.042	Yaw Set Point:	-0.114	X_WP:	0.000	Y_WP:	0.000	Y_WP:	0.500	X:	-0.001	Y:	0.021	Z:	0.050	yaw:	6.510	yaw rate:	2.075	Roll:	0.052	Pitch:	0.691	Yaw:	10.685	Thrust:	100.000
Time:	4.079	Roll Set Point:	0.001	Pitch Set Point:	-0.042	Yaw Set Point:	-0.114	X_WP:	0.000	Y_WP:	0.000	Y_WP:	0.500	X:	-0.001	Y:	0.021	Z:	0.050	yaw:	6.537	yaw rate:	2.702	Roll:	0.060	Pitch:	0.669	Yaw:	10.872	Thrust:	100.000
Time:	4.091	Roll Set Point:	0.001	Pitch Set Point:	-0.042	Yaw Set Point:	-0.113	X_WP:	0.000	Y_WP:	0.000	Y_WP:	0.500	X:	-0.001	Y:	0.021	Z:	0.050	yaw:	6.478	yaw rate:	-5.961	Roll:	0.005	Pitch:	0.776	Yaw:	8.732	Thrust:	100.000
Time:	4.102	Roll Set Point:	0.001	Pitch Set Point:	-0.042	Yaw Set Point:	-0.115	X_WP:	0.000	Y_WP:	0.000	Y_WP:	0.500	X:	-0.001	Y:	0.021	Z:	0.050	yaw:	6.590	yaw rate:	11.199	Roll:	0.075	Pitch:	0.613	Yaw:	12.962	Thrust:	100.000
Time:	4.113	Roll Set Point:	0.001	Pitch Set Point:	-0.042	Yaw Set Point:	-0.115	X_WP:	0.000	Y_WP:	0.000	Y_WP:	0.500	X:	-0.001	Y:	0.021	Z:	0.050	yaw:	6.570	yaw rate:	-1.974	Roll:	0.019	Pitch:	0.725	Yaw:	9.808	Thrust:	100.000
Time:	4.124	Roll Set Point:	0.001	Pitch Set Point:	-0.042	Yaw Set Point:	-0.114	X_WP:	0.000	Y_WP:	0.000	Y_WP:	0.500	X:	-0.001	Y:	0.021	Z:	0.050	yaw:	6.560	yaw rate:	-1.009	Roll:	0.015	Pitch:	0.723	Yaw:	10.019	Thrust:	100.000
Time:	4.135	Roll Set Point:	0.001	Pitch Set Point:	-0.042	Yaw Set Point:	-0.115	X_WP:	0.000	Y_WP:	0.000	Y_WP:	0.500	X:	-0.001	Y:	0.021	Z:	0.050	yaw:	6.565	yaw rate:	0.554	Roll:	0.028	Pitch:	0.709	Yaw:	10.401	Thrust:	100.000
Time:	4.146	Roll Set Point:	0.001	Pitch Set Point:	-0.042	Yaw Set Point:	-0.115	X_WP:	0.000	Y_WP:	0.000	Y_WP:	0.500	X:	-0.001	Y:	0.021	Z:	0.050	yaw:	6.566	yaw rate:	0.118	Roll:	0.046	Pitch:	0.743	Yaw:	10.300	Thrust:	100.000
Time:	4.157	Roll Set Point:	0.001	Pitch Set Point:	-0.042	Yaw Set Point:	-0.113	X_WP:	0.000	Y_WP:	0.000	Y_WP:	0.500	X:	-0.001	Y:	0.021	Z:	0.050	yaw:	6.476	yaw rate:	-9.090	Roll:	0.005	Pitch:	0.766	Yaw:	7.987	Thrust:	100.000
Time:	4.168	Roll Set Point:	0.001	Pitch Set Point:	-0.042	Yaw Set Point:	-0.113	X_WP:	0.000	Y_WP:	0.000	Y_WP:	0.500	X:	-0.001	Y:	0.021	Z:	0.050	yaw:	6.469	yaw rate:	-0.631	Roll:	0.019	Pitch:	0.727	Yaw:	9.986	Thrust:	100.000
Time:	4.179	Roll Set Point:	0.001	Pitch Set Point:	-0.042	Yaw Set Point:	-0.115	X_WP:	0.000	Y_WP:	0.000	Y_WP:	0.500	X:	-0.001	Y:	0.021	Z:	0.050	yaw:	6.574	yaw rate:	10.424	Roll:	0.069	Pitch:	0.641	Yaw:	12.752	Thrust:	100.000
Time:	4.190	Roll Set Point:	0.001	Pitch Set Point:	-0.042	Yaw Set Point:	-0.114	X_WP:	0.000	Y_WP:	0.000	Y_WP:	0.500	X:	-0.001	Y:	0.021	Z:	0.050	yaw:	6.549	yaw rate:	-2.421	Roll:	-0.003	Pitch:	0.730	Yaw:	9.672	Thrust:	100.000
Time:	4.201	Roll Set Point:	0.001	Pitch Set Point:	-0.042	Yaw Set Point:	-0.115	X_WP:	0.000	Y_WP:	0.000	Y_WP:	0.500	X:	-0.001	Y:	0.021	Z:	0.050	yaw:	6.581	yaw rate:	3.178	Roll:	0.062	Pitch:	0.715	Yaw:	11.046	Thrust:	100.000
Time:	4.212	Roll Set Point:	0.001	Pitch Set Point:	-0.042	Yaw Set Point:	-0.114	X_WP:	0.000	Y_WP:	0.000	Y_WP:	0.500	X:	-0.001	Y:	0.021	Z:	0.050	yaw:	6.523	yaw rate:	-5.828	Roll:	0.026	Pitch:	0.726	Yaw:	8.823	Thrust:	100.000
Time:	4.223	Roll Set Point:	0.001	Pitch Set Point:	-0.042	Yaw Set Point:	-0.113	X_WP:	0.000	Y_WP:	0.000	Y_WP:	0.500	X:	-0.001	Y:	0.021	Z:	0.050	yaw:	6.473	yaw rate:	-5.025	Roll:	0.028	Pitch:	0.809	Yaw:	8.948	Thrust:	100.000
Time:	4.234	Roll Set Point:	0.001	Pitch Set Point:	-0.042	Yaw Set Point:	-0.113	X_WP:	0.000	Y_WP:	0.000	Y_WP:	0.500	X:	-0.001	Y:	0.021	Z:	0.050	yaw:	6.459	yaw rate:	-1.393	Roll:	0.003	Pitch:	0.724	Yaw:	9.794	Thrust:	100.000
Time:	4.245	Roll Set Point:	0.001	Pitch Set Point:	-0.042	Yaw Set Point:	-0.112	X_WP:	0.000	Y_WP:	0.000	Y_WP:	0.500	X:	-0.001	Y:	0.021	Z:	0.050	yaw:	6.444	yaw rate:	-1.507	Roll:	0.057	Pitch:	0.731	Yaw:	9.770	Thrust:	100.000
Time:	4.256	Roll Set Point:	0.001	Pitch Set Point:	-0.042	Yaw Set Point:	-0.114	X_WP:	0.000	Y_WP:	0.000	Y_WP:	0.500	X:	-0.001	Y:	0.021	Z:	0.050	yaw:	6.536	yaw rate:	9.285	Roll:	0.049	Pitch:	0.648	Yaw:	12.433	Thrust:	100.000
Time:	4.267	Roll Set Point:	0.001	Pitch Set Point:	-0.042	Yaw Set Point:	-0.114	X_WP:	0.000	Y_WP:	0.000	Y_WP:	0.500	X:	-0.001	Y:	0.021	Z:	0.050	yaw:	6.547	yaw rate:	1.033	Roll:	0.016	Pitch:	0.687	Yaw:	10.490	Thrust:	100.000
Time:	4.278	Roll Set Point:	0.001	Pitch Set Point:	-0.042	Yaw Set Point:	-0.112	X_WP:	0.000	Y_WP:	0.000	Y_WP:	0.500	X:	-0.001	Y:	0.021	Z:	0.050	yaw:	6.443	yaw rate:	-10.360	Roll:	0.017	Pitch:	0.837	Yaw:	7.638	Thrust:	100.000
Time:	4.289	Roll Set Point:	0.001	Pitch Set Point:	-0.042	Yaw Set Point:	-0.113	X_WP:	0.000	Y_WP:	0.000	Y_WP:	0.500	X:	-0.001	Y:	0.021	Z:	0.050	yaw:	6.476	yaw rate:	3.283	Roll:	0.056	Pitch:	0.723	Yaw:	10.924	Thrust:	100.000
Time:	4.301	Roll Set Point:	0.001	Pitch Set Point:	-0.042	Yaw Set Point:	-0.114	X_WP:	0.000	Y_WP:	0.000	Y_WP:	0.500	X:	-0.001	Y:	0.021	Z:	0.050	yaw:	6.545	yaw rate:	6.954	Roll:	0.018	Pitch:	0.659	Yaw:	11.855	Thrust:	100.000
Time:	4.312	Roll Set Point:	0.001	Pitch Set Point:	-0.042	Yaw Set Point:	-0.114	X_WP:	0.000	Y_WP:	0.000	Y_WP:	0.500	X:	-0.001	Y:	0.021	Z:	0.050	yaw:	6.553	yaw rate:	0.755	Roll:	0.057	Pitch:	0.703	Yaw:	10.431	Thrust:	100.000
Time:	4.323	Roll Set Point:	0.000	Pitch Set Point:	-0.042	Yaw Set Point:	-0.114	X_WP:	0.000	Y_WP:	0.000	Y_WP:	0.500	X:	-0.001	Y:	0.021	Z:	0.050	yaw:	6.559	yaw rate:	0.573	Roll:	0.065	Pitch:	0.697	Yaw:	10.397	Thrust:	100.000
Time:	4.334	Roll Set Point:	0.001	Pitch Set Point:	-0.042	Yaw Set Point:	-0.113	X_WP:	0.000	Y_WP:	0.000	Y_WP:	0.500	X:	-0.001	Y:	0.021	Z:	0.050	yaw:	6.457	yaw rate:	-10.183	Roll:	-0.033	Pitch:	0.895	Yaw:	7.693	Thrust:	100.000
Time:	4.345	Roll Set Point:	0.001	Pitch Set Point:	-0.042	Yaw Set Point:	-0.115	X_WP:	0.000	Y_WP:	0.000	Y_WP:	0.500	X:	-0.001	Y:	0.021	Z:	0.050	yaw:	6.565	yaw rate:	10.781	Roll:	0.093	Pitch:	0.606	Yaw:	12.824	Thrust:	100.000
Time:	4.356	Roll Set Point:	0.001	Pitch Set Point:	-0.042	Yaw Set Point:	-0.114	X_WP:	0.000	Y_WP:	0.000	Y_WP:	0.500	X:	-0.001	Y:	0.021	Z:	0.050	yaw:	6.555	yaw rate:	-0.937	Roll:	-0.008	Pitch:	0.733	Yaw:	10.030	Thrust:	100.000
Time:	4.367	Roll Set Point:	0.001	Pitch Set Point:	-0.042	Yaw Set Point:	-0.114	X_WP:	0.000	Y_WP:	0.000	Y_WP:	0.500	X:	-0.001	Y:	0.021	Z:	0.050	yaw:	6.549	yaw rate:	-0.646	Roll:	0.019	Pitch:	0.728	Yaw:	10.097	Thrust:	100.000
Time:	4.378	Roll Set Point:	0.001	Pitch Set Point:	-0.042	Yaw Set Point:	-0.113	X_WP:	0.000	Y_WP:	0.000	Y_WP:	0.500	X:	-0.001	Y:	0.021	Z:	0.050	yaw:	6.482	yaw rate:	-6.723	Roll:	0.031	Pitch:	0.806	Yaw:	8.557	Thrust:	100.000
Time:	4.390	Roll Set Point:	0.001	Pitch Set Point:	-0.042	Yaw Set Point:	-0.114	X_WP:	0.000	Y_WP:	0.000	Y_WP:	0.500	X:	-0.001	Y:	0.021	Z:	0.050	yaw:	6.560	yaw rate:	7.858	Roll:	0.070	Pitch:	0.679	Yaw:	12.128	Thrust:	100.000
Time:	4.401	Roll Set Point:	0.001	Pitch Set Point:	-0.042	Yaw Set Point:	-0.115	X_WP:	0.000	Y_WP:	0.000	Y_WP:	0.500	X:	-0.001	Y:	0.021	Z:	0.050	yaw:	6.570	yaw rate:	0.999	Roll:	0.042	Pitch:	0.693	Yaw:	10.514	Thrust:	100.000
Time:	4.412	Roll Set Point:	0.001	Pitch Set Point:	-0.042	Yaw Set Point:	-0.114	X_WP:	0.000	Y_WP:	0.000	Y_WP:	0.500	X:	-0.001	Y:	0.021	Z:	0.050	yaw:	6.553	yaw rate:	-1.755	Roll:	-0.018	Pitch:	0.752	Yaw:	9.836	Thrust:	100.000
Time:	4.423	Roll Set Point:	0.001	Pitch Set Point:	-0.042	Yaw Set Point:	-0.113	X_WP:	0.000	Y_WP:	0.000	Y_WP:	0.500	X:	-0.001	Y:	0.021	Z:	0.050	yaw:	6.492	yaw rate:	-6.037	Roll:	0.036	Pitch:	0.809	Yaw:	8.735	Thrust:	100.000
Time:	4.434	Roll Set Point:	0.001	Pitch Set Point:	-0.042	Yaw Set Point:	-0.115	X_WP:	0.000	Y_WP:	0.000	Y_WP:	0.500	X:	-0.001	Y:	0.021	Z:	0.050	yaw:	6.573	yaw rate:	8.101	Roll:	0.081	Pitch:	0.648	Yaw:	12.204	Thrust:	100.000
Time:	4.445	Roll Set Point:	0.001	Pitch Set Point:	-0.042	Yaw Set Point:	-0.113	X_WP:	0.000	Y_WP:	0.000	Y_WP:	0.500	X:	-0.001	Y:	0.021	Z:	0.050	yaw:	6.480	yaw rate:	-9.298	Roll:	-0.031	Pitch:	0.841	Yaw:	7.944	Thrust:	100.000
Time:	4.456	Roll Set Point:	0.001	Pitch Set Point:	-0.042	Yaw Set Point:	-0.113	X_WP:	0.000	Y_WP:	0.000	Y_WP:	0.500	X:	-0.001	Y:	0.021	Z:	0.050	yaw:	6.482	yaw rate:	0.137	Roll:	0.044	Pitch:	0.724	Yaw:	10.186	Thrust:	100.000
Time:	4.467	Roll Set Point:	0.001	Pitch Set Point:	-0.042	Yaw Set Point:	-0.113	X_WP:	0.000	Y_WP:	0.000	Y_WP:	0.500	X:	-0.001	Y:	0.021	Z:	0.050	yaw:	6.490	yaw rate:	0.794	Roll:	0.013	Pitch:	0.718	Yaw:	10.353	Thrust:	100.000
Time:	4.478	Roll Set Point:	0.001	Pitch Set Point:	-0.042	Yaw Set Point:	-0.113	X_WP:	0.000	Y_WP:	0.000	Y_WP:	0.500	X:	-0.001	Y:	0.021	Z:	0.050	yaw:	6.475	yaw rate:	-1.436	Roll:	0.071	Pitch:	0.772	Yaw:	9.804	Thrust:	100.000
Time:	4.489	Roll Set Point:	0.001	Pitch Set Point:	-0.042	Yaw Set Point:	-0.113	X_WP:	0.000	Y_WP:	0.000	Y_WP:	0.500	X:	-0.001	Y:	0.021	Z:	0.050	yaw:	6.457	yaw rate:	-1.783	Roll:	0.011	Pitch:	0.729	Yaw:	9.695	Thrust:	100.000
Time:	4.501	Roll Set Point:	0.001	Pitch Set Point:	-0.042	Yaw Set Point:	-0.113	X_WP:	0.000	Y_WP:	0.000	Y_WP:	0.500	X:	-0.001	Y:	0.021	Z:	0.050	yaw:	6.460	yaw rate:	0.252	Roll:	-0.007	Pitch:	0.760	Yaw:	10.277	Thrust:	100.000
Time:	4.512	Roll Set Point:	0.001	Pitch Set Point:	-0.042	Yaw Set Point:	-0.113	X_WP:	0.000	Y_WP:	0.000	Y_WP:	0.500	X:	-0.001	Y:	0.021	Z:	0.050	yaw:	6.467	yaw rate:	0.690	Roll:	0.097	Pitch:	0.714	Yaw:	10.297	Thrust:	100.000
Time:	4.523	Roll Set Point:	0.001	Pitch Set Point:	-0.042	Yaw Set Point:	-0.113	X_WP:	0.000	Y_WP:	0.000	Y_WP:	0.500	X:	-0.001	Y:	0.021	Z:	0.050	yaw:	6.491	yaw rate:	2.443	Roll:	0.018	Pitch:	0.741	Yaw:	10.746	Thrust:	100.000
Time:	4.534	Roll Set Point:	0.001	Pitch Set Point:	-0.042	Yaw Set Point:	-0.113	X_WP:	0.000	Y_WP:	0.000	Y_WP:	0.500	X:	-0.001	Y:	0.021	Z:	0.050	yaw:	6.476	yaw rate:	-1.534	Roll:	0.035	Pitch:	0.742	Yaw:	9.778	Thrust:	100.000
Time:	4.545	Roll Set Point:	0.001	Pitch Set Point:	-0.042	Yaw Set Point:	-0.113	X_WP:	0.000	Y_WP:	0.000	Y_WP:	0.500	X:	-0.001	Y:	0.021	Z:	0.050	yaw:	6.477	yaw rate:	0.139	Roll:	-0.023	Pitch:	0.737	Yaw:	10.182	Thrust:	100.000
Time:	4.556	Roll Set Point:	0.001	Pitch Set Point:	-0.042	Yaw Set Point:	-0.116	X_WP:	0.000	Y_WP:	0.000	Y_WP:	0.500	X:	-0.002	Y:	0.021	Z:	0.050	yaw:	6.624	yaw rate:	14.696	Roll:	0.087	Pitch:	0.617	Yaw:	13.841	Thrust:	100.000
Time:	4.567	Roll Set Point:	0.001	Pitch Set Point:	-0.042	Yaw Set Point:	-0.113	X_WP:	0.000	Y_WP:	0.000	Y_WP:	0.500	X:	-0.001	Y:	0.021	Z:	0.050	yaw:	6.469	yaw rate:	-15.516	Roll:	0.022	Pitch:	0.869	Yaw:	6.441	Thrust:	100.000
Time:	4.578	Roll Set Point:	0.000	Pitch Set Point:	-0.042	Yaw Set Point:	-0.113	X_WP:	0.000	Y_WP:	0.000	Y_WP:	0.500	X:	-0.001	Y:	0.021	Z:	0.050	yaw:	6.475	yaw rate:	0.609	Roll:	0.086	Pitch:	0.676	Yaw:	10.291	Thrust:	100.000
Time:	4.589	Roll Set Point:	0.001	Pitch Set Point:	-0.042	Yaw Set Point:	-0.115	X_WP:	0.000	Y_WP:	0.000	Y_WP:	0.500	X:	-0.001	Y:	0.021	Z:	0.050	yaw:	6.569	yaw rate:	9.411	Roll:	0.004	Pitch:	0.714	Yaw:	12.509	Thrust:	100.000
Time:	4.600	Roll Set Point:	0.001	Pitch Set Point:	-0.042	Yaw Set Point:	-0.112	X_WP:	0.000	Y_WP:	0.000	Y_WP:	0.500	X:	-0.001	Y:	0.021	Z:	0.050	yaw:	6.442	yaw rate:	-12.722	Roll:	-0.044	Pitch:	0.844	Yaw:	7.078	Thrust:	100.000
Time:	4.611	Roll Set Point:	0.001	Pitch Set Point:	-0.042	Yaw Set Point:	-0.113	X_WP:	0.000	Y_WP:	0.000	Y_WP:	0.500	X:	-0.001	Y:	0.021	Z:	0.050	yaw:	6.471	yaw rate:	2.838	Roll:	0.064	Pitch:	0.700	Yaw:	10.811	Thrust:	100.000
Time:	4.622	Roll Set Point:	0.001	Pitch Set Point:	-0.042	Yaw Set Point:	-0.114	X_WP:	0.000	Y_WP:	0.000	Y_WP:	0.500	X:	-0.001	Y:	0.021	Z:	0.050	yaw:	6.560	yaw rate:	8.924	Roll:	0.087	Pitch:	0.696	Yaw:	12.383	Thrust:	100.000
Time:	4.633	Roll Set Point:	0.001	Pitch Set Point:	-0.042	Yaw Set Point:	-0.113	X_WP:	0.000	Y_WP:	0.000	Y_WP:	0.500	X:	-0.001	Y:	0.021	Z:	0.050	yaw:	6.465	yaw rate:	-9.478	Roll:	-0.031	Pitch:	0.829	Yaw:	7.879	Thrust:	100.000
Time:	4.644	Roll Set Point:	0.001	Pitch Set Point:	-0.042	Yaw Set Point:	-0.113	X_WP:	0.000	Y_WP:	0.000	Y_WP:	0.500	X:	-0.001	Y:	0.021	Z:	0.050	yaw:	6.464	yaw rate:	-0.080	Roll:	0.036	Pitch:	0.749	Yaw:	10.112	Thrust:	100.000
Time:	4.655	Roll Set Point:	0.001	Pitch Set Point:	-0.042	Yaw Set Point:	-0.113	X_WP:	0.000	Y_WP:	0.000	Y_WP:	0.500	X:	-0.001	Y:	0.021	Z:	0.050	yaw:	6.460	yaw rate:	-0.447	Roll:	0.044	Pitch:	0.726	Yaw:	10.016	Thrust:	100.000
Time:	4.666	Roll Set Point:	0.001	Pitch Set Point:	-0.042	Yaw Set Point:	-0.113	X_WP:	0.000	Y_WP:	0.000	Y_WP:	0.500	X:	-0.001	Y:	0.021	Z:	0.050	yaw:	6.491	yaw rate:	3.152	Roll:	0.039	Pitch:	0.760	Yaw:	10.914	Thrust:	100.000
Time:	4.677	Roll Set Point:	0.001	Pitch Set Point:	-0.042	Yaw Set Point:	-0.113	X_WP:	0.000	Y_WP:	0.000	Y_WP:	0.500	X:	-0.001	Y:	0.021	Z:	0.050	yaw:	6.489	yaw rate:	-0.243	Roll:	0.026	Pitch:	0.720	Yaw:	10.108	Thrust:	100.000
Time:	4.688	Roll Set Point:	0.001	Pitch Set Point:	-0.042	Yaw Set Point:	-0.113	X_WP:	0.000	Y_WP:	0.000	Y_WP:	0.500	X:	-0.001	Y:	0.021	Z:	0.050	yaw:	6.487	yaw rate:	-0.225	Roll:	0.015	Pitch:	0.766	Yaw:	10.107	Thrust:	100.000
Time:	4.699	Roll Set Point:	0.001	Pitch Set Point:	-0.042	Yaw Set Point:	-0.114	X_WP:	0.000	Y_WP:	0.000	Y_WP:	0.500	X:	-0.001	Y:	0.021	Z:	0.050	yaw:	6.557	yaw rate:	7.043	Roll:	0.085	Pitch:	0.659	Yaw:	11.930	Thrust:	100.000
Time:	4.710	Roll Set Point:	0.001	Pitch Set Point:	-0.042	Yaw Set Point:	-0.114	X_WP:	0.000	Y_WP:	0.000	Y_WP:	0.500	X:	-0.001	Y:	0.021	Z:	0.050	yaw:	6.550	yaw rate:	-0.719	Roll:	0.058	Pitch:	0.742	Yaw:	10.077	Thrust:	100.000
Time:	4.721	Roll Set Point:	0.001	Pitch Set Point:	-0.042	Yaw Set Point:	-0.113	X_WP:	0.000	Y_WP:	0.000	Y_WP:	0.500	X:	-0.001	Y:	0.021	Z:	0.050	yaw:	6.457	yaw rate:	-9.232	Roll:	-0.009	Pitch:	0.837	Yaw:	7.920	Thrust:	100.000
Time:	4.732	Roll Set Point:	0.001	Pitch Set Point:	-0.042	Yaw Set Point:	-0.113	X_WP:	0.000	Y_WP:	0.000	Y_WP:	0.500	X:	-0.001	Y:	0.021	Z:	0.050	yaw:	6.480	yaw rate:	2.244	Roll:	0.001	Pitch:	0.774	Yaw:	10.683	Thrust:	100.000
Time:	4.744	Roll Set Point:	0.001	Pitch Set Point:	-0.042	Yaw Set Point:	-0.113	X_WP:	0.000	Y_WP:	0.000	Y_WP:	0.500	X:	-0.001	Y:	0.021	Z:	0.050	yaw:	6.490	yaw rate:	1.023	Roll:	0.062	Pitch:	0.716	Yaw:	10.415	Thrust:	100.000
Time:	4.754	Roll Set Point:	0.001	Pitch Set Point:	-0.042	Yaw Set Point:	-0.114	X_WP:	0.000	Y_WP:	0.000	Y_WP:	0.500	X:	-0.001	Y:	0.021	Z:	0.050	yaw:	6.555	yaw rate:	6.489	Roll:	0.028	Pitch:	0.681	Yaw:	11.799	Thrust:	100.000
Time:	4.766	Roll Set Point:	0.000	Pitch Set Point:	-0.042	Yaw Set Point:	-0.114	X_WP:	0.000	Y_WP:	0.000	Y_WP:	0.500	X:	-0.001	Y:	0.021	Z:	0.050	yaw:	6.530	yaw rate:	-2.504	Roll:	0.115	Pitch:	0.700	Yaw:	9.626	Thrust:	100.000
Time:	4.777	Roll Set Point:	0.001	Pitch Set Point:	-0.042	Yaw Set Point:	-0.113	X_WP:	0.000	Y_WP:	0.000	Y_WP:	0.500	X:	-0.001	Y:	0.021	Z:	0.050	yaw:	6.446	yaw rate:	-8.365	Roll:	-0.057	Pitch:	0.885	Yaw:	8.118	Thrust:	100.000
Time:	4.788	Roll Set Point:	0.001	Pitch Set Point:	-0.042	Yaw Set Point:	-0.115	X_WP:	0.000	Y_WP:	0.000	Y_WP:	0.500	X:	-0.001	Y:	0.021	Z:	0.050	yaw:	6.570	yaw rate:	12.404	Roll:	0.078	Pitch:	0.643	Yaw:	13.221	Thrust:	100.000
Time:	4.800	Roll Set Point:	0.001	Pitch Set Point:	-0.042	Yaw Set Point:	-0.113	X_WP:	0.000	Y_WP:	0.000	Y_WP:	0.500	X:	-0.001	Y:	0.021	Z:	0.050	yaw:	6.468	yaw rate:	-10.270	Roll:	-0.016	Pitch:	0.867	Yaw:	7.992	Thrust:	100.000
Time:	4.811	Roll Set Point:	0.000	Pitch Set Point:	-0.042	Yaw Set Point:	-0.113	X_WP:	0.000	Y_WP:	0.000	Y_WP:	0.500	X:	-0.001	Y:	0.021	Z:	0.050	yaw:	6.470	yaw rate:	0.270	Roll:	0.097	Pitch:	0.689	Yaw:	10.204	Thrust:	100.000
Time:	4.822	Roll Set Point:	0.001	Pitch Set Point:	-0.042	Yaw Set Point:	-0.113	X_WP:	0.000	Y_WP:	0.000	Y_WP:	0.500	X:	-0.001	Y:	0.021	Z:	0.050	yaw:	6.469	yaw rate:	-0.183	Roll:	-0.031	Pitch:	0.804	Yaw:	10.091	Thrust:	100.000
Time:	4.833	Roll Set Point:	0.000	Pitch Set Point:	-0.042	Yaw Set Point:	-0.114	X_WP:	0.000	Y_WP:	0.000	Y_WP:	0.500	X:	-0.001	Y:	0.021	Z:	0.050	yaw:	6.537	yaw rate:	6.826	Roll:	0.111	Pitch:	0.614	Yaw:	11.850	Thrust:	100.000
Time:	4.844	Roll Set Point:	0.001	Pitch Set Point:	-0.042	Yaw Set Point:	-0.114	X_WP:	0.000	Y_WP:	0.000	Y_WP:	0.500	X:	-0.001	Y:	0.021	Z:	0.050	yaw:	6.541	yaw rate:	0.446	Roll:	-0.017	Pitch:	0.805	Yaw:	10.342	Thrust:	100.000
Time:	4.855	Roll Set Point:	0.001	Pitch Set Point:	-0.042	Yaw Set Point:	-0.115	X_WP:	0.000	Y_WP:	0.000	Y_WP:	0.500	X:	-0.001	Y:	0.021	Z:	0.050	yaw:	6.605	yaw rate:	6.404	Roll:	0.050	Pitch:	0.730	Yaw:	11.846	Thrust:	100.000
Time:	4.866	Roll Set Point:	0.001	Pitch Set Point:	-0.042	Yaw Set Point:	-0.114	X_WP:	0.000	Y_WP:	0.000	Y_WP:	0.500	X:	-0.001	Y:	0.021	Z:	0.050	yaw:	6.513	yaw rate:	-9.253	Roll:	0.005	Pitch:	0.848	Yaw:	8.000	Thrust:	100.000
Time:	4.877	Roll Set Point:	0.001	Pitch Set Point:	-0.042	Yaw Set Point:	-0.113	X_WP:	0.000	Y_WP:	0.000	Y_WP:	0.500	X:	-0.001	Y:	0.021	Z:	0.050	yaw:	6.464	yaw rate:	-4.843	Roll:	0.008	Pitch:	0.780	Yaw:	8.979	Thrust:	100.000
Time:	4.888	Roll Set Point:	0.001	Pitch Set Point:	-0.042	Yaw Set Point:	-0.113	X_WP:	0.000	Y_WP:	0.000	Y_WP:	0.500	X:	-0.001	Y:	0.021	Z:	0.050	yaw:	6.463	yaw rate:	-0.179	Roll:	0.060	Pitch:	0.760	Yaw:	10.084	Thrust:	100.000
Time:	4.899	Roll Set Point:	0.001	Pitch Set Point:	-0.042	Yaw Set Point:	-0.113	X_WP:	0.000	Y_WP:	0.000	Y_WP:	0.500	X:	-0.001	Y:	0.021	Z:	0.050	yaw:	6.501	yaw rate:	3.801	Roll:	0.014	Pitch:	0.742	Yaw:	11.082	Thrust:	100.000
Time:	4.910	Roll Set Point:	0.001	Pitch Set Point:	-0.042	Yaw Set Point:	-0.114	X_WP:	0.000	Y_WP:	0.000	Y_WP:	0.500	X:	-0.001	Y:	0.021	Z:	0.050	yaw:	6.549	yaw rate:	4.841	Roll:	0.078	Pitch:	0.701	Yaw:	11.396	Thrust:	100.000
Time:	4.921	Roll Set Point:	0.001	Pitch Set Point:	-0.042	Yaw Set Point:	-0.115	X_WP:	0.000	Y_WP:	0.000	Y_WP:	0.500	X:	-0.001	Y:	0.021	Z:	0.050	yaw:	6.575	yaw rate:	2.627	Roll:	0.012	Pitch:	0.746	Yaw:	10.907	Thrust:	100.000
Time:	4.932	Roll Set Point:	0.000	Pitch Set Point:	-0.042	Yaw Set Point:	-0.113	X_WP:	0.000	Y_WP:	0.000	Y_WP:	0.500	X:	-0.001	Y:	0.021	Z:	0.050	yaw:	6.446	yaw rate:	-12.896	Roll:	0.069	Pitch:	0.812	Yaw:	7.043	Thrust:	100.000
Time:	4.943	Roll Set Point:	0.001	Pitch Set Point:	-0.042	Yaw Set Point:	-0.113	X_WP:	0.000	Y_WP:	0.000	Y_WP:	0.500	X:	-0.001	Y:	0.021	Z:	0.050	yaw:	6.453	yaw rate:	0.664	Roll:	-0.019	Pitch:	0.802	Yaw:	10.270	Thrust:	100.000
Time:	4.954	Roll Set Point:	0.001	Pitch Set Point:	-0.042	Yaw Set Point:	-0.114	X_WP:	0.000	Y_WP:	0.000	Y_WP:	0.500	X:	-0.001	Y:	0.021	Z:	0.050	yaw:	6.534	yaw rate:	8.140	Roll:	0.039	Pitch:	0.673	Yaw:	12.159	Thrust:	100.000
Time:	4.965	Roll Set Point:	0.001	Pitch Set Point:	-0.042	Yaw Set Point:	-0.115	X_WP:	0.000	Y_WP:	0.000	Y_WP:	0.500	X:	-0.001	Y:	0.021	Z:	0.050	yaw:	6.575	yaw rate:	4.027	Roll:	0.080	Pitch:	0.744	Yaw:	11.239	Thrust:	100.000
Time:	4.976	Roll Set Point:	0.001	Pitch Set Point:	-0.042	Yaw Set Point:	-0.115	X_WP:	0.000	Y_WP:	0.000	Y_WP:	0.500	X:	-0.001	Y:	0.021	Z:	0.050	yaw:	6.570	yaw rate:	-0.431	Roll:	0.020	Pitch:	0.742	Yaw:	10.172	Thrust:	100.000
Time:	4.987	Roll Set Point:	0.001	Pitch Set Point:	-0.042	Yaw Set Point:	-0.112	X_WP:	0.000	Y_WP:	0.000	Y_WP:	0.500	X:	-0.001	Y:	0.021	Z:	0.050	yaw:	6.445	yaw rate:	-12.551	Roll:	-0.007	Pitch:	0.894	Yaw:	7.137	Thrust:	100.000
Time:	4.998	Roll Set Point:	0.001	Pitch Set Point:	-0.042	Yaw Set Point:	-0.113	X_WP:	0.000	Y_WP:	0.000	Y_WP:	0.500	X:	-0.001	Y:	0.021	Z:	0.050	yaw:	6.467	yaw rate:	2.247	Roll:	0.025	Pitch:	0.749	Yaw:	10.666	Thrust:	100.000
Time:	5.009	Roll Set Point:	0.001	Pitch Set Point:	-0.042	Yaw Set Point:	-0.113	X_WP:	0.000	Y_WP:	0.000	Y_WP:	0.500	X:	-0.001	Y:	0.021	Z:	0.050	yaw:	6.485	yaw rate:	1.745	Roll:	0.037	Pitch:	0.759	Yaw:	10.572	Thrust:	100.000
