Time:	2.094	Roll Set Point:	-0.234	Pitch Set Point:	-0.121	Yaw Set Point:	-0.577	X_WP:	0.000	Y_WP:	0.000	Y_WP:	0.500	X:	0.099	Y:	0.095	Z:	0.399	yaw:	33.070	yaw rate:	-3.335	Roll:	3.916	Pitch:	0.744	Yaw:	46.175	Thrust:	5.558
Time:	2.110	Roll Set Point:	-0.234	Pitch Set Point:	-0.121	Yaw Set Point:	-0.577	X_WP:	0.000	Y_WP:	0.000	Y_WP:	0.500	X:	0.099	Y:	0.095	Z:	0.399	yaw:	33.078	yaw rate:	0.742	Roll:	3.913	Pitch:	0.696	Yaw:	46.490	Thrust:	5.660
Time:	2.125	Roll Set Point:	-0.234	Pitch Set Point:	-0.121	Yaw Set Point:	-0.577	X_WP:	0.000	Y_WP:	0.000	Y_WP:	0.500	X:	0.099	Y:	0.095	Z:	0.399	yaw:	33.078	yaw rate:	0.742	Roll:	3.926	Pitch:	0.745	Yaw:	46.547	Thrust:	5.936
Time:	2.141	Roll Set Point:	-0.234	Pitch Set Point:	-0.121	Yaw Set Point:	-0.578	X_WP:	0.000	Y_WP:	0.000	Y_WP:	0.500	X:	0.099	Y:	0.095	Z:	0.399	yaw:	33.097	yaw rate:	2.547	Roll:	3.750	Pitch:	0.703	Yaw:	47.084	Thrust:	5.889
Time:	2.157	Roll Set Point:	-0.234	Pitch Set Point:	-0.121	Yaw Set Point:	-0.578	X_WP:	0.000	Y_WP:	0.000	Y_WP:	0.500	X:	0.099	Y:	0.095	Z:	0.399	yaw:	33.097	yaw rate:	2.547	Roll:	3.932	Pitch:	0.746	Yaw:	46.935	Thrust:	6.310
Time:	2.172	Roll Set Point:	-0.234	Pitch Set Point:	-0.121	Yaw Set Point:	-0.578	X_WP:	0.000	Y_WP:	0.000	Y_WP:	0.500	X:	0.099	Y:	0.095	Z:	0.399	yaw:	33.098	yaw rate:	5.227	Roll:	4.130	Pitch:	0.819	Yaw:	47.134	Thrust:	6.914
Time:	2.188	Roll Set Point:	-0.234	Pitch Set Point:	-0.121	Yaw Set Point:	-0.578	X_WP:	0.000	Y_WP:	0.000	Y_WP:	0.500	X:	0.099	Y:	0.095	Z:	0.399	yaw:	33.098	yaw rate:	5.227	Roll:	3.948	Pitch:	0.750	Yaw:	47.295	Thrust:	6.694
Time:	2.203	Roll Set Point:	-0.234	Pitch Set Point:	-0.121	Yaw Set Point:	-0.579	X_WP:	0.000	Y_WP:	0.000	Y_WP:	0.500	X:	0.099	Y:	0.095	Z:	0.399	yaw:	33.166	yaw rate:	6.755	Roll:	3.998	Pitch:	0.716	Yaw:	48.703	Thrust:	6.974
Time:	2.219	Roll Set Point:	-0.234	Pitch Set Point:	-0.121	Yaw Set Point:	-0.579	X_WP:	0.000	Y_WP:	0.000	Y_WP:	0.500	X:	0.099	Y:	0.095	Z:	0.399	yaw:	33.166	yaw rate:	6.755	Roll:	3.959	Pitch:	0.751	Yaw:	47.752	Thrust:	7.077
Time:	2.235	Roll Set Point:	-0.234	Pitch Set Point:	-0.121	Yaw Set Point:	-0.578	X_WP:	0.000	Y_WP:	0.000	Y_WP:	0.500	X:	0.099	Y:	0.095	Z:	0.399	yaw:	33.093	yaw rate:	0.525	Roll:	3.921	Pitch:	0.745	Yaw:	46.540	Thrust:	7.117
Time:	2.250	Roll Set Point:	-0.234	Pitch Set Point:	-0.121	Yaw Set Point:	-0.577	X_WP:	0.000	Y_WP:	0.000	Y_WP:	0.500	X:	0.099	Y:	0.095	Z:	0.399	yaw:	33.086	yaw rate:	-0.609	Roll:	3.952	Pitch:	0.797	Yaw:	47.658	Thrust:	7.373
Time:	2.266	Roll Set Point:	-0.234	Pitch Set Point:	-0.121	Yaw Set Point:	-0.578	X_WP:	0.000	Y_WP:	0.000	Y_WP:	0.500	X:	0.099	Y:	0.095	Z:	0.399	yaw:	33.115	yaw rate:	2.880	Roll:	3.802	Pitch:	0.640	Yaw:	48.283	Thrust:	7.304
Time:	2.282	Roll Set Point:	-0.234	Pitch Set Point:	-0.121	Yaw Set Point:	-0.577	X_WP:	0.000	Y_WP:	0.000	Y_WP:	0.500	X:	0.099	Y:	0.095	Z:	0.399	yaw:	33.054	yaw rate:	-6.099	Roll:	4.147	Pitch:	0.939	Yaw:	46.694	Thrust:	8.179
Time:	2.297	Roll Set Point:	-0.234	Pitch Set Point:	-0.121	Yaw Set Point:	-0.577	X_WP:	0.000	Y_WP:	0.000	Y_WP:	0.500	X:	0.099	Y:	0.095	Z:	0.399	yaw:	33.054	yaw rate:	-6.099	Roll:	3.985	Pitch:	0.759	Yaw:	47.724	Thrust:	8.035
Time:	2.313	Roll Set Point:	-0.234	Pitch Set Point:	-0.121	Yaw Set Point:	-0.577	X_WP:	0.000	Y_WP:	0.000	Y_WP:	0.500	X:	0.099	Y:	0.095	Z:	0.399	yaw:	33.071	yaw rate:	1.655	Roll:	4.000	Pitch:	0.690	Yaw:	48.015	Thrust:	8.254
Time:	2.328	Roll Set Point:	-0.234	Pitch Set Point:	-0.121	Yaw Set Point:	-0.577	X_WP:	0.000	Y_WP:	0.000	Y_WP:	0.500	X:	0.099	Y:	0.095	Z:	0.399	yaw:	33.072	yaw rate:	0.003	Roll:	3.999	Pitch:	0.842	Yaw:	47.743	Thrust:	8.301
Time:	2.344	Roll Set Point:	-0.234	Pitch Set Point:	-0.121	Yaw Set Point:	-0.577	X_WP:	0.000	Y_WP:	0.000	Y_WP:	0.500	X:	0.099	Y:	0.095	Z:	0.399	yaw:	33.072	yaw rate:	0.003	Roll:	4.001	Pitch:	0.762	Yaw:	47.744	Thrust:	8.597
Time:	2.360	Roll Set Point:	-0.234	Pitch Set Point:	-0.121	Yaw Set Point:	-0.578	X_WP:	0.000	Y_WP:	0.000	Y_WP:	0.500	X:	0.099	Y:	0.095	Z:	0.399	yaw:	33.102	yaw rate:	3.091	Roll:	3.808	Pitch:	0.596	Yaw:	48.297	Thrust:	8.508
Time:	2.375	Roll Set Point:	-0.234	Pitch Set Point:	-0.121	Yaw Set Point:	-0.578	X_WP:	0.000	Y_WP:	0.000	Y_WP:	0.500	X:	0.099	Y:	0.095	Z:	0.399	yaw:	33.090	yaw rate:	-1.250	Roll:	3.988	Pitch:	0.745	Yaw:	47.555	Thrust:	9.004
Time:	2.391	Roll Set Point:	-0.234	Pitch Set Point:	-0.121	Yaw Set Point:	-0.578	X_WP:	0.000	Y_WP:	0.000	Y_WP:	0.500	X:	0.099	Y:	0.095	Z:	0.399	yaw:	33.107	yaw rate:	0.901	Roll:	4.246	Pitch:	0.903	Yaw:	48.066	Thrust:	9.447
Time:	2.407	Roll Set Point:	-0.234	Pitch Set Point:	-0.121	Yaw Set Point:	-0.578	X_WP:	0.000	Y_WP:	0.000	Y_WP:	0.500	X:	0.099	Y:	0.095	Z:	0.399	yaw:	33.089	yaw rate:	-1.777	Roll:	3.802	Pitch:	0.665	Yaw:	47.468	Thrust:	9.000
Time:	2.422	Roll Set Point:	-0.234	Pitch Set Point:	-0.121	Yaw Set Point:	-0.578	X_WP:	0.000	Y_WP:	0.000	Y_WP:	0.500	X:	0.099	Y:	0.095	Z:	0.399	yaw:	33.112	yaw rate:	2.357	Roll:	4.237	Pitch:	0.793	Yaw:	48.189	Thrust:	10.037
Time:	2.438	Roll Set Point:	-0.234	Pitch Set Point:	-0.121	Yaw Set Point:	-0.577	X_WP:	0.000	Y_WP:	0.000	Y_WP:	0.500	X:	0.099	Y:	0.095	Z:	0.399	yaw:	33.059	yaw rate:	-5.316	Roll:	3.998	Pitch:	0.781	Yaw:	46.836	Thrust:	9.542
Time:	2.453	Roll Set Point:	-0.234	Pitch Set Point:	-0.121	Yaw Set Point:	-0.577	X_WP:	0.000	Y_WP:	0.000	Y_WP:	0.500	X:	0.099	Y:	0.095	Z:	0.399	yaw:	33.059	yaw rate:	-5.316	Roll:	4.037	Pitch:	0.767	Yaw:	47.719	Thrust:	9.907
Time:	2.469	Roll Set Point:	-0.234	Pitch Set Point:	-0.121	Yaw Set Point:	-0.577	X_WP:	0.000	Y_WP:	0.000	Y_WP:	0.500	X:	0.099	Y:	0.095	Z:	0.399	yaw:	33.061	yaw rate:	-3.660	Roll:	4.053	Pitch:	0.917	Yaw:	47.761	Thrust:	10.038
Time:	2.485	Roll Set Point:	-0.234	Pitch Set Point:	-0.121	Yaw Set Point:	-0.577	X_WP:	0.000	Y_WP:	0.000	Y_WP:	0.500	X:	0.099	Y:	0.095	Z:	0.399	yaw:	33.055	yaw rate:	-0.660	Roll:	4.047	Pitch:	0.673	Yaw:	47.602	Thrust:	10.347
Time:	2.500	Roll Set Point:	-0.234	Pitch Set Point:	-0.121	Yaw Set Point:	-0.577	X_WP:	0.000	Y_WP:	0.000	Y_WP:	0.500	X:	0.099	Y:	0.095	Z:	0.399	yaw:	33.084	yaw rate:	2.940	Roll:	3.830	Pitch:	0.608	Yaw:	48.252	Thrust:	10.243
Time:	2.516	Roll Set Point:	-0.234	Pitch Set Point:	-0.121	Yaw Set Point:	-0.577	X_WP:	0.000	Y_WP:	0.000	Y_WP:	0.500	X:	0.099	Y:	0.095	Z:	0.399	yaw:	33.074	yaw rate:	-1.037	Roll:	4.269	Pitch:	0.970	Yaw:	47.564	Thrust:	10.838
Time:	2.532	Roll Set Point:	-0.234	Pitch Set Point:	-0.121	Yaw Set Point:	-0.577	X_WP:	0.000	Y_WP:	0.000	Y_WP:	0.500	X:	0.099	Y:	0.095	Z:	0.399	yaw:	33.074	yaw rate:	0.004	Roll:	4.099	Pitch:	0.759	Yaw:	47.743	Thrust:	10.846
Time:	2.547	Roll Set Point:	-0.234	Pitch Set Point:	-0.121	Yaw Set Point:	-0.577	X_WP:	0.000	Y_WP:	0.000	Y_WP:	0.500	X:	0.099	Y:	0.095	Z:	0.399	yaw:	33.074	yaw rate:	0.004	Roll:	4.069	Pitch:	0.775	Yaw:	47.742	Thrust:	11.050
Time:	2.563	Roll Set Point:	-0.234	Pitch Set Point:	-0.121	Yaw Set Point:	-0.577	X_WP:	0.000	Y_WP:	0.000	Y_WP:	0.500	X:	0.099	Y:	0.095	Z:	0.399	yaw:	33.087	yaw rate:	1.381	Roll:	3.833	Pitch:	0.582	Yaw:	47.995	Thrust:	11.132
Time:	2.578	Roll Set Point:	-0.234	Pitch Set Point:	-0.121	Yaw Set Point:	-0.577	X_WP:	0.000	Y_WP:	0.000	Y_WP:	0.500	X:	0.099	Y:	0.095	Z:	0.399	yaw:	33.087	yaw rate:	1.381	Roll:	4.074	Pitch:	0.772	Yaw:	47.762	Thrust:	11.427
Time:	2.594	Roll Set Point:	-0.234	Pitch Set Point:	-0.121	Yaw Set Point:	-0.578	X_WP:	0.000	Y_WP:	0.000	Y_WP:	0.500	X:	0.099	Y:	0.095	Z:	0.399	yaw:	33.098	yaw rate:	0.919	Roll:	4.324	Pitch:	0.913	Yaw:	47.953	Thrust:	11.659
Time:	2.610	Roll Set Point:	-0.234	Pitch Set Point:	-0.121	Yaw Set Point:	-0.578	X_WP:	0.000	Y_WP:	0.000	Y_WP:	0.500	X:	0.099	Y:	0.095	Z:	0.399	yaw:	33.098	yaw rate:	0.919	Roll:	4.091	Pitch:	0.777	Yaw:	47.780	Thrust:	11.819
Time:	2.625	Roll Set Point:	-0.234	Pitch Set Point:	-0.121	Yaw Set Point:	-0.578	X_WP:	0.000	Y_WP:	0.000	Y_WP:	0.500	X:	0.099	Y:	0.095	Z:	0.399	yaw:	33.113	yaw rate:	1.518	Roll:	4.099	Pitch:	0.748	Yaw:	48.052	Thrust:	12.309
Time:	2.641	Roll Set Point:	-0.234	Pitch Set Point:	-0.121	Yaw Set Point:	-0.578	X_WP:	0.000	Y_WP:	0.000	Y_WP:	0.500	X:	0.099	Y:	0.095	Z:	0.399	yaw:	33.113	yaw rate:	1.518	Roll:	4.101	Pitch:	0.778	Yaw:	47.795	Thrust:	12.178
Time:	2.657	Roll Set Point:	-0.234	Pitch Set Point:	-0.121	Yaw Set Point:	-0.577	X_WP:	0.000	Y_WP:	0.000	Y_WP:	0.500	X:	0.099	Y:	0.095	Z:	0.399	yaw:	33.058	yaw rate:	-5.575	Roll:	4.069	Pitch:	0.846	Yaw:	46.790	Thrust:	12.068
Time:	2.672	Roll Set Point:	-0.234	Pitch Set Point:	-0.121	Yaw Set Point:	-0.577	X_WP:	0.000	Y_WP:	0.000	Y_WP:	0.500	X:	0.099	Y:	0.095	Z:	0.399	yaw:	33.058	yaw rate:	-5.575	Roll:	4.110	Pitch:	0.782	Yaw:	47.717	Thrust:	12.553
Time:	2.688	Roll Set Point:	-0.234	Pitch Set Point:	-0.121	Yaw Set Point:	-0.578	X_WP:	0.000	Y_WP:	0.000	Y_WP:	0.500	X:	0.099	Y:	0.095	Z:	0.399	yaw:	33.102	yaw rate:	6.027	Roll:	4.156	Pitch:	0.715	Yaw:	48.529	Thrust:	13.039
Time:	2.703	Roll Set Point:	-0.234	Pitch Set Point:	-0.121	Yaw Set Point:	-0.577	X_WP:	0.000	Y_WP:	0.000	Y_WP:	0.500	X:	0.099	Y:	0.095	Z:	0.399	yaw:	33.081	yaw rate:	-2.072	Roll:	3.876	Pitch:	0.683	Yaw:	47.405	Thrust:	12.533
Time:	2.719	Roll Set Point:	-0.234	Pitch Set Point:	-0.121	Yaw Set Point:	-0.577	X_WP:	0.000	Y_WP:	0.000	Y_WP:	0.500	X:	0.099	Y:	0.095	Z:	0.399	yaw:	33.068	yaw rate:	-1.299	Roll:	4.347	Pitch:	0.960	Yaw:	47.517	Thrust:	13.313
Time:	2.735	Roll Set Point:	-0.234	Pitch Set Point:	-0.121	Yaw Set Point:	-0.577	X_WP:	0.000	Y_WP:	0.000	Y_WP:	0.500	X:	0.099	Y:	0.095	Z:	0.399	yaw:	33.063	yaw rate:	-0.543	Roll:	4.123	Pitch:	0.823	Yaw:	47.636	Thrust:	13.423
Time:	2.750	Roll Set Point:	-0.234	Pitch Set Point:	-0.121	Yaw Set Point:	-0.577	X_WP:	0.000	Y_WP:	0.000	Y_WP:	0.500	X:	0.099	Y:	0.095	Z:	0.399	yaw:	33.081	yaw rate:	1.762	Roll:	3.918	Pitch:	0.614	Yaw:	48.047	Thrust:	13.289
Time:	2.766	Roll Set Point:	-0.234	Pitch Set Point:	-0.121	Yaw Set Point:	-0.578	X_WP:	0.000	Y_WP:	0.000	Y_WP:	0.500	X:	0.099	Y:	0.095	Z:	0.399	yaw:	33.090	yaw rate:	0.949	Roll:	4.366	Pitch:	0.872	Yaw:	47.925	Thrust:	13.992
Time:	2.782	Roll Set Point:	-0.234	Pitch Set Point:	-0.121	Yaw Set Point:	-0.578	X_WP:	0.000	Y_WP:	0.000	Y_WP:	0.500	X:	0.099	Y:	0.095	Z:	0.399	yaw:	33.118	yaw rate:	2.786	Roll:	4.174	Pitch:	0.786	Yaw:	48.271	Thrust:	13.930
Time:	2.797	Roll Set Point:	-0.234	Pitch Set Point:	-0.121	Yaw Set Point:	-0.578	X_WP:	0.000	Y_WP:	0.000	Y_WP:	0.500	X:	0.099	Y:	0.095	Z:	0.399	yaw:	33.099	yaw rate:	-1.909	Roll:	4.155	Pitch:	0.789	Yaw:	47.457	Thrust:	14.005
Time:	2.813	Roll Set Point:	-0.234	Pitch Set Point:	-0.121	Yaw Set Point:	-0.578	X_WP:	0.000	Y_WP:	0.000	Y_WP:	0.500	X:	0.099	Y:	0.095	Z:	0.399	yaw:	33.099	yaw rate:	-1.909	Roll:	4.160	Pitch:	0.790	Yaw:	47.781	Thrust:	14.292
Time:	2.828	Roll Set Point:	-0.234	Pitch Set Point:	-0.121	Yaw Set Point:	-0.578	X_WP:	0.000	Y_WP:	0.000	Y_WP:	0.500	X:	0.099	Y:	0.095	Z:	0.399	yaw:	33.109	yaw rate:	-0.507	Roll:	4.150	Pitch:	0.719	Yaw:	47.963	Thrust:	14.593
Time:	2.844	Roll Set Point:	-0.234	Pitch Set Point:	-0.121	Yaw Set Point:	-0.578	X_WP:	0.000	Y_WP:	0.000	Y_WP:	0.500	X:	0.099	Y:	0.095	Z:	0.399	yaw:	33.109	yaw rate:	-0.507	Roll:	4.170	Pitch:	0.790	Yaw:	47.792	Thrust:	14.654
Time:	2.876	Roll Set Point:	-0.234	Pitch Set Point:	-0.121	Yaw Set Point:	-0.578	X_WP:	0.000	Y_WP:	0.000	Y_WP:	0.500	X:	0.099	Y:	0.095	Z:	0.399	yaw:	33.111	yaw rate:	3.180	Roll:	4.441	Pitch:	0.894	Yaw:	49.393	Thrust:	24.160
Time:	2.891	Roll Set Point:	-0.234	Pitch Set Point:	-0.121	Yaw Set Point:	-0.578	X_WP:	0.000	Y_WP:	0.000	Y_WP:	0.500	X:	0.099	Y:	0.095	Z:	0.399	yaw:	33.092	yaw rate:	1.872	Roll:	3.939	Pitch:	0.641	Yaw:	47.446	Thrust:	14.763
Time:	2.907	Roll Set Point:	-0.234	Pitch Set Point:	-0.121	Yaw Set Point:	-0.578	X_WP:	0.000	Y_WP:	0.000	Y_WP:	0.500	X:	0.099	Y:	0.095	Z:	0.399	yaw:	33.092	yaw rate:	1.872	Roll:	4.179	Pitch:	0.792	Yaw:	47.768	Thrust:	15.214
Time:	2.922	Roll Set Point:	-0.234	Pitch Set Point:	-0.121	Yaw Set Point:	-0.577	X_WP:	0.000	Y_WP:	0.000	Y_WP:	0.500	X:	0.099	Y:	0.095	Z:	0.399	yaw:	33.075	yaw rate:	-1.662	Roll:	4.401	Pitch:	0.985	Yaw:	47.466	Thrust:	15.649
Time:	2.938	Roll Set Point:	-0.234	Pitch Set Point:	-0.121	Yaw Set Point:	-0.577	X_WP:	0.000	Y_WP:	0.000	Y_WP:	0.500	X:	0.099	Y:	0.095	Z:	0.399	yaw:	33.082	yaw rate:	0.068	Roll:	3.970	Pitch:	0.644	Yaw:	47.867	Thrust:	15.356
Time:	2.954	Roll Set Point:	-0.234	Pitch Set Point:	-0.120	Yaw Set Point:	-0.578	X_WP:	0.000	Y_WP:	0.000	Y_WP:	0.500	X:	0.099	Y:	0.095	Z:	0.399	yaw:	33.102	yaw rate:	2.010	Roll:	4.211	Pitch:	0.679	Yaw:	48.119	Thrust:	15.687
Time:	2.969	Roll Set Point:	-0.234	Pitch Set Point:	-0.121	Yaw Set Point:	-0.577	X_WP:	0.000	Y_WP:	0.000	Y_WP:	0.500	X:	0.099	Y:	0.095	Z:	0.399	yaw:	33.071	yaw rate:	-3.143	Roll:	4.412	Pitch:	0.994	Yaw:	47.212	Thrust:	16.318
Time:	2.985	Roll Set Point:	-0.234	Pitch Set Point:	-0.121	Yaw Set Point:	-0.578	X_WP:	0.000	Y_WP:	0.000	Y_WP:	0.500	X:	0.099	Y:	0.095	Z:	0.399	yaw:	33.106	yaw rate:	3.510	Roll:	4.005	Pitch:	0.687	Yaw:	48.375	Thrust:	15.760
Time:	3.001	Roll Set Point:	-0.234	Pitch Set Point:	-0.121	Yaw Set Point:	-0.577	X_WP:	0.000	Y_WP:	0.000	Y_WP:	0.500	X:	0.099	Y:	0.095	Z:	0.399	yaw:	33.066	yaw rate:	-3.962	Roll:	4.401	Pitch:	0.955	Yaw:	47.068	Thrust:	16.635
Time:	3.016	Roll Set Point:	-0.234	Pitch Set Point:	-0.121	Yaw Set Point:	-0.577	X_WP:	0.000	Y_WP:	0.000	Y_WP:	0.500	X:	0.099	Y:	0.095	Z:	0.399	yaw:	33.069	yaw rate:	0.286	Roll:	4.230	Pitch:	0.776	Yaw:	47.784	Thrust:	16.771
Time:	3.032	Roll Set Point:	-0.234	Pitch Set Point:	-0.121	Yaw Set Point:	-0.578	X_WP:	0.000	Y_WP:	0.000	Y_WP:	0.500	X:	0.099	Y:	0.095	Z:	0.399	yaw:	33.094	yaw rate:	2.440	Roll:	4.260	Pitch:	0.747	Yaw:	48.179	Thrust:	16.703
Time:	3.047	Roll Set Point:	-0.234	Pitch Set Point:	-0.121	Yaw Set Point:	-0.578	X_WP:	0.000	Y_WP:	0.000	Y_WP:	0.500	X:	0.099	Y:	0.095	Z:	0.399	yaw:	33.111	yaw rate:	1.780	Roll:	4.219	Pitch:	0.872	Yaw:	48.093	Thrust:	16.963
Time:	3.063	Roll Set Point:	-0.234	Pitch Set Point:	-0.121	Yaw Set Point:	-0.578	X_WP:	0.000	Y_WP:	0.000	Y_WP:	0.500	X:	0.099	Y:	0.095	Z:	0.399	yaw:	33.111	yaw rate:	1.780	Roll:	4.238	Pitch:	0.806	Yaw:	47.795	Thrust:	17.121
Time:	3.079	Roll Set Point:	-0.234	Pitch Set Point:	-0.121	Yaw Set Point:	-0.577	X_WP:	0.000	Y_WP:	0.000	Y_WP:	0.500	X:	0.099	Y:	0.095	Z:	0.399	yaw:	33.034	yaw rate:	-2.030	Roll:	4.193	Pitch:	0.885	Yaw:	46.388	Thrust:	17.211
Time:	3.094	Roll Set Point:	-0.234	Pitch Set Point:	-0.121	Yaw Set Point:	-0.577	X_WP:	0.000	Y_WP:	0.000	Y_WP:	0.500	X:	0.099	Y:	0.095	Z:	0.399	yaw:	33.034	yaw rate:	-2.030	Roll:	4.247	Pitch:	0.810	Yaw:	47.686	Thrust:	17.488
Time:	3.110	Roll Set Point:	-0.234	Pitch Set Point:	-0.121	Yaw Set Point:	-0.577	X_WP:	0.000	Y_WP:	0.000	Y_WP:	0.500	X:	0.099	Y:	0.095	Z:	0.399	yaw:	33.045	yaw rate:	-4.619	Roll:	4.279	Pitch:	0.845	Yaw:	47.881	Thrust:	17.601
Time:	3.126	Roll Set Point:	-0.234	Pitch Set Point:	-0.121	Yaw Set Point:	-0.577	X_WP:	0.000	Y_WP:	0.000	Y_WP:	0.500	X:	0.099	Y:	0.095	Z:	0.399	yaw:	33.078	yaw rate:	3.390	Roll:	4.032	Pitch:	0.532	Yaw:	48.317	Thrust:	17.575
Time:	3.141	Roll Set Point:	-0.234	Pitch Set Point:	-0.121	Yaw Set Point:	-0.577	X_WP:	0.000	Y_WP:	0.000	Y_WP:	0.500	X:	0.099	Y:	0.095	Z:	0.399	yaw:	33.078	yaw rate:	3.390	Roll:	4.258	Pitch:	0.806	Yaw:	47.749	Thrust:	18.053
Time:	3.157	Roll Set Point:	-0.234	Pitch Set Point:	-0.121	Yaw Set Point:	-0.578	X_WP:	0.000	Y_WP:	0.000	Y_WP:	0.500	X:	0.099	Y:	0.095	Z:	0.399	yaw:	33.102	yaw rate:	4.839	Roll:	4.313	Pitch:	0.825	Yaw:	48.187	Thrust:	18.303
Time:	3.172	Roll Set Point:	-0.234	Pitch Set Point:	-0.121	Yaw Set Point:	-0.578	X_WP:	0.000	Y_WP:	0.000	Y_WP:	0.500	X:	0.099	Y:	0.095	Z:	0.399	yaw:	33.102	yaw rate:	4.839	Roll:	4.269	Pitch:	0.809	Yaw:	47.778	Thrust:	18.401
Time:	3.188	Roll Set Point:	-0.234	Pitch Set Point:	-0.121	Yaw Set Point:	-0.578	X_WP:	0.000	Y_WP:	0.000	Y_WP:	0.500	X:	0.099	Y:	0.095	Z:	0.399	yaw:	33.102	yaw rate:	1.155	Roll:	4.221	Pitch:	0.800	Yaw:	47.777	Thrust:	18.609
Time:	3.204	Roll Set Point:	-0.234	Pitch Set Point:	-0.121	Yaw Set Point:	-0.578	X_WP:	0.000	Y_WP:	0.000	Y_WP:	0.500	X:	0.099	Y:	0.095	Z:	0.399	yaw:	33.102	yaw rate:	1.155	Roll:	4.278	Pitch:	0.810	Yaw:	47.778	Thrust:	18.783
Time:	3.219	Roll Set Point:	-0.234	Pitch Set Point:	-0.121	Yaw Set Point:	-0.578	X_WP:	0.000	Y_WP:	0.000	Y_WP:	0.500	X:	0.099	Y:	0.095	Z:	0.399	yaw:	33.099	yaw rate:	1.399	Roll:	4.551	Pitch:	0.946	Yaw:	47.732	Thrust:	19.507
Time:	3.235	Roll Set Point:	-0.234	Pitch Set Point:	-0.121	Yaw Set Point:	-0.578	X_WP:	0.000	Y_WP:	0.000	Y_WP:	0.500	X:	0.099	Y:	0.095	Z:	0.399	yaw:	33.099	yaw rate:	1.399	Roll:	4.296	Pitch:	0.816	Yaw:	47.774	Thrust:	19.169
Time:	3.251	Roll Set Point:	-0.234	Pitch Set Point:	-0.121	Yaw Set Point:	-0.577	X_WP:	0.000	Y_WP:	0.000	Y_WP:	0.500	X:	0.099	Y:	0.095	Z:	0.399	yaw:	33.078	yaw rate:	-3.684	Roll:	4.255	Pitch:	0.827	Yaw:	47.406	Thrust:	19.209
Time:	3.266	Roll Set Point:	-0.234	Pitch Set Point:	-0.121	Yaw Set Point:	-0.578	X_WP:	0.000	Y_WP:	0.000	Y_WP:	0.500	X:	0.099	Y:	0.095	Z:	0.399	yaw:	33.090	yaw rate:	1.153	Roll:	4.108	Pitch:	0.652	Yaw:	47.955	Thrust:	19.329
Time:	3.282	Roll Set Point:	-0.234	Pitch Set Point:	-0.121	Yaw Set Point:	-0.578	X_WP:	0.000	Y_WP:	0.000	Y_WP:	0.500	X:	0.099	Y:	0.095	Z:	0.399	yaw:	33.124	yaw rate:	3.449	Roll:	4.581	Pitch:	0.955	Yaw:	48.393	Thrust:	20.328
Time:	3.298	Roll Set Point:	-0.234	Pitch Set Point:	-0.121	Yaw Set Point:	-0.578	X_WP:	0.000	Y_WP:	0.000	Y_WP:	0.500	X:	0.099	Y:	0.095	Z:	0.399	yaw:	33.124	yaw rate:	3.449	Roll:	4.318	Pitch:	0.820	Yaw:	47.813	Thrust:	19.956
Time:	3.313	Roll Set Point:	-0.234	Pitch Set Point:	-0.121	Yaw Set Point:	-0.578	X_WP:	0.000	Y_WP:	0.000	Y_WP:	0.500	X:	0.099	Y:	0.095	Z:	0.399	yaw:	33.100	yaw rate:	3.767	Roll:	4.247	Pitch:	0.841	Yaw:	47.378	Thrust:	20.046
Time:	3.329	Roll Set Point:	-0.234	Pitch Set Point:	-0.121	Yaw Set Point:	-0.577	X_WP:	0.000	Y_WP:	0.000	Y_WP:	0.500	X:	0.099	Y:	0.095	Z:	0.399	yaw:	33.032	yaw rate:	-6.841	Roll:	4.309	Pitch:	0.868	Yaw:	46.538	Thrust:	20.172
Time:	3.344	Roll Set Point:	-0.234	Pitch Set Point:	-0.121	Yaw Set Point:	-0.577	X_WP:	0.000	Y_WP:	0.000	Y_WP:	0.500	X:	0.099	Y:	0.095	Z:	0.399	yaw:	33.032	yaw rate:	-6.841	Roll:	4.331	Pitch:	0.824	Yaw:	47.681	Thrust:	20.489
Time:	3.360	Roll Set Point:	-0.234	Pitch Set Point:	-0.121	Yaw Set Point:	-0.578	X_WP:	0.000	Y_WP:	0.000	Y_WP:	0.500	X:	0.099	Y:	0.095	Z:	0.399	yaw:	33.104	yaw rate:	7.170	Roll:	4.416	Pitch:	0.778	Yaw:	48.985	Thrust:	20.841
Time:	3.376	Roll Set Point:	-0.234	Pitch Set Point:	-0.121	Yaw Set Point:	-0.577	X_WP:	0.000	Y_WP:	0.000	Y_WP:	0.500	X:	0.099	Y:	0.095	Z:	0.399	yaw:	33.069	yaw rate:	-3.479	Roll:	4.328	Pitch:	0.922	Yaw:	47.153	Thrust:	20.867
Time:	3.391	Roll Set Point:	-0.234	Pitch Set Point:	-0.121	Yaw Set Point:	-0.577	X_WP:	0.000	Y_WP:	0.000	Y_WP:	0.500	X:	0.099	Y:	0.095	Z:	0.399	yaw:	33.055	yaw rate:	-2.931	Roll:	4.294	Pitch:	0.779	Yaw:	47.486	Thrust:	21.076
Time:	3.407	Roll Set Point:	-0.234	Pitch Set Point:	-0.121	Yaw Set Point:	-0.578	X_WP:	0.000	Y_WP:	0.000	Y_WP:	0.500	X:	0.099	Y:	0.095	Z:	0.399	yaw:	33.089	yaw rate:	3.393	Roll:	4.390	Pitch:	0.763	Yaw:	48.332	Thrust:	21.253
Time:	3.422	Roll Set Point:	-0.234	Pitch Set Point:	-0.121	Yaw Set Point:	-0.578	X_WP:	0.000	Y_WP:	0.000	Y_WP:	0.500	X:	0.099	Y:	0.095	Z:	0.399	yaw:	33.119	yaw rate:	2.979	Roll:	4.388	Pitch:	0.861	Yaw:	48.304	Thrust:	21.652
Time:	3.438	Roll Set Point:	-0.234	Pitch Set Point:	-0.121	Yaw Set Point:	-0.578	X_WP:	0.000	Y_WP:	0.000	Y_WP:	0.500	X:	0.099	Y:	0.095	Z:	0.399	yaw:	33.119	yaw rate:	2.979	Roll:	4.365	Pitch:	0.830	Yaw:	47.805	Thrust:	21.665
Time:	3.454	Roll Set Point:	-0.234	Pitch Set Point:	-0.121	Yaw Set Point:	-0.577	X_WP:	0.000	Y_WP:	0.000	Y_WP:	0.500	X:	0.099	Y:	0.095	Z:	0.399	yaw:	33.056	yaw rate:	0.435	Roll:	4.300	Pitch:	0.871	Yaw:	46.658	Thrust:	21.685
Time:	3.469	Roll Set Point:	-0.234	Pitch Set Point:	-0.121	Yaw Set Point:	-0.577	X_WP:	0.000	Y_WP:	0.000	Y_WP:	0.500	X:	0.099	Y:	0.095	Z:	0.399	yaw:	33.062	yaw rate:	0.639	Roll:	4.408	Pitch:	0.762	Yaw:	47.833	Thrust:	21.974
Time:	3.485	Roll Set Point:	-0.234	Pitch Set Point:	-0.121	Yaw Set Point:	-0.577	X_WP:	0.000	Y_WP:	0.000	Y_WP:	0.500	X:	0.099	Y:	0.095	Z:	0.399	yaw:	33.084	yaw rate:	2.208	Roll:	4.410	Pitch:	0.854	Yaw:	48.127	Thrust:	22.262
Time:	3.501	Roll Set Point:	-0.234	Pitch Set Point:	-0.121	Yaw Set Point:	-0.577	X_WP:	0.000	Y_WP:	0.000	Y_WP:	0.500	X:	0.099	Y:	0.095	Z:	0.399	yaw:	33.084	yaw rate:	0.026	Roll:	4.148	Pitch:	0.760	Yaw:	47.762	Thrust:	22.113
Time:	3.516	Roll Set Point:	-0.234	Pitch Set Point:	-0.121	Yaw Set Point:	-0.577	X_WP:	0.000	Y_WP:	0.000	Y_WP:	0.500	X:	0.099	Y:	0.095	Z:	0.399	yaw:	33.058	yaw rate:	-2.652	Roll:	4.571	Pitch:	0.956	Yaw:	47.275	Thrust:	22.933
Time:	3.532	Roll Set Point:	-0.234	Pitch Set Point:	-0.121	Yaw Set Point:	-0.577	X_WP:	0.000	Y_WP:	0.000	Y_WP:	0.500	X:	0.099	Y:	0.095	Z:	0.399	yaw:	33.058	yaw rate:	-2.652	Roll:	4.395	Pitch:	0.837	Yaw:	47.720	Thrust:	22.796
Time:	3.548	Roll Set Point:	-0.234	Pitch Set Point:	-0.121	Yaw Set Point:	-0.578	X_WP:	0.000	Y_WP:	0.000	Y_WP:	0.500	X:	0.099	Y:	0.095	Z:	0.399	yaw:	33.126	yaw rate:	6.585	Roll:	4.253	Pitch:	0.593	Yaw:	48.965	Thrust:	22.720
Time:	3.563	Roll Set Point:	-0.234	Pitch Set Point:	-0.121	Yaw Set Point:	-0.578	X_WP:	0.000	Y_WP:	0.000	Y_WP:	0.500	X:	0.099	Y:	0.095	Z:	0.399	yaw:	33.126	yaw rate:	6.585	Roll:	4.401	Pitch:	0.832	Yaw:	47.813	Thrust:	23.135
Time:	3.579	Roll Set Point:	-0.234	Pitch Set Point:	-0.121	Yaw Set Point:	-0.577	X_WP:	0.000	Y_WP:	0.000	Y_WP:	0.500	X:	0.099	Y:	0.095	Z:	0.399	yaw:	33.053	yaw rate:	0.568	Roll:	4.538	Pitch:	1.092	Yaw:	46.481	Thrust:	23.702
Time:	3.594	Roll Set Point:	-0.234	Pitch Set Point:	-0.121	Yaw Set Point:	-0.577	X_WP:	0.000	Y_WP:	0.000	Y_WP:	0.500	X:	0.099	Y:	0.095	Z:	0.399	yaw:	33.079	yaw rate:	2.617	Roll:	4.449	Pitch:	0.776	Yaw:	48.188	Thrust:	23.411
Time:	3.610	Roll Set Point:	-0.234	Pitch Set Point:	-0.121	Yaw Set Point:	-0.577	X_WP:	0.000	Y_WP:	0.000	Y_WP:	0.500	X:	0.099	Y:	0.095	Z:	0.399	yaw:	33.086	yaw rate:	0.689	Roll:	4.457	Pitch:	0.839	Yaw:	47.875	Thrust:	23.825
Time:	3.626	Roll Set Point:	-0.234	Pitch Set Point:	-0.121	Yaw Set Point:	-0.578	X_WP:	0.000	Y_WP:	0.000	Y_WP:	0.500	X:	0.099	Y:	0.095	Z:	0.399	yaw:	33.098	yaw rate:	1.229	Roll:	4.205	Pitch:	0.727	Yaw:	47.982	Thrust:	23.610
Time:	3.641	Roll Set Point:	-0.234	Pitch Set Point:	-0.121	Yaw Set Point:	-0.578	X_WP:	0.000	Y_WP:	0.000	Y_WP:	0.500	X:	0.099	Y:	0.095	Z:	0.399	yaw:	33.098	yaw rate:	1.229	Roll:	4.428	Pitch:	0.839	Yaw:	47.776	Thrust:	24.114
Time:	3.657	Roll Set Point:	-0.234	Pitch Set Point:	-0.121	Yaw Set Point:	-0.577	X_WP:	0.000	Y_WP:	0.000	Y_WP:	0.500	X:	0.099	Y:	0.095	Z:	0.399	yaw:	33.059	yaw rate:	-0.442	Roll:	4.624	Pitch:	0.979	Yaw:	47.073	Thrust:	24.625
Time:	3.673	Roll Set Point:	-0.234	Pitch Set Point:	-0.121	Yaw Set Point:	-0.577	X_WP:	0.000	Y_WP:	0.000	Y_WP:	0.500	X:	0.099	Y:	0.095	Z:	0.399	yaw:	33.074	yaw rate:	1.532	Roll:	4.470	Pitch:	0.871	Yaw:	47.997	Thrust:	24.530
Time:	3.688	Roll Set Point:	-0.234	Pitch Set Point:	-0.121	Yaw Set Point:	-0.578	X_WP:	0.000	Y_WP:	0.000	Y_WP:	0.500	X:	0.099	Y:	0.095	Z:	0.399	yaw:	33.094	yaw rate:	1.966	Roll:	4.223	Pitch:	0.710	Yaw:	48.102	Thrust:	24.385
Time:	3.704	Roll Set Point:	-0.234	Pitch Set Point:	-0.121	Yaw Set Point:	-0.578	X_WP:	0.000	Y_WP:	0.000	Y_WP:	0.500	X:	0.099	Y:	0.095	Z:	0.399	yaw:	33.094	yaw rate:	1.966	Roll:	4.447	Pitch:	0.844	Yaw:	47.768	Thrust:	24.835
Time:	3.719	Roll Set Point:	-0.234	Pitch Set Point:	-0.121	Yaw Set Point:	-0.577	X_WP:	0.000	Y_WP:	0.000	Y_WP:	0.500	X:	0.099	Y:	0.095	Z:	0.399	yaw:	33.082	yaw rate:	0.388	Roll:	4.425	Pitch:	0.845	Yaw:	47.551	Thrust:	25.100
Time:	3.735	Roll Set Point:	-0.234	Pitch Set Point:	-0.121	Yaw Set Point:	-0.577	X_WP:	0.000	Y_WP:	0.000	Y_WP:	0.500	X:	0.099	Y:	0.095	Z:	0.399	yaw:	33.082	yaw rate:	0.388	Roll:	4.458	Pitch:	0.846	Yaw:	47.753	Thrust:	25.248
Time:	3.751	Roll Set Point:	-0.234	Pitch Set Point:	-0.121	Yaw Set Point:	-0.578	X_WP:	0.000	Y_WP:	0.000	Y_WP:	0.500	X:	0.099	Y:	0.095	Z:	0.399	yaw:	33.113	yaw rate:	5.183	Roll:	4.522	Pitch:	0.784	Yaw:	48.326	Thrust:	25.432
Time:	3.766	Roll Set Point:	-0.234	Pitch Set Point:	-0.121	Yaw Set Point:	-0.577	X_WP:	0.000	Y_WP:	0.000	Y_WP:	0.500	X:	0.099	Y:	0.095	Z:	0.399	yaw:	33.065	yaw rate:	-4.837	Roll:	4.635	Pitch:	1.023	Yaw:	46.920	Thrust:	25.924
Time:	3.782	Roll Set Point:	-0.234	Pitch Set Point:	-0.121	Yaw Set Point:	-0.577	X_WP:	0.000	Y_WP:	0.000	Y_WP:	0.500	X:	0.099	Y:	0.095	Z:	0.399	yaw:	33.078	yaw rate:	1.312	Roll:	4.477	Pitch:	0.852	Yaw:	47.968	Thrust:	26.016
Time:	3.798	Roll Set Point:	-0.234	Pitch Set Point:	-0.121	Yaw Set Point:	-0.578	X_WP:	0.000	Y_WP:	0.000	Y_WP:	0.500	X:	0.099	Y:	0.095	Z:	0.399	yaw:	33.092	yaw rate:	1.382	Roll:	4.275	Pitch:	0.732	Yaw:	48.002	Thrust:	25.437
Time:	3.813	Roll Set Point:	-0.234	Pitch Set Point:	-0.121	Yaw Set Point:	-0.578	X_WP:	0.000	Y_WP:	0.000	Y_WP:	0.500	X:	0.099	Y:	0.095	Z:	0.399	yaw:	33.099	yaw rate:	0.742	Roll:	4.523	Pitch:	0.819	Yaw:	47.902	Thrust:	26.373
Time:	3.829	Roll Set Point:	-0.234	Pitch Set Point:	-0.121	Yaw Set Point:	-0.577	X_WP:	0.000	Y_WP:	0.000	Y_WP:	0.500	X:	0.099	Y:	0.095	Z:	0.399	yaw:	33.063	yaw rate:	-3.662	Roll:	4.675	Pitch:	1.021	Yaw:	47.110	Thrust:	26.611
Time:	3.844	Roll Set Point:	-0.234	Pitch Set Point:	-0.121	Yaw Set Point:	-0.577	X_WP:	0.000	Y_WP:	0.000	Y_WP:	0.500	X:	0.099	Y:	0.095	Z:	0.399	yaw:	33.063	yaw rate:	-3.662	Roll:	4.501	Pitch:	0.856	Yaw:	47.727	Thrust:	26.582
Time:	3.859	Roll Set Point:	-0.234	Pitch Set Point:	-0.121	Yaw Set Point:	-0.576	X_WP:	0.000	Y_WP:	0.000	Y_WP:	0.500	X:	0.099	Y:	0.095	Z:	0.399	yaw:	33.030	yaw rate:	-5.992	Roll:	4.446	Pitch:	0.903	Yaw:	47.039	Thrust:	25.744
Time:	3.875	Roll Set Point:	-0.234	Pitch Set Point:	-0.121	Yaw Set Point:	-0.576	X_WP:	0.000	Y_WP:	0.000	Y_WP:	0.500	X:	0.099	Y:	0.095	Z:	0.399	yaw:	33.030	yaw rate:	-5.992	Roll:	4.503	Pitch:	0.860	Yaw:	47.685	Thrust:	27.009
Time:	3.891	Roll Set Point:	-0.234	Pitch Set Point:	-0.121	Yaw Set Point:	-0.577	X_WP:	0.000	Y_WP:	0.000	Y_WP:	0.500	X:	0.099	Y:	0.095	Z:	0.399	yaw:	33.062	yaw rate:	3.165	Roll:	4.526	Pitch:	0.808	Yaw:	48.256	Thrust:	27.144
Time:	3.906	Roll Set Point:	-0.234	Pitch Set Point:	-0.121	Yaw Set Point:	-0.578	X_WP:	0.000	Y_WP:	0.000	Y_WP:	0.500	X:	0.099	Y:	0.095	Z:	0.399	yaw:	33.105	yaw rate:	4.303	Roll:	4.311	Pitch:	0.678	Yaw:	48.505	Thrust:	27.057
Time:	3.922	Roll Set Point:	-0.234	Pitch Set Point:	-0.121	Yaw Set Point:	-0.578	X_WP:	0.000	Y_WP:	0.000	Y_WP:	0.500	X:	0.099	Y:	0.095	Z:	0.399	yaw:	33.105	yaw rate:	4.303	Roll:	4.498	Pitch:	0.857	Yaw:	47.789	Thrust:	27.570
Time:	3.937	Roll Set Point:	-0.234	Pitch Set Point:	-0.121	Yaw Set Point:	-0.577	X_WP:	0.000	Y_WP:	0.000	Y_WP:	0.500	X:	0.099	Y:	0.095	Z:	0.399	yaw:	33.047	yaw rate:	-8.561	Roll:	4.683	Pitch:	1.082	Yaw:	46.739	Thrust:	27.866
Time:	3.953	Roll Set Point:	-0.234	Pitch Set Point:	-0.121	Yaw Set Point:	-0.577	X_WP:	0.000	Y_WP:	0.000	Y_WP:	0.500	X:	0.099	Y:	0.095	Z:	0.399	yaw:	33.047	yaw rate:	-8.561	Roll:	4.502	Pitch:	0.864	Yaw:	47.706	Thrust:	27.907
Time:	3.969	Roll Set Point:	-0.234	Pitch Set Point:	-0.121	Yaw Set Point:	-0.578	X_WP:	0.000	Y_WP:	0.000	Y_WP:	0.500	X:	0.099	Y:	0.095	Z:	0.399	yaw:	33.100	yaw rate:	2.426	Roll:	4.513	Pitch:	0.741	Yaw:	48.660	Thrust:	28.260
Time:	3.984	Roll Set Point:	-0.234	Pitch Set Point:	-0.121	Yaw Set Point:	-0.577	X_WP:	0.000	Y_WP:	0.000	Y_WP:	0.500	X:	0.099	Y:	0.095	Z:	0.399	yaw:	33.057	yaw rate:	-4.349	Roll:	4.495	Pitch:	0.985	Yaw:	46.990	Thrust:	28.158
Time:	4.000	Roll Set Point:	-0.234	Pitch Set Point:	-0.121	Yaw Set Point:	-0.578	X_WP:	0.000	Y_WP:	0.000	Y_WP:	0.500	X:	0.099	Y:	0.095	Z:	0.399	yaw:	33.090	yaw rate:	3.358	Roll:	4.315	Pitch:	0.694	Yaw:	48.328	Thrust:	28.206
Time:	4.016	Roll Set Point:	-0.234	Pitch Set Point:	-0.121	Yaw Set Point:	-0.577	X_WP:	0.000	Y_WP:	0.000	Y_WP:	0.500	X:	0.099	Y:	0.095	Z:	0.399	yaw:	33.086	yaw rate:	-0.381	Roll:	4.694	Pitch:	0.925	Yaw:	47.697	Thrust:	29.068
Time:	4.031	Roll Set Point:	-0.234	Pitch Set Point:	-0.121	Yaw Set Point:	-0.577	X_WP:	0.000	Y_WP:	0.000	Y_WP:	0.500	X:	0.099	Y:	0.095	Z:	0.399	yaw:	33.070	yaw rate:	-1.666	Roll:	4.479	Pitch:	0.916	Yaw:	47.457	Thrust:	28.861
Time:	4.047	Roll Set Point:	-0.234	Pitch Set Point:	-0.121	Yaw Set Point:	-0.578	X_WP:	0.000	Y_WP:	0.000	Y_WP:	0.500	X:	0.099	Y:	0.095	Z:	0.399	yaw:	33.098	yaw rate:	2.802	Roll:	4.538	Pitch:	0.917	Yaw:	48.245	Thrust:	29.161
Time:	4.062	Roll Set Point:	-0.234	Pitch Set Point:	-0.121	Yaw Set Point:	-0.577	X_WP:	0.000	Y_WP:	0.000	Y_WP:	0.500	X:	0.099	Y:	0.095	Z:	0.399	yaw:	33.083	yaw rate:	-1.489	Roll:	4.265	Pitch:	0.722	Yaw:	47.506	Thrust:	28.742
Time:	4.078	Roll Set Point:	-0.234	Pitch Set Point:	-0.121	Yaw Set Point:	-0.577	X_WP:	0.000	Y_WP:	0.000	Y_WP:	0.500	X:	0.099	Y:	0.095	Z:	0.399	yaw:	33.083	yaw rate:	-1.489	Roll:	4.496	Pitch:	0.868	Yaw:	47.755	Thrust:	29.426
Time:	4.094	Roll Set Point:	-0.234	Pitch Set Point:	-0.121	Yaw Set Point:	-0.578	X_WP:	0.000	Y_WP:	0.000	Y_WP:	0.500	X:	0.099	Y:	0.095	Z:	0.399	yaw:	33.101	yaw rate:	-1.233	Roll:	4.732	Pitch:	0.961	Yaw:	48.088	Thrust:	30.133
Time:	4.109	Roll Set Point:	-0.234	Pitch Set Point:	-0.121	Yaw Set Point:	-0.577	X_WP:	0.000	Y_WP:	0.000	Y_WP:	0.500	X:	0.099	Y:	0.095	Z:	0.399	yaw:	33.059	yaw rate:	-4.269	Roll:	4.487	Pitch:	0.970	Yaw:	47.006	Thrust:	29.743
Time:	4.125	Roll Set Point:	-0.234	Pitch Set Point:	-0.121	Yaw Set Point:	-0.578	X_WP:	0.000	Y_WP:	0.000	Y_WP:	0.500	X:	0.099	Y:	0.095	Z:	0.399	yaw:	33.091	yaw rate:	3.279	Roll:	4.518	Pitch:	0.742	Yaw:	48.316	Thrust:	29.807
Time:	4.141	Roll Set Point:	-0.234	Pitch Set Point:	-0.121	Yaw Set Point:	-0.578	X_WP:	0.000	Y_WP:	0.000	Y_WP:	0.500	X:	0.099	Y:	0.095	Z:	0.399	yaw:	33.091	yaw rate:	3.279	Roll:	4.502	Pitch:	0.874	Yaw:	47.766	Thrust:	30.175
Time:	4.156	Roll Set Point:	-0.234	Pitch Set Point:	-0.121	Yaw Set Point:	-0.577	X_WP:	0.000	Y_WP:	0.000	Y_WP:	0.500	X:	0.099	Y:	0.095	Z:	0.399	yaw:	33.087	yaw rate:	-0.332	Roll:	4.268	Pitch:	0.829	Yaw:	47.688	Thrust:	30.145
Time:	4.172	Roll Set Point:	-0.234	Pitch Set Point:	-0.121	Yaw Set Point:	-0.577	X_WP:	0.000	Y_WP:	0.000	Y_WP:	0.500	X:	0.099	Y:	0.095	Z:	0.399	yaw:	33.087	yaw rate:	-0.332	Roll:	4.496	Pitch:	0.874	Yaw:	47.761	Thrust:	30.557
Time:	4.187	Roll Set Point:	-0.234	Pitch Set Point:	-0.121	Yaw Set Point:	-0.577	X_WP:	0.000	Y_WP:	0.000	Y_WP:	0.500	X:	0.099	Y:	0.095	Z:	0.399	yaw:	33.063	yaw rate:	-2.401	Roll:	4.728	Pitch:	0.961	Yaw:	47.325	Thrust:	30.953
Time:	4.203	Roll Set Point:	-0.234	Pitch Set Point:	-0.121	Yaw Set Point:	-0.577	X_WP:	0.000	Y_WP:	0.000	Y_WP:	0.500	X:	0.099	Y:	0.095	Z:	0.399	yaw:	33.088	yaw rate:	1.653	Roll:	4.504	Pitch:	0.854	Yaw:	48.175	Thrust:	31.102
Time:	4.219	Roll Set Point:	-0.234	Pitch Set Point:	-0.121	Yaw Set Point:	-0.577	X_WP:	0.000	Y_WP:	0.000	Y_WP:	0.500	X:	0.099	Y:	0.095	Z:	0.399	yaw:	33.069	yaw rate:	-1.877	Roll:	4.473	Pitch:	0.913	Yaw:	47.421	Thrust:	31.011
Time:	4.234	Roll Set Point:	-0.234	Pitch Set Point:	-0.121	Yaw Set Point:	-0.578	X_WP:	0.000	Y_WP:	0.000	Y_WP:	0.500	X:	0.099	Y:	0.095	Z:	0.399	yaw:	33.110	yaw rate:	4.091	Roll:	4.318	Pitch:	0.716	Yaw:	48.478	Thrust:	31.004
Time:	4.250	Roll Set Point:	-0.234	Pitch Set Point:	-0.121	Yaw Set Point:	-0.578	X_WP:	0.000	Y_WP:	0.000	Y_WP:	0.500	X:	0.099	Y:	0.095	Z:	0.399	yaw:	33.096	yaw rate:	-1.336	Roll:	4.498	Pitch:	0.924	Yaw:	47.550	Thrust:	31.534
Time:	4.266	Roll Set Point:	-0.234	Pitch Set Point:	-0.121	Yaw Set Point:	-0.577	X_WP:	0.000	Y_WP:	0.000	Y_WP:	0.500	X:	0.099	Y:	0.095	Z:	0.399	yaw:	33.075	yaw rate:	-2.110	Roll:	4.685	Pitch:	0.996	Yaw:	47.391	Thrust:	32.073
Time:	4.281	Roll Set Point:	-0.234	Pitch Set Point:	-0.120	Yaw Set Point:	-0.578	X_WP:	0.000	Y_WP:	0.000	Y_WP:	0.500	X:	0.099	Y:	0.095	Z:	0.399	yaw:	33.115	yaw rate:	3.931	Roll:	4.310	Pitch:	0.648	Yaw:	48.458	Thrust:	31.524
Time:	4.297	Roll Set Point:	-0.234	Pitch Set Point:	-0.120	Yaw Set Point:	-0.578	X_WP:	0.000	Y_WP:	0.000	Y_WP:	0.500	X:	0.099	Y:	0.095	Z:	0.399	yaw:	33.115	yaw rate:	3.931	Roll:	4.497	Pitch:	0.879	Yaw:	47.800	Thrust:	32.074
Time:	4.313	Roll Set Point:	-0.234	Pitch Set Point:	-0.121	Yaw Set Point:	-0.578	X_WP:	0.000	Y_WP:	0.000	Y_WP:	0.500	X:	0.099	Y:	0.095	Z:	0.399	yaw:	33.091	yaw rate:	1.698	Roll:	4.717	Pitch:	1.138	Yaw:	47.374	Thrust:	32.638
Time:	4.328	Roll Set Point:	-0.234	Pitch Set Point:	-0.121	Yaw Set Point:	-0.578	X_WP:	0.000	Y_WP:	0.000	Y_WP:	0.500	X:	0.099	Y:	0.095	Z:	0.399	yaw:	33.091	yaw rate:	-0.014	Roll:	4.484	Pitch:	0.842	Yaw:	47.764	Thrust:	32.472
Time:	4.344	Roll Set Point:	-0.234	Pitch Set Point:	-0.121	Yaw Set Point:	-0.578	X_WP:	0.000	Y_WP:	0.000	Y_WP:	0.500	X:	0.099	Y:	0.095	Z:	0.399	yaw:	33.142	yaw rate:	5.129	Roll:	4.538	Pitch:	0.787	Yaw:	48.697	Thrust:	32.801
Time:	4.359	Roll Set Point:	-0.234	Pitch Set Point:	-0.121	Yaw Set Point:	-0.578	X_WP:	0.000	Y_WP:	0.000	Y_WP:	0.500	X:	0.099	Y:	0.095	Z:	0.399	yaw:	33.142	yaw rate:	5.129	Roll:	4.503	Pitch:	0.886	Yaw:	47.838	Thrust:	32.836
Time:	4.375	Roll Set Point:	-0.234	Pitch Set Point:	-0.121	Yaw Set Point:	-0.577	X_WP:	0.000	Y_WP:	0.000	Y_WP:	0.500	X:	0.099	Y:	0.095	Z:	0.399	yaw:	33.067	yaw rate:	-3.739	Roll:	4.477	Pitch:	1.035	Yaw:	46.478	Thrust:	32.737
Time:	4.391	Roll Set Point:	-0.234	Pitch Set Point:	-0.121	Yaw Set Point:	-0.577	X_WP:	0.000	Y_WP:	0.000	Y_WP:	0.500	X:	0.099	Y:	0.095	Z:	0.399	yaw:	33.067	yaw rate:	-3.739	Roll:	4.503	Pitch:	0.892	Yaw:	47.737	Thrust:	33.270
Time:	4.406	Roll Set Point:	-0.234	Pitch Set Point:	-0.121	Yaw Set Point:	-0.578	X_WP:	0.000	Y_WP:	0.000	Y_WP:	0.500	X:	0.099	Y:	0.095	Z:	0.399	yaw:	33.096	yaw rate:	2.843	Roll:	4.490	Pitch:	0.826	Yaw:	48.247	Thrust:	33.481
Time:	4.422	Roll Set Point:	-0.234	Pitch Set Point:	-0.121	Yaw Set Point:	-0.578	X_WP:	0.000	Y_WP:	0.000	Y_WP:	0.500	X:	0.099	Y:	0.095	Z:	0.399	yaw:	33.096	yaw rate:	2.843	Roll:	4.502	Pitch:	0.892	Yaw:	47.774	Thrust:	33.605
Time:	4.438	Roll Set Point:	-0.234	Pitch Set Point:	-0.121	Yaw Set Point:	-0.577	X_WP:	0.000	Y_WP:	0.000	Y_WP:	0.500	X:	0.099	Y:	0.095	Z:	0.399	yaw:	33.073	yaw rate:	-1.918	Roll:	4.513	Pitch:	0.971	Yaw:	47.354	Thrust:	33.682
Time:	4.453	Roll Set Point:	-0.234	Pitch Set Point:	-0.121	Yaw Set Point:	-0.577	X_WP:	0.000	Y_WP:	0.000	Y_WP:	0.500	X:	0.099	Y:	0.095	Z:	0.399	yaw:	33.088	yaw rate:	1.486	Roll:	4.497	Pitch:	0.833	Yaw:	48.011	Thrust:	34.057
Time:	4.469	Roll Set Point:	-0.234	Pitch Set Point:	-0.121	Yaw Set Point:	-0.577	X_WP:	0.000	Y_WP:	0.000	Y_WP:	0.500	X:	0.099	Y:	0.095	Z:	0.399	yaw:	33.086	yaw rate:	-0.198	Roll:	4.491	Pitch:	0.922	Yaw:	47.725	Thrust:	34.146
Time:	4.484	Roll Set Point:	-0.234	Pitch Set Point:	-0.121	Yaw Set Point:	-0.578	X_WP:	0.000	Y_WP:	0.000	Y_WP:	0.500	X:	0.099	Y:	0.095	Z:	0.399	yaw:	33.105	yaw rate:	1.979	Roll:	4.523	Pitch:	0.863	Yaw:	48.118	Thrust:	34.390
Time:	4.500	Roll Set Point:	-0.234	Pitch Set Point:	-0.121	Yaw Set Point:	-0.578	X_WP:	0.000	Y_WP:	0.000	Y_WP:	0.500	X:	0.099	Y:	0.095	Z:	0.399	yaw:	33.093	yaw rate:	-1.212	Roll:	4.508	Pitch:	0.937	Yaw:	47.570	Thrust:	34.656
Time:	4.516	Roll Set Point:	-0.234	Pitch Set Point:	-0.121	Yaw Set Point:	-0.577	X_WP:	0.000	Y_WP:	0.000	Y_WP:	0.500	X:	0.099	Y:	0.095	Z:	0.399	yaw:	33.069	yaw rate:	-2.379	Roll:	4.468	Pitch:	0.889	Yaw:	47.334	Thrust:	34.441
Time:	4.531	Roll Set Point:	-0.234	Pitch Set Point:	-0.121	Yaw Set Point:	-0.577	X_WP:	0.000	Y_WP:	0.000	Y_WP:	0.500	X:	0.099	Y:	0.095	Z:	0.399	yaw:	33.069	yaw rate:	-2.379	Roll:	4.502	Pitch:	0.900	Yaw:	47.736	Thrust:	34.916
Time:	4.547	Roll Set Point:	-0.234	Pitch Set Point:	-0.121	Yaw Set Point:	-0.577	X_WP:	0.000	Y_WP:	0.000	Y_WP:	0.500	X:	0.099	Y:	0.095	Z:	0.399	yaw:	33.078	yaw rate:	2.383	Roll:	4.531	Pitch:	0.874	Yaw:	47.888	Thrust:	35.130
Time:	4.563	Roll Set Point:	-0.234	Pitch Set Point:	-0.121	Yaw Set Point:	-0.577	X_WP:	0.000	Y_WP:	0.000	Y_WP:	0.500	X:	0.099	Y:	0.095	Z:	0.399	yaw:	33.057	yaw rate:	-2.086	Roll:	4.485	Pitch:	0.979	Yaw:	47.369	Thrust:	35.311
Time:	4.578	Roll Set Point:	-0.234	Pitch Set Point:	-0.121	Yaw Set Point:	-0.577	X_WP:	0.000	Y_WP:	0.000	Y_WP:	0.500	X:	0.099	Y:	0.095	Z:	0.399	yaw:	33.078	yaw rate:	2.087	Roll:	4.506	Pitch:	0.881	Yaw:	48.100	Thrust:	35.667
Time:	4.594	Roll Set Point:	-0.234	Pitch Set Point:	-0.121	Yaw Set Point:	-0.578	X_WP:	0.000	Y_WP:	0.000	Y_WP:	0.500	X:	0.099	Y:	0.095	Z:	0.399	yaw:	33.112	yaw rate:	3.391	Roll:	4.523	Pitch:	0.831	Yaw:	48.363	Thrust:	35.722
Time:	4.609	Roll Set Point:	-0.234	Pitch Set Point:	-0.121	Yaw Set Point:	-0.578	X_WP:	0.000	Y_WP:	0.000	Y_WP:	0.500	X:	0.099	Y:	0.095	Z:	0.399	yaw:	33.112	yaw rate:	3.391	Roll:	4.503	Pitch:	0.904	Yaw:	47.795	Thrust:	35.869
Time:	4.625	Roll Set Point:	-0.234	Pitch Set Point:	-0.121	Yaw Set Point:	-0.578	X_WP:	0.000	Y_WP:	0.000	Y_WP:	0.500	X:	0.099	Y:	0.095	Z:	0.399	yaw:	33.111	yaw rate:	2.836	Roll:	4.496	Pitch:	0.926	Yaw:	47.786	Thrust:	35.943
Time:	4.641	Roll Set Point:	-0.234	Pitch Set Point:	-0.121	Yaw Set Point:	-0.578	X_WP:	0.000	Y_WP:	0.000	Y_WP:	0.500	X:	0.099	Y:	0.095	Z:	0.399	yaw:	33.111	yaw rate:	-0.051	Roll:	4.515	Pitch:	0.908	Yaw:	47.789	Thrust:	36.411
Time:	4.656	Roll Set Point:	-0.234	Pitch Set Point:	-0.121	Yaw Set Point:	-0.578	X_WP:	0.000	Y_WP:	0.000	Y_WP:	0.500	X:	0.099	Y:	0.095	Z:	0.399	yaw:	33.111	yaw rate:	-0.051	Roll:	4.502	Pitch:	0.907	Yaw:	47.793	Thrust:	36.415
Time:	4.672	Roll Set Point:	-0.234	Pitch Set Point:	-0.121	Yaw Set Point:	-0.577	X_WP:	0.000	Y_WP:	0.000	Y_WP:	0.500	X:	0.099	Y:	0.095	Z:	0.399	yaw:	33.039	yaw rate:	-2.487	Roll:	4.462	Pitch:	0.999	Yaw:	46.492	Thrust:	36.336
Time:	4.688	Roll Set Point:	-0.234	Pitch Set Point:	-0.121	Yaw Set Point:	-0.577	X_WP:	0.000	Y_WP:	0.000	Y_WP:	0.500	X:	0.099	Y:	0.095	Z:	0.399	yaw:	33.081	yaw rate:	4.137	Roll:	4.513	Pitch:	0.847	Yaw:	48.445	Thrust:	36.872
Time:	4.703	Roll Set Point:	-0.234	Pitch Set Point:	-0.121	Yaw Set Point:	-0.577	X_WP:	0.000	Y_WP:	0.000	Y_WP:	0.500	X:	0.099	Y:	0.095	Z:	0.399	yaw:	33.049	yaw rate:	-3.142	Roll:	4.480	Pitch:	0.958	Yaw:	47.186	Thrust:	37.019
Time:	4.719	Roll Set Point:	-0.234	Pitch Set Point:	-0.121	Yaw Set Point:	-0.578	X_WP:	0.000	Y_WP:	0.000	Y_WP:	0.500	X:	0.099	Y:	0.095	Z:	0.399	yaw:	33.098	yaw rate:	4.831	Roll:	4.319	Pitch:	0.681	Yaw:	48.583	Thrust:	36.934
Time:	4.734	Roll Set Point:	-0.234	Pitch Set Point:	-0.121	Yaw Set Point:	-0.578	X_WP:	0.000	Y_WP:	0.000	Y_WP:	0.500	X:	0.099	Y:	0.095	Z:	0.399	yaw:	33.098	yaw rate:	4.831	Roll:	4.497	Pitch:	0.908	Yaw:	47.776	Thrust:	37.376
Time:	4.750	Roll Set Point:	-0.234	Pitch Set Point:	-0.121	Yaw Set Point:	-0.578	X_WP:	0.000	Y_WP:	0.000	Y_WP:	0.500	X:	0.099	Y:	0.095	Z:	0.399	yaw:	33.109	yaw rate:	0.807	Roll:	4.727	Pitch:	1.036	Yaw:	47.983	Thrust:	37.855
Time:	4.766	Roll Set Point:	-0.234	Pitch Set Point:	-0.121	Yaw Set Point:	-0.577	X_WP:	0.000	Y_WP:	0.000	Y_WP:	0.500	X:	0.099	Y:	0.095	Z:	0.399	yaw:	33.050	yaw rate:	-5.889	Roll:	4.455	Pitch:	1.034	Yaw:	46.723	Thrust:	37.706
Time:	4.781	Roll Set Point:	-0.234	Pitch Set Point:	-0.121	Yaw Set Point:	-0.577	X_WP:	0.000	Y_WP:	0.000	Y_WP:	0.500	X:	0.099	Y:	0.095	Z:	0.399	yaw:	33.050	yaw rate:	-5.889	Roll:	4.501	Pitch:	0.918	Yaw:	47.709	Thrust:	37.949
Time:	4.797	Roll Set Point:	-0.234	Pitch Set Point:	-0.121	Yaw Set Point:	-0.578	X_WP:	0.000	Y_WP:	0.000	Y_WP:	0.500	X:	0.099	Y:	0.095	Z:	0.399	yaw:	33.095	yaw rate:	5.755	Roll:	4.563	Pitch:	0.847	Yaw:	48.520	Thrust:	38.337
Time:	4.813	Roll Set Point:	-0.234	Pitch Set Point:	-0.121	Yaw Set Point:	-0.578	X_WP:	0.000	Y_WP:	0.000	Y_WP:	0.500	X:	0.099	Y:	0.095	Z:	0.399	yaw:	33.095	yaw rate:	5.755	Roll:	4.503	Pitch:	0.918	Yaw:	47.771	Thrust:	38.328
Time:	4.828	Roll Set Point:	-0.234	Pitch Set Point:	-0.121	Yaw Set Point:	-0.577	X_WP:	0.000	Y_WP:	0.000	Y_WP:	0.500	X:	0.099	Y:	0.095	Z:	0.399	yaw:	33.081	yaw rate:	-0.212	Roll:	4.439	Pitch:	0.970	Yaw:	47.522	Thrust:	38.388
Time:	4.844	Roll Set Point:	-0.234	Pitch Set Point:	-0.121	Yaw Set Point:	-0.577	X_WP:	0.000	Y_WP:	0.000	Y_WP:	0.500	X:	0.099	Y:	0.095	Z:	0.399	yaw:	33.087	yaw rate:	0.594	Roll:	4.327	Pitch:	0.738	Yaw:	47.860	Thrust:	38.429
Time:	4.859	Roll Set Point:	-0.234	Pitch Set Point:	-0.121	Yaw Set Point:	-0.577	X_WP:	0.000	Y_WP:	0.000	Y_WP:	0.500	X:	0.099	Y:	0.095	Z:	0.399	yaw:	33.063	yaw rate:	-2.384	Roll:	4.688	Pitch:	1.051	Yaw:	47.299	Thrust:	38.567
Time:	4.875	Roll Set Point:	-0.234	Pitch Set Point:	-0.121	Yaw Set Point:	-0.577	X_WP:	0.000	Y_WP:	0.000	Y_WP:	0.500	X:	0.099	Y:	0.095	Z:	0.399	yaw:	33.069	yaw rate:	0.551	Roll:	4.508	Pitch:	0.977	Yaw:	47.828	Thrust:	39.207
Time:	4.890	Roll Set Point:	-0.234	Pitch Set Point:	-0.121	Yaw Set Point:	-0.577	X_WP:	0.000	Y_WP:	0.000	Y_WP:	0.500	X:	0.099	Y:	0.095	Z:	0.399	yaw:	33.054	yaw rate:	-1.465	Roll:	4.493	Pitch:	0.921	Yaw:	47.473	Thrust:	39.311
Time:	4.906	Roll Set Point:	-0.234	Pitch Set Point:	-0.121	Yaw Set Point:	-0.577	X_WP:	0.000	Y_WP:	0.000	Y_WP:	0.500	X:	0.099	Y:	0.095	Z:	0.399	yaw:	33.060	yaw rate:	0.636	Roll:	4.498	Pitch:	0.899	Yaw:	47.829	Thrust:	39.437
Time:	4.922	Roll Set Point:	-0.234	Pitch Set Point:	-0.121	Yaw Set Point:	-0.577	X_WP:	0.000	Y_WP:	0.000	Y_WP:	0.500	X:	0.099	Y:	0.095	Z:	0.399	yaw:	33.079	yaw rate:	1.825	Roll:	4.517	Pitch:	0.860	Yaw:	48.056	Thrust:	39.604
Time:	4.937	Roll Set Point:	-0.234	Pitch Set Point:	-0.121	Yaw Set Point:	-0.577	X_WP:	0.000	Y_WP:	0.000	Y_WP:	0.500	X:	0.099	Y:	0.095	Z:	0.399	yaw:	33.079	yaw rate:	1.825	Roll:	4.502	Pitch:	0.925	Yaw:	47.749	Thrust:	39.847
Time:	4.953	Roll Set Point:	-0.234	Pitch Set Point:	-0.121	Yaw Set Point:	-0.577	X_WP:	0.000	Y_WP:	0.000	Y_WP:	0.500	X:	0.099	Y:	0.095	Z:	0.399	yaw:	33.078	yaw rate:	-1.921	Roll:	4.273	Pitch:	0.872	Yaw:	47.738	Thrust:	39.784
Time:	4.969	Roll Set Point:	-0.234	Pitch Set Point:	-0.121	Yaw Set Point:	-0.577	X_WP:	0.000	Y_WP:	0.000	Y_WP:	0.500	X:	0.099	Y:	0.095	Z:	0.399	yaw:	33.078	yaw rate:	-1.921	Roll:	4.495	Pitch:	0.925	Yaw:	47.745	Thrust:	40.147
Time:	4.984	Roll Set Point:	-0.234	Pitch Set Point:	-0.121	Yaw Set Point:	-0.578	X_WP:	0.000	Y_WP:	0.000	Y_WP:	0.500	X:	0.099	Y:	0.095	Z:	0.399	yaw:	33.107	yaw rate:	1.949	Roll:	4.528	Pitch:	0.829	Yaw:	48.278	Thrust:	40.487
Time:	5.000	Roll Set Point:	-0.234	Pitch Set Point:	-0.121	Yaw Set Point:	-0.577	X_WP:	0.000	Y_WP:	0.000	Y_WP:	0.500	X:	0.099	Y:	0.095	Z:	0.399	yaw:	33.063	yaw rate:	-4.423	Roll:	4.685	Pitch:	1.111	Yaw:	46.982	Thrust:	40.777
Time:	5.015	Roll Set Point:	-0.234	Pitch Set Point:	-0.121	Yaw Set Point:	-0.577	X_WP:	0.000	Y_WP:	0.000	Y_WP:	0.500	X:	0.099	Y:	0.095	Z:	0.399	yaw:	33.063	yaw rate:	-4.423	Roll:	4.502	Pitch:	0.931	Yaw:	47.727	Thrust:	40.794
Time:	5.031	Roll Set Point:	-0.234	Pitch Set Point:	-0.121	Yaw Set Point:	-0.577	X_WP:	0.000	Y_WP:	0.000	Y_WP:	0.500	X:	0.099	Y:	0.095	Z:	0.399	yaw:	33.088	yaw rate:	2.473	Roll:	4.302	Pitch:	0.847	Yaw:	48.176	Thrust:	40.726
Time:	5.047	Roll Set Point:	-0.234	Pitch Set Point:	-0.121	Yaw Set Point:	-0.577	X_WP:	0.000	Y_WP:	0.000	Y_WP:	0.500	X:	0.099	Y:	0.095	Z:	0.399	yaw:	33.088	yaw rate:	0.002	Roll:	4.723	Pitch:	0.988	Yaw:	47.762	Thrust:	41.527
Time:	5.062	Roll Set Point:	-0.234	Pitch Set Point:	-0.121	Yaw Set Point:	-0.577	X_WP:	0.000	Y_WP:	0.000	Y_WP:	0.500	X:	0.099	Y:	0.095	Z:	0.399	yaw:	33.081	yaw rate:	-1.335	Roll:	4.498	Pitch:	0.948	Yaw:	47.641	Thrust:	41.389
Time:	5.078	Roll Set Point:	-0.234	Pitch Set Point:	-0.121	Yaw Set Point:	-0.577	X_WP:	0.000	Y_WP:	0.000	Y_WP:	0.500	X:	0.099	Y:	0.095	Z:	0.399	yaw:	33.081	yaw rate:	-1.335	Roll:	4.503	Pitch:	0.935	Yaw:	47.754	Thrust:	41.601
Time:	5.094	Roll Set Point:	-0.234	Pitch Set Point:	-0.121	Yaw Set Point:	-0.577	X_WP:	0.000	Y_WP:	0.000	Y_WP:	0.500	X:	0.099	Y:	0.095	Z:	0.399	yaw:	33.060	yaw rate:	-1.429	Roll:	4.461	Pitch:	0.998	Yaw:	47.374	Thrust:	41.549
Time:	5.109	Roll Set Point:	-0.234	Pitch Set Point:	-0.121	Yaw Set Point:	-0.577	X_WP:	0.000	Y_WP:	0.000	Y_WP:	0.500	X:	0.099	Y:	0.095	Z:	0.399	yaw:	33.084	yaw rate:	2.438	Roll:	4.543	Pitch:	0.874	Yaw:	48.164	Thrust:	42.072
Time:	5.125	Roll Set Point:	-0.234	Pitch Set Point:	-0.121	Yaw Set Point:	-0.577	X_WP:	0.000	Y_WP:	0.000	Y_WP:	0.500	X:	0.099	Y:	0.095	Z:	0.399	yaw:	33.084	yaw rate:	2.438	Roll:	4.504	Pitch:	0.938	Yaw:	47.761	Thrust:	42.203
Time:	5.141	Roll Set Point:	-0.234	Pitch Set Point:	-0.121	Yaw Set Point:	-0.577	X_WP:	0.000	Y_WP:	0.000	Y_WP:	0.500	X:	0.099	Y:	0.095	Z:	0.399	yaw:	33.041	yaw rate:	-4.580	Roll:	4.473	Pitch:	1.035	Yaw:	46.974	Thrust:	42.184
Time:	5.156	Roll Set Point:	-0.234	Pitch Set Point:	-0.121	Yaw Set Point:	-0.578	X_WP:	0.000	Y_WP:	0.000	Y_WP:	0.500	X:	0.099	Y:	0.095	Z:	0.399	yaw:	33.094	yaw rate:	5.224	Roll:	4.517	Pitch:	0.850	Yaw:	48.644	Thrust:	42.590
Time:	5.172	Roll Set Point:	-0.234	Pitch Set Point:	-0.121	Yaw Set Point:	-0.578	X_WP:	0.000	Y_WP:	0.000	Y_WP:	0.500	X:	0.099	Y:	0.095	Z:	0.399	yaw:	33.094	yaw rate:	5.224	Roll:	4.502	Pitch:	0.940	Yaw:	47.770	Thrust:	42.690
Time:	5.187	Roll Set Point:	-0.234	Pitch Set Point:	-0.121	Yaw Set Point:	-0.577	X_WP:	0.000	Y_WP:	0.000	Y_WP:	0.500	X:	0.099	Y:	0.095	Z:	0.399	yaw:	33.074	yaw rate:	-0.818	Roll:	4.504	Pitch:	0.960	Yaw:	47.424	Thrust:	42.746
Time:	5.203	Roll Set Point:	-0.234	Pitch Set Point:	-0.121	Yaw Set Point:	-0.578	X_WP:	0.000	Y_WP:	0.000	Y_WP:	0.500	X:	0.099	Y:	0.095	Z:	0.399	yaw:	33.096	yaw rate:	2.131	Roll:	4.508	Pitch:	0.906	Yaw:	48.132	Thrust:	43.256
Time:	5.219	Roll Set Point:	-0.234	Pitch Set Point:	-0.121	Yaw Set Point:	-0.579	X_WP:	0.000	Y_WP:	0.000	Y_WP:	0.500	X:	0.099	Y:	0.095	Z:	0.399	yaw:	33.147	yaw rate:	5.088	Roll:	4.531	Pitch:	0.915	Yaw:	48.697	Thrust:	43.392
Time:	5.234	Roll Set Point:	-0.234	Pitch Set Point:	-0.121	Yaw Set Point:	-0.577	X_WP:	0.000	Y_WP:	0.000	Y_WP:	0.500	X:	0.099	Y:	0.095	Z:	0.399	yaw:	33.087	yaw rate:	-5.940	Roll:	4.471	Pitch:	1.002	Yaw:	46.766	Thrust:	43.264
Time:	5.250	Roll Set Point:	-0.234	Pitch Set Point:	-0.121	Yaw Set Point:	-0.578	X_WP:	0.000	Y_WP:	0.000	Y_WP:	0.500	X:	0.099	Y:	0.095	Z:	0.399	yaw:	33.092	yaw rate:	0.487	Roll:	4.288	Pitch:	0.792	Yaw:	47.847	Thrust:	43.152
Time:	5.266	Roll Set Point:	-0.234	Pitch Set Point:	-0.121	Yaw Set Point:	-0.577	X_WP:	0.000	Y_WP:	0.000	Y_WP:	0.500	X:	0.099	Y:	0.095	Z:	0.399	yaw:	33.071	yaw rate:	-2.140	Roll:	4.702	Pitch:	1.117	Yaw:	47.384	Thrust:	44.241
Time:	5.281	Roll Set Point:	-0.234	Pitch Set Point:	-0.121	Yaw Set Point:	-0.577	X_WP:	0.000	Y_WP:	0.000	Y_WP:	0.500	X:	0.099	Y:	0.095	Z:	0.399	yaw:	33.084	yaw rate:	1.314	Roll:	4.500	Pitch:	0.917	Yaw:	47.974	Thrust:	43.939
Time:	5.297	Roll Set Point:	-0.234	Pitch Set Point:	-0.121	Yaw Set Point:	-0.577	X_WP:	0.000	Y_WP:	0.000	Y_WP:	0.500	X:	0.099	Y:	0.095	Z:	0.399	yaw:	33.080	yaw rate:	-0.372	Roll:	4.290	Pitch:	0.872	Yaw:	47.689	Thrust:	43.876
Time:	5.312	Roll Set Point:	-0.234	Pitch Set Point:	-0.121	Yaw Set Point:	-0.577	X_WP:	0.000	Y_WP:	0.000	Y_WP:	0.500	X:	0.099	Y:	0.095	Z:	0.399	yaw:	33.065	yaw rate:	-1.553	Roll:	4.702	Pitch:	1.021	Yaw:	47.469	Thrust:	44.632
Time:	5.328	Roll Set Point:	-0.234	Pitch Set Point:	-0.121	Yaw Set Point:	-0.577	X_WP:	0.000	Y_WP:	0.000	Y_WP:	0.500	X:	0.099	Y:	0.095	Z:	0.399	yaw:	33.084	yaw rate:	1.968	Roll:	4.526	Pitch:	0.942	Yaw:	48.087	Thrust:	44.707
Time:	5.344	Roll Set Point:	-0.234	Pitch Set Point:	-0.121	Yaw Set Point:	-0.577	X_WP:	0.000	Y_WP:	0.000	Y_WP:	0.500	X:	0.099	Y:	0.095	Z:	0.399	yaw:	33.084	yaw rate:	1.968	Roll:	4.502	Pitch:	0.951	Yaw:	47.757	Thrust:	44.771
Time:	5.359	Roll Set Point:	-0.234	Pitch Set Point:	-0.121	Yaw Set Point:	-0.578	X_WP:	0.000	Y_WP:	0.000	Y_WP:	0.500	X:	0.099	Y:	0.095	Z:	0.399	yaw:	33.094	yaw rate:	0.946	Roll:	4.488	Pitch:	0.959	Yaw:	47.932	Thrust:	44.913
Time:	5.375	Roll Set Point:	-0.234	Pitch Set Point:	-0.121	Yaw Set Point:	-0.577	X_WP:	0.000	Y_WP:	0.000	Y_WP:	0.500	X:	0.099	Y:	0.095	Z:	0.399	yaw:	33.085	yaw rate:	-0.860	Roll:	4.508	Pitch:	0.977	Yaw:	47.614	Thrust:	45.279
Time:	5.391	Roll Set Point:	-0.234	Pitch Set Point:	-0.121	Yaw Set Point:	-0.577	X_WP:	0.000	Y_WP:	0.000	Y_WP:	0.500	X:	0.099	Y:	0.095	Z:	0.399	yaw:	33.072	yaw rate:	-1.333	Roll:	4.502	Pitch:	0.940	Yaw:	47.516	Thrust:	45.227
Time:	5.406	Roll Set Point:	-0.234	Pitch Set Point:	-0.121	Yaw Set Point:	-0.577	X_WP:	0.000	Y_WP:	0.000	Y_WP:	0.500	X:	0.099	Y:	0.095	Z:	0.399	yaw:	33.072	yaw rate:	-1.333	Roll:	4.502	Pitch:	0.956	Yaw:	47.740	Thrust:	45.530
Time:	5.422	Roll Set Point:	-0.234	Pitch Set Point:	-0.121	Yaw Set Point:	-0.577	X_WP:	0.000	Y_WP:	0.000	Y_WP:	0.500	X:	0.099	Y:	0.095	Z:	0.399	yaw:	33.071	yaw rate:	-0.059	Roll:	4.473	Pitch:	1.038	Yaw:	47.729	Thrust:	45.802
Time:	5.437	Roll Set Point:	-0.234	Pitch Set Point:	-0.121	Yaw Set Point:	-0.578	X_WP:	0.000	Y_WP:	0.000	Y_WP:	0.500	X:	0.099	Y:	0.095	Z:	0.399	yaw:	33.108	yaw rate:	4.353	Roll:	4.326	Pitch:	0.714	Yaw:	48.409	Thrust:	45.502
Time:	5.453	Roll Set Point:	-0.234	Pitch Set Point:	-0.121	Yaw Set Point:	-0.578	X_WP:	0.000	Y_WP:	0.000	Y_WP:	0.500	X:	0.099	Y:	0.095	Z:	0.399	yaw:	33.090	yaw rate:	-1.805	Roll:	4.708	Pitch:	1.118	Yaw:	47.463	Thrust:	46.542
Time:	5.469	Roll Set Point:	-0.234	Pitch Set Point:	-0.121	Yaw Set Point:	-0.578	X_WP:	0.000	Y_WP:	0.000	Y_WP:	0.500	X:	0.099	Y:	0.095	Z:	0.399	yaw:	33.109	yaw rate:	1.898	Roll:	4.512	Pitch:	0.910	Yaw:	48.112	Thrust:	46.301
Time:	5.484	Roll Set Point:	-0.234	Pitch Set Point:	-0.121	Yaw Set Point:	-0.577	X_WP:	0.000	Y_WP:	0.000	Y_WP:	0.500	X:	0.099	Y:	0.095	Z:	0.399	yaw:	33.058	yaw rate:	-5.136	Roll:	4.478	Pitch:	1.059	Yaw:	46.855	Thrust:	46.214
Time:	5.500	Roll Set Point:	-0.234	Pitch Set Point:	-0.121	Yaw Set Point:	-0.577	X_WP:	0.000	Y_WP:	0.000	Y_WP:	0.500	X:	0.099	Y:	0.095	Z:	0.399	yaw:	33.060	yaw rate:	0.186	Roll:	4.487	Pitch:	0.973	Yaw:	47.754	Thrust:	46.719
Time:	5.516	Roll Set Point:	-0.234	Pitch Set Point:	-0.121	Yaw Set Point:	-0.577	X_WP:	0.000	Y_WP:	0.000	Y_WP:	0.500	X:	0.099	Y:	0.095	Z:	0.399	yaw:	33.086	yaw rate:	2.666	Roll:	4.309	Pitch:	0.764	Yaw:	48.207	Thrust:	46.693
Time:	5.531	Roll Set Point:	-0.234	Pitch Set Point:	-0.121	Yaw Set Point:	-0.577	X_WP:	0.000	Y_WP:	0.000	Y_WP:	0.500	X:	0.099	Y:	0.095	Z:	0.399	yaw:	33.075	yaw rate:	-1.167	Roll:	4.700	Pitch:	1.111	Yaw:	47.548	Thrust:	47.323
Time:	5.547	Roll Set Point:	-0.234	Pitch Set Point:	-0.121	Yaw Set Point:	-0.577	X_WP:	0.000	Y_WP:	0.000	Y_WP:	0.500	X:	0.099	Y:	0.095	Z:	0.399	yaw:	33.071	yaw rate:	-0.410	Roll:	4.510	Pitch:	0.981	Yaw:	47.669	Thrust:	47.164
Time:	5.562	Roll Set Point:	-0.234	Pitch Set Point:	-0.121	Yaw Set Point:	-0.577	X_WP:	0.000	Y_WP:	0.000	Y_WP:	0.500	X:	0.099	Y:	0.095	Z:	0.399	yaw:	33.071	yaw rate:	-0.410	Roll:	4.502	Pitch:	0.966	Yaw:	47.737	Thrust:	47.404
Time:	5.578	Roll Set Point:	-0.234	Pitch Set Point:	-0.121	Yaw Set Point:	-0.577	X_WP:	0.000	Y_WP:	0.000	Y_WP:	0.500	X:	0.099	Y:	0.095	Z:	0.399	yaw:	33.055	yaw rate:	-4.912	Roll:	4.489	Pitch:	1.005	Yaw:	47.461	Thrust:	47.646
Time:	5.594	Roll Set Point:	-0.234	Pitch Set Point:	-0.121	Yaw Set Point:	-0.577	X_WP:	0.000	Y_WP:	0.000	Y_WP:	0.500	X:	0.099	Y:	0.095	Z:	0.399	yaw:	33.055	yaw rate:	-4.912	Roll:	4.502	Pitch:	0.969	Yaw:	47.717	Thrust:	47.801
Time:	5.609	Roll Set Point:	-0.234	Pitch Set Point:	-0.121	Yaw Set Point:	-0.577	X_WP:	0.000	Y_WP:	0.000	Y_WP:	0.500	X:	0.099	Y:	0.095	Z:	0.399	yaw:	33.078	yaw rate:	2.307	Roll:	4.528	Pitch:	0.888	Yaw:	48.137	Thrust:	48.142
Time:	5.625	Roll Set Point:	-0.234	Pitch Set Point:	-0.121	Yaw Set Point:	-0.577	X_WP:	0.000	Y_WP:	0.000	Y_WP:	0.500	X:	0.099	Y:	0.095	Z:	0.399	yaw:	33.084	yaw rate:	3.218	Roll:	4.484	Pitch:	0.997	Yaw:	47.851	Thrust:	48.118
Time:	5.641	Roll Set Point:	-0.234	Pitch Set Point:	-0.121	Yaw Set Point:	-0.577	X_WP:	0.000	Y_WP:	0.000	Y_WP:	0.500	X:	0.099	Y:	0.095	Z:	0.399	yaw:	33.084	yaw rate:	3.218	Roll:	4.502	Pitch:	0.971	Yaw:	47.756	Thrust:	48.353
Time:	5.656	Roll Set Point:	-0.234	Pitch Set Point:	-0.121	Yaw Set Point:	-0.577	X_WP:	0.000	Y_WP:	0.000	Y_WP:	0.500	X:	0.099	Y:	0.095	Z:	0.399	yaw:	33.050	yaw rate:	-3.387	Roll:	4.489	Pitch:	1.020	Yaw:	47.138	Thrust:	48.412
Time:	5.672	Roll Set Point:	-0.234	Pitch Set Point:	-0.121	Yaw Set Point:	-0.577	X_WP:	0.000	Y_WP:	0.000	Y_WP:	0.500	X:	0.099	Y:	0.095	Z:	0.399	yaw:	33.076	yaw rate:	2.624	Roll:	4.524	Pitch:	0.925	Yaw:	48.186	Thrust:	48.859
Time:	5.687	Roll Set Point:	-0.234	Pitch Set Point:	-0.121	Yaw Set Point:	-0.578	X_WP:	0.000	Y_WP:	0.000	Y_WP:	0.500	X:	0.099	Y:	0.095	Z:	0.399	yaw:	33.145	yaw rate:	6.633	Roll:	4.520	Pitch:	0.854	Yaw:	48.998	Thrust:	49.126
Time:	5.703	Roll Set Point:	-0.234	Pitch Set Point:	-0.121	Yaw Set Point:	-0.577	X_WP:	0.000	Y_WP:	0.000	Y_WP:	0.500	X:	0.099	Y:	0.095	Z:	0.399	yaw:	33.055	yaw rate:	-9.056	Roll:	4.474	Pitch:	1.161	Yaw:	46.194	Thrust:	48.890
Time:	5.719	Roll Set Point:	-0.234	Pitch Set Point:	-0.121	Yaw Set Point:	-0.577	X_WP:	0.000	Y_WP:	0.000	Y_WP:	0.500	X:	0.099	Y:	0.095	Z:	0.399	yaw:	33.054	yaw rate:	-0.115	Roll:	4.501	Pitch:	0.967	Yaw:	47.695	Thrust:	49.260
Time:	5.734	Roll Set Point:	-0.234	Pitch Set Point:	-0.121	Yaw Set Point:	-0.577	X_WP:	0.000	Y_WP:	0.000	Y_WP:	0.500	X:	0.099	Y:	0.095	Z:	0.399	yaw:	33.074	yaw rate:	2.029	Roll:	4.523	Pitch:	0.885	Yaw:	48.085	Thrust:	49.637
Time:	5.750	Roll Set Point:	-0.234	Pitch Set Point:	-0.121	Yaw Set Point:	-0.577	X_WP:	0.000	Y_WP:	0.000	Y_WP:	0.500	X:	0.099	Y:	0.095	Z:	0.399	yaw:	33.074	yaw rate:	-0.029	Roll:	4.467	Pitch:	1.018	Yaw:	47.734	Thrust:	49.641
Time:	5.766	Roll Set Point:	-0.234	Pitch Set Point:	-0.121	Yaw Set Point:	-0.577	X_WP:	0.000	Y_WP:	0.000	Y_WP:	0.500	X:	0.099	Y:	0.095	Z:	0.399	yaw:	33.067	yaw rate:	-0.619	Roll:	4.516	Pitch:	0.989	Yaw:	47.630	Thrust:	49.935
Time:	5.781	Roll Set Point:	-0.234	Pitch Set Point:	-0.121	Yaw Set Point:	-0.577	X_WP:	0.000	Y_WP:	0.000	Y_WP:	0.500	X:	0.099	Y:	0.095	Z:	0.399	yaw:	33.067	yaw rate:	-0.619	Roll:	4.502	Pitch:	0.980	Yaw:	47.734	Thrust:	50.091
Time:	5.797	Roll Set Point:	-0.234	Pitch Set Point:	-0.121	Yaw Set Point:	-0.577	X_WP:	0.000	Y_WP:	0.000	Y_WP:	0.500	X:	0.099	Y:	0.095	Z:	0.399	yaw:	33.077	yaw rate:	1.005	Roll:	4.521	Pitch:	0.997	Yaw:	47.918	Thrust:	50.302
Time:	5.812	Roll Set Point:	-0.234	Pitch Set Point:	-0.121	Yaw Set Point:	-0.577	X_WP:	0.000	Y_WP:	0.000	Y_WP:	0.500	X:	0.099	Y:	0.095	Z:	0.399	yaw:	33.077	yaw rate:	1.005	Roll:	4.502	Pitch:	0.983	Yaw:	47.747	Thrust:	50.453
Time:	5.828	Roll Set Point:	-0.234	Pitch Set Point:	-0.121	Yaw Set Point:	-0.577	X_WP:	0.000	Y_WP:	0.000	Y_WP:	0.500	X:	0.099	Y:	0.095	Z:	0.399	yaw:	33.087	yaw rate:	0.965	Roll:	4.256	Pitch:	0.841	Yaw:	47.920	Thrust:	50.264
Time:	5.844	Roll Set Point:	-0.234	Pitch Set Point:	-0.121	Yaw Set Point:	-0.578	X_WP:	0.000	Y_WP:	0.000	Y_WP:	0.500	X:	0.099	Y:	0.095	Z:	0.399	yaw:	33.099	yaw rate:	1.208	Roll:	4.524	Pitch:	0.966	Yaw:	47.983	Thrust:	50.828
Time:	5.875	Roll Set Point:	-0.234	Pitch Set Point:	-0.121	Yaw Set Point:	-0.578	X_WP:	0.000	Y_WP:	0.000	Y_WP:	0.500	X:	0.099	Y:	0.095	Z:	0.399	yaw:	33.096	yaw rate:	-0.338	Roll:	5.081	Pitch:	1.233	Yaw:	49.295	Thrust:	96.170
Time:	5.891	Roll Set Point:	-0.234	Pitch Set Point:	-0.121	Yaw Set Point:	-0.577	X_WP:	0.000	Y_WP:	0.000	Y_WP:	0.500	X:	0.099	Y:	0.095	Z:	0.399	yaw:	33.046	yaw rate:	-3.066	Roll:	4.664	Pitch:	1.128	Yaw:	46.883	Thrust:	51.597
Time:	5.906	Roll Set Point:	-0.234	Pitch Set Point:	-0.121	Yaw Set Point:	-0.577	X_WP:	0.000	Y_WP:	0.000	Y_WP:	0.500	X:	0.099	Y:	0.095	Z:	0.399	yaw:	33.046	yaw rate:	-3.066	Roll:	4.499	Pitch:	0.987	Yaw:	47.698	Thrust:	51.223
Time:	5.922	Roll Set Point:	-0.234	Pitch Set Point:	-0.121	Yaw Set Point:	-0.577	X_WP:	0.000	Y_WP:	0.000	Y_WP:	0.500	X:	0.099	Y:	0.095	Z:	0.399	yaw:	33.070	yaw rate:	-5.697	Roll:	4.557	Pitch:	0.944	Yaw:	48.140	Thrust:	51.634
Time:	5.937	Roll Set Point:	-0.234	Pitch Set Point:	-0.121	Yaw Set Point:	-0.578	X_WP:	0.000	Y_WP:	0.000	Y_WP:	0.500	X:	0.099	Y:	0.095	Z:	0.399	yaw:	33.120	yaw rate:	4.929	Roll:	4.275	Pitch:	0.818	Yaw:	48.632	Thrust:	51.533
Time:	5.953	Roll Set Point:	-0.234	Pitch Set Point:	-0.121	Yaw Set Point:	-0.577	X_WP:	0.000	Y_WP:	0.000	Y_WP:	0.500	X:	0.099	Y:	0.095	Z:	0.399	yaw:	33.063	yaw rate:	-5.676	Roll:	4.679	Pitch:	1.181	Yaw:	46.776	Thrust:	52.262
Time:	5.969	Roll Set Point:	-0.234	Pitch Set Point:	-0.121	Yaw Set Point:	-0.578	X_WP:	0.000	Y_WP:	0.000	Y_WP:	0.500	X:	0.099	Y:	0.095	Z:	0.399	yaw:	33.094	yaw rate:	3.145	Roll:	4.303	Pitch:	0.860	Yaw:	48.298	Thrust:	51.811
Time:	5.984	Roll Set Point:	-0.234	Pitch Set Point:	-0.121	Yaw Set Point:	-0.577	X_WP:	0.000	Y_WP:	0.000	Y_WP:	0.500	X:	0.099	Y:	0.095	Z:	0.399	yaw:	33.072	yaw rate:	-2.231	Roll:	4.722	Pitch:	1.096	Yaw:	47.366	Thrust:	52.577
Time:	6.000	Roll Set Point:	-0.234	Pitch Set Point:	-0.121	Yaw Set Point:	-0.577	X_WP:	0.000	Y_WP:	0.000	Y_WP:	0.500	X:	0.099	Y:	0.095	Z:	0.399	yaw:	33.052	yaw rate:	-2.003	Roll:	4.487	Pitch:	1.044	Yaw:	47.376	Thrust:	52.629
Time:	6.015	Roll Set Point:	-0.081	Pitch Set Point:	-0.035	Yaw Set Point:	-0.578	X_WP:	0.081	Y_WP:	0.155	Y_WP:	0.500	X:	0.099	Y:	0.095	Z:	0.399	yaw:	33.090	yaw rate:	3.848	Roll:	-30.000	Pitch:	-30.000	Yaw:	48.410	Thrust:	52.361
Time:	6.031	Roll Set Point:	-0.081	Pitch Set Point:	-0.035	Yaw Set Point:	-0.578	X_WP:	0.081	Y_WP:	0.155	Y_WP:	0.500	X:	0.099	Y:	0.095	Z:	0.399	yaw:	33.090	yaw rate:	3.848	Roll:	0.068	Pitch:	-1.485	Yaw:	47.770	Thrust:	53.040
Time:	6.047	Roll Set Point:	-0.081	Pitch Set Point:	-0.035	Yaw Set Point:	-0.578	X_WP:	0.081	Y_WP:	0.155	Y_WP:	0.500	X:	0.099	Y:	0.095	Z:	0.399	yaw:	33.109	yaw rate:	4.989	Roll:	0.052	Pitch:	-1.486	Yaw:	48.108	Thrust:	53.020
Time:	6.062	Roll Set Point:	-0.081	Pitch Set Point:	-0.035	Yaw Set Point:	-0.577	X_WP:	0.081	Y_WP:	0.155	Y_WP:	0.500	X:	0.099	Y:	0.095	Z:	0.399	yaw:	33.077	yaw rate:	-3.207	Roll:	0.118	Pitch:	-1.506	Yaw:	47.209	Thrust:	53.734
Time:	6.078	Roll Set Point:	-0.081	Pitch Set Point:	-0.035	Yaw Set Point:	-0.577	X_WP:	0.081	Y_WP:	0.155	Y_WP:	0.500	X:	0.099	Y:	0.095	Z:	0.399	yaw:	33.078	yaw rate:	0.097	Roll:	0.042	Pitch:	-1.483	Yaw:	47.768	Thrust:	53.153
Time:	6.094	Roll Set Point:	-0.081	Pitch Set Point:	-0.035	Yaw Set Point:	-0.578	X_WP:	0.081	Y_WP:	0.155	Y_WP:	0.500	X:	0.099	Y:	0.095	Z:	0.399	yaw:	33.112	yaw rate:	3.343	Roll:	0.068	Pitch:	-1.496	Yaw:	48.354	Thrust:	54.014
Time:	6.109	Roll Set Point:	-0.081	Pitch Set Point:	-0.035	Yaw Set Point:	-0.578	X_WP:	0.081	Y_WP:	0.155	Y_WP:	0.500	X:	0.099	Y:	0.095	Z:	0.399	yaw:	33.112	yaw rate:	3.343	Roll:	0.065	Pitch:	-1.498	Yaw:	47.795	Thrust:	53.865
Time:	6.125	Roll Set Point:	-0.081	Pitch Set Point:	-0.035	Yaw Set Point:	-0.578	X_WP:	0.081	Y_WP:	0.155	Y_WP:	0.500	X:	0.099	Y:	0.095	Z:	0.399	yaw:	33.107	yaw rate:	0.924	Roll:	0.032	Pitch:	-1.492	Yaw:	47.705	Thrust:	53.638
Time:	6.140	Roll Set Point:	-0.081	Pitch Set Point:	-0.035	Yaw Set Point:	-0.577	X_WP:	0.082	Y_WP:	0.155	Y_WP:	0.500	X:	0.099	Y:	0.095	Z:	0.399	yaw:	33.068	yaw rate:	-3.875	Roll:	0.106	Pitch:	-1.517	Yaw:	47.085	Thrust:	54.497
Time:	6.156	Roll Set Point:	-0.081	Pitch Set Point:	-0.035	Yaw Set Point:	-0.577	X_WP:	0.082	Y_WP:	0.155	Y_WP:	0.500	X:	0.099	Y:	0.095	Z:	0.399	yaw:	33.068	yaw rate:	-3.875	Roll:	0.062	Pitch:	-1.505	Yaw:	47.734	Thrust:	54.427
Time:	6.172	Roll Set Point:	-0.081	Pitch Set Point:	-0.035	Yaw Set Point:	-0.578	X_WP:	0.081	Y_WP:	0.155	Y_WP:	0.500	X:	0.099	Y:	0.095	Z:	0.399	yaw:	33.133	yaw rate:	4.022	Roll:	-0.033	Pitch:	-1.474	Yaw:	48.922	Thrust:	54.307
Time:	6.187	Roll Set Point:	-0.081	Pitch Set Point:	-0.035	Yaw Set Point:	-0.578	X_WP:	0.081	Y_WP:	0.155	Y_WP:	0.500	X:	0.099	Y:	0.095	Z:	0.399	yaw:	33.133	yaw rate:	4.022	Roll:	0.058	Pitch:	-1.508	Yaw:	47.826	Thrust:	54.807
Time:	6.203	Roll Set Point:	-0.081	Pitch Set Point:	-0.035	Yaw Set Point:	-0.578	X_WP:	0.081	Y_WP:	0.155	Y_WP:	0.500	X:	0.099	Y:	0.095	Z:	0.399	yaw:	33.093	yaw rate:	-0.133	Roll:	0.151	Pitch:	-1.557	Yaw:	47.097	Thrust:	55.392
Time:	6.219	Roll Set Point:	-0.081	Pitch Set Point:	-0.035	Yaw Set Point:	-0.578	X_WP:	0.081	Y_WP:	0.155	Y_WP:	0.500	X:	0.099	Y:	0.095	Z:	0.399	yaw:	33.090	yaw rate:	-0.375	Roll:	0.022	Pitch:	-1.486	Yaw:	47.702	Thrust:	54.812
Time:	6.234	Roll Set Point:	-0.081	Pitch Set Point:	-0.035	Yaw Set Point:	-0.577	X_WP:	0.082	Y_WP:	0.155	Y_WP:	0.500	X:	0.099	Y:	0.095	Z:	0.399	yaw:	33.070	yaw rate:	-1.992	Roll:	0.094	Pitch:	-1.529	Yaw:	47.403	Thrust:	55.636
Time:	6.250	Roll Set Point:	-0.081	Pitch Set Point:	-0.035	Yaw Set Point:	-0.577	X_WP:	0.081	Y_WP:	0.155	Y_WP:	0.500	X:	0.099	Y:	0.095	Z:	0.399	yaw:	33.075	yaw rate:	0.535	Roll:	0.057	Pitch:	-1.535	Yaw:	47.834	Thrust:	55.687
Time:	6.266	Roll Set Point:	-0.081	Pitch Set Point:	-0.035	Yaw Set Point:	-0.578	X_WP:	0.081	Y_WP:	0.155	Y_WP:	0.500	X:	0.099	Y:	0.095	Z:	0.399	yaw:	33.105	yaw rate:	2.997	Roll:	0.029	Pitch:	-1.514	Yaw:	48.288	Thrust:	55.818
Time:	6.281	Roll Set Point:	-0.081	Pitch Set Point:	-0.035	Yaw Set Point:	-0.577	X_WP:	0.081	Y_WP:	0.155	Y_WP:	0.500	X:	0.099	Y:	0.095	Z:	0.399	yaw:	33.077	yaw rate:	-2.834	Roll:	0.084	Pitch:	-1.532	Yaw:	47.276	Thrust:	55.991
