Time:	2.057	Roll Set Point:	0.036	Pitch Set Point:	-0.019	Yaw Set Point:	0.125	X_WP:	0.000	Y_WP:	0.000	Y_WP:	0.500	X:	-0.017	Y:	0.010	Z:	0.050	yaw:	-7.151	yaw rate:	-5.497	Roll:	-0.538	Pitch:	0.238	Yaw:	-9.985	Thrust:	24.733
Time:	2.068	Roll Set Point:	0.036	Pitch Set Point:	-0.019	Yaw Set Point:	0.125	X_WP:	0.000	Y_WP:	0.000	Y_WP:	0.500	X:	-0.017	Y:	0.010	Z:	0.050	yaw:	-7.143	yaw rate:	0.798	Roll:	-0.378	Pitch:	0.319	Yaw:	-9.812	Thrust:	25.327
Time:	2.079	Roll Set Point:	0.036	Pitch Set Point:	-0.019	Yaw Set Point:	0.123	X_WP:	0.000	Y_WP:	0.000	Y_WP:	0.500	X:	-0.017	Y:	0.011	Z:	0.050	yaw:	-7.026	yaw rate:	11.746	Roll:	-0.396	Pitch:	0.578	Yaw:	-7.077	Thrust:	26.010
Time:	2.090	Roll Set Point:	0.036	Pitch Set Point:	-0.019	Yaw Set Point:	0.127	X_WP:	0.000	Y_WP:	0.000	Y_WP:	0.500	X:	-0.017	Y:	0.010	Z:	0.050	yaw:	-7.295	yaw rate:	-26.963	Roll:	-0.747	Pitch:	-0.227	Yaw:	-16.657	Thrust:	26.931
Time:	2.101	Roll Set Point:	0.036	Pitch Set Point:	-0.018	Yaw Set Point:	0.128	X_WP:	0.000	Y_WP:	0.000	Y_WP:	0.500	X:	-0.017	Y:	0.010	Z:	0.050	yaw:	-7.311	yaw rate:	-1.608	Roll:	-0.484	Pitch:	0.115	Yaw:	-10.701	Thrust:	26.898
Time:	2.112	Roll Set Point:	0.036	Pitch Set Point:	-0.019	Yaw Set Point:	0.126	X_WP:	0.000	Y_WP:	0.000	Y_WP:	0.500	X:	-0.017	Y:	0.010	Z:	0.050	yaw:	-7.232	yaw rate:	7.896	Roll:	-0.470	Pitch:	0.337	Yaw:	-8.362	Thrust:	27.984
Time:	2.123	Roll Set Point:	0.036	Pitch Set Point:	-0.019	Yaw Set Point:	0.125	X_WP:	0.000	Y_WP:	0.000	Y_WP:	0.500	X:	-0.017	Y:	0.010	Z:	0.050	yaw:	-7.145	yaw rate:	8.775	Roll:	-0.640	Pitch:	0.289	Yaw:	-8.064	Thrust:	27.553
Time:	2.134	Roll Set Point:	0.036	Pitch Set Point:	-0.019	Yaw Set Point:	0.125	X_WP:	0.000	Y_WP:	0.000	Y_WP:	0.500	X:	-0.017	Y:	0.010	Z:	0.050	yaw:	-7.167	yaw rate:	-2.187	Roll:	-0.634	Pitch:	0.172	Yaw:	-10.719	Thrust:	29.656
Time:	2.145	Roll Set Point:	0.035	Pitch Set Point:	-0.019	Yaw Set Point:	0.120	X_WP:	0.000	Y_WP:	0.000	Y_WP:	0.500	X:	-0.017	Y:	0.011	Z:	0.050	yaw:	-6.892	yaw rate:	27.477	Roll:	0.039	Pitch:	0.723	Yaw:	-3.313	Thrust:	29.397
Time:	2.156	Roll Set Point:	0.036	Pitch Set Point:	-0.019	Yaw Set Point:	0.124	X_WP:	0.000	Y_WP:	0.000	Y_WP:	0.500	X:	-0.017	Y:	0.011	Z:	0.050	yaw:	-7.127	yaw rate:	-23.539	Roll:	-0.865	Pitch:	-0.021	Yaw:	-15.787	Thrust:	30.024
Time:	2.168	Roll Set Point:	0.035	Pitch Set Point:	-0.019	Yaw Set Point:	0.122	X_WP:	0.000	Y_WP:	0.000	Y_WP:	0.500	X:	-0.017	Y:	0.011	Z:	0.050	yaw:	-6.966	yaw rate:	16.128	Roll:	-0.423	Pitch:	0.479	Yaw:	-6.173	Thrust:	30.277
Time:	2.179	Roll Set Point:	0.036	Pitch Set Point:	-0.019	Yaw Set Point:	0.125	X_WP:	0.000	Y_WP:	0.000	Y_WP:	0.500	X:	-0.017	Y:	0.010	Z:	0.050	yaw:	-7.145	yaw rate:	-17.875	Roll:	-0.843	Pitch:	-0.093	Yaw:	-14.521	Thrust:	31.680
Time:	2.190	Roll Set Point:	0.036	Pitch Set Point:	-0.019	Yaw Set Point:	0.125	X_WP:	0.000	Y_WP:	0.000	Y_WP:	0.500	X:	-0.017	Y:	0.010	Z:	0.050	yaw:	-7.147	yaw rate:	-0.263	Roll:	-0.548	Pitch:	0.283	Yaw:	-10.372	Thrust:	32.175
Time:	2.201	Roll Set Point:	0.035	Pitch Set Point:	-0.019	Yaw Set Point:	0.124	X_WP:	0.000	Y_WP:	0.000	Y_WP:	0.500	X:	-0.017	Y:	0.010	Z:	0.050	yaw:	-7.115	yaw rate:	3.248	Roll:	-0.248	Pitch:	0.313	Yaw:	-9.517	Thrust:	31.963
Time:	2.212	Roll Set Point:	0.036	Pitch Set Point:	-0.019	Yaw Set Point:	0.126	X_WP:	0.000	Y_WP:	0.000	Y_WP:	0.500	X:	-0.017	Y:	0.011	Z:	0.050	yaw:	-7.223	yaw rate:	-10.865	Roll:	-0.662	Pitch:	0.227	Yaw:	-13.049	Thrust:	32.925
Time:	2.223	Roll Set Point:	0.036	Pitch Set Point:	-0.019	Yaw Set Point:	0.125	X_WP:	0.000	Y_WP:	0.000	Y_WP:	0.500	X:	-0.017	Y:	0.010	Z:	0.050	yaw:	-7.153	yaw rate:	7.005	Roll:	-0.684	Pitch:	0.068	Yaw:	-8.742	Thrust:	33.927
Time:	2.234	Roll Set Point:	0.036	Pitch Set Point:	-0.018	Yaw Set Point:	0.125	X_WP:	0.000	Y_WP:	0.000	Y_WP:	0.500	X:	-0.017	Y:	0.010	Z:	0.050	yaw:	-7.141	yaw rate:	1.250	Roll:	-0.649	Pitch:	0.175	Yaw:	-10.112	Thrust:	33.777
Time:	2.245	Roll Set Point:	0.036	Pitch Set Point:	-0.019	Yaw Set Point:	0.125	X_WP:	0.000	Y_WP:	0.000	Y_WP:	0.500	X:	-0.017	Y:	0.010	Z:	0.050	yaw:	-7.168	yaw rate:	-2.664	Roll:	-0.398	Pitch:	0.377	Yaw:	-11.107	Thrust:	35.325
Time:	2.256	Roll Set Point:	0.036	Pitch Set Point:	-0.018	Yaw Set Point:	0.123	X_WP:	0.000	Y_WP:	0.000	Y_WP:	0.500	X:	-0.017	Y:	0.010	Z:	0.050	yaw:	-7.049	yaw rate:	11.843	Roll:	-0.517	Pitch:	0.041	Yaw:	-7.526	Thrust:	35.587
Time:	2.267	Roll Set Point:	0.036	Pitch Set Point:	-0.019	Yaw Set Point:	0.125	X_WP:	0.000	Y_WP:	0.000	Y_WP:	0.500	X:	-0.017	Y:	0.010	Z:	0.050	yaw:	-7.139	yaw rate:	-9.007	Roll:	-0.538	Pitch:	0.487	Yaw:	-12.628	Thrust:	35.563
Time:	2.278	Roll Set Point:	0.036	Pitch Set Point:	-0.018	Yaw Set Point:	0.130	X_WP:	0.000	Y_WP:	0.000	Y_WP:	0.500	X:	-0.017	Y:	0.010	Z:	0.050	yaw:	-7.421	yaw rate:	-28.231	Roll:	-0.832	Pitch:	-0.132	Yaw:	-17.613	Thrust:	37.471
Time:	2.289	Roll Set Point:	0.036	Pitch Set Point:	-0.019	Yaw Set Point:	0.125	X_WP:	0.000	Y_WP:	0.000	Y_WP:	0.500	X:	-0.017	Y:	0.010	Z:	0.050	yaw:	-7.151	yaw rate:	27.035	Roll:	-0.272	Pitch:	0.536	Yaw:	-4.163	Thrust:	36.211
Time:	2.300	Roll Set Point:	0.036	Pitch Set Point:	-0.019	Yaw Set Point:	0.124	X_WP:	0.000	Y_WP:	0.000	Y_WP:	0.500	X:	-0.017	Y:	0.010	Z:	0.050	yaw:	-7.105	yaw rate:	4.605	Roll:	-0.485	Pitch:	0.184	Yaw:	-9.429	Thrust:	37.848
Time:	2.311	Roll Set Point:	0.036	Pitch Set Point:	-0.019	Yaw Set Point:	0.121	X_WP:	0.000	Y_WP:	0.000	Y_WP:	0.500	X:	-0.017	Y:	0.011	Z:	0.050	yaw:	-6.929	yaw rate:	17.580	Roll:	-0.638	Pitch:	0.551	Yaw:	-6.141	Thrust:	39.052
Time:	2.323	Roll Set Point:	0.035	Pitch Set Point:	-0.019	Yaw Set Point:	0.123	X_WP:	0.000	Y_WP:	0.000	Y_WP:	0.500	X:	-0.017	Y:	0.011	Z:	0.050	yaw:	-7.054	yaw rate:	-12.498	Roll:	-0.327	Pitch:	0.269	Yaw:	-13.286	Thrust:	39.637
Time:	2.334	Roll Set Point:	0.036	Pitch Set Point:	-0.019	Yaw Set Point:	0.122	X_WP:	0.000	Y_WP:	0.000	Y_WP:	0.500	X:	-0.017	Y:	0.010	Z:	0.050	yaw:	-7.009	yaw rate:	4.551	Roll:	-0.702	Pitch:	0.052	Yaw:	-9.388	Thrust:	40.095
Time:	2.345	Roll Set Point:	0.036	Pitch Set Point:	-0.019	Yaw Set Point:	0.122	X_WP:	0.000	Y_WP:	0.000	Y_WP:	0.500	X:	-0.017	Y:	0.010	Z:	0.050	yaw:	-7.016	yaw rate:	-0.762	Roll:	-0.430	Pitch:	0.203	Yaw:	-10.691	Thrust:	40.534
Time:	2.356	Roll Set Point:	0.036	Pitch Set Point:	-0.019	Yaw Set Point:	0.122	X_WP:	0.000	Y_WP:	0.000	Y_WP:	0.500	X:	-0.017	Y:	0.010	Z:	0.050	yaw:	-6.962	yaw rate:	5.477	Roll:	-0.686	Pitch:	0.179	Yaw:	-9.166	Thrust:	39.952
Time:	2.368	Roll Set Point:	0.036	Pitch Set Point:	-0.019	Yaw Set Point:	0.123	X_WP:	0.000	Y_WP:	0.000	Y_WP:	0.500	X:	-0.017	Y:	0.010	Z:	0.050	yaw:	-7.022	yaw rate:	-6.056	Roll:	-0.458	Pitch:	0.302	Yaw:	-11.979	Thrust:	42.524
Time:	2.380	Roll Set Point:	0.035	Pitch Set Point:	-0.019	Yaw Set Point:	0.119	X_WP:	0.000	Y_WP:	0.000	Y_WP:	0.500	X:	-0.017	Y:	0.011	Z:	0.050	yaw:	-6.808	yaw rate:	21.369	Roll:	-0.448	Pitch:	0.587	Yaw:	-5.669	Thrust:	43.304
Time:	2.391	Roll Set Point:	0.036	Pitch Set Point:	-0.019	Yaw Set Point:	0.123	X_WP:	0.000	Y_WP:	0.000	Y_WP:	0.500	X:	-0.017	Y:	0.010	Z:	0.050	yaw:	-7.038	yaw rate:	-22.983	Roll:	-0.628	Pitch:	-0.051	Yaw:	-16.104	Thrust:	42.884
Time:	2.402	Roll Set Point:	0.035	Pitch Set Point:	-0.019	Yaw Set Point:	0.118	X_WP:	0.000	Y_WP:	0.000	Y_WP:	0.500	X:	-0.017	Y:	0.011	Z:	0.050	yaw:	-6.789	yaw rate:	24.938	Roll:	-0.298	Pitch:	0.654	Yaw:	-4.408	Thrust:	42.995
Time:	2.413	Roll Set Point:	0.036	Pitch Set Point:	-0.019	Yaw Set Point:	0.118	X_WP:	0.000	Y_WP:	0.000	Y_WP:	0.500	X:	-0.017	Y:	0.010	Z:	0.050	yaw:	-6.749	yaw rate:	4.021	Roll:	-0.893	Pitch:	-0.105	Yaw:	-9.346	Thrust:	44.280
Time:	2.424	Roll Set Point:	0.035	Pitch Set Point:	-0.019	Yaw Set Point:	0.118	X_WP:	0.000	Y_WP:	0.000	Y_WP:	0.500	X:	-0.017	Y:	0.011	Z:	0.050	yaw:	-6.760	yaw rate:	-1.080	Roll:	-0.189	Pitch:	0.601	Yaw:	-10.594	Thrust:	43.837
Time:	2.435	Roll Set Point:	0.036	Pitch Set Point:	-0.019	Yaw Set Point:	0.119	X_WP:	0.000	Y_WP:	0.000	Y_WP:	0.500	X:	-0.017	Y:	0.010	Z:	0.050	yaw:	-6.834	yaw rate:	-7.483	Roll:	-0.852	Pitch:	-0.119	Yaw:	-12.247	Thrust:	44.510
Time:	2.446	Roll Set Point:	0.036	Pitch Set Point:	-0.019	Yaw Set Point:	0.118	X_WP:	0.000	Y_WP:	0.000	Y_WP:	0.500	X:	-0.017	Y:	0.010	Z:	0.050	yaw:	-6.739	yaw rate:	9.583	Roll:	-0.457	Pitch:	0.253	Yaw:	-8.086	Thrust:	45.526
Time:	2.457	Roll Set Point:	0.036	Pitch Set Point:	-0.019	Yaw Set Point:	0.118	X_WP:	0.000	Y_WP:	0.000	Y_WP:	0.500	X:	-0.017	Y:	0.011	Z:	0.050	yaw:	-6.788	yaw rate:	-4.937	Roll:	-0.776	Pitch:	0.509	Yaw:	-11.627	Thrust:	47.041
Time:	2.468	Roll Set Point:	0.036	Pitch Set Point:	-0.019	Yaw Set Point:	0.113	X_WP:	0.000	Y_WP:	0.000	Y_WP:	0.500	X:	-0.017	Y:	0.011	Z:	0.050	yaw:	-6.456	yaw rate:	33.202	Roll:	-0.406	Pitch:	0.365	Yaw:	-2.133	Thrust:	47.081
Time:	2.479	Roll Set Point:	0.036	Pitch Set Point:	-0.019	Yaw Set Point:	0.117	X_WP:	0.000	Y_WP:	0.000	Y_WP:	0.500	X:	-0.017	Y:	0.011	Z:	0.051	yaw:	-6.695	yaw rate:	-23.961	Roll:	-0.653	Pitch:	0.138	Yaw:	-16.064	Thrust:	45.939
Time:	2.490	Roll Set Point:	0.036	Pitch Set Point:	-0.019	Yaw Set Point:	0.115	X_WP:	0.000	Y_WP:	0.000	Y_WP:	0.500	X:	-0.017	Y:	0.011	Z:	0.050	yaw:	-6.602	yaw rate:	9.357	Roll:	-0.615	Pitch:	0.340	Yaw:	-8.044	Thrust:	48.431
Time:	2.501	Roll Set Point:	0.036	Pitch Set Point:	-0.019	Yaw Set Point:	0.115	X_WP:	0.000	Y_WP:	0.000	Y_WP:	0.500	X:	-0.017	Y:	0.010	Z:	0.051	yaw:	-6.584	yaw rate:	1.822	Roll:	-0.557	Pitch:	0.156	Yaw:	-9.844	Thrust:	48.050
Time:	2.513	Roll Set Point:	0.036	Pitch Set Point:	-0.019	Yaw Set Point:	0.114	X_WP:	0.000	Y_WP:	0.000	Y_WP:	0.500	X:	-0.017	Y:	0.011	Z:	0.051	yaw:	-6.555	yaw rate:	2.881	Roll:	-0.567	Pitch:	0.359	Yaw:	-9.731	Thrust:	51.277
Time:	2.524	Roll Set Point:	0.036	Pitch Set Point:	-0.019	Yaw Set Point:	0.112	X_WP:	0.000	Y_WP:	0.000	Y_WP:	0.500	X:	-0.017	Y:	0.011	Z:	0.051	yaw:	-6.412	yaw rate:	14.282	Roll:	-0.457	Pitch:	0.452	Yaw:	-6.694	Thrust:	48.741
Time:	2.535	Roll Set Point:	0.036	Pitch Set Point:	-0.019	Yaw Set Point:	0.107	X_WP:	0.000	Y_WP:	0.000	Y_WP:	0.500	X:	-0.017	Y:	0.011	Z:	0.051	yaw:	-6.145	yaw rate:	26.676	Roll:	-0.519	Pitch:	0.393	Yaw:	-3.388	Thrust:	51.130
Time:	2.546	Roll Set Point:	0.036	Pitch Set Point:	-0.019	Yaw Set Point:	0.105	X_WP:	0.000	Y_WP:	0.000	Y_WP:	0.500	X:	-0.017	Y:	0.011	Z:	0.051	yaw:	-6.014	yaw rate:	13.083	Roll:	-0.707	Pitch:	0.394	Yaw:	-6.482	Thrust:	50.363
Time:	2.558	Roll Set Point:	0.036	Pitch Set Point:	-0.020	Yaw Set Point:	0.101	X_WP:	0.000	Y_WP:	0.000	Y_WP:	0.500	X:	-0.018	Y:	0.011	Z:	0.051	yaw:	-5.790	yaw rate:	22.453	Roll:	-0.799	Pitch:	0.321	Yaw:	-4.497	Thrust:	54.441
Time:	2.569	Roll Set Point:	0.036	Pitch Set Point:	-0.019	Yaw Set Point:	0.103	X_WP:	0.000	Y_WP:	0.000	Y_WP:	0.500	X:	-0.018	Y:	0.011	Z:	0.050	yaw:	-5.878	yaw rate:	-8.811	Roll:	-0.607	Pitch:	0.233	Yaw:	-11.521	Thrust:	52.557
Time:	2.580	Roll Set Point:	0.036	Pitch Set Point:	-0.019	Yaw Set Point:	0.104	X_WP:	0.000	Y_WP:	0.000	Y_WP:	0.500	X:	-0.018	Y:	0.011	Z:	0.051	yaw:	-5.973	yaw rate:	-9.540	Roll:	-0.665	Pitch:	0.229	Yaw:	-11.853	Thrust:	51.104
Time:	2.591	Roll Set Point:	0.036	Pitch Set Point:	-0.020	Yaw Set Point:	0.097	X_WP:	0.000	Y_WP:	0.000	Y_WP:	0.500	X:	-0.018	Y:	0.011	Z:	0.051	yaw:	-5.533	yaw rate:	44.071	Roll:	-0.525	Pitch:	0.543	Yaw:	1.492	Thrust:	54.478
Time:	2.602	Roll Set Point:	0.036	Pitch Set Point:	-0.020	Yaw Set Point:	0.095	X_WP:	0.000	Y_WP:	0.000	Y_WP:	0.500	X:	-0.018	Y:	0.011	Z:	0.051	yaw:	-5.449	yaw rate:	8.412	Roll:	-0.165	Pitch:	0.535	Yaw:	-6.910	Thrust:	53.029
Time:	2.613	Roll Set Point:	0.036	Pitch Set Point:	-0.020	Yaw Set Point:	0.096	X_WP:	0.000	Y_WP:	0.000	Y_WP:	0.500	X:	-0.017	Y:	0.011	Z:	0.051	yaw:	-5.526	yaw rate:	-7.777	Roll:	-0.526	Pitch:	0.049	Yaw:	-10.873	Thrust:	53.908
Time:	2.624	Roll Set Point:	0.036	Pitch Set Point:	-0.020	Yaw Set Point:	0.101	X_WP:	0.000	Y_WP:	0.000	Y_WP:	0.500	X:	-0.018	Y:	0.011	Z:	0.051	yaw:	-5.799	yaw rate:	-27.288	Roll:	-0.885	Pitch:	0.138	Yaw:	-15.897	Thrust:	54.429
Time:	2.635	Roll Set Point:	0.036	Pitch Set Point:	-0.020	Yaw Set Point:	0.094	X_WP:	0.000	Y_WP:	0.000	Y_WP:	0.500	X:	-0.017	Y:	0.011	Z:	0.051	yaw:	-5.373	yaw rate:	42.610	Roll:	-0.208	Pitch:	0.454	Yaw:	1.256	Thrust:	54.848
Time:	2.646	Roll Set Point:	0.036	Pitch Set Point:	-0.020	Yaw Set Point:	0.088	X_WP:	0.000	Y_WP:	0.000	Y_WP:	0.500	X:	-0.017	Y:	0.011	Z:	0.051	yaw:	-5.043	yaw rate:	33.005	Roll:	-0.465	Pitch:	0.360	Yaw:	-0.585	Thrust:	56.131
Time:	2.657	Roll Set Point:	0.035	Pitch Set Point:	-0.020	Yaw Set Point:	0.081	X_WP:	0.000	Y_WP:	0.000	Y_WP:	0.500	X:	-0.017	Y:	0.011	Z:	0.051	yaw:	-4.624	yaw rate:	41.958	Roll:	-0.204	Pitch:	0.719	Yaw:	2.107	Thrust:	56.320
Time:	2.668	Roll Set Point:	0.035	Pitch Set Point:	-0.020	Yaw Set Point:	0.073	X_WP:	0.000	Y_WP:	0.000	Y_WP:	0.500	X:	-0.017	Y:	0.011	Z:	0.051	yaw:	-4.162	yaw rate:	46.106	Roll:	-0.356	Pitch:	0.598	Yaw:	3.684	Thrust:	57.350
Time:	2.679	Roll Set Point:	0.035	Pitch Set Point:	-0.020	Yaw Set Point:	0.071	X_WP:	0.000	Y_WP:	0.000	Y_WP:	0.500	X:	-0.017	Y:	0.011	Z:	0.051	yaw:	-4.051	yaw rate:	11.102	Roll:	-0.539	Pitch:	0.210	Yaw:	-4.441	Thrust:	58.403
Time:	2.691	Roll Set Point:	0.035	Pitch Set Point:	-0.021	Yaw Set Point:	0.059	X_WP:	0.000	Y_WP:	0.000	Y_WP:	0.500	X:	-0.017	Y:	0.011	Z:	0.051	yaw:	-3.357	yaw rate:	69.440	Roll:	-0.477	Pitch:	0.832	Yaw:	8.844	Thrust:	61.152
Time:	2.703	Roll Set Point:	0.035	Pitch Set Point:	-0.021	Yaw Set Point:	0.058	X_WP:	0.000	Y_WP:	0.000	Y_WP:	0.500	X:	-0.017	Y:	0.011	Z:	0.052	yaw:	-3.323	yaw rate:	3.413	Roll:	-0.391	Pitch:	0.366	Yaw:	-5.489	Thrust:	61.833
Time:	2.715	Roll Set Point:	0.035	Pitch Set Point:	-0.021	Yaw Set Point:	0.046	X_WP:	0.000	Y_WP:	0.000	Y_WP:	0.500	X:	-0.017	Y:	0.011	Z:	0.052	yaw:	-2.624	yaw rate:	69.865	Roll:	-0.137	Pitch:	0.628	Yaw:	11.449	Thrust:	58.893
Time:	2.726	Roll Set Point:	0.034	Pitch Set Point:	-0.021	Yaw Set Point:	0.040	X_WP:	0.000	Y_WP:	0.000	Y_WP:	0.500	X:	-0.017	Y:	0.011	Z:	0.052	yaw:	-2.295	yaw rate:	32.919	Roll:	-0.222	Pitch:	0.493	Yaw:	3.127	Thrust:	61.230
Time:	2.737	Roll Set Point:	0.034	Pitch Set Point:	-0.021	Yaw Set Point:	0.027	X_WP:	0.000	Y_WP:	0.000	Y_WP:	0.500	X:	-0.017	Y:	0.011	Z:	0.052	yaw:	-1.522	yaw rate:	77.344	Roll:	-0.385	Pitch:	0.626	Yaw:	14.744	Thrust:	61.262
Time:	2.748	Roll Set Point:	0.034	Pitch Set Point:	-0.022	Yaw Set Point:	0.021	X_WP:	0.000	Y_WP:	0.000	Y_WP:	0.500	X:	-0.017	Y:	0.011	Z:	0.052	yaw:	-1.220	yaw rate:	30.211	Roll:	-0.285	Pitch:	0.851	Yaw:	3.950	Thrust:	59.916
Time:	2.759	Roll Set Point:	0.034	Pitch Set Point:	-0.022	Yaw Set Point:	0.017	X_WP:	0.000	Y_WP:	0.000	Y_WP:	0.500	X:	-0.017	Y:	0.011	Z:	0.052	yaw:	-0.950	yaw rate:	26.926	Roll:	-0.404	Pitch:	0.502	Yaw:	3.582	Thrust:	61.481
Time:	2.770	Roll Set Point:	0.034	Pitch Set Point:	-0.022	Yaw Set Point:	0.008	X_WP:	0.000	Y_WP:	0.000	Y_WP:	0.500	X:	-0.017	Y:	0.011	Z:	0.052	yaw:	-0.485	yaw rate:	46.533	Roll:	-0.199	Pitch:	0.516	Yaw:	8.738	Thrust:	62.234
Time:	2.781	Roll Set Point:	0.033	Pitch Set Point:	-0.022	Yaw Set Point:	0.002	X_WP:	0.000	Y_WP:	0.000	Y_WP:	0.500	X:	-0.016	Y:	0.011	Z:	0.053	yaw:	-0.113	yaw rate:	37.227	Roll:	0.163	Pitch:	0.609	Yaw:	7.171	Thrust:	61.245
Time:	2.792	Roll Set Point:	0.032	Pitch Set Point:	-0.023	Yaw Set Point:	-0.002	X_WP:	0.000	Y_WP:	0.000	Y_WP:	0.500	X:	-0.016	Y:	0.011	Z:	0.054	yaw:	0.098	yaw rate:	33.508	Roll:	-0.123	Pitch:	0.468	Yaw:	3.456	Thrust:	61.729
Time:	2.803	Roll Set Point:	0.032	Pitch Set Point:	-0.023	Yaw Set Point:	-0.002	X_WP:	0.000	Y_WP:	0.000	Y_WP:	0.500	X:	-0.016	Y:	0.011	Z:	0.054	yaw:	0.098	yaw rate:	33.508	Roll:	-0.501	Pitch:	0.343	Yaw:	-1.371	Thrust:	64.396
Time:	2.814	Roll Set Point:	0.032	Pitch Set Point:	-0.023	Yaw Set Point:	-0.015	X_WP:	0.000	Y_WP:	0.000	Y_WP:	0.500	X:	-0.016	Y:	0.011	Z:	0.054	yaw:	0.877	yaw rate:	77.970	Roll:	0.169	Pitch:	0.747	Yaw:	18.227	Thrust:	62.872
Time:	2.825	Roll Set Point:	0.031	Pitch Set Point:	-0.023	Yaw Set Point:	-0.019	X_WP:	0.000	Y_WP:	0.000	Y_WP:	0.500	X:	-0.016	Y:	0.011	Z:	0.054	yaw:	1.073	yaw rate:	19.559	Roll:	-0.162	Pitch:	0.226	Yaw:	4.637	Thrust:	63.736
Time:	2.836	Roll Set Point:	0.031	Pitch Set Point:	-0.023	Yaw Set Point:	-0.035	X_WP:	0.000	Y_WP:	0.000	Y_WP:	0.500	X:	-0.015	Y:	0.011	Z:	0.056	yaw:	2.010	yaw rate:	93.706	Roll:	0.205	Pitch:	0.890	Yaw:	23.550	Thrust:	60.465
Time:	2.847	Roll Set Point:	0.030	Pitch Set Point:	-0.023	Yaw Set Point:	-0.041	X_WP:	0.000	Y_WP:	0.000	Y_WP:	0.500	X:	-0.015	Y:	0.011	Z:	0.057	yaw:	2.341	yaw rate:	33.069	Roll:	0.001	Pitch:	0.488	Yaw:	9.627	Thrust:	63.139
Time:	2.858	Roll Set Point:	0.030	Pitch Set Point:	-0.023	Yaw Set Point:	-0.034	X_WP:	0.000	Y_WP:	0.000	Y_WP:	0.500	X:	-0.015	Y:	0.011	Z:	0.058	yaw:	1.967	yaw rate:	-37.398	Roll:	-0.401	Pitch:	0.166	Yaw:	-7.612	Thrust:	63.738
Time:	2.869	Roll Set Point:	0.029	Pitch Set Point:	-0.023	Yaw Set Point:	-0.046	X_WP:	0.000	Y_WP:	0.000	Y_WP:	0.500	X:	-0.015	Y:	0.011	Z:	0.059	yaw:	2.629	yaw rate:	66.267	Roll:	0.110	Pitch:	0.614	Yaw:	17.924	Thrust:	62.079
Time:	2.881	Roll Set Point:	0.029	Pitch Set Point:	-0.023	Yaw Set Point:	-0.048	X_WP:	0.000	Y_WP:	0.000	Y_WP:	0.500	X:	-0.015	Y:	0.011	Z:	0.062	yaw:	2.754	yaw rate:	-10.860	Roll:	0.078	Pitch:	0.286	Yaw:	4.970	Thrust:	60.686
Time:	2.893	Roll Set Point:	0.028	Pitch Set Point:	-0.023	Yaw Set Point:	-0.057	X_WP:	0.000	Y_WP:	0.000	Y_WP:	0.500	X:	-0.014	Y:	0.011	Z:	0.063	yaw:	3.251	yaw rate:	49.682	Roll:	-0.026	Pitch:	0.485	Yaw:	13.764	Thrust:	67.167
Time:	2.904	Roll Set Point:	0.028	Pitch Set Point:	-0.023	Yaw Set Point:	-0.058	X_WP:	0.000	Y_WP:	0.000	Y_WP:	0.500	X:	-0.014	Y:	0.011	Z:	0.065	yaw:	3.322	yaw rate:	7.118	Roll:	-0.266	Pitch:	0.174	Yaw:	4.879	Thrust:	63.157
Time:	2.916	Roll Set Point:	0.028	Pitch Set Point:	-0.022	Yaw Set Point:	-0.063	X_WP:	0.000	Y_WP:	0.000	Y_WP:	0.500	X:	-0.014	Y:	0.011	Z:	0.066	yaw:	3.586	yaw rate:	26.378	Roll:	-0.182	Pitch:	0.144	Yaw:	9.206	Thrust:	68.140
Time:	2.928	Roll Set Point:	0.027	Pitch Set Point:	-0.022	Yaw Set Point:	-0.074	X_WP:	0.000	Y_WP:	0.000	Y_WP:	0.500	X:	-0.014	Y:	0.011	Z:	0.069	yaw:	4.252	yaw rate:	66.619	Roll:	-0.151	Pitch:	0.181	Yaw:	18.891	Thrust:	65.505
Time:	2.940	Roll Set Point:	0.027	Pitch Set Point:	-0.021	Yaw Set Point:	-0.070	X_WP:	0.000	Y_WP:	0.000	Y_WP:	0.500	X:	-0.014	Y:	0.010	Z:	0.070	yaw:	4.011	yaw rate:	-24.092	Roll:	-0.624	Pitch:	-0.172	Yaw:	-1.516	Thrust:	64.323
Time:	2.951	Roll Set Point:	0.027	Pitch Set Point:	-0.021	Yaw Set Point:	-0.076	X_WP:	0.000	Y_WP:	0.000	Y_WP:	0.500	X:	-0.014	Y:	0.010	Z:	0.072	yaw:	4.373	yaw rate:	36.124	Roll:	0.009	Pitch:	0.341	Yaw:	13.296	Thrust:	63.943
Time:	2.962	Roll Set Point:	0.027	Pitch Set Point:	-0.021	Yaw Set Point:	-0.081	X_WP:	0.000	Y_WP:	0.000	Y_WP:	0.500	X:	-0.014	Y:	0.010	Z:	0.074	yaw:	4.624	yaw rate:	25.190	Roll:	-0.238	Pitch:	-0.017	Yaw:	11.071	Thrust:	63.884
Time:	2.973	Roll Set Point:	0.027	Pitch Set Point:	-0.020	Yaw Set Point:	-0.084	X_WP:	0.000	Y_WP:	0.000	Y_WP:	0.500	X:	-0.014	Y:	0.010	Z:	0.075	yaw:	4.806	yaw rate:	18.103	Roll:	-0.312	Pitch:	0.001	Yaw:	9.658	Thrust:	64.770
Time:	2.984	Roll Set Point:	0.026	Pitch Set Point:	-0.020	Yaw Set Point:	-0.091	X_WP:	0.000	Y_WP:	0.000	Y_WP:	0.500	X:	-0.014	Y:	0.009	Z:	0.079	yaw:	5.204	yaw rate:	39.871	Roll:	-0.182	Pitch:	-0.078	Yaw:	15.401	Thrust:	59.730
Time:	2.995	Roll Set Point:	0.026	Pitch Set Point:	-0.019	Yaw Set Point:	-0.090	X_WP:	0.000	Y_WP:	0.000	Y_WP:	0.500	X:	-0.014	Y:	0.009	Z:	0.080	yaw:	5.168	yaw rate:	-3.601	Roll:	-0.427	Pitch:	-0.215	Yaw:	5.052	Thrust:	64.819
Time:	3.006	Roll Set Point:	0.026	Pitch Set Point:	-0.019	Yaw Set Point:	-0.097	X_WP:	0.000	Y_WP:	0.000	Y_WP:	0.500	X:	-0.013	Y:	0.009	Z:	0.082	yaw:	5.559	yaw rate:	39.106	Roll:	0.049	Pitch:	0.036	Yaw:	15.755	Thrust:	65.065
Time:	3.017	Roll Set Point:	0.026	Pitch Set Point:	-0.018	Yaw Set Point:	-0.094	X_WP:	0.000	Y_WP:	0.000	Y_WP:	0.500	X:	-0.013	Y:	0.008	Z:	0.084	yaw:	5.398	yaw rate:	-16.113	Roll:	-0.569	Pitch:	-0.470	Yaw:	2.444	Thrust:	65.323
Time:	3.028	Roll Set Point:	0.026	Pitch Set Point:	-0.017	Yaw Set Point:	-0.099	X_WP:	0.000	Y_WP:	0.000	Y_WP:	0.500	X:	-0.013	Y:	0.008	Z:	0.087	yaw:	5.689	yaw rate:	29.048	Roll:	-0.344	Pitch:	-0.112	Yaw:	13.590	Thrust:	64.750
Time:	3.039	Roll Set Point:	0.026	Pitch Set Point:	-0.016	Yaw Set Point:	-0.101	X_WP:	0.000	Y_WP:	0.000	Y_WP:	0.500	X:	-0.013	Y:	0.007	Z:	0.089	yaw:	5.779	yaw rate:	9.059	Roll:	-0.419	Pitch:	-0.401	Yaw:	8.994	Thrust:	66.074
Time:	3.050	Roll Set Point:	0.026	Pitch Set Point:	-0.015	Yaw Set Point:	-0.109	X_WP:	0.000	Y_WP:	0.000	Y_WP:	0.500	X:	-0.013	Y:	0.007	Z:	0.092	yaw:	6.270	yaw rate:	49.084	Roll:	-0.363	Pitch:	-0.459	Yaw:	19.202	Thrust:	61.280
Time:	3.061	Roll Set Point:	0.026	Pitch Set Point:	-0.014	Yaw Set Point:	-0.102	X_WP:	0.000	Y_WP:	0.000	Y_WP:	0.500	X:	-0.013	Y:	0.006	Z:	0.094	yaw:	5.851	yaw rate:	-41.947	Roll:	-0.761	Pitch:	-0.743	Yaw:	-2.966	Thrust:	65.685
Time:	3.072	Roll Set Point:	0.026	Pitch Set Point:	-0.013	Yaw Set Point:	-0.103	X_WP:	0.000	Y_WP:	0.000	Y_WP:	0.500	X:	-0.013	Y:	0.006	Z:	0.097	yaw:	5.874	yaw rate:	2.360	Roll:	-0.300	Pitch:	-0.194	Yaw:	7.606	Thrust:	66.395
Time:	3.083	Roll Set Point:	0.026	Pitch Set Point:	-0.013	Yaw Set Point:	-0.108	X_WP:	0.000	Y_WP:	0.000	Y_WP:	0.500	X:	-0.013	Y:	0.006	Z:	0.099	yaw:	6.168	yaw rate:	29.378	Roll:	-0.617	Pitch:	-0.356	Yaw:	14.451	Thrust:	66.119
Time:	3.094	Roll Set Point:	0.026	Pitch Set Point:	-0.011	Yaw Set Point:	-0.106	X_WP:	0.000	Y_WP:	0.000	Y_WP:	0.500	X:	-0.013	Y:	0.005	Z:	0.103	yaw:	6.070	yaw rate:	-9.773	Roll:	-0.537	Pitch:	-0.844	Yaw:	5.045	Thrust:	61.744
Time:	3.105	Roll Set Point:	0.027	Pitch Set Point:	-0.010	Yaw Set Point:	-0.108	X_WP:	0.000	Y_WP:	0.000	Y_WP:	0.500	X:	-0.014	Y:	0.004	Z:	0.105	yaw:	6.215	yaw rate:	14.440	Roll:	-0.729	Pitch:	-0.434	Yaw:	11.011	Thrust:	67.049
Time:	3.116	Roll Set Point:	0.027	Pitch Set Point:	-0.009	Yaw Set Point:	-0.104	X_WP:	0.000	Y_WP:	0.000	Y_WP:	0.500	X:	-0.014	Y:	0.004	Z:	0.108	yaw:	5.948	yaw rate:	-26.692	Roll:	-0.680	Pitch:	-0.796	Yaw:	0.907	Thrust:	67.604
Time:	3.127	Roll Set Point:	0.027	Pitch Set Point:	-0.008	Yaw Set Point:	-0.109	X_WP:	0.000	Y_WP:	0.000	Y_WP:	0.500	X:	-0.014	Y:	0.004	Z:	0.110	yaw:	6.245	yaw rate:	29.686	Roll:	-0.335	Pitch:	-0.333	Yaw:	14.739	Thrust:	66.613
Time:	3.138	Roll Set Point:	0.027	Pitch Set Point:	-0.007	Yaw Set Point:	-0.103	X_WP:	0.000	Y_WP:	0.000	Y_WP:	0.500	X:	-0.014	Y:	0.003	Z:	0.113	yaw:	5.919	yaw rate:	-32.548	Roll:	-0.932	Pitch:	-0.907	Yaw:	-0.478	Thrust:	67.895
Time:	3.149	Roll Set Point:	0.027	Pitch Set Point:	-0.006	Yaw Set Point:	-0.112	X_WP:	0.000	Y_WP:	0.000	Y_WP:	0.500	X:	-0.014	Y:	0.002	Z:	0.116	yaw:	6.442	yaw rate:	52.324	Roll:	-0.179	Pitch:	-0.666	Yaw:	20.395	Thrust:	63.266
Time:	3.160	Roll Set Point:	0.028	Pitch Set Point:	-0.005	Yaw Set Point:	-0.107	X_WP:	0.000	Y_WP:	0.000	Y_WP:	0.500	X:	-0.014	Y:	0.002	Z:	0.119	yaw:	6.157	yaw rate:	-28.499	Roll:	-1.052	Pitch:	-0.746	Yaw:	0.852	Thrust:	68.889
Time:	3.171	Roll Set Point:	0.028	Pitch Set Point:	-0.004	Yaw Set Point:	-0.105	X_WP:	0.000	Y_WP:	0.000	Y_WP:	0.500	X:	-0.014	Y:	0.001	Z:	0.121	yaw:	6.032	yaw rate:	-12.560	Roll:	-0.750	Pitch:	-0.852	Yaw:	4.496	Thrust:	68.865
Time:	3.182	Roll Set Point:	0.028	Pitch Set Point:	-0.002	Yaw Set Point:	-0.104	X_WP:	0.000	Y_WP:	0.000	Y_WP:	0.500	X:	-0.014	Y:	0.000	Z:	0.124	yaw:	5.966	yaw rate:	-6.596	Roll:	-0.792	Pitch:	-0.935	Yaw:	5.844	Thrust:	68.342
Time:	3.193	Roll Set Point:	0.028	Pitch Set Point:	-0.002	Yaw Set Point:	-0.108	X_WP:	0.000	Y_WP:	0.000	Y_WP:	0.500	X:	-0.014	Y:	0.000	Z:	0.127	yaw:	6.174	yaw rate:	20.774	Roll:	-0.493	Pitch:	-0.386	Yaw:	12.662	Thrust:	68.696
Time:	3.204	Roll Set Point:	0.029	Pitch Set Point:	0.000	Yaw Set Point:	-0.109	X_WP:	0.000	Y_WP:	0.000	Y_WP:	0.500	X:	-0.014	Y:	-0.001	Z:	0.130	yaw:	6.258	yaw rate:	8.431	Roll:	-0.927	Pitch:	-1.287	Yaw:	9.864	Thrust:	64.194
Time:	3.215	Roll Set Point:	0.029	Pitch Set Point:	0.001	Yaw Set Point:	-0.105	X_WP:	0.000	Y_WP:	0.000	Y_WP:	0.500	X:	-0.015	Y:	-0.001	Z:	0.133	yaw:	5.997	yaw rate:	-26.091	Roll:	-0.854	Pitch:	-0.885	Yaw:	1.448	Thrust:	70.924
Time:	3.227	Roll Set Point:	0.030	Pitch Set Point:	0.002	Yaw Set Point:	-0.101	X_WP:	0.000	Y_WP:	0.000	Y_WP:	0.500	X:	-0.015	Y:	-0.002	Z:	0.136	yaw:	5.766	yaw rate:	-23.067	Roll:	-0.695	Pitch:	-0.889	Yaw:	1.758	Thrust:	69.938
Time:	3.238	Roll Set Point:	0.030	Pitch Set Point:	0.004	Yaw Set Point:	-0.098	X_WP:	0.000	Y_WP:	0.000	Y_WP:	0.500	X:	-0.015	Y:	-0.003	Z:	0.139	yaw:	5.632	yaw rate:	-13.462	Roll:	-0.782	Pitch:	-0.925	Yaw:	3.858	Thrust:	69.299
Time:	3.249	Roll Set Point:	0.030	Pitch Set Point:	0.004	Yaw Set Point:	-0.098	X_WP:	0.000	Y_WP:	0.000	Y_WP:	0.500	X:	-0.015	Y:	-0.003	Z:	0.142	yaw:	5.609	yaw rate:	-2.267	Roll:	-0.738	Pitch:	-0.755	Yaw:	6.509	Thrust:	69.173
Time:	3.260	Roll Set Point:	0.030	Pitch Set Point:	0.006	Yaw Set Point:	-0.096	X_WP:	0.000	Y_WP:	0.000	Y_WP:	0.500	X:	-0.015	Y:	-0.004	Z:	0.145	yaw:	5.479	yaw rate:	-12.982	Roll:	-0.752	Pitch:	-0.869	Yaw:	3.802	Thrust:	69.745
Time:	3.271	Roll Set Point:	0.031	Pitch Set Point:	0.008	Yaw Set Point:	-0.088	X_WP:	0.000	Y_WP:	0.000	Y_WP:	0.500	X:	-0.015	Y:	-0.004	Z:	0.149	yaw:	5.056	yaw rate:	-42.352	Roll:	-1.117	Pitch:	-1.719	Yaw:	-3.736	Thrust:	64.286
Time:	3.282	Roll Set Point:	0.032	Pitch Set Point:	0.009	Yaw Set Point:	-0.087	X_WP:	0.000	Y_WP:	0.000	Y_WP:	0.500	X:	-0.016	Y:	-0.005	Z:	0.152	yaw:	4.961	yaw rate:	-9.488	Roll:	-0.830	Pitch:	-0.980	Yaw:	3.996	Thrust:	72.525
Time:	3.293	Roll Set Point:	0.032	Pitch Set Point:	0.010	Yaw Set Point:	-0.085	X_WP:	0.000	Y_WP:	0.000	Y_WP:	0.500	X:	-0.016	Y:	-0.006	Z:	0.155	yaw:	4.845	yaw rate:	-11.530	Roll:	-0.920	Pitch:	-1.059	Yaw:	3.330	Thrust:	70.247
Time:	3.304	Roll Set Point:	0.032	Pitch Set Point:	0.011	Yaw Set Point:	-0.090	X_WP:	0.000	Y_WP:	0.000	Y_WP:	0.500	X:	-0.016	Y:	-0.006	Z:	0.158	yaw:	5.144	yaw rate:	29.890	Roll:	-0.640	Pitch:	-0.407	Yaw:	13.607	Thrust:	70.377
Time:	3.315	Roll Set Point:	0.033	Pitch Set Point:	0.012	Yaw Set Point:	-0.095	X_WP:	0.000	Y_WP:	0.000	Y_WP:	0.500	X:	-0.016	Y:	-0.007	Z:	0.162	yaw:	5.461	yaw rate:	31.643	Roll:	-1.138	Pitch:	-1.243	Yaw:	14.429	Thrust:	64.607
Time:	3.326	Roll Set Point:	0.033	Pitch Set Point:	0.013	Yaw Set Point:	-0.091	X_WP:	0.000	Y_WP:	0.000	Y_WP:	0.500	X:	-0.016	Y:	-0.007	Z:	0.166	yaw:	5.235	yaw rate:	-22.558	Roll:	-0.574	Pitch:	-1.009	Yaw:	1.311	Thrust:	69.782
Time:	3.337	Roll Set Point:	0.033	Pitch Set Point:	0.014	Yaw Set Point:	-0.091	X_WP:	0.000	Y_WP:	0.000	Y_WP:	0.500	X:	-0.016	Y:	-0.008	Z:	0.169	yaw:	5.205	yaw rate:	-2.990	Roll:	-0.858	Pitch:	-0.881	Yaw:	5.935	Thrust:	69.821
Time:	3.348	Roll Set Point:	0.033	Pitch Set Point:	0.015	Yaw Set Point:	-0.090	X_WP:	0.000	Y_WP:	0.000	Y_WP:	0.500	X:	-0.016	Y:	-0.008	Z:	0.172	yaw:	5.145	yaw rate:	-6.053	Roll:	-0.743	Pitch:	-0.961	Yaw:	5.142	Thrust:	70.015
Time:	3.359	Roll Set Point:	0.034	Pitch Set Point:	0.016	Yaw Set Point:	-0.089	X_WP:	0.000	Y_WP:	0.000	Y_WP:	0.500	X:	-0.017	Y:	-0.009	Z:	0.176	yaw:	5.091	yaw rate:	-5.421	Roll:	-0.884	Pitch:	-0.977	Yaw:	5.239	Thrust:	70.536
Time:	3.370	Roll Set Point:	0.034	Pitch Set Point:	0.017	Yaw Set Point:	-0.086	X_WP:	0.000	Y_WP:	0.000	Y_WP:	0.500	X:	-0.017	Y:	-0.009	Z:	0.179	yaw:	4.954	yaw rate:	-13.673	Roll:	-0.822	Pitch:	-0.884	Yaw:	3.101	Thrust:	70.571
Time:	3.381	Roll Set Point:	0.035	Pitch Set Point:	0.018	Yaw Set Point:	-0.088	X_WP:	0.000	Y_WP:	0.000	Y_WP:	0.500	X:	-0.017	Y:	-0.010	Z:	0.184	yaw:	5.017	yaw rate:	6.280	Roll:	-1.161	Pitch:	-1.300	Yaw:	7.951	Thrust:	63.142
Time:	3.392	Roll Set Point:	0.035	Pitch Set Point:	0.019	Yaw Set Point:	-0.081	X_WP:	0.000	Y_WP:	0.000	Y_WP:	0.500	X:	-0.017	Y:	-0.010	Z:	0.188	yaw:	4.650	yaw rate:	-36.680	Roll:	-0.577	Pitch:	-1.086	Yaw:	-2.739	Thrust:	69.312
Time:	3.403	Roll Set Point:	0.035	Pitch Set Point:	0.020	Yaw Set Point:	-0.080	X_WP:	0.000	Y_WP:	0.000	Y_WP:	0.500	X:	-0.017	Y:	-0.011	Z:	0.191	yaw:	4.568	yaw rate:	-8.162	Roll:	-0.665	Pitch:	-0.979	Yaw:	3.934	Thrust:	69.981
Time:	3.414	Roll Set Point:	0.035	Pitch Set Point:	0.021	Yaw Set Point:	-0.078	X_WP:	0.000	Y_WP:	0.000	Y_WP:	0.500	X:	-0.017	Y:	-0.011	Z:	0.195	yaw:	4.466	yaw rate:	-10.240	Roll:	-0.816	Pitch:	-1.024	Yaw:	3.315	Thrust:	70.043
Time:	3.425	Roll Set Point:	0.036	Pitch Set Point:	0.023	Yaw Set Point:	-0.067	X_WP:	0.000	Y_WP:	0.000	Y_WP:	0.500	X:	-0.017	Y:	-0.012	Z:	0.201	yaw:	3.844	yaw rate:	-62.203	Roll:	-0.736	Pitch:	-1.525	Yaw:	-9.811	Thrust:	62.846
Time:	3.436	Roll Set Point:	0.036	Pitch Set Point:	0.024	Yaw Set Point:	-0.066	X_WP:	0.000	Y_WP:	0.000	Y_WP:	0.500	X:	-0.018	Y:	-0.012	Z:	0.204	yaw:	3.763	yaw rate:	-8.125	Roll:	-0.948	Pitch:	-1.030	Yaw:	2.867	Thrust:	69.892
Time:	3.448	Roll Set Point:	0.036	Pitch Set Point:	0.024	Yaw Set Point:	-0.076	X_WP:	0.000	Y_WP:	0.000	Y_WP:	0.500	X:	-0.018	Y:	-0.013	Z:	0.208	yaw:	4.363	yaw rate:	60.052	Roll:	-0.693	Pitch:	-0.343	Yaw:	19.903	Thrust:	70.095
Time:	3.459	Roll Set Point:	0.036	Pitch Set Point:	0.025	Yaw Set Point:	-0.077	X_WP:	0.000	Y_WP:	0.000	Y_WP:	0.500	X:	-0.018	Y:	-0.013	Z:	0.212	yaw:	4.410	yaw rate:	4.674	Roll:	-0.743	Pitch:	-0.937	Yaw:	6.840	Thrust:	69.741
Time:	3.470	Roll Set Point:	0.036	Pitch Set Point:	0.025	Yaw Set Point:	-0.074	X_WP:	0.000	Y_WP:	0.000	Y_WP:	0.500	X:	-0.018	Y:	-0.013	Z:	0.216	yaw:	4.253	yaw rate:	-15.673	Roll:	-0.578	Pitch:	-0.909	Yaw:	1.809	Thrust:	69.676
Time:	3.481	Roll Set Point:	0.036	Pitch Set Point:	0.027	Yaw Set Point:	-0.068	X_WP:	0.000	Y_WP:	0.000	Y_WP:	0.500	X:	-0.018	Y:	-0.014	Z:	0.222	yaw:	3.871	yaw rate:	-38.224	Roll:	-0.461	Pitch:	-1.275	Yaw:	-4.062	Thrust:	61.306
Time:	3.492	Roll Set Point:	0.036	Pitch Set Point:	0.027	Yaw Set Point:	-0.066	X_WP:	0.000	Y_WP:	0.000	Y_WP:	0.500	X:	-0.018	Y:	-0.014	Z:	0.226	yaw:	3.794	yaw rate:	-7.724	Roll:	-0.644	Pitch:	-0.879	Yaw:	3.085	Thrust:	69.867
Time:	3.504	Roll Set Point:	0.036	Pitch Set Point:	0.028	Yaw Set Point:	-0.064	X_WP:	0.000	Y_WP:	0.000	Y_WP:	0.500	X:	-0.018	Y:	-0.014	Z:	0.230	yaw:	3.682	yaw rate:	-11.133	Roll:	-0.523	Pitch:	-0.847	Yaw:	2.309	Thrust:	77.193
Time:	3.515	Roll Set Point:	0.036	Pitch Set Point:	0.029	Yaw Set Point:	-0.065	X_WP:	0.000	Y_WP:	0.000	Y_WP:	0.500	X:	-0.018	Y:	-0.015	Z:	0.234	yaw:	3.716	yaw rate:	3.392	Roll:	-0.634	Pitch:	-0.960	Yaw:	5.644	Thrust:	69.925
Time:	3.526	Roll Set Point:	0.036	Pitch Set Point:	0.029	Yaw Set Point:	-0.056	X_WP:	0.000	Y_WP:	0.000	Y_WP:	0.500	X:	-0.018	Y:	-0.015	Z:	0.238	yaw:	3.201	yaw rate:	-51.505	Roll:	-0.539	Pitch:	-1.220	Yaw:	-8.091	Thrust:	69.825
Time:	3.537	Roll Set Point:	0.036	Pitch Set Point:	0.030	Yaw Set Point:	-0.061	X_WP:	0.000	Y_WP:	0.000	Y_WP:	0.500	X:	-0.017	Y:	-0.015	Z:	0.242	yaw:	3.495	yaw rate:	29.389	Roll:	-0.490	Pitch:	-0.372	Yaw:	11.533	Thrust:	70.622
Time:	3.548	Roll Set Point:	0.036	Pitch Set Point:	0.031	Yaw Set Point:	-0.050	X_WP:	0.000	Y_WP:	0.000	Y_WP:	0.500	X:	-0.018	Y:	-0.016	Z:	0.248	yaw:	2.874	yaw rate:	-62.077	Roll:	-0.575	Pitch:	-1.612	Yaw:	-11.032	Thrust:	60.808
Time:	3.560	Roll Set Point:	0.036	Pitch Set Point:	0.031	Yaw Set Point:	-0.056	X_WP:	0.000	Y_WP:	0.000	Y_WP:	0.500	X:	-0.017	Y:	-0.016	Z:	0.252	yaw:	3.229	yaw rate:	35.474	Roll:	-0.470	Pitch:	-0.358	Yaw:	11.501	Thrust:	82.731
Time:	3.570	Roll Set Point:	0.035	Pitch Set Point:	0.031	Yaw Set Point:	-0.053	X_WP:	0.000	Y_WP:	0.000	Y_WP:	0.500	X:	-0.017	Y:	-0.016	Z:	0.257	yaw:	3.009	yaw rate:	-21.972	Roll:	-0.172	Pitch:	-0.829	Yaw:	-1.783	Thrust:	60.104
Time:	3.581	Roll Set Point:	0.035	Pitch Set Point:	0.032	Yaw Set Point:	-0.051	X_WP:	0.000	Y_WP:	0.000	Y_WP:	0.500	X:	-0.017	Y:	-0.016	Z:	0.261	yaw:	2.915	yaw rate:	-9.400	Roll:	-0.292	Pitch:	-0.855	Yaw:	1.566	Thrust:	69.763
Time:	3.592	Roll Set Point:	0.034	Pitch Set Point:	0.033	Yaw Set Point:	-0.040	X_WP:	0.000	Y_WP:	0.000	Y_WP:	0.500	X:	-0.017	Y:	-0.017	Z:	0.267	yaw:	2.296	yaw rate:	-61.880	Roll:	-0.156	Pitch:	-1.341	Yaw:	-11.779	Thrust:	60.442
Time:	3.603	Roll Set Point:	0.034	Pitch Set Point:	0.033	Yaw Set Point:	-0.052	X_WP:	0.000	Y_WP:	0.000	Y_WP:	0.500	X:	-0.017	Y:	-0.017	Z:	0.272	yaw:	2.989	yaw rate:	69.295	Roll:	-0.556	Pitch:	-0.158	Yaw:	20.368	Thrust:	68.368
Time:	3.615	Roll Set Point:	0.033	Pitch Set Point:	0.033	Yaw Set Point:	-0.051	X_WP:	0.000	Y_WP:	0.000	Y_WP:	0.500	X:	-0.016	Y:	-0.017	Z:	0.277	yaw:	2.934	yaw rate:	-5.505	Roll:	-0.019	Pitch:	-0.689	Yaw:	2.548	Thrust:	67.866
Time:	3.626	Roll Set Point:	0.033	Pitch Set Point:	0.033	Yaw Set Point:	-0.048	X_WP:	0.000	Y_WP:	0.000	Y_WP:	0.500	X:	-0.016	Y:	-0.017	Z:	0.281	yaw:	2.728	yaw rate:	-20.610	Roll:	-0.222	Pitch:	-0.766	Yaw:	-1.305	Thrust:	68.024
Time:	3.637	Roll Set Point:	0.033	Pitch Set Point:	0.034	Yaw Set Point:	-0.038	X_WP:	0.000	Y_WP:	0.000	Y_WP:	0.500	X:	-0.016	Y:	-0.017	Z:	0.286	yaw:	2.163	yaw rate:	-56.494	Roll:	-0.118	Pitch:	-1.234	Yaw:	-10.637	Thrust:	67.729
Time:	3.648	Roll Set Point:	0.032	Pitch Set Point:	0.034	Yaw Set Point:	-0.045	X_WP:	0.000	Y_WP:	0.000	Y_WP:	0.500	X:	-0.016	Y:	-0.017	Z:	0.293	yaw:	2.585	yaw rate:	42.149	Roll:	-0.051	Pitch:	-0.403	Yaw:	13.381	Thrust:	58.363
Time:	3.659	Roll Set Point:	0.031	Pitch Set Point:	0.035	Yaw Set Point:	-0.036	X_WP:	0.000	Y_WP:	0.000	Y_WP:	0.500	X:	-0.015	Y:	-0.018	Z:	0.298	yaw:	2.035	yaw rate:	-54.951	Roll:	-0.061	Pitch:	-0.951	Yaw:	-10.398	Thrust:	68.082
Time:	3.670	Roll Set Point:	0.031	Pitch Set Point:	0.035	Yaw Set Point:	-0.035	X_WP:	0.000	Y_WP:	0.000	Y_WP:	0.500	X:	-0.015	Y:	-0.018	Z:	0.302	yaw:	1.984	yaw rate:	-5.177	Roll:	-0.175	Pitch:	-0.800	Yaw:	1.343	Thrust:	67.318
Time:	3.681	Roll Set Point:	0.031	Pitch Set Point:	0.035	Yaw Set Point:	-0.042	X_WP:	0.000	Y_WP:	0.000	Y_WP:	0.500	X:	-0.015	Y:	-0.018	Z:	0.307	yaw:	2.404	yaw rate:	42.035	Roll:	-0.285	Pitch:	-0.327	Yaw:	13.122	Thrust:	67.531
Time:	3.692	Roll Set Point:	0.029	Pitch Set Point:	0.035	Yaw Set Point:	-0.041	X_WP:	0.000	Y_WP:	0.000	Y_WP:	0.500	X:	-0.014	Y:	-0.018	Z:	0.314	yaw:	2.331	yaw rate:	-7.240	Roll:	0.432	Pitch:	-0.535	Yaw:	1.359	Thrust:	57.248
Time:	3.704	Roll Set Point:	0.029	Pitch Set Point:	0.035	Yaw Set Point:	-0.041	X_WP:	0.000	Y_WP:	0.000	Y_WP:	0.500	X:	-0.014	Y:	-0.018	Z:	0.319	yaw:	2.369	yaw rate:	3.750	Roll:	-0.147	Pitch:	-0.588	Yaw:	3.939	Thrust:	75.599
Time:	3.715	Roll Set Point:	0.028	Pitch Set Point:	0.035	Yaw Set Point:	-0.037	X_WP:	0.000	Y_WP:	0.000	Y_WP:	0.500	X:	-0.014	Y:	-0.018	Z:	0.324	yaw:	2.112	yaw rate:	-25.671	Roll:	0.149	Pitch:	-0.662	Yaw:	-3.304	Thrust:	66.905
Time:	3.727	Roll Set Point:	0.028	Pitch Set Point:	0.036	Yaw Set Point:	-0.028	X_WP:	0.000	Y_WP:	0.000	Y_WP:	0.500	X:	-0.014	Y:	-0.018	Z:	0.329	yaw:	1.593	yaw rate:	-51.908	Roll:	-0.001	Pitch:	-1.075	Yaw:	-9.238	Thrust:	76.278
Time:	3.738	Roll Set Point:	0.027	Pitch Set Point:	0.036	Yaw Set Point:	-0.031	X_WP:	0.000	Y_WP:	0.000	Y_WP:	0.500	X:	-0.013	Y:	-0.018	Z:	0.334	yaw:	1.775	yaw rate:	18.175	Roll:	-0.050	Pitch:	-0.262	Yaw:	6.646	Thrust:	66.908
Time:	3.749	Roll Set Point:	0.026	Pitch Set Point:	0.036	Yaw Set Point:	-0.025	X_WP:	0.000	Y_WP:	0.000	Y_WP:	0.500	X:	-0.013	Y:	-0.018	Z:	0.338	yaw:	1.444	yaw rate:	-33.043	Roll:	0.323	Pitch:	-0.609	Yaw:	-5.964	Thrust:	66.928
Time:	3.760	Roll Set Point:	0.025	Pitch Set Point:	0.035	Yaw Set Point:	-0.032	X_WP:	0.000	Y_WP:	0.000	Y_WP:	0.500	X:	-0.012	Y:	-0.018	Z:	0.346	yaw:	1.817	yaw rate:	37.225	Roll:	0.327	Pitch:	-0.192	Yaw:	11.241	Thrust:	56.535
Time:	3.771	Roll Set Point:	0.024	Pitch Set Point:	0.035	Yaw Set Point:	-0.030	X_WP:	0.000	Y_WP:	0.000	Y_WP:	0.500	X:	-0.012	Y:	-0.018	Z:	0.350	yaw:	1.701	yaw rate:	-11.581	Roll:	0.070	Pitch:	-0.406	Yaw:	-0.501	Thrust:	66.535
Time:	3.782	Roll Set Point:	0.024	Pitch Set Point:	0.036	Yaw Set Point:	-0.027	X_WP:	0.000	Y_WP:	0.000	Y_WP:	0.500	X:	-0.012	Y:	-0.018	Z:	0.355	yaw:	1.573	yaw rate:	-12.800	Roll:	0.200	Pitch:	-0.890	Yaw:	-0.962	Thrust:	67.272
Time:	3.793	Roll Set Point:	0.023	Pitch Set Point:	0.035	Yaw Set Point:	-0.021	X_WP:	0.000	Y_WP:	0.000	Y_WP:	0.500	X:	-0.011	Y:	-0.018	Z:	0.360	yaw:	1.197	yaw rate:	-37.621	Roll:	0.408	Pitch:	-0.372	Yaw:	-7.368	Thrust:	65.586
Time:	3.805	Roll Set Point:	0.022	Pitch Set Point:	0.035	Yaw Set Point:	-0.021	X_WP:	0.000	Y_WP:	0.000	Y_WP:	0.500	X:	-0.011	Y:	-0.018	Z:	0.365	yaw:	1.180	yaw rate:	-1.697	Roll:	0.406	Pitch:	-0.301	Yaw:	1.153	Thrust:	71.956
Time:	3.816	Roll Set Point:	0.021	Pitch Set Point:	0.035	Yaw Set Point:	-0.027	X_WP:	0.000	Y_WP:	0.000	Y_WP:	0.500	X:	-0.010	Y:	-0.017	Z:	0.372	yaw:	1.523	yaw rate:	34.345	Roll:	0.238	Pitch:	-0.144	Yaw:	10.174	Thrust:	56.074
Time:	3.827	Roll Set Point:	0.020	Pitch Set Point:	0.034	Yaw Set Point:	-0.026	X_WP:	0.000	Y_WP:	0.000	Y_WP:	0.500	X:	-0.010	Y:	-0.017	Z:	0.377	yaw:	1.463	yaw rate:	-5.994	Roll:	0.441	Pitch:	-0.251	Yaw:	0.522	Thrust:	65.813
Time:	3.838	Roll Set Point:	0.019	Pitch Set Point:	0.034	Yaw Set Point:	-0.029	X_WP:	0.000	Y_WP:	0.000	Y_WP:	0.500	X:	-0.009	Y:	-0.017	Z:	0.382	yaw:	1.639	yaw rate:	17.605	Roll:	0.304	Pitch:	-0.362	Yaw:	6.365	Thrust:	66.468
Time:	3.850	Roll Set Point:	0.017	Pitch Set Point:	0.033	Yaw Set Point:	-0.017	X_WP:	0.000	Y_WP:	0.000	Y_WP:	0.500	X:	-0.008	Y:	-0.017	Z:	0.392	yaw:	0.983	yaw rate:	-35.320	Roll:	1.130	Pitch:	-0.089	Yaw:	-13.037	Thrust:	54.641
Time:	3.861	Roll Set Point:	0.016	Pitch Set Point:	0.033	Yaw Set Point:	-0.016	X_WP:	0.000	Y_WP:	0.000	Y_WP:	0.500	X:	-0.008	Y:	-0.017	Z:	0.399	yaw:	0.922	yaw rate:	-6.093	Roll:	0.577	Pitch:	-0.216	Yaw:	-0.242	Thrust:	55.528
Time:	3.872	Roll Set Point:	0.016	Pitch Set Point:	0.033	Yaw Set Point:	-0.016	X_WP:	0.000	Y_WP:	0.000	Y_WP:	0.500	X:	-0.008	Y:	-0.017	Z:	0.399	yaw:	0.922	yaw rate:	-6.093	Roll:	-0.305	Pitch:	-0.474	Yaw:	1.208	Thrust:	85.145
Time:	3.883	Roll Set Point:	0.015	Pitch Set Point:	0.033	Yaw Set Point:	-0.014	X_WP:	0.000	Y_WP:	0.000	Y_WP:	0.500	X:	-0.007	Y:	-0.016	Z:	0.404	yaw:	0.819	yaw rate:	-10.278	Roll:	0.583	Pitch:	-0.129	Yaw:	-1.371	Thrust:	64.953
Time:	3.894	Roll Set Point:	0.014	Pitch Set Point:	0.032	Yaw Set Point:	-0.014	X_WP:	0.000	Y_WP:	0.000	Y_WP:	0.500	X:	-0.007	Y:	-0.016	Z:	0.409	yaw:	0.802	yaw rate:	-1.749	Roll:	0.429	Pitch:	-0.124	Yaw:	0.632	Thrust:	65.104
Time:	3.905	Roll Set Point:	0.012	Pitch Set Point:	0.031	Yaw Set Point:	-0.014	X_WP:	0.000	Y_WP:	0.000	Y_WP:	0.500	X:	-0.006	Y:	-0.016	Z:	0.416	yaw:	0.809	yaw rate:	0.714	Roll:	1.373	Pitch:	0.246	Yaw:	1.229	Thrust:	55.237
Time:	3.916	Roll Set Point:	0.011	Pitch Set Point:	0.031	Yaw Set Point:	-0.011	X_WP:	0.000	Y_WP:	0.000	Y_WP:	0.500	X:	-0.005	Y:	-0.016	Z:	0.421	yaw:	0.622	yaw rate:	-18.716	Roll:	0.296	Pitch:	-0.362	Yaw:	-3.641	Thrust:	64.755
Time:	3.927	Roll Set Point:	0.010	Pitch Set Point:	0.031	Yaw Set Point:	0.001	X_WP:	0.000	Y_WP:	0.000	Y_WP:	0.500	X:	-0.005	Y:	-0.015	Z:	0.426	yaw:	-0.051	yaw rate:	-67.219	Roll:	0.852	Pitch:	-0.139	Yaw:	-16.087	Thrust:	65.043
Time:	3.938	Roll Set Point:	0.009	Pitch Set Point:	0.030	Yaw Set Point:	-0.006	X_WP:	0.000	Y_WP:	0.000	Y_WP:	0.500	X:	-0.004	Y:	-0.015	Z:	0.431	yaw:	0.360	yaw rate:	41.043	Roll:	0.339	Pitch:	0.008	Yaw:	10.182	Thrust:	64.480
Time:	3.949	Roll Set Point:	0.008	Pitch Set Point:	0.030	Yaw Set Point:	0.005	X_WP:	0.000	Y_WP:	0.000	Y_WP:	0.500	X:	-0.004	Y:	-0.015	Z:	0.435	yaw:	-0.263	yaw rate:	-62.273	Roll:	0.789	Pitch:	-0.182	Yaw:	-15.211	Thrust:	65.048
Time:	3.960	Roll Set Point:	0.007	Pitch Set Point:	0.029	Yaw Set Point:	-0.001	X_WP:	0.000	Y_WP:	0.000	Y_WP:	0.500	X:	-0.003	Y:	-0.015	Z:	0.440	yaw:	0.077	yaw rate:	34.005	Roll:	0.460	Pitch:	0.200	Yaw:	8.115	Thrust:	64.032
Time:	3.971	Roll Set Point:	0.005	Pitch Set Point:	0.028	Yaw Set Point:	-0.003	X_WP:	0.000	Y_WP:	0.000	Y_WP:	0.500	X:	-0.003	Y:	-0.014	Z:	0.447	yaw:	0.192	yaw rate:	11.440	Roll:	1.306	Pitch:	0.353	Yaw:	2.919	Thrust:	54.761
Time:	3.982	Roll Set Point:	0.004	Pitch Set Point:	0.028	Yaw Set Point:	0.008	X_WP:	0.000	Y_WP:	0.000	Y_WP:	0.500	X:	-0.002	Y:	-0.014	Z:	0.452	yaw:	-0.432	yaw rate:	-62.372	Roll:	0.551	Pitch:	-0.180	Yaw:	-15.471	Thrust:	63.891
Time:	3.993	Roll Set Point:	0.003	Pitch Set Point:	0.027	Yaw Set Point:	0.008	X_WP:	0.000	Y_WP:	0.000	Y_WP:	0.500	X:	-0.002	Y:	-0.014	Z:	0.457	yaw:	-0.431	yaw rate:	0.078	Roll:	0.719	Pitch:	0.133	Yaw:	-0.648	Thrust:	63.400
Time:	4.004	Roll Set Point:	0.002	Pitch Set Point:	0.026	Yaw Set Point:	0.002	X_WP:	0.000	Y_WP:	0.000	Y_WP:	0.500	X:	-0.001	Y:	-0.013	Z:	0.462	yaw:	-0.113	yaw rate:	31.858	Roll:	0.839	Pitch:	0.375	Yaw:	7.339	Thrust:	63.915
Time:	4.015	Roll Set Point:	0.001	Pitch Set Point:	0.025	Yaw Set Point:	0.000	X_WP:	0.000	Y_WP:	0.000	Y_WP:	0.500	X:	-0.000	Y:	-0.013	Z:	0.466	yaw:	-0.016	yaw rate:	9.699	Roll:	0.780	Pitch:	0.105	Yaw:	2.214	Thrust:	63.711
Time:	4.026	Roll Set Point:	-0.001	Pitch Set Point:	0.025	Yaw Set Point:	0.014	X_WP:	0.000	Y_WP:	0.000	Y_WP:	0.500	X:	0.000	Y:	-0.012	Z:	0.473	yaw:	-0.808	yaw rate:	-79.218	Roll:	1.301	Pitch:	0.344	Yaw:	-19.999	Thrust:	53.496
Time:	4.037	Roll Set Point:	-0.002	Pitch Set Point:	0.024	Yaw Set Point:	0.009	X_WP:	0.000	Y_WP:	0.000	Y_WP:	0.500	X:	0.001	Y:	-0.012	Z:	0.478	yaw:	-0.490	yaw rate:	31.774	Roll:	0.926	Pitch:	0.242	Yaw:	6.788	Thrust:	63.300
Time:	4.048	Roll Set Point:	-0.003	Pitch Set Point:	0.023	Yaw Set Point:	0.014	X_WP:	0.000	Y_WP:	0.000	Y_WP:	0.500	X:	0.001	Y:	-0.012	Z:	0.482	yaw:	-0.821	yaw rate:	-33.107	Roll:	0.794	Pitch:	-0.002	Yaw:	-9.077	Thrust:	63.555
Time:	4.059	Roll Set Point:	-0.004	Pitch Set Point:	0.022	Yaw Set Point:	0.007	X_WP:	0.000	Y_WP:	0.000	Y_WP:	0.500	X:	0.002	Y:	-0.011	Z:	0.487	yaw:	-0.415	yaw rate:	40.669	Roll:	0.730	Pitch:	0.421	Yaw:	8.980	Thrust:	63.346
Time:	4.071	Roll Set Point:	-0.005	Pitch Set Point:	0.022	Yaw Set Point:	0.015	X_WP:	0.000	Y_WP:	0.000	Y_WP:	0.500	X:	0.003	Y:	-0.011	Z:	0.491	yaw:	-0.878	yaw rate:	-46.363	Roll:	0.924	Pitch:	0.252	Yaw:	-12.136	Thrust:	64.318
Time:	4.082	Roll Set Point:	-0.007	Pitch Set Point:	0.020	Yaw Set Point:	0.012	X_WP:	0.000	Y_WP:	0.000	Y_WP:	0.500	X:	0.003	Y:	-0.010	Z:	0.498	yaw:	-0.677	yaw rate:	20.091	Roll:	1.267	Pitch:	0.808	Yaw:	3.752	Thrust:	53.999
Time:	4.093	Roll Set Point:	-0.008	Pitch Set Point:	0.019	Yaw Set Point:	0.011	X_WP:	0.000	Y_WP:	0.000	Y_WP:	0.500	X:	0.004	Y:	-0.010	Z:	0.502	yaw:	-0.655	yaw rate:	2.203	Roll:	0.946	Pitch:	0.337	Yaw:	-0.474	Thrust:	63.166
Time:	4.104	Roll Set Point:	-0.009	Pitch Set Point:	0.019	Yaw Set Point:	0.020	X_WP:	0.000	Y_WP:	0.000	Y_WP:	0.500	X:	0.005	Y:	-0.009	Z:	0.507	yaw:	-1.141	yaw rate:	-48.560	Roll:	0.939	Pitch:	0.277	Yaw:	-13.203	Thrust:	63.215
Time:	4.115	Roll Set Point:	-0.011	Pitch Set Point:	0.018	Yaw Set Point:	0.013	X_WP:	0.000	Y_WP:	0.000	Y_WP:	0.500	X:	0.005	Y:	-0.009	Z:	0.511	yaw:	-0.747	yaw rate:	39.396	Roll:	1.075	Pitch:	0.546	Yaw:	8.196	Thrust:	62.982
Time:	4.126	Roll Set Point:	-0.012	Pitch Set Point:	0.017	Yaw Set Point:	0.022	X_WP:	0.000	Y_WP:	0.000	Y_WP:	0.500	X:	0.006	Y:	-0.008	Z:	0.517	yaw:	-1.283	yaw rate:	-53.581	Roll:	1.516	Pitch:	0.612	Yaw:	-14.603	Thrust:	53.700
Time:	4.137	Roll Set Point:	-0.013	Pitch Set Point:	0.016	Yaw Set Point:	0.024	X_WP:	0.000	Y_WP:	0.000	Y_WP:	0.500	X:	0.007	Y:	-0.008	Z:	0.521	yaw:	-1.350	yaw rate:	-6.736	Roll:	0.876	Pitch:	0.410	Yaw:	-3.581	Thrust:	63.252
Time:	4.148	Roll Set Point:	-0.015	Pitch Set Point:	0.015	Yaw Set Point:	0.012	X_WP:	0.000	Y_WP:	0.000	Y_WP:	0.500	X:	0.007	Y:	-0.007	Z:	0.525	yaw:	-0.704	yaw rate:	64.653	Roll:	1.081	Pitch:	0.656	Yaw:	14.300	Thrust:	62.792
Time:	4.160	Roll Set Point:	-0.016	Pitch Set Point:	0.014	Yaw Set Point:	0.020	X_WP:	0.000	Y_WP:	0.000	Y_WP:	0.500	X:	0.008	Y:	-0.007	Z:	0.529	yaw:	-1.140	yaw rate:	-43.694	Roll:	0.975	Pitch:	0.507	Yaw:	-11.317	Thrust:	70.614
Time:	4.171	Roll Set Point:	-0.017	Pitch Set Point:	0.013	Yaw Set Point:	0.025	X_WP:	0.000	Y_WP:	0.000	Y_WP:	0.500	X:	0.009	Y:	-0.006	Z:	0.535	yaw:	-1.434	yaw rate:	-29.314	Roll:	1.526	Pitch:	0.665	Yaw:	-9.072	Thrust:	54.809
Time:	4.183	Roll Set Point:	-0.020	Pitch Set Point:	0.011	Yaw Set Point:	0.023	X_WP:	0.000	Y_WP:	0.000	Y_WP:	0.500	X:	0.010	Y:	-0.005	Z:	0.543	yaw:	-1.299	yaw rate:	-33.575	Roll:	1.799	Pitch:	1.336	Yaw:	1.002	Thrust:	57.858
Time:	4.194	Roll Set Point:	-0.021	Pitch Set Point:	0.010	Yaw Set Point:	0.029	X_WP:	0.000	Y_WP:	0.000	Y_WP:	0.500	X:	0.010	Y:	-0.005	Z:	0.546	yaw:	-1.635	yaw rate:	-33.655	Roll:	1.075	Pitch:	0.543	Yaw:	-10.375	Thrust:	63.984
Time:	4.205	Roll Set Point:	-0.021	Pitch Set Point:	0.010	Yaw Set Point:	0.029	X_WP:	0.000	Y_WP:	0.000	Y_WP:	0.500	X:	0.010	Y:	-0.005	Z:	0.546	yaw:	-1.635	yaw rate:	-33.655	Roll:	0.231	Pitch:	-0.142	Yaw:	-2.409	Thrust:	78.111
Time:	4.216	Roll Set Point:	-0.023	Pitch Set Point:	0.008	Yaw Set Point:	0.022	X_WP:	0.000	Y_WP:	0.000	Y_WP:	0.500	X:	0.011	Y:	-0.004	Z:	0.552	yaw:	-1.286	yaw rate:	34.974	Roll:	1.673	Pitch:	1.060	Yaw:	6.377	Thrust:	55.881
Time:	4.227	Roll Set Point:	-0.024	Pitch Set Point:	0.007	Yaw Set Point:	0.023	X_WP:	0.000	Y_WP:	0.000	Y_WP:	0.500	X:	0.012	Y:	-0.004	Z:	0.555	yaw:	-1.343	yaw rate:	-5.774	Roll:	1.038	Pitch:	0.648	Yaw:	-3.383	Thrust:	64.039
Time:	4.238	Roll Set Point:	-0.025	Pitch Set Point:	0.006	Yaw Set Point:	0.022	X_WP:	0.000	Y_WP:	0.000	Y_WP:	0.500	X:	0.012	Y:	-0.003	Z:	0.558	yaw:	-1.282	yaw rate:	6.140	Roll:	1.234	Pitch:	0.654	Yaw:	-0.475	Thrust:	63.416
Time:	4.249	Roll Set Point:	-0.026	Pitch Set Point:	0.006	Yaw Set Point:	0.026	X_WP:	0.000	Y_WP:	0.000	Y_WP:	0.500	X:	0.013	Y:	-0.003	Z:	0.562	yaw:	-1.491	yaw rate:	-20.947	Roll:	1.052	Pitch:	0.403	Yaw:	-7.211	Thrust:	63.618
Time:	4.260	Roll Set Point:	-0.027	Pitch Set Point:	0.005	Yaw Set Point:	0.020	X_WP:	0.000	Y_WP:	0.000	Y_WP:	0.500	X:	0.014	Y:	-0.002	Z:	0.565	yaw:	-1.156	yaw rate:	33.515	Roll:	1.360	Pitch:	0.755	Yaw:	6.187	Thrust:	63.551
Time:	4.272	Roll Set Point:	-0.030	Pitch Set Point:	0.002	Yaw Set Point:	0.025	X_WP:	0.000	Y_WP:	0.000	Y_WP:	0.500	X:	0.015	Y:	-0.001	Z:	0.573	yaw:	-1.448	yaw rate:	9.228	Roll:	2.352	Pitch:	1.690	Yaw:	-8.535	Thrust:	54.193
Time:	4.284	Roll Set Point:	-0.031	Pitch Set Point:	0.001	Yaw Set Point:	0.019	X_WP:	0.000	Y_WP:	0.000	Y_WP:	0.500	X:	0.016	Y:	-0.001	Z:	0.576	yaw:	-1.070	yaw rate:	37.846	Roll:	1.068	Pitch:	0.575	Yaw:	6.582	Thrust:	71.994
Time:	4.295	Roll Set Point:	-0.032	Pitch Set Point:	0.001	Yaw Set Point:	0.019	X_WP:	0.000	Y_WP:	0.000	Y_WP:	0.500	X:	0.016	Y:	-0.000	Z:	0.579	yaw:	-1.113	yaw rate:	-4.323	Roll:	1.252	Pitch:	0.555	Yaw:	-2.747	Thrust:	63.615
Time:	4.306	Roll Set Point:	-0.033	Pitch Set Point:	-0.000	Yaw Set Point:	0.029	X_WP:	0.000	Y_WP:	0.000	Y_WP:	0.500	X:	0.017	Y:	-0.000	Z:	0.582	yaw:	-1.667	yaw rate:	-55.352	Roll:	1.075	Pitch:	0.774	Yaw:	-15.637	Thrust:	63.009
Time:	4.317	Roll Set Point:	-0.035	Pitch Set Point:	-0.002	Yaw Set Point:	0.025	X_WP:	0.000	Y_WP:	0.000	Y_WP:	0.500	X:	0.017	Y:	0.001	Z:	0.586	yaw:	-1.446	yaw rate:	22.090	Roll:	1.694	Pitch:	1.024	Yaw:	3.035	Thrust:	57.089
Time:	4.328	Roll Set Point:	-0.036	Pitch Set Point:	-0.002	Yaw Set Point:	0.031	X_WP:	0.000	Y_WP:	0.000	Y_WP:	0.500	X:	0.018	Y:	0.001	Z:	0.589	yaw:	-1.786	yaw rate:	-34.069	Roll:	1.175	Pitch:	0.836	Yaw:	-10.764	Thrust:	63.173
Time:	4.339	Roll Set Point:	-0.037	Pitch Set Point:	-0.003	Yaw Set Point:	0.020	X_WP:	0.000	Y_WP:	0.000	Y_WP:	0.500	X:	0.018	Y:	0.001	Z:	0.592	yaw:	-1.154	yaw rate:	63.281	Roll:	1.406	Pitch:	0.465	Yaw:	13.219	Thrust:	63.388
Time:	4.350	Roll Set Point:	-0.038	Pitch Set Point:	-0.004	Yaw Set Point:	0.023	X_WP:	0.000	Y_WP:	0.000	Y_WP:	0.500	X:	0.019	Y:	0.002	Z:	0.594	yaw:	-1.296	yaw rate:	-14.218	Roll:	1.125	Pitch:	0.770	Yaw:	-5.380	Thrust:	62.719
Time:	4.361	Roll Set Point:	-0.039	Pitch Set Point:	-0.005	Yaw Set Point:	0.024	X_WP:	0.000	Y_WP:	0.000	Y_WP:	0.500	X:	0.019	Y:	0.002	Z:	0.597	yaw:	-1.352	yaw rate:	-5.637	Roll:	1.136	Pitch:	0.709	Yaw:	-3.428	Thrust:	62.895
Time:	4.372	Roll Set Point:	-0.040	Pitch Set Point:	-0.006	Yaw Set Point:	0.022	X_WP:	0.000	Y_WP:	0.000	Y_WP:	0.500	X:	0.020	Y:	0.003	Z:	0.601	yaw:	-1.239	yaw rate:	11.317	Roll:	1.723	Pitch:	0.909	Yaw:	0.746	Thrust:	57.502
Time:	4.383	Roll Set Point:	-0.041	Pitch Set Point:	-0.007	Yaw Set Point:	0.022	X_WP:	0.000	Y_WP:	0.000	Y_WP:	0.500	X:	0.021	Y:	0.003	Z:	0.604	yaw:	-1.262	yaw rate:	-2.354	Roll:	1.176	Pitch:	0.711	Yaw:	-2.532	Thrust:	62.328
Time:	4.394	Roll Set Point:	-0.042	Pitch Set Point:	-0.007	Yaw Set Point:	0.026	X_WP:	0.000	Y_WP:	0.000	Y_WP:	0.500	X:	0.021	Y:	0.003	Z:	0.606	yaw:	-1.470	yaw rate:	-20.726	Roll:	1.157	Pitch:	0.684	Yaw:	-7.186	Thrust:	62.455
Time:	4.406	Roll Set Point:	-0.043	Pitch Set Point:	-0.008	Yaw Set Point:	0.031	X_WP:	0.000	Y_WP:	0.000	Y_WP:	0.500	X:	0.021	Y:	0.004	Z:	0.609	yaw:	-1.750	yaw rate:	-27.991	Roll:	1.063	Pitch:	0.790	Yaw:	-8.793	Thrust:	70.179
Time:	4.417	Roll Set Point:	-0.044	Pitch Set Point:	-0.009	Yaw Set Point:	0.021	X_WP:	0.000	Y_WP:	0.000	Y_WP:	0.500	X:	0.022	Y:	0.004	Z:	0.613	yaw:	-1.192	yaw rate:	55.738	Roll:	1.614	Pitch:	0.547	Yaw:	11.338	Thrust:	57.770
Time:	4.428	Roll Set Point:	-0.045	Pitch Set Point:	-0.010	Yaw Set Point:	0.026	X_WP:	0.000	Y_WP:	0.000	Y_WP:	0.500	X:	0.022	Y:	0.005	Z:	0.615	yaw:	-1.490	yaw rate:	-29.734	Roll:	1.179	Pitch:	0.831	Yaw:	-9.352	Thrust:	62.515
Time:	4.439	Roll Set Point:	-0.045	Pitch Set Point:	-0.010	Yaw Set Point:	0.030	X_WP:	0.000	Y_WP:	0.000	Y_WP:	0.500	X:	0.023	Y:	0.005	Z:	0.617	yaw:	-1.741	yaw rate:	-25.117	Roll:	1.074	Pitch:	0.669	Yaw:	-8.644	Thrust:	61.940
Time:	4.450	Roll Set Point:	-0.046	Pitch Set Point:	-0.011	Yaw Set Point:	0.024	X_WP:	0.000	Y_WP:	0.000	Y_WP:	0.500	X:	0.023	Y:	0.005	Z:	0.620	yaw:	-1.350	yaw rate:	39.030	Roll:	1.335	Pitch:	0.608	Yaw:	7.110	Thrust:	62.274
Time:	4.461	Roll Set Point:	-0.047	Pitch Set Point:	-0.012	Yaw Set Point:	0.027	X_WP:	0.000	Y_WP:	0.000	Y_WP:	0.500	X:	0.023	Y:	0.006	Z:	0.622	yaw:	-1.539	yaw rate:	-18.844	Roll:	0.986	Pitch:	0.755	Yaw:	-6.882	Thrust:	61.906
Time:	4.473	Roll Set Point:	-0.047	Pitch Set Point:	-0.012	Yaw Set Point:	0.031	X_WP:	0.000	Y_WP:	0.000	Y_WP:	0.500	X:	0.024	Y:	0.006	Z:	0.624	yaw:	-1.788	yaw rate:	-24.869	Roll:	1.061	Pitch:	0.430	Yaw:	-8.654	Thrust:	62.927
Time:	4.484	Roll Set Point:	-0.049	Pitch Set Point:	-0.013	Yaw Set Point:	0.023	X_WP:	0.000	Y_WP:	0.000	Y_WP:	0.500	X:	0.024	Y:	0.006	Z:	0.627	yaw:	-1.305	yaw rate:	48.206	Roll:	1.768	Pitch:	0.808	Yaw:	9.334	Thrust:	57.626
Time:	4.495	Roll Set Point:	-0.049	Pitch Set Point:	-0.013	Yaw Set Point:	0.031	X_WP:	0.000	Y_WP:	0.000	Y_WP:	0.500	X:	0.025	Y:	0.006	Z:	0.629	yaw:	-1.802	yaw rate:	-49.663	Roll:	0.688	Pitch:	0.738	Yaw:	-14.575	Thrust:	61.816
Time:	4.506	Roll Set Point:	-0.050	Pitch Set Point:	-0.014	Yaw Set Point:	0.032	X_WP:	0.000	Y_WP:	0.000	Y_WP:	0.500	X:	0.025	Y:	0.007	Z:	0.631	yaw:	-1.810	yaw rate:	-0.768	Roll:	1.077	Pitch:	0.649	Yaw:	-2.983	Thrust:	62.686
Time:	4.517	Roll Set Point:	-0.050	Pitch Set Point:	-0.014	Yaw Set Point:	0.022	X_WP:	0.000	Y_WP:	0.000	Y_WP:	0.500	X:	0.025	Y:	0.007	Z:	0.633	yaw:	-1.251	yaw rate:	55.867	Roll:	1.349	Pitch:	0.330	Yaw:	11.232	Thrust:	61.897
Time:	4.528	Roll Set Point:	-0.051	Pitch Set Point:	-0.015	Yaw Set Point:	0.026	X_WP:	0.000	Y_WP:	0.000	Y_WP:	0.500	X:	0.026	Y:	0.007	Z:	0.636	yaw:	-1.495	yaw rate:	-24.422	Roll:	1.125	Pitch:	0.811	Yaw:	-8.159	Thrust:	58.063
Time:	4.539	Roll Set Point:	-0.051	Pitch Set Point:	-0.015	Yaw Set Point:	0.031	X_WP:	0.000	Y_WP:	0.000	Y_WP:	0.500	X:	0.026	Y:	0.007	Z:	0.638	yaw:	-1.786	yaw rate:	-29.106	Roll:	0.823	Pitch:	0.587	Yaw:	-9.694	Thrust:	62.584
Time:	4.550	Roll Set Point:	-0.052	Pitch Set Point:	-0.016	Yaw Set Point:	0.020	X_WP:	0.000	Y_WP:	0.000	Y_WP:	0.500	X:	0.026	Y:	0.008	Z:	0.639	yaw:	-1.146	yaw rate:	64.032	Roll:	1.540	Pitch:	0.463	Yaw:	13.334	Thrust:	61.586
Time:	4.561	Roll Set Point:	-0.052	Pitch Set Point:	-0.016	Yaw Set Point:	0.026	X_WP:	0.000	Y_WP:	0.000	Y_WP:	0.500	X:	0.026	Y:	0.008	Z:	0.641	yaw:	-1.474	yaw rate:	-32.808	Roll:	0.836	Pitch:	0.739	Yaw:	-10.150	Thrust:	61.745
Time:	4.572	Roll Set Point:	-0.053	Pitch Set Point:	-0.017	Yaw Set Point:	0.029	X_WP:	0.000	Y_WP:	0.000	Y_WP:	0.500	X:	0.027	Y:	0.008	Z:	0.643	yaw:	-1.645	yaw rate:	-17.078	Roll:	0.997	Pitch:	0.671	Yaw:	-6.650	Thrust:	62.069
Time:	4.583	Roll Set Point:	-0.053	Pitch Set Point:	-0.017	Yaw Set Point:	0.027	X_WP:	0.000	Y_WP:	0.000	Y_WP:	0.500	X:	0.027	Y:	0.008	Z:	0.645	yaw:	-1.527	yaw rate:	11.802	Roll:	1.126	Pitch:	0.336	Yaw:	0.355	Thrust:	59.365
Time:	4.594	Roll Set Point:	-0.054	Pitch Set Point:	-0.017	Yaw Set Point:	0.032	X_WP:	0.000	Y_WP:	0.000	Y_WP:	0.500	X:	0.027	Y:	0.008	Z:	0.646	yaw:	-1.830	yaw rate:	-30.329	Roll:	0.885	Pitch:	0.766	Yaw:	-9.725	Thrust:	66.088
Time:	4.605	Roll Set Point:	-0.054	Pitch Set Point:	-0.018	Yaw Set Point:	0.032	X_WP:	0.000	Y_WP:	0.000	Y_WP:	0.500	X:	0.027	Y:	0.008	Z:	0.648	yaw:	-1.824	yaw rate:	0.592	Roll:	1.037	Pitch:	0.373	Yaw:	-2.735	Thrust:	62.455
Time:	4.617	Roll Set Point:	-0.055	Pitch Set Point:	-0.018	Yaw Set Point:	0.022	X_WP:	0.000	Y_WP:	0.000	Y_WP:	0.500	X:	0.027	Y:	0.009	Z:	0.649	yaw:	-1.265	yaw rate:	55.957	Roll:	1.322	Pitch:	0.332	Yaw:	11.181	Thrust:	61.895
Time:	4.628	Roll Set Point:	-0.055	Pitch Set Point:	-0.018	Yaw Set Point:	0.025	X_WP:	0.000	Y_WP:	0.000	Y_WP:	0.500	X:	0.028	Y:	0.009	Z:	0.651	yaw:	-1.433	yaw rate:	-16.792	Roll:	0.863	Pitch:	0.656	Yaw:	-6.316	Thrust:	59.618
Time:	4.639	Roll Set Point:	-0.055	Pitch Set Point:	-0.019	Yaw Set Point:	0.026	X_WP:	0.000	Y_WP:	0.000	Y_WP:	0.500	X:	0.028	Y:	0.009	Z:	0.651	yaw:	-1.476	yaw rate:	-4.367	Roll:	0.837	Pitch:	0.480	Yaw:	-3.443	Thrust:	63.929
Time:	4.650	Roll Set Point:	-0.056	Pitch Set Point:	-0.019	Yaw Set Point:	0.020	X_WP:	0.000	Y_WP:	0.000	Y_WP:	0.500	X:	0.028	Y:	0.009	Z:	0.653	yaw:	-1.125	yaw rate:	35.131	Roll:	1.374	Pitch:	0.277	Yaw:	6.439	Thrust:	60.022
Time:	4.661	Roll Set Point:	-0.056	Pitch Set Point:	-0.019	Yaw Set Point:	0.035	X_WP:	0.000	Y_WP:	0.000	Y_WP:	0.500	X:	0.028	Y:	0.009	Z:	0.654	yaw:	-2.007	yaw rate:	-88.178	Roll:	0.468	Pitch:	0.997	Yaw:	-24.088	Thrust:	61.341
Time:	4.672	Roll Set Point:	-0.056	Pitch Set Point:	-0.019	Yaw Set Point:	0.030	X_WP:	0.000	Y_WP:	0.000	Y_WP:	0.500	X:	0.028	Y:	0.009	Z:	0.655	yaw:	-1.693	yaw rate:	31.404	Roll:	1.001	Pitch:	0.252	Yaw:	4.709	Thrust:	61.979
Time:	4.683	Roll Set Point:	-0.056	Pitch Set Point:	-0.020	Yaw Set Point:	0.022	X_WP:	0.000	Y_WP:	0.000	Y_WP:	0.500	X:	0.028	Y:	0.010	Z:	0.656	yaw:	-1.265	yaw rate:	42.827	Roll:	1.327	Pitch:	0.388	Yaw:	8.056	Thrust:	61.740
Time:	4.694	Roll Set Point:	-0.056	Pitch Set Point:	-0.020	Yaw Set Point:	0.027	X_WP:	0.000	Y_WP:	0.000	Y_WP:	0.500	X:	0.028	Y:	0.010	Z:	0.657	yaw:	-1.557	yaw rate:	-29.223	Roll:	0.680	Pitch:	0.610	Yaw:	-9.484	Thrust:	59.799
Time:	4.705	Roll Set Point:	-0.057	Pitch Set Point:	-0.020	Yaw Set Point:	0.022	X_WP:	0.000	Y_WP:	0.000	Y_WP:	0.500	X:	0.028	Y:	0.010	Z:	0.658	yaw:	-1.234	yaw rate:	32.234	Roll:	1.090	Pitch:	0.213	Yaw:	5.547	Thrust:	61.477
Time:	4.716	Roll Set Point:	-0.057	Pitch Set Point:	-0.020	Yaw Set Point:	0.020	X_WP:	0.000	Y_WP:	0.000	Y_WP:	0.500	X:	0.029	Y:	0.010	Z:	0.659	yaw:	-1.124	yaw rate:	11.063	Roll:	1.059	Pitch:	0.355	Yaw:	0.672	Thrust:	62.168
Time:	4.727	Roll Set Point:	-0.057	Pitch Set Point:	-0.020	Yaw Set Point:	0.035	X_WP:	0.000	Y_WP:	0.000	Y_WP:	0.500	X:	0.028	Y:	0.010	Z:	0.660	yaw:	-1.979	yaw rate:	-85.531	Roll:	0.238	Pitch:	0.859	Yaw:	-23.455	Thrust:	61.833
Time:	4.738	Roll Set Point:	-0.057	Pitch Set Point:	-0.020	Yaw Set Point:	0.031	X_WP:	0.000	Y_WP:	0.000	Y_WP:	0.500	X:	0.028	Y:	0.010	Z:	0.660	yaw:	-1.790	yaw rate:	18.869	Roll:	0.793	Pitch:	0.175	Yaw:	1.582	Thrust:	61.590
Time:	4.749	Roll Set Point:	-0.057	Pitch Set Point:	-0.021	Yaw Set Point:	0.030	X_WP:	0.000	Y_WP:	0.000	Y_WP:	0.500	X:	0.029	Y:	0.010	Z:	0.661	yaw:	-1.747	yaw rate:	4.296	Roll:	0.964	Pitch:	0.714	Yaw:	-1.824	Thrust:	60.190
Time:	4.760	Roll Set Point:	-0.057	Pitch Set Point:	-0.021	Yaw Set Point:	0.023	X_WP:	0.000	Y_WP:	0.000	Y_WP:	0.500	X:	0.029	Y:	0.010	Z:	0.662	yaw:	-1.323	yaw rate:	42.491	Roll:	0.963	Pitch:	-0.071	Yaw:	7.829	Thrust:	62.150
Time:	4.772	Roll Set Point:	-0.058	Pitch Set Point:	-0.021	Yaw Set Point:	0.021	X_WP:	0.000	Y_WP:	0.000	Y_WP:	0.500	X:	0.029	Y:	0.010	Z:	0.662	yaw:	-1.178	yaw rate:	14.442	Roll:	1.191	Pitch:	0.493	Yaw:	1.043	Thrust:	68.143
Time:	4.783	Roll Set Point:	-0.057	Pitch Set Point:	-0.021	Yaw Set Point:	0.033	X_WP:	0.000	Y_WP:	0.000	Y_WP:	0.500	X:	0.029	Y:	0.010	Z:	0.663	yaw:	-1.876	yaw rate:	-69.810	Roll:	0.496	Pitch:	0.801	Yaw:	-19.610	Thrust:	61.251
Time:	4.794	Roll Set Point:	-0.057	Pitch Set Point:	-0.021	Yaw Set Point:	0.023	X_WP:	0.000	Y_WP:	0.000	Y_WP:	0.500	X:	0.029	Y:	0.010	Z:	0.663	yaw:	-1.290	yaw rate:	58.571	Roll:	0.972	Pitch:	-0.016	Yaw:	11.675	Thrust:	62.103
Time:	4.805	Roll Set Point:	-0.058	Pitch Set Point:	-0.021	Yaw Set Point:	0.021	X_WP:	0.000	Y_WP:	0.000	Y_WP:	0.500	X:	0.029	Y:	0.010	Z:	0.664	yaw:	-1.206	yaw rate:	8.452	Roll:	1.023	Pitch:	0.508	Yaw:	-0.110	Thrust:	61.438
Time:	4.816	Roll Set Point:	-0.057	Pitch Set Point:	-0.021	Yaw Set Point:	0.024	X_WP:	0.000	Y_WP:	0.000	Y_WP:	0.500	X:	0.029	Y:	0.010	Z:	0.664	yaw:	-1.380	yaw rate:	-17.441	Roll:	0.535	Pitch:	0.440	Yaw:	-6.505	Thrust:	61.623
Time:	4.827	Roll Set Point:	-0.057	Pitch Set Point:	-0.021	Yaw Set Point:	0.023	X_WP:	0.000	Y_WP:	0.000	Y_WP:	0.500	X:	0.029	Y:	0.010	Z:	0.664	yaw:	-1.306	yaw rate:	7.473	Roll:	0.695	Pitch:	0.174	Yaw:	-0.492	Thrust:	62.032
Time:	4.839	Roll Set Point:	-0.057	Pitch Set Point:	-0.021	Yaw Set Point:	0.020	X_WP:	0.000	Y_WP:	0.000	Y_WP:	0.500	X:	0.029	Y:	0.010	Z:	0.664	yaw:	-1.152	yaw rate:	15.391	Roll:	0.781	Pitch:	0.283	Yaw:	1.427	Thrust:	64.869
Time:	4.850	Roll Set Point:	-0.057	Pitch Set Point:	-0.021	Yaw Set Point:	0.022	X_WP:	0.000	Y_WP:	0.000	Y_WP:	0.500	X:	0.029	Y:	0.010	Z:	0.664	yaw:	-1.252	yaw rate:	-10.045	Roll:	0.824	Pitch:	0.500	Yaw:	-4.585	Thrust:	61.201
Time:	4.861	Roll Set Point:	-0.057	Pitch Set Point:	-0.021	Yaw Set Point:	0.026	X_WP:	0.000	Y_WP:	0.000	Y_WP:	0.500	X:	0.029	Y:	0.010	Z:	0.664	yaw:	-1.482	yaw rate:	-23.031	Roll:	0.553	Pitch:	0.445	Yaw:	-7.994	Thrust:	62.143
Time:	4.872	Roll Set Point:	-0.057	Pitch Set Point:	-0.021	Yaw Set Point:	0.019	X_WP:	0.000	Y_WP:	0.000	Y_WP:	0.500	X:	0.029	Y:	0.010	Z:	0.664	yaw:	-1.099	yaw rate:	38.321	Roll:	0.898	Pitch:	-0.022	Yaw:	7.076	Thrust:	61.986
Time:	4.883	Roll Set Point:	-0.057	Pitch Set Point:	-0.021	Yaw Set Point:	0.021	X_WP:	0.000	Y_WP:	0.000	Y_WP:	0.500	X:	0.029	Y:	0.010	Z:	0.664	yaw:	-1.223	yaw rate:	-12.387	Roll:	0.627	Pitch:	0.487	Yaw:	-5.116	Thrust:	61.427
Time:	4.894	Roll Set Point:	-0.057	Pitch Set Point:	-0.021	Yaw Set Point:	0.024	X_WP:	0.000	Y_WP:	0.000	Y_WP:	0.500	X:	0.028	Y:	0.010	Z:	0.664	yaw:	-1.393	yaw rate:	-17.000	Roll:	0.569	Pitch:	0.406	Yaw:	-6.425	Thrust:	62.352
Time:	4.906	Roll Set Point:	-0.057	Pitch Set Point:	-0.021	Yaw Set Point:	0.020	X_WP:	0.000	Y_WP:	0.000	Y_WP:	0.500	X:	0.029	Y:	0.010	Z:	0.664	yaw:	-1.148	yaw rate:	24.501	Roll:	1.050	Pitch:	0.129	Yaw:	3.638	Thrust:	62.285
Time:	4.917	Roll Set Point:	-0.057	Pitch Set Point:	-0.021	Yaw Set Point:	0.018	X_WP:	0.000	Y_WP:	0.000	Y_WP:	0.500	X:	0.029	Y:	0.010	Z:	0.664	yaw:	-1.009	yaw rate:	13.941	Roll:	0.862	Pitch:	0.216	Yaw:	1.100	Thrust:	67.985
Time:	4.928	Roll Set Point:	-0.056	Pitch Set Point:	-0.021	Yaw Set Point:	0.023	X_WP:	0.000	Y_WP:	0.000	Y_WP:	0.500	X:	0.028	Y:	0.010	Z:	0.663	yaw:	-1.306	yaw rate:	-29.759	Roll:	0.116	Pitch:	0.427	Yaw:	-9.362	Thrust:	62.559
Time:	4.940	Roll Set Point:	-0.056	Pitch Set Point:	-0.021	Yaw Set Point:	0.021	X_WP:	0.000	Y_WP:	0.000	Y_WP:	0.500	X:	0.028	Y:	0.010	Z:	0.663	yaw:	-1.190	yaw rate:	11.634	Roll:	0.932	Pitch:	0.348	Yaw:	0.340	Thrust:	61.390
Time:	4.951	Roll Set Point:	-0.056	Pitch Set Point:	-0.021	Yaw Set Point:	0.032	X_WP:	0.000	Y_WP:	0.000	Y_WP:	0.500	X:	0.028	Y:	0.010	Z:	0.663	yaw:	-1.840	yaw rate:	-65.021	Roll:	0.249	Pitch:	0.527	Yaw:	-18.498	Thrust:	67.960
Time:	4.962	Roll Set Point:	-0.056	Pitch Set Point:	-0.021	Yaw Set Point:	0.024	X_WP:	0.000	Y_WP:	0.000	Y_WP:	0.500	X:	0.028	Y:	0.010	Z:	0.662	yaw:	-1.371	yaw rate:	46.936	Roll:	0.827	Pitch:	-0.142	Yaw:	8.701	Thrust:	61.987
Time:	4.973	Roll Set Point:	-0.056	Pitch Set Point:	-0.021	Yaw Set Point:	0.018	X_WP:	0.000	Y_WP:	0.000	Y_WP:	0.500	X:	0.028	Y:	0.010	Z:	0.662	yaw:	-1.006	yaw rate:	36.528	Roll:	0.845	Pitch:	0.101	Yaw:	6.778	Thrust:	62.265
Time:	4.984	Roll Set Point:	-0.055	Pitch Set Point:	-0.020	Yaw Set Point:	0.018	X_WP:	0.000	Y_WP:	0.000	Y_WP:	0.500	X:	0.028	Y:	0.010	Z:	0.661	yaw:	-1.027	yaw rate:	-2.183	Roll:	0.525	Pitch:	0.113	Yaw:	-2.464	Thrust:	61.216
Time:	4.996	Roll Set Point:	-0.055	Pitch Set Point:	-0.020	Yaw Set Point:	0.029	X_WP:	0.000	Y_WP:	0.000	Y_WP:	0.500	X:	0.027	Y:	0.010	Z:	0.661	yaw:	-1.677	yaw rate:	-64.920	Roll:	0.125	Pitch:	0.469	Yaw:	-17.054	Thrust:	68.035
Time:	5.007	Roll Set Point:	-0.055	Pitch Set Point:	-0.020	Yaw Set Point:	0.018	X_WP:	0.000	Y_WP:	0.000	Y_WP:	0.500	X:	0.028	Y:	0.010	Z:	0.660	yaw:	-1.033	yaw rate:	64.368	Roll:	1.015	Pitch:	-0.030	Yaw:	13.316	Thrust:	61.114
