Time:	2.200	Roll Set Point:	-2.129	Pitch Set Point:	0.749	Yaw Set Point:	0.727	X_WP:	0.000	Y_WP:	0.000	Y_WP:	0.500	X:	0.922	Y:	-0.779	Z:	0.040	yaw:	-41.642	yaw rate:	-0.267	Roll:	30.000	Pitch:	0.883	Yaw:	-58.143	Thrust:	25.286
Time:	2.222	Roll Set Point:	-2.129	Pitch Set Point:	0.748	Yaw Set Point:	0.727	X_WP:	0.000	Y_WP:	0.000	Y_WP:	0.500	X:	0.922	Y:	-0.779	Z:	0.040	yaw:	-41.660	yaw rate:	-1.783	Roll:	30.000	Pitch:	1.182	Yaw:	-58.699	Thrust:	26.490
Time:	2.244	Roll Set Point:	-2.129	Pitch Set Point:	0.749	Yaw Set Point:	0.727	X_WP:	0.000	Y_WP:	0.000	Y_WP:	0.500	X:	0.922	Y:	-0.779	Z:	0.040	yaw:	-41.635	yaw rate:	3.588	Roll:	30.000	Pitch:	0.464	Yaw:	-58.466	Thrust:	27.643
Time:	2.270	Roll Set Point:	-2.129	Pitch Set Point:	0.748	Yaw Set Point:	0.727	X_WP:	0.000	Y_WP:	0.000	Y_WP:	0.500	X:	0.922	Y:	-0.779	Z:	0.040	yaw:	-41.668	yaw rate:	-3.276	Roll:	30.000	Pitch:	1.351	Yaw:	-59.645	Thrust:	29.631
Time:	2.289	Roll Set Point:	-2.129	Pitch Set Point:	0.749	Yaw Set Point:	0.727	X_WP:	0.000	Y_WP:	0.000	Y_WP:	0.500	X:	0.922	Y:	-0.779	Z:	0.040	yaw:	-41.647	yaw rate:	1.806	Roll:	30.000	Pitch:	0.504	Yaw:	-59.015	Thrust:	29.603
Time:	2.309	Roll Set Point:	-2.129	Pitch Set Point:	0.749	Yaw Set Point:	0.727	X_WP:	0.000	Y_WP:	0.000	Y_WP:	0.500	X:	0.922	Y:	-0.779	Z:	0.040	yaw:	-41.656	yaw rate:	-0.896	Roll:	30.000	Pitch:	1.069	Yaw:	-59.742	Thrust:	30.832
Time:	2.332	Roll Set Point:	-2.129	Pitch Set Point:	0.748	Yaw Set Point:	0.727	X_WP:	0.000	Y_WP:	0.000	Y_WP:	0.500	X:	0.922	Y:	-0.779	Z:	0.040	yaw:	-41.658	yaw rate:	3.868	Roll:	30.000	Pitch:	0.947	Yaw:	-60.124	Thrust:	32.617
Time:	2.352	Roll Set Point:	-2.129	Pitch Set Point:	0.748	Yaw Set Point:	0.727	X_WP:	0.000	Y_WP:	0.000	Y_WP:	0.500	X:	0.922	Y:	-0.779	Z:	0.040	yaw:	-41.676	yaw rate:	-1.748	Roll:	30.000	Pitch:	1.237	Yaw:	-60.466	Thrust:	33.059
Time:	2.373	Roll Set Point:	-2.129	Pitch Set Point:	0.748	Yaw Set Point:	0.727	X_WP:	0.000	Y_WP:	0.000	Y_WP:	0.500	X:	0.922	Y:	-0.779	Z:	0.040	yaw:	-41.674	yaw rate:	0.195	Roll:	30.000	Pitch:	0.882	Yaw:	-60.623	Thrust:	34.640
Time:	2.392	Roll Set Point:	-2.129	Pitch Set Point:	0.749	Yaw Set Point:	0.727	X_WP:	0.000	Y_WP:	0.000	Y_WP:	0.500	X:	0.922	Y:	-0.779	Z:	0.040	yaw:	-41.658	yaw rate:	0.005	Roll:	30.000	Pitch:	0.616	Yaw:	-60.521	Thrust:	34.958
Time:	2.414	Roll Set Point:	-2.129	Pitch Set Point:	0.749	Yaw Set Point:	0.727	X_WP:	0.000	Y_WP:	0.000	Y_WP:	0.500	X:	0.922	Y:	-0.779	Z:	0.040	yaw:	-41.643	yaw rate:	-1.893	Roll:	30.000	Pitch:	0.646	Yaw:	-60.977	Thrust:	36.744
Time:	2.435	Roll Set Point:	-2.130	Pitch Set Point:	0.762	Yaw Set Point:	0.716	X_WP:	0.000	Y_WP:	0.000	Y_WP:	0.500	X:	0.923	Y:	-0.780	Z:	0.041	yaw:	-41.027	yaw rate:	61.628	Roll:	30.000	Pitch:	-9.459	Yaw:	-53.538	Thrust:	37.978
Time:	2.456	Roll Set Point:	-2.129	Pitch Set Point:	0.749	Yaw Set Point:	0.727	X_WP:	0.000	Y_WP:	0.000	Y_WP:	0.500	X:	0.922	Y:	-0.779	Z:	0.040	yaw:	-41.638	yaw rate:	-6.996	Roll:	30.000	Pitch:	12.048	Yaw:	-69.485	Thrust:	39.749
Time:	2.477	Roll Set Point:	-2.129	Pitch Set Point:	0.748	Yaw Set Point:	0.728	X_WP:	0.000	Y_WP:	0.000	Y_WP:	0.500	X:	0.922	Y:	-0.779	Z:	0.040	yaw:	-41.694	yaw rate:	-1.244	Roll:	30.000	Pitch:	1.910	Yaw:	-62.804	Thrust:	40.018
Time:	2.497	Roll Set Point:	-2.129	Pitch Set Point:	0.748	Yaw Set Point:	0.728	X_WP:	0.000	Y_WP:	0.000	Y_WP:	0.500	X:	0.922	Y:	-0.779	Z:	0.040	yaw:	-41.693	yaw rate:	0.118	Roll:	30.000	Pitch:	0.911	Yaw:	-62.370	Thrust:	41.419
Time:	2.517	Roll Set Point:	-2.129	Pitch Set Point:	0.748	Yaw Set Point:	0.727	X_WP:	0.000	Y_WP:	0.000	Y_WP:	0.500	X:	0.922	Y:	-0.779	Z:	0.040	yaw:	-41.673	yaw rate:	0.045	Roll:	30.000	Pitch:	0.570	Yaw:	-61.871	Thrust:	41.570
Time:	2.539	Roll Set Point:	-2.130	Pitch Set Point:	0.762	Yaw Set Point:	0.716	X_WP:	0.000	Y_WP:	0.000	Y_WP:	0.500	X:	0.923	Y:	-0.780	Z:	0.041	yaw:	-41.040	yaw rate:	63.295	Roll:	30.000	Pitch:	-9.720	Yaw:	-53.967	Thrust:	43.591
Time:	2.558	Roll Set Point:	-2.130	Pitch Set Point:	0.762	Yaw Set Point:	0.716	X_WP:	0.000	Y_WP:	0.000	Y_WP:	0.500	X:	0.923	Y:	-0.780	Z:	0.041	yaw:	-41.020	yaw rate:	59.885	Roll:	30.000	Pitch:	0.139	Yaw:	-60.905	Thrust:	43.610
Time:	2.580	Roll Set Point:	-2.129	Pitch Set Point:	0.748	Yaw Set Point:	0.727	X_WP:	0.000	Y_WP:	0.000	Y_WP:	0.500	X:	0.922	Y:	-0.779	Z:	0.040	yaw:	-41.663	yaw rate:	-0.703	Roll:	30.000	Pitch:	12.086	Yaw:	-70.454	Thrust:	46.642
Time:	2.601	Roll Set Point:	-2.129	Pitch Set Point:	0.749	Yaw Set Point:	0.726	X_WP:	0.000	Y_WP:	0.000	Y_WP:	0.500	X:	0.922	Y:	-0.779	Z:	0.040	yaw:	-41.623	yaw rate:	3.965	Roll:	30.000	Pitch:	0.262	Yaw:	-62.059	Thrust:	48.367
Time:	2.624	Roll Set Point:	-2.129	Pitch Set Point:	0.749	Yaw Set Point:	0.727	X_WP:	0.000	Y_WP:	0.000	Y_WP:	0.500	X:	0.922	Y:	-0.779	Z:	0.040	yaw:	-41.656	yaw rate:	-3.311	Roll:	30.000	Pitch:	1.443	Yaw:	-63.043	Thrust:	50.122
Time:	2.645	Roll Set Point:	-2.129	Pitch Set Point:	0.749	Yaw Set Point:	0.727	X_WP:	0.000	Y_WP:	0.000	Y_WP:	0.500	X:	0.922	Y:	-0.779	Z:	0.040	yaw:	-41.644	yaw rate:	-2.432	Roll:	30.000	Pitch:	0.706	Yaw:	-62.233	Thrust:	49.818
Time:	2.665	Roll Set Point:	-2.129	Pitch Set Point:	0.748	Yaw Set Point:	0.727	X_WP:	0.000	Y_WP:	0.000	Y_WP:	0.500	X:	0.922	Y:	-0.779	Z:	0.040	yaw:	-41.661	yaw rate:	1.807	Roll:	30.000	Pitch:	1.208	Yaw:	-62.500	Thrust:	50.194
Time:	2.685	Roll Set Point:	-2.129	Pitch Set Point:	0.748	Yaw Set Point:	0.727	X_WP:	0.000	Y_WP:	0.000	Y_WP:	0.500	X:	0.922	Y:	-0.779	Z:	0.040	yaw:	-41.676	yaw rate:	-0.219	Roll:	30.000	Pitch:	1.205	Yaw:	-62.398	Thrust:	50.771
Time:	2.707	Roll Set Point:	-2.129	Pitch Set Point:	0.748	Yaw Set Point:	0.727	X_WP:	0.000	Y_WP:	0.000	Y_WP:	0.500	X:	0.922	Y:	-0.779	Z:	0.040	yaw:	-41.671	yaw rate:	-5.884	Roll:	30.000	Pitch:	0.862	Yaw:	-62.547	Thrust:	54.565
Time:	2.728	Roll Set Point:	-2.129	Pitch Set Point:	0.748	Yaw Set Point:	0.727	X_WP:	0.000	Y_WP:	0.000	Y_WP:	0.500	X:	0.922	Y:	-0.779	Z:	0.040	yaw:	-41.665	yaw rate:	0.624	Roll:	30.000	Pitch:	0.831	Yaw:	-62.119	Thrust:	53.043
Time:	2.749	Roll Set Point:	-2.129	Pitch Set Point:	0.748	Yaw Set Point:	0.727	X_WP:	0.000	Y_WP:	0.000	Y_WP:	0.500	X:	0.922	Y:	-0.779	Z:	0.040	yaw:	-41.671	yaw rate:	-0.618	Roll:	30.000	Pitch:	1.041	Yaw:	-62.476	Thrust:	55.522
Time:	2.770	Roll Set Point:	-2.129	Pitch Set Point:	0.749	Yaw Set Point:	0.727	X_WP:	0.000	Y_WP:	0.000	Y_WP:	0.500	X:	0.922	Y:	-0.779	Z:	0.040	yaw:	-41.638	yaw rate:	0.643	Roll:	30.000	Pitch:	0.410	Yaw:	-62.065	Thrust:	57.511
Time:	2.791	Roll Set Point:	-2.130	Pitch Set Point:	0.762	Yaw Set Point:	0.716	X_WP:	0.000	Y_WP:	0.000	Y_WP:	0.500	X:	0.923	Y:	-0.780	Z:	0.041	yaw:	-41.046	yaw rate:	63.427	Roll:	30.000	Pitch:	-9.749	Yaw:	-53.905	Thrust:	56.239
Time:	2.813	Roll Set Point:	-2.129	Pitch Set Point:	0.749	Yaw Set Point:	0.726	X_WP:	0.000	Y_WP:	0.000	Y_WP:	0.500	X:	0.922	Y:	-0.779	Z:	0.040	yaw:	-41.619	yaw rate:	-57.326	Roll:	30.000	Pitch:	10.316	Yaw:	-69.347	Thrust:	60.972
Time:	2.835	Roll Set Point:	-2.129	Pitch Set Point:	0.748	Yaw Set Point:	0.727	X_WP:	0.000	Y_WP:	0.000	Y_WP:	0.500	X:	0.922	Y:	-0.779	Z:	0.040	yaw:	-41.663	yaw rate:	-1.085	Roll:	30.000	Pitch:	1.663	Yaw:	-63.042	Thrust:	61.284
Time:	2.856	Roll Set Point:	-2.129	Pitch Set Point:	0.749	Yaw Set Point:	0.727	X_WP:	0.000	Y_WP:	0.000	Y_WP:	0.500	X:	0.922	Y:	-0.779	Z:	0.040	yaw:	-41.655	yaw rate:	0.856	Roll:	30.000	Pitch:	0.792	Yaw:	-62.275	Thrust:	61.379
Time:	2.876	Roll Set Point:	-2.129	Pitch Set Point:	0.741	Yaw Set Point:	0.733	X_WP:	0.000	Y_WP:	0.000	Y_WP:	0.500	X:	0.922	Y:	-0.779	Z:	0.040	yaw:	-42.023	yaw rate:	-38.438	Roll:	30.000	Pitch:	7.673	Yaw:	-67.477	Thrust:	62.239
Time:	2.896	Roll Set Point:	-2.129	Pitch Set Point:	0.740	Yaw Set Point:	0.734	X_WP:	0.000	Y_WP:	0.000	Y_WP:	0.500	X:	0.922	Y:	-0.779	Z:	0.040	yaw:	-42.051	yaw rate:	-2.763	Roll:	30.000	Pitch:	1.643	Yaw:	-63.083	Thrust:	61.809
Time:	2.916	Roll Set Point:	-2.129	Pitch Set Point:	0.741	Yaw Set Point:	0.734	X_WP:	0.000	Y_WP:	0.000	Y_WP:	0.500	X:	0.922	Y:	-0.779	Z:	0.040	yaw:	-42.034	yaw rate:	-0.879	Roll:	30.000	Pitch:	0.855	Yaw:	-62.378	Thrust:	61.985
Time:	2.937	Roll Set Point:	-2.130	Pitch Set Point:	0.749	Yaw Set Point:	0.727	X_WP:	0.000	Y_WP:	0.000	Y_WP:	0.500	X:	0.922	Y:	-0.780	Z:	0.040	yaw:	-41.636	yaw rate:	41.498	Roll:	30.000	Pitch:	-5.720	Yaw:	-57.328	Thrust:	65.157
Time:	2.957	Roll Set Point:	-2.129	Pitch Set Point:	0.741	Yaw Set Point:	0.733	X_WP:	0.000	Y_WP:	0.000	Y_WP:	0.500	X:	0.922	Y:	-0.779	Z:	0.040	yaw:	-42.008	yaw rate:	-37.183	Roll:	30.000	Pitch:	8.102	Yaw:	-67.567	Thrust:	63.845
Time:	2.977	Roll Set Point:	-2.129	Pitch Set Point:	0.740	Yaw Set Point:	0.734	X_WP:	0.000	Y_WP:	0.000	Y_WP:	0.500	X:	0.922	Y:	-0.779	Z:	0.040	yaw:	-42.074	yaw rate:	-2.132	Roll:	30.000	Pitch:	2.346	Yaw:	-63.764	Thrust:	68.039
Time:	2.997	Roll Set Point:	-2.129	Pitch Set Point:	0.740	Yaw Set Point:	0.734	X_WP:	0.000	Y_WP:	0.000	Y_WP:	0.500	X:	0.922	Y:	-0.779	Z:	0.040	yaw:	-42.065	yaw rate:	0.901	Roll:	30.000	Pitch:	1.046	Yaw:	-62.733	Thrust:	68.404
Time:	3.017	Roll Set Point:	-2.129	Pitch Set Point:	0.739	Yaw Set Point:	0.735	X_WP:	0.000	Y_WP:	0.000	Y_WP:	0.500	X:	0.922	Y:	-0.779	Z:	0.040	yaw:	-42.109	yaw rate:	-6.243	Roll:	30.000	Pitch:	2.000	Yaw:	-63.347	Thrust:	68.064
Time:	3.040	Roll Set Point:	-2.130	Pitch Set Point:	0.762	Yaw Set Point:	0.716	X_WP:	0.000	Y_WP:	0.000	Y_WP:	0.500	X:	0.923	Y:	-0.780	Z:	0.041	yaw:	-41.023	yaw rate:	103.191	Roll:	30.000	Pitch:	-17.407	Yaw:	-49.182	Thrust:	71.597
Time:	3.059	Roll Set Point:	-2.129	Pitch Set Point:	0.749	Yaw Set Point:	0.727	X_WP:	0.000	Y_WP:	0.000	Y_WP:	0.500	X:	0.922	Y:	-0.779	Z:	0.040	yaw:	-41.637	yaw rate:	-61.460	Roll:	30.000	Pitch:	11.621	Yaw:	-70.274	Thrust:	72.753
Time:	3.080	Roll Set Point:	-2.129	Pitch Set Point:	0.748	Yaw Set Point:	0.727	X_WP:	0.000	Y_WP:	0.000	Y_WP:	0.500	X:	0.922	Y:	-0.779	Z:	0.040	yaw:	-41.672	yaw rate:	-5.259	Roll:	30.000	Pitch:	1.601	Yaw:	-62.737	Thrust:	72.818
Time:	3.113	Roll Set Point:	-2.129	Pitch Set Point:	0.748	Yaw Set Point:	0.727	X_WP:	0.000	Y_WP:	0.000	Y_WP:	0.500	X:	0.922	Y:	-0.779	Z:	0.040	yaw:	-41.661	yaw rate:	-2.461	Roll:	30.000	Pitch:	0.892	Yaw:	-64.695	Thrust:	100.000
Time:	3.147	Roll Set Point:	-2.130	Pitch Set Point:	0.762	Yaw Set Point:	0.716	X_WP:	0.000	Y_WP:	0.000	Y_WP:	0.500	X:	0.923	Y:	-0.780	Z:	0.041	yaw:	-41.013	yaw rate:	68.076	Roll:	30.000	Pitch:	-6.394	Yaw:	-58.633	Thrust:	100.000
Time:	3.178	Roll Set Point:	-2.129	Pitch Set Point:	0.749	Yaw Set Point:	0.727	X_WP:	0.000	Y_WP:	0.000	Y_WP:	0.500	X:	0.922	Y:	-0.779	Z:	0.040	yaw:	-41.652	yaw rate:	2.244	Roll:	30.000	Pitch:	8.088	Yaw:	-69.791	Thrust:	100.000
Time:	3.211	Roll Set Point:	-2.129	Pitch Set Point:	0.749	Yaw Set Point:	0.727	X_WP:	0.000	Y_WP:	0.000	Y_WP:	0.500	X:	0.922	Y:	-0.779	Z:	0.040	yaw:	-41.645	yaw rate:	-0.054	Roll:	30.000	Pitch:	0.916	Yaw:	-64.603	Thrust:	100.000
Time:	3.242	Roll Set Point:	-2.129	Pitch Set Point:	0.749	Yaw Set Point:	0.727	X_WP:	0.000	Y_WP:	0.000	Y_WP:	0.500	X:	0.922	Y:	-0.779	Z:	0.040	yaw:	-41.641	yaw rate:	0.377	Roll:	30.000	Pitch:	0.955	Yaw:	-64.305	Thrust:	100.000
Time:	3.273	Roll Set Point:	-2.129	Pitch Set Point:	0.749	Yaw Set Point:	0.727	X_WP:	0.000	Y_WP:	0.000	Y_WP:	0.500	X:	0.922	Y:	-0.779	Z:	0.040	yaw:	-41.633	yaw rate:	2.713	Roll:	30.000	Pitch:	0.894	Yaw:	-64.365	Thrust:	100.000
Time:	3.305	Roll Set Point:	-2.129	Pitch Set Point:	0.748	Yaw Set Point:	0.728	X_WP:	0.000	Y_WP:	0.000	Y_WP:	0.500	X:	0.922	Y:	-0.779	Z:	0.040	yaw:	-41.688	yaw rate:	-5.562	Roll:	30.000	Pitch:	1.654	Yaw:	-65.059	Thrust:	100.000
Time:	3.337	Roll Set Point:	-2.129	Pitch Set Point:	0.748	Yaw Set Point:	0.727	X_WP:	0.000	Y_WP:	0.000	Y_WP:	0.500	X:	0.922	Y:	-0.779	Z:	0.040	yaw:	-41.674	yaw rate:	-2.057	Roll:	30.000	Pitch:	0.858	Yaw:	-64.476	Thrust:	100.000
Time:	3.368	Roll Set Point:	-2.129	Pitch Set Point:	0.749	Yaw Set Point:	0.727	X_WP:	0.000	Y_WP:	0.000	Y_WP:	0.500	X:	0.922	Y:	-0.779	Z:	0.040	yaw:	-41.655	yaw rate:	-0.655	Roll:	30.000	Pitch:	0.786	Yaw:	-64.129	Thrust:	100.000
Time:	3.399	Roll Set Point:	-2.130	Pitch Set Point:	0.762	Yaw Set Point:	0.716	X_WP:	0.000	Y_WP:	0.000	Y_WP:	0.500	X:	0.923	Y:	-0.780	Z:	0.041	yaw:	-41.024	yaw rate:	65.395	Roll:	30.000	Pitch:	-6.819	Yaw:	-58.125	Thrust:	100.000
Time:	3.428	Roll Set Point:	-2.129	Pitch Set Point:	0.750	Yaw Set Point:	0.726	X_WP:	0.000	Y_WP:	0.000	Y_WP:	0.500	X:	0.922	Y:	-0.779	Z:	0.040	yaw:	-41.582	yaw rate:	-58.769	Roll:	30.000	Pitch:	7.611	Yaw:	-68.920	Thrust:	100.000
Time:	3.459	Roll Set Point:	-2.129	Pitch Set Point:	0.748	Yaw Set Point:	0.728	X_WP:	0.000	Y_WP:	0.000	Y_WP:	0.500	X:	0.922	Y:	-0.779	Z:	0.040	yaw:	-41.692	yaw rate:	-6.100	Roll:	30.000	Pitch:	2.340	Yaw:	-65.188	Thrust:	100.000
Time:	3.490	Roll Set Point:	-2.129	Pitch Set Point:	0.749	Yaw Set Point:	0.727	X_WP:	0.000	Y_WP:	0.000	Y_WP:	0.500	X:	0.922	Y:	-0.779	Z:	0.040	yaw:	-41.637	yaw rate:	1.756	Roll:	30.000	Pitch:	0.384	Yaw:	-64.025	Thrust:	100.000
Time:	3.522	Roll Set Point:	-2.129	Pitch Set Point:	0.748	Yaw Set Point:	0.728	X_WP:	0.000	Y_WP:	0.000	Y_WP:	0.500	X:	0.922	Y:	-0.779	Z:	0.040	yaw:	-41.684	yaw rate:	-2.566	Roll:	30.000	Pitch:	1.572	Yaw:	-64.788	Thrust:	100.000
Time:	3.547	Roll Set Point:	-2.129	Pitch Set Point:	0.748	Yaw Set Point:	0.727	X_WP:	0.000	Y_WP:	0.000	Y_WP:	0.500	X:	0.922	Y:	-0.779	Z:	0.040	yaw:	-41.671	yaw rate:	2.935	Roll:	30.000	Pitch:	0.822	Yaw:	-63.131	Thrust:	100.000
Time:	3.568	Roll Set Point:	-2.129	Pitch Set Point:	0.748	Yaw Set Point:	0.727	X_WP:	0.000	Y_WP:	0.000	Y_WP:	0.500	X:	0.922	Y:	-0.779	Z:	0.040	yaw:	-41.680	yaw rate:	0.372	Roll:	30.000	Pitch:	1.152	Yaw:	-62.663	Thrust:	94.979
Time:	3.589	Roll Set Point:	-2.129	Pitch Set Point:	0.748	Yaw Set Point:	0.727	X_WP:	0.000	Y_WP:	0.000	Y_WP:	0.500	X:	0.922	Y:	-0.779	Z:	0.040	yaw:	-41.663	yaw rate:	1.757	Roll:	30.000	Pitch:	0.665	Yaw:	-62.069	Thrust:	92.330
Time:	3.622	Roll Set Point:	-2.129	Pitch Set Point:	0.749	Yaw Set Point:	0.727	X_WP:	0.000	Y_WP:	0.000	Y_WP:	0.500	X:	0.922	Y:	-0.779	Z:	0.040	yaw:	-41.655	yaw rate:	-2.561	Roll:	30.000	Pitch:	0.952	Yaw:	-64.522	Thrust:	100.000
Time:	3.654	Roll Set Point:	-2.129	Pitch Set Point:	0.748	Yaw Set Point:	0.727	X_WP:	0.000	Y_WP:	0.000	Y_WP:	0.500	X:	0.922	Y:	-0.779	Z:	0.040	yaw:	-41.660	yaw rate:	-0.123	Roll:	30.000	Pitch:	1.091	Yaw:	-64.742	Thrust:	100.000
Time:	3.684	Roll Set Point:	-2.129	Pitch Set Point:	0.748	Yaw Set Point:	0.727	X_WP:	0.000	Y_WP:	0.000	Y_WP:	0.500	X:	0.922	Y:	-0.779	Z:	0.040	yaw:	-41.677	yaw rate:	-1.193	Roll:	30.000	Pitch:	1.249	Yaw:	-64.454	Thrust:	100.000
Time:	3.716	Roll Set Point:	-2.129	Pitch Set Point:	0.749	Yaw Set Point:	0.727	X_WP:	0.000	Y_WP:	0.000	Y_WP:	0.500	X:	0.922	Y:	-0.779	Z:	0.040	yaw:	-41.650	yaw rate:	-4.788	Roll:	30.000	Pitch:	0.716	Yaw:	-64.184	Thrust:	100.000
Time:	3.747	Roll Set Point:	-2.129	Pitch Set Point:	0.748	Yaw Set Point:	0.728	X_WP:	0.000	Y_WP:	0.000	Y_WP:	0.500	X:	0.922	Y:	-0.779	Z:	0.040	yaw:	-41.685	yaw rate:	-2.337	Roll:	30.000	Pitch:	1.453	Yaw:	-64.757	Thrust:	100.000
Time:	3.781	Roll Set Point:	-2.129	Pitch Set Point:	0.748	Yaw Set Point:	0.727	X_WP:	0.000	Y_WP:	0.000	Y_WP:	0.500	X:	0.922	Y:	-0.779	Z:	0.040	yaw:	-41.677	yaw rate:	-0.323	Roll:	30.000	Pitch:	0.992	Yaw:	-64.769	Thrust:	100.000
Time:	3.812	Roll Set Point:	-2.129	Pitch Set Point:	0.748	Yaw Set Point:	0.727	X_WP:	0.000	Y_WP:	0.000	Y_WP:	0.500	X:	0.922	Y:	-0.779	Z:	0.040	yaw:	-41.661	yaw rate:	-3.363	Roll:	30.000	Pitch:	0.876	Yaw:	-64.331	Thrust:	100.000
Time:	3.843	Roll Set Point:	-2.129	Pitch Set Point:	0.749	Yaw Set Point:	0.726	X_WP:	0.000	Y_WP:	0.000	Y_WP:	0.500	X:	0.922	Y:	-0.779	Z:	0.040	yaw:	-41.623	yaw rate:	-4.666	Roll:	30.000	Pitch:	0.596	Yaw:	-64.052	Thrust:	100.000
Time:	3.876	Roll Set Point:	-2.129	Pitch Set Point:	0.748	Yaw Set Point:	0.727	X_WP:	0.000	Y_WP:	0.000	Y_WP:	0.500	X:	0.922	Y:	-0.779	Z:	0.040	yaw:	-41.680	yaw rate:	-5.837	Roll:	30.000	Pitch:	1.688	Yaw:	-65.216	Thrust:	100.000
Time:	3.908	Roll Set Point:	-2.129	Pitch Set Point:	0.749	Yaw Set Point:	0.727	X_WP:	0.000	Y_WP:	0.000	Y_WP:	0.500	X:	0.922	Y:	-0.779	Z:	0.040	yaw:	-41.657	yaw rate:	1.334	Roll:	30.000	Pitch:	0.817	Yaw:	-64.512	Thrust:	100.000
Time:	3.941	Roll Set Point:	-2.129	Pitch Set Point:	0.749	Yaw Set Point:	0.727	X_WP:	0.000	Y_WP:	0.000	Y_WP:	0.500	X:	0.922	Y:	-0.779	Z:	0.040	yaw:	-41.645	yaw rate:	3.179	Roll:	30.000	Pitch:	0.923	Yaw:	-64.527	Thrust:	100.000
Time:	3.974	Roll Set Point:	-2.129	Pitch Set Point:	0.748	Yaw Set Point:	0.728	X_WP:	0.000	Y_WP:	0.000	Y_WP:	0.500	X:	0.922	Y:	-0.779	Z:	0.040	yaw:	-41.683	yaw rate:	-2.158	Roll:	30.000	Pitch:	1.500	Yaw:	-65.151	Thrust:	100.000
Time:	4.006	Roll Set Point:	-2.129	Pitch Set Point:	0.748	Yaw Set Point:	0.727	X_WP:	0.000	Y_WP:	0.000	Y_WP:	0.500	X:	0.922	Y:	-0.779	Z:	0.040	yaw:	-41.683	yaw rate:	-0.400	Roll:	30.000	Pitch:	1.067	Yaw:	-64.539	Thrust:	100.000
Time:	4.037	Roll Set Point:	-2.129	Pitch Set Point:	0.749	Yaw Set Point:	0.727	X_WP:	0.000	Y_WP:	0.000	Y_WP:	0.500	X:	0.922	Y:	-0.779	Z:	0.040	yaw:	-41.641	yaw rate:	2.996	Roll:	30.000	Pitch:	0.593	Yaw:	-64.002	Thrust:	100.000
Time:	4.068	Roll Set Point:	-2.129	Pitch Set Point:	0.749	Yaw Set Point:	0.727	X_WP:	0.000	Y_WP:	0.000	Y_WP:	0.500	X:	0.922	Y:	-0.779	Z:	0.040	yaw:	-41.638	yaw rate:	-0.309	Roll:	30.000	Pitch:	1.018	Yaw:	-64.245	Thrust:	100.000
Time:	4.089	Roll Set Point:	-2.129	Pitch Set Point:	0.739	Yaw Set Point:	0.735	X_WP:	0.000	Y_WP:	0.000	Y_WP:	0.500	X:	0.922	Y:	-0.779	Z:	0.040	yaw:	-42.115	yaw rate:	-6.331	Roll:	30.000	Pitch:	9.058	Yaw:	-68.902	Thrust:	100.000
Time:	4.109	Roll Set Point:	-2.129	Pitch Set Point:	0.741	Yaw Set Point:	0.733	X_WP:	0.000	Y_WP:	0.000	Y_WP:	0.500	X:	0.922	Y:	-0.779	Z:	0.040	yaw:	-42.025	yaw rate:	9.034	Roll:	30.000	Pitch:	-0.438	Yaw:	-61.590	Thrust:	100.000
Time:	4.129	Roll Set Point:	-2.129	Pitch Set Point:	0.741	Yaw Set Point:	0.734	X_WP:	0.000	Y_WP:	0.000	Y_WP:	0.500	X:	0.922	Y:	-0.779	Z:	0.040	yaw:	-42.047	yaw rate:	3.429	Roll:	30.000	Pitch:	1.641	Yaw:	-62.993	Thrust:	100.000
Time:	4.150	Roll Set Point:	-2.129	Pitch Set Point:	0.741	Yaw Set Point:	0.734	X_WP:	0.000	Y_WP:	0.000	Y_WP:	0.500	X:	0.922	Y:	-0.779	Z:	0.040	yaw:	-42.027	yaw rate:	6.434	Roll:	30.000	Pitch:	0.887	Yaw:	-62.436	Thrust:	100.000
Time:	4.176	Roll Set Point:	-2.129	Pitch Set Point:	0.740	Yaw Set Point:	0.734	X_WP:	0.000	Y_WP:	0.000	Y_WP:	0.500	X:	0.922	Y:	-0.779	Z:	0.040	yaw:	-42.052	yaw rate:	-41.057	Roll:	30.000	Pitch:	1.632	Yaw:	-64.287	Thrust:	100.000
Time:	4.204	Roll Set Point:	-2.129	Pitch Set Point:	0.741	Yaw Set Point:	0.734	X_WP:	0.000	Y_WP:	0.000	Y_WP:	0.500	X:	0.922	Y:	-0.779	Z:	0.040	yaw:	-42.035	yaw rate:	1.072	Roll:	30.000	Pitch:	1.057	Yaw:	-64.086	Thrust:	100.000
Time:	4.224	Roll Set Point:	-2.129	Pitch Set Point:	0.740	Yaw Set Point:	0.734	X_WP:	0.000	Y_WP:	0.000	Y_WP:	0.500	X:	0.922	Y:	-0.779	Z:	0.040	yaw:	-42.080	yaw rate:	-4.483	Roll:	30.000	Pitch:	2.053	Yaw:	-63.366	Thrust:	100.000
Time:	4.245	Roll Set Point:	-2.129	Pitch Set Point:	0.740	Yaw Set Point:	0.734	X_WP:	0.000	Y_WP:	0.000	Y_WP:	0.500	X:	0.922	Y:	-0.779	Z:	0.040	yaw:	-42.064	yaw rate:	-2.265	Roll:	30.000	Pitch:	0.997	Yaw:	-62.693	Thrust:	100.000
Time:	4.266	Roll Set Point:	-2.129	Pitch Set Point:	0.740	Yaw Set Point:	0.734	X_WP:	0.000	Y_WP:	0.000	Y_WP:	0.500	X:	0.922	Y:	-0.779	Z:	0.040	yaw:	-42.079	yaw rate:	-2.366	Roll:	30.000	Pitch:	1.514	Yaw:	-63.145	Thrust:	100.000
Time:	4.285	Roll Set Point:	-2.129	Pitch Set Point:	0.740	Yaw Set Point:	0.734	X_WP:	0.000	Y_WP:	0.000	Y_WP:	0.500	X:	0.922	Y:	-0.779	Z:	0.040	yaw:	-42.071	yaw rate:	0.864	Roll:	30.000	Pitch:	1.119	Yaw:	-62.443	Thrust:	100.000
Time:	4.309	Roll Set Point:	-2.129	Pitch Set Point:	0.740	Yaw Set Point:	0.734	X_WP:	0.000	Y_WP:	0.000	Y_WP:	0.500	X:	0.922	Y:	-0.779	Z:	0.040	yaw:	-42.082	yaw rate:	-1.097	Roll:	30.000	Pitch:	1.479	Yaw:	-63.646	Thrust:	100.000
Time:	4.329	Roll Set Point:	-2.129	Pitch Set Point:	0.740	Yaw Set Point:	0.734	X_WP:	0.000	Y_WP:	0.000	Y_WP:	0.500	X:	0.922	Y:	-0.779	Z:	0.040	yaw:	-42.078	yaw rate:	-3.145	Roll:	30.000	Pitch:	1.234	Yaw:	-62.705	Thrust:	100.000
Time:	4.350	Roll Set Point:	-2.129	Pitch Set Point:	0.741	Yaw Set Point:	0.734	X_WP:	0.000	Y_WP:	0.000	Y_WP:	0.500	X:	0.922	Y:	-0.779	Z:	0.040	yaw:	-42.029	yaw rate:	2.125	Roll:	30.000	Pitch:	0.359	Yaw:	-62.054	Thrust:	100.000
Time:	4.372	Roll Set Point:	-2.129	Pitch Set Point:	0.740	Yaw Set Point:	0.734	X_WP:	0.000	Y_WP:	0.000	Y_WP:	0.500	X:	0.922	Y:	-0.779	Z:	0.040	yaw:	-42.070	yaw rate:	-4.111	Roll:	30.000	Pitch:	1.940	Yaw:	-63.783	Thrust:	100.000
Time:	4.391	Roll Set Point:	-2.129	Pitch Set Point:	0.740	Yaw Set Point:	0.734	X_WP:	0.000	Y_WP:	0.000	Y_WP:	0.500	X:	0.922	Y:	-0.779	Z:	0.040	yaw:	-42.049	yaw rate:	-1.396	Roll:	30.000	Pitch:	0.888	Yaw:	-62.325	Thrust:	100.000
Time:	4.412	Roll Set Point:	-2.129	Pitch Set Point:	0.740	Yaw Set Point:	0.734	X_WP:	0.000	Y_WP:	0.000	Y_WP:	0.500	X:	0.922	Y:	-0.779	Z:	0.040	yaw:	-42.076	yaw rate:	-2.518	Roll:	30.000	Pitch:	1.733	Yaw:	-63.355	Thrust:	100.000
Time:	4.434	Roll Set Point:	-2.129	Pitch Set Point:	0.740	Yaw Set Point:	0.734	X_WP:	0.000	Y_WP:	0.000	Y_WP:	0.500	X:	0.922	Y:	-0.779	Z:	0.040	yaw:	-42.080	yaw rate:	-0.356	Roll:	30.000	Pitch:	1.377	Yaw:	-63.080	Thrust:	100.000
Time:	4.455	Roll Set Point:	-2.129	Pitch Set Point:	0.740	Yaw Set Point:	0.734	X_WP:	0.000	Y_WP:	0.000	Y_WP:	0.500	X:	0.922	Y:	-0.779	Z:	0.040	yaw:	-42.071	yaw rate:	-3.415	Roll:	30.000	Pitch:	1.157	Yaw:	-62.961	Thrust:	100.000
Time:	4.476	Roll Set Point:	-2.129	Pitch Set Point:	0.740	Yaw Set Point:	0.735	X_WP:	0.000	Y_WP:	0.000	Y_WP:	0.500	X:	0.922	Y:	-0.779	Z:	0.040	yaw:	-42.097	yaw rate:	-2.598	Roll:	30.000	Pitch:	1.732	Yaw:	-63.274	Thrust:	100.000
Time:	4.496	Roll Set Point:	-2.129	Pitch Set Point:	0.740	Yaw Set Point:	0.734	X_WP:	0.000	Y_WP:	0.000	Y_WP:	0.500	X:	0.922	Y:	-0.779	Z:	0.040	yaw:	-42.077	yaw rate:	-6.751	Roll:	30.000	Pitch:	0.937	Yaw:	-62.513	Thrust:	100.000
Time:	4.516	Roll Set Point:	-2.129	Pitch Set Point:	0.740	Yaw Set Point:	0.734	X_WP:	0.000	Y_WP:	0.000	Y_WP:	0.500	X:	0.922	Y:	-0.779	Z:	0.040	yaw:	-42.076	yaw rate:	0.084	Roll:	30.000	Pitch:	1.276	Yaw:	-62.710	Thrust:	100.000
Time:	4.537	Roll Set Point:	-2.129	Pitch Set Point:	0.741	Yaw Set Point:	0.734	X_WP:	0.000	Y_WP:	0.000	Y_WP:	0.500	X:	0.922	Y:	-0.779	Z:	0.040	yaw:	-42.047	yaw rate:	-2.189	Roll:	30.000	Pitch:	0.775	Yaw:	-62.442	Thrust:	100.000
Time:	4.557	Roll Set Point:	-2.129	Pitch Set Point:	0.740	Yaw Set Point:	0.734	X_WP:	0.000	Y_WP:	0.000	Y_WP:	0.500	X:	0.922	Y:	-0.779	Z:	0.040	yaw:	-42.070	yaw rate:	1.822	Roll:	30.000	Pitch:	1.740	Yaw:	-63.119	Thrust:	100.000
Time:	4.578	Roll Set Point:	-2.129	Pitch Set Point:	0.740	Yaw Set Point:	0.735	X_WP:	0.000	Y_WP:	0.000	Y_WP:	0.500	X:	0.922	Y:	-0.779	Z:	0.040	yaw:	-42.089	yaw rate:	-1.210	Roll:	30.000	Pitch:	1.633	Yaw:	-63.140	Thrust:	100.000
Time:	4.600	Roll Set Point:	-2.129	Pitch Set Point:	0.740	Yaw Set Point:	0.734	X_WP:	0.000	Y_WP:	0.000	Y_WP:	0.500	X:	0.922	Y:	-0.779	Z:	0.040	yaw:	-42.068	yaw rate:	2.117	Roll:	30.000	Pitch:	0.969	Yaw:	-62.898	Thrust:	100.000
Time:	4.619	Roll Set Point:	-2.129	Pitch Set Point:	0.740	Yaw Set Point:	0.734	X_WP:	0.000	Y_WP:	0.000	Y_WP:	0.500	X:	0.922	Y:	-0.779	Z:	0.040	yaw:	-42.077	yaw rate:	-1.215	Roll:	30.000	Pitch:	1.459	Yaw:	-62.685	Thrust:	100.000
Time:	4.642	Roll Set Point:	-2.129	Pitch Set Point:	0.740	Yaw Set Point:	0.734	X_WP:	0.000	Y_WP:	0.000	Y_WP:	0.500	X:	0.922	Y:	-0.779	Z:	0.040	yaw:	-42.057	yaw rate:	-0.516	Roll:	30.000	Pitch:	0.982	Yaw:	-63.056	Thrust:	100.000
Time:	4.660	Roll Set Point:	-2.129	Pitch Set Point:	0.740	Yaw Set Point:	0.734	X_WP:	0.000	Y_WP:	0.000	Y_WP:	0.500	X:	0.922	Y:	-0.779	Z:	0.040	yaw:	-42.050	yaw rate:	0.745	Roll:	30.000	Pitch:	1.143	Yaw:	-62.322	Thrust:	100.000
Time:	4.682	Roll Set Point:	-2.129	Pitch Set Point:	0.741	Yaw Set Point:	0.734	X_WP:	0.000	Y_WP:	0.000	Y_WP:	0.500	X:	0.922	Y:	-0.779	Z:	0.040	yaw:	-42.038	yaw rate:	2.036	Roll:	30.000	Pitch:	1.086	Yaw:	-62.897	Thrust:	100.000
Time:	4.704	Roll Set Point:	-2.129	Pitch Set Point:	0.740	Yaw Set Point:	0.734	X_WP:	0.000	Y_WP:	0.000	Y_WP:	0.500	X:	0.922	Y:	-0.779	Z:	0.040	yaw:	-42.081	yaw rate:	-1.054	Roll:	30.000	Pitch:	2.033	Yaw:	-63.662	Thrust:	100.000
Time:	4.724	Roll Set Point:	-2.129	Pitch Set Point:	0.740	Yaw Set Point:	0.734	X_WP:	0.000	Y_WP:	0.000	Y_WP:	0.500	X:	0.922	Y:	-0.779	Z:	0.040	yaw:	-42.055	yaw rate:	2.623	Roll:	30.000	Pitch:	0.829	Yaw:	-62.314	Thrust:	100.000
Time:	4.745	Roll Set Point:	-2.129	Pitch Set Point:	0.740	Yaw Set Point:	0.734	X_WP:	0.000	Y_WP:	0.000	Y_WP:	0.500	X:	0.922	Y:	-0.779	Z:	0.040	yaw:	-42.076	yaw rate:	0.223	Roll:	30.000	Pitch:	1.690	Yaw:	-63.190	Thrust:	100.000
Time:	4.767	Roll Set Point:	-2.129	Pitch Set Point:	0.740	Yaw Set Point:	0.734	X_WP:	0.000	Y_WP:	0.000	Y_WP:	0.500	X:	0.922	Y:	-0.779	Z:	0.040	yaw:	-42.081	yaw rate:	-3.883	Roll:	30.000	Pitch:	1.429	Yaw:	-63.323	Thrust:	100.000
Time:	4.789	Roll Set Point:	-2.129	Pitch Set Point:	0.740	Yaw Set Point:	0.734	X_WP:	0.000	Y_WP:	0.000	Y_WP:	0.500	X:	0.922	Y:	-0.779	Z:	0.040	yaw:	-42.058	yaw rate:	2.233	Roll:	30.000	Pitch:	0.920	Yaw:	-62.767	Thrust:	100.000
Time:	4.810	Roll Set Point:	-2.129	Pitch Set Point:	0.741	Yaw Set Point:	0.734	X_WP:	0.000	Y_WP:	0.000	Y_WP:	0.500	X:	0.922	Y:	-0.779	Z:	0.040	yaw:	-42.049	yaw rate:	1.401	Roll:	30.000	Pitch:	1.152	Yaw:	-62.764	Thrust:	100.000
Time:	4.830	Roll Set Point:	-2.129	Pitch Set Point:	0.740	Yaw Set Point:	0.734	X_WP:	0.000	Y_WP:	0.000	Y_WP:	0.500	X:	0.922	Y:	-0.779	Z:	0.040	yaw:	-42.050	yaw rate:	2.340	Roll:	30.000	Pitch:	1.336	Yaw:	-62.787	Thrust:	100.000
Time:	4.850	Roll Set Point:	-2.129	Pitch Set Point:	0.749	Yaw Set Point:	0.727	X_WP:	0.000	Y_WP:	0.000	Y_WP:	0.500	X:	0.922	Y:	-0.780	Z:	0.040	yaw:	-41.675	yaw rate:	37.471	Roll:	30.000	Pitch:	-5.911	Yaw:	-57.124	Thrust:	100.000
Time:	4.872	Roll Set Point:	-2.129	Pitch Set Point:	0.740	Yaw Set Point:	0.734	X_WP:	0.000	Y_WP:	0.000	Y_WP:	0.500	X:	0.922	Y:	-0.779	Z:	0.040	yaw:	-42.054	yaw rate:	-1.678	Roll:	30.000	Pitch:	7.329	Yaw:	-67.625	Thrust:	100.000
Time:	4.891	Roll Set Point:	-2.129	Pitch Set Point:	0.740	Yaw Set Point:	0.734	X_WP:	0.000	Y_WP:	0.000	Y_WP:	0.500	X:	0.922	Y:	-0.779	Z:	0.040	yaw:	-42.081	yaw rate:	-2.724	Roll:	30.000	Pitch:	1.831	Yaw:	-62.940	Thrust:	100.000
Time:	4.912	Roll Set Point:	-2.129	Pitch Set Point:	0.739	Yaw Set Point:	0.735	X_WP:	0.000	Y_WP:	0.000	Y_WP:	0.500	X:	0.922	Y:	-0.779	Z:	0.040	yaw:	-42.103	yaw rate:	-2.709	Roll:	30.000	Pitch:	1.736	Yaw:	-63.203	Thrust:	100.000
Time:	4.934	Roll Set Point:	-2.129	Pitch Set Point:	0.740	Yaw Set Point:	0.734	X_WP:	0.000	Y_WP:	0.000	Y_WP:	0.500	X:	0.922	Y:	-0.779	Z:	0.040	yaw:	-42.083	yaw rate:	-4.625	Roll:	30.000	Pitch:	1.070	Yaw:	-62.969	Thrust:	100.000
Time:	4.953	Roll Set Point:	-2.129	Pitch Set Point:	0.741	Yaw Set Point:	0.734	X_WP:	0.000	Y_WP:	0.000	Y_WP:	0.500	X:	0.922	Y:	-0.779	Z:	0.040	yaw:	-42.037	yaw rate:	4.677	Roll:	30.000	Pitch:	0.455	Yaw:	-61.871	Thrust:	100.000
Time:	4.974	Roll Set Point:	-2.129	Pitch Set Point:	0.740	Yaw Set Point:	0.734	X_WP:	0.000	Y_WP:	0.000	Y_WP:	0.500	X:	0.922	Y:	-0.779	Z:	0.040	yaw:	-42.066	yaw rate:	0.682	Roll:	30.000	Pitch:	1.846	Yaw:	-63.329	Thrust:	100.000
Time:	4.996	Roll Set Point:	-2.129	Pitch Set Point:	0.740	Yaw Set Point:	0.734	X_WP:	0.000	Y_WP:	0.000	Y_WP:	0.500	X:	0.922	Y:	-0.779	Z:	0.040	yaw:	-42.073	yaw rate:	-0.734	Roll:	30.000	Pitch:	1.471	Yaw:	-63.197	Thrust:	100.000
Time:	5.018	Roll Set Point:	-2.129	Pitch Set Point:	0.740	Yaw Set Point:	0.734	X_WP:	0.000	Y_WP:	0.000	Y_WP:	0.500	X:	0.922	Y:	-0.779	Z:	0.040	yaw:	-42.084	yaw rate:	-1.758	Roll:	30.000	Pitch:	1.534	Yaw:	-63.216	Thrust:	100.000
Time:	5.041	Roll Set Point:	-2.129	Pitch Set Point:	0.741	Yaw Set Point:	0.734	X_WP:	0.000	Y_WP:	0.000	Y_WP:	0.500	X:	0.922	Y:	-0.779	Z:	0.040	yaw:	-42.044	yaw rate:	2.792	Roll:	30.000	Pitch:	0.733	Yaw:	-62.906	Thrust:	100.000
Time:	5.061	Roll Set Point:	-2.129	Pitch Set Point:	0.741	Yaw Set Point:	0.734	X_WP:	0.000	Y_WP:	0.000	Y_WP:	0.500	X:	0.922	Y:	-0.779	Z:	0.040	yaw:	-42.040	yaw rate:	5.206	Roll:	30.000	Pitch:	1.263	Yaw:	-62.705	Thrust:	100.000
Time:	5.082	Roll Set Point:	-2.129	Pitch Set Point:	0.741	Yaw Set Point:	0.734	X_WP:	0.000	Y_WP:	0.000	Y_WP:	0.500	X:	0.922	Y:	-0.779	Z:	0.040	yaw:	-42.039	yaw rate:	0.143	Roll:	30.000	Pitch:	1.326	Yaw:	-62.939	Thrust:	100.000
Time:	5.104	Roll Set Point:	-2.129	Pitch Set Point:	0.740	Yaw Set Point:	0.734	X_WP:	0.000	Y_WP:	0.000	Y_WP:	0.500	X:	0.922	Y:	-0.779	Z:	0.040	yaw:	-42.059	yaw rate:	-2.641	Roll:	30.000	Pitch:	1.684	Yaw:	-63.316	Thrust:	100.000
Time:	5.123	Roll Set Point:	-2.129	Pitch Set Point:	0.740	Yaw Set Point:	0.734	X_WP:	0.000	Y_WP:	0.000	Y_WP:	0.500	X:	0.922	Y:	-0.779	Z:	0.040	yaw:	-42.066	yaw rate:	-0.775	Roll:	30.000	Pitch:	1.477	Yaw:	-62.657	Thrust:	100.000
Time:	5.144	Roll Set Point:	-2.129	Pitch Set Point:	0.740	Yaw Set Point:	0.734	X_WP:	0.000	Y_WP:	0.000	Y_WP:	0.500	X:	0.922	Y:	-0.779	Z:	0.040	yaw:	-42.067	yaw rate:	-0.560	Roll:	30.000	Pitch:	1.353	Yaw:	-62.863	Thrust:	100.000
Time:	5.166	Roll Set Point:	-2.129	Pitch Set Point:	0.740	Yaw Set Point:	0.734	X_WP:	0.000	Y_WP:	0.000	Y_WP:	0.500	X:	0.922	Y:	-0.779	Z:	0.040	yaw:	-42.064	yaw rate:	0.319	Roll:	30.000	Pitch:	1.335	Yaw:	-63.035	Thrust:	100.000
Time:	5.185	Roll Set Point:	-2.129	Pitch Set Point:	0.740	Yaw Set Point:	0.734	X_WP:	0.000	Y_WP:	0.000	Y_WP:	0.500	X:	0.922	Y:	-0.779	Z:	0.040	yaw:	-42.058	yaw rate:	3.999	Roll:	30.000	Pitch:	1.235	Yaw:	-62.570	Thrust:	100.000
Time:	5.207	Roll Set Point:	-2.129	Pitch Set Point:	0.740	Yaw Set Point:	0.735	X_WP:	0.000	Y_WP:	0.000	Y_WP:	0.500	X:	0.922	Y:	-0.779	Z:	0.040	yaw:	-42.084	yaw rate:	-1.468	Roll:	30.000	Pitch:	1.812	Yaw:	-63.522	Thrust:	100.000
Time:	5.227	Roll Set Point:	-2.129	Pitch Set Point:	0.741	Yaw Set Point:	0.733	X_WP:	0.000	Y_WP:	0.000	Y_WP:	0.500	X:	0.922	Y:	-0.779	Z:	0.040	yaw:	-42.026	yaw rate:	5.753	Roll:	30.000	Pitch:	0.328	Yaw:	-61.778	Thrust:	100.000
Time:	5.248	Roll Set Point:	-2.129	Pitch Set Point:	0.740	Yaw Set Point:	0.734	X_WP:	0.000	Y_WP:	0.000	Y_WP:	0.500	X:	0.922	Y:	-0.779	Z:	0.040	yaw:	-42.080	yaw rate:	-5.577	Roll:	30.000	Pitch:	2.307	Yaw:	-63.659	Thrust:	100.000
Time:	5.269	Roll Set Point:	-2.129	Pitch Set Point:	0.740	Yaw Set Point:	0.735	X_WP:	0.000	Y_WP:	0.000	Y_WP:	0.500	X:	0.922	Y:	-0.779	Z:	0.040	yaw:	-42.085	yaw rate:	-2.231	Roll:	30.000	Pitch:	1.485	Yaw:	-63.096	Thrust:	100.000
Time:	5.289	Roll Set Point:	-2.129	Pitch Set Point:	0.740	Yaw Set Point:	0.734	X_WP:	0.000	Y_WP:	0.000	Y_WP:	0.500	X:	0.922	Y:	-0.779	Z:	0.040	yaw:	-42.064	yaw rate:	-6.146	Roll:	30.000	Pitch:	0.953	Yaw:	-62.366	Thrust:	100.000
Time:	5.310	Roll Set Point:	-2.129	Pitch Set Point:	0.740	Yaw Set Point:	0.734	X_WP:	0.000	Y_WP:	0.000	Y_WP:	0.500	X:	0.922	Y:	-0.779	Z:	0.040	yaw:	-42.081	yaw rate:	-2.288	Roll:	30.000	Pitch:	1.679	Yaw:	-63.253	Thrust:	100.000
Time:	5.332	Roll Set Point:	-2.129	Pitch Set Point:	0.740	Yaw Set Point:	0.734	X_WP:	0.000	Y_WP:	0.000	Y_WP:	0.500	X:	0.922	Y:	-0.779	Z:	0.040	yaw:	-42.063	yaw rate:	1.815	Roll:	30.000	Pitch:	1.096	Yaw:	-62.802	Thrust:	100.000
Time:	5.352	Roll Set Point:	-2.129	Pitch Set Point:	0.740	Yaw Set Point:	0.734	X_WP:	0.000	Y_WP:	0.000	Y_WP:	0.500	X:	0.922	Y:	-0.779	Z:	0.040	yaw:	-42.065	yaw rate:	-0.794	Roll:	30.000	Pitch:	1.412	Yaw:	-62.783	Thrust:	100.000
Time:	5.373	Roll Set Point:	-2.129	Pitch Set Point:	0.741	Yaw Set Point:	0.733	X_WP:	0.000	Y_WP:	0.000	Y_WP:	0.500	X:	0.922	Y:	-0.779	Z:	0.040	yaw:	-42.007	yaw rate:	6.622	Roll:	30.000	Pitch:	0.380	Yaw:	-62.211	Thrust:	100.000
Time:	5.393	Roll Set Point:	-2.129	Pitch Set Point:	0.740	Yaw Set Point:	0.734	X_WP:	0.000	Y_WP:	0.000	Y_WP:	0.500	X:	0.922	Y:	-0.779	Z:	0.040	yaw:	-42.064	yaw rate:	-5.665	Roll:	30.000	Pitch:	2.410	Yaw:	-63.488	Thrust:	100.000
Time:	5.415	Roll Set Point:	-2.129	Pitch Set Point:	0.740	Yaw Set Point:	0.734	X_WP:	0.000	Y_WP:	0.000	Y_WP:	0.500	X:	0.922	Y:	-0.779	Z:	0.040	yaw:	-42.062	yaw rate:	-3.184	Roll:	30.000	Pitch:	1.374	Yaw:	-62.993	Thrust:	100.000
Time:	5.436	Roll Set Point:	-2.129	Pitch Set Point:	0.740	Yaw Set Point:	0.734	X_WP:	0.000	Y_WP:	0.000	Y_WP:	0.500	X:	0.922	Y:	-0.779	Z:	0.040	yaw:	-42.062	yaw rate:	-1.764	Roll:	30.000	Pitch:	1.370	Yaw:	-63.025	Thrust:	100.000
Time:	5.456	Roll Set Point:	-2.129	Pitch Set Point:	0.740	Yaw Set Point:	0.734	X_WP:	0.000	Y_WP:	0.000	Y_WP:	0.500	X:	0.922	Y:	-0.779	Z:	0.040	yaw:	-42.076	yaw rate:	-1.393	Roll:	30.000	Pitch:	1.632	Yaw:	-62.856	Thrust:	100.000
Time:	5.477	Roll Set Point:	-2.129	Pitch Set Point:	0.740	Yaw Set Point:	0.734	X_WP:	0.000	Y_WP:	0.000	Y_WP:	0.500	X:	0.922	Y:	-0.779	Z:	0.040	yaw:	-42.066	yaw rate:	-1.172	Roll:	30.000	Pitch:	1.236	Yaw:	-62.840	Thrust:	100.000
Time:	5.500	Roll Set Point:	-2.129	Pitch Set Point:	0.741	Yaw Set Point:	0.734	X_WP:	0.000	Y_WP:	0.000	Y_WP:	0.500	X:	0.922	Y:	-0.779	Z:	0.040	yaw:	-42.033	yaw rate:	4.732	Roll:	30.000	Pitch:	0.877	Yaw:	-62.977	Thrust:	100.000
Time:	5.521	Roll Set Point:	-2.129	Pitch Set Point:	0.740	Yaw Set Point:	0.734	X_WP:	0.000	Y_WP:	0.000	Y_WP:	0.500	X:	0.922	Y:	-0.779	Z:	0.040	yaw:	-42.063	yaw rate:	-3.028	Roll:	30.000	Pitch:	1.922	Yaw:	-63.178	Thrust:	100.000
Time:	5.542	Roll Set Point:	-2.129	Pitch Set Point:	0.740	Yaw Set Point:	0.734	X_WP:	0.000	Y_WP:	0.000	Y_WP:	0.500	X:	0.922	Y:	-0.779	Z:	0.040	yaw:	-42.076	yaw rate:	1.465	Roll:	30.000	Pitch:	1.617	Yaw:	-63.107	Thrust:	100.000
Time:	5.561	Roll Set Point:	-2.129	Pitch Set Point:	0.740	Yaw Set Point:	0.734	X_WP:	0.000	Y_WP:	0.000	Y_WP:	0.500	X:	0.922	Y:	-0.779	Z:	0.040	yaw:	-42.070	yaw rate:	-3.566	Roll:	30.000	Pitch:	1.294	Yaw:	-62.611	Thrust:	100.000
Time:	5.581	Roll Set Point:	-2.129	Pitch Set Point:	0.740	Yaw Set Point:	0.734	X_WP:	0.000	Y_WP:	0.000	Y_WP:	0.500	X:	0.922	Y:	-0.779	Z:	0.040	yaw:	-42.055	yaw rate:	-1.658	Roll:	30.000	Pitch:	1.099	Yaw:	-62.524	Thrust:	100.000
Time:	5.603	Roll Set Point:	-2.129	Pitch Set Point:	0.740	Yaw Set Point:	0.735	X_WP:	0.000	Y_WP:	0.000	Y_WP:	0.500	X:	0.922	Y:	-0.779	Z:	0.040	yaw:	-42.085	yaw rate:	-2.937	Roll:	30.000	Pitch:	1.898	Yaw:	-63.447	Thrust:	100.000
Time:	5.623	Roll Set Point:	-2.129	Pitch Set Point:	0.740	Yaw Set Point:	0.734	X_WP:	0.000	Y_WP:	0.000	Y_WP:	0.500	X:	0.922	Y:	-0.779	Z:	0.040	yaw:	-42.063	yaw rate:	1.824	Roll:	30.000	Pitch:	1.011	Yaw:	-62.372	Thrust:	100.000
Time:	5.644	Roll Set Point:	-2.129	Pitch Set Point:	0.740	Yaw Set Point:	0.734	X_WP:	0.000	Y_WP:	0.000	Y_WP:	0.500	X:	0.922	Y:	-0.779	Z:	0.040	yaw:	-42.081	yaw rate:	-0.239	Roll:	30.000	Pitch:	1.719	Yaw:	-63.267	Thrust:	100.000
Time:	5.665	Roll Set Point:	-2.129	Pitch Set Point:	0.741	Yaw Set Point:	0.733	X_WP:	0.000	Y_WP:	0.000	Y_WP:	0.500	X:	0.922	Y:	-0.779	Z:	0.040	yaw:	-42.021	yaw rate:	6.007	Roll:	30.000	Pitch:	0.358	Yaw:	-61.998	Thrust:	100.000
Time:	5.684	Roll Set Point:	-2.129	Pitch Set Point:	0.740	Yaw Set Point:	0.734	X_WP:	0.000	Y_WP:	0.000	Y_WP:	0.500	X:	0.922	Y:	-0.779	Z:	0.040	yaw:	-42.053	yaw rate:	-0.136	Roll:	30.000	Pitch:	1.981	Yaw:	-63.076	Thrust:	100.000
Time:	5.706	Roll Set Point:	-2.129	Pitch Set Point:	0.748	Yaw Set Point:	0.727	X_WP:	0.000	Y_WP:	0.000	Y_WP:	0.500	X:	0.922	Y:	-0.779	Z:	0.040	yaw:	-41.672	yaw rate:	0.292	Roll:	30.000	Pitch:	-4.872	Yaw:	-58.099	Thrust:	100.000
Time:	5.726	Roll Set Point:	-2.129	Pitch Set Point:	0.749	Yaw Set Point:	0.727	X_WP:	0.000	Y_WP:	0.000	Y_WP:	0.500	X:	0.922	Y:	-0.779	Z:	0.040	yaw:	-41.643	yaw rate:	2.863	Roll:	30.000	Pitch:	0.636	Yaw:	-61.559	Thrust:	100.000
Time:	5.747	Roll Set Point:	-2.129	Pitch Set Point:	0.748	Yaw Set Point:	0.727	X_WP:	0.000	Y_WP:	0.000	Y_WP:	0.500	X:	0.922	Y:	-0.779	Z:	0.040	yaw:	-41.666	yaw rate:	1.192	Roll:	30.000	Pitch:	1.582	Yaw:	-62.749	Thrust:	100.000
Time:	5.769	Roll Set Point:	-2.129	Pitch Set Point:	0.747	Yaw Set Point:	0.728	X_WP:	0.000	Y_WP:	0.000	Y_WP:	0.500	X:	0.922	Y:	-0.779	Z:	0.040	yaw:	-41.717	yaw rate:	-6.449	Roll:	30.000	Pitch:	2.041	Yaw:	-63.262	Thrust:	100.000
Time:	5.789	Roll Set Point:	-2.129	Pitch Set Point:	0.749	Yaw Set Point:	0.727	X_WP:	0.000	Y_WP:	0.000	Y_WP:	0.500	X:	0.922	Y:	-0.779	Z:	0.040	yaw:	-41.653	yaw rate:	6.428	Roll:	30.000	Pitch:	0.014	Yaw:	-61.344	Thrust:	100.000
Time:	5.810	Roll Set Point:	-2.129	Pitch Set Point:	0.749	Yaw Set Point:	0.727	X_WP:	0.000	Y_WP:	0.000	Y_WP:	0.500	X:	0.922	Y:	-0.779	Z:	0.040	yaw:	-41.630	yaw rate:	6.591	Roll:	30.000	Pitch:	0.745	Yaw:	-62.137	Thrust:	100.000
Time:	5.832	Roll Set Point:	-2.129	Pitch Set Point:	0.748	Yaw Set Point:	0.727	X_WP:	0.000	Y_WP:	0.000	Y_WP:	0.500	X:	0.922	Y:	-0.779	Z:	0.040	yaw:	-41.659	yaw rate:	2.230	Roll:	30.000	Pitch:	1.667	Yaw:	-62.743	Thrust:	100.000
Time:	5.852	Roll Set Point:	-2.129	Pitch Set Point:	0.749	Yaw Set Point:	0.727	X_WP:	0.000	Y_WP:	0.000	Y_WP:	0.500	X:	0.922	Y:	-0.779	Z:	0.040	yaw:	-41.636	yaw rate:	2.303	Roll:	30.000	Pitch:	0.736	Yaw:	-61.856	Thrust:	100.000
Time:	5.874	Roll Set Point:	-2.129	Pitch Set Point:	0.749	Yaw Set Point:	0.726	X_WP:	0.000	Y_WP:	0.000	Y_WP:	0.500	X:	0.922	Y:	-0.779	Z:	0.040	yaw:	-41.625	yaw rate:	3.594	Roll:	30.000	Pitch:	1.012	Yaw:	-62.507	Thrust:	100.000
Time:	5.893	Roll Set Point:	-2.129	Pitch Set Point:	0.748	Yaw Set Point:	0.727	X_WP:	0.000	Y_WP:	0.000	Y_WP:	0.500	X:	0.922	Y:	-0.779	Z:	0.040	yaw:	-41.673	yaw rate:	-4.751	Roll:	30.000	Pitch:	2.049	Yaw:	-62.576	Thrust:	100.000
Time:	5.914	Roll Set Point:	-2.129	Pitch Set Point:	0.749	Yaw Set Point:	0.726	X_WP:	0.000	Y_WP:	0.000	Y_WP:	0.500	X:	0.922	Y:	-0.779	Z:	0.040	yaw:	-41.618	yaw rate:	3.265	Roll:	30.000	Pitch:	0.190	Yaw:	-61.733	Thrust:	100.000
Time:	5.936	Roll Set Point:	-2.129	Pitch Set Point:	0.748	Yaw Set Point:	0.727	X_WP:	0.000	Y_WP:	0.000	Y_WP:	0.500	X:	0.922	Y:	-0.779	Z:	0.040	yaw:	-41.672	yaw rate:	-0.916	Roll:	30.000	Pitch:	2.085	Yaw:	-63.172	Thrust:	100.000
Time:	5.955	Roll Set Point:	-2.129	Pitch Set Point:	0.748	Yaw Set Point:	0.728	X_WP:	0.000	Y_WP:	0.000	Y_WP:	0.500	X:	0.922	Y:	-0.779	Z:	0.040	yaw:	-41.686	yaw rate:	-1.361	Roll:	30.000	Pitch:	1.448	Yaw:	-62.218	Thrust:	100.000
Time:	5.977	Roll Set Point:	-2.129	Pitch Set Point:	0.740	Yaw Set Point:	0.734	X_WP:	0.000	Y_WP:	0.000	Y_WP:	0.500	X:	0.922	Y:	-0.779	Z:	0.040	yaw:	-42.063	yaw rate:	2.692	Roll:	30.000	Pitch:	7.470	Yaw:	-67.614	Thrust:	100.000
Time:	5.999	Roll Set Point:	-2.129	Pitch Set Point:	0.740	Yaw Set Point:	0.735	X_WP:	0.000	Y_WP:	0.000	Y_WP:	0.500	X:	0.922	Y:	-0.779	Z:	0.040	yaw:	-42.094	yaw rate:	-40.886	Roll:	30.000	Pitch:	1.998	Yaw:	-63.450	Thrust:	100.000
Time:	6.020	Roll Set Point:	-0.981	Pitch Set Point:	0.801	Yaw Set Point:	0.735	X_WP:	0.894	Y_WP:	-0.724	Y_WP:	0.500	X:	0.922	Y:	-0.779	Z:	0.040	yaw:	-42.092	yaw rate:	-5.471	Roll:	-30.000	Pitch:	-30.000	Yaw:	-63.090	Thrust:	100.000
Time:	6.042	Roll Set Point:	-0.981	Pitch Set Point:	0.801	Yaw Set Point:	0.735	X_WP:	0.894	Y_WP:	-0.724	Y_WP:	0.500	X:	0.922	Y:	-0.779	Z:	0.040	yaw:	-42.089	yaw rate:	-0.827	Roll:	2.495	Pitch:	-0.326	Yaw:	-63.092	Thrust:	100.000
Time:	6.060	Roll Set Point:	-0.981	Pitch Set Point:	0.801	Yaw Set Point:	0.734	X_WP:	0.894	Y_WP:	-0.724	Y_WP:	0.500	X:	0.922	Y:	-0.779	Z:	0.040	yaw:	-42.070	yaw rate:	1.924	Roll:	2.401	Pitch:	-0.389	Yaw:	-62.192	Thrust:	100.000
Time:	6.081	Roll Set Point:	-0.981	Pitch Set Point:	0.801	Yaw Set Point:	0.734	X_WP:	0.894	Y_WP:	-0.724	Y_WP:	0.500	X:	0.922	Y:	-0.779	Z:	0.040	yaw:	-42.070	yaw rate:	-1.807	Roll:	2.457	Pitch:	-0.354	Yaw:	-62.909	Thrust:	100.000
Time:	6.103	Roll Set Point:	-0.981	Pitch Set Point:	0.801	Yaw Set Point:	0.734	X_WP:	0.894	Y_WP:	-0.724	Y_WP:	0.500	X:	0.922	Y:	-0.779	Z:	0.040	yaw:	-42.081	yaw rate:	-1.136	Roll:	2.502	Pitch:	-0.315	Yaw:	-63.204	Thrust:	100.000
Time:	6.122	Roll Set Point:	-0.981	Pitch Set Point:	0.801	Yaw Set Point:	0.734	X_WP:	0.894	Y_WP:	-0.724	Y_WP:	0.500	X:	0.922	Y:	-0.779	Z:	0.040	yaw:	-42.079	yaw rate:	-0.241	Roll:	2.431	Pitch:	-0.359	Yaw:	-62.574	Thrust:	100.000
Time:	6.143	Roll Set Point:	-0.981	Pitch Set Point:	0.801	Yaw Set Point:	0.734	X_WP:	0.894	Y_WP:	-0.724	Y_WP:	0.500	X:	0.922	Y:	-0.779	Z:	0.040	yaw:	-42.051	yaw rate:	-1.521	Roll:	2.450	Pitch:	-0.384	Yaw:	-62.528	Thrust:	100.000
Time:	6.163	Roll Set Point:	-0.981	Pitch Set Point:	0.801	Yaw Set Point:	0.734	X_WP:	0.894	Y_WP:	-0.724	Y_WP:	0.500	X:	0.922	Y:	-0.779	Z:	0.040	yaw:	-42.072	yaw rate:	-42.284	Roll:	2.468	Pitch:	-0.323	Yaw:	-63.092	Thrust:	100.000
Time:	6.183	Roll Set Point:	-0.981	Pitch Set Point:	0.801	Yaw Set Point:	0.734	X_WP:	0.894	Y_WP:	-0.724	Y_WP:	0.500	X:	0.922	Y:	-0.779	Z:	0.040	yaw:	-42.061	yaw rate:	1.081	Roll:	2.432	Pitch:	-0.381	Yaw:	-62.366	Thrust:	100.000
Time:	6.205	Roll Set Point:	-0.981	Pitch Set Point:	0.801	Yaw Set Point:	0.734	X_WP:	0.894	Y_WP:	-0.724	Y_WP:	0.500	X:	0.922	Y:	-0.779	Z:	0.040	yaw:	-42.043	yaw rate:	-3.845	Roll:	2.498	Pitch:	-0.346	Yaw:	-62.992	Thrust:	100.000
Time:	6.225	Roll Set Point:	-0.981	Pitch Set Point:	0.801	Yaw Set Point:	0.734	X_WP:	0.894	Y_WP:	-0.724	Y_WP:	0.500	X:	0.922	Y:	-0.779	Z:	0.040	yaw:	-42.049	yaw rate:	-0.683	Roll:	2.444	Pitch:	-0.353	Yaw:	-62.803	Thrust:	100.000
Time:	6.246	Roll Set Point:	-0.981	Pitch Set Point:	0.801	Yaw Set Point:	0.734	X_WP:	0.894	Y_WP:	-0.724	Y_WP:	0.500	X:	0.922	Y:	-0.779	Z:	0.040	yaw:	-42.081	yaw rate:	1.178	Roll:	2.479	Pitch:	-0.332	Yaw:	-63.121	Thrust:	100.000
Time:	6.267	Roll Set Point:	-0.981	Pitch Set Point:	0.801	Yaw Set Point:	0.734	X_WP:	0.894	Y_WP:	-0.724	Y_WP:	0.500	X:	0.922	Y:	-0.779	Z:	0.040	yaw:	-42.031	yaw rate:	5.001	Roll:	2.474	Pitch:	-0.379	Yaw:	-62.546	Thrust:	100.000
Time:	6.288	Roll Set Point:	-0.981	Pitch Set Point:	0.801	Yaw Set Point:	0.734	X_WP:	0.894	Y_WP:	-0.724	Y_WP:	0.500	X:	0.922	Y:	-0.779	Z:	0.040	yaw:	-42.049	yaw rate:	5.729	Roll:	2.493	Pitch:	-0.340	Yaw:	-63.166	Thrust:	100.000
Time:	6.309	Roll Set Point:	-0.981	Pitch Set Point:	0.801	Yaw Set Point:	0.734	X_WP:	0.894	Y_WP:	-0.724	Y_WP:	0.500	X:	0.922	Y:	-0.779	Z:	0.040	yaw:	-42.062	yaw rate:	3.498	Roll:	2.503	Pitch:	-0.334	Yaw:	-63.182	Thrust:	100.000
Time:	6.330	Roll Set Point:	-0.980	Pitch Set Point:	0.803	Yaw Set Point:	0.716	X_WP:	0.894	Y_WP:	-0.724	Y_WP:	0.500	X:	0.923	Y:	-0.780	Z:	0.041	yaw:	-41.022	yaw rate:	104.043	Roll:	2.073	Pitch:	-1.228	Yaw:	-47.828	Thrust:	100.000
Time:	6.350	Roll Set Point:	-0.981	Pitch Set Point:	0.802	Yaw Set Point:	0.727	X_WP:	0.894	Y_WP:	-0.724	Y_WP:	0.500	X:	0.922	Y:	-0.779	Z:	0.040	yaw:	-41.653	yaw rate:	-6.831	Roll:	2.678	Pitch:	0.149	Yaw:	-70.397	Thrust:	100.000
Time:	6.371	Roll Set Point:	-0.981	Pitch Set Point:	0.802	Yaw Set Point:	0.728	X_WP:	0.894	Y_WP:	-0.724	Y_WP:	0.500	X:	0.922	Y:	-0.779	Z:	0.040	yaw:	-41.710	yaw rate:	-1.831	Roll:	2.536	Pitch:	-0.305	Yaw:	-63.255	Thrust:	100.000
Time:	6.391	Roll Set Point:	-0.981	Pitch Set Point:	0.803	Yaw Set Point:	0.716	X_WP:	0.894	Y_WP:	-0.724	Y_WP:	0.500	X:	0.923	Y:	-0.780	Z:	0.041	yaw:	-41.040	yaw rate:	66.965	Roll:	2.148	Pitch:	-0.970	Yaw:	-52.336	Thrust:	100.000
Time:	6.412	Roll Set Point:	-0.981	Pitch Set Point:	0.802	Yaw Set Point:	0.727	X_WP:	0.894	Y_WP:	-0.724	Y_WP:	0.500	X:	0.922	Y:	-0.779	Z:	0.040	yaw:	-41.655	yaw rate:	-4.086	Roll:	2.677	Pitch:	0.128	Yaw:	-70.104	Thrust:	100.000
Time:	6.434	Roll Set Point:	-0.981	Pitch Set Point:	0.802	Yaw Set Point:	0.726	X_WP:	0.894	Y_WP:	-0.724	Y_WP:	0.500	X:	0.922	Y:	-0.779	Z:	0.040	yaw:	-41.612	yaw rate:	1.462	Roll:	2.512	Pitch:	-0.387	Yaw:	-61.968	Thrust:	100.000
Time:	6.453	Roll Set Point:	-0.981	Pitch Set Point:	0.802	Yaw Set Point:	0.727	X_WP:	0.894	Y_WP:	-0.724	Y_WP:	0.500	X:	0.922	Y:	-0.779	Z:	0.040	yaw:	-41.662	yaw rate:	-4.943	Roll:	2.421	Pitch:	-0.340	Yaw:	-62.743	Thrust:	100.000
Time:	6.475	Roll Set Point:	-0.981	Pitch Set Point:	0.802	Yaw Set Point:	0.728	X_WP:	0.894	Y_WP:	-0.724	Y_WP:	0.500	X:	0.922	Y:	-0.779	Z:	0.040	yaw:	-41.697	yaw rate:	-2.648	Roll:	2.521	Pitch:	-0.344	Yaw:	-63.020	Thrust:	100.000
Time:	6.494	Roll Set Point:	-0.980	Pitch Set Point:	0.803	Yaw Set Point:	0.716	X_WP:	0.894	Y_WP:	-0.724	Y_WP:	0.500	X:	0.923	Y:	-0.780	Z:	0.041	yaw:	-41.028	yaw rate:	68.354	Roll:	2.139	Pitch:	-0.980	Yaw:	-51.917	Thrust:	100.000
Time:	6.514	Roll Set Point:	-0.981	Pitch Set Point:	0.802	Yaw Set Point:	0.728	X_WP:	0.894	Y_WP:	-0.724	Y_WP:	0.500	X:	0.922	Y:	-0.779	Z:	0.040	yaw:	-41.685	yaw rate:	-5.579	Roll:	2.686	Pitch:	0.163	Yaw:	-70.738	Thrust:	100.000
Time:	6.535	Roll Set Point:	-0.981	Pitch Set Point:	0.803	Yaw Set Point:	0.716	X_WP:	0.894	Y_WP:	-0.724	Y_WP:	0.500	X:	0.923	Y:	-0.780	Z:	0.041	yaw:	-41.005	yaw rate:	68.047	Roll:	2.236	Pitch:	-0.912	Yaw:	-52.711	Thrust:	100.000
Time:	6.555	Roll Set Point:	-0.981	Pitch Set Point:	0.802	Yaw Set Point:	0.727	X_WP:	0.894	Y_WP:	-0.724	Y_WP:	0.500	X:	0.922	Y:	-0.779	Z:	0.040	yaw:	-41.646	yaw rate:	-5.446	Roll:	2.689	Pitch:	0.139	Yaw:	-70.515	Thrust:	100.000
Time:	6.576	Roll Set Point:	-0.981	Pitch Set Point:	0.802	Yaw Set Point:	0.727	X_WP:	0.894	Y_WP:	-0.724	Y_WP:	0.500	X:	0.922	Y:	-0.779	Z:	0.040	yaw:	-41.664	yaw rate:	3.339	Roll:	2.457	Pitch:	-0.370	Yaw:	-62.644	Thrust:	100.000
Time:	6.596	Roll Set Point:	-0.981	Pitch Set Point:	0.802	Yaw Set Point:	0.727	X_WP:	0.894	Y_WP:	-0.724	Y_WP:	0.500	X:	0.922	Y:	-0.779	Z:	0.040	yaw:	-41.670	yaw rate:	-0.612	Roll:	2.438	Pitch:	-0.381	Yaw:	-62.169	Thrust:	100.000
Time:	6.617	Roll Set Point:	-0.981	Pitch Set Point:	0.802	Yaw Set Point:	0.727	X_WP:	0.894	Y_WP:	-0.724	Y_WP:	0.500	X:	0.922	Y:	-0.779	Z:	0.040	yaw:	-41.646	yaw rate:	-0.666	Roll:	2.440	Pitch:	-0.411	Yaw:	-61.998	Thrust:	100.000
Time:	6.648	Roll Set Point:	-0.981	Pitch Set Point:	0.802	Yaw Set Point:	0.727	X_WP:	0.894	Y_WP:	-0.724	Y_WP:	0.500	X:	0.922	Y:	-0.779	Z:	0.040	yaw:	-41.629	yaw rate:	7.597	Roll:	2.854	Pitch:	-0.268	Yaw:	-64.220	Thrust:	100.000
Time:	6.672	Roll Set Point:	-0.981	Pitch Set Point:	0.802	Yaw Set Point:	0.728	X_WP:	0.894	Y_WP:	-0.724	Y_WP:	0.500	X:	0.922	Y:	-0.779	Z:	0.040	yaw:	-41.691	yaw rate:	-1.339	Roll:	2.611	Pitch:	-0.293	Yaw:	-63.714	Thrust:	100.000
Time:	6.691	Roll Set Point:	-0.981	Pitch Set Point:	0.802	Yaw Set Point:	0.727	X_WP:	0.894	Y_WP:	-0.724	Y_WP:	0.500	X:	0.922	Y:	-0.779	Z:	0.040	yaw:	-41.640	yaw rate:	5.084	Roll:	2.398	Pitch:	-0.452	Yaw:	-61.194	Thrust:	100.000
Time:	6.711	Roll Set Point:	-0.981	Pitch Set Point:	0.801	Yaw Set Point:	0.734	X_WP:	0.894	Y_WP:	-0.724	Y_WP:	0.500	X:	0.922	Y:	-0.779	Z:	0.040	yaw:	-42.036	yaw rate:	-0.261	Roll:	2.579	Pitch:	-0.052	Yaw:	-67.842	Thrust:	100.000
Time:	6.733	Roll Set Point:	-0.981	Pitch Set Point:	0.801	Yaw Set Point:	0.735	X_WP:	0.894	Y_WP:	-0.724	Y_WP:	0.500	X:	0.922	Y:	-0.779	Z:	0.040	yaw:	-42.088	yaw rate:	-5.237	Roll:	2.517	Pitch:	-0.314	Yaw:	-63.733	Thrust:	100.000
Time:	6.753	Roll Set Point:	-0.980	Pitch Set Point:	0.802	Yaw Set Point:	0.727	X_WP:	0.894	Y_WP:	-0.724	Y_WP:	0.500	X:	0.922	Y:	-0.780	Z:	0.040	yaw:	-41.660	yaw rate:	40.856	Roll:	2.250	Pitch:	-0.789	Yaw:	-56.097	Thrust:	100.000
Time:	6.775	Roll Set Point:	-0.981	Pitch Set Point:	0.802	Yaw Set Point:	0.727	X_WP:	0.894	Y_WP:	-0.724	Y_WP:	0.500	X:	0.922	Y:	-0.779	Z:	0.040	yaw:	-41.642	yaw rate:	-63.454	Roll:	2.533	Pitch:	-0.386	Yaw:	-62.309	Thrust:	100.000
Time:	6.795	Roll Set Point:	-0.981	Pitch Set Point:	0.802	Yaw Set Point:	0.727	X_WP:	0.894	Y_WP:	-0.724	Y_WP:	0.500	X:	0.922	Y:	-0.779	Z:	0.040	yaw:	-41.639	yaw rate:	8.432	Roll:	2.485	Pitch:	-0.395	Yaw:	-62.354	Thrust:	100.000
Time:	6.815	Roll Set Point:	-0.981	Pitch Set Point:	0.802	Yaw Set Point:	0.727	X_WP:	0.894	Y_WP:	-0.724	Y_WP:	0.500	X:	0.922	Y:	-0.779	Z:	0.040	yaw:	-41.660	yaw rate:	-2.179	Roll:	2.434	Pitch:	-0.395	Yaw:	-62.479	Thrust:	100.000
Time:	6.838	Roll Set Point:	-0.981	Pitch Set Point:	0.802	Yaw Set Point:	0.727	X_WP:	0.894	Y_WP:	-0.724	Y_WP:	0.500	X:	0.922	Y:	-0.779	Z:	0.040	yaw:	-41.655	yaw rate:	0.028	Roll:	2.517	Pitch:	-0.375	Yaw:	-62.536	Thrust:	100.000
Time:	6.857	Roll Set Point:	-0.981	Pitch Set Point:	0.802	Yaw Set Point:	0.728	X_WP:	0.894	Y_WP:	-0.724	Y_WP:	0.500	X:	0.922	Y:	-0.779	Z:	0.040	yaw:	-41.690	yaw rate:	-3.471	Roll:	2.436	Pitch:	-0.380	Yaw:	-62.508	Thrust:	100.000
Time:	6.877	Roll Set Point:	-0.981	Pitch Set Point:	0.802	Yaw Set Point:	0.728	X_WP:	0.894	Y_WP:	-0.724	Y_WP:	0.500	X:	0.922	Y:	-0.779	Z:	0.040	yaw:	-41.708	yaw rate:	-5.511	Roll:	2.454	Pitch:	-0.393	Yaw:	-62.594	Thrust:	100.000
Time:	6.899	Roll Set Point:	-0.981	Pitch Set Point:	0.802	Yaw Set Point:	0.726	X_WP:	0.894	Y_WP:	-0.724	Y_WP:	0.500	X:	0.922	Y:	-0.779	Z:	0.040	yaw:	-41.619	yaw rate:	4.735	Roll:	2.481	Pitch:	-0.456	Yaw:	-61.311	Thrust:	100.000
Time:	6.919	Roll Set Point:	-0.981	Pitch Set Point:	0.802	Yaw Set Point:	0.728	X_WP:	0.894	Y_WP:	-0.724	Y_WP:	0.500	X:	0.922	Y:	-0.779	Z:	0.040	yaw:	-41.685	yaw rate:	-6.633	Roll:	2.452	Pitch:	-0.354	Yaw:	-63.103	Thrust:	100.000
Time:	6.950	Roll Set Point:	-0.980	Pitch Set Point:	0.803	Yaw Set Point:	0.716	X_WP:	0.894	Y_WP:	-0.724	Y_WP:	0.500	X:	0.923	Y:	-0.780	Z:	0.041	yaw:	-41.005	yaw rate:	64.387	Roll:	2.676	Pitch:	-0.682	Yaw:	-57.597	Thrust:	100.000
Time:	6.972	Roll Set Point:	-0.981	Pitch Set Point:	0.802	Yaw Set Point:	0.727	X_WP:	0.894	Y_WP:	-0.724	Y_WP:	0.500	X:	0.922	Y:	-0.779	Z:	0.040	yaw:	-41.652	yaw rate:	1.047	Roll:	2.725	Pitch:	0.099	Yaw:	-70.226	Thrust:	100.000
Time:	6.991	Roll Set Point:	-0.981	Pitch Set Point:	0.802	Yaw Set Point:	0.727	X_WP:	0.894	Y_WP:	-0.724	Y_WP:	0.500	X:	0.922	Y:	-0.779	Z:	0.040	yaw:	-41.649	yaw rate:	0.244	Roll:	2.423	Pitch:	-0.421	Yaw:	-61.943	Thrust:	100.000
Time:	7.012	Roll Set Point:	-0.981	Pitch Set Point:	0.802	Yaw Set Point:	0.727	X_WP:	0.894	Y_WP:	-0.724	Y_WP:	0.500	X:	0.922	Y:	-0.779	Z:	0.040	yaw:	-41.648	yaw rate:	-0.940	Roll:	2.465	Pitch:	-0.412	Yaw:	-62.387	Thrust:	100.000
Time:	7.034	Roll Set Point:	-0.981	Pitch Set Point:	0.802	Yaw Set Point:	0.728	X_WP:	0.894	Y_WP:	-0.724	Y_WP:	0.500	X:	0.922	Y:	-0.779	Z:	0.040	yaw:	-41.701	yaw rate:	-5.234	Roll:	2.526	Pitch:	-0.344	Yaw:	-63.135	Thrust:	100.000
Time:	7.054	Roll Set Point:	-0.981	Pitch Set Point:	0.802	Yaw Set Point:	0.727	X_WP:	0.894	Y_WP:	-0.724	Y_WP:	0.500	X:	0.922	Y:	-0.779	Z:	0.040	yaw:	-41.636	yaw rate:	-1.976	Roll:	2.403	Pitch:	-0.472	Yaw:	-61.313	Thrust:	100.000
Time:	7.076	Roll Set Point:	-0.981	Pitch Set Point:	0.802	Yaw Set Point:	0.728	X_WP:	0.894	Y_WP:	-0.724	Y_WP:	0.500	X:	0.922	Y:	-0.779	Z:	0.040	yaw:	-41.713	yaw rate:	0.781	Roll:	2.564	Pitch:	-0.334	Yaw:	-63.666	Thrust:	100.000
Time:	7.096	Roll Set Point:	-0.981	Pitch Set Point:	0.802	Yaw Set Point:	0.727	X_WP:	0.894	Y_WP:	-0.724	Y_WP:	0.500	X:	0.922	Y:	-0.779	Z:	0.040	yaw:	-41.666	yaw rate:	4.742	Roll:	2.430	Pitch:	-0.449	Yaw:	-61.501	Thrust:	100.000
Time:	7.117	Roll Set Point:	-0.981	Pitch Set Point:	0.802	Yaw Set Point:	0.727	X_WP:	0.894	Y_WP:	-0.724	Y_WP:	0.500	X:	0.922	Y:	-0.779	Z:	0.040	yaw:	-41.657	yaw rate:	0.973	Roll:	2.443	Pitch:	-0.429	Yaw:	-62.186	Thrust:	100.000
Time:	7.138	Roll Set Point:	-0.981	Pitch Set Point:	0.802	Yaw Set Point:	0.727	X_WP:	0.894	Y_WP:	-0.724	Y_WP:	0.500	X:	0.922	Y:	-0.779	Z:	0.040	yaw:	-41.641	yaw rate:	1.627	Roll:	2.491	Pitch:	-0.408	Yaw:	-62.279	Thrust:	100.000
Time:	7.158	Roll Set Point:	-0.981	Pitch Set Point:	0.802	Yaw Set Point:	0.727	X_WP:	0.894	Y_WP:	-0.724	Y_WP:	0.500	X:	0.922	Y:	-0.779	Z:	0.040	yaw:	-41.665	yaw rate:	7.323	Roll:	2.432	Pitch:	-0.407	Yaw:	-62.400	Thrust:	100.000
Time:	7.179	Roll Set Point:	-0.981	Pitch Set Point:	0.802	Yaw Set Point:	0.727	X_WP:	0.894	Y_WP:	-0.724	Y_WP:	0.500	X:	0.922	Y:	-0.779	Z:	0.040	yaw:	-41.675	yaw rate:	-1.032	Roll:	2.480	Pitch:	-0.397	Yaw:	-62.506	Thrust:	100.000
Time:	7.200	Roll Set Point:	-0.981	Pitch Set Point:	0.802	Yaw Set Point:	0.728	X_WP:	0.894	Y_WP:	-0.724	Y_WP:	0.500	X:	0.922	Y:	-0.779	Z:	0.040	yaw:	-41.696	yaw rate:	-0.189	Roll:	2.481	Pitch:	-0.400	Yaw:	-62.669	Thrust:	100.000
Time:	7.221	Roll Set Point:	-0.981	Pitch Set Point:	0.802	Yaw Set Point:	0.727	X_WP:	0.894	Y_WP:	-0.724	Y_WP:	0.500	X:	0.922	Y:	-0.779	Z:	0.040	yaw:	-41.660	yaw rate:	-3.963	Roll:	2.429	Pitch:	-0.459	Yaw:	-62.071	Thrust:	100.000
Time:	7.254	Roll Set Point:	-0.981	Pitch Set Point:	0.801	Yaw Set Point:	0.735	X_WP:	0.894	Y_WP:	-0.724	Y_WP:	0.500	X:	0.922	Y:	-0.779	Z:	0.040	yaw:	-42.088	yaw rate:	-0.727	Roll:	3.089	Pitch:	-0.038	Yaw:	-68.721	Thrust:	100.000
Time:	7.276	Roll Set Point:	-0.981	Pitch Set Point:	0.801	Yaw Set Point:	0.735	X_WP:	0.894	Y_WP:	-0.724	Y_WP:	0.500	X:	0.922	Y:	-0.779	Z:	0.040	yaw:	-42.095	yaw rate:	-3.000	Roll:	2.477	Pitch:	-0.400	Yaw:	-63.228	Thrust:	100.000
Time:	7.296	Roll Set Point:	-0.981	Pitch Set Point:	0.801	Yaw Set Point:	0.734	X_WP:	0.894	Y_WP:	-0.724	Y_WP:	0.500	X:	0.922	Y:	-0.779	Z:	0.040	yaw:	-42.038	yaw rate:	5.731	Roll:	2.434	Pitch:	-0.461	Yaw:	-61.901	Thrust:	100.000
Time:	7.316	Roll Set Point:	-0.981	Pitch Set Point:	0.801	Yaw Set Point:	0.734	X_WP:	0.894	Y_WP:	-0.724	Y_WP:	0.500	X:	0.922	Y:	-0.779	Z:	0.040	yaw:	-42.083	yaw rate:	-5.003	Roll:	2.467	Pitch:	-0.377	Yaw:	-63.456	Thrust:	100.000
Time:	7.339	Roll Set Point:	-0.981	Pitch Set Point:	0.801	Yaw Set Point:	0.734	X_WP:	0.894	Y_WP:	-0.724	Y_WP:	0.500	X:	0.922	Y:	-0.779	Z:	0.040	yaw:	-42.083	yaw rate:	0.053	Roll:	2.540	Pitch:	-0.390	Yaw:	-63.185	Thrust:	100.000
Time:	7.372	Roll Set Point:	-0.981	Pitch Set Point:	0.801	Yaw Set Point:	0.734	X_WP:	0.894	Y_WP:	-0.724	Y_WP:	0.500	X:	0.922	Y:	-0.779	Z:	0.040	yaw:	-42.052	yaw rate:	0.711	Roll:	2.917	Pitch:	-0.291	Yaw:	-65.042	Thrust:	100.000
Time:	7.391	Roll Set Point:	-0.981	Pitch Set Point:	0.801	Yaw Set Point:	0.734	X_WP:	0.894	Y_WP:	-0.724	Y_WP:	0.500	X:	0.922	Y:	-0.779	Z:	0.040	yaw:	-42.030	yaw rate:	2.175	Roll:	2.417	Pitch:	-0.453	Yaw:	-62.290	Thrust:	100.000
Time:	7.412	Roll Set Point:	-0.981	Pitch Set Point:	0.802	Yaw Set Point:	0.727	X_WP:	0.894	Y_WP:	-0.724	Y_WP:	0.500	X:	0.922	Y:	-0.779	Z:	0.040	yaw:	-41.647	yaw rate:	-0.473	Roll:	2.335	Pitch:	-0.744	Yaw:	-57.512	Thrust:	100.000
Time:	7.433	Roll Set Point:	-0.981	Pitch Set Point:	0.802	Yaw Set Point:	0.727	X_WP:	0.894	Y_WP:	-0.724	Y_WP:	0.500	X:	0.922	Y:	-0.779	Z:	0.040	yaw:	-41.644	yaw rate:	0.274	Roll:	2.497	Pitch:	-0.413	Yaw:	-62.345	Thrust:	100.000
Time:	7.452	Roll Set Point:	-0.981	Pitch Set Point:	0.802	Yaw Set Point:	0.727	X_WP:	0.894	Y_WP:	-0.724	Y_WP:	0.500	X:	0.922	Y:	-0.779	Z:	0.040	yaw:	-41.682	yaw rate:	-0.323	Roll:	2.415	Pitch:	-0.414	Yaw:	-62.622	Thrust:	100.000
Time:	7.474	Roll Set Point:	-0.981	Pitch Set Point:	0.801	Yaw Set Point:	0.735	X_WP:	0.894	Y_WP:	-0.724	Y_WP:	0.500	X:	0.922	Y:	-0.779	Z:	0.040	yaw:	-42.087	yaw rate:	0.350	Roll:	2.626	Pitch:	-0.092	Yaw:	-67.994	Thrust:	100.000
Time:	7.494	Roll Set Point:	-0.981	Pitch Set Point:	0.801	Yaw Set Point:	0.733	X_WP:	0.894	Y_WP:	-0.724	Y_WP:	0.500	X:	0.922	Y:	-0.779	Z:	0.040	yaw:	-42.025	yaw rate:	6.237	Roll:	2.446	Pitch:	-0.467	Yaw:	-61.904	Thrust:	100.000
Time:	7.515	Roll Set Point:	-0.981	Pitch Set Point:	0.801	Yaw Set Point:	0.734	X_WP:	0.894	Y_WP:	-0.724	Y_WP:	0.500	X:	0.922	Y:	-0.779	Z:	0.040	yaw:	-42.068	yaw rate:	1.838	Roll:	2.485	Pitch:	-0.388	Yaw:	-63.499	Thrust:	100.000
Time:	7.537	Roll Set Point:	-0.981	Pitch Set Point:	0.801	Yaw Set Point:	0.734	X_WP:	0.894	Y_WP:	-0.724	Y_WP:	0.500	X:	0.922	Y:	-0.779	Z:	0.040	yaw:	-42.032	yaw rate:	0.781	Roll:	2.477	Pitch:	-0.441	Yaw:	-62.373	Thrust:	100.000
Time:	7.556	Roll Set Point:	-0.981	Pitch Set Point:	0.801	Yaw Set Point:	0.734	X_WP:	0.894	Y_WP:	-0.724	Y_WP:	0.500	X:	0.922	Y:	-0.779	Z:	0.040	yaw:	-42.028	yaw rate:	4.620	Roll:	2.407	Pitch:	-0.446	Yaw:	-62.556	Thrust:	100.000
Time:	7.577	Roll Set Point:	-0.981	Pitch Set Point:	0.801	Yaw Set Point:	0.734	X_WP:	0.894	Y_WP:	-0.724	Y_WP:	0.500	X:	0.922	Y:	-0.779	Z:	0.040	yaw:	-42.083	yaw rate:	-0.498	Roll:	2.514	Pitch:	-0.374	Yaw:	-63.718	Thrust:	100.000
Time:	7.597	Roll Set Point:	-0.981	Pitch Set Point:	0.801	Yaw Set Point:	0.734	X_WP:	0.894	Y_WP:	-0.724	Y_WP:	0.500	X:	0.922	Y:	-0.779	Z:	0.040	yaw:	-42.069	yaw rate:	1.431	Roll:	2.451	Pitch:	-0.432	Yaw:	-62.537	Thrust:	100.000
Time:	7.617	Roll Set Point:	-0.981	Pitch Set Point:	0.801	Yaw Set Point:	0.735	X_WP:	0.894	Y_WP:	-0.724	Y_WP:	0.500	X:	0.922	Y:	-0.779	Z:	0.040	yaw:	-42.092	yaw rate:	-3.018	Roll:	2.427	Pitch:	-0.425	Yaw:	-63.027	Thrust:	100.000
Time:	7.638	Roll Set Point:	-0.981	Pitch Set Point:	0.801	Yaw Set Point:	0.734	X_WP:	0.894	Y_WP:	-0.724	Y_WP:	0.500	X:	0.922	Y:	-0.779	Z:	0.040	yaw:	-42.041	yaw rate:	5.070	Roll:	2.487	Pitch:	-0.453	Yaw:	-62.284	Thrust:	100.000
Time:	7.657	Roll Set Point:	-0.981	Pitch Set Point:	0.801	Yaw Set Point:	0.734	X_WP:	0.894	Y_WP:	-0.724	Y_WP:	0.500	X:	0.922	Y:	-0.779	Z:	0.040	yaw:	-42.055	yaw rate:	1.887	Roll:	2.421	Pitch:	-0.434	Yaw:	-62.691	Thrust:	100.000
Time:	7.678	Roll Set Point:	-0.981	Pitch Set Point:	0.801	Yaw Set Point:	0.734	X_WP:	0.894	Y_WP:	-0.724	Y_WP:	0.500	X:	0.922	Y:	-0.779	Z:	0.040	yaw:	-42.065	yaw rate:	-0.904	Roll:	2.506	Pitch:	-0.412	Yaw:	-63.163	Thrust:	100.000
Time:	7.704	Roll Set Point:	-0.981	Pitch Set Point:	0.801	Yaw Set Point:	0.733	X_WP:	0.894	Y_WP:	-0.724	Y_WP:	0.500	X:	0.922	Y:	-0.779	Z:	0.040	yaw:	-42.025	yaw rate:	-1.375	Roll:	2.612	Pitch:	-0.413	Yaw:	-63.317	Thrust:	100.000
Time:	7.724	Roll Set Point:	-0.981	Pitch Set Point:	0.801	Yaw Set Point:	0.734	X_WP:	0.894	Y_WP:	-0.724	Y_WP:	0.500	X:	0.922	Y:	-0.779	Z:	0.040	yaw:	-42.054	yaw rate:	-2.899	Roll:	2.439	Pitch:	-0.417	Yaw:	-63.125	Thrust:	100.000
Time:	7.745	Roll Set Point:	-0.981	Pitch Set Point:	0.801	Yaw Set Point:	0.734	X_WP:	0.894	Y_WP:	-0.724	Y_WP:	0.500	X:	0.922	Y:	-0.779	Z:	0.040	yaw:	-42.053	yaw rate:	1.916	Roll:	2.495	Pitch:	-0.430	Yaw:	-62.985	Thrust:	100.000
Time:	7.767	Roll Set Point:	-0.981	Pitch Set Point:	0.801	Yaw Set Point:	0.735	X_WP:	0.894	Y_WP:	-0.724	Y_WP:	0.500	X:	0.922	Y:	-0.779	Z:	0.040	yaw:	-42.097	yaw rate:	-4.865	Roll:	2.556	Pitch:	-0.381	Yaw:	-63.742	Thrust:	100.000
Time:	7.789	Roll Set Point:	-0.981	Pitch Set Point:	0.801	Yaw Set Point:	0.734	X_WP:	0.894	Y_WP:	-0.724	Y_WP:	0.500	X:	0.922	Y:	-0.779	Z:	0.040	yaw:	-42.063	yaw rate:	1.255	Roll:	2.418	Pitch:	-0.451	Yaw:	-62.743	Thrust:	100.000
Time:	7.811	Roll Set Point:	-0.981	Pitch Set Point:	0.801	Yaw Set Point:	0.733	X_WP:	0.894	Y_WP:	-0.724	Y_WP:	0.500	X:	0.922	Y:	-0.779	Z:	0.040	yaw:	-42.015	yaw rate:	3.228	Roll:	2.517	Pitch:	-0.472	Yaw:	-62.093	Thrust:	100.000
Time:	7.833	Roll Set Point:	-0.981	Pitch Set Point:	0.801	Yaw Set Point:	0.734	X_WP:	0.894	Y_WP:	-0.724	Y_WP:	0.500	X:	0.922	Y:	-0.779	Z:	0.040	yaw:	-42.071	yaw rate:	-5.597	Roll:	2.566	Pitch:	-0.377	Yaw:	-63.973	Thrust:	100.000
Time:	7.855	Roll Set Point:	-0.981	Pitch Set Point:	0.801	Yaw Set Point:	0.734	X_WP:	0.894	Y_WP:	-0.724	Y_WP:	0.500	X:	0.922	Y:	-0.779	Z:	0.040	yaw:	-42.061	yaw rate:	0.558	Roll:	2.462	Pitch:	-0.432	Yaw:	-63.127	Thrust:	100.000
Time:	7.876	Roll Set Point:	-0.981	Pitch Set Point:	0.801	Yaw Set Point:	0.734	X_WP:	0.894	Y_WP:	-0.724	Y_WP:	0.500	X:	0.922	Y:	-0.779	Z:	0.040	yaw:	-42.076	yaw rate:	2.128	Roll:	2.554	Pitch:	-0.416	Yaw:	-63.095	Thrust:	100.000
Time:	7.899	Roll Set Point:	-0.981	Pitch Set Point:	0.801	Yaw Set Point:	0.734	X_WP:	0.894	Y_WP:	-0.724	Y_WP:	0.500	X:	0.922	Y:	-0.779	Z:	0.040	yaw:	-42.076	yaw rate:	0.910	Roll:	2.546	Pitch:	-0.432	Yaw:	-63.212	Thrust:	100.000
Time:	7.921	Roll Set Point:	-0.981	Pitch Set Point:	0.801	Yaw Set Point:	0.733	X_WP:	0.894	Y_WP:	-0.724	Y_WP:	0.500	X:	0.922	Y:	-0.779	Z:	0.040	yaw:	-42.011	yaw rate:	4.200	Roll:	2.410	Pitch:	-0.494	Yaw:	-62.228	Thrust:	100.000
Time:	7.943	Roll Set Point:	-0.981	Pitch Set Point:	0.801	Yaw Set Point:	0.734	X_WP:	0.894	Y_WP:	-0.724	Y_WP:	0.500	X:	0.922	Y:	-0.779	Z:	0.040	yaw:	-42.076	yaw rate:	-2.903	Roll:	2.618	Pitch:	-0.365	Yaw:	-64.024	Thrust:	100.000
Time:	7.966	Roll Set Point:	-0.981	Pitch Set Point:	0.801	Yaw Set Point:	0.734	X_WP:	0.894	Y_WP:	-0.724	Y_WP:	0.500	X:	0.922	Y:	-0.779	Z:	0.040	yaw:	-42.077	yaw rate:	-3.371	Roll:	2.551	Pitch:	-0.427	Yaw:	-63.337	Thrust:	100.000
Time:	7.989	Roll Set Point:	-0.981	Pitch Set Point:	0.801	Yaw Set Point:	0.734	X_WP:	0.894	Y_WP:	-0.724	Y_WP:	0.500	X:	0.922	Y:	-0.779	Z:	0.040	yaw:	-42.070	yaw rate:	0.680	Roll:	2.443	Pitch:	-0.441	Yaw:	-63.073	Thrust:	100.000
Time:	8.009	Roll Set Point:	-0.981	Pitch Set Point:	0.801	Yaw Set Point:	0.735	X_WP:	0.894	Y_WP:	-0.724	Y_WP:	0.500	X:	0.922	Y:	-0.779	Z:	0.040	yaw:	-42.096	yaw rate:	-2.619	Roll:	2.571	Pitch:	-0.412	Yaw:	-63.325	Thrust:	100.000
Time:	8.030	Roll Set Point:	-0.981	Pitch Set Point:	0.801	Yaw Set Point:	0.734	X_WP:	0.894	Y_WP:	-0.724	Y_WP:	0.500	X:	0.922	Y:	-0.779	Z:	0.040	yaw:	-42.038	yaw rate:	6.417	Roll:	2.488	Pitch:	-0.492	Yaw:	-62.335	Thrust:	100.000
Time:	8.052	Roll Set Point:	-0.981	Pitch Set Point:	0.801	Yaw Set Point:	0.734	X_WP:	0.894	Y_WP:	-0.724	Y_WP:	0.500	X:	0.922	Y:	-0.779	Z:	0.040	yaw:	-42.069	yaw rate:	-3.146	Roll:	2.460	Pitch:	-0.421	Yaw:	-63.172	Thrust:	100.000
