Time:	2.039	Roll Set Point:	-0.159	Pitch Set Point:	0.020	Yaw Set Point:	-0.058	X_WP:	0.000	Y_WP:	0.000	Y_WP:	0.500	X:	0.080	Y:	-0.008	Z:	0.049	yaw:	3.327	yaw rate:	-7.198	Roll:	2.299	Pitch:	-0.356	Yaw:	4.645	Thrust:	24.794
Time:	2.049	Roll Set Point:	-0.159	Pitch Set Point:	0.020	Yaw Set Point:	-0.059	X_WP:	0.000	Y_WP:	0.000	Y_WP:	0.500	X:	0.080	Y:	-0.008	Z:	0.049	yaw:	3.359	yaw rate:	3.246	Roll:	2.351	Pitch:	-0.397	Yaw:	5.473	Thrust:	25.389
Time:	2.063	Roll Set Point:	-0.159	Pitch Set Point:	0.020	Yaw Set Point:	-0.059	X_WP:	0.000	Y_WP:	0.000	Y_WP:	0.500	X:	0.080	Y:	-0.008	Z:	0.049	yaw:	3.362	yaw rate:	0.252	Roll:	2.246	Pitch:	-0.369	Yaw:	4.773	Thrust:	26.427
Time:	2.075	Roll Set Point:	-0.159	Pitch Set Point:	0.020	Yaw Set Point:	-0.058	X_WP:	0.000	Y_WP:	0.000	Y_WP:	0.500	X:	0.080	Y:	-0.008	Z:	0.049	yaw:	3.331	yaw rate:	-3.007	Roll:	2.298	Pitch:	-0.315	Yaw:	4.023	Thrust:	26.753
Time:	2.085	Roll Set Point:	-0.159	Pitch Set Point:	0.021	Yaw Set Point:	-0.063	X_WP:	0.000	Y_WP:	0.000	Y_WP:	0.500	X:	0.080	Y:	-0.008	Z:	0.049	yaw:	3.593	yaw rate:	26.143	Roll:	2.030	Pitch:	-1.181	Yaw:	11.889	Thrust:	28.052
Time:	2.098	Roll Set Point:	-0.159	Pitch Set Point:	0.020	Yaw Set Point:	-0.061	X_WP:	0.000	Y_WP:	0.000	Y_WP:	0.500	X:	0.080	Y:	-0.008	Z:	0.049	yaw:	3.524	yaw rate:	-6.935	Roll:	2.358	Pitch:	-0.193	Yaw:	3.605	Thrust:	28.713
Time:	2.117	Roll Set Point:	-0.159	Pitch Set Point:	0.020	Yaw Set Point:	-0.058	X_WP:	0.000	Y_WP:	0.000	Y_WP:	0.500	X:	0.080	Y:	-0.008	Z:	0.049	yaw:	3.315	yaw rate:	-20.870	Roll:	2.320	Pitch:	-0.204	Yaw:	1.815	Thrust:	30.307
Time:	2.131	Roll Set Point:	-0.159	Pitch Set Point:	0.020	Yaw Set Point:	-0.059	X_WP:	0.000	Y_WP:	0.000	Y_WP:	0.500	X:	0.080	Y:	-0.008	Z:	0.049	yaw:	3.401	yaw rate:	43.209	Roll:	2.316	Pitch:	-0.448	Yaw:	6.460	Thrust:	29.969
Time:	2.142	Roll Set Point:	-0.159	Pitch Set Point:	0.021	Yaw Set Point:	-0.070	X_WP:	0.000	Y_WP:	0.000	Y_WP:	0.500	X:	0.080	Y:	-0.008	Z:	0.049	yaw:	3.998	yaw rate:	37.364	Roll:	2.001	Pitch:	-1.542	Yaw:	19.845	Thrust:	30.602
Time:	2.153	Roll Set Point:	-0.159	Pitch Set Point:	0.021	Yaw Set Point:	-0.067	X_WP:	0.000	Y_WP:	0.000	Y_WP:	0.500	X:	0.080	Y:	-0.008	Z:	0.049	yaw:	3.849	yaw rate:	-14.847	Roll:	2.461	Pitch:	-0.091	Yaw:	1.971	Thrust:	29.835
Time:	2.170	Roll Set Point:	-0.159	Pitch Set Point:	0.020	Yaw Set Point:	-0.058	X_WP:	0.000	Y_WP:	0.000	Y_WP:	0.500	X:	0.080	Y:	-0.008	Z:	0.049	yaw:	3.327	yaw rate:	-52.213	Roll:	2.393	Pitch:	0.329	Yaw:	-3.161	Thrust:	34.129
Time:	2.181	Roll Set Point:	-0.159	Pitch Set Point:	0.021	Yaw Set Point:	-0.068	X_WP:	0.000	Y_WP:	0.000	Y_WP:	0.500	X:	0.080	Y:	-0.008	Z:	0.049	yaw:	3.899	yaw rate:	57.131	Roll:	2.379	Pitch:	-1.393	Yaw:	19.138	Thrust:	31.860
Time:	2.194	Roll Set Point:	-0.159	Pitch Set Point:	0.020	Yaw Set Point:	-0.064	X_WP:	0.000	Y_WP:	0.000	Y_WP:	0.500	X:	0.080	Y:	-0.008	Z:	0.049	yaw:	3.656	yaw rate:	-24.241	Roll:	2.239	Pitch:	0.065	Yaw:	0.430	Thrust:	32.580
Time:	2.206	Roll Set Point:	-0.158	Pitch Set Point:	0.021	Yaw Set Point:	-0.066	X_WP:	0.000	Y_WP:	0.000	Y_WP:	0.500	X:	0.080	Y:	-0.008	Z:	0.049	yaw:	3.775	yaw rate:	11.938	Roll:	2.082	Pitch:	-0.735	Yaw:	8.167	Thrust:	32.667
Time:	2.217	Roll Set Point:	-0.159	Pitch Set Point:	0.020	Yaw Set Point:	-0.061	X_WP:	0.000	Y_WP:	0.000	Y_WP:	0.500	X:	0.080	Y:	-0.008	Z:	0.049	yaw:	3.471	yaw rate:	-30.484	Roll:	2.708	Pitch:	0.283	Yaw:	-2.198	Thrust:	33.991
Time:	2.230	Roll Set Point:	-0.159	Pitch Set Point:	0.020	Yaw Set Point:	-0.061	X_WP:	0.000	Y_WP:	0.000	Y_WP:	0.500	X:	0.080	Y:	-0.008	Z:	0.049	yaw:	3.480	yaw rate:	9.145	Roll:	2.308	Pitch:	-0.303	Yaw:	5.295	Thrust:	35.445
Time:	2.241	Roll Set Point:	-0.159	Pitch Set Point:	0.021	Yaw Set Point:	-0.067	X_WP:	0.000	Y_WP:	0.000	Y_WP:	0.500	X:	0.080	Y:	-0.008	Z:	0.049	yaw:	3.843	yaw rate:	36.270	Roll:	2.106	Pitch:	-1.164	Yaw:	13.777	Thrust:	34.395
Time:	2.252	Roll Set Point:	-0.159	Pitch Set Point:	0.021	Yaw Set Point:	-0.066	X_WP:	0.000	Y_WP:	0.000	Y_WP:	0.500	X:	0.080	Y:	-0.008	Z:	0.049	yaw:	3.787	yaw rate:	-5.640	Roll:	2.617	Pitch:	-0.276	Yaw:	4.181	Thrust:	34.767
Time:	2.269	Roll Set Point:	-0.159	Pitch Set Point:	0.020	Yaw Set Point:	-0.058	X_WP:	0.000	Y_WP:	0.000	Y_WP:	0.500	X:	0.080	Y:	-0.008	Z:	0.049	yaw:	3.298	yaw rate:	-48.855	Roll:	2.281	Pitch:	0.326	Yaw:	-2.752	Thrust:	41.725
Time:	2.280	Roll Set Point:	-0.159	Pitch Set Point:	0.021	Yaw Set Point:	-0.060	X_WP:	0.000	Y_WP:	0.000	Y_WP:	0.500	X:	0.080	Y:	-0.008	Z:	0.049	yaw:	3.441	yaw rate:	14.253	Roll:	2.407	Pitch:	-0.850	Yaw:	8.493	Thrust:	35.160
Time:	2.295	Roll Set Point:	-0.159	Pitch Set Point:	0.020	Yaw Set Point:	-0.057	X_WP:	0.000	Y_WP:	0.000	Y_WP:	0.500	X:	0.080	Y:	-0.008	Z:	0.049	yaw:	3.258	yaw rate:	-18.259	Roll:	2.336	Pitch:	0.030	Yaw:	1.623	Thrust:	41.065
Time:	2.306	Roll Set Point:	-0.159	Pitch Set Point:	0.021	Yaw Set Point:	-0.060	X_WP:	0.000	Y_WP:	0.000	Y_WP:	0.500	X:	0.080	Y:	-0.008	Z:	0.049	yaw:	3.464	yaw rate:	13.707	Roll:	2.336	Pitch:	-0.855	Yaw:	9.635	Thrust:	37.489
Time:	2.317	Roll Set Point:	-0.159	Pitch Set Point:	0.021	Yaw Set Point:	-0.067	X_WP:	0.000	Y_WP:	0.000	Y_WP:	0.500	X:	0.080	Y:	-0.008	Z:	0.049	yaw:	3.846	yaw rate:	38.205	Roll:	2.110	Pitch:	-0.991	Yaw:	14.738	Thrust:	37.230
Time:	2.330	Roll Set Point:	-0.159	Pitch Set Point:	0.021	Yaw Set Point:	-0.064	X_WP:	0.000	Y_WP:	0.000	Y_WP:	0.500	X:	0.080	Y:	-0.008	Z:	0.049	yaw:	3.650	yaw rate:	-19.595	Roll:	2.359	Pitch:	-0.048	Yaw:	1.125	Thrust:	40.535
Time:	2.340	Roll Set Point:	-0.158	Pitch Set Point:	0.021	Yaw Set Point:	-0.068	X_WP:	0.000	Y_WP:	0.000	Y_WP:	0.500	X:	0.080	Y:	-0.008	Z:	0.049	yaw:	3.871	yaw rate:	22.117	Roll:	2.228	Pitch:	-0.742	Yaw:	10.911	Thrust:	38.674
Time:	2.352	Roll Set Point:	-0.158	Pitch Set Point:	0.021	Yaw Set Point:	-0.067	X_WP:	0.000	Y_WP:	0.000	Y_WP:	0.500	X:	0.079	Y:	-0.008	Z:	0.049	yaw:	3.827	yaw rate:	-4.390	Roll:	2.159	Pitch:	-0.235	Yaw:	4.645	Thrust:	40.355
Time:	2.364	Roll Set Point:	-0.158	Pitch Set Point:	0.020	Yaw Set Point:	-0.064	X_WP:	0.000	Y_WP:	0.000	Y_WP:	0.500	X:	0.079	Y:	-0.008	Z:	0.049	yaw:	3.695	yaw rate:	-13.244	Roll:	2.220	Pitch:	-0.148	Yaw:	2.529	Thrust:	41.278
Time:	2.374	Roll Set Point:	-0.158	Pitch Set Point:	0.021	Yaw Set Point:	-0.066	X_WP:	0.000	Y_WP:	0.000	Y_WP:	0.500	X:	0.079	Y:	-0.008	Z:	0.049	yaw:	3.787	yaw rate:	9.202	Roll:	2.286	Pitch:	-0.677	Yaw:	7.844	Thrust:	40.368
Time:	2.385	Roll Set Point:	-0.158	Pitch Set Point:	0.021	Yaw Set Point:	-0.067	X_WP:	0.000	Y_WP:	0.000	Y_WP:	0.500	X:	0.080	Y:	-0.008	Z:	0.049	yaw:	3.852	yaw rate:	6.503	Roll:	2.612	Pitch:	-0.605	Yaw:	7.309	Thrust:	41.477
Time:	2.398	Roll Set Point:	-0.158	Pitch Set Point:	0.021	Yaw Set Point:	-0.063	X_WP:	0.000	Y_WP:	0.000	Y_WP:	0.500	X:	0.079	Y:	-0.008	Z:	0.049	yaw:	3.612	yaw rate:	-23.967	Roll:	2.276	Pitch:	0.037	Yaw:	0.497	Thrust:	45.250
Time:	2.409	Roll Set Point:	-0.158	Pitch Set Point:	0.021	Yaw Set Point:	-0.066	X_WP:	0.000	Y_WP:	0.000	Y_WP:	0.500	X:	0.079	Y:	-0.008	Z:	0.049	yaw:	3.764	yaw rate:	15.177	Roll:	2.343	Pitch:	-0.988	Yaw:	9.136	Thrust:	43.105
Time:	2.421	Roll Set Point:	-0.158	Pitch Set Point:	0.021	Yaw Set Point:	-0.064	X_WP:	0.000	Y_WP:	0.000	Y_WP:	0.500	X:	0.079	Y:	-0.008	Z:	0.049	yaw:	3.679	yaw rate:	-8.511	Roll:	2.295	Pitch:	-0.124	Yaw:	3.469	Thrust:	43.468
Time:	2.432	Roll Set Point:	-0.158	Pitch Set Point:	0.022	Yaw Set Point:	-0.070	X_WP:	0.000	Y_WP:	0.000	Y_WP:	0.500	X:	0.079	Y:	-0.008	Z:	0.049	yaw:	4.035	yaw rate:	35.595	Roll:	2.095	Pitch:	-1.159	Yaw:	13.569	Thrust:	46.127
Time:	2.444	Roll Set Point:	-0.158	Pitch Set Point:	0.021	Yaw Set Point:	-0.069	X_WP:	0.000	Y_WP:	0.000	Y_WP:	0.500	X:	0.079	Y:	-0.008	Z:	0.049	yaw:	3.957	yaw rate:	-7.808	Roll:	2.490	Pitch:	-0.226	Yaw:	4.233	Thrust:	45.312
Time:	2.459	Roll Set Point:	-0.158	Pitch Set Point:	0.022	Yaw Set Point:	-0.071	X_WP:	0.000	Y_WP:	0.000	Y_WP:	0.500	X:	0.079	Y:	-0.008	Z:	0.049	yaw:	4.076	yaw rate:	11.907	Roll:	2.364	Pitch:	-0.787	Yaw:	8.460	Thrust:	51.428
Time:	2.471	Roll Set Point:	-0.158	Pitch Set Point:	0.022	Yaw Set Point:	-0.075	X_WP:	0.000	Y_WP:	0.000	Y_WP:	0.500	X:	0.079	Y:	-0.008	Z:	0.049	yaw:	4.273	yaw rate:	-3.655	Roll:	2.255	Pitch:	-0.706	Yaw:	10.632	Thrust:	48.784
Time:	2.481	Roll Set Point:	-0.158	Pitch Set Point:	0.022	Yaw Set Point:	-0.079	X_WP:	0.000	Y_WP:	0.000	Y_WP:	0.500	X:	0.079	Y:	-0.008	Z:	0.049	yaw:	4.551	yaw rate:	27.828	Roll:	2.282	Pitch:	-1.063	Yaw:	14.079	Thrust:	43.978
Time:	2.494	Roll Set Point:	-0.158	Pitch Set Point:	0.023	Yaw Set Point:	-0.083	X_WP:	0.000	Y_WP:	0.000	Y_WP:	0.500	X:	0.079	Y:	-0.008	Z:	0.049	yaw:	4.762	yaw rate:	21.095	Roll:	2.275	Pitch:	-1.007	Yaw:	11.497	Thrust:	50.799
Time:	2.506	Roll Set Point:	-0.158	Pitch Set Point:	0.023	Yaw Set Point:	-0.077	X_WP:	0.000	Y_WP:	0.000	Y_WP:	0.500	X:	0.079	Y:	-0.008	Z:	0.049	yaw:	4.427	yaw rate:	-33.456	Roll:	2.618	Pitch:	0.197	Yaw:	-0.506	Thrust:	49.231
Time:	2.517	Roll Set Point:	-0.158	Pitch Set Point:	0.023	Yaw Set Point:	-0.078	X_WP:	0.000	Y_WP:	0.000	Y_WP:	0.500	X:	0.079	Y:	-0.008	Z:	0.049	yaw:	4.459	yaw rate:	3.189	Roll:	2.360	Pitch:	-0.497	Yaw:	7.543	Thrust:	48.269
Time:	2.530	Roll Set Point:	-0.158	Pitch Set Point:	0.023	Yaw Set Point:	-0.078	X_WP:	0.000	Y_WP:	0.000	Y_WP:	0.500	X:	0.080	Y:	-0.008	Z:	0.049	yaw:	4.489	yaw rate:	2.979	Roll:	2.425	Pitch:	-0.426	Yaw:	7.546	Thrust:	50.380
Time:	2.541	Roll Set Point:	-0.158	Pitch Set Point:	0.023	Yaw Set Point:	-0.078	X_WP:	0.000	Y_WP:	0.000	Y_WP:	0.500	X:	0.080	Y:	-0.008	Z:	0.049	yaw:	4.441	yaw rate:	-4.787	Roll:	2.354	Pitch:	-0.395	Yaw:	5.660	Thrust:	51.180
Time:	2.552	Roll Set Point:	-0.158	Pitch Set Point:	0.022	Yaw Set Point:	-0.077	X_WP:	0.000	Y_WP:	0.000	Y_WP:	0.500	X:	0.080	Y:	-0.008	Z:	0.049	yaw:	4.433	yaw rate:	-0.771	Roll:	2.525	Pitch:	-0.221	Yaw:	6.619	Thrust:	49.494
Time:	2.563	Roll Set Point:	-0.158	Pitch Set Point:	0.023	Yaw Set Point:	-0.080	X_WP:	0.000	Y_WP:	0.000	Y_WP:	0.500	X:	0.080	Y:	-0.008	Z:	0.049	yaw:	4.589	yaw rate:	15.600	Roll:	2.391	Pitch:	-0.716	Yaw:	10.606	Thrust:	51.826
Time:	2.575	Roll Set Point:	-0.158	Pitch Set Point:	0.022	Yaw Set Point:	-0.076	X_WP:	0.000	Y_WP:	0.000	Y_WP:	0.500	X:	0.080	Y:	-0.008	Z:	0.049	yaw:	4.344	yaw rate:	-24.592	Roll:	2.455	Pitch:	-0.093	Yaw:	0.721	Thrust:	51.088
Time:	2.585	Roll Set Point:	-0.159	Pitch Set Point:	0.022	Yaw Set Point:	-0.079	X_WP:	0.000	Y_WP:	0.000	Y_WP:	0.500	X:	0.080	Y:	-0.008	Z:	0.049	yaw:	4.509	yaw rate:	16.587	Roll:	2.732	Pitch:	-0.577	Yaw:	10.897	Thrust:	50.176
Time:	2.598	Roll Set Point:	-0.159	Pitch Set Point:	0.022	Yaw Set Point:	-0.077	X_WP:	0.000	Y_WP:	0.000	Y_WP:	0.500	X:	0.080	Y:	-0.008	Z:	0.049	yaw:	4.428	yaw rate:	-8.099	Roll:	2.521	Pitch:	-0.187	Yaw:	5.164	Thrust:	55.435
Time:	2.609	Roll Set Point:	-0.159	Pitch Set Point:	0.022	Yaw Set Point:	-0.073	X_WP:	0.000	Y_WP:	0.000	Y_WP:	0.500	X:	0.080	Y:	-0.008	Z:	0.049	yaw:	4.206	yaw rate:	-22.260	Roll:	2.306	Pitch:	-0.187	Yaw:	1.790	Thrust:	54.324
Time:	2.621	Roll Set Point:	-0.159	Pitch Set Point:	0.022	Yaw Set Point:	-0.077	X_WP:	0.000	Y_WP:	0.000	Y_WP:	0.500	X:	0.080	Y:	-0.008	Z:	0.049	yaw:	4.400	yaw rate:	5.072	Roll:	2.801	Pitch:	-0.551	Yaw:	11.585	Thrust:	52.752
Time:	2.632	Roll Set Point:	-0.159	Pitch Set Point:	0.022	Yaw Set Point:	-0.073	X_WP:	0.000	Y_WP:	0.000	Y_WP:	0.500	X:	0.080	Y:	-0.008	Z:	0.049	yaw:	4.181	yaw rate:	-21.966	Roll:	2.449	Pitch:	-0.124	Yaw:	1.625	Thrust:	55.252
Time:	2.643	Roll Set Point:	-0.160	Pitch Set Point:	0.021	Yaw Set Point:	-0.074	X_WP:	0.000	Y_WP:	0.000	Y_WP:	0.500	X:	0.080	Y:	-0.008	Z:	0.050	yaw:	4.229	yaw rate:	4.816	Roll:	2.718	Pitch:	-0.153	Yaw:	7.786	Thrust:	54.208
Time:	2.654	Roll Set Point:	-0.160	Pitch Set Point:	0.021	Yaw Set Point:	-0.074	X_WP:	0.000	Y_WP:	0.000	Y_WP:	0.500	X:	0.080	Y:	-0.008	Z:	0.050	yaw:	4.260	yaw rate:	3.068	Roll:	2.580	Pitch:	-0.362	Yaw:	7.442	Thrust:	50.578
Time:	2.665	Roll Set Point:	-0.160	Pitch Set Point:	0.021	Yaw Set Point:	-0.073	X_WP:	0.000	Y_WP:	0.000	Y_WP:	0.500	X:	0.080	Y:	-0.008	Z:	0.050	yaw:	4.188	yaw rate:	-7.193	Roll:	2.404	Pitch:	-0.290	Yaw:	5.231	Thrust:	60.374
Time:	2.677	Roll Set Point:	-0.160	Pitch Set Point:	0.021	Yaw Set Point:	-0.072	X_WP:	0.000	Y_WP:	0.000	Y_WP:	0.500	X:	0.080	Y:	-0.008	Z:	0.050	yaw:	4.101	yaw rate:	-8.631	Roll:	2.611	Pitch:	-0.183	Yaw:	4.467	Thrust:	54.774
Time:	2.692	Roll Set Point:	-0.160	Pitch Set Point:	0.021	Yaw Set Point:	-0.072	X_WP:	0.000	Y_WP:	0.000	Y_WP:	0.500	X:	0.080	Y:	-0.008	Z:	0.051	yaw:	4.144	yaw rate:	4.222	Roll:	2.374	Pitch:	-0.243	Yaw:	7.615	Thrust:	59.603
Time:	2.706	Roll Set Point:	-0.160	Pitch Set Point:	0.020	Yaw Set Point:	-0.068	X_WP:	0.000	Y_WP:	0.000	Y_WP:	0.500	X:	0.080	Y:	-0.007	Z:	0.052	yaw:	3.921	yaw rate:	-22.263	Roll:	2.505	Pitch:	0.009	Yaw:	2.726	Thrust:	72.059
Time:	2.718	Roll Set Point:	-0.160	Pitch Set Point:	0.020	Yaw Set Point:	-0.072	X_WP:	0.000	Y_WP:	0.000	Y_WP:	0.500	X:	0.080	Y:	-0.007	Z:	0.052	yaw:	4.123	yaw rate:	20.246	Roll:	2.368	Pitch:	-0.650	Yaw:	11.234	Thrust:	59.619
Time:	2.730	Roll Set Point:	-0.160	Pitch Set Point:	0.020	Yaw Set Point:	-0.068	X_WP:	0.000	Y_WP:	0.000	Y_WP:	0.500	X:	0.080	Y:	-0.007	Z:	0.053	yaw:	3.891	yaw rate:	-6.390	Roll:	2.450	Pitch:	0.373	Yaw:	1.554	Thrust:	57.608
Time:	2.741	Roll Set Point:	-0.159	Pitch Set Point:	0.020	Yaw Set Point:	-0.071	X_WP:	0.000	Y_WP:	0.000	Y_WP:	0.500	X:	0.080	Y:	-0.007	Z:	0.053	yaw:	4.082	yaw rate:	19.114	Roll:	1.885	Pitch:	-0.545	Yaw:	11.109	Thrust:	59.544
Time:	2.752	Roll Set Point:	-0.159	Pitch Set Point:	0.019	Yaw Set Point:	-0.073	X_WP:	0.000	Y_WP:	0.000	Y_WP:	0.500	X:	0.080	Y:	-0.007	Z:	0.054	yaw:	4.163	yaw rate:	8.072	Roll:	2.395	Pitch:	-0.293	Yaw:	8.617	Thrust:	56.560
Time:	2.765	Roll Set Point:	-0.158	Pitch Set Point:	0.019	Yaw Set Point:	-0.070	X_WP:	0.000	Y_WP:	0.000	Y_WP:	0.500	X:	0.080	Y:	-0.007	Z:	0.054	yaw:	3.991	yaw rate:	-17.219	Roll:	1.943	Pitch:	0.269	Yaw:	3.184	Thrust:	65.590
Time:	2.776	Roll Set Point:	-0.158	Pitch Set Point:	0.019	Yaw Set Point:	-0.075	X_WP:	0.000	Y_WP:	0.000	Y_WP:	0.500	X:	0.079	Y:	-0.006	Z:	0.055	yaw:	4.315	yaw rate:	32.449	Roll:	1.862	Pitch:	-0.726	Yaw:	14.644	Thrust:	56.957
Time:	2.794	Roll Set Point:	-0.157	Pitch Set Point:	0.018	Yaw Set Point:	-0.074	X_WP:	0.000	Y_WP:	0.000	Y_WP:	0.500	X:	0.079	Y:	-0.006	Z:	0.056	yaw:	4.254	yaw rate:	-6.085	Roll:	2.264	Pitch:	-0.133	Yaw:	6.525	Thrust:	79.020
Time:	2.806	Roll Set Point:	-0.156	Pitch Set Point:	0.017	Yaw Set Point:	-0.072	X_WP:	0.000	Y_WP:	0.000	Y_WP:	0.500	X:	0.078	Y:	-0.006	Z:	0.059	yaw:	4.145	yaw rate:	6.856	Roll:	1.780	Pitch:	0.873	Yaw:	4.293	Thrust:	56.338
Time:	2.817	Roll Set Point:	-0.155	Pitch Set Point:	0.016	Yaw Set Point:	-0.066	X_WP:	0.000	Y_WP:	0.000	Y_WP:	0.500	X:	0.078	Y:	-0.005	Z:	0.060	yaw:	3.762	yaw rate:	-38.250	Roll:	2.046	Pitch:	0.916	Yaw:	-2.012	Thrust:	60.354
Time:	2.828	Roll Set Point:	-0.154	Pitch Set Point:	0.014	Yaw Set Point:	-0.067	X_WP:	0.000	Y_WP:	0.000	Y_WP:	0.500	X:	0.077	Y:	-0.004	Z:	0.064	yaw:	3.845	yaw rate:	8.272	Roll:	1.258	Pitch:	0.657	Yaw:	8.314	Thrust:	47.837
Time:	2.840	Roll Set Point:	-0.153	Pitch Set Point:	0.013	Yaw Set Point:	-0.069	X_WP:	0.000	Y_WP:	0.000	Y_WP:	0.500	X:	0.077	Y:	-0.004	Z:	0.066	yaw:	3.940	yaw rate:	9.543	Roll:	1.479	Pitch:	0.320	Yaw:	8.712	Thrust:	57.884
Time:	2.851	Roll Set Point:	-0.152	Pitch Set Point:	0.013	Yaw Set Point:	-0.069	X_WP:	0.000	Y_WP:	0.000	Y_WP:	0.500	X:	0.076	Y:	-0.004	Z:	0.068	yaw:	3.961	yaw rate:	2.097	Roll:	1.819	Pitch:	0.274	Yaw:	7.042	Thrust:	53.521
Time:	2.863	Roll Set Point:	-0.150	Pitch Set Point:	0.012	Yaw Set Point:	-0.072	X_WP:	0.000	Y_WP:	0.000	Y_WP:	0.500	X:	0.075	Y:	-0.003	Z:	0.070	yaw:	4.139	yaw rate:	17.757	Roll:	1.022	Pitch:	0.087	Yaw:	10.764	Thrust:	57.854
Time:	2.875	Roll Set Point:	-0.149	Pitch Set Point:	0.011	Yaw Set Point:	-0.065	X_WP:	0.000	Y_WP:	0.000	Y_WP:	0.500	X:	0.075	Y:	-0.003	Z:	0.073	yaw:	3.727	yaw rate:	-41.155	Roll:	1.639	Pitch:	1.166	Yaw:	-3.517	Thrust:	55.581
Time:	2.885	Roll Set Point:	-0.148	Pitch Set Point:	0.009	Yaw Set Point:	-0.065	X_WP:	0.000	Y_WP:	0.000	Y_WP:	0.500	X:	0.074	Y:	-0.002	Z:	0.076	yaw:	3.720	yaw rate:	-0.709	Roll:	1.203	Pitch:	0.669	Yaw:	6.085	Thrust:	54.449
Time:	2.899	Roll Set Point:	-0.147	Pitch Set Point:	0.008	Yaw Set Point:	-0.061	X_WP:	0.000	Y_WP:	0.000	Y_WP:	0.500	X:	0.073	Y:	-0.002	Z:	0.078	yaw:	3.479	yaw rate:	-24.070	Roll:	1.533	Pitch:	1.040	Yaw:	1.521	Thrust:	64.021
Time:	2.910	Roll Set Point:	-0.145	Pitch Set Point:	0.007	Yaw Set Point:	-0.059	X_WP:	0.000	Y_WP:	0.000	Y_WP:	0.500	X:	0.073	Y:	-0.001	Z:	0.081	yaw:	3.379	yaw rate:	-10.022	Roll:	1.355	Pitch:	0.732	Yaw:	3.426	Thrust:	56.619
Time:	2.921	Roll Set Point:	-0.144	Pitch Set Point:	0.006	Yaw Set Point:	-0.062	X_WP:	0.000	Y_WP:	0.000	Y_WP:	0.500	X:	0.072	Y:	-0.001	Z:	0.084	yaw:	3.525	yaw rate:	14.539	Roll:	1.056	Pitch:	0.182	Yaw:	9.370	Thrust:	51.279
Time:	2.937	Roll Set Point:	-0.141	Pitch Set Point:	0.004	Yaw Set Point:	-0.062	X_WP:	0.000	Y_WP:	0.000	Y_WP:	0.500	X:	0.070	Y:	0.000	Z:	0.090	yaw:	3.576	yaw rate:	5.173	Roll:	0.725	Pitch:	1.005	Yaw:	7.420	Thrust:	71.856
Time:	2.948	Roll Set Point:	-0.139	Pitch Set Point:	0.003	Yaw Set Point:	-0.058	X_WP:	0.000	Y_WP:	0.000	Y_WP:	0.500	X:	0.070	Y:	0.001	Z:	0.093	yaw:	3.333	yaw rate:	-24.359	Roll:	1.187	Pitch:	1.138	Yaw:	-0.023	Thrust:	53.166
Time:	2.962	Roll Set Point:	-0.138	Pitch Set Point:	0.001	Yaw Set Point:	-0.055	X_WP:	0.000	Y_WP:	0.000	Y_WP:	0.500	X:	0.069	Y:	0.001	Z:	0.096	yaw:	3.178	yaw rate:	-15.471	Roll:	1.103	Pitch:	0.919	Yaw:	2.804	Thrust:	62.651
Time:	2.973	Roll Set Point:	-0.135	Pitch Set Point:	-0.001	Yaw Set Point:	-0.055	X_WP:	0.000	Y_WP:	0.000	Y_WP:	0.500	X:	0.067	Y:	0.002	Z:	0.102	yaw:	3.175	yaw rate:	-15.714	Roll:	0.086	Pitch:	1.540	Yaw:	5.525	Thrust:	53.114
Time:	2.984	Roll Set Point:	-0.133	Pitch Set Point:	-0.002	Yaw Set Point:	-0.052	X_WP:	0.000	Y_WP:	0.000	Y_WP:	0.500	X:	0.066	Y:	0.003	Z:	0.105	yaw:	3.003	yaw rate:	-17.161	Roll:	0.893	Pitch:	1.063	Yaw:	1.222	Thrust:	54.459
Time:	3.000	Roll Set Point:	-0.131	Pitch Set Point:	-0.003	Yaw Set Point:	-0.054	X_WP:	0.000	Y_WP:	0.000	Y_WP:	0.500	X:	0.066	Y:	0.003	Z:	0.108	yaw:	3.076	yaw rate:	7.235	Roll:	1.302	Pitch:	0.452	Yaw:	7.094	Thrust:	82.965
Time:	3.011	Roll Set Point:	-0.129	Pitch Set Point:	-0.004	Yaw Set Point:	-0.056	X_WP:	0.000	Y_WP:	0.000	Y_WP:	0.500	X:	0.065	Y:	0.004	Z:	0.112	yaw:	3.225	yaw rate:	14.901	Roll:	0.596	Pitch:	0.616	Yaw:	9.143	Thrust:	55.626
Time:	3.027	Roll Set Point:	-0.128	Pitch Set Point:	-0.006	Yaw Set Point:	-0.053	X_WP:	0.000	Y_WP:	0.000	Y_WP:	0.500	X:	0.064	Y:	0.005	Z:	0.115	yaw:	3.010	yaw rate:	-21.453	Roll:	1.067	Pitch:	1.090	Yaw:	1.983	Thrust:	74.256
Time:	3.038	Roll Set Point:	-0.123	Pitch Set Point:	-0.009	Yaw Set Point:	-0.048	X_WP:	0.000	Y_WP:	0.000	Y_WP:	0.500	X:	0.061	Y:	0.006	Z:	0.124	yaw:	2.751	yaw rate:	-9.455	Roll:	-0.953	Pitch:	2.651	Yaw:	-0.841	Thrust:	39.601
Time:	3.049	Roll Set Point:	-0.121	Pitch Set Point:	-0.010	Yaw Set Point:	-0.049	X_WP:	0.000	Y_WP:	0.000	Y_WP:	0.500	X:	0.061	Y:	0.007	Z:	0.127	yaw:	2.793	yaw rate:	4.153	Roll:	0.879	Pitch:	0.907	Yaw:	5.988	Thrust:	55.316
Time:	3.064	Roll Set Point:	-0.120	Pitch Set Point:	-0.011	Yaw Set Point:	-0.046	X_WP:	0.000	Y_WP:	0.000	Y_WP:	0.500	X:	0.060	Y:	0.007	Z:	0.130	yaw:	2.650	yaw rate:	-14.249	Roll:	0.980	Pitch:	0.995	Yaw:	2.596	Thrust:	72.889
Time:	3.075	Roll Set Point:	-0.118	Pitch Set Point:	-0.012	Yaw Set Point:	-0.047	X_WP:	0.000	Y_WP:	0.000	Y_WP:	0.500	X:	0.059	Y:	0.008	Z:	0.133	yaw:	2.719	yaw rate:	6.887	Roll:	0.732	Pitch:	0.759	Yaw:	6.532	Thrust:	60.226
Time:	3.086	Roll Set Point:	-0.116	Pitch Set Point:	-0.013	Yaw Set Point:	-0.047	X_WP:	0.000	Y_WP:	0.000	Y_WP:	0.500	X:	0.058	Y:	0.008	Z:	0.137	yaw:	2.714	yaw rate:	-0.553	Roll:	0.603	Pitch:	0.845	Yaw:	4.761	Thrust:	56.242
Time:	3.097	Roll Set Point:	-0.115	Pitch Set Point:	-0.014	Yaw Set Point:	-0.045	X_WP:	0.000	Y_WP:	0.000	Y_WP:	0.500	X:	0.057	Y:	0.008	Z:	0.140	yaw:	2.589	yaw rate:	-12.508	Roll:	0.486	Pitch:	0.930	Yaw:	1.932	Thrust:	59.856
Time:	3.108	Roll Set Point:	-0.113	Pitch Set Point:	-0.015	Yaw Set Point:	-0.045	X_WP:	0.000	Y_WP:	0.000	Y_WP:	0.500	X:	0.056	Y:	0.009	Z:	0.143	yaw:	2.601	yaw rate:	1.278	Roll:	0.639	Pitch:	0.755	Yaw:	5.038	Thrust:	57.171
Time:	3.119	Roll Set Point:	-0.112	Pitch Set Point:	-0.016	Yaw Set Point:	-0.045	X_WP:	0.000	Y_WP:	0.000	Y_WP:	0.500	X:	0.056	Y:	0.009	Z:	0.147	yaw:	2.593	yaw rate:	-0.879	Roll:	0.744	Pitch:	1.019	Yaw:	4.454	Thrust:	54.383
Time:	3.131	Roll Set Point:	-0.109	Pitch Set Point:	-0.018	Yaw Set Point:	-0.042	X_WP:	0.000	Y_WP:	0.000	Y_WP:	0.500	X:	0.054	Y:	0.010	Z:	0.153	yaw:	2.399	yaw rate:	-19.378	Roll:	-0.416	Pitch:	2.011	Yaw:	0.107	Thrust:	48.164
Time:	3.142	Roll Set Point:	-0.107	Pitch Set Point:	-0.019	Yaw Set Point:	-0.042	X_WP:	0.000	Y_WP:	0.000	Y_WP:	0.500	X:	0.053	Y:	0.010	Z:	0.156	yaw:	2.386	yaw rate:	-1.277	Roll:	0.631	Pitch:	0.789	Yaw:	4.177	Thrust:	59.507
Time:	3.154	Roll Set Point:	-0.106	Pitch Set Point:	-0.020	Yaw Set Point:	-0.041	X_WP:	0.000	Y_WP:	0.000	Y_WP:	0.500	X:	0.053	Y:	0.011	Z:	0.160	yaw:	2.345	yaw rate:	-4.087	Roll:	0.706	Pitch:	1.006	Yaw:	3.407	Thrust:	57.837
Time:	3.164	Roll Set Point:	-0.104	Pitch Set Point:	-0.021	Yaw Set Point:	-0.042	X_WP:	0.000	Y_WP:	0.000	Y_WP:	0.500	X:	0.052	Y:	0.011	Z:	0.163	yaw:	2.403	yaw rate:	5.743	Roll:	0.725	Pitch:	0.915	Yaw:	5.812	Thrust:	61.170
Time:	3.176	Roll Set Point:	-0.103	Pitch Set Point:	-0.022	Yaw Set Point:	-0.042	X_WP:	0.000	Y_WP:	0.000	Y_WP:	0.500	X:	0.051	Y:	0.012	Z:	0.166	yaw:	2.418	yaw rate:	1.589	Roll:	0.715	Pitch:	0.947	Yaw:	4.862	Thrust:	58.551
Time:	3.188	Roll Set Point:	-0.102	Pitch Set Point:	-0.022	Yaw Set Point:	-0.046	X_WP:	0.000	Y_WP:	0.000	Y_WP:	0.500	X:	0.051	Y:	0.012	Z:	0.170	yaw:	2.627	yaw rate:	20.875	Roll:	0.792	Pitch:	0.619	Yaw:	9.409	Thrust:	64.364
Time:	3.202	Roll Set Point:	-0.101	Pitch Set Point:	-0.023	Yaw Set Point:	-0.046	X_WP:	0.000	Y_WP:	0.000	Y_WP:	0.500	X:	0.050	Y:	0.013	Z:	0.173	yaw:	2.653	yaw rate:	2.554	Roll:	1.127	Pitch:	0.690	Yaw:	5.618	Thrust:	79.491
Time:	3.213	Roll Set Point:	-0.099	Pitch Set Point:	-0.024	Yaw Set Point:	-0.045	X_WP:	0.000	Y_WP:	0.000	Y_WP:	0.500	X:	0.049	Y:	0.013	Z:	0.177	yaw:	2.591	yaw rate:	-6.223	Roll:	0.594	Pitch:	1.055	Yaw:	3.242	Thrust:	58.592
Time:	3.227	Roll Set Point:	-0.098	Pitch Set Point:	-0.024	Yaw Set Point:	-0.045	X_WP:	0.000	Y_WP:	0.000	Y_WP:	0.500	X:	0.049	Y:	0.013	Z:	0.180	yaw:	2.571	yaw rate:	-1.996	Roll:	0.884	Pitch:	0.736	Yaw:	4.573	Thrust:	74.799
Time:	3.238	Roll Set Point:	-0.094	Pitch Set Point:	-0.027	Yaw Set Point:	-0.043	X_WP:	0.000	Y_WP:	0.000	Y_WP:	0.500	X:	0.047	Y:	0.014	Z:	0.191	yaw:	2.450	yaw rate:	9.310	Roll:	-0.943	Pitch:	2.114	Yaw:	1.860	Thrust:	36.109
Time:	3.249	Roll Set Point:	-0.094	Pitch Set Point:	-0.027	Yaw Set Point:	-0.047	X_WP:	0.000	Y_WP:	0.000	Y_WP:	0.500	X:	0.046	Y:	0.015	Z:	0.194	yaw:	2.692	yaw rate:	24.270	Roll:	0.851	Pitch:	0.552	Yaw:	10.623	Thrust:	58.367
Time:	3.262	Roll Set Point:	-0.092	Pitch Set Point:	-0.027	Yaw Set Point:	-0.049	X_WP:	0.000	Y_WP:	0.000	Y_WP:	0.500	X:	0.046	Y:	0.015	Z:	0.198	yaw:	2.834	yaw rate:	14.145	Roll:	0.840	Pitch:	0.480	Yaw:	8.163	Thrust:	68.207
Time:	3.273	Roll Set Point:	-0.091	Pitch Set Point:	-0.028	Yaw Set Point:	-0.050	X_WP:	0.000	Y_WP:	0.000	Y_WP:	0.500	X:	0.045	Y:	0.015	Z:	0.201	yaw:	2.851	yaw rate:	1.693	Roll:	0.630	Pitch:	0.862	Yaw:	5.486	Thrust:	58.085
Time:	3.284	Roll Set Point:	-0.090	Pitch Set Point:	-0.029	Yaw Set Point:	-0.047	X_WP:	0.000	Y_WP:	0.000	Y_WP:	0.500	X:	0.045	Y:	0.015	Z:	0.205	yaw:	2.691	yaw rate:	-16.026	Roll:	0.587	Pitch:	0.916	Yaw:	1.056	Thrust:	59.095
Time:	3.295	Roll Set Point:	-0.089	Pitch Set Point:	-0.029	Yaw Set Point:	-0.046	X_WP:	0.000	Y_WP:	0.000	Y_WP:	0.500	X:	0.044	Y:	0.016	Z:	0.209	yaw:	2.640	yaw rate:	-5.027	Roll:	0.832	Pitch:	0.844	Yaw:	3.597	Thrust:	58.676
Time:	3.307	Roll Set Point:	-0.088	Pitch Set Point:	-0.030	Yaw Set Point:	-0.047	X_WP:	0.000	Y_WP:	0.000	Y_WP:	0.500	X:	0.044	Y:	0.016	Z:	0.213	yaw:	2.687	yaw rate:	4.690	Roll:	0.762	Pitch:	0.790	Yaw:	5.970	Thrust:	58.594
Time:	3.318	Roll Set Point:	-0.087	Pitch Set Point:	-0.030	Yaw Set Point:	-0.047	X_WP:	0.000	Y_WP:	0.000	Y_WP:	0.500	X:	0.043	Y:	0.016	Z:	0.216	yaw:	2.711	yaw rate:	2.417	Roll:	0.859	Pitch:	0.651	Yaw:	5.462	Thrust:	62.822
Time:	3.329	Roll Set Point:	-0.086	Pitch Set Point:	-0.030	Yaw Set Point:	-0.044	X_WP:	0.000	Y_WP:	0.000	Y_WP:	0.500	X:	0.043	Y:	0.016	Z:	0.220	yaw:	2.535	yaw rate:	-17.608	Roll:	0.532	Pitch:	0.802	Yaw:	0.480	Thrust:	59.706
Time:	3.341	Roll Set Point:	-0.085	Pitch Set Point:	-0.031	Yaw Set Point:	-0.047	X_WP:	0.000	Y_WP:	0.000	Y_WP:	0.500	X:	0.042	Y:	0.016	Z:	0.224	yaw:	2.710	yaw rate:	17.495	Roll:	1.002	Pitch:	0.397	Yaw:	8.792	Thrust:	66.029
Time:	3.352	Roll Set Point:	-0.085	Pitch Set Point:	-0.031	Yaw Set Point:	-0.051	X_WP:	0.000	Y_WP:	0.000	Y_WP:	0.500	X:	0.042	Y:	0.017	Z:	0.227	yaw:	2.913	yaw rate:	20.236	Roll:	0.866	Pitch:	0.493	Yaw:	9.974	Thrust:	59.817
Time:	3.365	Roll Set Point:	-0.084	Pitch Set Point:	-0.031	Yaw Set Point:	-0.047	X_WP:	0.000	Y_WP:	0.000	Y_WP:	0.500	X:	0.041	Y:	0.017	Z:	0.231	yaw:	2.685	yaw rate:	-22.803	Roll:	0.833	Pitch:	0.727	Yaw:	0.474	Thrust:	73.600
Time:	3.376	Roll Set Point:	-0.081	Pitch Set Point:	-0.032	Yaw Set Point:	-0.043	X_WP:	0.000	Y_WP:	0.000	Y_WP:	0.500	X:	0.040	Y:	0.017	Z:	0.242	yaw:	2.445	yaw rate:	-29.845	Roll:	-0.210	Pitch:	0.992	Yaw:	-0.916	Thrust:	33.329
Time:	3.392	Roll Set Point:	-0.081	Pitch Set Point:	-0.032	Yaw Set Point:	-0.042	X_WP:	0.000	Y_WP:	0.000	Y_WP:	0.500	X:	0.040	Y:	0.017	Z:	0.246	yaw:	2.391	yaw rate:	-5.423	Roll:	0.723	Pitch:	0.484	Yaw:	4.061	Thrust:	79.597
Time:	3.405	Roll Set Point:	-0.080	Pitch Set Point:	-0.032	Yaw Set Point:	-0.047	X_WP:	0.000	Y_WP:	0.000	Y_WP:	0.500	X:	0.040	Y:	0.017	Z:	0.249	yaw:	2.668	yaw rate:	27.651	Roll:	1.339	Pitch:	0.204	Yaw:	10.755	Thrust:	82.769
Time:	3.416	Roll Set Point:	-0.079	Pitch Set Point:	-0.032	Yaw Set Point:	-0.044	X_WP:	0.000	Y_WP:	0.000	Y_WP:	0.500	X:	0.039	Y:	0.017	Z:	0.253	yaw:	2.513	yaw rate:	-15.492	Roll:	0.750	Pitch:	0.678	Yaw:	0.934	Thrust:	59.032
Time:	3.428	Roll Set Point:	-0.079	Pitch Set Point:	-0.031	Yaw Set Point:	-0.048	X_WP:	0.000	Y_WP:	0.000	Y_WP:	0.500	X:	0.039	Y:	0.017	Z:	0.257	yaw:	2.727	yaw rate:	21.404	Roll:	0.985	Pitch:	0.147	Yaw:	9.519	Thrust:	70.172
Time:	3.440	Roll Set Point:	-0.078	Pitch Set Point:	-0.031	Yaw Set Point:	-0.043	X_WP:	0.000	Y_WP:	0.000	Y_WP:	0.500	X:	0.039	Y:	0.017	Z:	0.261	yaw:	2.459	yaw rate:	-26.809	Roll:	0.974	Pitch:	0.555	Yaw:	-1.720	Thrust:	59.741
Time:	3.451	Roll Set Point:	-0.078	Pitch Set Point:	-0.031	Yaw Set Point:	-0.041	X_WP:	0.000	Y_WP:	0.000	Y_WP:	0.500	X:	0.039	Y:	0.016	Z:	0.265	yaw:	2.343	yaw rate:	-11.531	Roll:	0.919	Pitch:	0.274	Yaw:	1.638	Thrust:	59.326
Time:	3.462	Roll Set Point:	-0.077	Pitch Set Point:	-0.031	Yaw Set Point:	-0.038	X_WP:	0.000	Y_WP:	0.000	Y_WP:	0.500	X:	0.038	Y:	0.016	Z:	0.269	yaw:	2.158	yaw rate:	-18.556	Roll:	0.691	Pitch:	0.218	Yaw:	-0.019	Thrust:	62.765
Time:	3.474	Roll Set Point:	-0.076	Pitch Set Point:	-0.030	Yaw Set Point:	-0.037	X_WP:	0.000	Y_WP:	0.000	Y_WP:	0.500	X:	0.038	Y:	0.016	Z:	0.278	yaw:	2.136	yaw rate:	-6.887	Roll:	0.923	Pitch:	0.128	Yaw:	3.703	Thrust:	47.091
Time:	3.485	Roll Set Point:	-0.075	Pitch Set Point:	-0.029	Yaw Set Point:	-0.034	X_WP:	0.000	Y_WP:	0.000	Y_WP:	0.500	X:	0.037	Y:	0.015	Z:	0.288	yaw:	1.955	yaw rate:	-18.053	Roll:	0.480	Pitch:	-0.348	Yaw:	-0.452	Thrust:	36.241
Time:	3.497	Roll Set Point:	-0.075	Pitch Set Point:	-0.029	Yaw Set Point:	-0.030	X_WP:	0.000	Y_WP:	0.000	Y_WP:	0.500	X:	0.037	Y:	0.015	Z:	0.293	yaw:	1.733	yaw rate:	-22.200	Roll:	1.078	Pitch:	0.323	Yaw:	-1.202	Thrust:	57.817
Time:	3.508	Roll Set Point:	-0.075	Pitch Set Point:	-0.028	Yaw Set Point:	-0.034	X_WP:	0.000	Y_WP:	0.000	Y_WP:	0.500	X:	0.037	Y:	0.015	Z:	0.298	yaw:	1.936	yaw rate:	20.290	Roll:	1.232	Pitch:	-0.164	Yaw:	8.622	Thrust:	56.993
Time:	3.519	Roll Set Point:	-0.075	Pitch Set Point:	-0.028	Yaw Set Point:	-0.030	X_WP:	0.000	Y_WP:	0.000	Y_WP:	0.500	X:	0.037	Y:	0.014	Z:	0.303	yaw:	1.722	yaw rate:	-21.423	Roll:	1.199	Pitch:	0.015	Yaw:	-1.578	Thrust:	53.370
Time:	3.533	Roll Set Point:	-0.074	Pitch Set Point:	-0.027	Yaw Set Point:	-0.031	X_WP:	0.000	Y_WP:	0.000	Y_WP:	0.500	X:	0.037	Y:	0.014	Z:	0.309	yaw:	1.793	yaw rate:	7.079	Roll:	1.076	Pitch:	-0.212	Yaw:	5.228	Thrust:	67.527
Time:	3.543	Roll Set Point:	-0.074	Pitch Set Point:	-0.026	Yaw Set Point:	-0.026	X_WP:	0.000	Y_WP:	0.000	Y_WP:	0.500	X:	0.037	Y:	0.014	Z:	0.315	yaw:	1.467	yaw rate:	-32.589	Roll:	0.968	Pitch:	0.064	Yaw:	-5.001	Thrust:	47.554
Time:	3.565	Roll Set Point:	-0.074	Pitch Set Point:	-0.026	Yaw Set Point:	-0.023	X_WP:	0.000	Y_WP:	0.000	Y_WP:	0.500	X:	0.037	Y:	0.013	Z:	0.320	yaw:	1.296	yaw rate:	-17.086	Roll:	1.350	Pitch:	0.085	Yaw:	1.585	Thrust:	100.000
Time:	3.578	Roll Set Point:	-0.074	Pitch Set Point:	-0.024	Yaw Set Point:	-0.029	X_WP:	0.000	Y_WP:	0.000	Y_WP:	0.500	X:	0.037	Y:	0.012	Z:	0.332	yaw:	1.640	yaw rate:	24.919	Roll:	1.444	Pitch:	-1.036	Yaw:	10.305	Thrust:	55.026
Time:	3.593	Roll Set Point:	-0.074	Pitch Set Point:	-0.023	Yaw Set Point:	-0.025	X_WP:	0.000	Y_WP:	0.000	Y_WP:	0.500	X:	0.037	Y:	0.012	Z:	0.338	yaw:	1.443	yaw rate:	-19.640	Roll:	1.243	Pitch:	0.041	Yaw:	0.267	Thrust:	80.534
Time:	3.605	Roll Set Point:	-0.074	Pitch Set Point:	-0.020	Yaw Set Point:	-0.020	X_WP:	0.000	Y_WP:	0.000	Y_WP:	0.500	X:	0.037	Y:	0.010	Z:	0.355	yaw:	1.156	yaw rate:	33.683	Roll:	1.318	Pitch:	-1.437	Yaw:	-3.129	Thrust:	26.669
Time:	3.616	Roll Set Point:	-0.074	Pitch Set Point:	-0.019	Yaw Set Point:	-0.015	X_WP:	0.000	Y_WP:	0.000	Y_WP:	0.500	X:	0.037	Y:	0.010	Z:	0.360	yaw:	0.845	yaw rate:	-31.139	Roll:	1.253	Pitch:	-0.213	Yaw:	-5.110	Thrust:	50.372
Time:	3.627	Roll Set Point:	-0.073	Pitch Set Point:	-0.018	Yaw Set Point:	-0.013	X_WP:	0.000	Y_WP:	0.000	Y_WP:	0.500	X:	0.037	Y:	0.009	Z:	0.366	yaw:	0.763	yaw rate:	-8.237	Roll:	1.209	Pitch:	-0.651	Yaw:	0.159	Thrust:	49.381
Time:	3.638	Roll Set Point:	-0.074	Pitch Set Point:	-0.017	Yaw Set Point:	-0.008	X_WP:	0.000	Y_WP:	0.000	Y_WP:	0.500	X:	0.037	Y:	0.009	Z:	0.371	yaw:	0.437	yaw rate:	-32.528	Roll:	1.322	Pitch:	-0.349	Yaw:	-6.424	Thrust:	46.700
Time:	3.649	Roll Set Point:	-0.074	Pitch Set Point:	-0.016	Yaw Set Point:	-0.018	X_WP:	0.000	Y_WP:	0.000	Y_WP:	0.500	X:	0.037	Y:	0.008	Z:	0.377	yaw:	1.005	yaw rate:	56.746	Roll:	1.626	Pitch:	-1.292	Yaw:	15.976	Thrust:	50.229
Time:	3.667	Roll Set Point:	-0.074	Pitch Set Point:	-0.015	Yaw Set Point:	-0.007	X_WP:	0.000	Y_WP:	0.000	Y_WP:	0.500	X:	0.037	Y:	0.008	Z:	0.382	yaw:	0.374	yaw rate:	-63.034	Roll:	1.203	Pitch:	-0.101	Yaw:	-7.433	Thrust:	95.953
Time:	3.678	Roll Set Point:	-0.074	Pitch Set Point:	-0.014	Yaw Set Point:	-0.014	X_WP:	0.000	Y_WP:	0.000	Y_WP:	0.500	X:	0.037	Y:	0.007	Z:	0.388	yaw:	0.785	yaw rate:	41.083	Roll:	1.617	Pitch:	-0.599	Yaw:	10.932	Thrust:	62.387
Time:	3.694	Roll Set Point:	-0.074	Pitch Set Point:	-0.012	Yaw Set Point:	-0.006	X_WP:	0.000	Y_WP:	0.000	Y_WP:	0.500	X:	0.037	Y:	0.006	Z:	0.393	yaw:	0.324	yaw rate:	-46.120	Roll:	1.364	Pitch:	-0.308	Yaw:	-6.070	Thrust:	82.045
Time:	3.706	Roll Set Point:	-0.075	Pitch Set Point:	-0.010	Yaw Set Point:	-0.008	X_WP:	0.000	Y_WP:	0.000	Y_WP:	0.500	X:	0.037	Y:	0.005	Z:	0.402	yaw:	0.473	yaw rate:	43.125	Roll:	1.886	Pitch:	-1.544	Yaw:	5.020	Thrust:	46.504
Time:	3.718	Roll Set Point:	-0.075	Pitch Set Point:	-0.009	Yaw Set Point:	-0.002	X_WP:	0.000	Y_WP:	0.000	Y_WP:	0.500	X:	0.037	Y:	0.004	Z:	0.407	yaw:	0.088	yaw rate:	-38.476	Roll:	1.205	Pitch:	-0.506	Yaw:	-7.045	Thrust:	56.869
Time:	3.729	Roll Set Point:	-0.075	Pitch Set Point:	-0.008	Yaw Set Point:	0.001	X_WP:	0.000	Y_WP:	0.000	Y_WP:	0.500	X:	0.037	Y:	0.004	Z:	0.411	yaw:	-0.084	yaw rate:	-17.242	Roll:	1.524	Pitch:	-0.674	Yaw:	-2.873	Thrust:	61.447
Time:	3.741	Roll Set Point:	-0.076	Pitch Set Point:	-0.005	Yaw Set Point:	-0.001	X_WP:	0.000	Y_WP:	0.000	Y_WP:	0.500	X:	0.038	Y:	0.003	Z:	0.421	yaw:	0.055	yaw rate:	13.960	Roll:	1.967	Pitch:	-2.016	Yaw:	4.399	Thrust:	30.002
Time:	3.751	Roll Set Point:	-0.076	Pitch Set Point:	-0.004	Yaw Set Point:	0.007	X_WP:	0.000	Y_WP:	0.000	Y_WP:	0.500	X:	0.038	Y:	0.002	Z:	0.425	yaw:	-0.397	yaw rate:	-45.217	Roll:	1.502	Pitch:	-0.540	Yaw:	-11.357	Thrust:	53.723
Time:	3.762	Roll Set Point:	-0.076	Pitch Set Point:	-0.003	Yaw Set Point:	0.010	X_WP:	0.000	Y_WP:	0.000	Y_WP:	0.500	X:	0.038	Y:	0.001	Z:	0.429	yaw:	-0.546	yaw rate:	-14.923	Roll:	1.569	Pitch:	-0.830	Yaw:	-2.999	Thrust:	57.330
Time:	3.774	Roll Set Point:	-0.077	Pitch Set Point:	-0.002	Yaw Set Point:	0.007	X_WP:	0.000	Y_WP:	0.000	Y_WP:	0.500	X:	0.038	Y:	0.001	Z:	0.434	yaw:	-0.421	yaw rate:	12.573	Roll:	1.901	Pitch:	-0.905	Yaw:	3.454	Thrust:	55.637
Time:	3.785	Roll Set Point:	-0.077	Pitch Set Point:	-0.000	Yaw Set Point:	0.010	X_WP:	0.000	Y_WP:	0.000	Y_WP:	0.500	X:	0.038	Y:	-0.000	Z:	0.438	yaw:	-0.559	yaw rate:	-13.822	Roll:	1.356	Pitch:	-1.109	Yaw:	-2.963	Thrust:	54.286
Time:	3.797	Roll Set Point:	-0.078	Pitch Set Point:	0.001	Yaw Set Point:	0.005	X_WP:	0.000	Y_WP:	0.000	Y_WP:	0.500	X:	0.039	Y:	-0.001	Z:	0.442	yaw:	-0.275	yaw rate:	28.325	Roll:	1.822	Pitch:	-1.134	Yaw:	7.181	Thrust:	58.725
Time:	3.807	Roll Set Point:	-0.078	Pitch Set Point:	0.002	Yaw Set Point:	0.016	X_WP:	0.000	Y_WP:	0.000	Y_WP:	0.500	X:	0.039	Y:	-0.001	Z:	0.446	yaw:	-0.923	yaw rate:	-64.768	Roll:	1.506	Pitch:	-0.431	Yaw:	-15.569	Thrust:	53.817
Time:	3.818	Roll Set Point:	-0.078	Pitch Set Point:	0.004	Yaw Set Point:	0.005	X_WP:	0.000	Y_WP:	0.000	Y_WP:	0.500	X:	0.039	Y:	-0.002	Z:	0.450	yaw:	-0.313	yaw rate:	60.974	Roll:	1.909	Pitch:	-1.622	Yaw:	15.127	Thrust:	54.921
Time:	3.830	Roll Set Point:	-0.079	Pitch Set Point:	0.005	Yaw Set Point:	0.014	X_WP:	0.000	Y_WP:	0.000	Y_WP:	0.500	X:	0.039	Y:	-0.003	Z:	0.453	yaw:	-0.819	yaw rate:	-50.595	Roll:	1.568	Pitch:	-0.620	Yaw:	-11.713	Thrust:	58.243
Time:	3.841	Roll Set Point:	-0.079	Pitch Set Point:	0.006	Yaw Set Point:	0.016	X_WP:	0.000	Y_WP:	0.000	Y_WP:	0.500	X:	0.040	Y:	-0.003	Z:	0.457	yaw:	-0.920	yaw rate:	-10.039	Roll:	1.998	Pitch:	-0.931	Yaw:	-2.611	Thrust:	55.098
Time:	3.852	Roll Set Point:	-0.080	Pitch Set Point:	0.007	Yaw Set Point:	0.018	X_WP:	0.000	Y_WP:	0.000	Y_WP:	0.500	X:	0.040	Y:	-0.004	Z:	0.460	yaw:	-1.009	yaw rate:	-8.880	Roll:	1.923	Pitch:	-0.896	Yaw:	-2.432	Thrust:	55.535
Time:	3.863	Roll Set Point:	-0.081	Pitch Set Point:	0.010	Yaw Set Point:	0.013	X_WP:	0.000	Y_WP:	0.000	Y_WP:	0.500	X:	0.040	Y:	-0.005	Z:	0.467	yaw:	-0.770	yaw rate:	4.697	Roll:	2.173	Pitch:	-2.239	Yaw:	5.450	Thrust:	47.995
Time:	3.874	Roll Set Point:	-0.081	Pitch Set Point:	0.011	Yaw Set Point:	0.021	X_WP:	0.000	Y_WP:	0.000	Y_WP:	0.500	X:	0.041	Y:	-0.006	Z:	0.470	yaw:	-1.178	yaw rate:	-40.785	Roll:	1.840	Pitch:	-0.685	Yaw:	-10.247	Thrust:	56.657
Time:	3.885	Roll Set Point:	-0.082	Pitch Set Point:	0.012	Yaw Set Point:	0.028	X_WP:	0.000	Y_WP:	0.000	Y_WP:	0.500	X:	0.041	Y:	-0.007	Z:	0.473	yaw:	-1.604	yaw rate:	-42.572	Roll:	1.970	Pitch:	-0.952	Yaw:	-11.273	Thrust:	56.367
Time:	3.896	Roll Set Point:	-0.083	Pitch Set Point:	0.015	Yaw Set Point:	0.023	X_WP:	0.000	Y_WP:	0.000	Y_WP:	0.500	X:	0.042	Y:	-0.008	Z:	0.479	yaw:	-1.308	yaw rate:	29.612	Roll:	2.446	Pitch:	-2.549	Yaw:	6.538	Thrust:	40.757
Time:	3.907	Roll Set Point:	-0.084	Pitch Set Point:	0.016	Yaw Set Point:	0.030	X_WP:	0.000	Y_WP:	0.000	Y_WP:	0.500	X:	0.042	Y:	-0.008	Z:	0.482	yaw:	-1.703	yaw rate:	-39.501	Roll:	2.078	Pitch:	-0.725	Yaw:	-10.705	Thrust:	57.820
Time:	3.918	Roll Set Point:	-0.085	Pitch Set Point:	0.017	Yaw Set Point:	0.022	X_WP:	0.000	Y_WP:	0.000	Y_WP:	0.500	X:	0.042	Y:	-0.009	Z:	0.485	yaw:	-1.262	yaw rate:	44.091	Roll:	2.174	Pitch:	-1.587	Yaw:	9.759	Thrust:	57.433
Time:	3.929	Roll Set Point:	-0.085	Pitch Set Point:	0.019	Yaw Set Point:	0.021	X_WP:	0.000	Y_WP:	0.000	Y_WP:	0.500	X:	0.042	Y:	-0.010	Z:	0.488	yaw:	-1.192	yaw rate:	6.971	Roll:	1.298	Pitch:	-1.605	Yaw:	1.032	Thrust:	59.248
Time:	3.942	Roll Set Point:	-0.086	Pitch Set Point:	0.020	Yaw Set Point:	0.022	X_WP:	0.000	Y_WP:	0.000	Y_WP:	0.500	X:	0.043	Y:	-0.010	Z:	0.490	yaw:	-1.287	yaw rate:	-9.512	Roll:	2.442	Pitch:	-0.887	Yaw:	-2.622	Thrust:	68.001
Time:	3.953	Roll Set Point:	-0.087	Pitch Set Point:	0.020	Yaw Set Point:	0.035	X_WP:	0.000	Y_WP:	0.000	Y_WP:	0.500	X:	0.043	Y:	-0.011	Z:	0.493	yaw:	-2.024	yaw rate:	-73.649	Roll:	2.162	Pitch:	-0.288	Yaw:	-19.270	Thrust:	59.138
Time:	3.964	Roll Set Point:	-0.087	Pitch Set Point:	0.022	Yaw Set Point:	0.025	X_WP:	0.000	Y_WP:	0.000	Y_WP:	0.500	X:	0.043	Y:	-0.012	Z:	0.495	yaw:	-1.419	yaw rate:	60.503	Roll:	2.014	Pitch:	-1.948	Yaw:	12.815	Thrust:	62.758
Time:	3.975	Roll Set Point:	-0.088	Pitch Set Point:	0.023	Yaw Set Point:	0.027	X_WP:	0.000	Y_WP:	0.000	Y_WP:	0.500	X:	0.044	Y:	-0.012	Z:	0.497	yaw:	-1.525	yaw rate:	-10.642	Roll:	1.901	Pitch:	-1.241	Yaw:	-3.628	Thrust:	59.456
Time:	3.987	Roll Set Point:	-0.089	Pitch Set Point:	0.024	Yaw Set Point:	0.036	X_WP:	0.000	Y_WP:	0.000	Y_WP:	0.500	X:	0.044	Y:	-0.013	Z:	0.499	yaw:	-2.047	yaw rate:	-52.241	Roll:	2.312	Pitch:	-0.491	Yaw:	-14.239	Thrust:	59.679
Time:	3.998	Roll Set Point:	-0.089	Pitch Set Point:	0.026	Yaw Set Point:	0.031	X_WP:	0.000	Y_WP:	0.000	Y_WP:	0.500	X:	0.044	Y:	-0.013	Z:	0.502	yaw:	-1.784	yaw rate:	26.335	Roll:	1.960	Pitch:	-1.749	Yaw:	4.545	Thrust:	63.151
Time:	4.009	Roll Set Point:	-0.090	Pitch Set Point:	0.027	Yaw Set Point:	0.027	X_WP:	0.000	Y_WP:	0.000	Y_WP:	0.500	X:	0.045	Y:	-0.014	Z:	0.504	yaw:	-1.545	yaw rate:	23.862	Roll:	2.449	Pitch:	-1.344	Yaw:	4.312	Thrust:	63.406
Time:	4.021	Roll Set Point:	-0.091	Pitch Set Point:	0.028	Yaw Set Point:	0.029	X_WP:	0.000	Y_WP:	0.000	Y_WP:	0.500	X:	0.045	Y:	-0.015	Z:	0.506	yaw:	-1.671	yaw rate:	-12.531	Roll:	2.070	Pitch:	-1.088	Yaw:	-4.259	Thrust:	60.781
Time:	4.037	Roll Set Point:	-0.092	Pitch Set Point:	0.030	Yaw Set Point:	0.030	X_WP:	0.000	Y_WP:	0.000	Y_WP:	0.500	X:	0.046	Y:	-0.016	Z:	0.509	yaw:	-1.723	yaw rate:	-5.244	Roll:	2.466	Pitch:	-1.643	Yaw:	-1.817	Thrust:	88.058
Time:	4.048	Roll Set Point:	-0.094	Pitch Set Point:	0.032	Yaw Set Point:	0.034	X_WP:	0.000	Y_WP:	0.000	Y_WP:	0.500	X:	0.047	Y:	-0.017	Z:	0.513	yaw:	-1.957	yaw rate:	-12.494	Roll:	3.003	Pitch:	-1.739	Yaw:	-6.998	Thrust:	55.161
Time:	4.062	Roll Set Point:	-0.095	Pitch Set Point:	0.033	Yaw Set Point:	0.033	X_WP:	0.000	Y_WP:	0.000	Y_WP:	0.500	X:	0.047	Y:	-0.017	Z:	0.515	yaw:	-1.870	yaw rate:	8.625	Roll:	2.221	Pitch:	-1.310	Yaw:	0.258	Thrust:	69.746
Time:	4.073	Roll Set Point:	-0.096	Pitch Set Point:	0.035	Yaw Set Point:	0.030	X_WP:	0.000	Y_WP:	0.000	Y_WP:	0.500	X:	0.048	Y:	-0.018	Z:	0.517	yaw:	-1.693	yaw rate:	17.713	Roll:	2.229	Pitch:	-1.483	Yaw:	2.789	Thrust:	66.428
Time:	4.085	Roll Set Point:	-0.096	Pitch Set Point:	0.036	Yaw Set Point:	0.027	X_WP:	0.000	Y_WP:	0.000	Y_WP:	0.500	X:	0.048	Y:	-0.018	Z:	0.520	yaw:	-1.537	yaw rate:	15.626	Roll:	2.203	Pitch:	-1.406	Yaw:	2.307	Thrust:	65.388
Time:	4.096	Roll Set Point:	-0.097	Pitch Set Point:	0.037	Yaw Set Point:	0.024	X_WP:	0.000	Y_WP:	0.000	Y_WP:	0.500	X:	0.048	Y:	-0.019	Z:	0.522	yaw:	-1.375	yaw rate:	16.158	Roll:	2.274	Pitch:	-1.499	Yaw:	2.750	Thrust:	61.380
Time:	4.108	Roll Set Point:	-0.098	Pitch Set Point:	0.037	Yaw Set Point:	0.028	X_WP:	0.000	Y_WP:	0.000	Y_WP:	0.500	X:	0.049	Y:	-0.019	Z:	0.524	yaw:	-1.607	yaw rate:	-23.151	Roll:	2.619	Pitch:	-0.814	Yaw:	-6.503	Thrust:	61.671
Time:	4.118	Roll Set Point:	-0.099	Pitch Set Point:	0.038	Yaw Set Point:	0.028	X_WP:	0.000	Y_WP:	0.000	Y_WP:	0.500	X:	0.049	Y:	-0.020	Z:	0.526	yaw:	-1.580	yaw rate:	2.677	Roll:	2.426	Pitch:	-1.354	Yaw:	-0.636	Thrust:	53.913
Time:	4.130	Roll Set Point:	-0.100	Pitch Set Point:	0.040	Yaw Set Point:	0.025	X_WP:	0.000	Y_WP:	0.000	Y_WP:	0.500	X:	0.050	Y:	-0.020	Z:	0.529	yaw:	-1.420	yaw rate:	16.024	Roll:	2.321	Pitch:	-1.509	Yaw:	2.745	Thrust:	57.043
Time:	4.141	Roll Set Point:	-0.102	Pitch Set Point:	0.041	Yaw Set Point:	0.022	X_WP:	0.000	Y_WP:	0.000	Y_WP:	0.500	X:	0.051	Y:	-0.021	Z:	0.534	yaw:	-1.288	yaw rate:	13.238	Roll:	3.037	Pitch:	-1.990	Yaw:	2.186	Thrust:	49.881
Time:	4.152	Roll Set Point:	-0.103	Pitch Set Point:	0.042	Yaw Set Point:	0.022	X_WP:	0.000	Y_WP:	0.000	Y_WP:	0.500	X:	0.051	Y:	-0.022	Z:	0.536	yaw:	-1.266	yaw rate:	2.159	Roll:	2.527	Pitch:	-1.291	Yaw:	-0.324	Thrust:	55.084
Time:	4.163	Roll Set Point:	-0.103	Pitch Set Point:	0.043	Yaw Set Point:	0.022	X_WP:	0.000	Y_WP:	0.000	Y_WP:	0.500	X:	0.051	Y:	-0.022	Z:	0.539	yaw:	-1.264	yaw rate:	0.200	Roll:	2.456	Pitch:	-1.067	Yaw:	-0.750	Thrust:	58.086
Time:	4.175	Roll Set Point:	-0.104	Pitch Set Point:	0.044	Yaw Set Point:	0.020	X_WP:	0.000	Y_WP:	0.000	Y_WP:	0.500	X:	0.052	Y:	-0.022	Z:	0.542	yaw:	-1.157	yaw rate:	10.736	Roll:	2.383	Pitch:	-1.481	Yaw:	1.820	Thrust:	57.326
Time:	4.198	Roll Set Point:	-0.106	Pitch Set Point:	0.045	Yaw Set Point:	0.021	X_WP:	0.000	Y_WP:	0.000	Y_WP:	0.500	X:	0.053	Y:	-0.023	Z:	0.547	yaw:	-1.196	yaw rate:	6.996	Roll:	2.880	Pitch:	-1.285	Yaw:	-0.253	Thrust:	100.000
Time:	4.211	Roll Set Point:	-0.107	Pitch Set Point:	0.048	Yaw Set Point:	0.005	X_WP:	0.000	Y_WP:	0.000	Y_WP:	0.500	X:	0.054	Y:	-0.024	Z:	0.553	yaw:	-0.286	yaw rate:	91.052	Roll:	2.444	Pitch:	-2.653	Yaw:	17.747	Thrust:	65.154
Time:	4.226	Roll Set Point:	-0.109	Pitch Set Point:	0.048	Yaw Set Point:	0.017	X_WP:	0.000	Y_WP:	0.000	Y_WP:	0.500	X:	0.054	Y:	-0.024	Z:	0.556	yaw:	-0.982	yaw rate:	-69.608	Roll:	2.912	Pitch:	-0.275	Yaw:	-12.663	Thrust:	74.973
Time:	4.237	Roll Set Point:	-0.110	Pitch Set Point:	0.049	Yaw Set Point:	0.011	X_WP:	0.000	Y_WP:	0.000	Y_WP:	0.500	X:	0.055	Y:	-0.025	Z:	0.561	yaw:	-0.649	yaw rate:	4.834	Roll:	3.101	Pitch:	-1.887	Yaw:	7.595	Thrust:	49.792
Time:	4.248	Roll Set Point:	-0.110	Pitch Set Point:	0.049	Yaw Set Point:	0.011	X_WP:	0.000	Y_WP:	0.000	Y_WP:	0.500	X:	0.055	Y:	-0.025	Z:	0.561	yaw:	-0.649	yaw rate:	4.834	Roll:	1.882	Pitch:	-0.723	Yaw:	-0.071	Thrust:	59.038
Time:	4.260	Roll Set Point:	-0.111	Pitch Set Point:	0.050	Yaw Set Point:	0.010	X_WP:	0.000	Y_WP:	0.000	Y_WP:	0.500	X:	0.056	Y:	-0.025	Z:	0.564	yaw:	-0.557	yaw rate:	9.254	Roll:	2.515	Pitch:	-1.301	Yaw:	2.179	Thrust:	63.556
Time:	4.272	Roll Set Point:	-0.113	Pitch Set Point:	0.050	Yaw Set Point:	0.011	X_WP:	0.000	Y_WP:	0.000	Y_WP:	0.500	X:	0.056	Y:	-0.026	Z:	0.570	yaw:	-0.614	yaw rate:	-4.626	Roll:	3.277	Pitch:	-1.155	Yaw:	-1.115	Thrust:	47.651
Time:	4.282	Roll Set Point:	-0.114	Pitch Set Point:	0.052	Yaw Set Point:	0.003	X_WP:	0.000	Y_WP:	0.000	Y_WP:	0.500	X:	0.057	Y:	-0.026	Z:	0.573	yaw:	-0.163	yaw rate:	45.116	Roll:	2.290	Pitch:	-2.232	Yaw:	12.371	Thrust:	44.465
Time:	4.293	Roll Set Point:	-0.115	Pitch Set Point:	0.052	Yaw Set Point:	0.003	X_WP:	0.000	Y_WP:	0.000	Y_WP:	0.500	X:	0.057	Y:	-0.026	Z:	0.576	yaw:	-0.183	yaw rate:	-2.009	Roll:	2.570	Pitch:	-1.107	Yaw:	0.167	Thrust:	50.861
Time:	4.305	Roll Set Point:	-0.115	Pitch Set Point:	0.053	Yaw Set Point:	0.003	X_WP:	0.000	Y_WP:	0.000	Y_WP:	0.500	X:	0.058	Y:	-0.026	Z:	0.579	yaw:	-0.182	yaw rate:	0.082	Roll:	2.650	Pitch:	-1.134	Yaw:	0.742	Thrust:	57.170
Time:	4.317	Roll Set Point:	-0.117	Pitch Set Point:	0.052	Yaw Set Point:	0.012	X_WP:	0.000	Y_WP:	0.000	Y_WP:	0.500	X:	0.058	Y:	-0.026	Z:	0.582	yaw:	-0.693	yaw rate:	-51.141	Roll:	3.067	Pitch:	-0.119	Yaw:	-11.120	Thrust:	56.880
Time:	4.334	Roll Set Point:	-0.118	Pitch Set Point:	0.053	Yaw Set Point:	0.015	X_WP:	0.000	Y_WP:	0.000	Y_WP:	0.500	X:	0.059	Y:	-0.027	Z:	0.585	yaw:	-0.840	yaw rate:	-14.695	Roll:	2.730	Pitch:	-0.864	Yaw:	-2.440	Thrust:	79.002
Time:	4.345	Roll Set Point:	-0.120	Pitch Set Point:	0.054	Yaw Set Point:	0.012	X_WP:	0.000	Y_WP:	0.000	Y_WP:	0.500	X:	0.060	Y:	-0.027	Z:	0.595	yaw:	-0.711	yaw rate:	-10.540	Roll:	3.558	Pitch:	-1.577	Yaw:	2.710	Thrust:	37.496
Time:	4.362	Roll Set Point:	-0.121	Pitch Set Point:	0.054	Yaw Set Point:	0.004	X_WP:	0.000	Y_WP:	0.000	Y_WP:	0.500	X:	0.060	Y:	-0.027	Z:	0.598	yaw:	-0.222	yaw rate:	48.893	Roll:	2.674	Pitch:	-1.333	Yaw:	8.953	Thrust:	76.454
Time:	4.373	Roll Set Point:	-0.122	Pitch Set Point:	0.054	Yaw Set Point:	0.012	X_WP:	0.000	Y_WP:	0.000	Y_WP:	0.500	X:	0.061	Y:	-0.027	Z:	0.601	yaw:	-0.704	yaw rate:	-48.204	Roll:	2.732	Pitch:	-0.355	Yaw:	-10.403	Thrust:	63.243
Time:	4.385	Roll Set Point:	-0.122	Pitch Set Point:	0.054	Yaw Set Point:	0.014	X_WP:	0.000	Y_WP:	0.000	Y_WP:	0.500	X:	0.061	Y:	-0.027	Z:	0.604	yaw:	-0.786	yaw rate:	-8.224	Roll:	2.676	Pitch:	-0.700	Yaw:	-2.164	Thrust:	47.946
Time:	4.397	Roll Set Point:	-0.123	Pitch Set Point:	0.054	Yaw Set Point:	0.012	X_WP:	0.000	Y_WP:	0.000	Y_WP:	0.500	X:	0.062	Y:	-0.027	Z:	0.607	yaw:	-0.709	yaw rate:	7.715	Roll:	2.726	Pitch:	-1.120	Yaw:	1.649	Thrust:	55.485
Time:	4.408	Roll Set Point:	-0.124	Pitch Set Point:	0.054	Yaw Set Point:	0.013	X_WP:	0.000	Y_WP:	0.000	Y_WP:	0.500	X:	0.062	Y:	-0.028	Z:	0.610	yaw:	-0.718	yaw rate:	-0.935	Roll:	2.822	Pitch:	-0.983	Yaw:	-0.347	Thrust:	47.823
Time:	4.419	Roll Set Point:	-0.125	Pitch Set Point:	0.055	Yaw Set Point:	0.003	X_WP:	0.000	Y_WP:	0.000	Y_WP:	0.500	X:	0.062	Y:	-0.028	Z:	0.613	yaw:	-0.191	yaw rate:	52.798	Roll:	2.531	Pitch:	-1.587	Yaw:	13.143	Thrust:	47.207
Time:	4.430	Roll Set Point:	-0.126	Pitch Set Point:	0.055	Yaw Set Point:	0.005	X_WP:	0.000	Y_WP:	0.000	Y_WP:	0.500	X:	0.063	Y:	-0.028	Z:	0.619	yaw:	-0.298	yaw rate:	21.134	Roll:	3.191	Pitch:	-1.157	Yaw:	-1.880	Thrust:	41.065
Time:	4.442	Roll Set Point:	-0.126	Pitch Set Point:	0.055	Yaw Set Point:	0.005	X_WP:	0.000	Y_WP:	0.000	Y_WP:	0.500	X:	0.063	Y:	-0.028	Z:	0.619	yaw:	-0.298	yaw rate:	21.134	Roll:	2.159	Pitch:	-0.830	Yaw:	0.418	Thrust:	56.218
Time:	4.452	Roll Set Point:	-0.127	Pitch Set Point:	0.056	Yaw Set Point:	-0.007	X_WP:	0.000	Y_WP:	0.000	Y_WP:	0.500	X:	0.064	Y:	-0.028	Z:	0.622	yaw:	0.406	yaw rate:	70.316	Roll:	2.331	Pitch:	-1.740	Yaw:	18.129	Thrust:	46.474
Time:	4.463	Roll Set Point:	-0.129	Pitch Set Point:	0.055	Yaw Set Point:	0.002	X_WP:	0.000	Y_WP:	0.000	Y_WP:	0.500	X:	0.064	Y:	-0.028	Z:	0.628	yaw:	-0.107	yaw rate:	8.812	Roll:	4.066	Pitch:	0.037	Yaw:	-11.434	Thrust:	34.965
Time:	4.474	Roll Set Point:	-0.129	Pitch Set Point:	0.055	Yaw Set Point:	0.002	X_WP:	0.000	Y_WP:	0.000	Y_WP:	0.500	X:	0.064	Y:	-0.028	Z:	0.628	yaw:	-0.107	yaw rate:	8.812	Roll:	2.203	Pitch:	-0.833	Yaw:	0.689	Thrust:	55.583
Time:	4.485	Roll Set Point:	-0.130	Pitch Set Point:	0.054	Yaw Set Point:	0.016	X_WP:	0.000	Y_WP:	0.000	Y_WP:	0.500	X:	0.065	Y:	-0.028	Z:	0.630	yaw:	-0.945	yaw rate:	-83.825	Roll:	3.055	Pitch:	0.590	Yaw:	-20.342	Thrust:	46.764
Time:	4.497	Roll Set Point:	-0.132	Pitch Set Point:	0.054	Yaw Set Point:	0.013	X_WP:	0.000	Y_WP:	0.000	Y_WP:	0.500	X:	0.066	Y:	-0.028	Z:	0.638	yaw:	-0.749	yaw rate:	-92.830	Roll:	3.591	Pitch:	-0.940	Yaw:	4.305	Thrust:	31.352
Time:	4.508	Roll Set Point:	-0.132	Pitch Set Point:	0.054	Yaw Set Point:	0.016	X_WP:	0.000	Y_WP:	0.000	Y_WP:	0.500	X:	0.066	Y:	-0.028	Z:	0.640	yaw:	-0.944	yaw rate:	-19.484	Roll:	2.870	Pitch:	-0.409	Yaw:	-4.833	Thrust:	51.564
Time:	4.519	Roll Set Point:	-0.133	Pitch Set Point:	0.054	Yaw Set Point:	0.016	X_WP:	0.000	Y_WP:	0.000	Y_WP:	0.500	X:	0.066	Y:	-0.027	Z:	0.642	yaw:	-0.919	yaw rate:	2.494	Roll:	3.017	Pitch:	-0.678	Yaw:	0.172	Thrust:	48.122
Time:	4.530	Roll Set Point:	-0.134	Pitch Set Point:	0.054	Yaw Set Point:	0.016	X_WP:	0.000	Y_WP:	0.000	Y_WP:	0.500	X:	0.067	Y:	-0.027	Z:	0.644	yaw:	-0.926	yaw rate:	-0.657	Roll:	2.734	Pitch:	-0.614	Yaw:	-0.586	Thrust:	48.250
Time:	4.541	Roll Set Point:	-0.135	Pitch Set Point:	0.054	Yaw Set Point:	0.010	X_WP:	0.000	Y_WP:	0.000	Y_WP:	0.500	X:	0.067	Y:	-0.027	Z:	0.646	yaw:	-0.590	yaw rate:	33.594	Roll:	2.767	Pitch:	-1.232	Yaw:	8.091	Thrust:	49.101
Time:	4.552	Roll Set Point:	-0.135	Pitch Set Point:	0.054	Yaw Set Point:	0.020	X_WP:	0.000	Y_WP:	0.000	Y_WP:	0.500	X:	0.067	Y:	-0.027	Z:	0.647	yaw:	-1.157	yaw rate:	-56.760	Roll:	3.095	Pitch:	-0.085	Yaw:	-14.235	Thrust:	50.901
Time:	4.563	Roll Set Point:	-0.136	Pitch Set Point:	0.053	Yaw Set Point:	0.022	X_WP:	0.000	Y_WP:	0.000	Y_WP:	0.500	X:	0.068	Y:	-0.027	Z:	0.648	yaw:	-1.263	yaw rate:	-10.596	Roll:	2.797	Pitch:	-0.510	Yaw:	-3.276	Thrust:	53.309
Time:	4.574	Roll Set Point:	-0.136	Pitch Set Point:	0.053	Yaw Set Point:	0.020	X_WP:	0.000	Y_WP:	0.000	Y_WP:	0.500	X:	0.068	Y:	-0.027	Z:	0.650	yaw:	-1.124	yaw rate:	13.939	Roll:	2.684	Pitch:	-0.816	Yaw:	2.644	Thrust:	49.043
Time:	4.585	Roll Set Point:	-0.137	Pitch Set Point:	0.053	Yaw Set Point:	0.021	X_WP:	0.000	Y_WP:	0.000	Y_WP:	0.500	X:	0.068	Y:	-0.027	Z:	0.651	yaw:	-1.191	yaw rate:	-6.685	Roll:	2.816	Pitch:	-0.320	Yaw:	-2.409	Thrust:	50.911
Time:	4.597	Roll Set Point:	-0.138	Pitch Set Point:	0.053	Yaw Set Point:	0.016	X_WP:	0.000	Y_WP:	0.000	Y_WP:	0.500	X:	0.069	Y:	-0.027	Z:	0.651	yaw:	-0.934	yaw rate:	25.647	Roll:	2.969	Pitch:	-1.075	Yaw:	5.379	Thrust:	55.029
Time:	4.608	Roll Set Point:	-0.138	Pitch Set Point:	0.052	Yaw Set Point:	0.027	X_WP:	0.000	Y_WP:	0.000	Y_WP:	0.500	X:	0.069	Y:	-0.027	Z:	0.652	yaw:	-1.527	yaw rate:	-59.321	Roll:	3.032	Pitch:	0.068	Yaw:	-15.383	Thrust:	50.618
Time:	4.619	Roll Set Point:	-0.139	Pitch Set Point:	0.052	Yaw Set Point:	0.025	X_WP:	0.000	Y_WP:	0.000	Y_WP:	0.500	X:	0.069	Y:	-0.027	Z:	0.652	yaw:	-1.411	yaw rate:	11.600	Roll:	2.507	Pitch:	-0.704	Yaw:	1.608	Thrust:	55.256
Time:	4.630	Roll Set Point:	-0.140	Pitch Set Point:	0.052	Yaw Set Point:	0.027	X_WP:	0.000	Y_WP:	0.000	Y_WP:	0.500	X:	0.070	Y:	-0.027	Z:	0.652	yaw:	-1.532	yaw rate:	-12.071	Roll:	3.234	Pitch:	-0.522	Yaw:	-4.151	Thrust:	55.162
Time:	4.640	Roll Set Point:	-0.141	Pitch Set Point:	0.052	Yaw Set Point:	0.027	X_WP:	0.000	Y_WP:	0.000	Y_WP:	0.500	X:	0.070	Y:	-0.027	Z:	0.652	yaw:	-1.546	yaw rate:	-1.386	Roll:	3.127	Pitch:	-0.693	Yaw:	-1.711	Thrust:	52.469
Time:	4.651	Roll Set Point:	-0.141	Pitch Set Point:	0.051	Yaw Set Point:	0.031	X_WP:	0.000	Y_WP:	0.000	Y_WP:	0.500	X:	0.070	Y:	-0.027	Z:	0.651	yaw:	-1.781	yaw rate:	-23.514	Roll:	2.978	Pitch:	-0.192	Yaw:	-7.257	Thrust:	55.343
Time:	4.663	Roll Set Point:	-0.142	Pitch Set Point:	0.051	Yaw Set Point:	0.028	X_WP:	0.000	Y_WP:	0.000	Y_WP:	0.500	X:	0.071	Y:	-0.027	Z:	0.651	yaw:	-1.621	yaw rate:	15.966	Roll:	2.689	Pitch:	-0.815	Yaw:	2.194	Thrust:	58.121
Time:	4.674	Roll Set Point:	-0.143	Pitch Set Point:	0.052	Yaw Set Point:	0.023	X_WP:	0.000	Y_WP:	0.000	Y_WP:	0.500	X:	0.071	Y:	-0.027	Z:	0.650	yaw:	-1.310	yaw rate:	31.167	Roll:	2.933	Pitch:	-1.296	Yaw:	6.389	Thrust:	56.755
Time:	4.685	Roll Set Point:	-0.143	Pitch Set Point:	0.051	Yaw Set Point:	0.034	X_WP:	0.000	Y_WP:	0.000	Y_WP:	0.500	X:	0.071	Y:	-0.027	Z:	0.650	yaw:	-1.975	yaw rate:	-66.517	Roll:	2.995	Pitch:	0.423	Yaw:	-17.759	Thrust:	56.307
Time:	4.697	Roll Set Point:	-0.143	Pitch Set Point:	0.051	Yaw Set Point:	0.029	X_WP:	0.000	Y_WP:	0.000	Y_WP:	0.500	X:	0.071	Y:	-0.027	Z:	0.649	yaw:	-1.658	yaw rate:	31.665	Roll:	2.709	Pitch:	-1.197	Yaw:	5.674	Thrust:	59.891
Time:	4.708	Roll Set Point:	-0.144	Pitch Set Point:	0.051	Yaw Set Point:	0.035	X_WP:	0.000	Y_WP:	0.000	Y_WP:	0.500	X:	0.072	Y:	-0.027	Z:	0.648	yaw:	-1.997	yaw rate:	-33.845	Roll:	3.092	Pitch:	0.049	Yaw:	-10.044	Thrust:	57.307
Time:	4.719	Roll Set Point:	-0.144	Pitch Set Point:	0.051	Yaw Set Point:	0.032	X_WP:	0.000	Y_WP:	0.000	Y_WP:	0.500	X:	0.072	Y:	-0.027	Z:	0.646	yaw:	-1.853	yaw rate:	14.325	Roll:	2.771	Pitch:	-1.098	Yaw:	1.582	Thrust:	58.252
Time:	4.730	Roll Set Point:	-0.145	Pitch Set Point:	0.050	Yaw Set Point:	0.035	X_WP:	0.000	Y_WP:	0.000	Y_WP:	0.500	X:	0.072	Y:	-0.026	Z:	0.645	yaw:	-1.982	yaw rate:	-12.874	Roll:	2.921	Pitch:	-0.389	Yaw:	-4.955	Thrust:	59.347
Time:	4.742	Roll Set Point:	-0.146	Pitch Set Point:	0.051	Yaw Set Point:	0.035	X_WP:	0.000	Y_WP:	0.000	Y_WP:	0.500	X:	0.072	Y:	-0.027	Z:	0.644	yaw:	-1.992	yaw rate:	-0.949	Roll:	3.019	Pitch:	-0.819	Yaw:	-2.164	Thrust:	63.706
Time:	4.753	Roll Set Point:	-0.146	Pitch Set Point:	0.050	Yaw Set Point:	0.037	X_WP:	0.000	Y_WP:	0.000	Y_WP:	0.500	X:	0.073	Y:	-0.027	Z:	0.642	yaw:	-2.142	yaw rate:	-15.067	Roll:	2.999	Pitch:	-0.514	Yaw:	-6.247	Thrust:	54.710
Time:	4.764	Roll Set Point:	-0.147	Pitch Set Point:	0.051	Yaw Set Point:	0.028	X_WP:	0.000	Y_WP:	0.000	Y_WP:	0.500	X:	0.073	Y:	-0.027	Z:	0.640	yaw:	-1.622	yaw rate:	52.024	Roll:	2.834	Pitch:	-1.604	Yaw:	9.850	Thrust:	60.626
Time:	4.775	Roll Set Point:	-0.147	Pitch Set Point:	0.050	Yaw Set Point:	0.036	X_WP:	0.000	Y_WP:	0.000	Y_WP:	0.500	X:	0.073	Y:	-0.027	Z:	0.637	yaw:	-2.082	yaw rate:	3.441	Roll:	2.876	Pitch:	0.083	Yaw:	-13.077	Thrust:	68.367
Time:	4.787	Roll Set Point:	-0.148	Pitch Set Point:	0.051	Yaw Set Point:	0.030	X_WP:	0.000	Y_WP:	0.000	Y_WP:	0.500	X:	0.074	Y:	-0.027	Z:	0.634	yaw:	-1.719	yaw rate:	36.271	Roll:	3.439	Pitch:	-1.623	Yaw:	6.933	Thrust:	66.212
Time:	4.798	Roll Set Point:	-0.149	Pitch Set Point:	0.051	Yaw Set Point:	0.035	X_WP:	0.000	Y_WP:	0.000	Y_WP:	0.500	X:	0.074	Y:	-0.027	Z:	0.632	yaw:	-2.001	yaw rate:	-28.201	Roll:	2.887	Pitch:	-0.165	Yaw:	-8.444	Thrust:	61.727
Time:	4.809	Roll Set Point:	-0.149	Pitch Set Point:	0.051	Yaw Set Point:	0.037	X_WP:	0.000	Y_WP:	0.000	Y_WP:	0.500	X:	0.074	Y:	-0.027	Z:	0.630	yaw:	-2.091	yaw rate:	-9.066	Roll:	3.018	Pitch:	-0.932	Yaw:	-4.315	Thrust:	61.485
Time:	4.820	Roll Set Point:	-0.149	Pitch Set Point:	0.052	Yaw Set Point:	0.032	X_WP:	0.000	Y_WP:	0.000	Y_WP:	0.500	X:	0.074	Y:	-0.027	Z:	0.628	yaw:	-1.828	yaw rate:	26.345	Roll:	2.540	Pitch:	-1.378	Yaw:	4.403	Thrust:	58.900
Time:	4.831	Roll Set Point:	-0.150	Pitch Set Point:	0.051	Yaw Set Point:	0.034	X_WP:	0.000	Y_WP:	0.000	Y_WP:	0.500	X:	0.074	Y:	-0.027	Z:	0.627	yaw:	-1.934	yaw rate:	-10.550	Roll:	2.818	Pitch:	-0.415	Yaw:	-4.507	Thrust:	59.407
Time:	4.842	Roll Set Point:	-0.150	Pitch Set Point:	0.051	Yaw Set Point:	0.037	X_WP:	0.000	Y_WP:	0.000	Y_WP:	0.500	X:	0.075	Y:	-0.027	Z:	0.625	yaw:	-2.139	yaw rate:	-20.579	Roll:	3.258	Pitch:	-0.482	Yaw:	-7.183	Thrust:	58.646
Time:	4.853	Roll Set Point:	-0.150	Pitch Set Point:	0.051	Yaw Set Point:	0.032	X_WP:	0.000	Y_WP:	0.000	Y_WP:	0.500	X:	0.075	Y:	-0.027	Z:	0.623	yaw:	-1.860	yaw rate:	27.898	Roll:	2.342	Pitch:	-1.326	Yaw:	4.698	Thrust:	58.699
Time:	4.865	Roll Set Point:	-0.151	Pitch Set Point:	0.052	Yaw Set Point:	0.036	X_WP:	0.000	Y_WP:	0.000	Y_WP:	0.500	X:	0.075	Y:	-0.027	Z:	0.622	yaw:	-2.058	yaw rate:	-19.738	Roll:	3.285	Pitch:	-0.665	Yaw:	-6.654	Thrust:	60.601
Time:	4.876	Roll Set Point:	-0.151	Pitch Set Point:	0.052	Yaw Set Point:	0.036	X_WP:	0.000	Y_WP:	0.000	Y_WP:	0.500	X:	0.075	Y:	-0.027	Z:	0.620	yaw:	-2.037	yaw rate:	2.049	Roll:	2.868	Pitch:	-0.912	Yaw:	-1.692	Thrust:	58.811
Time:	4.888	Roll Set Point:	-0.152	Pitch Set Point:	0.052	Yaw Set Point:	0.034	X_WP:	0.000	Y_WP:	0.000	Y_WP:	0.500	X:	0.076	Y:	-0.027	Z:	0.619	yaw:	-1.972	yaw rate:	6.504	Roll:	3.031	Pitch:	-0.985	Yaw:	-0.623	Thrust:	62.779
Time:	4.902	Roll Set Point:	-0.152	Pitch Set Point:	0.052	Yaw Set Point:	0.034	X_WP:	0.000	Y_WP:	0.000	Y_WP:	0.500	X:	0.076	Y:	-0.027	Z:	0.617	yaw:	-1.959	yaw rate:	1.278	Roll:	2.868	Pitch:	-1.043	Yaw:	-1.650	Thrust:	74.952
Time:	4.914	Roll Set Point:	-0.153	Pitch Set Point:	0.053	Yaw Set Point:	0.026	X_WP:	0.000	Y_WP:	0.000	Y_WP:	0.500	X:	0.076	Y:	-0.027	Z:	0.616	yaw:	-1.469	yaw rate:	49.011	Roll:	2.813	Pitch:	-1.680	Yaw:	9.562	Thrust:	60.392
Time:	4.927	Roll Set Point:	-0.153	Pitch Set Point:	0.053	Yaw Set Point:	0.033	X_WP:	0.000	Y_WP:	0.000	Y_WP:	0.500	X:	0.076	Y:	-0.028	Z:	0.612	yaw:	-1.863	yaw rate:	-39.463	Roll:	3.443	Pitch:	-0.479	Yaw:	-10.110	Thrust:	73.674
Time:	4.939	Roll Set Point:	-0.154	Pitch Set Point:	0.054	Yaw Set Point:	0.033	X_WP:	0.000	Y_WP:	0.000	Y_WP:	0.500	X:	0.076	Y:	-0.028	Z:	0.611	yaw:	-1.909	yaw rate:	-4.570	Roll:	2.990	Pitch:	-1.117	Yaw:	-3.123	Thrust:	57.547
Time:	4.949	Roll Set Point:	-0.154	Pitch Set Point:	0.053	Yaw Set Point:	0.035	X_WP:	0.000	Y_WP:	0.000	Y_WP:	0.500	X:	0.077	Y:	-0.028	Z:	0.610	yaw:	-1.985	yaw rate:	-7.621	Roll:	2.966	Pitch:	-0.629	Yaw:	-3.960	Thrust:	56.401
Time:	4.961	Roll Set Point:	-0.154	Pitch Set Point:	0.054	Yaw Set Point:	0.035	X_WP:	0.000	Y_WP:	0.000	Y_WP:	0.500	X:	0.077	Y:	-0.028	Z:	0.608	yaw:	-2.016	yaw rate:	-3.021	Roll:	2.930	Pitch:	-1.018	Yaw:	-2.748	Thrust:	63.489
Time:	4.972	Roll Set Point:	-0.155	Pitch Set Point:	0.054	Yaw Set Point:	0.034	X_WP:	0.000	Y_WP:	0.000	Y_WP:	0.500	X:	0.077	Y:	-0.029	Z:	0.607	yaw:	-1.952	yaw rate:	6.371	Roll:	3.003	Pitch:	-1.373	Yaw:	-0.608	Thrust:	57.340
Time:	4.983	Roll Set Point:	-0.155	Pitch Set Point:	0.055	Yaw Set Point:	0.029	X_WP:	0.000	Y_WP:	0.000	Y_WP:	0.500	X:	0.077	Y:	-0.029	Z:	0.606	yaw:	-1.673	yaw rate:	27.913	Roll:	2.666	Pitch:	-1.562	Yaw:	4.888	Thrust:	56.716
Time:	4.995	Roll Set Point:	-0.155	Pitch Set Point:	0.055	Yaw Set Point:	0.024	X_WP:	0.000	Y_WP:	0.000	Y_WP:	0.500	X:	0.077	Y:	-0.029	Z:	0.605	yaw:	-1.353	yaw rate:	31.950	Roll:	2.723	Pitch:	-1.369	Yaw:	5.975	Thrust:	56.280
Time:	5.006	Roll Set Point:	-0.156	Pitch Set Point:	0.056	Yaw Set Point:	0.023	X_WP:	0.000	Y_WP:	0.000	Y_WP:	0.500	X:	0.078	Y:	-0.029	Z:	0.604	yaw:	-1.302	yaw rate:	5.145	Roll:	3.169	Pitch:	-1.254	Yaw:	-0.012	Thrust:	56.489
Time:	5.018	Roll Set Point:	-0.156	Pitch Set Point:	0.055	Yaw Set Point:	0.028	X_WP:	0.000	Y_WP:	0.000	Y_WP:	0.500	X:	0.078	Y:	-0.029	Z:	0.603	yaw:	-1.630	yaw rate:	-32.795	Roll:	2.857	Pitch:	-0.345	Yaw:	-8.777	Thrust:	57.288
Time:	5.030	Roll Set Point:	-0.156	Pitch Set Point:	0.055	Yaw Set Point:	0.031	X_WP:	0.000	Y_WP:	0.000	Y_WP:	0.500	X:	0.078	Y:	-0.029	Z:	0.602	yaw:	-1.773	yaw rate:	-14.363	Roll:	2.867	Pitch:	-0.620	Yaw:	-5.135	Thrust:	59.410
Time:	5.043	Roll Set Point:	-0.156	Pitch Set Point:	0.057	Yaw Set Point:	0.015	X_WP:	0.000	Y_WP:	0.000	Y_WP:	0.500	X:	0.078	Y:	-0.029	Z:	0.600	yaw:	-0.835	yaw rate:	93.803	Roll:	2.134	Pitch:	-3.024	Yaw:	17.669	Thrust:	67.274
Time:	5.058	Roll Set Point:	-0.157	Pitch Set Point:	0.056	Yaw Set Point:	0.023	X_WP:	0.000	Y_WP:	0.000	Y_WP:	0.500	X:	0.078	Y:	-0.029	Z:	0.599	yaw:	-1.314	yaw rate:	-47.850	Roll:	3.721	Pitch:	0.224	Yaw:	-10.719	Thrust:	63.064
Time:	5.071	Roll Set Point:	-0.157	Pitch Set Point:	0.057	Yaw Set Point:	0.031	X_WP:	0.000	Y_WP:	0.000	Y_WP:	0.500	X:	0.078	Y:	-0.030	Z:	0.597	yaw:	-1.748	yaw rate:	-8.316	Roll:	3.331	Pitch:	-0.657	Yaw:	-9.242	Thrust:	77.907
Time:	5.082	Roll Set Point:	-0.158	Pitch Set Point:	0.057	Yaw Set Point:	0.025	X_WP:	0.000	Y_WP:	0.000	Y_WP:	0.500	X:	0.078	Y:	-0.030	Z:	0.596	yaw:	-1.434	yaw rate:	31.319	Roll:	2.847	Pitch:	-1.706	Yaw:	5.981	Thrust:	60.153
Time:	5.094	Roll Set Point:	-0.157	Pitch Set Point:	0.059	Yaw Set Point:	0.009	X_WP:	0.000	Y_WP:	0.000	Y_WP:	0.500	X:	0.079	Y:	-0.030	Z:	0.594	yaw:	-0.509	yaw rate:	92.501	Roll:	2.126	Pitch:	-2.786	Yaw:	19.991	Thrust:	58.349
Time:	5.107	Roll Set Point:	-0.158	Pitch Set Point:	0.058	Yaw Set Point:	0.022	X_WP:	0.000	Y_WP:	0.000	Y_WP:	0.500	X:	0.079	Y:	-0.030	Z:	0.594	yaw:	-1.272	yaw rate:	-76.277	Roll:	3.377	Pitch:	0.529	Yaw:	-17.502	Thrust:	60.855
Time:	5.120	Roll Set Point:	-0.158	Pitch Set Point:	0.058	Yaw Set Point:	0.024	X_WP:	0.000	Y_WP:	0.000	Y_WP:	0.500	X:	0.079	Y:	-0.030	Z:	0.593	yaw:	-1.362	yaw rate:	-8.988	Roll:	3.025	Pitch:	-1.052	Yaw:	-2.977	Thrust:	62.518
Time:	5.143	Roll Set Point:	-0.158	Pitch Set Point:	0.058	Yaw Set Point:	0.023	X_WP:	0.000	Y_WP:	0.000	Y_WP:	0.500	X:	0.079	Y:	-0.030	Z:	0.591	yaw:	-1.313	yaw rate:	13.397	Roll:	3.187	Pitch:	-1.050	Yaw:	-0.184	Thrust:	100.000
Time:	5.163	Roll Set Point:	-0.159	Pitch Set Point:	0.058	Yaw Set Point:	0.026	X_WP:	0.000	Y_WP:	0.000	Y_WP:	0.500	X:	0.079	Y:	-0.030	Z:	0.590	yaw:	-1.468	yaw rate:	-15.469	Roll:	3.188	Pitch:	-0.877	Yaw:	-3.341	Thrust:	83.918
Time:	5.175	Roll Set Point:	-0.159	Pitch Set Point:	0.059	Yaw Set Point:	0.016	X_WP:	0.000	Y_WP:	0.000	Y_WP:	0.500	X:	0.079	Y:	-0.030	Z:	0.588	yaw:	-0.919	yaw rate:	-33.959	Roll:	3.179	Pitch:	-1.704	Yaw:	9.294	Thrust:	76.689
Time:	5.192	Roll Set Point:	-0.160	Pitch Set Point:	0.059	Yaw Set Point:	0.017	X_WP:	0.000	Y_WP:	0.000	Y_WP:	0.500	X:	0.080	Y:	-0.030	Z:	0.587	yaw:	-0.960	yaw rate:	-4.116	Roll:	2.970	Pitch:	-0.730	Yaw:	-1.445	Thrust:	62.745
Time:	5.208	Roll Set Point:	-0.160	Pitch Set Point:	0.059	Yaw Set Point:	0.020	X_WP:	0.000	Y_WP:	0.000	Y_WP:	0.500	X:	0.080	Y:	-0.030	Z:	0.586	yaw:	-1.160	yaw rate:	18.839	Roll:	3.094	Pitch:	-0.916	Yaw:	-3.655	Thrust:	98.796
Time:	5.220	Roll Set Point:	-0.160	Pitch Set Point:	0.059	Yaw Set Point:	0.017	X_WP:	0.000	Y_WP:	0.000	Y_WP:	0.500	X:	0.080	Y:	-0.030	Z:	0.585	yaw:	-0.978	yaw rate:	18.153	Roll:	2.798	Pitch:	-1.221	Yaw:	3.144	Thrust:	56.826
Time:	5.233	Roll Set Point:	-0.160	Pitch Set Point:	0.059	Yaw Set Point:	0.013	X_WP:	0.000	Y_WP:	0.000	Y_WP:	0.500	X:	0.080	Y:	-0.030	Z:	0.586	yaw:	-0.765	yaw rate:	-4.348	Roll:	2.891	Pitch:	-1.309	Yaw:	3.805	Thrust:	59.616
Time:	5.246	Roll Set Point:	-0.160	Pitch Set Point:	0.060	Yaw Set Point:	0.010	X_WP:	0.000	Y_WP:	0.000	Y_WP:	0.500	X:	0.080	Y:	-0.030	Z:	0.586	yaw:	-0.585	yaw rate:	17.979	Roll:	2.892	Pitch:	-1.158	Yaw:	3.307	Thrust:	60.158
