Time:	2.468	Roll Set Point:	-0.015	Pitch Set Point:	0.029	Yaw Set Point:	-2.958	X_WP:	0.000	Y_WP:	0.000	Y_WP:	0.500	X:	0.163	Y:	0.069	Z:	0.401	yaw:	169.492	yaw rate:	1.772	Roll:	-4.280	Pitch:	-2.820	Yaw:	236.655	Thrust:	5.454
Time:	2.500	Roll Set Point:	-0.015	Pitch Set Point:	0.029	Yaw Set Point:	-2.958	X_WP:	0.000	Y_WP:	0.000	Y_WP:	0.500	X:	0.163	Y:	0.069	Z:	0.401	yaw:	169.470	yaw rate:	-3.040	Roll:	-4.275	Pitch:	-2.885	Yaw:	238.290	Thrust:	5.671
Time:	2.531	Roll Set Point:	-0.015	Pitch Set Point:	0.029	Yaw Set Point:	-2.958	X_WP:	0.000	Y_WP:	0.000	Y_WP:	0.500	X:	0.163	Y:	0.069	Z:	0.401	yaw:	169.475	yaw rate:	0.529	Roll:	-4.316	Pitch:	-2.788	Yaw:	239.835	Thrust:	6.321
Time:	2.566	Roll Set Point:	-0.015	Pitch Set Point:	0.029	Yaw Set Point:	-2.958	X_WP:	0.000	Y_WP:	0.000	Y_WP:	0.500	X:	0.163	Y:	0.069	Z:	0.401	yaw:	169.490	yaw rate:	1.542	Roll:	-4.326	Pitch:	-2.836	Yaw:	240.255	Thrust:	6.626
Time:	2.597	Roll Set Point:	-0.015	Pitch Set Point:	0.029	Yaw Set Point:	-2.958	X_WP:	0.000	Y_WP:	0.000	Y_WP:	0.500	X:	0.163	Y:	0.069	Z:	0.401	yaw:	169.491	yaw rate:	3.571	Roll:	-4.341	Pitch:	-2.834	Yaw:	239.788	Thrust:	6.990
Time:	2.629	Roll Set Point:	-0.015	Pitch Set Point:	0.029	Yaw Set Point:	-2.958	X_WP:	0.000	Y_WP:	0.000	Y_WP:	0.500	X:	0.163	Y:	0.069	Z:	0.401	yaw:	169.477	yaw rate:	-1.473	Roll:	-4.295	Pitch:	-2.922	Yaw:	239.636	Thrust:	7.250
Time:	2.660	Roll Set Point:	-0.015	Pitch Set Point:	0.029	Yaw Set Point:	-2.958	X_WP:	0.000	Y_WP:	0.000	Y_WP:	0.500	X:	0.163	Y:	0.069	Z:	0.401	yaw:	169.491	yaw rate:	1.430	Roll:	-4.372	Pitch:	-2.816	Yaw:	239.899	Thrust:	7.734
Time:	2.691	Roll Set Point:	-0.015	Pitch Set Point:	0.029	Yaw Set Point:	-2.958	X_WP:	0.000	Y_WP:	0.000	Y_WP:	0.500	X:	0.163	Y:	0.069	Z:	0.401	yaw:	169.473	yaw rate:	-1.831	Roll:	-4.334	Pitch:	-2.929	Yaw:	239.600	Thrust:	8.016
Time:	2.722	Roll Set Point:	-0.015	Pitch Set Point:	0.028	Yaw Set Point:	-2.959	X_WP:	0.000	Y_WP:	0.000	Y_WP:	0.500	X:	0.163	Y:	0.069	Z:	0.401	yaw:	169.513	yaw rate:	4.005	Roll:	-4.430	Pitch:	-2.796	Yaw:	240.145	Thrust:	8.500
Time:	2.754	Roll Set Point:	-0.015	Pitch Set Point:	0.029	Yaw Set Point:	-2.958	X_WP:	0.000	Y_WP:	0.000	Y_WP:	0.500	X:	0.163	Y:	0.069	Z:	0.401	yaw:	169.460	yaw rate:	-2.008	Roll:	-4.307	Pitch:	-3.008	Yaw:	239.295	Thrust:	8.673
Time:	2.785	Roll Set Point:	-0.015	Pitch Set Point:	0.029	Yaw Set Point:	-2.958	X_WP:	0.000	Y_WP:	0.000	Y_WP:	0.500	X:	0.163	Y:	0.069	Z:	0.401	yaw:	169.482	yaw rate:	2.213	Roll:	-4.438	Pitch:	-2.815	Yaw:	239.953	Thrust:	9.289
Time:	2.816	Roll Set Point:	-0.015	Pitch Set Point:	0.029	Yaw Set Point:	-2.958	X_WP:	0.000	Y_WP:	0.000	Y_WP:	0.500	X:	0.163	Y:	0.069	Z:	0.401	yaw:	169.468	yaw rate:	-1.419	Roll:	-4.371	Pitch:	-2.954	Yaw:	239.628	Thrust:	9.494
Time:	2.847	Roll Set Point:	-0.015	Pitch Set Point:	0.029	Yaw Set Point:	-2.958	X_WP:	0.000	Y_WP:	0.000	Y_WP:	0.500	X:	0.163	Y:	0.069	Z:	0.401	yaw:	169.481	yaw rate:	1.296	Roll:	-4.437	Pitch:	-2.888	Yaw:	239.874	Thrust:	9.948
Time:	2.879	Roll Set Point:	-0.015	Pitch Set Point:	0.029	Yaw Set Point:	-2.958	X_WP:	0.000	Y_WP:	0.000	Y_WP:	0.500	X:	0.163	Y:	0.069	Z:	0.401	yaw:	169.488	yaw rate:	0.672	Roll:	-4.441	Pitch:	-2.920	Yaw:	239.831	Thrust:	10.218
Time:	2.910	Roll Set Point:	-0.015	Pitch Set Point:	0.029	Yaw Set Point:	-2.958	X_WP:	0.000	Y_WP:	0.000	Y_WP:	0.500	X:	0.163	Y:	0.069	Z:	0.401	yaw:	169.479	yaw rate:	-0.836	Roll:	-4.440	Pitch:	-2.925	Yaw:	239.697	Thrust:	10.754
Time:	2.944	Roll Set Point:	-0.015	Pitch Set Point:	0.029	Yaw Set Point:	-2.958	X_WP:	0.000	Y_WP:	0.000	Y_WP:	0.500	X:	0.163	Y:	0.069	Z:	0.401	yaw:	169.472	yaw rate:	-0.889	Roll:	-4.454	Pitch:	-2.977	Yaw:	239.951	Thrust:	11.452
Time:	2.984	Roll Set Point:	-0.015	Pitch Set Point:	0.029	Yaw Set Point:	-2.958	X_WP:	0.000	Y_WP:	0.000	Y_WP:	0.500	X:	0.163	Y:	0.069	Z:	0.401	yaw:	169.506	yaw rate:	2.327	Roll:	-4.560	Pitch:	-2.907	Yaw:	240.928	Thrust:	13.155
Time:	3.015	Roll Set Point:	-0.015	Pitch Set Point:	0.029	Yaw Set Point:	-2.958	X_WP:	0.000	Y_WP:	0.000	Y_WP:	0.500	X:	0.163	Y:	0.069	Z:	0.401	yaw:	169.502	yaw rate:	-0.466	Roll:	-4.468	Pitch:	-2.962	Yaw:	239.768	Thrust:	11.694
Time:	3.048	Roll Set Point:	-0.015	Pitch Set Point:	0.029	Yaw Set Point:	-2.958	X_WP:	0.000	Y_WP:	0.000	Y_WP:	0.500	X:	0.163	Y:	0.069	Z:	0.401	yaw:	169.504	yaw rate:	1.419	Roll:	-4.501	Pitch:	-2.937	Yaw:	239.925	Thrust:	12.452
Time:	3.079	Roll Set Point:	-0.015	Pitch Set Point:	0.029	Yaw Set Point:	-2.958	X_WP:	0.000	Y_WP:	0.000	Y_WP:	0.500	X:	0.163	Y:	0.069	Z:	0.401	yaw:	169.458	yaw rate:	-4.672	Roll:	-4.428	Pitch:	-3.089	Yaw:	239.342	Thrust:	12.421
Time:	3.110	Roll Set Point:	-0.015	Pitch Set Point:	0.029	Yaw Set Point:	-2.959	X_WP:	0.000	Y_WP:	0.000	Y_WP:	0.500	X:	0.163	Y:	0.069	Z:	0.401	yaw:	169.511	yaw rate:	5.356	Roll:	-4.585	Pitch:	-2.850	Yaw:	240.257	Thrust:	12.950
Time:	3.141	Roll Set Point:	-0.015	Pitch Set Point:	0.029	Yaw Set Point:	-2.958	X_WP:	0.000	Y_WP:	0.000	Y_WP:	0.500	X:	0.163	Y:	0.069	Z:	0.401	yaw:	169.468	yaw rate:	-4.343	Roll:	-4.451	Pitch:	-3.090	Yaw:	239.383	Thrust:	13.154
Time:	3.173	Roll Set Point:	-0.015	Pitch Set Point:	0.029	Yaw Set Point:	-2.958	X_WP:	0.000	Y_WP:	0.000	Y_WP:	0.500	X:	0.163	Y:	0.069	Z:	0.401	yaw:	169.485	yaw rate:	1.938	Roll:	-4.591	Pitch:	-2.926	Yaw:	239.910	Thrust:	13.716
Time:	3.204	Roll Set Point:	-0.015	Pitch Set Point:	0.029	Yaw Set Point:	-2.958	X_WP:	0.000	Y_WP:	0.000	Y_WP:	0.500	X:	0.163	Y:	0.069	Z:	0.401	yaw:	169.480	yaw rate:	-0.421	Roll:	-4.536	Pitch:	-3.010	Yaw:	239.729	Thrust:	13.966
Time:	3.235	Roll Set Point:	-0.015	Pitch Set Point:	0.029	Yaw Set Point:	-2.958	X_WP:	0.000	Y_WP:	0.000	Y_WP:	0.500	X:	0.163	Y:	0.069	Z:	0.401	yaw:	169.479	yaw rate:	-0.100	Roll:	-4.524	Pitch:	-3.019	Yaw:	239.755	Thrust:	14.382
Time:	3.267	Roll Set Point:	-0.015	Pitch Set Point:	0.029	Yaw Set Point:	-2.958	X_WP:	0.000	Y_WP:	0.000	Y_WP:	0.500	X:	0.163	Y:	0.069	Z:	0.401	yaw:	169.475	yaw rate:	-1.178	Roll:	-4.578	Pitch:	-3.009	Yaw:	239.719	Thrust:	14.727
Time:	3.298	Roll Set Point:	-0.015	Pitch Set Point:	0.029	Yaw Set Point:	-2.958	X_WP:	0.000	Y_WP:	0.000	Y_WP:	0.500	X:	0.163	Y:	0.069	Z:	0.401	yaw:	169.461	yaw rate:	-1.368	Roll:	-4.552	Pitch:	-3.076	Yaw:	239.626	Thrust:	15.111
Time:	3.329	Roll Set Point:	-0.015	Pitch Set Point:	0.028	Yaw Set Point:	-2.959	X_WP:	0.000	Y_WP:	0.000	Y_WP:	0.500	X:	0.163	Y:	0.069	Z:	0.401	yaw:	169.519	yaw rate:	5.819	Roll:	-4.673	Pitch:	-2.885	Yaw:	240.304	Thrust:	15.559
Time:	3.360	Roll Set Point:	-0.015	Pitch Set Point:	0.029	Yaw Set Point:	-2.958	X_WP:	0.000	Y_WP:	0.000	Y_WP:	0.500	X:	0.163	Y:	0.069	Z:	0.401	yaw:	169.470	yaw rate:	0.070	Roll:	-4.530	Pitch:	-3.149	Yaw:	239.337	Thrust:	15.758
Time:	3.392	Roll Set Point:	-0.015	Pitch Set Point:	0.029	Yaw Set Point:	-2.958	X_WP:	0.000	Y_WP:	0.000	Y_WP:	0.500	X:	0.163	Y:	0.069	Z:	0.401	yaw:	169.502	yaw rate:	3.194	Roll:	-4.702	Pitch:	-2.943	Yaw:	240.062	Thrust:	16.336
Time:	3.423	Roll Set Point:	-0.015	Pitch Set Point:	0.029	Yaw Set Point:	-2.958	X_WP:	0.000	Y_WP:	0.000	Y_WP:	0.500	X:	0.163	Y:	0.069	Z:	0.401	yaw:	169.471	yaw rate:	-3.123	Roll:	-4.535	Pitch:	-3.154	Yaw:	239.493	Thrust:	16.500
Time:	3.454	Roll Set Point:	-0.015	Pitch Set Point:	0.028	Yaw Set Point:	-2.959	X_WP:	0.000	Y_WP:	0.000	Y_WP:	0.500	X:	0.163	Y:	0.069	Z:	0.401	yaw:	169.515	yaw rate:	4.467	Roll:	-4.719	Pitch:	-2.939	Yaw:	240.185	Thrust:	17.083
Time:	3.485	Roll Set Point:	-0.015	Pitch Set Point:	0.029	Yaw Set Point:	-2.957	X_WP:	0.000	Y_WP:	0.000	Y_WP:	0.500	X:	0.163	Y:	0.069	Z:	0.401	yaw:	169.450	yaw rate:	-3.722	Roll:	-4.567	Pitch:	-3.222	Yaw:	239.179	Thrust:	17.239
Time:	3.517	Roll Set Point:	-0.015	Pitch Set Point:	0.029	Yaw Set Point:	-2.958	X_WP:	0.000	Y_WP:	0.000	Y_WP:	0.500	X:	0.163	Y:	0.069	Z:	0.401	yaw:	169.497	yaw rate:	-0.851	Roll:	-4.730	Pitch:	-2.940	Yaw:	240.177	Thrust:	17.815
Time:	3.548	Roll Set Point:	-0.015	Pitch Set Point:	0.029	Yaw Set Point:	-2.958	X_WP:	0.000	Y_WP:	0.000	Y_WP:	0.500	X:	0.163	Y:	0.069	Z:	0.401	yaw:	169.464	yaw rate:	-3.280	Roll:	-4.595	Pitch:	-3.187	Yaw:	239.469	Thrust:	17.983
Time:	3.579	Roll Set Point:	-0.015	Pitch Set Point:	0.029	Yaw Set Point:	-2.958	X_WP:	0.000	Y_WP:	0.000	Y_WP:	0.500	X:	0.163	Y:	0.069	Z:	0.401	yaw:	169.506	yaw rate:	4.185	Roll:	-4.771	Pitch:	-2.968	Yaw:	240.147	Thrust:	18.567
Time:	3.610	Roll Set Point:	-0.015	Pitch Set Point:	0.029	Yaw Set Point:	-2.958	X_WP:	0.000	Y_WP:	0.000	Y_WP:	0.500	X:	0.163	Y:	0.069	Z:	0.401	yaw:	169.457	yaw rate:	-4.840	Roll:	-4.601	Pitch:	-3.217	Yaw:	239.327	Thrust:	18.757
Time:	3.642	Roll Set Point:	-0.015	Pitch Set Point:	0.029	Yaw Set Point:	-2.958	X_WP:	0.000	Y_WP:	0.000	Y_WP:	0.500	X:	0.163	Y:	0.069	Z:	0.401	yaw:	169.494	yaw rate:	0.334	Roll:	-4.772	Pitch:	-3.006	Yaw:	240.097	Thrust:	19.292
Time:	3.673	Roll Set Point:	-0.015	Pitch Set Point:	0.029	Yaw Set Point:	-2.958	X_WP:	0.000	Y_WP:	0.000	Y_WP:	0.500	X:	0.163	Y:	0.069	Z:	0.401	yaw:	169.468	yaw rate:	-3.131	Roll:	-4.648	Pitch:	-3.180	Yaw:	239.520	Thrust:	19.460
Time:	3.704	Roll Set Point:	-0.015	Pitch Set Point:	0.029	Yaw Set Point:	-2.958	X_WP:	0.000	Y_WP:	0.000	Y_WP:	0.500	X:	0.163	Y:	0.069	Z:	0.401	yaw:	169.507	yaw rate:	3.975	Roll:	-4.805	Pitch:	-3.026	Yaw:	240.135	Thrust:	20.049
Time:	3.735	Roll Set Point:	-0.015	Pitch Set Point:	0.029	Yaw Set Point:	-2.958	X_WP:	0.000	Y_WP:	0.000	Y_WP:	0.500	X:	0.163	Y:	0.069	Z:	0.401	yaw:	169.464	yaw rate:	-0.192	Roll:	-4.681	Pitch:	-3.231	Yaw:	239.379	Thrust:	20.237
Time:	3.767	Roll Set Point:	-0.015	Pitch Set Point:	0.029	Yaw Set Point:	-2.958	X_WP:	0.000	Y_WP:	0.000	Y_WP:	0.500	X:	0.163	Y:	0.069	Z:	0.401	yaw:	169.486	yaw rate:	2.158	Roll:	-4.785	Pitch:	-3.065	Yaw:	239.956	Thrust:	20.725
Time:	3.798	Roll Set Point:	-0.015	Pitch Set Point:	0.029	Yaw Set Point:	-2.957	X_WP:	0.000	Y_WP:	0.000	Y_WP:	0.500	X:	0.163	Y:	0.069	Z:	0.401	yaw:	169.452	yaw rate:	-1.398	Roll:	-4.720	Pitch:	-3.228	Yaw:	239.444	Thrust:	21.029
Time:	3.829	Roll Set Point:	-0.015	Pitch Set Point:	0.029	Yaw Set Point:	-2.958	X_WP:	0.000	Y_WP:	0.000	Y_WP:	0.500	X:	0.163	Y:	0.069	Z:	0.401	yaw:	169.497	yaw rate:	4.490	Roll:	-4.845	Pitch:	-3.051	Yaw:	240.161	Thrust:	21.459
Time:	3.860	Roll Set Point:	-0.015	Pitch Set Point:	0.029	Yaw Set Point:	-2.958	X_WP:	0.000	Y_WP:	0.000	Y_WP:	0.500	X:	0.163	Y:	0.069	Z:	0.401	yaw:	169.476	yaw rate:	-2.145	Roll:	-4.751	Pitch:	-3.213	Yaw:	239.581	Thrust:	21.825
Time:	3.892	Roll Set Point:	-0.015	Pitch Set Point:	0.029	Yaw Set Point:	-2.958	X_WP:	0.000	Y_WP:	0.000	Y_WP:	0.500	X:	0.163	Y:	0.069	Z:	0.401	yaw:	169.487	yaw rate:	1.146	Roll:	-4.804	Pitch:	-3.124	Yaw:	239.870	Thrust:	22.170
Time:	3.923	Roll Set Point:	-0.015	Pitch Set Point:	0.029	Yaw Set Point:	-2.958	X_WP:	0.000	Y_WP:	0.000	Y_WP:	0.500	X:	0.163	Y:	0.069	Z:	0.401	yaw:	169.488	yaw rate:	0.131	Roll:	-4.820	Pitch:	-3.193	Yaw:	239.784	Thrust:	22.616
Time:	3.968	Roll Set Point:	-0.015	Pitch Set Point:	0.029	Yaw Set Point:	-2.958	X_WP:	0.000	Y_WP:	0.000	Y_WP:	0.500	X:	0.163	Y:	0.069	Z:	0.401	yaw:	169.475	yaw rate:	0.991	Roll:	-5.067	Pitch:	-3.348	Yaw:	241.112	Thrust:	30.884
Time:	4.000	Roll Set Point:	-0.015	Pitch Set Point:	0.029	Yaw Set Point:	-2.958	X_WP:	0.000	Y_WP:	0.000	Y_WP:	0.500	X:	0.163	Y:	0.069	Z:	0.401	yaw:	169.479	yaw rate:	0.425	Roll:	-4.833	Pitch:	-3.181	Yaw:	239.799	Thrust:	23.270
Time:	4.031	Roll Set Point:	-0.015	Pitch Set Point:	0.029	Yaw Set Point:	-2.958	X_WP:	0.000	Y_WP:	0.000	Y_WP:	0.500	X:	0.163	Y:	0.069	Z:	0.401	yaw:	169.484	yaw rate:	1.545	Roll:	-4.846	Pitch:	-3.184	Yaw:	239.801	Thrust:	23.608
Time:	4.062	Roll Set Point:	-0.015	Pitch Set Point:	0.029	Yaw Set Point:	-2.958	X_WP:	0.000	Y_WP:	0.000	Y_WP:	0.500	X:	0.163	Y:	0.069	Z:	0.401	yaw:	169.469	yaw rate:	-0.623	Roll:	-4.826	Pitch:	-3.214	Yaw:	239.623	Thrust:	24.068
Time:	4.093	Roll Set Point:	-0.015	Pitch Set Point:	0.029	Yaw Set Point:	-2.958	X_WP:	0.000	Y_WP:	0.000	Y_WP:	0.500	X:	0.163	Y:	0.069	Z:	0.401	yaw:	169.491	yaw rate:	0.429	Roll:	-4.925	Pitch:	-3.187	Yaw:	239.965	Thrust:	24.425
Time:	4.125	Roll Set Point:	-0.015	Pitch Set Point:	0.029	Yaw Set Point:	-2.958	X_WP:	0.000	Y_WP:	0.000	Y_WP:	0.500	X:	0.163	Y:	0.069	Z:	0.401	yaw:	169.461	yaw rate:	-3.008	Roll:	-4.825	Pitch:	-3.266	Yaw:	239.485	Thrust:	24.775
Time:	4.156	Roll Set Point:	-0.015	Pitch Set Point:	0.029	Yaw Set Point:	-2.958	X_WP:	0.000	Y_WP:	0.000	Y_WP:	0.500	X:	0.163	Y:	0.069	Z:	0.401	yaw:	169.483	yaw rate:	2.258	Roll:	-4.907	Pitch:	-3.188	Yaw:	239.958	Thrust:	25.139
Time:	4.187	Roll Set Point:	-0.015	Pitch Set Point:	0.029	Yaw Set Point:	-2.958	X_WP:	0.000	Y_WP:	0.000	Y_WP:	0.500	X:	0.163	Y:	0.069	Z:	0.401	yaw:	169.490	yaw rate:	0.695	Roll:	-4.934	Pitch:	-3.217	Yaw:	239.836	Thrust:	25.612
Time:	4.218	Roll Set Point:	-0.015	Pitch Set Point:	0.029	Yaw Set Point:	-2.958	X_WP:	0.000	Y_WP:	0.000	Y_WP:	0.500	X:	0.163	Y:	0.069	Z:	0.401	yaw:	169.494	yaw rate:	0.774	Roll:	-4.897	Pitch:	-3.232	Yaw:	239.811	Thrust:	25.743
Time:	4.250	Roll Set Point:	-0.015	Pitch Set Point:	0.029	Yaw Set Point:	-2.958	X_WP:	0.000	Y_WP:	0.000	Y_WP:	0.500	X:	0.163	Y:	0.069	Z:	0.401	yaw:	169.485	yaw rate:	-0.807	Roll:	-4.929	Pitch:	-3.268	Yaw:	239.704	Thrust:	26.412
Time:	4.281	Roll Set Point:	-0.015	Pitch Set Point:	0.029	Yaw Set Point:	-2.958	X_WP:	0.000	Y_WP:	0.000	Y_WP:	0.500	X:	0.163	Y:	0.069	Z:	0.401	yaw:	169.480	yaw rate:	-0.556	Roll:	-4.923	Pitch:	-3.265	Yaw:	239.720	Thrust:	26.568
Time:	4.312	Roll Set Point:	-0.015	Pitch Set Point:	0.029	Yaw Set Point:	-2.958	X_WP:	0.000	Y_WP:	0.000	Y_WP:	0.500	X:	0.163	Y:	0.069	Z:	0.401	yaw:	169.504	yaw rate:	2.414	Roll:	-4.977	Pitch:	-3.212	Yaw:	240.000	Thrust:	27.062
Time:	4.343	Roll Set Point:	-0.015	Pitch Set Point:	0.029	Yaw Set Point:	-2.958	X_WP:	0.000	Y_WP:	0.000	Y_WP:	0.500	X:	0.163	Y:	0.069	Z:	0.401	yaw:	169.485	yaw rate:	-1.883	Roll:	-4.931	Pitch:	-3.299	Yaw:	239.614	Thrust:	27.326
Time:	4.375	Roll Set Point:	-0.015	Pitch Set Point:	0.029	Yaw Set Point:	-2.958	X_WP:	0.000	Y_WP:	0.000	Y_WP:	0.500	X:	0.163	Y:	0.069	Z:	0.401	yaw:	169.483	yaw rate:	-0.182	Roll:	-4.983	Pitch:	-3.295	Yaw:	239.750	Thrust:	27.786
Time:	4.406	Roll Set Point:	-0.015	Pitch Set Point:	0.029	Yaw Set Point:	-2.958	X_WP:	0.000	Y_WP:	0.000	Y_WP:	0.500	X:	0.163	Y:	0.069	Z:	0.401	yaw:	169.501	yaw rate:	-0.685	Roll:	-4.993	Pitch:	-3.237	Yaw:	239.938	Thrust:	28.069
Time:	4.437	Roll Set Point:	-0.015	Pitch Set Point:	0.029	Yaw Set Point:	-2.958	X_WP:	0.000	Y_WP:	0.000	Y_WP:	0.500	X:	0.163	Y:	0.069	Z:	0.401	yaw:	169.474	yaw rate:	-2.626	Roll:	-4.970	Pitch:	-3.339	Yaw:	239.540	Thrust:	28.514
Time:	4.468	Roll Set Point:	-0.015	Pitch Set Point:	0.029	Yaw Set Point:	-2.958	X_WP:	0.000	Y_WP:	0.000	Y_WP:	0.500	X:	0.163	Y:	0.069	Z:	0.401	yaw:	169.478	yaw rate:	-0.272	Roll:	-4.987	Pitch:	-3.304	Yaw:	239.787	Thrust:	28.814
Time:	4.500	Roll Set Point:	-0.015	Pitch Set Point:	0.029	Yaw Set Point:	-2.958	X_WP:	0.000	Y_WP:	0.000	Y_WP:	0.500	X:	0.163	Y:	0.069	Z:	0.401	yaw:	169.483	yaw rate:	-0.512	Roll:	-5.055	Pitch:	-3.281	Yaw:	239.812	Thrust:	29.352
Time:	4.531	Roll Set Point:	-0.015	Pitch Set Point:	0.029	Yaw Set Point:	-2.958	X_WP:	0.000	Y_WP:	0.000	Y_WP:	0.500	X:	0.163	Y:	0.069	Z:	0.401	yaw:	169.472	yaw rate:	-1.102	Roll:	-5.011	Pitch:	-3.364	Yaw:	239.661	Thrust:	29.537
Time:	4.562	Roll Set Point:	-0.015	Pitch Set Point:	0.029	Yaw Set Point:	-2.958	X_WP:	0.000	Y_WP:	0.000	Y_WP:	0.500	X:	0.163	Y:	0.069	Z:	0.401	yaw:	169.483	yaw rate:	0.536	Roll:	-5.046	Pitch:	-3.275	Yaw:	239.860	Thrust:	30.060
Time:	4.593	Roll Set Point:	-0.015	Pitch Set Point:	0.029	Yaw Set Point:	-2.958	X_WP:	0.000	Y_WP:	0.000	Y_WP:	0.500	X:	0.163	Y:	0.069	Z:	0.401	yaw:	169.491	yaw rate:	2.007	Roll:	-5.069	Pitch:	-3.353	Yaw:	239.852	Thrust:	30.335
Time:	4.625	Roll Set Point:	-0.015	Pitch Set Point:	0.029	Yaw Set Point:	-2.958	X_WP:	0.000	Y_WP:	0.000	Y_WP:	0.500	X:	0.163	Y:	0.069	Z:	0.401	yaw:	169.485	yaw rate:	-0.631	Roll:	-5.052	Pitch:	-3.326	Yaw:	239.715	Thrust:	30.659
Time:	4.656	Roll Set Point:	-0.015	Pitch Set Point:	0.029	Yaw Set Point:	-2.958	X_WP:	0.000	Y_WP:	0.000	Y_WP:	0.500	X:	0.163	Y:	0.069	Z:	0.401	yaw:	169.489	yaw rate:	0.423	Roll:	-5.082	Pitch:	-3.336	Yaw:	239.812	Thrust:	31.113
Time:	4.687	Roll Set Point:	-0.015	Pitch Set Point:	0.029	Yaw Set Point:	-2.958	X_WP:	0.000	Y_WP:	0.000	Y_WP:	0.500	X:	0.163	Y:	0.069	Z:	0.401	yaw:	169.495	yaw rate:	0.985	Roll:	-5.091	Pitch:	-3.328	Yaw:	239.830	Thrust:	31.482
Time:	4.718	Roll Set Point:	-0.015	Pitch Set Point:	0.029	Yaw Set Point:	-2.958	X_WP:	0.000	Y_WP:	0.000	Y_WP:	0.500	X:	0.163	Y:	0.069	Z:	0.401	yaw:	169.463	yaw rate:	-3.142	Roll:	-5.078	Pitch:	-3.441	Yaw:	239.477	Thrust:	31.848
Time:	4.750	Roll Set Point:	-0.015	Pitch Set Point:	0.027	Yaw Set Point:	-2.965	X_WP:	0.000	Y_WP:	0.000	Y_WP:	0.500	X:	0.163	Y:	0.069	Z:	0.401	yaw:	169.895	yaw rate:	43.230	Roll:	-5.504	Pitch:	-2.591	Yaw:	243.965	Thrust:	32.006
Time:	4.781	Roll Set Point:	-0.015	Pitch Set Point:	0.029	Yaw Set Point:	-2.958	X_WP:	0.000	Y_WP:	0.000	Y_WP:	0.500	X:	0.163	Y:	0.069	Z:	0.401	yaw:	169.481	yaw rate:	-41.463	Roll:	-4.771	Pitch:	-4.069	Yaw:	236.298	Thrust:	32.817
Time:	4.812	Roll Set Point:	-0.015	Pitch Set Point:	0.029	Yaw Set Point:	-2.959	X_WP:	0.000	Y_WP:	0.000	Y_WP:	0.500	X:	0.163	Y:	0.069	Z:	0.401	yaw:	169.510	yaw rate:	2.616	Roll:	-5.144	Pitch:	-3.337	Yaw:	240.047	Thrust:	32.922
Time:	4.843	Roll Set Point:	-0.015	Pitch Set Point:	0.029	Yaw Set Point:	-2.958	X_WP:	0.000	Y_WP:	0.000	Y_WP:	0.500	X:	0.163	Y:	0.069	Z:	0.401	yaw:	169.502	yaw rate:	1.100	Roll:	-5.147	Pitch:	-3.412	Yaw:	239.731	Thrust:	33.434
Time:	4.875	Roll Set Point:	-0.015	Pitch Set Point:	0.029	Yaw Set Point:	-2.957	X_WP:	0.000	Y_WP:	0.000	Y_WP:	0.500	X:	0.163	Y:	0.069	Z:	0.401	yaw:	169.443	yaw rate:	-5.915	Roll:	-5.081	Pitch:	-3.497	Yaw:	239.213	Thrust:	33.581
Time:	4.906	Roll Set Point:	-0.015	Pitch Set Point:	0.029	Yaw Set Point:	-2.958	X_WP:	0.000	Y_WP:	0.000	Y_WP:	0.500	X:	0.163	Y:	0.069	Z:	0.401	yaw:	169.500	yaw rate:	0.091	Roll:	-5.234	Pitch:	-3.320	Yaw:	240.272	Thrust:	34.157
Time:	4.937	Roll Set Point:	-0.015	Pitch Set Point:	0.029	Yaw Set Point:	-2.958	X_WP:	0.000	Y_WP:	0.000	Y_WP:	0.500	X:	0.163	Y:	0.069	Z:	0.401	yaw:	169.480	yaw rate:	-1.932	Roll:	-5.139	Pitch:	-3.447	Yaw:	239.599	Thrust:	34.373
Time:	4.968	Roll Set Point:	-0.015	Pitch Set Point:	0.029	Yaw Set Point:	-2.958	X_WP:	0.000	Y_WP:	0.000	Y_WP:	0.500	X:	0.163	Y:	0.069	Z:	0.401	yaw:	169.487	yaw rate:	0.688	Roll:	-5.214	Pitch:	-3.383	Yaw:	239.816	Thrust:	34.639
Time:	5.000	Roll Set Point:	-0.015	Pitch Set Point:	0.029	Yaw Set Point:	-2.958	X_WP:	0.000	Y_WP:	0.000	Y_WP:	0.500	X:	0.163	Y:	0.069	Z:	0.401	yaw:	169.481	yaw rate:	-0.400	Roll:	-5.178	Pitch:	-3.454	Yaw:	239.712	Thrust:	35.173
Time:	5.031	Roll Set Point:	-0.015	Pitch Set Point:	0.029	Yaw Set Point:	-2.958	X_WP:	0.000	Y_WP:	0.000	Y_WP:	0.500	X:	0.163	Y:	0.069	Z:	0.401	yaw:	169.489	yaw rate:	0.782	Roll:	-5.245	Pitch:	-3.413	Yaw:	239.842	Thrust:	35.607
Time:	5.062	Roll Set Point:	-0.015	Pitch Set Point:	0.029	Yaw Set Point:	-2.958	X_WP:	0.000	Y_WP:	0.000	Y_WP:	0.500	X:	0.163	Y:	0.069	Z:	0.401	yaw:	169.459	yaw rate:	-2.451	Roll:	-5.168	Pitch:	-3.506	Yaw:	239.486	Thrust:	35.888
Time:	5.093	Roll Set Point:	-0.015	Pitch Set Point:	0.029	Yaw Set Point:	-2.958	X_WP:	0.000	Y_WP:	0.000	Y_WP:	0.500	X:	0.163	Y:	0.069	Z:	0.401	yaw:	169.489	yaw rate:	3.013	Roll:	-5.293	Pitch:	-3.394	Yaw:	240.030	Thrust:	36.305
Time:	5.125	Roll Set Point:	-0.015	Pitch Set Point:	0.028	Yaw Set Point:	-2.959	X_WP:	0.000	Y_WP:	0.000	Y_WP:	0.500	X:	0.163	Y:	0.069	Z:	0.401	yaw:	169.515	yaw rate:	1.367	Roll:	-5.260	Pitch:	-3.429	Yaw:	240.022	Thrust:	36.682
Time:	5.156	Roll Set Point:	-0.015	Pitch Set Point:	0.029	Yaw Set Point:	-2.958	X_WP:	0.000	Y_WP:	0.000	Y_WP:	0.500	X:	0.163	Y:	0.069	Z:	0.401	yaw:	169.489	yaw rate:	1.561	Roll:	-5.245	Pitch:	-3.508	Yaw:	239.559	Thrust:	37.073
Time:	5.187	Roll Set Point:	-0.015	Pitch Set Point:	0.029	Yaw Set Point:	-2.958	X_WP:	0.000	Y_WP:	0.000	Y_WP:	0.500	X:	0.163	Y:	0.069	Z:	0.401	yaw:	169.475	yaw rate:	-1.351	Roll:	-5.272	Pitch:	-3.482	Yaw:	239.647	Thrust:	37.400
Time:	5.218	Roll Set Point:	-0.015	Pitch Set Point:	0.029	Yaw Set Point:	-2.958	X_WP:	0.000	Y_WP:	0.000	Y_WP:	0.500	X:	0.163	Y:	0.069	Z:	0.401	yaw:	169.490	yaw rate:	1.502	Roll:	-5.269	Pitch:	-3.472	Yaw:	239.901	Thrust:	37.738
Time:	5.250	Roll Set Point:	-0.015	Pitch Set Point:	0.029	Yaw Set Point:	-2.958	X_WP:	0.000	Y_WP:	0.000	Y_WP:	0.500	X:	0.163	Y:	0.069	Z:	0.401	yaw:	169.502	yaw rate:	2.639	Roll:	-5.332	Pitch:	-3.469	Yaw:	239.893	Thrust:	38.209
Time:	5.281	Roll Set Point:	-0.015	Pitch Set Point:	0.029	Yaw Set Point:	-2.958	X_WP:	0.000	Y_WP:	0.000	Y_WP:	0.500	X:	0.163	Y:	0.069	Z:	0.401	yaw:	169.476	yaw rate:	-0.928	Roll:	-5.273	Pitch:	-3.539	Yaw:	239.547	Thrust:	38.496
Time:	5.312	Roll Set Point:	-0.015	Pitch Set Point:	0.029	Yaw Set Point:	-2.958	X_WP:	0.000	Y_WP:	0.000	Y_WP:	0.500	X:	0.163	Y:	0.069	Z:	0.401	yaw:	169.487	yaw rate:	0.110	Roll:	-5.321	Pitch:	-3.487	Yaw:	239.867	Thrust:	38.972
Time:	5.343	Roll Set Point:	-0.015	Pitch Set Point:	0.029	Yaw Set Point:	-2.958	X_WP:	0.000	Y_WP:	0.000	Y_WP:	0.500	X:	0.163	Y:	0.069	Z:	0.401	yaw:	169.488	yaw rate:	0.041	Roll:	-5.331	Pitch:	-3.504	Yaw:	239.777	Thrust:	39.227
Time:	5.375	Roll Set Point:	-0.015	Pitch Set Point:	0.029	Yaw Set Point:	-2.958	X_WP:	0.000	Y_WP:	0.000	Y_WP:	0.500	X:	0.163	Y:	0.069	Z:	0.401	yaw:	169.483	yaw rate:	0.990	Roll:	-5.335	Pitch:	-3.539	Yaw:	239.730	Thrust:	39.681
Time:	5.406	Roll Set Point:	-0.015	Pitch Set Point:	0.029	Yaw Set Point:	-2.958	X_WP:	0.000	Y_WP:	0.000	Y_WP:	0.500	X:	0.163	Y:	0.069	Z:	0.401	yaw:	169.489	yaw rate:	0.612	Roll:	-5.371	Pitch:	-3.498	Yaw:	239.828	Thrust:	39.991
Time:	5.437	Roll Set Point:	-0.015	Pitch Set Point:	0.029	Yaw Set Point:	-2.958	X_WP:	0.000	Y_WP:	0.000	Y_WP:	0.500	X:	0.163	Y:	0.069	Z:	0.401	yaw:	169.481	yaw rate:	-1.568	Roll:	-5.354	Pitch:	-3.554	Yaw:	239.698	Thrust:	40.413
Time:	5.468	Roll Set Point:	-0.015	Pitch Set Point:	0.029	Yaw Set Point:	-2.958	X_WP:	0.000	Y_WP:	0.000	Y_WP:	0.500	X:	0.163	Y:	0.069	Z:	0.401	yaw:	169.486	yaw rate:	0.514	Roll:	-5.360	Pitch:	-3.533	Yaw:	239.816	Thrust:	40.741
Time:	5.500	Roll Set Point:	-0.015	Pitch Set Point:	0.029	Yaw Set Point:	-2.958	X_WP:	0.000	Y_WP:	0.000	Y_WP:	0.500	X:	0.163	Y:	0.069	Z:	0.401	yaw:	169.474	yaw rate:	-1.259	Roll:	-5.388	Pitch:	-3.578	Yaw:	239.650	Thrust:	41.090
Time:	5.531	Roll Set Point:	-0.015	Pitch Set Point:	0.029	Yaw Set Point:	-2.958	X_WP:	0.000	Y_WP:	0.000	Y_WP:	0.500	X:	0.163	Y:	0.069	Z:	0.401	yaw:	169.488	yaw rate:	-0.534	Roll:	-5.400	Pitch:	-3.537	Yaw:	239.893	Thrust:	41.503
Time:	5.562	Roll Set Point:	-0.015	Pitch Set Point:	0.029	Yaw Set Point:	-2.958	X_WP:	0.000	Y_WP:	0.000	Y_WP:	0.500	X:	0.163	Y:	0.069	Z:	0.401	yaw:	169.489	yaw rate:	2.384	Roll:	-5.434	Pitch:	-3.570	Yaw:	239.786	Thrust:	41.931
Time:	5.593	Roll Set Point:	-0.015	Pitch Set Point:	0.029	Yaw Set Point:	-2.958	X_WP:	0.000	Y_WP:	0.000	Y_WP:	0.500	X:	0.163	Y:	0.069	Z:	0.401	yaw:	169.477	yaw rate:	-1.921	Roll:	-5.394	Pitch:	-3.582	Yaw:	239.657	Thrust:	42.217
Time:	5.625	Roll Set Point:	-0.015	Pitch Set Point:	0.029	Yaw Set Point:	-2.958	X_WP:	0.000	Y_WP:	0.000	Y_WP:	0.500	X:	0.163	Y:	0.069	Z:	0.401	yaw:	169.483	yaw rate:	1.176	Roll:	-5.439	Pitch:	-3.591	Yaw:	239.817	Thrust:	42.630
Time:	5.656	Roll Set Point:	-0.015	Pitch Set Point:	0.029	Yaw Set Point:	-2.958	X_WP:	0.000	Y_WP:	0.000	Y_WP:	0.500	X:	0.163	Y:	0.069	Z:	0.401	yaw:	169.483	yaw rate:	-0.872	Roll:	-5.444	Pitch:	-3.569	Yaw:	239.767	Thrust:	43.031
Time:	5.685	Roll Set Point:	-0.015	Pitch Set Point:	0.029	Yaw Set Point:	-2.958	X_WP:	0.000	Y_WP:	0.000	Y_WP:	0.500	X:	0.163	Y:	0.069	Z:	0.401	yaw:	169.485	yaw rate:	0.290	Roll:	-5.349	Pitch:	-3.541	Yaw:	239.553	Thrust:	40.298
Time:	5.707	Roll Set Point:	-0.015	Pitch Set Point:	0.029	Yaw Set Point:	-2.958	X_WP:	0.000	Y_WP:	0.000	Y_WP:	0.500	X:	0.163	Y:	0.069	Z:	0.401	yaw:	169.489	yaw rate:	1.570	Roll:	-5.154	Pitch:	-3.385	Yaw:	238.974	Thrust:	33.501
Time:	5.739	Roll Set Point:	-0.015	Pitch Set Point:	0.029	Yaw Set Point:	-2.958	X_WP:	0.000	Y_WP:	0.000	Y_WP:	0.500	X:	0.163	Y:	0.069	Z:	0.401	yaw:	169.467	yaw rate:	-2.223	Roll:	-5.424	Pitch:	-3.647	Yaw:	239.559	Thrust:	44.046
Time:	5.770	Roll Set Point:	-0.015	Pitch Set Point:	0.029	Yaw Set Point:	-2.958	X_WP:	0.000	Y_WP:	0.000	Y_WP:	0.500	X:	0.163	Y:	0.069	Z:	0.401	yaw:	169.497	yaw rate:	2.982	Roll:	-5.488	Pitch:	-3.564	Yaw:	240.038	Thrust:	44.473
Time:	5.801	Roll Set Point:	-0.015	Pitch Set Point:	0.029	Yaw Set Point:	-2.958	X_WP:	0.000	Y_WP:	0.000	Y_WP:	0.500	X:	0.163	Y:	0.069	Z:	0.401	yaw:	169.476	yaw rate:	-2.133	Roll:	-5.434	Pitch:	-3.674	Yaw:	239.579	Thrust:	44.852
Time:	5.832	Roll Set Point:	-0.015	Pitch Set Point:	0.029	Yaw Set Point:	-2.958	X_WP:	0.000	Y_WP:	0.000	Y_WP:	0.500	X:	0.163	Y:	0.069	Z:	0.401	yaw:	169.491	yaw rate:	1.912	Roll:	-5.469	Pitch:	-3.603	Yaw:	239.909	Thrust:	45.270
Time:	5.864	Roll Set Point:	-0.015	Pitch Set Point:	0.029	Yaw Set Point:	-2.958	X_WP:	0.000	Y_WP:	0.000	Y_WP:	0.500	X:	0.163	Y:	0.069	Z:	0.401	yaw:	169.485	yaw rate:	-0.592	Roll:	-5.427	Pitch:	-3.663	Yaw:	239.721	Thrust:	45.546
Time:	5.895	Roll Set Point:	-0.015	Pitch Set Point:	0.029	Yaw Set Point:	-2.958	X_WP:	0.000	Y_WP:	0.000	Y_WP:	0.500	X:	0.163	Y:	0.069	Z:	0.401	yaw:	169.508	yaw rate:	0.302	Roll:	-5.489	Pitch:	-3.595	Yaw:	239.994	Thrust:	45.982
Time:	5.926	Roll Set Point:	-0.015	Pitch Set Point:	0.029	Yaw Set Point:	-2.958	X_WP:	0.000	Y_WP:	0.000	Y_WP:	0.500	X:	0.163	Y:	0.069	Z:	0.401	yaw:	169.480	yaw rate:	-0.673	Roll:	-5.425	Pitch:	-3.718	Yaw:	239.527	Thrust:	46.341
Time:	5.952	Roll Set Point:	-0.015	Pitch Set Point:	0.029	Yaw Set Point:	-2.958	X_WP:	0.000	Y_WP:	0.000	Y_WP:	0.500	X:	0.163	Y:	0.069	Z:	0.401	yaw:	169.464	yaw rate:	-1.544	Roll:	-5.203	Pitch:	-3.527	Yaw:	239.045	Thrust:	39.458
Time:	5.984	Roll Set Point:	-0.015	Pitch Set Point:	0.029	Yaw Set Point:	-2.958	X_WP:	0.000	Y_WP:	0.000	Y_WP:	0.500	X:	0.163	Y:	0.069	Z:	0.401	yaw:	169.484	yaw rate:	1.975	Roll:	-5.539	Pitch:	-3.694	Yaw:	240.036	Thrust:	48.609
Time:	6.016	Roll Set Point:	-0.225	Pitch Set Point:	-0.072	Yaw Set Point:	-2.958	X_WP:	0.225	Y_WP:	0.060	Y_WP:	0.500	X:	0.163	Y:	0.069	Z:	0.401	yaw:	169.479	yaw rate:	-0.450	Roll:	30.000	Pitch:	30.000	Yaw:	239.726	Thrust:	47.398
Time:	6.047	Roll Set Point:	-0.225	Pitch Set Point:	-0.072	Yaw Set Point:	-2.958	X_WP:	0.225	Y_WP:	0.060	Y_WP:	0.500	X:	0.163	Y:	0.069	Z:	0.401	yaw:	169.471	yaw rate:	-1.519	Roll:	0.641	Pitch:	-0.770	Yaw:	239.683	Thrust:	47.868
Time:	6.078	Roll Set Point:	-0.225	Pitch Set Point:	-0.072	Yaw Set Point:	-2.958	X_WP:	0.225	Y_WP:	0.060	Y_WP:	0.500	X:	0.163	Y:	0.069	Z:	0.401	yaw:	169.478	yaw rate:	0.246	Roll:	0.646	Pitch:	-0.781	Yaw:	239.821	Thrust:	48.164
Time:	6.109	Roll Set Point:	-0.225	Pitch Set Point:	-0.072	Yaw Set Point:	-2.958	X_WP:	0.225	Y_WP:	0.060	Y_WP:	0.500	X:	0.163	Y:	0.069	Z:	0.401	yaw:	169.482	yaw rate:	0.363	Roll:	0.649	Pitch:	-0.777	Yaw:	239.797	Thrust:	48.638
Time:	6.141	Roll Set Point:	-0.225	Pitch Set Point:	-0.072	Yaw Set Point:	-2.958	X_WP:	0.225	Y_WP:	0.060	Y_WP:	0.500	X:	0.163	Y:	0.069	Z:	0.401	yaw:	169.475	yaw rate:	0.220	Roll:	0.655	Pitch:	-0.771	Yaw:	239.700	Thrust:	48.850
Time:	6.172	Roll Set Point:	-0.225	Pitch Set Point:	-0.072	Yaw Set Point:	-2.958	X_WP:	0.225	Y_WP:	0.060	Y_WP:	0.500	X:	0.163	Y:	0.069	Z:	0.401	yaw:	169.483	yaw rate:	0.810	Roll:	0.658	Pitch:	-0.779	Yaw:	239.837	Thrust:	49.385
Time:	6.203	Roll Set Point:	-0.225	Pitch Set Point:	-0.072	Yaw Set Point:	-2.958	X_WP:	0.225	Y_WP:	0.060	Y_WP:	0.500	X:	0.163	Y:	0.069	Z:	0.401	yaw:	169.500	yaw rate:	1.251	Roll:	0.665	Pitch:	-0.787	Yaw:	239.935	Thrust:	49.677
Time:	6.234	Roll Set Point:	-0.225	Pitch Set Point:	-0.072	Yaw Set Point:	-2.958	X_WP:	0.225	Y_WP:	0.060	Y_WP:	0.500	X:	0.163	Y:	0.069	Z:	0.401	yaw:	169.491	yaw rate:	1.685	Roll:	0.670	Pitch:	-0.767	Yaw:	239.702	Thrust:	50.085
Time:	6.266	Roll Set Point:	-0.225	Pitch Set Point:	-0.072	Yaw Set Point:	-2.958	X_WP:	0.225	Y_WP:	0.060	Y_WP:	0.500	X:	0.163	Y:	0.069	Z:	0.401	yaw:	169.507	yaw rate:	1.571	Roll:	0.673	Pitch:	-0.786	Yaw:	239.939	Thrust:	50.343
Time:	6.313	Roll Set Point:	-0.225	Pitch Set Point:	-0.072	Yaw Set Point:	-2.958	X_WP:	0.225	Y_WP:	0.060	Y_WP:	0.500	X:	0.163	Y:	0.069	Z:	0.401	yaw:	169.486	yaw rate:	0.993	Roll:	0.113	Pitch:	-1.193	Yaw:	241.215	Thrust:	73.504
Time:	6.344	Roll Set Point:	-0.225	Pitch Set Point:	-0.072	Yaw Set Point:	-2.958	X_WP:	0.225	Y_WP:	0.060	Y_WP:	0.500	X:	0.163	Y:	0.069	Z:	0.401	yaw:	169.483	yaw rate:	-0.251	Roll:	0.685	Pitch:	-0.773	Yaw:	239.748	Thrust:	51.099
Time:	6.375	Roll Set Point:	-0.225	Pitch Set Point:	-0.072	Yaw Set Point:	-2.958	X_WP:	0.225	Y_WP:	0.060	Y_WP:	0.500	X:	0.163	Y:	0.069	Z:	0.401	yaw:	169.484	yaw rate:	-0.621	Roll:	0.689	Pitch:	-0.775	Yaw:	239.778	Thrust:	51.638
Time:	6.406	Roll Set Point:	-0.225	Pitch Set Point:	-0.072	Yaw Set Point:	-2.958	X_WP:	0.225	Y_WP:	0.060	Y_WP:	0.500	X:	0.163	Y:	0.069	Z:	0.401	yaw:	169.475	yaw rate:	-0.906	Roll:	0.694	Pitch:	-0.767	Yaw:	239.681	Thrust:	51.856
Time:	6.438	Roll Set Point:	-0.225	Pitch Set Point:	-0.072	Yaw Set Point:	-2.959	X_WP:	0.225	Y_WP:	0.060	Y_WP:	0.500	X:	0.163	Y:	0.069	Z:	0.401	yaw:	169.517	yaw rate:	5.080	Roll:	0.699	Pitch:	-0.800	Yaw:	240.163	Thrust:	52.367
Time:	6.469	Roll Set Point:	-0.225	Pitch Set Point:	-0.072	Yaw Set Point:	-2.958	X_WP:	0.225	Y_WP:	0.060	Y_WP:	0.500	X:	0.163	Y:	0.069	Z:	0.401	yaw:	169.464	yaw rate:	-5.284	Roll:	0.703	Pitch:	-0.739	Yaw:	239.299	Thrust:	52.591
Time:	6.500	Roll Set Point:	-0.225	Pitch Set Point:	-0.072	Yaw Set Point:	-2.958	X_WP:	0.225	Y_WP:	0.060	Y_WP:	0.500	X:	0.163	Y:	0.069	Z:	0.401	yaw:	169.488	yaw rate:	0.912	Roll:	0.709	Pitch:	-0.787	Yaw:	239.981	Thrust:	53.092
Time:	6.531	Roll Set Point:	-0.225	Pitch Set Point:	-0.072	Yaw Set Point:	-2.958	X_WP:	0.225	Y_WP:	0.060	Y_WP:	0.500	X:	0.163	Y:	0.069	Z:	0.401	yaw:	169.461	yaw rate:	-2.789	Roll:	0.712	Pitch:	-0.755	Yaw:	239.503	Thrust:	53.326
Time:	6.563	Roll Set Point:	-0.225	Pitch Set Point:	-0.072	Yaw Set Point:	-2.958	X_WP:	0.225	Y_WP:	0.060	Y_WP:	0.500	X:	0.163	Y:	0.069	Z:	0.401	yaw:	169.466	yaw rate:	0.538	Roll:	0.719	Pitch:	-0.774	Yaw:	239.790	Thrust:	53.798
Time:	6.609	Roll Set Point:	-0.225	Pitch Set Point:	-0.072	Yaw Set Point:	-2.958	X_WP:	0.225	Y_WP:	0.060	Y_WP:	0.500	X:	0.163	Y:	0.069	Z:	0.401	yaw:	169.476	yaw rate:	1.050	Roll:	0.180	Pitch:	-1.203	Yaw:	241.382	Thrust:	78.508
Time:	6.641	Roll Set Point:	-0.225	Pitch Set Point:	-0.072	Yaw Set Point:	-2.958	X_WP:	0.225	Y_WP:	0.060	Y_WP:	0.500	X:	0.163	Y:	0.069	Z:	0.401	yaw:	169.483	yaw rate:	0.922	Roll:	0.726	Pitch:	-0.776	Yaw:	239.825	Thrust:	54.515
Time:	6.672	Roll Set Point:	-0.225	Pitch Set Point:	-0.072	Yaw Set Point:	-2.958	X_WP:	0.225	Y_WP:	0.060	Y_WP:	0.500	X:	0.163	Y:	0.069	Z:	0.401	yaw:	169.477	yaw rate:	0.217	Roll:	0.734	Pitch:	-0.769	Yaw:	239.711	Thrust:	54.905
Time:	6.703	Roll Set Point:	-0.225	Pitch Set Point:	-0.072	Yaw Set Point:	-2.958	X_WP:	0.225	Y_WP:	0.060	Y_WP:	0.500	X:	0.163	Y:	0.069	Z:	0.401	yaw:	169.465	yaw rate:	-2.318	Roll:	0.738	Pitch:	-0.763	Yaw:	239.640	Thrust:	55.266
Time:	6.734	Roll Set Point:	-0.225	Pitch Set Point:	-0.072	Yaw Set Point:	-2.958	X_WP:	0.225	Y_WP:	0.060	Y_WP:	0.500	X:	0.163	Y:	0.069	Z:	0.401	yaw:	169.469	yaw rate:	0.374	Roll:	0.741	Pitch:	-0.772	Yaw:	239.780	Thrust:	55.605
Time:	6.766	Roll Set Point:	-0.225	Pitch Set Point:	-0.072	Yaw Set Point:	-2.958	X_WP:	0.225	Y_WP:	0.060	Y_WP:	0.500	X:	0.163	Y:	0.069	Z:	0.401	yaw:	169.487	yaw rate:	-0.793	Roll:	0.746	Pitch:	-0.783	Yaw:	239.927	Thrust:	56.021
Time:	6.797	Roll Set Point:	-0.225	Pitch Set Point:	-0.072	Yaw Set Point:	-2.958	X_WP:	0.225	Y_WP:	0.060	Y_WP:	0.500	X:	0.163	Y:	0.069	Z:	0.401	yaw:	169.477	yaw rate:	-0.177	Roll:	0.754	Pitch:	-0.765	Yaw:	239.678	Thrust:	56.378
Time:	6.828	Roll Set Point:	-0.225	Pitch Set Point:	-0.072	Yaw Set Point:	-2.958	X_WP:	0.225	Y_WP:	0.060	Y_WP:	0.500	X:	0.163	Y:	0.069	Z:	0.401	yaw:	169.496	yaw rate:	1.921	Roll:	0.758	Pitch:	-0.781	Yaw:	239.945	Thrust:	56.727
Time:	6.859	Roll Set Point:	-0.225	Pitch Set Point:	-0.072	Yaw Set Point:	-2.958	X_WP:	0.225	Y_WP:	0.060	Y_WP:	0.500	X:	0.163	Y:	0.069	Z:	0.401	yaw:	169.479	yaw rate:	-1.773	Roll:	0.761	Pitch:	-0.759	Yaw:	239.614	Thrust:	57.135
Time:	6.891	Roll Set Point:	-0.225	Pitch Set Point:	-0.072	Yaw Set Point:	-2.958	X_WP:	0.225	Y_WP:	0.060	Y_WP:	0.500	X:	0.163	Y:	0.069	Z:	0.401	yaw:	169.471	yaw rate:	-0.747	Roll:	0.765	Pitch:	-0.767	Yaw:	239.692	Thrust:	57.488
Time:	6.922	Roll Set Point:	-0.225	Pitch Set Point:	-0.072	Yaw Set Point:	-2.958	X_WP:	0.225	Y_WP:	0.060	Y_WP:	0.500	X:	0.163	Y:	0.069	Z:	0.401	yaw:	169.465	yaw rate:	-0.600	Roll:	0.773	Pitch:	-0.764	Yaw:	239.690	Thrust:	57.829
Time:	6.969	Roll Set Point:	-0.225	Pitch Set Point:	-0.072	Yaw Set Point:	-2.958	X_WP:	0.225	Y_WP:	0.060	Y_WP:	0.500	X:	0.163	Y:	0.069	Z:	0.401	yaw:	169.485	yaw rate:	-1.139	Roll:	0.271	Pitch:	-1.195	Yaw:	241.412	Thrust:	84.072
Time:	7.015	Roll Set Point:	-0.225	Pitch Set Point:	-0.072	Yaw Set Point:	-2.958	X_WP:	0.225	Y_WP:	0.060	Y_WP:	0.500	X:	0.163	Y:	0.069	Z:	0.401	yaw:	169.478	yaw rate:	-2.377	Roll:	0.268	Pitch:	-1.193	Yaw:	241.284	Thrust:	85.189
Time:	7.047	Roll Set Point:	-0.225	Pitch Set Point:	-0.072	Yaw Set Point:	-2.958	X_WP:	0.225	Y_WP:	0.060	Y_WP:	0.500	X:	0.163	Y:	0.069	Z:	0.401	yaw:	169.483	yaw rate:	-0.428	Roll:	0.786	Pitch:	-0.772	Yaw:	239.818	Thrust:	58.989
Time:	7.078	Roll Set Point:	-0.225	Pitch Set Point:	-0.072	Yaw Set Point:	-2.958	X_WP:	0.225	Y_WP:	0.060	Y_WP:	0.500	X:	0.163	Y:	0.069	Z:	0.401	yaw:	169.494	yaw rate:	1.880	Roll:	0.791	Pitch:	-0.777	Yaw:	239.873	Thrust:	59.343
Time:	7.109	Roll Set Point:	-0.225	Pitch Set Point:	-0.072	Yaw Set Point:	-2.958	X_WP:	0.225	Y_WP:	0.060	Y_WP:	0.500	X:	0.163	Y:	0.069	Z:	0.401	yaw:	169.468	yaw rate:	-2.630	Roll:	0.793	Pitch:	-0.752	Yaw:	239.530	Thrust:	59.775
Time:	7.140	Roll Set Point:	-0.225	Pitch Set Point:	-0.072	Yaw Set Point:	-2.958	X_WP:	0.225	Y_WP:	0.060	Y_WP:	0.500	X:	0.163	Y:	0.069	Z:	0.401	yaw:	169.468	yaw rate:	-3.073	Roll:	0.803	Pitch:	-0.768	Yaw:	239.750	Thrust:	60.143
Time:	7.187	Roll Set Point:	-0.225	Pitch Set Point:	-0.072	Yaw Set Point:	-2.958	X_WP:	0.225	Y_WP:	0.060	Y_WP:	0.500	X:	0.163	Y:	0.069	Z:	0.401	yaw:	169.477	yaw rate:	-1.112	Roll:	0.306	Pitch:	-1.197	Yaw:	241.367	Thrust:	87.898
Time:	7.219	Roll Set Point:	-0.225	Pitch Set Point:	-0.072	Yaw Set Point:	-2.958	X_WP:	0.225	Y_WP:	0.060	Y_WP:	0.500	X:	0.163	Y:	0.069	Z:	0.401	yaw:	169.495	yaw rate:	1.829	Roll:	0.811	Pitch:	-0.779	Yaw:	239.938	Thrust:	60.844
Time:	7.250	Roll Set Point:	-0.225	Pitch Set Point:	-0.072	Yaw Set Point:	-2.958	X_WP:	0.225	Y_WP:	0.060	Y_WP:	0.500	X:	0.163	Y:	0.069	Z:	0.401	yaw:	169.495	yaw rate:	2.750	Roll:	0.816	Pitch:	-0.767	Yaw:	239.784	Thrust:	61.218
Time:	7.281	Roll Set Point:	-0.225	Pitch Set Point:	-0.072	Yaw Set Point:	-2.958	X_WP:	0.225	Y_WP:	0.060	Y_WP:	0.500	X:	0.163	Y:	0.069	Z:	0.401	yaw:	169.472	yaw rate:	-2.302	Roll:	0.818	Pitch:	-0.756	Yaw:	239.563	Thrust:	61.573
Time:	7.312	Roll Set Point:	-0.225	Pitch Set Point:	-0.072	Yaw Set Point:	-2.958	X_WP:	0.225	Y_WP:	0.060	Y_WP:	0.500	X:	0.163	Y:	0.069	Z:	0.401	yaw:	169.478	yaw rate:	0.591	Roll:	0.826	Pitch:	-0.769	Yaw:	239.807	Thrust:	61.931
Time:	7.344	Roll Set Point:	-0.225	Pitch Set Point:	-0.072	Yaw Set Point:	-2.958	X_WP:	0.225	Y_WP:	0.060	Y_WP:	0.500	X:	0.163	Y:	0.069	Z:	0.401	yaw:	169.468	yaw rate:	-0.954	Roll:	0.830	Pitch:	-0.760	Yaw:	239.668	Thrust:	62.341
Time:	7.375	Roll Set Point:	-0.225	Pitch Set Point:	-0.072	Yaw Set Point:	-2.958	X_WP:	0.225	Y_WP:	0.060	Y_WP:	0.500	X:	0.163	Y:	0.069	Z:	0.401	yaw:	169.478	yaw rate:	0.649	Roll:	0.835	Pitch:	-0.773	Yaw:	239.843	Thrust:	62.699
Time:	7.406	Roll Set Point:	-0.225	Pitch Set Point:	-0.072	Yaw Set Point:	-2.958	X_WP:	0.225	Y_WP:	0.060	Y_WP:	0.500	X:	0.163	Y:	0.069	Z:	0.401	yaw:	169.489	yaw rate:	1.083	Roll:	0.839	Pitch:	-0.773	Yaw:	239.867	Thrust:	63.015
Time:	7.437	Roll Set Point:	-0.225	Pitch Set Point:	-0.072	Yaw Set Point:	-2.958	X_WP:	0.225	Y_WP:	0.060	Y_WP:	0.500	X:	0.163	Y:	0.069	Z:	0.401	yaw:	169.496	yaw rate:	0.761	Roll:	0.845	Pitch:	-0.771	Yaw:	239.851	Thrust:	63.468
Time:	7.469	Roll Set Point:	-0.225	Pitch Set Point:	-0.072	Yaw Set Point:	-2.958	X_WP:	0.225	Y_WP:	0.060	Y_WP:	0.500	X:	0.163	Y:	0.069	Z:	0.401	yaw:	169.483	yaw rate:	-0.661	Roll:	0.848	Pitch:	-0.759	Yaw:	239.662	Thrust:	63.882
Time:	7.500	Roll Set Point:	-0.225	Pitch Set Point:	-0.072	Yaw Set Point:	-2.958	X_WP:	0.225	Y_WP:	0.060	Y_WP:	0.500	X:	0.163	Y:	0.069	Z:	0.401	yaw:	169.489	yaw rate:	0.644	Roll:	0.855	Pitch:	-0.769	Yaw:	239.824	Thrust:	64.116
Time:	7.531	Roll Set Point:	-0.225	Pitch Set Point:	-0.072	Yaw Set Point:	-2.958	X_WP:	0.225	Y_WP:	0.060	Y_WP:	0.500	X:	0.163	Y:	0.069	Z:	0.401	yaw:	169.478	yaw rate:	-0.172	Roll:	0.859	Pitch:	-0.759	Yaw:	239.669	Thrust:	64.512
Time:	7.562	Roll Set Point:	-0.225	Pitch Set Point:	-0.072	Yaw Set Point:	-2.958	X_WP:	0.225	Y_WP:	0.060	Y_WP:	0.500	X:	0.163	Y:	0.069	Z:	0.401	yaw:	169.473	yaw rate:	-0.511	Roll:	0.864	Pitch:	-0.763	Yaw:	239.712	Thrust:	64.946
Time:	7.594	Roll Set Point:	-0.225	Pitch Set Point:	-0.072	Yaw Set Point:	-2.958	X_WP:	0.225	Y_WP:	0.060	Y_WP:	0.500	X:	0.163	Y:	0.069	Z:	0.401	yaw:	169.485	yaw rate:	1.169	Roll:	0.870	Pitch:	-0.772	Yaw:	239.869	Thrust:	65.323
Time:	7.625	Roll Set Point:	-0.225	Pitch Set Point:	-0.072	Yaw Set Point:	-2.958	X_WP:	0.225	Y_WP:	0.060	Y_WP:	0.500	X:	0.163	Y:	0.069	Z:	0.401	yaw:	169.483	yaw rate:	-0.208	Roll:	0.873	Pitch:	-0.764	Yaw:	239.750	Thrust:	65.630
Time:	7.656	Roll Set Point:	-0.225	Pitch Set Point:	-0.072	Yaw Set Point:	-2.958	X_WP:	0.225	Y_WP:	0.060	Y_WP:	0.500	X:	0.163	Y:	0.069	Z:	0.401	yaw:	169.500	yaw rate:	1.757	Roll:	0.879	Pitch:	-0.777	Yaw:	239.943	Thrust:	66.193
Time:	7.687	Roll Set Point:	-0.225	Pitch Set Point:	-0.072	Yaw Set Point:	-2.958	X_WP:	0.225	Y_WP:	0.060	Y_WP:	0.500	X:	0.163	Y:	0.069	Z:	0.401	yaw:	169.458	yaw rate:	-4.283	Roll:	0.884	Pitch:	-0.737	Yaw:	239.370	Thrust:	66.274
Time:	7.719	Roll Set Point:	-0.225	Pitch Set Point:	-0.072	Yaw Set Point:	-2.958	X_WP:	0.225	Y_WP:	0.060	Y_WP:	0.500	X:	0.163	Y:	0.069	Z:	0.401	yaw:	169.483	yaw rate:	0.855	Roll:	0.889	Pitch:	-0.780	Yaw:	239.980	Thrust:	66.787
Time:	7.750	Roll Set Point:	-0.225	Pitch Set Point:	-0.072	Yaw Set Point:	-2.958	X_WP:	0.225	Y_WP:	0.060	Y_WP:	0.500	X:	0.163	Y:	0.069	Z:	0.401	yaw:	169.479	yaw rate:	-0.393	Roll:	0.892	Pitch:	-0.763	Yaw:	239.732	Thrust:	67.201
Time:	7.781	Roll Set Point:	-0.225	Pitch Set Point:	-0.072	Yaw Set Point:	-2.958	X_WP:	0.225	Y_WP:	0.060	Y_WP:	0.500	X:	0.163	Y:	0.069	Z:	0.401	yaw:	169.495	yaw rate:	1.648	Roll:	0.900	Pitch:	-0.773	Yaw:	239.921	Thrust:	67.481
Time:	7.812	Roll Set Point:	-0.225	Pitch Set Point:	-0.072	Yaw Set Point:	-2.958	X_WP:	0.225	Y_WP:	0.060	Y_WP:	0.500	X:	0.163	Y:	0.069	Z:	0.401	yaw:	169.479	yaw rate:	-1.645	Roll:	0.901	Pitch:	-0.755	Yaw:	239.625	Thrust:	67.879
Time:	7.844	Roll Set Point:	-0.225	Pitch Set Point:	-0.072	Yaw Set Point:	-2.958	X_WP:	0.225	Y_WP:	0.060	Y_WP:	0.500	X:	0.163	Y:	0.069	Z:	0.401	yaw:	169.482	yaw rate:	0.018	Roll:	0.907	Pitch:	-0.764	Yaw:	239.797	Thrust:	68.384
Time:	7.875	Roll Set Point:	-0.225	Pitch Set Point:	-0.072	Yaw Set Point:	-2.958	X_WP:	0.225	Y_WP:	0.060	Y_WP:	0.500	X:	0.163	Y:	0.069	Z:	0.401	yaw:	169.466	yaw rate:	-1.848	Roll:	0.913	Pitch:	-0.753	Yaw:	239.608	Thrust:	68.538
Time:	7.906	Roll Set Point:	-0.225	Pitch Set Point:	-0.072	Yaw Set Point:	-2.958	X_WP:	0.225	Y_WP:	0.060	Y_WP:	0.500	X:	0.163	Y:	0.069	Z:	0.401	yaw:	169.480	yaw rate:	1.428	Roll:	0.918	Pitch:	-0.772	Yaw:	239.884	Thrust:	69.011
Time:	7.937	Roll Set Point:	-0.225	Pitch Set Point:	-0.072	Yaw Set Point:	-2.958	X_WP:	0.225	Y_WP:	0.060	Y_WP:	0.500	X:	0.163	Y:	0.069	Z:	0.401	yaw:	169.499	yaw rate:	1.937	Roll:	0.923	Pitch:	-0.774	Yaw:	239.945	Thrust:	69.399
Time:	7.969	Roll Set Point:	-0.225	Pitch Set Point:	-0.072	Yaw Set Point:	-2.958	X_WP:	0.225	Y_WP:	0.060	Y_WP:	0.500	X:	0.163	Y:	0.069	Z:	0.401	yaw:	169.478	yaw rate:	0.070	Roll:	0.928	Pitch:	-0.748	Yaw:	239.577	Thrust:	69.665
Time:	8.000	Roll Set Point:	-0.225	Pitch Set Point:	-0.072	Yaw Set Point:	-2.958	X_WP:	0.225	Y_WP:	0.060	Y_WP:	0.500	X:	0.163	Y:	0.069	Z:	0.401	yaw:	169.491	yaw rate:	1.381	Roll:	0.932	Pitch:	-0.772	Yaw:	239.896	Thrust:	70.154
Time:	8.031	Roll Set Point:	-0.225	Pitch Set Point:	-0.072	Yaw Set Point:	-2.958	X_WP:	0.225	Y_WP:	0.060	Y_WP:	0.500	X:	0.163	Y:	0.069	Z:	0.401	yaw:	169.498	yaw rate:	0.693	Roll:	0.938	Pitch:	-0.767	Yaw:	239.848	Thrust:	70.459
Time:	8.062	Roll Set Point:	-0.225	Pitch Set Point:	-0.072	Yaw Set Point:	-2.958	X_WP:	0.225	Y_WP:	0.060	Y_WP:	0.500	X:	0.163	Y:	0.069	Z:	0.401	yaw:	169.474	yaw rate:	-2.479	Roll:	0.942	Pitch:	-0.747	Yaw:	239.547	Thrust:	70.853
Time:	8.094	Roll Set Point:	-0.225	Pitch Set Point:	-0.072	Yaw Set Point:	-2.958	X_WP:	0.225	Y_WP:	0.060	Y_WP:	0.500	X:	0.163	Y:	0.069	Z:	0.401	yaw:	169.479	yaw rate:	0.533	Roll:	0.946	Pitch:	-0.765	Yaw:	239.807	Thrust:	71.297
Time:	8.140	Roll Set Point:	-0.225	Pitch Set Point:	-0.072	Yaw Set Point:	-2.958	X_WP:	0.225	Y_WP:	0.060	Y_WP:	0.500	X:	0.163	Y:	0.069	Z:	0.401	yaw:	169.475	yaw rate:	-0.402	Roll:	0.523	Pitch:	-1.181	Yaw:	241.297	Thrust:	100.000
Time:	8.172	Roll Set Point:	-0.225	Pitch Set Point:	-0.072	Yaw Set Point:	-2.958	X_WP:	0.225	Y_WP:	0.060	Y_WP:	0.500	X:	0.163	Y:	0.069	Z:	0.401	yaw:	169.492	yaw rate:	1.748	Roll:	0.957	Pitch:	-0.772	Yaw:	239.923	Thrust:	72.023
Time:	8.203	Roll Set Point:	-0.225	Pitch Set Point:	-0.072	Yaw Set Point:	-2.958	X_WP:	0.225	Y_WP:	0.060	Y_WP:	0.500	X:	0.163	Y:	0.069	Z:	0.401	yaw:	169.475	yaw rate:	-1.690	Roll:	0.961	Pitch:	-0.750	Yaw:	239.616	Thrust:	72.347
Time:	8.234	Roll Set Point:	-0.225	Pitch Set Point:	-0.072	Yaw Set Point:	-2.958	X_WP:	0.225	Y_WP:	0.060	Y_WP:	0.500	X:	0.163	Y:	0.069	Z:	0.401	yaw:	169.491	yaw rate:	0.702	Roll:	0.967	Pitch:	-0.772	Yaw:	239.912	Thrust:	72.750
Time:	8.265	Roll Set Point:	-0.225	Pitch Set Point:	-0.072	Yaw Set Point:	-2.958	X_WP:	0.225	Y_WP:	0.060	Y_WP:	0.500	X:	0.163	Y:	0.069	Z:	0.401	yaw:	169.491	yaw rate:	-0.008	Roll:	0.970	Pitch:	-0.760	Yaw:	239.778	Thrust:	73.095
Time:	8.297	Roll Set Point:	-0.225	Pitch Set Point:	-0.072	Yaw Set Point:	-2.958	X_WP:	0.225	Y_WP:	0.060	Y_WP:	0.500	X:	0.163	Y:	0.069	Z:	0.401	yaw:	169.477	yaw rate:	-0.886	Roll:	0.977	Pitch:	-0.752	Yaw:	239.646	Thrust:	73.436
Time:	8.328	Roll Set Point:	-0.225	Pitch Set Point:	-0.072	Yaw Set Point:	-2.958	X_WP:	0.225	Y_WP:	0.060	Y_WP:	0.500	X:	0.163	Y:	0.069	Z:	0.401	yaw:	169.501	yaw rate:	2.859	Roll:	0.979	Pitch:	-0.777	Yaw:	239.994	Thrust:	73.884
Time:	8.359	Roll Set Point:	-0.225	Pitch Set Point:	-0.072	Yaw Set Point:	-2.958	X_WP:	0.225	Y_WP:	0.060	Y_WP:	0.500	X:	0.163	Y:	0.069	Z:	0.401	yaw:	169.483	yaw rate:	0.605	Roll:	0.986	Pitch:	-0.748	Yaw:	239.619	Thrust:	74.171
Time:	8.390	Roll Set Point:	-0.225	Pitch Set Point:	-0.072	Yaw Set Point:	-2.958	X_WP:	0.225	Y_WP:	0.060	Y_WP:	0.500	X:	0.163	Y:	0.069	Z:	0.401	yaw:	169.493	yaw rate:	0.966	Roll:	0.991	Pitch:	-0.766	Yaw:	239.863	Thrust:	74.663
Time:	8.422	Roll Set Point:	-0.225	Pitch Set Point:	-0.072	Yaw Set Point:	-2.958	X_WP:	0.225	Y_WP:	0.060	Y_WP:	0.500	X:	0.163	Y:	0.069	Z:	0.401	yaw:	169.480	yaw rate:	0.323	Roll:	0.994	Pitch:	-0.752	Yaw:	239.656	Thrust:	74.893
Time:	8.453	Roll Set Point:	-0.225	Pitch Set Point:	-0.072	Yaw Set Point:	-2.958	X_WP:	0.225	Y_WP:	0.060	Y_WP:	0.500	X:	0.163	Y:	0.069	Z:	0.401	yaw:	169.492	yaw rate:	2.247	Roll:	1.001	Pitch:	-0.766	Yaw:	239.883	Thrust:	75.401
Time:	8.484	Roll Set Point:	-0.225	Pitch Set Point:	-0.072	Yaw Set Point:	-2.958	X_WP:	0.225	Y_WP:	0.060	Y_WP:	0.500	X:	0.163	Y:	0.069	Z:	0.401	yaw:	169.486	yaw rate:	-0.593	Roll:	1.006	Pitch:	-0.757	Yaw:	239.723	Thrust:	75.630
Time:	8.516	Roll Set Point:	-0.225	Pitch Set Point:	-0.072	Yaw Set Point:	-2.958	X_WP:	0.225	Y_WP:	0.060	Y_WP:	0.500	X:	0.163	Y:	0.069	Z:	0.401	yaw:	169.478	yaw rate:	-0.822	Roll:	1.008	Pitch:	-0.753	Yaw:	239.692	Thrust:	76.071
Time:	8.547	Roll Set Point:	-0.225	Pitch Set Point:	-0.072	Yaw Set Point:	-2.958	X_WP:	0.225	Y_WP:	0.060	Y_WP:	0.500	X:	0.163	Y:	0.069	Z:	0.401	yaw:	169.482	yaw rate:	0.739	Roll:	1.017	Pitch:	-0.762	Yaw:	239.805	Thrust:	76.484
Time:	8.578	Roll Set Point:	-0.225	Pitch Set Point:	-0.072	Yaw Set Point:	-2.958	X_WP:	0.225	Y_WP:	0.060	Y_WP:	0.500	X:	0.163	Y:	0.069	Z:	0.401	yaw:	169.482	yaw rate:	-0.026	Roll:	1.020	Pitch:	-0.757	Yaw:	239.759	Thrust:	76.860
Time:	8.609	Roll Set Point:	-0.225	Pitch Set Point:	-0.072	Yaw Set Point:	-2.958	X_WP:	0.225	Y_WP:	0.060	Y_WP:	0.500	X:	0.163	Y:	0.069	Z:	0.401	yaw:	169.492	yaw rate:	1.069	Roll:	1.024	Pitch:	-0.765	Yaw:	239.872	Thrust:	77.139
Time:	8.641	Roll Set Point:	-0.225	Pitch Set Point:	-0.072	Yaw Set Point:	-2.958	X_WP:	0.225	Y_WP:	0.060	Y_WP:	0.500	X:	0.163	Y:	0.069	Z:	0.401	yaw:	169.485	yaw rate:	-0.697	Roll:	1.029	Pitch:	-0.753	Yaw:	239.713	Thrust:	77.619
Time:	8.687	Roll Set Point:	-0.225	Pitch Set Point:	-0.072	Yaw Set Point:	-2.958	X_WP:	0.225	Y_WP:	0.060	Y_WP:	0.500	X:	0.163	Y:	0.069	Z:	0.401	yaw:	169.470	yaw rate:	-2.920	Roll:	0.647	Pitch:	-1.171	Yaw:	241.228	Thrust:	100.000
Time:	8.734	Roll Set Point:	-0.225	Pitch Set Point:	-0.072	Yaw Set Point:	-2.958	X_WP:	0.225	Y_WP:	0.060	Y_WP:	0.500	X:	0.163	Y:	0.069	Z:	0.401	yaw:	169.474	yaw rate:	0.800	Roll:	0.656	Pitch:	-1.180	Yaw:	241.339	Thrust:	100.000
Time:	8.781	Roll Set Point:	-0.225	Pitch Set Point:	-0.072	Yaw Set Point:	-2.958	X_WP:	0.225	Y_WP:	0.060	Y_WP:	0.500	X:	0.163	Y:	0.069	Z:	0.401	yaw:	169.479	yaw rate:	0.533	Roll:	0.662	Pitch:	-1.179	Yaw:	241.355	Thrust:	100.000
Time:	8.812	Roll Set Point:	-0.225	Pitch Set Point:	-0.072	Yaw Set Point:	-2.958	X_WP:	0.225	Y_WP:	0.060	Y_WP:	0.500	X:	0.163	Y:	0.069	Z:	0.401	yaw:	169.494	yaw rate:	1.564	Roll:	1.050	Pitch:	-0.767	Yaw:	239.912	Thrust:	79.089
Time:	8.844	Roll Set Point:	-0.225	Pitch Set Point:	-0.072	Yaw Set Point:	-2.958	X_WP:	0.225	Y_WP:	0.060	Y_WP:	0.500	X:	0.163	Y:	0.069	Z:	0.401	yaw:	169.463	yaw rate:	-3.191	Roll:	1.053	Pitch:	-0.737	Yaw:	239.547	Thrust:	79.392
Time:	8.895	Roll Set Point:	-0.225	Pitch Set Point:	-0.072	Yaw Set Point:	-2.958	X_WP:	0.225	Y_WP:	0.060	Y_WP:	0.500	X:	0.163	Y:	0.069	Z:	0.401	yaw:	169.483	yaw rate:	0.219	Roll:	0.573	Pitch:	-1.310	Yaw:	241.836	Thrust:	100.000
Time:	8.926	Roll Set Point:	-0.225	Pitch Set Point:	-0.072	Yaw Set Point:	-2.958	X_WP:	0.225	Y_WP:	0.060	Y_WP:	0.500	X:	0.163	Y:	0.069	Z:	0.401	yaw:	169.493	yaw rate:	0.576	Roll:	1.065	Pitch:	-0.763	Yaw:	239.870	Thrust:	80.191
Time:	8.969	Roll Set Point:	-0.225	Pitch Set Point:	-0.072	Yaw Set Point:	-2.958	X_WP:	0.225	Y_WP:	0.060	Y_WP:	0.500	X:	0.163	Y:	0.069	Z:	0.401	yaw:	169.500	yaw rate:	0.640	Roll:	0.808	Pitch:	-1.055	Yaw:	240.935	Thrust:	100.000
Time:	9.016	Roll Set Point:	-0.225	Pitch Set Point:	-0.072	Yaw Set Point:	-2.958	X_WP:	0.225	Y_WP:	0.060	Y_WP:	0.500	X:	0.163	Y:	0.069	Z:	0.401	yaw:	169.489	yaw rate:	0.055	Roll:	0.706	Pitch:	-1.171	Yaw:	241.275	Thrust:	100.000
Time:	9.063	Roll Set Point:	-0.225	Pitch Set Point:	-0.072	Yaw Set Point:	-2.958	X_WP:	0.225	Y_WP:	0.060	Y_WP:	0.500	X:	0.163	Y:	0.069	Z:	0.401	yaw:	169.484	yaw rate:	-1.425	Roll:	0.713	Pitch:	-1.173	Yaw:	241.306	Thrust:	100.000
Time:	9.094	Roll Set Point:	-0.225	Pitch Set Point:	-0.072	Yaw Set Point:	-2.958	X_WP:	0.225	Y_WP:	0.060	Y_WP:	0.500	X:	0.163	Y:	0.069	Z:	0.401	yaw:	169.497	yaw rate:	1.292	Roll:	1.084	Pitch:	-0.763	Yaw:	239.896	Thrust:	81.670
Time:	9.125	Roll Set Point:	-0.225	Pitch Set Point:	-0.072	Yaw Set Point:	-2.958	X_WP:	0.225	Y_WP:	0.060	Y_WP:	0.500	X:	0.163	Y:	0.069	Z:	0.401	yaw:	169.484	yaw rate:	-1.306	Roll:	1.088	Pitch:	-0.747	Yaw:	239.660	Thrust:	82.049
Time:	9.172	Roll Set Point:	-0.225	Pitch Set Point:	-0.072	Yaw Set Point:	-2.958	X_WP:	0.225	Y_WP:	0.060	Y_WP:	0.500	X:	0.163	Y:	0.069	Z:	0.401	yaw:	169.497	yaw rate:	0.726	Roll:	0.735	Pitch:	-1.180	Yaw:	241.424	Thrust:	100.000
Time:	9.203	Roll Set Point:	-0.225	Pitch Set Point:	-0.072	Yaw Set Point:	-2.958	X_WP:	0.225	Y_WP:	0.060	Y_WP:	0.500	X:	0.163	Y:	0.069	Z:	0.401	yaw:	169.483	yaw rate:	0.476	Roll:	1.099	Pitch:	-0.747	Yaw:	239.656	Thrust:	82.771
Time:	9.234	Roll Set Point:	-0.225	Pitch Set Point:	-0.072	Yaw Set Point:	-2.958	X_WP:	0.225	Y_WP:	0.060	Y_WP:	0.500	X:	0.163	Y:	0.069	Z:	0.401	yaw:	169.478	yaw rate:	0.068	Roll:	1.103	Pitch:	-0.752	Yaw:	239.716	Thrust:	83.128
Time:	9.266	Roll Set Point:	-0.225	Pitch Set Point:	-0.072	Yaw Set Point:	-2.958	X_WP:	0.225	Y_WP:	0.060	Y_WP:	0.500	X:	0.163	Y:	0.069	Z:	0.401	yaw:	169.473	yaw rate:	-0.718	Roll:	1.106	Pitch:	-0.751	Yaw:	239.716	Thrust:	83.527
Time:	9.297	Roll Set Point:	-0.225	Pitch Set Point:	-0.072	Yaw Set Point:	-2.958	X_WP:	0.225	Y_WP:	0.060	Y_WP:	0.500	X:	0.163	Y:	0.069	Z:	0.401	yaw:	169.501	yaw rate:	2.791	Roll:	1.114	Pitch:	-0.771	Yaw:	240.028	Thrust:	83.852
Time:	9.328	Roll Set Point:	-0.225	Pitch Set Point:	-0.072	Yaw Set Point:	-2.958	X_WP:	0.225	Y_WP:	0.060	Y_WP:	0.500	X:	0.163	Y:	0.069	Z:	0.401	yaw:	169.472	yaw rate:	-1.358	Roll:	1.117	Pitch:	-0.737	Yaw:	239.508	Thrust:	84.226
Time:	9.359	Roll Set Point:	-0.225	Pitch Set Point:	-0.072	Yaw Set Point:	-2.958	X_WP:	0.225	Y_WP:	0.060	Y_WP:	0.500	X:	0.163	Y:	0.069	Z:	0.401	yaw:	169.487	yaw rate:	1.473	Roll:	1.122	Pitch:	-0.762	Yaw:	239.897	Thrust:	84.639
Time:	9.391	Roll Set Point:	-0.225	Pitch Set Point:	-0.072	Yaw Set Point:	-2.958	X_WP:	0.225	Y_WP:	0.060	Y_WP:	0.500	X:	0.163	Y:	0.069	Z:	0.401	yaw:	169.485	yaw rate:	0.175	Roll:	1.127	Pitch:	-0.752	Yaw:	239.758	Thrust:	85.052
Time:	9.422	Roll Set Point:	-0.225	Pitch Set Point:	-0.072	Yaw Set Point:	-2.958	X_WP:	0.225	Y_WP:	0.060	Y_WP:	0.500	X:	0.163	Y:	0.069	Z:	0.401	yaw:	169.463	yaw rate:	-2.254	Roll:	1.130	Pitch:	-0.739	Yaw:	239.550	Thrust:	85.288
Time:	9.453	Roll Set Point:	-0.225	Pitch Set Point:	-0.071	Yaw Set Point:	-2.960	X_WP:	0.225	Y_WP:	0.060	Y_WP:	0.500	X:	0.163	Y:	0.069	Z:	0.401	yaw:	169.595	yaw rate:	10.867	Roll:	1.139	Pitch:	-0.838	Yaw:	241.038	Thrust:	85.707
Time:	9.484	Roll Set Point:	-0.225	Pitch Set Point:	-0.072	Yaw Set Point:	-2.958	X_WP:	0.225	Y_WP:	0.060	Y_WP:	0.500	X:	0.163	Y:	0.069	Z:	0.401	yaw:	169.489	yaw rate:	-10.609	Roll:	1.139	Pitch:	-0.688	Yaw:	238.893	Thrust:	86.304
Time:	9.516	Roll Set Point:	-0.225	Pitch Set Point:	-0.072	Yaw Set Point:	-2.958	X_WP:	0.225	Y_WP:	0.060	Y_WP:	0.500	X:	0.163	Y:	0.069	Z:	0.401	yaw:	169.481	yaw rate:	-0.839	Roll:	1.147	Pitch:	-0.746	Yaw:	239.692	Thrust:	86.390
Time:	9.547	Roll Set Point:	-0.225	Pitch Set Point:	-0.072	Yaw Set Point:	-2.958	X_WP:	0.225	Y_WP:	0.060	Y_WP:	0.500	X:	0.163	Y:	0.069	Z:	0.401	yaw:	169.477	yaw rate:	-0.366	Roll:	1.150	Pitch:	-0.752	Yaw:	239.733	Thrust:	86.900
Time:	9.578	Roll Set Point:	-0.225	Pitch Set Point:	-0.072	Yaw Set Point:	-2.958	X_WP:	0.225	Y_WP:	0.060	Y_WP:	0.500	X:	0.163	Y:	0.069	Z:	0.401	yaw:	169.483	yaw rate:	0.584	Roll:	1.157	Pitch:	-0.754	Yaw:	239.814	Thrust:	87.167
Time:	9.609	Roll Set Point:	-0.225	Pitch Set Point:	-0.072	Yaw Set Point:	-2.958	X_WP:	0.225	Y_WP:	0.060	Y_WP:	0.500	X:	0.163	Y:	0.069	Z:	0.401	yaw:	169.494	yaw rate:	1.115	Roll:	1.162	Pitch:	-0.759	Yaw:	239.877	Thrust:	87.586
Time:	9.641	Roll Set Point:	-0.225	Pitch Set Point:	-0.072	Yaw Set Point:	-2.958	X_WP:	0.225	Y_WP:	0.060	Y_WP:	0.500	X:	0.163	Y:	0.069	Z:	0.401	yaw:	169.486	yaw rate:	0.947	Roll:	1.166	Pitch:	-0.747	Yaw:	239.708	Thrust:	88.010
Time:	9.672	Roll Set Point:	-0.225	Pitch Set Point:	-0.072	Yaw Set Point:	-2.958	X_WP:	0.225	Y_WP:	0.060	Y_WP:	0.500	X:	0.163	Y:	0.069	Z:	0.401	yaw:	169.496	yaw rate:	0.959	Roll:	1.171	Pitch:	-0.758	Yaw:	239.867	Thrust:	88.353
Time:	9.703	Roll Set Point:	-0.225	Pitch Set Point:	-0.072	Yaw Set Point:	-2.958	X_WP:	0.225	Y_WP:	0.060	Y_WP:	0.500	X:	0.163	Y:	0.069	Z:	0.401	yaw:	169.468	yaw rate:	-2.852	Roll:	1.175	Pitch:	-0.734	Yaw:	239.508	Thrust:	88.630
Time:	9.734	Roll Set Point:	-0.225	Pitch Set Point:	-0.072	Yaw Set Point:	-2.958	X_WP:	0.225	Y_WP:	0.060	Y_WP:	0.500	X:	0.163	Y:	0.069	Z:	0.401	yaw:	169.485	yaw rate:	1.784	Roll:	1.181	Pitch:	-0.762	Yaw:	239.921	Thrust:	89.139
Time:	9.766	Roll Set Point:	-0.225	Pitch Set Point:	-0.072	Yaw Set Point:	-2.958	X_WP:	0.225	Y_WP:	0.060	Y_WP:	0.500	X:	0.163	Y:	0.069	Z:	0.401	yaw:	169.492	yaw rate:	0.676	Roll:	1.185	Pitch:	-0.756	Yaw:	239.839	Thrust:	89.461
Time:	9.797	Roll Set Point:	-0.225	Pitch Set Point:	-0.072	Yaw Set Point:	-2.958	X_WP:	0.225	Y_WP:	0.060	Y_WP:	0.500	X:	0.163	Y:	0.069	Z:	0.401	yaw:	169.478	yaw rate:	-1.453	Roll:	1.190	Pitch:	-0.741	Yaw:	239.638	Thrust:	89.850
Time:	9.828	Roll Set Point:	-0.225	Pitch Set Point:	-0.072	Yaw Set Point:	-2.958	X_WP:	0.225	Y_WP:	0.060	Y_WP:	0.500	X:	0.163	Y:	0.069	Z:	0.401	yaw:	169.473	yaw rate:	0.044	Roll:	1.194	Pitch:	-0.748	Yaw:	239.718	Thrust:	90.133
Time:	9.860	Roll Set Point:	-0.225	Pitch Set Point:	-0.072	Yaw Set Point:	-2.958	X_WP:	0.225	Y_WP:	0.060	Y_WP:	0.500	X:	0.163	Y:	0.069	Z:	0.401	yaw:	169.475	yaw rate:	0.172	Roll:	1.200	Pitch:	-0.752	Yaw:	239.775	Thrust:	90.696
Time:	9.891	Roll Set Point:	-0.225	Pitch Set Point:	-0.072	Yaw Set Point:	-2.958	X_WP:	0.225	Y_WP:	0.060	Y_WP:	0.500	X:	0.163	Y:	0.069	Z:	0.401	yaw:	169.482	yaw rate:	0.634	Roll:	1.206	Pitch:	-0.753	Yaw:	239.820	Thrust:	90.879
Time:	9.922	Roll Set Point:	-0.225	Pitch Set Point:	-0.072	Yaw Set Point:	-2.958	X_WP:	0.225	Y_WP:	0.060	Y_WP:	0.500	X:	0.163	Y:	0.069	Z:	0.401	yaw:	169.476	yaw rate:	-1.002	Roll:	1.208	Pitch:	-0.746	Yaw:	239.713	Thrust:	91.292
Time:	9.968	Roll Set Point:	-0.225	Pitch Set Point:	-0.072	Yaw Set Point:	-2.958	X_WP:	0.225	Y_WP:	0.060	Y_WP:	0.500	X:	0.163	Y:	0.069	Z:	0.401	yaw:	169.481	yaw rate:	0.477	Roll:	0.934	Pitch:	-1.147	Yaw:	241.279	Thrust:	100.000
Time:	10.015	Roll Set Point:	-0.225	Pitch Set Point:	-0.072	Yaw Set Point:	-2.958	X_WP:	0.225	Y_WP:	0.060	Y_WP:	0.500	X:	0.163	Y:	0.069	Z:	0.401	yaw:	169.469	yaw rate:	-1.220	Roll:	0.925	Pitch:	-1.160	Yaw:	241.242	Thrust:	100.000
Time:	10.046	Roll Set Point:	-0.225	Pitch Set Point:	-0.072	Yaw Set Point:	-2.958	X_WP:	0.225	Y_WP:	0.060	Y_WP:	0.500	X:	0.163	Y:	0.069	Z:	0.401	yaw:	169.480	yaw rate:	1.098	Roll:	1.225	Pitch:	-0.755	Yaw:	239.857	Thrust:	92.512
Time:	10.077	Roll Set Point:	-0.225	Pitch Set Point:	-0.072	Yaw Set Point:	-2.958	X_WP:	0.225	Y_WP:	0.060	Y_WP:	0.500	X:	0.163	Y:	0.069	Z:	0.401	yaw:	169.468	yaw rate:	-2.457	Roll:	1.229	Pitch:	-0.741	Yaw:	239.645	Thrust:	92.702
Time:	10.109	Roll Set Point:	-0.225	Pitch Set Point:	-0.072	Yaw Set Point:	-2.958	X_WP:	0.225	Y_WP:	0.060	Y_WP:	0.500	X:	0.163	Y:	0.069	Z:	0.401	yaw:	169.473	yaw rate:	0.555	Roll:	1.234	Pitch:	-0.752	Yaw:	239.801	Thrust:	93.225
Time:	10.140	Roll Set Point:	-0.225	Pitch Set Point:	-0.072	Yaw Set Point:	-2.958	X_WP:	0.225	Y_WP:	0.060	Y_WP:	0.500	X:	0.163	Y:	0.069	Z:	0.401	yaw:	169.474	yaw rate:	0.116	Roll:	1.239	Pitch:	-0.749	Yaw:	239.766	Thrust:	93.533
Time:	10.171	Roll Set Point:	-0.225	Pitch Set Point:	-0.072	Yaw Set Point:	-2.958	X_WP:	0.225	Y_WP:	0.060	Y_WP:	0.500	X:	0.163	Y:	0.069	Z:	0.401	yaw:	169.486	yaw rate:	-0.413	Roll:	1.243	Pitch:	-0.755	Yaw:	239.866	Thrust:	93.937
Time:	10.203	Roll Set Point:	-0.225	Pitch Set Point:	-0.072	Yaw Set Point:	-2.958	X_WP:	0.225	Y_WP:	0.060	Y_WP:	0.500	X:	0.163	Y:	0.069	Z:	0.401	yaw:	169.483	yaw rate:	-0.253	Roll:	1.249	Pitch:	-0.747	Yaw:	239.747	Thrust:	94.269
Time:	10.234	Roll Set Point:	-0.225	Pitch Set Point:	-0.072	Yaw Set Point:	-2.958	X_WP:	0.225	Y_WP:	0.060	Y_WP:	0.500	X:	0.163	Y:	0.069	Z:	0.401	yaw:	169.485	yaw rate:	0.222	Roll:	1.254	Pitch:	-0.749	Yaw:	239.790	Thrust:	94.660
Time:	10.265	Roll Set Point:	-0.225	Pitch Set Point:	-0.072	Yaw Set Point:	-2.958	X_WP:	0.225	Y_WP:	0.060	Y_WP:	0.500	X:	0.163	Y:	0.069	Z:	0.401	yaw:	169.477	yaw rate:	-0.367	Roll:	1.258	Pitch:	-0.741	Yaw:	239.687	Thrust:	95.033
Time:	10.296	Roll Set Point:	-0.225	Pitch Set Point:	-0.072	Yaw Set Point:	-2.958	X_WP:	0.225	Y_WP:	0.060	Y_WP:	0.500	X:	0.163	Y:	0.069	Z:	0.401	yaw:	169.477	yaw rate:	0.060	Roll:	1.263	Pitch:	-0.748	Yaw:	239.765	Thrust:	95.416
Time:	10.328	Roll Set Point:	-0.225	Pitch Set Point:	-0.072	Yaw Set Point:	-2.958	X_WP:	0.225	Y_WP:	0.060	Y_WP:	0.500	X:	0.163	Y:	0.069	Z:	0.401	yaw:	169.476	yaw rate:	-0.111	Roll:	1.268	Pitch:	-0.746	Yaw:	239.750	Thrust:	95.793
Time:	10.359	Roll Set Point:	-0.225	Pitch Set Point:	-0.072	Yaw Set Point:	-2.958	X_WP:	0.225	Y_WP:	0.060	Y_WP:	0.500	X:	0.163	Y:	0.069	Z:	0.401	yaw:	169.481	yaw rate:	0.452	Roll:	1.273	Pitch:	-0.749	Yaw:	239.803	Thrust:	96.105
Time:	10.390	Roll Set Point:	-0.225	Pitch Set Point:	-0.072	Yaw Set Point:	-2.958	X_WP:	0.225	Y_WP:	0.060	Y_WP:	0.500	X:	0.163	Y:	0.069	Z:	0.401	yaw:	169.498	yaw rate:	2.457	Roll:	1.278	Pitch:	-0.758	Yaw:	239.938	Thrust:	96.661
Time:	10.421	Roll Set Point:	-0.225	Pitch Set Point:	-0.072	Yaw Set Point:	-2.958	X_WP:	0.225	Y_WP:	0.060	Y_WP:	0.500	X:	0.163	Y:	0.069	Z:	0.401	yaw:	169.485	yaw rate:	-1.268	Roll:	1.281	Pitch:	-0.739	Yaw:	239.665	Thrust:	96.853
Time:	10.453	Roll Set Point:	-0.225	Pitch Set Point:	-0.072	Yaw Set Point:	-2.958	X_WP:	0.225	Y_WP:	0.060	Y_WP:	0.500	X:	0.163	Y:	0.069	Z:	0.401	yaw:	169.489	yaw rate:	0.359	Roll:	1.287	Pitch:	-0.747	Yaw:	239.805	Thrust:	97.216
Time:	10.484	Roll Set Point:	-0.225	Pitch Set Point:	-0.072	Yaw Set Point:	-2.958	X_WP:	0.225	Y_WP:	0.060	Y_WP:	0.500	X:	0.163	Y:	0.069	Z:	0.401	yaw:	169.474	yaw rate:	-1.468	Roll:	1.293	Pitch:	-0.737	Yaw:	239.633	Thrust:	97.593
Time:	10.515	Roll Set Point:	-0.225	Pitch Set Point:	-0.072	Yaw Set Point:	-2.958	X_WP:	0.225	Y_WP:	0.060	Y_WP:	0.500	X:	0.163	Y:	0.069	Z:	0.401	yaw:	169.495	yaw rate:	2.062	Roll:	1.298	Pitch:	-0.759	Yaw:	239.961	Thrust:	98.104
Time:	10.546	Roll Set Point:	-0.225	Pitch Set Point:	-0.072	Yaw Set Point:	-2.958	X_WP:	0.225	Y_WP:	0.060	Y_WP:	0.500	X:	0.163	Y:	0.069	Z:	0.401	yaw:	169.483	yaw rate:	-1.222	Roll:	1.304	Pitch:	-0.737	Yaw:	239.662	Thrust:	98.295
Time:	10.578	Roll Set Point:	-0.225	Pitch Set Point:	-0.072	Yaw Set Point:	-2.958	X_WP:	0.225	Y_WP:	0.060	Y_WP:	0.500	X:	0.163	Y:	0.069	Z:	0.401	yaw:	169.493	yaw rate:	1.011	Roll:	1.307	Pitch:	-0.752	Yaw:	239.867	Thrust:	98.772
Time:	10.609	Roll Set Point:	-0.225	Pitch Set Point:	-0.072	Yaw Set Point:	-2.958	X_WP:	0.225	Y_WP:	0.060	Y_WP:	0.500	X:	0.163	Y:	0.069	Z:	0.401	yaw:	169.459	yaw rate:	-3.387	Roll:	1.311	Pitch:	-0.724	Yaw:	239.451	Thrust:	99.115
Time:	10.640	Roll Set Point:	-0.225	Pitch Set Point:	-0.072	Yaw Set Point:	-2.958	X_WP:	0.225	Y_WP:	0.060	Y_WP:	0.500	X:	0.163	Y:	0.069	Z:	0.401	yaw:	169.497	yaw rate:	3.825	Roll:	1.318	Pitch:	-0.768	Yaw:	240.109	Thrust:	99.495
Time:	10.671	Roll Set Point:	-0.225	Pitch Set Point:	-0.072	Yaw Set Point:	-2.958	X_WP:	0.225	Y_WP:	0.060	Y_WP:	0.500	X:	0.163	Y:	0.069	Z:	0.401	yaw:	169.479	yaw rate:	-1.843	Roll:	1.321	Pitch:	-0.734	Yaw:	239.611	Thrust:	99.921
Time:	10.703	Roll Set Point:	-0.225	Pitch Set Point:	-0.072	Yaw Set Point:	-2.958	X_WP:	0.225	Y_WP:	0.060	Y_WP:	0.500	X:	0.163	Y:	0.069	Z:	0.401	yaw:	169.482	yaw rate:	0.399	Roll:	1.327	Pitch:	-0.745	Yaw:	239.788	Thrust:	100.000
Time:	10.734	Roll Set Point:	-0.225	Pitch Set Point:	-0.072	Yaw Set Point:	-2.958	X_WP:	0.225	Y_WP:	0.060	Y_WP:	0.500	X:	0.163	Y:	0.069	Z:	0.401	yaw:	169.469	yaw rate:	-2.019	Roll:	1.330	Pitch:	-0.737	Yaw:	239.649	Thrust:	100.000
Time:	10.765	Roll Set Point:	-0.225	Pitch Set Point:	-0.072	Yaw Set Point:	-2.958	X_WP:	0.225	Y_WP:	0.060	Y_WP:	0.500	X:	0.163	Y:	0.069	Z:	0.401	yaw:	169.477	yaw rate:	-1.205	Roll:	1.337	Pitch:	-0.747	Yaw:	239.819	Thrust:	100.000
Time:	10.812	Roll Set Point:	-0.225	Pitch Set Point:	-0.072	Yaw Set Point:	-2.958	X_WP:	0.225	Y_WP:	0.060	Y_WP:	0.500	X:	0.163	Y:	0.069	Z:	0.401	yaw:	169.490	yaw rate:	2.884	Roll:	1.108	Pitch:	-1.163	Yaw:	241.413	Thrust:	100.000
Time:	10.843	Roll Set Point:	-0.225	Pitch Set Point:	-0.072	Yaw Set Point:	-2.958	X_WP:	0.225	Y_WP:	0.060	Y_WP:	0.500	X:	0.163	Y:	0.069	Z:	0.401	yaw:	169.487	yaw rate:	-0.265	Roll:	1.346	Pitch:	-0.741	Yaw:	239.753	Thrust:	100.000
Time:	10.874	Roll Set Point:	-0.225	Pitch Set Point:	-0.072	Yaw Set Point:	-2.958	X_WP:	0.225	Y_WP:	0.060	Y_WP:	0.500	X:	0.163	Y:	0.069	Z:	0.401	yaw:	169.487	yaw rate:	-0.042	Roll:	1.352	Pitch:	-0.743	Yaw:	239.769	Thrust:	100.000
Time:	10.906	Roll Set Point:	-0.225	Pitch Set Point:	-0.072	Yaw Set Point:	-2.958	X_WP:	0.225	Y_WP:	0.060	Y_WP:	0.500	X:	0.163	Y:	0.069	Z:	0.401	yaw:	169.482	yaw rate:	-0.463	Roll:	1.354	Pitch:	-0.740	Yaw:	239.728	Thrust:	100.000
Time:	10.938	Roll Set Point:	-0.225	Pitch Set Point:	-0.072	Yaw Set Point:	-2.958	X_WP:	0.225	Y_WP:	0.060	Y_WP:	0.500	X:	0.163	Y:	0.069	Z:	0.401	yaw:	169.488	yaw rate:	0.569	Roll:	1.362	Pitch:	-0.747	Yaw:	239.927	Thrust:	100.000
