Time:	2.036	Roll Set Point:	0.087	Pitch Set Point:	-0.096	Yaw Set Point:	-0.048	X_WP:	0.100	Y_WP:	0.000	Y_WP:	0.500	X:	0.005	Y:	0.046	Z:	0.049	yaw:	2.745	yaw rate:	1.731	Roll:	-2.683	Pitch:	1.451	Yaw:	3.833	Thrust:	24.798
Time:	2.047	Roll Set Point:	0.087	Pitch Set Point:	-0.096	Yaw Set Point:	-0.048	X_WP:	0.100	Y_WP:	0.000	Y_WP:	0.500	X:	0.005	Y:	0.046	Z:	0.049	yaw:	2.748	yaw rate:	4.210	Roll:	-2.656	Pitch:	1.440	Yaw:	3.914	Thrust:	25.322
Time:	2.061	Roll Set Point:	0.087	Pitch Set Point:	-0.095	Yaw Set Point:	-0.047	X_WP:	0.100	Y_WP:	0.000	Y_WP:	0.500	X:	0.005	Y:	0.046	Z:	0.049	yaw:	2.699	yaw rate:	-4.897	Roll:	-2.715	Pitch:	1.358	Yaw:	2.916	Thrust:	26.403
Time:	2.073	Roll Set Point:	0.087	Pitch Set Point:	-0.096	Yaw Set Point:	-0.047	X_WP:	0.100	Y_WP:	0.000	Y_WP:	0.500	X:	0.005	Y:	0.046	Z:	0.049	yaw:	2.706	yaw rate:	0.692	Roll:	-2.824	Pitch:	1.580	Yaw:	3.968	Thrust:	27.192
Time:	2.090	Roll Set Point:	0.088	Pitch Set Point:	-0.095	Yaw Set Point:	-0.040	X_WP:	0.100	Y_WP:	0.000	Y_WP:	0.500	X:	0.005	Y:	0.045	Z:	0.049	yaw:	2.298	yaw rate:	-40.822	Roll:	-3.064	Pitch:	0.561	Yaw:	-3.045	Thrust:	29.265
Time:	2.103	Roll Set Point:	0.087	Pitch Set Point:	-0.095	Yaw Set Point:	-0.046	X_WP:	0.100	Y_WP:	0.000	Y_WP:	0.500	X:	0.005	Y:	0.046	Z:	0.049	yaw:	2.662	yaw rate:	-4.754	Roll:	-2.261	Pitch:	2.437	Yaw:	11.378	Thrust:	27.286
Time:	2.119	Roll Set Point:	0.088	Pitch Set Point:	-0.095	Yaw Set Point:	-0.046	X_WP:	0.100	Y_WP:	0.000	Y_WP:	0.500	X:	0.005	Y:	0.046	Z:	0.049	yaw:	2.608	yaw rate:	-5.465	Roll:	-2.768	Pitch:	1.248	Yaw:	2.793	Thrust:	28.428
Time:	2.132	Roll Set Point:	0.087	Pitch Set Point:	-0.095	Yaw Set Point:	-0.047	X_WP:	0.100	Y_WP:	0.000	Y_WP:	0.500	X:	0.005	Y:	0.046	Z:	0.049	yaw:	2.687	yaw rate:	7.934	Roll:	-2.547	Pitch:	1.592	Yaw:	5.330	Thrust:	30.919
Time:	2.143	Roll Set Point:	0.088	Pitch Set Point:	-0.095	Yaw Set Point:	-0.042	X_WP:	0.100	Y_WP:	0.000	Y_WP:	0.500	X:	0.005	Y:	0.045	Z:	0.049	yaw:	2.433	yaw rate:	-16.792	Roll:	-3.363	Pitch:	0.752	Yaw:	-2.291	Thrust:	29.703
Time:	2.155	Roll Set Point:	0.088	Pitch Set Point:	-0.095	Yaw Set Point:	-0.044	X_WP:	0.100	Y_WP:	0.000	Y_WP:	0.500	X:	0.005	Y:	0.045	Z:	0.049	yaw:	2.523	yaw rate:	9.061	Roll:	-2.660	Pitch:	1.638	Yaw:	5.593	Thrust:	32.163
Time:	2.168	Roll Set Point:	0.087	Pitch Set Point:	-0.096	Yaw Set Point:	-0.052	X_WP:	0.100	Y_WP:	0.000	Y_WP:	0.500	X:	0.005	Y:	0.046	Z:	0.049	yaw:	2.986	yaw rate:	46.303	Roll:	-2.014	Pitch:	2.639	Yaw:	13.941	Thrust:	30.816
Time:	2.182	Roll Set Point:	0.087	Pitch Set Point:	-0.095	Yaw Set Point:	-0.047	X_WP:	0.100	Y_WP:	0.000	Y_WP:	0.500	X:	0.005	Y:	0.046	Z:	0.049	yaw:	2.710	yaw rate:	-27.632	Roll:	-2.833	Pitch:	0.844	Yaw:	-1.687	Thrust:	31.819
Time:	2.195	Roll Set Point:	0.088	Pitch Set Point:	-0.096	Yaw Set Point:	-0.046	X_WP:	0.100	Y_WP:	0.000	Y_WP:	0.500	X:	0.005	Y:	0.046	Z:	0.049	yaw:	2.638	yaw rate:	-7.197	Roll:	-2.952	Pitch:	1.418	Yaw:	2.383	Thrust:	33.811
Time:	2.206	Roll Set Point:	0.088	Pitch Set Point:	-0.095	Yaw Set Point:	-0.040	X_WP:	0.100	Y_WP:	0.000	Y_WP:	0.500	X:	0.005	Y:	0.045	Z:	0.049	yaw:	2.267	yaw rate:	-37.057	Roll:	-3.129	Pitch:	0.255	Yaw:	-4.749	Thrust:	33.787
Time:	2.222	Roll Set Point:	0.088	Pitch Set Point:	-0.095	Yaw Set Point:	-0.042	X_WP:	0.100	Y_WP:	0.000	Y_WP:	0.500	X:	0.005	Y:	0.045	Z:	0.049	yaw:	2.379	yaw rate:	11.147	Roll:	-2.754	Pitch:	1.797	Yaw:	5.397	Thrust:	36.191
Time:	2.234	Roll Set Point:	0.088	Pitch Set Point:	-0.095	Yaw Set Point:	-0.045	X_WP:	0.100	Y_WP:	0.000	Y_WP:	0.500	X:	0.005	Y:	0.046	Z:	0.049	yaw:	2.590	yaw rate:	18.779	Roll:	-2.431	Pitch:	2.009	Yaw:	8.044	Thrust:	35.605
Time:	2.245	Roll Set Point:	0.088	Pitch Set Point:	-0.095	Yaw Set Point:	-0.046	X_WP:	0.100	Y_WP:	0.000	Y_WP:	0.500	X:	0.005	Y:	0.046	Z:	0.049	yaw:	2.616	yaw rate:	2.557	Roll:	-2.868	Pitch:	1.405	Yaw:	4.419	Thrust:	33.952
Time:	2.259	Roll Set Point:	0.087	Pitch Set Point:	-0.095	Yaw Set Point:	-0.047	X_WP:	0.100	Y_WP:	0.000	Y_WP:	0.500	X:	0.005	Y:	0.046	Z:	0.049	yaw:	2.691	yaw rate:	7.546	Roll:	-2.497	Pitch:	1.613	Yaw:	5.380	Thrust:	36.541
Time:	2.271	Roll Set Point:	0.088	Pitch Set Point:	-0.095	Yaw Set Point:	-0.044	X_WP:	0.100	Y_WP:	0.000	Y_WP:	0.500	X:	0.005	Y:	0.046	Z:	0.049	yaw:	2.533	yaw rate:	-15.793	Roll:	-2.999	Pitch:	1.180	Yaw:	0.138	Thrust:	37.518
Time:	2.291	Roll Set Point:	0.088	Pitch Set Point:	-0.095	Yaw Set Point:	-0.042	X_WP:	0.100	Y_WP:	0.000	Y_WP:	0.500	X:	0.005	Y:	0.046	Z:	0.049	yaw:	2.426	yaw rate:	-10.693	Roll:	-2.951	Pitch:	1.287	Yaw:	2.340	Thrust:	45.055
Time:	2.304	Roll Set Point:	0.088	Pitch Set Point:	-0.094	Yaw Set Point:	-0.039	X_WP:	0.100	Y_WP:	0.000	Y_WP:	0.500	X:	0.005	Y:	0.045	Z:	0.049	yaw:	2.234	yaw rate:	-19.259	Roll:	-2.994	Pitch:	0.784	Yaw:	-0.853	Thrust:	39.178
Time:	2.317	Roll Set Point:	0.088	Pitch Set Point:	-0.095	Yaw Set Point:	-0.046	X_WP:	0.100	Y_WP:	0.000	Y_WP:	0.500	X:	0.005	Y:	0.045	Z:	0.049	yaw:	2.613	yaw rate:	37.920	Roll:	-2.119	Pitch:	2.581	Yaw:	11.505	Thrust:	37.868
Time:	2.332	Roll Set Point:	0.088	Pitch Set Point:	-0.095	Yaw Set Point:	-0.046	X_WP:	0.100	Y_WP:	0.000	Y_WP:	0.500	X:	0.005	Y:	0.045	Z:	0.049	yaw:	2.614	yaw rate:	29.457	Roll:	-2.800	Pitch:	1.479	Yaw:	3.984	Thrust:	44.807
Time:	2.343	Roll Set Point:	0.088	Pitch Set Point:	-0.095	Yaw Set Point:	-0.044	X_WP:	0.100	Y_WP:	0.000	Y_WP:	0.500	X:	0.005	Y:	0.045	Z:	0.049	yaw:	2.544	yaw rate:	-7.028	Roll:	-2.905	Pitch:	1.163	Yaw:	2.112	Thrust:	39.247
Time:	2.356	Roll Set Point:	0.088	Pitch Set Point:	-0.095	Yaw Set Point:	-0.047	X_WP:	0.100	Y_WP:	0.000	Y_WP:	0.500	X:	0.005	Y:	0.045	Z:	0.049	yaw:	2.714	yaw rate:	17.043	Roll:	-2.654	Pitch:	1.633	Yaw:	7.619	Thrust:	40.825
Time:	2.369	Roll Set Point:	0.088	Pitch Set Point:	-0.095	Yaw Set Point:	-0.047	X_WP:	0.100	Y_WP:	0.000	Y_WP:	0.500	X:	0.005	Y:	0.045	Z:	0.049	yaw:	2.681	yaw rate:	-28.289	Roll:	-2.757	Pitch:	1.447	Yaw:	3.352	Thrust:	41.308
Time:	2.379	Roll Set Point:	0.088	Pitch Set Point:	-0.096	Yaw Set Point:	-0.053	X_WP:	0.100	Y_WP:	0.000	Y_WP:	0.500	X:	0.005	Y:	0.045	Z:	0.049	yaw:	3.062	yaw rate:	38.114	Roll:	-2.328	Pitch:	2.427	Yaw:	13.812	Thrust:	41.227
Time:	2.392	Roll Set Point:	0.087	Pitch Set Point:	-0.096	Yaw Set Point:	-0.056	X_WP:	0.100	Y_WP:	0.000	Y_WP:	0.500	X:	0.005	Y:	0.045	Z:	0.049	yaw:	3.217	yaw rate:	15.499	Roll:	-2.369	Pitch:	1.694	Yaw:	7.926	Thrust:	41.669
Time:	2.403	Roll Set Point:	0.087	Pitch Set Point:	-0.095	Yaw Set Point:	-0.054	X_WP:	0.100	Y_WP:	0.000	Y_WP:	0.500	X:	0.005	Y:	0.045	Z:	0.049	yaw:	3.117	yaw rate:	-9.979	Roll:	-2.950	Pitch:	1.148	Yaw:	2.268	Thrust:	43.466
Time:	2.424	Roll Set Point:	0.087	Pitch Set Point:	-0.095	Yaw Set Point:	-0.052	X_WP:	0.100	Y_WP:	0.000	Y_WP:	0.500	X:	0.005	Y:	0.045	Z:	0.049	yaw:	2.978	yaw rate:	-13.883	Roll:	-2.909	Pitch:	1.304	Yaw:	2.965	Thrust:	55.292
Time:	2.435	Roll Set Point:	0.088	Pitch Set Point:	-0.095	Yaw Set Point:	-0.048	X_WP:	0.100	Y_WP:	0.000	Y_WP:	0.500	X:	0.005	Y:	0.045	Z:	0.049	yaw:	2.755	yaw rate:	-22.292	Roll:	-3.163	Pitch:	0.949	Yaw:	-1.401	Thrust:	44.029
Time:	2.446	Roll Set Point:	0.088	Pitch Set Point:	-0.094	Yaw Set Point:	-0.048	X_WP:	0.100	Y_WP:	0.000	Y_WP:	0.500	X:	0.005	Y:	0.045	Z:	0.049	yaw:	2.725	yaw rate:	-12.760	Roll:	-3.044	Pitch:	1.079	Yaw:	3.438	Thrust:	43.739
Time:	2.459	Roll Set Point:	0.088	Pitch Set Point:	-0.094	Yaw Set Point:	-0.050	X_WP:	0.100	Y_WP:	0.000	Y_WP:	0.500	X:	0.005	Y:	0.045	Z:	0.049	yaw:	2.880	yaw rate:	15.517	Roll:	-2.649	Pitch:	1.889	Yaw:	7.630	Thrust:	47.909
Time:	2.470	Roll Set Point:	0.088	Pitch Set Point:	-0.094	Yaw Set Point:	-0.047	X_WP:	0.100	Y_WP:	0.000	Y_WP:	0.500	X:	0.005	Y:	0.045	Z:	0.049	yaw:	2.699	yaw rate:	-18.115	Roll:	-2.984	Pitch:	0.991	Yaw:	0.012	Thrust:	44.507
Time:	2.488	Roll Set Point:	0.089	Pitch Set Point:	-0.093	Yaw Set Point:	-0.043	X_WP:	0.100	Y_WP:	0.000	Y_WP:	0.500	X:	0.005	Y:	0.045	Z:	0.049	yaw:	2.462	yaw rate:	-23.637	Roll:	-3.220	Pitch:	0.830	Yaw:	-0.046	Thrust:	52.064
Time:	2.501	Roll Set Point:	0.089	Pitch Set Point:	-0.093	Yaw Set Point:	-0.045	X_WP:	0.100	Y_WP:	0.000	Y_WP:	0.500	X:	0.005	Y:	0.045	Z:	0.049	yaw:	2.563	yaw rate:	-52.494	Roll:	-2.793	Pitch:	1.470	Yaw:	5.775	Thrust:	55.959
Time:	2.514	Roll Set Point:	0.089	Pitch Set Point:	-0.093	Yaw Set Point:	-0.040	X_WP:	0.100	Y_WP:	0.000	Y_WP:	0.500	X:	0.005	Y:	0.044	Z:	0.049	yaw:	2.306	yaw rate:	-25.696	Roll:	-3.311	Pitch:	0.766	Yaw:	-1.909	Thrust:	48.768
Time:	2.529	Roll Set Point:	0.089	Pitch Set Point:	-0.093	Yaw Set Point:	-0.046	X_WP:	0.100	Y_WP:	0.000	Y_WP:	0.500	X:	0.005	Y:	0.045	Z:	0.049	yaw:	2.626	yaw rate:	32.025	Roll:	-2.492	Pitch:	2.133	Yaw:	9.559	Thrust:	55.604
Time:	2.541	Roll Set Point:	0.089	Pitch Set Point:	-0.092	Yaw Set Point:	-0.043	X_WP:	0.100	Y_WP:	0.000	Y_WP:	0.500	X:	0.005	Y:	0.044	Z:	0.049	yaw:	2.436	yaw rate:	-19.077	Roll:	-3.177	Pitch:	0.517	Yaw:	-0.525	Thrust:	47.579
Time:	2.558	Roll Set Point:	0.088	Pitch Set Point:	-0.093	Yaw Set Point:	-0.047	X_WP:	0.100	Y_WP:	0.000	Y_WP:	0.500	X:	0.005	Y:	0.044	Z:	0.049	yaw:	2.719	yaw rate:	28.350	Roll:	-2.462	Pitch:	2.143	Yaw:	8.776	Thrust:	59.340
Time:	2.570	Roll Set Point:	0.088	Pitch Set Point:	-0.093	Yaw Set Point:	-0.048	X_WP:	0.100	Y_WP:	0.000	Y_WP:	0.500	X:	0.005	Y:	0.044	Z:	0.049	yaw:	2.759	yaw rate:	7.813	Roll:	-2.696	Pitch:	1.338	Yaw:	5.153	Thrust:	51.586
Time:	2.581	Roll Set Point:	0.088	Pitch Set Point:	-0.092	Yaw Set Point:	-0.045	X_WP:	0.100	Y_WP:	0.000	Y_WP:	0.500	X:	0.005	Y:	0.044	Z:	0.049	yaw:	2.558	yaw rate:	-20.066	Roll:	-2.792	Pitch:	0.808	Yaw:	-1.279	Thrust:	48.173
Time:	2.594	Roll Set Point:	0.088	Pitch Set Point:	-0.093	Yaw Set Point:	-0.050	X_WP:	0.100	Y_WP:	0.000	Y_WP:	0.500	X:	0.005	Y:	0.044	Z:	0.049	yaw:	2.880	yaw rate:	32.173	Roll:	-2.379	Pitch:	2.010	Yaw:	10.989	Thrust:	53.816
Time:	2.604	Roll Set Point:	0.087	Pitch Set Point:	-0.092	Yaw Set Point:	-0.049	X_WP:	0.100	Y_WP:	0.000	Y_WP:	0.500	X:	0.005	Y:	0.044	Z:	0.050	yaw:	2.781	yaw rate:	-9.852	Roll:	-2.519	Pitch:	1.124	Yaw:	2.106	Thrust:	50.248
Time:	2.620	Roll Set Point:	0.087	Pitch Set Point:	-0.093	Yaw Set Point:	-0.053	X_WP:	0.100	Y_WP:	0.000	Y_WP:	0.500	X:	0.005	Y:	0.044	Z:	0.050	yaw:	3.038	yaw rate:	25.715	Roll:	-2.148	Pitch:	1.894	Yaw:	9.462	Thrust:	56.520
Time:	2.636	Roll Set Point:	0.085	Pitch Set Point:	-0.092	Yaw Set Point:	-0.051	X_WP:	0.100	Y_WP:	0.000	Y_WP:	0.500	X:	0.006	Y:	0.044	Z:	0.051	yaw:	2.907	yaw rate:	17.256	Roll:	-2.143	Pitch:	1.019	Yaw:	2.746	Thrust:	64.677
Time:	2.650	Roll Set Point:	0.084	Pitch Set Point:	-0.091	Yaw Set Point:	-0.049	X_WP:	0.100	Y_WP:	0.000	Y_WP:	0.500	X:	0.007	Y:	0.043	Z:	0.051	yaw:	2.833	yaw rate:	-7.436	Roll:	-2.408	Pitch:	0.966	Yaw:	3.171	Thrust:	59.515
Time:	2.669	Roll Set Point:	0.083	Pitch Set Point:	-0.091	Yaw Set Point:	-0.053	X_WP:	0.100	Y_WP:	0.000	Y_WP:	0.500	X:	0.007	Y:	0.043	Z:	0.051	yaw:	3.014	yaw rate:	18.118	Roll:	-2.170	Pitch:	1.687	Yaw:	7.576	Thrust:	71.032
Time:	2.680	Roll Set Point:	0.081	Pitch Set Point:	-0.091	Yaw Set Point:	-0.054	X_WP:	0.100	Y_WP:	0.000	Y_WP:	0.500	X:	0.008	Y:	0.043	Z:	0.052	yaw:	3.090	yaw rate:	33.339	Roll:	-1.049	Pitch:	1.219	Yaw:	6.557	Thrust:	52.141
Time:	2.694	Roll Set Point:	0.080	Pitch Set Point:	-0.090	Yaw Set Point:	-0.050	X_WP:	0.100	Y_WP:	0.000	Y_WP:	0.500	X:	0.009	Y:	0.043	Z:	0.052	yaw:	2.872	yaw rate:	-21.853	Roll:	-2.313	Pitch:	0.962	Yaw:	0.435	Thrust:	60.197
Time:	2.705	Roll Set Point:	0.078	Pitch Set Point:	-0.091	Yaw Set Point:	-0.057	X_WP:	0.100	Y_WP:	0.000	Y_WP:	0.500	X:	0.010	Y:	0.043	Z:	0.053	yaw:	3.277	yaw rate:	40.493	Roll:	-1.037	Pitch:	2.231	Yaw:	14.308	Thrust:	52.982
Time:	2.720	Roll Set Point:	0.076	Pitch Set Point:	-0.090	Yaw Set Point:	-0.056	X_WP:	0.100	Y_WP:	0.000	Y_WP:	0.500	X:	0.011	Y:	0.043	Z:	0.053	yaw:	3.194	yaw rate:	-8.310	Roll:	-1.555	Pitch:	1.042	Yaw:	3.665	Thrust:	61.116
Time:	2.733	Roll Set Point:	0.073	Pitch Set Point:	-0.090	Yaw Set Point:	-0.057	X_WP:	0.100	Y_WP:	0.000	Y_WP:	0.500	X:	0.012	Y:	0.042	Z:	0.054	yaw:	3.278	yaw rate:	8.438	Roll:	-0.642	Pitch:	1.147	Yaw:	6.905	Thrust:	60.445
Time:	2.744	Roll Set Point:	0.068	Pitch Set Point:	-0.089	Yaw Set Point:	-0.055	X_WP:	0.100	Y_WP:	0.000	Y_WP:	0.500	X:	0.015	Y:	0.042	Z:	0.056	yaw:	3.126	yaw rate:	-28.500	Roll:	0.767	Pitch:	0.369	Yaw:	1.325	Thrust:	49.878
Time:	2.759	Roll Set Point:	0.066	Pitch Set Point:	-0.089	Yaw Set Point:	-0.060	X_WP:	0.100	Y_WP:	0.000	Y_WP:	0.500	X:	0.016	Y:	0.042	Z:	0.057	yaw:	3.447	yaw rate:	32.045	Roll:	-0.625	Pitch:	1.948	Yaw:	11.490	Thrust:	61.970
Time:	2.770	Roll Set Point:	0.063	Pitch Set Point:	-0.089	Yaw Set Point:	-0.065	X_WP:	0.100	Y_WP:	0.000	Y_WP:	0.500	X:	0.017	Y:	0.042	Z:	0.058	yaw:	3.696	yaw rate:	24.952	Roll:	-0.664	Pitch:	1.606	Yaw:	11.438	Thrust:	55.135
Time:	2.782	Roll Set Point:	0.061	Pitch Set Point:	-0.088	Yaw Set Point:	-0.056	X_WP:	0.100	Y_WP:	0.000	Y_WP:	0.500	X:	0.018	Y:	0.042	Z:	0.059	yaw:	3.190	yaw rate:	-50.684	Roll:	-1.103	Pitch:	0.034	Yaw:	-6.979	Thrust:	53.483
Time:	2.794	Roll Set Point:	0.058	Pitch Set Point:	-0.087	Yaw Set Point:	-0.054	X_WP:	0.100	Y_WP:	0.000	Y_WP:	0.500	X:	0.020	Y:	0.042	Z:	0.060	yaw:	3.078	yaw rate:	-11.176	Roll:	-0.738	Pitch:	0.834	Yaw:	2.772	Thrust:	60.104
Time:	2.805	Roll Set Point:	0.055	Pitch Set Point:	-0.088	Yaw Set Point:	-0.060	X_WP:	0.100	Y_WP:	0.000	Y_WP:	0.500	X:	0.021	Y:	0.042	Z:	0.061	yaw:	3.411	yaw rate:	33.370	Roll:	0.271	Pitch:	2.039	Yaw:	12.985	Thrust:	53.645
Time:	2.822	Roll Set Point:	0.052	Pitch Set Point:	-0.088	Yaw Set Point:	-0.063	X_WP:	0.100	Y_WP:	0.000	Y_WP:	0.500	X:	0.023	Y:	0.042	Z:	0.063	yaw:	3.617	yaw rate:	20.535	Roll:	0.006	Pitch:	1.482	Yaw:	9.219	Thrust:	67.982
Time:	2.835	Roll Set Point:	0.042	Pitch Set Point:	-0.086	Yaw Set Point:	-0.058	X_WP:	0.100	Y_WP:	0.000	Y_WP:	0.500	X:	0.028	Y:	0.041	Z:	0.067	yaw:	3.298	yaw rate:	-9.695	Roll:	2.543	Pitch:	0.350	Yaw:	-1.012	Thrust:	60.079
Time:	2.846	Roll Set Point:	0.038	Pitch Set Point:	-0.087	Yaw Set Point:	-0.063	X_WP:	0.100	Y_WP:	0.000	Y_WP:	0.500	X:	0.029	Y:	0.041	Z:	0.069	yaw:	3.631	yaw rate:	33.278	Roll:	0.979	Pitch:	1.736	Yaw:	13.631	Thrust:	53.410
Time:	2.859	Roll Set Point:	0.035	Pitch Set Point:	-0.086	Yaw Set Point:	-0.058	X_WP:	0.100	Y_WP:	0.000	Y_WP:	0.500	X:	0.031	Y:	0.041	Z:	0.070	yaw:	3.337	yaw rate:	-29.389	Roll:	0.195	Pitch:	0.668	Yaw:	-0.439	Thrust:	61.843
Time:	2.870	Roll Set Point:	0.031	Pitch Set Point:	-0.086	Yaw Set Point:	-0.069	X_WP:	0.100	Y_WP:	0.000	Y_WP:	0.500	X:	0.033	Y:	0.041	Z:	0.072	yaw:	3.941	yaw rate:	60.429	Roll:	1.471	Pitch:	2.369	Yaw:	21.183	Thrust:	51.440
Time:	2.884	Roll Set Point:	0.027	Pitch Set Point:	-0.086	Yaw Set Point:	-0.062	X_WP:	0.100	Y_WP:	0.000	Y_WP:	0.500	X:	0.035	Y:	0.041	Z:	0.074	yaw:	3.574	yaw rate:	-36.778	Roll:	0.594	Pitch:	0.579	Yaw:	-1.635	Thrust:	62.293
Time:	2.900	Roll Set Point:	0.018	Pitch Set Point:	-0.085	Yaw Set Point:	-0.067	X_WP:	0.100	Y_WP:	0.000	Y_WP:	0.500	X:	0.039	Y:	0.041	Z:	0.077	yaw:	3.849	yaw rate:	-25.820	Roll:	2.025	Pitch:	1.284	Yaw:	10.624	Thrust:	74.842
Time:	2.912	Roll Set Point:	0.014	Pitch Set Point:	-0.085	Yaw Set Point:	-0.067	X_WP:	0.100	Y_WP:	0.000	Y_WP:	0.500	X:	0.042	Y:	0.041	Z:	0.079	yaw:	3.859	yaw rate:	1.010	Roll:	1.192	Pitch:	0.906	Yaw:	6.382	Thrust:	56.692
Time:	2.925	Roll Set Point:	0.005	Pitch Set Point:	-0.084	Yaw Set Point:	-0.073	X_WP:	0.100	Y_WP:	0.000	Y_WP:	0.500	X:	0.046	Y:	0.040	Z:	0.083	yaw:	4.161	yaw rate:	30.271	Roll:	4.924	Pitch:	1.092	Yaw:	13.243	Thrust:	50.285
Time:	2.935	Roll Set Point:	0.000	Pitch Set Point:	-0.084	Yaw Set Point:	-0.067	X_WP:	0.100	Y_WP:	0.000	Y_WP:	0.500	X:	0.048	Y:	0.040	Z:	0.086	yaw:	3.855	yaw rate:	-30.629	Roll:	1.611	Pitch:	0.372	Yaw:	-0.773	Thrust:	56.014
Time:	2.947	Roll Set Point:	-0.004	Pitch Set Point:	-0.083	Yaw Set Point:	-0.072	X_WP:	0.100	Y_WP:	0.000	Y_WP:	0.500	X:	0.051	Y:	0.040	Z:	0.088	yaw:	4.102	yaw rate:	24.644	Roll:	2.325	Pitch:	1.087	Yaw:	12.353	Thrust:	53.888
Time:	2.958	Roll Set Point:	-0.009	Pitch Set Point:	-0.083	Yaw Set Point:	-0.076	X_WP:	0.100	Y_WP:	0.000	Y_WP:	0.500	X:	0.053	Y:	0.040	Z:	0.091	yaw:	4.382	yaw rate:	28.056	Roll:	1.954	Pitch:	1.188	Yaw:	13.083	Thrust:	58.358
Time:	2.970	Roll Set Point:	-0.014	Pitch Set Point:	-0.082	Yaw Set Point:	-0.074	X_WP:	0.100	Y_WP:	0.000	Y_WP:	0.500	X:	0.056	Y:	0.040	Z:	0.093	yaw:	4.220	yaw rate:	-16.176	Roll:	2.156	Pitch:	0.715	Yaw:	3.255	Thrust:	56.323
Time:	2.983	Roll Set Point:	-0.019	Pitch Set Point:	-0.082	Yaw Set Point:	-0.076	X_WP:	0.100	Y_WP:	0.000	Y_WP:	0.500	X:	0.058	Y:	0.039	Z:	0.096	yaw:	4.343	yaw rate:	12.283	Roll:	2.069	Pitch:	0.997	Yaw:	9.566	Thrust:	63.452
Time:	2.999	Roll Set Point:	-0.029	Pitch Set Point:	-0.080	Yaw Set Point:	-0.073	X_WP:	0.100	Y_WP:	0.000	Y_WP:	0.500	X:	0.063	Y:	0.039	Z:	0.101	yaw:	4.179	yaw rate:	-18.506	Roll:	3.862	Pitch:	0.277	Yaw:	4.492	Thrust:	72.087
Time:	3.010	Roll Set Point:	-0.035	Pitch Set Point:	-0.080	Yaw Set Point:	-0.078	X_WP:	0.100	Y_WP:	0.000	Y_WP:	0.500	X:	0.066	Y:	0.039	Z:	0.104	yaw:	4.449	yaw rate:	27.027	Roll:	3.242	Pitch:	0.803	Yaw:	13.485	Thrust:	53.365
Time:	3.024	Roll Set Point:	-0.040	Pitch Set Point:	-0.079	Yaw Set Point:	-0.078	X_WP:	0.100	Y_WP:	0.000	Y_WP:	0.500	X:	0.069	Y:	0.038	Z:	0.107	yaw:	4.456	yaw rate:	0.766	Roll:	2.481	Pitch:	0.676	Yaw:	7.416	Thrust:	64.084
Time:	3.035	Roll Set Point:	-0.050	Pitch Set Point:	-0.077	Yaw Set Point:	-0.069	X_WP:	0.100	Y_WP:	0.000	Y_WP:	0.500	X:	0.074	Y:	0.038	Z:	0.112	yaw:	3.945	yaw rate:	-51.104	Roll:	6.716	Pitch:	-0.735	Yaw:	-5.188	Thrust:	45.824
Time:	3.047	Roll Set Point:	-0.056	Pitch Set Point:	-0.076	Yaw Set Point:	-0.068	X_WP:	0.100	Y_WP:	0.000	Y_WP:	0.500	X:	0.077	Y:	0.037	Z:	0.115	yaw:	3.906	yaw rate:	-3.947	Roll:	3.528	Pitch:	0.434	Yaw:	5.506	Thrust:	53.811
Time:	3.059	Roll Set Point:	-0.062	Pitch Set Point:	-0.075	Yaw Set Point:	-0.069	X_WP:	0.100	Y_WP:	0.000	Y_WP:	0.500	X:	0.079	Y:	0.037	Z:	0.118	yaw:	3.943	yaw rate:	3.677	Roll:	2.816	Pitch:	0.529	Yaw:	7.324	Thrust:	62.654
Time:	3.070	Roll Set Point:	-0.067	Pitch Set Point:	-0.074	Yaw Set Point:	-0.074	X_WP:	0.100	Y_WP:	0.000	Y_WP:	0.500	X:	0.082	Y:	0.037	Z:	0.121	yaw:	4.248	yaw rate:	30.493	Roll:	3.937	Pitch:	0.469	Yaw:	14.099	Thrust:	56.426
Time:	3.089	Roll Set Point:	-0.073	Pitch Set Point:	-0.074	Yaw Set Point:	-0.070	X_WP:	0.100	Y_WP:	0.000	Y_WP:	0.500	X:	0.085	Y:	0.036	Z:	0.125	yaw:	4.031	yaw rate:	-21.675	Roll:	2.280	Pitch:	0.609	Yaw:	4.097	Thrust:	79.744
Time:	3.102	Roll Set Point:	-0.084	Pitch Set Point:	-0.071	Yaw Set Point:	-0.065	X_WP:	0.100	Y_WP:	0.000	Y_WP:	0.500	X:	0.091	Y:	0.035	Z:	0.131	yaw:	3.719	yaw rate:	-11.394	Roll:	5.325	Pitch:	-0.481	Yaw:	0.100	Thrust:	65.529
Time:	3.114	Roll Set Point:	-0.089	Pitch Set Point:	-0.070	Yaw Set Point:	-0.064	X_WP:	0.100	Y_WP:	0.000	Y_WP:	0.500	X:	0.094	Y:	0.035	Z:	0.135	yaw:	3.647	yaw rate:	-7.201	Roll:	3.837	Pitch:	0.117	Yaw:	4.622	Thrust:	59.229
Time:	3.126	Roll Set Point:	-0.095	Pitch Set Point:	-0.069	Yaw Set Point:	-0.066	X_WP:	0.100	Y_WP:	0.000	Y_WP:	0.500	X:	0.096	Y:	0.034	Z:	0.138	yaw:	3.771	yaw rate:	12.358	Roll:	3.729	Pitch:	0.380	Yaw:	9.022	Thrust:	54.881
Time:	3.136	Roll Set Point:	-0.101	Pitch Set Point:	-0.068	Yaw Set Point:	-0.058	X_WP:	0.100	Y_WP:	0.000	Y_WP:	0.500	X:	0.099	Y:	0.034	Z:	0.142	yaw:	3.318	yaw rate:	-45.287	Roll:	3.864	Pitch:	-0.084	Yaw:	-5.650	Thrust:	57.372
Time:	3.149	Roll Set Point:	-0.112	Pitch Set Point:	-0.065	Yaw Set Point:	-0.061	X_WP:	0.100	Y_WP:	0.000	Y_WP:	0.500	X:	0.105	Y:	0.033	Z:	0.149	yaw:	3.490	yaw rate:	17.262	Roll:	8.369	Pitch:	-1.144	Yaw:	9.746	Thrust:	42.667
Time:	3.160	Roll Set Point:	-0.117	Pitch Set Point:	-0.064	Yaw Set Point:	-0.058	X_WP:	0.100	Y_WP:	0.000	Y_WP:	0.500	X:	0.108	Y:	0.032	Z:	0.152	yaw:	3.349	yaw rate:	-14.168	Roll:	3.923	Pitch:	0.131	Yaw:	2.350	Thrust:	56.970
Time:	3.170	Roll Set Point:	-0.123	Pitch Set Point:	-0.062	Yaw Set Point:	-0.054	X_WP:	0.100	Y_WP:	0.000	Y_WP:	0.500	X:	0.111	Y:	0.032	Z:	0.156	yaw:	3.103	yaw rate:	-24.628	Roll:	4.723	Pitch:	-0.250	Yaw:	-0.785	Thrust:	50.497
Time:	3.183	Roll Set Point:	-0.128	Pitch Set Point:	-0.061	Yaw Set Point:	-0.048	X_WP:	0.100	Y_WP:	0.000	Y_WP:	0.500	X:	0.113	Y:	0.031	Z:	0.160	yaw:	2.772	yaw rate:	-33.033	Roll:	4.186	Pitch:	-0.064	Yaw:	-1.812	Thrust:	57.288
Time:	3.194	Roll Set Point:	-0.134	Pitch Set Point:	-0.060	Yaw Set Point:	-0.054	X_WP:	0.100	Y_WP:	0.000	Y_WP:	0.500	X:	0.116	Y:	0.030	Z:	0.163	yaw:	3.097	yaw rate:	32.498	Roll:	4.100	Pitch:	-0.198	Yaw:	13.117	Thrust:	59.914
Time:	3.204	Roll Set Point:	-0.139	Pitch Set Point:	-0.058	Yaw Set Point:	-0.051	X_WP:	0.100	Y_WP:	0.000	Y_WP:	0.500	X:	0.119	Y:	0.030	Z:	0.167	yaw:	2.930	yaw rate:	-16.684	Roll:	5.001	Pitch:	-0.298	Yaw:	0.981	Thrust:	49.689
Time:	3.223	Roll Set Point:	-0.145	Pitch Set Point:	-0.057	Yaw Set Point:	-0.053	X_WP:	0.100	Y_WP:	0.000	Y_WP:	0.500	X:	0.122	Y:	0.029	Z:	0.171	yaw:	3.053	yaw rate:	12.250	Roll:	3.459	Pitch:	0.091	Yaw:	7.834	Thrust:	88.409
Time:	3.235	Roll Set Point:	-0.156	Pitch Set Point:	-0.054	Yaw Set Point:	-0.046	X_WP:	0.100	Y_WP:	0.000	Y_WP:	0.500	X:	0.127	Y:	0.028	Z:	0.178	yaw:	2.645	yaw rate:	2.444	Roll:	6.528	Pitch:	-0.826	Yaw:	-3.936	Thrust:	55.381
Time:	3.259	Roll Set Point:	-0.161	Pitch Set Point:	-0.052	Yaw Set Point:	-0.047	X_WP:	0.100	Y_WP:	0.000	Y_WP:	0.500	X:	0.130	Y:	0.027	Z:	0.182	yaw:	2.666	yaw rate:	2.035	Roll:	3.543	Pitch:	-0.135	Yaw:	6.351	Thrust:	100.000
Time:	3.272	Roll Set Point:	-0.176	Pitch Set Point:	-0.048	Yaw Set Point:	-0.036	X_WP:	0.100	Y_WP:	0.000	Y_WP:	0.500	X:	0.138	Y:	0.025	Z:	0.193	yaw:	2.072	yaw rate:	-22.503	Roll:	6.539	Pitch:	-0.680	Yaw:	-7.210	Thrust:	47.092
Time:	3.293	Roll Set Point:	-0.182	Pitch Set Point:	-0.047	Yaw Set Point:	-0.040	X_WP:	0.100	Y_WP:	0.000	Y_WP:	0.500	X:	0.140	Y:	0.024	Z:	0.196	yaw:	2.320	yaw rate:	24.783	Roll:	3.591	Pitch:	0.068	Yaw:	8.454	Thrust:	100.000
Time:	3.304	Roll Set Point:	-0.196	Pitch Set Point:	-0.042	Yaw Set Point:	-0.032	X_WP:	0.100	Y_WP:	0.000	Y_WP:	0.500	X:	0.148	Y:	0.022	Z:	0.206	yaw:	1.861	yaw rate:	-44.991	Roll:	9.053	Pitch:	-2.381	Yaw:	-6.647	Thrust:	32.048
Time:	3.315	Roll Set Point:	-0.201	Pitch Set Point:	-0.040	Yaw Set Point:	-0.038	X_WP:	0.100	Y_WP:	0.000	Y_WP:	0.500	X:	0.150	Y:	0.021	Z:	0.210	yaw:	2.162	yaw rate:	30.067	Roll:	5.529	Pitch:	-0.848	Yaw:	11.254	Thrust:	54.137
Time:	3.333	Roll Set Point:	-0.206	Pitch Set Point:	-0.038	Yaw Set Point:	-0.042	X_WP:	0.100	Y_WP:	0.000	Y_WP:	0.500	X:	0.152	Y:	0.020	Z:	0.214	yaw:	2.396	yaw rate:	23.418	Roll:	3.353	Pitch:	-0.385	Yaw:	8.594	Thrust:	93.025
Time:	3.344	Roll Set Point:	-0.210	Pitch Set Point:	-0.037	Yaw Set Point:	-0.043	X_WP:	0.100	Y_WP:	0.000	Y_WP:	0.500	X:	0.155	Y:	0.020	Z:	0.218	yaw:	2.464	yaw rate:	6.751	Roll:	4.967	Pitch:	-0.531	Yaw:	6.145	Thrust:	53.692
Time:	3.358	Roll Set Point:	-0.215	Pitch Set Point:	-0.035	Yaw Set Point:	-0.040	X_WP:	0.100	Y_WP:	0.000	Y_WP:	0.500	X:	0.157	Y:	0.019	Z:	0.222	yaw:	2.269	yaw rate:	-19.461	Roll:	4.122	Pitch:	-0.311	Yaw:	1.150	Thrust:	76.501
Time:	3.369	Roll Set Point:	-0.219	Pitch Set Point:	-0.034	Yaw Set Point:	-0.035	X_WP:	0.100	Y_WP:	0.000	Y_WP:	0.500	X:	0.159	Y:	0.018	Z:	0.226	yaw:	2.014	yaw rate:	-25.516	Roll:	4.674	Pitch:	-0.136	Yaw:	-2.140	Thrust:	54.074
Time:	3.383	Roll Set Point:	-0.227	Pitch Set Point:	-0.030	Yaw Set Point:	-0.052	X_WP:	0.100	Y_WP:	0.000	Y_WP:	0.500	X:	0.163	Y:	0.017	Z:	0.235	yaw:	2.954	yaw rate:	28.771	Roll:	7.437	Pitch:	-2.690	Yaw:	24.299	Thrust:	49.860
Time:	3.396	Roll Set Point:	-0.231	Pitch Set Point:	-0.030	Yaw Set Point:	-0.046	X_WP:	0.100	Y_WP:	0.000	Y_WP:	0.500	X:	0.165	Y:	0.016	Z:	0.239	yaw:	2.626	yaw rate:	-32.769	Roll:	3.921	Pitch:	0.188	Yaw:	-1.489	Thrust:	63.709
Time:	3.407	Roll Set Point:	-0.238	Pitch Set Point:	-0.027	Yaw Set Point:	-0.044	X_WP:	0.100	Y_WP:	0.000	Y_WP:	0.500	X:	0.169	Y:	0.015	Z:	0.249	yaw:	2.522	yaw rate:	-10.379	Roll:	7.071	Pitch:	-1.620	Yaw:	2.318	Thrust:	40.238
Time:	3.421	Roll Set Point:	-0.241	Pitch Set Point:	-0.026	Yaw Set Point:	-0.035	X_WP:	0.100	Y_WP:	0.000	Y_WP:	0.500	X:	0.171	Y:	0.014	Z:	0.254	yaw:	2.020	yaw rate:	-50.226	Roll:	3.959	Pitch:	0.474	Yaw:	-5.179	Thrust:	70.494
Time:	3.433	Roll Set Point:	-0.248	Pitch Set Point:	-0.023	Yaw Set Point:	-0.038	X_WP:	0.100	Y_WP:	0.000	Y_WP:	0.500	X:	0.174	Y:	0.013	Z:	0.264	yaw:	2.176	yaw rate:	14.926	Roll:	6.147	Pitch:	-1.598	Yaw:	7.634	Thrust:	37.608
Time:	3.444	Roll Set Point:	-0.252	Pitch Set Point:	-0.022	Yaw Set Point:	-0.037	X_WP:	0.100	Y_WP:	0.000	Y_WP:	0.500	X:	0.176	Y:	0.013	Z:	0.269	yaw:	2.147	yaw rate:	-2.960	Roll:	4.637	Pitch:	-0.515	Yaw:	3.398	Thrust:	49.704
Time:	3.457	Roll Set Point:	-0.254	Pitch Set Point:	-0.021	Yaw Set Point:	-0.042	X_WP:	0.100	Y_WP:	0.000	Y_WP:	0.500	X:	0.177	Y:	0.012	Z:	0.274	yaw:	2.387	yaw rate:	24.047	Roll:	3.885	Pitch:	-1.107	Yaw:	9.607	Thrust:	55.304
Time:	3.467	Roll Set Point:	-0.257	Pitch Set Point:	-0.020	Yaw Set Point:	-0.038	X_WP:	0.100	Y_WP:	0.000	Y_WP:	0.500	X:	0.178	Y:	0.011	Z:	0.280	yaw:	2.160	yaw rate:	-22.755	Roll:	4.455	Pitch:	-0.019	Yaw:	-1.582	Thrust:	48.164
Time:	3.478	Roll Set Point:	-0.260	Pitch Set Point:	-0.019	Yaw Set Point:	-0.031	X_WP:	0.100	Y_WP:	0.000	Y_WP:	0.500	X:	0.180	Y:	0.011	Z:	0.285	yaw:	1.785	yaw rate:	-37.487	Roll:	4.107	Pitch:	0.285	Yaw:	-5.705	Thrust:	45.850
Time:	3.490	Roll Set Point:	-0.262	Pitch Set Point:	-0.018	Yaw Set Point:	-0.028	X_WP:	0.100	Y_WP:	0.000	Y_WP:	0.500	X:	0.181	Y:	0.010	Z:	0.290	yaw:	1.596	yaw rate:	-18.901	Roll:	3.797	Pitch:	-0.152	Yaw:	-0.573	Thrust:	57.415
Time:	3.502	Roll Set Point:	-0.264	Pitch Set Point:	-0.017	Yaw Set Point:	-0.028	X_WP:	0.100	Y_WP:	0.000	Y_WP:	0.500	X:	0.182	Y:	0.010	Z:	0.296	yaw:	1.604	yaw rate:	0.823	Roll:	4.047	Pitch:	-0.789	Yaw:	3.581	Thrust:	51.696
Time:	3.515	Roll Set Point:	-0.267	Pitch Set Point:	-0.015	Yaw Set Point:	-0.037	X_WP:	0.100	Y_WP:	0.000	Y_WP:	0.500	X:	0.183	Y:	0.009	Z:	0.302	yaw:	2.111	yaw rate:	50.682	Roll:	3.933	Pitch:	-1.552	Yaw:	15.176	Thrust:	47.664
Time:	3.532	Roll Set Point:	-0.271	Pitch Set Point:	-0.014	Yaw Set Point:	-0.031	X_WP:	0.100	Y_WP:	0.000	Y_WP:	0.500	X:	0.185	Y:	0.008	Z:	0.312	yaw:	1.753	yaw rate:	46.488	Roll:	4.303	Pitch:	-0.108	Yaw:	-1.084	Thrust:	85.654
Time:	3.543	Roll Set Point:	-0.275	Pitch Set Point:	-0.012	Yaw Set Point:	-0.023	X_WP:	0.100	Y_WP:	0.000	Y_WP:	0.500	X:	0.187	Y:	0.007	Z:	0.323	yaw:	1.301	yaw rate:	-45.170	Roll:	5.111	Pitch:	-0.585	Yaw:	-7.286	Thrust:	31.901
Time:	3.556	Roll Set Point:	-0.276	Pitch Set Point:	-0.011	Yaw Set Point:	-0.028	X_WP:	0.100	Y_WP:	0.000	Y_WP:	0.500	X:	0.188	Y:	0.006	Z:	0.328	yaw:	1.576	yaw rate:	27.548	Roll:	3.606	Pitch:	-0.913	Yaw:	9.399	Thrust:	55.494
Time:	3.568	Roll Set Point:	-0.278	Pitch Set Point:	-0.010	Yaw Set Point:	-0.015	X_WP:	0.100	Y_WP:	0.000	Y_WP:	0.500	X:	0.189	Y:	0.006	Z:	0.333	yaw:	0.839	yaw rate:	-73.710	Roll:	3.634	Pitch:	0.933	Yaw:	-12.963	Thrust:	60.442
Time:	3.578	Roll Set Point:	-0.280	Pitch Set Point:	-0.009	Yaw Set Point:	-0.024	X_WP:	0.100	Y_WP:	0.000	Y_WP:	0.500	X:	0.190	Y:	0.005	Z:	0.338	yaw:	1.378	yaw rate:	53.894	Roll:	3.751	Pitch:	-1.887	Yaw:	16.333	Thrust:	45.409
Time:	3.590	Roll Set Point:	-0.281	Pitch Set Point:	-0.008	Yaw Set Point:	-0.012	X_WP:	0.100	Y_WP:	0.000	Y_WP:	0.500	X:	0.191	Y:	0.005	Z:	0.342	yaw:	0.683	yaw rate:	-69.551	Roll:	3.371	Pitch:	0.946	Yaw:	-12.976	Thrust:	57.412
Time:	3.602	Roll Set Point:	-0.283	Pitch Set Point:	-0.007	Yaw Set Point:	-0.017	X_WP:	0.100	Y_WP:	0.000	Y_WP:	0.500	X:	0.191	Y:	0.004	Z:	0.347	yaw:	0.950	yaw rate:	26.757	Roll:	3.828	Pitch:	-1.186	Yaw:	8.552	Thrust:	54.603
Time:	3.614	Roll Set Point:	-0.284	Pitch Set Point:	-0.006	Yaw Set Point:	-0.016	X_WP:	0.100	Y_WP:	0.000	Y_WP:	0.500	X:	0.192	Y:	0.004	Z:	0.351	yaw:	0.894	yaw rate:	-5.661	Roll:	3.532	Pitch:	-0.374	Yaw:	1.220	Thrust:	57.982
Time:	3.635	Roll Set Point:	-0.288	Pitch Set Point:	-0.004	Yaw Set Point:	-0.005	X_WP:	0.100	Y_WP:	0.000	Y_WP:	0.500	X:	0.194	Y:	0.002	Z:	0.364	yaw:	0.278	yaw rate:	-40.183	Roll:	3.943	Pitch:	-0.250	Yaw:	-5.243	Thrust:	97.447
Time:	3.647	Roll Set Point:	-0.289	Pitch Set Point:	-0.002	Yaw Set Point:	-0.012	X_WP:	0.100	Y_WP:	0.000	Y_WP:	0.500	X:	0.195	Y:	0.002	Z:	0.368	yaw:	0.672	yaw rate:	39.439	Roll:	3.677	Pitch:	-1.360	Yaw:	10.434	Thrust:	63.409
Time:	3.659	Roll Set Point:	-0.290	Pitch Set Point:	-0.001	Yaw Set Point:	-0.005	X_WP:	0.100	Y_WP:	0.000	Y_WP:	0.500	X:	0.195	Y:	0.001	Z:	0.371	yaw:	0.276	yaw rate:	-39.637	Roll:	3.043	Pitch:	0.067	Yaw:	-7.031	Thrust:	60.378
Time:	3.671	Roll Set Point:	-0.291	Pitch Set Point:	-0.000	Yaw Set Point:	-0.007	X_WP:	0.100	Y_WP:	0.000	Y_WP:	0.500	X:	0.195	Y:	0.000	Z:	0.375	yaw:	0.408	yaw rate:	13.191	Roll:	3.284	Pitch:	-0.938	Yaw:	4.642	Thrust:	60.805
Time:	3.691	Roll Set Point:	-0.292	Pitch Set Point:	0.000	Yaw Set Point:	0.001	X_WP:	0.100	Y_WP:	0.000	Y_WP:	0.500	X:	0.196	Y:	-0.000	Z:	0.378	yaw:	-0.084	yaw rate:	-49.216	Roll:	3.022	Pitch:	0.469	Yaw:	-4.926	Thrust:	100.000
Time:	3.702	Roll Set Point:	-0.293	Pitch Set Point:	0.003	Yaw Set Point:	-0.001	X_WP:	0.100	Y_WP:	0.000	Y_WP:	0.500	X:	0.197	Y:	-0.001	Z:	0.385	yaw:	0.032	yaw rate:	32.320	Roll:	3.734	Pitch:	-1.598	Yaw:	3.845	Thrust:	52.504
Time:	3.717	Roll Set Point:	-0.294	Pitch Set Point:	0.004	Yaw Set Point:	-0.001	X_WP:	0.100	Y_WP:	0.000	Y_WP:	0.500	X:	0.197	Y:	-0.002	Z:	0.389	yaw:	0.058	yaw rate:	2.565	Roll:	3.061	Pitch:	-0.712	Yaw:	1.932	Thrust:	71.631
Time:	3.730	Roll Set Point:	-0.295	Pitch Set Point:	0.005	Yaw Set Point:	0.001	X_WP:	0.100	Y_WP:	0.000	Y_WP:	0.500	X:	0.197	Y:	-0.002	Z:	0.392	yaw:	-0.070	yaw rate:	-12.829	Roll:	2.972	Pitch:	-0.367	Yaw:	-0.929	Thrust:	78.332
Time:	3.742	Roll Set Point:	-0.296	Pitch Set Point:	0.008	Yaw Set Point:	-0.000	X_WP:	0.100	Y_WP:	0.000	Y_WP:	0.500	X:	0.198	Y:	-0.004	Z:	0.403	yaw:	0.000	yaw rate:	14.845	Roll:	3.597	Pitch:	-2.659	Yaw:	2.757	Thrust:	29.629
Time:	3.757	Roll Set Point:	-0.296	Pitch Set Point:	0.010	Yaw Set Point:	-0.004	X_WP:	0.100	Y_WP:	0.000	Y_WP:	0.500	X:	0.198	Y:	-0.005	Z:	0.406	yaw:	0.206	yaw rate:	20.565	Roll:	2.988	Pitch:	-1.179	Yaw:	5.526	Thrust:	73.554
Time:	3.768	Roll Set Point:	-0.296	Pitch Set Point:	0.010	Yaw Set Point:	-0.001	X_WP:	0.100	Y_WP:	0.000	Y_WP:	0.500	X:	0.198	Y:	-0.005	Z:	0.410	yaw:	0.073	yaw rate:	-13.263	Roll:	2.912	Pitch:	-0.229	Yaw:	-1.576	Thrust:	60.703
Time:	3.779	Roll Set Point:	-0.296	Pitch Set Point:	0.011	Yaw Set Point:	0.007	X_WP:	0.100	Y_WP:	0.000	Y_WP:	0.500	X:	0.198	Y:	-0.006	Z:	0.414	yaw:	-0.421	yaw rate:	-49.421	Roll:	2.777	Pitch:	0.365	Yaw:	-11.766	Thrust:	48.583
Time:	3.792	Roll Set Point:	-0.296	Pitch Set Point:	0.012	Yaw Set Point:	0.011	X_WP:	0.100	Y_WP:	0.000	Y_WP:	0.500	X:	0.198	Y:	-0.006	Z:	0.417	yaw:	-0.635	yaw rate:	-21.419	Roll:	2.728	Pitch:	-0.434	Yaw:	-3.887	Thrust:	66.919
Time:	3.803	Roll Set Point:	-0.297	Pitch Set Point:	0.014	Yaw Set Point:	0.003	X_WP:	0.100	Y_WP:	0.000	Y_WP:	0.500	X:	0.198	Y:	-0.007	Z:	0.421	yaw:	-0.163	yaw rate:	47.196	Roll:	2.988	Pitch:	-2.007	Yaw:	11.635	Thrust:	56.898
Time:	3.817	Roll Set Point:	-0.296	Pitch Set Point:	0.015	Yaw Set Point:	0.005	X_WP:	0.100	Y_WP:	0.000	Y_WP:	0.500	X:	0.198	Y:	-0.008	Z:	0.424	yaw:	-0.287	yaw rate:	-12.448	Roll:	2.387	Pitch:	-0.731	Yaw:	-1.399	Thrust:	65.417
Time:	3.831	Roll Set Point:	-0.296	Pitch Set Point:	0.016	Yaw Set Point:	0.011	X_WP:	0.100	Y_WP:	0.000	Y_WP:	0.500	X:	0.198	Y:	-0.009	Z:	0.431	yaw:	-0.618	yaw rate:	-39.972	Roll:	2.807	Pitch:	-0.578	Yaw:	-5.319	Thrust:	74.438
Time:	3.842	Roll Set Point:	-0.296	Pitch Set Point:	0.017	Yaw Set Point:	0.013	X_WP:	0.100	Y_WP:	0.000	Y_WP:	0.500	X:	0.198	Y:	-0.009	Z:	0.434	yaw:	-0.771	yaw rate:	-15.343	Roll:	2.706	Pitch:	-0.670	Yaw:	-3.624	Thrust:	54.247
Time:	3.856	Roll Set Point:	-0.296	Pitch Set Point:	0.019	Yaw Set Point:	0.003	X_WP:	0.100	Y_WP:	0.000	Y_WP:	0.500	X:	0.198	Y:	-0.010	Z:	0.437	yaw:	-0.185	yaw rate:	58.673	Roll:	2.602	Pitch:	-1.965	Yaw:	12.428	Thrust:	70.534
Time:	3.868	Roll Set Point:	-0.295	Pitch Set Point:	0.020	Yaw Set Point:	0.017	X_WP:	0.100	Y_WP:	0.000	Y_WP:	0.500	X:	0.198	Y:	-0.011	Z:	0.443	yaw:	-1.002	yaw rate:	-81.701	Roll:	2.507	Pitch:	0.125	Yaw:	-17.964	Thrust:	49.796
Time:	3.880	Roll Set Point:	-0.295	Pitch Set Point:	0.021	Yaw Set Point:	0.016	X_WP:	0.100	Y_WP:	0.000	Y_WP:	0.500	X:	0.197	Y:	-0.012	Z:	0.446	yaw:	-0.925	yaw rate:	7.617	Roll:	2.465	Pitch:	-1.284	Yaw:	1.549	Thrust:	62.076
Time:	3.892	Roll Set Point:	-0.295	Pitch Set Point:	0.023	Yaw Set Point:	0.012	X_WP:	0.100	Y_WP:	0.000	Y_WP:	0.500	X:	0.197	Y:	-0.012	Z:	0.450	yaw:	-0.713	yaw rate:	21.286	Roll:	2.560	Pitch:	-1.227	Yaw:	5.070	Thrust:	55.263
Time:	3.903	Roll Set Point:	-0.294	Pitch Set Point:	0.023	Yaw Set Point:	0.016	X_WP:	0.100	Y_WP:	0.000	Y_WP:	0.500	X:	0.197	Y:	-0.012	Z:	0.452	yaw:	-0.920	yaw rate:	-20.694	Roll:	2.311	Pitch:	-0.421	Yaw:	-4.851	Thrust:	58.303
Time:	3.920	Roll Set Point:	-0.294	Pitch Set Point:	0.024	Yaw Set Point:	0.022	X_WP:	0.100	Y_WP:	0.000	Y_WP:	0.500	X:	0.197	Y:	-0.013	Z:	0.455	yaw:	-1.277	yaw rate:	-35.715	Roll:	2.496	Pitch:	-0.154	Yaw:	-5.595	Thrust:	87.230
Time:	3.933	Roll Set Point:	-0.293	Pitch Set Point:	0.027	Yaw Set Point:	0.013	X_WP:	0.100	Y_WP:	0.000	Y_WP:	0.500	X:	0.196	Y:	-0.014	Z:	0.462	yaw:	-0.753	yaw rate:	41.694	Roll:	2.121	Pitch:	-2.342	Yaw:	10.743	Thrust:	63.947
Time:	3.944	Roll Set Point:	-0.292	Pitch Set Point:	0.028	Yaw Set Point:	0.015	X_WP:	0.100	Y_WP:	0.000	Y_WP:	0.500	X:	0.196	Y:	-0.015	Z:	0.465	yaw:	-0.843	yaw rate:	-9.026	Roll:	2.093	Pitch:	-1.033	Yaw:	-2.251	Thrust:	50.537
Time:	3.959	Roll Set Point:	-0.291	Pitch Set Point:	0.029	Yaw Set Point:	0.014	X_WP:	0.100	Y_WP:	0.000	Y_WP:	0.500	X:	0.195	Y:	-0.015	Z:	0.467	yaw:	-0.789	yaw rate:	5.482	Roll:	2.142	Pitch:	-1.023	Yaw:	1.292	Thrust:	80.773
Time:	3.970	Roll Set Point:	-0.290	Pitch Set Point:	0.030	Yaw Set Point:	0.029	X_WP:	0.100	Y_WP:	0.000	Y_WP:	0.500	X:	0.195	Y:	-0.016	Z:	0.473	yaw:	-1.643	yaw rate:	-85.438	Roll:	2.176	Pitch:	0.519	Yaw:	-20.573	Thrust:	45.086
Time:	3.983	Roll Set Point:	-0.289	Pitch Set Point:	0.031	Yaw Set Point:	0.020	X_WP:	0.100	Y_WP:	0.000	Y_WP:	0.500	X:	0.194	Y:	-0.017	Z:	0.477	yaw:	-1.156	yaw rate:	48.664	Roll:	1.990	Pitch:	-1.991	Yaw:	9.744	Thrust:	63.244
Time:	3.997	Roll Set Point:	-0.287	Pitch Set Point:	0.033	Yaw Set Point:	0.017	X_WP:	0.100	Y_WP:	0.000	Y_WP:	0.500	X:	0.194	Y:	-0.017	Z:	0.483	yaw:	-0.973	yaw rate:	-57.536	Roll:	1.787	Pitch:	-1.745	Yaw:	3.397	Thrust:	62.180
Time:	4.008	Roll Set Point:	-0.287	Pitch Set Point:	0.035	Yaw Set Point:	0.013	X_WP:	0.100	Y_WP:	0.000	Y_WP:	0.500	X:	0.193	Y:	-0.018	Z:	0.486	yaw:	-0.718	yaw rate:	25.554	Roll:	1.942	Pitch:	-1.818	Yaw:	6.113	Thrust:	48.054
Time:	4.022	Roll Set Point:	-0.286	Pitch Set Point:	0.035	Yaw Set Point:	0.023	X_WP:	0.100	Y_WP:	0.000	Y_WP:	0.500	X:	0.193	Y:	-0.018	Z:	0.490	yaw:	-1.345	yaw rate:	-62.789	Roll:	2.245	Pitch:	0.316	Yaw:	-12.385	Thrust:	71.493
Time:	4.034	Roll Set Point:	-0.285	Pitch Set Point:	0.035	Yaw Set Point:	0.025	X_WP:	0.100	Y_WP:	0.000	Y_WP:	0.500	X:	0.192	Y:	-0.019	Z:	0.493	yaw:	-1.426	yaw rate:	-8.107	Roll:	2.025	Pitch:	-0.839	Yaw:	-2.613	Thrust:	59.949
Time:	4.045	Roll Set Point:	-0.283	Pitch Set Point:	0.038	Yaw Set Point:	0.013	X_WP:	0.100	Y_WP:	0.000	Y_WP:	0.500	X:	0.191	Y:	-0.019	Z:	0.497	yaw:	-0.744	yaw rate:	68.280	Roll:	1.237	Pitch:	-2.889	Yaw:	16.204	Thrust:	49.961
Time:	4.060	Roll Set Point:	-0.283	Pitch Set Point:	0.037	Yaw Set Point:	0.024	X_WP:	0.100	Y_WP:	0.000	Y_WP:	0.500	X:	0.191	Y:	-0.020	Z:	0.501	yaw:	-1.393	yaw rate:	-64.961	Roll:	2.635	Pitch:	0.440	Yaw:	-11.841	Thrust:	76.541
Time:	4.071	Roll Set Point:	-0.280	Pitch Set Point:	0.040	Yaw Set Point:	0.015	X_WP:	0.100	Y_WP:	0.000	Y_WP:	0.500	X:	0.190	Y:	-0.021	Z:	0.508	yaw:	-0.873	yaw rate:	36.589	Roll:	0.664	Pitch:	-3.005	Yaw:	11.668	Thrust:	36.891
Time:	4.089	Roll Set Point:	-0.279	Pitch Set Point:	0.041	Yaw Set Point:	0.024	X_WP:	0.100	Y_WP:	0.000	Y_WP:	0.500	X:	0.189	Y:	-0.021	Z:	0.516	yaw:	-1.367	yaw rate:	-49.400	Roll:	1.747	Pitch:	-0.389	Yaw:	-7.670	Thrust:	74.178
Time:	4.099	Roll Set Point:	-0.277	Pitch Set Point:	0.042	Yaw Set Point:	0.017	X_WP:	0.100	Y_WP:	0.000	Y_WP:	0.500	X:	0.188	Y:	-0.022	Z:	0.520	yaw:	-0.957	yaw rate:	40.928	Roll:	1.241	Pitch:	-1.970	Yaw:	9.812	Thrust:	49.664
Time:	4.110	Roll Set Point:	-0.277	Pitch Set Point:	0.041	Yaw Set Point:	0.025	X_WP:	0.100	Y_WP:	0.000	Y_WP:	0.500	X:	0.188	Y:	-0.022	Z:	0.524	yaw:	-1.458	yaw rate:	-50.014	Roll:	2.378	Pitch:	0.496	Yaw:	-12.892	Thrust:	42.403
Time:	4.123	Roll Set Point:	-0.276	Pitch Set Point:	0.043	Yaw Set Point:	0.018	X_WP:	0.100	Y_WP:	0.000	Y_WP:	0.500	X:	0.188	Y:	-0.022	Z:	0.529	yaw:	-1.015	yaw rate:	44.217	Roll:	1.733	Pitch:	-1.930	Yaw:	9.305	Thrust:	56.808
Time:	4.135	Roll Set Point:	-0.274	Pitch Set Point:	0.043	Yaw Set Point:	0.022	X_WP:	0.100	Y_WP:	0.000	Y_WP:	0.500	X:	0.187	Y:	-0.023	Z:	0.533	yaw:	-1.233	yaw rate:	-21.803	Roll:	1.626	Pitch:	-0.534	Yaw:	-5.131	Thrust:	56.595
Time:	4.148	Roll Set Point:	-0.273	Pitch Set Point:	0.045	Yaw Set Point:	0.015	X_WP:	0.100	Y_WP:	0.000	Y_WP:	0.500	X:	0.186	Y:	-0.023	Z:	0.536	yaw:	-0.835	yaw rate:	39.868	Roll:	1.353	Pitch:	-1.720	Yaw:	7.772	Thrust:	63.927
Time:	4.161	Roll Set Point:	-0.271	Pitch Set Point:	0.044	Yaw Set Point:	0.026	X_WP:	0.100	Y_WP:	0.000	Y_WP:	0.500	X:	0.185	Y:	-0.023	Z:	0.545	yaw:	-1.515	yaw rate:	-34.493	Roll:	1.676	Pitch:	0.360	Yaw:	-16.500	Thrust:	33.307
Time:	4.172	Roll Set Point:	-0.270	Pitch Set Point:	0.045	Yaw Set Point:	0.016	X_WP:	0.100	Y_WP:	0.000	Y_WP:	0.500	X:	0.185	Y:	-0.023	Z:	0.548	yaw:	-0.932	yaw rate:	58.218	Roll:	1.050	Pitch:	-1.962	Yaw:	12.946	Thrust:	49.669
Time:	4.184	Roll Set Point:	-0.268	Pitch Set Point:	0.046	Yaw Set Point:	0.023	X_WP:	0.100	Y_WP:	0.000	Y_WP:	0.500	X:	0.184	Y:	-0.024	Z:	0.552	yaw:	-1.298	yaw rate:	-36.539	Roll:	1.786	Pitch:	-0.233	Yaw:	-8.887	Thrust:	52.251
Time:	4.195	Roll Set Point:	-0.267	Pitch Set Point:	0.048	Yaw Set Point:	0.007	X_WP:	0.100	Y_WP:	0.000	Y_WP:	0.500	X:	0.184	Y:	-0.024	Z:	0.556	yaw:	-0.400	yaw rate:	89.754	Roll:	1.276	Pitch:	-3.184	Yaw:	21.750	Thrust:	45.043
Time:	4.206	Roll Set Point:	-0.265	Pitch Set Point:	0.047	Yaw Set Point:	0.027	X_WP:	0.100	Y_WP:	0.000	Y_WP:	0.500	X:	0.182	Y:	-0.024	Z:	0.563	yaw:	-1.570	yaw rate:	-116.980	Roll:	1.315	Pitch:	1.466	Yaw:	-26.567	Thrust:	40.243
Time:	4.222	Roll Set Point:	-0.264	Pitch Set Point:	0.047	Yaw Set Point:	0.026	X_WP:	0.100	Y_WP:	0.000	Y_WP:	0.500	X:	0.182	Y:	-0.025	Z:	0.566	yaw:	-1.474	yaw rate:	9.626	Roll:	1.572	Pitch:	-0.832	Yaw:	0.937	Thrust:	74.298
Time:	4.234	Roll Set Point:	-0.263	Pitch Set Point:	0.048	Yaw Set Point:	0.026	X_WP:	0.100	Y_WP:	0.000	Y_WP:	0.500	X:	0.181	Y:	-0.025	Z:	0.569	yaw:	-1.510	yaw rate:	-3.653	Roll:	1.770	Pitch:	-0.786	Yaw:	-1.844	Thrust:	56.955
Time:	4.246	Roll Set Point:	-0.262	Pitch Set Point:	0.047	Yaw Set Point:	0.032	X_WP:	0.100	Y_WP:	0.000	Y_WP:	0.500	X:	0.181	Y:	-0.025	Z:	0.572	yaw:	-1.835	yaw rate:	-32.454	Roll:	1.673	Pitch:	-0.130	Yaw:	-8.570	Thrust:	54.347
Time:	4.258	Roll Set Point:	-0.259	Pitch Set Point:	0.048	Yaw Set Point:	0.029	X_WP:	0.100	Y_WP:	0.000	Y_WP:	0.500	X:	0.179	Y:	-0.025	Z:	0.577	yaw:	-1.687	yaw rate:	-19.583	Roll:	0.586	Pitch:	-1.301	Yaw:	2.112	Thrust:	37.595
Time:	4.269	Roll Set Point:	-0.258	Pitch Set Point:	0.048	Yaw Set Point:	0.028	X_WP:	0.100	Y_WP:	0.000	Y_WP:	0.500	X:	0.179	Y:	-0.025	Z:	0.580	yaw:	-1.620	yaw rate:	6.686	Roll:	1.097	Pitch:	-0.771	Yaw:	0.229	Thrust:	55.669
Time:	4.283	Roll Set Point:	-0.257	Pitch Set Point:	0.049	Yaw Set Point:	0.022	X_WP:	0.100	Y_WP:	0.000	Y_WP:	0.500	X:	0.178	Y:	-0.025	Z:	0.582	yaw:	-1.288	yaw rate:	33.172	Roll:	1.622	Pitch:	-1.184	Yaw:	5.541	Thrust:	63.158
Time:	4.295	Roll Set Point:	-0.256	Pitch Set Point:	0.048	Yaw Set Point:	0.034	X_WP:	0.100	Y_WP:	0.000	Y_WP:	0.500	X:	0.178	Y:	-0.026	Z:	0.584	yaw:	-1.969	yaw rate:	-68.045	Roll:	1.747	Pitch:	0.247	Yaw:	-16.564	Thrust:	61.774
Time:	4.307	Roll Set Point:	-0.255	Pitch Set Point:	0.049	Yaw Set Point:	0.027	X_WP:	0.100	Y_WP:	0.000	Y_WP:	0.500	X:	0.177	Y:	-0.026	Z:	0.587	yaw:	-1.524	yaw rate:	44.497	Roll:	1.281	Pitch:	-1.422	Yaw:	8.565	Thrust:	52.493
Time:	4.326	Roll Set Point:	-0.254	Pitch Set Point:	0.049	Yaw Set Point:	0.034	X_WP:	0.100	Y_WP:	0.000	Y_WP:	0.500	X:	0.176	Y:	-0.026	Z:	0.588	yaw:	-1.944	yaw rate:	-41.965	Roll:	1.957	Pitch:	-0.044	Yaw:	-7.166	Thrust:	98.339
Time:	4.338	Roll Set Point:	-0.250	Pitch Set Point:	0.049	Yaw Set Point:	0.030	X_WP:	0.100	Y_WP:	0.000	Y_WP:	0.500	X:	0.175	Y:	-0.026	Z:	0.594	yaw:	-1.691	yaw rate:	5.693	Roll:	-0.093	Pitch:	-1.188	Yaw:	4.137	Thrust:	40.691
Time:	4.354	Roll Set Point:	-0.249	Pitch Set Point:	0.049	Yaw Set Point:	0.037	X_WP:	0.100	Y_WP:	0.000	Y_WP:	0.500	X:	0.174	Y:	-0.026	Z:	0.595	yaw:	-2.106	yaw rate:	-41.536	Roll:	1.204	Pitch:	0.049	Yaw:	-8.927	Thrust:	67.133
Time:	4.366	Roll Set Point:	-0.248	Pitch Set Point:	0.050	Yaw Set Point:	0.028	X_WP:	0.100	Y_WP:	0.000	Y_WP:	0.500	X:	0.174	Y:	-0.026	Z:	0.597	yaw:	-1.629	yaw rate:	47.771	Roll:	1.608	Pitch:	-1.348	Yaw:	8.068	Thrust:	78.607
Time:	4.377	Roll Set Point:	-0.247	Pitch Set Point:	0.049	Yaw Set Point:	0.039	X_WP:	0.100	Y_WP:	0.000	Y_WP:	0.500	X:	0.173	Y:	-0.026	Z:	0.598	yaw:	-2.222	yaw rate:	-59.387	Roll:	1.306	Pitch:	0.713	Yaw:	-16.301	Thrust:	49.669
Time:	4.392	Roll Set Point:	-0.246	Pitch Set Point:	0.050	Yaw Set Point:	0.028	X_WP:	0.100	Y_WP:	0.000	Y_WP:	0.500	X:	0.172	Y:	-0.026	Z:	0.599	yaw:	-1.600	yaw rate:	62.212	Roll:	1.436	Pitch:	-1.479	Yaw:	10.295	Thrust:	75.317
Time:	4.406	Roll Set Point:	-0.242	Pitch Set Point:	0.049	Yaw Set Point:	0.044	X_WP:	0.100	Y_WP:	0.000	Y_WP:	0.500	X:	0.171	Y:	-0.026	Z:	0.601	yaw:	-2.502	yaw rate:	-8.031	Roll:	0.522	Pitch:	0.650	Yaw:	-19.857	Thrust:	61.404
Time:	4.422	Roll Set Point:	-0.240	Pitch Set Point:	0.050	Yaw Set Point:	0.033	X_WP:	0.100	Y_WP:	0.000	Y_WP:	0.500	X:	0.170	Y:	-0.026	Z:	0.602	yaw:	-1.867	yaw rate:	63.485	Roll:	0.836	Pitch:	-1.400	Yaw:	8.801	Thrust:	82.414
Time:	4.433	Roll Set Point:	-0.240	Pitch Set Point:	0.049	Yaw Set Point:	0.041	X_WP:	0.100	Y_WP:	0.000	Y_WP:	0.500	X:	0.169	Y:	-0.026	Z:	0.603	yaw:	-2.325	yaw rate:	-45.746	Roll:	1.673	Pitch:	0.222	Yaw:	-12.700	Thrust:	59.731
Time:	4.444	Roll Set Point:	-0.239	Pitch Set Point:	0.049	Yaw Set Point:	0.037	X_WP:	0.100	Y_WP:	0.000	Y_WP:	0.500	X:	0.169	Y:	-0.026	Z:	0.603	yaw:	-2.141	yaw rate:	18.428	Roll:	1.767	Pitch:	-0.774	Yaw:	2.242	Thrust:	53.768
Time:	4.458	Roll Set Point:	-0.238	Pitch Set Point:	0.049	Yaw Set Point:	0.045	X_WP:	0.100	Y_WP:	0.000	Y_WP:	0.500	X:	0.168	Y:	-0.026	Z:	0.604	yaw:	-2.593	yaw rate:	-45.199	Roll:	1.237	Pitch:	0.098	Yaw:	-11.694	Thrust:	62.735
Time:	4.469	Roll Set Point:	-0.235	Pitch Set Point:	0.049	Yaw Set Point:	0.035	X_WP:	0.100	Y_WP:	0.000	Y_WP:	0.500	X:	0.167	Y:	-0.026	Z:	0.604	yaw:	-1.995	yaw rate:	30.844	Roll:	-0.087	Pitch:	-1.446	Yaw:	11.116	Thrust:	61.529
Time:	4.480	Roll Set Point:	-0.235	Pitch Set Point:	0.049	Yaw Set Point:	0.037	X_WP:	0.100	Y_WP:	0.000	Y_WP:	0.500	X:	0.167	Y:	-0.026	Z:	0.605	yaw:	-2.135	yaw rate:	-13.928	Roll:	1.673	Pitch:	0.037	Yaw:	-5.650	Thrust:	51.011
Time:	4.493	Roll Set Point:	-0.233	Pitch Set Point:	0.049	Yaw Set Point:	0.034	X_WP:	0.100	Y_WP:	0.000	Y_WP:	0.500	X:	0.166	Y:	-0.025	Z:	0.605	yaw:	-1.968	yaw rate:	16.677	Roll:	1.220	Pitch:	-0.781	Yaw:	1.608	Thrust:	64.226
Time:	4.503	Roll Set Point:	-0.232	Pitch Set Point:	0.048	Yaw Set Point:	0.042	X_WP:	0.100	Y_WP:	0.000	Y_WP:	0.500	X:	0.166	Y:	-0.025	Z:	0.606	yaw:	-2.380	yaw rate:	-41.193	Roll:	1.222	Pitch:	0.212	Yaw:	-12.784	Thrust:	50.580
Time:	4.521	Roll Set Point:	-0.231	Pitch Set Point:	0.048	Yaw Set Point:	0.045	X_WP:	0.100	Y_WP:	0.000	Y_WP:	0.500	X:	0.165	Y:	-0.025	Z:	0.606	yaw:	-2.585	yaw rate:	-20.484	Roll:	1.388	Pitch:	-0.245	Yaw:	-5.507	Thrust:	81.864
Time:	4.537	Roll Set Point:	-0.229	Pitch Set Point:	0.048	Yaw Set Point:	0.052	X_WP:	0.100	Y_WP:	0.000	Y_WP:	0.500	X:	0.164	Y:	-0.025	Z:	0.607	yaw:	-3.005	yaw rate:	-41.997	Roll:	1.300	Pitch:	-0.149	Yaw:	-9.508	Thrust:	90.277
Time:	4.557	Roll Set Point:	-0.227	Pitch Set Point:	0.047	Yaw Set Point:	0.049	X_WP:	0.100	Y_WP:	0.000	Y_WP:	0.500	X:	0.163	Y:	-0.025	Z:	0.608	yaw:	-2.791	yaw rate:	-0.642	Roll:	0.890	Pitch:	-0.539	Yaw:	0.348	Thrust:	99.574
Time:	4.569	Roll Set Point:	-0.225	Pitch Set Point:	0.048	Yaw Set Point:	0.047	X_WP:	0.100	Y_WP:	0.000	Y_WP:	0.500	X:	0.162	Y:	-0.025	Z:	0.609	yaw:	-2.683	yaw rate:	12.910	Roll:	0.682	Pitch:	-0.772	Yaw:	-0.552	Thrust:	56.881
Time:	4.592	Roll Set Point:	-0.225	Pitch Set Point:	0.047	Yaw Set Point:	0.050	X_WP:	0.100	Y_WP:	0.000	Y_WP:	0.500	X:	0.162	Y:	-0.025	Z:	0.609	yaw:	-2.861	yaw rate:	-17.744	Roll:	1.647	Pitch:	-0.302	Yaw:	-4.411	Thrust:	100.000
Time:	4.605	Roll Set Point:	-0.221	Pitch Set Point:	0.047	Yaw Set Point:	0.043	X_WP:	0.100	Y_WP:	0.000	Y_WP:	0.500	X:	0.160	Y:	-0.025	Z:	0.611	yaw:	-2.457	yaw rate:	20.341	Roll:	-0.190	Pitch:	-0.710	Yaw:	5.556	Thrust:	58.772
Time:	4.626	Roll Set Point:	-0.220	Pitch Set Point:	0.047	Yaw Set Point:	0.033	X_WP:	0.100	Y_WP:	0.000	Y_WP:	0.500	X:	0.160	Y:	-0.025	Z:	0.613	yaw:	-1.868	yaw rate:	-12.514	Roll:	1.208	Pitch:	-0.840	Yaw:	6.135	Thrust:	100.000
Time:	4.639	Roll Set Point:	-0.218	Pitch Set Point:	0.047	Yaw Set Point:	0.038	X_WP:	0.100	Y_WP:	0.000	Y_WP:	0.500	X:	0.159	Y:	-0.025	Z:	0.614	yaw:	-2.192	yaw rate:	-32.422	Roll:	0.874	Pitch:	-0.028	Yaw:	-8.700	Thrust:	57.950
Time:	4.651	Roll Set Point:	-0.218	Pitch Set Point:	0.047	Yaw Set Point:	0.035	X_WP:	0.100	Y_WP:	0.000	Y_WP:	0.500	X:	0.158	Y:	-0.025	Z:	0.616	yaw:	-1.986	yaw rate:	20.680	Roll:	1.127	Pitch:	-0.778	Yaw:	2.373	Thrust:	59.553
Time:	4.664	Roll Set Point:	-0.217	Pitch Set Point:	0.047	Yaw Set Point:	0.035	X_WP:	0.100	Y_WP:	0.000	Y_WP:	0.500	X:	0.158	Y:	-0.024	Z:	0.617	yaw:	-1.996	yaw rate:	-1.085	Roll:	1.389	Pitch:	-0.440	Yaw:	-2.196	Thrust:	52.396
Time:	4.678	Roll Set Point:	-0.216	Pitch Set Point:	0.047	Yaw Set Point:	0.040	X_WP:	0.100	Y_WP:	0.000	Y_WP:	0.500	X:	0.158	Y:	-0.024	Z:	0.619	yaw:	-2.279	yaw rate:	-28.244	Roll:	1.351	Pitch:	-0.121	Yaw:	-7.771	Thrust:	64.065
Time:	4.692	Roll Set Point:	-0.214	Pitch Set Point:	0.046	Yaw Set Point:	0.036	X_WP:	0.100	Y_WP:	0.000	Y_WP:	0.500	X:	0.157	Y:	-0.024	Z:	0.623	yaw:	-2.069	yaw rate:	-81.415	Roll:	0.724	Pitch:	-0.364	Yaw:	1.826	Thrust:	58.712
Time:	4.704	Roll Set Point:	-0.213	Pitch Set Point:	0.047	Yaw Set Point:	0.021	X_WP:	0.100	Y_WP:	0.000	Y_WP:	0.500	X:	0.156	Y:	-0.024	Z:	0.625	yaw:	-1.229	yaw rate:	83.929	Roll:	0.316	Pitch:	-1.575	Yaw:	17.304	Thrust:	46.700
Time:	4.723	Roll Set Point:	-0.213	Pitch Set Point:	0.045	Yaw Set Point:	0.034	X_WP:	0.100	Y_WP:	0.000	Y_WP:	0.500	X:	0.156	Y:	-0.024	Z:	0.628	yaw:	-1.941	yaw rate:	-71.216	Roll:	1.977	Pitch:	0.396	Yaw:	-11.906	Thrust:	83.452
Time:	4.735	Roll Set Point:	-0.211	Pitch Set Point:	0.045	Yaw Set Point:	0.029	X_WP:	0.100	Y_WP:	0.000	Y_WP:	0.500	X:	0.155	Y:	-0.023	Z:	0.632	yaw:	-1.656	yaw rate:	-21.313	Roll:	0.500	Pitch:	-0.466	Yaw:	4.437	Thrust:	45.592
Time:	4.749	Roll Set Point:	-0.210	Pitch Set Point:	0.044	Yaw Set Point:	0.027	X_WP:	0.100	Y_WP:	0.000	Y_WP:	0.500	X:	0.155	Y:	-0.023	Z:	0.638	yaw:	-1.540	yaw rate:	11.597	Roll:	1.150	Pitch:	-0.241	Yaw:	0.830	Thrust:	43.761
Time:	4.762	Roll Set Point:	-0.209	Pitch Set Point:	0.044	Yaw Set Point:	0.032	X_WP:	0.100	Y_WP:	0.000	Y_WP:	0.500	X:	0.154	Y:	-0.023	Z:	0.640	yaw:	-1.828	yaw rate:	-28.792	Roll:	1.155	Pitch:	0.172	Yaw:	-7.803	Thrust:	58.423
Time:	4.773	Roll Set Point:	-0.209	Pitch Set Point:	0.043	Yaw Set Point:	0.037	X_WP:	0.100	Y_WP:	0.000	Y_WP:	0.500	X:	0.154	Y:	-0.023	Z:	0.643	yaw:	-2.143	yaw rate:	-31.497	Roll:	1.444	Pitch:	0.167	Yaw:	-9.451	Thrust:	40.422
Time:	4.794	Roll Set Point:	-0.208	Pitch Set Point:	0.042	Yaw Set Point:	0.041	X_WP:	0.100	Y_WP:	0.000	Y_WP:	0.500	X:	0.154	Y:	-0.022	Z:	0.648	yaw:	-2.336	yaw rate:	-39.857	Roll:	1.392	Pitch:	-0.095	Yaw:	-4.509	Thrust:	92.367
Time:	4.806	Roll Set Point:	-0.207	Pitch Set Point:	0.042	Yaw Set Point:	0.030	X_WP:	0.100	Y_WP:	0.000	Y_WP:	0.500	X:	0.153	Y:	-0.022	Z:	0.650	yaw:	-1.726	yaw rate:	61.011	Roll:	0.786	Pitch:	-0.932	Yaw:	11.572	Thrust:	46.105
Time:	4.824	Roll Set Point:	-0.206	Pitch Set Point:	0.041	Yaw Set Point:	0.042	X_WP:	0.100	Y_WP:	0.000	Y_WP:	0.500	X:	0.152	Y:	-0.022	Z:	0.654	yaw:	-2.432	yaw rate:	-81.333	Roll:	1.181	Pitch:	0.626	Yaw:	-12.275	Thrust:	79.437
Time:	4.836	Roll Set Point:	-0.206	Pitch Set Point:	0.040	Yaw Set Point:	0.043	X_WP:	0.100	Y_WP:	0.000	Y_WP:	0.500	X:	0.153	Y:	-0.021	Z:	0.656	yaw:	-2.459	yaw rate:	-2.751	Roll:	1.909	Pitch:	-0.055	Yaw:	-3.399	Thrust:	41.742
Time:	4.857	Roll Set Point:	-0.205	Pitch Set Point:	0.039	Yaw Set Point:	0.043	X_WP:	0.100	Y_WP:	0.000	Y_WP:	0.500	X:	0.152	Y:	-0.021	Z:	0.660	yaw:	-2.482	yaw rate:	-2.307	Roll:	1.051	Pitch:	0.379	Yaw:	-2.602	Thrust:	87.330
Time:	4.870	Roll Set Point:	-0.205	Pitch Set Point:	0.038	Yaw Set Point:	0.047	X_WP:	0.100	Y_WP:	0.000	Y_WP:	0.500	X:	0.152	Y:	-0.020	Z:	0.663	yaw:	-2.667	yaw rate:	-77.948	Roll:	1.481	Pitch:	0.115	Yaw:	-6.543	Thrust:	50.822
Time:	4.885	Roll Set Point:	-0.204	Pitch Set Point:	0.039	Yaw Set Point:	0.022	X_WP:	0.100	Y_WP:	0.000	Y_WP:	0.500	X:	0.152	Y:	-0.020	Z:	0.664	yaw:	-1.247	yaw rate:	141.924	Roll:	0.702	Pitch:	-1.615	Yaw:	25.495	Thrust:	62.222
Time:	4.902	Roll Set Point:	-0.203	Pitch Set Point:	0.036	Yaw Set Point:	0.043	X_WP:	0.100	Y_WP:	0.000	Y_WP:	0.500	X:	0.151	Y:	-0.019	Z:	0.667	yaw:	-2.469	yaw rate:	20.225	Roll:	1.593	Pitch:	1.410	Yaw:	-20.725	Thrust:	73.073
Time:	4.914	Roll Set Point:	-0.203	Pitch Set Point:	0.036	Yaw Set Point:	0.040	X_WP:	0.100	Y_WP:	0.000	Y_WP:	0.500	X:	0.151	Y:	-0.019	Z:	0.668	yaw:	-2.267	yaw rate:	20.221	Roll:	1.691	Pitch:	-0.230	Yaw:	1.875	Thrust:	47.176
Time:	4.925	Roll Set Point:	-0.203	Pitch Set Point:	0.035	Yaw Set Point:	0.055	X_WP:	0.100	Y_WP:	0.000	Y_WP:	0.500	X:	0.151	Y:	-0.019	Z:	0.668	yaw:	-3.123	yaw rate:	-85.615	Roll:	1.315	Pitch:	0.800	Yaw:	-23.193	Thrust:	50.884
Time:	4.937	Roll Set Point:	-0.202	Pitch Set Point:	0.035	Yaw Set Point:	0.039	X_WP:	0.100	Y_WP:	0.000	Y_WP:	0.500	X:	0.151	Y:	-0.019	Z:	0.669	yaw:	-2.243	yaw rate:	87.963	Roll:	0.797	Pitch:	-1.329	Yaw:	18.316	Thrust:	44.518
Time:	4.948	Roll Set Point:	-0.202	Pitch Set Point:	0.034	Yaw Set Point:	0.044	X_WP:	0.100	Y_WP:	0.000	Y_WP:	0.500	X:	0.151	Y:	-0.018	Z:	0.669	yaw:	-2.516	yaw rate:	-27.319	Roll:	1.616	Pitch:	0.445	Yaw:	-9.134	Thrust:	48.086
Time:	4.964	Roll Set Point:	-0.202	Pitch Set Point:	0.033	Yaw Set Point:	0.052	X_WP:	0.100	Y_WP:	0.000	Y_WP:	0.500	X:	0.150	Y:	-0.018	Z:	0.669	yaw:	-2.979	yaw rate:	-46.273	Roll:	1.613	Pitch:	0.487	Yaw:	-10.914	Thrust:	71.251
Time:	4.976	Roll Set Point:	-0.202	Pitch Set Point:	0.034	Yaw Set Point:	0.051	X_WP:	0.100	Y_WP:	0.000	Y_WP:	0.500	X:	0.151	Y:	-0.018	Z:	0.669	yaw:	-2.910	yaw rate:	6.913	Roll:	1.627	Pitch:	-0.607	Yaw:	-1.974	Thrust:	51.808
Time:	4.990	Roll Set Point:	-0.202	Pitch Set Point:	0.033	Yaw Set Point:	0.051	X_WP:	0.100	Y_WP:	0.000	Y_WP:	0.500	X:	0.151	Y:	-0.018	Z:	0.669	yaw:	-2.910	yaw rate:	-0.015	Roll:	1.719	Pitch:	0.197	Yaw:	-3.398	Thrust:	57.392
Time:	5.003	Roll Set Point:	-0.201	Pitch Set Point:	0.033	Yaw Set Point:	0.032	X_WP:	0.100	Y_WP:	0.000	Y_WP:	0.500	X:	0.150	Y:	-0.017	Z:	0.669	yaw:	-1.846	yaw rate:	106.394	Roll:	1.056	Pitch:	-1.061	Yaw:	18.631	Thrust:	61.690
Time:	5.024	Roll Set Point:	-0.201	Pitch Set Point:	0.031	Yaw Set Point:	0.051	X_WP:	0.100	Y_WP:	0.000	Y_WP:	0.500	X:	0.150	Y:	-0.017	Z:	0.668	yaw:	-2.947	yaw rate:	-17.414	Roll:	1.678	Pitch:	1.005	Yaw:	-17.551	Thrust:	89.192
Time:	5.038	Roll Set Point:	-0.201	Pitch Set Point:	0.031	Yaw Set Point:	0.053	X_WP:	0.100	Y_WP:	0.000	Y_WP:	0.500	X:	0.150	Y:	-0.017	Z:	0.668	yaw:	-3.024	yaw rate:	-7.690	Roll:	1.736	Pitch:	0.000	Yaw:	-5.027	Thrust:	63.174
Time:	5.055	Roll Set Point:	-0.201	Pitch Set Point:	0.030	Yaw Set Point:	0.052	X_WP:	0.100	Y_WP:	0.000	Y_WP:	0.500	X:	0.150	Y:	-0.016	Z:	0.667	yaw:	-2.980	yaw rate:	-52.630	Roll:	1.214	Pitch:	0.016	Yaw:	-2.737	Thrust:	78.526
Time:	5.068	Roll Set Point:	-0.201	Pitch Set Point:	0.030	Yaw Set Point:	0.050	X_WP:	0.100	Y_WP:	0.000	Y_WP:	0.500	X:	0.150	Y:	-0.016	Z:	0.667	yaw:	-2.851	yaw rate:	12.895	Roll:	1.665	Pitch:	-0.194	Yaw:	-0.907	Thrust:	58.576
Time:	5.081	Roll Set Point:	-0.201	Pitch Set Point:	0.029	Yaw Set Point:	0.046	X_WP:	0.100	Y_WP:	0.000	Y_WP:	0.500	X:	0.150	Y:	-0.016	Z:	0.666	yaw:	-2.634	yaw rate:	-33.391	Roll:	1.479	Pitch:	-0.065	Yaw:	1.547	Thrust:	53.429
Time:	5.094	Roll Set Point:	-0.201	Pitch Set Point:	0.029	Yaw Set Point:	0.050	X_WP:	0.100	Y_WP:	0.000	Y_WP:	0.500	X:	0.150	Y:	-0.016	Z:	0.665	yaw:	-2.890	yaw rate:	-25.636	Roll:	1.623	Pitch:	0.123	Yaw:	-8.440	Thrust:	58.564
Time:	5.106	Roll Set Point:	-0.201	Pitch Set Point:	0.029	Yaw Set Point:	0.053	X_WP:	0.100	Y_WP:	0.000	Y_WP:	0.500	X:	0.150	Y:	-0.016	Z:	0.665	yaw:	-3.032	yaw rate:	-14.161	Roll:	1.643	Pitch:	-0.089	Yaw:	-6.988	Thrust:	48.994
Time:	5.125	Roll Set Point:	-0.201	Pitch Set Point:	0.028	Yaw Set Point:	0.052	X_WP:	0.100	Y_WP:	0.000	Y_WP:	0.500	X:	0.150	Y:	-0.015	Z:	0.664	yaw:	-2.969	yaw rate:	6.316	Roll:	1.580	Pitch:	-0.142	Yaw:	-2.533	Thrust:	76.636
Time:	5.138	Roll Set Point:	-0.201	Pitch Set Point:	0.028	Yaw Set Point:	0.050	X_WP:	0.100	Y_WP:	0.000	Y_WP:	0.500	X:	0.150	Y:	-0.015	Z:	0.663	yaw:	-2.869	yaw rate:	-12.939	Roll:	1.611	Pitch:	0.041	Yaw:	-1.578	Thrust:	62.552
Time:	5.157	Roll Set Point:	-0.201	Pitch Set Point:	0.027	Yaw Set Point:	0.055	X_WP:	0.100	Y_WP:	0.000	Y_WP:	0.500	X:	0.150	Y:	-0.015	Z:	0.662	yaw:	-3.173	yaw rate:	-30.346	Roll:	1.846	Pitch:	-0.045	Yaw:	-7.899	Thrust:	83.429
Time:	5.169	Roll Set Point:	-0.201	Pitch Set Point:	0.027	Yaw Set Point:	0.050	X_WP:	0.100	Y_WP:	0.000	Y_WP:	0.500	X:	0.150	Y:	-0.015	Z:	0.661	yaw:	-2.871	yaw rate:	-19.161	Roll:	1.520	Pitch:	-0.224	Yaw:	2.739	Thrust:	56.286
Time:	5.183	Roll Set Point:	-0.201	Pitch Set Point:	0.027	Yaw Set Point:	0.051	X_WP:	0.100	Y_WP:	0.000	Y_WP:	0.500	X:	0.150	Y:	-0.015	Z:	0.661	yaw:	-2.950	yaw rate:	-7.832	Roll:	1.524	Pitch:	-0.125	Yaw:	-5.092	Thrust:	60.134
Time:	5.195	Roll Set Point:	-0.201	Pitch Set Point:	0.027	Yaw Set Point:	0.043	X_WP:	0.100	Y_WP:	0.000	Y_WP:	0.500	X:	0.150	Y:	-0.015	Z:	0.660	yaw:	-2.468	yaw rate:	48.167	Roll:	2.019	Pitch:	-0.797	Yaw:	8.358	Thrust:	45.471
Time:	5.206	Roll Set Point:	-0.201	Pitch Set Point:	0.027	Yaw Set Point:	0.051	X_WP:	0.100	Y_WP:	0.000	Y_WP:	0.500	X:	0.150	Y:	-0.015	Z:	0.659	yaw:	-2.926	yaw rate:	-45.822	Roll:	1.308	Pitch:	0.349	Yaw:	-14.112	Thrust:	46.774
Time:	5.225	Roll Set Point:	-0.201	Pitch Set Point:	0.027	Yaw Set Point:	0.045	X_WP:	0.100	Y_WP:	0.000	Y_WP:	0.500	X:	0.150	Y:	-0.015	Z:	0.658	yaw:	-2.556	yaw rate:	28.406	Roll:	1.695	Pitch:	-0.356	Yaw:	2.120	Thrust:	86.517
Time:	5.238	Roll Set Point:	-0.201	Pitch Set Point:	0.027	Yaw Set Point:	0.044	X_WP:	0.100	Y_WP:	0.000	Y_WP:	0.500	X:	0.150	Y:	-0.014	Z:	0.657	yaw:	-2.499	yaw rate:	5.665	Roll:	1.563	Pitch:	-0.254	Yaw:	-1.976	Thrust:	54.864
Time:	5.259	Roll Set Point:	-0.202	Pitch Set Point:	0.027	Yaw Set Point:	0.049	X_WP:	0.100	Y_WP:	0.000	Y_WP:	0.500	X:	0.150	Y:	-0.015	Z:	0.655	yaw:	-2.797	yaw rate:	-29.753	Roll:	1.966	Pitch:	-0.039	Yaw:	-6.973	Thrust:	95.163
Time:	5.271	Roll Set Point:	-0.202	Pitch Set Point:	0.026	Yaw Set Point:	0.050	X_WP:	0.100	Y_WP:	0.000	Y_WP:	0.500	X:	0.150	Y:	-0.015	Z:	0.653	yaw:	-2.867	yaw rate:	4.393	Roll:	1.654	Pitch:	-0.187	Yaw:	-5.250	Thrust:	52.517
Time:	5.289	Roll Set Point:	-0.202	Pitch Set Point:	0.026	Yaw Set Point:	0.051	X_WP:	0.100	Y_WP:	0.000	Y_WP:	0.500	X:	0.150	Y:	-0.014	Z:	0.652	yaw:	-2.908	yaw rate:	-4.172	Roll:	1.712	Pitch:	-0.096	Yaw:	-4.160	Thrust:	76.961
Time:	5.303	Roll Set Point:	-0.202	Pitch Set Point:	0.026	Yaw Set Point:	0.047	X_WP:	0.100	Y_WP:	0.000	Y_WP:	0.500	X:	0.150	Y:	-0.014	Z:	0.650	yaw:	-2.682	yaw rate:	-12.431	Roll:	1.598	Pitch:	-0.478	Yaw:	0.861	Thrust:	60.172
Time:	5.321	Roll Set Point:	-0.202	Pitch Set Point:	0.026	Yaw Set Point:	0.048	X_WP:	0.100	Y_WP:	0.000	Y_WP:	0.500	X:	0.151	Y:	-0.014	Z:	0.650	yaw:	-2.777	yaw rate:	-9.541	Roll:	1.761	Pitch:	-0.076	Yaw:	-4.898	Thrust:	71.714
Time:	5.332	Roll Set Point:	-0.201	Pitch Set Point:	0.027	Yaw Set Point:	0.032	X_WP:	0.100	Y_WP:	0.000	Y_WP:	0.500	X:	0.150	Y:	-0.014	Z:	0.648	yaw:	-1.853	yaw rate:	85.326	Roll:	1.097	Pitch:	-1.065	Yaw:	17.822	Thrust:	53.843
Time:	5.344	Roll Set Point:	-0.202	Pitch Set Point:	0.026	Yaw Set Point:	0.042	X_WP:	0.100	Y_WP:	0.000	Y_WP:	0.500	X:	0.150	Y:	-0.014	Z:	0.647	yaw:	-2.409	yaw rate:	-55.575	Roll:	2.335	Pitch:	0.401	Yaw:	-16.285	Thrust:	46.289
Time:	5.358	Roll Set Point:	-0.202	Pitch Set Point:	0.026	Yaw Set Point:	0.042	X_WP:	0.100	Y_WP:	0.000	Y_WP:	0.500	X:	0.150	Y:	-0.014	Z:	0.647	yaw:	-2.409	yaw rate:	0.014	Roll:	1.643	Pitch:	-0.262	Yaw:	-3.017	Thrust:	56.445
Time:	5.370	Roll Set Point:	-0.201	Pitch Set Point:	0.026	Yaw Set Point:	0.040	X_WP:	0.100	Y_WP:	0.000	Y_WP:	0.500	X:	0.150	Y:	-0.014	Z:	0.646	yaw:	-2.296	yaw rate:	11.295	Roll:	1.441	Pitch:	-0.301	Yaw:	-0.472	Thrust:	49.399
Time:	5.389	Roll Set Point:	-0.202	Pitch Set Point:	0.026	Yaw Set Point:	0.043	X_WP:	0.100	Y_WP:	0.000	Y_WP:	0.500	X:	0.151	Y:	-0.014	Z:	0.646	yaw:	-2.439	yaw rate:	-14.295	Roll:	1.869	Pitch:	-0.159	Yaw:	-5.562	Thrust:	55.384
Time:	5.406	Roll Set Point:	-0.202	Pitch Set Point:	0.027	Yaw Set Point:	0.029	X_WP:	0.100	Y_WP:	0.000	Y_WP:	0.500	X:	0.151	Y:	-0.014	Z:	0.646	yaw:	-1.645	yaw rate:	64.090	Roll:	1.741	Pitch:	-0.679	Yaw:	8.012	Thrust:	84.528
Time:	5.425	Roll Set Point:	-0.201	Pitch Set Point:	0.026	Yaw Set Point:	0.037	X_WP:	0.100	Y_WP:	0.000	Y_WP:	0.500	X:	0.150	Y:	-0.014	Z:	0.646	yaw:	-2.120	yaw rate:	-2.620	Roll:	1.524	Pitch:	0.153	Yaw:	-9.573	Thrust:	78.355
Time:	5.437	Roll Set Point:	-0.201	Pitch Set Point:	0.026	Yaw Set Point:	0.034	X_WP:	0.100	Y_WP:	0.000	Y_WP:	0.500	X:	0.150	Y:	-0.014	Z:	0.646	yaw:	-1.945	yaw rate:	17.432	Roll:	1.720	Pitch:	-0.401	Yaw:	0.917	Thrust:	50.574
Time:	5.456	Roll Set Point:	-0.201	Pitch Set Point:	0.027	Yaw Set Point:	0.028	X_WP:	0.100	Y_WP:	0.000	Y_WP:	0.500	X:	0.150	Y:	-0.014	Z:	0.645	yaw:	-1.596	yaw rate:	47.530	Roll:	1.432	Pitch:	-0.868	Yaw:	3.240	Thrust:	70.181
Time:	5.470	Roll Set Point:	-0.201	Pitch Set Point:	0.026	Yaw Set Point:	0.032	X_WP:	0.100	Y_WP:	0.000	Y_WP:	0.500	X:	0.150	Y:	-0.014	Z:	0.645	yaw:	-1.807	yaw rate:	-21.105	Roll:	1.875	Pitch:	0.187	Yaw:	-6.034	Thrust:	58.804
Time:	5.492	Roll Set Point:	-0.201	Pitch Set Point:	0.026	Yaw Set Point:	0.032	X_WP:	0.100	Y_WP:	0.000	Y_WP:	0.500	X:	0.150	Y:	-0.014	Z:	0.644	yaw:	-1.833	yaw rate:	-2.619	Roll:	1.557	Pitch:	-0.294	Yaw:	-2.501	Thrust:	84.246
Time:	5.503	Roll Set Point:	-0.201	Pitch Set Point:	0.026	Yaw Set Point:	0.031	X_WP:	0.100	Y_WP:	0.000	Y_WP:	0.500	X:	0.150	Y:	-0.014	Z:	0.643	yaw:	-1.770	yaw rate:	-6.704	Roll:	1.687	Pitch:	-0.274	Yaw:	-0.878	Thrust:	54.460
Time:	5.523	Roll Set Point:	-0.201	Pitch Set Point:	0.026	Yaw Set Point:	0.029	X_WP:	0.100	Y_WP:	0.000	Y_WP:	0.500	X:	0.150	Y:	-0.014	Z:	0.642	yaw:	-1.635	yaw rate:	13.409	Roll:	1.722	Pitch:	-0.268	Yaw:	-0.224	Thrust:	77.598
Time:	5.536	Roll Set Point:	-0.201	Pitch Set Point:	0.026	Yaw Set Point:	0.027	X_WP:	0.100	Y_WP:	0.000	Y_WP:	0.500	X:	0.150	Y:	-0.014	Z:	0.641	yaw:	-1.554	yaw rate:	-4.865	Roll:	1.433	Pitch:	-0.474	Yaw:	-0.205	Thrust:	52.340
Time:	5.550	Roll Set Point:	-0.200	Pitch Set Point:	0.027	Yaw Set Point:	0.022	X_WP:	0.100	Y_WP:	0.000	Y_WP:	0.500	X:	0.150	Y:	-0.014	Z:	0.641	yaw:	-1.264	yaw rate:	28.977	Roll:	1.403	Pitch:	-0.831	Yaw:	3.927	Thrust:	53.513
Time:	5.568	Roll Set Point:	-0.201	Pitch Set Point:	0.026	Yaw Set Point:	0.032	X_WP:	0.100	Y_WP:	0.000	Y_WP:	0.500	X:	0.150	Y:	-0.014	Z:	0.639	yaw:	-1.818	yaw rate:	3.166	Roll:	2.017	Pitch:	0.388	Yaw:	-10.297	Thrust:	70.608
Time:	5.585	Roll Set Point:	-0.201	Pitch Set Point:	0.027	Yaw Set Point:	0.022	X_WP:	0.100	Y_WP:	0.000	Y_WP:	0.500	X:	0.150	Y:	-0.014	Z:	0.639	yaw:	-1.246	yaw rate:	57.218	Roll:	1.695	Pitch:	-0.770	Yaw:	7.050	Thrust:	66.309
Time:	5.597	Roll Set Point:	-0.200	Pitch Set Point:	0.027	Yaw Set Point:	0.025	X_WP:	0.100	Y_WP:	0.000	Y_WP:	0.500	X:	0.150	Y:	-0.014	Z:	0.638	yaw:	-1.459	yaw rate:	22.149	Roll:	1.273	Pitch:	-0.180	Yaw:	-6.322	Thrust:	52.706
Time:	5.609	Roll Set Point:	-0.200	Pitch Set Point:	0.027	Yaw Set Point:	0.013	X_WP:	0.100	Y_WP:	0.000	Y_WP:	0.500	X:	0.150	Y:	-0.014	Z:	0.638	yaw:	-0.769	yaw rate:	69.044	Roll:	1.436	Pitch:	-0.963	Yaw:	14.758	Thrust:	42.989
Time:	5.626	Roll Set Point:	-0.199	Pitch Set Point:	0.027	Yaw Set Point:	0.017	X_WP:	0.100	Y_WP:	0.000	Y_WP:	0.500	X:	0.150	Y:	-0.014	Z:	0.637	yaw:	-0.973	yaw rate:	-20.426	Roll:	1.311	Pitch:	-0.226	Yaw:	-4.302	Thrust:	60.659
Time:	5.642	Roll Set Point:	-0.200	Pitch Set Point:	0.026	Yaw Set Point:	0.027	X_WP:	0.100	Y_WP:	0.000	Y_WP:	0.500	X:	0.150	Y:	-0.014	Z:	0.637	yaw:	-1.534	yaw rate:	-56.100	Roll:	1.800	Pitch:	0.465	Yaw:	-11.387	Thrust:	61.023
