Time:	2.141	Roll Set Point:	-0.234	Pitch Set Point:	-0.122	Yaw Set Point:	-0.577	X_WP:	0.000	Y_WP:	0.000	Y_WP:	0.500	X:	0.099	Y:	0.096	Z:	0.399	yaw:	33.035	yaw rate:	-8.229	Roll:	3.921	Pitch:	0.756	Yaw:	46.126	Thrust:	5.562
Time:	2.156	Roll Set Point:	-0.234	Pitch Set Point:	-0.122	Yaw Set Point:	-0.577	X_WP:	0.000	Y_WP:	0.000	Y_WP:	0.500	X:	0.099	Y:	0.096	Z:	0.399	yaw:	33.070	yaw rate:	3.542	Roll:	3.935	Pitch:	0.691	Yaw:	46.949	Thrust:	5.922
Time:	2.172	Roll Set Point:	-0.234	Pitch Set Point:	-0.121	Yaw Set Point:	-0.577	X_WP:	0.000	Y_WP:	0.000	Y_WP:	0.500	X:	0.099	Y:	0.095	Z:	0.399	yaw:	33.057	yaw rate:	-1.323	Roll:	3.701	Pitch:	0.697	Yaw:	46.295	Thrust:	5.436
Time:	2.188	Roll Set Point:	-0.234	Pitch Set Point:	-0.122	Yaw Set Point:	-0.576	X_WP:	0.000	Y_WP:	0.000	Y_WP:	0.500	X:	0.099	Y:	0.096	Z:	0.399	yaw:	33.027	yaw rate:	-5.997	Roll:	4.142	Pitch:	0.921	Yaw:	46.151	Thrust:	6.343
Time:	2.203	Roll Set Point:	-0.234	Pitch Set Point:	-0.122	Yaw Set Point:	-0.578	X_WP:	0.000	Y_WP:	0.000	Y_WP:	0.500	X:	0.099	Y:	0.096	Z:	0.399	yaw:	33.089	yaw rate:	6.225	Roll:	3.980	Pitch:	0.639	Yaw:	47.965	Thrust:	6.618
Time:	2.219	Roll Set Point:	-0.234	Pitch Set Point:	-0.122	Yaw Set Point:	-0.578	X_WP:	0.000	Y_WP:	0.000	Y_WP:	0.500	X:	0.099	Y:	0.096	Z:	0.399	yaw:	33.097	yaw rate:	0.798	Roll:	3.935	Pitch:	0.728	Yaw:	47.248	Thrust:	6.469
Time:	2.235	Roll Set Point:	-0.234	Pitch Set Point:	-0.122	Yaw Set Point:	-0.578	X_WP:	0.000	Y_WP:	0.000	Y_WP:	0.500	X:	0.099	Y:	0.096	Z:	0.399	yaw:	33.097	yaw rate:	0.798	Roll:	3.953	Pitch:	0.759	Yaw:	47.295	Thrust:	6.703
Time:	2.250	Roll Set Point:	-0.234	Pitch Set Point:	-0.122	Yaw Set Point:	-0.578	X_WP:	0.000	Y_WP:	0.000	Y_WP:	0.500	X:	0.099	Y:	0.096	Z:	0.399	yaw:	33.097	yaw rate:	-0.045	Roll:	3.973	Pitch:	0.803	Yaw:	47.467	Thrust:	6.783
Time:	2.266	Roll Set Point:	-0.234	Pitch Set Point:	-0.122	Yaw Set Point:	-0.578	X_WP:	0.000	Y_WP:	0.000	Y_WP:	0.500	X:	0.099	Y:	0.096	Z:	0.399	yaw:	33.097	yaw rate:	-0.045	Roll:	3.964	Pitch:	0.763	Yaw:	47.655	Thrust:	7.080
Time:	2.281	Roll Set Point:	-0.234	Pitch Set Point:	-0.122	Yaw Set Point:	-0.577	X_WP:	0.000	Y_WP:	0.000	Y_WP:	0.500	X:	0.099	Y:	0.096	Z:	0.399	yaw:	33.040	yaw rate:	-5.675	Roll:	3.924	Pitch:	0.774	Yaw:	46.745	Thrust:	7.229
Time:	2.297	Roll Set Point:	-0.234	Pitch Set Point:	-0.122	Yaw Set Point:	-0.577	X_WP:	0.000	Y_WP:	0.000	Y_WP:	0.500	X:	0.099	Y:	0.096	Z:	0.399	yaw:	33.040	yaw rate:	-5.675	Roll:	3.974	Pitch:	0.765	Yaw:	47.695	Thrust:	7.459
Time:	2.313	Roll Set Point:	-0.234	Pitch Set Point:	-0.122	Yaw Set Point:	-0.577	X_WP:	0.000	Y_WP:	0.000	Y_WP:	0.500	X:	0.099	Y:	0.096	Z:	0.399	yaw:	33.064	yaw rate:	2.382	Roll:	4.004	Pitch:	0.801	Yaw:	48.128	Thrust:	7.625
Time:	2.328	Roll Set Point:	-0.234	Pitch Set Point:	-0.122	Yaw Set Point:	-0.577	X_WP:	0.000	Y_WP:	0.000	Y_WP:	0.500	X:	0.099	Y:	0.096	Z:	0.399	yaw:	33.039	yaw rate:	-2.537	Roll:	3.969	Pitch:	0.778	Yaw:	47.268	Thrust:	7.734
Time:	2.344	Roll Set Point:	-0.234	Pitch Set Point:	-0.122	Yaw Set Point:	-0.578	X_WP:	0.000	Y_WP:	0.000	Y_WP:	0.500	X:	0.099	Y:	0.096	Z:	0.399	yaw:	33.095	yaw rate:	5.681	Roll:	4.018	Pitch:	0.685	Yaw:	48.724	Thrust:	8.391
Time:	2.374	Roll Set Point:	-0.234	Pitch Set Point:	-0.122	Yaw Set Point:	-0.577	X_WP:	0.000	Y_WP:	0.000	Y_WP:	0.500	X:	0.099	Y:	0.096	Z:	0.399	yaw:	33.065	yaw rate:	-0.495	Roll:	4.056	Pitch:	0.804	Yaw:	48.935	Thrust:	10.559
Time:	2.390	Roll Set Point:	-0.234	Pitch Set Point:	-0.122	Yaw Set Point:	-0.577	X_WP:	0.000	Y_WP:	0.000	Y_WP:	0.500	X:	0.099	Y:	0.096	Z:	0.399	yaw:	33.051	yaw rate:	-1.435	Roll:	3.990	Pitch:	0.866	Yaw:	47.470	Thrust:	8.475
Time:	2.406	Roll Set Point:	-0.234	Pitch Set Point:	-0.122	Yaw Set Point:	-0.579	X_WP:	0.000	Y_WP:	0.000	Y_WP:	0.500	X:	0.099	Y:	0.096	Z:	0.399	yaw:	33.150	yaw rate:	9.921	Roll:	4.035	Pitch:	0.515	Yaw:	49.511	Thrust:	8.515
Time:	2.421	Roll Set Point:	-0.234	Pitch Set Point:	-0.122	Yaw Set Point:	-0.577	X_WP:	0.000	Y_WP:	0.000	Y_WP:	0.500	X:	0.099	Y:	0.096	Z:	0.399	yaw:	33.052	yaw rate:	-9.767	Roll:	3.990	Pitch:	0.993	Yaw:	46.079	Thrust:	8.860
Time:	2.437	Roll Set Point:	-0.234	Pitch Set Point:	-0.122	Yaw Set Point:	-0.576	X_WP:	0.000	Y_WP:	0.000	Y_WP:	0.500	X:	0.099	Y:	0.096	Z:	0.399	yaw:	33.027	yaw rate:	-2.580	Roll:	4.015	Pitch:	0.825	Yaw:	47.244	Thrust:	8.831
Time:	2.452	Roll Set Point:	-0.234	Pitch Set Point:	-0.122	Yaw Set Point:	-0.578	X_WP:	0.000	Y_WP:	0.000	Y_WP:	0.500	X:	0.099	Y:	0.096	Z:	0.399	yaw:	33.097	yaw rate:	7.042	Roll:	4.040	Pitch:	0.656	Yaw:	48.955	Thrust:	9.384
Time:	2.468	Roll Set Point:	-0.234	Pitch Set Point:	-0.122	Yaw Set Point:	-0.577	X_WP:	0.000	Y_WP:	0.000	Y_WP:	0.500	X:	0.099	Y:	0.096	Z:	0.399	yaw:	33.064	yaw rate:	-3.323	Roll:	4.034	Pitch:	0.766	Yaw:	47.172	Thrust:	9.322
Time:	2.484	Roll Set Point:	-0.234	Pitch Set Point:	-0.122	Yaw Set Point:	-0.577	X_WP:	0.000	Y_WP:	0.000	Y_WP:	0.500	X:	0.099	Y:	0.096	Z:	0.399	yaw:	33.035	yaw rate:	-2.921	Roll:	3.979	Pitch:	0.834	Yaw:	47.198	Thrust:	9.425
Time:	2.499	Roll Set Point:	-0.234	Pitch Set Point:	-0.122	Yaw Set Point:	-0.577	X_WP:	0.000	Y_WP:	0.000	Y_WP:	0.500	X:	0.099	Y:	0.096	Z:	0.399	yaw:	33.035	yaw rate:	-2.921	Roll:	4.037	Pitch:	0.778	Yaw:	47.688	Thrust:	9.733
Time:	2.515	Roll Set Point:	-0.234	Pitch Set Point:	-0.122	Yaw Set Point:	-0.577	X_WP:	0.000	Y_WP:	0.000	Y_WP:	0.500	X:	0.099	Y:	0.096	Z:	0.399	yaw:	33.056	yaw rate:	2.110	Roll:	4.077	Pitch:	0.794	Yaw:	48.071	Thrust:	9.937
Time:	2.531	Roll Set Point:	-0.234	Pitch Set Point:	-0.122	Yaw Set Point:	-0.577	X_WP:	0.000	Y_WP:	0.000	Y_WP:	0.500	X:	0.099	Y:	0.096	Z:	0.399	yaw:	33.056	yaw rate:	2.110	Roll:	4.048	Pitch:	0.781	Yaw:	47.718	Thrust:	10.116
Time:	2.546	Roll Set Point:	-0.234	Pitch Set Point:	-0.122	Yaw Set Point:	-0.577	X_WP:	0.000	Y_WP:	0.000	Y_WP:	0.500	X:	0.099	Y:	0.096	Z:	0.399	yaw:	33.069	yaw rate:	1.301	Roll:	4.070	Pitch:	0.683	Yaw:	47.952	Thrust:	10.429
Time:	2.562	Roll Set Point:	-0.234	Pitch Set Point:	-0.122	Yaw Set Point:	-0.577	X_WP:	0.000	Y_WP:	0.000	Y_WP:	0.500	X:	0.099	Y:	0.096	Z:	0.399	yaw:	33.081	yaw rate:	1.272	Roll:	4.043	Pitch:	0.802	Yaw:	47.967	Thrust:	10.466
Time:	2.577	Roll Set Point:	-0.234	Pitch Set Point:	-0.122	Yaw Set Point:	-0.577	X_WP:	0.000	Y_WP:	0.000	Y_WP:	0.500	X:	0.099	Y:	0.096	Z:	0.399	yaw:	33.081	yaw rate:	1.272	Roll:	4.064	Pitch:	0.782	Yaw:	47.753	Thrust:	10.683
Time:	2.593	Roll Set Point:	-0.234	Pitch Set Point:	-0.122	Yaw Set Point:	-0.577	X_WP:	0.000	Y_WP:	0.000	Y_WP:	0.500	X:	0.099	Y:	0.096	Z:	0.399	yaw:	33.080	yaw rate:	0.837	Roll:	4.082	Pitch:	0.813	Yaw:	47.723	Thrust:	10.916
Time:	2.609	Roll Set Point:	-0.234	Pitch Set Point:	-0.122	Yaw Set Point:	-0.577	X_WP:	0.000	Y_WP:	0.000	Y_WP:	0.500	X:	0.099	Y:	0.096	Z:	0.399	yaw:	33.055	yaw rate:	-2.509	Roll:	4.074	Pitch:	0.785	Yaw:	47.295	Thrust:	11.004
Time:	2.624	Roll Set Point:	-0.234	Pitch Set Point:	-0.122	Yaw Set Point:	-0.577	X_WP:	0.000	Y_WP:	0.000	Y_WP:	0.500	X:	0.099	Y:	0.096	Z:	0.399	yaw:	33.055	yaw rate:	-2.509	Roll:	4.081	Pitch:	0.786	Yaw:	47.719	Thrust:	11.264
Time:	2.640	Roll Set Point:	-0.234	Pitch Set Point:	-0.122	Yaw Set Point:	-0.578	X_WP:	0.000	Y_WP:	0.000	Y_WP:	0.500	X:	0.099	Y:	0.096	Z:	0.399	yaw:	33.093	yaw rate:	2.077	Roll:	4.095	Pitch:	0.742	Yaw:	48.400	Thrust:	11.442
Time:	2.656	Roll Set Point:	-0.234	Pitch Set Point:	-0.122	Yaw Set Point:	-0.577	X_WP:	0.000	Y_WP:	0.000	Y_WP:	0.500	X:	0.099	Y:	0.096	Z:	0.399	yaw:	33.074	yaw rate:	-1.868	Roll:	4.074	Pitch:	0.887	Yaw:	47.433	Thrust:	11.764
Time:	2.671	Roll Set Point:	-0.234	Pitch Set Point:	-0.122	Yaw Set Point:	-0.577	X_WP:	0.000	Y_WP:	0.000	Y_WP:	0.500	X:	0.099	Y:	0.096	Z:	0.399	yaw:	33.074	yaw rate:	0.029	Roll:	4.122	Pitch:	0.695	Yaw:	47.744	Thrust:	11.726
Time:	2.687	Roll Set Point:	-0.234	Pitch Set Point:	-0.122	Yaw Set Point:	-0.577	X_WP:	0.000	Y_WP:	0.000	Y_WP:	0.500	X:	0.099	Y:	0.096	Z:	0.399	yaw:	33.074	yaw rate:	0.029	Roll:	4.102	Pitch:	0.789	Yaw:	47.743	Thrust:	12.012
Time:	2.702	Roll Set Point:	-0.234	Pitch Set Point:	-0.122	Yaw Set Point:	-0.577	X_WP:	0.000	Y_WP:	0.000	Y_WP:	0.500	X:	0.099	Y:	0.096	Z:	0.399	yaw:	33.038	yaw rate:	-4.707	Roll:	4.060	Pitch:	0.854	Yaw:	47.098	Thrust:	12.054
Time:	2.718	Roll Set Point:	-0.234	Pitch Set Point:	-0.122	Yaw Set Point:	-0.577	X_WP:	0.000	Y_WP:	0.000	Y_WP:	0.500	X:	0.099	Y:	0.096	Z:	0.399	yaw:	33.042	yaw rate:	0.320	Roll:	4.123	Pitch:	0.811	Yaw:	47.751	Thrust:	12.413
Time:	2.734	Roll Set Point:	-0.234	Pitch Set Point:	-0.122	Yaw Set Point:	-0.576	X_WP:	0.000	Y_WP:	0.000	Y_WP:	0.500	X:	0.099	Y:	0.096	Z:	0.399	yaw:	33.024	yaw rate:	-1.708	Roll:	4.100	Pitch:	0.846	Yaw:	47.384	Thrust:	12.569
Time:	2.750	Roll Set Point:	-0.234	Pitch Set Point:	-0.122	Yaw Set Point:	-0.578	X_WP:	0.000	Y_WP:	0.000	Y_WP:	0.500	X:	0.099	Y:	0.096	Z:	0.399	yaw:	33.106	yaw rate:	8.125	Roll:	4.164	Pitch:	0.638	Yaw:	49.152	Thrust:	13.171
Time:	2.765	Roll Set Point:	-0.234	Pitch Set Point:	-0.122	Yaw Set Point:	-0.577	X_WP:	0.000	Y_WP:	0.000	Y_WP:	0.500	X:	0.099	Y:	0.096	Z:	0.399	yaw:	33.064	yaw rate:	-4.215	Roll:	4.081	Pitch:	0.859	Yaw:	46.936	Thrust:	12.483
Time:	2.792	Roll Set Point:	-0.234	Pitch Set Point:	-0.122	Yaw Set Point:	-0.577	X_WP:	0.000	Y_WP:	0.000	Y_WP:	0.500	X:	0.099	Y:	0.096	Z:	0.399	yaw:	33.066	yaw rate:	-1.017	Roll:	4.314	Pitch:	0.857	Yaw:	48.970	Thrust:	19.093
Time:	2.808	Roll Set Point:	-0.234	Pitch Set Point:	-0.122	Yaw Set Point:	-0.578	X_WP:	0.000	Y_WP:	0.000	Y_WP:	0.500	X:	0.099	Y:	0.096	Z:	0.399	yaw:	33.093	yaw rate:	2.683	Roll:	4.133	Pitch:	0.695	Yaw:	48.216	Thrust:	13.389
Time:	2.824	Roll Set Point:	-0.234	Pitch Set Point:	-0.121	Yaw Set Point:	-0.577	X_WP:	0.000	Y_WP:	0.000	Y_WP:	0.500	X:	0.099	Y:	0.095	Z:	0.399	yaw:	33.080	yaw rate:	-1.341	Roll:	3.932	Pitch:	0.723	Yaw:	47.526	Thrust:	13.145
Time:	2.839	Roll Set Point:	-0.234	Pitch Set Point:	-0.122	Yaw Set Point:	-0.577	X_WP:	0.000	Y_WP:	0.000	Y_WP:	0.500	X:	0.099	Y:	0.096	Z:	0.399	yaw:	33.077	yaw rate:	-0.214	Roll:	4.372	Pitch:	0.959	Yaw:	47.715	Thrust:	14.019
Time:	2.855	Roll Set Point:	-0.234	Pitch Set Point:	-0.122	Yaw Set Point:	-0.577	X_WP:	0.000	Y_WP:	0.000	Y_WP:	0.500	X:	0.099	Y:	0.096	Z:	0.399	yaw:	33.061	yaw rate:	-1.624	Roll:	4.153	Pitch:	0.791	Yaw:	47.454	Thrust:	13.917
Time:	2.871	Roll Set Point:	-0.234	Pitch Set Point:	-0.122	Yaw Set Point:	-0.577	X_WP:	0.000	Y_WP:	0.000	Y_WP:	0.500	X:	0.099	Y:	0.096	Z:	0.399	yaw:	33.061	yaw rate:	-1.624	Roll:	4.159	Pitch:	0.802	Yaw:	47.721	Thrust:	14.078
Time:	2.886	Roll Set Point:	-0.234	Pitch Set Point:	-0.122	Yaw Set Point:	-0.577	X_WP:	0.000	Y_WP:	0.000	Y_WP:	0.500	X:	0.099	Y:	0.096	Z:	0.399	yaw:	33.046	yaw rate:	-4.356	Roll:	4.117	Pitch:	0.794	Yaw:	47.462	Thrust:	14.202
Time:	2.901	Roll Set Point:	-0.234	Pitch Set Point:	-0.122	Yaw Set Point:	-0.577	X_WP:	0.000	Y_WP:	0.000	Y_WP:	0.500	X:	0.099	Y:	0.096	Z:	0.399	yaw:	33.067	yaw rate:	2.010	Roll:	4.192	Pitch:	0.811	Yaw:	48.008	Thrust:	14.147
Time:	2.922	Roll Set Point:	-0.234	Pitch Set Point:	-0.122	Yaw Set Point:	-0.577	X_WP:	0.000	Y_WP:	0.000	Y_WP:	0.500	X:	0.099	Y:	0.096	Z:	0.399	yaw:	33.067	yaw rate:	2.010	Roll:	4.258	Pitch:	0.821	Yaw:	48.240	Thrust:	17.626
Time:	2.937	Roll Set Point:	-0.234	Pitch Set Point:	-0.122	Yaw Set Point:	-0.577	X_WP:	0.000	Y_WP:	0.000	Y_WP:	0.500	X:	0.099	Y:	0.096	Z:	0.399	yaw:	33.071	yaw rate:	-1.018	Roll:	4.188	Pitch:	0.766	Yaw:	47.818	Thrust:	14.854
Time:	2.953	Roll Set Point:	-0.234	Pitch Set Point:	-0.122	Yaw Set Point:	-0.577	X_WP:	0.000	Y_WP:	0.000	Y_WP:	0.500	X:	0.099	Y:	0.096	Z:	0.399	yaw:	33.080	yaw rate:	0.856	Roll:	4.157	Pitch:	0.775	Yaw:	47.891	Thrust:	15.107
Time:	2.969	Roll Set Point:	-0.234	Pitch Set Point:	-0.122	Yaw Set Point:	-0.577	X_WP:	0.000	Y_WP:	0.000	Y_WP:	0.500	X:	0.099	Y:	0.096	Z:	0.399	yaw:	33.084	yaw rate:	0.440	Roll:	4.212	Pitch:	0.868	Yaw:	47.844	Thrust:	15.254
Time:	2.986	Roll Set Point:	-0.234	Pitch Set Point:	-0.122	Yaw Set Point:	-0.577	X_WP:	0.000	Y_WP:	0.000	Y_WP:	0.500	X:	0.099	Y:	0.096	Z:	0.399	yaw:	33.061	yaw rate:	-2.323	Roll:	4.250	Pitch:	0.849	Yaw:	47.586	Thrust:	16.689
Time:	3.002	Roll Set Point:	-0.234	Pitch Set Point:	-0.122	Yaw Set Point:	-0.577	X_WP:	0.000	Y_WP:	0.000	Y_WP:	0.500	X:	0.099	Y:	0.096	Z:	0.399	yaw:	33.061	yaw rate:	-2.323	Roll:	4.202	Pitch:	0.811	Yaw:	47.724	Thrust:	15.615
Time:	3.018	Roll Set Point:	-0.234	Pitch Set Point:	-0.122	Yaw Set Point:	-0.578	X_WP:	0.000	Y_WP:	0.000	Y_WP:	0.500	X:	0.099	Y:	0.096	Z:	0.399	yaw:	33.091	yaw rate:	3.972	Roll:	4.189	Pitch:	0.699	Yaw:	48.268	Thrust:	15.950
Time:	3.033	Roll Set Point:	-0.234	Pitch Set Point:	-0.122	Yaw Set Point:	-0.577	X_WP:	0.000	Y_WP:	0.000	Y_WP:	0.500	X:	0.099	Y:	0.096	Z:	0.399	yaw:	33.055	yaw rate:	-3.594	Roll:	4.202	Pitch:	0.894	Yaw:	47.114	Thrust:	15.866
Time:	3.049	Roll Set Point:	-0.234	Pitch Set Point:	-0.122	Yaw Set Point:	-0.577	X_WP:	0.000	Y_WP:	0.000	Y_WP:	0.500	X:	0.099	Y:	0.096	Z:	0.399	yaw:	33.055	yaw rate:	-3.594	Roll:	4.218	Pitch:	0.813	Yaw:	47.719	Thrust:	16.205
Time:	3.065	Roll Set Point:	-0.234	Pitch Set Point:	-0.122	Yaw Set Point:	-0.577	X_WP:	0.000	Y_WP:	0.000	Y_WP:	0.500	X:	0.099	Y:	0.096	Z:	0.399	yaw:	33.060	yaw rate:	0.457	Roll:	4.238	Pitch:	0.856	Yaw:	47.796	Thrust:	16.300
Time:	3.080	Roll Set Point:	-0.234	Pitch Set Point:	-0.122	Yaw Set Point:	-0.577	X_WP:	0.000	Y_WP:	0.000	Y_WP:	0.500	X:	0.099	Y:	0.096	Z:	0.399	yaw:	33.032	yaw rate:	-2.745	Roll:	4.208	Pitch:	0.788	Yaw:	47.224	Thrust:	16.493
Time:	3.096	Roll Set Point:	-0.234	Pitch Set Point:	-0.122	Yaw Set Point:	-0.578	X_WP:	0.000	Y_WP:	0.000	Y_WP:	0.500	X:	0.099	Y:	0.096	Z:	0.399	yaw:	33.090	yaw rate:	5.792	Roll:	4.243	Pitch:	0.717	Yaw:	48.735	Thrust:	17.020
Time:	3.111	Roll Set Point:	-0.234	Pitch Set Point:	-0.122	Yaw Set Point:	-0.576	X_WP:	0.000	Y_WP:	0.000	Y_WP:	0.500	X:	0.099	Y:	0.096	Z:	0.399	yaw:	33.025	yaw rate:	-3.867	Roll:	4.241	Pitch:	0.947	Yaw:	46.582	Thrust:	16.644
Time:	3.127	Roll Set Point:	-0.234	Pitch Set Point:	-0.122	Yaw Set Point:	-0.577	X_WP:	0.000	Y_WP:	0.000	Y_WP:	0.500	X:	0.099	Y:	0.096	Z:	0.399	yaw:	33.066	yaw rate:	4.153	Roll:	4.239	Pitch:	0.772	Yaw:	48.428	Thrust:	17.330
Time:	3.143	Roll Set Point:	-0.234	Pitch Set Point:	-0.122	Yaw Set Point:	-0.577	X_WP:	0.000	Y_WP:	0.000	Y_WP:	0.500	X:	0.099	Y:	0.096	Z:	0.399	yaw:	33.078	yaw rate:	1.166	Roll:	4.259	Pitch:	0.743	Yaw:	47.944	Thrust:	17.232
Time:	3.158	Roll Set Point:	-0.234	Pitch Set Point:	-0.122	Yaw Set Point:	-0.578	X_WP:	0.000	Y_WP:	0.000	Y_WP:	0.500	X:	0.099	Y:	0.096	Z:	0.399	yaw:	33.094	yaw rate:	1.568	Roll:	4.266	Pitch:	0.834	Yaw:	48.033	Thrust:	17.636
Time:	3.174	Roll Set Point:	-0.234	Pitch Set Point:	-0.122	Yaw Set Point:	-0.578	X_WP:	0.000	Y_WP:	0.000	Y_WP:	0.500	X:	0.099	Y:	0.096	Z:	0.399	yaw:	33.094	yaw rate:	1.568	Roll:	4.260	Pitch:	0.819	Yaw:	47.770	Thrust:	17.700
Time:	3.190	Roll Set Point:	-0.234	Pitch Set Point:	-0.122	Yaw Set Point:	-0.577	X_WP:	0.000	Y_WP:	0.000	Y_WP:	0.500	X:	0.099	Y:	0.096	Z:	0.399	yaw:	33.077	yaw rate:	-1.712	Roll:	4.264	Pitch:	0.889	Yaw:	47.459	Thrust:	17.874
Time:	3.205	Roll Set Point:	-0.234	Pitch Set Point:	-0.122	Yaw Set Point:	-0.577	X_WP:	0.000	Y_WP:	0.000	Y_WP:	0.500	X:	0.099	Y:	0.096	Z:	0.399	yaw:	33.086	yaw rate:	0.965	Roll:	4.259	Pitch:	0.741	Yaw:	47.921	Thrust:	18.064
Time:	3.221	Roll Set Point:	-0.234	Pitch Set Point:	-0.122	Yaw Set Point:	-0.577	X_WP:	0.000	Y_WP:	0.000	Y_WP:	0.500	X:	0.099	Y:	0.096	Z:	0.399	yaw:	33.086	yaw rate:	0.965	Roll:	4.276	Pitch:	0.822	Yaw:	47.760	Thrust:	18.271
Time:	3.236	Roll Set Point:	-0.234	Pitch Set Point:	-0.122	Yaw Set Point:	-0.577	X_WP:	0.000	Y_WP:	0.000	Y_WP:	0.500	X:	0.099	Y:	0.096	Z:	0.399	yaw:	33.079	yaw rate:	-1.301	Roll:	4.314	Pitch:	0.848	Yaw:	47.622	Thrust:	18.355
Time:	3.252	Roll Set Point:	-0.234	Pitch Set Point:	-0.122	Yaw Set Point:	-0.577	X_WP:	0.000	Y_WP:	0.000	Y_WP:	0.500	X:	0.099	Y:	0.096	Z:	0.399	yaw:	33.041	yaw rate:	-3.796	Roll:	4.260	Pitch:	0.910	Yaw:	47.060	Thrust:	18.652
Time:	3.268	Roll Set Point:	-0.234	Pitch Set Point:	-0.122	Yaw Set Point:	-0.577	X_WP:	0.000	Y_WP:	0.000	Y_WP:	0.500	X:	0.099	Y:	0.096	Z:	0.399	yaw:	33.041	yaw rate:	-3.796	Roll:	4.292	Pitch:	0.828	Yaw:	47.696	Thrust:	18.838
Time:	3.283	Roll Set Point:	-0.234	Pitch Set Point:	-0.122	Yaw Set Point:	-0.578	X_WP:	0.000	Y_WP:	0.000	Y_WP:	0.500	X:	0.099	Y:	0.096	Z:	0.399	yaw:	33.096	yaw rate:	5.501	Roll:	4.292	Pitch:	0.667	Yaw:	48.695	Thrust:	19.187
Time:	3.299	Roll Set Point:	-0.234	Pitch Set Point:	-0.122	Yaw Set Point:	-0.577	X_WP:	0.000	Y_WP:	0.000	Y_WP:	0.500	X:	0.099	Y:	0.096	Z:	0.399	yaw:	33.075	yaw rate:	7.175	Roll:	4.324	Pitch:	0.936	Yaw:	47.393	Thrust:	19.107
Time:	3.315	Roll Set Point:	-0.234	Pitch Set Point:	-0.122	Yaw Set Point:	-0.578	X_WP:	0.000	Y_WP:	0.000	Y_WP:	0.500	X:	0.099	Y:	0.096	Z:	0.399	yaw:	33.091	yaw rate:	1.618	Roll:	4.325	Pitch:	0.758	Yaw:	48.036	Thrust:	19.306
Time:	3.330	Roll Set Point:	-0.234	Pitch Set Point:	-0.122	Yaw Set Point:	-0.577	X_WP:	0.000	Y_WP:	0.000	Y_WP:	0.500	X:	0.099	Y:	0.096	Z:	0.399	yaw:	33.037	yaw rate:	-5.384	Roll:	4.248	Pitch:	0.921	Yaw:	46.794	Thrust:	19.773
Time:	3.346	Roll Set Point:	-0.234	Pitch Set Point:	-0.122	Yaw Set Point:	-0.577	X_WP:	0.000	Y_WP:	0.000	Y_WP:	0.500	X:	0.099	Y:	0.096	Z:	0.399	yaw:	33.074	yaw rate:	3.722	Roll:	4.341	Pitch:	0.804	Yaw:	48.365	Thrust:	19.761
Time:	3.361	Roll Set Point:	-0.234	Pitch Set Point:	-0.122	Yaw Set Point:	-0.577	X_WP:	0.000	Y_WP:	0.000	Y_WP:	0.500	X:	0.099	Y:	0.096	Z:	0.399	yaw:	33.074	yaw rate:	3.722	Roll:	4.323	Pitch:	0.833	Yaw:	47.743	Thrust:	19.978
Time:	3.377	Roll Set Point:	-0.234	Pitch Set Point:	-0.122	Yaw Set Point:	-0.577	X_WP:	0.000	Y_WP:	0.000	Y_WP:	0.500	X:	0.099	Y:	0.096	Z:	0.399	yaw:	33.081	yaw rate:	3.620	Roll:	4.356	Pitch:	0.798	Yaw:	47.866	Thrust:	20.089
Time:	3.393	Roll Set Point:	-0.234	Pitch Set Point:	-0.122	Yaw Set Point:	-0.577	X_WP:	0.000	Y_WP:	0.000	Y_WP:	0.500	X:	0.099	Y:	0.096	Z:	0.399	yaw:	33.081	yaw rate:	0.032	Roll:	4.296	Pitch:	0.839	Yaw:	47.758	Thrust:	20.445
Time:	3.408	Roll Set Point:	-0.234	Pitch Set Point:	-0.122	Yaw Set Point:	-0.577	X_WP:	0.000	Y_WP:	0.000	Y_WP:	0.500	X:	0.099	Y:	0.096	Z:	0.399	yaw:	33.081	yaw rate:	0.032	Roll:	4.339	Pitch:	0.835	Yaw:	47.753	Thrust:	20.546
Time:	3.424	Roll Set Point:	-0.234	Pitch Set Point:	-0.122	Yaw Set Point:	-0.577	X_WP:	0.000	Y_WP:	0.000	Y_WP:	0.500	X:	0.099	Y:	0.096	Z:	0.399	yaw:	33.068	yaw rate:	2.311	Roll:	4.369	Pitch:	0.866	Yaw:	47.521	Thrust:	20.680
Time:	3.440	Roll Set Point:	-0.234	Pitch Set Point:	-0.122	Yaw Set Point:	-0.577	X_WP:	0.000	Y_WP:	0.000	Y_WP:	0.500	X:	0.099	Y:	0.096	Z:	0.399	yaw:	33.068	yaw rate:	2.311	Roll:	4.350	Pitch:	0.838	Yaw:	47.735	Thrust:	20.926
Time:	3.455	Roll Set Point:	-0.234	Pitch Set Point:	-0.122	Yaw Set Point:	-0.578	X_WP:	0.000	Y_WP:	0.000	Y_WP:	0.500	X:	0.099	Y:	0.096	Z:	0.399	yaw:	33.114	yaw rate:	-2.340	Roll:	4.349	Pitch:	0.786	Yaw:	48.562	Thrust:	21.306
Time:	3.471	Roll Set Point:	-0.234	Pitch Set Point:	-0.122	Yaw Set Point:	-0.577	X_WP:	0.000	Y_WP:	0.000	Y_WP:	0.500	X:	0.099	Y:	0.096	Z:	0.399	yaw:	33.069	yaw rate:	-4.468	Roll:	4.342	Pitch:	0.897	Yaw:	46.992	Thrust:	21.256
Time:	3.486	Roll Set Point:	-0.234	Pitch Set Point:	-0.122	Yaw Set Point:	-0.577	X_WP:	0.000	Y_WP:	0.000	Y_WP:	0.500	X:	0.099	Y:	0.096	Z:	0.399	yaw:	33.060	yaw rate:	-0.972	Roll:	4.379	Pitch:	0.847	Yaw:	47.556	Thrust:	21.226
Time:	3.502	Roll Set Point:	-0.234	Pitch Set Point:	-0.122	Yaw Set Point:	-0.578	X_WP:	0.000	Y_WP:	0.000	Y_WP:	0.500	X:	0.099	Y:	0.096	Z:	0.399	yaw:	33.106	yaw rate:	4.637	Roll:	4.409	Pitch:	0.844	Yaw:	48.564	Thrust:	21.980
Time:	3.518	Roll Set Point:	-0.234	Pitch Set Point:	-0.122	Yaw Set Point:	-0.578	X_WP:	0.000	Y_WP:	0.000	Y_WP:	0.500	X:	0.099	Y:	0.096	Z:	0.399	yaw:	33.106	yaw rate:	4.637	Roll:	4.378	Pitch:	0.843	Yaw:	47.790	Thrust:	21.908
Time:	3.533	Roll Set Point:	-0.234	Pitch Set Point:	-0.122	Yaw Set Point:	-0.576	X_WP:	0.000	Y_WP:	0.000	Y_WP:	0.500	X:	0.099	Y:	0.096	Z:	0.399	yaw:	33.013	yaw rate:	-9.347	Roll:	4.287	Pitch:	0.942	Yaw:	46.085	Thrust:	21.961
Time:	3.549	Roll Set Point:	-0.234	Pitch Set Point:	-0.122	Yaw Set Point:	-0.576	X_WP:	0.000	Y_WP:	0.000	Y_WP:	0.500	X:	0.099	Y:	0.096	Z:	0.399	yaw:	33.013	yaw rate:	-9.347	Roll:	4.385	Pitch:	0.848	Yaw:	47.657	Thrust:	22.256
Time:	3.565	Roll Set Point:	-0.234	Pitch Set Point:	-0.122	Yaw Set Point:	-0.578	X_WP:	0.000	Y_WP:	0.000	Y_WP:	0.500	X:	0.099	Y:	0.096	Z:	0.399	yaw:	33.101	yaw rate:	8.843	Roll:	4.486	Pitch:	0.742	Yaw:	49.262	Thrust:	22.509
Time:	3.580	Roll Set Point:	-0.234	Pitch Set Point:	-0.122	Yaw Set Point:	-0.578	X_WP:	0.000	Y_WP:	0.000	Y_WP:	0.500	X:	0.099	Y:	0.096	Z:	0.399	yaw:	33.101	yaw rate:	8.843	Roll:	4.398	Pitch:	0.847	Yaw:	47.780	Thrust:	22.634
Time:	3.596	Roll Set Point:	-0.234	Pitch Set Point:	-0.122	Yaw Set Point:	-0.578	X_WP:	0.000	Y_WP:	0.000	Y_WP:	0.500	X:	0.099	Y:	0.096	Z:	0.399	yaw:	33.091	yaw rate:	5.750	Roll:	4.355	Pitch:	0.785	Yaw:	47.598	Thrust:	22.823
Time:	3.611	Roll Set Point:	-0.234	Pitch Set Point:	-0.122	Yaw Set Point:	-0.577	X_WP:	0.000	Y_WP:	0.000	Y_WP:	0.500	X:	0.099	Y:	0.096	Z:	0.399	yaw:	33.084	yaw rate:	-0.751	Roll:	4.425	Pitch:	0.881	Yaw:	47.630	Thrust:	22.953
Time:	3.627	Roll Set Point:	-0.234	Pitch Set Point:	-0.122	Yaw Set Point:	-0.577	X_WP:	0.000	Y_WP:	0.000	Y_WP:	0.500	X:	0.099	Y:	0.096	Z:	0.399	yaw:	33.057	yaw rate:	-2.655	Roll:	4.410	Pitch:	0.942	Yaw:	47.274	Thrust:	23.028
Time:	3.643	Roll Set Point:	-0.234	Pitch Set Point:	-0.121	Yaw Set Point:	-0.577	X_WP:	0.000	Y_WP:	0.000	Y_WP:	0.500	X:	0.099	Y:	0.095	Z:	0.399	yaw:	33.083	yaw rate:	2.622	Roll:	4.223	Pitch:	0.705	Yaw:	48.195	Thrust:	23.265
Time:	3.658	Roll Set Point:	-0.234	Pitch Set Point:	-0.122	Yaw Set Point:	-0.577	X_WP:	0.000	Y_WP:	0.000	Y_WP:	0.500	X:	0.099	Y:	0.096	Z:	0.399	yaw:	33.056	yaw rate:	-2.743	Roll:	4.578	Pitch:	0.905	Yaw:	47.258	Thrust:	23.790
Time:	3.674	Roll Set Point:	-0.234	Pitch Set Point:	-0.122	Yaw Set Point:	-0.578	X_WP:	0.000	Y_WP:	0.000	Y_WP:	0.500	X:	0.099	Y:	0.096	Z:	0.399	yaw:	33.100	yaw rate:	4.406	Roll:	4.458	Pitch:	0.847	Yaw:	48.518	Thrust:	23.886
Time:	3.690	Roll Set Point:	-0.234	Pitch Set Point:	-0.122	Yaw Set Point:	-0.578	X_WP:	0.000	Y_WP:	0.000	Y_WP:	0.500	X:	0.099	Y:	0.096	Z:	0.399	yaw:	33.089	yaw rate:	-1.064	Roll:	4.478	Pitch:	0.868	Yaw:	47.585	Thrust:	23.849
Time:	3.705	Roll Set Point:	-0.234	Pitch Set Point:	-0.122	Yaw Set Point:	-0.578	X_WP:	0.000	Y_WP:	0.000	Y_WP:	0.500	X:	0.099	Y:	0.096	Z:	0.399	yaw:	33.089	yaw rate:	-1.064	Roll:	4.440	Pitch:	0.855	Yaw:	47.764	Thrust:	24.145
Time:	3.721	Roll Set Point:	-0.234	Pitch Set Point:	-0.122	Yaw Set Point:	-0.577	X_WP:	0.000	Y_WP:	0.000	Y_WP:	0.500	X:	0.099	Y:	0.096	Z:	0.399	yaw:	33.078	yaw rate:	-1.148	Roll:	4.408	Pitch:	0.875	Yaw:	47.555	Thrust:	24.449
Time:	3.737	Roll Set Point:	-0.234	Pitch Set Point:	-0.122	Yaw Set Point:	-0.577	X_WP:	0.000	Y_WP:	0.000	Y_WP:	0.500	X:	0.099	Y:	0.096	Z:	0.399	yaw:	33.078	yaw rate:	-1.148	Roll:	4.450	Pitch:	0.857	Yaw:	47.748	Thrust:	24.532
Time:	3.752	Roll Set Point:	-0.234	Pitch Set Point:	-0.122	Yaw Set Point:	-0.577	X_WP:	0.000	Y_WP:	0.000	Y_WP:	0.500	X:	0.099	Y:	0.096	Z:	0.399	yaw:	33.051	yaw rate:	-0.031	Roll:	4.444	Pitch:	0.919	Yaw:	47.269	Thrust:	24.534
Time:	3.768	Roll Set Point:	-0.234	Pitch Set Point:	-0.122	Yaw Set Point:	-0.577	X_WP:	0.000	Y_WP:	0.000	Y_WP:	0.500	X:	0.099	Y:	0.096	Z:	0.399	yaw:	33.051	yaw rate:	-0.031	Roll:	4.459	Pitch:	0.861	Yaw:	47.708	Thrust:	24.873
Time:	3.783	Roll Set Point:	-0.234	Pitch Set Point:	-0.122	Yaw Set Point:	-0.577	X_WP:	0.000	Y_WP:	0.000	Y_WP:	0.500	X:	0.099	Y:	0.096	Z:	0.399	yaw:	33.057	yaw rate:	0.585	Roll:	4.469	Pitch:	0.822	Yaw:	47.817	Thrust:	25.161
Time:	3.799	Roll Set Point:	-0.234	Pitch Set Point:	-0.122	Yaw Set Point:	-0.578	X_WP:	0.000	Y_WP:	0.000	Y_WP:	0.500	X:	0.099	Y:	0.096	Z:	0.399	yaw:	33.096	yaw rate:	3.919	Roll:	4.476	Pitch:	0.751	Yaw:	48.431	Thrust:	25.521
Time:	3.815	Roll Set Point:	-0.234	Pitch Set Point:	-0.122	Yaw Set Point:	-0.578	X_WP:	0.000	Y_WP:	0.000	Y_WP:	0.500	X:	0.099	Y:	0.096	Z:	0.399	yaw:	33.096	yaw rate:	3.919	Roll:	4.476	Pitch:	0.860	Yaw:	47.773	Thrust:	25.466
Time:	3.830	Roll Set Point:	-0.234	Pitch Set Point:	-0.122	Yaw Set Point:	-0.577	X_WP:	0.000	Y_WP:	0.000	Y_WP:	0.500	X:	0.099	Y:	0.096	Z:	0.399	yaw:	33.057	yaw rate:	-1.907	Roll:	4.485	Pitch:	0.990	Yaw:	47.061	Thrust:	25.452
Time:	3.846	Roll Set Point:	-0.234	Pitch Set Point:	-0.122	Yaw Set Point:	-0.577	X_WP:	0.000	Y_WP:	0.000	Y_WP:	0.500	X:	0.099	Y:	0.096	Z:	0.399	yaw:	33.057	yaw rate:	-1.907	Roll:	4.487	Pitch:	0.865	Yaw:	47.719	Thrust:	25.857
Time:	3.862	Roll Set Point:	-0.234	Pitch Set Point:	-0.122	Yaw Set Point:	-0.577	X_WP:	0.000	Y_WP:	0.000	Y_WP:	0.500	X:	0.099	Y:	0.096	Z:	0.399	yaw:	33.078	yaw rate:	2.114	Roll:	4.490	Pitch:	0.744	Yaw:	48.103	Thrust:	26.166
Time:	3.877	Roll Set Point:	-0.234	Pitch Set Point:	-0.122	Yaw Set Point:	-0.578	X_WP:	0.000	Y_WP:	0.000	Y_WP:	0.500	X:	0.099	Y:	0.096	Z:	0.399	yaw:	33.126	yaw rate:	6.503	Roll:	4.553	Pitch:	0.879	Yaw:	48.624	Thrust:	26.179
Time:	3.893	Roll Set Point:	-0.234	Pitch Set Point:	-0.122	Yaw Set Point:	-0.577	X_WP:	0.000	Y_WP:	0.000	Y_WP:	0.500	X:	0.099	Y:	0.096	Z:	0.399	yaw:	33.073	yaw rate:	-5.292	Roll:	4.474	Pitch:	0.946	Yaw:	46.854	Thrust:	26.336
Time:	3.922	Roll Set Point:	-0.234	Pitch Set Point:	-0.122	Yaw Set Point:	-0.577	X_WP:	0.000	Y_WP:	0.000	Y_WP:	0.500	X:	0.099	Y:	0.096	Z:	0.399	yaw:	33.063	yaw rate:	-0.625	Roll:	4.988	Pitch:	0.930	Yaw:	48.978	Thrust:	44.804
Time:	3.937	Roll Set Point:	-0.234	Pitch Set Point:	-0.122	Yaw Set Point:	-0.577	X_WP:	0.000	Y_WP:	0.000	Y_WP:	0.500	X:	0.099	Y:	0.096	Z:	0.399	yaw:	33.063	yaw rate:	-0.625	Roll:	4.507	Pitch:	0.868	Yaw:	47.728	Thrust:	26.807
Time:	3.953	Roll Set Point:	-0.234	Pitch Set Point:	-0.122	Yaw Set Point:	-0.577	X_WP:	0.000	Y_WP:	0.000	Y_WP:	0.500	X:	0.099	Y:	0.096	Z:	0.399	yaw:	33.072	yaw rate:	-1.616	Roll:	4.549	Pitch:	0.956	Yaw:	47.879	Thrust:	26.788
Time:	3.969	Roll Set Point:	-0.234	Pitch Set Point:	-0.122	Yaw Set Point:	-0.577	X_WP:	0.000	Y_WP:	0.000	Y_WP:	0.500	X:	0.099	Y:	0.096	Z:	0.399	yaw:	33.068	yaw rate:	-0.379	Roll:	4.478	Pitch:	0.839	Yaw:	47.670	Thrust:	27.357
Time:	3.984	Roll Set Point:	-0.234	Pitch Set Point:	-0.122	Yaw Set Point:	-0.577	X_WP:	0.000	Y_WP:	0.000	Y_WP:	0.500	X:	0.099	Y:	0.096	Z:	0.399	yaw:	33.059	yaw rate:	-0.885	Roll:	4.498	Pitch:	0.812	Yaw:	47.573	Thrust:	27.345
Time:	4.000	Roll Set Point:	-0.234	Pitch Set Point:	-0.122	Yaw Set Point:	-0.578	X_WP:	0.000	Y_WP:	0.000	Y_WP:	0.500	X:	0.099	Y:	0.096	Z:	0.399	yaw:	33.099	yaw rate:	3.967	Roll:	4.526	Pitch:	0.914	Yaw:	48.442	Thrust:	27.721
Time:	4.016	Roll Set Point:	-0.234	Pitch Set Point:	-0.122	Yaw Set Point:	-0.577	X_WP:	0.000	Y_WP:	0.000	Y_WP:	0.500	X:	0.099	Y:	0.096	Z:	0.399	yaw:	33.070	yaw rate:	-2.839	Roll:	4.513	Pitch:	0.968	Yaw:	47.261	Thrust:	27.595
Time:	4.031	Roll Set Point:	-0.234	Pitch Set Point:	-0.122	Yaw Set Point:	-0.577	X_WP:	0.000	Y_WP:	0.000	Y_WP:	0.500	X:	0.099	Y:	0.096	Z:	0.399	yaw:	33.070	yaw rate:	-2.839	Roll:	4.508	Pitch:	0.877	Yaw:	47.738	Thrust:	27.948
Time:	4.047	Roll Set Point:	-0.234	Pitch Set Point:	-0.122	Yaw Set Point:	-0.577	X_WP:	0.000	Y_WP:	0.000	Y_WP:	0.500	X:	0.099	Y:	0.096	Z:	0.399	yaw:	33.067	yaw rate:	-1.010	Roll:	4.502	Pitch:	0.752	Yaw:	47.671	Thrust:	28.185
Time:	4.062	Roll Set Point:	-0.234	Pitch Set Point:	-0.122	Yaw Set Point:	-0.577	X_WP:	0.000	Y_WP:	0.000	Y_WP:	0.500	X:	0.099	Y:	0.096	Z:	0.399	yaw:	33.070	yaw rate:	0.329	Roll:	4.495	Pitch:	0.917	Yaw:	47.792	Thrust:	28.356
Time:	4.078	Roll Set Point:	-0.234	Pitch Set Point:	-0.122	Yaw Set Point:	-0.577	X_WP:	0.000	Y_WP:	0.000	Y_WP:	0.500	X:	0.099	Y:	0.096	Z:	0.399	yaw:	33.063	yaw rate:	-0.723	Roll:	4.535	Pitch:	0.950	Yaw:	47.609	Thrust:	28.399
Time:	4.094	Roll Set Point:	-0.234	Pitch Set Point:	-0.122	Yaw Set Point:	-0.578	X_WP:	0.000	Y_WP:	0.000	Y_WP:	0.500	X:	0.099	Y:	0.096	Z:	0.399	yaw:	33.092	yaw rate:	2.983	Roll:	4.514	Pitch:	0.831	Yaw:	48.268	Thrust:	28.807
Time:	4.109	Roll Set Point:	-0.234	Pitch Set Point:	-0.122	Yaw Set Point:	-0.578	X_WP:	0.000	Y_WP:	0.000	Y_WP:	0.500	X:	0.099	Y:	0.096	Z:	0.399	yaw:	33.095	yaw rate:	0.253	Roll:	4.481	Pitch:	0.783	Yaw:	47.812	Thrust:	28.964
Time:	4.125	Roll Set Point:	-0.234	Pitch Set Point:	-0.122	Yaw Set Point:	-0.578	X_WP:	0.000	Y_WP:	0.000	Y_WP:	0.500	X:	0.099	Y:	0.096	Z:	0.399	yaw:	33.095	yaw rate:	0.253	Roll:	4.509	Pitch:	0.880	Yaw:	47.775	Thrust:	29.127
Time:	4.141	Roll Set Point:	-0.234	Pitch Set Point:	-0.122	Yaw Set Point:	-0.577	X_WP:	0.000	Y_WP:	0.000	Y_WP:	0.500	X:	0.099	Y:	0.096	Z:	0.399	yaw:	33.082	yaw rate:	-1.319	Roll:	4.514	Pitch:	0.928	Yaw:	47.533	Thrust:	29.135
Time:	4.156	Roll Set Point:	-0.234	Pitch Set Point:	-0.122	Yaw Set Point:	-0.577	X_WP:	0.000	Y_WP:	0.000	Y_WP:	0.500	X:	0.099	Y:	0.096	Z:	0.399	yaw:	33.037	yaw rate:	-4.555	Roll:	4.504	Pitch:	1.002	Yaw:	46.950	Thrust:	29.366
Time:	4.172	Roll Set Point:	-0.234	Pitch Set Point:	-0.122	Yaw Set Point:	-0.577	X_WP:	0.000	Y_WP:	0.000	Y_WP:	0.500	X:	0.099	Y:	0.096	Z:	0.399	yaw:	33.041	yaw rate:	0.353	Roll:	4.480	Pitch:	0.858	Yaw:	47.753	Thrust:	29.742
Time:	4.187	Roll Set Point:	-0.234	Pitch Set Point:	-0.122	Yaw Set Point:	-0.577	X_WP:	0.000	Y_WP:	0.000	Y_WP:	0.500	X:	0.099	Y:	0.096	Z:	0.399	yaw:	33.062	yaw rate:	2.094	Roll:	4.522	Pitch:	0.793	Yaw:	48.076	Thrust:	29.805
Time:	4.203	Roll Set Point:	-0.234	Pitch Set Point:	-0.122	Yaw Set Point:	-0.577	X_WP:	0.000	Y_WP:	0.000	Y_WP:	0.500	X:	0.099	Y:	0.096	Z:	0.399	yaw:	33.065	yaw rate:	0.258	Roll:	4.516	Pitch:	0.936	Yaw:	47.773	Thrust:	29.938
Time:	4.219	Roll Set Point:	-0.234	Pitch Set Point:	-0.122	Yaw Set Point:	-0.578	X_WP:	0.000	Y_WP:	0.000	Y_WP:	0.500	X:	0.099	Y:	0.096	Z:	0.399	yaw:	33.094	yaw rate:	2.945	Roll:	4.540	Pitch:	0.878	Yaw:	48.266	Thrust:	30.375
Time:	4.234	Roll Set Point:	-0.234	Pitch Set Point:	-0.122	Yaw Set Point:	-0.578	X_WP:	0.000	Y_WP:	0.000	Y_WP:	0.500	X:	0.099	Y:	0.096	Z:	0.399	yaw:	33.094	yaw rate:	2.945	Roll:	4.508	Pitch:	0.889	Yaw:	47.771	Thrust:	30.413
Time:	4.250	Roll Set Point:	-0.234	Pitch Set Point:	-0.122	Yaw Set Point:	-0.577	X_WP:	0.000	Y_WP:	0.000	Y_WP:	0.500	X:	0.099	Y:	0.096	Z:	0.399	yaw:	33.041	yaw rate:	-2.354	Roll:	4.456	Pitch:	0.839	Yaw:	46.801	Thrust:	30.479
Time:	4.266	Roll Set Point:	-0.234	Pitch Set Point:	-0.122	Yaw Set Point:	-0.578	X_WP:	0.000	Y_WP:	0.000	Y_WP:	0.500	X:	0.099	Y:	0.096	Z:	0.399	yaw:	33.100	yaw rate:	5.932	Roll:	4.539	Pitch:	0.970	Yaw:	48.773	Thrust:	30.962
Time:	4.281	Roll Set Point:	-0.234	Pitch Set Point:	-0.122	Yaw Set Point:	-0.577	X_WP:	0.000	Y_WP:	0.000	Y_WP:	0.500	X:	0.099	Y:	0.096	Z:	0.399	yaw:	33.049	yaw rate:	-5.156	Roll:	4.501	Pitch:	0.925	Yaw:	46.843	Thrust:	30.697
Time:	4.297	Roll Set Point:	-0.234	Pitch Set Point:	-0.122	Yaw Set Point:	-0.577	X_WP:	0.000	Y_WP:	0.000	Y_WP:	0.500	X:	0.099	Y:	0.096	Z:	0.399	yaw:	33.060	yaw rate:	1.190	Roll:	4.501	Pitch:	0.871	Yaw:	47.924	Thrust:	31.372
Time:	4.312	Roll Set Point:	-0.234	Pitch Set Point:	-0.122	Yaw Set Point:	-0.579	X_WP:	0.000	Y_WP:	0.000	Y_WP:	0.500	X:	0.099	Y:	0.096	Z:	0.399	yaw:	33.148	yaw rate:	8.752	Roll:	4.513	Pitch:	0.693	Yaw:	49.312	Thrust:	31.215
Time:	4.328	Roll Set Point:	-0.234	Pitch Set Point:	-0.122	Yaw Set Point:	-0.578	X_WP:	0.000	Y_WP:	0.000	Y_WP:	0.500	X:	0.099	Y:	0.096	Z:	0.399	yaw:	33.107	yaw rate:	-4.140	Roll:	4.540	Pitch:	0.966	Yaw:	47.095	Thrust:	31.789
Time:	4.344	Roll Set Point:	-0.234	Pitch Set Point:	-0.122	Yaw Set Point:	-0.577	X_WP:	0.000	Y_WP:	0.000	Y_WP:	0.500	X:	0.099	Y:	0.096	Z:	0.399	yaw:	33.071	yaw rate:	-3.594	Roll:	4.478	Pitch:	1.023	Yaw:	47.136	Thrust:	31.563
Time:	4.359	Roll Set Point:	-0.234	Pitch Set Point:	-0.122	Yaw Set Point:	-0.577	X_WP:	0.000	Y_WP:	0.000	Y_WP:	0.500	X:	0.099	Y:	0.096	Z:	0.399	yaw:	33.054	yaw rate:	-1.675	Roll:	4.515	Pitch:	0.915	Yaw:	47.434	Thrust:	31.958
Time:	4.375	Roll Set Point:	-0.234	Pitch Set Point:	-0.121	Yaw Set Point:	-0.577	X_WP:	0.000	Y_WP:	0.000	Y_WP:	0.500	X:	0.099	Y:	0.095	Z:	0.399	yaw:	33.062	yaw rate:	0.790	Roll:	4.285	Pitch:	0.723	Yaw:	47.858	Thrust:	31.869
Time:	4.391	Roll Set Point:	-0.234	Pitch Set Point:	-0.122	Yaw Set Point:	-0.577	X_WP:	0.000	Y_WP:	0.000	Y_WP:	0.500	X:	0.099	Y:	0.096	Z:	0.399	yaw:	33.086	yaw rate:	2.395	Roll:	4.718	Pitch:	0.955	Yaw:	48.163	Thrust:	32.675
Time:	4.406	Roll Set Point:	-0.234	Pitch Set Point:	-0.122	Yaw Set Point:	-0.578	X_WP:	0.000	Y_WP:	0.000	Y_WP:	0.500	X:	0.099	Y:	0.096	Z:	0.399	yaw:	33.096	yaw rate:	1.060	Roll:	4.524	Pitch:	0.951	Yaw:	47.949	Thrust:	32.451
Time:	4.422	Roll Set Point:	-0.234	Pitch Set Point:	-0.122	Yaw Set Point:	-0.578	X_WP:	0.000	Y_WP:	0.000	Y_WP:	0.500	X:	0.099	Y:	0.096	Z:	0.399	yaw:	33.096	yaw rate:	1.060	Roll:	4.508	Pitch:	0.901	Yaw:	47.774	Thrust:	32.687
Time:	4.437	Roll Set Point:	-0.234	Pitch Set Point:	-0.122	Yaw Set Point:	-0.577	X_WP:	0.000	Y_WP:	0.000	Y_WP:	0.500	X:	0.099	Y:	0.096	Z:	0.399	yaw:	33.062	yaw rate:	-2.539	Roll:	4.492	Pitch:	0.914	Yaw:	47.142	Thrust:	32.871
Time:	4.453	Roll Set Point:	-0.234	Pitch Set Point:	-0.122	Yaw Set Point:	-0.577	X_WP:	0.000	Y_WP:	0.000	Y_WP:	0.500	X:	0.099	Y:	0.096	Z:	0.399	yaw:	33.064	yaw rate:	0.223	Roll:	4.499	Pitch:	0.889	Yaw:	47.766	Thrust:	33.121
Time:	4.469	Roll Set Point:	-0.234	Pitch Set Point:	-0.122	Yaw Set Point:	-0.578	X_WP:	0.000	Y_WP:	0.000	Y_WP:	0.500	X:	0.099	Y:	0.096	Z:	0.399	yaw:	33.092	yaw rate:	2.784	Roll:	4.522	Pitch:	0.902	Yaw:	48.234	Thrust:	33.197
Time:	4.484	Roll Set Point:	-0.234	Pitch Set Point:	-0.122	Yaw Set Point:	-0.578	X_WP:	0.000	Y_WP:	0.000	Y_WP:	0.500	X:	0.099	Y:	0.096	Z:	0.399	yaw:	33.092	yaw rate:	2.784	Roll:	4.508	Pitch:	0.905	Yaw:	47.767	Thrust:	33.446
