Time:	2.198	Roll Set Point:	-0.011	Pitch Set Point:	0.026	Yaw Set Point:	-0.234	X_WP:	0.000	Y_WP:	0.000	Y_WP:	0.500	X:	0.007	Y:	-0.012	Z:	0.050	yaw:	13.433	yaw rate:	-9.269	Roll:	0.115	Pitch:	-0.397	Yaw:	18.756	Thrust:	24.766
Time:	2.215	Roll Set Point:	-0.011	Pitch Set Point:	0.026	Yaw Set Point:	-0.237	X_WP:	0.000	Y_WP:	0.000	Y_WP:	0.500	X:	0.007	Y:	-0.012	Z:	0.050	yaw:	13.584	yaw rate:	15.120	Roll:	0.038	Pitch:	-0.444	Yaw:	21.369	Thrust:	25.541
Time:	2.235	Roll Set Point:	-0.011	Pitch Set Point:	0.026	Yaw Set Point:	-0.237	X_WP:	0.000	Y_WP:	0.000	Y_WP:	0.500	X:	0.007	Y:	-0.012	Z:	0.050	yaw:	13.562	yaw rate:	-2.255	Roll:	0.111	Pitch:	-0.383	Yaw:	18.831	Thrust:	27.043
Time:	2.252	Roll Set Point:	-0.011	Pitch Set Point:	0.026	Yaw Set Point:	-0.234	X_WP:	0.000	Y_WP:	0.000	Y_WP:	0.500	X:	0.007	Y:	-0.012	Z:	0.050	yaw:	13.404	yaw rate:	-15.740	Roll:	0.229	Pitch:	-0.370	Yaw:	16.537	Thrust:	27.561
Time:	2.269	Roll Set Point:	-0.010	Pitch Set Point:	0.026	Yaw Set Point:	-0.250	X_WP:	0.000	Y_WP:	0.000	Y_WP:	0.500	X:	0.007	Y:	-0.012	Z:	0.050	yaw:	14.327	yaw rate:	92.224	Roll:	-0.355	Pitch:	-0.387	Yaw:	34.491	Thrust:	28.543
Time:	2.286	Roll Set Point:	-0.011	Pitch Set Point:	0.026	Yaw Set Point:	-0.242	X_WP:	0.000	Y_WP:	0.000	Y_WP:	0.500	X:	0.007	Y:	-0.012	Z:	0.050	yaw:	13.888	yaw rate:	-43.859	Roll:	0.343	Pitch:	-0.407	Yaw:	13.062	Thrust:	27.656
Time:	2.303	Roll Set Point:	-0.011	Pitch Set Point:	0.026	Yaw Set Point:	-0.238	X_WP:	0.000	Y_WP:	0.000	Y_WP:	0.500	X:	0.007	Y:	-0.013	Z:	0.050	yaw:	13.658	yaw rate:	-23.009	Roll:	0.014	Pitch:	-0.594	Yaw:	16.025	Thrust:	30.769
Time:	2.320	Roll Set Point:	-0.011	Pitch Set Point:	0.025	Yaw Set Point:	-0.245	X_WP:	0.000	Y_WP:	0.000	Y_WP:	0.500	X:	0.007	Y:	-0.012	Z:	0.050	yaw:	14.039	yaw rate:	38.153	Roll:	0.474	Pitch:	0.133	Yaw:	26.033	Thrust:	32.125
Time:	2.337	Roll Set Point:	-0.011	Pitch Set Point:	0.026	Yaw Set Point:	-0.242	X_WP:	0.000	Y_WP:	0.000	Y_WP:	0.500	X:	0.007	Y:	-0.012	Z:	0.050	yaw:	13.863	yaw rate:	-17.612	Roll:	-0.071	Pitch:	-0.845	Yaw:	17.306	Thrust:	31.757
Time:	2.357	Roll Set Point:	-0.011	Pitch Set Point:	0.026	Yaw Set Point:	-0.240	X_WP:	0.000	Y_WP:	0.000	Y_WP:	0.500	X:	0.007	Y:	-0.012	Z:	0.050	yaw:	13.754	yaw rate:	-10.914	Roll:	0.217	Pitch:	-0.431	Yaw:	18.646	Thrust:	34.217
Time:	2.374	Roll Set Point:	-0.011	Pitch Set Point:	0.026	Yaw Set Point:	-0.239	X_WP:	0.000	Y_WP:	0.000	Y_WP:	0.500	X:	0.007	Y:	-0.012	Z:	0.050	yaw:	13.672	yaw rate:	-8.231	Roll:	-0.057	Pitch:	-0.253	Yaw:	18.644	Thrust:	34.452
Time:	2.391	Roll Set Point:	-0.011	Pitch Set Point:	0.026	Yaw Set Point:	-0.250	X_WP:	0.000	Y_WP:	0.000	Y_WP:	0.500	X:	0.007	Y:	-0.012	Z:	0.050	yaw:	14.332	yaw rate:	66.033	Roll:	0.160	Pitch:	-0.276	Yaw:	31.053	Thrust:	34.924
Time:	2.408	Roll Set Point:	-0.011	Pitch Set Point:	0.026	Yaw Set Point:	-0.240	X_WP:	0.000	Y_WP:	0.000	Y_WP:	0.500	X:	0.007	Y:	-0.012	Z:	0.050	yaw:	13.748	yaw rate:	-58.433	Roll:	0.126	Pitch:	-0.653	Yaw:	11.206	Thrust:	35.194
Time:	2.425	Roll Set Point:	-0.011	Pitch Set Point:	0.026	Yaw Set Point:	-0.235	X_WP:	0.000	Y_WP:	0.000	Y_WP:	0.500	X:	0.007	Y:	-0.012	Z:	0.050	yaw:	13.476	yaw rate:	-27.210	Roll:	0.191	Pitch:	-0.197	Yaw:	15.703	Thrust:	37.013
Time:	2.442	Roll Set Point:	-0.011	Pitch Set Point:	0.026	Yaw Set Point:	-0.240	X_WP:	0.000	Y_WP:	0.000	Y_WP:	0.500	X:	0.007	Y:	-0.012	Z:	0.050	yaw:	13.741	yaw rate:	26.542	Roll:	-0.076	Pitch:	-0.484	Yaw:	24.410	Thrust:	36.471
Time:	2.459	Roll Set Point:	-0.011	Pitch Set Point:	0.026	Yaw Set Point:	-0.240	X_WP:	0.000	Y_WP:	0.000	Y_WP:	0.500	X:	0.007	Y:	-0.012	Z:	0.050	yaw:	13.775	yaw rate:	3.397	Roll:	0.109	Pitch:	-0.387	Yaw:	20.984	Thrust:	38.664
Time:	2.476	Roll Set Point:	-0.011	Pitch Set Point:	0.026	Yaw Set Point:	-0.238	X_WP:	0.000	Y_WP:	0.000	Y_WP:	0.500	X:	0.007	Y:	-0.012	Z:	0.050	yaw:	13.611	yaw rate:	-16.459	Roll:	0.253	Pitch:	-0.385	Yaw:	17.793	Thrust:	40.386
Time:	2.493	Roll Set Point:	-0.011	Pitch Set Point:	0.026	Yaw Set Point:	-0.234	X_WP:	0.000	Y_WP:	0.000	Y_WP:	0.500	X:	0.007	Y:	-0.012	Z:	0.050	yaw:	13.428	yaw rate:	-18.231	Roll:	0.210	Pitch:	-0.404	Yaw:	17.334	Thrust:	40.122
Time:	2.510	Roll Set Point:	-0.011	Pitch Set Point:	0.026	Yaw Set Point:	-0.241	X_WP:	0.000	Y_WP:	0.000	Y_WP:	0.500	X:	0.007	Y:	-0.012	Z:	0.050	yaw:	13.821	yaw rate:	39.270	Roll:	0.228	Pitch:	-0.628	Yaw:	26.801	Thrust:	41.114
Time:	2.528	Roll Set Point:	-0.011	Pitch Set Point:	0.026	Yaw Set Point:	-0.236	X_WP:	0.000	Y_WP:	0.000	Y_WP:	0.500	X:	0.007	Y:	-0.012	Z:	0.050	yaw:	13.539	yaw rate:	-28.166	Roll:	0.234	Pitch:	-0.101	Yaw:	16.132	Thrust:	41.760
Time:	2.545	Roll Set Point:	-0.012	Pitch Set Point:	0.026	Yaw Set Point:	-0.240	X_WP:	0.000	Y_WP:	0.000	Y_WP:	0.500	X:	0.007	Y:	-0.012	Z:	0.050	yaw:	13.769	yaw rate:	-47.160	Roll:	0.161	Pitch:	-0.647	Yaw:	24.383	Thrust:	43.077
Time:	2.562	Roll Set Point:	-0.012	Pitch Set Point:	0.026	Yaw Set Point:	-0.243	X_WP:	0.000	Y_WP:	0.000	Y_WP:	0.500	X:	0.007	Y:	-0.012	Z:	0.050	yaw:	13.904	yaw rate:	13.543	Roll:	0.088	Pitch:	-0.514	Yaw:	23.198	Thrust:	44.591
Time:	2.579	Roll Set Point:	-0.012	Pitch Set Point:	0.026	Yaw Set Point:	-0.244	X_WP:	0.000	Y_WP:	0.000	Y_WP:	0.500	X:	0.007	Y:	-0.012	Z:	0.051	yaw:	14.000	yaw rate:	9.553	Roll:	0.228	Pitch:	-0.195	Yaw:	22.719	Thrust:	43.846
Time:	2.596	Roll Set Point:	-0.012	Pitch Set Point:	0.026	Yaw Set Point:	-0.245	X_WP:	0.000	Y_WP:	0.000	Y_WP:	0.500	X:	0.007	Y:	-0.012	Z:	0.051	yaw:	14.058	yaw rate:	5.830	Roll:	0.115	Pitch:	-0.448	Yaw:	22.229	Thrust:	45.612
Time:	2.613	Roll Set Point:	-0.012	Pitch Set Point:	0.026	Yaw Set Point:	-0.250	X_WP:	0.000	Y_WP:	0.000	Y_WP:	0.500	X:	0.008	Y:	-0.012	Z:	0.051	yaw:	14.304	yaw rate:	24.600	Roll:	0.331	Pitch:	-0.696	Yaw:	25.455	Thrust:	46.420
Time:	2.630	Roll Set Point:	-0.012	Pitch Set Point:	0.026	Yaw Set Point:	-0.253	X_WP:	0.000	Y_WP:	0.000	Y_WP:	0.500	X:	0.008	Y:	-0.012	Z:	0.051	yaw:	14.510	yaw rate:	20.566	Roll:	-0.002	Pitch:	-0.404	Yaw:	25.120	Thrust:	47.628
Time:	2.647	Roll Set Point:	-0.012	Pitch Set Point:	0.026	Yaw Set Point:	-0.258	X_WP:	0.000	Y_WP:	0.000	Y_WP:	0.500	X:	0.007	Y:	-0.012	Z:	0.051	yaw:	14.802	yaw rate:	29.260	Roll:	-0.128	Pitch:	-0.212	Yaw:	26.871	Thrust:	47.803
Time:	2.664	Roll Set Point:	-0.011	Pitch Set Point:	0.026	Yaw Set Point:	-0.255	X_WP:	0.000	Y_WP:	0.000	Y_WP:	0.500	X:	0.007	Y:	-0.012	Z:	0.051	yaw:	14.606	yaw rate:	-19.599	Roll:	0.127	Pitch:	-0.270	Yaw:	19.089	Thrust:	49.293
Time:	2.686	Roll Set Point:	-0.011	Pitch Set Point:	0.026	Yaw Set Point:	-0.237	X_WP:	0.000	Y_WP:	0.000	Y_WP:	0.500	X:	0.007	Y:	-0.012	Z:	0.051	yaw:	13.592	yaw rate:	-101.460	Roll:	-0.119	Pitch:	-0.354	Yaw:	9.144	Thrust:	57.694
Time:	2.710	Roll Set Point:	-0.010	Pitch Set Point:	0.026	Yaw Set Point:	-0.236	X_WP:	0.000	Y_WP:	0.000	Y_WP:	0.500	X:	0.006	Y:	-0.012	Z:	0.052	yaw:	13.530	yaw rate:	7.917	Roll:	-0.262	Pitch:	-0.353	Yaw:	20.621	Thrust:	61.467
Time:	2.731	Roll Set Point:	-0.008	Pitch Set Point:	0.026	Yaw Set Point:	-0.232	X_WP:	0.000	Y_WP:	0.000	Y_WP:	0.500	X:	0.006	Y:	-0.012	Z:	0.052	yaw:	13.295	yaw rate:	-23.414	Roll:	-0.527	Pitch:	-0.285	Yaw:	17.759	Thrust:	57.991
Time:	2.757	Roll Set Point:	-0.007	Pitch Set Point:	0.025	Yaw Set Point:	-0.236	X_WP:	0.000	Y_WP:	0.000	Y_WP:	0.500	X:	0.005	Y:	-0.012	Z:	0.052	yaw:	13.544	yaw rate:	24.894	Roll:	-0.287	Pitch:	-0.209	Yaw:	24.018	Thrust:	68.164
Time:	2.775	Roll Set Point:	-0.006	Pitch Set Point:	0.025	Yaw Set Point:	-0.221	X_WP:	0.000	Y_WP:	0.000	Y_WP:	0.500	X:	0.004	Y:	-0.012	Z:	0.052	yaw:	12.662	yaw rate:	-11.631	Roll:	-0.252	Pitch:	-0.184	Yaw:	6.677	Thrust:	55.740
Time:	2.793	Roll Set Point:	-0.006	Pitch Set Point:	0.024	Yaw Set Point:	-0.239	X_WP:	0.000	Y_WP:	0.000	Y_WP:	0.500	X:	0.004	Y:	-0.012	Z:	0.053	yaw:	13.711	yaw rate:	104.919	Roll:	-0.139	Pitch:	-0.021	Yaw:	36.168	Thrust:	55.531
Time:	2.810	Roll Set Point:	-0.005	Pitch Set Point:	0.023	Yaw Set Point:	-0.222	X_WP:	0.000	Y_WP:	0.000	Y_WP:	0.500	X:	0.004	Y:	-0.011	Z:	0.053	yaw:	12.726	yaw rate:	-98.512	Roll:	-0.334	Pitch:	0.051	Yaw:	4.345	Thrust:	54.509
Time:	2.829	Roll Set Point:	-0.004	Pitch Set Point:	0.023	Yaw Set Point:	-0.227	X_WP:	0.000	Y_WP:	0.000	Y_WP:	0.500	X:	0.003	Y:	-0.011	Z:	0.054	yaw:	12.993	yaw rate:	26.770	Roll:	-0.171	Pitch:	-0.035	Yaw:	23.726	Thrust:	58.759
Time:	2.847	Roll Set Point:	-0.004	Pitch Set Point:	0.021	Yaw Set Point:	-0.222	X_WP:	0.000	Y_WP:	0.000	Y_WP:	0.500	X:	0.003	Y:	-0.010	Z:	0.056	yaw:	12.705	yaw rate:	1.054	Roll:	-0.149	Pitch:	0.775	Yaw:	15.367	Thrust:	54.865
Time:	2.867	Roll Set Point:	-0.003	Pitch Set Point:	0.020	Yaw Set Point:	-0.220	X_WP:	0.000	Y_WP:	0.000	Y_WP:	0.500	X:	0.003	Y:	-0.010	Z:	0.057	yaw:	12.606	yaw rate:	-9.962	Roll:	-0.067	Pitch:	0.122	Yaw:	18.306	Thrust:	62.722
Time:	2.884	Roll Set Point:	-0.003	Pitch Set Point:	0.018	Yaw Set Point:	-0.225	X_WP:	0.000	Y_WP:	0.000	Y_WP:	0.500	X:	0.002	Y:	-0.009	Z:	0.058	yaw:	12.880	yaw rate:	27.412	Roll:	-0.063	Pitch:	0.605	Yaw:	23.898	Thrust:	56.524
Time:	2.902	Roll Set Point:	-0.002	Pitch Set Point:	0.016	Yaw Set Point:	-0.215	X_WP:	0.000	Y_WP:	0.000	Y_WP:	0.500	X:	0.002	Y:	-0.008	Z:	0.059	yaw:	12.328	yaw rate:	-55.142	Roll:	-0.314	Pitch:	0.804	Yaw:	10.449	Thrust:	55.379
Time:	2.919	Roll Set Point:	-0.001	Pitch Set Point:	0.014	Yaw Set Point:	-0.215	X_WP:	0.000	Y_WP:	0.000	Y_WP:	0.500	X:	0.001	Y:	-0.007	Z:	0.061	yaw:	12.329	yaw rate:	0.044	Roll:	-0.186	Pitch:	0.829	Yaw:	18.926	Thrust:	57.206
Time:	2.937	Roll Set Point:	-0.000	Pitch Set Point:	0.011	Yaw Set Point:	-0.212	X_WP:	0.000	Y_WP:	0.000	Y_WP:	0.500	X:	0.001	Y:	-0.005	Z:	0.063	yaw:	12.123	yaw rate:	-20.569	Roll:	-0.382	Pitch:	1.148	Yaw:	15.747	Thrust:	59.456
Time:	2.958	Roll Set Point:	0.001	Pitch Set Point:	0.006	Yaw Set Point:	-0.214	X_WP:	0.000	Y_WP:	0.000	Y_WP:	0.500	X:	-0.000	Y:	-0.003	Z:	0.066	yaw:	12.258	yaw rate:	34.784	Roll:	-0.182	Pitch:	1.952	Yaw:	20.893	Thrust:	64.334
Time:	2.979	Roll Set Point:	0.001	Pitch Set Point:	0.004	Yaw Set Point:	-0.218	X_WP:	0.000	Y_WP:	0.000	Y_WP:	0.500	X:	-0.000	Y:	-0.002	Z:	0.067	yaw:	12.506	yaw rate:	24.873	Roll:	-0.042	Pitch:	0.731	Yaw:	22.660	Thrust:	70.030
Time:	3.006	Roll Set Point:	0.002	Pitch Set Point:	-0.001	Yaw Set Point:	-0.200	X_WP:	0.000	Y_WP:	0.000	Y_WP:	0.500	X:	-0.001	Y:	0.000	Z:	0.069	yaw:	11.464	yaw rate:	-104.194	Roll:	-0.254	Pitch:	1.579	Yaw:	8.639	Thrust:	83.953
Time:	3.030	Roll Set Point:	0.004	Pitch Set Point:	-0.005	Yaw Set Point:	-0.198	X_WP:	0.000	Y_WP:	0.000	Y_WP:	0.500	X:	-0.002	Y:	0.002	Z:	0.072	yaw:	11.340	yaw rate:	15.950	Roll:	-0.469	Pitch:	1.621	Yaw:	16.887	Thrust:	75.933
Time:	3.053	Roll Set Point:	0.006	Pitch Set Point:	-0.012	Yaw Set Point:	-0.195	X_WP:	0.000	Y_WP:	0.000	Y_WP:	0.500	X:	-0.004	Y:	0.006	Z:	0.077	yaw:	11.160	yaw rate:	3.211	Roll:	-0.638	Pitch:	2.957	Yaw:	15.837	Thrust:	70.800
Time:	3.072	Roll Set Point:	0.007	Pitch Set Point:	-0.015	Yaw Set Point:	-0.194	X_WP:	0.000	Y_WP:	0.000	Y_WP:	0.500	X:	-0.004	Y:	0.007	Z:	0.078	yaw:	11.144	yaw rate:	-1.562	Roll:	-0.228	Pitch:	1.318	Yaw:	17.250	Thrust:	67.707
Time:	3.095	Roll Set Point:	0.009	Pitch Set Point:	-0.022	Yaw Set Point:	-0.196	X_WP:	0.000	Y_WP:	0.000	Y_WP:	0.500	X:	-0.005	Y:	0.010	Z:	0.085	yaw:	11.259	yaw rate:	-14.323	Roll:	-0.635	Pitch:	2.776	Yaw:	19.327	Thrust:	68.894
Time:	3.119	Roll Set Point:	0.011	Pitch Set Point:	-0.025	Yaw Set Point:	-0.178	X_WP:	0.000	Y_WP:	0.000	Y_WP:	0.500	X:	-0.007	Y:	0.012	Z:	0.089	yaw:	10.177	yaw rate:	-108.170	Roll:	-0.838	Pitch:	1.567	Yaw:	4.847	Thrust:	78.149
Time:	3.142	Roll Set Point:	0.013	Pitch Set Point:	-0.031	Yaw Set Point:	-0.192	X_WP:	0.000	Y_WP:	0.000	Y_WP:	0.500	X:	-0.008	Y:	0.015	Z:	0.097	yaw:	10.990	yaw rate:	10.909	Roll:	-0.426	Pitch:	2.687	Yaw:	26.880	Thrust:	67.688
Time:	3.167	Roll Set Point:	0.014	Pitch Set Point:	-0.036	Yaw Set Point:	-0.184	X_WP:	0.000	Y_WP:	0.000	Y_WP:	0.500	X:	-0.009	Y:	0.017	Z:	0.105	yaw:	10.541	yaw rate:	-44.856	Roll:	-0.554	Pitch:	2.242	Yaw:	12.540	Thrust:	76.327
Time:	3.188	Roll Set Point:	0.016	Pitch Set Point:	-0.041	Yaw Set Point:	-0.181	X_WP:	0.000	Y_WP:	0.000	Y_WP:	0.500	X:	-0.010	Y:	0.020	Z:	0.115	yaw:	10.350	yaw rate:	-19.128	Roll:	-0.918	Pitch:	2.891	Yaw:	14.179	Thrust:	57.264
Time:	3.206	Roll Set Point:	0.018	Pitch Set Point:	-0.046	Yaw Set Point:	-0.181	X_WP:	0.000	Y_WP:	0.000	Y_WP:	0.500	X:	-0.011	Y:	0.022	Z:	0.124	yaw:	10.359	yaw rate:	-31.707	Roll:	-0.652	Pitch:	2.914	Yaw:	16.393	Thrust:	48.818
Time:	3.226	Roll Set Point:	0.019	Pitch Set Point:	-0.050	Yaw Set Point:	-0.177	X_WP:	0.000	Y_WP:	0.000	Y_WP:	0.500	X:	-0.012	Y:	0.024	Z:	0.134	yaw:	10.148	yaw rate:	-21.090	Roll:	-0.717	Pitch:	2.549	Yaw:	13.421	Thrust:	55.506
Time:	3.248	Roll Set Point:	0.021	Pitch Set Point:	-0.054	Yaw Set Point:	-0.167	X_WP:	0.000	Y_WP:	0.000	Y_WP:	0.500	X:	-0.013	Y:	0.026	Z:	0.144	yaw:	9.583	yaw rate:	-56.457	Roll:	-0.961	Pitch:	2.199	Yaw:	8.885	Thrust:	62.073
Time:	3.272	Roll Set Point:	0.023	Pitch Set Point:	-0.059	Yaw Set Point:	-0.169	X_WP:	0.000	Y_WP:	0.000	Y_WP:	0.500	X:	-0.014	Y:	0.029	Z:	0.158	yaw:	9.685	yaw rate:	38.817	Roll:	-0.657	Pitch:	2.881	Yaw:	16.983	Thrust:	59.934
Time:	3.296	Roll Set Point:	0.025	Pitch Set Point:	-0.063	Yaw Set Point:	-0.158	X_WP:	0.000	Y_WP:	0.000	Y_WP:	0.500	X:	-0.015	Y:	0.031	Z:	0.172	yaw:	9.058	yaw rate:	-62.682	Roll:	-1.190	Pitch:	2.390	Yaw:	8.234	Thrust:	64.100
Time:	3.319	Roll Set Point:	0.027	Pitch Set Point:	-0.067	Yaw Set Point:	-0.147	X_WP:	0.000	Y_WP:	0.000	Y_WP:	0.500	X:	-0.016	Y:	0.032	Z:	0.182	yaw:	8.413	yaw rate:	-64.507	Roll:	-0.974	Pitch:	2.273	Yaw:	6.730	Thrust:	66.375
Time:	3.338	Roll Set Point:	0.028	Pitch Set Point:	-0.070	Yaw Set Point:	-0.147	X_WP:	0.000	Y_WP:	0.000	Y_WP:	0.500	X:	-0.017	Y:	0.034	Z:	0.193	yaw:	8.408	yaw rate:	-33.049	Roll:	-0.639	Pitch:	2.745	Yaw:	13.579	Thrust:	50.272
Time:	3.355	Roll Set Point:	0.029	Pitch Set Point:	-0.073	Yaw Set Point:	-0.142	X_WP:	0.000	Y_WP:	0.000	Y_WP:	0.500	X:	-0.017	Y:	0.035	Z:	0.200	yaw:	8.157	yaw rate:	-25.064	Roll:	-0.952	Pitch:	2.120	Yaw:	9.245	Thrust:	49.552
Time:	3.372	Roll Set Point:	0.031	Pitch Set Point:	-0.075	Yaw Set Point:	-0.125	X_WP:	0.000	Y_WP:	0.000	Y_WP:	0.500	X:	-0.018	Y:	0.037	Z:	0.211	yaw:	7.176	yaw rate:	-98.111	Roll:	-1.601	Pitch:	2.361	Yaw:	-3.346	Thrust:	41.889
Time:	3.394	Roll Set Point:	0.032	Pitch Set Point:	-0.078	Yaw Set Point:	-0.128	X_WP:	0.000	Y_WP:	0.000	Y_WP:	0.500	X:	-0.018	Y:	0.038	Z:	0.221	yaw:	7.321	yaw rate:	14.426	Roll:	-0.525	Pitch:	2.385	Yaw:	14.139	Thrust:	64.652
Time:	3.412	Roll Set Point:	0.033	Pitch Set Point:	-0.081	Yaw Set Point:	-0.122	X_WP:	0.000	Y_WP:	0.000	Y_WP:	0.500	X:	-0.019	Y:	0.039	Z:	0.231	yaw:	7.006	yaw rate:	-40.294	Roll:	-0.988	Pitch:	2.312	Yaw:	7.023	Thrust:	48.486
Time:	3.429	Roll Set Point:	0.034	Pitch Set Point:	-0.082	Yaw Set Point:	-0.112	X_WP:	0.000	Y_WP:	0.000	Y_WP:	0.500	X:	-0.019	Y:	0.040	Z:	0.238	yaw:	6.440	yaw rate:	-56.593	Roll:	-0.996	Pitch:	1.965	Yaw:	2.003	Thrust:	50.737
Time:	3.447	Roll Set Point:	0.034	Pitch Set Point:	-0.085	Yaw Set Point:	-0.112	X_WP:	0.000	Y_WP:	0.000	Y_WP:	0.500	X:	-0.020	Y:	0.041	Z:	0.247	yaw:	6.411	yaw rate:	-2.882	Roll:	-0.660	Pitch:	2.396	Yaw:	10.338	Thrust:	49.834
Time:	3.465	Roll Set Point:	0.036	Pitch Set Point:	-0.086	Yaw Set Point:	-0.092	X_WP:	0.000	Y_WP:	0.000	Y_WP:	0.500	X:	-0.020	Y:	0.042	Z:	0.256	yaw:	5.272	yaw rate:	-80.884	Roll:	-1.654	Pitch:	1.703	Yaw:	-7.362	Thrust:	51.213
Time:	3.483	Roll Set Point:	0.035	Pitch Set Point:	-0.088	Yaw Set Point:	-0.099	X_WP:	0.000	Y_WP:	0.000	Y_WP:	0.500	X:	-0.020	Y:	0.043	Z:	0.262	yaw:	5.674	yaw rate:	40.219	Roll:	0.107	Pitch:	2.398	Yaw:	15.561	Thrust:	58.170
Time:	3.500	Roll Set Point:	0.035	Pitch Set Point:	-0.089	Yaw Set Point:	-0.100	X_WP:	0.000	Y_WP:	0.000	Y_WP:	0.500	X:	-0.020	Y:	0.044	Z:	0.267	yaw:	5.735	yaw rate:	6.068	Roll:	-0.405	Pitch:	1.915	Yaw:	10.644	Thrust:	55.092
Time:	3.518	Roll Set Point:	0.037	Pitch Set Point:	-0.091	Yaw Set Point:	-0.077	X_WP:	0.000	Y_WP:	0.000	Y_WP:	0.500	X:	-0.020	Y:	0.045	Z:	0.274	yaw:	4.415	yaw rate:	-131.937	Roll:	-1.553	Pitch:	1.799	Yaw:	-11.167	Thrust:	55.446
Time:	3.535	Roll Set Point:	0.036	Pitch Set Point:	-0.093	Yaw Set Point:	-0.080	X_WP:	0.000	Y_WP:	0.000	Y_WP:	0.500	X:	-0.020	Y:	0.046	Z:	0.281	yaw:	4.566	yaw rate:	15.066	Roll:	-0.022	Pitch:	2.436	Yaw:	10.394	Thrust:	53.371
Time:	3.555	Roll Set Point:	0.036	Pitch Set Point:	-0.094	Yaw Set Point:	-0.073	X_WP:	0.000	Y_WP:	0.000	Y_WP:	0.500	X:	-0.020	Y:	0.046	Z:	0.285	yaw:	4.158	yaw rate:	-40.771	Roll:	-0.587	Pitch:	1.822	Yaw:	2.489	Thrust:	71.239
Time:	3.573	Roll Set Point:	0.037	Pitch Set Point:	-0.095	Yaw Set Point:	-0.059	X_WP:	0.000	Y_WP:	0.000	Y_WP:	0.500	X:	-0.020	Y:	0.047	Z:	0.290	yaw:	3.365	yaw rate:	-79.349	Roll:	-1.077	Pitch:	1.715	Yaw:	-5.008	Thrust:	60.912
Time:	3.590	Roll Set Point:	0.035	Pitch Set Point:	-0.096	Yaw Set Point:	-0.062	X_WP:	0.000	Y_WP:	0.000	Y_WP:	0.500	X:	-0.019	Y:	0.048	Z:	0.294	yaw:	3.544	yaw rate:	17.906	Roll:	0.280	Pitch:	2.151	Yaw:	9.403	Thrust:	60.298
Time:	3.607	Roll Set Point:	0.034	Pitch Set Point:	-0.098	Yaw Set Point:	-0.056	X_WP:	0.000	Y_WP:	0.000	Y_WP:	0.500	X:	-0.019	Y:	0.048	Z:	0.298	yaw:	3.226	yaw rate:	-31.833	Roll:	-0.125	Pitch:	2.121	Yaw:	1.321	Thrust:	59.753
Time:	3.624	Roll Set Point:	0.034	Pitch Set Point:	-0.099	Yaw Set Point:	-0.053	X_WP:	0.000	Y_WP:	0.000	Y_WP:	0.500	X:	-0.018	Y:	0.049	Z:	0.301	yaw:	3.055	yaw rate:	-17.012	Roll:	-0.221	Pitch:	1.931	Yaw:	3.357	Thrust:	63.113
Time:	3.643	Roll Set Point:	0.032	Pitch Set Point:	-0.100	Yaw Set Point:	-0.048	X_WP:	0.000	Y_WP:	0.000	Y_WP:	0.500	X:	-0.017	Y:	0.050	Z:	0.307	yaw:	2.742	yaw rate:	2.497	Roll:	0.329	Pitch:	2.228	Yaw:	1.090	Thrust:	60.833
Time:	3.660	Roll Set Point:	0.031	Pitch Set Point:	-0.101	Yaw Set Point:	-0.041	X_WP:	0.000	Y_WP:	0.000	Y_WP:	0.500	X:	-0.017	Y:	0.050	Z:	0.309	yaw:	2.351	yaw rate:	-39.083	Roll:	-0.391	Pitch:	1.563	Yaw:	-1.015	Thrust:	66.273
Time:	3.678	Roll Set Point:	0.030	Pitch Set Point:	-0.102	Yaw Set Point:	-0.045	X_WP:	0.000	Y_WP:	0.000	Y_WP:	0.500	X:	-0.016	Y:	0.051	Z:	0.311	yaw:	2.564	yaw rate:	21.266	Roll:	0.597	Pitch:	2.068	Yaw:	8.470	Thrust:	69.037
Time:	3.695	Roll Set Point:	0.028	Pitch Set Point:	-0.102	Yaw Set Point:	-0.038	X_WP:	0.000	Y_WP:	0.000	Y_WP:	0.500	X:	-0.015	Y:	0.051	Z:	0.314	yaw:	2.187	yaw rate:	-37.755	Roll:	-0.045	Pitch:	1.752	Yaw:	-1.041	Thrust:	65.166
Time:	3.712	Roll Set Point:	0.026	Pitch Set Point:	-0.103	Yaw Set Point:	-0.038	X_WP:	0.000	Y_WP:	0.000	Y_WP:	0.500	X:	-0.014	Y:	0.051	Z:	0.317	yaw:	2.176	yaw rate:	-1.017	Roll:	0.778	Pitch:	1.934	Yaw:	4.587	Thrust:	63.440
Time:	3.730	Roll Set Point:	0.025	Pitch Set Point:	-0.104	Yaw Set Point:	-0.034	X_WP:	0.000	Y_WP:	0.000	Y_WP:	0.500	X:	-0.013	Y:	0.052	Z:	0.320	yaw:	1.959	yaw rate:	-21.701	Roll:	0.072	Pitch:	1.740	Yaw:	1.393	Thrust:	70.316
Time:	3.747	Roll Set Point:	0.023	Pitch Set Point:	-0.104	Yaw Set Point:	-0.031	X_WP:	0.000	Y_WP:	0.000	Y_WP:	0.500	X:	-0.012	Y:	0.052	Z:	0.323	yaw:	1.794	yaw rate:	-16.539	Roll:	0.772	Pitch:	1.678	Yaw:	1.669	Thrust:	63.469
Time:	3.764	Roll Set Point:	0.021	Pitch Set Point:	-0.105	Yaw Set Point:	-0.030	X_WP:	0.000	Y_WP:	0.000	Y_WP:	0.500	X:	-0.011	Y:	0.052	Z:	0.326	yaw:	1.725	yaw rate:	-6.930	Roll:	0.561	Pitch:	1.817	Yaw:	3.052	Thrust:	66.232
Time:	3.781	Roll Set Point:	0.018	Pitch Set Point:	-0.105	Yaw Set Point:	-0.025	X_WP:	0.000	Y_WP:	0.000	Y_WP:	0.500	X:	-0.010	Y:	0.052	Z:	0.329	yaw:	1.425	yaw rate:	-29.934	Roll:	0.875	Pitch:	1.775	Yaw:	-0.901	Thrust:	63.164
Time:	3.799	Roll Set Point:	0.016	Pitch Set Point:	-0.105	Yaw Set Point:	-0.024	X_WP:	0.000	Y_WP:	0.000	Y_WP:	0.500	X:	-0.009	Y:	0.052	Z:	0.333	yaw:	1.361	yaw rate:	-6.470	Roll:	0.763	Pitch:	1.562	Yaw:	2.762	Thrust:	69.205
Time:	3.817	Roll Set Point:	0.014	Pitch Set Point:	-0.105	Yaw Set Point:	-0.017	X_WP:	0.000	Y_WP:	0.000	Y_WP:	0.500	X:	-0.007	Y:	0.053	Z:	0.337	yaw:	0.973	yaw rate:	-38.803	Roll:	0.785	Pitch:	1.582	Yaw:	-2.466	Thrust:	66.370
Time:	3.834	Roll Set Point:	0.011	Pitch Set Point:	-0.105	Yaw Set Point:	-0.024	X_WP:	0.000	Y_WP:	0.000	Y_WP:	0.500	X:	-0.006	Y:	0.053	Z:	0.341	yaw:	1.382	yaw rate:	7.008	Roll:	1.641	Pitch:	1.665	Yaw:	9.923	Thrust:	61.895
Time:	3.851	Roll Set Point:	0.008	Pitch Set Point:	-0.105	Yaw Set Point:	-0.022	X_WP:	0.000	Y_WP:	0.000	Y_WP:	0.500	X:	-0.005	Y:	0.053	Z:	0.345	yaw:	1.283	yaw rate:	-9.890	Roll:	1.203	Pitch:	1.568	Yaw:	1.977	Thrust:	63.487
Time:	3.868	Roll Set Point:	0.006	Pitch Set Point:	-0.105	Yaw Set Point:	-0.021	X_WP:	0.000	Y_WP:	0.000	Y_WP:	0.500	X:	-0.003	Y:	0.053	Z:	0.349	yaw:	1.204	yaw rate:	-7.955	Roll:	0.906	Pitch:	1.432	Yaw:	2.167	Thrust:	64.358
Time:	3.886	Roll Set Point:	0.003	Pitch Set Point:	-0.105	Yaw Set Point:	-0.015	X_WP:	0.000	Y_WP:	0.000	Y_WP:	0.500	X:	-0.002	Y:	0.052	Z:	0.354	yaw:	0.834	yaw rate:	-36.970	Roll:	1.109	Pitch:	1.310	Yaw:	-2.393	Thrust:	64.801
Time:	3.903	Roll Set Point:	-0.000	Pitch Set Point:	-0.104	Yaw Set Point:	-0.022	X_WP:	0.000	Y_WP:	0.000	Y_WP:	0.500	X:	-0.000	Y:	0.052	Z:	0.358	yaw:	1.241	yaw rate:	40.691	Roll:	1.806	Pitch:	1.467	Yaw:	9.693	Thrust:	62.760
Time:	3.920	Roll Set Point:	-0.002	Pitch Set Point:	-0.104	Yaw Set Point:	-0.021	X_WP:	0.000	Y_WP:	0.000	Y_WP:	0.500	X:	0.001	Y:	0.052	Z:	0.362	yaw:	1.229	yaw rate:	-1.152	Roll:	1.157	Pitch:	1.503	Yaw:	3.247	Thrust:	62.716
Time:	3.937	Roll Set Point:	-0.006	Pitch Set Point:	-0.104	Yaw Set Point:	-0.023	X_WP:	0.000	Y_WP:	0.000	Y_WP:	0.500	X:	0.002	Y:	0.052	Z:	0.368	yaw:	1.299	yaw rate:	6.994	Roll:	1.851	Pitch:	1.123	Yaw:	4.592	Thrust:	58.422
Time:	3.954	Roll Set Point:	-0.008	Pitch Set Point:	-0.103	Yaw Set Point:	-0.015	X_WP:	0.000	Y_WP:	0.000	Y_WP:	0.500	X:	0.004	Y:	0.052	Z:	0.372	yaw:	0.870	yaw rate:	-42.966	Roll:	1.006	Pitch:	1.378	Yaw:	-3.681	Thrust:	62.216
Time:	3.972	Roll Set Point:	-0.012	Pitch Set Point:	-0.102	Yaw Set Point:	-0.020	X_WP:	0.000	Y_WP:	0.000	Y_WP:	0.500	X:	0.005	Y:	0.051	Z:	0.378	yaw:	1.143	yaw rate:	21.288	Roll:	1.974	Pitch:	1.096	Yaw:	7.362	Thrust:	62.926
Time:	3.989	Roll Set Point:	-0.014	Pitch Set Point:	-0.102	Yaw Set Point:	-0.016	X_WP:	0.000	Y_WP:	0.000	Y_WP:	0.500	X:	0.007	Y:	0.051	Z:	0.383	yaw:	0.910	yaw rate:	-23.292	Roll:	1.347	Pitch:	1.425	Yaw:	-0.602	Thrust:	61.443
Time:	4.008	Roll Set Point:	-0.018	Pitch Set Point:	-0.101	Yaw Set Point:	-0.024	X_WP:	0.000	Y_WP:	0.000	Y_WP:	0.500	X:	0.009	Y:	0.051	Z:	0.389	yaw:	1.381	yaw rate:	47.144	Roll:	2.392	Pitch:	1.012	Yaw:	10.573	Thrust:	62.366
Time:	4.025	Roll Set Point:	-0.020	Pitch Set Point:	-0.100	Yaw Set Point:	-0.013	X_WP:	0.000	Y_WP:	0.000	Y_WP:	0.500	X:	0.010	Y:	0.050	Z:	0.394	yaw:	0.758	yaw rate:	-62.328	Roll:	0.826	Pitch:	1.275	Yaw:	-6.826	Thrust:	61.098
Time:	4.042	Roll Set Point:	-0.024	Pitch Set Point:	-0.099	Yaw Set Point:	-0.015	X_WP:	0.000	Y_WP:	0.000	Y_WP:	0.500	X:	0.011	Y:	0.050	Z:	0.400	yaw:	0.879	yaw rate:	12.084	Roll:	2.238	Pitch:	1.013	Yaw:	4.788	Thrust:	56.879
Time:	4.059	Roll Set Point:	-0.026	Pitch Set Point:	-0.099	Yaw Set Point:	-0.012	X_WP:	0.000	Y_WP:	0.000	Y_WP:	0.500	X:	0.013	Y:	0.050	Z:	0.404	yaw:	0.680	yaw rate:	-19.915	Roll:	1.383	Pitch:	1.249	Yaw:	-0.397	Thrust:	61.482
Time:	4.076	Roll Set Point:	-0.029	Pitch Set Point:	-0.098	Yaw Set Point:	-0.004	X_WP:	0.000	Y_WP:	0.000	Y_WP:	0.500	X:	0.014	Y:	0.049	Z:	0.411	yaw:	0.240	yaw rate:	-44.023	Roll:	1.589	Pitch:	0.972	Yaw:	-4.738	Thrust:	56.563
Time:	4.093	Roll Set Point:	-0.032	Pitch Set Point:	-0.097	Yaw Set Point:	-0.010	X_WP:	0.000	Y_WP:	0.000	Y_WP:	0.500	X:	0.016	Y:	0.049	Z:	0.415	yaw:	0.562	yaw rate:	32.196	Roll:	2.121	Pitch:	1.127	Yaw:	7.430	Thrust:	60.932
Time:	4.110	Roll Set Point:	-0.034	Pitch Set Point:	-0.096	Yaw Set Point:	-0.004	X_WP:	0.000	Y_WP:	0.000	Y_WP:	0.500	X:	0.017	Y:	0.048	Z:	0.420	yaw:	0.216	yaw rate:	-34.521	Roll:	1.357	Pitch:	1.097	Yaw:	-3.302	Thrust:	60.683
Time:	4.128	Roll Set Point:	-0.037	Pitch Set Point:	-0.095	Yaw Set Point:	-0.007	X_WP:	0.000	Y_WP:	0.000	Y_WP:	0.500	X:	0.018	Y:	0.048	Z:	0.426	yaw:	0.402	yaw rate:	18.580	Roll:	2.083	Pitch:	1.001	Yaw:	5.060	Thrust:	62.545
Time:	4.145	Roll Set Point:	-0.040	Pitch Set Point:	-0.095	Yaw Set Point:	-0.007	X_WP:	0.000	Y_WP:	0.000	Y_WP:	0.500	X:	0.020	Y:	0.048	Z:	0.430	yaw:	0.423	yaw rate:	2.082	Roll:	1.975	Pitch:	1.289	Yaw:	2.615	Thrust:	60.708
Time:	4.163	Roll Set Point:	-0.042	Pitch Set Point:	-0.094	Yaw Set Point:	-0.007	X_WP:	0.000	Y_WP:	0.000	Y_WP:	0.500	X:	0.021	Y:	0.047	Z:	0.436	yaw:	0.429	yaw rate:	0.570	Roll:	1.838	Pitch:	0.809	Yaw:	2.484	Thrust:	62.144
Time:	4.182	Roll Set Point:	-0.045	Pitch Set Point:	-0.093	Yaw Set Point:	-0.001	X_WP:	0.000	Y_WP:	0.000	Y_WP:	0.500	X:	0.023	Y:	0.047	Z:	0.442	yaw:	0.051	yaw rate:	-37.782	Roll:	1.839	Pitch:	1.264	Yaw:	-3.217	Thrust:	67.251
Time:	4.213	Roll Set Point:	-0.048	Pitch Set Point:	-0.092	Yaw Set Point:	0.003	X_WP:	0.000	Y_WP:	0.000	Y_WP:	0.500	X:	0.024	Y:	0.046	Z:	0.447	yaw:	-0.172	yaw rate:	-22.279	Roll:	1.348	Pitch:	1.192	Yaw:	0.992	Thrust:	100.000
Time:	4.235	Roll Set Point:	-0.053	Pitch Set Point:	-0.091	Yaw Set Point:	0.011	X_WP:	0.000	Y_WP:	0.000	Y_WP:	0.500	X:	0.027	Y:	0.045	Z:	0.457	yaw:	-0.639	yaw rate:	-38.822	Roll:	2.390	Pitch:	1.203	Yaw:	-4.235	Thrust:	72.507
Time:	4.256	Roll Set Point:	-0.056	Pitch Set Point:	-0.090	Yaw Set Point:	-0.003	X_WP:	0.000	Y_WP:	0.000	Y_WP:	0.500	X:	0.028	Y:	0.045	Z:	0.462	yaw:	0.171	yaw rate:	19.828	Roll:	2.552	Pitch:	0.817	Yaw:	12.418	Thrust:	76.820
Time:	4.281	Roll Set Point:	-0.060	Pitch Set Point:	-0.089	Yaw Set Point:	-0.002	X_WP:	0.000	Y_WP:	0.000	Y_WP:	0.500	X:	0.030	Y:	0.045	Z:	0.470	yaw:	0.108	yaw rate:	-6.327	Roll:	1.971	Pitch:	1.160	Yaw:	1.991	Thrust:	91.497
Time:	4.304	Roll Set Point:	-0.062	Pitch Set Point:	-0.089	Yaw Set Point:	0.001	X_WP:	0.000	Y_WP:	0.000	Y_WP:	0.500	X:	0.031	Y:	0.044	Z:	0.476	yaw:	-0.042	yaw rate:	-15.049	Roll:	1.874	Pitch:	1.206	Yaw:	0.534	Thrust:	83.593
Time:	4.330	Roll Set Point:	-0.065	Pitch Set Point:	-0.087	Yaw Set Point:	0.009	X_WP:	0.000	Y_WP:	0.000	Y_WP:	0.500	X:	0.033	Y:	0.044	Z:	0.484	yaw:	-0.519	yaw rate:	-47.666	Roll:	1.565	Pitch:	1.122	Yaw:	-2.910	Thrust:	93.130
Time:	4.350	Roll Set Point:	-0.068	Pitch Set Point:	-0.086	Yaw Set Point:	-0.006	X_WP:	0.000	Y_WP:	0.000	Y_WP:	0.500	X:	0.034	Y:	0.043	Z:	0.492	yaw:	0.364	yaw rate:	88.362	Roll:	2.563	Pitch:	0.767	Yaw:	14.041	Thrust:	65.334
Time:	4.370	Roll Set Point:	-0.070	Pitch Set Point:	-0.085	Yaw Set Point:	-0.009	X_WP:	0.000	Y_WP:	0.000	Y_WP:	0.500	X:	0.035	Y:	0.043	Z:	0.503	yaw:	0.533	yaw rate:	16.819	Roll:	2.129	Pitch:	0.683	Yaw:	4.940	Thrust:	57.755
Time:	4.389	Roll Set Point:	-0.071	Pitch Set Point:	-0.084	Yaw Set Point:	-0.000	X_WP:	0.000	Y_WP:	0.000	Y_WP:	0.500	X:	0.036	Y:	0.042	Z:	0.510	yaw:	0.001	yaw rate:	-53.194	Roll:	1.268	Pitch:	1.160	Yaw:	-5.406	Thrust:	60.075
Time:	4.409	Roll Set Point:	-0.073	Pitch Set Point:	-0.083	Yaw Set Point:	-0.018	X_WP:	0.000	Y_WP:	0.000	Y_WP:	0.500	X:	0.036	Y:	0.042	Z:	0.521	yaw:	1.047	yaw rate:	104.649	Roll:	2.438	Pitch:	0.280	Yaw:	17.748	Thrust:	51.405
Time:	4.427	Roll Set Point:	-0.074	Pitch Set Point:	-0.082	Yaw Set Point:	-0.013	X_WP:	0.000	Y_WP:	0.000	Y_WP:	0.500	X:	0.037	Y:	0.041	Z:	0.533	yaw:	0.742	yaw rate:	30.551	Roll:	1.245	Pitch:	0.857	Yaw:	-1.582	Thrust:	42.525
Time:	4.445	Roll Set Point:	-0.074	Pitch Set Point:	-0.079	Yaw Set Point:	-0.008	X_WP:	0.000	Y_WP:	0.000	Y_WP:	0.500	X:	0.037	Y:	0.039	Z:	0.545	yaw:	0.432	yaw rate:	-31.011	Roll:	0.840	Pitch:	0.008	Yaw:	-2.090	Thrust:	40.417
Time:	4.468	Roll Set Point:	-0.075	Pitch Set Point:	-0.077	Yaw Set Point:	-0.017	X_WP:	0.000	Y_WP:	0.000	Y_WP:	0.500	X:	0.037	Y:	0.039	Z:	0.558	yaw:	0.990	yaw rate:	55.826	Roll:	1.623	Pitch:	0.527	Yaw:	10.026	Thrust:	66.501
Time:	4.486	Roll Set Point:	-0.074	Pitch Set Point:	-0.075	Yaw Set Point:	-0.012	X_WP:	0.000	Y_WP:	0.000	Y_WP:	0.500	X:	0.037	Y:	0.038	Z:	0.570	yaw:	0.704	yaw rate:	-26.495	Roll:	0.827	Pitch:	0.471	Yaw:	-1.361	Thrust:	37.706
Time:	4.506	Roll Set Point:	-0.074	Pitch Set Point:	-0.074	Yaw Set Point:	-0.012	X_WP:	0.000	Y_WP:	0.000	Y_WP:	0.500	X:	0.037	Y:	0.037	Z:	0.583	yaw:	0.688	yaw rate:	-1.642	Roll:	1.004	Pitch:	0.461	Yaw:	2.752	Thrust:	49.494
Time:	4.524	Roll Set Point:	-0.073	Pitch Set Point:	-0.072	Yaw Set Point:	-0.002	X_WP:	0.000	Y_WP:	0.000	Y_WP:	0.500	X:	0.037	Y:	0.036	Z:	0.594	yaw:	0.106	yaw rate:	5.844	Roll:	0.432	Pitch:	0.492	Yaw:	-6.484	Thrust:	38.978
Time:	4.545	Roll Set Point:	-0.073	Pitch Set Point:	-0.070	Yaw Set Point:	-0.007	X_WP:	0.000	Y_WP:	0.000	Y_WP:	0.500	X:	0.036	Y:	0.035	Z:	0.605	yaw:	0.382	yaw rate:	27.512	Roll:	1.044	Pitch:	0.324	Yaw:	6.059	Thrust:	55.694
Time:	4.563	Roll Set Point:	-0.072	Pitch Set Point:	-0.069	Yaw Set Point:	0.005	X_WP:	0.000	Y_WP:	0.000	Y_WP:	0.500	X:	0.036	Y:	0.035	Z:	0.613	yaw:	-0.311	yaw rate:	-69.280	Roll:	0.673	Pitch:	1.142	Yaw:	-8.680	Thrust:	46.664
Time:	4.580	Roll Set Point:	-0.072	Pitch Set Point:	-0.068	Yaw Set Point:	-0.002	X_WP:	0.000	Y_WP:	0.000	Y_WP:	0.500	X:	0.036	Y:	0.034	Z:	0.621	yaw:	0.136	yaw rate:	44.690	Roll:	0.946	Pitch:	0.184	Yaw:	8.756	Thrust:	42.126
Time:	4.602	Roll Set Point:	-0.071	Pitch Set Point:	-0.067	Yaw Set Point:	0.005	X_WP:	0.000	Y_WP:	0.000	Y_WP:	0.500	X:	0.036	Y:	0.033	Z:	0.633	yaw:	-0.259	yaw rate:	-39.424	Roll:	0.642	Pitch:	0.754	Yaw:	-2.835	Thrust:	57.444
Time:	4.620	Roll Set Point:	-0.070	Pitch Set Point:	-0.066	Yaw Set Point:	0.019	X_WP:	0.000	Y_WP:	0.000	Y_WP:	0.500	X:	0.035	Y:	0.032	Z:	0.641	yaw:	-1.106	yaw rate:	-33.087	Roll:	0.282	Pitch:	0.864	Yaw:	-12.036	Thrust:	43.424
Time:	4.642	Roll Set Point:	-0.069	Pitch Set Point:	-0.065	Yaw Set Point:	0.023	X_WP:	0.000	Y_WP:	0.000	Y_WP:	0.500	X:	0.035	Y:	0.032	Z:	0.648	yaw:	-1.302	yaw rate:	-19.545	Roll:	0.685	Pitch:	0.814	Yaw:	-1.943	Thrust:	64.589
Time:	4.660	Roll Set Point:	-0.069	Pitch Set Point:	-0.064	Yaw Set Point:	0.015	X_WP:	0.000	Y_WP:	0.000	Y_WP:	0.500	X:	0.035	Y:	0.032	Z:	0.653	yaw:	-0.846	yaw rate:	45.529	Roll:	1.125	Pitch:	0.513	Yaw:	7.210	Thrust:	50.917
Time:	4.678	Roll Set Point:	-0.069	Pitch Set Point:	-0.063	Yaw Set Point:	0.021	X_WP:	0.000	Y_WP:	0.000	Y_WP:	0.500	X:	0.035	Y:	0.031	Z:	0.660	yaw:	-1.178	yaw rate:	-3.673	Roll:	0.759	Pitch:	0.931	Yaw:	-4.671	Thrust:	44.932
Time:	4.696	Roll Set Point:	-0.068	Pitch Set Point:	-0.063	Yaw Set Point:	0.025	X_WP:	0.000	Y_WP:	0.000	Y_WP:	0.500	X:	0.034	Y:	0.031	Z:	0.664	yaw:	-1.453	yaw rate:	-27.570	Roll:	0.644	Pitch:	0.937	Yaw:	-4.254	Thrust:	52.766
Time:	4.718	Roll Set Point:	-0.068	Pitch Set Point:	-0.062	Yaw Set Point:	0.030	X_WP:	0.000	Y_WP:	0.000	Y_WP:	0.500	X:	0.034	Y:	0.031	Z:	0.670	yaw:	-1.720	yaw rate:	13.280	Roll:	0.686	Pitch:	0.934	Yaw:	-3.411	Thrust:	64.584
Time:	4.736	Roll Set Point:	-0.068	Pitch Set Point:	-0.062	Yaw Set Point:	0.028	X_WP:	0.000	Y_WP:	0.000	Y_WP:	0.500	X:	0.034	Y:	0.031	Z:	0.671	yaw:	-1.590	yaw rate:	12.997	Roll:	1.217	Pitch:	0.947	Yaw:	1.419	Thrust:	56.924
Time:	4.754	Roll Set Point:	-0.067	Pitch Set Point:	-0.062	Yaw Set Point:	0.038	X_WP:	0.000	Y_WP:	0.000	Y_WP:	0.500	X:	0.034	Y:	0.030	Z:	0.673	yaw:	-2.194	yaw rate:	-60.344	Roll:	0.439	Pitch:	1.215	Yaw:	-10.072	Thrust:	54.466
Time:	4.777	Roll Set Point:	-0.067	Pitch Set Point:	-0.063	Yaw Set Point:	0.036	X_WP:	0.000	Y_WP:	0.000	Y_WP:	0.500	X:	0.034	Y:	0.031	Z:	0.676	yaw:	-2.061	yaw rate:	13.246	Roll:	1.137	Pitch:	1.204	Yaw:	0.809	Thrust:	69.997
Time:	4.795	Roll Set Point:	-0.067	Pitch Set Point:	-0.063	Yaw Set Point:	0.046	X_WP:	0.000	Y_WP:	0.000	Y_WP:	0.500	X:	0.034	Y:	0.031	Z:	0.677	yaw:	-2.646	yaw rate:	-58.511	Roll:	0.682	Pitch:	1.236	Yaw:	-10.466	Thrust:	56.191
Time:	4.812	Roll Set Point:	-0.067	Pitch Set Point:	-0.063	Yaw Set Point:	0.043	X_WP:	0.000	Y_WP:	0.000	Y_WP:	0.500	X:	0.034	Y:	0.031	Z:	0.678	yaw:	-2.452	yaw rate:	19.412	Roll:	1.152	Pitch:	1.285	Yaw:	1.164	Thrust:	52.532
Time:	4.831	Roll Set Point:	-0.067	Pitch Set Point:	-0.063	Yaw Set Point:	0.043	X_WP:	0.000	Y_WP:	0.000	Y_WP:	0.500	X:	0.034	Y:	0.031	Z:	0.678	yaw:	-2.487	yaw rate:	-3.437	Roll:	1.007	Pitch:	1.207	Yaw:	-2.165	Thrust:	61.031
Time:	4.848	Roll Set Point:	-0.067	Pitch Set Point:	-0.064	Yaw Set Point:	0.044	X_WP:	0.000	Y_WP:	0.000	Y_WP:	0.500	X:	0.034	Y:	0.031	Z:	0.679	yaw:	-2.532	yaw rate:	9.355	Roll:	1.095	Pitch:	1.240	Yaw:	-2.658	Thrust:	53.079
Time:	4.866	Roll Set Point:	-0.068	Pitch Set Point:	-0.064	Yaw Set Point:	0.042	X_WP:	0.000	Y_WP:	0.000	Y_WP:	0.500	X:	0.035	Y:	0.031	Z:	0.679	yaw:	-2.426	yaw rate:	10.632	Roll:	1.239	Pitch:	1.214	Yaw:	-0.192	Thrust:	57.182
Time:	4.883	Roll Set Point:	-0.068	Pitch Set Point:	-0.065	Yaw Set Point:	0.049	X_WP:	0.000	Y_WP:	0.000	Y_WP:	0.500	X:	0.035	Y:	0.032	Z:	0.679	yaw:	-2.807	yaw rate:	-7.664	Roll:	1.169	Pitch:	1.963	Yaw:	-8.225	Thrust:	53.323
Time:	4.900	Roll Set Point:	-0.069	Pitch Set Point:	-0.066	Yaw Set Point:	0.050	X_WP:	0.000	Y_WP:	0.000	Y_WP:	0.500	X:	0.035	Y:	0.032	Z:	0.679	yaw:	-2.849	yaw rate:	-4.250	Roll:	1.245	Pitch:	1.248	Yaw:	-3.101	Thrust:	53.226
Time:	4.917	Roll Set Point:	-0.069	Pitch Set Point:	-0.066	Yaw Set Point:	0.054	X_WP:	0.000	Y_WP:	0.000	Y_WP:	0.500	X:	0.035	Y:	0.032	Z:	0.678	yaw:	-3.110	yaw rate:	-26.051	Roll:	0.994	Pitch:	1.543	Yaw:	-6.830	Thrust:	54.467
Time:	4.934	Roll Set Point:	-0.070	Pitch Set Point:	-0.067	Yaw Set Point:	0.051	X_WP:	0.000	Y_WP:	0.000	Y_WP:	0.500	X:	0.036	Y:	0.032	Z:	0.677	yaw:	-2.923	yaw rate:	18.742	Roll:	1.359	Pitch:	1.240	Yaw:	0.293	Thrust:	54.460
Time:	4.951	Roll Set Point:	-0.071	Pitch Set Point:	-0.068	Yaw Set Point:	0.054	X_WP:	0.000	Y_WP:	0.000	Y_WP:	0.500	X:	0.036	Y:	0.033	Z:	0.675	yaw:	-3.083	yaw rate:	9.807	Roll:	1.503	Pitch:	1.983	Yaw:	-5.294	Thrust:	57.128
Time:	4.968	Roll Set Point:	-0.071	Pitch Set Point:	-0.068	Yaw Set Point:	0.047	X_WP:	0.000	Y_WP:	0.000	Y_WP:	0.500	X:	0.037	Y:	0.033	Z:	0.674	yaw:	-2.679	yaw rate:	40.416	Roll:	1.536	Pitch:	1.174	Yaw:	3.926	Thrust:	54.448
Time:	4.985	Roll Set Point:	-0.072	Pitch Set Point:	-0.069	Yaw Set Point:	0.054	X_WP:	0.000	Y_WP:	0.000	Y_WP:	0.500	X:	0.037	Y:	0.034	Z:	0.672	yaw:	-3.098	yaw rate:	-59.455	Roll:	1.231	Pitch:	1.777	Yaw:	-9.325	Thrust:	57.504
Time:	5.002	Roll Set Point:	-0.073	Pitch Set Point:	-0.070	Yaw Set Point:	0.049	X_WP:	0.000	Y_WP:	0.000	Y_WP:	0.500	X:	0.037	Y:	0.034	Z:	0.670	yaw:	-2.832	yaw rate:	26.684	Roll:	1.703	Pitch:	1.677	Yaw:	1.570	Thrust:	56.296
Time:	5.019	Roll Set Point:	-0.074	Pitch Set Point:	-0.071	Yaw Set Point:	0.044	X_WP:	0.000	Y_WP:	0.000	Y_WP:	0.500	X:	0.038	Y:	0.034	Z:	0.669	yaw:	-2.526	yaw rate:	30.578	Roll:	1.605	Pitch:	1.230	Yaw:	2.578	Thrust:	55.183
Time:	5.036	Roll Set Point:	-0.075	Pitch Set Point:	-0.071	Yaw Set Point:	0.044	X_WP:	0.000	Y_WP:	0.000	Y_WP:	0.500	X:	0.038	Y:	0.035	Z:	0.666	yaw:	-2.500	yaw rate:	62.268	Roll:	1.451	Pitch:	1.635	Yaw:	-1.695	Thrust:	59.372
Time:	5.053	Roll Set Point:	-0.076	Pitch Set Point:	-0.073	Yaw Set Point:	0.053	X_WP:	0.000	Y_WP:	0.000	Y_WP:	0.500	X:	0.039	Y:	0.036	Z:	0.661	yaw:	-3.018	yaw rate:	-71.345	Roll:	1.487	Pitch:	2.214	Yaw:	-10.778	Thrust:	62.966
Time:	5.070	Roll Set Point:	-0.077	Pitch Set Point:	-0.074	Yaw Set Point:	0.046	X_WP:	0.000	Y_WP:	0.000	Y_WP:	0.500	X:	0.039	Y:	0.036	Z:	0.659	yaw:	-2.617	yaw rate:	40.063	Roll:	1.718	Pitch:	1.456	Yaw:	3.859	Thrust:	56.083
Time:	5.087	Roll Set Point:	-0.078	Pitch Set Point:	-0.074	Yaw Set Point:	0.042	X_WP:	0.000	Y_WP:	0.000	Y_WP:	0.500	X:	0.040	Y:	0.036	Z:	0.656	yaw:	-2.434	yaw rate:	18.275	Roll:	1.842	Pitch:	1.637	Yaw:	0.753	Thrust:	59.189
Time:	5.104	Roll Set Point:	-0.078	Pitch Set Point:	-0.076	Yaw Set Point:	0.055	X_WP:	0.000	Y_WP:	0.000	Y_WP:	0.500	X:	0.040	Y:	0.037	Z:	0.650	yaw:	-3.135	yaw rate:	-80.663	Roll:	0.954	Pitch:	2.088	Yaw:	-13.809	Thrust:	66.163
Time:	5.122	Roll Set Point:	-0.079	Pitch Set Point:	-0.077	Yaw Set Point:	0.052	X_WP:	0.000	Y_WP:	0.000	Y_WP:	0.500	X:	0.041	Y:	0.037	Z:	0.646	yaw:	-2.968	yaw rate:	16.692	Roll:	1.838	Pitch:	1.804	Yaw:	-0.311	Thrust:	61.817
Time:	5.139	Roll Set Point:	-0.080	Pitch Set Point:	-0.077	Yaw Set Point:	0.050	X_WP:	0.000	Y_WP:	0.000	Y_WP:	0.500	X:	0.041	Y:	0.038	Z:	0.643	yaw:	-2.852	yaw rate:	11.564	Roll:	1.646	Pitch:	1.454	Yaw:	-0.913	Thrust:	57.351
Time:	5.156	Roll Set Point:	-0.081	Pitch Set Point:	-0.078	Yaw Set Point:	0.055	X_WP:	0.000	Y_WP:	0.000	Y_WP:	0.500	X:	0.041	Y:	0.038	Z:	0.638	yaw:	-3.177	yaw rate:	-32.420	Roll:	1.357	Pitch:	2.152	Yaw:	-8.138	Thrust:	64.812
Time:	5.173	Roll Set Point:	-0.083	Pitch Set Point:	-0.079	Yaw Set Point:	0.043	X_WP:	0.000	Y_WP:	0.000	Y_WP:	0.500	X:	0.042	Y:	0.039	Z:	0.631	yaw:	-2.446	yaw rate:	-2.010	Roll:	2.465	Pitch:	1.477	Yaw:	9.056	Thrust:	68.725
Time:	5.190	Roll Set Point:	-0.083	Pitch Set Point:	-0.079	Yaw Set Point:	0.043	X_WP:	0.000	Y_WP:	0.000	Y_WP:	0.500	X:	0.042	Y:	0.039	Z:	0.628	yaw:	-2.488	yaw rate:	-4.241	Roll:	1.394	Pitch:	1.520	Yaw:	-2.881	Thrust:	57.813
Time:	5.207	Roll Set Point:	-0.084	Pitch Set Point:	-0.080	Yaw Set Point:	0.040	X_WP:	0.000	Y_WP:	0.000	Y_WP:	0.500	X:	0.043	Y:	0.039	Z:	0.623	yaw:	-2.273	yaw rate:	21.481	Roll:	1.920	Pitch:	1.753	Yaw:	1.357	Thrust:	61.844
Time:	5.224	Roll Set Point:	-0.085	Pitch Set Point:	-0.081	Yaw Set Point:	0.039	X_WP:	0.000	Y_WP:	0.000	Y_WP:	0.500	X:	0.043	Y:	0.040	Z:	0.619	yaw:	-2.261	yaw rate:	1.250	Roll:	1.636	Pitch:	1.626	Yaw:	-1.748	Thrust:	62.008
Time:	5.241	Roll Set Point:	-0.086	Pitch Set Point:	-0.081	Yaw Set Point:	0.034	X_WP:	0.000	Y_WP:	0.000	Y_WP:	0.500	X:	0.044	Y:	0.040	Z:	0.613	yaw:	-1.935	yaw rate:	32.576	Roll:	2.039	Pitch:	1.551	Yaw:	3.509	Thrust:	65.467
Time:	5.258	Roll Set Point:	-0.086	Pitch Set Point:	-0.082	Yaw Set Point:	0.038	X_WP:	0.000	Y_WP:	0.000	Y_WP:	0.500	X:	0.044	Y:	0.040	Z:	0.609	yaw:	-2.196	yaw rate:	-26.138	Roll:	1.423	Pitch:	1.993	Yaw:	-5.883	Thrust:	62.070
Time:	5.276	Roll Set Point:	-0.087	Pitch Set Point:	-0.083	Yaw Set Point:	0.043	X_WP:	0.000	Y_WP:	0.000	Y_WP:	0.500	X:	0.045	Y:	0.041	Z:	0.602	yaw:	-2.447	yaw rate:	-5.480	Roll:	1.623	Pitch:	1.884	Yaw:	-6.084	Thrust:	69.617
Time:	5.294	Roll Set Point:	-0.088	Pitch Set Point:	-0.084	Yaw Set Point:	0.037	X_WP:	0.000	Y_WP:	0.000	Y_WP:	0.500	X:	0.045	Y:	0.041	Z:	0.597	yaw:	-2.123	yaw rate:	32.331	Roll:	1.950	Pitch:	1.558	Yaw:	2.955	Thrust:	64.852
Time:	5.310	Roll Set Point:	-0.089	Pitch Set Point:	-0.084	Yaw Set Point:	0.033	X_WP:	0.000	Y_WP:	0.000	Y_WP:	0.500	X:	0.045	Y:	0.041	Z:	0.593	yaw:	-1.919	yaw rate:	20.395	Roll:	1.871	Pitch:	1.623	Yaw:	1.731	Thrust:	60.076
Time:	5.326	Roll Set Point:	-0.090	Pitch Set Point:	-0.084	Yaw Set Point:	0.034	X_WP:	0.000	Y_WP:	0.000	Y_WP:	0.500	X:	0.045	Y:	0.041	Z:	0.588	yaw:	-1.947	yaw rate:	-2.752	Roll:	1.525	Pitch:	1.565	Yaw:	-2.098	Thrust:	59.759
Time:	5.343	Roll Set Point:	-0.090	Pitch Set Point:	-0.085	Yaw Set Point:	0.038	X_WP:	0.000	Y_WP:	0.000	Y_WP:	0.500	X:	0.046	Y:	0.042	Z:	0.581	yaw:	-2.170	yaw rate:	-14.932	Roll:	1.466	Pitch:	1.729	Yaw:	-5.330	Thrust:	69.794
Time:	5.360	Roll Set Point:	-0.091	Pitch Set Point:	-0.085	Yaw Set Point:	0.028	X_WP:	0.000	Y_WP:	0.000	Y_WP:	0.500	X:	0.046	Y:	0.042	Z:	0.578	yaw:	-1.608	yaw rate:	56.209	Roll:	2.106	Pitch:	1.153	Yaw:	7.512	Thrust:	58.690
Time:	5.377	Roll Set Point:	-0.091	Pitch Set Point:	-0.085	Yaw Set Point:	0.034	X_WP:	0.000	Y_WP:	0.000	Y_WP:	0.500	X:	0.046	Y:	0.042	Z:	0.574	yaw:	-1.946	yaw rate:	-33.776	Roll:	1.273	Pitch:	1.895	Yaw:	-6.800	Thrust:	61.944
Time:	5.394	Roll Set Point:	-0.091	Pitch Set Point:	-0.086	Yaw Set Point:	0.037	X_WP:	0.000	Y_WP:	0.000	Y_WP:	0.500	X:	0.046	Y:	0.042	Z:	0.567	yaw:	-2.135	yaw rate:	-58.360	Roll:	1.527	Pitch:	1.697	Yaw:	-4.778	Thrust:	69.771
Time:	5.411	Roll Set Point:	-0.092	Pitch Set Point:	-0.086	Yaw Set Point:	0.036	X_WP:	0.000	Y_WP:	0.000	Y_WP:	0.500	X:	0.047	Y:	0.042	Z:	0.564	yaw:	-2.042	yaw rate:	9.202	Roll:	1.589	Pitch:	1.345	Yaw:	-0.358	Thrust:	58.784
Time:	5.427	Roll Set Point:	-0.092	Pitch Set Point:	-0.086	Yaw Set Point:	0.027	X_WP:	0.000	Y_WP:	0.000	Y_WP:	0.500	X:	0.047	Y:	0.042	Z:	0.560	yaw:	-1.565	yaw rate:	47.782	Roll:	1.892	Pitch:	1.268	Yaw:	6.621	Thrust:	59.927
Time:	5.444	Roll Set Point:	-0.092	Pitch Set Point:	-0.086	Yaw Set Point:	0.036	X_WP:	0.000	Y_WP:	0.000	Y_WP:	0.500	X:	0.047	Y:	0.042	Z:	0.552	yaw:	-2.052	yaw rate:	-21.028	Roll:	0.981	Pitch:	1.869	Yaw:	-9.287	Thrust:	70.714
Time:	5.461	Roll Set Point:	-0.092	Pitch Set Point:	-0.085	Yaw Set Point:	0.029	X_WP:	0.000	Y_WP:	0.000	Y_WP:	0.500	X:	0.047	Y:	0.042	Z:	0.549	yaw:	-1.664	yaw rate:	38.764	Roll:	1.723	Pitch:	1.060	Yaw:	4.676	Thrust:	59.559
Time:	5.478	Roll Set Point:	-0.093	Pitch Set Point:	-0.086	Yaw Set Point:	0.030	X_WP:	0.000	Y_WP:	0.000	Y_WP:	0.500	X:	0.047	Y:	0.042	Z:	0.545	yaw:	-1.701	yaw rate:	-3.645	Roll:	1.650	Pitch:	1.877	Yaw:	-1.900	Thrust:	62.922
Time:	5.495	Roll Set Point:	-0.093	Pitch Set Point:	-0.086	Yaw Set Point:	0.027	X_WP:	0.000	Y_WP:	0.000	Y_WP:	0.500	X:	0.047	Y:	0.042	Z:	0.537	yaw:	-1.535	yaw rate:	-26.972	Roll:	1.498	Pitch:	1.250	Yaw:	1.427	Thrust:	74.061
Time:	5.512	Roll Set Point:	-0.093	Pitch Set Point:	-0.086	Yaw Set Point:	0.030	X_WP:	0.000	Y_WP:	0.000	Y_WP:	0.500	X:	0.047	Y:	0.042	Z:	0.534	yaw:	-1.695	yaw rate:	-15.968	Roll:	1.416	Pitch:	1.642	Yaw:	-3.802	Thrust:	59.490
Time:	5.529	Roll Set Point:	-0.092	Pitch Set Point:	-0.086	Yaw Set Point:	0.036	X_WP:	0.000	Y_WP:	0.000	Y_WP:	0.500	X:	0.047	Y:	0.042	Z:	0.531	yaw:	-2.076	yaw rate:	-38.093	Roll:	0.999	Pitch:	1.641	Yaw:	-7.741	Thrust:	59.558
Time:	5.546	Roll Set Point:	-0.093	Pitch Set Point:	-0.086	Yaw Set Point:	0.027	X_WP:	0.000	Y_WP:	0.000	Y_WP:	0.500	X:	0.047	Y:	0.042	Z:	0.525	yaw:	-1.532	yaw rate:	54.374	Roll:	1.913	Pitch:	1.170	Yaw:	7.219	Thrust:	67.375
Time:	5.563	Roll Set Point:	-0.092	Pitch Set Point:	-0.086	Yaw Set Point:	0.026	X_WP:	0.000	Y_WP:	0.000	Y_WP:	0.500	X:	0.047	Y:	0.042	Z:	0.521	yaw:	-1.483	yaw rate:	4.921	Roll:	1.192	Pitch:	1.298	Yaw:	-0.329	Thrust:	63.715
Time:	5.580	Roll Set Point:	-0.093	Pitch Set Point:	-0.086	Yaw Set Point:	0.024	X_WP:	0.000	Y_WP:	0.000	Y_WP:	0.500	X:	0.047	Y:	0.042	Z:	0.518	yaw:	-1.397	yaw rate:	8.569	Roll:	1.683	Pitch:	1.485	Yaw:	0.342	Thrust:	62.818
Time:	5.597	Roll Set Point:	-0.092	Pitch Set Point:	-0.086	Yaw Set Point:	0.028	X_WP:	0.000	Y_WP:	0.000	Y_WP:	0.500	X:	0.047	Y:	0.042	Z:	0.511	yaw:	-1.583	yaw rate:	-30.761	Roll:	1.060	Pitch:	1.592	Yaw:	-4.092	Thrust:	70.886
Time:	5.614	Roll Set Point:	-0.091	Pitch Set Point:	-0.086	Yaw Set Point:	0.036	X_WP:	0.000	Y_WP:	0.000	Y_WP:	0.500	X:	0.046	Y:	0.042	Z:	0.508	yaw:	-2.073	yaw rate:	-49.028	Roll:	0.829	Pitch:	1.609	Yaw:	-9.478	Thrust:	60.246
Time:	5.631	Roll Set Point:	-0.091	Pitch Set Point:	-0.086	Yaw Set Point:	0.026	X_WP:	0.000	Y_WP:	0.000	Y_WP:	0.500	X:	0.046	Y:	0.042	Z:	0.503	yaw:	-1.495	yaw rate:	57.826	Roll:	1.848	Pitch:	1.145	Yaw:	7.741	Thrust:	66.224
Time:	5.648	Roll Set Point:	-0.091	Pitch Set Point:	-0.085	Yaw Set Point:	0.025	X_WP:	0.000	Y_WP:	0.000	Y_WP:	0.500	X:	0.046	Y:	0.042	Z:	0.500	yaw:	-1.432	yaw rate:	6.347	Roll:	1.281	Pitch:	1.319	Yaw:	-0.086	Thrust:	63.672
Time:	5.666	Roll Set Point:	-0.091	Pitch Set Point:	-0.085	Yaw Set Point:	0.030	X_WP:	0.000	Y_WP:	0.000	Y_WP:	0.500	X:	0.046	Y:	0.042	Z:	0.496	yaw:	-1.718	yaw rate:	-28.608	Roll:	0.997	Pitch:	1.566	Yaw:	-5.863	Thrust:	64.092
Time:	5.683	Roll Set Point:	-0.090	Pitch Set Point:	-0.085	Yaw Set Point:	0.027	X_WP:	0.000	Y_WP:	0.000	Y_WP:	0.500	X:	0.045	Y:	0.042	Z:	0.489	yaw:	-1.524	yaw rate:	-10.714	Roll:	1.159	Pitch:	1.272	Yaw:	1.764	Thrust:	73.417
Time:	5.700	Roll Set Point:	-0.089	Pitch Set Point:	-0.085	Yaw Set Point:	0.032	X_WP:	0.000	Y_WP:	0.000	Y_WP:	0.500	X:	0.045	Y:	0.042	Z:	0.486	yaw:	-1.846	yaw rate:	-32.226	Roll:	1.083	Pitch:	1.672	Yaw:	-6.617	Thrust:	61.024
Time:	5.717	Roll Set Point:	-0.089	Pitch Set Point:	-0.085	Yaw Set Point:	0.029	X_WP:	0.000	Y_WP:	0.000	Y_WP:	0.500	X:	0.045	Y:	0.042	Z:	0.483	yaw:	-1.668	yaw rate:	17.845	Roll:	1.460	Pitch:	1.263	Yaw:	1.314	Thrust:	63.652
Time:	5.734	Roll Set Point:	-0.089	Pitch Set Point:	-0.085	Yaw Set Point:	0.030	X_WP:	0.000	Y_WP:	0.000	Y_WP:	0.500	X:	0.045	Y:	0.042	Z:	0.479	yaw:	-1.725	yaw rate:	-5.745	Roll:	1.081	Pitch:	1.537	Yaw:	-2.402	Thrust:	64.395
Time:	5.751	Roll Set Point:	-0.088	Pitch Set Point:	-0.085	Yaw Set Point:	0.038	X_WP:	0.000	Y_WP:	0.000	Y_WP:	0.500	X:	0.045	Y:	0.042	Z:	0.475	yaw:	-2.167	yaw rate:	1.877	Roll:	0.799	Pitch:	1.529	Yaw:	-8.923	Thrust:	67.016
Time:	5.768	Roll Set Point:	-0.088	Pitch Set Point:	-0.084	Yaw Set Point:	0.028	X_WP:	0.000	Y_WP:	0.000	Y_WP:	0.500	X:	0.045	Y:	0.042	Z:	0.471	yaw:	-1.623	yaw rate:	54.391	Roll:	1.661	Pitch:	1.143	Yaw:	6.958	Thrust:	64.646
Time:	5.786	Roll Set Point:	-0.088	Pitch Set Point:	-0.085	Yaw Set Point:	0.031	X_WP:	0.000	Y_WP:	0.000	Y_WP:	0.500	X:	0.044	Y:	0.042	Z:	0.468	yaw:	-1.782	yaw rate:	-15.852	Roll:	1.112	Pitch:	1.596	Yaw:	-3.885	Thrust:	66.096
Time:	5.803	Roll Set Point:	-0.087	Pitch Set Point:	-0.084	Yaw Set Point:	0.033	X_WP:	0.000	Y_WP:	0.000	Y_WP:	0.500	X:	0.044	Y:	0.041	Z:	0.462	yaw:	-1.902	yaw rate:	44.676	Roll:	0.834	Pitch:	1.318	Yaw:	-3.650	Thrust:	72.123
Time:	5.820	Roll Set Point:	-0.086	Pitch Set Point:	-0.084	Yaw Set Point:	0.037	X_WP:	0.000	Y_WP:	0.000	Y_WP:	0.500	X:	0.044	Y:	0.041	Z:	0.460	yaw:	-2.133	yaw rate:	-23.084	Roll:	1.097	Pitch:	1.410	Yaw:	-5.688	Thrust:	61.211
Time:	5.837	Roll Set Point:	-0.086	Pitch Set Point:	-0.084	Yaw Set Point:	0.032	X_WP:	0.000	Y_WP:	0.000	Y_WP:	0.500	X:	0.044	Y:	0.041	Z:	0.458	yaw:	-1.851	yaw rate:	28.175	Roll:	1.541	Pitch:	1.457	Yaw:	2.539	Thrust:	64.013
Time:	5.854	Roll Set Point:	-0.086	Pitch Set Point:	-0.084	Yaw Set Point:	0.038	X_WP:	0.000	Y_WP:	0.000	Y_WP:	0.500	X:	0.044	Y:	0.041	Z:	0.455	yaw:	-2.169	yaw rate:	-31.835	Roll:	0.852	Pitch:	1.496	Yaw:	-7.107	Thrust:	63.503
Time:	5.871	Roll Set Point:	-0.085	Pitch Set Point:	-0.083	Yaw Set Point:	0.037	X_WP:	0.000	Y_WP:	0.000	Y_WP:	0.500	X:	0.043	Y:	0.041	Z:	0.452	yaw:	-2.097	yaw rate:	7.219	Roll:	1.145	Pitch:	1.239	Yaw:	-1.021	Thrust:	65.669
Time:	5.888	Roll Set Point:	-0.085	Pitch Set Point:	-0.083	Yaw Set Point:	0.027	X_WP:	0.000	Y_WP:	0.000	Y_WP:	0.500	X:	0.043	Y:	0.041	Z:	0.448	yaw:	-1.564	yaw rate:	13.962	Roll:	1.592	Pitch:	0.987	Yaw:	6.789	Thrust:	67.281
Time:	5.905	Roll Set Point:	-0.085	Pitch Set Point:	-0.083	Yaw Set Point:	0.026	X_WP:	0.000	Y_WP:	0.000	Y_WP:	0.500	X:	0.043	Y:	0.041	Z:	0.447	yaw:	-1.467	yaw rate:	9.699	Roll:	1.390	Pitch:	1.392	Yaw:	0.216	Thrust:	61.258
Time:	5.923	Roll Set Point:	-0.084	Pitch Set Point:	-0.083	Yaw Set Point:	0.038	X_WP:	0.000	Y_WP:	0.000	Y_WP:	0.500	X:	0.043	Y:	0.040	Z:	0.444	yaw:	-2.189	yaw rate:	-59.073	Roll:	0.526	Pitch:	1.649	Yaw:	-12.713	Thrust:	68.801
Time:	5.940	Roll Set Point:	-0.084	Pitch Set Point:	-0.082	Yaw Set Point:	0.031	X_WP:	0.000	Y_WP:	0.000	Y_WP:	0.500	X:	0.043	Y:	0.041	Z:	0.442	yaw:	-1.790	yaw rate:	39.821	Roll:	1.592	Pitch:	1.215	Yaw:	4.369	Thrust:	61.533
Time:	5.957	Roll Set Point:	-0.084	Pitch Set Point:	-0.082	Yaw Set Point:	0.030	X_WP:	0.000	Y_WP:	0.000	Y_WP:	0.500	X:	0.042	Y:	0.040	Z:	0.440	yaw:	-1.704	yaw rate:	8.623	Roll:	1.187	Pitch:	1.317	Yaw:	-0.311	Thrust:	62.804
Time:	5.974	Roll Set Point:	-0.084	Pitch Set Point:	-0.082	Yaw Set Point:	0.031	X_WP:	0.000	Y_WP:	0.000	Y_WP:	0.500	X:	0.042	Y:	0.040	Z:	0.438	yaw:	-1.793	yaw rate:	-20.646	Roll:	1.277	Pitch:	1.496	Yaw:	-3.128	Thrust:	65.902
Time:	5.992	Roll Set Point:	-0.083	Pitch Set Point:	-0.082	Yaw Set Point:	0.029	X_WP:	0.000	Y_WP:	0.000	Y_WP:	0.500	X:	0.042	Y:	0.040	Z:	0.436	yaw:	-1.649	yaw rate:	14.371	Roll:	1.307	Pitch:	1.260	Yaw:	0.628	Thrust:	62.923
Time:	6.009	Roll Set Point:	-0.063	Pitch Set Point:	0.019	Yaw Set Point:	0.030	X_WP:	0.023	Y_WP:	0.100	Y_WP:	0.500	X:	0.042	Y:	0.040	Z:	0.435	yaw:	-1.739	yaw rate:	-8.973	Roll:	-19.817	Pitch:	-30.000	Yaw:	-3.090	Thrust:	62.034
Time:	6.026	Roll Set Point:	-0.063	Pitch Set Point:	0.019	Yaw Set Point:	0.033	X_WP:	0.024	Y_WP:	0.100	Y_WP:	0.500	X:	0.042	Y:	0.040	Z:	0.433	yaw:	-1.866	yaw rate:	-12.688	Roll:	0.751	Pitch:	-1.459	Yaw:	-3.851	Thrust:	62.889
Time:	6.043	Roll Set Point:	-0.062	Pitch Set Point:	0.019	Yaw Set Point:	0.028	X_WP:	0.023	Y_WP:	0.100	Y_WP:	0.500	X:	0.042	Y:	0.040	Z:	0.431	yaw:	-1.587	yaw rate:	27.820	Roll:	0.618	Pitch:	-1.505	Yaw:	2.753	Thrust:	64.769
Time:	6.060	Roll Set Point:	-0.062	Pitch Set Point:	0.019	Yaw Set Point:	0.034	X_WP:	0.023	Y_WP:	0.099	Y_WP:	0.500	X:	0.042	Y:	0.040	Z:	0.429	yaw:	-1.934	yaw rate:	1.389	Roll:	1.141	Pitch:	-1.326	Yaw:	-7.336	Thrust:	66.279
Time:	6.077	Roll Set Point:	-0.062	Pitch Set Point:	0.019	Yaw Set Point:	0.031	X_WP:	0.023	Y_WP:	0.099	Y_WP:	0.500	X:	0.042	Y:	0.040	Z:	0.428	yaw:	-1.771	yaw rate:	16.272	Roll:	0.580	Pitch:	-1.525	Yaw:	0.697	Thrust:	62.240
Time:	6.094	Roll Set Point:	-0.062	Pitch Set Point:	0.019	Yaw Set Point:	0.027	X_WP:	0.023	Y_WP:	0.100	Y_WP:	0.500	X:	0.042	Y:	0.040	Z:	0.426	yaw:	-1.525	yaw rate:	30.050	Roll:	0.500	Pitch:	-1.553	Yaw:	2.323	Thrust:	66.268
Time:	6.111	Roll Set Point:	-0.062	Pitch Set Point:	0.019	Yaw Set Point:	0.028	X_WP:	0.023	Y_WP:	0.100	Y_WP:	0.500	X:	0.042	Y:	0.040	Z:	0.425	yaw:	-1.630	yaw rate:	-10.581	Roll:	0.876	Pitch:	-1.421	Yaw:	-3.251	Thrust:	62.462
Time:	6.128	Roll Set Point:	-0.063	Pitch Set Point:	0.018	Yaw Set Point:	0.035	X_WP:	0.023	Y_WP:	0.100	Y_WP:	0.500	X:	0.042	Y:	0.040	Z:	0.422	yaw:	-2.004	yaw rate:	2.659	Roll:	1.335	Pitch:	-1.266	Yaw:	-7.901	Thrust:	67.290
Time:	6.145	Roll Set Point:	-0.063	Pitch Set Point:	0.018	Yaw Set Point:	0.028	X_WP:	0.023	Y_WP:	0.100	Y_WP:	0.500	X:	0.042	Y:	0.040	Z:	0.421	yaw:	-1.632	yaw rate:	37.244	Roll:	0.399	Pitch:	-1.589	Yaw:	4.064	Thrust:	63.004
Time:	6.162	Roll Set Point:	-0.063	Pitch Set Point:	0.017	Yaw Set Point:	0.030	X_WP:	0.023	Y_WP:	0.101	Y_WP:	0.500	X:	0.042	Y:	0.041	Z:	0.419	yaw:	-1.698	yaw rate:	13.140	Roll:	1.328	Pitch:	-1.274	Yaw:	-2.780	Thrust:	67.088
Time:	6.179	Roll Set Point:	-0.064	Pitch Set Point:	0.017	Yaw Set Point:	0.032	X_WP:	0.023	Y_WP:	0.101	Y_WP:	0.500	X:	0.042	Y:	0.042	Z:	0.418	yaw:	-1.860	yaw rate:	-16.188	Roll:	1.046	Pitch:	-1.353	Yaw:	-4.474	Thrust:	63.584
Time:	6.196	Roll Set Point:	-0.064	Pitch Set Point:	0.016	Yaw Set Point:	0.034	X_WP:	0.023	Y_WP:	0.101	Y_WP:	0.500	X:	0.043	Y:	0.042	Z:	0.417	yaw:	-1.954	yaw rate:	-9.362	Roll:	1.086	Pitch:	-1.327	Yaw:	-3.565	Thrust:	64.616
Time:	6.213	Roll Set Point:	-0.065	Pitch Set Point:	0.016	Yaw Set Point:	0.036	X_WP:	0.023	Y_WP:	0.102	Y_WP:	0.500	X:	0.043	Y:	0.043	Z:	0.416	yaw:	-2.043	yaw rate:	-8.915	Roll:	1.068	Pitch:	-1.359	Yaw:	-3.635	Thrust:	65.025
Time:	6.230	Roll Set Point:	-0.066	Pitch Set Point:	0.014	Yaw Set Point:	0.039	X_WP:	0.023	Y_WP:	0.102	Y_WP:	0.500	X:	0.043	Y:	0.044	Z:	0.415	yaw:	-2.261	yaw rate:	-21.786	Roll:	1.545	Pitch:	-1.166	Yaw:	-5.933	Thrust:	65.042
Time:	6.247	Roll Set Point:	-0.066	Pitch Set Point:	0.013	Yaw Set Point:	0.030	X_WP:	0.023	Y_WP:	0.103	Y_WP:	0.500	X:	0.044	Y:	0.045	Z:	0.413	yaw:	-1.694	yaw rate:	56.681	Roll:	0.617	Pitch:	-1.443	Yaw:	6.902	Thrust:	65.967
Time:	6.264	Roll Set Point:	-0.067	Pitch Set Point:	0.012	Yaw Set Point:	0.034	X_WP:	0.023	Y_WP:	0.104	Y_WP:	0.500	X:	0.044	Y:	0.046	Z:	0.412	yaw:	-1.934	yaw rate:	-23.998	Roll:	1.521	Pitch:	-1.261	Yaw:	-5.829	Thrust:	65.663
Time:	6.281	Roll Set Point:	-0.068	Pitch Set Point:	0.010	Yaw Set Point:	0.034	X_WP:	0.023	Y_WP:	0.105	Y_WP:	0.500	X:	0.045	Y:	0.047	Z:	0.411	yaw:	-1.964	yaw rate:	-3.040	Roll:	1.491	Pitch:	-1.105	Yaw:	-2.670	Thrust:	66.342
Time:	6.298	Roll Set Point:	-0.069	Pitch Set Point:	0.009	Yaw Set Point:	0.039	X_WP:	0.023	Y_WP:	0.107	Y_WP:	0.500	X:	0.045	Y:	0.048	Z:	0.410	yaw:	-2.230	yaw rate:	-26.520	Roll:	1.570	Pitch:	-1.208	Yaw:	-6.663	Thrust:	65.596
Time:	6.316	Roll Set Point:	-0.070	Pitch Set Point:	0.007	Yaw Set Point:	0.026	X_WP:	0.023	Y_WP:	0.108	Y_WP:	0.500	X:	0.046	Y:	0.050	Z:	0.408	yaw:	-1.498	yaw rate:	-16.348	Roll:	0.893	Pitch:	-1.470	Yaw:	9.068	Thrust:	69.781
Time:	6.333	Roll Set Point:	-0.072	Pitch Set Point:	0.005	Yaw Set Point:	0.036	X_WP:	0.023	Y_WP:	0.109	Y_WP:	0.500	X:	0.046	Y:	0.052	Z:	0.408	yaw:	-2.049	yaw rate:	-55.056	Roll:	1.903	Pitch:	-0.931	Yaw:	-10.801	Thrust:	65.581
Time:	6.351	Roll Set Point:	-0.073	Pitch Set Point:	0.003	Yaw Set Point:	0.025	X_WP:	0.023	Y_WP:	0.111	Y_WP:	0.500	X:	0.047	Y:	0.054	Z:	0.407	yaw:	-1.447	yaw rate:	60.141	Roll:	0.907	Pitch:	-1.191	Yaw:	7.708	Thrust:	66.299
Time:	6.368	Roll Set Point:	-0.074	Pitch Set Point:	0.000	Yaw Set Point:	0.029	X_WP:	0.023	Y_WP:	0.113	Y_WP:	0.500	X:	0.048	Y:	0.056	Z:	0.406	yaw:	-1.644	yaw rate:	-19.631	Roll:	1.912	Pitch:	-1.093	Yaw:	-4.825	Thrust:	65.844
Time:	6.385	Roll Set Point:	-0.076	Pitch Set Point:	-0.002	Yaw Set Point:	0.036	X_WP:	0.023	Y_WP:	0.114	Y_WP:	0.500	X:	0.048	Y:	0.058	Z:	0.405	yaw:	-2.041	yaw rate:	-39.780	Roll:	1.823	Pitch:	-1.060	Yaw:	-8.484	Thrust:	65.321
Time:	6.402	Roll Set Point:	-0.077	Pitch Set Point:	-0.005	Yaw Set Point:	0.031	X_WP:	0.023	Y_WP:	0.117	Y_WP:	0.500	X:	0.049	Y:	0.061	Z:	0.405	yaw:	-1.776	yaw rate:	-0.113	Roll:	1.697	Pitch:	-1.142	Yaw:	2.066	Thrust:	65.753
Time:	6.418	Roll Set Point:	-0.078	Pitch Set Point:	-0.007	Yaw Set Point:	0.027	X_WP:	0.023	Y_WP:	0.118	Y_WP:	0.500	X:	0.050	Y:	0.062	Z:	0.405	yaw:	-1.558	yaw rate:	21.760	Roll:	1.302	Pitch:	-1.102	Yaw:	1.801	Thrust:	61.953
Time:	6.435	Roll Set Point:	-0.080	Pitch Set Point:	-0.010	Yaw Set Point:	0.035	X_WP:	0.023	Y_WP:	0.120	Y_WP:	0.500	X:	0.050	Y:	0.065	Z:	0.404	yaw:	-2.003	yaw rate:	-44.547	Roll:	2.049	Pitch:	-0.771	Yaw:	-9.208	Thrust:	65.192
Time:	6.452	Roll Set Point:	-0.081	Pitch Set Point:	-0.014	Yaw Set Point:	0.031	X_WP:	0.023	Y_WP:	0.123	Y_WP:	0.500	X:	0.051	Y:	0.068	Z:	0.405	yaw:	-1.778	yaw rate:	22.494	Roll:	1.399	Pitch:	-0.584	Yaw:	1.398	Thrust:	64.722
Time:	6.469	Roll Set Point:	-0.082	Pitch Set Point:	-0.016	Yaw Set Point:	0.029	X_WP:	0.023	Y_WP:	0.125	Y_WP:	0.500	X:	0.052	Y:	0.070	Z:	0.405	yaw:	-1.644	yaw rate:	13.494	Roll:	1.838	Pitch:	-1.448	Yaw:	0.199	Thrust:	65.433
Time:	6.486	Roll Set Point:	-0.084	Pitch Set Point:	-0.021	Yaw Set Point:	0.036	X_WP:	0.023	Y_WP:	0.128	Y_WP:	0.500	X:	0.053	Y:	0.074	Z:	0.405	yaw:	-2.048	yaw rate:	-40.474	Roll:	2.054	Pitch:	-0.272	Yaw:	-8.674	Thrust:	64.206
Time:	6.503	Roll Set Point:	-0.085	Pitch Set Point:	-0.024	Yaw Set Point:	0.026	X_WP:	0.024	Y_WP:	0.131	Y_WP:	0.500	X:	0.054	Y:	0.077	Z:	0.405	yaw:	-1.490	yaw rate:	55.855	Roll:	1.318	Pitch:	-1.489	Yaw:	6.886	Thrust:	65.073
Time:	6.520	Roll Set Point:	-0.087	Pitch Set Point:	-0.028	Yaw Set Point:	0.024	X_WP:	0.024	Y_WP:	0.134	Y_WP:	0.500	X:	0.055	Y:	0.081	Z:	0.405	yaw:	-1.399	yaw rate:	2.444	Roll:	2.005	Pitch:	-1.266	Yaw:	-0.175	Thrust:	64.771
Time:	6.537	Roll Set Point:	-0.088	Pitch Set Point:	-0.031	Yaw Set Point:	0.024	X_WP:	0.024	Y_WP:	0.137	Y_WP:	0.500	X:	0.055	Y:	0.083	Z:	0.406	yaw:	-1.366	yaw rate:	3.290	Roll:	1.580	Pitch:	-0.676	Yaw:	-1.021	Thrust:	64.948
Time:	6.554	Roll Set Point:	-0.091	Pitch Set Point:	-0.037	Yaw Set Point:	0.028	X_WP:	0.023	Y_WP:	0.141	Y_WP:	0.500	X:	0.056	Y:	0.089	Z:	0.406	yaw:	-1.628	yaw rate:	48.216	Roll:	2.652	Pitch:	-0.684	Yaw:	-5.910	Thrust:	64.374
Time:	6.571	Roll Set Point:	-0.092	Pitch Set Point:	-0.041	Yaw Set Point:	0.031	X_WP:	0.024	Y_WP:	0.144	Y_WP:	0.500	X:	0.057	Y:	0.092	Z:	0.407	yaw:	-1.786	yaw rate:	-15.786	Roll:	1.585	Pitch:	-0.394	Yaw:	-4.554	Thrust:	64.408
Time:	6.588	Roll Set Point:	-0.093	Pitch Set Point:	-0.043	Yaw Set Point:	0.039	X_WP:	0.024	Y_WP:	0.146	Y_WP:	0.500	X:	0.057	Y:	0.094	Z:	0.407	yaw:	-2.249	yaw rate:	-46.368	Roll:	2.422	Pitch:	-1.186	Yaw:	-9.910	Thrust:	65.895
Time:	6.605	Roll Set Point:	-0.094	Pitch Set Point:	-0.050	Yaw Set Point:	0.035	X_WP:	0.025	Y_WP:	0.149	Y_WP:	0.500	X:	0.058	Y:	0.099	Z:	0.408	yaw:	-2.018	yaw rate:	23.076	Roll:	0.831	Pitch:	0.667	Yaw:	1.070	Thrust:	64.767
Time:	6.622	Roll Set Point:	-0.096	Pitch Set Point:	-0.053	Yaw Set Point:	0.033	X_WP:	0.025	Y_WP:	0.153	Y_WP:	0.500	X:	0.059	Y:	0.102	Z:	0.409	yaw:	-1.881	yaw rate:	13.749	Roll:	2.193	Pitch:	-1.868	Yaw:	-0.189	Thrust:	64.265
Time:	6.639	Roll Set Point:	-0.098	Pitch Set Point:	-0.059	Yaw Set Point:	0.031	X_WP:	0.024	Y_WP:	0.159	Y_WP:	0.500	X:	0.060	Y:	0.108	Z:	0.410	yaw:	-1.760	yaw rate:	69.683	Roll:	2.458	Pitch:	-1.014	Yaw:	-0.292	Thrust:	64.655
Time:	6.657	Roll Set Point:	-0.099	Pitch Set Point:	-0.064	Yaw Set Point:	0.027	X_WP:	0.025	Y_WP:	0.161	Y_WP:	0.500	X:	0.061	Y:	0.112	Z:	0.411	yaw:	-1.543	yaw rate:	21.622	Roll:	1.143	Pitch:	-0.357	Yaw:	1.467	Thrust:	64.650
Time:	6.674	Roll Set Point:	-0.100	Pitch Set Point:	-0.066	Yaw Set Point:	0.029	X_WP:	0.025	Y_WP:	0.164	Y_WP:	0.500	X:	0.062	Y:	0.115	Z:	0.412	yaw:	-1.673	yaw rate:	-12.963	Roll:	2.324	Pitch:	-1.529	Yaw:	-4.030	Thrust:	65.407
Time:	6.691	Roll Set Point:	-0.101	Pitch Set Point:	-0.074	Yaw Set Point:	0.039	X_WP:	0.026	Y_WP:	0.167	Y_WP:	0.500	X:	0.062	Y:	0.120	Z:	0.413	yaw:	-2.220	yaw rate:	-54.698	Roll:	0.984	Pitch:	1.620	Yaw:	-11.215	Thrust:	64.440
Time:	6.708	Roll Set Point:	-0.102	Pitch Set Point:	-0.077	Yaw Set Point:	0.026	X_WP:	0.026	Y_WP:	0.172	Y_WP:	0.500	X:	0.063	Y:	0.124	Z:	0.413	yaw:	-1.502	yaw rate:	71.777	Roll:	2.021	Pitch:	-2.203	Yaw:	9.217	Thrust:	65.117
Time:	6.725	Roll Set Point:	-0.104	Pitch Set Point:	-0.082	Yaw Set Point:	0.029	X_WP:	0.026	Y_WP:	0.176	Y_WP:	0.500	X:	0.064	Y:	0.128	Z:	0.414	yaw:	-1.661	yaw rate:	-15.874	Roll:	1.968	Pitch:	-0.803	Yaw:	-4.485	Thrust:	64.735
Time:	6.742	Roll Set Point:	-0.106	Pitch Set Point:	-0.089	Yaw Set Point:	0.028	X_WP:	0.026	Y_WP:	0.183	Y_WP:	0.500	X:	0.065	Y:	0.135	Z:	0.416	yaw:	-1.626	yaw rate:	-20.415	Roll:	2.820	Pitch:	-1.100	Yaw:	-1.472	Thrust:	62.981
Time:	6.759	Roll Set Point:	-0.107	Pitch Set Point:	-0.092	Yaw Set Point:	0.036	X_WP:	0.026	Y_WP:	0.185	Y_WP:	0.500	X:	0.066	Y:	0.138	Z:	0.417	yaw:	-2.088	yaw rate:	-46.198	Roll:	2.135	Pitch:	-0.666	Yaw:	-9.762	Thrust:	65.768
Time:	6.777	Roll Set Point:	-0.109	Pitch Set Point:	-0.102	Yaw Set Point:	0.032	X_WP:	0.026	Y_WP:	0.193	Y_WP:	0.500	X:	0.067	Y:	0.147	Z:	0.419	yaw:	-1.817	yaw rate:	-16.445	Roll:	2.088	Pitch:	-0.504	Yaw:	1.697	Thrust:	64.969
Time:	6.794	Roll Set Point:	-0.110	Pitch Set Point:	-0.105	Yaw Set Point:	0.026	X_WP:	0.027	Y_WP:	0.196	Y_WP:	0.500	X:	0.068	Y:	0.150	Z:	0.420	yaw:	-1.464	yaw rate:	35.250	Roll:	1.321	Pitch:	-0.953	Yaw:	3.592	Thrust:	65.349
Time:	6.811	Roll Set Point:	-0.110	Pitch Set Point:	-0.111	Yaw Set Point:	0.031	X_WP:	0.027	Y_WP:	0.200	Y_WP:	0.500	X:	0.068	Y:	0.155	Z:	0.421	yaw:	-1.786	yaw rate:	-32.225	Roll:	1.465	Pitch:	0.236	Yaw:	-7.222	Thrust:	65.303
Time:	6.828	Roll Set Point:	-0.111	Pitch Set Point:	-0.116	Yaw Set Point:	0.018	X_WP:	0.028	Y_WP:	0.204	Y_WP:	0.500	X:	0.069	Y:	0.160	Z:	0.422	yaw:	-1.009	yaw rate:	77.764	Roll:	0.859	Pitch:	-0.856	Yaw:	10.739	Thrust:	64.220
Time:	6.845	Roll Set Point:	-0.112	Pitch Set Point:	-0.122	Yaw Set Point:	0.017	X_WP:	0.029	Y_WP:	0.208	Y_WP:	0.500	X:	0.070	Y:	0.164	Z:	0.424	yaw:	-0.951	yaw rate:	5.745	Roll:	1.738	Pitch:	-0.702	Yaw:	-0.249	Thrust:	64.392
Time:	6.862	Roll Set Point:	-0.111	Pitch Set Point:	-0.131	Yaw Set Point:	0.014	X_WP:	0.032	Y_WP:	0.211	Y_WP:	0.500	X:	0.071	Y:	0.171	Z:	0.425	yaw:	-0.801	yaw rate:	14.985	Roll:	-0.640	Pitch:	1.891	Yaw:	1.376	Thrust:	63.940
Time:	6.879	Roll Set Point:	-0.114	Pitch Set Point:	-0.134	Yaw Set Point:	0.017	X_WP:	0.029	Y_WP:	0.218	Y_WP:	0.500	X:	0.071	Y:	0.176	Z:	0.427	yaw:	-0.948	yaw rate:	-14.628	Roll:	4.439	Pitch:	-3.002	Yaw:	-3.380	Thrust:	64.240
Time:	6.896	Roll Set Point:	-0.113	Pitch Set Point:	-0.144	Yaw Set Point:	0.025	X_WP:	0.032	Y_WP:	0.222	Y_WP:	0.500	X:	0.072	Y:	0.182	Z:	0.429	yaw:	-1.436	yaw rate:	-48.783	Roll:	-0.583	Pitch:	2.628	Yaw:	-9.328	Thrust:	63.046
Time:	6.913	Roll Set Point:	-0.116	Pitch Set Point:	-0.147	Yaw Set Point:	0.008	X_WP:	0.030	Y_WP:	0.229	Y_WP:	0.500	X:	0.073	Y:	0.188	Z:	0.430	yaw:	-0.468	yaw rate:	96.749	Roll:	3.627	Pitch:	-3.636	Yaw:	14.353	Thrust:	64.926
Time:	6.931	Roll Set Point:	-0.115	Pitch Set Point:	-0.158	Yaw Set Point:	0.021	X_WP:	0.034	Y_WP:	0.232	Y_WP:	0.500	X:	0.074	Y:	0.194	Z:	0.432	yaw:	-1.210	yaw rate:	-74.231	Roll:	-0.881	Pitch:	3.106	Yaw:	-12.378	Thrust:	66.476
Time:	6.948	Roll Set Point:	-0.120	Pitch Set Point:	-0.160	Yaw Set Point:	0.005	X_WP:	0.030	Y_WP:	0.243	Y_WP:	0.500	X:	0.075	Y:	0.201	Z:	0.435	yaw:	-0.291	yaw rate:	-6.181	Roll:	6.362	Pitch:	-5.702	Yaw:	13.878	Thrust:	62.452
Time:	6.965	Roll Set Point:	-0.121	Pitch Set Point:	-0.164	Yaw Set Point:	0.008	X_WP:	0.030	Y_WP:	0.246	Y_WP:	0.500	X:	0.075	Y:	0.205	Z:	0.436	yaw:	-0.470	yaw rate:	-17.890	Roll:	1.913	Pitch:	-0.581	Yaw:	-3.244	Thrust:	65.761
Time:	6.982	Roll Set Point:	-0.118	Pitch Set Point:	-0.176	Yaw Set Point:	0.012	X_WP:	0.035	Y_WP:	0.248	Y_WP:	0.500	X:	0.076	Y:	0.212	Z:	0.438	yaw:	-0.682	yaw rate:	-21.168	Roll:	-2.868	Pitch:	4.142	Yaw:	-4.050	Thrust:	62.589
