Time:	2.055	Roll Set Point:	0.198	Pitch Set Point:	-0.523	Yaw Set Point:	0.859	X_WP:	0.000	Y_WP:	0.000	Y_WP:	0.500	X:	0.021	Y:	0.307	Z:	0.690	yaw:	-49.217	yaw rate:	35.576	Roll:	-6.349	Pitch:	6.263	Yaw:	-68.720	Thrust:	0.000
Time:	2.066	Roll Set Point:	0.199	Pitch Set Point:	-0.522	Yaw Set Point:	0.858	X_WP:	0.000	Y_WP:	0.000	Y_WP:	0.500	X:	0.020	Y:	0.307	Z:	0.690	yaw:	-49.169	yaw rate:	4.790	Roll:	-6.173	Pitch:	5.900	Yaw:	-67.707	Thrust:	0.000
Time:	2.077	Roll Set Point:	0.200	Pitch Set Point:	-0.521	Yaw Set Point:	0.864	X_WP:	0.000	Y_WP:	0.000	Y_WP:	0.500	X:	0.020	Y:	0.306	Z:	0.690	yaw:	-49.483	yaw rate:	-31.412	Roll:	-7.849	Pitch:	3.996	Yaw:	-76.935	Thrust:	0.000
Time:	2.088	Roll Set Point:	0.192	Pitch Set Point:	-0.526	Yaw Set Point:	0.836	X_WP:	0.000	Y_WP:	0.000	Y_WP:	0.500	X:	0.021	Y:	0.306	Z:	0.690	yaw:	-47.897	yaw rate:	158.605	Roll:	4.573	Pitch:	15.714	Yaw:	-29.800	Thrust:	0.000
Time:	2.099	Roll Set Point:	0.193	Pitch Set Point:	-0.525	Yaw Set Point:	0.838	X_WP:	0.000	Y_WP:	0.000	Y_WP:	0.500	X:	0.021	Y:	0.305	Z:	0.689	yaw:	-47.995	yaw rate:	-9.803	Roll:	-6.896	Pitch:	5.473	Yaw:	-70.095	Thrust:	0.000
Time:	2.110	Roll Set Point:	0.200	Pitch Set Point:	-0.519	Yaw Set Point:	0.860	X_WP:	0.000	Y_WP:	0.000	Y_WP:	0.500	X:	0.019	Y:	0.306	Z:	0.689	yaw:	-49.297	yaw rate:	-130.132	Roll:	-15.659	Pitch:	-2.912	Yaw:	-100.657	Thrust:	0.000
Time:	2.121	Roll Set Point:	0.201	Pitch Set Point:	-0.519	Yaw Set Point:	0.868	X_WP:	0.000	Y_WP:	0.000	Y_WP:	0.500	X:	0.020	Y:	0.306	Z:	0.689	yaw:	-49.733	yaw rate:	-43.633	Roll:	-8.791	Pitch:	4.735	Yaw:	-80.925	Thrust:	0.000
Time:	2.132	Roll Set Point:	0.200	Pitch Set Point:	-0.519	Yaw Set Point:	0.859	X_WP:	0.000	Y_WP:	0.000	Y_WP:	0.500	X:	0.019	Y:	0.305	Z:	0.688	yaw:	-49.194	yaw rate:	53.901	Roll:	-3.531	Pitch:	7.646	Yaw:	-57.212	Thrust:	0.000
Time:	2.143	Roll Set Point:	0.201	Pitch Set Point:	-0.519	Yaw Set Point:	0.858	X_WP:	0.000	Y_WP:	0.000	Y_WP:	0.500	X:	0.018	Y:	0.305	Z:	0.688	yaw:	-49.184	yaw rate:	0.971	Roll:	-6.649	Pitch:	5.528	Yaw:	-69.957	Thrust:	0.000
Time:	2.154	Roll Set Point:	0.202	Pitch Set Point:	-0.517	Yaw Set Point:	0.866	X_WP:	0.000	Y_WP:	0.000	Y_WP:	0.500	X:	0.019	Y:	0.305	Z:	0.688	yaw:	-49.598	yaw rate:	-41.401	Roll:	-8.788	Pitch:	4.285	Yaw:	-80.782	Thrust:	0.000
Time:	2.166	Roll Set Point:	0.202	Pitch Set Point:	-0.517	Yaw Set Point:	0.865	X_WP:	0.000	Y_WP:	0.000	Y_WP:	0.500	X:	0.018	Y:	0.305	Z:	0.688	yaw:	-49.551	yaw rate:	4.707	Roll:	-6.352	Pitch:	5.848	Yaw:	-69.990	Thrust:	0.000
Time:	2.177	Roll Set Point:	0.201	Pitch Set Point:	-0.518	Yaw Set Point:	0.861	X_WP:	0.000	Y_WP:	0.000	Y_WP:	0.500	X:	0.018	Y:	0.305	Z:	0.687	yaw:	-49.309	yaw rate:	24.197	Roll:	-5.171	Pitch:	8.034	Yaw:	-65.258	Thrust:	0.000
Time:	2.188	Roll Set Point:	0.203	Pitch Set Point:	-0.516	Yaw Set Point:	0.870	X_WP:	0.000	Y_WP:	0.000	Y_WP:	0.500	X:	0.018	Y:	0.305	Z:	0.687	yaw:	-49.865	yaw rate:	-55.590	Roll:	-9.380	Pitch:	2.442	Yaw:	-85.011	Thrust:	0.000
Time:	2.200	Roll Set Point:	0.202	Pitch Set Point:	-0.516	Yaw Set Point:	0.866	X_WP:	0.000	Y_WP:	0.000	Y_WP:	0.500	X:	0.018	Y:	0.305	Z:	0.687	yaw:	-49.602	yaw rate:	26.287	Roll:	-4.756	Pitch:	7.514	Yaw:	-65.935	Thrust:	0.000
Time:	2.211	Roll Set Point:	0.202	Pitch Set Point:	-0.517	Yaw Set Point:	0.863	X_WP:	0.000	Y_WP:	0.000	Y_WP:	0.500	X:	0.018	Y:	0.305	Z:	0.686	yaw:	-49.424	yaw rate:	17.778	Roll:	-5.666	Pitch:	6.892	Yaw:	-66.997	Thrust:	0.000
Time:	2.222	Roll Set Point:	0.203	Pitch Set Point:	-0.516	Yaw Set Point:	0.870	X_WP:	0.000	Y_WP:	0.000	Y_WP:	0.500	X:	0.019	Y:	0.305	Z:	0.686	yaw:	-49.871	yaw rate:	-44.631	Roll:	-9.062	Pitch:	4.887	Yaw:	-82.435	Thrust:	0.000
Time:	2.233	Roll Set Point:	0.202	Pitch Set Point:	-0.516	Yaw Set Point:	0.865	X_WP:	0.000	Y_WP:	0.000	Y_WP:	0.500	X:	0.018	Y:	0.305	Z:	0.686	yaw:	-49.568	yaw rate:	30.272	Roll:	-4.809	Pitch:	6.691	Yaw:	-64.231	Thrust:	0.000
Time:	2.244	Roll Set Point:	0.202	Pitch Set Point:	-0.517	Yaw Set Point:	0.860	X_WP:	0.000	Y_WP:	0.000	Y_WP:	0.500	X:	0.018	Y:	0.305	Z:	0.686	yaw:	-49.267	yaw rate:	30.129	Roll:	-5.153	Pitch:	7.524	Yaw:	-63.843	Thrust:	0.000
Time:	2.255	Roll Set Point:	0.202	Pitch Set Point:	-0.517	Yaw Set Point:	0.859	X_WP:	0.000	Y_WP:	0.000	Y_WP:	0.500	X:	0.017	Y:	0.305	Z:	0.686	yaw:	-49.244	yaw rate:	2.292	Roll:	-6.417	Pitch:	6.273	Yaw:	-70.419	Thrust:	0.000
Time:	2.266	Roll Set Point:	0.202	Pitch Set Point:	-0.517	Yaw Set Point:	0.860	X_WP:	0.000	Y_WP:	0.000	Y_WP:	0.500	X:	0.017	Y:	0.305	Z:	0.685	yaw:	-49.248	yaw rate:	-0.424	Roll:	-6.705	Pitch:	6.033	Yaw:	-71.070	Thrust:	0.000
Time:	2.277	Roll Set Point:	0.203	Pitch Set Point:	-0.517	Yaw Set Point:	0.860	X_WP:	0.000	Y_WP:	0.000	Y_WP:	0.500	X:	0.017	Y:	0.305	Z:	0.685	yaw:	-49.288	yaw rate:	-3.996	Roll:	-6.858	Pitch:	5.939	Yaw:	-71.974	Thrust:	0.000
Time:	2.288	Roll Set Point:	0.196	Pitch Set Point:	-0.522	Yaw Set Point:	0.836	X_WP:	0.000	Y_WP:	0.000	Y_WP:	0.500	X:	0.018	Y:	0.304	Z:	0.685	yaw:	-47.877	yaw rate:	141.142	Roll:	2.910	Pitch:	15.007	Yaw:	-35.541	Thrust:	0.000
Time:	2.299	Roll Set Point:	0.198	Pitch Set Point:	-0.522	Yaw Set Point:	0.838	X_WP:	0.000	Y_WP:	0.000	Y_WP:	0.500	X:	0.017	Y:	0.305	Z:	0.685	yaw:	-47.986	yaw rate:	-10.933	Roll:	-7.822	Pitch:	5.582	Yaw:	-71.803	Thrust:	0.000
Time:	2.310	Roll Set Point:	0.204	Pitch Set Point:	-0.516	Yaw Set Point:	0.863	X_WP:	0.000	Y_WP:	0.000	Y_WP:	0.500	X:	0.017	Y:	0.305	Z:	0.685	yaw:	-49.428	yaw rate:	-144.234	Roll:	-15.767	Pitch:	-2.469	Yaw:	-105.379	Thrust:	0.000
Time:	2.321	Roll Set Point:	0.199	Pitch Set Point:	-0.521	Yaw Set Point:	0.838	X_WP:	0.000	Y_WP:	0.000	Y_WP:	0.500	X:	0.016	Y:	0.305	Z:	0.685	yaw:	-48.000	yaw rate:	142.872	Roll:	1.720	Pitch:	13.779	Yaw:	-35.312	Thrust:	0.000
Time:	2.332	Roll Set Point:	0.198	Pitch Set Point:	-0.522	Yaw Set Point:	0.830	X_WP:	0.000	Y_WP:	0.000	Y_WP:	0.500	X:	0.016	Y:	0.304	Z:	0.685	yaw:	-47.546	yaw rate:	45.368	Roll:	-3.969	Pitch:	8.249	Yaw:	-57.824	Thrust:	0.000
Time:	2.343	Roll Set Point:	0.204	Pitch Set Point:	-0.517	Yaw Set Point:	0.844	X_WP:	0.000	Y_WP:	0.000	Y_WP:	0.500	X:	0.014	Y:	0.304	Z:	0.685	yaw:	-48.360	yaw rate:	-81.429	Roll:	-12.607	Pitch:	-0.681	Yaw:	-89.059	Thrust:	0.000
Time:	2.354	Roll Set Point:	0.205	Pitch Set Point:	-0.517	Yaw Set Point:	0.841	X_WP:	0.000	Y_WP:	0.000	Y_WP:	0.500	X:	0.013	Y:	0.304	Z:	0.685	yaw:	-48.203	yaw rate:	15.674	Roll:	-6.424	Pitch:	6.118	Yaw:	-65.790	Thrust:	0.000
Time:	2.365	Roll Set Point:	0.205	Pitch Set Point:	-0.516	Yaw Set Point:	0.838	X_WP:	0.000	Y_WP:	0.000	Y_WP:	0.500	X:	0.012	Y:	0.303	Z:	0.685	yaw:	-48.008	yaw rate:	19.558	Roll:	-5.294	Pitch:	6.037	Yaw:	-64.596	Thrust:	0.000
Time:	2.376	Roll Set Point:	0.205	Pitch Set Point:	-0.515	Yaw Set Point:	0.832	X_WP:	0.000	Y_WP:	0.000	Y_WP:	0.500	X:	0.011	Y:	0.303	Z:	0.686	yaw:	-47.657	yaw rate:	35.096	Roll:	-4.548	Pitch:	6.289	Yaw:	-60.414	Thrust:	0.000
Time:	2.388	Roll Set Point:	0.205	Pitch Set Point:	-0.512	Yaw Set Point:	0.827	X_WP:	0.000	Y_WP:	0.000	Y_WP:	0.500	X:	0.010	Y:	0.301	Z:	0.686	yaw:	-47.392	yaw rate:	26.433	Roll:	-5.076	Pitch:	4.331	Yaw:	-62.809	Thrust:	0.000
Time:	2.399	Roll Set Point:	0.206	Pitch Set Point:	-0.509	Yaw Set Point:	0.824	X_WP:	0.000	Y_WP:	0.000	Y_WP:	0.500	X:	0.008	Y:	0.300	Z:	0.686	yaw:	-47.205	yaw rate:	18.727	Roll:	-5.349	Pitch:	4.485	Yaw:	-63.685	Thrust:	0.000
Time:	2.410	Roll Set Point:	0.207	Pitch Set Point:	-0.507	Yaw Set Point:	0.818	X_WP:	0.000	Y_WP:	0.000	Y_WP:	0.500	X:	0.006	Y:	0.298	Z:	0.687	yaw:	-46.848	yaw rate:	35.750	Roll:	-4.838	Pitch:	4.608	Yaw:	-59.136	Thrust:	0.000
Time:	2.421	Roll Set Point:	0.209	Pitch Set Point:	-0.499	Yaw Set Point:	0.803	X_WP:	0.000	Y_WP:	0.000	Y_WP:	0.500	X:	0.002	Y:	0.294	Z:	0.687	yaw:	-46.019	yaw rate:	43.316	Roll:	-1.561	Pitch:	0.924	Yaw:	-46.778	Thrust:	0.000
Time:	2.432	Roll Set Point:	0.209	Pitch Set Point:	-0.499	Yaw Set Point:	0.803	X_WP:	0.000	Y_WP:	0.000	Y_WP:	0.500	X:	0.002	Y:	0.294	Z:	0.687	yaw:	-46.019	yaw rate:	43.316	Roll:	-6.302	Pitch:	6.152	Yaw:	-66.462	Thrust:	0.000
Time:	2.444	Roll Set Point:	0.221	Pitch Set Point:	-0.483	Yaw Set Point:	0.817	X_WP:	0.000	Y_WP:	0.000	Y_WP:	0.500	X:	-0.006	Y:	0.289	Z:	0.689	yaw:	-46.797	yaw rate:	-155.293	Roll:	-13.026	Pitch:	-10.398	Yaw:	-84.706	Thrust:	0.000
Time:	2.456	Roll Set Point:	0.208	Pitch Set Point:	-0.490	Yaw Set Point:	0.751	X_WP:	0.000	Y_WP:	0.000	Y_WP:	0.500	X:	-0.007	Y:	0.286	Z:	0.688	yaw:	-43.037	yaw rate:	375.948	Roll:	14.527	Pitch:	20.982	Yaw:	21.545	Thrust:	0.000
Time:	2.467	Roll Set Point:	0.206	Pitch Set Point:	-0.485	Yaw Set Point:	0.712	X_WP:	0.000	Y_WP:	0.000	Y_WP:	0.500	X:	-0.013	Y:	0.281	Z:	0.690	yaw:	-40.816	yaw rate:	222.140	Roll:	5.575	Pitch:	6.018	Yaw:	-6.466	Thrust:	0.000
Time:	2.478	Roll Set Point:	0.204	Pitch Set Point:	-0.481	Yaw Set Point:	0.684	X_WP:	0.000	Y_WP:	0.000	Y_WP:	0.500	X:	-0.016	Y:	0.277	Z:	0.690	yaw:	-39.207	yaw rate:	160.932	Roll:	2.962	Pitch:	6.719	Yaw:	-18.749	Thrust:	0.000
Time:	2.489	Roll Set Point:	0.202	Pitch Set Point:	-0.477	Yaw Set Point:	0.660	X_WP:	0.000	Y_WP:	0.000	Y_WP:	0.500	X:	-0.020	Y:	0.273	Z:	0.690	yaw:	-37.815	yaw rate:	139.133	Roll:	1.946	Pitch:	5.323	Yaw:	-21.984	Thrust:	0.000
Time:	2.500	Roll Set Point:	0.202	Pitch Set Point:	-0.471	Yaw Set Point:	0.643	X_WP:	0.000	Y_WP:	0.000	Y_WP:	0.500	X:	-0.023	Y:	0.269	Z:	0.690	yaw:	-36.855	yaw rate:	96.032	Roll:	-0.592	Pitch:	2.898	Yaw:	-31.239	Thrust:	0.000
Time:	2.512	Roll Set Point:	0.203	Pitch Set Point:	-0.461	Yaw Set Point:	0.623	X_WP:	0.000	Y_WP:	0.000	Y_WP:	0.500	X:	-0.027	Y:	0.263	Z:	0.691	yaw:	-35.701	yaw rate:	115.418	Roll:	0.658	Pitch:	-0.167	Yaw:	-24.994	Thrust:	0.000
Time:	2.523	Roll Set Point:	0.204	Pitch Set Point:	-0.453	Yaw Set Point:	0.613	X_WP:	0.000	Y_WP:	0.000	Y_WP:	0.500	X:	-0.030	Y:	0.259	Z:	0.691	yaw:	-35.140	yaw rate:	56.120	Roll:	-2.392	Pitch:	0.772	Yaw:	-37.989	Thrust:	0.000
Time:	2.534	Roll Set Point:	0.205	Pitch Set Point:	-0.446	Yaw Set Point:	0.602	X_WP:	0.000	Y_WP:	0.000	Y_WP:	0.500	X:	-0.033	Y:	0.255	Z:	0.692	yaw:	-34.495	yaw rate:	64.483	Roll:	-2.196	Pitch:	1.082	Yaw:	-35.018	Thrust:	0.000
Time:	2.545	Roll Set Point:	0.206	Pitch Set Point:	-0.439	Yaw Set Point:	0.591	X_WP:	0.000	Y_WP:	0.000	Y_WP:	0.500	X:	-0.036	Y:	0.251	Z:	0.692	yaw:	-33.875	yaw rate:	61.951	Roll:	-2.083	Pitch:	1.157	Yaw:	-34.800	Thrust:	0.000
Time:	2.556	Roll Set Point:	0.208	Pitch Set Point:	-0.432	Yaw Set Point:	0.586	X_WP:	0.000	Y_WP:	0.000	Y_WP:	0.500	X:	-0.039	Y:	0.247	Z:	0.692	yaw:	-33.548	yaw rate:	32.732	Roll:	-3.736	Pitch:	-0.092	Yaw:	-41.278	Thrust:	0.000
Time:	2.567	Roll Set Point:	0.209	Pitch Set Point:	-0.422	Yaw Set Point:	0.568	X_WP:	0.000	Y_WP:	0.000	Y_WP:	0.500	X:	-0.043	Y:	0.242	Z:	0.693	yaw:	-32.527	yaw rate:	102.079	Roll:	-0.804	Pitch:	-0.487	Yaw:	-23.391	Thrust:	0.000
Time:	2.578	Roll Set Point:	0.211	Pitch Set Point:	-0.414	Yaw Set Point:	0.564	X_WP:	0.000	Y_WP:	0.000	Y_WP:	0.500	X:	-0.045	Y:	0.238	Z:	0.693	yaw:	-32.328	yaw rate:	19.956	Roll:	-4.028	Pitch:	-1.115	Yaw:	-42.607	Thrust:	0.000
Time:	2.589	Roll Set Point:	0.212	Pitch Set Point:	-0.408	Yaw Set Point:	0.557	X_WP:	0.000	Y_WP:	0.000	Y_WP:	0.500	X:	-0.048	Y:	0.234	Z:	0.694	yaw:	-31.889	yaw rate:	43.910	Roll:	-3.030	Pitch:	0.719	Yaw:	-36.308	Thrust:	0.000
Time:	2.600	Roll Set Point:	0.213	Pitch Set Point:	-0.402	Yaw Set Point:	0.548	X_WP:	0.000	Y_WP:	0.000	Y_WP:	0.500	X:	-0.050	Y:	0.231	Z:	0.694	yaw:	-31.407	yaw rate:	48.198	Roll:	-3.392	Pitch:	1.181	Yaw:	-34.617	Thrust:	0.000
Time:	2.611	Roll Set Point:	0.213	Pitch Set Point:	-0.397	Yaw Set Point:	0.536	X_WP:	0.000	Y_WP:	0.000	Y_WP:	0.500	X:	-0.052	Y:	0.228	Z:	0.694	yaw:	-30.713	yaw rate:	69.376	Roll:	-1.651	Pitch:	3.017	Yaw:	-28.622	Thrust:	0.000
Time:	2.622	Roll Set Point:	0.213	Pitch Set Point:	-0.392	Yaw Set Point:	0.529	X_WP:	0.000	Y_WP:	0.000	Y_WP:	0.500	X:	-0.054	Y:	0.225	Z:	0.695	yaw:	-30.320	yaw rate:	39.285	Roll:	-3.184	Pitch:	1.555	Yaw:	-35.215	Thrust:	0.000
Time:	2.633	Roll Set Point:	0.216	Pitch Set Point:	-0.383	Yaw Set Point:	0.519	X_WP:	0.000	Y_WP:	0.000	Y_WP:	0.500	X:	-0.057	Y:	0.220	Z:	0.696	yaw:	-29.756	yaw rate:	56.407	Roll:	-3.515	Pitch:	-1.474	Yaw:	-30.364	Thrust:	0.000
Time:	2.644	Roll Set Point:	0.216	Pitch Set Point:	-0.379	Yaw Set Point:	0.514	X_WP:	0.000	Y_WP:	0.000	Y_WP:	0.500	X:	-0.058	Y:	0.218	Z:	0.696	yaw:	-29.438	yaw rate:	31.756	Roll:	-2.991	Pitch:	2.483	Yaw:	-35.772	Thrust:	0.000
Time:	2.655	Roll Set Point:	0.218	Pitch Set Point:	-0.373	Yaw Set Point:	0.512	X_WP:	0.000	Y_WP:	0.000	Y_WP:	0.500	X:	-0.060	Y:	0.215	Z:	0.697	yaw:	-29.347	yaw rate:	9.134	Roll:	-4.838	Pitch:	-0.020	Yaw:	-41.014	Thrust:	0.000
Time:	2.666	Roll Set Point:	0.214	Pitch Set Point:	-0.373	Yaw Set Point:	0.481	X_WP:	0.000	Y_WP:	0.000	Y_WP:	0.500	X:	-0.061	Y:	0.213	Z:	0.697	yaw:	-27.549	yaw rate:	179.841	Roll:	2.651	Pitch:	8.231	Yaw:	2.020	Thrust:	0.000
Time:	2.677	Roll Set Point:	0.217	Pitch Set Point:	-0.367	Yaw Set Point:	0.480	X_WP:	0.000	Y_WP:	0.000	Y_WP:	0.500	X:	-0.064	Y:	0.210	Z:	0.698	yaw:	-27.516	yaw rate:	3.292	Roll:	-5.649	Pitch:	-0.387	Yaw:	-39.851	Thrust:	0.000
Time:	2.688	Roll Set Point:	0.219	Pitch Set Point:	-0.361	Yaw Set Point:	0.491	X_WP:	0.000	Y_WP:	0.000	Y_WP:	0.500	X:	-0.065	Y:	0.208	Z:	0.698	yaw:	-28.116	yaw rate:	-60.024	Roll:	-7.022	Pitch:	-1.145	Yaw:	-55.713	Thrust:	0.000
Time:	2.699	Roll Set Point:	0.218	Pitch Set Point:	-0.359	Yaw Set Point:	0.485	X_WP:	0.000	Y_WP:	0.000	Y_WP:	0.500	X:	-0.065	Y:	0.207	Z:	0.698	yaw:	-27.761	yaw rate:	35.463	Roll:	-2.630	Pitch:	4.137	Yaw:	-32.525	Thrust:	0.000
Time:	2.710	Roll Set Point:	0.219	Pitch Set Point:	-0.356	Yaw Set Point:	0.487	X_WP:	0.000	Y_WP:	0.000	Y_WP:	0.500	X:	-0.065	Y:	0.205	Z:	0.699	yaw:	-27.926	yaw rate:	-16.452	Roll:	-5.092	Pitch:	1.706	Yaw:	-45.103	Thrust:	0.000
Time:	2.721	Roll Set Point:	0.218	Pitch Set Point:	-0.354	Yaw Set Point:	0.476	X_WP:	0.000	Y_WP:	0.000	Y_WP:	0.500	X:	-0.066	Y:	0.203	Z:	0.699	yaw:	-27.256	yaw rate:	67.008	Roll:	-2.014	Pitch:	4.235	Yaw:	-24.357	Thrust:	0.000
Time:	2.732	Roll Set Point:	0.217	Pitch Set Point:	-0.350	Yaw Set Point:	0.473	X_WP:	0.000	Y_WP:	0.000	Y_WP:	0.500	X:	-0.066	Y:	0.201	Z:	0.700	yaw:	-27.093	yaw rate:	16.293	Roll:	-2.962	Pitch:	2.416	Yaw:	-36.178	Thrust:	0.000
Time:	2.743	Roll Set Point:	0.219	Pitch Set Point:	-0.346	Yaw Set Point:	0.481	X_WP:	0.000	Y_WP:	0.000	Y_WP:	0.500	X:	-0.067	Y:	0.200	Z:	0.701	yaw:	-27.560	yaw rate:	-46.738	Roll:	-6.759	Pitch:	0.054	Yaw:	-51.781	Thrust:	0.000
Time:	2.754	Roll Set Point:	0.217	Pitch Set Point:	-0.345	Yaw Set Point:	0.472	X_WP:	0.000	Y_WP:	0.000	Y_WP:	0.500	X:	-0.067	Y:	0.199	Z:	0.701	yaw:	-27.059	yaw rate:	50.157	Roll:	-1.295	Pitch:	5.471	Yaw:	-28.081	Thrust:	0.000
Time:	2.766	Roll Set Point:	0.222	Pitch Set Point:	-0.340	Yaw Set Point:	0.494	X_WP:	0.000	Y_WP:	0.000	Y_WP:	0.500	X:	-0.068	Y:	0.198	Z:	0.702	yaw:	-28.304	yaw rate:	-124.583	Roll:	-10.323	Pitch:	-1.904	Yaw:	-69.091	Thrust:	0.000
Time:	2.778	Roll Set Point:	0.222	Pitch Set Point:	-0.338	Yaw Set Point:	0.500	X_WP:	0.000	Y_WP:	0.000	Y_WP:	0.500	X:	-0.068	Y:	0.197	Z:	0.702	yaw:	-28.622	yaw rate:	-31.806	Roll:	-5.149	Pitch:	2.220	Yaw:	-49.308	Thrust:	0.000
Time:	2.789	Roll Set Point:	0.215	Pitch Set Point:	-0.340	Yaw Set Point:	0.476	X_WP:	0.000	Y_WP:	0.000	Y_WP:	0.500	X:	-0.066	Y:	0.196	Z:	0.702	yaw:	-27.288	yaw rate:	133.459	Roll:	3.240	Pitch:	9.778	Yaw:	-8.629	Thrust:	0.000
Time:	2.801	Roll Set Point:	0.218	Pitch Set Point:	-0.335	Yaw Set Point:	0.490	X_WP:	0.000	Y_WP:	0.000	Y_WP:	0.500	X:	-0.067	Y:	0.195	Z:	0.702	yaw:	-28.097	yaw rate:	-80.910	Roll:	-7.360	Pitch:	-0.478	Yaw:	-59.434	Thrust:	0.000
Time:	2.812	Roll Set Point:	0.216	Pitch Set Point:	-0.334	Yaw Set Point:	0.489	X_WP:	0.000	Y_WP:	0.000	Y_WP:	0.500	X:	-0.066	Y:	0.194	Z:	0.702	yaw:	-28.015	yaw rate:	8.165	Roll:	-2.789	Pitch:	4.075	Yaw:	-39.395	Thrust:	0.000
Time:	2.823	Roll Set Point:	0.208	Pitch Set Point:	-0.338	Yaw Set Point:	0.460	X_WP:	0.000	Y_WP:	0.000	Y_WP:	0.500	X:	-0.064	Y:	0.193	Z:	0.702	yaw:	-26.332	yaw rate:	168.354	Roll:	4.690	Pitch:	11.491	Yaw:	1.087	Thrust:	0.000
Time:	2.834	Roll Set Point:	0.211	Pitch Set Point:	-0.333	Yaw Set Point:	0.483	X_WP:	0.000	Y_WP:	0.000	Y_WP:	0.500	X:	-0.065	Y:	0.192	Z:	0.702	yaw:	-27.666	yaw rate:	-133.434	Roll:	-9.398	Pitch:	-2.120	Yaw:	-72.512	Thrust:	0.000
Time:	2.845	Roll Set Point:	0.205	Pitch Set Point:	-0.334	Yaw Set Point:	0.468	X_WP:	0.000	Y_WP:	0.000	Y_WP:	0.500	X:	-0.063	Y:	0.191	Z:	0.702	yaw:	-26.797	yaw rate:	86.911	Roll:	2.033	Pitch:	7.482	Yaw:	-19.058	Thrust:	0.000
Time:	2.858	Roll Set Point:	0.203	Pitch Set Point:	-0.334	Yaw Set Point:	0.470	X_WP:	0.000	Y_WP:	0.000	Y_WP:	0.500	X:	-0.061	Y:	0.191	Z:	0.702	yaw:	-26.911	yaw rate:	-11.351	Roll:	-3.186	Pitch:	4.987	Yaw:	-42.460	Thrust:	0.000
Time:	2.869	Roll Set Point:	0.201	Pitch Set Point:	-0.332	Yaw Set Point:	0.467	X_WP:	0.000	Y_WP:	0.000	Y_WP:	0.500	X:	-0.061	Y:	0.190	Z:	0.702	yaw:	-26.745	yaw rate:	16.571	Roll:	-2.765	Pitch:	3.724	Yaw:	-35.630	Thrust:	0.000
Time:	2.880	Roll Set Point:	0.197	Pitch Set Point:	-0.333	Yaw Set Point:	0.460	X_WP:	0.000	Y_WP:	0.000	Y_WP:	0.500	X:	-0.060	Y:	0.189	Z:	0.702	yaw:	-26.344	yaw rate:	40.037	Roll:	-0.242	Pitch:	6.071	Yaw:	-29.486	Thrust:	0.000
Time:	2.892	Roll Set Point:	0.198	Pitch Set Point:	-0.330	Yaw Set Point:	0.472	X_WP:	0.000	Y_WP:	0.000	Y_WP:	0.500	X:	-0.059	Y:	0.189	Z:	0.701	yaw:	-27.068	yaw rate:	-72.326	Roll:	-5.923	Pitch:	1.733	Yaw:	-55.967	Thrust:	0.000
Time:	2.903	Roll Set Point:	0.196	Pitch Set Point:	-0.328	Yaw Set Point:	0.481	X_WP:	0.000	Y_WP:	0.000	Y_WP:	0.500	X:	-0.058	Y:	0.188	Z:	0.701	yaw:	-27.532	yaw rate:	-46.384	Roll:	-3.530	Pitch:	2.629	Yaw:	-51.657	Thrust:	0.000
Time:	2.915	Roll Set Point:	0.187	Pitch Set Point:	-0.332	Yaw Set Point:	0.452	X_WP:	0.000	Y_WP:	0.000	Y_WP:	0.500	X:	-0.055	Y:	0.188	Z:	0.700	yaw:	-25.924	yaw rate:	160.790	Roll:	5.507	Pitch:	11.697	Yaw:	-0.317	Thrust:	0.000
Time:	2.926	Roll Set Point:	0.188	Pitch Set Point:	-0.330	Yaw Set Point:	0.456	X_WP:	0.000	Y_WP:	0.000	Y_WP:	0.500	X:	-0.056	Y:	0.187	Z:	0.700	yaw:	-26.126	yaw rate:	-20.281	Roll:	-4.994	Pitch:	2.116	Yaw:	-43.498	Thrust:	0.000
Time:	2.937	Roll Set Point:	0.180	Pitch Set Point:	-0.333	Yaw Set Point:	0.429	X_WP:	0.000	Y_WP:	0.000	Y_WP:	0.500	X:	-0.054	Y:	0.186	Z:	0.699	yaw:	-24.603	yaw rate:	152.299	Roll:	4.745	Pitch:	10.387	Yaw:	-0.386	Thrust:	0.000
Time:	2.948	Roll Set Point:	0.184	Pitch Set Point:	-0.327	Yaw Set Point:	0.463	X_WP:	0.000	Y_WP:	0.000	Y_WP:	0.500	X:	-0.054	Y:	0.185	Z:	0.699	yaw:	-26.508	yaw rate:	-190.426	Roll:	-10.538	Pitch:	-3.012	Yaw:	-84.500	Thrust:	0.000
Time:	2.959	Roll Set Point:	0.179	Pitch Set Point:	-0.328	Yaw Set Point:	0.439	X_WP:	0.000	Y_WP:	0.000	Y_WP:	0.500	X:	-0.053	Y:	0.184	Z:	0.697	yaw:	-25.178	yaw rate:	133.020	Roll:	2.990	Pitch:	8.124	Yaw:	-5.853	Thrust:	0.000
Time:	2.970	Roll Set Point:	0.178	Pitch Set Point:	-0.326	Yaw Set Point:	0.451	X_WP:	0.000	Y_WP:	0.000	Y_WP:	0.500	X:	-0.052	Y:	0.183	Z:	0.697	yaw:	-25.863	yaw rate:	-68.511	Roll:	-4.730	Pitch:	1.726	Yaw:	-54.568	Thrust:	0.000
Time:	2.981	Roll Set Point:	0.177	Pitch Set Point:	-0.324	Yaw Set Point:	0.453	X_WP:	0.000	Y_WP:	0.000	Y_WP:	0.500	X:	-0.051	Y:	0.182	Z:	0.696	yaw:	-25.968	yaw rate:	-10.523	Roll:	-3.074	Pitch:	3.447	Yaw:	-40.962	Thrust:	0.000
Time:	2.992	Roll Set Point:	0.173	Pitch Set Point:	-0.324	Yaw Set Point:	0.441	X_WP:	0.000	Y_WP:	0.000	Y_WP:	0.500	X:	-0.050	Y:	0.181	Z:	0.695	yaw:	-25.294	yaw rate:	67.346	Roll:	0.276	Pitch:	5.846	Yaw:	-21.494	Thrust:	0.000
Time:	3.003	Roll Set Point:	0.170	Pitch Set Point:	-0.323	Yaw Set Point:	0.432	X_WP:	0.000	Y_WP:	0.000	Y_WP:	0.500	X:	-0.050	Y:	0.180	Z:	0.694	yaw:	-24.736	yaw rate:	55.874	Roll:	0.360	Pitch:	4.707	Yaw:	-23.518	Thrust:	0.000
Time:	3.014	Roll Set Point:	0.164	Pitch Set Point:	-0.324	Yaw Set Point:	0.403	X_WP:	0.000	Y_WP:	0.000	Y_WP:	0.500	X:	-0.049	Y:	0.179	Z:	0.693	yaw:	-23.085	yaw rate:	165.113	Roll:	3.921	Pitch:	8.443	Yaw:	4.851	Thrust:	0.000
Time:	3.025	Roll Set Point:	0.165	Pitch Set Point:	-0.320	Yaw Set Point:	0.420	X_WP:	0.000	Y_WP:	0.000	Y_WP:	0.500	X:	-0.048	Y:	0.178	Z:	0.692	yaw:	-24.078	yaw rate:	-99.307	Roll:	-6.040	Pitch:	0.445	Yaw:	-59.398	Thrust:	0.000
Time:	3.036	Roll Set Point:	0.163	Pitch Set Point:	-0.318	Yaw Set Point:	0.416	X_WP:	0.000	Y_WP:	0.000	Y_WP:	0.500	X:	-0.048	Y:	0.176	Z:	0.691	yaw:	-23.825	yaw rate:	25.262	Roll:	-1.529	Pitch:	3.847	Yaw:	-29.476	Thrust:	0.000
Time:	3.047	Roll Set Point:	0.161	Pitch Set Point:	-0.317	Yaw Set Point:	0.409	X_WP:	0.000	Y_WP:	0.000	Y_WP:	0.500	X:	-0.048	Y:	0.175	Z:	0.690	yaw:	-23.416	yaw rate:	40.901	Roll:	-0.726	Pitch:	4.411	Yaw:	-25.216	Thrust:	0.000
Time:	3.058	Roll Set Point:	0.158	Pitch Set Point:	-0.315	Yaw Set Point:	0.402	X_WP:	0.000	Y_WP:	0.000	Y_WP:	0.500	X:	-0.047	Y:	0.173	Z:	0.688	yaw:	-23.040	yaw rate:	37.597	Roll:	-0.062	Pitch:	3.401	Yaw:	-25.434	Thrust:	0.000
Time:	3.069	Roll Set Point:	0.156	Pitch Set Point:	-0.313	Yaw Set Point:	0.398	X_WP:	0.000	Y_WP:	0.000	Y_WP:	0.500	X:	-0.046	Y:	0.172	Z:	0.687	yaw:	-22.829	yaw rate:	21.096	Roll:	-1.368	Pitch:	3.599	Yaw:	-29.085	Thrust:	0.000
Time:	3.080	Roll Set Point:	0.154	Pitch Set Point:	-0.311	Yaw Set Point:	0.392	X_WP:	0.000	Y_WP:	0.000	Y_WP:	0.500	X:	-0.046	Y:	0.171	Z:	0.686	yaw:	-22.451	yaw rate:	37.839	Roll:	-0.733	Pitch:	3.945	Yaw:	-24.548	Thrust:	0.000
Time:	3.091	Roll Set Point:	0.152	Pitch Set Point:	-0.309	Yaw Set Point:	0.387	X_WP:	0.000	Y_WP:	0.000	Y_WP:	0.500	X:	-0.046	Y:	0.169	Z:	0.685	yaw:	-22.177	yaw rate:	27.375	Roll:	-1.209	Pitch:	3.528	Yaw:	-26.691	Thrust:	0.000
Time:	3.103	Roll Set Point:	0.150	Pitch Set Point:	-0.307	Yaw Set Point:	0.385	X_WP:	0.000	Y_WP:	0.000	Y_WP:	0.500	X:	-0.045	Y:	0.168	Z:	0.685	yaw:	-22.046	yaw rate:	13.105	Roll:	-1.753	Pitch:	3.239	Yaw:	-30.326	Thrust:	0.000
Time:	3.114	Roll Set Point:	0.147	Pitch Set Point:	-0.304	Yaw Set Point:	0.377	X_WP:	0.000	Y_WP:	0.000	Y_WP:	0.500	X:	-0.045	Y:	0.166	Z:	0.683	yaw:	-21.577	yaw rate:	46.850	Roll:	0.398	Pitch:	3.031	Yaw:	-21.246	Thrust:	0.000
Time:	3.125	Roll Set Point:	0.146	Pitch Set Point:	-0.302	Yaw Set Point:	0.372	X_WP:	0.000	Y_WP:	0.000	Y_WP:	0.500	X:	-0.044	Y:	0.165	Z:	0.682	yaw:	-21.299	yaw rate:	27.785	Roll:	-1.211	Pitch:	3.305	Yaw:	-25.329	Thrust:	0.000
Time:	3.136	Roll Set Point:	0.144	Pitch Set Point:	-0.300	Yaw Set Point:	0.368	X_WP:	0.000	Y_WP:	0.000	Y_WP:	0.500	X:	-0.044	Y:	0.163	Z:	0.681	yaw:	-21.082	yaw rate:	21.738	Roll:	-1.265	Pitch:	3.061	Yaw:	-26.483	Thrust:	0.000
Time:	3.147	Roll Set Point:	0.142	Pitch Set Point:	-0.297	Yaw Set Point:	0.366	X_WP:	0.000	Y_WP:	0.000	Y_WP:	0.500	X:	-0.044	Y:	0.162	Z:	0.680	yaw:	-20.965	yaw rate:	11.725	Roll:	-1.204	Pitch:	2.849	Yaw:	-28.707	Thrust:	0.000
Time:	3.158	Roll Set Point:	0.141	Pitch Set Point:	-0.295	Yaw Set Point:	0.363	X_WP:	0.000	Y_WP:	0.000	Y_WP:	0.500	X:	-0.044	Y:	0.160	Z:	0.679	yaw:	-20.813	yaw rate:	15.153	Roll:	-1.938	Pitch:	2.755	Yaw:	-27.670	Thrust:	0.000
Time:	3.169	Roll Set Point:	0.139	Pitch Set Point:	-0.291	Yaw Set Point:	0.354	X_WP:	0.000	Y_WP:	0.000	Y_WP:	0.500	X:	-0.043	Y:	0.158	Z:	0.677	yaw:	-20.302	yaw rate:	51.131	Roll:	0.254	Pitch:	2.505	Yaw:	-18.416	Thrust:	0.000
Time:	3.180	Roll Set Point:	0.138	Pitch Set Point:	-0.289	Yaw Set Point:	0.352	X_WP:	0.000	Y_WP:	0.000	Y_WP:	0.500	X:	-0.043	Y:	0.157	Z:	0.676	yaw:	-20.190	yaw rate:	11.175	Roll:	-1.912	Pitch:	2.347	Yaw:	-27.764	Thrust:	0.000
Time:	3.191	Roll Set Point:	0.138	Pitch Set Point:	-0.286	Yaw Set Point:	0.350	X_WP:	0.000	Y_WP:	0.000	Y_WP:	0.500	X:	-0.044	Y:	0.155	Z:	0.675	yaw:	-20.031	yaw rate:	15.901	Roll:	-2.206	Pitch:	2.135	Yaw:	-26.394	Thrust:	0.000
Time:	3.202	Roll Set Point:	0.138	Pitch Set Point:	-0.282	Yaw Set Point:	0.349	X_WP:	0.000	Y_WP:	0.000	Y_WP:	0.500	X:	-0.044	Y:	0.153	Z:	0.674	yaw:	-19.998	yaw rate:	3.371	Roll:	-2.513	Pitch:	1.486	Yaw:	-29.328	Thrust:	0.000
Time:	3.213	Roll Set Point:	0.138	Pitch Set Point:	-0.277	Yaw Set Point:	0.335	X_WP:	0.000	Y_WP:	0.000	Y_WP:	0.500	X:	-0.046	Y:	0.150	Z:	0.672	yaw:	-19.216	yaw rate:	78.184	Roll:	-1.284	Pitch:	1.092	Yaw:	-10.478	Thrust:	0.000
Time:	3.224	Roll Set Point:	0.139	Pitch Set Point:	-0.273	Yaw Set Point:	0.327	X_WP:	0.000	Y_WP:	0.000	Y_WP:	0.500	X:	-0.047	Y:	0.148	Z:	0.671	yaw:	-18.752	yaw rate:	46.353	Roll:	-2.645	Pitch:	1.195	Yaw:	-17.387	Thrust:	0.000
Time:	3.235	Roll Set Point:	0.141	Pitch Set Point:	-0.269	Yaw Set Point:	0.315	X_WP:	0.000	Y_WP:	0.000	Y_WP:	0.500	X:	-0.049	Y:	0.146	Z:	0.671	yaw:	-18.030	yaw rate:	72.264	Roll:	-2.179	Pitch:	1.304	Yaw:	-10.181	Thrust:	0.000
Time:	3.246	Roll Set Point:	0.142	Pitch Set Point:	-0.264	Yaw Set Point:	0.300	X_WP:	0.000	Y_WP:	0.000	Y_WP:	0.500	X:	-0.051	Y:	0.143	Z:	0.670	yaw:	-17.209	yaw rate:	82.103	Roll:	-2.357	Pitch:	0.994	Yaw:	-6.796	Thrust:	0.000
Time:	3.257	Roll Set Point:	0.145	Pitch Set Point:	-0.259	Yaw Set Point:	0.287	X_WP:	0.000	Y_WP:	0.000	Y_WP:	0.500	X:	-0.054	Y:	0.140	Z:	0.669	yaw:	-16.430	yaw rate:	77.900	Roll:	-3.047	Pitch:	0.391	Yaw:	-6.654	Thrust:	0.000
Time:	3.268	Roll Set Point:	0.150	Pitch Set Point:	-0.251	Yaw Set Point:	0.264	X_WP:	0.000	Y_WP:	0.000	Y_WP:	0.500	X:	-0.058	Y:	0.136	Z:	0.668	yaw:	-15.123	yaw rate:	130.690	Roll:	-3.529	Pitch:	-1.710	Yaw:	7.699	Thrust:	0.000
Time:	3.280	Roll Set Point:	0.154	Pitch Set Point:	-0.245	Yaw Set Point:	0.250	X_WP:	0.000	Y_WP:	0.000	Y_WP:	0.500	X:	-0.062	Y:	0.132	Z:	0.667	yaw:	-14.299	yaw rate:	82.411	Roll:	-4.620	Pitch:	-0.462	Yaw:	-2.625	Thrust:	0.000
Time:	3.291	Roll Set Point:	0.160	Pitch Set Point:	-0.239	Yaw Set Point:	0.238	X_WP:	0.000	Y_WP:	0.000	Y_WP:	0.500	X:	-0.066	Y:	0.129	Z:	0.667	yaw:	-13.663	yaw rate:	63.580	Roll:	-5.859	Pitch:	-1.357	Yaw:	-6.177	Thrust:	0.000
Time:	3.302	Roll Set Point:	0.166	Pitch Set Point:	-0.232	Yaw Set Point:	0.228	X_WP:	0.000	Y_WP:	0.000	Y_WP:	0.500	X:	-0.070	Y:	0.125	Z:	0.666	yaw:	-13.071	yaw rate:	59.200	Roll:	-6.605	Pitch:	-1.864	Yaw:	-6.403	Thrust:	0.000
Time:	3.314	Roll Set Point:	0.175	Pitch Set Point:	-0.226	Yaw Set Point:	0.206	X_WP:	0.000	Y_WP:	0.000	Y_WP:	0.500	X:	-0.076	Y:	0.122	Z:	0.666	yaw:	-11.797	yaw rate:	127.366	Roll:	-7.002	Pitch:	0.122	Yaw:	8.901	Thrust:	0.000
Time:	3.325	Roll Set Point:	0.183	Pitch Set Point:	-0.218	Yaw Set Point:	0.196	X_WP:	0.000	Y_WP:	0.000	Y_WP:	0.500	X:	-0.081	Y:	0.118	Z:	0.666	yaw:	-11.234	yaw rate:	56.334	Roll:	-8.376	Pitch:	-2.685	Yaw:	-4.558	Thrust:	0.000
Time:	3.336	Roll Set Point:	0.196	Pitch Set Point:	-0.205	Yaw Set Point:	0.183	X_WP:	0.000	Y_WP:	0.000	Y_WP:	0.500	X:	-0.088	Y:	0.111	Z:	0.666	yaw:	-10.458	yaw rate:	77.549	Roll:	-11.088	Pitch:	-7.163	Yaw:	1.609	Thrust:	0.000
Time:	3.347	Roll Set Point:	0.206	Pitch Set Point:	-0.196	Yaw Set Point:	0.172	X_WP:	0.000	Y_WP:	0.000	Y_WP:	0.500	X:	-0.094	Y:	0.107	Z:	0.667	yaw:	-9.858	yaw rate:	60.023	Roll:	-10.051	Pitch:	-3.863	Yaw:	-1.690	Thrust:	0.000
Time:	3.358	Roll Set Point:	0.216	Pitch Set Point:	-0.186	Yaw Set Point:	0.161	X_WP:	0.000	Y_WP:	0.000	Y_WP:	0.500	X:	-0.101	Y:	0.102	Z:	0.667	yaw:	-9.206	yaw rate:	65.198	Roll:	-10.271	Pitch:	-4.084	Yaw:	0.416	Thrust:	0.000
Time:	3.369	Roll Set Point:	0.229	Pitch Set Point:	-0.177	Yaw Set Point:	0.152	X_WP:	0.000	Y_WP:	0.000	Y_WP:	0.500	X:	-0.108	Y:	0.097	Z:	0.668	yaw:	-8.688	yaw rate:	51.842	Roll:	-12.251	Pitch:	-4.673	Yaw:	-2.067	Thrust:	0.000
Time:	3.380	Roll Set Point:	0.240	Pitch Set Point:	-0.166	Yaw Set Point:	0.142	X_WP:	0.000	Y_WP:	0.000	Y_WP:	0.500	X:	-0.114	Y:	0.092	Z:	0.669	yaw:	-8.125	yaw rate:	56.220	Roll:	-11.693	Pitch:	-5.166	Yaw:	-0.205	Thrust:	0.000
Time:	3.391	Roll Set Point:	0.256	Pitch Set Point:	-0.148	Yaw Set Point:	0.134	X_WP:	0.000	Y_WP:	0.000	Y_WP:	0.500	X:	-0.123	Y:	0.083	Z:	0.670	yaw:	-7.696	yaw rate:	42.967	Roll:	-14.905	Pitch:	-11.431	Yaw:	-2.753	Thrust:	0.000
Time:	3.402	Roll Set Point:	0.267	Pitch Set Point:	-0.137	Yaw Set Point:	0.127	X_WP:	0.000	Y_WP:	0.000	Y_WP:	0.500	X:	-0.129	Y:	0.077	Z:	0.671	yaw:	-7.275	yaw rate:	42.066	Roll:	-12.312	Pitch:	-6.572	Yaw:	-2.349	Thrust:	0.000
Time:	3.414	Roll Set Point:	0.279	Pitch Set Point:	-0.125	Yaw Set Point:	0.119	X_WP:	0.000	Y_WP:	0.000	Y_WP:	0.500	X:	-0.136	Y:	0.071	Z:	0.672	yaw:	-6.805	yaw rate:	47.050	Roll:	-11.806	Pitch:	-5.772	Yaw:	-1.697	Thrust:	0.000
Time:	3.425	Roll Set Point:	0.292	Pitch Set Point:	-0.115	Yaw Set Point:	0.110	X_WP:	0.000	Y_WP:	0.000	Y_WP:	0.500	X:	-0.143	Y:	0.065	Z:	0.673	yaw:	-6.314	yaw rate:	49.024	Roll:	-14.129	Pitch:	-6.046	Yaw:	0.613	Thrust:	0.000
Time:	3.436	Roll Set Point:	0.308	Pitch Set Point:	-0.097	Yaw Set Point:	0.102	X_WP:	0.000	Y_WP:	0.000	Y_WP:	0.500	X:	-0.151	Y:	0.056	Z:	0.675	yaw:	-5.867	yaw rate:	44.703	Roll:	-16.108	Pitch:	-12.084	Yaw:	0.244	Thrust:	0.000
Time:	3.447	Roll Set Point:	0.321	Pitch Set Point:	-0.086	Yaw Set Point:	0.099	X_WP:	0.000	Y_WP:	0.000	Y_WP:	0.500	X:	-0.158	Y:	0.051	Z:	0.676	yaw:	-5.646	yaw rate:	22.169	Roll:	-14.511	Pitch:	-6.939	Yaw:	-4.845	Thrust:	0.000
Time:	3.458	Roll Set Point:	0.332	Pitch Set Point:	-0.075	Yaw Set Point:	0.093	X_WP:	0.000	Y_WP:	0.000	Y_WP:	0.500	X:	-0.164	Y:	0.045	Z:	0.677	yaw:	-5.354	yaw rate:	29.199	Roll:	-13.550	Pitch:	-6.675	Yaw:	-2.750	Thrust:	0.000
Time:	3.469	Roll Set Point:	0.343	Pitch Set Point:	-0.065	Yaw Set Point:	0.094	X_WP:	0.000	Y_WP:	0.000	Y_WP:	0.500	X:	-0.170	Y:	0.040	Z:	0.678	yaw:	-5.384	yaw rate:	-3.025	Roll:	-13.721	Pitch:	-7.682	Yaw:	-10.441	Thrust:	0.000
Time:	3.480	Roll Set Point:	0.354	Pitch Set Point:	-0.054	Yaw Set Point:	0.098	X_WP:	0.000	Y_WP:	0.000	Y_WP:	0.500	X:	-0.176	Y:	0.036	Z:	0.678	yaw:	-5.636	yaw rate:	-25.191	Roll:	-13.860	Pitch:	-8.485	Yaw:	-16.056	Thrust:	0.000
Time:	3.491	Roll Set Point:	0.369	Pitch Set Point:	-0.037	Yaw Set Point:	0.116	X_WP:	0.000	Y_WP:	0.000	Y_WP:	0.500	X:	-0.184	Y:	0.029	Z:	0.679	yaw:	-6.629	yaw rate:	-99.319	Roll:	-16.911	Pitch:	-15.052	Yaw:	-35.040	Thrust:	0.000
Time:	3.503	Roll Set Point:	0.378	Pitch Set Point:	-0.027	Yaw Set Point:	0.124	X_WP:	0.000	Y_WP:	0.000	Y_WP:	0.500	X:	-0.188	Y:	0.025	Z:	0.680	yaw:	-7.105	yaw rate:	-47.602	Roll:	-11.410	Pitch:	-7.877	Yaw:	-22.680	Thrust:	0.000
Time:	3.514	Roll Set Point:	0.389	Pitch Set Point:	-0.020	Yaw Set Point:	0.127	X_WP:	0.000	Y_WP:	0.000	Y_WP:	0.500	X:	-0.194	Y:	0.022	Z:	0.680	yaw:	-7.300	yaw rate:	-19.474	Roll:	-14.710	Pitch:	-6.746	Yaw:	-17.021	Thrust:	0.000
Time:	3.525	Roll Set Point:	0.397	Pitch Set Point:	-0.009	Yaw Set Point:	0.151	X_WP:	0.000	Y_WP:	0.000	Y_WP:	0.500	X:	-0.198	Y:	0.019	Z:	0.682	yaw:	-8.623	yaw rate:	-132.341	Roll:	-11.984	Pitch:	-12.240	Yaw:	-45.658	Thrust:	0.000
Time:	3.536	Roll Set Point:	0.414	Pitch Set Point:	0.001	Yaw Set Point:	0.160	X_WP:	0.000	Y_WP:	0.000	Y_WP:	0.500	X:	-0.207	Y:	0.016	Z:	0.682	yaw:	-9.189	yaw rate:	-56.593	Roll:	-18.337	Pitch:	-10.388	Yaw:	-28.423	Thrust:	0.000
Time:	3.547	Roll Set Point:	0.424	Pitch Set Point:	0.004	Yaw Set Point:	0.154	X_WP:	0.000	Y_WP:	0.000	Y_WP:	0.500	X:	-0.212	Y:	0.014	Z:	0.684	yaw:	-8.809	yaw rate:	38.022	Roll:	-14.034	Pitch:	-1.614	Yaw:	-5.502	Thrust:	0.000
Time:	3.558	Roll Set Point:	0.431	Pitch Set Point:	0.007	Yaw Set Point:	0.154	X_WP:	0.000	Y_WP:	0.000	Y_WP:	0.500	X:	-0.216	Y:	0.013	Z:	0.685	yaw:	-8.815	yaw rate:	-0.649	Roll:	-12.543	Pitch:	-3.228	Yaw:	-14.668	Thrust:	0.000
Time:	3.570	Roll Set Point:	0.440	Pitch Set Point:	0.011	Yaw Set Point:	0.158	X_WP:	0.000	Y_WP:	0.000	Y_WP:	0.500	X:	-0.220	Y:	0.012	Z:	0.685	yaw:	-9.052	yaw rate:	-23.710	Roll:	-12.669	Pitch:	-4.041	Yaw:	-20.210	Thrust:	0.000
Time:	3.581	Roll Set Point:	0.450	Pitch Set Point:	0.017	Yaw Set Point:	0.167	X_WP:	0.000	Y_WP:	0.000	Y_WP:	0.500	X:	-0.225	Y:	0.010	Z:	0.687	yaw:	-9.575	yaw rate:	-52.248	Roll:	-13.863	Pitch:	-6.753	Yaw:	-27.956	Thrust:	0.000
Time:	3.592	Roll Set Point:	0.457	Pitch Set Point:	0.027	Yaw Set Point:	0.205	X_WP:	0.000	Y_WP:	0.000	Y_WP:	0.500	X:	-0.230	Y:	0.010	Z:	0.686	yaw:	-11.723	yaw rate:	-214.765	Roll:	-11.306	Pitch:	-15.725	Yaw:	-69.554	Thrust:	0.000
Time:	3.603	Roll Set Point:	0.465	Pitch Set Point:	0.028	Yaw Set Point:	0.203	X_WP:	0.000	Y_WP:	0.000	Y_WP:	0.500	X:	-0.234	Y:	0.010	Z:	0.688	yaw:	-11.640	yaw rate:	8.240	Roll:	-13.731	Pitch:	-1.587	Yaw:	-16.505	Thrust:	0.000
Time:	3.614	Roll Set Point:	0.472	Pitch Set Point:	0.036	Yaw Set Point:	0.236	X_WP:	0.000	Y_WP:	0.000	Y_WP:	0.500	X:	-0.238	Y:	0.010	Z:	0.688	yaw:	-13.515	yaw rate:	-187.441	Roll:	-11.179	Pitch:	-13.949	Yaw:	-65.581	Thrust:	0.000
Time:	3.626	Roll Set Point:	0.482	Pitch Set Point:	0.043	Yaw Set Point:	0.259	X_WP:	0.000	Y_WP:	0.000	Y_WP:	0.500	X:	-0.244	Y:	0.010	Z:	0.689	yaw:	-14.854	yaw rate:	-133.963	Roll:	-13.886	Pitch:	-11.414	Yaw:	-54.736	Thrust:	0.000
Time:	3.637	Roll Set Point:	0.491	Pitch Set Point:	0.043	Yaw Set Point:	0.263	X_WP:	0.000	Y_WP:	0.000	Y_WP:	0.500	X:	-0.248	Y:	0.011	Z:	0.691	yaw:	-15.083	yaw rate:	-22.898	Roll:	-14.838	Pitch:	-2.913	Yaw:	-28.701	Thrust:	0.000
Time:	3.648	Roll Set Point:	0.498	Pitch Set Point:	0.047	Yaw Set Point:	0.285	X_WP:	0.000	Y_WP:	0.000	Y_WP:	0.500	X:	-0.252	Y:	0.012	Z:	0.692	yaw:	-16.314	yaw rate:	-123.083	Roll:	-11.537	Pitch:	-9.990	Yaw:	-54.200	Thrust:	0.000
Time:	3.659	Roll Set Point:	0.506	Pitch Set Point:	0.045	Yaw Set Point:	0.281	X_WP:	0.000	Y_WP:	0.000	Y_WP:	0.500	X:	-0.256	Y:	0.013	Z:	0.694	yaw:	-16.085	yaw rate:	22.890	Roll:	-14.351	Pitch:	0.595	Yaw:	-19.232	Thrust:	0.000
Time:	3.670	Roll Set Point:	0.000	Pitch Set Point:	0.000	Yaw Set Point:	0.281	X_WP:	0.000	Y_WP:	0.000	Y_WP:	0.500	X:	0.000	Y:	0.000	Z:	0.000	yaw:	-16.085	yaw rate:	22.890	Roll:	30.000	Pitch:	30.000	Yaw:	-24.665	Thrust:	100.000
Time:	3.681	Roll Set Point:	0.000	Pitch Set Point:	0.000	Yaw Set Point:	0.281	X_WP:	0.000	Y_WP:	0.000	Y_WP:	0.500	X:	0.000	Y:	0.000	Z:	0.000	yaw:	-16.085	yaw rate:	22.890	Roll:	-0.414	Pitch:	0.401	Yaw:	-24.665	Thrust:	27.784
Time:	3.692	Roll Set Point:	0.000	Pitch Set Point:	0.000	Yaw Set Point:	0.281	X_WP:	0.000	Y_WP:	0.000	Y_WP:	0.500	X:	0.000	Y:	0.000	Z:	0.000	yaw:	-16.085	yaw rate:	22.890	Roll:	-0.413	Pitch:	0.400	Yaw:	-24.660	Thrust:	28.443
Time:	3.703	Roll Set Point:	0.000	Pitch Set Point:	0.000	Yaw Set Point:	0.281	X_WP:	0.000	Y_WP:	0.000	Y_WP:	0.500	X:	0.000	Y:	0.000	Z:	0.000	yaw:	-16.085	yaw rate:	22.890	Roll:	-0.414	Pitch:	0.402	Yaw:	-24.669	Thrust:	29.110
Time:	3.714	Roll Set Point:	0.000	Pitch Set Point:	0.000	Yaw Set Point:	0.281	X_WP:	0.000	Y_WP:	0.000	Y_WP:	0.500	X:	0.000	Y:	0.000	Z:	0.000	yaw:	-16.085	yaw rate:	22.890	Roll:	-0.414	Pitch:	0.401	Yaw:	-24.666	Thrust:	29.770
Time:	3.725	Roll Set Point:	0.000	Pitch Set Point:	0.000	Yaw Set Point:	0.281	X_WP:	0.000	Y_WP:	0.000	Y_WP:	0.500	X:	0.000	Y:	0.000	Z:	0.000	yaw:	-16.085	yaw rate:	22.890	Roll:	-0.414	Pitch:	0.401	Yaw:	-24.665	Thrust:	30.431
Time:	3.737	Roll Set Point:	0.000	Pitch Set Point:	0.000	Yaw Set Point:	0.281	X_WP:	0.000	Y_WP:	0.000	Y_WP:	0.500	X:	0.000	Y:	0.000	Z:	0.000	yaw:	-16.085	yaw rate:	22.890	Roll:	-0.451	Pitch:	0.437	Yaw:	-24.865	Thrust:	31.419
Time:	3.748	Roll Set Point:	0.000	Pitch Set Point:	0.000	Yaw Set Point:	0.281	X_WP:	0.000	Y_WP:	0.000	Y_WP:	0.500	X:	0.000	Y:	0.000	Z:	0.000	yaw:	-16.085	yaw rate:	22.890	Roll:	-0.414	Pitch:	0.401	Yaw:	-24.665	Thrust:	31.754
Time:	3.759	Roll Set Point:	0.000	Pitch Set Point:	0.000	Yaw Set Point:	0.281	X_WP:	0.000	Y_WP:	0.000	Y_WP:	0.500	X:	0.000	Y:	0.000	Z:	0.000	yaw:	-16.085	yaw rate:	22.890	Roll:	-0.413	Pitch:	0.401	Yaw:	-24.664	Thrust:	32.413
Time:	3.770	Roll Set Point:	0.000	Pitch Set Point:	0.000	Yaw Set Point:	0.281	X_WP:	0.000	Y_WP:	0.000	Y_WP:	0.500	X:	0.000	Y:	0.000	Z:	0.000	yaw:	-16.085	yaw rate:	22.890	Roll:	-0.414	Pitch:	0.401	Yaw:	-24.666	Thrust:	33.081
Time:	3.781	Roll Set Point:	0.000	Pitch Set Point:	0.000	Yaw Set Point:	0.281	X_WP:	0.000	Y_WP:	0.000	Y_WP:	0.500	X:	0.000	Y:	0.000	Z:	0.000	yaw:	-16.085	yaw rate:	22.890	Roll:	-0.414	Pitch:	0.401	Yaw:	-24.665	Thrust:	33.739
Time:	3.792	Roll Set Point:	0.000	Pitch Set Point:	0.000	Yaw Set Point:	0.281	X_WP:	0.000	Y_WP:	0.000	Y_WP:	0.500	X:	0.000	Y:	0.000	Z:	0.000	yaw:	-16.085	yaw rate:	22.890	Roll:	-0.414	Pitch:	0.401	Yaw:	-24.665	Thrust:	34.402
Time:	3.803	Roll Set Point:	0.000	Pitch Set Point:	0.000	Yaw Set Point:	0.281	X_WP:	0.000	Y_WP:	0.000	Y_WP:	0.500	X:	0.000	Y:	0.000	Z:	0.000	yaw:	-16.085	yaw rate:	22.890	Roll:	-0.413	Pitch:	0.401	Yaw:	-24.664	Thrust:	35.059
Time:	3.814	Roll Set Point:	0.000	Pitch Set Point:	0.000	Yaw Set Point:	0.281	X_WP:	0.000	Y_WP:	0.000	Y_WP:	0.500	X:	0.000	Y:	0.000	Z:	0.000	yaw:	-16.085	yaw rate:	22.890	Roll:	-0.414	Pitch:	0.401	Yaw:	-24.667	Thrust:	35.733
Time:	3.825	Roll Set Point:	0.000	Pitch Set Point:	0.000	Yaw Set Point:	0.281	X_WP:	0.000	Y_WP:	0.000	Y_WP:	0.500	X:	0.000	Y:	0.000	Z:	0.000	yaw:	-16.085	yaw rate:	22.890	Roll:	-0.413	Pitch:	0.401	Yaw:	-24.664	Thrust:	36.384
Time:	3.836	Roll Set Point:	0.000	Pitch Set Point:	0.000	Yaw Set Point:	0.281	X_WP:	0.000	Y_WP:	0.000	Y_WP:	0.500	X:	0.000	Y:	0.000	Z:	0.000	yaw:	-16.085	yaw rate:	22.890	Roll:	-0.413	Pitch:	0.400	Yaw:	-24.659	Thrust:	37.024
Time:	3.847	Roll Set Point:	0.000	Pitch Set Point:	0.000	Yaw Set Point:	0.281	X_WP:	0.000	Y_WP:	0.000	Y_WP:	0.500	X:	0.000	Y:	0.000	Z:	0.000	yaw:	-16.085	yaw rate:	22.890	Roll:	-0.415	Pitch:	0.402	Yaw:	-24.670	Thrust:	37.734
Time:	3.858	Roll Set Point:	0.000	Pitch Set Point:	0.000	Yaw Set Point:	0.281	X_WP:	0.000	Y_WP:	0.000	Y_WP:	0.500	X:	0.000	Y:	0.000	Z:	0.000	yaw:	-16.085	yaw rate:	22.890	Roll:	-0.415	Pitch:	0.402	Yaw:	-24.673	Thrust:	38.409
Time:	3.869	Roll Set Point:	0.000	Pitch Set Point:	0.000	Yaw Set Point:	0.281	X_WP:	0.000	Y_WP:	0.000	Y_WP:	0.500	X:	0.000	Y:	0.000	Z:	0.000	yaw:	-16.085	yaw rate:	22.890	Roll:	-0.414	Pitch:	0.402	Yaw:	-24.669	Thrust:	39.057
Time:	3.880	Roll Set Point:	0.000	Pitch Set Point:	0.000	Yaw Set Point:	0.281	X_WP:	0.000	Y_WP:	0.000	Y_WP:	0.500	X:	0.000	Y:	0.000	Z:	0.000	yaw:	-16.085	yaw rate:	22.890	Roll:	-0.414	Pitch:	0.401	Yaw:	-24.667	Thrust:	39.705
Time:	3.891	Roll Set Point:	0.000	Pitch Set Point:	0.000	Yaw Set Point:	0.281	X_WP:	0.000	Y_WP:	0.000	Y_WP:	0.500	X:	0.000	Y:	0.000	Z:	0.000	yaw:	-16.085	yaw rate:	22.890	Roll:	-0.413	Pitch:	0.400	Yaw:	-24.660	Thrust:	40.326
Time:	3.902	Roll Set Point:	0.000	Pitch Set Point:	0.000	Yaw Set Point:	0.281	X_WP:	0.000	Y_WP:	0.000	Y_WP:	0.500	X:	0.000	Y:	0.000	Z:	0.000	yaw:	-16.085	yaw rate:	22.890	Roll:	-0.414	Pitch:	0.401	Yaw:	-24.665	Thrust:	41.020
Time:	3.913	Roll Set Point:	0.000	Pitch Set Point:	0.000	Yaw Set Point:	0.281	X_WP:	0.000	Y_WP:	0.000	Y_WP:	0.500	X:	0.000	Y:	0.000	Z:	0.000	yaw:	-16.085	yaw rate:	22.890	Roll:	-0.414	Pitch:	0.402	Yaw:	-24.669	Thrust:	41.708
Time:	3.924	Roll Set Point:	0.000	Pitch Set Point:	0.000	Yaw Set Point:	0.281	X_WP:	0.000	Y_WP:	0.000	Y_WP:	0.500	X:	0.000	Y:	0.000	Z:	0.000	yaw:	-16.085	yaw rate:	22.890	Roll:	-0.414	Pitch:	0.401	Yaw:	-24.666	Thrust:	42.349
Time:	3.935	Roll Set Point:	0.000	Pitch Set Point:	0.000	Yaw Set Point:	0.281	X_WP:	0.000	Y_WP:	0.000	Y_WP:	0.500	X:	0.000	Y:	0.000	Z:	0.000	yaw:	-16.085	yaw rate:	22.890	Roll:	-0.414	Pitch:	0.401	Yaw:	-24.665	Thrust:	43.007
Time:	3.946	Roll Set Point:	0.000	Pitch Set Point:	0.000	Yaw Set Point:	0.281	X_WP:	0.000	Y_WP:	0.000	Y_WP:	0.500	X:	0.000	Y:	0.000	Z:	0.000	yaw:	-16.085	yaw rate:	22.890	Roll:	-0.414	Pitch:	0.401	Yaw:	-24.665	Thrust:	43.666
Time:	3.957	Roll Set Point:	0.000	Pitch Set Point:	0.000	Yaw Set Point:	0.281	X_WP:	0.000	Y_WP:	0.000	Y_WP:	0.500	X:	0.000	Y:	0.000	Z:	0.000	yaw:	-16.085	yaw rate:	22.890	Roll:	-0.413	Pitch:	0.400	Yaw:	-24.659	Thrust:	44.283
Time:	3.968	Roll Set Point:	0.000	Pitch Set Point:	0.000	Yaw Set Point:	0.281	X_WP:	0.000	Y_WP:	0.000	Y_WP:	0.500	X:	0.000	Y:	0.000	Z:	0.000	yaw:	-16.085	yaw rate:	22.890	Roll:	-0.415	Pitch:	0.402	Yaw:	-24.670	Thrust:	45.033
Time:	3.980	Roll Set Point:	0.000	Pitch Set Point:	0.000	Yaw Set Point:	0.281	X_WP:	0.000	Y_WP:	0.000	Y_WP:	0.500	X:	0.000	Y:	0.000	Z:	0.000	yaw:	-16.085	yaw rate:	22.890	Roll:	-0.414	Pitch:	0.401	Yaw:	-24.665	Thrust:	45.651
Time:	3.991	Roll Set Point:	0.000	Pitch Set Point:	0.000	Yaw Set Point:	0.281	X_WP:	0.000	Y_WP:	0.000	Y_WP:	0.500	X:	0.000	Y:	0.000	Z:	0.000	yaw:	-16.085	yaw rate:	22.890	Roll:	-0.413	Pitch:	0.400	Yaw:	-24.660	Thrust:	46.267
Time:	4.002	Roll Set Point:	0.000	Pitch Set Point:	0.000	Yaw Set Point:	0.281	X_WP:	0.000	Y_WP:	0.000	Y_WP:	0.500	X:	0.000	Y:	0.000	Z:	0.000	yaw:	-16.085	yaw rate:	22.890	Roll:	-0.415	Pitch:	0.402	Yaw:	-24.671	Thrust:	47.028
Time:	4.013	Roll Set Point:	0.000	Pitch Set Point:	0.000	Yaw Set Point:	0.281	X_WP:	0.000	Y_WP:	0.000	Y_WP:	0.500	X:	0.000	Y:	0.000	Z:	0.000	yaw:	-16.085	yaw rate:	22.890	Roll:	-0.412	Pitch:	0.400	Yaw:	-24.659	Thrust:	47.581
Time:	4.024	Roll Set Point:	0.000	Pitch Set Point:	0.000	Yaw Set Point:	0.281	X_WP:	0.000	Y_WP:	0.000	Y_WP:	0.500	X:	0.000	Y:	0.000	Z:	0.000	yaw:	-16.085	yaw rate:	22.890	Roll:	-0.415	Pitch:	0.402	Yaw:	-24.671	Thrust:	48.353
Time:	4.035	Roll Set Point:	0.000	Pitch Set Point:	0.000	Yaw Set Point:	0.281	X_WP:	0.000	Y_WP:	0.000	Y_WP:	0.500	X:	0.000	Y:	0.000	Z:	0.000	yaw:	-16.085	yaw rate:	22.890	Roll:	-0.414	Pitch:	0.401	Yaw:	-24.665	Thrust:	48.960
Time:	4.046	Roll Set Point:	0.000	Pitch Set Point:	0.000	Yaw Set Point:	0.281	X_WP:	0.000	Y_WP:	0.000	Y_WP:	0.500	X:	0.000	Y:	0.000	Z:	0.000	yaw:	-16.085	yaw rate:	22.890	Roll:	-0.414	Pitch:	0.401	Yaw:	-24.665	Thrust:	49.623
Time:	4.057	Roll Set Point:	0.000	Pitch Set Point:	0.000	Yaw Set Point:	0.281	X_WP:	0.000	Y_WP:	0.000	Y_WP:	0.500	X:	0.000	Y:	0.000	Z:	0.000	yaw:	-16.085	yaw rate:	22.890	Roll:	-0.414	Pitch:	0.401	Yaw:	-24.664	Thrust:	50.278
Time:	4.068	Roll Set Point:	0.000	Pitch Set Point:	0.000	Yaw Set Point:	0.281	X_WP:	0.000	Y_WP:	0.000	Y_WP:	0.500	X:	0.000	Y:	0.000	Z:	0.000	yaw:	-16.085	yaw rate:	22.890	Roll:	-0.414	Pitch:	0.401	Yaw:	-24.665	Thrust:	50.945
Time:	4.079	Roll Set Point:	0.000	Pitch Set Point:	0.000	Yaw Set Point:	0.281	X_WP:	0.000	Y_WP:	0.000	Y_WP:	0.500	X:	0.000	Y:	0.000	Z:	0.000	yaw:	-16.085	yaw rate:	22.890	Roll:	-0.414	Pitch:	0.401	Yaw:	-24.665	Thrust:	51.608
Time:	4.090	Roll Set Point:	0.000	Pitch Set Point:	0.000	Yaw Set Point:	0.281	X_WP:	0.000	Y_WP:	0.000	Y_WP:	0.500	X:	0.000	Y:	0.000	Z:	0.000	yaw:	-16.085	yaw rate:	22.890	Roll:	-0.414	Pitch:	0.401	Yaw:	-24.665	Thrust:	52.266
Time:	4.101	Roll Set Point:	0.000	Pitch Set Point:	0.000	Yaw Set Point:	0.281	X_WP:	0.000	Y_WP:	0.000	Y_WP:	0.500	X:	0.000	Y:	0.000	Z:	0.000	yaw:	-16.085	yaw rate:	22.890	Roll:	-0.413	Pitch:	0.401	Yaw:	-24.664	Thrust:	52.918
Time:	4.112	Roll Set Point:	0.000	Pitch Set Point:	0.000	Yaw Set Point:	0.281	X_WP:	0.000	Y_WP:	0.000	Y_WP:	0.500	X:	0.000	Y:	0.000	Z:	0.000	yaw:	-16.085	yaw rate:	22.890	Roll:	-0.413	Pitch:	0.400	Yaw:	-24.661	Thrust:	53.542
Time:	4.123	Roll Set Point:	0.000	Pitch Set Point:	0.000	Yaw Set Point:	0.281	X_WP:	0.000	Y_WP:	0.000	Y_WP:	0.500	X:	0.000	Y:	0.000	Z:	0.000	yaw:	-16.085	yaw rate:	22.890	Roll:	-0.414	Pitch:	0.401	Yaw:	-24.665	Thrust:	54.254
Time:	4.134	Roll Set Point:	0.000	Pitch Set Point:	0.000	Yaw Set Point:	0.281	X_WP:	0.000	Y_WP:	0.000	Y_WP:	0.500	X:	0.000	Y:	0.000	Z:	0.000	yaw:	-16.085	yaw rate:	22.890	Roll:	-0.415	Pitch:	0.402	Yaw:	-24.671	Thrust:	54.992
Time:	4.145	Roll Set Point:	0.000	Pitch Set Point:	0.000	Yaw Set Point:	0.281	X_WP:	0.000	Y_WP:	0.000	Y_WP:	0.500	X:	0.000	Y:	0.000	Z:	0.000	yaw:	-16.085	yaw rate:	22.890	Roll:	-0.413	Pitch:	0.401	Yaw:	-24.664	Thrust:	55.567
Time:	4.156	Roll Set Point:	0.000	Pitch Set Point:	0.000	Yaw Set Point:	0.281	X_WP:	0.000	Y_WP:	0.000	Y_WP:	0.500	X:	0.000	Y:	0.000	Z:	0.000	yaw:	-16.085	yaw rate:	22.890	Roll:	-0.413	Pitch:	0.400	Yaw:	-24.660	Thrust:	56.172
Time:	4.167	Roll Set Point:	0.000	Pitch Set Point:	0.000	Yaw Set Point:	0.281	X_WP:	0.000	Y_WP:	0.000	Y_WP:	0.500	X:	0.000	Y:	0.000	Z:	0.000	yaw:	-16.085	yaw rate:	22.890	Roll:	-0.414	Pitch:	0.401	Yaw:	-24.665	Thrust:	56.903
Time:	4.178	Roll Set Point:	0.000	Pitch Set Point:	0.000	Yaw Set Point:	0.281	X_WP:	0.000	Y_WP:	0.000	Y_WP:	0.500	X:	0.000	Y:	0.000	Z:	0.000	yaw:	-16.085	yaw rate:	22.890	Roll:	-0.414	Pitch:	0.401	Yaw:	-24.665	Thrust:	57.562
Time:	4.189	Roll Set Point:	0.000	Pitch Set Point:	0.000	Yaw Set Point:	0.281	X_WP:	0.000	Y_WP:	0.000	Y_WP:	0.500	X:	0.000	Y:	0.000	Z:	0.000	yaw:	-16.085	yaw rate:	22.890	Roll:	-0.415	Pitch:	0.402	Yaw:	-24.670	Thrust:	58.297
Time:	4.200	Roll Set Point:	0.000	Pitch Set Point:	0.000	Yaw Set Point:	0.281	X_WP:	0.000	Y_WP:	0.000	Y_WP:	0.500	X:	0.000	Y:	0.000	Z:	0.000	yaw:	-16.085	yaw rate:	22.890	Roll:	-0.414	Pitch:	0.401	Yaw:	-24.666	Thrust:	58.898
Time:	4.212	Roll Set Point:	0.000	Pitch Set Point:	0.000	Yaw Set Point:	0.281	X_WP:	0.000	Y_WP:	0.000	Y_WP:	0.500	X:	0.000	Y:	0.000	Z:	0.000	yaw:	-16.085	yaw rate:	22.890	Roll:	-0.412	Pitch:	0.400	Yaw:	-24.659	Thrust:	59.458
Time:	4.223	Roll Set Point:	0.000	Pitch Set Point:	0.000	Yaw Set Point:	0.281	X_WP:	0.000	Y_WP:	0.000	Y_WP:	0.500	X:	0.000	Y:	0.000	Z:	0.000	yaw:	-16.085	yaw rate:	22.890	Roll:	-0.451	Pitch:	0.437	Yaw:	-24.865	Thrust:	63.183
Time:	4.234	Roll Set Point:	0.000	Pitch Set Point:	0.000	Yaw Set Point:	0.281	X_WP:	0.000	Y_WP:	0.000	Y_WP:	0.500	X:	0.000	Y:	0.000	Z:	0.000	yaw:	-16.085	yaw rate:	22.890	Roll:	-0.414	Pitch:	0.401	Yaw:	-24.665	Thrust:	60.873
Time:	4.245	Roll Set Point:	0.000	Pitch Set Point:	0.000	Yaw Set Point:	0.281	X_WP:	0.000	Y_WP:	0.000	Y_WP:	0.500	X:	0.000	Y:	0.000	Z:	0.000	yaw:	-16.085	yaw rate:	22.890	Roll:	-0.414	Pitch:	0.401	Yaw:	-24.665	Thrust:	61.533
Time:	4.256	Roll Set Point:	0.000	Pitch Set Point:	0.000	Yaw Set Point:	0.281	X_WP:	0.000	Y_WP:	0.000	Y_WP:	0.500	X:	0.000	Y:	0.000	Z:	0.000	yaw:	-16.085	yaw rate:	22.890	Roll:	-0.414	Pitch:	0.401	Yaw:	-24.665	Thrust:	62.194
Time:	4.267	Roll Set Point:	0.000	Pitch Set Point:	0.000	Yaw Set Point:	0.281	X_WP:	0.000	Y_WP:	0.000	Y_WP:	0.500	X:	0.000	Y:	0.000	Z:	0.000	yaw:	-16.085	yaw rate:	22.890	Roll:	-0.414	Pitch:	0.401	Yaw:	-24.665	Thrust:	62.858
Time:	4.278	Roll Set Point:	0.000	Pitch Set Point:	0.000	Yaw Set Point:	0.281	X_WP:	0.000	Y_WP:	0.000	Y_WP:	0.500	X:	0.000	Y:	0.000	Z:	0.000	yaw:	-16.085	yaw rate:	22.890	Roll:	-0.414	Pitch:	0.402	Yaw:	-24.669	Thrust:	63.587
Time:	4.289	Roll Set Point:	0.000	Pitch Set Point:	0.000	Yaw Set Point:	0.281	X_WP:	0.000	Y_WP:	0.000	Y_WP:	0.500	X:	0.000	Y:	0.000	Z:	0.000	yaw:	-16.085	yaw rate:	22.890	Roll:	-0.414	Pitch:	0.401	Yaw:	-24.665	Thrust:	64.180
Time:	4.300	Roll Set Point:	0.000	Pitch Set Point:	0.000	Yaw Set Point:	0.281	X_WP:	0.000	Y_WP:	0.000	Y_WP:	0.500	X:	0.000	Y:	0.000	Z:	0.000	yaw:	-16.085	yaw rate:	22.890	Roll:	-0.414	Pitch:	0.401	Yaw:	-24.665	Thrust:	64.842
Time:	4.311	Roll Set Point:	0.000	Pitch Set Point:	0.000	Yaw Set Point:	0.281	X_WP:	0.000	Y_WP:	0.000	Y_WP:	0.500	X:	0.000	Y:	0.000	Z:	0.000	yaw:	-16.085	yaw rate:	22.890	Roll:	-0.414	Pitch:	0.401	Yaw:	-24.666	Thrust:	65.523
Time:	4.322	Roll Set Point:	0.000	Pitch Set Point:	0.000	Yaw Set Point:	0.281	X_WP:	0.000	Y_WP:	0.000	Y_WP:	0.500	X:	0.000	Y:	0.000	Z:	0.000	yaw:	-16.085	yaw rate:	22.890	Roll:	-0.413	Pitch:	0.400	Yaw:	-24.660	Thrust:	66.073
Time:	4.333	Roll Set Point:	0.000	Pitch Set Point:	0.000	Yaw Set Point:	0.281	X_WP:	0.000	Y_WP:	0.000	Y_WP:	0.500	X:	0.000	Y:	0.000	Z:	0.000	yaw:	-16.085	yaw rate:	22.890	Roll:	-0.414	Pitch:	0.401	Yaw:	-24.665	Thrust:	66.826
Time:	4.344	Roll Set Point:	0.000	Pitch Set Point:	0.000	Yaw Set Point:	0.281	X_WP:	0.000	Y_WP:	0.000	Y_WP:	0.500	X:	0.000	Y:	0.000	Z:	0.000	yaw:	-16.085	yaw rate:	22.890	Roll:	-0.415	Pitch:	0.402	Yaw:	-24.671	Thrust:	67.595
Time:	4.356	Roll Set Point:	0.000	Pitch Set Point:	0.000	Yaw Set Point:	0.281	X_WP:	0.000	Y_WP:	0.000	Y_WP:	0.500	X:	0.000	Y:	0.000	Z:	0.000	yaw:	-16.085	yaw rate:	22.890	Roll:	-0.414	Pitch:	0.401	Yaw:	-24.665	Thrust:	68.144
Time:	4.367	Roll Set Point:	0.000	Pitch Set Point:	0.000	Yaw Set Point:	0.281	X_WP:	0.000	Y_WP:	0.000	Y_WP:	0.500	X:	0.000	Y:	0.000	Z:	0.000	yaw:	-16.085	yaw rate:	22.890	Roll:	-0.413	Pitch:	0.400	Yaw:	-24.660	Thrust:	68.711
Time:	4.378	Roll Set Point:	0.000	Pitch Set Point:	0.000	Yaw Set Point:	0.281	X_WP:	0.000	Y_WP:	0.000	Y_WP:	0.500	X:	0.000	Y:	0.000	Z:	0.000	yaw:	-16.085	yaw rate:	22.890	Roll:	-0.415	Pitch:	0.402	Yaw:	-24.671	Thrust:	69.582
Time:	4.389	Roll Set Point:	0.000	Pitch Set Point:	0.000	Yaw Set Point:	0.281	X_WP:	0.000	Y_WP:	0.000	Y_WP:	0.500	X:	0.000	Y:	0.000	Z:	0.000	yaw:	-16.085	yaw rate:	22.890	Roll:	-0.413	Pitch:	0.400	Yaw:	-24.659	Thrust:	70.027
Time:	4.400	Roll Set Point:	0.000	Pitch Set Point:	0.000	Yaw Set Point:	0.281	X_WP:	0.000	Y_WP:	0.000	Y_WP:	0.500	X:	0.000	Y:	0.000	Z:	0.000	yaw:	-16.085	yaw rate:	22.890	Roll:	-0.415	Pitch:	0.402	Yaw:	-24.670	Thrust:	70.900
Time:	4.411	Roll Set Point:	0.000	Pitch Set Point:	0.000	Yaw Set Point:	0.281	X_WP:	0.000	Y_WP:	0.000	Y_WP:	0.500	X:	0.000	Y:	0.000	Z:	0.000	yaw:	-16.085	yaw rate:	22.890	Roll:	-0.414	Pitch:	0.401	Yaw:	-24.665	Thrust:	71.460
Time:	4.422	Roll Set Point:	0.000	Pitch Set Point:	0.000	Yaw Set Point:	0.281	X_WP:	0.000	Y_WP:	0.000	Y_WP:	0.500	X:	0.000	Y:	0.000	Z:	0.000	yaw:	-16.085	yaw rate:	22.890	Roll:	-0.414	Pitch:	0.401	Yaw:	-24.667	Thrust:	72.168
Time:	4.433	Roll Set Point:	0.000	Pitch Set Point:	0.000	Yaw Set Point:	0.281	X_WP:	0.000	Y_WP:	0.000	Y_WP:	0.500	X:	0.000	Y:	0.000	Z:	0.000	yaw:	-16.085	yaw rate:	22.890	Roll:	-0.413	Pitch:	0.400	Yaw:	-24.663	Thrust:	72.748
Time:	4.444	Roll Set Point:	0.000	Pitch Set Point:	0.000	Yaw Set Point:	0.281	X_WP:	0.000	Y_WP:	0.000	Y_WP:	0.500	X:	0.000	Y:	0.000	Z:	0.000	yaw:	-16.085	yaw rate:	22.890	Roll:	-0.413	Pitch:	0.400	Yaw:	-24.663	Thrust:	73.408
Time:	4.455	Roll Set Point:	0.000	Pitch Set Point:	0.000	Yaw Set Point:	0.281	X_WP:	0.000	Y_WP:	0.000	Y_WP:	0.500	X:	0.000	Y:	0.000	Z:	0.000	yaw:	-16.085	yaw rate:	22.890	Roll:	-0.414	Pitch:	0.401	Yaw:	-24.665	Thrust:	74.110
Time:	4.466	Roll Set Point:	0.000	Pitch Set Point:	0.000	Yaw Set Point:	0.281	X_WP:	0.000	Y_WP:	0.000	Y_WP:	0.500	X:	0.000	Y:	0.000	Z:	0.000	yaw:	-16.085	yaw rate:	22.890	Roll:	-0.414	Pitch:	0.401	Yaw:	-24.666	Thrust:	74.794
Time:	4.477	Roll Set Point:	0.000	Pitch Set Point:	0.000	Yaw Set Point:	0.281	X_WP:	0.000	Y_WP:	0.000	Y_WP:	0.500	X:	0.000	Y:	0.000	Z:	0.000	yaw:	-16.085	yaw rate:	22.890	Roll:	-0.413	Pitch:	0.401	Yaw:	-24.664	Thrust:	75.405
Time:	4.488	Roll Set Point:	0.000	Pitch Set Point:	0.000	Yaw Set Point:	0.281	X_WP:	0.000	Y_WP:	0.000	Y_WP:	0.500	X:	0.000	Y:	0.000	Z:	0.000	yaw:	-16.085	yaw rate:	22.890	Roll:	-0.414	Pitch:	0.401	Yaw:	-24.666	Thrust:	76.116
Time:	4.499	Roll Set Point:	0.000	Pitch Set Point:	0.000	Yaw Set Point:	0.281	X_WP:	0.000	Y_WP:	0.000	Y_WP:	0.500	X:	0.000	Y:	0.000	Z:	0.000	yaw:	-16.085	yaw rate:	22.890	Roll:	-0.414	Pitch:	0.401	Yaw:	-24.665	Thrust:	76.759
Time:	4.510	Roll Set Point:	0.000	Pitch Set Point:	0.000	Yaw Set Point:	0.281	X_WP:	0.000	Y_WP:	0.000	Y_WP:	0.500	X:	0.000	Y:	0.000	Z:	0.000	yaw:	-16.085	yaw rate:	22.890	Roll:	-0.413	Pitch:	0.401	Yaw:	-24.664	Thrust:	77.396
Time:	4.521	Roll Set Point:	0.000	Pitch Set Point:	0.000	Yaw Set Point:	0.281	X_WP:	0.000	Y_WP:	0.000	Y_WP:	0.500	X:	0.000	Y:	0.000	Z:	0.000	yaw:	-16.085	yaw rate:	22.890	Roll:	-0.414	Pitch:	0.401	Yaw:	-24.666	Thrust:	78.101
Time:	4.533	Roll Set Point:	0.000	Pitch Set Point:	0.000	Yaw Set Point:	0.281	X_WP:	0.000	Y_WP:	0.000	Y_WP:	0.500	X:	0.000	Y:	0.000	Z:	0.000	yaw:	-16.085	yaw rate:	22.890	Roll:	-0.450	Pitch:	0.436	Yaw:	-24.860	Thrust:	83.261
Time:	4.545	Roll Set Point:	0.000	Pitch Set Point:	0.000	Yaw Set Point:	0.281	X_WP:	0.000	Y_WP:	0.000	Y_WP:	0.500	X:	0.000	Y:	0.000	Z:	0.000	yaw:	-16.085	yaw rate:	22.890	Roll:	-0.441	Pitch:	0.427	Yaw:	-24.809	Thrust:	82.797
Time:	4.556	Roll Set Point:	0.000	Pitch Set Point:	0.000	Yaw Set Point:	0.281	X_WP:	0.000	Y_WP:	0.000	Y_WP:	0.500	X:	0.000	Y:	0.000	Z:	0.000	yaw:	-16.085	yaw rate:	22.890	Roll:	-0.414	Pitch:	0.401	Yaw:	-24.665	Thrust:	80.074
Time:	4.567	Roll Set Point:	0.000	Pitch Set Point:	0.000	Yaw Set Point:	0.281	X_WP:	0.000	Y_WP:	0.000	Y_WP:	0.500	X:	0.000	Y:	0.000	Z:	0.000	yaw:	-16.085	yaw rate:	22.890	Roll:	-0.413	Pitch:	0.401	Yaw:	-24.664	Thrust:	80.711
Time:	4.578	Roll Set Point:	0.000	Pitch Set Point:	0.000	Yaw Set Point:	0.281	X_WP:	0.000	Y_WP:	0.000	Y_WP:	0.500	X:	0.000	Y:	0.000	Z:	0.000	yaw:	-16.085	yaw rate:	22.890	Roll:	-0.414	Pitch:	0.401	Yaw:	-24.665	Thrust:	81.395
Time:	4.589	Roll Set Point:	0.000	Pitch Set Point:	0.000	Yaw Set Point:	0.281	X_WP:	0.000	Y_WP:	0.000	Y_WP:	0.500	X:	0.000	Y:	0.000	Z:	0.000	yaw:	-16.085	yaw rate:	22.890	Roll:	-0.413	Pitch:	0.401	Yaw:	-24.664	Thrust:	82.017
Time:	4.600	Roll Set Point:	0.000	Pitch Set Point:	0.000	Yaw Set Point:	0.281	X_WP:	0.000	Y_WP:	0.000	Y_WP:	0.500	X:	0.000	Y:	0.000	Z:	0.000	yaw:	-16.085	yaw rate:	22.890	Roll:	-0.414	Pitch:	0.401	Yaw:	-24.666	Thrust:	82.743
Time:	4.611	Roll Set Point:	0.000	Pitch Set Point:	0.000	Yaw Set Point:	0.281	X_WP:	0.000	Y_WP:	0.000	Y_WP:	0.500	X:	0.000	Y:	0.000	Z:	0.000	yaw:	-16.085	yaw rate:	22.890	Roll:	-0.413	Pitch:	0.400	Yaw:	-24.659	Thrust:	83.225
Time:	4.622	Roll Set Point:	0.000	Pitch Set Point:	0.000	Yaw Set Point:	0.281	X_WP:	0.000	Y_WP:	0.000	Y_WP:	0.500	X:	0.000	Y:	0.000	Z:	0.000	yaw:	-16.085	yaw rate:	22.890	Roll:	-0.415	Pitch:	0.402	Yaw:	-24.670	Thrust:	84.171
Time:	4.633	Roll Set Point:	0.000	Pitch Set Point:	0.000	Yaw Set Point:	0.281	X_WP:	0.000	Y_WP:	0.000	Y_WP:	0.500	X:	0.000	Y:	0.000	Z:	0.000	yaw:	-16.085	yaw rate:	22.890	Roll:	-0.414	Pitch:	0.401	Yaw:	-24.665	Thrust:	84.696
Time:	4.644	Roll Set Point:	0.000	Pitch Set Point:	0.000	Yaw Set Point:	0.281	X_WP:	0.000	Y_WP:	0.000	Y_WP:	0.500	X:	0.000	Y:	0.000	Z:	0.000	yaw:	-16.085	yaw rate:	22.890	Roll:	-0.414	Pitch:	0.401	Yaw:	-24.665	Thrust:	85.355
Time:	4.655	Roll Set Point:	0.000	Pitch Set Point:	0.000	Yaw Set Point:	0.281	X_WP:	0.000	Y_WP:	0.000	Y_WP:	0.500	X:	0.000	Y:	0.000	Z:	0.000	yaw:	-16.085	yaw rate:	22.890	Roll:	-0.414	Pitch:	0.401	Yaw:	-24.665	Thrust:	86.017
Time:	4.666	Roll Set Point:	0.000	Pitch Set Point:	0.000	Yaw Set Point:	0.281	X_WP:	0.000	Y_WP:	0.000	Y_WP:	0.500	X:	0.000	Y:	0.000	Z:	0.000	yaw:	-16.085	yaw rate:	22.890	Roll:	-0.413	Pitch:	0.400	Yaw:	-24.660	Thrust:	86.539
Time:	4.677	Roll Set Point:	0.000	Pitch Set Point:	0.000	Yaw Set Point:	0.281	X_WP:	0.000	Y_WP:	0.000	Y_WP:	0.500	X:	0.000	Y:	0.000	Z:	0.000	yaw:	-16.085	yaw rate:	22.890	Roll:	-0.414	Pitch:	0.401	Yaw:	-24.665	Thrust:	87.342
Time:	4.689	Roll Set Point:	0.000	Pitch Set Point:	0.000	Yaw Set Point:	0.281	X_WP:	0.000	Y_WP:	0.000	Y_WP:	0.500	X:	0.000	Y:	0.000	Z:	0.000	yaw:	-16.085	yaw rate:	22.890	Roll:	-0.452	Pitch:	0.438	Yaw:	-24.871	Thrust:	93.653
Time:	4.700	Roll Set Point:	0.000	Pitch Set Point:	0.000	Yaw Set Point:	0.281	X_WP:	0.000	Y_WP:	0.000	Y_WP:	0.500	X:	0.000	Y:	0.000	Z:	0.000	yaw:	-16.085	yaw rate:	22.890	Roll:	-0.414	Pitch:	0.401	Yaw:	-24.665	Thrust:	88.666
Time:	4.711	Roll Set Point:	0.000	Pitch Set Point:	0.000	Yaw Set Point:	0.281	X_WP:	0.000	Y_WP:	0.000	Y_WP:	0.500	X:	0.000	Y:	0.000	Z:	0.000	yaw:	-16.085	yaw rate:	22.890	Roll:	-0.414	Pitch:	0.401	Yaw:	-24.665	Thrust:	89.324
Time:	4.722	Roll Set Point:	0.000	Pitch Set Point:	0.000	Yaw Set Point:	0.281	X_WP:	0.000	Y_WP:	0.000	Y_WP:	0.500	X:	0.000	Y:	0.000	Z:	0.000	yaw:	-16.085	yaw rate:	22.890	Roll:	-0.414	Pitch:	0.401	Yaw:	-24.665	Thrust:	89.999
Time:	4.734	Roll Set Point:	0.000	Pitch Set Point:	0.000	Yaw Set Point:	0.281	X_WP:	0.000	Y_WP:	0.000	Y_WP:	0.500	X:	0.000	Y:	0.000	Z:	0.000	yaw:	-16.085	yaw rate:	22.890	Roll:	-0.451	Pitch:	0.437	Yaw:	-24.865	Thrust:	96.382
Time:	4.745	Roll Set Point:	0.000	Pitch Set Point:	0.000	Yaw Set Point:	0.281	X_WP:	0.000	Y_WP:	0.000	Y_WP:	0.500	X:	0.000	Y:	0.000	Z:	0.000	yaw:	-16.085	yaw rate:	22.890	Roll:	-0.413	Pitch:	0.400	Yaw:	-24.660	Thrust:	91.156
Time:	4.757	Roll Set Point:	0.000	Pitch Set Point:	0.000	Yaw Set Point:	0.281	X_WP:	0.000	Y_WP:	0.000	Y_WP:	0.500	X:	0.000	Y:	0.000	Z:	0.000	yaw:	-16.085	yaw rate:	22.890	Roll:	-0.451	Pitch:	0.437	Yaw:	-24.866	Thrust:	97.837
Time:	4.768	Roll Set Point:	0.000	Pitch Set Point:	0.000	Yaw Set Point:	0.281	X_WP:	0.000	Y_WP:	0.000	Y_WP:	0.500	X:	0.000	Y:	0.000	Z:	0.000	yaw:	-16.085	yaw rate:	22.890	Roll:	-0.415	Pitch:	0.402	Yaw:	-24.671	Thrust:	92.805
Time:	4.779	Roll Set Point:	0.000	Pitch Set Point:	0.000	Yaw Set Point:	0.281	X_WP:	0.000	Y_WP:	0.000	Y_WP:	0.500	X:	0.000	Y:	0.000	Z:	0.000	yaw:	-16.085	yaw rate:	22.890	Roll:	-0.414	Pitch:	0.401	Yaw:	-24.665	Thrust:	93.290
Time:	4.790	Roll Set Point:	0.000	Pitch Set Point:	0.000	Yaw Set Point:	0.281	X_WP:	0.000	Y_WP:	0.000	Y_WP:	0.500	X:	0.000	Y:	0.000	Z:	0.000	yaw:	-16.085	yaw rate:	22.890	Roll:	-0.413	Pitch:	0.400	Yaw:	-24.659	Thrust:	93.791
Time:	4.801	Roll Set Point:	0.000	Pitch Set Point:	0.000	Yaw Set Point:	0.281	X_WP:	0.000	Y_WP:	0.000	Y_WP:	0.500	X:	0.000	Y:	0.000	Z:	0.000	yaw:	-16.085	yaw rate:	22.890	Roll:	-0.414	Pitch:	0.401	Yaw:	-24.665	Thrust:	94.624
Time:	4.812	Roll Set Point:	0.000	Pitch Set Point:	0.000	Yaw Set Point:	0.281	X_WP:	0.000	Y_WP:	0.000	Y_WP:	0.500	X:	0.000	Y:	0.000	Z:	0.000	yaw:	-16.085	yaw rate:	22.890	Roll:	-0.415	Pitch:	0.402	Yaw:	-24.670	Thrust:	95.444
Time:	4.823	Roll Set Point:	0.000	Pitch Set Point:	0.000	Yaw Set Point:	0.281	X_WP:	0.000	Y_WP:	0.000	Y_WP:	0.500	X:	0.000	Y:	0.000	Z:	0.000	yaw:	-16.085	yaw rate:	22.890	Roll:	-0.413	Pitch:	0.401	Yaw:	-24.664	Thrust:	95.913
Time:	4.834	Roll Set Point:	0.000	Pitch Set Point:	0.000	Yaw Set Point:	0.281	X_WP:	0.000	Y_WP:	0.000	Y_WP:	0.500	X:	0.000	Y:	0.000	Z:	0.000	yaw:	-16.085	yaw rate:	22.890	Roll:	-0.414	Pitch:	0.401	Yaw:	-24.666	Thrust:	96.655
Time:	4.846	Roll Set Point:	0.000	Pitch Set Point:	0.000	Yaw Set Point:	0.281	X_WP:	0.000	Y_WP:	0.000	Y_WP:	0.500	X:	0.000	Y:	0.000	Z:	0.000	yaw:	-16.085	yaw rate:	22.890	Roll:	-0.414	Pitch:	0.401	Yaw:	-24.665	Thrust:	97.260
Time:	4.857	Roll Set Point:	0.000	Pitch Set Point:	0.000	Yaw Set Point:	0.281	X_WP:	0.000	Y_WP:	0.000	Y_WP:	0.500	X:	0.000	Y:	0.000	Z:	0.000	yaw:	-16.085	yaw rate:	22.890	Roll:	-0.414	Pitch:	0.401	Yaw:	-24.668	Thrust:	98.012
Time:	4.868	Roll Set Point:	0.000	Pitch Set Point:	0.000	Yaw Set Point:	0.281	X_WP:	0.000	Y_WP:	0.000	Y_WP:	0.500	X:	0.000	Y:	0.000	Z:	0.000	yaw:	-16.085	yaw rate:	22.890	Roll:	-0.415	Pitch:	0.402	Yaw:	-24.671	Thrust:	98.788
Time:	4.879	Roll Set Point:	0.000	Pitch Set Point:	0.000	Yaw Set Point:	0.281	X_WP:	0.000	Y_WP:	0.000	Y_WP:	0.500	X:	0.000	Y:	0.000	Z:	0.000	yaw:	-16.085	yaw rate:	22.890	Roll:	-0.414	Pitch:	0.401	Yaw:	-24.665	Thrust:	99.252
Time:	4.890	Roll Set Point:	0.000	Pitch Set Point:	0.000	Yaw Set Point:	0.281	X_WP:	0.000	Y_WP:	0.000	Y_WP:	0.500	X:	0.000	Y:	0.000	Z:	0.000	yaw:	-16.085	yaw rate:	22.890	Roll:	-0.414	Pitch:	0.401	Yaw:	-24.665	Thrust:	99.916
Time:	4.902	Roll Set Point:	0.000	Pitch Set Point:	0.000	Yaw Set Point:	0.281	X_WP:	0.000	Y_WP:	0.000	Y_WP:	0.500	X:	0.000	Y:	0.000	Z:	0.000	yaw:	-16.085	yaw rate:	22.890	Roll:	-0.413	Pitch:	0.400	Yaw:	-24.864	Thrust:	100.000
Time:	4.913	Roll Set Point:	0.000	Pitch Set Point:	0.000	Yaw Set Point:	0.281	X_WP:	0.000	Y_WP:	0.000	Y_WP:	0.500	X:	0.000	Y:	0.000	Z:	0.000	yaw:	-16.085	yaw rate:	22.890	Roll:	-0.452	Pitch:	0.438	Yaw:	-24.666	Thrust:	100.000
Time:	4.924	Roll Set Point:	0.000	Pitch Set Point:	0.000	Yaw Set Point:	0.281	X_WP:	0.000	Y_WP:	0.000	Y_WP:	0.500	X:	0.000	Y:	0.000	Z:	0.000	yaw:	-16.085	yaw rate:	22.890	Roll:	-0.414	Pitch:	0.401	Yaw:	-24.665	Thrust:	100.000
Time:	4.935	Roll Set Point:	0.000	Pitch Set Point:	0.000	Yaw Set Point:	0.281	X_WP:	0.000	Y_WP:	0.000	Y_WP:	0.500	X:	0.000	Y:	0.000	Z:	0.000	yaw:	-16.085	yaw rate:	22.890	Roll:	-0.414	Pitch:	0.401	Yaw:	-24.665	Thrust:	100.000
Time:	4.948	Roll Set Point:	0.000	Pitch Set Point:	0.000	Yaw Set Point:	0.281	X_WP:	0.000	Y_WP:	0.000	Y_WP:	0.500	X:	0.000	Y:	0.000	Z:	0.000	yaw:	-16.085	yaw rate:	22.890	Roll:	-0.450	Pitch:	0.436	Yaw:	-24.860	Thrust:	100.000
Time:	4.958	Roll Set Point:	0.000	Pitch Set Point:	0.000	Yaw Set Point:	0.281	X_WP:	0.000	Y_WP:	0.000	Y_WP:	0.500	X:	0.000	Y:	0.000	Z:	0.000	yaw:	-16.085	yaw rate:	22.890	Roll:	-0.414	Pitch:	0.402	Yaw:	-24.669	Thrust:	100.000
Time:	4.970	Roll Set Point:	0.000	Pitch Set Point:	0.000	Yaw Set Point:	0.281	X_WP:	0.000	Y_WP:	0.000	Y_WP:	0.500	X:	0.000	Y:	0.000	Z:	0.000	yaw:	-16.085	yaw rate:	22.890	Roll:	-0.451	Pitch:	0.437	Yaw:	-24.866	Thrust:	100.000
Time:	4.981	Roll Set Point:	0.000	Pitch Set Point:	0.000	Yaw Set Point:	0.281	X_WP:	0.000	Y_WP:	0.000	Y_WP:	0.500	X:	0.000	Y:	0.000	Z:	0.000	yaw:	-16.085	yaw rate:	22.890	Roll:	-0.414	Pitch:	0.401	Yaw:	-24.665	Thrust:	100.000
Time:	4.992	Roll Set Point:	0.000	Pitch Set Point:	0.000	Yaw Set Point:	0.281	X_WP:	0.000	Y_WP:	0.000	Y_WP:	0.500	X:	0.000	Y:	0.000	Z:	0.000	yaw:	-16.085	yaw rate:	22.890	Roll:	-0.413	Pitch:	0.400	Yaw:	-24.659	Thrust:	100.000
