Time:	2.489	Roll Set Point:	-0.069	Pitch Set Point:	0.032	Yaw Set Point:	-2.493	X_WP:	0.000	Y_WP:	0.000	Y_WP:	0.500	X:	0.082	Y:	0.087	Z:	0.400	yaw:	142.816	yaw rate:	-7.080	Roll:	-0.381	Pitch:	-3.446	Yaw:	199.408	Thrust:	5.509
Time:	2.529	Roll Set Point:	-0.069	Pitch Set Point:	0.032	Yaw Set Point:	-2.495	X_WP:	0.000	Y_WP:	0.000	Y_WP:	0.500	X:	0.082	Y:	0.087	Z:	0.400	yaw:	142.941	yaw rate:	10.309	Roll:	-0.464	Pitch:	-3.492	Yaw:	202.415	Thrust:	5.964
Time:	2.592	Roll Set Point:	-0.069	Pitch Set Point:	0.032	Yaw Set Point:	-2.493	X_WP:	0.000	Y_WP:	0.000	Y_WP:	0.500	X:	0.082	Y:	0.087	Z:	0.400	yaw:	142.814	yaw rate:	-9.457	Roll:	-0.328	Pitch:	-3.470	Yaw:	205.124	Thrust:	6.952
Time:	2.651	Roll Set Point:	-0.069	Pitch Set Point:	0.032	Yaw Set Point:	-2.495	X_WP:	0.000	Y_WP:	0.000	Y_WP:	0.500	X:	0.082	Y:	0.087	Z:	0.400	yaw:	142.929	yaw rate:	14.006	Roll:	-0.450	Pitch:	-3.511	Yaw:	205.950	Thrust:	7.653
Time:	2.719	Roll Set Point:	-0.069	Pitch Set Point:	0.032	Yaw Set Point:	-2.498	X_WP:	0.000	Y_WP:	0.000	Y_WP:	0.500	X:	0.082	Y:	0.087	Z:	0.400	yaw:	143.107	yaw rate:	-0.651	Roll:	-0.536	Pitch:	-3.518	Yaw:	207.361	Thrust:	8.723
Time:	2.783	Roll Set Point:	-0.069	Pitch Set Point:	0.032	Yaw Set Point:	-2.492	X_WP:	0.000	Y_WP:	0.000	Y_WP:	0.500	X:	0.082	Y:	0.087	Z:	0.400	yaw:	142.759	yaw rate:	-4.605	Roll:	-0.140	Pitch:	-3.556	Yaw:	204.265	Thrust:	9.420
Time:	2.831	Roll Set Point:	-0.069	Pitch Set Point:	0.032	Yaw Set Point:	-2.497	X_WP:	0.000	Y_WP:	0.000	Y_WP:	0.500	X:	0.082	Y:	0.087	Z:	0.400	yaw:	143.092	yaw rate:	28.928	Roll:	-0.738	Pitch:	-3.498	Yaw:	206.415	Thrust:	8.870
Time:	2.872	Roll Set Point:	-0.068	Pitch Set Point:	0.032	Yaw Set Point:	-2.498	X_WP:	0.000	Y_WP:	0.000	Y_WP:	0.500	X:	0.082	Y:	0.087	Z:	0.400	yaw:	143.133	yaw rate:	4.101	Roll:	-0.491	Pitch:	-3.526	Yaw:	204.176	Thrust:	8.791
Time:	2.920	Roll Set Point:	-0.069	Pitch Set Point:	0.032	Yaw Set Point:	-2.493	X_WP:	0.000	Y_WP:	0.000	Y_WP:	0.500	X:	0.082	Y:	0.087	Z:	0.400	yaw:	142.823	yaw rate:	-26.353	Roll:	-0.062	Pitch:	-3.594	Yaw:	202.549	Thrust:	10.380
Time:	2.967	Roll Set Point:	-0.069	Pitch Set Point:	0.032	Yaw Set Point:	-2.498	X_WP:	0.000	Y_WP:	0.000	Y_WP:	0.500	X:	0.082	Y:	0.087	Z:	0.400	yaw:	143.110	yaw rate:	12.920	Roll:	-0.707	Pitch:	-3.550	Yaw:	206.094	Thrust:	10.424
Time:	2.997	Roll Set Point:	-0.069	Pitch Set Point:	0.032	Yaw Set Point:	-2.498	X_WP:	0.000	Y_WP:	0.000	Y_WP:	0.500	X:	0.082	Y:	0.087	Z:	0.400	yaw:	143.119	yaw rate:	0.885	Roll:	-0.405	Pitch:	-3.534	Yaw:	203.015	Thrust:	9.205
Time:	3.044	Roll Set Point:	-0.069	Pitch Set Point:	0.032	Yaw Set Point:	-2.494	X_WP:	0.000	Y_WP:	0.000	Y_WP:	0.500	X:	0.082	Y:	0.087	Z:	0.400	yaw:	142.908	yaw rate:	1.562	Roll:	-0.208	Pitch:	-3.612	Yaw:	203.017	Thrust:	11.777
Time:	3.076	Roll Set Point:	-0.069	Pitch Set Point:	0.032	Yaw Set Point:	-2.496	X_WP:	0.000	Y_WP:	0.000	Y_WP:	0.500	X:	0.082	Y:	0.087	Z:	0.400	yaw:	142.985	yaw rate:	-12.291	Roll:	-0.491	Pitch:	-3.572	Yaw:	203.435	Thrust:	9.991
Time:	3.122	Roll Set Point:	-0.069	Pitch Set Point:	0.032	Yaw Set Point:	-2.494	X_WP:	0.000	Y_WP:	0.000	Y_WP:	0.500	X:	0.082	Y:	0.087	Z:	0.400	yaw:	142.895	yaw rate:	-3.328	Roll:	-0.335	Pitch:	-3.622	Yaw:	203.620	Thrust:	12.766
Time:	3.168	Roll Set Point:	-0.069	Pitch Set Point:	0.032	Yaw Set Point:	-2.494	X_WP:	0.000	Y_WP:	0.000	Y_WP:	0.500	X:	0.082	Y:	0.087	Z:	0.400	yaw:	142.920	yaw rate:	2.494	Roll:	-0.424	Pitch:	-3.648	Yaw:	204.356	Thrust:	13.408
Time:	3.221	Roll Set Point:	-0.069	Pitch Set Point:	0.032	Yaw Set Point:	-2.494	X_WP:	0.000	Y_WP:	0.000	Y_WP:	0.500	X:	0.082	Y:	0.087	Z:	0.400	yaw:	142.913	yaw rate:	-2.288	Roll:	-0.427	Pitch:	-3.667	Yaw:	204.674	Thrust:	14.740
Time:	3.251	Roll Set Point:	-0.069	Pitch Set Point:	0.032	Yaw Set Point:	-2.494	X_WP:	0.000	Y_WP:	0.000	Y_WP:	0.500	X:	0.082	Y:	0.087	Z:	0.400	yaw:	142.918	yaw rate:	-19.039	Roll:	-0.421	Pitch:	-3.585	Yaw:	202.699	Thrust:	11.399
Time:	3.285	Roll Set Point:	-0.069	Pitch Set Point:	0.032	Yaw Set Point:	-2.498	X_WP:	0.000	Y_WP:	0.000	Y_WP:	0.500	X:	0.082	Y:	0.087	Z:	0.400	yaw:	143.101	yaw rate:	18.377	Roll:	-0.654	Pitch:	-3.607	Yaw:	204.627	Thrust:	12.440
Time:	3.320	Roll Set Point:	-0.069	Pitch Set Point:	0.032	Yaw Set Point:	-2.492	X_WP:	0.000	Y_WP:	0.000	Y_WP:	0.500	X:	0.082	Y:	0.087	Z:	0.400	yaw:	142.803	yaw rate:	-2.599	Roll:	-0.056	Pitch:	-3.634	Yaw:	200.593	Thrust:	13.011
Time:	3.366	Roll Set Point:	-0.069	Pitch Set Point:	0.032	Yaw Set Point:	-2.493	X_WP:	0.000	Y_WP:	0.000	Y_WP:	0.500	X:	0.082	Y:	0.087	Z:	0.400	yaw:	142.865	yaw rate:	6.178	Roll:	-0.439	Pitch:	-3.726	Yaw:	204.440	Thrust:	16.121
Time:	3.400	Roll Set Point:	-0.069	Pitch Set Point:	0.032	Yaw Set Point:	-2.492	X_WP:	0.000	Y_WP:	0.000	Y_WP:	0.500	X:	0.082	Y:	0.087	Z:	0.400	yaw:	142.767	yaw rate:	-7.338	Roll:	-0.286	Pitch:	-3.638	Yaw:	201.938	Thrust:	13.550
Time:	3.443	Roll Set Point:	-0.069	Pitch Set Point:	0.032	Yaw Set Point:	-2.496	X_WP:	0.000	Y_WP:	0.000	Y_WP:	0.500	X:	0.082	Y:	0.087	Z:	0.400	yaw:	143.017	yaw rate:	-8.021	Roll:	-0.631	Pitch:	-3.734	Yaw:	205.550	Thrust:	16.410
Time:	3.473	Roll Set Point:	-0.069	Pitch Set Point:	0.032	Yaw Set Point:	-2.495	X_WP:	0.000	Y_WP:	0.000	Y_WP:	0.500	X:	0.082	Y:	0.087	Z:	0.400	yaw:	142.937	yaw rate:	14.714	Roll:	-0.308	Pitch:	-3.647	Yaw:	201.885	Thrust:	13.605
Time:	3.504	Roll Set Point:	-0.069	Pitch Set Point:	0.032	Yaw Set Point:	-2.497	X_WP:	0.000	Y_WP:	0.000	Y_WP:	0.500	X:	0.082	Y:	0.087	Z:	0.400	yaw:	143.094	yaw rate:	15.700	Roll:	-0.694	Pitch:	-3.625	Yaw:	204.227	Thrust:	13.866
Time:	3.535	Roll Set Point:	-0.069	Pitch Set Point:	0.032	Yaw Set Point:	-2.498	X_WP:	0.000	Y_WP:	0.000	Y_WP:	0.500	X:	0.082	Y:	0.087	Z:	0.400	yaw:	143.103	yaw rate:	1.046	Roll:	-0.437	Pitch:	-3.655	Yaw:	202.993	Thrust:	14.451
Time:	3.582	Roll Set Point:	-0.069	Pitch Set Point:	0.032	Yaw Set Point:	-2.493	X_WP:	0.000	Y_WP:	0.000	Y_WP:	0.500	X:	0.082	Y:	0.087	Z:	0.400	yaw:	142.820	yaw rate:	-10.719	Roll:	-0.150	Pitch:	-3.818	Yaw:	202.556	Thrust:	19.628
Time:	3.629	Roll Set Point:	-0.069	Pitch Set Point:	0.032	Yaw Set Point:	-2.495	X_WP:	0.000	Y_WP:	0.000	Y_WP:	0.500	X:	0.082	Y:	0.087	Z:	0.400	yaw:	142.956	yaw rate:	13.585	Roll:	-0.527	Pitch:	-3.812	Yaw:	204.987	Thrust:	20.085
Time:	3.660	Roll Set Point:	-0.069	Pitch Set Point:	0.032	Yaw Set Point:	-2.492	X_WP:	0.000	Y_WP:	0.000	Y_WP:	0.500	X:	0.082	Y:	0.087	Z:	0.400	yaw:	142.794	yaw rate:	0.353	Roll:	-0.263	Pitch:	-3.668	Yaw:	201.121	Thrust:	15.483
Time:	3.706	Roll Set Point:	-0.069	Pitch Set Point:	0.032	Yaw Set Point:	-2.495	X_WP:	0.000	Y_WP:	0.000	Y_WP:	0.500	X:	0.082	Y:	0.087	Z:	0.400	yaw:	142.940	yaw rate:	-17.595	Roll:	-0.537	Pitch:	-3.841	Yaw:	205.064	Thrust:	21.182
Time:	3.747	Roll Set Point:	-0.069	Pitch Set Point:	0.032	Yaw Set Point:	-2.498	X_WP:	0.000	Y_WP:	0.000	Y_WP:	0.500	X:	0.082	Y:	0.087	Z:	0.400	yaw:	143.108	yaw rate:	16.805	Roll:	-0.656	Pitch:	-3.781	Yaw:	204.997	Thrust:	19.731
Time:	3.795	Roll Set Point:	-0.069	Pitch Set Point:	0.032	Yaw Set Point:	-2.497	X_WP:	0.000	Y_WP:	0.000	Y_WP:	0.500	X:	0.082	Y:	0.087	Z:	0.400	yaw:	143.077	yaw rate:	-6.110	Roll:	-0.417	Pitch:	-3.869	Yaw:	204.262	Thrust:	22.315
Time:	3.833	Roll Set Point:	-0.069	Pitch Set Point:	0.032	Yaw Set Point:	-2.498	X_WP:	0.000	Y_WP:	0.000	Y_WP:	0.500	X:	0.082	Y:	0.087	Z:	0.400	yaw:	143.103	yaw rate:	2.638	Roll:	-0.452	Pitch:	-3.816	Yaw:	203.893	Thrust:	20.075
Time:	3.864	Roll Set Point:	-0.069	Pitch Set Point:	0.032	Yaw Set Point:	-2.498	X_WP:	0.000	Y_WP:	0.000	Y_WP:	0.500	X:	0.082	Y:	0.087	Z:	0.400	yaw:	143.106	yaw rate:	17.783	Roll:	-0.458	Pitch:	-3.727	Yaw:	202.950	Thrust:	17.438
Time:	3.911	Roll Set Point:	-0.069	Pitch Set Point:	0.032	Yaw Set Point:	-2.497	X_WP:	0.000	Y_WP:	0.000	Y_WP:	0.500	X:	0.082	Y:	0.087	Z:	0.400	yaw:	143.075	yaw rate:	-3.099	Roll:	-0.348	Pitch:	-3.939	Yaw:	204.259	Thrust:	24.124
Time:	3.950	Roll Set Point:	-0.069	Pitch Set Point:	0.032	Yaw Set Point:	-2.498	X_WP:	0.000	Y_WP:	0.000	Y_WP:	0.500	X:	0.082	Y:	0.087	Z:	0.400	yaw:	143.117	yaw rate:	19.326	Roll:	-0.567	Pitch:	-3.805	Yaw:	204.065	Thrust:	21.518
Time:	3.982	Roll Set Point:	-0.069	Pitch Set Point:	0.032	Yaw Set Point:	-2.498	X_WP:	0.000	Y_WP:	0.000	Y_WP:	0.500	X:	0.082	Y:	0.087	Z:	0.400	yaw:	143.105	yaw rate:	-1.172	Roll:	-0.418	Pitch:	-3.773	Yaw:	202.822	Thrust:	18.535
Time:	4.014	Roll Set Point:	-0.069	Pitch Set Point:	0.032	Yaw Set Point:	-2.498	X_WP:	0.000	Y_WP:	0.000	Y_WP:	0.500	X:	0.082	Y:	0.087	Z:	0.400	yaw:	143.107	yaw rate:	16.417	Roll:	-0.457	Pitch:	-3.786	Yaw:	202.985	Thrust:	19.170
Time:	4.055	Roll Set Point:	-0.069	Pitch Set Point:	0.032	Yaw Set Point:	-2.493	X_WP:	0.000	Y_WP:	0.000	Y_WP:	0.500	X:	0.082	Y:	0.087	Z:	0.400	yaw:	142.825	yaw rate:	-28.546	Roll:	-0.169	Pitch:	-3.895	Yaw:	201.808	Thrust:	23.972
Time:	4.086	Roll Set Point:	-0.069	Pitch Set Point:	0.032	Yaw Set Point:	-2.494	X_WP:	0.000	Y_WP:	0.000	Y_WP:	0.500	X:	0.082	Y:	0.087	Z:	0.400	yaw:	142.921	yaw rate:	13.395	Roll:	-0.508	Pitch:	-3.824	Yaw:	203.474	Thrust:	19.880
Time:	4.114	Roll Set Point:	-0.069	Pitch Set Point:	0.032	Yaw Set Point:	-2.495	X_WP:	0.000	Y_WP:	0.000	Y_WP:	0.500	X:	0.082	Y:	0.087	Z:	0.400	yaw:	142.950	yaw rate:	2.915	Roll:	-0.443	Pitch:	-3.784	Yaw:	202.721	Thrust:	18.821
Time:	4.156	Roll Set Point:	-0.069	Pitch Set Point:	0.032	Yaw Set Point:	-2.498	X_WP:	0.000	Y_WP:	0.000	Y_WP:	0.500	X:	0.082	Y:	0.087	Z:	0.400	yaw:	143.103	yaw rate:	20.675	Roll:	-0.643	Pitch:	-3.914	Yaw:	204.892	Thrust:	25.153
Time:	4.184	Roll Set Point:	-0.069	Pitch Set Point:	0.032	Yaw Set Point:	-2.493	X_WP:	0.000	Y_WP:	0.000	Y_WP:	0.500	X:	0.082	Y:	0.087	Z:	0.400	yaw:	142.836	yaw rate:	-26.666	Roll:	-0.056	Pitch:	-3.787	Yaw:	199.758	Thrust:	19.368
Time:	4.218	Roll Set Point:	-0.069	Pitch Set Point:	0.032	Yaw Set Point:	-2.494	X_WP:	0.000	Y_WP:	0.000	Y_WP:	0.500	X:	0.082	Y:	0.087	Z:	0.400	yaw:	142.868	yaw rate:	4.068	Roll:	-0.431	Pitch:	-3.883	Yaw:	203.094	Thrust:	22.583
Time:	4.257	Roll Set Point:	-0.069	Pitch Set Point:	0.032	Yaw Set Point:	-2.494	X_WP:	0.000	Y_WP:	0.000	Y_WP:	0.500	X:	0.082	Y:	0.087	Z:	0.400	yaw:	142.920	yaw rate:	5.136	Roll:	-0.478	Pitch:	-3.971	Yaw:	203.897	Thrust:	26.201
Time:	4.304	Roll Set Point:	-0.069	Pitch Set Point:	0.032	Yaw Set Point:	-2.498	X_WP:	0.000	Y_WP:	0.000	Y_WP:	0.500	X:	0.082	Y:	0.087	Z:	0.400	yaw:	143.109	yaw rate:	14.483	Roll:	-0.672	Pitch:	-4.033	Yaw:	205.541	Thrust:	30.004
Time:	4.342	Roll Set Point:	-0.069	Pitch Set Point:	0.032	Yaw Set Point:	-2.493	X_WP:	0.000	Y_WP:	0.000	Y_WP:	0.500	X:	0.082	Y:	0.087	Z:	0.400	yaw:	142.866	yaw rate:	-23.955	Roll:	-0.199	Pitch:	-3.955	Yaw:	201.618	Thrust:	26.143
Time:	4.373	Roll Set Point:	-0.069	Pitch Set Point:	0.032	Yaw Set Point:	-2.498	X_WP:	0.000	Y_WP:	0.000	Y_WP:	0.500	X:	0.082	Y:	0.087	Z:	0.400	yaw:	143.112	yaw rate:	24.604	Roll:	-0.743	Pitch:	-3.880	Yaw:	205.002	Thrust:	22.634
Time:	4.405	Roll Set Point:	-0.069	Pitch Set Point:	0.032	Yaw Set Point:	-2.497	X_WP:	0.000	Y_WP:	0.000	Y_WP:	0.500	X:	0.082	Y:	0.087	Z:	0.400	yaw:	143.090	yaw rate:	18.768	Roll:	-0.443	Pitch:	-3.874	Yaw:	202.778	Thrust:	23.362
Time:	4.444	Roll Set Point:	-0.069	Pitch Set Point:	0.032	Yaw Set Point:	-2.497	X_WP:	0.000	Y_WP:	0.000	Y_WP:	0.500	X:	0.082	Y:	0.087	Z:	0.400	yaw:	143.085	yaw rate:	-0.554	Roll:	-0.437	Pitch:	-4.013	Yaw:	203.654	Thrust:	27.989
Time:	4.475	Roll Set Point:	-0.069	Pitch Set Point:	0.032	Yaw Set Point:	-2.495	X_WP:	0.000	Y_WP:	0.000	Y_WP:	0.500	X:	0.082	Y:	0.087	Z:	0.400	yaw:	142.952	yaw rate:	-15.569	Roll:	-0.253	Pitch:	-3.909	Yaw:	201.589	Thrust:	23.961
Time:	4.506	Roll Set Point:	-0.069	Pitch Set Point:	0.032	Yaw Set Point:	-2.498	X_WP:	0.000	Y_WP:	0.000	Y_WP:	0.500	X:	0.082	Y:	0.087	Z:	0.400	yaw:	143.102	yaw rate:	-0.604	Roll:	-0.658	Pitch:	-3.912	Yaw:	204.182	Thrust:	24.010
Time:	4.548	Roll Set Point:	-0.069	Pitch Set Point:	0.032	Yaw Set Point:	-2.493	X_WP:	0.000	Y_WP:	0.000	Y_WP:	0.500	X:	0.082	Y:	0.087	Z:	0.400	yaw:	142.812	yaw rate:	-28.295	Roll:	-0.188	Pitch:	-4.067	Yaw:	201.736	Thrust:	31.012
Time:	4.579	Roll Set Point:	-0.069	Pitch Set Point:	0.032	Yaw Set Point:	-2.493	X_WP:	0.000	Y_WP:	0.000	Y_WP:	0.500	X:	0.082	Y:	0.087	Z:	0.400	yaw:	142.845	yaw rate:	3.244	Roll:	-0.474	Pitch:	-3.931	Yaw:	202.830	Thrust:	24.899
Time:	4.610	Roll Set Point:	-0.069	Pitch Set Point:	0.032	Yaw Set Point:	-2.494	X_WP:	0.000	Y_WP:	0.000	Y_WP:	0.500	X:	0.082	Y:	0.087	Z:	0.400	yaw:	142.895	yaw rate:	-3.477	Roll:	-0.503	Pitch:	-3.936	Yaw:	203.095	Thrust:	25.532
Time:	4.646	Roll Set Point:	-0.069	Pitch Set Point:	0.032	Yaw Set Point:	-2.495	X_WP:	0.000	Y_WP:	0.000	Y_WP:	0.500	X:	0.082	Y:	0.087	Z:	0.400	yaw:	142.970	yaw rate:	7.467	Roll:	-0.489	Pitch:	-4.040	Yaw:	203.732	Thrust:	28.785
Time:	4.692	Roll Set Point:	-0.069	Pitch Set Point:	0.032	Yaw Set Point:	-2.493	X_WP:	0.000	Y_WP:	0.000	Y_WP:	0.500	X:	0.082	Y:	0.087	Z:	0.400	yaw:	142.857	yaw rate:	-8.246	Roll:	-0.419	Pitch:	-4.200	Yaw:	203.494	Thrust:	36.258
Time:	4.723	Roll Set Point:	-0.069	Pitch Set Point:	0.032	Yaw Set Point:	-2.493	X_WP:	0.000	Y_WP:	0.000	Y_WP:	0.500	X:	0.082	Y:	0.087	Z:	0.400	yaw:	142.835	yaw rate:	2.315	Roll:	-0.390	Pitch:	-3.944	Yaw:	202.251	Thrust:	25.778
Time:	4.764	Roll Set Point:	-0.069	Pitch Set Point:	0.032	Yaw Set Point:	-2.492	X_WP:	0.000	Y_WP:	0.000	Y_WP:	0.500	X:	0.082	Y:	0.087	Z:	0.400	yaw:	142.778	yaw rate:	-8.883	Roll:	-0.387	Pitch:	-4.142	Yaw:	203.050	Thrust:	33.279
Time:	4.810	Roll Set Point:	-0.069	Pitch Set Point:	0.032	Yaw Set Point:	-2.493	X_WP:	0.000	Y_WP:	0.000	Y_WP:	0.500	X:	0.082	Y:	0.087	Z:	0.400	yaw:	142.817	yaw rate:	-8.488	Roll:	-0.521	Pitch:	-4.245	Yaw:	204.295	Thrust:	37.980
Time:	4.850	Roll Set Point:	-0.069	Pitch Set Point:	0.032	Yaw Set Point:	-2.498	X_WP:	0.000	Y_WP:	0.000	Y_WP:	0.500	X:	0.082	Y:	0.087	Z:	0.400	yaw:	143.107	yaw rate:	-3.412	Roll:	-0.791	Pitch:	-4.136	Yaw:	205.720	Thrust:	33.838
Time:	4.896	Roll Set Point:	-0.069	Pitch Set Point:	0.032	Yaw Set Point:	-2.493	X_WP:	0.000	Y_WP:	0.000	Y_WP:	0.500	X:	0.082	Y:	0.087	Z:	0.400	yaw:	142.859	yaw rate:	-23.566	Roll:	-0.244	Pitch:	-4.287	Yaw:	202.736	Thrust:	39.159
Time:	4.952	Roll Set Point:	-0.069	Pitch Set Point:	0.032	Yaw Set Point:	-2.494	X_WP:	0.000	Y_WP:	0.000	Y_WP:	0.500	X:	0.082	Y:	0.087	Z:	0.400	yaw:	142.915	yaw rate:	3.133	Roll:	-0.535	Pitch:	-4.457	Yaw:	205.326	Thrust:	45.932
Time:	4.983	Roll Set Point:	-0.069	Pitch Set Point:	0.032	Yaw Set Point:	-2.495	X_WP:	0.000	Y_WP:	0.000	Y_WP:	0.500	X:	0.082	Y:	0.087	Z:	0.400	yaw:	142.958	yaw rate:	6.165	Roll:	-0.495	Pitch:	-4.031	Yaw:	203.079	Thrust:	28.684
Time:	5.014	Roll Set Point:	-0.069	Pitch Set Point:	0.032	Yaw Set Point:	-2.498	X_WP:	0.000	Y_WP:	0.000	Y_WP:	0.500	X:	0.082	Y:	0.087	Z:	0.400	yaw:	143.101	yaw rate:	-1.221	Roll:	-0.702	Pitch:	-3.984	Yaw:	204.120	Thrust:	28.804
Time:	5.052	Roll Set Point:	-0.069	Pitch Set Point:	0.032	Yaw Set Point:	-2.498	X_WP:	0.000	Y_WP:	0.000	Y_WP:	0.500	X:	0.082	Y:	0.087	Z:	0.400	yaw:	143.101	yaw rate:	0.036	Roll:	-0.460	Pitch:	-4.191	Yaw:	203.670	Thrust:	35.184
Time:	5.099	Roll Set Point:	-0.069	Pitch Set Point:	0.032	Yaw Set Point:	-2.498	X_WP:	0.000	Y_WP:	0.000	Y_WP:	0.500	X:	0.082	Y:	0.087	Z:	0.400	yaw:	143.106	yaw rate:	10.258	Roll:	-0.517	Pitch:	-4.342	Yaw:	204.504	Thrust:	41.873
Time:	5.138	Roll Set Point:	-0.069	Pitch Set Point:	0.032	Yaw Set Point:	-2.498	X_WP:	0.000	Y_WP:	0.000	Y_WP:	0.500	X:	0.082	Y:	0.087	Z:	0.400	yaw:	143.132	yaw rate:	24.562	Roll:	-0.527	Pitch:	-4.201	Yaw:	203.886	Thrust:	36.133
Time:	5.170	Roll Set Point:	-0.069	Pitch Set Point:	0.032	Yaw Set Point:	-2.493	X_WP:	0.000	Y_WP:	0.000	Y_WP:	0.500	X:	0.082	Y:	0.087	Z:	0.400	yaw:	142.849	yaw rate:	-25.577	Roll:	-0.138	Pitch:	-4.060	Yaw:	200.356	Thrust:	31.257
Time:	5.220	Roll Set Point:	-0.069	Pitch Set Point:	0.032	Yaw Set Point:	-2.493	X_WP:	0.000	Y_WP:	0.000	Y_WP:	0.500	X:	0.082	Y:	0.087	Z:	0.400	yaw:	142.837	yaw rate:	-28.218	Roll:	-0.457	Pitch:	-4.480	Yaw:	204.388	Thrust:	46.485
Time:	5.267	Roll Set Point:	-0.069	Pitch Set Point:	0.032	Yaw Set Point:	-2.493	X_WP:	0.000	Y_WP:	0.000	Y_WP:	0.500	X:	0.082	Y:	0.087	Z:	0.400	yaw:	142.846	yaw rate:	-9.143	Roll:	-0.484	Pitch:	-4.414	Yaw:	204.169	Thrust:	44.264
Time:	5.298	Roll Set Point:	-0.069	Pitch Set Point:	0.032	Yaw Set Point:	-2.494	X_WP:	0.000	Y_WP:	0.000	Y_WP:	0.500	X:	0.082	Y:	0.087	Z:	0.400	yaw:	142.875	yaw rate:	-1.092	Roll:	-0.507	Pitch:	-4.089	Yaw:	202.882	Thrust:	31.477
Time:	5.344	Roll Set Point:	-0.069	Pitch Set Point:	0.032	Yaw Set Point:	-2.498	X_WP:	0.000	Y_WP:	0.000	Y_WP:	0.500	X:	0.082	Y:	0.087	Z:	0.400	yaw:	143.121	yaw rate:	7.521	Roll:	-0.735	Pitch:	-4.412	Yaw:	205.847	Thrust:	45.201
Time:	5.373	Roll Set Point:	-0.069	Pitch Set Point:	0.032	Yaw Set Point:	-2.492	X_WP:	0.000	Y_WP:	0.000	Y_WP:	0.500	X:	0.082	Y:	0.087	Z:	0.400	yaw:	142.805	yaw rate:	-10.229	Roll:	-0.032	Pitch:	-4.066	Yaw:	199.355	Thrust:	30.336
Time:	5.406	Roll Set Point:	-0.069	Pitch Set Point:	0.032	Yaw Set Point:	-2.493	X_WP:	0.000	Y_WP:	0.000	Y_WP:	0.500	X:	0.082	Y:	0.087	Z:	0.400	yaw:	142.817	yaw rate:	-18.756	Roll:	-0.500	Pitch:	-4.150	Yaw:	202.809	Thrust:	33.984
Time:	5.443	Roll Set Point:	-0.069	Pitch Set Point:	0.032	Yaw Set Point:	-2.494	X_WP:	0.000	Y_WP:	0.000	Y_WP:	0.500	X:	0.082	Y:	0.087	Z:	0.400	yaw:	142.888	yaw rate:	7.105	Roll:	-0.510	Pitch:	-4.277	Yaw:	203.679	Thrust:	38.574
Time:	5.474	Roll Set Point:	-0.069	Pitch Set Point:	0.032	Yaw Set Point:	-2.493	X_WP:	0.000	Y_WP:	0.000	Y_WP:	0.500	X:	0.082	Y:	0.087	Z:	0.400	yaw:	142.861	yaw rate:	-2.691	Roll:	-0.418	Pitch:	-4.154	Yaw:	202.350	Thrust:	33.551
Time:	5.520	Roll Set Point:	-0.069	Pitch Set Point:	0.032	Yaw Set Point:	-2.495	X_WP:	0.000	Y_WP:	0.000	Y_WP:	0.500	X:	0.082	Y:	0.087	Z:	0.400	yaw:	142.978	yaw rate:	-3.917	Roll:	-0.599	Pitch:	-4.490	Yaw:	204.913	Thrust:	47.591
Time:	5.567	Roll Set Point:	-0.069	Pitch Set Point:	0.032	Yaw Set Point:	-2.492	X_WP:	0.000	Y_WP:	0.000	Y_WP:	0.500	X:	0.082	Y:	0.087	Z:	0.400	yaw:	142.810	yaw rate:	-16.832	Roll:	-0.381	Pitch:	-4.500	Yaw:	203.117	Thrust:	48.531
Time:	5.596	Roll Set Point:	-0.069	Pitch Set Point:	0.032	Yaw Set Point:	-2.496	X_WP:	0.000	Y_WP:	0.000	Y_WP:	0.500	X:	0.082	Y:	0.087	Z:	0.400	yaw:	142.999	yaw rate:	4.358	Roll:	-0.678	Pitch:	-4.157	Yaw:	204.326	Thrust:	33.885
Time:	5.634	Roll Set Point:	-0.069	Pitch Set Point:	0.032	Yaw Set Point:	-2.494	X_WP:	0.000	Y_WP:	0.000	Y_WP:	0.500	X:	0.082	Y:	0.087	Z:	0.400	yaw:	142.900	yaw rate:	-3.423	Roll:	-0.408	Pitch:	-4.326	Yaw:	202.647	Thrust:	41.542
Time:	5.681	Roll Set Point:	-0.069	Pitch Set Point:	0.032	Yaw Set Point:	-2.492	X_WP:	0.000	Y_WP:	0.000	Y_WP:	0.500	X:	0.082	Y:	0.087	Z:	0.400	yaw:	142.782	yaw rate:	-20.160	Roll:	-0.418	Pitch:	-4.564	Yaw:	203.362	Thrust:	50.291
Time:	5.720	Roll Set Point:	-0.069	Pitch Set Point:	0.032	Yaw Set Point:	-2.496	X_WP:	0.000	Y_WP:	0.000	Y_WP:	0.500	X:	0.082	Y:	0.087	Z:	0.400	yaw:	143.006	yaw rate:	22.448	Roll:	-0.699	Pitch:	-4.371	Yaw:	205.027	Thrust:	42.582
Time:	5.766	Roll Set Point:	-0.069	Pitch Set Point:	0.032	Yaw Set Point:	-2.495	X_WP:	0.000	Y_WP:	0.000	Y_WP:	0.500	X:	0.082	Y:	0.087	Z:	0.400	yaw:	142.946	yaw rate:	2.046	Roll:	-0.463	Pitch:	-4.590	Yaw:	203.917	Thrust:	51.460
Time:	5.797	Roll Set Point:	-0.069	Pitch Set Point:	0.032	Yaw Set Point:	-2.498	X_WP:	0.000	Y_WP:	0.000	Y_WP:	0.500	X:	0.082	Y:	0.087	Z:	0.400	yaw:	143.124	yaw rate:	19.601	Roll:	-0.755	Pitch:	-4.197	Yaw:	204.443	Thrust:	36.299
Time:	5.844	Roll Set Point:	-0.069	Pitch Set Point:	0.032	Yaw Set Point:	-2.492	X_WP:	0.000	Y_WP:	0.000	Y_WP:	0.500	X:	0.082	Y:	0.087	Z:	0.400	yaw:	142.785	yaw rate:	-33.850	Roll:	-0.205	Pitch:	-4.597	Yaw:	202.123	Thrust:	52.615
Time:	5.875	Roll Set Point:	-0.069	Pitch Set Point:	0.032	Yaw Set Point:	-2.496	X_WP:	0.000	Y_WP:	0.000	Y_WP:	0.500	X:	0.082	Y:	0.087	Z:	0.400	yaw:	142.987	yaw rate:	11.082	Roll:	-0.719	Pitch:	-4.262	Yaw:	204.458	Thrust:	37.235
Time:	5.911	Roll Set Point:	-0.069	Pitch Set Point:	0.032	Yaw Set Point:	-2.495	X_WP:	0.000	Y_WP:	0.000	Y_WP:	0.500	X:	0.082	Y:	0.087	Z:	0.400	yaw:	142.948	yaw rate:	-3.972	Roll:	-0.455	Pitch:	-4.354	Yaw:	202.860	Thrust:	42.283
Time:	5.962	Roll Set Point:	-0.069	Pitch Set Point:	0.032	Yaw Set Point:	-2.498	X_WP:	0.000	Y_WP:	0.000	Y_WP:	0.500	X:	0.082	Y:	0.087	Z:	0.400	yaw:	143.110	yaw rate:	18.264	Roll:	-0.702	Pitch:	-4.755	Yaw:	205.804	Thrust:	59.354
Time:	5.992	Roll Set Point:	-0.069	Pitch Set Point:	0.032	Yaw Set Point:	-2.495	X_WP:	0.000	Y_WP:	0.000	Y_WP:	0.500	X:	0.082	Y:	0.087	Z:	0.400	yaw:	142.931	yaw rate:	-17.872	Roll:	-0.223	Pitch:	-4.275	Yaw:	201.097	Thrust:	37.918
Time:	6.032	Roll Set Point:	-0.108	Pitch Set Point:	-0.030	Yaw Set Point:	-2.495	X_WP:	0.069	Y_WP:	0.026	Y_WP:	0.500	X:	0.082	Y:	0.087	Z:	0.400	yaw:	142.956	yaw rate:	-3.349	Roll:	17.419	Pitch:	24.022	Yaw:	203.732	Thrust:	47.854
Time:	6.079	Roll Set Point:	-0.109	Pitch Set Point:	-0.030	Yaw Set Point:	-2.493	X_WP:	0.069	Y_WP:	0.026	Y_WP:	0.500	X:	0.082	Y:	0.087	Z:	0.400	yaw:	142.846	yaw rate:	-10.572	Roll:	0.667	Pitch:	-2.847	Yaw:	203.494	Thrust:	55.862
Time:	6.110	Roll Set Point:	-0.108	Pitch Set Point:	-0.030	Yaw Set Point:	-2.495	X_WP:	0.069	Y_WP:	0.026	Y_WP:	0.500	X:	0.082	Y:	0.087	Z:	0.400	yaw:	142.967	yaw rate:	-12.038	Roll:	0.603	Pitch:	-2.514	Yaw:	203.750	Thrust:	39.499
Time:	6.150	Roll Set Point:	-0.109	Pitch Set Point:	-0.030	Yaw Set Point:	-2.493	X_WP:	0.069	Y_WP:	0.026	Y_WP:	0.500	X:	0.082	Y:	0.087	Z:	0.400	yaw:	142.814	yaw rate:	-28.529	Roll:	0.714	Pitch:	-2.689	Yaw:	202.413	Thrust:	49.743
Time:	6.183	Roll Set Point:	-0.109	Pitch Set Point:	-0.030	Yaw Set Point:	-2.494	X_WP:	0.069	Y_WP:	0.026	Y_WP:	0.500	X:	0.082	Y:	0.087	Z:	0.400	yaw:	142.917	yaw rate:	10.325	Roll:	0.617	Pitch:	-2.548	Yaw:	203.675	Thrust:	42.562
Time:	6.212	Roll Set Point:	-0.108	Pitch Set Point:	-0.030	Yaw Set Point:	-2.495	X_WP:	0.069	Y_WP:	0.026	Y_WP:	0.500	X:	0.082	Y:	0.087	Z:	0.400	yaw:	142.979	yaw rate:	4.031	Roll:	0.646	Pitch:	-2.436	Yaw:	203.062	Thrust:	37.794
Time:	6.251	Roll Set Point:	-0.108	Pitch Set Point:	-0.030	Yaw Set Point:	-2.494	X_WP:	0.069	Y_WP:	0.026	Y_WP:	0.500	X:	0.082	Y:	0.087	Z:	0.400	yaw:	142.924	yaw rate:	-5.483	Roll:	0.679	Pitch:	-2.726	Yaw:	203.158	Thrust:	50.671
Time:	6.298	Roll Set Point:	-0.109	Pitch Set Point:	-0.030	Yaw Set Point:	-2.495	X_WP:	0.069	Y_WP:	0.026	Y_WP:	0.500	X:	0.082	Y:	0.087	Z:	0.400	yaw:	142.935	yaw rate:	7.753	Roll:	0.638	Pitch:	-2.911	Yaw:	204.304	Thrust:	59.275
Time:	6.338	Roll Set Point:	-0.108	Pitch Set Point:	-0.030	Yaw Set Point:	-2.498	X_WP:	0.069	Y_WP:	0.026	Y_WP:	0.500	X:	0.082	Y:	0.087	Z:	0.400	yaw:	143.112	yaw rate:	17.653	Roll:	0.583	Pitch:	-2.793	Yaw:	204.984	Thrust:	52.107
Time:	6.375	Roll Set Point:	-0.108	Pitch Set Point:	-0.030	Yaw Set Point:	-2.495	X_WP:	0.069	Y_WP:	0.026	Y_WP:	0.500	X:	0.082	Y:	0.087	Z:	0.400	yaw:	142.938	yaw rate:	-17.959	Roll:	0.741	Pitch:	-2.648	Yaw:	202.133	Thrust:	49.949
Time:	6.409	Roll Set Point:	-0.108	Pitch Set Point:	-0.030	Yaw Set Point:	-2.498	X_WP:	0.069	Y_WP:	0.026	Y_WP:	0.500	X:	0.082	Y:	0.087	Z:	0.400	yaw:	143.120	yaw rate:	13.640	Roll:	0.590	Pitch:	-2.596	Yaw:	204.583	Thrust:	44.653
Time:	6.454	Roll Set Point:	-0.108	Pitch Set Point:	-0.030	Yaw Set Point:	-2.495	X_WP:	0.069	Y_WP:	0.026	Y_WP:	0.500	X:	0.082	Y:	0.087	Z:	0.400	yaw:	142.967	yaw rate:	0.259	Roll:	0.711	Pitch:	-2.898	Yaw:	203.241	Thrust:	59.778
Time:	6.500	Roll Set Point:	-0.109	Pitch Set Point:	-0.030	Yaw Set Point:	-2.494	X_WP:	0.069	Y_WP:	0.026	Y_WP:	0.500	X:	0.082	Y:	0.087	Z:	0.400	yaw:	142.919	yaw rate:	-4.770	Roll:	0.673	Pitch:	-2.946	Yaw:	203.947	Thrust:	62.082
Time:	6.539	Roll Set Point:	-0.109	Pitch Set Point:	-0.030	Yaw Set Point:	-2.494	X_WP:	0.069	Y_WP:	0.026	Y_WP:	0.500	X:	0.082	Y:	0.087	Z:	0.400	yaw:	142.876	yaw rate:	8.606	Roll:	0.697	Pitch:	-2.710	Yaw:	203.060	Thrust:	52.131
Time:	6.586	Roll Set Point:	-0.108	Pitch Set Point:	-0.030	Yaw Set Point:	-2.496	X_WP:	0.069	Y_WP:	0.026	Y_WP:	0.500	X:	0.082	Y:	0.087	Z:	0.400	yaw:	143.017	yaw rate:	14.107	Roll:	0.609	Pitch:	-2.991	Yaw:	205.103	Thrust:	63.278
Time:	6.624	Roll Set Point:	-0.108	Pitch Set Point:	-0.030	Yaw Set Point:	-2.498	X_WP:	0.069	Y_WP:	0.026	Y_WP:	0.500	X:	0.082	Y:	0.087	Z:	0.400	yaw:	143.112	yaw rate:	11.921	Roll:	0.637	Pitch:	-2.762	Yaw:	204.367	Thrust:	53.522
Time:	6.656	Roll Set Point:	-0.109	Pitch Set Point:	-0.030	Yaw Set Point:	-2.494	X_WP:	0.069	Y_WP:	0.026	Y_WP:	0.500	X:	0.082	Y:	0.087	Z:	0.400	yaw:	142.917	yaw rate:	-19.413	Roll:	0.798	Pitch:	-2.519	Yaw:	201.095	Thrust:	46.084
Time:	6.702	Roll Set Point:	-0.108	Pitch Set Point:	-0.030	Yaw Set Point:	-2.498	X_WP:	0.069	Y_WP:	0.026	Y_WP:	0.500	X:	0.082	Y:	0.087	Z:	0.400	yaw:	143.103	yaw rate:	29.613	Roll:	0.602	Pitch:	-3.019	Yaw:	205.514	Thrust:	64.751
Time:	6.741	Roll Set Point:	-0.109	Pitch Set Point:	-0.030	Yaw Set Point:	-2.493	X_WP:	0.069	Y_WP:	0.026	Y_WP:	0.500	X:	0.082	Y:	0.087	Z:	0.400	yaw:	142.851	yaw rate:	-25.241	Roll:	0.797	Pitch:	-2.725	Yaw:	201.678	Thrust:	55.832
Time:	6.773	Roll Set Point:	-0.109	Pitch Set Point:	-0.030	Yaw Set Point:	-2.494	X_WP:	0.069	Y_WP:	0.026	Y_WP:	0.500	X:	0.082	Y:	0.087	Z:	0.400	yaw:	142.917	yaw rate:	-19.205	Roll:	0.669	Pitch:	-2.562	Yaw:	203.213	Thrust:	45.859
Time:	6.804	Roll Set Point:	-0.109	Pitch Set Point:	-0.030	Yaw Set Point:	-2.492	X_WP:	0.069	Y_WP:	0.026	Y_WP:	0.500	X:	0.082	Y:	0.087	Z:	0.400	yaw:	142.778	yaw rate:	-13.860	Roll:	0.787	Pitch:	-2.520	Yaw:	201.297	Thrust:	46.179
Time:	6.843	Roll Set Point:	-0.109	Pitch Set Point:	-0.030	Yaw Set Point:	-2.495	X_WP:	0.069	Y_WP:	0.026	Y_WP:	0.500	X:	0.082	Y:	0.087	Z:	0.400	yaw:	142.933	yaw rate:	-10.209	Roll:	0.631	Pitch:	-2.807	Yaw:	204.487	Thrust:	56.531
Time:	6.889	Roll Set Point:	-0.108	Pitch Set Point:	-0.030	Yaw Set Point:	-2.495	X_WP:	0.069	Y_WP:	0.026	Y_WP:	0.500	X:	0.082	Y:	0.087	Z:	0.400	yaw:	142.961	yaw rate:	-1.081	Roll:	0.675	Pitch:	-3.024	Yaw:	204.427	Thrust:	67.667
Time:	6.924	Roll Set Point:	-0.109	Pitch Set Point:	-0.030	Yaw Set Point:	-2.493	X_WP:	0.069	Y_WP:	0.026	Y_WP:	0.500	X:	0.082	Y:	0.087	Z:	0.400	yaw:	142.861	yaw rate:	-13.995	Roll:	0.754	Pitch:	-2.665	Yaw:	202.304	Thrust:	53.356
Time:	6.959	Roll Set Point:	-0.109	Pitch Set Point:	-0.030	Yaw Set Point:	-2.494	X_WP:	0.069	Y_WP:	0.026	Y_WP:	0.500	X:	0.082	Y:	0.087	Z:	0.400	yaw:	142.886	yaw rate:	2.502	Roll:	0.701	Pitch:	-2.681	Yaw:	203.153	Thrust:	52.465
Time:	6.990	Roll Set Point:	-0.108	Pitch Set Point:	-0.030	Yaw Set Point:	-2.495	X_WP:	0.069	Y_WP:	0.026	Y_WP:	0.500	X:	0.082	Y:	0.087	Z:	0.400	yaw:	142.968	yaw rate:	8.127	Roll:	0.671	Pitch:	-2.593	Yaw:	203.413	Thrust:	48.008
Time:	7.019	Roll Set Point:	-0.109	Pitch Set Point:	-0.030	Yaw Set Point:	-2.492	X_WP:	0.069	Y_WP:	0.026	Y_WP:	0.500	X:	0.082	Y:	0.087	Z:	0.400	yaw:	142.775	yaw rate:	-33.050	Roll:	0.836	Pitch:	-2.444	Yaw:	200.449	Thrust:	45.033
Time:	7.060	Roll Set Point:	-0.108	Pitch Set Point:	-0.030	Yaw Set Point:	-2.498	X_WP:	0.069	Y_WP:	0.026	Y_WP:	0.500	X:	0.082	Y:	0.087	Z:	0.400	yaw:	143.135	yaw rate:	3.654	Roll:	0.562	Pitch:	-2.972	Yaw:	206.255	Thrust:	62.653
Time:	7.091	Roll Set Point:	-0.108	Pitch Set Point:	-0.030	Yaw Set Point:	-2.496	X_WP:	0.069	Y_WP:	0.026	Y_WP:	0.500	X:	0.082	Y:	0.087	Z:	0.400	yaw:	142.989	yaw rate:	-14.618	Roll:	0.796	Pitch:	-2.550	Yaw:	201.527	Thrust:	49.332
Time:	7.118	Roll Set Point:	-0.109	Pitch Set Point:	-0.030	Yaw Set Point:	-2.494	X_WP:	0.069	Y_WP:	0.026	Y_WP:	0.500	X:	0.082	Y:	0.087	Z:	0.400	yaw:	142.868	yaw rate:	-20.823	Roll:	0.803	Pitch:	-2.435	Yaw:	201.093	Thrust:	43.879
Time:	7.162	Roll Set Point:	-0.108	Pitch Set Point:	-0.030	Yaw Set Point:	-2.497	X_WP:	0.069	Y_WP:	0.026	Y_WP:	0.500	X:	0.082	Y:	0.087	Z:	0.400	yaw:	143.087	yaw rate:	5.845	Roll:	0.626	Pitch:	-3.038	Yaw:	205.467	Thrust:	68.618
Time:	7.201	Roll Set Point:	-0.109	Pitch Set Point:	-0.030	Yaw Set Point:	-2.494	X_WP:	0.069	Y_WP:	0.026	Y_WP:	0.500	X:	0.082	Y:	0.087	Z:	0.400	yaw:	142.892	yaw rate:	6.174	Roll:	0.806	Pitch:	-2.790	Yaw:	202.115	Thrust:	61.811
Time:	7.230	Roll Set Point:	-0.109	Pitch Set Point:	-0.030	Yaw Set Point:	-2.494	X_WP:	0.069	Y_WP:	0.026	Y_WP:	0.500	X:	0.082	Y:	0.087	Z:	0.400	yaw:	142.876	yaw rate:	7.319	Roll:	0.743	Pitch:	-2.552	Yaw:	202.250	Thrust:	47.684
Time:	7.279	Roll Set Point:	-0.108	Pitch Set Point:	-0.030	Yaw Set Point:	-2.495	X_WP:	0.069	Y_WP:	0.026	Y_WP:	0.500	X:	0.082	Y:	0.087	Z:	0.400	yaw:	142.974	yaw rate:	16.795	Roll:	0.685	Pitch:	-3.172	Yaw:	205.023	Thrust:	76.806
Time:	7.310	Roll Set Point:	-0.109	Pitch Set Point:	-0.030	Yaw Set Point:	-2.493	X_WP:	0.069	Y_WP:	0.026	Y_WP:	0.500	X:	0.082	Y:	0.087	Z:	0.400	yaw:	142.852	yaw rate:	-26.094	Roll:	0.802	Pitch:	-2.589	Yaw:	201.563	Thrust:	51.603
Time:	7.349	Roll Set Point:	-0.109	Pitch Set Point:	-0.030	Yaw Set Point:	-2.493	X_WP:	0.069	Y_WP:	0.026	Y_WP:	0.500	X:	0.082	Y:	0.087	Z:	0.400	yaw:	142.821	yaw rate:	-3.063	Roll:	0.751	Pitch:	-2.841	Yaw:	203.047	Thrust:	62.743
Time:	7.380	Roll Set Point:	-0.109	Pitch Set Point:	-0.030	Yaw Set Point:	-2.494	X_WP:	0.069	Y_WP:	0.026	Y_WP:	0.500	X:	0.082	Y:	0.087	Z:	0.400	yaw:	142.898	yaw rate:	-7.661	Roll:	0.697	Pitch:	-2.641	Yaw:	203.282	Thrust:	52.166
Time:	7.410	Roll Set Point:	-0.108	Pitch Set Point:	-0.030	Yaw Set Point:	-2.496	X_WP:	0.069	Y_WP:	0.026	Y_WP:	0.500	X:	0.082	Y:	0.087	Z:	0.400	yaw:	143.012	yaw rate:	11.361	Roll:	0.678	Pitch:	-2.625	Yaw:	203.713	Thrust:	51.879
Time:	7.450	Roll Set Point:	-0.108	Pitch Set Point:	-0.030	Yaw Set Point:	-2.498	X_WP:	0.069	Y_WP:	0.026	Y_WP:	0.500	X:	0.082	Y:	0.087	Z:	0.400	yaw:	143.104	yaw rate:	-0.371	Roll:	0.707	Pitch:	-2.934	Yaw:	204.379	Thrust:	65.719
Time:	7.497	Roll Set Point:	-0.108	Pitch Set Point:	-0.030	Yaw Set Point:	-2.498	X_WP:	0.069	Y_WP:	0.026	Y_WP:	0.500	X:	0.082	Y:	0.087	Z:	0.400	yaw:	143.113	yaw rate:	14.293	Roll:	0.729	Pitch:	-3.133	Yaw:	204.540	Thrust:	77.152
Time:	7.528	Roll Set Point:	-0.108	Pitch Set Point:	-0.030	Yaw Set Point:	-2.495	X_WP:	0.069	Y_WP:	0.026	Y_WP:	0.500	X:	0.082	Y:	0.087	Z:	0.400	yaw:	142.966	yaw rate:	9.426	Roll:	0.823	Pitch:	-2.609	Yaw:	201.491	Thrust:	53.963
Time:	7.569	Roll Set Point:	-0.108	Pitch Set Point:	-0.030	Yaw Set Point:	-2.498	X_WP:	0.069	Y_WP:	0.026	Y_WP:	0.500	X:	0.082	Y:	0.087	Z:	0.400	yaw:	143.106	yaw rate:	14.030	Roll:	0.688	Pitch:	-3.006	Yaw:	204.856	Thrust:	70.251
Time:	7.616	Roll Set Point:	-0.109	Pitch Set Point:	-0.030	Yaw Set Point:	-2.494	X_WP:	0.069	Y_WP:	0.026	Y_WP:	0.500	X:	0.082	Y:	0.087	Z:	0.400	yaw:	142.911	yaw rate:	11.627	Roll:	0.818	Pitch:	-3.124	Yaw:	203.115	Thrust:	79.111
Time:	7.652	Roll Set Point:	-0.108	Pitch Set Point:	-0.030	Yaw Set Point:	-2.498	X_WP:	0.069	Y_WP:	0.026	Y_WP:	0.500	X:	0.082	Y:	0.087	Z:	0.400	yaw:	143.121	yaw rate:	26.051	Roll:	0.653	Pitch:	-2.875	Yaw:	204.993	Thrust:	63.258
Time:	7.699	Roll Set Point:	-0.108	Pitch Set Point:	-0.030	Yaw Set Point:	-2.496	X_WP:	0.069	Y_WP:	0.026	Y_WP:	0.500	X:	0.082	Y:	0.087	Z:	0.400	yaw:	143.011	yaw rate:	2.182	Roll:	0.790	Pitch:	-3.152	Yaw:	203.726	Thrust:	80.116
Time:	7.734	Roll Set Point:	-0.109	Pitch Set Point:	-0.030	Yaw Set Point:	-2.495	X_WP:	0.069	Y_WP:	0.026	Y_WP:	0.500	X:	0.082	Y:	0.087	Z:	0.400	yaw:	142.948	yaw rate:	6.777	Roll:	0.788	Pitch:	-2.744	Yaw:	202.521	Thrust:	60.368
Time:	7.769	Roll Set Point:	-0.108	Pitch Set Point:	-0.030	Yaw Set Point:	-2.498	X_WP:	0.069	Y_WP:	0.026	Y_WP:	0.500	X:	0.082	Y:	0.087	Z:	0.400	yaw:	143.120	yaw rate:	8.681	Roll:	0.675	Pitch:	-2.866	Yaw:	204.692	Thrust:	63.833
Time:	7.801	Roll Set Point:	-0.108	Pitch Set Point:	-0.030	Yaw Set Point:	-2.498	X_WP:	0.069	Y_WP:	0.026	Y_WP:	0.500	X:	0.082	Y:	0.087	Z:	0.400	yaw:	143.128	yaw rate:	0.797	Roll:	0.754	Pitch:	-2.678	Yaw:	203.069	Thrust:	57.109
Time:	7.850	Roll Set Point:	-0.109	Pitch Set Point:	-0.030	Yaw Set Point:	-2.494	X_WP:	0.069	Y_WP:	0.026	Y_WP:	0.500	X:	0.082	Y:	0.087	Z:	0.400	yaw:	142.916	yaw rate:	-21.253	Roll:	0.836	Pitch:	-3.274	Yaw:	203.390	Thrust:	87.211
Time:	7.882	Roll Set Point:	-0.108	Pitch Set Point:	-0.030	Yaw Set Point:	-2.496	X_WP:	0.069	Y_WP:	0.026	Y_WP:	0.500	X:	0.082	Y:	0.087	Z:	0.400	yaw:	143.014	yaw rate:	-0.848	Roll:	0.712	Pitch:	-2.709	Yaw:	203.624	Thrust:	57.155
Time:	7.913	Roll Set Point:	-0.109	Pitch Set Point:	-0.030	Yaw Set Point:	-2.495	X_WP:	0.069	Y_WP:	0.026	Y_WP:	0.500	X:	0.082	Y:	0.087	Z:	0.400	yaw:	142.924	yaw rate:	-8.791	Roll:	0.817	Pitch:	-2.661	Yaw:	201.910	Thrust:	57.335
Time:	7.944	Roll Set Point:	-0.108	Pitch Set Point:	-0.030	Yaw Set Point:	-2.498	X_WP:	0.069	Y_WP:	0.026	Y_WP:	0.500	X:	0.082	Y:	0.087	Z:	0.400	yaw:	143.125	yaw rate:	33.686	Roll:	0.652	Pitch:	-2.736	Yaw:	204.640	Thrust:	57.902
Time:	7.990	Roll Set Point:	-0.109	Pitch Set Point:	-0.030	Yaw Set Point:	-2.494	X_WP:	0.069	Y_WP:	0.026	Y_WP:	0.500	X:	0.082	Y:	0.087	Z:	0.400	yaw:	142.922	yaw rate:	8.246	Roll:	0.854	Pitch:	-3.168	Yaw:	203.079	Thrust:	84.394
Time:	8.021	Roll Set Point:	-0.108	Pitch Set Point:	-0.030	Yaw Set Point:	-2.498	X_WP:	0.069	Y_WP:	0.026	Y_WP:	0.500	X:	0.082	Y:	0.087	Z:	0.400	yaw:	143.130	yaw rate:	10.988	Roll:	0.658	Pitch:	-2.763	Yaw:	204.704	Thrust:	58.291
Time:	8.052	Roll Set Point:	-0.108	Pitch Set Point:	-0.030	Yaw Set Point:	-2.496	X_WP:	0.069	Y_WP:	0.026	Y_WP:	0.500	X:	0.082	Y:	0.087	Z:	0.400	yaw:	143.008	yaw rate:	7.347	Roll:	0.839	Pitch:	-2.678	Yaw:	201.759	Thrust:	59.097
Time:	8.088	Roll Set Point:	-0.109	Pitch Set Point:	-0.030	Yaw Set Point:	-2.492	X_WP:	0.069	Y_WP:	0.026	Y_WP:	0.500	X:	0.082	Y:	0.087	Z:	0.400	yaw:	142.788	yaw rate:	-26.950	Roll:	0.888	Pitch:	-2.773	Yaw:	201.172	Thrust:	65.361
Time:	8.120	Roll Set Point:	-0.108	Pitch Set Point:	-0.030	Yaw Set Point:	-2.495	X_WP:	0.069	Y_WP:	0.026	Y_WP:	0.500	X:	0.082	Y:	0.087	Z:	0.400	yaw:	142.936	yaw rate:	14.757	Roll:	0.704	Pitch:	-2.797	Yaw:	204.019	Thrust:	62.147
Time:	8.166	Roll Set Point:	-0.108	Pitch Set Point:	-0.030	Yaw Set Point:	-2.498	X_WP:	0.069	Y_WP:	0.026	Y_WP:	0.500	X:	0.082	Y:	0.087	Z:	0.400	yaw:	143.123	yaw rate:	14.439	Roll:	0.724	Pitch:	-3.282	Yaw:	205.547	Thrust:	87.168
Time:	8.196	Roll Set Point:	-0.109	Pitch Set Point:	-0.030	Yaw Set Point:	-2.493	X_WP:	0.069	Y_WP:	0.026	Y_WP:	0.500	X:	0.082	Y:	0.087	Z:	0.400	yaw:	142.849	yaw rate:	-27.395	Roll:	0.937	Pitch:	-2.577	Yaw:	199.987	Thrust:	57.926
Time:	8.235	Roll Set Point:	-0.109	Pitch Set Point:	-0.030	Yaw Set Point:	-2.492	X_WP:	0.069	Y_WP:	0.026	Y_WP:	0.500	X:	0.082	Y:	0.087	Z:	0.400	yaw:	142.802	yaw rate:	-7.403	Roll:	0.819	Pitch:	-2.992	Yaw:	202.984	Thrust:	74.901
Time:	8.263	Roll Set Point:	-0.109	Pitch Set Point:	-0.030	Yaw Set Point:	-2.494	X_WP:	0.069	Y_WP:	0.026	Y_WP:	0.500	X:	0.082	Y:	0.087	Z:	0.400	yaw:	142.919	yaw rate:	11.733	Roll:	0.717	Pitch:	-2.656	Yaw:	203.454	Thrust:	55.903
Time:	8.300	Roll Set Point:	-0.108	Pitch Set Point:	-0.030	Yaw Set Point:	-2.498	X_WP:	0.069	Y_WP:	0.026	Y_WP:	0.500	X:	0.082	Y:	0.087	Z:	0.400	yaw:	143.101	yaw rate:	17.718	Roll:	0.709	Pitch:	-2.962	Yaw:	204.740	Thrust:	70.341
Time:	8.335	Roll Set Point:	-0.109	Pitch Set Point:	-0.030	Yaw Set Point:	-2.492	X_WP:	0.069	Y_WP:	0.026	Y_WP:	0.500	X:	0.082	Y:	0.087	Z:	0.400	yaw:	142.794	yaw rate:	-30.772	Roll:	0.942	Pitch:	-2.846	Yaw:	200.755	Thrust:	71.162
Time:	8.382	Roll Set Point:	-0.108	Pitch Set Point:	-0.030	Yaw Set Point:	-2.497	X_WP:	0.069	Y_WP:	0.026	Y_WP:	0.500	X:	0.082	Y:	0.087	Z:	0.400	yaw:	143.080	yaw rate:	18.299	Roll:	0.706	Pitch:	-3.341	Yaw:	206.045	Thrust:	90.615
Time:	8.427	Roll Set Point:	-0.109	Pitch Set Point:	-0.030	Yaw Set Point:	-2.493	X_WP:	0.069	Y_WP:	0.026	Y_WP:	0.500	X:	0.082	Y:	0.087	Z:	0.400	yaw:	142.814	yaw rate:	-15.079	Roll:	0.915	Pitch:	-3.196	Yaw:	202.379	Thrust:	88.341
Time:	8.474	Roll Set Point:	-0.108	Pitch Set Point:	-0.030	Yaw Set Point:	-2.498	X_WP:	0.069	Y_WP:	0.026	Y_WP:	0.500	X:	0.082	Y:	0.087	Z:	0.400	yaw:	143.105	yaw rate:	16.118	Roll:	0.711	Pitch:	-3.353	Yaw:	206.111	Thrust:	91.761
Time:	8.522	Roll Set Point:	-0.108	Pitch Set Point:	-0.030	Yaw Set Point:	-2.496	X_WP:	0.069	Y_WP:	0.026	Y_WP:	0.500	X:	0.082	Y:	0.087	Z:	0.400	yaw:	142.994	yaw rate:	-11.086	Roll:	0.857	Pitch:	-3.329	Yaw:	203.865	Thrust:	95.133
Time:	8.567	Roll Set Point:	-0.109	Pitch Set Point:	-0.030	Yaw Set Point:	-2.494	X_WP:	0.069	Y_WP:	0.026	Y_WP:	0.500	X:	0.082	Y:	0.087	Z:	0.400	yaw:	142.876	yaw rate:	-10.585	Roll:	0.869	Pitch:	-3.262	Yaw:	203.322	Thrust:	90.026
Time:	8.598	Roll Set Point:	-0.109	Pitch Set Point:	-0.030	Yaw Set Point:	-2.494	X_WP:	0.069	Y_WP:	0.026	Y_WP:	0.500	X:	0.082	Y:	0.087	Z:	0.400	yaw:	142.901	yaw rate:	2.457	Roll:	0.792	Pitch:	-2.770	Yaw:	202.842	Thrust:	64.167
Time:	8.645	Roll Set Point:	-0.108	Pitch Set Point:	-0.030	Yaw Set Point:	-2.498	X_WP:	0.069	Y_WP:	0.026	Y_WP:	0.500	X:	0.082	Y:	0.087	Z:	0.400	yaw:	143.115	yaw rate:	1.009	Roll:	0.752	Pitch:	-3.367	Yaw:	205.691	Thrust:	93.827
Time:	8.691	Roll Set Point:	-0.108	Pitch Set Point:	-0.030	Yaw Set Point:	-2.497	X_WP:	0.069	Y_WP:	0.026	Y_WP:	0.500	X:	0.082	Y:	0.087	Z:	0.400	yaw:	143.062	yaw rate:	7.941	Roll:	0.846	Pitch:	-3.330	Yaw:	204.118	Thrust:	94.681
Time:	8.731	Roll Set Point:	-0.108	Pitch Set Point:	-0.030	Yaw Set Point:	-2.496	X_WP:	0.069	Y_WP:	0.026	Y_WP:	0.500	X:	0.082	Y:	0.087	Z:	0.400	yaw:	143.020	yaw rate:	13.681	Roll:	0.840	Pitch:	-3.080	Yaw:	203.373	Thrust:	81.631
Time:	8.762	Roll Set Point:	-0.108	Pitch Set Point:	-0.030	Yaw Set Point:	-2.496	X_WP:	0.069	Y_WP:	0.026	Y_WP:	0.500	X:	0.082	Y:	0.087	Z:	0.400	yaw:	143.010	yaw rate:	9.864	Roll:	0.815	Pitch:	-2.778	Yaw:	202.709	Thrust:	65.542
Time:	8.808	Roll Set Point:	-0.108	Pitch Set Point:	-0.030	Yaw Set Point:	-2.497	X_WP:	0.069	Y_WP:	0.026	Y_WP:	0.500	X:	0.082	Y:	0.087	Z:	0.400	yaw:	143.096	yaw rate:	-2.903	Roll:	0.811	Pitch:	-3.373	Yaw:	204.941	Thrust:	96.130
Time:	8.848	Roll Set Point:	-0.108	Pitch Set Point:	-0.030	Yaw Set Point:	-2.498	X_WP:	0.069	Y_WP:	0.026	Y_WP:	0.500	X:	0.082	Y:	0.087	Z:	0.400	yaw:	143.100	yaw rate:	-1.407	Roll:	0.825	Pitch:	-3.088	Yaw:	203.796	Thrust:	83.012
Time:	8.879	Roll Set Point:	-0.108	Pitch Set Point:	-0.030	Yaw Set Point:	-2.496	X_WP:	0.069	Y_WP:	0.026	Y_WP:	0.500	X:	0.082	Y:	0.087	Z:	0.400	yaw:	143.032	yaw rate:	6.207	Roll:	0.849	Pitch:	-2.779	Yaw:	202.189	Thrust:	65.992
Time:	8.910	Roll Set Point:	-0.108	Pitch Set Point:	-0.030	Yaw Set Point:	-2.498	X_WP:	0.069	Y_WP:	0.026	Y_WP:	0.500	X:	0.082	Y:	0.087	Z:	0.400	yaw:	143.104	yaw rate:	7.158	Roll:	0.780	Pitch:	-2.815	Yaw:	203.522	Thrust:	66.801
Time:	8.949	Roll Set Point:	-0.108	Pitch Set Point:	-0.030	Yaw Set Point:	-2.495	X_WP:	0.069	Y_WP:	0.026	Y_WP:	0.500	X:	0.082	Y:	0.087	Z:	0.400	yaw:	142.958	yaw rate:	-12.640	Roll:	0.899	Pitch:	-3.095	Yaw:	202.601	Thrust:	84.648
Time:	8.996	Roll Set Point:	-0.109	Pitch Set Point:	-0.030	Yaw Set Point:	-2.493	X_WP:	0.069	Y_WP:	0.026	Y_WP:	0.500	X:	0.082	Y:	0.087	Z:	0.400	yaw:	142.815	yaw rate:	-14.325	Roll:	0.913	Pitch:	-3.362	Yaw:	203.265	Thrust:	98.903
Time:	9.037	Roll Set Point:	-0.108	Pitch Set Point:	-0.030	Yaw Set Point:	-2.497	X_WP:	0.069	Y_WP:	0.026	Y_WP:	0.500	X:	0.082	Y:	0.087	Z:	0.400	yaw:	143.074	yaw rate:	-7.196	Roll:	0.738	Pitch:	-3.201	Yaw:	205.476	Thrust:	86.423
Time:	9.083	Roll Set Point:	-0.109	Pitch Set Point:	-0.030	Yaw Set Point:	-2.493	X_WP:	0.069	Y_WP:	0.026	Y_WP:	0.500	X:	0.082	Y:	0.087	Z:	0.400	yaw:	142.827	yaw rate:	-27.759	Roll:	0.952	Pitch:	-3.346	Yaw:	202.695	Thrust:	100.000
Time:	9.117	Roll Set Point:	-0.109	Pitch Set Point:	-0.030	Yaw Set Point:	-2.494	X_WP:	0.069	Y_WP:	0.026	Y_WP:	0.500	X:	0.082	Y:	0.087	Z:	0.400	yaw:	142.899	yaw rate:	7.202	Roll:	0.808	Pitch:	-2.937	Yaw:	203.528	Thrust:	75.121
Time:	9.154	Roll Set Point:	-0.109	Pitch Set Point:	-0.030	Yaw Set Point:	-2.494	X_WP:	0.069	Y_WP:	0.026	Y_WP:	0.500	X:	0.082	Y:	0.087	Z:	0.400	yaw:	142.910	yaw rate:	11.894	Roll:	0.840	Pitch:	-3.035	Yaw:	203.277	Thrust:	81.817
Time:	9.185	Roll Set Point:	-0.109	Pitch Set Point:	-0.030	Yaw Set Point:	-2.494	X_WP:	0.069	Y_WP:	0.026	Y_WP:	0.500	X:	0.082	Y:	0.087	Z:	0.400	yaw:	142.878	yaw rate:	-3.115	Roll:	0.855	Pitch:	-2.786	Yaw:	202.342	Thrust:	69.613
Time:	9.216	Roll Set Point:	-0.108	Pitch Set Point:	-0.030	Yaw Set Point:	-2.498	X_WP:	0.069	Y_WP:	0.026	Y_WP:	0.500	X:	0.082	Y:	0.087	Z:	0.400	yaw:	143.117	yaw rate:	24.952	Roll:	0.707	Pitch:	-2.861	Yaw:	204.943	Thrust:	68.951
Time:	9.255	Roll Set Point:	-0.109	Pitch Set Point:	-0.030	Yaw Set Point:	-2.495	X_WP:	0.069	Y_WP:	0.026	Y_WP:	0.500	X:	0.082	Y:	0.087	Z:	0.400	yaw:	142.926	yaw rate:	-4.913	Roll:	0.939	Pitch:	-3.074	Yaw:	202.129	Thrust:	87.388
Time:	9.286	Roll Set Point:	-0.109	Pitch Set Point:	-0.030	Yaw Set Point:	-2.495	X_WP:	0.069	Y_WP:	0.026	Y_WP:	0.500	X:	0.082	Y:	0.087	Z:	0.400	yaw:	142.956	yaw rate:	2.976	Roll:	0.827	Pitch:	-2.815	Yaw:	202.965	Thrust:	70.869
Time:	9.340	Roll Set Point:	-0.108	Pitch Set Point:	-0.030	Yaw Set Point:	-2.498	X_WP:	0.069	Y_WP:	0.026	Y_WP:	0.500	X:	0.082	Y:	0.087	Z:	0.400	yaw:	143.105	yaw rate:	7.573	Roll:	0.855	Pitch:	-3.690	Yaw:	205.992	Thrust:	100.000
Time:	9.371	Roll Set Point:	-0.109	Pitch Set Point:	-0.030	Yaw Set Point:	-2.493	X_WP:	0.069	Y_WP:	0.026	Y_WP:	0.500	X:	0.082	Y:	0.087	Z:	0.400	yaw:	142.848	yaw rate:	3.953	Roll:	0.986	Pitch:	-2.767	Yaw:	200.399	Thrust:	71.477
Time:	9.401	Roll Set Point:	-0.108	Pitch Set Point:	-0.030	Yaw Set Point:	-2.496	X_WP:	0.069	Y_WP:	0.026	Y_WP:	0.500	X:	0.082	Y:	0.087	Z:	0.400	yaw:	142.992	yaw rate:	4.374	Roll:	0.756	Pitch:	-2.774	Yaw:	203.855	Thrust:	67.915
Time:	9.445	Roll Set Point:	-0.109	Pitch Set Point:	-0.030	Yaw Set Point:	-2.494	X_WP:	0.069	Y_WP:	0.026	Y_WP:	0.500	X:	0.082	Y:	0.087	Z:	0.400	yaw:	142.897	yaw rate:	-3.222	Roll:	0.924	Pitch:	-3.259	Yaw:	203.367	Thrust:	99.262
Time:	9.491	Roll Set Point:	-0.108	Pitch Set Point:	-0.030	Yaw Set Point:	-2.495	X_WP:	0.069	Y_WP:	0.026	Y_WP:	0.500	X:	0.082	Y:	0.087	Z:	0.400	yaw:	142.971	yaw rate:	7.489	Roll:	0.866	Pitch:	-3.403	Yaw:	204.663	Thrust:	100.000
Time:	9.545	Roll Set Point:	-0.109	Pitch Set Point:	-0.030	Yaw Set Point:	-2.494	X_WP:	0.069	Y_WP:	0.026	Y_WP:	0.500	X:	0.082	Y:	0.087	Z:	0.400	yaw:	142.871	yaw rate:	3.243	Roll:	0.958	Pitch:	-3.659	Yaw:	204.414	Thrust:	100.000
Time:	9.576	Roll Set Point:	-0.108	Pitch Set Point:	-0.030	Yaw Set Point:	-2.495	X_WP:	0.069	Y_WP:	0.026	Y_WP:	0.500	X:	0.082	Y:	0.087	Z:	0.400	yaw:	142.967	yaw rate:	-16.017	Roll:	0.799	Pitch:	-2.827	Yaw:	203.540	Thrust:	73.500
Time:	9.607	Roll Set Point:	-0.108	Pitch Set Point:	-0.030	Yaw Set Point:	-2.498	X_WP:	0.069	Y_WP:	0.026	Y_WP:	0.500	X:	0.082	Y:	0.087	Z:	0.400	yaw:	143.113	yaw rate:	14.544	Roll:	0.781	Pitch:	-2.843	Yaw:	204.156	Thrust:	73.643
Time:	9.646	Roll Set Point:	-0.109	Pitch Set Point:	-0.030	Yaw Set Point:	-2.494	X_WP:	0.069	Y_WP:	0.026	Y_WP:	0.500	X:	0.082	Y:	0.087	Z:	0.400	yaw:	142.916	yaw rate:	-3.523	Roll:	0.967	Pitch:	-3.054	Yaw:	202.078	Thrust:	90.878
Time:	9.677	Roll Set Point:	-0.109	Pitch Set Point:	-0.030	Yaw Set Point:	-2.495	X_WP:	0.069	Y_WP:	0.026	Y_WP:	0.500	X:	0.082	Y:	0.087	Z:	0.400	yaw:	142.924	yaw rate:	-20.507	Roll:	0.856	Pitch:	-2.807	Yaw:	202.736	Thrust:	74.632
Time:	9.714	Roll Set Point:	-0.108	Pitch Set Point:	-0.030	Yaw Set Point:	-2.498	X_WP:	0.069	Y_WP:	0.026	Y_WP:	0.500	X:	0.082	Y:	0.087	Z:	0.400	yaw:	143.122	yaw rate:	19.721	Roll:	0.796	Pitch:	-3.073	Yaw:	204.937	Thrust:	88.242
Time:	9.746	Roll Set Point:	-0.109	Pitch Set Point:	-0.030	Yaw Set Point:	-2.493	X_WP:	0.069	Y_WP:	0.026	Y_WP:	0.500	X:	0.082	Y:	0.087	Z:	0.400	yaw:	142.844	yaw rate:	-8.909	Roll:	1.014	Pitch:	-2.803	Yaw:	200.472	Thrust:	78.731
Time:	9.793	Roll Set Point:	-0.109	Pitch Set Point:	-0.030	Yaw Set Point:	-2.495	X_WP:	0.069	Y_WP:	0.026	Y_WP:	0.500	X:	0.082	Y:	0.087	Z:	0.400	yaw:	142.950	yaw rate:	-31.886	Roll:	0.883	Pitch:	-3.405	Yaw:	204.853	Thrust:	100.000
Time:	9.825	Roll Set Point:	-0.108	Pitch Set Point:	-0.030	Yaw Set Point:	-2.498	X_WP:	0.069	Y_WP:	0.026	Y_WP:	0.500	X:	0.082	Y:	0.087	Z:	0.400	yaw:	143.110	yaw rate:	16.071	Roll:	0.782	Pitch:	-2.851	Yaw:	204.282	Thrust:	75.858
Time:	9.864	Roll Set Point:	-0.109	Pitch Set Point:	-0.030	Yaw Set Point:	-2.492	X_WP:	0.069	Y_WP:	0.026	Y_WP:	0.500	X:	0.082	Y:	0.087	Z:	0.400	yaw:	142.770	yaw rate:	-17.163	Roll:	1.049	Pitch:	-3.041	Yaw:	200.975	Thrust:	94.839
Time:	9.894	Roll Set Point:	-0.109	Pitch Set Point:	-0.030	Yaw Set Point:	-2.494	X_WP:	0.069	Y_WP:	0.026	Y_WP:	0.500	X:	0.082	Y:	0.087	Z:	0.400	yaw:	142.878	yaw rate:	0.008	Roll:	0.815	Pitch:	-2.833	Yaw:	203.514	Thrust:	76.895
Time:	9.927	Roll Set Point:	-0.109	Pitch Set Point:	-0.030	Yaw Set Point:	-2.495	X_WP:	0.069	Y_WP:	0.026	Y_WP:	0.500	X:	0.082	Y:	0.087	Z:	0.400	yaw:	142.961	yaw rate:	2.452	Roll:	0.840	Pitch:	-2.885	Yaw:	203.578	Thrust:	80.587
Time:	9.964	Roll Set Point:	-0.108	Pitch Set Point:	-0.030	Yaw Set Point:	-2.498	X_WP:	0.069	Y_WP:	0.026	Y_WP:	0.500	X:	0.082	Y:	0.087	Z:	0.400	yaw:	143.114	yaw rate:	31.577	Roll:	0.826	Pitch:	-3.063	Yaw:	204.574	Thrust:	91.371
Time:	10.011	Roll Set Point:	-0.108	Pitch Set Point:	-0.030	Yaw Set Point:	-2.498	X_WP:	0.069	Y_WP:	0.026	Y_WP:	0.500	X:	0.082	Y:	0.087	Z:	0.400	yaw:	143.110	yaw rate:	-0.331	Roll:	0.938	Pitch:	-3.393	Yaw:	204.463	Thrust:	100.000
Time:	10.049	Roll Set Point:	-0.108	Pitch Set Point:	-0.030	Yaw Set Point:	-2.498	X_WP:	0.069	Y_WP:	0.026	Y_WP:	0.500	X:	0.082	Y:	0.087	Z:	0.400	yaw:	143.115	yaw rate:	13.307	Roll:	0.903	Pitch:	-3.090	Yaw:	203.717	Thrust:	95.895
Time:	10.080	Roll Set Point:	-0.109	Pitch Set Point:	-0.030	Yaw Set Point:	-2.494	X_WP:	0.069	Y_WP:	0.026	Y_WP:	0.500	X:	0.082	Y:	0.087	Z:	0.400	yaw:	142.917	yaw rate:	-4.334	Roll:	0.989	Pitch:	-2.763	Yaw:	200.993	Thrust:	78.747
Time:	10.112	Roll Set Point:	-0.109	Pitch Set Point:	-0.030	Yaw Set Point:	-2.494	X_WP:	0.069	Y_WP:	0.026	Y_WP:	0.500	X:	0.082	Y:	0.087	Z:	0.400	yaw:	142.913	yaw rate:	-6.071	Roll:	0.890	Pitch:	-2.806	Yaw:	202.620	Thrust:	79.189
Time:	10.150	Roll Set Point:	-0.108	Pitch Set Point:	-0.030	Yaw Set Point:	-2.498	X_WP:	0.069	Y_WP:	0.026	Y_WP:	0.500	X:	0.082	Y:	0.087	Z:	0.400	yaw:	143.103	yaw rate:	18.975	Roll:	0.830	Pitch:	-3.125	Yaw:	204.957	Thrust:	97.122
Time:	10.181	Roll Set Point:	-0.108	Pitch Set Point:	-0.030	Yaw Set Point:	-2.498	X_WP:	0.069	Y_WP:	0.026	Y_WP:	0.500	X:	0.082	Y:	0.087	Z:	0.400	yaw:	143.107	yaw rate:	-0.635	Roll:	0.890	Pitch:	-2.802	Yaw:	202.960	Thrust:	78.973
Time:	10.213	Roll Set Point:	-0.108	Pitch Set Point:	-0.030	Yaw Set Point:	-2.498	X_WP:	0.069	Y_WP:	0.026	Y_WP:	0.500	X:	0.082	Y:	0.087	Z:	0.400	yaw:	143.105	yaw rate:	11.441	Roll:	0.889	Pitch:	-2.839	Yaw:	203.003	Thrust:	83.427
Time:	10.252	Roll Set Point:	-0.108	Pitch Set Point:	-0.030	Yaw Set Point:	-2.498	X_WP:	0.069	Y_WP:	0.026	Y_WP:	0.500	X:	0.082	Y:	0.087	Z:	0.400	yaw:	143.126	yaw rate:	10.527	Roll:	0.902	Pitch:	-3.114	Yaw:	203.845	Thrust:	98.656
Time:	10.283	Roll Set Point:	-0.108	Pitch Set Point:	-0.030	Yaw Set Point:	-2.496	X_WP:	0.069	Y_WP:	0.026	Y_WP:	0.500	X:	0.082	Y:	0.087	Z:	0.400	yaw:	143.017	yaw rate:	-10.331	Roll:	0.947	Pitch:	-2.767	Yaw:	201.880	Thrust:	81.125
Time:	10.314	Roll Set Point:	-0.108	Pitch Set Point:	-0.030	Yaw Set Point:	-2.495	X_WP:	0.069	Y_WP:	0.026	Y_WP:	0.500	X:	0.082	Y:	0.087	Z:	0.400	yaw:	142.945	yaw rate:	-4.166	Roll:	0.941	Pitch:	-2.813	Yaw:	202.084	Thrust:	81.216
Time:	10.354	Roll Set Point:	-0.108	Pitch Set Point:	-0.030	Yaw Set Point:	-2.498	X_WP:	0.069	Y_WP:	0.026	Y_WP:	0.500	X:	0.082	Y:	0.087	Z:	0.400	yaw:	143.118	yaw rate:	17.384	Roll:	0.862	Pitch:	-3.159	Yaw:	204.941	Thrust:	100.000
Time:	10.391	Roll Set Point:	-0.108	Pitch Set Point:	-0.030	Yaw Set Point:	-2.495	X_WP:	0.069	Y_WP:	0.026	Y_WP:	0.500	X:	0.082	Y:	0.087	Z:	0.400	yaw:	142.977	yaw rate:	9.629	Roll:	0.989	Pitch:	-2.988	Yaw:	202.285	Thrust:	95.782
Time:	10.428	Roll Set Point:	-0.108	Pitch Set Point:	-0.030	Yaw Set Point:	-2.498	X_WP:	0.069	Y_WP:	0.026	Y_WP:	0.500	X:	0.082	Y:	0.087	Z:	0.400	yaw:	143.105	yaw rate:	12.753	Roll:	0.869	Pitch:	-3.058	Yaw:	204.422	Thrust:	97.088
Time:	10.474	Roll Set Point:	-0.109	Pitch Set Point:	-0.030	Yaw Set Point:	-2.492	X_WP:	0.069	Y_WP:	0.026	Y_WP:	0.500	X:	0.082	Y:	0.087	Z:	0.400	yaw:	142.795	yaw rate:	-2.945	Roll:	1.093	Pitch:	-3.341	Yaw:	202.304	Thrust:	100.000
Time:	10.507	Roll Set Point:	-0.108	Pitch Set Point:	-0.030	Yaw Set Point:	-2.497	X_WP:	0.069	Y_WP:	0.026	Y_WP:	0.500	X:	0.082	Y:	0.087	Z:	0.400	yaw:	143.044	yaw rate:	24.848	Roll:	0.787	Pitch:	-2.942	Yaw:	205.002	Thrust:	88.264
Time:	10.554	Roll Set Point:	-0.108	Pitch Set Point:	-0.030	Yaw Set Point:	-2.496	X_WP:	0.069	Y_WP:	0.026	Y_WP:	0.500	X:	0.082	Y:	0.087	Z:	0.400	yaw:	142.983	yaw rate:	17.929	Roll:	1.006	Pitch:	-3.379	Yaw:	203.965	Thrust:	100.000
Time:	10.585	Roll Set Point:	-0.109	Pitch Set Point:	-0.030	Yaw Set Point:	-2.493	X_WP:	0.069	Y_WP:	0.026	Y_WP:	0.500	X:	0.082	Y:	0.087	Z:	0.400	yaw:	142.810	yaw rate:	-4.560	Roll:	1.010	Pitch:	-2.766	Yaw:	201.051	Thrust:	83.822
Time:	10.616	Roll Set Point:	-0.108	Pitch Set Point:	-0.030	Yaw Set Point:	-2.495	X_WP:	0.069	Y_WP:	0.026	Y_WP:	0.500	X:	0.082	Y:	0.087	Z:	0.400	yaw:	142.957	yaw rate:	14.705	Roll:	0.832	Pitch:	-2.842	Yaw:	203.953	Thrust:	84.334
Time:	10.647	Roll Set Point:	-0.108	Pitch Set Point:	-0.030	Yaw Set Point:	-2.498	X_WP:	0.069	Y_WP:	0.026	Y_WP:	0.500	X:	0.082	Y:	0.087	Z:	0.400	yaw:	143.120	yaw rate:	-0.115	Roll:	0.830	Pitch:	-2.851	Yaw:	204.311	Thrust:	84.459
Time:	10.678	Roll Set Point:	-0.109	Pitch Set Point:	-0.030	Yaw Set Point:	-2.494	X_WP:	0.069	Y_WP:	0.026	Y_WP:	0.500	X:	0.082	Y:	0.087	Z:	0.400	yaw:	142.920	yaw rate:	-12.936	Roll:	1.021	Pitch:	-2.759	Yaw:	200.983	Thrust:	85.135
Time:	10.725	Roll Set Point:	-0.108	Pitch Set Point:	-0.030	Yaw Set Point:	-2.496	X_WP:	0.069	Y_WP:	0.026	Y_WP:	0.500	X:	0.082	Y:	0.087	Z:	0.400	yaw:	143.018	yaw rate:	4.907	Roll:	0.962	Pitch:	-3.408	Yaw:	204.902	Thrust:	100.000
Time:	10.756	Roll Set Point:	-0.108	Pitch Set Point:	-0.030	Yaw Set Point:	-2.498	X_WP:	0.069	Y_WP:	0.026	Y_WP:	0.500	X:	0.082	Y:	0.087	Z:	0.400	yaw:	143.124	yaw rate:	10.603	Roll:	0.863	Pitch:	-2.828	Yaw:	203.840	Thrust:	85.562
Time:	10.785	Roll Set Point:	-0.109	Pitch Set Point:	-0.030	Yaw Set Point:	-2.492	X_WP:	0.069	Y_WP:	0.026	Y_WP:	0.500	X:	0.082	Y:	0.087	Z:	0.400	yaw:	142.795	yaw rate:	-15.028	Roll:	1.104	Pitch:	-2.652	Yaw:	199.424	Thrust:	82.318
Time:	10.819	Roll Set Point:	-0.108	Pitch Set Point:	-0.030	Yaw Set Point:	-2.498	X_WP:	0.069	Y_WP:	0.026	Y_WP:	0.500	X:	0.082	Y:	0.087	Z:	0.400	yaw:	143.122	yaw rate:	14.022	Roll:	0.779	Pitch:	-2.992	Yaw:	205.761	Thrust:	94.326
Time:	10.866	Roll Set Point:	-0.108	Pitch Set Point:	-0.030	Yaw Set Point:	-2.495	X_WP:	0.069	Y_WP:	0.026	Y_WP:	0.500	X:	0.082	Y:	0.087	Z:	0.400	yaw:	142.980	yaw rate:	-12.746	Roll:	1.060	Pitch:	-3.368	Yaw:	203.495	Thrust:	100.000
Time:	10.895	Roll Set Point:	-0.108	Pitch Set Point:	-0.030	Yaw Set Point:	-2.498	X_WP:	0.069	Y_WP:	0.026	Y_WP:	0.500	X:	0.082	Y:	0.087	Z:	0.400	yaw:	143.102	yaw rate:	12.253	Roll:	0.848	Pitch:	-2.765	Yaw:	203.819	Thrust:	81.788
Time:	10.936	Roll Set Point:	-0.109	Pitch Set Point:	-0.030	Yaw Set Point:	-2.493	X_WP:	0.069	Y_WP:	0.026	Y_WP:	0.500	X:	0.082	Y:	0.087	Z:	0.400	yaw:	142.827	yaw rate:	-29.105	Roll:	1.101	Pitch:	-3.112	Yaw:	201.708	Thrust:	100.000
Time:	10.982	Roll Set Point:	-0.108	Pitch Set Point:	-0.030	Yaw Set Point:	-2.495	X_WP:	0.069	Y_WP:	0.026	Y_WP:	0.500	X:	0.082	Y:	0.087	Z:	0.400	yaw:	142.942	yaw rate:	11.565	Roll:	0.975	Pitch:	-3.391	Yaw:	204.854	Thrust:	100.000
Time:	11.019	Roll Set Point:	-0.109	Pitch Set Point:	-0.030	Yaw Set Point:	-2.492	X_WP:	0.069	Y_WP:	0.026	Y_WP:	0.500	X:	0.082	Y:	0.087	Z:	0.400	yaw:	142.797	yaw rate:	-3.356	Roll:	1.043	Pitch:	-3.040	Yaw:	202.133	Thrust:	100.000
Time:	11.066	Roll Set Point:	-0.108	Pitch Set Point:	-0.030	Yaw Set Point:	-2.496	X_WP:	0.069	Y_WP:	0.026	Y_WP:	0.500	X:	0.082	Y:	0.087	Z:	0.400	yaw:	143.002	yaw rate:	16.285	Roll:	0.952	Pitch:	-3.425	Yaw:	205.479	Thrust:	100.000
Time:	11.105	Roll Set Point:	-0.109	Pitch Set Point:	-0.030	Yaw Set Point:	-2.492	X_WP:	0.069	Y_WP:	0.026	Y_WP:	0.500	X:	0.082	Y:	0.087	Z:	0.400	yaw:	142.789	yaw rate:	-21.266	Roll:	1.081	Pitch:	-3.045	Yaw:	201.789	Thrust:	100.000
Time:	11.136	Roll Set Point:	-0.109	Pitch Set Point:	-0.030	Yaw Set Point:	-2.495	X_WP:	0.069	Y_WP:	0.026	Y_WP:	0.500	X:	0.082	Y:	0.087	Z:	0.400	yaw:	142.943	yaw rate:	2.205	Roll:	0.865	Pitch:	-2.866	Yaw:	204.017	Thrust:	90.805
Time:	11.174	Roll Set Point:	-0.108	Pitch Set Point:	-0.030	Yaw Set Point:	-2.500	X_WP:	0.069	Y_WP:	0.026	Y_WP:	0.500	X:	0.082	Y:	0.087	Z:	0.400	yaw:	143.249	yaw rate:	13.328	Roll:	0.839	Pitch:	-3.131	Yaw:	205.927	Thrust:	100.000
Time:	11.208	Roll Set Point:	-0.109	Pitch Set Point:	-0.030	Yaw Set Point:	-2.493	X_WP:	0.069	Y_WP:	0.026	Y_WP:	0.500	X:	0.082	Y:	0.087	Z:	0.400	yaw:	142.823	yaw rate:	-27.276	Roll:	1.182	Pitch:	-2.806	Yaw:	199.455	Thrust:	96.876
Time:	11.240	Roll Set Point:	-0.109	Pitch Set Point:	-0.030	Yaw Set Point:	-2.494	X_WP:	0.069	Y_WP:	0.026	Y_WP:	0.500	X:	0.082	Y:	0.087	Z:	0.400	yaw:	142.911	yaw rate:	-18.735	Roll:	0.910	Pitch:	-2.849	Yaw:	203.472	Thrust:	93.379
Time:	11.274	Roll Set Point:	-0.108	Pitch Set Point:	-0.030	Yaw Set Point:	-2.496	X_WP:	0.069	Y_WP:	0.026	Y_WP:	0.500	X:	0.082	Y:	0.087	Z:	0.400	yaw:	143.020	yaw rate:	6.335	Roll:	0.909	Pitch:	-2.931	Yaw:	203.901	Thrust:	97.947
Time:	11.305	Roll Set Point:	-0.109	Pitch Set Point:	-0.030	Yaw Set Point:	-2.494	X_WP:	0.069	Y_WP:	0.026	Y_WP:	0.500	X:	0.082	Y:	0.087	Z:	0.400	yaw:	142.891	yaw rate:	-7.335	Roll:	1.023	Pitch:	-2.792	Yaw:	201.533	Thrust:	91.366
Time:	11.339	Roll Set Point:	-0.108	Pitch Set Point:	-0.030	Yaw Set Point:	-2.495	X_WP:	0.069	Y_WP:	0.026	Y_WP:	0.500	X:	0.082	Y:	0.087	Z:	0.400	yaw:	142.940	yaw rate:	-16.535	Roll:	0.950	Pitch:	-2.927	Yaw:	203.370	Thrust:	100.000
Time:	11.378	Roll Set Point:	-0.109	Pitch Set Point:	-0.030	Yaw Set Point:	-2.492	X_WP:	0.069	Y_WP:	0.026	Y_WP:	0.500	X:	0.082	Y:	0.087	Z:	0.400	yaw:	142.791	yaw rate:	1.420	Roll:	1.078	Pitch:	-3.079	Yaw:	202.346	Thrust:	100.000
Time:	11.411	Roll Set Point:	-0.108	Pitch Set Point:	-0.030	Yaw Set Point:	-2.498	X_WP:	0.069	Y_WP:	0.026	Y_WP:	0.500	X:	0.082	Y:	0.087	Z:	0.400	yaw:	143.132	yaw rate:	2.840	Roll:	0.802	Pitch:	-2.983	Yaw:	205.856	Thrust:	99.380
Time:	11.444	Roll Set Point:	-0.108	Pitch Set Point:	-0.030	Yaw Set Point:	-2.498	X_WP:	0.069	Y_WP:	0.026	Y_WP:	0.500	X:	0.082	Y:	0.087	Z:	0.400	yaw:	143.129	yaw rate:	25.493	Roll:	0.965	Pitch:	-2.862	Yaw:	203.086	Thrust:	97.106
Time:	11.474	Roll Set Point:	-0.109	Pitch Set Point:	-0.030	Yaw Set Point:	-2.492	X_WP:	0.069	Y_WP:	0.026	Y_WP:	0.500	X:	0.082	Y:	0.087	Z:	0.400	yaw:	142.800	yaw rate:	-1.709	Roll:	1.143	Pitch:	-2.669	Yaw:	199.523	Thrust:	90.468
Time:	11.503	Roll Set Point:	-0.109	Pitch Set Point:	-0.030	Yaw Set Point:	-2.493	X_WP:	0.069	Y_WP:	0.026	Y_WP:	0.500	X:	0.082	Y:	0.087	Z:	0.400	yaw:	142.817	yaw rate:	-8.306	Roll:	0.942	Pitch:	-2.734	Yaw:	202.431	Thrust:	86.462
Time:	11.541	Roll Set Point:	-0.109	Pitch Set Point:	-0.030	Yaw Set Point:	-2.492	X_WP:	0.069	Y_WP:	0.026	Y_WP:	0.500	X:	0.082	Y:	0.087	Z:	0.400	yaw:	142.779	yaw rate:	-30.738	Roll:	1.035	Pitch:	-3.061	Yaw:	202.905	Thrust:	100.000
Time:	11.575	Roll Set Point:	-0.109	Pitch Set Point:	-0.030	Yaw Set Point:	-2.492	X_WP:	0.069	Y_WP:	0.026	Y_WP:	0.500	X:	0.082	Y:	0.087	Z:	0.400	yaw:	142.784	yaw rate:	-10.807	Roll:	0.991	Pitch:	-2.923	Yaw:	202.812	Thrust:	100.000
Time:	11.604	Roll Set Point:	-0.108	Pitch Set Point:	-0.030	Yaw Set Point:	-2.498	X_WP:	0.069	Y_WP:	0.026	Y_WP:	0.500	X:	0.082	Y:	0.087	Z:	0.400	yaw:	143.123	yaw rate:	19.305	Roll:	0.763	Pitch:	-2.820	Yaw:	205.796	Thrust:	88.818
Time:	11.639	Roll Set Point:	-0.109	Pitch Set Point:	-0.030	Yaw Set Point:	-2.495	X_WP:	0.069	Y_WP:	0.026	Y_WP:	0.500	X:	0.082	Y:	0.087	Z:	0.400	yaw:	142.926	yaw rate:	-6.929	Roll:	1.092	Pitch:	-2.918	Yaw:	201.605	Thrust:	100.000
Time:	11.669	Roll Set Point:	-0.109	Pitch Set Point:	-0.030	Yaw Set Point:	-2.493	X_WP:	0.069	Y_WP:	0.026	Y_WP:	0.500	X:	0.082	Y:	0.087	Z:	0.400	yaw:	142.841	yaw rate:	-6.176	Roll:	1.017	Pitch:	-2.745	Yaw:	201.714	Thrust:	92.416
Time:	11.701	Roll Set Point:	-0.109	Pitch Set Point:	-0.030	Yaw Set Point:	-2.494	X_WP:	0.069	Y_WP:	0.026	Y_WP:	0.500	X:	0.082	Y:	0.087	Z:	0.400	yaw:	142.896	yaw rate:	-20.403	Roll:	0.953	Pitch:	-2.840	Yaw:	203.133	Thrust:	97.335
Time:	11.730	Roll Set Point:	-0.108	Pitch Set Point:	-0.030	Yaw Set Point:	-2.498	X_WP:	0.069	Y_WP:	0.026	Y_WP:	0.500	X:	0.082	Y:	0.087	Z:	0.400	yaw:	143.113	yaw rate:	17.322	Roll:	0.837	Pitch:	-2.789	Yaw:	204.689	Thrust:	90.371
Time:	11.764	Roll Set Point:	-0.108	Pitch Set Point:	-0.030	Yaw Set Point:	-2.498	X_WP:	0.069	Y_WP:	0.026	Y_WP:	0.500	X:	0.082	Y:	0.087	Z:	0.400	yaw:	143.115	yaw rate:	1.180	Roll:	0.998	Pitch:	-2.928	Yaw:	203.249	Thrust:	100.000
Time:	11.795	Roll Set Point:	-0.108	Pitch Set Point:	-0.030	Yaw Set Point:	-2.498	X_WP:	0.069	Y_WP:	0.026	Y_WP:	0.500	X:	0.082	Y:	0.087	Z:	0.400	yaw:	143.097	yaw rate:	10.325	Roll:	0.986	Pitch:	-2.801	Yaw:	202.759	Thrust:	97.022
Time:	11.829	Roll Set Point:	-0.108	Pitch Set Point:	-0.030	Yaw Set Point:	-2.497	X_WP:	0.069	Y_WP:	0.026	Y_WP:	0.500	X:	0.082	Y:	0.087	Z:	0.400	yaw:	143.047	yaw rate:	-6.191	Roll:	1.026	Pitch:	-2.913	Yaw:	202.759	Thrust:	100.000
Time:	11.859	Roll Set Point:	-0.108	Pitch Set Point:	-0.030	Yaw Set Point:	-2.498	X_WP:	0.069	Y_WP:	0.026	Y_WP:	0.500	X:	0.082	Y:	0.087	Z:	0.400	yaw:	143.099	yaw rate:	13.055	Roll:	0.949	Pitch:	-2.783	Yaw:	203.265	Thrust:	94.449
Time:	11.892	Roll Set Point:	-0.109	Pitch Set Point:	-0.030	Yaw Set Point:	-2.494	X_WP:	0.069	Y_WP:	0.026	Y_WP:	0.500	X:	0.082	Y:	0.087	Z:	0.400	yaw:	142.904	yaw rate:	-19.868	Roll:	1.099	Pitch:	-2.840	Yaw:	201.305	Thrust:	100.000
Time:	11.928	Roll Set Point:	-0.108	Pitch Set Point:	-0.030	Yaw Set Point:	-2.496	X_WP:	0.069	Y_WP:	0.026	Y_WP:	0.500	X:	0.082	Y:	0.087	Z:	0.400	yaw:	143.003	yaw rate:	-10.828	Roll:	0.979	Pitch:	-3.015	Yaw:	203.997	Thrust:	100.000
Time:	11.962	Roll Set Point:	-0.108	Pitch Set Point:	-0.030	Yaw Set Point:	-2.496	X_WP:	0.069	Y_WP:	0.026	Y_WP:	0.500	X:	0.082	Y:	0.087	Z:	0.400	yaw:	143.010	yaw rate:	-9.212	Roll:	1.005	Pitch:	-2.888	Yaw:	203.045	Thrust:	100.000
Time:	11.994	Roll Set Point:	-0.108	Pitch Set Point:	-0.030	Yaw Set Point:	-2.496	X_WP:	0.069	Y_WP:	0.026	Y_WP:	0.500	X:	0.082	Y:	0.087	Z:	0.400	yaw:	142.983	yaw rate:	-12.005	Roll:	1.007	Pitch:	-2.799	Yaw:	202.624	Thrust:	99.203
Time:	12.032	Roll Set Point:	-0.108	Pitch Set Point:	-0.030	Yaw Set Point:	-2.495	X_WP:	0.069	Y_WP:	0.026	Y_WP:	0.500	X:	0.082	Y:	0.087	Z:	0.400	yaw:	142.947	yaw rate:	-15.711	Roll:	1.067	Pitch:	-3.065	Yaw:	203.153	Thrust:	100.000
Time:	12.068	Roll Set Point:	-0.108	Pitch Set Point:	-0.030	Yaw Set Point:	-2.498	X_WP:	0.069	Y_WP:	0.026	Y_WP:	0.500	X:	0.082	Y:	0.087	Z:	0.400	yaw:	143.105	yaw rate:	27.794	Roll:	0.956	Pitch:	-3.028	Yaw:	204.575	Thrust:	100.000
Time:	12.105	Roll Set Point:	-0.108	Pitch Set Point:	-0.030	Yaw Set Point:	-2.498	X_WP:	0.069	Y_WP:	0.026	Y_WP:	0.500	X:	0.082	Y:	0.087	Z:	0.400	yaw:	143.110	yaw rate:	-0.210	Roll:	1.050	Pitch:	-3.044	Yaw:	203.466	Thrust:	100.000
Time:	12.135	Roll Set Point:	-0.108	Pitch Set Point:	-0.030	Yaw Set Point:	-2.496	X_WP:	0.069	Y_WP:	0.026	Y_WP:	0.500	X:	0.082	Y:	0.087	Z:	0.400	yaw:	142.985	yaw rate:	-10.802	Roll:	1.056	Pitch:	-2.732	Yaw:	201.702	Thrust:	97.745
Time:	12.167	Roll Set Point:	-0.109	Pitch Set Point:	-0.030	Yaw Set Point:	-2.492	X_WP:	0.069	Y_WP:	0.026	Y_WP:	0.500	X:	0.082	Y:	0.087	Z:	0.400	yaw:	142.801	yaw rate:	-31.868	Roll:	1.115	Pitch:	-2.802	Yaw:	200.945	Thrust:	100.000
Time:	12.198	Roll Set Point:	-0.108	Pitch Set Point:	-0.030	Yaw Set Point:	-2.495	X_WP:	0.069	Y_WP:	0.026	Y_WP:	0.500	X:	0.082	Y:	0.087	Z:	0.400	yaw:	142.976	yaw rate:	5.295	Roll:	0.911	Pitch:	-2.854	Yaw:	204.214	Thrust:	100.000
Time:	12.232	Roll Set Point:	-0.109	Pitch Set Point:	-0.030	Yaw Set Point:	-2.495	X_WP:	0.069	Y_WP:	0.026	Y_WP:	0.500	X:	0.082	Y:	0.087	Z:	0.400	yaw:	142.958	yaw rate:	8.225	Roll:	1.044	Pitch:	-2.916	Yaw:	202.982	Thrust:	100.000
Time:	12.263	Roll Set Point:	-0.109	Pitch Set Point:	-0.030	Yaw Set Point:	-2.495	X_WP:	0.069	Y_WP:	0.026	Y_WP:	0.500	X:	0.082	Y:	0.087	Z:	0.400	yaw:	142.931	yaw rate:	-10.649	Roll:	1.026	Pitch:	-2.802	Yaw:	202.454	Thrust:	100.000
Time:	12.296	Roll Set Point:	-0.108	Pitch Set Point:	-0.030	Yaw Set Point:	-2.498	X_WP:	0.069	Y_WP:	0.026	Y_WP:	0.500	X:	0.082	Y:	0.087	Z:	0.400	yaw:	143.107	yaw rate:	14.006	Roll:	0.935	Pitch:	-2.910	Yaw:	204.502	Thrust:	100.000
Time:	12.332	Roll Set Point:	-0.109	Pitch Set Point:	-0.030	Yaw Set Point:	-2.492	X_WP:	0.069	Y_WP:	0.026	Y_WP:	0.500	X:	0.082	Y:	0.087	Z:	0.400	yaw:	142.782	yaw rate:	-25.873	Roll:	1.207	Pitch:	-2.930	Yaw:	200.446	Thrust:	100.000
