Time:	2.142	Roll Set Point:	-0.017	Pitch Set Point:	0.032	Yaw Set Point:	-2.937	X_WP:	0.000	Y_WP:	0.000	Y_WP:	0.500	X:	0.163	Y:	0.066	Z:	0.404	yaw:	168.260	yaw rate:	0.719	Roll:	-4.225	Pitch:	-2.839	Yaw:	234.935	Thrust:	5.254
Time:	2.157	Roll Set Point:	-0.017	Pitch Set Point:	0.032	Yaw Set Point:	-2.937	X_WP:	0.000	Y_WP:	0.000	Y_WP:	0.500	X:	0.163	Y:	0.066	Z:	0.404	yaw:	168.285	yaw rate:	2.511	Roll:	-4.275	Pitch:	-2.820	Yaw:	236.308	Thrust:	5.540
Time:	2.173	Roll Set Point:	-0.017	Pitch Set Point:	0.032	Yaw Set Point:	-2.937	X_WP:	0.000	Y_WP:	0.000	Y_WP:	0.500	X:	0.163	Y:	0.066	Z:	0.404	yaw:	168.285	yaw rate:	2.511	Roll:	-4.238	Pitch:	-2.846	Yaw:	236.533	Thrust:	5.615
Time:	2.189	Roll Set Point:	-0.017	Pitch Set Point:	0.032	Yaw Set Point:	-2.937	X_WP:	0.000	Y_WP:	0.000	Y_WP:	0.500	X:	0.163	Y:	0.066	Z:	0.404	yaw:	168.279	yaw rate:	-0.549	Roll:	-4.234	Pitch:	-2.788	Yaw:	236.433	Thrust:	5.666
Time:	2.204	Roll Set Point:	-0.017	Pitch Set Point:	0.032	Yaw Set Point:	-2.937	X_WP:	0.000	Y_WP:	0.000	Y_WP:	0.500	X:	0.163	Y:	0.066	Z:	0.405	yaw:	168.266	yaw rate:	-1.286	Roll:	-4.220	Pitch:	-2.888	Yaw:	236.293	Thrust:	5.878
Time:	2.220	Roll Set Point:	-0.017	Pitch Set Point:	0.032	Yaw Set Point:	-2.937	X_WP:	0.000	Y_WP:	0.000	Y_WP:	0.500	X:	0.163	Y:	0.066	Z:	0.405	yaw:	168.266	yaw rate:	-1.286	Roll:	-4.254	Pitch:	-2.857	Yaw:	236.506	Thrust:	6.147
Time:	2.235	Roll Set Point:	-0.017	Pitch Set Point:	0.032	Yaw Set Point:	-2.937	X_WP:	0.000	Y_WP:	0.000	Y_WP:	0.500	X:	0.163	Y:	0.066	Z:	0.404	yaw:	168.254	yaw rate:	-3.453	Roll:	-4.264	Pitch:	-2.920	Yaw:	236.282	Thrust:	6.349
Time:	2.251	Roll Set Point:	-0.017	Pitch Set Point:	0.032	Yaw Set Point:	-2.937	X_WP:	0.000	Y_WP:	0.000	Y_WP:	0.500	X:	0.163	Y:	0.066	Z:	0.404	yaw:	168.270	yaw rate:	1.557	Roll:	-4.273	Pitch:	-2.827	Yaw:	236.772	Thrust:	6.634
Time:	2.267	Roll Set Point:	-0.017	Pitch Set Point:	0.032	Yaw Set Point:	-2.936	X_WP:	0.000	Y_WP:	0.000	Y_WP:	0.500	X:	0.163	Y:	0.066	Z:	0.405	yaw:	168.247	yaw rate:	-2.222	Roll:	-4.217	Pitch:	-2.884	Yaw:	236.108	Thrust:	6.516
Time:	2.282	Roll Set Point:	-0.017	Pitch Set Point:	0.032	Yaw Set Point:	-2.937	X_WP:	0.000	Y_WP:	0.000	Y_WP:	0.500	X:	0.163	Y:	0.066	Z:	0.404	yaw:	168.286	yaw rate:	3.867	Roll:	-4.352	Pitch:	-2.844	Yaw:	237.182	Thrust:	7.055
Time:	2.298	Roll Set Point:	-0.017	Pitch Set Point:	0.032	Yaw Set Point:	-2.937	X_WP:	0.000	Y_WP:	0.000	Y_WP:	0.500	X:	0.163	Y:	0.066	Z:	0.404	yaw:	168.286	yaw rate:	3.867	Roll:	-4.283	Pitch:	-2.876	Yaw:	236.534	Thrust:	7.047
Time:	2.314	Roll Set Point:	-0.017	Pitch Set Point:	0.032	Yaw Set Point:	-2.937	X_WP:	0.000	Y_WP:	0.000	Y_WP:	0.500	X:	0.163	Y:	0.066	Z:	0.404	yaw:	168.271	yaw rate:	2.562	Roll:	-4.272	Pitch:	-2.902	Yaw:	236.253	Thrust:	7.153
Time:	2.329	Roll Set Point:	-0.017	Pitch Set Point:	0.032	Yaw Set Point:	-2.937	X_WP:	0.000	Y_WP:	0.000	Y_WP:	0.500	X:	0.163	Y:	0.066	Z:	0.404	yaw:	168.271	yaw rate:	2.562	Roll:	-4.294	Pitch:	-2.884	Yaw:	236.513	Thrust:	7.404
Time:	2.345	Roll Set Point:	-0.017	Pitch Set Point:	0.032	Yaw Set Point:	-2.937	X_WP:	0.000	Y_WP:	0.000	Y_WP:	0.500	X:	0.163	Y:	0.066	Z:	0.404	yaw:	168.285	yaw rate:	1.411	Roll:	-4.327	Pitch:	-2.850	Yaw:	236.769	Thrust:	7.603
Time:	2.360	Roll Set Point:	-0.017	Pitch Set Point:	0.032	Yaw Set Point:	-2.937	X_WP:	0.000	Y_WP:	0.000	Y_WP:	0.500	X:	0.163	Y:	0.066	Z:	0.404	yaw:	168.271	yaw rate:	-1.330	Roll:	-4.261	Pitch:	-2.878	Yaw:	236.291	Thrust:	7.825
Time:	2.376	Roll Set Point:	-0.017	Pitch Set Point:	0.032	Yaw Set Point:	-2.937	X_WP:	0.000	Y_WP:	0.000	Y_WP:	0.500	X:	0.163	Y:	0.066	Z:	0.404	yaw:	168.271	yaw rate:	-1.330	Roll:	-4.311	Pitch:	-2.894	Yaw:	236.514	Thrust:	7.943
Time:	2.392	Roll Set Point:	-0.017	Pitch Set Point:	0.032	Yaw Set Point:	-2.937	X_WP:	0.000	Y_WP:	0.000	Y_WP:	0.500	X:	0.163	Y:	0.066	Z:	0.404	yaw:	168.271	yaw rate:	2.225	Roll:	-4.343	Pitch:	-2.932	Yaw:	236.512	Thrust:	8.078
Time:	2.407	Roll Set Point:	-0.017	Pitch Set Point:	0.032	Yaw Set Point:	-2.937	X_WP:	0.000	Y_WP:	0.000	Y_WP:	0.500	X:	0.163	Y:	0.066	Z:	0.405	yaw:	168.279	yaw rate:	0.806	Roll:	-4.334	Pitch:	-2.822	Yaw:	236.660	Thrust:	8.180
Time:	2.423	Roll Set Point:	-0.017	Pitch Set Point:	0.032	Yaw Set Point:	-2.937	X_WP:	0.000	Y_WP:	0.000	Y_WP:	0.500	X:	0.163	Y:	0.066	Z:	0.404	yaw:	168.265	yaw rate:	-1.386	Roll:	-4.285	Pitch:	-3.045	Yaw:	236.273	Thrust:	8.700
Time:	2.439	Roll Set Point:	-0.017	Pitch Set Point:	0.032	Yaw Set Point:	-2.936	X_WP:	0.000	Y_WP:	0.000	Y_WP:	0.500	X:	0.163	Y:	0.066	Z:	0.405	yaw:	168.238	yaw rate:	-2.758	Roll:	-4.306	Pitch:	-2.965	Yaw:	236.005	Thrust:	8.401
Time:	2.454	Roll Set Point:	-0.017	Pitch Set Point:	0.032	Yaw Set Point:	-2.936	X_WP:	0.000	Y_WP:	0.000	Y_WP:	0.500	X:	0.163	Y:	0.066	Z:	0.404	yaw:	168.239	yaw rate:	0.068	Roll:	-4.335	Pitch:	-2.898	Yaw:	236.479	Thrust:	8.930
Time:	2.470	Roll Set Point:	-0.017	Pitch Set Point:	0.032	Yaw Set Point:	-2.937	X_WP:	0.000	Y_WP:	0.000	Y_WP:	0.500	X:	0.163	Y:	0.066	Z:	0.404	yaw:	168.282	yaw rate:	4.321	Roll:	-4.424	Pitch:	-2.803	Yaw:	237.254	Thrust:	9.072
Time:	2.486	Roll Set Point:	-0.017	Pitch Set Point:	0.032	Yaw Set Point:	-2.937	X_WP:	0.000	Y_WP:	0.000	Y_WP:	0.500	X:	0.163	Y:	0.066	Z:	0.404	yaw:	168.254	yaw rate:	-2.782	Roll:	-4.283	Pitch:	-2.967	Yaw:	236.024	Thrust:	9.180
Time:	2.501	Roll Set Point:	-0.017	Pitch Set Point:	0.032	Yaw Set Point:	-2.936	X_WP:	0.000	Y_WP:	0.000	Y_WP:	0.500	X:	0.163	Y:	0.066	Z:	0.404	yaw:	168.242	yaw rate:	-1.196	Roll:	-4.359	Pitch:	-3.004	Yaw:	236.269	Thrust:	9.305
Time:	2.517	Roll Set Point:	-0.017	Pitch Set Point:	0.032	Yaw Set Point:	-2.937	X_WP:	0.000	Y_WP:	0.000	Y_WP:	0.500	X:	0.163	Y:	0.066	Z:	0.404	yaw:	168.288	yaw rate:	4.596	Roll:	-4.453	Pitch:	-2.820	Yaw:	237.307	Thrust:	9.664
Time:	2.532	Roll Set Point:	-0.017	Pitch Set Point:	0.032	Yaw Set Point:	-2.937	X_WP:	0.000	Y_WP:	0.000	Y_WP:	0.500	X:	0.163	Y:	0.066	Z:	0.404	yaw:	168.306	yaw rate:	1.755	Roll:	-4.396	Pitch:	-2.813	Yaw:	236.855	Thrust:	9.613
Time:	2.548	Roll Set Point:	-0.017	Pitch Set Point:	0.032	Yaw Set Point:	-2.937	X_WP:	0.000	Y_WP:	0.000	Y_WP:	0.500	X:	0.163	Y:	0.066	Z:	0.404	yaw:	168.256	yaw rate:	-4.921	Roll:	-4.255	Pitch:	-3.101	Yaw:	235.673	Thrust:	10.001
Time:	2.564	Roll Set Point:	-0.017	Pitch Set Point:	0.032	Yaw Set Point:	-2.937	X_WP:	0.000	Y_WP:	0.000	Y_WP:	0.500	X:	0.163	Y:	0.066	Z:	0.404	yaw:	168.256	yaw rate:	-4.921	Roll:	-4.378	Pitch:	-2.942	Yaw:	236.490	Thrust:	10.082
Time:	2.579	Roll Set Point:	-0.017	Pitch Set Point:	0.032	Yaw Set Point:	-2.936	X_WP:	0.000	Y_WP:	0.000	Y_WP:	0.500	X:	0.163	Y:	0.066	Z:	0.404	yaw:	168.242	yaw rate:	-1.446	Roll:	-4.371	Pitch:	-3.017	Yaw:	236.230	Thrust:	10.210
Time:	2.595	Roll Set Point:	-0.017	Pitch Set Point:	0.032	Yaw Set Point:	-2.936	X_WP:	0.000	Y_WP:	0.000	Y_WP:	0.500	X:	0.163	Y:	0.066	Z:	0.405	yaw:	168.248	yaw rate:	0.594	Roll:	-4.423	Pitch:	-2.917	Yaw:	236.580	Thrust:	10.402
Time:	2.611	Roll Set Point:	-0.017	Pitch Set Point:	0.032	Yaw Set Point:	-2.937	X_WP:	0.000	Y_WP:	0.000	Y_WP:	0.500	X:	0.163	Y:	0.066	Z:	0.404	yaw:	168.266	yaw rate:	1.866	Roll:	-4.417	Pitch:	-2.902	Yaw:	236.820	Thrust:	10.804
Time:	2.626	Roll Set Point:	-0.017	Pitch Set Point:	0.032	Yaw Set Point:	-2.937	X_WP:	0.000	Y_WP:	0.000	Y_WP:	0.500	X:	0.163	Y:	0.066	Z:	0.404	yaw:	168.256	yaw rate:	-1.043	Roll:	-4.377	Pitch:	-2.955	Yaw:	236.321	Thrust:	10.665
Time:	2.642	Roll Set Point:	-0.017	Pitch Set Point:	0.032	Yaw Set Point:	-2.936	X_WP:	0.000	Y_WP:	0.000	Y_WP:	0.500	X:	0.163	Y:	0.066	Z:	0.405	yaw:	168.241	yaw rate:	-1.490	Roll:	-4.383	Pitch:	-3.014	Yaw:	236.218	Thrust:	10.905
Time:	2.657	Roll Set Point:	-0.017	Pitch Set Point:	0.032	Yaw Set Point:	-2.936	X_WP:	0.000	Y_WP:	0.000	Y_WP:	0.500	X:	0.163	Y:	0.066	Z:	0.405	yaw:	168.241	yaw rate:	-1.490	Roll:	-4.412	Pitch:	-2.966	Yaw:	236.472	Thrust:	11.163
Time:	2.676	Roll Set Point:	-0.017	Pitch Set Point:	0.032	Yaw Set Point:	-2.937	X_WP:	0.000	Y_WP:	0.000	Y_WP:	0.500	X:	0.163	Y:	0.066	Z:	0.404	yaw:	168.288	yaw rate:	4.732	Roll:	-4.510	Pitch:	-2.850	Yaw:	237.441	Thrust:	12.270
Time:	2.717	Roll Set Point:	-0.017	Pitch Set Point:	0.032	Yaw Set Point:	-2.937	X_WP:	0.000	Y_WP:	0.000	Y_WP:	0.500	X:	0.163	Y:	0.066	Z:	0.404	yaw:	168.278	yaw rate:	-1.051	Roll:	-4.761	Pitch:	-3.231	Yaw:	239.064	Thrust:	21.971
Time:	2.732	Roll Set Point:	-0.017	Pitch Set Point:	0.032	Yaw Set Point:	-2.937	X_WP:	0.000	Y_WP:	0.000	Y_WP:	0.500	X:	0.163	Y:	0.066	Z:	0.404	yaw:	168.283	yaw rate:	3.008	Roll:	-4.408	Pitch:	-2.924	Yaw:	236.610	Thrust:	11.816
Time:	2.748	Roll Set Point:	-0.017	Pitch Set Point:	0.032	Yaw Set Point:	-2.937	X_WP:	0.000	Y_WP:	0.000	Y_WP:	0.500	X:	0.163	Y:	0.066	Z:	0.404	yaw:	168.283	yaw rate:	3.008	Roll:	-4.437	Pitch:	-2.978	Yaw:	236.530	Thrust:	11.884
Time:	2.764	Roll Set Point:	-0.017	Pitch Set Point:	0.032	Yaw Set Point:	-2.936	X_WP:	0.000	Y_WP:	0.000	Y_WP:	0.500	X:	0.163	Y:	0.066	Z:	0.405	yaw:	168.242	yaw rate:	-4.074	Roll:	-4.369	Pitch:	-3.068	Yaw:	235.790	Thrust:	11.814
Time:	2.779	Roll Set Point:	-0.017	Pitch Set Point:	0.032	Yaw Set Point:	-2.937	X_WP:	0.000	Y_WP:	0.000	Y_WP:	0.500	X:	0.163	Y:	0.066	Z:	0.404	yaw:	168.264	yaw rate:	-0.223	Roll:	-4.509	Pitch:	-2.954	Yaw:	236.865	Thrust:	12.417
Time:	2.796	Roll Set Point:	-0.017	Pitch Set Point:	0.032	Yaw Set Point:	-2.937	X_WP:	0.000	Y_WP:	0.000	Y_WP:	0.500	X:	0.163	Y:	0.066	Z:	0.404	yaw:	168.273	yaw rate:	0.933	Roll:	-4.470	Pitch:	-2.931	Yaw:	236.746	Thrust:	12.808
Time:	2.813	Roll Set Point:	-0.017	Pitch Set Point:	0.032	Yaw Set Point:	-2.937	X_WP:	0.000	Y_WP:	0.000	Y_WP:	0.500	X:	0.163	Y:	0.066	Z:	0.404	yaw:	168.273	yaw rate:	0.933	Roll:	-4.490	Pitch:	-3.014	Yaw:	236.722	Thrust:	13.568
Time:	2.829	Roll Set Point:	-0.017	Pitch Set Point:	0.032	Yaw Set Point:	-2.936	X_WP:	0.000	Y_WP:	0.000	Y_WP:	0.500	X:	0.163	Y:	0.066	Z:	0.404	yaw:	168.231	yaw rate:	-4.182	Roll:	-4.384	Pitch:	-3.178	Yaw:	235.757	Thrust:	12.648
Time:	2.845	Roll Set Point:	-0.017	Pitch Set Point:	0.032	Yaw Set Point:	-2.937	X_WP:	0.000	Y_WP:	0.000	Y_WP:	0.500	X:	0.163	Y:	0.066	Z:	0.404	yaw:	168.278	yaw rate:	4.656	Roll:	-4.564	Pitch:	-2.909	Yaw:	237.304	Thrust:	13.035
Time:	2.860	Roll Set Point:	-0.017	Pitch Set Point:	0.032	Yaw Set Point:	-2.937	X_WP:	0.000	Y_WP:	0.000	Y_WP:	0.500	X:	0.163	Y:	0.066	Z:	0.404	yaw:	168.305	yaw rate:	3.278	Roll:	-4.519	Pitch:	-2.908	Yaw:	237.038	Thrust:	13.383
Time:	2.877	Roll Set Point:	-0.017	Pitch Set Point:	0.032	Yaw Set Point:	-2.937	X_WP:	0.000	Y_WP:	0.000	Y_WP:	0.500	X:	0.163	Y:	0.066	Z:	0.405	yaw:	168.259	yaw rate:	-4.618	Roll:	-4.421	Pitch:	-3.087	Yaw:	235.883	Thrust:	13.641
Time:	2.893	Roll Set Point:	-0.017	Pitch Set Point:	0.032	Yaw Set Point:	-2.937	X_WP:	0.000	Y_WP:	0.000	Y_WP:	0.500	X:	0.163	Y:	0.066	Z:	0.405	yaw:	168.259	yaw rate:	-4.618	Roll:	-4.486	Pitch:	-3.013	Yaw:	236.494	Thrust:	13.476
Time:	2.908	Roll Set Point:	-0.017	Pitch Set Point:	0.032	Yaw Set Point:	-2.937	X_WP:	0.000	Y_WP:	0.000	Y_WP:	0.500	X:	0.163	Y:	0.066	Z:	0.404	yaw:	168.278	yaw rate:	1.887	Roll:	-4.524	Pitch:	-3.037	Yaw:	236.839	Thrust:	13.825
Time:	2.924	Roll Set Point:	-0.017	Pitch Set Point:	0.032	Yaw Set Point:	-2.937	X_WP:	0.000	Y_WP:	0.000	Y_WP:	0.500	X:	0.163	Y:	0.066	Z:	0.404	yaw:	168.278	yaw rate:	1.887	Roll:	-4.499	Pitch:	-3.022	Yaw:	236.523	Thrust:	13.853
Time:	2.940	Roll Set Point:	-0.017	Pitch Set Point:	0.032	Yaw Set Point:	-2.937	X_WP:	0.000	Y_WP:	0.000	Y_WP:	0.500	X:	0.163	Y:	0.066	Z:	0.405	yaw:	168.260	yaw rate:	-0.895	Roll:	-4.494	Pitch:	-3.057	Yaw:	236.206	Thrust:	13.914
Time:	2.955	Roll Set Point:	-0.017	Pitch Set Point:	0.032	Yaw Set Point:	-2.937	X_WP:	0.000	Y_WP:	0.000	Y_WP:	0.500	X:	0.163	Y:	0.066	Z:	0.405	yaw:	168.260	yaw rate:	-0.895	Roll:	-4.510	Pitch:	-3.030	Yaw:	236.497	Thrust:	14.203
Time:	2.971	Roll Set Point:	-0.017	Pitch Set Point:	0.032	Yaw Set Point:	-2.937	X_WP:	0.000	Y_WP:	0.000	Y_WP:	0.500	X:	0.163	Y:	0.066	Z:	0.404	yaw:	168.262	yaw rate:	1.948	Roll:	-4.530	Pitch:	-3.050	Yaw:	236.532	Thrust:	14.486
Time:	2.987	Roll Set Point:	-0.017	Pitch Set Point:	0.032	Yaw Set Point:	-2.936	X_WP:	0.000	Y_WP:	0.000	Y_WP:	0.500	X:	0.163	Y:	0.066	Z:	0.404	yaw:	168.244	yaw rate:	-1.784	Roll:	-4.459	Pitch:	-2.991	Yaw:	236.177	Thrust:	14.478
Time:	3.002	Roll Set Point:	-0.017	Pitch Set Point:	0.032	Yaw Set Point:	-2.937	X_WP:	0.000	Y_WP:	0.000	Y_WP:	0.500	X:	0.163	Y:	0.066	Z:	0.404	yaw:	168.269	yaw rate:	2.414	Roll:	-4.579	Pitch:	-3.050	Yaw:	236.914	Thrust:	14.968
Time:	3.018	Roll Set Point:	-0.017	Pitch Set Point:	0.032	Yaw Set Point:	-2.937	X_WP:	0.000	Y_WP:	0.000	Y_WP:	0.500	X:	0.163	Y:	0.066	Z:	0.404	yaw:	168.269	yaw rate:	0.069	Roll:	-4.539	Pitch:	-3.015	Yaw:	236.525	Thrust:	14.745
Time:	3.033	Roll Set Point:	-0.017	Pitch Set Point:	0.032	Yaw Set Point:	-2.937	X_WP:	0.000	Y_WP:	0.000	Y_WP:	0.500	X:	0.163	Y:	0.066	Z:	0.404	yaw:	168.272	yaw rate:	0.262	Roll:	-4.543	Pitch:	-3.058	Yaw:	236.556	Thrust:	15.149
Time:	3.049	Roll Set Point:	-0.017	Pitch Set Point:	0.032	Yaw Set Point:	-2.937	X_WP:	0.000	Y_WP:	0.000	Y_WP:	0.500	X:	0.163	Y:	0.066	Z:	0.404	yaw:	168.258	yaw rate:	-1.391	Roll:	-4.511	Pitch:	-3.054	Yaw:	236.266	Thrust:	15.289
Time:	3.065	Roll Set Point:	-0.017	Pitch Set Point:	0.032	Yaw Set Point:	-2.937	X_WP:	0.000	Y_WP:	0.000	Y_WP:	0.500	X:	0.163	Y:	0.066	Z:	0.404	yaw:	168.278	yaw rate:	1.979	Roll:	-4.589	Pitch:	-3.053	Yaw:	236.855	Thrust:	15.481
Time:	3.080	Roll Set Point:	-0.017	Pitch Set Point:	0.032	Yaw Set Point:	-2.937	X_WP:	0.000	Y_WP:	0.000	Y_WP:	0.500	X:	0.163	Y:	0.066	Z:	0.404	yaw:	168.265	yaw rate:	-1.258	Roll:	-4.524	Pitch:	-3.097	Yaw:	236.290	Thrust:	15.568
Time:	3.096	Roll Set Point:	-0.017	Pitch Set Point:	0.032	Yaw Set Point:	-2.937	X_WP:	0.000	Y_WP:	0.000	Y_WP:	0.500	X:	0.163	Y:	0.066	Z:	0.404	yaw:	168.299	yaw rate:	3.384	Roll:	-4.637	Pitch:	-2.949	Yaw:	237.119	Thrust:	15.923
Time:	3.112	Roll Set Point:	-0.017	Pitch Set Point:	0.032	Yaw Set Point:	-2.937	X_WP:	0.000	Y_WP:	0.000	Y_WP:	0.500	X:	0.163	Y:	0.066	Z:	0.404	yaw:	168.299	yaw rate:	3.384	Roll:	-4.570	Pitch:	-3.066	Yaw:	236.556	Thrust:	16.027
Time:	3.127	Roll Set Point:	-0.017	Pitch Set Point:	0.032	Yaw Set Point:	-2.937	X_WP:	0.000	Y_WP:	0.000	Y_WP:	0.500	X:	0.163	Y:	0.066	Z:	0.404	yaw:	168.281	yaw rate:	-1.800	Roll:	-4.552	Pitch:	-3.103	Yaw:	236.228	Thrust:	16.128
Time:	3.143	Roll Set Point:	-0.017	Pitch Set Point:	0.032	Yaw Set Point:	-2.937	X_WP:	0.000	Y_WP:	0.000	Y_WP:	0.500	X:	0.163	Y:	0.066	Z:	0.404	yaw:	168.256	yaw rate:	-2.505	Roll:	-4.514	Pitch:	-3.143	Yaw:	236.073	Thrust:	16.367
Time:	3.158	Roll Set Point:	-0.017	Pitch Set Point:	0.032	Yaw Set Point:	-2.937	X_WP:	0.000	Y_WP:	0.000	Y_WP:	0.500	X:	0.163	Y:	0.066	Z:	0.404	yaw:	168.286	yaw rate:	3.615	Roll:	-4.623	Pitch:	-2.998	Yaw:	237.026	Thrust:	16.528
Time:	3.174	Roll Set Point:	-0.017	Pitch Set Point:	0.032	Yaw Set Point:	-2.937	X_WP:	0.000	Y_WP:	0.000	Y_WP:	0.500	X:	0.163	Y:	0.066	Z:	0.404	yaw:	168.266	yaw rate:	-2.002	Roll:	-4.576	Pitch:	-3.140	Yaw:	236.170	Thrust:	16.755
Time:	3.190	Roll Set Point:	-0.017	Pitch Set Point:	0.032	Yaw Set Point:	-2.937	X_WP:	0.000	Y_WP:	0.000	Y_WP:	0.500	X:	0.163	Y:	0.066	Z:	0.404	yaw:	168.266	yaw rate:	-2.002	Roll:	-4.597	Pitch:	-3.087	Yaw:	236.510	Thrust:	16.929
Time:	3.205	Roll Set Point:	-0.017	Pitch Set Point:	0.032	Yaw Set Point:	-2.937	X_WP:	0.000	Y_WP:	0.000	Y_WP:	0.500	X:	0.163	Y:	0.066	Z:	0.404	yaw:	168.268	yaw rate:	0.260	Roll:	-4.600	Pitch:	-3.076	Yaw:	236.549	Thrust:	16.961
Time:	3.221	Roll Set Point:	-0.017	Pitch Set Point:	0.032	Yaw Set Point:	-2.937	X_WP:	0.000	Y_WP:	0.000	Y_WP:	0.500	X:	0.163	Y:	0.066	Z:	0.404	yaw:	168.291	yaw rate:	2.321	Roll:	-4.650	Pitch:	-3.033	Yaw:	236.933	Thrust:	17.255
Time:	3.237	Roll Set Point:	-0.017	Pitch Set Point:	0.032	Yaw Set Point:	-2.937	X_WP:	0.000	Y_WP:	0.000	Y_WP:	0.500	X:	0.163	Y:	0.066	Z:	0.404	yaw:	168.280	yaw rate:	-1.131	Roll:	-4.587	Pitch:	-3.146	Yaw:	236.333	Thrust:	17.451
Time:	3.252	Roll Set Point:	-0.017	Pitch Set Point:	0.032	Yaw Set Point:	-2.937	X_WP:	0.000	Y_WP:	0.000	Y_WP:	0.500	X:	0.163	Y:	0.066	Z:	0.404	yaw:	168.280	yaw rate:	-1.131	Roll:	-4.619	Pitch:	-3.101	Yaw:	236.526	Thrust:	17.614
Time:	3.268	Roll Set Point:	-0.017	Pitch Set Point:	0.032	Yaw Set Point:	-2.937	X_WP:	0.000	Y_WP:	0.000	Y_WP:	0.500	X:	0.163	Y:	0.066	Z:	0.404	yaw:	168.282	yaw rate:	3.535	Roll:	-4.652	Pitch:	-3.070	Yaw:	236.565	Thrust:	17.818
Time:	3.283	Roll Set Point:	-0.017	Pitch Set Point:	0.032	Yaw Set Point:	-2.937	X_WP:	0.000	Y_WP:	0.000	Y_WP:	0.500	X:	0.163	Y:	0.066	Z:	0.404	yaw:	168.282	yaw rate:	3.535	Roll:	-4.631	Pitch:	-3.108	Yaw:	236.529	Thrust:	17.973
Time:	3.299	Roll Set Point:	-0.017	Pitch Set Point:	0.032	Yaw Set Point:	-2.937	X_WP:	0.000	Y_WP:	0.000	Y_WP:	0.500	X:	0.163	Y:	0.066	Z:	0.404	yaw:	168.284	yaw rate:	1.935	Roll:	-4.622	Pitch:	-3.143	Yaw:	236.567	Thrust:	18.106
Time:	3.315	Roll Set Point:	-0.017	Pitch Set Point:	0.032	Yaw Set Point:	-2.937	X_WP:	0.000	Y_WP:	0.000	Y_WP:	0.500	X:	0.163	Y:	0.066	Z:	0.404	yaw:	168.285	yaw rate:	0.028	Roll:	-4.644	Pitch:	-3.140	Yaw:	236.537	Thrust:	18.430
Time:	3.330	Roll Set Point:	-0.017	Pitch Set Point:	0.032	Yaw Set Point:	-2.937	X_WP:	0.000	Y_WP:	0.000	Y_WP:	0.500	X:	0.163	Y:	0.066	Z:	0.404	yaw:	168.285	yaw rate:	0.028	Roll:	-4.648	Pitch:	-3.121	Yaw:	236.532	Thrust:	18.509
Time:	3.346	Roll Set Point:	-0.017	Pitch Set Point:	0.032	Yaw Set Point:	-2.937	X_WP:	0.000	Y_WP:	0.000	Y_WP:	0.500	X:	0.163	Y:	0.066	Z:	0.404	yaw:	168.266	yaw rate:	-1.840	Roll:	-4.634	Pitch:	-3.122	Yaw:	236.198	Thrust:	18.560
Time:	3.362	Roll Set Point:	-0.017	Pitch Set Point:	0.032	Yaw Set Point:	-2.937	X_WP:	0.000	Y_WP:	0.000	Y_WP:	0.500	X:	0.163	Y:	0.066	Z:	0.404	yaw:	168.252	yaw rate:	-77.732	Roll:	-4.634	Pitch:	-3.199	Yaw:	236.253	Thrust:	18.944
Time:	3.377	Roll Set Point:	-0.017	Pitch Set Point:	0.032	Yaw Set Point:	-2.937	X_WP:	0.000	Y_WP:	0.000	Y_WP:	0.500	X:	0.163	Y:	0.066	Z:	0.404	yaw:	168.252	yaw rate:	-77.732	Roll:	-4.664	Pitch:	-3.134	Yaw:	236.487	Thrust:	19.047
Time:	3.393	Roll Set Point:	-0.017	Pitch Set Point:	0.032	Yaw Set Point:	-2.937	X_WP:	0.000	Y_WP:	0.000	Y_WP:	0.500	X:	0.163	Y:	0.066	Z:	0.404	yaw:	168.261	yaw rate:	0.878	Roll:	-4.661	Pitch:	-3.088	Yaw:	236.646	Thrust:	19.209
Time:	3.408	Roll Set Point:	-0.016	Pitch Set Point:	0.031	Yaw Set Point:	-2.944	X_WP:	0.000	Y_WP:	0.000	Y_WP:	0.500	X:	0.162	Y:	0.066	Z:	0.404	yaw:	168.658	yaw rate:	39.846	Roll:	-5.336	Pitch:	-2.102	Yaw:	243.716	Thrust:	19.860
Time:	3.424	Roll Set Point:	-0.016	Pitch Set Point:	0.031	Yaw Set Point:	-2.944	X_WP:	0.000	Y_WP:	0.000	Y_WP:	0.500	X:	0.162	Y:	0.066	Z:	0.404	yaw:	168.658	yaw rate:	39.846	Roll:	-4.697	Pitch:	-3.117	Yaw:	237.051	Thrust:	19.566
Time:	3.440	Roll Set Point:	-0.017	Pitch Set Point:	0.032	Yaw Set Point:	-2.937	X_WP:	0.000	Y_WP:	0.000	Y_WP:	0.500	X:	0.163	Y:	0.066	Z:	0.404	yaw:	168.290	yaw rate:	4.416	Roll:	-4.122	Pitch:	-4.145	Yaw:	230.400	Thrust:	19.541
Time:	3.455	Roll Set Point:	-0.017	Pitch Set Point:	0.032	Yaw Set Point:	-2.937	X_WP:	0.000	Y_WP:	0.000	Y_WP:	0.500	X:	0.163	Y:	0.066	Z:	0.404	yaw:	168.290	yaw rate:	4.416	Roll:	-4.692	Pitch:	-3.150	Yaw:	236.532	Thrust:	19.877
Time:	3.471	Roll Set Point:	-0.017	Pitch Set Point:	0.032	Yaw Set Point:	-2.936	X_WP:	0.000	Y_WP:	0.000	Y_WP:	0.500	X:	0.163	Y:	0.066	Z:	0.405	yaw:	168.230	yaw rate:	-5.949	Roll:	-4.575	Pitch:	-3.197	Yaw:	235.460	Thrust:	19.860
Time:	3.487	Roll Set Point:	-0.017	Pitch Set Point:	0.032	Yaw Set Point:	-2.937	X_WP:	0.000	Y_WP:	0.000	Y_WP:	0.500	X:	0.163	Y:	0.066	Z:	0.404	yaw:	168.273	yaw rate:	4.233	Roll:	-4.774	Pitch:	-3.142	Yaw:	237.225	Thrust:	20.575
Time:	3.502	Roll Set Point:	-0.017	Pitch Set Point:	0.032	Yaw Set Point:	-2.937	X_WP:	0.000	Y_WP:	0.000	Y_WP:	0.500	X:	0.163	Y:	0.066	Z:	0.404	yaw:	168.273	yaw rate:	4.233	Roll:	-4.710	Pitch:	-3.164	Yaw:	236.519	Thrust:	20.513
Time:	3.518	Roll Set Point:	-0.017	Pitch Set Point:	0.032	Yaw Set Point:	-2.937	X_WP:	0.000	Y_WP:	0.000	Y_WP:	0.500	X:	0.163	Y:	0.066	Z:	0.404	yaw:	168.279	yaw rate:	5.529	Roll:	-4.747	Pitch:	-3.124	Yaw:	236.627	Thrust:	20.550
Time:	3.533	Roll Set Point:	-0.017	Pitch Set Point:	0.032	Yaw Set Point:	-2.937	X_WP:	0.000	Y_WP:	0.000	Y_WP:	0.500	X:	0.163	Y:	0.066	Z:	0.404	yaw:	168.258	yaw rate:	-2.125	Roll:	-4.684	Pitch:	-3.204	Yaw:	236.143	Thrust:	20.773
Time:	3.549	Roll Set Point:	-0.017	Pitch Set Point:	0.032	Yaw Set Point:	-2.937	X_WP:	0.000	Y_WP:	0.000	Y_WP:	0.500	X:	0.163	Y:	0.066	Z:	0.404	yaw:	168.278	yaw rate:	1.991	Roll:	-4.744	Pitch:	-3.111	Yaw:	236.854	Thrust:	21.035
Time:	3.565	Roll Set Point:	-0.017	Pitch Set Point:	0.032	Yaw Set Point:	-2.937	X_WP:	0.000	Y_WP:	0.000	Y_WP:	0.500	X:	0.163	Y:	0.066	Z:	0.405	yaw:	168.257	yaw rate:	-2.084	Roll:	-4.702	Pitch:	-3.242	Yaw:	236.144	Thrust:	21.114
Time:	3.580	Roll Set Point:	-0.017	Pitch Set Point:	0.032	Yaw Set Point:	-2.937	X_WP:	0.000	Y_WP:	0.000	Y_WP:	0.500	X:	0.163	Y:	0.066	Z:	0.404	yaw:	168.281	yaw rate:	2.424	Roll:	-4.783	Pitch:	-3.119	Yaw:	236.933	Thrust:	21.573
Time:	3.596	Roll Set Point:	-0.017	Pitch Set Point:	0.032	Yaw Set Point:	-2.937	X_WP:	0.000	Y_WP:	0.000	Y_WP:	0.500	X:	0.163	Y:	0.066	Z:	0.404	yaw:	168.270	yaw rate:	-1.121	Roll:	-4.733	Pitch:	-3.219	Yaw:	236.324	Thrust:	21.501
Time:	3.612	Roll Set Point:	-0.017	Pitch Set Point:	0.032	Yaw Set Point:	-2.937	X_WP:	0.000	Y_WP:	0.000	Y_WP:	0.500	X:	0.163	Y:	0.066	Z:	0.404	yaw:	168.270	yaw rate:	-1.121	Roll:	-4.750	Pitch:	-3.190	Yaw:	236.512	Thrust:	21.744
Time:	3.627	Roll Set Point:	-0.017	Pitch Set Point:	0.032	Yaw Set Point:	-2.937	X_WP:	0.000	Y_WP:	0.000	Y_WP:	0.500	X:	0.163	Y:	0.066	Z:	0.404	yaw:	168.278	yaw rate:	0.846	Roll:	-4.750	Pitch:	-3.126	Yaw:	236.667	Thrust:	21.820
Time:	3.643	Roll Set Point:	-0.017	Pitch Set Point:	0.032	Yaw Set Point:	-2.937	X_WP:	0.000	Y_WP:	0.000	Y_WP:	0.500	X:	0.163	Y:	0.066	Z:	0.404	yaw:	168.253	yaw rate:	-2.490	Roll:	-4.730	Pitch:	-3.340	Yaw:	236.072	Thrust:	22.106
Time:	3.659	Roll Set Point:	-0.017	Pitch Set Point:	0.032	Yaw Set Point:	-2.936	X_WP:	0.000	Y_WP:	0.000	Y_WP:	0.500	X:	0.163	Y:	0.066	Z:	0.404	yaw:	168.231	yaw rate:	-2.204	Roll:	-4.714	Pitch:	-3.232	Yaw:	236.088	Thrust:	22.267
Time:	3.674	Roll Set Point:	-0.017	Pitch Set Point:	0.032	Yaw Set Point:	-2.936	X_WP:	0.000	Y_WP:	0.000	Y_WP:	0.500	X:	0.163	Y:	0.066	Z:	0.404	yaw:	168.246	yaw rate:	1.500	Roll:	-4.802	Pitch:	-3.136	Yaw:	236.728	Thrust:	22.439
Time:	3.690	Roll Set Point:	-0.017	Pitch Set Point:	0.032	Yaw Set Point:	-2.936	X_WP:	0.000	Y_WP:	0.000	Y_WP:	0.500	X:	0.163	Y:	0.066	Z:	0.404	yaw:	168.246	yaw rate:	1.500	Roll:	-4.778	Pitch:	-3.210	Yaw:	236.482	Thrust:	22.665
Time:	3.705	Roll Set Point:	-0.017	Pitch Set Point:	0.032	Yaw Set Point:	-2.937	X_WP:	0.000	Y_WP:	0.000	Y_WP:	0.500	X:	0.163	Y:	0.066	Z:	0.404	yaw:	168.269	yaw rate:	2.243	Roll:	-4.819	Pitch:	-3.187	Yaw:	236.884	Thrust:	22.734
Time:	3.721	Roll Set Point:	-0.017	Pitch Set Point:	0.032	Yaw Set Point:	-2.937	X_WP:	0.000	Y_WP:	0.000	Y_WP:	0.500	X:	0.163	Y:	0.066	Z:	0.404	yaw:	168.285	yaw rate:	1.857	Roll:	-4.831	Pitch:	-3.158	Yaw:	236.812	Thrust:	23.075
Time:	3.737	Roll Set Point:	-0.017	Pitch Set Point:	0.032	Yaw Set Point:	-2.937	X_WP:	0.000	Y_WP:	0.000	Y_WP:	0.500	X:	0.163	Y:	0.066	Z:	0.405	yaw:	168.255	yaw rate:	-3.026	Roll:	-4.741	Pitch:	-3.260	Yaw:	235.989	Thrust:	23.096
Time:	3.752	Roll Set Point:	-0.017	Pitch Set Point:	0.032	Yaw Set Point:	-2.937	X_WP:	0.000	Y_WP:	0.000	Y_WP:	0.500	X:	0.163	Y:	0.066	Z:	0.405	yaw:	168.255	yaw rate:	-3.026	Roll:	-4.800	Pitch:	-3.224	Yaw:	236.491	Thrust:	23.344
Time:	3.768	Roll Set Point:	-0.017	Pitch Set Point:	0.032	Yaw Set Point:	-2.936	X_WP:	0.000	Y_WP:	0.000	Y_WP:	0.500	X:	0.163	Y:	0.066	Z:	0.405	yaw:	168.213	yaw rate:	-6.957	Roll:	-4.737	Pitch:	-3.383	Yaw:	235.737	Thrust:	23.567
Time:	3.784	Roll Set Point:	-0.017	Pitch Set Point:	0.032	Yaw Set Point:	-2.937	X_WP:	0.000	Y_WP:	0.000	Y_WP:	0.500	X:	0.163	Y:	0.066	Z:	0.404	yaw:	168.262	yaw rate:	4.845	Roll:	-4.896	Pitch:	-3.136	Yaw:	237.312	Thrust:	23.888
Time:	3.812	Roll Set Point:	-0.017	Pitch Set Point:	0.032	Yaw Set Point:	-2.937	X_WP:	0.000	Y_WP:	0.000	Y_WP:	0.500	X:	0.163	Y:	0.066	Z:	0.404	yaw:	168.267	yaw rate:	-1.861	Roll:	-5.282	Pitch:	-3.523	Yaw:	237.835	Thrust:	39.071
Time:	3.828	Roll Set Point:	-0.017	Pitch Set Point:	0.032	Yaw Set Point:	-2.937	X_WP:	0.000	Y_WP:	0.000	Y_WP:	0.500	X:	0.163	Y:	0.066	Z:	0.404	yaw:	168.267	yaw rate:	-1.861	Roll:	-4.811	Pitch:	-3.239	Yaw:	236.508	Thrust:	24.065
Time:	3.843	Roll Set Point:	-0.017	Pitch Set Point:	0.032	Yaw Set Point:	-2.936	X_WP:	0.000	Y_WP:	0.000	Y_WP:	0.500	X:	0.163	Y:	0.066	Z:	0.404	yaw:	168.238	yaw rate:	-2.890	Roll:	-4.762	Pitch:	-3.368	Yaw:	235.979	Thrust:	24.117
Time:	3.859	Roll Set Point:	-0.017	Pitch Set Point:	0.032	Yaw Set Point:	-2.937	X_WP:	0.000	Y_WP:	0.000	Y_WP:	0.500	X:	0.163	Y:	0.066	Z:	0.404	yaw:	168.254	yaw rate:	1.134	Roll:	-4.846	Pitch:	-3.142	Yaw:	236.752	Thrust:	24.473
Time:	3.874	Roll Set Point:	-0.017	Pitch Set Point:	0.032	Yaw Set Point:	-2.937	X_WP:	0.000	Y_WP:	0.000	Y_WP:	0.500	X:	0.163	Y:	0.066	Z:	0.404	yaw:	168.254	yaw rate:	1.134	Roll:	-4.812	Pitch:	-3.251	Yaw:	236.492	Thrust:	24.637
Time:	3.890	Roll Set Point:	-0.017	Pitch Set Point:	0.032	Yaw Set Point:	-2.937	X_WP:	0.000	Y_WP:	0.000	Y_WP:	0.500	X:	0.163	Y:	0.066	Z:	0.404	yaw:	168.280	yaw rate:	2.578	Roll:	-4.845	Pitch:	-3.200	Yaw:	236.955	Thrust:	24.740
Time:	3.906	Roll Set Point:	-0.017	Pitch Set Point:	0.032	Yaw Set Point:	-2.936	X_WP:	0.000	Y_WP:	0.000	Y_WP:	0.500	X:	0.163	Y:	0.066	Z:	0.404	yaw:	168.249	yaw rate:	-1.535	Roll:	-4.780	Pitch:	-3.412	Yaw:	235.962	Thrust:	24.972
Time:	3.921	Roll Set Point:	-0.017	Pitch Set Point:	0.032	Yaw Set Point:	-2.937	X_WP:	0.000	Y_WP:	0.000	Y_WP:	0.500	X:	0.163	Y:	0.066	Z:	0.404	yaw:	168.266	yaw rate:	1.700	Roll:	-4.819	Pitch:	-3.142	Yaw:	236.791	Thrust:	25.238
Time:	3.937	Roll Set Point:	-0.017	Pitch Set Point:	0.032	Yaw Set Point:	-2.937	X_WP:	0.000	Y_WP:	0.000	Y_WP:	0.500	X:	0.163	Y:	0.066	Z:	0.404	yaw:	168.266	yaw rate:	1.700	Roll:	-4.811	Pitch:	-3.265	Yaw:	236.506	Thrust:	25.320
Time:	3.953	Roll Set Point:	-0.017	Pitch Set Point:	0.032	Yaw Set Point:	-2.937	X_WP:	0.000	Y_WP:	0.000	Y_WP:	0.500	X:	0.163	Y:	0.066	Z:	0.404	yaw:	168.278	yaw rate:	2.337	Roll:	-4.853	Pitch:	-3.270	Yaw:	236.737	Thrust:	25.342
Time:	3.968	Roll Set Point:	-0.017	Pitch Set Point:	0.032	Yaw Set Point:	-2.937	X_WP:	0.000	Y_WP:	0.000	Y_WP:	0.500	X:	0.163	Y:	0.066	Z:	0.404	yaw:	168.268	yaw rate:	-1.069	Roll:	-4.798	Pitch:	-3.322	Yaw:	236.333	Thrust:	25.710
Time:	3.984	Roll Set Point:	-0.017	Pitch Set Point:	0.032	Yaw Set Point:	-2.937	X_WP:	0.000	Y_WP:	0.000	Y_WP:	0.500	X:	0.163	Y:	0.066	Z:	0.404	yaw:	168.280	yaw rate:	1.243	Roll:	-4.824	Pitch:	-3.224	Yaw:	236.734	Thrust:	25.988
Time:	3.999	Roll Set Point:	-0.017	Pitch Set Point:	0.032	Yaw Set Point:	-2.937	X_WP:	0.000	Y_WP:	0.000	Y_WP:	0.500	X:	0.163	Y:	0.066	Z:	0.404	yaw:	168.256	yaw rate:	-2.407	Roll:	-4.764	Pitch:	-3.289	Yaw:	236.086	Thrust:	25.942
Time:	4.015	Roll Set Point:	-0.017	Pitch Set Point:	0.032	Yaw Set Point:	-2.937	X_WP:	0.000	Y_WP:	0.000	Y_WP:	0.500	X:	0.163	Y:	0.066	Z:	0.404	yaw:	168.292	yaw rate:	3.557	Roll:	-4.893	Pitch:	-3.249	Yaw:	237.138	Thrust:	26.218
Time:	4.031	Roll Set Point:	-0.017	Pitch Set Point:	0.032	Yaw Set Point:	-2.937	X_WP:	0.000	Y_WP:	0.000	Y_WP:	0.500	X:	0.163	Y:	0.066	Z:	0.404	yaw:	168.292	yaw rate:	3.557	Roll:	-4.813	Pitch:	-3.287	Yaw:	236.542	Thrust:	26.393
Time:	4.046	Roll Set Point:	-0.017	Pitch Set Point:	0.032	Yaw Set Point:	-2.937	X_WP:	0.000	Y_WP:	0.000	Y_WP:	0.500	X:	0.163	Y:	0.066	Z:	0.404	yaw:	168.261	yaw rate:	0.130	Roll:	-4.739	Pitch:	-3.395	Yaw:	235.977	Thrust:	26.646
Time:	4.062	Roll Set Point:	-0.017	Pitch Set Point:	0.032	Yaw Set Point:	-2.937	X_WP:	0.000	Y_WP:	0.000	Y_WP:	0.500	X:	0.163	Y:	0.066	Z:	0.404	yaw:	168.261	yaw rate:	0.130	Roll:	-4.812	Pitch:	-3.299	Yaw:	236.502	Thrust:	26.797
Time:	4.078	Roll Set Point:	-0.017	Pitch Set Point:	0.032	Yaw Set Point:	-2.937	X_WP:	0.000	Y_WP:	0.000	Y_WP:	0.500	X:	0.163	Y:	0.066	Z:	0.404	yaw:	168.262	yaw rate:	0.104	Roll:	-4.823	Pitch:	-3.239	Yaw:	236.514	Thrust:	26.720
Time:	4.093	Roll Set Point:	-0.017	Pitch Set Point:	0.032	Yaw Set Point:	-2.937	X_WP:	0.000	Y_WP:	0.000	Y_WP:	0.500	X:	0.163	Y:	0.066	Z:	0.404	yaw:	168.279	yaw rate:	1.742	Roll:	-4.843	Pitch:	-3.327	Yaw:	236.816	Thrust:	27.181
Time:	4.109	Roll Set Point:	-0.017	Pitch Set Point:	0.032	Yaw Set Point:	-2.937	X_WP:	0.000	Y_WP:	0.000	Y_WP:	0.500	X:	0.163	Y:	0.066	Z:	0.404	yaw:	168.279	yaw rate:	1.742	Roll:	-4.812	Pitch:	-3.308	Yaw:	236.524	Thrust:	27.288
Time:	4.124	Roll Set Point:	-0.017	Pitch Set Point:	0.032	Yaw Set Point:	-2.936	X_WP:	0.000	Y_WP:	0.000	Y_WP:	0.500	X:	0.163	Y:	0.066	Z:	0.405	yaw:	168.241	yaw rate:	-3.780	Roll:	-4.752	Pitch:	-3.394	Yaw:	235.839	Thrust:	27.376
Time:	4.140	Roll Set Point:	-0.017	Pitch Set Point:	0.032	Yaw Set Point:	-2.937	X_WP:	0.000	Y_WP:	0.000	Y_WP:	0.500	X:	0.163	Y:	0.066	Z:	0.404	yaw:	168.269	yaw rate:	2.737	Roll:	-4.858	Pitch:	-3.213	Yaw:	236.968	Thrust:	27.782
Time:	4.156	Roll Set Point:	-0.017	Pitch Set Point:	0.032	Yaw Set Point:	-2.937	X_WP:	0.000	Y_WP:	0.000	Y_WP:	0.500	X:	0.163	Y:	0.066	Z:	0.404	yaw:	168.272	yaw rate:	2.156	Roll:	-4.800	Pitch:	-3.323	Yaw:	236.580	Thrust:	27.851
Time:	4.171	Roll Set Point:	-0.017	Pitch Set Point:	0.032	Yaw Set Point:	-2.937	X_WP:	0.000	Y_WP:	0.000	Y_WP:	0.500	X:	0.163	Y:	0.066	Z:	0.404	yaw:	168.266	yaw rate:	-0.602	Roll:	-4.814	Pitch:	-3.360	Yaw:	236.405	Thrust:	27.919
Time:	4.187	Roll Set Point:	-0.017	Pitch Set Point:	0.032	Yaw Set Point:	-2.937	X_WP:	0.000	Y_WP:	0.000	Y_WP:	0.500	X:	0.163	Y:	0.066	Z:	0.404	yaw:	168.294	yaw rate:	2.737	Roll:	-4.873	Pitch:	-3.229	Yaw:	237.004	Thrust:	28.214
Time:	4.203	Roll Set Point:	-0.017	Pitch Set Point:	0.032	Yaw Set Point:	-2.937	X_WP:	0.000	Y_WP:	0.000	Y_WP:	0.500	X:	0.163	Y:	0.066	Z:	0.404	yaw:	168.255	yaw rate:	-3.912	Roll:	-4.725	Pitch:	-3.399	Yaw:	235.835	Thrust:	28.354
Time:	4.218	Roll Set Point:	-0.017	Pitch Set Point:	0.032	Yaw Set Point:	-2.937	X_WP:	0.000	Y_WP:	0.000	Y_WP:	0.500	X:	0.163	Y:	0.066	Z:	0.404	yaw:	168.281	yaw rate:	2.593	Roll:	-4.861	Pitch:	-3.283	Yaw:	236.961	Thrust:	28.510
Time:	4.234	Roll Set Point:	-0.017	Pitch Set Point:	0.032	Yaw Set Point:	-2.937	X_WP:	0.000	Y_WP:	0.000	Y_WP:	0.500	X:	0.163	Y:	0.066	Z:	0.404	yaw:	168.257	yaw rate:	-2.384	Roll:	-4.761	Pitch:	-3.469	Yaw:	236.098	Thrust:	28.747
Time:	4.249	Roll Set Point:	-0.017	Pitch Set Point:	0.032	Yaw Set Point:	-2.937	X_WP:	0.000	Y_WP:	0.000	Y_WP:	0.500	X:	0.163	Y:	0.066	Z:	0.404	yaw:	168.257	yaw rate:	-2.384	Roll:	-4.810	Pitch:	-3.343	Yaw:	236.490	Thrust:	28.852
Time:	4.265	Roll Set Point:	-0.017	Pitch Set Point:	0.032	Yaw Set Point:	-2.937	X_WP:	0.000	Y_WP:	0.000	Y_WP:	0.500	X:	0.163	Y:	0.066	Z:	0.405	yaw:	168.263	yaw rate:	0.661	Roll:	-4.835	Pitch:	-3.236	Yaw:	236.616	Thrust:	29.031
Time:	4.281	Roll Set Point:	-0.017	Pitch Set Point:	0.032	Yaw Set Point:	-2.937	X_WP:	0.000	Y_WP:	0.000	Y_WP:	0.500	X:	0.163	Y:	0.066	Z:	0.405	yaw:	168.263	yaw rate:	0.661	Roll:	-4.812	Pitch:	-3.349	Yaw:	236.503	Thrust:	29.256
Time:	4.296	Roll Set Point:	-0.017	Pitch Set Point:	0.032	Yaw Set Point:	-2.937	X_WP:	0.000	Y_WP:	0.000	Y_WP:	0.500	X:	0.163	Y:	0.066	Z:	0.404	yaw:	168.302	yaw rate:	3.808	Roll:	-4.883	Pitch:	-3.301	Yaw:	237.194	Thrust:	29.560
Time:	4.312	Roll Set Point:	-0.017	Pitch Set Point:	0.032	Yaw Set Point:	-2.937	X_WP:	0.000	Y_WP:	0.000	Y_WP:	0.500	X:	0.163	Y:	0.066	Z:	0.404	yaw:	168.271	yaw rate:	-3.082	Roll:	-4.742	Pitch:	-3.471	Yaw:	235.997	Thrust:	29.553
Time:	4.328	Roll Set Point:	-0.017	Pitch Set Point:	0.032	Yaw Set Point:	-2.937	X_WP:	0.000	Y_WP:	0.000	Y_WP:	0.500	X:	0.163	Y:	0.066	Z:	0.404	yaw:	168.283	yaw rate:	3.073	Roll:	-4.860	Pitch:	-3.330	Yaw:	236.738	Thrust:	29.900
Time:	4.343	Roll Set Point:	-0.017	Pitch Set Point:	0.032	Yaw Set Point:	-2.937	X_WP:	0.000	Y_WP:	0.000	Y_WP:	0.500	X:	0.163	Y:	0.066	Z:	0.404	yaw:	168.274	yaw rate:	-0.852	Roll:	-4.775	Pitch:	-3.331	Yaw:	236.375	Thrust:	29.965
Time:	4.359	Roll Set Point:	-0.017	Pitch Set Point:	0.032	Yaw Set Point:	-2.937	X_WP:	0.000	Y_WP:	0.000	Y_WP:	0.500	X:	0.163	Y:	0.066	Z:	0.404	yaw:	168.274	yaw rate:	-0.852	Roll:	-4.812	Pitch:	-3.368	Yaw:	236.518	Thrust:	30.155
Time:	4.374	Roll Set Point:	-0.017	Pitch Set Point:	0.032	Yaw Set Point:	-2.937	X_WP:	0.000	Y_WP:	0.000	Y_WP:	0.500	X:	0.163	Y:	0.066	Z:	0.405	yaw:	168.255	yaw rate:	-1.908	Roll:	-4.785	Pitch:	-3.417	Yaw:	236.168	Thrust:	30.181
Time:	4.390	Roll Set Point:	-0.017	Pitch Set Point:	0.032	Yaw Set Point:	-2.937	X_WP:	0.000	Y_WP:	0.000	Y_WP:	0.500	X:	0.163	Y:	0.066	Z:	0.404	yaw:	168.265	yaw rate:	1.465	Roll:	-4.846	Pitch:	-3.367	Yaw:	236.672	Thrust:	30.666
Time:	4.406	Roll Set Point:	-0.017	Pitch Set Point:	0.032	Yaw Set Point:	-2.937	X_WP:	0.000	Y_WP:	0.000	Y_WP:	0.500	X:	0.163	Y:	0.066	Z:	0.404	yaw:	168.275	yaw rate:	0.988	Roll:	-4.793	Pitch:	-3.316	Yaw:	236.685	Thrust:	30.598
Time:	4.421	Roll Set Point:	-0.017	Pitch Set Point:	0.032	Yaw Set Point:	-2.937	X_WP:	0.000	Y_WP:	0.000	Y_WP:	0.500	X:	0.163	Y:	0.066	Z:	0.404	yaw:	168.275	yaw rate:	0.988	Roll:	-4.812	Pitch:	-3.383	Yaw:	236.519	Thrust:	30.870
Time:	4.437	Roll Set Point:	-0.017	Pitch Set Point:	0.032	Yaw Set Point:	-2.936	X_WP:	0.000	Y_WP:	0.000	Y_WP:	0.500	X:	0.163	Y:	0.066	Z:	0.404	yaw:	168.233	yaw rate:	-4.408	Roll:	-4.756	Pitch:	-3.591	Yaw:	235.748	Thrust:	30.995
Time:	4.453	Roll Set Point:	-0.017	Pitch Set Point:	0.032	Yaw Set Point:	-2.937	X_WP:	0.000	Y_WP:	0.000	Y_WP:	0.500	X:	0.163	Y:	0.066	Z:	0.404	yaw:	168.260	yaw rate:	2.744	Roll:	-4.863	Pitch:	-3.283	Yaw:	236.958	Thrust:	31.263
Time:	4.468	Roll Set Point:	-0.017	Pitch Set Point:	0.032	Yaw Set Point:	-2.937	X_WP:	0.000	Y_WP:	0.000	Y_WP:	0.500	X:	0.163	Y:	0.066	Z:	0.404	yaw:	168.278	yaw rate:	1.804	Roll:	-4.840	Pitch:	-3.395	Yaw:	236.826	Thrust:	31.558
Time:	4.484	Roll Set Point:	-0.017	Pitch Set Point:	0.032	Yaw Set Point:	-2.937	X_WP:	0.000	Y_WP:	0.000	Y_WP:	0.500	X:	0.163	Y:	0.066	Z:	0.404	yaw:	168.268	yaw rate:	-0.980	Roll:	-4.788	Pitch:	-3.333	Yaw:	236.345	Thrust:	31.432
Time:	4.500	Roll Set Point:	-0.017	Pitch Set Point:	0.032	Yaw Set Point:	-2.936	X_WP:	0.000	Y_WP:	0.000	Y_WP:	0.500	X:	0.163	Y:	0.066	Z:	0.404	yaw:	168.236	yaw rate:	-3.263	Roll:	-4.756	Pitch:	-3.575	Yaw:	235.923	Thrust:	31.876
Time:	4.515	Roll Set Point:	-0.017	Pitch Set Point:	0.032	Yaw Set Point:	-2.936	X_WP:	0.000	Y_WP:	0.000	Y_WP:	0.500	X:	0.163	Y:	0.066	Z:	0.404	yaw:	168.238	yaw rate:	0.238	Roll:	-4.799	Pitch:	-3.359	Yaw:	236.504	Thrust:	31.961
Time:	4.531	Roll Set Point:	-0.017	Pitch Set Point:	0.032	Yaw Set Point:	-2.937	X_WP:	0.000	Y_WP:	0.000	Y_WP:	0.500	X:	0.163	Y:	0.066	Z:	0.404	yaw:	168.267	yaw rate:	2.866	Roll:	-4.867	Pitch:	-3.317	Yaw:	236.987	Thrust:	32.094
Time:	4.546	Roll Set Point:	-0.017	Pitch Set Point:	0.032	Yaw Set Point:	-2.937	X_WP:	0.000	Y_WP:	0.000	Y_WP:	0.500	X:	0.163	Y:	0.066	Z:	0.404	yaw:	168.266	yaw rate:	-0.070	Roll:	-4.807	Pitch:	-3.436	Yaw:	236.495	Thrust:	32.235
Time:	4.562	Roll Set Point:	-0.017	Pitch Set Point:	0.032	Yaw Set Point:	-2.937	X_WP:	0.000	Y_WP:	0.000	Y_WP:	0.500	X:	0.163	Y:	0.066	Z:	0.404	yaw:	168.273	yaw rate:	0.698	Roll:	-4.826	Pitch:	-3.471	Yaw:	236.635	Thrust:	32.639
Time:	4.578	Roll Set Point:	-0.017	Pitch Set Point:	0.032	Yaw Set Point:	-2.937	X_WP:	0.000	Y_WP:	0.000	Y_WP:	0.500	X:	0.163	Y:	0.066	Z:	0.404	yaw:	168.273	yaw rate:	0.698	Roll:	-4.811	Pitch:	-3.424	Yaw:	236.516	Thrust:	32.652
Time:	4.593	Roll Set Point:	-0.017	Pitch Set Point:	0.032	Yaw Set Point:	-2.937	X_WP:	0.000	Y_WP:	0.000	Y_WP:	0.500	X:	0.163	Y:	0.066	Z:	0.404	yaw:	168.262	yaw rate:	3.373	Roll:	-4.813	Pitch:	-3.376	Yaw:	236.323	Thrust:	32.696
Time:	4.609	Roll Set Point:	-0.017	Pitch Set Point:	0.032	Yaw Set Point:	-2.937	X_WP:	0.000	Y_WP:	0.000	Y_WP:	0.500	X:	0.163	Y:	0.066	Z:	0.404	yaw:	168.262	yaw rate:	3.373	Roll:	-4.812	Pitch:	-3.424	Yaw:	236.501	Thrust:	33.019
Time:	4.625	Roll Set Point:	-0.017	Pitch Set Point:	0.032	Yaw Set Point:	-2.937	X_WP:	0.000	Y_WP:	0.000	Y_WP:	0.500	X:	0.163	Y:	0.066	Z:	0.404	yaw:	168.275	yaw rate:	1.257	Roll:	-4.838	Pitch:	-3.406	Yaw:	236.730	Thrust:	33.208
Time:	4.640	Roll Set Point:	-0.017	Pitch Set Point:	0.032	Yaw Set Point:	-2.937	X_WP:	0.000	Y_WP:	0.000	Y_WP:	0.500	X:	0.163	Y:	0.066	Z:	0.404	yaw:	168.274	yaw rate:	-0.143	Roll:	-4.785	Pitch:	-3.438	Yaw:	236.493	Thrust:	33.352
Time:	4.656	Roll Set Point:	-0.017	Pitch Set Point:	0.032	Yaw Set Point:	-2.936	X_WP:	0.000	Y_WP:	0.000	Y_WP:	0.500	X:	0.163	Y:	0.066	Z:	0.404	yaw:	168.217	yaw rate:	-5.228	Roll:	-4.718	Pitch:	-3.524	Yaw:	235.490	Thrust:	33.534
Time:	4.671	Roll Set Point:	-0.017	Pitch Set Point:	0.032	Yaw Set Point:	-2.936	X_WP:	0.000	Y_WP:	0.000	Y_WP:	0.500	X:	0.163	Y:	0.066	Z:	0.404	yaw:	168.217	yaw rate:	-5.228	Roll:	-4.809	Pitch:	-3.426	Yaw:	236.438	Thrust:	33.734
Time:	4.687	Roll Set Point:	-0.017	Pitch Set Point:	0.032	Yaw Set Point:	-2.937	X_WP:	0.000	Y_WP:	0.000	Y_WP:	0.500	X:	0.163	Y:	0.066	Z:	0.404	yaw:	168.265	yaw rate:	1.804	Roll:	-4.901	Pitch:	-3.327	Yaw:	237.315	Thrust:	33.960
Time:	4.703	Roll Set Point:	-0.017	Pitch Set Point:	0.032	Yaw Set Point:	-2.936	X_WP:	0.000	Y_WP:	0.000	Y_WP:	0.500	X:	0.163	Y:	0.066	Z:	0.404	yaw:	168.245	yaw rate:	-2.000	Roll:	-4.777	Pitch:	-3.529	Yaw:	236.142	Thrust:	34.047
Time:	4.718	Roll Set Point:	-0.017	Pitch Set Point:	0.032	Yaw Set Point:	-2.937	X_WP:	0.000	Y_WP:	0.000	Y_WP:	0.500	X:	0.163	Y:	0.066	Z:	0.404	yaw:	168.272	yaw rate:	2.668	Roll:	-4.863	Pitch:	-3.327	Yaw:	236.962	Thrust:	34.375
Time:	4.734	Roll Set Point:	-0.017	Pitch Set Point:	0.032	Yaw Set Point:	-2.937	X_WP:	0.000	Y_WP:	0.000	Y_WP:	0.500	X:	0.163	Y:	0.066	Z:	0.404	yaw:	168.275	yaw rate:	0.340	Roll:	-4.823	Pitch:	-3.385	Yaw:	236.576	Thrust:	34.473
Time:	4.750	Roll Set Point:	-0.017	Pitch Set Point:	0.032	Yaw Set Point:	-2.937	X_WP:	0.000	Y_WP:	0.000	Y_WP:	0.500	X:	0.163	Y:	0.066	Z:	0.404	yaw:	168.272	yaw rate:	-0.311	Roll:	-4.790	Pitch:	-3.450	Yaw:	236.463	Thrust:	34.545
Time:	4.765	Roll Set Point:	-0.017	Pitch Set Point:	0.032	Yaw Set Point:	-2.937	X_WP:	0.000	Y_WP:	0.000	Y_WP:	0.500	X:	0.163	Y:	0.066	Z:	0.404	yaw:	168.272	yaw rate:	-0.311	Roll:	-4.812	Pitch:	-3.424	Yaw:	236.515	Thrust:	34.810
Time:	4.781	Roll Set Point:	-0.017	Pitch Set Point:	0.032	Yaw Set Point:	-2.937	X_WP:	0.000	Y_WP:	0.000	Y_WP:	0.500	X:	0.163	Y:	0.066	Z:	0.404	yaw:	168.254	yaw rate:	0.477	Roll:	-4.784	Pitch:	-3.479	Yaw:	236.175	Thrust:	35.090
Time:	4.813	Roll Set Point:	-0.017	Pitch Set Point:	0.032	Yaw Set Point:	-2.937	X_WP:	0.000	Y_WP:	0.000	Y_WP:	0.500	X:	0.163	Y:	0.066	Z:	0.404	yaw:	168.267	yaw rate:	1.846	Roll:	-5.424	Pitch:	-4.012	Yaw:	238.232	Thrust:	65.993
Time:	4.828	Roll Set Point:	-0.017	Pitch Set Point:	0.032	Yaw Set Point:	-2.937	X_WP:	0.000	Y_WP:	0.000	Y_WP:	0.500	X:	0.163	Y:	0.066	Z:	0.404	yaw:	168.267	yaw rate:	1.846	Roll:	-4.812	Pitch:	-3.425	Yaw:	236.509	Thrust:	35.363
Time:	4.844	Roll Set Point:	-0.017	Pitch Set Point:	0.032	Yaw Set Point:	-2.937	X_WP:	0.000	Y_WP:	0.000	Y_WP:	0.500	X:	0.163	Y:	0.066	Z:	0.404	yaw:	168.252	yaw rate:	-1.470	Roll:	-4.783	Pitch:	-3.507	Yaw:	236.241	Thrust:	35.560
Time:	4.859	Roll Set Point:	-0.017	Pitch Set Point:	0.032	Yaw Set Point:	-2.936	X_WP:	0.000	Y_WP:	0.000	Y_WP:	0.500	X:	0.163	Y:	0.066	Z:	0.404	yaw:	168.241	yaw rate:	-1.186	Roll:	-4.790	Pitch:	-3.397	Yaw:	236.272	Thrust:	35.651
Time:	4.875	Roll Set Point:	-0.017	Pitch Set Point:	0.032	Yaw Set Point:	-2.937	X_WP:	0.000	Y_WP:	0.000	Y_WP:	0.500	X:	0.163	Y:	0.066	Z:	0.404	yaw:	168.252	yaw rate:	1.130	Roll:	-4.821	Pitch:	-3.374	Yaw:	236.675	Thrust:	35.910
Time:	4.891	Roll Set Point:	-0.017	Pitch Set Point:	0.032	Yaw Set Point:	-2.937	X_WP:	0.000	Y_WP:	0.000	Y_WP:	0.500	X:	0.163	Y:	0.066	Z:	0.405	yaw:	168.256	yaw rate:	-0.952	Roll:	-4.842	Pitch:	-3.436	Yaw:	236.562	Thrust:	35.938
Time:	4.907	Roll Set Point:	-0.017	Pitch Set Point:	0.032	Yaw Set Point:	-2.937	X_WP:	0.000	Y_WP:	0.000	Y_WP:	0.500	X:	0.163	Y:	0.066	Z:	0.404	yaw:	168.273	yaw rate:	1.693	Roll:	-4.852	Pitch:	-3.452	Yaw:	236.889	Thrust:	38.604
Time:	4.924	Roll Set Point:	-0.017	Pitch Set Point:	0.032	Yaw Set Point:	-2.937	X_WP:	0.000	Y_WP:	0.000	Y_WP:	0.500	X:	0.163	Y:	0.066	Z:	0.404	yaw:	168.253	yaw rate:	-1.988	Roll:	-4.836	Pitch:	-3.456	Yaw:	236.276	Thrust:	38.319
Time:	4.940	Roll Set Point:	-0.017	Pitch Set Point:	0.032	Yaw Set Point:	-2.937	X_WP:	0.000	Y_WP:	0.000	Y_WP:	0.500	X:	0.163	Y:	0.066	Z:	0.404	yaw:	168.282	yaw rate:	2.887	Roll:	-4.858	Pitch:	-3.391	Yaw:	237.013	Thrust:	36.665
Time:	4.957	Roll Set Point:	-0.017	Pitch Set Point:	0.032	Yaw Set Point:	-2.937	X_WP:	0.000	Y_WP:	0.000	Y_WP:	0.500	X:	0.163	Y:	0.066	Z:	0.404	yaw:	168.282	yaw rate:	2.887	Roll:	-4.812	Pitch:	-3.467	Yaw:	236.646	Thrust:	39.148
Time:	4.973	Roll Set Point:	-0.017	Pitch Set Point:	0.032	Yaw Set Point:	-2.937	X_WP:	0.000	Y_WP:	0.000	Y_WP:	0.500	X:	0.163	Y:	0.066	Z:	0.404	yaw:	168.252	yaw rate:	-3.021	Roll:	-4.844	Pitch:	-3.535	Yaw:	236.127	Thrust:	39.241
Time:	4.990	Roll Set Point:	-0.017	Pitch Set Point:	0.032	Yaw Set Point:	-2.936	X_WP:	0.000	Y_WP:	0.000	Y_WP:	0.500	X:	0.163	Y:	0.066	Z:	0.404	yaw:	168.244	yaw rate:	-0.899	Roll:	-4.864	Pitch:	-3.501	Yaw:	236.520	Thrust:	39.408
Time:	5.007	Roll Set Point:	-0.017	Pitch Set Point:	0.032	Yaw Set Point:	-2.936	X_WP:	0.000	Y_WP:	0.000	Y_WP:	0.500	X:	0.163	Y:	0.066	Z:	0.404	yaw:	168.244	yaw rate:	-0.899	Roll:	-4.868	Pitch:	-3.483	Yaw:	236.577	Thrust:	40.423
Time:	5.024	Roll Set Point:	-0.017	Pitch Set Point:	0.032	Yaw Set Point:	-2.937	X_WP:	0.000	Y_WP:	0.000	Y_WP:	0.500	X:	0.163	Y:	0.066	Z:	0.404	yaw:	168.259	yaw rate:	2.243	Roll:	-4.827	Pitch:	-3.421	Yaw:	236.844	Thrust:	39.899
Time:	5.041	Roll Set Point:	-0.017	Pitch Set Point:	0.032	Yaw Set Point:	-2.937	X_WP:	0.000	Y_WP:	0.000	Y_WP:	0.500	X:	0.163	Y:	0.066	Z:	0.404	yaw:	168.259	yaw rate:	2.243	Roll:	-4.867	Pitch:	-3.462	Yaw:	236.597	Thrust:	39.762
Time:	5.057	Roll Set Point:	-0.017	Pitch Set Point:	0.032	Yaw Set Point:	-2.937	X_WP:	0.000	Y_WP:	0.000	Y_WP:	0.500	X:	0.163	Y:	0.066	Z:	0.404	yaw:	168.291	yaw rate:	1.589	Roll:	-4.916	Pitch:	-3.390	Yaw:	237.150	Thrust:	40.225
Time:	5.074	Roll Set Point:	-0.017	Pitch Set Point:	0.032	Yaw Set Point:	-2.937	X_WP:	0.000	Y_WP:	0.000	Y_WP:	0.500	X:	0.163	Y:	0.066	Z:	0.404	yaw:	168.250	yaw rate:	-4.107	Roll:	-4.814	Pitch:	-3.583	Yaw:	235.938	Thrust:	40.117
Time:	5.090	Roll Set Point:	-0.017	Pitch Set Point:	0.032	Yaw Set Point:	-2.937	X_WP:	0.000	Y_WP:	0.000	Y_WP:	0.500	X:	0.163	Y:	0.066	Z:	0.404	yaw:	168.265	yaw rate:	1.585	Roll:	-4.824	Pitch:	-3.354	Yaw:	236.771	Thrust:	38.221
Time:	5.105	Roll Set Point:	-0.017	Pitch Set Point:	0.032	Yaw Set Point:	-2.937	X_WP:	0.000	Y_WP:	0.000	Y_WP:	0.500	X:	0.163	Y:	0.066	Z:	0.404	yaw:	168.268	yaw rate:	0.250	Roll:	-4.833	Pitch:	-3.362	Yaw:	236.550	Thrust:	38.356
Time:	5.121	Roll Set Point:	-0.017	Pitch Set Point:	0.032	Yaw Set Point:	-2.937	X_WP:	0.000	Y_WP:	0.000	Y_WP:	0.500	X:	0.163	Y:	0.066	Z:	0.404	yaw:	168.258	yaw rate:	-0.947	Roll:	-4.760	Pitch:	-3.523	Yaw:	236.337	Thrust:	38.758
Time:	5.136	Roll Set Point:	-0.017	Pitch Set Point:	0.032	Yaw Set Point:	-2.937	X_WP:	0.000	Y_WP:	0.000	Y_WP:	0.500	X:	0.163	Y:	0.066	Z:	0.404	yaw:	168.252	yaw rate:	-0.610	Roll:	-4.813	Pitch:	-3.465	Yaw:	236.385	Thrust:	38.661
Time:	5.152	Roll Set Point:	-0.017	Pitch Set Point:	0.032	Yaw Set Point:	-2.937	X_WP:	0.000	Y_WP:	0.000	Y_WP:	0.500	X:	0.163	Y:	0.066	Z:	0.404	yaw:	168.279	yaw rate:	2.649	Roll:	-4.870	Pitch:	-3.378	Yaw:	236.968	Thrust:	38.849
Time:	5.168	Roll Set Point:	-0.017	Pitch Set Point:	0.032	Yaw Set Point:	-2.937	X_WP:	0.000	Y_WP:	0.000	Y_WP:	0.500	X:	0.163	Y:	0.066	Z:	0.404	yaw:	168.279	yaw rate:	2.649	Roll:	-4.812	Pitch:	-3.425	Yaw:	236.524	Thrust:	39.106
Time:	5.183	Roll Set Point:	-0.017	Pitch Set Point:	0.032	Yaw Set Point:	-2.936	X_WP:	0.000	Y_WP:	0.000	Y_WP:	0.500	X:	0.163	Y:	0.066	Z:	0.404	yaw:	168.241	yaw rate:	-5.521	Roll:	-4.733	Pitch:	-3.444	Yaw:	235.842	Thrust:	39.342
Time:	5.199	Roll Set Point:	-0.017	Pitch Set Point:	0.032	Yaw Set Point:	-2.937	X_WP:	0.000	Y_WP:	0.000	Y_WP:	0.500	X:	0.163	Y:	0.066	Z:	0.404	yaw:	168.254	yaw rate:	1.293	Roll:	-4.842	Pitch:	-3.411	Yaw:	236.707	Thrust:	39.434
Time:	5.215	Roll Set Point:	-0.017	Pitch Set Point:	0.032	Yaw Set Point:	-2.937	X_WP:	0.000	Y_WP:	0.000	Y_WP:	0.500	X:	0.163	Y:	0.066	Z:	0.404	yaw:	168.262	yaw rate:	0.749	Roll:	-4.824	Pitch:	-3.472	Yaw:	236.626	Thrust:	39.628
Time:	5.230	Roll Set Point:	-0.017	Pitch Set Point:	0.032	Yaw Set Point:	-2.936	X_WP:	0.000	Y_WP:	0.000	Y_WP:	0.500	X:	0.163	Y:	0.066	Z:	0.404	yaw:	168.247	yaw rate:	-1.456	Roll:	-4.785	Pitch:	-3.364	Yaw:	236.236	Thrust:	39.850
Time:	5.246	Roll Set Point:	-0.017	Pitch Set Point:	0.032	Yaw Set Point:	-2.937	X_WP:	0.000	Y_WP:	0.000	Y_WP:	0.500	X:	0.163	Y:	0.066	Z:	0.405	yaw:	168.271	yaw rate:	2.432	Roll:	-4.857	Pitch:	-3.310	Yaw:	236.921	Thrust:	39.875
Time:	5.261	Roll Set Point:	-0.017	Pitch Set Point:	0.032	Yaw Set Point:	-2.937	X_WP:	0.000	Y_WP:	0.000	Y_WP:	0.500	X:	0.163	Y:	0.066	Z:	0.404	yaw:	168.283	yaw rate:	1.155	Roll:	-4.832	Pitch:	-3.530	Yaw:	236.724	Thrust:	40.502
Time:	5.280	Roll Set Point:	-0.017	Pitch Set Point:	0.032	Yaw Set Point:	-2.937	X_WP:	0.000	Y_WP:	0.000	Y_WP:	0.500	X:	0.163	Y:	0.066	Z:	0.405	yaw:	168.252	yaw rate:	-3.117	Roll:	-4.755	Pitch:	-3.431	Yaw:	236.286	Thrust:	40.085
Time:	5.297	Roll Set Point:	-0.017	Pitch Set Point:	0.032	Yaw Set Point:	-2.937	X_WP:	0.000	Y_WP:	0.000	Y_WP:	0.500	X:	0.163	Y:	0.066	Z:	0.405	yaw:	168.252	yaw rate:	-3.117	Roll:	-4.961	Pitch:	-3.575	Yaw:	236.637	Thrust:	49.599
Time:	5.312	Roll Set Point:	-0.017	Pitch Set Point:	0.032	Yaw Set Point:	-2.937	X_WP:	0.000	Y_WP:	0.000	Y_WP:	0.500	X:	0.163	Y:	0.066	Z:	0.404	yaw:	168.256	yaw rate:	-2.659	Roll:	-4.814	Pitch:	-3.429	Yaw:	236.569	Thrust:	40.853
Time:	5.328	Roll Set Point:	-0.017	Pitch Set Point:	0.032	Yaw Set Point:	-2.937	X_WP:	0.000	Y_WP:	0.000	Y_WP:	0.500	X:	0.163	Y:	0.066	Z:	0.404	yaw:	168.255	yaw rate:	-0.152	Roll:	-4.809	Pitch:	-3.409	Yaw:	236.467	Thrust:	40.958
Time:	5.344	Roll Set Point:	-0.017	Pitch Set Point:	0.032	Yaw Set Point:	-2.937	X_WP:	0.000	Y_WP:	0.000	Y_WP:	0.500	X:	0.163	Y:	0.066	Z:	0.404	yaw:	168.261	yaw rate:	0.587	Roll:	-4.847	Pitch:	-3.489	Yaw:	236.598	Thrust:	41.037
Time:	5.366	Roll Set Point:	-0.017	Pitch Set Point:	0.032	Yaw Set Point:	-2.937	X_WP:	0.000	Y_WP:	0.000	Y_WP:	0.500	X:	0.163	Y:	0.066	Z:	0.404	yaw:	168.261	yaw rate:	0.587	Roll:	-5.053	Pitch:	-3.667	Yaw:	237.142	Thrust:	56.072
Time:	5.383	Roll Set Point:	-0.017	Pitch Set Point:	0.032	Yaw Set Point:	-2.936	X_WP:	0.000	Y_WP:	0.000	Y_WP:	0.500	X:	0.163	Y:	0.066	Z:	0.404	yaw:	168.209	yaw rate:	-6.526	Roll:	-4.684	Pitch:	-3.482	Yaw:	235.824	Thrust:	45.604
Time:	5.400	Roll Set Point:	-0.017	Pitch Set Point:	0.032	Yaw Set Point:	-2.937	X_WP:	0.000	Y_WP:	0.000	Y_WP:	0.500	X:	0.163	Y:	0.066	Z:	0.404	yaw:	168.303	yaw rate:	9.493	Roll:	-5.090	Pitch:	-3.413	Yaw:	238.160	Thrust:	45.306
Time:	5.416	Roll Set Point:	-0.017	Pitch Set Point:	0.032	Yaw Set Point:	-2.937	X_WP:	0.000	Y_WP:	0.000	Y_WP:	0.500	X:	0.163	Y:	0.066	Z:	0.404	yaw:	168.303	yaw rate:	9.493	Roll:	-4.813	Pitch:	-3.423	Yaw:	236.559	Thrust:	41.799
Time:	5.431	Roll Set Point:	-0.017	Pitch Set Point:	0.032	Yaw Set Point:	-2.936	X_WP:	0.000	Y_WP:	0.000	Y_WP:	0.500	X:	0.163	Y:	0.066	Z:	0.405	yaw:	168.245	yaw rate:	-5.859	Roll:	-4.703	Pitch:	-3.490	Yaw:	235.497	Thrust:	41.686
Time:	5.447	Roll Set Point:	-0.017	Pitch Set Point:	0.032	Yaw Set Point:	-2.937	X_WP:	0.000	Y_WP:	0.000	Y_WP:	0.500	X:	0.163	Y:	0.066	Z:	0.404	yaw:	168.251	yaw rate:	-2.140	Roll:	-4.820	Pitch:	-3.405	Yaw:	236.585	Thrust:	42.263
Time:	5.463	Roll Set Point:	-0.017	Pitch Set Point:	0.032	Yaw Set Point:	-2.937	X_WP:	0.000	Y_WP:	0.000	Y_WP:	0.500	X:	0.163	Y:	0.066	Z:	0.404	yaw:	168.251	yaw rate:	-2.140	Roll:	-4.811	Pitch:	-3.424	Yaw:	236.485	Thrust:	42.340
Time:	5.478	Roll Set Point:	-0.017	Pitch Set Point:	0.032	Yaw Set Point:	-2.936	X_WP:	0.000	Y_WP:	0.000	Y_WP:	0.500	X:	0.163	Y:	0.066	Z:	0.404	yaw:	168.247	yaw rate:	-2.072	Roll:	-4.792	Pitch:	-3.489	Yaw:	236.407	Thrust:	42.479
Time:	5.494	Roll Set Point:	-0.017	Pitch Set Point:	0.032	Yaw Set Point:	-2.937	X_WP:	0.000	Y_WP:	0.000	Y_WP:	0.500	X:	0.163	Y:	0.066	Z:	0.404	yaw:	168.302	yaw rate:	5.539	Roll:	-4.916	Pitch:	-3.258	Yaw:	237.485	Thrust:	42.848
Time:	5.510	Roll Set Point:	-0.017	Pitch Set Point:	0.032	Yaw Set Point:	-2.936	X_WP:	0.000	Y_WP:	0.000	Y_WP:	0.500	X:	0.163	Y:	0.066	Z:	0.405	yaw:	168.249	yaw rate:	-5.303	Roll:	-4.735	Pitch:	-3.545	Yaw:	235.594	Thrust:	42.689
Time:	5.525	Roll Set Point:	-0.017	Pitch Set Point:	0.032	Yaw Set Point:	-2.936	X_WP:	0.000	Y_WP:	0.000	Y_WP:	0.500	X:	0.163	Y:	0.066	Z:	0.405	yaw:	168.249	yaw rate:	-5.303	Roll:	-4.811	Pitch:	-3.425	Yaw:	236.483	Thrust:	43.051
Time:	5.541	Roll Set Point:	-0.017	Pitch Set Point:	0.032	Yaw Set Point:	-2.937	X_WP:	0.000	Y_WP:	0.000	Y_WP:	0.500	X:	0.163	Y:	0.066	Z:	0.404	yaw:	168.252	yaw rate:	0.264	Roll:	-4.805	Pitch:	-3.451	Yaw:	236.531	Thrust:	43.396
Time:	5.557	Roll Set Point:	-0.017	Pitch Set Point:	0.032	Yaw Set Point:	-2.937	X_WP:	0.000	Y_WP:	0.000	Y_WP:	0.500	X:	0.163	Y:	0.066	Z:	0.404	yaw:	168.283	yaw rate:	3.773	Roll:	-4.857	Pitch:	-3.326	Yaw:	237.061	Thrust:	43.544
Time:	5.572	Roll Set Point:	-0.017	Pitch Set Point:	0.032	Yaw Set Point:	-2.937	X_WP:	0.000	Y_WP:	0.000	Y_WP:	0.500	X:	0.163	Y:	0.066	Z:	0.404	yaw:	168.278	yaw rate:	-0.547	Roll:	-4.833	Pitch:	-3.414	Yaw:	236.429	Thrust:	43.381
Time:	5.588	Roll Set Point:	-0.017	Pitch Set Point:	0.032	Yaw Set Point:	-2.937	X_WP:	0.000	Y_WP:	0.000	Y_WP:	0.500	X:	0.163	Y:	0.066	Z:	0.404	yaw:	168.278	yaw rate:	-0.547	Roll:	-4.812	Pitch:	-3.422	Yaw:	236.521	Thrust:	43.720
Time:	5.603	Roll Set Point:	-0.017	Pitch Set Point:	0.032	Yaw Set Point:	-2.937	X_WP:	0.000	Y_WP:	0.000	Y_WP:	0.500	X:	0.163	Y:	0.066	Z:	0.405	yaw:	168.250	yaw rate:	0.738	Roll:	-4.740	Pitch:	-3.513	Yaw:	236.022	Thrust:	43.905
Time:	5.619	Roll Set Point:	-0.017	Pitch Set Point:	0.032	Yaw Set Point:	-2.937	X_WP:	0.000	Y_WP:	0.000	Y_WP:	0.500	X:	0.163	Y:	0.066	Z:	0.404	yaw:	168.268	yaw rate:	1.746	Roll:	-4.835	Pitch:	-3.406	Yaw:	236.801	Thrust:	44.201
Time:	5.635	Roll Set Point:	-0.017	Pitch Set Point:	0.032	Yaw Set Point:	-2.937	X_WP:	0.000	Y_WP:	0.000	Y_WP:	0.500	X:	0.163	Y:	0.066	Z:	0.404	yaw:	168.276	yaw rate:	0.888	Roll:	-4.839	Pitch:	-3.351	Yaw:	236.670	Thrust:	44.366
Time:	5.650	Roll Set Point:	-0.017	Pitch Set Point:	0.032	Yaw Set Point:	-2.937	X_WP:	0.000	Y_WP:	0.000	Y_WP:	0.500	X:	0.163	Y:	0.066	Z:	0.404	yaw:	168.252	yaw rate:	-2.438	Roll:	-4.779	Pitch:	-3.539	Yaw:	236.078	Thrust:	44.454
Time:	5.666	Roll Set Point:	-0.017	Pitch Set Point:	0.032	Yaw Set Point:	-2.937	X_WP:	0.000	Y_WP:	0.000	Y_WP:	0.500	X:	0.163	Y:	0.066	Z:	0.404	yaw:	168.252	yaw rate:	-2.438	Roll:	-4.811	Pitch:	-3.426	Yaw:	236.487	Thrust:	44.664
Time:	5.681	Roll Set Point:	-0.017	Pitch Set Point:	0.032	Yaw Set Point:	-2.937	X_WP:	0.000	Y_WP:	0.000	Y_WP:	0.500	X:	0.163	Y:	0.066	Z:	0.405	yaw:	168.267	yaw rate:	3.315	Roll:	-4.827	Pitch:	-3.353	Yaw:	236.753	Thrust:	44.714
Time:	5.697	Roll Set Point:	-0.017	Pitch Set Point:	0.032	Yaw Set Point:	-2.937	X_WP:	0.000	Y_WP:	0.000	Y_WP:	0.500	X:	0.163	Y:	0.066	Z:	0.404	yaw:	168.289	yaw rate:	2.228	Roll:	-4.856	Pitch:	-3.387	Yaw:	236.912	Thrust:	45.195
Time:	5.713	Roll Set Point:	-0.017	Pitch Set Point:	0.032	Yaw Set Point:	-2.937	X_WP:	0.000	Y_WP:	0.000	Y_WP:	0.500	X:	0.163	Y:	0.066	Z:	0.404	yaw:	168.258	yaw rate:	-3.137	Roll:	-4.741	Pitch:	-3.501	Yaw:	235.969	Thrust:	45.172
Time:	5.728	Roll Set Point:	-0.017	Pitch Set Point:	0.032	Yaw Set Point:	-2.936	X_WP:	0.000	Y_WP:	0.000	Y_WP:	0.500	X:	0.163	Y:	0.066	Z:	0.404	yaw:	168.226	yaw rate:	-3.186	Roll:	-4.764	Pitch:	-3.508	Yaw:	235.921	Thrust:	45.411
Time:	5.744	Roll Set Point:	-0.017	Pitch Set Point:	0.032	Yaw Set Point:	-2.936	X_WP:	0.000	Y_WP:	0.000	Y_WP:	0.500	X:	0.163	Y:	0.066	Z:	0.404	yaw:	168.245	yaw rate:	1.889	Roll:	-4.836	Pitch:	-3.381	Yaw:	236.797	Thrust:	45.725
Time:	5.760	Roll Set Point:	-0.017	Pitch Set Point:	0.032	Yaw Set Point:	-2.936	X_WP:	0.000	Y_WP:	0.000	Y_WP:	0.500	X:	0.163	Y:	0.066	Z:	0.404	yaw:	168.245	yaw rate:	1.889	Roll:	-4.808	Pitch:	-3.424	Yaw:	236.471	Thrust:	45.591
Time:	5.776	Roll Set Point:	-0.017	Pitch Set Point:	0.032	Yaw Set Point:	-2.937	X_WP:	0.000	Y_WP:	0.000	Y_WP:	0.500	X:	0.163	Y:	0.066	Z:	0.404	yaw:	168.287	yaw rate:	4.206	Roll:	-4.886	Pitch:	-3.270	Yaw:	237.238	Thrust:	45.855
Time:	5.790	Roll Set Point:	-0.017	Pitch Set Point:	0.032	Yaw Set Point:	-2.936	X_WP:	0.000	Y_WP:	0.000	Y_WP:	0.500	X:	0.163	Y:	0.066	Z:	0.404	yaw:	168.234	yaw rate:	-5.256	Roll:	-4.695	Pitch:	-3.585	Yaw:	235.471	Thrust:	44.254
Time:	5.813	Roll Set Point:	-0.017	Pitch Set Point:	0.032	Yaw Set Point:	-2.937	X_WP:	0.000	Y_WP:	0.000	Y_WP:	0.500	X:	0.163	Y:	0.066	Z:	0.404	yaw:	168.250	yaw rate:	0.296	Roll:	-5.087	Pitch:	-3.658	Yaw:	237.375	Thrust:	64.921
Time:	5.829	Roll Set Point:	-0.017	Pitch Set Point:	0.032	Yaw Set Point:	-2.937	X_WP:	0.000	Y_WP:	0.000	Y_WP:	0.500	X:	0.163	Y:	0.066	Z:	0.404	yaw:	168.250	yaw rate:	0.296	Roll:	-4.809	Pitch:	-3.424	Yaw:	236.481	Thrust:	46.369
Time:	5.844	Roll Set Point:	-0.017	Pitch Set Point:	0.032	Yaw Set Point:	-2.937	X_WP:	0.000	Y_WP:	0.000	Y_WP:	0.500	X:	0.163	Y:	0.066	Z:	0.404	yaw:	168.273	yaw rate:	2.307	Roll:	-4.861	Pitch:	-3.372	Yaw:	236.905	Thrust:	46.757
Time:	5.860	Roll Set Point:	-0.017	Pitch Set Point:	0.032	Yaw Set Point:	-2.937	X_WP:	0.000	Y_WP:	0.000	Y_WP:	0.500	X:	0.163	Y:	0.066	Z:	0.404	yaw:	168.273	yaw rate:	2.307	Roll:	-4.812	Pitch:	-3.424	Yaw:	236.516	Thrust:	46.816
Time:	5.891	Roll Set Point:	-0.017	Pitch Set Point:	0.032	Yaw Set Point:	-2.937	X_WP:	0.000	Y_WP:	0.000	Y_WP:	0.500	X:	0.163	Y:	0.066	Z:	0.404	yaw:	168.292	yaw rate:	1.871	Roll:	-5.414	Pitch:	-3.989	Yaw:	238.259	Thrust:	88.649
Time:	5.938	Roll Set Point:	-0.017	Pitch Set Point:	0.032	Yaw Set Point:	-2.937	X_WP:	0.000	Y_WP:	0.000	Y_WP:	0.500	X:	0.163	Y:	0.066	Z:	0.404	yaw:	168.270	yaw rate:	1.607	Roll:	-5.969	Pitch:	-4.594	Yaw:	239.513	Thrust:	100.000
Time:	5.954	Roll Set Point:	-0.017	Pitch Set Point:	0.032	Yaw Set Point:	-2.937	X_WP:	0.000	Y_WP:	0.000	Y_WP:	0.500	X:	0.163	Y:	0.066	Z:	0.404	yaw:	168.270	yaw rate:	1.607	Roll:	-4.811	Pitch:	-3.423	Yaw:	236.511	Thrust:	47.352
Time:	5.969	Roll Set Point:	-0.017	Pitch Set Point:	0.032	Yaw Set Point:	-2.937	X_WP:	0.000	Y_WP:	0.000	Y_WP:	0.500	X:	0.163	Y:	0.066	Z:	0.404	yaw:	168.257	yaw rate:	-1.921	Roll:	-4.786	Pitch:	-3.493	Yaw:	236.288	Thrust:	47.688
Time:	5.985	Roll Set Point:	-0.017	Pitch Set Point:	0.032	Yaw Set Point:	-2.937	X_WP:	0.000	Y_WP:	0.000	Y_WP:	0.500	X:	0.163	Y:	0.066	Z:	0.404	yaw:	168.252	yaw rate:	-0.550	Roll:	-4.809	Pitch:	-3.466	Yaw:	236.391	Thrust:	47.504
Time:	6.000	Roll Set Point:	-0.162	Pitch Set Point:	-0.129	Yaw Set Point:	-2.937	X_WP:	0.175	Y_WP:	0.127	Y_WP:	0.500	X:	0.163	Y:	0.066	Z:	0.404	yaw:	168.281	yaw rate:	2.925	Roll:	30.000	Pitch:	30.000	Yaw:	237.019	Thrust:	48.015
Time:	6.016	Roll Set Point:	-0.162	Pitch Set Point:	-0.129	Yaw Set Point:	-2.937	X_WP:	0.175	Y_WP:	0.127	Y_WP:	0.500	X:	0.163	Y:	0.066	Z:	0.404	yaw:	168.294	yaw rate:	1.363	Roll:	-0.583	Pitch:	1.226	Yaw:	236.772	Thrust:	48.077
Time:	6.032	Roll Set Point:	-0.162	Pitch Set Point:	-0.129	Yaw Set Point:	-2.937	X_WP:	0.175	Y_WP:	0.127	Y_WP:	0.500	X:	0.163	Y:	0.066	Z:	0.405	yaw:	168.266	yaw rate:	-2.823	Roll:	-0.611	Pitch:	1.225	Yaw:	236.037	Thrust:	48.132
Time:	6.047	Roll Set Point:	-0.162	Pitch Set Point:	-0.129	Yaw Set Point:	-2.937	X_WP:	0.175	Y_WP:	0.127	Y_WP:	0.500	X:	0.163	Y:	0.066	Z:	0.405	yaw:	168.266	yaw rate:	-2.823	Roll:	-0.595	Pitch:	1.230	Yaw:	236.507	Thrust:	48.423
Time:	6.063	Roll Set Point:	-0.162	Pitch Set Point:	-0.129	Yaw Set Point:	-2.937	X_WP:	0.175	Y_WP:	0.127	Y_WP:	0.500	X:	0.163	Y:	0.066	Z:	0.404	yaw:	168.259	yaw rate:	-0.025	Roll:	-0.617	Pitch:	1.234	Yaw:	236.379	Thrust:	48.625
Time:	6.079	Roll Set Point:	-0.162	Pitch Set Point:	-0.129	Yaw Set Point:	-2.937	X_WP:	0.175	Y_WP:	0.127	Y_WP:	0.500	X:	0.163	Y:	0.066	Z:	0.404	yaw:	168.259	yaw rate:	-0.025	Roll:	-0.597	Pitch:	1.234	Yaw:	236.500	Thrust:	48.872
Time:	6.094	Roll Set Point:	-0.162	Pitch Set Point:	-0.129	Yaw Set Point:	-2.937	X_WP:	0.175	Y_WP:	0.127	Y_WP:	0.500	X:	0.163	Y:	0.066	Z:	0.404	yaw:	168.276	yaw rate:	1.628	Roll:	-0.577	Pitch:	1.238	Yaw:	236.793	Thrust:	49.009
Time:	6.110	Roll Set Point:	-0.162	Pitch Set Point:	-0.129	Yaw Set Point:	-2.937	X_WP:	0.175	Y_WP:	0.127	Y_WP:	0.500	X:	0.163	Y:	0.066	Z:	0.404	yaw:	168.267	yaw rate:	-0.294	Roll:	-0.625	Pitch:	1.235	Yaw:	236.354	Thrust:	49.216
Time:	6.125	Roll Set Point:	-0.162	Pitch Set Point:	-0.129	Yaw Set Point:	-2.936	X_WP:	0.175	Y_WP:	0.127	Y_WP:	0.500	X:	0.163	Y:	0.066	Z:	0.405	yaw:	168.245	yaw rate:	-2.144	Roll:	-0.595	Pitch:	1.243	Yaw:	236.114	Thrust:	49.015
Time:	6.141	Roll Set Point:	-0.162	Pitch Set Point:	-0.129	Yaw Set Point:	-2.937	X_WP:	0.175	Y_WP:	0.127	Y_WP:	0.500	X:	0.163	Y:	0.066	Z:	0.404	yaw:	168.287	yaw rate:	4.227	Roll:	-0.569	Pitch:	1.246	Yaw:	237.248	Thrust:	49.904
Time:	6.157	Roll Set Point:	-0.162	Pitch Set Point:	-0.129	Yaw Set Point:	-2.937	X_WP:	0.175	Y_WP:	0.127	Y_WP:	0.500	X:	0.163	Y:	0.066	Z:	0.404	yaw:	168.287	yaw rate:	4.227	Roll:	-0.586	Pitch:	1.247	Yaw:	236.536	Thrust:	49.688
Time:	6.172	Roll Set Point:	-0.162	Pitch Set Point:	-0.129	Yaw Set Point:	-2.937	X_WP:	0.175	Y_WP:	0.127	Y_WP:	0.500	X:	0.163	Y:	0.066	Z:	0.404	yaw:	168.257	yaw rate:	-1.841	Roll:	-0.622	Pitch:	1.256	Yaw:	235.976	Thrust:	49.537
Time:	6.188	Roll Set Point:	-0.162	Pitch Set Point:	-0.129	Yaw Set Point:	-2.936	X_WP:	0.175	Y_WP:	0.127	Y_WP:	0.500	X:	0.163	Y:	0.066	Z:	0.404	yaw:	168.247	yaw rate:	-0.960	Roll:	-0.615	Pitch:	1.252	Yaw:	236.319	Thrust:	50.062
Time:	6.204	Roll Set Point:	-0.162	Pitch Set Point:	-0.129	Yaw Set Point:	-2.937	X_WP:	0.175	Y_WP:	0.127	Y_WP:	0.500	X:	0.163	Y:	0.066	Z:	0.404	yaw:	168.255	yaw rate:	0.744	Roll:	-0.572	Pitch:	1.252	Yaw:	236.616	Thrust:	50.170
Time:	6.219	Roll Set Point:	-0.162	Pitch Set Point:	-0.129	Yaw Set Point:	-2.937	X_WP:	0.175	Y_WP:	0.127	Y_WP:	0.500	X:	0.163	Y:	0.066	Z:	0.404	yaw:	168.285	yaw rate:	3.042	Roll:	-0.572	Pitch:	1.257	Yaw:	237.043	Thrust:	50.483
Time:	6.235	Roll Set Point:	-0.162	Pitch Set Point:	-0.129	Yaw Set Point:	-2.936	X_WP:	0.175	Y_WP:	0.127	Y_WP:	0.500	X:	0.163	Y:	0.066	Z:	0.405	yaw:	168.218	yaw rate:	-6.696	Roll:	-0.656	Pitch:	1.257	Yaw:	235.318	Thrust:	50.418
Time:	6.250	Roll Set Point:	-0.162	Pitch Set Point:	-0.129	Yaw Set Point:	-2.936	X_WP:	0.175	Y_WP:	0.127	Y_WP:	0.500	X:	0.163	Y:	0.066	Z:	0.405	yaw:	168.218	yaw rate:	-6.696	Roll:	-0.597	Pitch:	1.262	Yaw:	236.440	Thrust:	50.751
Time:	6.266	Roll Set Point:	-0.162	Pitch Set Point:	-0.129	Yaw Set Point:	-2.936	X_WP:	0.175	Y_WP:	0.127	Y_WP:	0.500	X:	0.163	Y:	0.066	Z:	0.405	yaw:	168.248	yaw rate:	-2.260	Roll:	-0.564	Pitch:	1.262	Yaw:	236.975	Thrust:	50.907
Time:	6.282	Roll Set Point:	-0.162	Pitch Set Point:	-0.129	Yaw Set Point:	-2.937	X_WP:	0.175	Y_WP:	0.127	Y_WP:	0.500	X:	0.163	Y:	0.066	Z:	0.404	yaw:	168.292	yaw rate:	4.450	Roll:	-0.567	Pitch:	1.268	Yaw:	237.289	Thrust:	51.349
Time:	6.297	Roll Set Point:	-0.162	Pitch Set Point:	-0.129	Yaw Set Point:	-2.937	X_WP:	0.175	Y_WP:	0.127	Y_WP:	0.500	X:	0.163	Y:	0.066	Z:	0.405	yaw:	168.255	yaw rate:	-3.751	Roll:	-0.629	Pitch:	1.272	Yaw:	235.866	Thrust:	51.120
Time:	6.313	Roll Set Point:	-0.162	Pitch Set Point:	-0.129	Yaw Set Point:	-2.937	X_WP:	0.175	Y_WP:	0.127	Y_WP:	0.500	X:	0.163	Y:	0.066	Z:	0.404	yaw:	168.287	yaw rate:	3.260	Roll:	-0.563	Pitch:	1.273	Yaw:	237.080	Thrust:	51.724
Time:	6.329	Roll Set Point:	-0.162	Pitch Set Point:	-0.129	Yaw Set Point:	-2.937	X_WP:	0.175	Y_WP:	0.127	Y_WP:	0.500	X:	0.163	Y:	0.066	Z:	0.404	yaw:	168.265	yaw rate:	-2.258	Roll:	-0.630	Pitch:	1.274	Yaw:	236.130	Thrust:	51.605
Time:	6.344	Roll Set Point:	-0.162	Pitch Set Point:	-0.129	Yaw Set Point:	-2.937	X_WP:	0.175	Y_WP:	0.127	Y_WP:	0.500	X:	0.163	Y:	0.066	Z:	0.404	yaw:	168.265	yaw rate:	-2.258	Roll:	-0.596	Pitch:	1.277	Yaw:	236.504	Thrust:	51.823
Time:	6.360	Roll Set Point:	-0.162	Pitch Set Point:	-0.129	Yaw Set Point:	-2.937	X_WP:	0.175	Y_WP:	0.127	Y_WP:	0.500	X:	0.163	Y:	0.066	Z:	0.405	yaw:	168.283	yaw rate:	0.579	Roll:	-0.566	Pitch:	1.279	Yaw:	236.841	Thrust:	51.735
Time:	6.375	Roll Set Point:	-0.162	Pitch Set Point:	-0.129	Yaw Set Point:	-2.937	X_WP:	0.175	Y_WP:	0.127	Y_WP:	0.500	X:	0.163	Y:	0.066	Z:	0.404	yaw:	168.255	yaw rate:	-2.827	Roll:	-0.630	Pitch:	1.282	Yaw:	236.018	Thrust:	52.373
