Time:	2.037	Roll Set Point:	0.058	Pitch Set Point:	-0.066	Yaw Set Point:	-0.016	X_WP:	0.100	Y_WP:	0.000	Y_WP:	0.500	X:	0.021	Y:	0.033	Z:	0.049	yaw:	0.927	yaw rate:	1.869	Roll:	-2.284	Pitch:	0.981	Yaw:	1.295	Thrust:	24.814
Time:	2.048	Roll Set Point:	0.058	Pitch Set Point:	-0.066	Yaw Set Point:	-0.015	X_WP:	0.100	Y_WP:	0.000	Y_WP:	0.500	X:	0.021	Y:	0.033	Z:	0.049	yaw:	0.887	yaw rate:	0.335	Roll:	-2.302	Pitch:	0.911	Yaw:	0.293	Thrust:	25.413
Time:	2.059	Roll Set Point:	0.058	Pitch Set Point:	-0.066	Yaw Set Point:	-0.016	X_WP:	0.100	Y_WP:	0.000	Y_WP:	0.500	X:	0.021	Y:	0.033	Z:	0.049	yaw:	0.892	yaw rate:	0.412	Roll:	-2.304	Pitch:	1.004	Yaw:	1.350	Thrust:	25.944
Time:	2.073	Roll Set Point:	0.058	Pitch Set Point:	-0.066	Yaw Set Point:	-0.016	X_WP:	0.100	Y_WP:	0.000	Y_WP:	0.500	X:	0.021	Y:	0.033	Z:	0.049	yaw:	0.911	yaw rate:	1.967	Roll:	-2.267	Pitch:	0.996	Yaw:	1.665	Thrust:	27.116
Time:	2.084	Roll Set Point:	0.058	Pitch Set Point:	-0.066	Yaw Set Point:	-0.013	X_WP:	0.100	Y_WP:	0.000	Y_WP:	0.500	X:	0.021	Y:	0.033	Z:	0.049	yaw:	0.759	yaw rate:	-15.196	Roll:	-2.533	Pitch:	0.569	Yaw:	-2.533	Thrust:	28.307
Time:	2.096	Roll Set Point:	0.058	Pitch Set Point:	-0.067	Yaw Set Point:	-0.017	X_WP:	0.100	Y_WP:	0.000	Y_WP:	0.500	X:	0.021	Y:	0.033	Z:	0.049	yaw:	0.963	yaw rate:	20.329	Roll:	-1.789	Pitch:	1.505	Yaw:	5.608	Thrust:	27.864
Time:	2.109	Roll Set Point:	0.058	Pitch Set Point:	-0.067	Yaw Set Point:	-0.016	X_WP:	0.100	Y_WP:	0.000	Y_WP:	0.500	X:	0.021	Y:	0.033	Z:	0.049	yaw:	0.912	yaw rate:	-5.102	Roll:	-2.356	Pitch:	1.005	Yaw:	0.232	Thrust:	28.274
Time:	2.120	Roll Set Point:	0.058	Pitch Set Point:	-0.066	Yaw Set Point:	-0.012	X_WP:	0.100	Y_WP:	0.000	Y_WP:	0.500	X:	0.021	Y:	0.033	Z:	0.049	yaw:	0.687	yaw rate:	-22.447	Roll:	-2.665	Pitch:	0.401	Yaw:	-4.345	Thrust:	29.454
Time:	2.132	Roll Set Point:	0.058	Pitch Set Point:	-0.067	Yaw Set Point:	-0.022	X_WP:	0.100	Y_WP:	0.000	Y_WP:	0.500	X:	0.021	Y:	0.033	Z:	0.049	yaw:	1.238	yaw rate:	55.065	Roll:	-1.789	Pitch:	2.121	Yaw:	13.735	Thrust:	29.662
Time:	2.149	Roll Set Point:	0.058	Pitch Set Point:	-0.066	Yaw Set Point:	-0.006	X_WP:	0.100	Y_WP:	0.000	Y_WP:	0.500	X:	0.021	Y:	0.033	Z:	0.048	yaw:	0.346	yaw rate:	-58.246	Roll:	-2.820	Pitch:	-0.221	Yaw:	-13.150	Thrust:	34.322
Time:	2.164	Roll Set Point:	0.058	Pitch Set Point:	-0.067	Yaw Set Point:	-0.021	X_WP:	0.100	Y_WP:	0.000	Y_WP:	0.500	X:	0.021	Y:	0.033	Z:	0.049	yaw:	1.226	yaw rate:	88.087	Roll:	-1.547	Pitch:	2.914	Yaw:	20.660	Thrust:	30.028
Time:	2.182	Roll Set Point:	0.058	Pitch Set Point:	-0.066	Yaw Set Point:	-0.016	X_WP:	0.100	Y_WP:	0.000	Y_WP:	0.500	X:	0.021	Y:	0.033	Z:	0.049	yaw:	0.935	yaw rate:	-29.119	Roll:	-2.355	Pitch:	0.663	Yaw:	-2.416	Thrust:	36.501
Time:	2.196	Roll Set Point:	0.058	Pitch Set Point:	-0.066	Yaw Set Point:	-0.014	X_WP:	0.100	Y_WP:	0.000	Y_WP:	0.500	X:	0.021	Y:	0.033	Z:	0.049	yaw:	0.797	yaw rate:	-13.977	Roll:	-2.748	Pitch:	0.754	Yaw:	-1.316	Thrust:	35.479
Time:	2.216	Roll Set Point:	0.058	Pitch Set Point:	-0.067	Yaw Set Point:	-0.019	X_WP:	0.100	Y_WP:	0.000	Y_WP:	0.500	X:	0.021	Y:	0.033	Z:	0.049	yaw:	1.114	yaw rate:	15.174	Roll:	-2.134	Pitch:	1.407	Yaw:	5.670	Thrust:	39.087
Time:	2.235	Roll Set Point:	0.058	Pitch Set Point:	-0.066	Yaw Set Point:	-0.015	X_WP:	0.100	Y_WP:	0.000	Y_WP:	0.500	X:	0.021	Y:	0.033	Z:	0.049	yaw:	0.850	yaw rate:	-26.433	Roll:	-2.313	Pitch:	0.529	Yaw:	-2.671	Thrust:	36.043
Time:	2.250	Roll Set Point:	0.058	Pitch Set Point:	-0.066	Yaw Set Point:	-0.011	X_WP:	0.100	Y_WP:	0.000	Y_WP:	0.500	X:	0.021	Y:	0.033	Z:	0.049	yaw:	0.643	yaw rate:	-14.139	Roll:	-2.548	Pitch:	0.694	Yaw:	-2.556	Thrust:	39.412
Time:	2.263	Roll Set Point:	0.058	Pitch Set Point:	-0.066	Yaw Set Point:	-0.015	X_WP:	0.100	Y_WP:	0.000	Y_WP:	0.500	X:	0.021	Y:	0.033	Z:	0.049	yaw:	0.839	yaw rate:	19.547	Roll:	-2.261	Pitch:	1.353	Yaw:	5.151	Thrust:	35.848
Time:	2.275	Roll Set Point:	0.058	Pitch Set Point:	-0.066	Yaw Set Point:	-0.013	X_WP:	0.100	Y_WP:	0.000	Y_WP:	0.500	X:	0.021	Y:	0.033	Z:	0.049	yaw:	0.723	yaw rate:	-11.599	Roll:	-2.236	Pitch:	0.786	Yaw:	-1.244	Thrust:	36.966
Time:	2.286	Roll Set Point:	0.058	Pitch Set Point:	-0.067	Yaw Set Point:	-0.016	X_WP:	0.100	Y_WP:	0.000	Y_WP:	0.500	X:	0.021	Y:	0.033	Z:	0.049	yaw:	0.918	yaw rate:	19.515	Roll:	-2.035	Pitch:	1.815	Yaw:	6.192	Thrust:	34.998
Time:	2.304	Roll Set Point:	0.058	Pitch Set Point:	-0.066	Yaw Set Point:	-0.011	X_WP:	0.100	Y_WP:	0.000	Y_WP:	0.500	X:	0.021	Y:	0.033	Z:	0.049	yaw:	0.648	yaw rate:	-26.962	Roll:	-2.724	Pitch:	0.265	Yaw:	-3.372	Thrust:	39.710
Time:	2.316	Roll Set Point:	0.058	Pitch Set Point:	-0.068	Yaw Set Point:	-0.025	X_WP:	0.100	Y_WP:	0.000	Y_WP:	0.500	X:	0.021	Y:	0.033	Z:	0.049	yaw:	1.420	yaw rate:	24.283	Roll:	-1.913	Pitch:	2.127	Yaw:	16.451	Thrust:	41.381
Time:	2.329	Roll Set Point:	0.057	Pitch Set Point:	-0.068	Yaw Set Point:	-0.023	X_WP:	0.100	Y_WP:	0.000	Y_WP:	0.500	X:	0.021	Y:	0.033	Z:	0.049	yaw:	1.330	yaw rate:	-8.958	Roll:	-2.042	Pitch:	0.885	Yaw:	0.147	Thrust:	39.834
Time:	2.343	Roll Set Point:	0.057	Pitch Set Point:	-0.068	Yaw Set Point:	-0.025	X_WP:	0.100	Y_WP:	0.000	Y_WP:	0.500	X:	0.021	Y:	0.033	Z:	0.049	yaw:	1.458	yaw rate:	12.793	Roll:	-2.177	Pitch:	1.306	Yaw:	4.601	Thrust:	41.422
Time:	2.354	Roll Set Point:	0.057	Pitch Set Point:	-0.068	Yaw Set Point:	-0.024	X_WP:	0.100	Y_WP:	0.000	Y_WP:	0.500	X:	0.021	Y:	0.033	Z:	0.049	yaw:	1.394	yaw rate:	-6.437	Roll:	-2.395	Pitch:	0.896	Yaw:	0.571	Thrust:	39.261
Time:	2.370	Roll Set Point:	0.057	Pitch Set Point:	-0.068	Yaw Set Point:	-0.022	X_WP:	0.100	Y_WP:	0.000	Y_WP:	0.500	X:	0.021	Y:	0.033	Z:	0.049	yaw:	1.258	yaw rate:	-13.553	Roll:	-2.371	Pitch:	0.902	Yaw:	-0.297	Thrust:	44.269
Time:	2.382	Roll Set Point:	0.057	Pitch Set Point:	-0.068	Yaw Set Point:	-0.024	X_WP:	0.100	Y_WP:	0.000	Y_WP:	0.500	X:	0.021	Y:	0.033	Z:	0.049	yaw:	1.392	yaw rate:	7.274	Roll:	-2.250	Pitch:	1.152	Yaw:	4.944	Thrust:	42.271
Time:	2.394	Roll Set Point:	0.057	Pitch Set Point:	-0.067	Yaw Set Point:	-0.020	X_WP:	0.100	Y_WP:	0.000	Y_WP:	0.500	X:	0.021	Y:	0.033	Z:	0.049	yaw:	1.128	yaw rate:	-26.367	Roll:	-2.572	Pitch:	0.392	Yaw:	-4.524	Thrust:	39.924
Time:	2.408	Roll Set Point:	0.057	Pitch Set Point:	-0.068	Yaw Set Point:	-0.024	X_WP:	0.100	Y_WP:	0.000	Y_WP:	0.500	X:	0.021	Y:	0.033	Z:	0.049	yaw:	1.374	yaw rate:	24.631	Roll:	-2.066	Pitch:	1.601	Yaw:	6.625	Thrust:	46.053
Time:	2.419	Roll Set Point:	0.057	Pitch Set Point:	-0.068	Yaw Set Point:	-0.031	X_WP:	0.100	Y_WP:	0.000	Y_WP:	0.500	X:	0.021	Y:	0.033	Z:	0.049	yaw:	1.765	yaw rate:	39.052	Roll:	-1.991	Pitch:	1.736	Yaw:	11.843	Thrust:	42.079
Time:	2.437	Roll Set Point:	0.057	Pitch Set Point:	-0.067	Yaw Set Point:	-0.019	X_WP:	0.100	Y_WP:	0.000	Y_WP:	0.500	X:	0.021	Y:	0.033	Z:	0.049	yaw:	1.109	yaw rate:	-65.607	Roll:	-2.724	Pitch:	0.150	Yaw:	-7.586	Thrust:	54.105
Time:	2.450	Roll Set Point:	0.057	Pitch Set Point:	-0.067	Yaw Set Point:	-0.017	X_WP:	0.100	Y_WP:	0.000	Y_WP:	0.500	X:	0.021	Y:	0.033	Z:	0.049	yaw:	0.988	yaw rate:	-57.836	Roll:	-2.484	Pitch:	0.778	Yaw:	-1.001	Thrust:	45.335
Time:	2.471	Roll Set Point:	0.057	Pitch Set Point:	-0.068	Yaw Set Point:	-0.029	X_WP:	0.100	Y_WP:	0.000	Y_WP:	0.500	X:	0.021	Y:	0.033	Z:	0.049	yaw:	1.634	yaw rate:	64.568	Roll:	-2.077	Pitch:	2.124	Yaw:	10.727	Thrust:	56.775
Time:	2.483	Roll Set Point:	0.056	Pitch Set Point:	-0.068	Yaw Set Point:	-0.027	X_WP:	0.100	Y_WP:	0.000	Y_WP:	0.500	X:	0.021	Y:	0.033	Z:	0.049	yaw:	1.545	yaw rate:	54.753	Roll:	-2.161	Pitch:	0.916	Yaw:	0.447	Thrust:	48.463
Time:	2.496	Roll Set Point:	0.056	Pitch Set Point:	-0.068	Yaw Set Point:	-0.026	X_WP:	0.100	Y_WP:	0.000	Y_WP:	0.500	X:	0.021	Y:	0.033	Z:	0.049	yaw:	1.480	yaw rate:	-6.509	Roll:	-2.373	Pitch:	0.892	Yaw:	0.861	Thrust:	47.612
Time:	2.507	Roll Set Point:	0.057	Pitch Set Point:	-0.068	Yaw Set Point:	-0.024	X_WP:	0.100	Y_WP:	0.000	Y_WP:	0.500	X:	0.021	Y:	0.033	Z:	0.049	yaw:	1.403	yaw rate:	-7.667	Roll:	-2.509	Pitch:	0.825	Yaw:	0.368	Thrust:	46.335
Time:	2.518	Roll Set Point:	0.056	Pitch Set Point:	-0.068	Yaw Set Point:	-0.024	X_WP:	0.100	Y_WP:	0.000	Y_WP:	0.500	X:	0.021	Y:	0.033	Z:	0.049	yaw:	1.350	yaw rate:	-5.306	Roll:	-2.263	Pitch:	0.915	Yaw:	0.771	Thrust:	45.695
Time:	2.531	Roll Set Point:	0.056	Pitch Set Point:	-0.068	Yaw Set Point:	-0.022	X_WP:	0.100	Y_WP:	0.000	Y_WP:	0.500	X:	0.021	Y:	0.033	Z:	0.049	yaw:	1.245	yaw rate:	-10.492	Roll:	-2.352	Pitch:	0.831	Yaw:	-0.373	Thrust:	48.231
Time:	2.552	Roll Set Point:	0.056	Pitch Set Point:	-0.068	Yaw Set Point:	-0.022	X_WP:	0.100	Y_WP:	0.000	Y_WP:	0.500	X:	0.021	Y:	0.033	Z:	0.049	yaw:	1.253	yaw rate:	13.413	Roll:	-2.363	Pitch:	1.283	Yaw:	2.151	Thrust:	69.214
Time:	2.570	Roll Set Point:	0.056	Pitch Set Point:	-0.069	Yaw Set Point:	-0.033	X_WP:	0.100	Y_WP:	0.000	Y_WP:	0.500	X:	0.022	Y:	0.033	Z:	0.049	yaw:	1.868	yaw rate:	61.515	Roll:	-1.642	Pitch:	1.987	Yaw:	12.128	Thrust:	56.556
Time:	2.582	Roll Set Point:	0.055	Pitch Set Point:	-0.069	Yaw Set Point:	-0.036	X_WP:	0.100	Y_WP:	0.000	Y_WP:	0.500	X:	0.022	Y:	0.033	Z:	0.049	yaw:	2.080	yaw rate:	13.657	Roll:	-1.857	Pitch:	1.478	Yaw:	7.515	Thrust:	53.628
Time:	2.594	Roll Set Point:	0.054	Pitch Set Point:	-0.069	Yaw Set Point:	-0.031	X_WP:	0.100	Y_WP:	0.000	Y_WP:	0.500	X:	0.022	Y:	0.033	Z:	0.049	yaw:	1.799	yaw rate:	-28.024	Roll:	-2.033	Pitch:	0.427	Yaw:	-3.467	Thrust:	50.305
Time:	2.609	Roll Set Point:	0.054	Pitch Set Point:	-0.068	Yaw Set Point:	-0.027	X_WP:	0.100	Y_WP:	0.000	Y_WP:	0.500	X:	0.023	Y:	0.033	Z:	0.049	yaw:	1.552	yaw rate:	-24.737	Roll:	-2.335	Pitch:	0.650	Yaw:	-2.041	Thrust:	57.037
Time:	2.620	Roll Set Point:	0.053	Pitch Set Point:	-0.069	Yaw Set Point:	-0.031	X_WP:	0.100	Y_WP:	0.000	Y_WP:	0.500	X:	0.023	Y:	0.033	Z:	0.049	yaw:	1.796	yaw rate:	24.382	Roll:	-1.711	Pitch:	1.765	Yaw:	8.133	Thrust:	51.574
Time:	2.637	Roll Set Point:	0.053	Pitch Set Point:	-0.069	Yaw Set Point:	-0.035	X_WP:	0.100	Y_WP:	0.000	Y_WP:	0.500	X:	0.023	Y:	0.033	Z:	0.050	yaw:	1.997	yaw rate:	20.171	Roll:	-1.986	Pitch:	1.300	Yaw:	6.187	Thrust:	63.623
Time:	2.649	Roll Set Point:	0.052	Pitch Set Point:	-0.069	Yaw Set Point:	-0.033	X_WP:	0.100	Y_WP:	0.000	Y_WP:	0.500	X:	0.024	Y:	0.033	Z:	0.050	yaw:	1.870	yaw rate:	17.369	Roll:	-1.569	Pitch:	0.532	Yaw:	-0.063	Thrust:	50.784
Time:	2.662	Roll Set Point:	0.051	Pitch Set Point:	-0.068	Yaw Set Point:	-0.034	X_WP:	0.100	Y_WP:	0.000	Y_WP:	0.500	X:	0.024	Y:	0.033	Z:	0.050	yaw:	1.956	yaw rate:	8.590	Roll:	-1.576	Pitch:	1.060	Yaw:	4.770	Thrust:	53.886
Time:	2.678	Roll Set Point:	0.049	Pitch Set Point:	-0.069	Yaw Set Point:	-0.041	X_WP:	0.100	Y_WP:	0.000	Y_WP:	0.500	X:	0.025	Y:	0.033	Z:	0.051	yaw:	2.325	yaw rate:	36.910	Roll:	-1.359	Pitch:	1.414	Yaw:	9.415	Thrust:	65.588
Time:	2.689	Roll Set Point:	0.048	Pitch Set Point:	-0.068	Yaw Set Point:	-0.042	X_WP:	0.100	Y_WP:	0.000	Y_WP:	0.500	X:	0.025	Y:	0.033	Z:	0.051	yaw:	2.421	yaw rate:	9.552	Roll:	-1.179	Pitch:	1.075	Yaw:	5.785	Thrust:	52.939
Time:	2.705	Roll Set Point:	0.047	Pitch Set Point:	-0.068	Yaw Set Point:	-0.036	X_WP:	0.100	Y_WP:	0.000	Y_WP:	0.500	X:	0.026	Y:	0.033	Z:	0.051	yaw:	2.038	yaw rate:	-38.230	Roll:	-1.882	Pitch:	0.406	Yaw:	-3.464	Thrust:	63.275
Time:	2.717	Roll Set Point:	0.044	Pitch Set Point:	-0.068	Yaw Set Point:	-0.042	X_WP:	0.100	Y_WP:	0.000	Y_WP:	0.500	X:	0.027	Y:	0.033	Z:	0.052	yaw:	2.417	yaw rate:	-16.727	Roll:	-0.223	Pitch:	1.561	Yaw:	11.550	Thrust:	54.067
Time:	2.729	Roll Set Point:	0.042	Pitch Set Point:	-0.068	Yaw Set Point:	-0.044	X_WP:	0.100	Y_WP:	0.000	Y_WP:	0.500	X:	0.028	Y:	0.032	Z:	0.053	yaw:	2.541	yaw rate:	12.413	Roll:	-1.032	Pitch:	1.151	Yaw:	6.500	Thrust:	55.525
Time:	2.741	Roll Set Point:	0.041	Pitch Set Point:	-0.068	Yaw Set Point:	-0.040	X_WP:	0.100	Y_WP:	0.000	Y_WP:	0.500	X:	0.029	Y:	0.032	Z:	0.053	yaw:	2.293	yaw rate:	-24.780	Roll:	-1.146	Pitch:	0.580	Yaw:	-1.890	Thrust:	55.694
Time:	2.753	Roll Set Point:	0.039	Pitch Set Point:	-0.068	Yaw Set Point:	-0.047	X_WP:	0.100	Y_WP:	0.000	Y_WP:	0.500	X:	0.030	Y:	0.032	Z:	0.054	yaw:	2.700	yaw rate:	40.751	Roll:	-0.533	Pitch:	1.739	Yaw:	13.716	Thrust:	51.216
Time:	2.769	Roll Set Point:	0.037	Pitch Set Point:	-0.068	Yaw Set Point:	-0.044	X_WP:	0.100	Y_WP:	0.000	Y_WP:	0.500	X:	0.031	Y:	0.032	Z:	0.055	yaw:	2.525	yaw rate:	-17.579	Roll:	-0.908	Pitch:	0.728	Yaw:	0.965	Thrust:	64.286
Time:	2.782	Roll Set Point:	0.031	Pitch Set Point:	-0.068	Yaw Set Point:	-0.045	X_WP:	0.100	Y_WP:	0.000	Y_WP:	0.500	X:	0.034	Y:	0.032	Z:	0.058	yaw:	2.567	yaw rate:	-41.849	Roll:	1.477	Pitch:	0.914	Yaw:	4.767	Thrust:	57.008
Time:	2.793	Roll Set Point:	0.028	Pitch Set Point:	-0.068	Yaw Set Point:	-0.050	X_WP:	0.100	Y_WP:	0.000	Y_WP:	0.500	X:	0.035	Y:	0.032	Z:	0.060	yaw:	2.856	yaw rate:	28.904	Roll:	-0.072	Pitch:	1.715	Yaw:	11.147	Thrust:	51.376
Time:	2.806	Roll Set Point:	0.026	Pitch Set Point:	-0.068	Yaw Set Point:	-0.046	X_WP:	0.100	Y_WP:	0.000	Y_WP:	0.500	X:	0.036	Y:	0.032	Z:	0.061	yaw:	2.629	yaw rate:	-22.709	Roll:	-0.361	Pitch:	0.611	Yaw:	-0.329	Thrust:	61.380
Time:	2.818	Roll Set Point:	0.023	Pitch Set Point:	-0.068	Yaw Set Point:	-0.047	X_WP:	0.100	Y_WP:	0.000	Y_WP:	0.500	X:	0.038	Y:	0.032	Z:	0.062	yaw:	2.691	yaw rate:	6.235	Roll:	-0.106	Pitch:	1.109	Yaw:	5.467	Thrust:	56.033
Time:	2.842	Roll Set Point:	0.020	Pitch Set Point:	-0.068	Yaw Set Point:	-0.055	X_WP:	0.100	Y_WP:	0.000	Y_WP:	0.500	X:	0.039	Y:	0.033	Z:	0.064	yaw:	3.137	yaw rate:	44.591	Roll:	-0.671	Pitch:	1.548	Yaw:	10.042	Thrust:	92.950
Time:	2.852	Roll Set Point:	0.014	Pitch Set Point:	-0.068	Yaw Set Point:	-0.050	X_WP:	0.100	Y_WP:	0.000	Y_WP:	0.500	X:	0.042	Y:	0.033	Z:	0.067	yaw:	2.842	yaw rate:	-6.513	Roll:	2.192	Pitch:	0.473	Yaw:	-3.042	Thrust:	46.912
Time:	2.870	Roll Set Point:	0.008	Pitch Set Point:	-0.068	Yaw Set Point:	-0.051	X_WP:	0.100	Y_WP:	0.000	Y_WP:	0.500	X:	0.045	Y:	0.033	Z:	0.070	yaw:	2.940	yaw rate:	9.734	Roll:	2.037	Pitch:	1.222	Yaw:	6.093	Thrust:	71.513
Time:	2.883	Roll Set Point:	0.001	Pitch Set Point:	-0.069	Yaw Set Point:	-0.060	X_WP:	0.100	Y_WP:	0.000	Y_WP:	0.500	X:	0.049	Y:	0.033	Z:	0.074	yaw:	3.451	yaw rate:	36.723	Roll:	2.380	Pitch:	1.718	Yaw:	15.915	Thrust:	53.610
Time:	2.896	Roll Set Point:	-0.002	Pitch Set Point:	-0.069	Yaw Set Point:	-0.056	X_WP:	0.100	Y_WP:	0.000	Y_WP:	0.500	X:	0.050	Y:	0.033	Z:	0.076	yaw:	3.196	yaw rate:	-25.451	Roll:	0.431	Pitch:	0.607	Yaw:	-0.513	Thrust:	57.962
Time:	2.908	Roll Set Point:	-0.006	Pitch Set Point:	-0.069	Yaw Set Point:	-0.058	X_WP:	0.100	Y_WP:	0.000	Y_WP:	0.500	X:	0.052	Y:	0.033	Z:	0.078	yaw:	3.332	yaw rate:	13.530	Roll:	1.438	Pitch:	1.461	Yaw:	7.924	Thrust:	57.982
Time:	2.919	Roll Set Point:	-0.010	Pitch Set Point:	-0.070	Yaw Set Point:	-0.065	X_WP:	0.100	Y_WP:	0.000	Y_WP:	0.500	X:	0.054	Y:	0.033	Z:	0.080	yaw:	3.711	yaw rate:	37.939	Roll:	1.902	Pitch:	1.726	Yaw:	14.593	Thrust:	51.298
Time:	2.933	Roll Set Point:	-0.014	Pitch Set Point:	-0.070	Yaw Set Point:	-0.061	X_WP:	0.100	Y_WP:	0.000	Y_WP:	0.500	X:	0.056	Y:	0.033	Z:	0.083	yaw:	3.508	yaw rate:	-20.266	Roll:	0.950	Pitch:	0.816	Yaw:	1.832	Thrust:	66.703
Time:	2.949	Roll Set Point:	-0.018	Pitch Set Point:	-0.070	Yaw Set Point:	-0.059	X_WP:	0.100	Y_WP:	0.000	Y_WP:	0.500	X:	0.058	Y:	0.034	Z:	0.085	yaw:	3.378	yaw rate:	-13.060	Roll:	0.556	Pitch:	1.054	Yaw:	3.132	Thrust:	69.388
Time:	2.970	Roll Set Point:	-0.030	Pitch Set Point:	-0.070	Yaw Set Point:	-0.063	X_WP:	0.100	Y_WP:	0.000	Y_WP:	0.500	X:	0.064	Y:	0.034	Z:	0.093	yaw:	3.618	yaw rate:	-0.484	Roll:	6.510	Pitch:	1.476	Yaw:	8.889	Thrust:	81.480
Time:	2.981	Roll Set Point:	-0.035	Pitch Set Point:	-0.071	Yaw Set Point:	-0.063	X_WP:	0.100	Y_WP:	0.000	Y_WP:	0.500	X:	0.066	Y:	0.034	Z:	0.095	yaw:	3.605	yaw rate:	-1.263	Roll:	0.765	Pitch:	1.147	Yaw:	5.229	Thrust:	55.979
Time:	2.994	Roll Set Point:	-0.044	Pitch Set Point:	-0.071	Yaw Set Point:	-0.068	X_WP:	0.100	Y_WP:	0.000	Y_WP:	0.500	X:	0.071	Y:	0.035	Z:	0.101	yaw:	3.920	yaw rate:	3.798	Roll:	5.791	Pitch:	1.265	Yaw:	13.421	Thrust:	38.652
Time:	3.007	Roll Set Point:	-0.048	Pitch Set Point:	-0.071	Yaw Set Point:	-0.068	X_WP:	0.100	Y_WP:	0.000	Y_WP:	0.500	X:	0.073	Y:	0.035	Z:	0.104	yaw:	3.888	yaw rate:	-3.229	Roll:	2.261	Pitch:	1.138	Yaw:	5.362	Thrust:	60.313
Time:	3.019	Roll Set Point:	-0.053	Pitch Set Point:	-0.071	Yaw Set Point:	-0.065	X_WP:	0.100	Y_WP:	0.000	Y_WP:	0.500	X:	0.075	Y:	0.035	Z:	0.107	yaw:	3.732	yaw rate:	-15.561	Roll:	1.722	Pitch:	0.985	Yaw:	2.819	Thrust:	62.751
Time:	3.036	Roll Set Point:	-0.058	Pitch Set Point:	-0.071	Yaw Set Point:	-0.071	X_WP:	0.100	Y_WP:	0.000	Y_WP:	0.500	X:	0.077	Y:	0.035	Z:	0.111	yaw:	4.071	yaw rate:	33.885	Roll:	2.371	Pitch:	1.216	Yaw:	11.935	Thrust:	69.141
Time:	3.047	Roll Set Point:	-0.062	Pitch Set Point:	-0.071	Yaw Set Point:	-0.068	X_WP:	0.100	Y_WP:	0.000	Y_WP:	0.500	X:	0.080	Y:	0.035	Z:	0.114	yaw:	3.909	yaw rate:	-16.189	Roll:	2.314	Pitch:	1.012	Yaw:	2.293	Thrust:	57.217
Time:	3.058	Roll Set Point:	-0.072	Pitch Set Point:	-0.071	Yaw Set Point:	-0.064	X_WP:	0.100	Y_WP:	0.000	Y_WP:	0.500	X:	0.085	Y:	0.035	Z:	0.121	yaw:	3.669	yaw rate:	-14.185	Roll:	6.716	Pitch:	0.661	Yaw:	-0.040	Thrust:	35.404
Time:	3.070	Roll Set Point:	-0.077	Pitch Set Point:	-0.071	Yaw Set Point:	-0.067	X_WP:	0.100	Y_WP:	0.000	Y_WP:	0.500	X:	0.087	Y:	0.035	Z:	0.125	yaw:	3.844	yaw rate:	17.588	Roll:	3.112	Pitch:	1.066	Yaw:	9.683	Thrust:	56.657
Time:	3.081	Roll Set Point:	-0.087	Pitch Set Point:	-0.071	Yaw Set Point:	-0.061	X_WP:	0.100	Y_WP:	0.000	Y_WP:	0.500	X:	0.092	Y:	0.035	Z:	0.132	yaw:	3.508	yaw rate:	-33.657	Roll:	7.145	Pitch:	0.859	Yaw:	-2.512	Thrust:	30.765
Time:	3.093	Roll Set Point:	-0.092	Pitch Set Point:	-0.071	Yaw Set Point:	-0.064	X_WP:	0.100	Y_WP:	0.000	Y_WP:	0.500	X:	0.095	Y:	0.035	Z:	0.136	yaw:	3.694	yaw rate:	18.595	Roll:	3.805	Pitch:	0.856	Yaw:	10.163	Thrust:	51.530
Time:	3.106	Roll Set Point:	-0.097	Pitch Set Point:	-0.071	Yaw Set Point:	-0.061	X_WP:	0.100	Y_WP:	0.000	Y_WP:	0.500	X:	0.097	Y:	0.035	Z:	0.140	yaw:	3.500	yaw rate:	-19.428	Roll:	3.159	Pitch:	0.990	Yaw:	1.882	Thrust:	59.299
Time:	3.119	Roll Set Point:	-0.102	Pitch Set Point:	-0.071	Yaw Set Point:	-0.057	X_WP:	0.100	Y_WP:	0.000	Y_WP:	0.500	X:	0.100	Y:	0.035	Z:	0.144	yaw:	3.268	yaw rate:	-23.174	Roll:	2.811	Pitch:	0.920	Yaw:	0.641	Thrust:	62.663
Time:	3.134	Roll Set Point:	-0.108	Pitch Set Point:	-0.071	Yaw Set Point:	-0.066	X_WP:	0.100	Y_WP:	0.000	Y_WP:	0.500	X:	0.103	Y:	0.036	Z:	0.149	yaw:	3.803	yaw rate:	53.491	Roll:	4.239	Pitch:	1.085	Yaw:	15.905	Thrust:	60.732
Time:	3.147	Roll Set Point:	-0.118	Pitch Set Point:	-0.071	Yaw Set Point:	-0.059	X_WP:	0.100	Y_WP:	0.000	Y_WP:	0.500	X:	0.108	Y:	0.036	Z:	0.157	yaw:	3.368	yaw rate:	-20.978	Roll:	5.771	Pitch:	0.868	Yaw:	-2.901	Thrust:	55.709
Time:	3.158	Roll Set Point:	-0.124	Pitch Set Point:	-0.071	Yaw Set Point:	-0.066	X_WP:	0.100	Y_WP:	0.000	Y_WP:	0.500	X:	0.111	Y:	0.036	Z:	0.161	yaw:	3.789	yaw rate:	42.092	Roll:	4.778	Pitch:	0.842	Yaw:	15.935	Thrust:	49.141
Time:	3.172	Roll Set Point:	-0.129	Pitch Set Point:	-0.071	Yaw Set Point:	-0.059	X_WP:	0.100	Y_WP:	0.000	Y_WP:	0.500	X:	0.113	Y:	0.036	Z:	0.165	yaw:	3.369	yaw rate:	-42.071	Roll:	3.295	Pitch:	0.932	Yaw:	-2.603	Thrust:	60.877
Time:	3.183	Roll Set Point:	-0.139	Pitch Set Point:	-0.070	Yaw Set Point:	-0.056	X_WP:	0.100	Y_WP:	0.000	Y_WP:	0.500	X:	0.119	Y:	0.036	Z:	0.172	yaw:	3.221	yaw rate:	-14.790	Roll:	7.841	Pitch:	0.785	Yaw:	2.028	Thrust:	44.860
Time:	3.196	Roll Set Point:	-0.145	Pitch Set Point:	-0.070	Yaw Set Point:	-0.054	X_WP:	0.100	Y_WP:	0.000	Y_WP:	0.500	X:	0.121	Y:	0.036	Z:	0.176	yaw:	3.076	yaw rate:	-14.441	Roll:	4.076	Pitch:	0.886	Yaw:	2.230	Thrust:	56.592
Time:	3.208	Roll Set Point:	-0.150	Pitch Set Point:	-0.070	Yaw Set Point:	-0.051	X_WP:	0.100	Y_WP:	0.000	Y_WP:	0.500	X:	0.124	Y:	0.036	Z:	0.180	yaw:	2.903	yaw rate:	-17.313	Roll:	4.040	Pitch:	0.863	Yaw:	0.874	Thrust:	59.777
Time:	3.221	Roll Set Point:	-0.155	Pitch Set Point:	-0.070	Yaw Set Point:	-0.048	X_WP:	0.100	Y_WP:	0.000	Y_WP:	0.500	X:	0.127	Y:	0.035	Z:	0.183	yaw:	2.732	yaw rate:	-17.090	Roll:	4.370	Pitch:	0.802	Yaw:	0.694	Thrust:	54.669
Time:	3.236	Roll Set Point:	-0.160	Pitch Set Point:	-0.069	Yaw Set Point:	-0.050	X_WP:	0.100	Y_WP:	0.000	Y_WP:	0.500	X:	0.129	Y:	0.036	Z:	0.187	yaw:	2.883	yaw rate:	15.056	Roll:	4.247	Pitch:	0.946	Yaw:	7.549	Thrust:	73.273
Time:	3.249	Roll Set Point:	-0.171	Pitch Set Point:	-0.069	Yaw Set Point:	-0.046	X_WP:	0.100	Y_WP:	0.000	Y_WP:	0.500	X:	0.135	Y:	0.035	Z:	0.195	yaw:	2.664	yaw rate:	-5.251	Roll:	6.416	Pitch:	0.660	Yaw:	0.263	Thrust:	57.483
Time:	3.260	Roll Set Point:	-0.176	Pitch Set Point:	-0.069	Yaw Set Point:	-0.044	X_WP:	0.100	Y_WP:	0.000	Y_WP:	0.500	X:	0.137	Y:	0.035	Z:	0.199	yaw:	2.524	yaw rate:	-13.968	Roll:	4.674	Pitch:	0.801	Yaw:	1.173	Thrust:	52.886
Time:	3.274	Roll Set Point:	-0.181	Pitch Set Point:	-0.068	Yaw Set Point:	-0.038	X_WP:	0.100	Y_WP:	0.000	Y_WP:	0.500	X:	0.140	Y:	0.035	Z:	0.202	yaw:	2.175	yaw rate:	-34.896	Roll:	4.012	Pitch:	1.056	Yaw:	-2.765	Thrust:	69.353
Time:	3.287	Roll Set Point:	-0.191	Pitch Set Point:	-0.068	Yaw Set Point:	-0.040	X_WP:	0.100	Y_WP:	0.000	Y_WP:	0.500	X:	0.145	Y:	0.035	Z:	0.210	yaw:	2.297	yaw rate:	12.228	Roll:	7.273	Pitch:	0.444	Yaw:	6.579	Thrust:	50.934
Time:	3.302	Roll Set Point:	-0.196	Pitch Set Point:	-0.067	Yaw Set Point:	-0.043	X_WP:	0.100	Y_WP:	0.000	Y_WP:	0.500	X:	0.147	Y:	0.035	Z:	0.213	yaw:	2.460	yaw rate:	16.216	Roll:	5.213	Pitch:	0.489	Yaw:	7.453	Thrust:	70.131
Time:	3.316	Roll Set Point:	-0.205	Pitch Set Point:	-0.066	Yaw Set Point:	-0.038	X_WP:	0.100	Y_WP:	0.000	Y_WP:	0.500	X:	0.152	Y:	0.034	Z:	0.221	yaw:	2.156	yaw rate:	-32.510	Roll:	5.924	Pitch:	0.653	Yaw:	-1.181	Thrust:	61.146
Time:	3.329	Roll Set Point:	-0.210	Pitch Set Point:	-0.065	Yaw Set Point:	-0.039	X_WP:	0.100	Y_WP:	0.000	Y_WP:	0.500	X:	0.154	Y:	0.034	Z:	0.225	yaw:	2.233	yaw rate:	7.743	Roll:	4.762	Pitch:	0.317	Yaw:	5.613	Thrust:	67.517
Time:	3.341	Roll Set Point:	-0.215	Pitch Set Point:	-0.065	Yaw Set Point:	-0.034	X_WP:	0.100	Y_WP:	0.000	Y_WP:	0.500	X:	0.157	Y:	0.034	Z:	0.228	yaw:	1.952	yaw rate:	-28.161	Roll:	4.390	Pitch:	1.046	Yaw:	-2.508	Thrust:	58.363
Time:	3.352	Roll Set Point:	-0.219	Pitch Set Point:	-0.065	Yaw Set Point:	-0.030	X_WP:	0.100	Y_WP:	0.000	Y_WP:	0.500	X:	0.159	Y:	0.033	Z:	0.232	yaw:	1.740	yaw rate:	-21.142	Roll:	4.823	Pitch:	0.718	Yaw:	-1.773	Thrust:	48.697
Time:	3.364	Roll Set Point:	-0.223	Pitch Set Point:	-0.064	Yaw Set Point:	-0.031	X_WP:	0.100	Y_WP:	0.000	Y_WP:	0.500	X:	0.161	Y:	0.033	Z:	0.236	yaw:	1.760	yaw rate:	1.924	Roll:	4.970	Pitch:	0.546	Yaw:	3.754	Thrust:	57.690
Time:	3.382	Roll Set Point:	-0.236	Pitch Set Point:	-0.062	Yaw Set Point:	-0.032	X_WP:	0.100	Y_WP:	0.000	Y_WP:	0.500	X:	0.168	Y:	0.032	Z:	0.249	yaw:	1.857	yaw rate:	42.335	Roll:	7.787	Pitch:	-0.131	Yaw:	5.355	Thrust:	73.213
Time:	3.395	Roll Set Point:	-0.241	Pitch Set Point:	-0.062	Yaw Set Point:	-0.025	X_WP:	0.100	Y_WP:	0.000	Y_WP:	0.500	X:	0.170	Y:	0.032	Z:	0.253	yaw:	1.424	yaw rate:	-43.230	Roll:	4.695	Pitch:	1.166	Yaw:	-6.337	Thrust:	51.721
Time:	3.407	Roll Set Point:	-0.244	Pitch Set Point:	-0.060	Yaw Set Point:	-0.032	X_WP:	0.100	Y_WP:	0.000	Y_WP:	0.500	X:	0.172	Y:	0.031	Z:	0.258	yaw:	1.841	yaw rate:	41.626	Roll:	4.666	Pitch:	-0.351	Yaw:	12.211	Thrust:	65.255
Time:	3.418	Roll Set Point:	-0.248	Pitch Set Point:	-0.060	Yaw Set Point:	-0.026	X_WP:	0.100	Y_WP:	0.000	Y_WP:	0.500	X:	0.174	Y:	0.031	Z:	0.262	yaw:	1.461	yaw rate:	-37.914	Roll:	4.800	Pitch:	1.089	Yaw:	-6.113	Thrust:	46.202
Time:	3.435	Roll Set Point:	-0.252	Pitch Set Point:	-0.060	Yaw Set Point:	-0.018	X_WP:	0.100	Y_WP:	0.000	Y_WP:	0.500	X:	0.176	Y:	0.031	Z:	0.267	yaw:	1.044	yaw rate:	-41.741	Roll:	4.174	Pitch:	1.183	Yaw:	-3.839	Thrust:	81.091
Time:	3.447	Roll Set Point:	-0.255	Pitch Set Point:	-0.059	Yaw Set Point:	-0.021	X_WP:	0.100	Y_WP:	0.000	Y_WP:	0.500	X:	0.177	Y:	0.030	Z:	0.271	yaw:	1.191	yaw rate:	14.744	Roll:	4.062	Pitch:	0.073	Yaw:	5.730	Thrust:	64.939
Time:	3.459	Roll Set Point:	-0.259	Pitch Set Point:	-0.058	Yaw Set Point:	-0.023	X_WP:	0.100	Y_WP:	0.000	Y_WP:	0.500	X:	0.179	Y:	0.030	Z:	0.276	yaw:	1.294	yaw rate:	10.268	Roll:	4.908	Pitch:	-0.027	Yaw:	5.102	Thrust:	49.352
Time:	3.471	Roll Set Point:	-0.269	Pitch Set Point:	-0.055	Yaw Set Point:	-0.022	X_WP:	0.100	Y_WP:	0.000	Y_WP:	0.500	X:	0.184	Y:	0.029	Z:	0.290	yaw:	1.265	yaw rate:	53.500	Roll:	9.550	Pitch:	-0.851	Yaw:	2.089	Thrust:	19.029
Time:	3.483	Roll Set Point:	-0.272	Pitch Set Point:	-0.054	Yaw Set Point:	-0.022	X_WP:	0.100	Y_WP:	0.000	Y_WP:	0.500	X:	0.186	Y:	0.028	Z:	0.295	yaw:	1.252	yaw rate:	-1.301	Roll:	4.399	Pitch:	0.292	Yaw:	2.469	Thrust:	58.304
Time:	3.496	Roll Set Point:	-0.275	Pitch Set Point:	-0.053	Yaw Set Point:	-0.021	X_WP:	0.100	Y_WP:	0.000	Y_WP:	0.500	X:	0.187	Y:	0.027	Z:	0.300	yaw:	1.228	yaw rate:	-2.426	Roll:	4.544	Pitch:	-0.227	Yaw:	2.237	Thrust:	53.590
Time:	3.508	Roll Set Point:	-0.278	Pitch Set Point:	-0.053	Yaw Set Point:	-0.013	X_WP:	0.100	Y_WP:	0.000	Y_WP:	0.500	X:	0.189	Y:	0.027	Z:	0.304	yaw:	0.738	yaw rate:	-48.966	Roll:	4.180	Pitch:	1.271	Yaw:	-8.643	Thrust:	62.598
Time:	3.519	Roll Set Point:	-0.281	Pitch Set Point:	-0.052	Yaw Set Point:	-0.018	X_WP:	0.100	Y_WP:	0.000	Y_WP:	0.500	X:	0.190	Y:	0.027	Z:	0.309	yaw:	1.038	yaw rate:	30.007	Roll:	4.971	Pitch:	-0.365	Yaw:	9.458	Thrust:	48.919
Time:	3.530	Roll Set Point:	-0.283	Pitch Set Point:	-0.051	Yaw Set Point:	-0.010	X_WP:	0.100	Y_WP:	0.000	Y_WP:	0.500	X:	0.192	Y:	0.026	Z:	0.313	yaw:	0.564	yaw rate:	-47.472	Roll:	4.292	Pitch:	0.970	Yaw:	-9.555	Thrust:	49.639
Time:	3.541	Roll Set Point:	-0.286	Pitch Set Point:	-0.050	Yaw Set Point:	-0.019	X_WP:	0.100	Y_WP:	0.000	Y_WP:	0.500	X:	0.193	Y:	0.026	Z:	0.318	yaw:	1.103	yaw rate:	53.876	Roll:	4.512	Pitch:	-1.317	Yaw:	15.186	Thrust:	49.266
Time:	3.552	Roll Set Point:	-0.288	Pitch Set Point:	-0.049	Yaw Set Point:	-0.015	X_WP:	0.100	Y_WP:	0.000	Y_WP:	0.500	X:	0.194	Y:	0.025	Z:	0.322	yaw:	0.878	yaw rate:	-22.449	Roll:	4.577	Pitch:	0.416	Yaw:	-3.212	Thrust:	50.419
Time:	3.564	Roll Set Point:	-0.291	Pitch Set Point:	-0.047	Yaw Set Point:	-0.018	X_WP:	0.100	Y_WP:	0.000	Y_WP:	0.500	X:	0.195	Y:	0.025	Z:	0.326	yaw:	1.026	yaw rate:	14.823	Roll:	4.304	Pitch:	-0.295	Yaw:	5.550	Thrust:	60.751
Time:	3.578	Roll Set Point:	-0.295	Pitch Set Point:	-0.046	Yaw Set Point:	-0.009	X_WP:	0.100	Y_WP:	0.000	Y_WP:	0.500	X:	0.197	Y:	0.024	Z:	0.334	yaw:	0.527	yaw rate:	-63.503	Roll:	5.134	Pitch:	0.524	Yaw:	-7.800	Thrust:	53.618
Time:	3.589	Roll Set Point:	-0.299	Pitch Set Point:	-0.044	Yaw Set Point:	-0.011	X_WP:	0.100	Y_WP:	0.000	Y_WP:	0.500	X:	0.199	Y:	0.022	Z:	0.343	yaw:	0.612	yaw rate:	8.432	Roll:	5.687	Pitch:	-1.163	Yaw:	3.761	Thrust:	34.237
Time:	3.606	Roll Set Point:	-0.300	Pitch Set Point:	-0.042	Yaw Set Point:	-0.015	X_WP:	0.100	Y_WP:	0.000	Y_WP:	0.500	X:	0.200	Y:	0.022	Z:	0.347	yaw:	0.873	yaw rate:	26.167	Roll:	3.976	Pitch:	-0.406	Yaw:	6.805	Thrust:	82.346
Time:	3.617	Roll Set Point:	-0.302	Pitch Set Point:	-0.042	Yaw Set Point:	-0.008	X_WP:	0.100	Y_WP:	0.000	Y_WP:	0.500	X:	0.201	Y:	0.021	Z:	0.350	yaw:	0.468	yaw rate:	-40.580	Roll:	3.638	Pitch:	0.719	Yaw:	-7.183	Thrust:	59.906
Time:	3.636	Roll Set Point:	-0.304	Pitch Set Point:	-0.040	Yaw Set Point:	-0.013	X_WP:	0.100	Y_WP:	0.000	Y_WP:	0.500	X:	0.202	Y:	0.021	Z:	0.354	yaw:	0.729	yaw rate:	26.159	Roll:	4.164	Pitch:	-0.228	Yaw:	6.372	Thrust:	87.133
Time:	3.648	Roll Set Point:	-0.305	Pitch Set Point:	-0.040	Yaw Set Point:	-0.005	X_WP:	0.100	Y_WP:	0.000	Y_WP:	0.500	X:	0.202	Y:	0.020	Z:	0.357	yaw:	0.300	yaw rate:	-42.945	Roll:	3.315	Pitch:	0.875	Yaw:	-7.130	Thrust:	71.689
Time:	3.660	Roll Set Point:	-0.308	Pitch Set Point:	-0.035	Yaw Set Point:	-0.012	X_WP:	0.100	Y_WP:	0.000	Y_WP:	0.500	X:	0.204	Y:	0.018	Z:	0.368	yaw:	0.674	yaw rate:	-10.033	Roll:	5.323	Pitch:	-3.106	Yaw:	9.971	Thrust:	35.398
Time:	3.673	Roll Set Point:	-0.310	Pitch Set Point:	-0.034	Yaw Set Point:	-0.015	X_WP:	0.100	Y_WP:	0.000	Y_WP:	0.500	X:	0.205	Y:	0.018	Z:	0.371	yaw:	0.845	yaw rate:	17.119	Roll:	3.881	Pitch:	-0.564	Yaw:	5.619	Thrust:	66.656
Time:	3.685	Roll Set Point:	-0.311	Pitch Set Point:	-0.033	Yaw Set Point:	-0.013	X_WP:	0.100	Y_WP:	0.000	Y_WP:	0.500	X:	0.205	Y:	0.017	Z:	0.374	yaw:	0.721	yaw rate:	-12.398	Roll:	3.610	Pitch:	0.022	Yaw:	-1.197	Thrust:	53.156
Time:	3.696	Roll Set Point:	-0.311	Pitch Set Point:	-0.031	Yaw Set Point:	-0.017	X_WP:	0.100	Y_WP:	0.000	Y_WP:	0.500	X:	0.205	Y:	0.017	Z:	0.377	yaw:	0.953	yaw rate:	23.271	Roll:	3.497	Pitch:	-1.063	Yaw:	7.400	Thrust:	60.352
Time:	3.709	Roll Set Point:	-0.312	Pitch Set Point:	-0.030	Yaw Set Point:	-0.018	X_WP:	0.100	Y_WP:	0.000	Y_WP:	0.500	X:	0.206	Y:	0.016	Z:	0.381	yaw:	1.036	yaw rate:	8.272	Roll:	3.440	Pitch:	-0.488	Yaw:	4.230	Thrust:	63.264
Time:	3.719	Roll Set Point:	-0.312	Pitch Set Point:	-0.029	Yaw Set Point:	-0.011	X_WP:	0.100	Y_WP:	0.000	Y_WP:	0.500	X:	0.206	Y:	0.015	Z:	0.384	yaw:	0.626	yaw rate:	-40.972	Roll:	3.452	Pitch:	0.668	Yaw:	-8.423	Thrust:	49.560
Time:	3.739	Roll Set Point:	-0.313	Pitch Set Point:	-0.028	Yaw Set Point:	-0.009	X_WP:	0.100	Y_WP:	0.000	Y_WP:	0.500	X:	0.206	Y:	0.015	Z:	0.387	yaw:	0.503	yaw rate:	-12.342	Roll:	3.161	Pitch:	0.129	Yaw:	0.650	Thrust:	91.986
Time:	3.749	Roll Set Point:	-0.314	Pitch Set Point:	-0.025	Yaw Set Point:	-0.015	X_WP:	0.100	Y_WP:	0.000	Y_WP:	0.500	X:	0.207	Y:	0.013	Z:	0.394	yaw:	0.843	yaw rate:	24.676	Roll:	3.533	Pitch:	-1.790	Yaw:	10.211	Thrust:	47.328
Time:	3.765	Roll Set Point:	-0.313	Pitch Set Point:	-0.025	Yaw Set Point:	-0.008	X_WP:	0.100	Y_WP:	0.000	Y_WP:	0.500	X:	0.207	Y:	0.013	Z:	0.397	yaw:	0.481	yaw rate:	-36.198	Roll:	2.914	Pitch:	0.363	Yaw:	-5.088	Thrust:	57.826
Time:	3.781	Roll Set Point:	-0.314	Pitch Set Point:	-0.020	Yaw Set Point:	-0.017	X_WP:	0.100	Y_WP:	0.000	Y_WP:	0.500	X:	0.207	Y:	0.011	Z:	0.406	yaw:	0.982	yaw rate:	46.481	Roll:	3.121	Pitch:	-1.684	Yaw:	10.174	Thrust:	94.944
Time:	3.793	Roll Set Point:	-0.313	Pitch Set Point:	-0.020	Yaw Set Point:	-0.007	X_WP:	0.100	Y_WP:	0.000	Y_WP:	0.500	X:	0.206	Y:	0.010	Z:	0.409	yaw:	0.373	yaw rate:	-60.910	Roll:	2.596	Pitch:	1.073	Yaw:	-12.076	Thrust:	58.476
Time:	3.807	Roll Set Point:	-0.313	Pitch Set Point:	-0.018	Yaw Set Point:	-0.016	X_WP:	0.100	Y_WP:	0.000	Y_WP:	0.500	X:	0.206	Y:	0.010	Z:	0.412	yaw:	0.896	yaw rate:	52.385	Roll:	3.124	Pitch:	-1.522	Yaw:	12.196	Thrust:	73.254
Time:	3.818	Roll Set Point:	-0.312	Pitch Set Point:	-0.018	Yaw Set Point:	-0.006	X_WP:	0.100	Y_WP:	0.000	Y_WP:	0.500	X:	0.206	Y:	0.009	Z:	0.415	yaw:	0.365	yaw rate:	-53.107	Roll:	2.406	Pitch:	0.948	Yaw:	-10.555	Thrust:	58.585
Time:	3.837	Roll Set Point:	-0.312	Pitch Set Point:	-0.017	Yaw Set Point:	-0.005	X_WP:	0.100	Y_WP:	0.000	Y_WP:	0.500	X:	0.206	Y:	0.009	Z:	0.418	yaw:	0.293	yaw rate:	-7.265	Roll:	2.834	Pitch:	-0.051	Yaw:	1.043	Thrust:	97.851
Time:	3.850	Roll Set Point:	-0.311	Pitch Set Point:	-0.014	Yaw Set Point:	-0.012	X_WP:	0.100	Y_WP:	0.000	Y_WP:	0.500	X:	0.205	Y:	0.008	Z:	0.423	yaw:	0.674	yaw rate:	-45.479	Roll:	2.358	Pitch:	-1.735	Yaw:	9.732	Thrust:	64.781
Time:	3.866	Roll Set Point:	-0.310	Pitch Set Point:	-0.013	Yaw Set Point:	-0.011	X_WP:	0.100	Y_WP:	0.000	Y_WP:	0.500	X:	0.205	Y:	0.007	Z:	0.426	yaw:	0.651	yaw rate:	-2.332	Roll:	2.543	Pitch:	-0.276	Yaw:	1.809	Thrust:	77.251
Time:	3.880	Roll Set Point:	-0.308	Pitch Set Point:	-0.011	Yaw Set Point:	-0.012	X_WP:	0.100	Y_WP:	0.000	Y_WP:	0.500	X:	0.204	Y:	0.006	Z:	0.432	yaw:	0.695	yaw rate:	-18.295	Roll:	2.070	Pitch:	-0.877	Yaw:	3.030	Thrust:	70.936
Time:	3.891	Roll Set Point:	-0.306	Pitch Set Point:	-0.009	Yaw Set Point:	-0.013	X_WP:	0.100	Y_WP:	0.000	Y_WP:	0.500	X:	0.203	Y:	0.005	Z:	0.438	yaw:	0.730	yaw rate:	3.454	Roll:	1.348	Pitch:	-1.480	Yaw:	2.801	Thrust:	39.777
Time:	3.905	Roll Set Point:	-0.305	Pitch Set Point:	-0.007	Yaw Set Point:	-0.019	X_WP:	0.100	Y_WP:	0.000	Y_WP:	0.500	X:	0.203	Y:	0.005	Z:	0.441	yaw:	1.092	yaw rate:	36.239	Roll:	2.297	Pitch:	-1.041	Yaw:	9.685	Thrust:	68.158
Time:	3.917	Roll Set Point:	-0.304	Pitch Set Point:	-0.006	Yaw Set Point:	-0.021	X_WP:	0.100	Y_WP:	0.000	Y_WP:	0.500	X:	0.202	Y:	0.004	Z:	0.445	yaw:	1.189	yaw rate:	9.706	Roll:	2.066	Pitch:	-0.766	Yaw:	4.830	Thrust:	57.194
Time:	3.928	Roll Set Point:	-0.303	Pitch Set Point:	-0.005	Yaw Set Point:	-0.025	X_WP:	0.100	Y_WP:	0.000	Y_WP:	0.500	X:	0.201	Y:	0.004	Z:	0.449	yaw:	1.428	yaw rate:	23.854	Roll:	1.964	Pitch:	-0.952	Yaw:	8.587	Thrust:	43.177
Time:	3.940	Roll Set Point:	-0.301	Pitch Set Point:	-0.004	Yaw Set Point:	-0.025	X_WP:	0.100	Y_WP:	0.000	Y_WP:	0.500	X:	0.201	Y:	0.003	Z:	0.453	yaw:	1.442	yaw rate:	1.438	Roll:	2.114	Pitch:	-0.347	Yaw:	3.396	Thrust:	62.518
Time:	3.952	Roll Set Point:	-0.300	Pitch Set Point:	-0.004	Yaw Set Point:	-0.023	X_WP:	0.100	Y_WP:	0.000	Y_WP:	0.500	X:	0.200	Y:	0.003	Z:	0.457	yaw:	1.315	yaw rate:	-12.691	Roll:	1.754	Pitch:	-0.054	Yaw:	-0.019	Thrust:	50.822
Time:	3.967	Roll Set Point:	-0.298	Pitch Set Point:	-0.003	Yaw Set Point:	-0.028	X_WP:	0.100	Y_WP:	0.000	Y_WP:	0.500	X:	0.199	Y:	0.003	Z:	0.461	yaw:	1.625	yaw rate:	31.000	Roll:	1.967	Pitch:	-0.759	Yaw:	8.940	Thrust:	72.381
Time:	3.982	Roll Set Point:	-0.294	Pitch Set Point:	-0.002	Yaw Set Point:	-0.021	X_WP:	0.100	Y_WP:	0.000	Y_WP:	0.500	X:	0.197	Y:	0.002	Z:	0.476	yaw:	1.204	yaw rate:	-57.747	Roll:	0.663	Pitch:	0.349	Yaw:	-4.592	Thrust:	43.434
Time:	3.994	Roll Set Point:	-0.293	Pitch Set Point:	-0.002	Yaw Set Point:	-0.019	X_WP:	0.100	Y_WP:	0.000	Y_WP:	0.500	X:	0.196	Y:	0.002	Z:	0.480	yaw:	1.078	yaw rate:	-12.659	Roll:	1.758	Pitch:	0.291	Yaw:	0.018	Thrust:	47.730
Time:	4.007	Roll Set Point:	-0.291	Pitch Set Point:	-0.002	Yaw Set Point:	-0.017	X_WP:	0.100	Y_WP:	0.000	Y_WP:	0.500	X:	0.195	Y:	0.002	Z:	0.486	yaw:	0.979	yaw rate:	-9.867	Roll:	1.727	Pitch:	0.189	Yaw:	0.700	Thrust:	67.598
Time:	4.018	Roll Set Point:	-0.289	Pitch Set Point:	-0.002	Yaw Set Point:	-0.017	X_WP:	0.100	Y_WP:	0.000	Y_WP:	0.500	X:	0.195	Y:	0.002	Z:	0.491	yaw:	0.952	yaw rate:	-2.707	Roll:	1.437	Pitch:	-0.033	Yaw:	1.695	Thrust:	42.150
Time:	4.033	Roll Set Point:	-0.288	Pitch Set Point:	-0.002	Yaw Set Point:	-0.020	X_WP:	0.100	Y_WP:	0.000	Y_WP:	0.500	X:	0.194	Y:	0.002	Z:	0.496	yaw:	1.155	yaw rate:	20.275	Roll:	1.747	Pitch:	-0.309	Yaw:	6.531	Thrust:	62.866
Time:	4.048	Roll Set Point:	-0.284	Pitch Set Point:	-0.001	Yaw Set Point:	-0.021	X_WP:	0.100	Y_WP:	0.000	Y_WP:	0.500	X:	0.192	Y:	0.002	Z:	0.506	yaw:	1.203	yaw rate:	7.153	Roll:	0.915	Pitch:	-0.086	Yaw:	3.895	Thrust:	57.257
Time:	4.059	Roll Set Point:	-0.283	Pitch Set Point:	-0.002	Yaw Set Point:	-0.011	X_WP:	0.100	Y_WP:	0.000	Y_WP:	0.500	X:	0.191	Y:	0.001	Z:	0.511	yaw:	0.619	yaw rate:	-58.417	Roll:	1.400	Pitch:	1.537	Yaw:	-11.923	Thrust:	37.888
Time:	4.072	Roll Set Point:	-0.281	Pitch Set Point:	-0.002	Yaw Set Point:	-0.017	X_WP:	0.100	Y_WP:	0.000	Y_WP:	0.500	X:	0.190	Y:	0.002	Z:	0.516	yaw:	0.946	yaw rate:	32.695	Roll:	1.418	Pitch:	-0.402	Yaw:	9.092	Thrust:	55.105
Time:	4.083	Roll Set Point:	-0.277	Pitch Set Point:	-0.002	Yaw Set Point:	-0.011	X_WP:	0.100	Y_WP:	0.000	Y_WP:	0.500	X:	0.189	Y:	0.002	Z:	0.526	yaw:	0.630	yaw rate:	-31.576	Roll:	0.116	Pitch:	0.828	Yaw:	-5.224	Thrust:	29.930
Time:	4.095	Roll Set Point:	-0.275	Pitch Set Point:	-0.001	Yaw Set Point:	-0.025	X_WP:	0.100	Y_WP:	0.000	Y_WP:	0.500	X:	0.188	Y:	0.002	Z:	0.531	yaw:	1.440	yaw rate:	81.007	Roll:	0.957	Pitch:	-1.952	Yaw:	21.485	Thrust:	45.042
Time:	4.108	Roll Set Point:	-0.273	Pitch Set Point:	-0.002	Yaw Set Point:	-0.008	X_WP:	0.100	Y_WP:	0.000	Y_WP:	0.500	X:	0.187	Y:	0.002	Z:	0.535	yaw:	0.478	yaw rate:	-96.291	Roll:	1.365	Pitch:	2.095	Yaw:	-18.242	Thrust:	52.151
Time:	4.119	Roll Set Point:	-0.271	Pitch Set Point:	-0.002	Yaw Set Point:	-0.012	X_WP:	0.100	Y_WP:	0.000	Y_WP:	0.500	X:	0.186	Y:	0.001	Z:	0.540	yaw:	0.666	yaw rate:	18.859	Roll:	0.823	Pitch:	-0.480	Yaw:	6.443	Thrust:	41.721
Time:	4.131	Roll Set Point:	-0.270	Pitch Set Point:	-0.003	Yaw Set Point:	-0.000	X_WP:	0.100	Y_WP:	0.000	Y_WP:	0.500	X:	0.185	Y:	0.002	Z:	0.544	yaw:	0.008	yaw rate:	-65.788	Roll:	1.363	Pitch:	1.560	Yaw:	-12.416	Thrust:	54.107
Time:	4.145	Roll Set Point:	-0.267	Pitch Set Point:	-0.003	Yaw Set Point:	-0.001	X_WP:	0.100	Y_WP:	0.000	Y_WP:	0.500	X:	0.184	Y:	0.002	Z:	0.548	yaw:	0.065	yaw rate:	5.689	Roll:	1.249	Pitch:	0.245	Yaw:	2.467	Thrust:	59.678
Time:	4.156	Roll Set Point:	-0.265	Pitch Set Point:	-0.003	Yaw Set Point:	-0.001	X_WP:	0.100	Y_WP:	0.000	Y_WP:	0.500	X:	0.183	Y:	0.002	Z:	0.552	yaw:	0.039	yaw rate:	-2.600	Roll:	0.755	Pitch:	0.339	Yaw:	0.494	Thrust:	43.478
Time:	4.171	Roll Set Point:	-0.264	Pitch Set Point:	-0.004	Yaw Set Point:	-0.000	X_WP:	0.100	Y_WP:	0.000	Y_WP:	0.500	X:	0.182	Y:	0.002	Z:	0.556	yaw:	0.014	yaw rate:	-2.477	Roll:	1.349	Pitch:	0.300	Yaw:	1.007	Thrust:	68.078
Time:	4.183	Roll Set Point:	-0.258	Pitch Set Point:	-0.004	Yaw Set Point:	-0.001	X_WP:	0.100	Y_WP:	0.000	Y_WP:	0.500	X:	0.179	Y:	0.002	Z:	0.565	yaw:	0.045	yaw rate:	3.068	Roll:	-1.313	Pitch:	0.296	Yaw:	1.844	Thrust:	22.842
Time:	4.194	Roll Set Point:	-0.255	Pitch Set Point:	-0.004	Yaw Set Point:	0.006	X_WP:	0.100	Y_WP:	0.000	Y_WP:	0.500	X:	0.178	Y:	0.002	Z:	0.568	yaw:	-0.345	yaw rate:	-38.969	Roll:	0.291	Pitch:	1.139	Yaw:	-8.614	Thrust:	50.240
Time:	4.206	Roll Set Point:	-0.254	Pitch Set Point:	-0.004	Yaw Set Point:	0.005	X_WP:	0.100	Y_WP:	0.000	Y_WP:	0.500	X:	0.177	Y:	0.002	Z:	0.571	yaw:	-0.273	yaw rate:	7.149	Roll:	0.970	Pitch:	0.149	Yaw:	2.307	Thrust:	53.165
Time:	4.218	Roll Set Point:	-0.252	Pitch Set Point:	-0.004	Yaw Set Point:	0.000	X_WP:	0.100	Y_WP:	0.000	Y_WP:	0.500	X:	0.176	Y:	0.002	Z:	0.574	yaw:	-0.018	yaw rate:	25.553	Roll:	0.922	Pitch:	-0.248	Yaw:	6.668	Thrust:	53.736
Time:	4.236	Roll Set Point:	-0.249	Pitch Set Point:	-0.004	Yaw Set Point:	-0.008	X_WP:	0.100	Y_WP:	0.000	Y_WP:	0.500	X:	0.175	Y:	0.002	Z:	0.576	yaw:	0.435	yaw rate:	45.301	Roll:	0.879	Pitch:	-0.431	Yaw:	8.874	Thrust:	79.061
Time:	4.249	Roll Set Point:	-0.246	Pitch Set Point:	-0.005	Yaw Set Point:	0.006	X_WP:	0.100	Y_WP:	0.000	Y_WP:	0.500	X:	0.173	Y:	0.002	Z:	0.580	yaw:	-0.346	yaw rate:	-19.392	Roll:	0.235	Pitch:	1.512	Yaw:	-14.330	Thrust:	70.469
Time:	4.260	Roll Set Point:	-0.243	Pitch Set Point:	-0.005	Yaw Set Point:	0.008	X_WP:	0.100	Y_WP:	0.000	Y_WP:	0.500	X:	0.172	Y:	0.002	Z:	0.582	yaw:	-0.462	yaw rate:	-11.528	Roll:	0.451	Pitch:	0.440	Yaw:	-2.316	Thrust:	50.431
Time:	4.276	Roll Set Point:	-0.240	Pitch Set Point:	-0.004	Yaw Set Point:	0.002	X_WP:	0.100	Y_WP:	0.000	Y_WP:	0.500	X:	0.170	Y:	0.002	Z:	0.583	yaw:	-0.127	yaw rate:	33.434	Roll:	0.423	Pitch:	-0.423	Yaw:	6.914	Thrust:	78.129
Time:	4.286	Roll Set Point:	-0.237	Pitch Set Point:	-0.006	Yaw Set Point:	0.020	X_WP:	0.100	Y_WP:	0.000	Y_WP:	0.500	X:	0.168	Y:	0.002	Z:	0.585	yaw:	-1.121	yaw rate:	-99.386	Roll:	-0.787	Pitch:	2.207	Yaw:	-26.576	Thrust:	39.545
Time:	4.297	Roll Set Point:	-0.235	Pitch Set Point:	-0.006	Yaw Set Point:	0.016	X_WP:	0.100	Y_WP:	0.000	Y_WP:	0.500	X:	0.167	Y:	0.002	Z:	0.587	yaw:	-0.944	yaw rate:	17.676	Roll:	0.373	Pitch:	0.102	Yaw:	3.904	Thrust:	45.716
Time:	4.311	Roll Set Point:	-0.233	Pitch Set Point:	-0.006	Yaw Set Point:	0.019	X_WP:	0.100	Y_WP:	0.000	Y_WP:	0.500	X:	0.166	Y:	0.002	Z:	0.588	yaw:	-1.113	yaw rate:	-16.872	Roll:	0.621	Pitch:	0.421	Yaw:	-3.546	Thrust:	72.488
Time:	4.321	Roll Set Point:	-0.230	Pitch Set Point:	-0.006	Yaw Set Point:	0.023	X_WP:	0.100	Y_WP:	0.000	Y_WP:	0.500	X:	0.165	Y:	0.002	Z:	0.589	yaw:	-1.301	yaw rate:	-18.742	Roll:	0.283	Pitch:	0.590	Yaw:	-5.461	Thrust:	48.765
Time:	4.336	Roll Set Point:	-0.228	Pitch Set Point:	-0.006	Yaw Set Point:	0.019	X_WP:	0.100	Y_WP:	0.000	Y_WP:	0.500	X:	0.164	Y:	0.002	Z:	0.590	yaw:	-1.065	yaw rate:	23.599	Roll:	0.361	Pitch:	-0.237	Yaw:	4.210	Thrust:	63.576
Time:	4.348	Roll Set Point:	-0.224	Pitch Set Point:	-0.005	Yaw Set Point:	0.011	X_WP:	0.100	Y_WP:	0.000	Y_WP:	0.500	X:	0.162	Y:	0.002	Z:	0.592	yaw:	-0.634	yaw rate:	47.147	Roll:	-0.575	Pitch:	-0.290	Yaw:	8.955	Thrust:	64.110
Time:	4.361	Roll Set Point:	-0.222	Pitch Set Point:	-0.005	Yaw Set Point:	0.010	X_WP:	0.100	Y_WP:	0.000	Y_WP:	0.500	X:	0.161	Y:	0.002	Z:	0.594	yaw:	-0.551	yaw rate:	8.296	Roll:	0.692	Pitch:	-0.079	Yaw:	2.090	Thrust:	62.010
Time:	4.377	Roll Set Point:	-0.220	Pitch Set Point:	-0.005	Yaw Set Point:	0.021	X_WP:	0.100	Y_WP:	0.000	Y_WP:	0.500	X:	0.160	Y:	0.002	Z:	0.595	yaw:	-1.196	yaw rate:	-64.506	Roll:	0.772	Pitch:	0.800	Yaw:	-10.728	Thrust:	78.642
Time:	4.388	Roll Set Point:	-0.216	Pitch Set Point:	-0.005	Yaw Set Point:	0.014	X_WP:	0.100	Y_WP:	0.000	Y_WP:	0.500	X:	0.158	Y:	0.002	Z:	0.598	yaw:	-0.816	yaw rate:	37.930	Roll:	-1.530	Pitch:	-0.420	Yaw:	9.250	Thrust:	38.475
Time:	4.403	Roll Set Point:	-0.214	Pitch Set Point:	-0.005	Yaw Set Point:	0.019	X_WP:	0.100	Y_WP:	0.000	Y_WP:	0.500	X:	0.157	Y:	0.002	Z:	0.600	yaw:	-1.061	yaw rate:	-24.460	Roll:	0.634	Pitch:	0.370	Yaw:	-4.366	Thrust:	71.268
Time:	4.417	Roll Set Point:	-0.210	Pitch Set Point:	-0.005	Yaw Set Point:	0.022	X_WP:	0.100	Y_WP:	0.000	Y_WP:	0.500	X:	0.155	Y:	0.002	Z:	0.604	yaw:	-1.280	yaw rate:	-3.838	Roll:	-0.532	Pitch:	0.265	Yaw:	-4.789	Thrust:	55.651
Time:	4.436	Roll Set Point:	-0.208	Pitch Set Point:	-0.004	Yaw Set Point:	0.017	X_WP:	0.100	Y_WP:	0.000	Y_WP:	0.500	X:	0.154	Y:	0.002	Z:	0.605	yaw:	-0.990	yaw rate:	28.984	Roll:	0.566	Pitch:	-0.049	Yaw:	4.313	Thrust:	75.889
Time:	4.449	Roll Set Point:	-0.205	Pitch Set Point:	-0.004	Yaw Set Point:	0.022	X_WP:	0.100	Y_WP:	0.000	Y_WP:	0.500	X:	0.153	Y:	0.002	Z:	0.610	yaw:	-1.263	yaw rate:	3.035	Roll:	0.107	Pitch:	0.271	Yaw:	-5.745	Thrust:	72.871
Time:	4.461	Roll Set Point:	-0.203	Pitch Set Point:	-0.004	Yaw Set Point:	0.023	X_WP:	0.100	Y_WP:	0.000	Y_WP:	0.500	X:	0.152	Y:	0.001	Z:	0.612	yaw:	-1.325	yaw rate:	-6.178	Roll:	0.204	Pitch:	0.007	Yaw:	-2.222	Thrust:	47.452
Time:	4.473	Roll Set Point:	-0.201	Pitch Set Point:	-0.004	Yaw Set Point:	0.023	X_WP:	0.100	Y_WP:	0.000	Y_WP:	0.500	X:	0.151	Y:	0.001	Z:	0.614	yaw:	-1.306	yaw rate:	1.863	Roll:	0.326	Pitch:	0.034	Yaw:	-0.322	Thrust:	50.773
Time:	4.484	Roll Set Point:	-0.198	Pitch Set Point:	-0.003	Yaw Set Point:	0.022	X_WP:	0.100	Y_WP:	0.000	Y_WP:	0.500	X:	0.149	Y:	0.001	Z:	0.619	yaw:	-1.247	yaw rate:	5.892	Roll:	-0.996	Pitch:	-0.154	Yaw:	0.631	Thrust:	37.255
Time:	4.497	Roll Set Point:	-0.197	Pitch Set Point:	-0.003	Yaw Set Point:	0.019	X_WP:	0.100	Y_WP:	0.000	Y_WP:	0.500	X:	0.148	Y:	0.001	Z:	0.621	yaw:	-1.089	yaw rate:	15.845	Roll:	0.298	Pitch:	-0.242	Yaw:	3.088	Thrust:	45.463
Time:	4.510	Roll Set Point:	-0.195	Pitch Set Point:	-0.003	Yaw Set Point:	0.020	X_WP:	0.100	Y_WP:	0.000	Y_WP:	0.500	X:	0.148	Y:	0.001	Z:	0.624	yaw:	-1.124	yaw rate:	-3.547	Roll:	0.706	Pitch:	-0.005	Yaw:	-1.069	Thrust:	57.309
Time:	4.521	Roll Set Point:	-0.194	Pitch Set Point:	-0.002	Yaw Set Point:	0.018	X_WP:	0.100	Y_WP:	0.000	Y_WP:	0.500	X:	0.147	Y:	0.001	Z:	0.626	yaw:	-1.034	yaw rate:	8.994	Roll:	0.304	Pitch:	-0.303	Yaw:	1.651	Thrust:	41.831
Time:	4.538	Roll Set Point:	-0.192	Pitch Set Point:	-0.002	Yaw Set Point:	0.028	X_WP:	0.100	Y_WP:	0.000	Y_WP:	0.500	X:	0.146	Y:	0.001	Z:	0.629	yaw:	-1.626	yaw rate:	-59.122	Roll:	0.683	Pitch:	0.634	Yaw:	-9.855	Thrust:	73.820
Time:	4.550	Roll Set Point:	-0.190	Pitch Set Point:	-0.002	Yaw Set Point:	0.026	X_WP:	0.100	Y_WP:	0.000	Y_WP:	0.500	X:	0.145	Y:	0.000	Z:	0.633	yaw:	-1.474	yaw rate:	-71.063	Roll:	-0.263	Pitch:	-0.506	Yaw:	2.369	Thrust:	38.165
Time:	4.562	Roll Set Point:	-0.188	Pitch Set Point:	-0.001	Yaw Set Point:	0.024	X_WP:	0.100	Y_WP:	0.000	Y_WP:	0.500	X:	0.144	Y:	0.000	Z:	0.636	yaw:	-1.381	yaw rate:	9.327	Roll:	0.405	Pitch:	-0.209	Yaw:	1.130	Thrust:	44.810
Time:	4.576	Roll Set Point:	-0.187	Pitch Set Point:	-0.001	Yaw Set Point:	0.018	X_WP:	0.100	Y_WP:	0.000	Y_WP:	0.500	X:	0.143	Y:	0.000	Z:	0.638	yaw:	-1.012	yaw rate:	36.959	Roll:	0.407	Pitch:	-0.115	Yaw:	6.676	Thrust:	62.142
Time:	4.586	Roll Set Point:	-0.185	Pitch Set Point:	-0.000	Yaw Set Point:	0.025	X_WP:	0.100	Y_WP:	0.000	Y_WP:	0.500	X:	0.142	Y:	-0.000	Z:	0.642	yaw:	-1.421	yaw rate:	-40.908	Roll:	-0.154	Pitch:	-0.185	Yaw:	-10.761	Thrust:	34.275
Time:	4.605	Roll Set Point:	-0.184	Pitch Set Point:	0.000	Yaw Set Point:	0.024	X_WP:	0.100	Y_WP:	0.000	Y_WP:	0.500	X:	0.142	Y:	-0.001	Z:	0.644	yaw:	-1.382	yaw rate:	3.847	Roll:	0.735	Pitch:	-0.124	Yaw:	0.179	Thrust:	84.687
Time:	4.617	Roll Set Point:	-0.181	Pitch Set Point:	0.001	Yaw Set Point:	0.025	X_WP:	0.100	Y_WP:	0.000	Y_WP:	0.500	X:	0.141	Y:	-0.001	Z:	0.647	yaw:	-1.433	yaw rate:	-15.900	Roll:	0.057	Pitch:	-0.115	Yaw:	-2.102	Thrust:	38.393
Time:	4.630	Roll Set Point:	-0.181	Pitch Set Point:	0.002	Yaw Set Point:	0.009	X_WP:	0.100	Y_WP:	0.000	Y_WP:	0.500	X:	0.140	Y:	-0.001	Z:	0.649	yaw:	-0.504	yaw rate:	92.873	Roll:	0.585	Pitch:	-1.404	Yaw:	20.431	Thrust:	46.039
Time:	4.646	Roll Set Point:	-0.179	Pitch Set Point:	0.002	Yaw Set Point:	0.024	X_WP:	0.100	Y_WP:	0.000	Y_WP:	0.500	X:	0.140	Y:	-0.001	Z:	0.650	yaw:	-1.383	yaw rate:	-87.873	Roll:	0.762	Pitch:	0.630	Yaw:	-14.462	Thrust:	78.723
Time:	4.657	Roll Set Point:	-0.178	Pitch Set Point:	0.002	Yaw Set Point:	0.027	X_WP:	0.100	Y_WP:	0.000	Y_WP:	0.500	X:	0.139	Y:	-0.002	Z:	0.652	yaw:	-1.520	yaw rate:	6.249	Roll:	0.128	Pitch:	-0.357	Yaw:	-4.233	Thrust:	42.861
Time:	4.670	Roll Set Point:	-0.177	Pitch Set Point:	0.003	Yaw Set Point:	0.023	X_WP:	0.100	Y_WP:	0.000	Y_WP:	0.500	X:	0.138	Y:	-0.002	Z:	0.653	yaw:	-1.315	yaw rate:	20.581	Roll:	0.512	Pitch:	-0.208	Yaw:	3.494	Thrust:	53.100
Time:	4.682	Roll Set Point:	-0.176	Pitch Set Point:	0.003	Yaw Set Point:	0.024	X_WP:	0.100	Y_WP:	0.000	Y_WP:	0.500	X:	0.138	Y:	-0.002	Z:	0.654	yaw:	-1.373	yaw rate:	-5.826	Roll:	0.673	Pitch:	-0.113	Yaw:	-2.297	Thrust:	47.988
Time:	4.693	Roll Set Point:	-0.176	Pitch Set Point:	0.003	Yaw Set Point:	0.024	X_WP:	0.100	Y_WP:	0.000	Y_WP:	0.500	X:	0.138	Y:	-0.002	Z:	0.654	yaw:	-1.400	yaw rate:	-2.730	Roll:	0.830	Pitch:	-0.220	Yaw:	-1.707	Thrust:	45.907
Time:	4.707	Roll Set Point:	-0.174	Pitch Set Point:	0.004	Yaw Set Point:	0.022	X_WP:	0.100	Y_WP:	0.000	Y_WP:	0.500	X:	0.137	Y:	-0.003	Z:	0.654	yaw:	-1.247	yaw rate:	15.353	Roll:	0.459	Pitch:	-0.519	Yaw:	2.195	Thrust:	65.692
Time:	4.717	Roll Set Point:	-0.174	Pitch Set Point:	0.004	Yaw Set Point:	0.024	X_WP:	0.100	Y_WP:	0.000	Y_WP:	0.500	X:	0.137	Y:	-0.003	Z:	0.654	yaw:	-1.376	yaw rate:	-12.957	Roll:	0.714	Pitch:	-0.070	Yaw:	-4.299	Thrust:	43.614
Time:	4.730	Roll Set Point:	-0.173	Pitch Set Point:	0.005	Yaw Set Point:	0.022	X_WP:	0.100	Y_WP:	0.000	Y_WP:	0.500	X:	0.136	Y:	-0.003	Z:	0.653	yaw:	-1.251	yaw rate:	12.539	Roll:	0.419	Pitch:	-0.164	Yaw:	1.869	Thrust:	59.580
Time:	4.742	Roll Set Point:	-0.172	Pitch Set Point:	0.005	Yaw Set Point:	0.023	X_WP:	0.100	Y_WP:	0.000	Y_WP:	0.500	X:	0.136	Y:	-0.003	Z:	0.652	yaw:	-1.331	yaw rate:	-8.014	Roll:	0.607	Pitch:	-0.129	Yaw:	-2.640	Thrust:	55.701
Time:	4.753	Roll Set Point:	-0.172	Pitch Set Point:	0.005	Yaw Set Point:	0.034	X_WP:	0.100	Y_WP:	0.000	Y_WP:	0.500	X:	0.136	Y:	-0.003	Z:	0.652	yaw:	-1.947	yaw rate:	-61.563	Roll:	1.030	Pitch:	0.254	Yaw:	-16.414	Thrust:	50.700
Time:	4.771	Roll Set Point:	-0.171	Pitch Set Point:	0.005	Yaw Set Point:	0.039	X_WP:	0.100	Y_WP:	0.000	Y_WP:	0.500	X:	0.135	Y:	-0.003	Z:	0.650	yaw:	-2.253	yaw rate:	-30.656	Roll:	0.798	Pitch:	0.053	Yaw:	-6.517	Thrust:	77.504
Time:	4.783	Roll Set Point:	-0.170	Pitch Set Point:	0.006	Yaw Set Point:	0.036	X_WP:	0.100	Y_WP:	0.000	Y_WP:	0.500	X:	0.135	Y:	-0.004	Z:	0.648	yaw:	-2.063	yaw rate:	-24.084	Roll:	0.621	Pitch:	-0.477	Yaw:	2.058	Thrust:	66.363
Time:	4.795	Roll Set Point:	-0.169	Pitch Set Point:	0.007	Yaw Set Point:	0.039	X_WP:	0.100	Y_WP:	0.000	Y_WP:	0.500	X:	0.135	Y:	-0.004	Z:	0.644	yaw:	-2.251	yaw rate:	-18.826	Roll:	0.447	Pitch:	-0.261	Yaw:	-6.252	Thrust:	64.820
Time:	4.807	Roll Set Point:	-0.169	Pitch Set Point:	0.007	Yaw Set Point:	0.034	X_WP:	0.100	Y_WP:	0.000	Y_WP:	0.500	X:	0.134	Y:	-0.004	Z:	0.643	yaw:	-1.952	yaw rate:	29.898	Roll:	0.803	Pitch:	-0.239	Yaw:	4.453	Thrust:	58.040
Time:	4.818	Roll Set Point:	-0.168	Pitch Set Point:	0.007	Yaw Set Point:	0.034	X_WP:	0.100	Y_WP:	0.000	Y_WP:	0.500	X:	0.134	Y:	-0.004	Z:	0.641	yaw:	-1.950	yaw rate:	0.214	Roll:	0.733	Pitch:	-0.240	Yaw:	-1.842	Thrust:	56.258
Time:	4.834	Roll Set Point:	-0.168	Pitch Set Point:	0.008	Yaw Set Point:	0.037	X_WP:	0.100	Y_WP:	0.000	Y_WP:	0.500	X:	0.134	Y:	-0.004	Z:	0.639	yaw:	-2.096	yaw rate:	-14.526	Roll:	0.981	Pitch:	-0.037	Yaw:	-4.340	Thrust:	67.077
Time:	4.848	Roll Set Point:	-0.167	Pitch Set Point:	0.008	Yaw Set Point:	0.030	X_WP:	0.100	Y_WP:	0.000	Y_WP:	0.500	X:	0.134	Y:	-0.005	Z:	0.637	yaw:	-1.705	yaw rate:	39.024	Roll:	0.846	Pitch:	-0.498	Yaw:	5.933	Thrust:	71.448
Time:	4.862	Roll Set Point:	-0.168	Pitch Set Point:	0.008	Yaw Set Point:	0.039	X_WP:	0.100	Y_WP:	0.000	Y_WP:	0.500	X:	0.134	Y:	-0.005	Z:	0.635	yaw:	-2.232	yaw rate:	-52.700	Roll:	1.320	Pitch:	0.419	Yaw:	-11.910	Thrust:	66.432
Time:	4.878	Roll Set Point:	-0.167	Pitch Set Point:	0.009	Yaw Set Point:	0.041	X_WP:	0.100	Y_WP:	0.000	Y_WP:	0.500	X:	0.134	Y:	-0.005	Z:	0.630	yaw:	-2.340	yaw rate:	5.129	Roll:	1.025	Pitch:	-0.454	Yaw:	-3.855	Thrust:	84.514
Time:	4.889	Roll Set Point:	-0.167	Pitch Set Point:	0.009	Yaw Set Point:	0.042	X_WP:	0.100	Y_WP:	0.000	Y_WP:	0.500	X:	0.134	Y:	-0.005	Z:	0.629	yaw:	-2.399	yaw rate:	-5.925	Roll:	0.977	Pitch:	-0.054	Yaw:	-3.868	Thrust:	54.318
Time:	4.902	Roll Set Point:	-0.167	Pitch Set Point:	0.009	Yaw Set Point:	0.043	X_WP:	0.100	Y_WP:	0.000	Y_WP:	0.500	X:	0.134	Y:	-0.005	Z:	0.628	yaw:	-2.438	yaw rate:	-3.960	Roll:	1.154	Pitch:	-0.074	Yaw:	-3.275	Thrust:	60.830
Time:	4.914	Roll Set Point:	-0.168	Pitch Set Point:	0.010	Yaw Set Point:	0.038	X_WP:	0.100	Y_WP:	0.000	Y_WP:	0.500	X:	0.134	Y:	-0.006	Z:	0.625	yaw:	-2.193	yaw rate:	24.514	Roll:	1.297	Pitch:	-0.615	Yaw:	3.103	Thrust:	58.676
Time:	4.925	Roll Set Point:	-0.168	Pitch Set Point:	0.010	Yaw Set Point:	0.048	X_WP:	0.100	Y_WP:	0.000	Y_WP:	0.500	X:	0.134	Y:	-0.006	Z:	0.624	yaw:	-2.738	yaw rate:	-54.513	Roll:	1.393	Pitch:	0.094	Yaw:	-15.998	Thrust:	53.124
Time:	4.939	Roll Set Point:	-0.168	Pitch Set Point:	0.010	Yaw Set Point:	0.045	X_WP:	0.100	Y_WP:	0.000	Y_WP:	0.500	X:	0.134	Y:	-0.006	Z:	0.623	yaw:	-2.566	yaw rate:	17.250	Roll:	1.143	Pitch:	-0.159	Yaw:	0.675	Thrust:	60.789
Time:	4.951	Roll Set Point:	-0.169	Pitch Set Point:	0.011	Yaw Set Point:	0.038	X_WP:	0.100	Y_WP:	0.000	Y_WP:	0.500	X:	0.134	Y:	-0.006	Z:	0.621	yaw:	-2.166	yaw rate:	1.210	Roll:	1.764	Pitch:	-0.451	Yaw:	6.183	Thrust:	58.932
Time:	4.966	Roll Set Point:	-0.169	Pitch Set Point:	0.011	Yaw Set Point:	0.043	X_WP:	0.100	Y_WP:	0.000	Y_WP:	0.500	X:	0.134	Y:	-0.006	Z:	0.621	yaw:	-2.444	yaw rate:	-27.885	Roll:	1.219	Pitch:	0.012	Yaw:	-7.262	Thrust:	64.654
Time:	4.981	Roll Set Point:	-0.169	Pitch Set Point:	0.011	Yaw Set Point:	0.043	X_WP:	0.100	Y_WP:	0.000	Y_WP:	0.500	X:	0.135	Y:	-0.006	Z:	0.620	yaw:	-2.484	yaw rate:	-3.981	Roll:	1.351	Pitch:	-0.078	Yaw:	-3.173	Thrust:	68.366
Time:	4.993	Roll Set Point:	-0.169	Pitch Set Point:	0.012	Yaw Set Point:	0.037	X_WP:	0.100	Y_WP:	0.000	Y_WP:	0.500	X:	0.135	Y:	-0.006	Z:	0.620	yaw:	-2.097	yaw rate:	38.728	Roll:	1.076	Pitch:	-0.655	Yaw:	6.611	Thrust:	45.527
Time:	5.008	Roll Set Point:	-0.170	Pitch Set Point:	0.012	Yaw Set Point:	0.042	X_WP:	0.100	Y_WP:	0.000	Y_WP:	0.500	X:	0.135	Y:	-0.007	Z:	0.619	yaw:	-2.429	yaw rate:	-33.234	Roll:	1.546	Pitch:	0.215	Yaw:	-8.422	Thrust:	67.545
Time:	5.019	Roll Set Point:	-0.171	Pitch Set Point:	0.012	Yaw Set Point:	0.044	X_WP:	0.100	Y_WP:	0.000	Y_WP:	0.500	X:	0.135	Y:	-0.007	Z:	0.618	yaw:	-2.494	yaw rate:	-14.260	Roll:	1.913	Pitch:	-0.101	Yaw:	-4.247	Thrust:	50.041
Time:	5.031	Roll Set Point:	-0.172	Pitch Set Point:	0.012	Yaw Set Point:	0.037	X_WP:	0.100	Y_WP:	0.000	Y_WP:	0.500	X:	0.136	Y:	-0.007	Z:	0.618	yaw:	-2.128	yaw rate:	36.564	Roll:	1.695	Pitch:	-0.378	Yaw:	5.692	Thrust:	51.331
Time:	5.042	Roll Set Point:	-0.172	Pitch Set Point:	0.012	Yaw Set Point:	0.033	X_WP:	0.100	Y_WP:	0.000	Y_WP:	0.500	X:	0.136	Y:	-0.007	Z:	0.618	yaw:	-1.914	yaw rate:	21.440	Roll:	1.458	Pitch:	-0.310	Yaw:	3.092	Thrust:	43.537
Time:	5.053	Roll Set Point:	-0.173	Pitch Set Point:	0.012	Yaw Set Point:	0.036	X_WP:	0.100	Y_WP:	0.000	Y_WP:	0.500	X:	0.136	Y:	-0.007	Z:	0.618	yaw:	-2.039	yaw rate:	-12.472	Roll:	1.856	Pitch:	-0.062	Yaw:	-5.113	Thrust:	48.867
Time:	5.070	Roll Set Point:	-0.173	Pitch Set Point:	0.012	Yaw Set Point:	0.030	X_WP:	0.100	Y_WP:	0.000	Y_WP:	0.500	X:	0.137	Y:	-0.007	Z:	0.617	yaw:	-1.694	yaw rate:	34.433	Roll:	1.504	Pitch:	-0.212	Yaw:	3.946	Thrust:	68.521
Time:	5.082	Roll Set Point:	-0.174	Pitch Set Point:	0.012	Yaw Set Point:	0.035	X_WP:	0.100	Y_WP:	0.000	Y_WP:	0.500	X:	0.137	Y:	-0.007	Z:	0.617	yaw:	-1.995	yaw rate:	-21.857	Roll:	1.742	Pitch:	0.304	Yaw:	-8.607	Thrust:	54.202
Time:	5.096	Roll Set Point:	-0.175	Pitch Set Point:	0.013	Yaw Set Point:	0.035	X_WP:	0.100	Y_WP:	0.000	Y_WP:	0.500	X:	0.137	Y:	-0.007	Z:	0.617	yaw:	-2.004	yaw rate:	-0.913	Roll:	1.794	Pitch:	-0.475	Yaw:	-2.245	Thrust:	51.750
Time:	5.107	Roll Set Point:	-0.176	Pitch Set Point:	0.013	Yaw Set Point:	0.037	X_WP:	0.100	Y_WP:	0.000	Y_WP:	0.500	X:	0.138	Y:	-0.007	Z:	0.617	yaw:	-2.109	yaw rate:	-10.492	Roll:	1.896	Pitch:	0.127	Yaw:	-4.523	Thrust:	49.315
Time:	5.119	Roll Set Point:	-0.177	Pitch Set Point:	0.012	Yaw Set Point:	0.035	X_WP:	0.100	Y_WP:	0.000	Y_WP:	0.500	X:	0.138	Y:	-0.007	Z:	0.617	yaw:	-1.990	yaw rate:	11.908	Roll:	1.683	Pitch:	0.080	Yaw:	0.590	Thrust:	47.079
Time:	5.137	Roll Set Point:	-0.177	Pitch Set Point:	0.012	Yaw Set Point:	0.041	X_WP:	0.100	Y_WP:	0.000	Y_WP:	0.500	X:	0.139	Y:	-0.007	Z:	0.617	yaw:	-2.376	yaw rate:	-38.616	Roll:	1.836	Pitch:	0.216	Yaw:	-8.005	Thrust:	75.136
Time:	5.148	Roll Set Point:	-0.178	Pitch Set Point:	0.012	Yaw Set Point:	0.037	X_WP:	0.100	Y_WP:	0.000	Y_WP:	0.500	X:	0.139	Y:	-0.007	Z:	0.616	yaw:	-2.095	yaw rate:	-34.034	Roll:	1.846	Pitch:	-0.144	Yaw:	3.850	Thrust:	51.409
Time:	5.160	Roll Set Point:	-0.179	Pitch Set Point:	0.012	Yaw Set Point:	0.036	X_WP:	0.100	Y_WP:	0.000	Y_WP:	0.500	X:	0.140	Y:	-0.007	Z:	0.615	yaw:	-2.077	yaw rate:	1.827	Roll:	2.149	Pitch:	-0.007	Yaw:	-1.855	Thrust:	45.916
Time:	5.172	Roll Set Point:	-0.181	Pitch Set Point:	0.012	Yaw Set Point:	0.037	X_WP:	0.100	Y_WP:	0.000	Y_WP:	0.500	X:	0.140	Y:	-0.007	Z:	0.614	yaw:	-2.138	yaw rate:	-6.109	Roll:	2.048	Pitch:	0.169	Yaw:	-3.499	Thrust:	57.254
Time:	5.184	Roll Set Point:	-0.181	Pitch Set Point:	0.012	Yaw Set Point:	0.038	X_WP:	0.100	Y_WP:	0.000	Y_WP:	0.500	X:	0.140	Y:	-0.007	Z:	0.613	yaw:	-2.180	yaw rate:	-4.183	Roll:	1.714	Pitch:	0.032	Yaw:	-3.373	Thrust:	51.470
Time:	5.196	Roll Set Point:	-0.182	Pitch Set Point:	0.012	Yaw Set Point:	0.031	X_WP:	0.100	Y_WP:	0.000	Y_WP:	0.500	X:	0.141	Y:	-0.007	Z:	0.612	yaw:	-1.748	yaw rate:	43.194	Roll:	1.852	Pitch:	-0.251	Yaw:	7.595	Thrust:	50.242
Time:	5.207	Roll Set Point:	-0.183	Pitch Set Point:	0.012	Yaw Set Point:	0.040	X_WP:	0.100	Y_WP:	0.000	Y_WP:	0.500	X:	0.141	Y:	-0.007	Z:	0.611	yaw:	-2.300	yaw rate:	-55.192	Roll:	2.082	Pitch:	0.172	Yaw:	-15.682	Thrust:	47.182
Time:	5.219	Roll Set Point:	-0.184	Pitch Set Point:	0.012	Yaw Set Point:	0.028	X_WP:	0.100	Y_WP:	0.000	Y_WP:	0.500	X:	0.142	Y:	-0.007	Z:	0.610	yaw:	-1.622	yaw rate:	67.819	Roll:	1.906	Pitch:	-0.269	Yaw:	13.730	Thrust:	48.066
Time:	5.233	Roll Set Point:	-0.184	Pitch Set Point:	0.012	Yaw Set Point:	0.033	X_WP:	0.100	Y_WP:	0.000	Y_WP:	0.500	X:	0.142	Y:	-0.007	Z:	0.609	yaw:	-1.896	yaw rate:	-27.414	Roll:	1.565	Pitch:	-0.013	Yaw:	-7.036	Thrust:	58.117
Time:	5.247	Roll Set Point:	-0.185	Pitch Set Point:	0.012	Yaw Set Point:	0.038	X_WP:	0.100	Y_WP:	0.000	Y_WP:	0.500	X:	0.143	Y:	-0.007	Z:	0.606	yaw:	-2.166	yaw rate:	-45.078	Roll:	2.260	Pitch:	0.346	Yaw:	-7.145	Thrust:	70.394
Time:	5.258	Roll Set Point:	-0.186	Pitch Set Point:	0.011	Yaw Set Point:	0.033	X_WP:	0.100	Y_WP:	0.000	Y_WP:	0.500	X:	0.143	Y:	-0.006	Z:	0.605	yaw:	-1.907	yaw rate:	25.889	Roll:	1.832	Pitch:	0.331	Yaw:	3.993	Thrust:	49.510
Time:	5.271	Roll Set Point:	-0.187	Pitch Set Point:	0.012	Yaw Set Point:	0.032	X_WP:	0.100	Y_WP:	0.000	Y_WP:	0.500	X:	0.143	Y:	-0.007	Z:	0.603	yaw:	-1.837	yaw rate:	7.021	Roll:	1.880	Pitch:	-0.460	Yaw:	-0.483	Thrust:	54.693
Time:	5.283	Roll Set Point:	-0.187	Pitch Set Point:	0.011	Yaw Set Point:	0.038	X_WP:	0.100	Y_WP:	0.000	Y_WP:	0.500	X:	0.143	Y:	-0.006	Z:	0.601	yaw:	-2.167	yaw rate:	-33.015	Roll:	1.736	Pitch:	0.632	Yaw:	-9.316	Thrust:	58.645
Time:	5.295	Roll Set Point:	-0.189	Pitch Set Point:	0.011	Yaw Set Point:	0.041	X_WP:	0.100	Y_WP:	0.000	Y_WP:	0.500	X:	0.144	Y:	-0.006	Z:	0.597	yaw:	-2.342	yaw rate:	-17.507	Roll:	2.556	Pitch:	0.469	Yaw:	-6.502	Thrust:	63.053
Time:	5.307	Roll Set Point:	-0.190	Pitch Set Point:	0.011	Yaw Set Point:	0.036	X_WP:	0.100	Y_WP:	0.000	Y_WP:	0.500	X:	0.145	Y:	-0.006	Z:	0.594	yaw:	-2.058	yaw rate:	28.431	Roll:	2.455	Pitch:	-0.134	Yaw:	3.855	Thrust:	55.785
Time:	5.319	Roll Set Point:	-0.190	Pitch Set Point:	0.010	Yaw Set Point:	0.042	X_WP:	0.100	Y_WP:	0.000	Y_WP:	0.500	X:	0.145	Y:	-0.006	Z:	0.592	yaw:	-2.389	yaw rate:	-33.136	Roll:	1.388	Pitch:	0.431	Yaw:	-10.328	Thrust:	54.431
Time:	5.340	Roll Set Point:	-0.191	Pitch Set Point:	0.011	Yaw Set Point:	0.027	X_WP:	0.100	Y_WP:	0.000	Y_WP:	0.500	X:	0.145	Y:	-0.006	Z:	0.590	yaw:	-1.555	yaw rate:	83.356	Roll:	1.981	Pitch:	-0.475	Yaw:	9.348	Thrust:	85.901
Time:	5.353	Roll Set Point:	-0.192	Pitch Set Point:	0.010	Yaw Set Point:	0.044	X_WP:	0.100	Y_WP:	0.000	Y_WP:	0.500	X:	0.146	Y:	-0.006	Z:	0.585	yaw:	-2.508	yaw rate:	-3.191	Roll:	2.225	Pitch:	1.016	Yaw:	-22.838	Thrust:	70.449
Time:	5.371	Roll Set Point:	-0.193	Pitch Set Point:	0.009	Yaw Set Point:	0.051	X_WP:	0.100	Y_WP:	0.000	Y_WP:	0.500	X:	0.146	Y:	-0.006	Z:	0.582	yaw:	-2.925	yaw rate:	-41.715	Roll:	2.049	Pitch:	0.491	Yaw:	-9.442	Thrust:	77.238
Time:	5.384	Roll Set Point:	-0.194	Pitch Set Point:	0.010	Yaw Set Point:	0.033	X_WP:	0.100	Y_WP:	0.000	Y_WP:	0.500	X:	0.147	Y:	-0.006	Z:	0.577	yaw:	-1.882	yaw rate:	13.273	Roll:	1.953	Pitch:	-0.699	Yaw:	17.422	Thrust:	72.790
Time:	5.404	Roll Set Point:	-0.195	Pitch Set Point:	0.009	Yaw Set Point:	0.043	X_WP:	0.100	Y_WP:	0.000	Y_WP:	0.500	X:	0.148	Y:	-0.005	Z:	0.572	yaw:	-2.459	yaw rate:	-57.651	Roll:	2.782	Pitch:	0.889	Yaw:	-11.216	Thrust:	80.240
Time:	5.418	Roll Set Point:	-0.197	Pitch Set Point:	0.008	Yaw Set Point:	0.039	X_WP:	0.100	Y_WP:	0.000	Y_WP:	0.500	X:	0.148	Y:	-0.005	Z:	0.567	yaw:	-2.259	yaw rate:	13.293	Roll:	2.284	Pitch:	0.220	Yaw:	0.772	Thrust:	85.963
Time:	5.439	Roll Set Point:	-0.197	Pitch Set Point:	0.008	Yaw Set Point:	0.045	X_WP:	0.100	Y_WP:	0.000	Y_WP:	0.500	X:	0.148	Y:	-0.005	Z:	0.564	yaw:	-2.558	yaw rate:	-29.945	Roll:	1.758	Pitch:	0.329	Yaw:	-6.610	Thrust:	83.055
Time:	5.452	Roll Set Point:	-0.198	Pitch Set Point:	0.008	Yaw Set Point:	0.038	X_WP:	0.100	Y_WP:	0.000	Y_WP:	0.500	X:	0.149	Y:	-0.005	Z:	0.560	yaw:	-2.182	yaw rate:	22.610	Roll:	2.075	Pitch:	-0.015	Yaw:	5.038	Thrust:	72.845
Time:	5.471	Roll Set Point:	-0.199	Pitch Set Point:	0.007	Yaw Set Point:	0.046	X_WP:	0.100	Y_WP:	0.000	Y_WP:	0.500	X:	0.149	Y:	-0.005	Z:	0.558	yaw:	-2.636	yaw rate:	-45.420	Roll:	2.116	Pitch:	0.633	Yaw:	-9.042	Thrust:	80.122
Time:	5.484	Roll Set Point:	-0.200	Pitch Set Point:	0.007	Yaw Set Point:	0.040	X_WP:	0.100	Y_WP:	0.000	Y_WP:	0.500	X:	0.150	Y:	-0.005	Z:	0.555	yaw:	-2.281	yaw rate:	-25.631	Roll:	2.267	Pitch:	0.065	Yaw:	4.705	Thrust:	67.396
Time:	5.505	Roll Set Point:	-0.201	Pitch Set Point:	0.007	Yaw Set Point:	0.027	X_WP:	0.100	Y_WP:	0.000	Y_WP:	0.500	X:	0.150	Y:	-0.004	Z:	0.553	yaw:	-1.564	yaw rate:	71.673	Roll:	2.311	Pitch:	-0.156	Yaw:	8.605	Thrust:	73.811
Time:	5.520	Roll Set Point:	-0.203	Pitch Set Point:	0.006	Yaw Set Point:	0.018	X_WP:	0.100	Y_WP:	0.000	Y_WP:	0.500	X:	0.151	Y:	-0.003	Z:	0.552	yaw:	-1.033	yaw rate:	4.838	Roll:	2.471	Pitch:	0.281	Yaw:	7.129	Thrust:	78.346
Time:	5.540	Roll Set Point:	-0.203	Pitch Set Point:	0.005	Yaw Set Point:	0.012	X_WP:	0.100	Y_WP:	0.000	Y_WP:	0.500	X:	0.151	Y:	-0.003	Z:	0.552	yaw:	-0.676	yaw rate:	35.604	Roll:	1.972	Pitch:	0.217	Yaw:	4.329	Thrust:	85.092
Time:	5.553	Roll Set Point:	-0.205	Pitch Set Point:	0.004	Yaw Set Point:	0.009	X_WP:	0.100	Y_WP:	0.000	Y_WP:	0.500	X:	0.153	Y:	-0.002	Z:	0.553	yaw:	-0.511	yaw rate:	20.058	Roll:	2.759	Pitch:	0.824	Yaw:	3.188	Thrust:	51.992
Time:	5.572	Roll Set Point:	-0.207	Pitch Set Point:	0.002	Yaw Set Point:	0.000	X_WP:	0.100	Y_WP:	0.000	Y_WP:	0.500	X:	0.154	Y:	-0.001	Z:	0.555	yaw:	-0.015	yaw rate:	49.613	Roll:	3.143	Pitch:	1.269	Yaw:	9.727	Thrust:	48.129
Time:	5.587	Roll Set Point:	-0.210	Pitch Set Point:	-0.000	Yaw Set Point:	-0.011	X_WP:	0.100	Y_WP:	0.000	Y_WP:	0.500	X:	0.155	Y:	0.000	Z:	0.557	yaw:	0.655	yaw rate:	71.126	Roll:	3.005	Pitch:	0.788	Yaw:	9.999	Thrust:	77.603
Time:	5.607	Roll Set Point:	-0.211	Pitch Set Point:	-0.002	Yaw Set Point:	-0.011	X_WP:	0.100	Y_WP:	0.000	Y_WP:	0.500	X:	0.156	Y:	0.001	Z:	0.559	yaw:	0.626	yaw rate:	-2.953	Roll:	2.554	Pitch:	0.916	Yaw:	1.185	Thrust:	75.507
