Time:	2.059	Roll Set Point:	-0.027	Pitch Set Point:	0.007	Yaw Set Point:	-0.056	X_WP:	0.000	Y_WP:	0.000	Y_WP:	0.500	X:	0.014	Y:	-0.003	Z:	0.050	yaw:	3.184	yaw rate:	-1.679	Roll:	0.395	Pitch:	-0.119	Yaw:	4.446	Thrust:	24.770
Time:	2.070	Roll Set Point:	-0.028	Pitch Set Point:	0.008	Yaw Set Point:	-0.055	X_WP:	0.000	Y_WP:	0.000	Y_WP:	0.500	X:	0.014	Y:	-0.003	Z:	0.050	yaw:	3.163	yaw rate:	-2.113	Roll:	0.451	Pitch:	-0.172	Yaw:	3.927	Thrust:	25.415
Time:	2.081	Roll Set Point:	-0.027	Pitch Set Point:	0.008	Yaw Set Point:	-0.055	X_WP:	0.000	Y_WP:	0.000	Y_WP:	0.500	X:	0.014	Y:	-0.003	Z:	0.050	yaw:	3.170	yaw rate:	0.698	Roll:	0.372	Pitch:	-0.100	Yaw:	4.616	Thrust:	25.983
Time:	2.092	Roll Set Point:	-0.027	Pitch Set Point:	0.008	Yaw Set Point:	-0.057	X_WP:	0.000	Y_WP:	0.000	Y_WP:	0.500	X:	0.014	Y:	-0.003	Z:	0.050	yaw:	3.257	yaw rate:	8.667	Roll:	0.349	Pitch:	-0.191	Yaw:	6.642	Thrust:	26.883
Time:	2.103	Roll Set Point:	-0.027	Pitch Set Point:	0.008	Yaw Set Point:	-0.056	X_WP:	0.000	Y_WP:	0.000	Y_WP:	0.500	X:	0.014	Y:	-0.003	Z:	0.050	yaw:	3.201	yaw rate:	-5.534	Roll:	0.368	Pitch:	-0.094	Yaw:	3.206	Thrust:	26.726
Time:	2.114	Roll Set Point:	-0.027	Pitch Set Point:	0.008	Yaw Set Point:	-0.055	X_WP:	0.000	Y_WP:	0.000	Y_WP:	0.500	X:	0.014	Y:	-0.003	Z:	0.050	yaw:	3.157	yaw rate:	-4.445	Roll:	0.468	Pitch:	-0.075	Yaw:	3.416	Thrust:	27.957
Time:	2.125	Roll Set Point:	-0.028	Pitch Set Point:	0.007	Yaw Set Point:	-0.056	X_WP:	0.000	Y_WP:	0.000	Y_WP:	0.500	X:	0.014	Y:	-0.003	Z:	0.050	yaw:	3.201	yaw rate:	4.434	Roll:	0.441	Pitch:	-0.102	Yaw:	5.600	Thrust:	28.507
Time:	2.136	Roll Set Point:	-0.027	Pitch Set Point:	0.008	Yaw Set Point:	-0.055	X_WP:	0.000	Y_WP:	0.000	Y_WP:	0.500	X:	0.014	Y:	-0.003	Z:	0.050	yaw:	3.176	yaw rate:	-2.515	Roll:	0.331	Pitch:	-0.133	Yaw:	3.925	Thrust:	28.762
Time:	2.147	Roll Set Point:	-0.027	Pitch Set Point:	0.008	Yaw Set Point:	-0.056	X_WP:	0.000	Y_WP:	0.000	Y_WP:	0.500	X:	0.014	Y:	-0.003	Z:	0.050	yaw:	3.189	yaw rate:	1.260	Roll:	0.378	Pitch:	-0.136	Yaw:	4.849	Thrust:	29.379
Time:	2.158	Roll Set Point:	-0.027	Pitch Set Point:	0.008	Yaw Set Point:	-0.056	X_WP:	0.000	Y_WP:	0.000	Y_WP:	0.500	X:	0.014	Y:	-0.003	Z:	0.050	yaw:	3.189	yaw rate:	0.019	Roll:	0.457	Pitch:	-0.121	Yaw:	4.567	Thrust:	30.238
Time:	2.169	Roll Set Point:	-0.027	Pitch Set Point:	0.007	Yaw Set Point:	-0.055	X_WP:	0.000	Y_WP:	0.000	Y_WP:	0.500	X:	0.014	Y:	-0.003	Z:	0.050	yaw:	3.165	yaw rate:	-2.413	Roll:	0.394	Pitch:	-0.085	Yaw:	3.969	Thrust:	30.836
Time:	2.180	Roll Set Point:	-0.027	Pitch Set Point:	0.007	Yaw Set Point:	-0.055	X_WP:	0.000	Y_WP:	0.000	Y_WP:	0.500	X:	0.014	Y:	-0.003	Z:	0.050	yaw:	3.172	yaw rate:	0.781	Roll:	0.417	Pitch:	-0.127	Yaw:	4.750	Thrust:	31.246
Time:	2.192	Roll Set Point:	-0.027	Pitch Set Point:	0.008	Yaw Set Point:	-0.055	X_WP:	0.000	Y_WP:	0.000	Y_WP:	0.500	X:	0.014	Y:	-0.003	Z:	0.050	yaw:	3.178	yaw rate:	0.549	Roll:	0.402	Pitch:	-0.152	Yaw:	4.716	Thrust:	32.161
Time:	2.204	Roll Set Point:	-0.028	Pitch Set Point:	0.008	Yaw Set Point:	-0.055	X_WP:	0.000	Y_WP:	0.000	Y_WP:	0.500	X:	0.014	Y:	-0.003	Z:	0.050	yaw:	3.147	yaw rate:	-4.530	Roll:	0.453	Pitch:	-0.137	Yaw:	3.895	Thrust:	33.289
Time:	2.215	Roll Set Point:	-0.028	Pitch Set Point:	0.008	Yaw Set Point:	-0.055	X_WP:	0.000	Y_WP:	0.000	Y_WP:	0.500	X:	0.014	Y:	-0.003	Z:	0.050	yaw:	3.147	yaw rate:	-4.530	Roll:	0.407	Pitch:	-0.123	Yaw:	4.566	Thrust:	33.115
Time:	2.226	Roll Set Point:	-0.027	Pitch Set Point:	0.008	Yaw Set Point:	-0.056	X_WP:	0.000	Y_WP:	0.000	Y_WP:	0.500	X:	0.014	Y:	-0.003	Z:	0.050	yaw:	3.186	yaw rate:	0.184	Roll:	0.289	Pitch:	-0.100	Yaw:	5.546	Thrust:	33.601
Time:	2.237	Roll Set Point:	-0.027	Pitch Set Point:	0.008	Yaw Set Point:	-0.056	X_WP:	0.000	Y_WP:	0.000	Y_WP:	0.500	X:	0.014	Y:	-0.003	Z:	0.050	yaw:	3.186	yaw rate:	0.184	Roll:	0.406	Pitch:	-0.124	Yaw:	4.644	Thrust:	34.306
Time:	2.248	Roll Set Point:	-0.027	Pitch Set Point:	0.008	Yaw Set Point:	-0.056	X_WP:	0.000	Y_WP:	0.000	Y_WP:	0.500	X:	0.014	Y:	-0.003	Z:	0.050	yaw:	3.182	yaw rate:	-0.323	Roll:	0.478	Pitch:	-0.125	Yaw:	4.576	Thrust:	35.022
Time:	2.259	Roll Set Point:	-0.028	Pitch Set Point:	0.007	Yaw Set Point:	-0.055	X_WP:	0.000	Y_WP:	0.000	Y_WP:	0.500	X:	0.014	Y:	-0.003	Z:	0.050	yaw:	3.155	yaw rate:	-2.714	Roll:	0.438	Pitch:	-0.107	Yaw:	3.981	Thrust:	35.521
Time:	2.271	Roll Set Point:	-0.027	Pitch Set Point:	0.008	Yaw Set Point:	-0.055	X_WP:	0.000	Y_WP:	0.000	Y_WP:	0.500	X:	0.014	Y:	-0.003	Z:	0.050	yaw:	3.145	yaw rate:	-0.987	Roll:	0.372	Pitch:	-0.134	Yaw:	4.431	Thrust:	37.080
Time:	2.282	Roll Set Point:	-0.027	Pitch Set Point:	0.007	Yaw Set Point:	-0.056	X_WP:	0.000	Y_WP:	0.000	Y_WP:	0.500	X:	0.014	Y:	-0.003	Z:	0.050	yaw:	3.195	yaw rate:	4.978	Roll:	0.414	Pitch:	-0.121	Yaw:	5.888	Thrust:	36.769
Time:	2.293	Roll Set Point:	-0.027	Pitch Set Point:	0.008	Yaw Set Point:	-0.056	X_WP:	0.000	Y_WP:	0.000	Y_WP:	0.500	X:	0.014	Y:	-0.003	Z:	0.050	yaw:	3.185	yaw rate:	-0.988	Roll:	0.363	Pitch:	-0.134	Yaw:	4.470	Thrust:	37.234
Time:	2.305	Roll Set Point:	-0.027	Pitch Set Point:	0.008	Yaw Set Point:	-0.056	X_WP:	0.000	Y_WP:	0.000	Y_WP:	0.500	X:	0.014	Y:	-0.003	Z:	0.050	yaw:	3.184	yaw rate:	-0.156	Roll:	0.467	Pitch:	-0.132	Yaw:	4.704	Thrust:	39.078
Time:	2.316	Roll Set Point:	-0.027	Pitch Set Point:	0.008	Yaw Set Point:	-0.056	X_WP:	0.000	Y_WP:	0.000	Y_WP:	0.500	X:	0.014	Y:	-0.003	Z:	0.050	yaw:	3.199	yaw rate:	1.491	Roll:	0.403	Pitch:	-0.145	Yaw:	5.101	Thrust:	38.465
Time:	2.328	Roll Set Point:	-0.027	Pitch Set Point:	0.007	Yaw Set Point:	-0.055	X_WP:	0.000	Y_WP:	0.000	Y_WP:	0.500	X:	0.014	Y:	-0.003	Z:	0.050	yaw:	3.180	yaw rate:	-1.899	Roll:	0.397	Pitch:	-0.082	Yaw:	4.346	Thrust:	40.368
Time:	2.339	Roll Set Point:	-0.027	Pitch Set Point:	0.008	Yaw Set Point:	-0.056	X_WP:	0.000	Y_WP:	0.000	Y_WP:	0.500	X:	0.014	Y:	-0.003	Z:	0.050	yaw:	3.190	yaw rate:	0.999	Roll:	0.421	Pitch:	-0.152	Yaw:	4.997	Thrust:	39.716
Time:	2.350	Roll Set Point:	-0.027	Pitch Set Point:	0.008	Yaw Set Point:	-0.056	X_WP:	0.000	Y_WP:	0.000	Y_WP:	0.500	X:	0.014	Y:	-0.003	Z:	0.050	yaw:	3.186	yaw rate:	-0.407	Roll:	0.377	Pitch:	-0.126	Yaw:	4.669	Thrust:	40.273
Time:	2.361	Roll Set Point:	-0.027	Pitch Set Point:	0.008	Yaw Set Point:	-0.056	X_WP:	0.000	Y_WP:	0.000	Y_WP:	0.500	X:	0.014	Y:	-0.003	Z:	0.050	yaw:	3.190	yaw rate:	0.451	Roll:	0.455	Pitch:	-0.124	Yaw:	4.891	Thrust:	40.868
Time:	2.372	Roll Set Point:	-0.027	Pitch Set Point:	0.008	Yaw Set Point:	-0.056	X_WP:	0.000	Y_WP:	0.000	Y_WP:	0.500	X:	0.014	Y:	-0.003	Z:	0.050	yaw:	3.184	yaw rate:	-0.567	Roll:	0.405	Pitch:	-0.128	Yaw:	4.658	Thrust:	41.436
Time:	2.383	Roll Set Point:	-0.028	Pitch Set Point:	0.008	Yaw Set Point:	-0.055	X_WP:	0.000	Y_WP:	0.000	Y_WP:	0.500	X:	0.014	Y:	-0.003	Z:	0.050	yaw:	3.165	yaw rate:	-1.954	Roll:	0.482	Pitch:	-0.123	Yaw:	4.310	Thrust:	42.170
Time:	2.394	Roll Set Point:	-0.028	Pitch Set Point:	0.008	Yaw Set Point:	-0.055	X_WP:	0.000	Y_WP:	0.000	Y_WP:	0.500	X:	0.014	Y:	-0.003	Z:	0.050	yaw:	3.123	yaw rate:	-4.176	Roll:	0.454	Pitch:	-0.141	Yaw:	3.740	Thrust:	42.703
Time:	2.406	Roll Set Point:	-0.027	Pitch Set Point:	0.007	Yaw Set Point:	-0.056	X_WP:	0.000	Y_WP:	0.000	Y_WP:	0.500	X:	0.014	Y:	-0.003	Z:	0.050	yaw:	3.186	yaw rate:	2.605	Roll:	0.313	Pitch:	-0.098	Yaw:	6.275	Thrust:	43.879
Time:	2.417	Roll Set Point:	-0.027	Pitch Set Point:	0.007	Yaw Set Point:	-0.056	X_WP:	0.000	Y_WP:	0.000	Y_WP:	0.500	X:	0.014	Y:	-0.003	Z:	0.050	yaw:	3.186	yaw rate:	2.605	Roll:	0.419	Pitch:	-0.127	Yaw:	4.838	Thrust:	43.801
Time:	2.428	Roll Set Point:	-0.027	Pitch Set Point:	0.007	Yaw Set Point:	-0.055	X_WP:	0.000	Y_WP:	0.000	Y_WP:	0.500	X:	0.014	Y:	-0.003	Z:	0.050	yaw:	3.176	yaw rate:	-0.174	Roll:	0.459	Pitch:	-0.131	Yaw:	4.609	Thrust:	44.482
Time:	2.439	Roll Set Point:	-0.027	Pitch Set Point:	0.007	Yaw Set Point:	-0.055	X_WP:	0.000	Y_WP:	0.000	Y_WP:	0.500	X:	0.014	Y:	-0.003	Z:	0.050	yaw:	3.176	yaw rate:	-0.174	Roll:	0.421	Pitch:	-0.127	Yaw:	4.850	Thrust:	45.045
Time:	2.450	Roll Set Point:	-0.027	Pitch Set Point:	0.007	Yaw Set Point:	-0.055	X_WP:	0.000	Y_WP:	0.000	Y_WP:	0.500	X:	0.014	Y:	-0.003	Z:	0.050	yaw:	3.163	yaw rate:	-1.313	Roll:	0.429	Pitch:	-0.120	Yaw:	4.531	Thrust:	45.609
Time:	2.461	Roll Set Point:	-0.027	Pitch Set Point:	0.008	Yaw Set Point:	-0.056	X_WP:	0.000	Y_WP:	0.000	Y_WP:	0.500	X:	0.014	Y:	-0.003	Z:	0.050	yaw:	3.186	yaw rate:	2.379	Roll:	0.405	Pitch:	-0.159	Yaw:	5.454	Thrust:	46.242
Time:	2.472	Roll Set Point:	-0.027	Pitch Set Point:	0.008	Yaw Set Point:	-0.055	X_WP:	0.000	Y_WP:	0.000	Y_WP:	0.500	X:	0.014	Y:	-0.003	Z:	0.050	yaw:	3.179	yaw rate:	-0.748	Roll:	0.410	Pitch:	-0.141	Yaw:	4.714	Thrust:	46.719
Time:	2.483	Roll Set Point:	-0.027	Pitch Set Point:	0.007	Yaw Set Point:	-0.055	X_WP:	0.000	Y_WP:	0.000	Y_WP:	0.500	X:	0.014	Y:	-0.003	Z:	0.050	yaw:	3.168	yaw rate:	-1.079	Roll:	0.456	Pitch:	-0.059	Yaw:	4.631	Thrust:	47.562
Time:	2.495	Roll Set Point:	-0.027	Pitch Set Point:	0.008	Yaw Set Point:	-0.056	X_WP:	0.000	Y_WP:	0.000	Y_WP:	0.500	X:	0.014	Y:	-0.003	Z:	0.050	yaw:	3.186	yaw rate:	1.743	Roll:	0.383	Pitch:	-0.182	Yaw:	5.348	Thrust:	49.961
Time:	2.506	Roll Set Point:	-0.027	Pitch Set Point:	0.008	Yaw Set Point:	-0.056	X_WP:	0.000	Y_WP:	0.000	Y_WP:	0.500	X:	0.014	Y:	-0.003	Z:	0.050	yaw:	3.190	yaw rate:	0.423	Roll:	0.423	Pitch:	-0.143	Yaw:	5.043	Thrust:	48.574
Time:	2.517	Roll Set Point:	-0.028	Pitch Set Point:	0.008	Yaw Set Point:	-0.056	X_WP:	0.000	Y_WP:	0.000	Y_WP:	0.500	X:	0.014	Y:	-0.003	Z:	0.050	yaw:	3.208	yaw rate:	1.838	Roll:	0.485	Pitch:	-0.124	Yaw:	5.418	Thrust:	49.403
Time:	2.529	Roll Set Point:	-0.027	Pitch Set Point:	0.007	Yaw Set Point:	-0.055	X_WP:	0.000	Y_WP:	0.000	Y_WP:	0.500	X:	0.014	Y:	-0.003	Z:	0.050	yaw:	3.175	yaw rate:	-3.329	Roll:	0.412	Pitch:	-0.085	Yaw:	4.269	Thrust:	52.082
Time:	2.540	Roll Set Point:	-0.027	Pitch Set Point:	0.008	Yaw Set Point:	-0.056	X_WP:	0.000	Y_WP:	0.000	Y_WP:	0.500	X:	0.014	Y:	-0.003	Z:	0.050	yaw:	3.202	yaw rate:	2.691	Roll:	0.412	Pitch:	-0.187	Yaw:	5.635	Thrust:	50.454
Time:	2.551	Roll Set Point:	-0.027	Pitch Set Point:	0.008	Yaw Set Point:	-0.056	X_WP:	0.000	Y_WP:	0.000	Y_WP:	0.500	X:	0.014	Y:	-0.003	Z:	0.050	yaw:	3.182	yaw rate:	-1.938	Roll:	0.434	Pitch:	-0.126	Yaw:	4.520	Thrust:	50.807
Time:	2.562	Roll Set Point:	-0.027	Pitch Set Point:	0.007	Yaw Set Point:	-0.056	X_WP:	0.000	Y_WP:	0.000	Y_WP:	0.500	X:	0.014	Y:	-0.003	Z:	0.050	yaw:	3.200	yaw rate:	1.768	Roll:	0.401	Pitch:	-0.104	Yaw:	5.439	Thrust:	51.743
Time:	2.573	Roll Set Point:	-0.027	Pitch Set Point:	0.008	Yaw Set Point:	-0.056	X_WP:	0.000	Y_WP:	0.000	Y_WP:	0.500	X:	0.014	Y:	-0.003	Z:	0.050	yaw:	3.199	yaw rate:	-0.133	Roll:	0.454	Pitch:	-0.139	Yaw:	4.998	Thrust:	52.223
Time:	2.584	Roll Set Point:	-0.027	Pitch Set Point:	0.007	Yaw Set Point:	-0.055	X_WP:	0.000	Y_WP:	0.000	Y_WP:	0.500	X:	0.014	Y:	-0.003	Z:	0.050	yaw:	3.175	yaw rate:	-2.411	Roll:	0.431	Pitch:	-0.117	Yaw:	4.433	Thrust:	52.678
Time:	2.595	Roll Set Point:	-0.027	Pitch Set Point:	0.008	Yaw Set Point:	-0.056	X_WP:	0.000	Y_WP:	0.000	Y_WP:	0.500	X:	0.014	Y:	-0.003	Z:	0.050	yaw:	3.199	yaw rate:	2.432	Roll:	0.407	Pitch:	-0.156	Yaw:	5.632	Thrust:	53.461
Time:	2.606	Roll Set Point:	-0.028	Pitch Set Point:	0.008	Yaw Set Point:	-0.055	X_WP:	0.000	Y_WP:	0.000	Y_WP:	0.500	X:	0.014	Y:	-0.003	Z:	0.050	yaw:	3.160	yaw rate:	-3.949	Roll:	0.497	Pitch:	-0.136	Yaw:	4.071	Thrust:	53.879
Time:	2.617	Roll Set Point:	-0.027	Pitch Set Point:	0.008	Yaw Set Point:	-0.056	X_WP:	0.000	Y_WP:	0.000	Y_WP:	0.500	X:	0.014	Y:	-0.003	Z:	0.050	yaw:	3.196	yaw rate:	3.625	Roll:	0.393	Pitch:	-0.113	Yaw:	5.934	Thrust:	54.731
Time:	2.628	Roll Set Point:	-0.028	Pitch Set Point:	0.008	Yaw Set Point:	-0.055	X_WP:	0.000	Y_WP:	0.000	Y_WP:	0.500	X:	0.014	Y:	-0.003	Z:	0.050	yaw:	3.179	yaw rate:	-1.708	Roll:	0.468	Pitch:	-0.175	Yaw:	4.655	Thrust:	54.903
Time:	2.639	Roll Set Point:	-0.027	Pitch Set Point:	0.008	Yaw Set Point:	-0.056	X_WP:	0.000	Y_WP:	0.000	Y_WP:	0.500	X:	0.014	Y:	-0.003	Z:	0.050	yaw:	3.187	yaw rate:	0.804	Roll:	0.391	Pitch:	-0.093	Yaw:	5.277	Thrust:	55.858
Time:	2.650	Roll Set Point:	-0.028	Pitch Set Point:	0.008	Yaw Set Point:	-0.055	X_WP:	0.000	Y_WP:	0.000	Y_WP:	0.500	X:	0.014	Y:	-0.003	Z:	0.050	yaw:	3.176	yaw rate:	-1.122	Roll:	0.469	Pitch:	-0.136	Yaw:	4.818	Thrust:	56.592
Time:	2.661	Roll Set Point:	-0.027	Pitch Set Point:	0.008	Yaw Set Point:	-0.056	X_WP:	0.000	Y_WP:	0.000	Y_WP:	0.500	X:	0.014	Y:	-0.003	Z:	0.050	yaw:	3.201	yaw rate:	2.542	Roll:	0.400	Pitch:	-0.123	Yaw:	5.734	Thrust:	56.867
Time:	2.672	Roll Set Point:	-0.027	Pitch Set Point:	0.008	Yaw Set Point:	-0.056	X_WP:	0.000	Y_WP:	0.000	Y_WP:	0.500	X:	0.014	Y:	-0.003	Z:	0.050	yaw:	3.188	yaw rate:	-1.270	Roll:	0.432	Pitch:	-0.147	Yaw:	4.824	Thrust:	57.533
Time:	2.683	Roll Set Point:	-0.027	Pitch Set Point:	0.007	Yaw Set Point:	-0.056	X_WP:	0.000	Y_WP:	0.000	Y_WP:	0.500	X:	0.014	Y:	-0.003	Z:	0.050	yaw:	3.181	yaw rate:	-0.699	Roll:	0.451	Pitch:	-0.098	Yaw:	4.959	Thrust:	58.057
Time:	2.694	Roll Set Point:	-0.027	Pitch Set Point:	0.007	Yaw Set Point:	-0.056	X_WP:	0.000	Y_WP:	0.000	Y_WP:	0.500	X:	0.014	Y:	-0.003	Z:	0.050	yaw:	3.186	yaw rate:	0.509	Roll:	0.427	Pitch:	-0.141	Yaw:	5.269	Thrust:	58.733
Time:	2.705	Roll Set Point:	-0.027	Pitch Set Point:	0.008	Yaw Set Point:	-0.056	X_WP:	0.000	Y_WP:	0.000	Y_WP:	0.500	X:	0.014	Y:	-0.003	Z:	0.050	yaw:	3.188	yaw rate:	0.144	Roll:	0.439	Pitch:	-0.165	Yaw:	5.197	Thrust:	59.474
Time:	2.717	Roll Set Point:	-0.027	Pitch Set Point:	0.008	Yaw Set Point:	-0.056	X_WP:	0.000	Y_WP:	0.000	Y_WP:	0.500	X:	0.014	Y:	-0.003	Z:	0.050	yaw:	3.197	yaw rate:	2.034	Roll:	0.437	Pitch:	-0.137	Yaw:	5.460	Thrust:	63.196
Time:	2.728	Roll Set Point:	-0.027	Pitch Set Point:	0.008	Yaw Set Point:	-0.056	X_WP:	0.000	Y_WP:	0.000	Y_WP:	0.500	X:	0.014	Y:	-0.003	Z:	0.050	yaw:	3.197	yaw rate:	2.034	Roll:	0.440	Pitch:	-0.134	Yaw:	5.198	Thrust:	60.488
Time:	2.739	Roll Set Point:	-0.027	Pitch Set Point:	0.008	Yaw Set Point:	-0.055	X_WP:	0.000	Y_WP:	0.000	Y_WP:	0.500	X:	0.014	Y:	-0.003	Z:	0.050	yaw:	3.169	yaw rate:	-2.876	Roll:	0.471	Pitch:	-0.112	Yaw:	4.489	Thrust:	61.218
Time:	2.751	Roll Set Point:	-0.027	Pitch Set Point:	0.008	Yaw Set Point:	-0.056	X_WP:	0.000	Y_WP:	0.000	Y_WP:	0.500	X:	0.014	Y:	-0.003	Z:	0.050	yaw:	3.183	yaw rate:	1.421	Roll:	0.437	Pitch:	-0.132	Yaw:	5.541	Thrust:	61.725
Time:	2.762	Roll Set Point:	-0.027	Pitch Set Point:	0.008	Yaw Set Point:	-0.056	X_WP:	0.000	Y_WP:	0.000	Y_WP:	0.500	X:	0.014	Y:	-0.003	Z:	0.050	yaw:	3.224	yaw rate:	4.175	Roll:	0.376	Pitch:	-0.162	Yaw:	6.265	Thrust:	62.267
Time:	2.773	Roll Set Point:	-0.027	Pitch Set Point:	0.007	Yaw Set Point:	-0.056	X_WP:	0.000	Y_WP:	0.000	Y_WP:	0.500	X:	0.014	Y:	-0.003	Z:	0.050	yaw:	3.186	yaw rate:	-3.841	Roll:	0.505	Pitch:	-0.103	Yaw:	4.321	Thrust:	62.985
Time:	2.784	Roll Set Point:	-0.027	Pitch Set Point:	0.008	Yaw Set Point:	-0.055	X_WP:	0.000	Y_WP:	0.000	Y_WP:	0.500	X:	0.014	Y:	-0.003	Z:	0.050	yaw:	3.176	yaw rate:	-0.970	Roll:	0.426	Pitch:	-0.154	Yaw:	5.001	Thrust:	63.510
Time:	2.795	Roll Set Point:	-0.028	Pitch Set Point:	0.007	Yaw Set Point:	-0.056	X_WP:	0.000	Y_WP:	0.000	Y_WP:	0.500	X:	0.014	Y:	-0.003	Z:	0.050	yaw:	3.184	yaw rate:	0.774	Roll:	0.487	Pitch:	-0.115	Yaw:	5.438	Thrust:	64.160
Time:	2.806	Roll Set Point:	-0.027	Pitch Set Point:	0.007	Yaw Set Point:	-0.056	X_WP:	0.000	Y_WP:	0.000	Y_WP:	0.500	X:	0.014	Y:	-0.003	Z:	0.050	yaw:	3.200	yaw rate:	1.632	Roll:	0.433	Pitch:	-0.137	Yaw:	5.677	Thrust:	64.725
Time:	2.817	Roll Set Point:	-0.027	Pitch Set Point:	0.007	Yaw Set Point:	-0.055	X_WP:	0.000	Y_WP:	0.000	Y_WP:	0.500	X:	0.014	Y:	-0.003	Z:	0.050	yaw:	3.172	yaw rate:	-2.799	Roll:	0.410	Pitch:	-0.125	Yaw:	4.599	Thrust:	65.264
Time:	2.829	Roll Set Point:	-0.028	Pitch Set Point:	0.008	Yaw Set Point:	-0.055	X_WP:	0.000	Y_WP:	0.000	Y_WP:	0.500	X:	0.014	Y:	-0.003	Z:	0.050	yaw:	3.171	yaw rate:	-0.147	Roll:	0.502	Pitch:	-0.161	Yaw:	5.316	Thrust:	65.726
Time:	2.840	Roll Set Point:	-0.027	Pitch Set Point:	0.007	Yaw Set Point:	-0.055	X_WP:	0.000	Y_WP:	0.000	Y_WP:	0.500	X:	0.014	Y:	-0.003	Z:	0.050	yaw:	3.160	yaw rate:	-1.080	Roll:	0.430	Pitch:	-0.100	Yaw:	5.017	Thrust:	70.435
Time:	2.851	Roll Set Point:	-0.027	Pitch Set Point:	0.008	Yaw Set Point:	-0.056	X_WP:	0.000	Y_WP:	0.000	Y_WP:	0.500	X:	0.014	Y:	-0.003	Z:	0.050	yaw:	3.187	yaw rate:	2.730	Roll:	0.433	Pitch:	-0.169	Yaw:	5.968	Thrust:	67.134
Time:	2.862	Roll Set Point:	-0.028	Pitch Set Point:	0.008	Yaw Set Point:	-0.055	X_WP:	0.000	Y_WP:	0.000	Y_WP:	0.500	X:	0.014	Y:	-0.003	Z:	0.050	yaw:	3.177	yaw rate:	-1.016	Roll:	0.495	Pitch:	-0.130	Yaw:	5.077	Thrust:	67.662
Time:	2.873	Roll Set Point:	-0.027	Pitch Set Point:	0.007	Yaw Set Point:	-0.055	X_WP:	0.000	Y_WP:	0.000	Y_WP:	0.500	X:	0.014	Y:	-0.003	Z:	0.050	yaw:	3.163	yaw rate:	-1.400	Roll:	0.422	Pitch:	-0.120	Yaw:	4.979	Thrust:	68.294
Time:	2.885	Roll Set Point:	-0.027	Pitch Set Point:	0.007	Yaw Set Point:	-0.056	X_WP:	0.000	Y_WP:	0.000	Y_WP:	0.500	X:	0.014	Y:	-0.003	Z:	0.050	yaw:	3.192	yaw rate:	2.903	Roll:	0.417	Pitch:	-0.151	Yaw:	6.078	Thrust:	72.986
Time:	2.896	Roll Set Point:	-0.027	Pitch Set Point:	0.007	Yaw Set Point:	-0.055	X_WP:	0.000	Y_WP:	0.000	Y_WP:	0.500	X:	0.014	Y:	-0.003	Z:	0.050	yaw:	3.170	yaw rate:	-2.267	Roll:	0.493	Pitch:	-0.136	Yaw:	4.806	Thrust:	69.363
Time:	2.907	Roll Set Point:	-0.027	Pitch Set Point:	0.008	Yaw Set Point:	-0.056	X_WP:	0.000	Y_WP:	0.000	Y_WP:	0.500	X:	0.014	Y:	-0.003	Z:	0.050	yaw:	3.185	yaw rate:	1.542	Roll:	0.423	Pitch:	-0.144	Yaw:	5.745	Thrust:	70.111
Time:	2.918	Roll Set Point:	-0.028	Pitch Set Point:	0.007	Yaw Set Point:	-0.055	X_WP:	0.000	Y_WP:	0.000	Y_WP:	0.500	X:	0.014	Y:	-0.003	Z:	0.050	yaw:	3.179	yaw rate:	-0.589	Roll:	0.502	Pitch:	-0.125	Yaw:	5.242	Thrust:	70.731
Time:	2.929	Roll Set Point:	-0.027	Pitch Set Point:	0.008	Yaw Set Point:	-0.055	X_WP:	0.000	Y_WP:	0.000	Y_WP:	0.500	X:	0.014	Y:	-0.003	Z:	0.050	yaw:	3.176	yaw rate:	-0.345	Roll:	0.451	Pitch:	-0.153	Yaw:	5.308	Thrust:	71.229
Time:	2.940	Roll Set Point:	-0.027	Pitch Set Point:	0.008	Yaw Set Point:	-0.056	X_WP:	0.000	Y_WP:	0.000	Y_WP:	0.500	X:	0.014	Y:	-0.003	Z:	0.050	yaw:	3.184	yaw rate:	0.835	Roll:	0.416	Pitch:	-0.151	Yaw:	5.612	Thrust:	71.742
Time:	2.951	Roll Set Point:	-0.027	Pitch Set Point:	0.007	Yaw Set Point:	-0.056	X_WP:	0.000	Y_WP:	0.000	Y_WP:	0.500	X:	0.014	Y:	-0.003	Z:	0.050	yaw:	3.185	yaw rate:	0.067	Roll:	0.460	Pitch:	-0.114	Yaw:	5.443	Thrust:	72.551
Time:	2.962	Roll Set Point:	-0.028	Pitch Set Point:	0.007	Yaw Set Point:	-0.056	X_WP:	0.000	Y_WP:	0.000	Y_WP:	0.500	X:	0.014	Y:	-0.003	Z:	0.050	yaw:	3.188	yaw rate:	0.353	Roll:	0.491	Pitch:	-0.143	Yaw:	5.529	Thrust:	73.136
Time:	2.973	Roll Set Point:	-0.027	Pitch Set Point:	0.008	Yaw Set Point:	-0.056	X_WP:	0.000	Y_WP:	0.000	Y_WP:	0.500	X:	0.014	Y:	-0.003	Z:	0.050	yaw:	3.181	yaw rate:	-0.734	Roll:	0.435	Pitch:	-0.149	Yaw:	5.269	Thrust:	73.496
Time:	2.984	Roll Set Point:	-0.027	Pitch Set Point:	0.008	Yaw Set Point:	-0.056	X_WP:	0.000	Y_WP:	0.000	Y_WP:	0.500	X:	0.014	Y:	-0.003	Z:	0.050	yaw:	3.205	yaw rate:	2.415	Roll:	0.440	Pitch:	-0.148	Yaw:	6.065	Thrust:	74.326
Time:	2.995	Roll Set Point:	-0.027	Pitch Set Point:	0.008	Yaw Set Point:	-0.055	X_WP:	0.000	Y_WP:	0.000	Y_WP:	0.500	X:	0.014	Y:	-0.003	Z:	0.050	yaw:	3.171	yaw rate:	-3.387	Roll:	0.460	Pitch:	-0.124	Yaw:	4.653	Thrust:	74.789
Time:	3.006	Roll Set Point:	-0.027	Pitch Set Point:	0.008	Yaw Set Point:	-0.056	X_WP:	0.000	Y_WP:	0.000	Y_WP:	0.500	X:	0.014	Y:	-0.003	Z:	0.050	yaw:	3.182	yaw rate:	1.061	Roll:	0.473	Pitch:	-0.144	Yaw:	5.736	Thrust:	75.462
Time:	3.017	Roll Set Point:	-0.027	Pitch Set Point:	0.008	Yaw Set Point:	-0.056	X_WP:	0.000	Y_WP:	0.000	Y_WP:	0.500	X:	0.014	Y:	-0.003	Z:	0.050	yaw:	3.195	yaw rate:	1.301	Roll:	0.448	Pitch:	-0.141	Yaw:	5.823	Thrust:	76.049
Time:	3.028	Roll Set Point:	-0.027	Pitch Set Point:	0.008	Yaw Set Point:	-0.055	X_WP:	0.000	Y_WP:	0.000	Y_WP:	0.500	X:	0.014	Y:	-0.003	Z:	0.050	yaw:	3.148	yaw rate:	-4.729	Roll:	0.462	Pitch:	-0.135	Yaw:	4.333	Thrust:	76.419
Time:	3.039	Roll Set Point:	-0.027	Pitch Set Point:	0.008	Yaw Set Point:	-0.055	X_WP:	0.000	Y_WP:	0.000	Y_WP:	0.500	X:	0.014	Y:	-0.003	Z:	0.050	yaw:	3.177	yaw rate:	2.909	Roll:	0.478	Pitch:	-0.146	Yaw:	6.204	Thrust:	77.152
Time:	3.050	Roll Set Point:	-0.027	Pitch Set Point:	0.007	Yaw Set Point:	-0.056	X_WP:	0.000	Y_WP:	0.000	Y_WP:	0.500	X:	0.014	Y:	-0.003	Z:	0.050	yaw:	3.184	yaw rate:	0.738	Roll:	0.448	Pitch:	-0.124	Yaw:	5.726	Thrust:	78.845
Time:	3.061	Roll Set Point:	-0.027	Pitch Set Point:	0.008	Yaw Set Point:	-0.056	X_WP:	0.000	Y_WP:	0.000	Y_WP:	0.500	X:	0.014	Y:	-0.003	Z:	0.050	yaw:	3.187	yaw rate:	0.262	Roll:	0.441	Pitch:	-0.154	Yaw:	5.614	Thrust:	78.403
Time:	3.073	Roll Set Point:	-0.028	Pitch Set Point:	0.008	Yaw Set Point:	-0.055	X_WP:	0.000	Y_WP:	0.000	Y_WP:	0.500	X:	0.014	Y:	-0.003	Z:	0.050	yaw:	3.175	yaw rate:	-1.163	Roll:	0.555	Pitch:	-0.165	Yaw:	5.260	Thrust:	78.932
Time:	3.085	Roll Set Point:	-0.027	Pitch Set Point:	0.008	Yaw Set Point:	-0.056	X_WP:	0.000	Y_WP:	0.000	Y_WP:	0.500	X:	0.014	Y:	-0.003	Z:	0.050	yaw:	3.181	yaw rate:	0.577	Roll:	0.376	Pitch:	-0.119	Yaw:	5.767	Thrust:	84.508
Time:	3.096	Roll Set Point:	-0.027	Pitch Set Point:	0.008	Yaw Set Point:	-0.056	X_WP:	0.000	Y_WP:	0.000	Y_WP:	0.500	X:	0.014	Y:	-0.003	Z:	0.050	yaw:	3.196	yaw rate:	1.540	Roll:	0.483	Pitch:	-0.161	Yaw:	5.931	Thrust:	80.186
Time:	3.107	Roll Set Point:	-0.027	Pitch Set Point:	0.008	Yaw Set Point:	-0.055	X_WP:	0.000	Y_WP:	0.000	Y_WP:	0.500	X:	0.014	Y:	-0.003	Z:	0.050	yaw:	3.179	yaw rate:	-1.692	Roll:	0.488	Pitch:	-0.126	Yaw:	5.144	Thrust:	80.904
Time:	3.118	Roll Set Point:	-0.027	Pitch Set Point:	0.007	Yaw Set Point:	-0.056	X_WP:	0.000	Y_WP:	0.000	Y_WP:	0.500	X:	0.014	Y:	-0.003	Z:	0.050	yaw:	3.187	yaw rate:	0.754	Roll:	0.453	Pitch:	-0.131	Yaw:	5.732	Thrust:	81.476
Time:	3.129	Roll Set Point:	-0.027	Pitch Set Point:	0.008	Yaw Set Point:	-0.056	X_WP:	0.000	Y_WP:	0.000	Y_WP:	0.500	X:	0.014	Y:	-0.003	Z:	0.050	yaw:	3.186	yaw rate:	-0.101	Roll:	0.477	Pitch:	-0.162	Yaw:	5.528	Thrust:	81.980
Time:	3.140	Roll Set Point:	-0.027	Pitch Set Point:	0.008	Yaw Set Point:	-0.056	X_WP:	0.000	Y_WP:	0.000	Y_WP:	0.500	X:	0.014	Y:	-0.003	Z:	0.050	yaw:	3.187	yaw rate:	0.125	Roll:	0.449	Pitch:	-0.146	Yaw:	5.582	Thrust:	82.509
Time:	3.151	Roll Set Point:	-0.027	Pitch Set Point:	0.008	Yaw Set Point:	-0.055	X_WP:	0.000	Y_WP:	0.000	Y_WP:	0.500	X:	0.014	Y:	-0.003	Z:	0.050	yaw:	3.175	yaw rate:	-1.216	Roll:	0.492	Pitch:	-0.130	Yaw:	5.248	Thrust:	83.346
Time:	3.162	Roll Set Point:	-0.027	Pitch Set Point:	0.007	Yaw Set Point:	-0.056	X_WP:	0.000	Y_WP:	0.000	Y_WP:	0.500	X:	0.014	Y:	-0.003	Z:	0.050	yaw:	3.196	yaw rate:	2.131	Roll:	0.438	Pitch:	-0.133	Yaw:	6.072	Thrust:	83.717
Time:	3.173	Roll Set Point:	-0.027	Pitch Set Point:	0.008	Yaw Set Point:	-0.056	X_WP:	0.000	Y_WP:	0.000	Y_WP:	0.500	X:	0.014	Y:	-0.003	Z:	0.050	yaw:	3.193	yaw rate:	-0.348	Roll:	0.466	Pitch:	-0.168	Yaw:	5.478	Thrust:	84.279
Time:	3.184	Roll Set Point:	-0.027	Pitch Set Point:	0.008	Yaw Set Point:	-0.056	X_WP:	0.000	Y_WP:	0.000	Y_WP:	0.500	X:	0.014	Y:	-0.003	Z:	0.050	yaw:	3.207	yaw rate:	1.382	Roll:	0.494	Pitch:	-0.145	Yaw:	5.906	Thrust:	84.970
Time:	3.195	Roll Set Point:	-0.027	Pitch Set Point:	0.008	Yaw Set Point:	-0.056	X_WP:	0.000	Y_WP:	0.000	Y_WP:	0.500	X:	0.014	Y:	-0.003	Z:	0.050	yaw:	3.194	yaw rate:	-1.305	Roll:	0.506	Pitch:	-0.129	Yaw:	5.289	Thrust:	87.131
Time:	3.206	Roll Set Point:	-0.027	Pitch Set Point:	0.008	Yaw Set Point:	-0.056	X_WP:	0.000	Y_WP:	0.000	Y_WP:	0.500	X:	0.014	Y:	-0.003	Z:	0.050	yaw:	3.183	yaw rate:	-1.082	Roll:	0.447	Pitch:	-0.153	Yaw:	5.290	Thrust:	86.145
Time:	3.217	Roll Set Point:	-0.027	Pitch Set Point:	0.008	Yaw Set Point:	-0.056	X_WP:	0.000	Y_WP:	0.000	Y_WP:	0.500	X:	0.014	Y:	-0.003	Z:	0.050	yaw:	3.197	yaw rate:	1.433	Roll:	0.451	Pitch:	-0.152	Yaw:	5.907	Thrust:	86.795
Time:	3.229	Roll Set Point:	-0.027	Pitch Set Point:	0.008	Yaw Set Point:	-0.056	X_WP:	0.000	Y_WP:	0.000	Y_WP:	0.500	X:	0.014	Y:	-0.003	Z:	0.050	yaw:	3.189	yaw rate:	1.777	Roll:	0.494	Pitch:	-0.125	Yaw:	5.426	Thrust:	90.751
Time:	3.240	Roll Set Point:	-0.027	Pitch Set Point:	0.008	Yaw Set Point:	-0.056	X_WP:	0.000	Y_WP:	0.000	Y_WP:	0.500	X:	0.014	Y:	-0.003	Z:	0.050	yaw:	3.189	yaw rate:	1.777	Roll:	0.475	Pitch:	-0.144	Yaw:	5.555	Thrust:	87.959
Time:	3.251	Roll Set Point:	-0.027	Pitch Set Point:	0.008	Yaw Set Point:	-0.056	X_WP:	0.000	Y_WP:	0.000	Y_WP:	0.500	X:	0.014	Y:	-0.003	Z:	0.050	yaw:	3.181	yaw rate:	-0.793	Roll:	0.463	Pitch:	-0.166	Yaw:	5.356	Thrust:	88.461
Time:	3.262	Roll Set Point:	-0.027	Pitch Set Point:	0.007	Yaw Set Point:	-0.056	X_WP:	0.000	Y_WP:	0.000	Y_WP:	0.500	X:	0.014	Y:	-0.003	Z:	0.050	yaw:	3.181	yaw rate:	-0.015	Roll:	0.506	Pitch:	-0.102	Yaw:	5.540	Thrust:	89.129
Time:	3.273	Roll Set Point:	-0.027	Pitch Set Point:	0.008	Yaw Set Point:	-0.056	X_WP:	0.000	Y_WP:	0.000	Y_WP:	0.500	X:	0.014	Y:	-0.003	Z:	0.050	yaw:	3.188	yaw rate:	0.741	Roll:	0.442	Pitch:	-0.170	Yaw:	5.730	Thrust:	89.798
Time:	3.284	Roll Set Point:	-0.027	Pitch Set Point:	0.007	Yaw Set Point:	-0.056	X_WP:	0.000	Y_WP:	0.000	Y_WP:	0.500	X:	0.014	Y:	-0.003	Z:	0.050	yaw:	3.183	yaw rate:	-0.548	Roll:	0.483	Pitch:	-0.132	Yaw:	5.417	Thrust:	90.310
Time:	3.295	Roll Set Point:	-0.027	Pitch Set Point:	0.007	Yaw Set Point:	-0.056	X_WP:	0.000	Y_WP:	0.000	Y_WP:	0.500	X:	0.014	Y:	-0.003	Z:	0.050	yaw:	3.183	yaw rate:	0.086	Roll:	0.522	Pitch:	-0.140	Yaw:	5.568	Thrust:	90.947
Time:	3.306	Roll Set Point:	-0.027	Pitch Set Point:	0.008	Yaw Set Point:	-0.055	X_WP:	0.000	Y_WP:	0.000	Y_WP:	0.500	X:	0.014	Y:	-0.003	Z:	0.050	yaw:	3.180	yaw rate:	-0.378	Roll:	0.434	Pitch:	-0.166	Yaw:	5.462	Thrust:	92.075
Time:	3.317	Roll Set Point:	-0.027	Pitch Set Point:	0.008	Yaw Set Point:	-0.056	X_WP:	0.000	Y_WP:	0.000	Y_WP:	0.500	X:	0.014	Y:	-0.003	Z:	0.050	yaw:	3.194	yaw rate:	1.440	Roll:	0.504	Pitch:	-0.145	Yaw:	5.898	Thrust:	91.425
Time:	3.328	Roll Set Point:	-0.028	Pitch Set Point:	0.008	Yaw Set Point:	-0.056	X_WP:	0.000	Y_WP:	0.000	Y_WP:	0.500	X:	0.014	Y:	-0.003	Z:	0.050	yaw:	3.196	yaw rate:	0.212	Roll:	0.529	Pitch:	-0.137	Yaw:	5.616	Thrust:	93.007
Time:	3.339	Roll Set Point:	-0.027	Pitch Set Point:	0.008	Yaw Set Point:	-0.055	X_WP:	0.000	Y_WP:	0.000	Y_WP:	0.500	X:	0.014	Y:	-0.003	Z:	0.050	yaw:	3.166	yaw rate:	-3.065	Roll:	0.443	Pitch:	-0.165	Yaw:	4.790	Thrust:	92.989
Time:	3.350	Roll Set Point:	-0.027	Pitch Set Point:	0.007	Yaw Set Point:	-0.055	X_WP:	0.000	Y_WP:	0.000	Y_WP:	0.500	X:	0.014	Y:	-0.003	Z:	0.050	yaw:	3.149	yaw rate:	-1.685	Roll:	0.483	Pitch:	-0.111	Yaw:	5.103	Thrust:	94.100
Time:	3.361	Roll Set Point:	-0.027	Pitch Set Point:	0.007	Yaw Set Point:	-0.056	X_WP:	0.000	Y_WP:	0.000	Y_WP:	0.500	X:	0.014	Y:	-0.003	Z:	0.050	yaw:	3.190	yaw rate:	4.090	Roll:	0.448	Pitch:	-0.156	Yaw:	6.527	Thrust:	94.530
Time:	3.372	Roll Set Point:	-0.027	Pitch Set Point:	0.008	Yaw Set Point:	-0.056	X_WP:	0.000	Y_WP:	0.000	Y_WP:	0.500	X:	0.014	Y:	-0.003	Z:	0.050	yaw:	3.181	yaw rate:	-0.892	Roll:	0.481	Pitch:	-0.160	Yaw:	5.332	Thrust:	95.196
Time:	3.383	Roll Set Point:	-0.027	Pitch Set Point:	0.008	Yaw Set Point:	-0.056	X_WP:	0.000	Y_WP:	0.000	Y_WP:	0.500	X:	0.014	Y:	-0.003	Z:	0.050	yaw:	3.185	yaw rate:	0.405	Roll:	0.499	Pitch:	-0.153	Yaw:	5.646	Thrust:	95.519
Time:	3.394	Roll Set Point:	-0.028	Pitch Set Point:	0.007	Yaw Set Point:	-0.055	X_WP:	0.000	Y_WP:	0.000	Y_WP:	0.500	X:	0.014	Y:	-0.003	Z:	0.050	yaw:	3.173	yaw rate:	-1.127	Roll:	0.526	Pitch:	-0.108	Yaw:	5.266	Thrust:	96.474
Time:	3.405	Roll Set Point:	-0.027	Pitch Set Point:	0.008	Yaw Set Point:	-0.055	X_WP:	0.000	Y_WP:	0.000	Y_WP:	0.500	X:	0.014	Y:	-0.003	Z:	0.050	yaw:	3.179	yaw rate:	0.575	Roll:	0.454	Pitch:	-0.189	Yaw:	5.676	Thrust:	96.641
Time:	3.416	Roll Set Point:	-0.027	Pitch Set Point:	0.008	Yaw Set Point:	-0.056	X_WP:	0.000	Y_WP:	0.000	Y_WP:	0.500	X:	0.014	Y:	-0.003	Z:	0.050	yaw:	3.191	yaw rate:	1.221	Roll:	0.473	Pitch:	-0.143	Yaw:	5.851	Thrust:	97.591
Time:	3.427	Roll Set Point:	-0.027	Pitch Set Point:	0.008	Yaw Set Point:	-0.056	X_WP:	0.000	Y_WP:	0.000	Y_WP:	0.500	X:	0.014	Y:	-0.003	Z:	0.050	yaw:	3.182	yaw rate:	-0.967	Roll:	0.507	Pitch:	-0.135	Yaw:	5.316	Thrust:	98.247
Time:	3.438	Roll Set Point:	-0.027	Pitch Set Point:	0.007	Yaw Set Point:	-0.055	X_WP:	0.000	Y_WP:	0.000	Y_WP:	0.500	X:	0.014	Y:	-0.003	Z:	0.050	yaw:	3.173	yaw rate:	-0.917	Roll:	0.492	Pitch:	-0.134	Yaw:	5.312	Thrust:	98.333
Time:	3.449	Roll Set Point:	-0.027	Pitch Set Point:	0.007	Yaw Set Point:	-0.055	X_WP:	0.000	Y_WP:	0.000	Y_WP:	0.500	X:	0.014	Y:	-0.003	Z:	0.050	yaw:	3.174	yaw rate:	0.167	Roll:	0.510	Pitch:	-0.158	Yaw:	5.577	Thrust:	99.569
Time:	3.460	Roll Set Point:	-0.027	Pitch Set Point:	0.007	Yaw Set Point:	-0.056	X_WP:	0.000	Y_WP:	0.000	Y_WP:	0.500	X:	0.014	Y:	-0.003	Z:	0.050	yaw:	3.181	yaw rate:	0.642	Roll:	0.450	Pitch:	-0.149	Yaw:	5.696	Thrust:	99.975
Time:	3.471	Roll Set Point:	-0.028	Pitch Set Point:	0.008	Yaw Set Point:	-0.055	X_WP:	0.000	Y_WP:	0.000	Y_WP:	0.500	X:	0.014	Y:	-0.003	Z:	0.050	yaw:	3.143	yaw rate:	-3.756	Roll:	0.584	Pitch:	-0.169	Yaw:	4.602	Thrust:	100.000
Time:	3.482	Roll Set Point:	-0.027	Pitch Set Point:	0.008	Yaw Set Point:	-0.056	X_WP:	0.000	Y_WP:	0.000	Y_WP:	0.500	X:	0.014	Y:	-0.003	Z:	0.050	yaw:	3.190	yaw rate:	4.686	Roll:	0.394	Pitch:	-0.146	Yaw:	6.669	Thrust:	100.000
Time:	3.493	Roll Set Point:	-0.027	Pitch Set Point:	0.008	Yaw Set Point:	-0.055	X_WP:	0.000	Y_WP:	0.000	Y_WP:	0.500	X:	0.014	Y:	-0.003	Z:	0.050	yaw:	3.162	yaw rate:	-2.755	Roll:	0.492	Pitch:	-0.136	Yaw:	4.860	Thrust:	100.000
Time:	3.504	Roll Set Point:	-0.027	Pitch Set Point:	0.008	Yaw Set Point:	-0.056	X_WP:	0.000	Y_WP:	0.000	Y_WP:	0.500	X:	0.014	Y:	-0.003	Z:	0.050	yaw:	3.197	yaw rate:	3.451	Roll:	0.535	Pitch:	-0.174	Yaw:	6.386	Thrust:	100.000
Time:	3.516	Roll Set Point:	-0.027	Pitch Set Point:	0.008	Yaw Set Point:	-0.055	X_WP:	0.000	Y_WP:	0.000	Y_WP:	0.500	X:	0.014	Y:	-0.003	Z:	0.050	yaw:	3.179	yaw rate:	-1.779	Roll:	0.450	Pitch:	-0.125	Yaw:	5.120	Thrust:	100.000
Time:	3.527	Roll Set Point:	-0.027	Pitch Set Point:	0.008	Yaw Set Point:	-0.056	X_WP:	0.000	Y_WP:	0.000	Y_WP:	0.500	X:	0.014	Y:	-0.003	Z:	0.050	yaw:	3.185	yaw rate:	0.605	Roll:	0.507	Pitch:	-0.153	Yaw:	5.696	Thrust:	100.000
Time:	3.538	Roll Set Point:	-0.027	Pitch Set Point:	0.008	Yaw Set Point:	-0.056	X_WP:	0.000	Y_WP:	0.000	Y_WP:	0.500	X:	0.014	Y:	-0.003	Z:	0.050	yaw:	3.189	yaw rate:	0.418	Roll:	0.519	Pitch:	-0.153	Yaw:	5.655	Thrust:	100.000
Time:	3.549	Roll Set Point:	-0.027	Pitch Set Point:	0.008	Yaw Set Point:	-0.055	X_WP:	0.000	Y_WP:	0.000	Y_WP:	0.500	X:	0.014	Y:	-0.003	Z:	0.050	yaw:	3.161	yaw rate:	-2.855	Roll:	0.449	Pitch:	-0.144	Yaw:	4.846	Thrust:	100.000
Time:	3.560	Roll Set Point:	-0.027	Pitch Set Point:	0.007	Yaw Set Point:	-0.055	X_WP:	0.000	Y_WP:	0.000	Y_WP:	0.500	X:	0.014	Y:	-0.003	Z:	0.050	yaw:	3.160	yaw rate:	-0.059	Roll:	0.527	Pitch:	-0.123	Yaw:	5.495	Thrust:	100.000
Time:	3.571	Roll Set Point:	-0.027	Pitch Set Point:	0.008	Yaw Set Point:	-0.056	X_WP:	0.000	Y_WP:	0.000	Y_WP:	0.500	X:	0.014	Y:	-0.003	Z:	0.050	yaw:	3.194	yaw rate:	3.335	Roll:	0.479	Pitch:	-0.195	Yaw:	6.354	Thrust:	100.000
Time:	3.582	Roll Set Point:	-0.027	Pitch Set Point:	0.008	Yaw Set Point:	-0.056	X_WP:	0.000	Y_WP:	0.000	Y_WP:	0.500	X:	0.014	Y:	-0.003	Z:	0.050	yaw:	3.180	yaw rate:	-1.322	Roll:	0.505	Pitch:	-0.151	Yaw:	5.230	Thrust:	100.000
Time:	3.593	Roll Set Point:	-0.028	Pitch Set Point:	0.008	Yaw Set Point:	-0.055	X_WP:	0.000	Y_WP:	0.000	Y_WP:	0.500	X:	0.014	Y:	-0.003	Z:	0.050	yaw:	3.175	yaw rate:	-0.520	Roll:	0.554	Pitch:	-0.135	Yaw:	5.410	Thrust:	100.000
Time:	3.604	Roll Set Point:	-0.028	Pitch Set Point:	0.008	Yaw Set Point:	-0.056	X_WP:	0.000	Y_WP:	0.000	Y_WP:	0.500	X:	0.014	Y:	-0.003	Z:	0.050	yaw:	3.196	yaw rate:	2.079	Roll:	0.505	Pitch:	-0.208	Yaw:	6.060	Thrust:	100.000
Time:	3.615	Roll Set Point:	-0.027	Pitch Set Point:	0.008	Yaw Set Point:	-0.055	X_WP:	0.000	Y_WP:	0.000	Y_WP:	0.500	X:	0.014	Y:	-0.003	Z:	0.050	yaw:	3.168	yaw rate:	-2.773	Roll:	0.473	Pitch:	-0.096	Yaw:	4.868	Thrust:	100.000
Time:	3.626	Roll Set Point:	-0.027	Pitch Set Point:	0.008	Yaw Set Point:	-0.056	X_WP:	0.000	Y_WP:	0.000	Y_WP:	0.500	X:	0.014	Y:	-0.003	Z:	0.050	yaw:	3.189	yaw rate:	2.112	Roll:	0.467	Pitch:	-0.156	Yaw:	6.057	Thrust:	100.000
Time:	3.637	Roll Set Point:	-0.027	Pitch Set Point:	0.007	Yaw Set Point:	-0.055	X_WP:	0.000	Y_WP:	0.000	Y_WP:	0.500	X:	0.014	Y:	-0.003	Z:	0.050	yaw:	3.164	yaw rate:	-2.578	Roll:	0.512	Pitch:	-0.141	Yaw:	4.908	Thrust:	100.000
Time:	3.648	Roll Set Point:	-0.027	Pitch Set Point:	0.007	Yaw Set Point:	-0.055	X_WP:	0.000	Y_WP:	0.000	Y_WP:	0.500	X:	0.014	Y:	-0.003	Z:	0.050	yaw:	3.179	yaw rate:	1.578	Roll:	0.532	Pitch:	-0.152	Yaw:	5.917	Thrust:	100.000
Time:	3.659	Roll Set Point:	-0.027	Pitch Set Point:	0.008	Yaw Set Point:	-0.056	X_WP:	0.000	Y_WP:	0.000	Y_WP:	0.500	X:	0.014	Y:	-0.003	Z:	0.050	yaw:	3.190	yaw rate:	1.020	Roll:	0.472	Pitch:	-0.174	Yaw:	5.799	Thrust:	100.000
Time:	3.670	Roll Set Point:	-0.027	Pitch Set Point:	0.008	Yaw Set Point:	-0.056	X_WP:	0.000	Y_WP:	0.000	Y_WP:	0.500	X:	0.014	Y:	-0.003	Z:	0.050	yaw:	3.202	yaw rate:	1.248	Roll:	0.504	Pitch:	-0.161	Yaw:	5.870	Thrust:	100.000
Time:	3.681	Roll Set Point:	-0.028	Pitch Set Point:	0.008	Yaw Set Point:	-0.055	X_WP:	0.000	Y_WP:	0.000	Y_WP:	0.500	X:	0.014	Y:	-0.003	Z:	0.050	yaw:	3.161	yaw rate:	-4.122	Roll:	0.571	Pitch:	-0.153	Yaw:	4.538	Thrust:	100.000
Time:	3.692	Roll Set Point:	-0.027	Pitch Set Point:	0.008	Yaw Set Point:	-0.056	X_WP:	0.000	Y_WP:	0.000	Y_WP:	0.500	X:	0.014	Y:	-0.003	Z:	0.050	yaw:	3.185	yaw rate:	2.392	Roll:	0.438	Pitch:	-0.147	Yaw:	6.117	Thrust:	100.000
Time:	3.703	Roll Set Point:	-0.027	Pitch Set Point:	0.008	Yaw Set Point:	-0.055	X_WP:	0.000	Y_WP:	0.000	Y_WP:	0.500	X:	0.014	Y:	-0.003	Z:	0.050	yaw:	3.149	yaw rate:	-3.554	Roll:	0.542	Pitch:	-0.152	Yaw:	4.651	Thrust:	100.000
Time:	3.714	Roll Set Point:	-0.027	Pitch Set Point:	0.008	Yaw Set Point:	-0.056	X_WP:	0.000	Y_WP:	0.000	Y_WP:	0.500	X:	0.014	Y:	-0.003	Z:	0.050	yaw:	3.187	yaw rate:	3.745	Roll:	0.469	Pitch:	-0.157	Yaw:	6.442	Thrust:	100.000
Time:	3.726	Roll Set Point:	-0.027	Pitch Set Point:	0.008	Yaw Set Point:	-0.055	X_WP:	0.000	Y_WP:	0.000	Y_WP:	0.500	X:	0.014	Y:	-0.003	Z:	0.050	yaw:	3.170	yaw rate:	-1.688	Roll:	0.541	Pitch:	-0.142	Yaw:	5.231	Thrust:	100.000
Time:	3.737	Roll Set Point:	-0.027	Pitch Set Point:	0.008	Yaw Set Point:	-0.056	X_WP:	0.000	Y_WP:	0.000	Y_WP:	0.500	X:	0.014	Y:	-0.003	Z:	0.050	yaw:	3.199	yaw rate:	2.974	Roll:	0.515	Pitch:	-0.168	Yaw:	6.277	Thrust:	100.000
Time:	3.748	Roll Set Point:	-0.027	Pitch Set Point:	0.008	Yaw Set Point:	-0.056	X_WP:	0.000	Y_WP:	0.000	Y_WP:	0.500	X:	0.014	Y:	-0.003	Z:	0.050	yaw:	3.203	yaw rate:	0.388	Roll:	0.513	Pitch:	-0.164	Yaw:	5.666	Thrust:	100.000
Time:	3.759	Roll Set Point:	-0.027	Pitch Set Point:	0.008	Yaw Set Point:	-0.055	X_WP:	0.000	Y_WP:	0.000	Y_WP:	0.500	X:	0.014	Y:	-0.003	Z:	0.050	yaw:	3.161	yaw rate:	-4.285	Roll:	0.490	Pitch:	-0.134	Yaw:	4.504	Thrust:	100.000
Time:	3.770	Roll Set Point:	-0.027	Pitch Set Point:	0.008	Yaw Set Point:	-0.056	X_WP:	0.000	Y_WP:	0.000	Y_WP:	0.500	X:	0.014	Y:	-0.003	Z:	0.050	yaw:	3.200	yaw rate:	3.997	Roll:	0.526	Pitch:	-0.180	Yaw:	6.520	Thrust:	100.000
Time:	3.781	Roll Set Point:	-0.027	Pitch Set Point:	0.008	Yaw Set Point:	-0.055	X_WP:	0.000	Y_WP:	0.000	Y_WP:	0.500	X:	0.014	Y:	-0.003	Z:	0.050	yaw:	3.177	yaw rate:	-2.360	Roll:	0.483	Pitch:	-0.145	Yaw:	4.978	Thrust:	100.000
Time:	3.792	Roll Set Point:	-0.027	Pitch Set Point:	0.007	Yaw Set Point:	-0.056	X_WP:	0.000	Y_WP:	0.000	Y_WP:	0.500	X:	0.014	Y:	-0.003	Z:	0.050	yaw:	3.185	yaw rate:	0.807	Roll:	0.507	Pitch:	-0.138	Yaw:	5.748	Thrust:	100.000
Time:	3.803	Roll Set Point:	-0.027	Pitch Set Point:	0.008	Yaw Set Point:	-0.056	X_WP:	0.000	Y_WP:	0.000	Y_WP:	0.500	X:	0.014	Y:	-0.003	Z:	0.050	yaw:	3.187	yaw rate:	0.207	Roll:	0.531	Pitch:	-0.176	Yaw:	5.600	Thrust:	100.000
Time:	3.814	Roll Set Point:	-0.027	Pitch Set Point:	0.008	Yaw Set Point:	-0.055	X_WP:	0.000	Y_WP:	0.000	Y_WP:	0.500	X:	0.014	Y:	-0.003	Z:	0.050	yaw:	3.165	yaw rate:	-2.238	Roll:	0.524	Pitch:	-0.152	Yaw:	4.987	Thrust:	100.000
Time:	3.825	Roll Set Point:	-0.027	Pitch Set Point:	0.008	Yaw Set Point:	-0.056	X_WP:	0.000	Y_WP:	0.000	Y_WP:	0.500	X:	0.014	Y:	-0.003	Z:	0.050	yaw:	3.182	yaw rate:	1.751	Roll:	0.523	Pitch:	-0.172	Yaw:	5.962	Thrust:	100.000
Time:	3.836	Roll Set Point:	-0.027	Pitch Set Point:	0.008	Yaw Set Point:	-0.057	X_WP:	0.000	Y_WP:	0.000	Y_WP:	0.500	X:	0.014	Y:	-0.003	Z:	0.050	yaw:	3.286	yaw rate:	10.390	Roll:	0.363	Pitch:	-0.163	Yaw:	8.155	Thrust:	100.000
Time:	3.847	Roll Set Point:	-0.027	Pitch Set Point:	0.008	Yaw Set Point:	-0.055	X_WP:	0.000	Y_WP:	0.000	Y_WP:	0.500	X:	0.014	Y:	-0.003	Z:	0.050	yaw:	3.158	yaw rate:	-12.832	Roll:	0.653	Pitch:	-0.119	Yaw:	2.459	Thrust:	100.000
Time:	3.858	Roll Set Point:	-0.027	Pitch Set Point:	0.008	Yaw Set Point:	-0.056	X_WP:	0.000	Y_WP:	0.000	Y_WP:	0.500	X:	0.014	Y:	-0.003	Z:	0.050	yaw:	3.188	yaw rate:	3.054	Roll:	0.504	Pitch:	-0.176	Yaw:	6.280	Thrust:	100.000
Time:	3.869	Roll Set Point:	-0.027	Pitch Set Point:	0.008	Yaw Set Point:	-0.055	X_WP:	0.000	Y_WP:	0.000	Y_WP:	0.500	X:	0.014	Y:	-0.003	Z:	0.050	yaw:	3.171	yaw rate:	-1.705	Roll:	0.527	Pitch:	-0.138	Yaw:	5.127	Thrust:	100.000
Time:	3.880	Roll Set Point:	-0.027	Pitch Set Point:	0.007	Yaw Set Point:	-0.055	X_WP:	0.000	Y_WP:	0.000	Y_WP:	0.500	X:	0.014	Y:	-0.003	Z:	0.050	yaw:	3.180	yaw rate:	0.865	Roll:	0.518	Pitch:	-0.148	Yaw:	5.748	Thrust:	100.000
Time:	3.891	Roll Set Point:	-0.027	Pitch Set Point:	0.008	Yaw Set Point:	-0.055	X_WP:	0.000	Y_WP:	0.000	Y_WP:	0.500	X:	0.014	Y:	-0.003	Z:	0.050	yaw:	3.174	yaw rate:	-0.584	Roll:	0.529	Pitch:	-0.199	Yaw:	5.396	Thrust:	100.000
Time:	3.902	Roll Set Point:	-0.027	Pitch Set Point:	0.007	Yaw Set Point:	-0.055	X_WP:	0.000	Y_WP:	0.000	Y_WP:	0.500	X:	0.014	Y:	-0.003	Z:	0.050	yaw:	3.166	yaw rate:	-0.851	Roll:	0.499	Pitch:	-0.116	Yaw:	5.321	Thrust:	100.000
Time:	3.913	Roll Set Point:	-0.027	Pitch Set Point:	0.008	Yaw Set Point:	-0.056	X_WP:	0.000	Y_WP:	0.000	Y_WP:	0.500	X:	0.014	Y:	-0.003	Z:	0.050	yaw:	3.189	yaw rate:	2.327	Roll:	0.509	Pitch:	-0.187	Yaw:	6.108	Thrust:	100.000
Time:	3.924	Roll Set Point:	-0.027	Pitch Set Point:	0.007	Yaw Set Point:	-0.055	X_WP:	0.000	Y_WP:	0.000	Y_WP:	0.500	X:	0.014	Y:	-0.003	Z:	0.050	yaw:	3.175	yaw rate:	-1.390	Roll:	0.532	Pitch:	-0.138	Yaw:	5.207	Thrust:	100.000
Time:	3.936	Roll Set Point:	-0.028	Pitch Set Point:	0.008	Yaw Set Point:	-0.056	X_WP:	0.000	Y_WP:	0.000	Y_WP:	0.500	X:	0.014	Y:	-0.003	Z:	0.050	yaw:	3.187	yaw rate:	1.182	Roll:	0.563	Pitch:	-0.171	Yaw:	5.832	Thrust:	100.000
Time:	3.947	Roll Set Point:	-0.027	Pitch Set Point:	0.007	Yaw Set Point:	-0.056	X_WP:	0.000	Y_WP:	0.000	Y_WP:	0.500	X:	0.014	Y:	-0.003	Z:	0.050	yaw:	3.195	yaw rate:	0.873	Roll:	0.483	Pitch:	-0.146	Yaw:	5.772	Thrust:	100.000
Time:	3.958	Roll Set Point:	-0.027	Pitch Set Point:	0.008	Yaw Set Point:	-0.056	X_WP:	0.000	Y_WP:	0.000	Y_WP:	0.500	X:	0.014	Y:	-0.003	Z:	0.050	yaw:	3.196	yaw rate:	0.052	Roll:	0.525	Pitch:	-0.180	Yaw:	5.578	Thrust:	100.000
Time:	3.969	Roll Set Point:	-0.027	Pitch Set Point:	0.008	Yaw Set Point:	-0.055	X_WP:	0.000	Y_WP:	0.000	Y_WP:	0.500	X:	0.014	Y:	-0.003	Z:	0.050	yaw:	3.154	yaw rate:	-4.240	Roll:	0.544	Pitch:	-0.137	Yaw:	4.495	Thrust:	100.000
Time:	3.980	Roll Set Point:	-0.027	Pitch Set Point:	0.007	Yaw Set Point:	-0.055	X_WP:	0.000	Y_WP:	0.000	Y_WP:	0.500	X:	0.014	Y:	-0.003	Z:	0.050	yaw:	3.179	yaw rate:	2.545	Roll:	0.528	Pitch:	-0.163	Yaw:	6.147	Thrust:	100.000
Time:	3.991	Roll Set Point:	-0.027	Pitch Set Point:	0.008	Yaw Set Point:	-0.056	X_WP:	0.000	Y_WP:	0.000	Y_WP:	0.500	X:	0.014	Y:	-0.003	Z:	0.050	yaw:	3.189	yaw rate:	0.984	Roll:	0.521	Pitch:	-0.193	Yaw:	5.787	Thrust:	100.000
Time:	4.002	Roll Set Point:	-0.027	Pitch Set Point:	0.007	Yaw Set Point:	-0.055	X_WP:	0.000	Y_WP:	0.000	Y_WP:	0.500	X:	0.014	Y:	-0.003	Z:	0.050	yaw:	3.162	yaw rate:	-2.678	Roll:	0.515	Pitch:	-0.104	Yaw:	4.887	Thrust:	100.000
Time:	4.013	Roll Set Point:	-0.027	Pitch Set Point:	0.007	Yaw Set Point:	-0.056	X_WP:	0.000	Y_WP:	0.000	Y_WP:	0.500	X:	0.014	Y:	-0.003	Z:	0.050	yaw:	3.183	yaw rate:	2.093	Roll:	0.533	Pitch:	-0.182	Yaw:	6.043	Thrust:	100.000
Time:	4.024	Roll Set Point:	-0.027	Pitch Set Point:	0.007	Yaw Set Point:	-0.055	X_WP:	0.000	Y_WP:	0.000	Y_WP:	0.500	X:	0.014	Y:	-0.003	Z:	0.050	yaw:	3.156	yaw rate:	-2.716	Roll:	0.538	Pitch:	-0.153	Yaw:	4.868	Thrust:	100.000
Time:	4.035	Roll Set Point:	-0.027	Pitch Set Point:	0.008	Yaw Set Point:	-0.056	X_WP:	0.000	Y_WP:	0.000	Y_WP:	0.500	X:	0.014	Y:	-0.003	Z:	0.050	yaw:	3.194	yaw rate:	3.841	Roll:	0.497	Pitch:	-0.176	Yaw:	6.474	Thrust:	100.000
Time:	4.046	Roll Set Point:	-0.027	Pitch Set Point:	0.008	Yaw Set Point:	-0.056	X_WP:	0.000	Y_WP:	0.000	Y_WP:	0.500	X:	0.014	Y:	-0.003	Z:	0.050	yaw:	3.206	yaw rate:	1.169	Roll:	0.569	Pitch:	-0.171	Yaw:	5.861	Thrust:	100.000
Time:	4.057	Roll Set Point:	-0.027	Pitch Set Point:	0.007	Yaw Set Point:	-0.055	X_WP:	0.000	Y_WP:	0.000	Y_WP:	0.500	X:	0.014	Y:	-0.003	Z:	0.050	yaw:	3.178	yaw rate:	-2.781	Roll:	0.519	Pitch:	-0.141	Yaw:	4.877	Thrust:	100.000
Time:	4.068	Roll Set Point:	-0.027	Pitch Set Point:	0.007	Yaw Set Point:	-0.055	X_WP:	0.000	Y_WP:	0.000	Y_WP:	0.500	X:	0.014	Y:	-0.003	Z:	0.050	yaw:	3.164	yaw rate:	-1.383	Roll:	0.526	Pitch:	-0.155	Yaw:	5.193	Thrust:	100.000
Time:	4.079	Roll Set Point:	-0.028	Pitch Set Point:	0.008	Yaw Set Point:	-0.055	X_WP:	0.000	Y_WP:	0.000	Y_WP:	0.500	X:	0.014	Y:	-0.003	Z:	0.050	yaw:	3.142	yaw rate:	-2.259	Roll:	0.598	Pitch:	-0.182	Yaw:	4.953	Thrust:	100.000
Time:	4.090	Roll Set Point:	-0.027	Pitch Set Point:	0.008	Yaw Set Point:	-0.056	X_WP:	0.000	Y_WP:	0.000	Y_WP:	0.500	X:	0.014	Y:	-0.003	Z:	0.050	yaw:	3.193	yaw rate:	5.150	Roll:	0.463	Pitch:	-0.166	Yaw:	6.784	Thrust:	100.000
Time:	4.101	Roll Set Point:	-0.027	Pitch Set Point:	0.007	Yaw Set Point:	-0.056	X_WP:	0.000	Y_WP:	0.000	Y_WP:	0.500	X:	0.014	Y:	-0.003	Z:	0.050	yaw:	3.181	yaw rate:	-1.253	Roll:	0.542	Pitch:	-0.144	Yaw:	5.246	Thrust:	100.000
Time:	4.112	Roll Set Point:	-0.027	Pitch Set Point:	0.007	Yaw Set Point:	-0.055	X_WP:	0.000	Y_WP:	0.000	Y_WP:	0.500	X:	0.014	Y:	-0.003	Z:	0.050	yaw:	3.160	yaw rate:	-2.116	Roll:	0.532	Pitch:	-0.154	Yaw:	5.012	Thrust:	100.000
Time:	4.123	Roll Set Point:	-0.027	Pitch Set Point:	0.007	Yaw Set Point:	-0.055	X_WP:	0.000	Y_WP:	0.000	Y_WP:	0.500	X:	0.014	Y:	-0.003	Z:	0.050	yaw:	3.178	yaw rate:	1.856	Roll:	0.531	Pitch:	-0.171	Yaw:	5.981	Thrust:	100.000
Time:	4.134	Roll Set Point:	-0.027	Pitch Set Point:	0.008	Yaw Set Point:	-0.056	X_WP:	0.000	Y_WP:	0.000	Y_WP:	0.500	X:	0.014	Y:	-0.003	Z:	0.050	yaw:	3.199	yaw rate:	2.057	Roll:	0.536	Pitch:	-0.185	Yaw:	6.057	Thrust:	100.000
Time:	4.145	Roll Set Point:	-0.028	Pitch Set Point:	0.007	Yaw Set Point:	-0.055	X_WP:	0.000	Y_WP:	0.000	Y_WP:	0.500	X:	0.014	Y:	-0.003	Z:	0.050	yaw:	3.155	yaw rate:	-4.376	Roll:	0.587	Pitch:	-0.123	Yaw:	4.467	Thrust:	100.000
Time:	4.156	Roll Set Point:	-0.027	Pitch Set Point:	0.008	Yaw Set Point:	-0.055	X_WP:	0.000	Y_WP:	0.000	Y_WP:	0.500	X:	0.014	Y:	-0.003	Z:	0.050	yaw:	3.163	yaw rate:	0.807	Roll:	0.496	Pitch:	-0.182	Yaw:	5.712	Thrust:	100.000
Time:	4.167	Roll Set Point:	-0.027	Pitch Set Point:	0.008	Yaw Set Point:	-0.056	X_WP:	0.000	Y_WP:	0.000	Y_WP:	0.500	X:	0.014	Y:	-0.003	Z:	0.050	yaw:	3.183	yaw rate:	1.966	Roll:	0.546	Pitch:	-0.189	Yaw:	6.013	Thrust:	100.000
Time:	4.178	Roll Set Point:	-0.027	Pitch Set Point:	0.007	Yaw Set Point:	-0.056	X_WP:	0.000	Y_WP:	0.000	Y_WP:	0.500	X:	0.014	Y:	-0.003	Z:	0.050	yaw:	3.181	yaw rate:	-0.171	Roll:	0.549	Pitch:	-0.126	Yaw:	5.503	Thrust:	100.000
Time:	4.189	Roll Set Point:	-0.027	Pitch Set Point:	0.008	Yaw Set Point:	-0.055	X_WP:	0.000	Y_WP:	0.000	Y_WP:	0.500	X:	0.014	Y:	-0.003	Z:	0.050	yaw:	3.172	yaw rate:	-0.885	Roll:	0.517	Pitch:	-0.180	Yaw:	5.323	Thrust:	100.000
Time:	4.200	Roll Set Point:	-0.027	Pitch Set Point:	0.008	Yaw Set Point:	-0.056	X_WP:	0.000	Y_WP:	0.000	Y_WP:	0.500	X:	0.014	Y:	-0.003	Z:	0.050	yaw:	3.195	yaw rate:	2.325	Roll:	0.561	Pitch:	-0.163	Yaw:	6.116	Thrust:	100.000
Time:	4.212	Roll Set Point:	-0.027	Pitch Set Point:	0.007	Yaw Set Point:	-0.056	X_WP:	0.000	Y_WP:	0.000	Y_WP:	0.500	X:	0.014	Y:	-0.003	Z:	0.050	yaw:	3.191	yaw rate:	-0.433	Roll:	0.538	Pitch:	-0.154	Yaw:	5.562	Thrust:	100.000
Time:	4.223	Roll Set Point:	-0.027	Pitch Set Point:	0.008	Yaw Set Point:	-0.055	X_WP:	0.000	Y_WP:	0.000	Y_WP:	0.500	X:	0.014	Y:	-0.003	Z:	0.050	yaw:	3.173	yaw rate:	-1.843	Roll:	0.531	Pitch:	-0.188	Yaw:	5.098	Thrust:	100.000
Time:	4.234	Roll Set Point:	-0.027	Pitch Set Point:	0.007	Yaw Set Point:	-0.056	X_WP:	0.000	Y_WP:	0.000	Y_WP:	0.500	X:	0.014	Y:	-0.003	Z:	0.050	yaw:	3.194	yaw rate:	2.159	Roll:	0.558	Pitch:	-0.150	Yaw:	6.076	Thrust:	100.000
Time:	4.245	Roll Set Point:	-0.027	Pitch Set Point:	0.008	Yaw Set Point:	-0.055	X_WP:	0.000	Y_WP:	0.000	Y_WP:	0.500	X:	0.014	Y:	-0.003	Z:	0.050	yaw:	3.158	yaw rate:	-3.574	Roll:	0.501	Pitch:	-0.166	Yaw:	4.660	Thrust:	100.000
Time:	4.256	Roll Set Point:	-0.027	Pitch Set Point:	0.008	Yaw Set Point:	-0.056	X_WP:	0.000	Y_WP:	0.000	Y_WP:	0.500	X:	0.014	Y:	-0.003	Z:	0.050	yaw:	3.205	yaw rate:	4.700	Roll:	0.575	Pitch:	-0.178	Yaw:	6.694	Thrust:	100.000
Time:	4.267	Roll Set Point:	-0.028	Pitch Set Point:	0.008	Yaw Set Point:	-0.056	X_WP:	0.000	Y_WP:	0.000	Y_WP:	0.500	X:	0.014	Y:	-0.003	Z:	0.050	yaw:	3.182	yaw rate:	-2.386	Roll:	0.576	Pitch:	-0.163	Yaw:	4.979	Thrust:	100.000
Time:	4.278	Roll Set Point:	-0.027	Pitch Set Point:	0.007	Yaw Set Point:	-0.055	X_WP:	0.000	Y_WP:	0.000	Y_WP:	0.500	X:	0.014	Y:	-0.003	Z:	0.050	yaw:	3.172	yaw rate:	-0.971	Roll:	0.506	Pitch:	-0.148	Yaw:	5.301	Thrust:	100.000
Time:	4.289	Roll Set Point:	-0.027	Pitch Set Point:	0.008	Yaw Set Point:	-0.055	X_WP:	0.000	Y_WP:	0.000	Y_WP:	0.500	X:	0.014	Y:	-0.003	Z:	0.050	yaw:	3.177	yaw rate:	0.525	Roll:	0.581	Pitch:	-0.194	Yaw:	5.664	Thrust:	100.000
Time:	4.300	Roll Set Point:	-0.027	Pitch Set Point:	0.007	Yaw Set Point:	-0.055	X_WP:	0.000	Y_WP:	0.000	Y_WP:	0.500	X:	0.014	Y:	-0.003	Z:	0.050	yaw:	3.169	yaw rate:	-0.857	Roll:	0.532	Pitch:	-0.131	Yaw:	5.324	Thrust:	100.000
Time:	4.312	Roll Set Point:	-0.027	Pitch Set Point:	0.008	Yaw Set Point:	-0.056	X_WP:	0.000	Y_WP:	0.000	Y_WP:	0.500	X:	0.014	Y:	-0.003	Z:	0.050	yaw:	3.182	yaw rate:	1.336	Roll:	0.518	Pitch:	-0.191	Yaw:	5.871	Thrust:	100.000
Time:	4.323	Roll Set Point:	-0.027	Pitch Set Point:	0.007	Yaw Set Point:	-0.056	X_WP:	0.000	Y_WP:	0.000	Y_WP:	0.500	X:	0.014	Y:	-0.003	Z:	0.050	yaw:	3.195	yaw rate:	1.350	Roll:	0.591	Pitch:	-0.160	Yaw:	5.885	Thrust:	100.000
Time:	4.334	Roll Set Point:	-0.027	Pitch Set Point:	0.008	Yaw Set Point:	-0.056	X_WP:	0.000	Y_WP:	0.000	Y_WP:	0.500	X:	0.014	Y:	-0.003	Z:	0.050	yaw:	3.189	yaw rate:	-0.644	Roll:	0.544	Pitch:	-0.167	Yaw:	5.399	Thrust:	100.000
Time:	4.345	Roll Set Point:	-0.028	Pitch Set Point:	0.007	Yaw Set Point:	-0.056	X_WP:	0.000	Y_WP:	0.000	Y_WP:	0.500	X:	0.014	Y:	-0.003	Z:	0.050	yaw:	3.183	yaw rate:	-0.635	Roll:	0.571	Pitch:	-0.164	Yaw:	5.398	Thrust:	100.000
Time:	4.356	Roll Set Point:	-0.027	Pitch Set Point:	0.008	Yaw Set Point:	-0.056	X_WP:	0.000	Y_WP:	0.000	Y_WP:	0.500	X:	0.014	Y:	-0.003	Z:	0.050	yaw:	3.181	yaw rate:	-0.154	Roll:	0.521	Pitch:	-0.167	Yaw:	5.508	Thrust:	100.000
Time:	4.367	Roll Set Point:	-0.027	Pitch Set Point:	0.007	Yaw Set Point:	-0.055	X_WP:	0.000	Y_WP:	0.000	Y_WP:	0.500	X:	0.014	Y:	-0.003	Z:	0.050	yaw:	3.163	yaw rate:	-1.801	Roll:	0.533	Pitch:	-0.146	Yaw:	5.088	Thrust:	100.000
Time:	4.378	Roll Set Point:	-0.027	Pitch Set Point:	0.008	Yaw Set Point:	-0.056	X_WP:	0.000	Y_WP:	0.000	Y_WP:	0.500	X:	0.014	Y:	-0.003	Z:	0.050	yaw:	3.196	yaw rate:	3.273	Roll:	0.587	Pitch:	-0.208	Yaw:	6.342	Thrust:	100.000
Time:	4.389	Roll Set Point:	-0.027	Pitch Set Point:	0.008	Yaw Set Point:	-0.056	X_WP:	0.000	Y_WP:	0.000	Y_WP:	0.500	X:	0.014	Y:	-0.003	Z:	0.050	yaw:	3.203	yaw rate:	0.713	Roll:	0.517	Pitch:	-0.179	Yaw:	5.744	Thrust:	100.000
Time:	4.401	Roll Set Point:	-0.028	Pitch Set Point:	0.007	Yaw Set Point:	-0.055	X_WP:	0.000	Y_WP:	0.000	Y_WP:	0.500	X:	0.014	Y:	-0.003	Z:	0.050	yaw:	3.162	yaw rate:	-4.053	Roll:	0.642	Pitch:	-0.135	Yaw:	4.741	Thrust:	100.000
Time:	4.412	Roll Set Point:	-0.028	Pitch Set Point:	0.008	Yaw Set Point:	-0.055	X_WP:	0.000	Y_WP:	0.000	Y_WP:	0.500	X:	0.014	Y:	-0.003	Z:	0.050	yaw:	3.150	yaw rate:	-1.280	Roll:	0.559	Pitch:	-0.183	Yaw:	5.196	Thrust:	100.000
Time:	4.423	Roll Set Point:	-0.027	Pitch Set Point:	0.008	Yaw Set Point:	-0.056	X_WP:	0.000	Y_WP:	0.000	Y_WP:	0.500	X:	0.014	Y:	-0.003	Z:	0.050	yaw:	3.187	yaw rate:	3.702	Roll:	0.486	Pitch:	-0.175	Yaw:	6.431	Thrust:	100.000
Time:	4.434	Roll Set Point:	-0.027	Pitch Set Point:	0.008	Yaw Set Point:	-0.056	X_WP:	0.000	Y_WP:	0.000	Y_WP:	0.500	X:	0.014	Y:	-0.003	Z:	0.050	yaw:	3.184	yaw rate:	-0.252	Roll:	0.575	Pitch:	-0.166	Yaw:	5.491	Thrust:	100.000
Time:	4.445	Roll Set Point:	-0.027	Pitch Set Point:	0.008	Yaw Set Point:	-0.056	X_WP:	0.000	Y_WP:	0.000	Y_WP:	0.500	X:	0.014	Y:	-0.003	Z:	0.050	yaw:	3.186	yaw rate:	0.177	Roll:	0.525	Pitch:	-0.178	Yaw:	5.591	Thrust:	100.000
Time:	4.456	Roll Set Point:	-0.027	Pitch Set Point:	0.008	Yaw Set Point:	-0.055	X_WP:	0.000	Y_WP:	0.000	Y_WP:	0.500	X:	0.014	Y:	-0.003	Z:	0.050	yaw:	3.165	yaw rate:	-2.060	Roll:	0.584	Pitch:	-0.148	Yaw:	5.034	Thrust:	100.000
Time:	4.467	Roll Set Point:	-0.027	Pitch Set Point:	0.008	Yaw Set Point:	-0.056	X_WP:	0.000	Y_WP:	0.000	Y_WP:	0.500	X:	0.014	Y:	-0.003	Z:	0.050	yaw:	3.189	yaw rate:	2.370	Roll:	0.571	Pitch:	-0.186	Yaw:	6.120	Thrust:	100.000
Time:	4.478	Roll Set Point:	-0.027	Pitch Set Point:	0.007	Yaw Set Point:	-0.055	X_WP:	0.000	Y_WP:	0.000	Y_WP:	0.500	X:	0.014	Y:	-0.003	Z:	0.050	yaw:	3.177	yaw rate:	-1.218	Roll:	0.555	Pitch:	-0.151	Yaw:	5.249	Thrust:	100.000
Time:	4.489	Roll Set Point:	-0.027	Pitch Set Point:	0.008	Yaw Set Point:	-0.056	X_WP:	0.000	Y_WP:	0.000	Y_WP:	0.500	X:	0.014	Y:	-0.003	Z:	0.050	yaw:	3.182	yaw rate:	0.545	Roll:	0.557	Pitch:	-0.192	Yaw:	5.673	Thrust:	100.000
Time:	4.500	Roll Set Point:	-0.027	Pitch Set Point:	0.008	Yaw Set Point:	-0.055	X_WP:	0.000	Y_WP:	0.000	Y_WP:	0.500	X:	0.014	Y:	-0.003	Z:	0.050	yaw:	3.176	yaw rate:	-0.581	Roll:	0.545	Pitch:	-0.177	Yaw:	5.402	Thrust:	100.000
Time:	4.511	Roll Set Point:	-0.027	Pitch Set Point:	0.008	Yaw Set Point:	-0.056	X_WP:	0.000	Y_WP:	0.000	Y_WP:	0.500	X:	0.014	Y:	-0.003	Z:	0.050	yaw:	3.207	yaw rate:	3.101	Roll:	0.545	Pitch:	-0.155	Yaw:	6.318	Thrust:	100.000
Time:	4.522	Roll Set Point:	-0.027	Pitch Set Point:	0.008	Yaw Set Point:	-0.055	X_WP:	0.000	Y_WP:	0.000	Y_WP:	0.500	X:	0.014	Y:	-0.003	Z:	0.050	yaw:	3.178	yaw rate:	-2.928	Roll:	0.593	Pitch:	-0.172	Yaw:	4.845	Thrust:	100.000
Time:	4.533	Roll Set Point:	-0.027	Pitch Set Point:	0.008	Yaw Set Point:	-0.056	X_WP:	0.000	Y_WP:	0.000	Y_WP:	0.500	X:	0.014	Y:	-0.003	Z:	0.050	yaw:	3.195	yaw rate:	1.718	Roll:	0.535	Pitch:	-0.184	Yaw:	5.972	Thrust:	100.000
Time:	4.544	Roll Set Point:	-0.027	Pitch Set Point:	0.007	Yaw Set Point:	-0.055	X_WP:	0.000	Y_WP:	0.000	Y_WP:	0.500	X:	0.014	Y:	-0.003	Z:	0.050	yaw:	3.155	yaw rate:	-4.076	Roll:	0.600	Pitch:	-0.138	Yaw:	4.542	Thrust:	100.000
Time:	4.555	Roll Set Point:	-0.027	Pitch Set Point:	0.008	Yaw Set Point:	-0.056	X_WP:	0.000	Y_WP:	0.000	Y_WP:	0.500	X:	0.014	Y:	-0.003	Z:	0.050	yaw:	3.200	yaw rate:	4.549	Roll:	0.546	Pitch:	-0.200	Yaw:	6.651	Thrust:	100.000
Time:	4.566	Roll Set Point:	-0.027	Pitch Set Point:	0.008	Yaw Set Point:	-0.056	X_WP:	0.000	Y_WP:	0.000	Y_WP:	0.500	X:	0.014	Y:	-0.003	Z:	0.050	yaw:	3.180	yaw rate:	-1.977	Roll:	0.578	Pitch:	-0.156	Yaw:	5.074	Thrust:	100.000
Time:	4.578	Roll Set Point:	-0.027	Pitch Set Point:	0.008	Yaw Set Point:	-0.055	X_WP:	0.000	Y_WP:	0.000	Y_WP:	0.500	X:	0.014	Y:	-0.003	Z:	0.050	yaw:	3.172	yaw rate:	-0.870	Roll:	0.536	Pitch:	-0.168	Yaw:	5.325	Thrust:	100.000
Time:	4.589	Roll Set Point:	-0.028	Pitch Set Point:	0.007	Yaw Set Point:	-0.055	X_WP:	0.000	Y_WP:	0.000	Y_WP:	0.500	X:	0.014	Y:	-0.003	Z:	0.050	yaw:	3.167	yaw rate:	-0.466	Roll:	0.618	Pitch:	-0.168	Yaw:	5.411	Thrust:	100.000
Time:	4.601	Roll Set Point:	-0.027	Pitch Set Point:	0.008	Yaw Set Point:	-0.056	X_WP:	0.000	Y_WP:	0.000	Y_WP:	0.500	X:	0.014	Y:	-0.003	Z:	0.050	yaw:	3.210	yaw rate:	4.334	Roll:	0.537	Pitch:	-0.201	Yaw:	6.629	Thrust:	100.000
Time:	4.613	Roll Set Point:	-0.027	Pitch Set Point:	0.007	Yaw Set Point:	-0.056	X_WP:	0.000	Y_WP:	0.000	Y_WP:	0.500	X:	0.014	Y:	-0.003	Z:	0.050	yaw:	3.182	yaw rate:	-2.839	Roll:	0.606	Pitch:	-0.154	Yaw:	5.028	Thrust:	100.000
Time:	4.624	Roll Set Point:	-0.027	Pitch Set Point:	0.008	Yaw Set Point:	-0.055	X_WP:	0.000	Y_WP:	0.000	Y_WP:	0.500	X:	0.014	Y:	-0.003	Z:	0.050	yaw:	3.168	yaw rate:	-1.416	Roll:	0.557	Pitch:	-0.189	Yaw:	5.190	Thrust:	100.000
Time:	4.635	Roll Set Point:	-0.027	Pitch Set Point:	0.008	Yaw Set Point:	-0.056	X_WP:	0.000	Y_WP:	0.000	Y_WP:	0.500	X:	0.014	Y:	-0.003	Z:	0.050	yaw:	3.194	yaw rate:	2.636	Roll:	0.552	Pitch:	-0.174	Yaw:	6.189	Thrust:	100.000
Time:	4.646	Roll Set Point:	-0.027	Pitch Set Point:	0.008	Yaw Set Point:	-0.056	X_WP:	0.000	Y_WP:	0.000	Y_WP:	0.500	X:	0.014	Y:	-0.003	Z:	0.050	yaw:	3.193	yaw rate:	-0.082	Roll:	0.595	Pitch:	-0.173	Yaw:	5.542	Thrust:	100.000
Time:	4.657	Roll Set Point:	-0.027	Pitch Set Point:	0.008	Yaw Set Point:	-0.056	X_WP:	0.000	Y_WP:	0.000	Y_WP:	0.500	X:	0.014	Y:	-0.003	Z:	0.050	yaw:	3.186	yaw rate:	-0.682	Roll:	0.563	Pitch:	-0.191	Yaw:	5.390	Thrust:	100.000
Time:	4.668	Roll Set Point:	-0.027	Pitch Set Point:	0.007	Yaw Set Point:	-0.056	X_WP:	0.000	Y_WP:	0.000	Y_WP:	0.500	X:	0.014	Y:	-0.003	Z:	0.050	yaw:	3.182	yaw rate:	-0.442	Roll:	0.599	Pitch:	-0.131	Yaw:	5.441	Thrust:	100.000
Time:	4.679	Roll Set Point:	-0.027	Pitch Set Point:	0.008	Yaw Set Point:	-0.056	X_WP:	0.000	Y_WP:	0.000	Y_WP:	0.500	X:	0.014	Y:	-0.003	Z:	0.050	yaw:	3.190	yaw rate:	0.785	Roll:	0.549	Pitch:	-0.207	Yaw:	5.744	Thrust:	100.000
Time:	4.690	Roll Set Point:	-0.027	Pitch Set Point:	0.007	Yaw Set Point:	-0.055	X_WP:	0.000	Y_WP:	0.000	Y_WP:	0.500	X:	0.014	Y:	-0.003	Z:	0.050	yaw:	3.168	yaw rate:	-2.147	Roll:	0.582	Pitch:	-0.141	Yaw:	5.013	Thrust:	100.000
Time:	4.701	Roll Set Point:	-0.027	Pitch Set Point:	0.008	Yaw Set Point:	-0.056	X_WP:	0.000	Y_WP:	0.000	Y_WP:	0.500	X:	0.014	Y:	-0.003	Z:	0.050	yaw:	3.214	yaw rate:	4.546	Roll:	0.545	Pitch:	-0.206	Yaw:	6.671	Thrust:	100.000
Time:	4.712	Roll Set Point:	-0.027	Pitch Set Point:	0.007	Yaw Set Point:	-0.055	X_WP:	0.000	Y_WP:	0.000	Y_WP:	0.500	X:	0.014	Y:	-0.003	Z:	0.050	yaw:	3.161	yaw rate:	-5.246	Roll:	0.599	Pitch:	-0.135	Yaw:	4.271	Thrust:	100.000
Time:	4.723	Roll Set Point:	-0.027	Pitch Set Point:	0.008	Yaw Set Point:	-0.056	X_WP:	0.000	Y_WP:	0.000	Y_WP:	0.500	X:	0.014	Y:	-0.003	Z:	0.050	yaw:	3.200	yaw rate:	3.865	Roll:	0.569	Pitch:	-0.206	Yaw:	6.488	Thrust:	100.000
Time:	4.736	Roll Set Point:	-0.027	Pitch Set Point:	0.008	Yaw Set Point:	-0.056	X_WP:	0.000	Y_WP:	0.000	Y_WP:	0.500	X:	0.014	Y:	-0.003	Z:	0.050	yaw:	3.199	yaw rate:	-0.101	Roll:	0.632	Pitch:	-0.180	Yaw:	5.753	Thrust:	100.000
Time:	4.749	Roll Set Point:	-0.027	Pitch Set Point:	0.008	Yaw Set Point:	-0.056	X_WP:	0.000	Y_WP:	0.000	Y_WP:	0.500	X:	0.014	Y:	-0.003	Z:	0.050	yaw:	3.182	yaw rate:	-1.743	Roll:	0.603	Pitch:	-0.187	Yaw:	5.396	Thrust:	100.000
Time:	4.761	Roll Set Point:	-0.027	Pitch Set Point:	0.007	Yaw Set Point:	-0.056	X_WP:	0.000	Y_WP:	0.000	Y_WP:	0.500	X:	0.014	Y:	-0.003	Z:	0.050	yaw:	3.200	yaw rate:	0.760	Roll:	0.543	Pitch:	-0.173	Yaw:	6.063	Thrust:	100.000
Time:	4.772	Roll Set Point:	-0.027	Pitch Set Point:	0.007	Yaw Set Point:	-0.055	X_WP:	0.000	Y_WP:	0.000	Y_WP:	0.500	X:	0.014	Y:	-0.003	Z:	0.050	yaw:	3.175	yaw rate:	-2.505	Roll:	0.613	Pitch:	-0.173	Yaw:	4.941	Thrust:	100.000
Time:	4.783	Roll Set Point:	-0.028	Pitch Set Point:	0.007	Yaw Set Point:	-0.055	X_WP:	0.000	Y_WP:	0.000	Y_WP:	0.500	X:	0.014	Y:	-0.003	Z:	0.050	yaw:	3.172	yaw rate:	-0.213	Roll:	0.622	Pitch:	-0.166	Yaw:	5.482	Thrust:	100.000
Time:	4.794	Roll Set Point:	-0.027	Pitch Set Point:	0.008	Yaw Set Point:	-0.055	X_WP:	0.000	Y_WP:	0.000	Y_WP:	0.500	X:	0.014	Y:	-0.003	Z:	0.050	yaw:	3.170	yaw rate:	-0.272	Roll:	0.547	Pitch:	-0.188	Yaw:	5.464	Thrust:	100.000
Time:	4.805	Roll Set Point:	-0.027	Pitch Set Point:	0.008	Yaw Set Point:	-0.056	X_WP:	0.000	Y_WP:	0.000	Y_WP:	0.500	X:	0.014	Y:	-0.003	Z:	0.050	yaw:	3.217	yaw rate:	4.721	Roll:	0.578	Pitch:	-0.209	Yaw:	6.715	Thrust:	100.000
Time:	4.817	Roll Set Point:	-0.027	Pitch Set Point:	0.008	Yaw Set Point:	-0.056	X_WP:	0.000	Y_WP:	0.000	Y_WP:	0.500	X:	0.014	Y:	-0.003	Z:	0.050	yaw:	3.197	yaw rate:	-1.977	Roll:	0.596	Pitch:	-0.155	Yaw:	5.189	Thrust:	100.000
Time:	4.828	Roll Set Point:	-0.027	Pitch Set Point:	0.008	Yaw Set Point:	-0.055	X_WP:	0.000	Y_WP:	0.000	Y_WP:	0.500	X:	0.014	Y:	-0.003	Z:	0.050	yaw:	3.167	yaw rate:	-3.006	Roll:	0.564	Pitch:	-0.169	Yaw:	4.796	Thrust:	100.000
Time:	4.839	Roll Set Point:	-0.027	Pitch Set Point:	0.007	Yaw Set Point:	-0.056	X_WP:	0.000	Y_WP:	0.000	Y_WP:	0.500	X:	0.014	Y:	-0.003	Z:	0.050	yaw:	3.183	yaw rate:	1.579	Roll:	0.614	Pitch:	-0.169	Yaw:	5.920	Thrust:	100.000
Time:	4.850	Roll Set Point:	-0.027	Pitch Set Point:	0.008	Yaw Set Point:	-0.056	X_WP:	0.000	Y_WP:	0.000	Y_WP:	0.500	X:	0.014	Y:	-0.003	Z:	0.050	yaw:	3.194	yaw rate:	1.078	Roll:	0.575	Pitch:	-0.188	Yaw:	5.820	Thrust:	100.000
Time:	4.861	Roll Set Point:	-0.027	Pitch Set Point:	0.008	Yaw Set Point:	-0.056	X_WP:	0.000	Y_WP:	0.000	Y_WP:	0.500	X:	0.014	Y:	-0.003	Z:	0.050	yaw:	3.201	yaw rate:	0.755	Roll:	0.584	Pitch:	-0.197	Yaw:	5.753	Thrust:	100.000
Time:	4.872	Roll Set Point:	-0.027	Pitch Set Point:	0.007	Yaw Set Point:	-0.055	X_WP:	0.000	Y_WP:	0.000	Y_WP:	0.500	X:	0.014	Y:	-0.003	Z:	0.050	yaw:	3.175	yaw rate:	-2.646	Roll:	0.604	Pitch:	-0.145	Yaw:	4.907	Thrust:	100.000
Time:	4.883	Roll Set Point:	-0.027	Pitch Set Point:	0.008	Yaw Set Point:	-0.055	X_WP:	0.000	Y_WP:	0.000	Y_WP:	0.500	X:	0.014	Y:	-0.003	Z:	0.050	yaw:	3.168	yaw rate:	-0.675	Roll:	0.589	Pitch:	-0.192	Yaw:	5.366	Thrust:	100.000
Time:	4.894	Roll Set Point:	-0.027	Pitch Set Point:	0.008	Yaw Set Point:	-0.056	X_WP:	0.000	Y_WP:	0.000	Y_WP:	0.500	X:	0.014	Y:	-0.003	Z:	0.050	yaw:	3.191	yaw rate:	2.270	Roll:	0.566	Pitch:	-0.186	Yaw:	6.097	Thrust:	100.000
Time:	4.905	Roll Set Point:	-0.027	Pitch Set Point:	0.007	Yaw Set Point:	-0.056	X_WP:	0.000	Y_WP:	0.000	Y_WP:	0.500	X:	0.014	Y:	-0.003	Z:	0.050	yaw:	3.183	yaw rate:	-0.730	Roll:	0.569	Pitch:	-0.156	Yaw:	5.375	Thrust:	100.000
Time:	4.916	Roll Set Point:	-0.027	Pitch Set Point:	0.008	Yaw Set Point:	-0.056	X_WP:	0.000	Y_WP:	0.000	Y_WP:	0.500	X:	0.014	Y:	-0.003	Z:	0.050	yaw:	3.190	yaw rate:	0.644	Roll:	0.625	Pitch:	-0.195	Yaw:	5.710	Thrust:	100.000
Time:	4.927	Roll Set Point:	-0.027	Pitch Set Point:	0.008	Yaw Set Point:	-0.056	X_WP:	0.000	Y_WP:	0.000	Y_WP:	0.500	X:	0.014	Y:	-0.003	Z:	0.050	yaw:	3.185	yaw rate:	-0.493	Roll:	0.568	Pitch:	-0.191	Yaw:	5.433	Thrust:	100.000
Time:	4.938	Roll Set Point:	-0.027	Pitch Set Point:	0.008	Yaw Set Point:	-0.056	X_WP:	0.000	Y_WP:	0.000	Y_WP:	0.500	X:	0.014	Y:	-0.003	Z:	0.050	yaw:	3.201	yaw rate:	1.616	Roll:	0.600	Pitch:	-0.171	Yaw:	5.956	Thrust:	100.000
Time:	4.949	Roll Set Point:	-0.027	Pitch Set Point:	0.007	Yaw Set Point:	-0.055	X_WP:	0.000	Y_WP:	0.000	Y_WP:	0.500	X:	0.014	Y:	-0.003	Z:	0.050	yaw:	3.166	yaw rate:	-3.520	Roll:	0.597	Pitch:	-0.164	Yaw:	4.689	Thrust:	100.000
Time:	4.960	Roll Set Point:	-0.027	Pitch Set Point:	0.007	Yaw Set Point:	-0.055	X_WP:	0.000	Y_WP:	0.000	Y_WP:	0.500	X:	0.014	Y:	-0.003	Z:	0.050	yaw:	3.163	yaw rate:	-0.300	Roll:	0.568	Pitch:	-0.166	Yaw:	5.447	Thrust:	100.000
Time:	4.972	Roll Set Point:	-0.027	Pitch Set Point:	0.008	Yaw Set Point:	-0.055	X_WP:	0.000	Y_WP:	0.000	Y_WP:	0.500	X:	0.014	Y:	-0.003	Z:	0.050	yaw:	3.173	yaw rate:	1.007	Roll:	0.629	Pitch:	-0.201	Yaw:	5.853	Thrust:	100.000
Time:	4.983	Roll Set Point:	-0.027	Pitch Set Point:	0.007	Yaw Set Point:	-0.056	X_WP:	0.000	Y_WP:	0.000	Y_WP:	0.500	X:	0.014	Y:	-0.003	Z:	0.050	yaw:	3.189	yaw rate:	1.603	Roll:	0.597	Pitch:	-0.167	Yaw:	5.936	Thrust:	100.000
Time:	4.995	Roll Set Point:	-0.028	Pitch Set Point:	0.008	Yaw Set Point:	-0.056	X_WP:	0.000	Y_WP:	0.000	Y_WP:	0.500	X:	0.014	Y:	-0.003	Z:	0.050	yaw:	3.181	yaw rate:	-0.826	Roll:	0.609	Pitch:	-0.195	Yaw:	5.345	Thrust:	100.000
Time:	5.006	Roll Set Point:	-0.027	Pitch Set Point:	0.007	Yaw Set Point:	-0.055	X_WP:	0.000	Y_WP:	0.000	Y_WP:	0.500	X:	0.014	Y:	-0.003	Z:	0.050	yaw:	3.163	yaw rate:	-1.762	Roll:	0.591	Pitch:	-0.170	Yaw:	5.241	Thrust:	100.000
Time:	5.017	Roll Set Point:	-0.027	Pitch Set Point:	0.008	Yaw Set Point:	-0.056	X_WP:	0.000	Y_WP:	0.000	Y_WP:	0.500	X:	0.014	Y:	-0.003	Z:	0.050	yaw:	3.215	yaw rate:	5.228	Roll:	0.595	Pitch:	-0.226	Yaw:	6.834	Thrust:	100.000
