Time:	2.156	Roll Set Point:	-0.234	Pitch Set Point:	-0.122	Yaw Set Point:	-0.578	X_WP:	0.000	Y_WP:	0.000	Y_WP:	0.500	X:	0.099	Y:	0.096	Z:	0.399	yaw:	33.101	yaw rate:	-3.473	Roll:	3.923	Pitch:	0.754	Yaw:	46.218	Thrust:	5.574
Time:	2.172	Roll Set Point:	-0.234	Pitch Set Point:	-0.122	Yaw Set Point:	-0.579	X_WP:	0.000	Y_WP:	0.000	Y_WP:	0.500	X:	0.099	Y:	0.096	Z:	0.399	yaw:	33.157	yaw rate:	5.619	Roll:	3.906	Pitch:	0.628	Yaw:	47.418	Thrust:	5.659
Time:	2.187	Roll Set Point:	-0.234	Pitch Set Point:	-0.122	Yaw Set Point:	-0.578	X_WP:	0.000	Y_WP:	0.000	Y_WP:	0.500	X:	0.099	Y:	0.096	Z:	0.399	yaw:	33.143	yaw rate:	-1.468	Roll:	3.937	Pitch:	0.793	Yaw:	46.391	Thrust:	5.788
Time:	2.203	Roll Set Point:	-0.234	Pitch Set Point:	-0.122	Yaw Set Point:	-0.578	X_WP:	0.000	Y_WP:	0.000	Y_WP:	0.500	X:	0.099	Y:	0.096	Z:	0.399	yaw:	33.100	yaw rate:	-4.311	Roll:	3.963	Pitch:	0.897	Yaw:	46.038	Thrust:	6.443
Time:	2.217	Roll Set Point:	-0.234	Pitch Set Point:	-0.121	Yaw Set Point:	-0.579	X_WP:	0.000	Y_WP:	0.000	Y_WP:	0.500	X:	0.099	Y:	0.096	Z:	0.399	yaw:	33.177	yaw rate:	0.242	Roll:	3.913	Pitch:	0.494	Yaw:	48.379	Thrust:	6.077
Time:	2.235	Roll Set Point:	-0.234	Pitch Set Point:	-0.121	Yaw Set Point:	-0.579	X_WP:	0.000	Y_WP:	0.000	Y_WP:	0.500	X:	0.099	Y:	0.096	Z:	0.399	yaw:	33.177	yaw rate:	0.242	Roll:	3.953	Pitch:	0.755	Yaw:	47.346	Thrust:	6.646
Time:	2.251	Roll Set Point:	-0.234	Pitch Set Point:	-0.122	Yaw Set Point:	-0.579	X_WP:	0.000	Y_WP:	0.000	Y_WP:	0.500	X:	0.099	Y:	0.096	Z:	0.399	yaw:	33.172	yaw rate:	8.558	Roll:	3.971	Pitch:	0.822	Yaw:	47.326	Thrust:	6.589
Time:	2.266	Roll Set Point:	-0.234	Pitch Set Point:	-0.122	Yaw Set Point:	-0.578	X_WP:	0.000	Y_WP:	0.000	Y_WP:	0.500	X:	0.099	Y:	0.096	Z:	0.399	yaw:	33.114	yaw rate:	-5.842	Roll:	3.969	Pitch:	0.885	Yaw:	46.522	Thrust:	7.264
Time:	2.282	Roll Set Point:	-0.234	Pitch Set Point:	-0.122	Yaw Set Point:	-0.579	X_WP:	0.000	Y_WP:	0.000	Y_WP:	0.500	X:	0.099	Y:	0.096	Z:	0.399	yaw:	33.171	yaw rate:	5.698	Roll:	3.946	Pitch:	0.599	Yaw:	48.716	Thrust:	6.846
Time:	2.298	Roll Set Point:	-0.234	Pitch Set Point:	-0.122	Yaw Set Point:	-0.579	X_WP:	0.000	Y_WP:	0.000	Y_WP:	0.500	X:	0.099	Y:	0.096	Z:	0.399	yaw:	33.183	yaw rate:	1.256	Roll:	3.991	Pitch:	0.773	Yaw:	48.106	Thrust:	7.461
Time:	2.313	Roll Set Point:	-0.234	Pitch Set Point:	-0.122	Yaw Set Point:	-0.578	X_WP:	0.000	Y_WP:	0.000	Y_WP:	0.500	X:	0.099	Y:	0.096	Z:	0.399	yaw:	33.100	yaw rate:	-8.275	Roll:	3.981	Pitch:	0.899	Yaw:	46.393	Thrust:	7.363
Time:	2.329	Roll Set Point:	-0.234	Pitch Set Point:	-0.122	Yaw Set Point:	-0.578	X_WP:	0.000	Y_WP:	0.000	Y_WP:	0.500	X:	0.099	Y:	0.096	Z:	0.399	yaw:	33.100	yaw rate:	-8.275	Roll:	3.982	Pitch:	0.765	Yaw:	47.780	Thrust:	7.662
Time:	2.344	Roll Set Point:	-0.234	Pitch Set Point:	-0.121	Yaw Set Point:	-0.579	X_WP:	0.000	Y_WP:	0.000	Y_WP:	0.500	X:	0.099	Y:	0.096	Z:	0.399	yaw:	33.153	yaw rate:	-3.410	Roll:	3.955	Pitch:	0.608	Yaw:	48.733	Thrust:	7.689
Time:	2.360	Roll Set Point:	-0.234	Pitch Set Point:	-0.122	Yaw Set Point:	-0.579	X_WP:	0.000	Y_WP:	0.000	Y_WP:	0.500	X:	0.099	Y:	0.096	Z:	0.399	yaw:	33.150	yaw rate:	-0.259	Roll:	3.992	Pitch:	0.794	Yaw:	47.806	Thrust:	7.938
Time:	2.376	Roll Set Point:	-0.234	Pitch Set Point:	-0.122	Yaw Set Point:	-0.578	X_WP:	0.000	Y_WP:	0.000	Y_WP:	0.500	X:	0.099	Y:	0.096	Z:	0.399	yaw:	33.107	yaw rate:	-4.345	Roll:	4.043	Pitch:	0.878	Yaw:	47.061	Thrust:	8.660
Time:	2.391	Roll Set Point:	-0.234	Pitch Set Point:	-0.122	Yaw Set Point:	-0.579	X_WP:	0.000	Y_WP:	0.000	Y_WP:	0.500	X:	0.099	Y:	0.096	Z:	0.399	yaw:	33.175	yaw rate:	6.769	Roll:	3.968	Pitch:	0.682	Yaw:	49.017	Thrust:	8.227
Time:	2.407	Roll Set Point:	-0.234	Pitch Set Point:	-0.122	Yaw Set Point:	-0.579	X_WP:	0.000	Y_WP:	0.000	Y_WP:	0.500	X:	0.099	Y:	0.096	Z:	0.399	yaw:	33.175	yaw rate:	6.769	Roll:	4.008	Pitch:	0.767	Yaw:	47.883	Thrust:	8.611
Time:	2.423	Roll Set Point:	-0.234	Pitch Set Point:	-0.122	Yaw Set Point:	-0.579	X_WP:	0.000	Y_WP:	0.000	Y_WP:	0.500	X:	0.099	Y:	0.096	Z:	0.399	yaw:	33.150	yaw rate:	-2.219	Roll:	4.020	Pitch:	0.777	Yaw:	47.438	Thrust:	8.763
Time:	2.438	Roll Set Point:	-0.234	Pitch Set Point:	-0.122	Yaw Set Point:	-0.579	X_WP:	0.000	Y_WP:	0.000	Y_WP:	0.500	X:	0.099	Y:	0.096	Z:	0.399	yaw:	33.150	yaw rate:	-2.219	Roll:	4.018	Pitch:	0.770	Yaw:	47.849	Thrust:	8.989
Time:	2.454	Roll Set Point:	-0.234	Pitch Set Point:	-0.122	Yaw Set Point:	-0.579	X_WP:	0.000	Y_WP:	0.000	Y_WP:	0.500	X:	0.099	Y:	0.096	Z:	0.399	yaw:	33.151	yaw rate:	-2.723	Roll:	4.018	Pitch:	0.776	Yaw:	47.857	Thrust:	9.028
Time:	2.469	Roll Set Point:	-0.234	Pitch Set Point:	-0.122	Yaw Set Point:	-0.579	X_WP:	0.000	Y_WP:	0.000	Y_WP:	0.500	X:	0.099	Y:	0.096	Z:	0.399	yaw:	33.151	yaw rate:	-2.723	Roll:	4.029	Pitch:	0.772	Yaw:	47.850	Thrust:	9.367
Time:	2.485	Roll Set Point:	-0.234	Pitch Set Point:	-0.122	Yaw Set Point:	-0.579	X_WP:	0.000	Y_WP:	0.000	Y_WP:	0.500	X:	0.099	Y:	0.096	Z:	0.399	yaw:	33.181	yaw rate:	3.640	Roll:	4.038	Pitch:	0.702	Yaw:	48.411	Thrust:	9.674
Time:	2.501	Roll Set Point:	-0.234	Pitch Set Point:	-0.122	Yaw Set Point:	-0.579	X_WP:	0.000	Y_WP:	0.000	Y_WP:	0.500	X:	0.099	Y:	0.096	Z:	0.399	yaw:	33.181	yaw rate:	3.640	Roll:	4.040	Pitch:	0.772	Yaw:	47.894	Thrust:	9.752
Time:	2.516	Roll Set Point:	-0.234	Pitch Set Point:	-0.122	Yaw Set Point:	-0.579	X_WP:	0.000	Y_WP:	0.000	Y_WP:	0.500	X:	0.099	Y:	0.096	Z:	0.399	yaw:	33.163	yaw rate:	-2.018	Roll:	4.078	Pitch:	0.797	Yaw:	47.551	Thrust:	9.846
Time:	2.532	Roll Set Point:	-0.234	Pitch Set Point:	-0.122	Yaw Set Point:	-0.579	X_WP:	0.000	Y_WP:	0.000	Y_WP:	0.500	X:	0.099	Y:	0.096	Z:	0.399	yaw:	33.169	yaw rate:	0.636	Roll:	4.023	Pitch:	0.795	Yaw:	47.983	Thrust:	10.304
Time:	2.548	Roll Set Point:	-0.234	Pitch Set Point:	-0.122	Yaw Set Point:	-0.579	X_WP:	0.000	Y_WP:	0.000	Y_WP:	0.500	X:	0.099	Y:	0.096	Z:	0.399	yaw:	33.181	yaw rate:	1.227	Roll:	4.061	Pitch:	0.723	Yaw:	48.096	Thrust:	10.243
Time:	2.563	Roll Set Point:	-0.234	Pitch Set Point:	-0.122	Yaw Set Point:	-0.579	X_WP:	0.000	Y_WP:	0.000	Y_WP:	0.500	X:	0.099	Y:	0.096	Z:	0.399	yaw:	33.179	yaw rate:	-0.247	Roll:	4.085	Pitch:	0.811	Yaw:	47.848	Thrust:	10.594
Time:	2.579	Roll Set Point:	-0.234	Pitch Set Point:	-0.122	Yaw Set Point:	-0.579	X_WP:	0.000	Y_WP:	0.000	Y_WP:	0.500	X:	0.099	Y:	0.096	Z:	0.399	yaw:	33.147	yaw rate:	-3.145	Roll:	4.040	Pitch:	0.903	Yaw:	47.318	Thrust:	10.700
Time:	2.595	Roll Set Point:	-0.234	Pitch Set Point:	-0.122	Yaw Set Point:	-0.579	X_WP:	0.000	Y_WP:	0.000	Y_WP:	0.500	X:	0.099	Y:	0.096	Z:	0.399	yaw:	33.193	yaw rate:	4.609	Roll:	4.088	Pitch:	0.622	Yaw:	48.682	Thrust:	10.866
Time:	2.610	Roll Set Point:	-0.234	Pitch Set Point:	-0.122	Yaw Set Point:	-0.579	X_WP:	0.000	Y_WP:	0.000	Y_WP:	0.500	X:	0.099	Y:	0.096	Z:	0.399	yaw:	33.188	yaw rate:	-0.560	Roll:	4.061	Pitch:	0.782	Yaw:	47.808	Thrust:	11.182
Time:	2.626	Roll Set Point:	-0.234	Pitch Set Point:	-0.122	Yaw Set Point:	-0.579	X_WP:	0.000	Y_WP:	0.000	Y_WP:	0.500	X:	0.099	Y:	0.096	Z:	0.399	yaw:	33.188	yaw rate:	-0.560	Roll:	4.082	Pitch:	0.780	Yaw:	47.902	Thrust:	11.272
Time:	2.641	Roll Set Point:	-0.234	Pitch Set Point:	-0.122	Yaw Set Point:	-0.579	X_WP:	0.000	Y_WP:	0.000	Y_WP:	0.500	X:	0.099	Y:	0.096	Z:	0.399	yaw:	33.184	yaw rate:	-0.374	Roll:	4.110	Pitch:	0.812	Yaw:	47.834	Thrust:	11.349
Time:	2.657	Roll Set Point:	-0.234	Pitch Set Point:	-0.122	Yaw Set Point:	-0.579	X_WP:	0.000	Y_WP:	0.000	Y_WP:	0.500	X:	0.099	Y:	0.096	Z:	0.399	yaw:	33.149	yaw rate:	-3.459	Roll:	4.058	Pitch:	0.787	Yaw:	47.268	Thrust:	11.488
Time:	2.673	Roll Set Point:	-0.234	Pitch Set Point:	-0.122	Yaw Set Point:	-0.579	X_WP:	0.000	Y_WP:	0.000	Y_WP:	0.500	X:	0.099	Y:	0.096	Z:	0.399	yaw:	33.149	yaw rate:	-3.459	Roll:	4.098	Pitch:	0.784	Yaw:	47.848	Thrust:	11.836
Time:	2.688	Roll Set Point:	-0.234	Pitch Set Point:	-0.122	Yaw Set Point:	-0.579	X_WP:	0.000	Y_WP:	0.000	Y_WP:	0.500	X:	0.099	Y:	0.096	Z:	0.399	yaw:	33.174	yaw rate:	2.275	Roll:	4.106	Pitch:	0.816	Yaw:	48.292	Thrust:	12.291
Time:	2.704	Roll Set Point:	-0.234	Pitch Set Point:	-0.122	Yaw Set Point:	-0.578	X_WP:	0.000	Y_WP:	0.000	Y_WP:	0.500	X:	0.099	Y:	0.096	Z:	0.399	yaw:	33.109	yaw rate:	-6.473	Roll:	4.122	Pitch:	0.886	Yaw:	46.707	Thrust:	12.274
Time:	2.720	Roll Set Point:	-0.234	Pitch Set Point:	-0.122	Yaw Set Point:	-0.578	X_WP:	0.000	Y_WP:	0.000	Y_WP:	0.500	X:	0.099	Y:	0.096	Z:	0.399	yaw:	33.094	yaw rate:	-1.484	Roll:	4.098	Pitch:	0.790	Yaw:	47.523	Thrust:	12.370
Time:	2.735	Roll Set Point:	-0.234	Pitch Set Point:	-0.122	Yaw Set Point:	-0.579	X_WP:	0.000	Y_WP:	0.000	Y_WP:	0.500	X:	0.099	Y:	0.096	Z:	0.399	yaw:	33.178	yaw rate:	8.362	Roll:	4.134	Pitch:	0.650	Yaw:	49.289	Thrust:	12.564
Time:	2.751	Roll Set Point:	-0.234	Pitch Set Point:	-0.122	Yaw Set Point:	-0.579	X_WP:	0.000	Y_WP:	0.000	Y_WP:	0.500	X:	0.099	Y:	0.096	Z:	0.399	yaw:	33.178	yaw rate:	8.362	Roll:	4.124	Pitch:	0.789	Yaw:	47.888	Thrust:	12.791
Time:	2.766	Roll Set Point:	-0.234	Pitch Set Point:	-0.122	Yaw Set Point:	-0.578	X_WP:	0.000	Y_WP:	0.000	Y_WP:	0.500	X:	0.099	Y:	0.096	Z:	0.399	yaw:	33.101	yaw rate:	-0.664	Roll:	4.118	Pitch:	0.929	Yaw:	46.492	Thrust:	12.981
Time:	2.782	Roll Set Point:	-0.234	Pitch Set Point:	-0.122	Yaw Set Point:	-0.579	X_WP:	0.000	Y_WP:	0.000	Y_WP:	0.500	X:	0.099	Y:	0.096	Z:	0.399	yaw:	33.173	yaw rate:	7.154	Roll:	4.132	Pitch:	0.695	Yaw:	49.079	Thrust:	13.165
Time:	2.798	Roll Set Point:	-0.234	Pitch Set Point:	-0.122	Yaw Set Point:	-0.578	X_WP:	0.000	Y_WP:	0.000	Y_WP:	0.500	X:	0.099	Y:	0.096	Z:	0.399	yaw:	33.128	yaw rate:	-4.470	Roll:	4.109	Pitch:	0.828	Yaw:	47.069	Thrust:	13.016
Time:	2.813	Roll Set Point:	-0.234	Pitch Set Point:	-0.122	Yaw Set Point:	-0.578	X_WP:	0.000	Y_WP:	0.000	Y_WP:	0.500	X:	0.099	Y:	0.096	Z:	0.399	yaw:	33.128	yaw rate:	-4.470	Roll:	4.144	Pitch:	0.795	Yaw:	47.818	Thrust:	13.543
Time:	2.829	Roll Set Point:	-0.234	Pitch Set Point:	-0.122	Yaw Set Point:	-0.579	X_WP:	0.000	Y_WP:	0.000	Y_WP:	0.500	X:	0.099	Y:	0.096	Z:	0.399	yaw:	33.170	yaw rate:	1.813	Roll:	4.186	Pitch:	0.742	Yaw:	48.579	Thrust:	13.940
Time:	2.845	Roll Set Point:	-0.234	Pitch Set Point:	-0.122	Yaw Set Point:	-0.579	X_WP:	0.000	Y_WP:	0.000	Y_WP:	0.500	X:	0.099	Y:	0.096	Z:	0.399	yaw:	33.170	yaw rate:	1.813	Roll:	4.156	Pitch:	0.795	Yaw:	47.877	Thrust:	13.928
Time:	2.860	Roll Set Point:	-0.234	Pitch Set Point:	-0.122	Yaw Set Point:	-0.577	X_WP:	0.000	Y_WP:	0.000	Y_WP:	0.500	X:	0.099	Y:	0.096	Z:	0.399	yaw:	33.069	yaw rate:	-10.080	Roll:	4.130	Pitch:	1.009	Yaw:	46.049	Thrust:	14.245
Time:	2.876	Roll Set Point:	-0.234	Pitch Set Point:	-0.122	Yaw Set Point:	-0.577	X_WP:	0.000	Y_WP:	0.000	Y_WP:	0.500	X:	0.099	Y:	0.096	Z:	0.399	yaw:	33.067	yaw rate:	-11.049	Roll:	4.190	Pitch:	0.720	Yaw:	47.696	Thrust:	14.365
Time:	2.891	Roll Set Point:	-0.234	Pitch Set Point:	-0.122	Yaw Set Point:	-0.578	X_WP:	0.000	Y_WP:	0.000	Y_WP:	0.500	X:	0.099	Y:	0.096	Z:	0.399	yaw:	33.113	yaw rate:	4.607	Roll:	4.174	Pitch:	0.807	Yaw:	48.569	Thrust:	14.609
Time:	2.907	Roll Set Point:	-0.234	Pitch Set Point:	-0.122	Yaw Set Point:	-0.578	X_WP:	0.000	Y_WP:	0.000	Y_WP:	0.500	X:	0.099	Y:	0.096	Z:	0.399	yaw:	33.127	yaw rate:	1.411	Roll:	4.154	Pitch:	0.772	Yaw:	48.050	Thrust:	14.256
Time:	2.923	Roll Set Point:	-0.234	Pitch Set Point:	-0.122	Yaw Set Point:	-0.579	X_WP:	0.000	Y_WP:	0.000	Y_WP:	0.500	X:	0.099	Y:	0.096	Z:	0.399	yaw:	33.154	yaw rate:	2.712	Roll:	4.199	Pitch:	0.718	Yaw:	48.311	Thrust:	15.067
Time:	2.938	Roll Set Point:	-0.234	Pitch Set Point:	-0.122	Yaw Set Point:	-0.579	X_WP:	0.000	Y_WP:	0.000	Y_WP:	0.500	X:	0.099	Y:	0.096	Z:	0.399	yaw:	33.154	yaw rate:	2.712	Roll:	4.187	Pitch:	0.802	Yaw:	47.851	Thrust:	15.050
Time:	2.954	Roll Set Point:	-0.234	Pitch Set Point:	-0.122	Yaw Set Point:	-0.578	X_WP:	0.000	Y_WP:	0.000	Y_WP:	0.500	X:	0.099	Y:	0.096	Z:	0.399	yaw:	33.097	yaw rate:	-8.410	Roll:	4.211	Pitch:	0.875	Yaw:	46.822	Thrust:	15.466
Time:	2.970	Roll Set Point:	-0.234	Pitch Set Point:	-0.122	Yaw Set Point:	-0.579	X_WP:	0.000	Y_WP:	0.000	Y_WP:	0.500	X:	0.099	Y:	0.096	Z:	0.399	yaw:	33.161	yaw rate:	6.401	Roll:	4.191	Pitch:	0.749	Yaw:	48.935	Thrust:	15.317
Time:	2.985	Roll Set Point:	-0.234	Pitch Set Point:	-0.122	Yaw Set Point:	-0.578	X_WP:	0.000	Y_WP:	0.000	Y_WP:	0.500	X:	0.099	Y:	0.096	Z:	0.399	yaw:	33.090	yaw rate:	-7.132	Roll:	4.199	Pitch:	0.922	Yaw:	46.570	Thrust:	15.678
Time:	3.001	Roll Set Point:	-0.234	Pitch Set Point:	-0.122	Yaw Set Point:	-0.578	X_WP:	0.000	Y_WP:	0.000	Y_WP:	0.500	X:	0.099	Y:	0.096	Z:	0.399	yaw:	33.090	yaw rate:	-7.132	Roll:	4.209	Pitch:	0.809	Yaw:	47.764	Thrust:	15.830
Time:	3.016	Roll Set Point:	-0.234	Pitch Set Point:	-0.121	Yaw Set Point:	-0.579	X_WP:	0.000	Y_WP:	0.000	Y_WP:	0.500	X:	0.099	Y:	0.096	Z:	0.399	yaw:	33.166	yaw rate:	-2.899	Roll:	4.224	Pitch:	0.610	Yaw:	49.148	Thrust:	15.810
Time:	3.032	Roll Set Point:	-0.234	Pitch Set Point:	-0.122	Yaw Set Point:	-0.578	X_WP:	0.000	Y_WP:	0.000	Y_WP:	0.500	X:	0.099	Y:	0.096	Z:	0.399	yaw:	33.095	yaw rate:	-7.109	Roll:	4.215	Pitch:	1.003	Yaw:	46.581	Thrust:	16.475
Time:	3.048	Roll Set Point:	-0.234	Pitch Set Point:	-0.122	Yaw Set Point:	-0.578	X_WP:	0.000	Y_WP:	0.000	Y_WP:	0.500	X:	0.099	Y:	0.096	Z:	0.399	yaw:	33.095	yaw rate:	-7.109	Roll:	4.225	Pitch:	0.812	Yaw:	47.772	Thrust:	16.400
Time:	3.063	Roll Set Point:	-0.234	Pitch Set Point:	-0.122	Yaw Set Point:	-0.578	X_WP:	0.000	Y_WP:	0.000	Y_WP:	0.500	X:	0.099	Y:	0.096	Z:	0.399	yaw:	33.120	yaw rate:	8.986	Roll:	4.252	Pitch:	0.759	Yaw:	48.227	Thrust:	16.664
Time:	3.079	Roll Set Point:	-0.234	Pitch Set Point:	-0.122	Yaw Set Point:	-0.578	X_WP:	0.000	Y_WP:	0.000	Y_WP:	0.500	X:	0.099	Y:	0.096	Z:	0.399	yaw:	33.120	yaw rate:	8.986	Roll:	4.236	Pitch:	0.813	Yaw:	47.810	Thrust:	16.806
Time:	3.095	Roll Set Point:	-0.234	Pitch Set Point:	-0.122	Yaw Set Point:	-0.579	X_WP:	0.000	Y_WP:	0.000	Y_WP:	0.500	X:	0.099	Y:	0.096	Z:	0.399	yaw:	33.167	yaw rate:	-0.003	Roll:	4.217	Pitch:	0.755	Yaw:	48.669	Thrust:	16.764
Time:	3.110	Roll Set Point:	-0.234	Pitch Set Point:	-0.122	Yaw Set Point:	-0.577	X_WP:	0.000	Y_WP:	0.000	Y_WP:	0.500	X:	0.099	Y:	0.096	Z:	0.399	yaw:	33.080	yaw rate:	-8.757	Roll:	4.234	Pitch:	0.956	Yaw:	46.284	Thrust:	17.277
Time:	3.126	Roll Set Point:	-0.234	Pitch Set Point:	-0.122	Yaw Set Point:	-0.577	X_WP:	0.000	Y_WP:	0.000	Y_WP:	0.500	X:	0.099	Y:	0.096	Z:	0.399	yaw:	33.080	yaw rate:	-8.757	Roll:	4.251	Pitch:	0.818	Yaw:	47.751	Thrust:	17.350
Time:	3.141	Roll Set Point:	-0.235	Pitch Set Point:	-0.122	Yaw Set Point:	-0.578	X_WP:	0.000	Y_WP:	0.000	Y_WP:	0.500	X:	0.099	Y:	0.096	Z:	0.399	yaw:	33.095	yaw rate:	-7.579	Roll:	4.299	Pitch:	0.711	Yaw:	48.017	Thrust:	17.565
Time:	3.157	Roll Set Point:	-0.234	Pitch Set Point:	-0.122	Yaw Set Point:	-0.579	X_WP:	0.000	Y_WP:	0.000	Y_WP:	0.500	X:	0.099	Y:	0.096	Z:	0.399	yaw:	33.157	yaw rate:	6.204	Roll:	4.223	Pitch:	0.775	Yaw:	48.897	Thrust:	17.509
Time:	3.173	Roll Set Point:	-0.234	Pitch Set Point:	-0.122	Yaw Set Point:	-0.579	X_WP:	0.000	Y_WP:	0.000	Y_WP:	0.500	X:	0.099	Y:	0.096	Z:	0.399	yaw:	33.157	yaw rate:	6.204	Roll:	4.267	Pitch:	0.817	Yaw:	47.861	Thrust:	17.942
Time:	3.188	Roll Set Point:	-0.234	Pitch Set Point:	-0.122	Yaw Set Point:	-0.579	X_WP:	0.000	Y_WP:	0.000	Y_WP:	0.500	X:	0.099	Y:	0.096	Z:	0.399	yaw:	33.155	yaw rate:	-1.641	Roll:	4.278	Pitch:	0.820	Yaw:	47.821	Thrust:	18.063
Time:	3.204	Roll Set Point:	-0.234	Pitch Set Point:	-0.122	Yaw Set Point:	-0.579	X_WP:	0.000	Y_WP:	0.000	Y_WP:	0.500	X:	0.099	Y:	0.096	Z:	0.399	yaw:	33.155	yaw rate:	-1.641	Roll:	4.277	Pitch:	0.819	Yaw:	47.856	Thrust:	18.299
Time:	3.235	Roll Set Point:	-0.234	Pitch Set Point:	-0.122	Yaw Set Point:	-0.579	X_WP:	0.000	Y_WP:	0.000	Y_WP:	0.500	X:	0.099	Y:	0.096	Z:	0.399	yaw:	33.182	yaw rate:	1.730	Roll:	4.637	Pitch:	0.859	Yaw:	49.647	Thrust:	31.067
Time:	3.250	Roll Set Point:	-0.234	Pitch Set Point:	-0.122	Yaw Set Point:	-0.579	X_WP:	0.000	Y_WP:	0.000	Y_WP:	0.500	X:	0.099	Y:	0.096	Z:	0.399	yaw:	33.182	yaw rate:	1.730	Roll:	4.289	Pitch:	0.820	Yaw:	47.897	Thrust:	18.702
Time:	3.266	Roll Set Point:	-0.234	Pitch Set Point:	-0.122	Yaw Set Point:	-0.579	X_WP:	0.000	Y_WP:	0.000	Y_WP:	0.500	X:	0.099	Y:	0.096	Z:	0.399	yaw:	33.152	yaw rate:	6.360	Roll:	4.296	Pitch:	0.844	Yaw:	47.344	Thrust:	18.815
Time:	3.282	Roll Set Point:	-0.234	Pitch Set Point:	-0.122	Yaw Set Point:	-0.579	X_WP:	0.000	Y_WP:	0.000	Y_WP:	0.500	X:	0.099	Y:	0.096	Z:	0.399	yaw:	33.195	yaw rate:	4.349	Roll:	4.301	Pitch:	0.753	Yaw:	48.639	Thrust:	19.141
Time:	3.297	Roll Set Point:	-0.234	Pitch Set Point:	-0.122	Yaw Set Point:	-0.578	X_WP:	0.000	Y_WP:	0.000	Y_WP:	0.500	X:	0.099	Y:	0.096	Z:	0.399	yaw:	33.112	yaw rate:	-8.380	Roll:	4.296	Pitch:	0.983	Yaw:	46.391	Thrust:	19.351
Time:	3.313	Roll Set Point:	-0.234	Pitch Set Point:	-0.122	Yaw Set Point:	-0.578	X_WP:	0.000	Y_WP:	0.000	Y_WP:	0.500	X:	0.099	Y:	0.096	Z:	0.399	yaw:	33.112	yaw rate:	-8.380	Roll:	4.310	Pitch:	0.827	Yaw:	47.798	Thrust:	19.467
Time:	3.329	Roll Set Point:	-0.234	Pitch Set Point:	-0.122	Yaw Set Point:	-0.578	X_WP:	0.000	Y_WP:	0.000	Y_WP:	0.500	X:	0.099	Y:	0.096	Z:	0.399	yaw:	33.094	yaw rate:	0.776	Roll:	4.321	Pitch:	0.851	Yaw:	47.482	Thrust:	19.623
Time:	3.344	Roll Set Point:	-0.234	Pitch Set Point:	-0.122	Yaw Set Point:	-0.579	X_WP:	0.000	Y_WP:	0.000	Y_WP:	0.500	X:	0.099	Y:	0.096	Z:	0.399	yaw:	33.150	yaw rate:	5.556	Roll:	4.292	Pitch:	0.723	Yaw:	48.781	Thrust:	19.602
Time:	3.360	Roll Set Point:	-0.234	Pitch Set Point:	-0.122	Yaw Set Point:	-0.579	X_WP:	0.000	Y_WP:	0.000	Y_WP:	0.500	X:	0.099	Y:	0.096	Z:	0.399	yaw:	33.151	yaw rate:	0.086	Roll:	4.321	Pitch:	0.883	Yaw:	47.861	Thrust:	20.072
Time:	3.375	Roll Set Point:	-0.234	Pitch Set Point:	-0.122	Yaw Set Point:	-0.577	X_WP:	0.000	Y_WP:	0.000	Y_WP:	0.500	X:	0.099	Y:	0.096	Z:	0.399	yaw:	33.062	yaw rate:	-8.876	Roll:	4.346	Pitch:	0.994	Yaw:	46.245	Thrust:	20.337
Time:	3.391	Roll Set Point:	-0.234	Pitch Set Point:	-0.122	Yaw Set Point:	-0.577	X_WP:	0.000	Y_WP:	0.000	Y_WP:	0.500	X:	0.099	Y:	0.096	Z:	0.399	yaw:	33.062	yaw rate:	-8.876	Roll:	4.335	Pitch:	0.835	Yaw:	47.723	Thrust:	20.361
Time:	3.407	Roll Set Point:	-0.234	Pitch Set Point:	-0.122	Yaw Set Point:	-0.579	X_WP:	0.000	Y_WP:	0.000	Y_WP:	0.500	X:	0.099	Y:	0.096	Z:	0.399	yaw:	33.162	yaw rate:	9.956	Roll:	4.342	Pitch:	0.652	Yaw:	49.533	Thrust:	20.367
Time:	3.422	Roll Set Point:	-0.234	Pitch Set Point:	-0.122	Yaw Set Point:	-0.577	X_WP:	0.000	Y_WP:	0.000	Y_WP:	0.500	X:	0.099	Y:	0.096	Z:	0.399	yaw:	33.082	yaw rate:	-8.827	Roll:	4.321	Pitch:	1.013	Yaw:	46.416	Thrust:	21.039
Time:	3.438	Roll Set Point:	-0.234	Pitch Set Point:	-0.122	Yaw Set Point:	-0.577	X_WP:	0.000	Y_WP:	0.000	Y_WP:	0.500	X:	0.099	Y:	0.096	Z:	0.399	yaw:	33.082	yaw rate:	-8.827	Roll:	4.351	Pitch:	0.839	Yaw:	47.754	Thrust:	20.961
Time:	3.454	Roll Set Point:	-0.234	Pitch Set Point:	-0.122	Yaw Set Point:	-0.579	X_WP:	0.000	Y_WP:	0.000	Y_WP:	0.500	X:	0.099	Y:	0.096	Z:	0.399	yaw:	33.174	yaw rate:	0.834	Roll:	4.385	Pitch:	0.645	Yaw:	49.429	Thrust:	21.032
Time:	3.469	Roll Set Point:	-0.234	Pitch Set Point:	-0.122	Yaw Set Point:	-0.579	X_WP:	0.000	Y_WP:	0.000	Y_WP:	0.500	X:	0.099	Y:	0.096	Z:	0.399	yaw:	33.155	yaw rate:	-1.906	Roll:	4.333	Pitch:	0.823	Yaw:	47.533	Thrust:	21.228
Time:	3.485	Roll Set Point:	-0.234	Pitch Set Point:	-0.122	Yaw Set Point:	-0.577	X_WP:	0.000	Y_WP:	0.000	Y_WP:	0.500	X:	0.099	Y:	0.096	Z:	0.399	yaw:	33.077	yaw rate:	-7.855	Roll:	4.367	Pitch:	0.980	Yaw:	46.430	Thrust:	21.766
Time:	3.500	Roll Set Point:	-0.234	Pitch Set Point:	-0.122	Yaw Set Point:	-0.579	X_WP:	0.000	Y_WP:	0.000	Y_WP:	0.500	X:	0.099	Y:	0.096	Z:	0.399	yaw:	33.179	yaw rate:	10.225	Roll:	4.397	Pitch:	0.681	Yaw:	49.602	Thrust:	21.534
Time:	3.516	Roll Set Point:	-0.234	Pitch Set Point:	-0.122	Yaw Set Point:	-0.577	X_WP:	0.000	Y_WP:	0.000	Y_WP:	0.500	X:	0.099	Y:	0.096	Z:	0.399	yaw:	33.074	yaw rate:	-10.528	Roll:	4.373	Pitch:	1.031	Yaw:	45.978	Thrust:	21.946
Time:	3.532	Roll Set Point:	-0.234	Pitch Set Point:	-0.121	Yaw Set Point:	-0.579	X_WP:	0.000	Y_WP:	0.000	Y_WP:	0.500	X:	0.099	Y:	0.096	Z:	0.399	yaw:	33.198	yaw rate:	12.430	Roll:	4.399	Pitch:	0.566	Yaw:	49.997	Thrust:	22.144
Time:	3.547	Roll Set Point:	-0.234	Pitch Set Point:	-0.121	Yaw Set Point:	-0.579	X_WP:	0.000	Y_WP:	0.000	Y_WP:	0.500	X:	0.099	Y:	0.096	Z:	0.399	yaw:	33.192	yaw rate:	-0.543	Roll:	4.382	Pitch:	0.843	Yaw:	47.817	Thrust:	22.245
Time:	3.563	Roll Set Point:	-0.234	Pitch Set Point:	-0.122	Yaw Set Point:	-0.577	X_WP:	0.000	Y_WP:	0.000	Y_WP:	0.500	X:	0.099	Y:	0.096	Z:	0.399	yaw:	33.055	yaw rate:	-13.778	Roll:	4.371	Pitch:	1.133	Yaw:	45.408	Thrust:	22.481
Time:	3.579	Roll Set Point:	-0.234	Pitch Set Point:	-0.122	Yaw Set Point:	-0.579	X_WP:	0.000	Y_WP:	0.000	Y_WP:	0.500	X:	0.099	Y:	0.096	Z:	0.399	yaw:	33.159	yaw rate:	10.427	Roll:	4.419	Pitch:	0.673	Yaw:	49.608	Thrust:	22.595
Time:	3.594	Roll Set Point:	-0.234	Pitch Set Point:	-0.122	Yaw Set Point:	-0.579	X_WP:	0.000	Y_WP:	0.000	Y_WP:	0.500	X:	0.099	Y:	0.096	Z:	0.399	yaw:	33.148	yaw rate:	-1.122	Roll:	4.382	Pitch:	0.819	Yaw:	47.663	Thrust:	22.826
Time:	3.610	Roll Set Point:	-0.234	Pitch Set Point:	-0.122	Yaw Set Point:	-0.578	X_WP:	0.000	Y_WP:	0.000	Y_WP:	0.500	X:	0.099	Y:	0.096	Z:	0.399	yaw:	33.105	yaw rate:	-4.229	Roll:	4.426	Pitch:	0.911	Yaw:	47.070	Thrust:	23.341
Time:	3.625	Roll Set Point:	-0.234	Pitch Set Point:	-0.122	Yaw Set Point:	-0.579	X_WP:	0.000	Y_WP:	0.000	Y_WP:	0.500	X:	0.099	Y:	0.096	Z:	0.399	yaw:	33.151	yaw rate:	4.587	Roll:	4.410	Pitch:	0.826	Yaw:	48.619	Thrust:	23.007
Time:	3.641	Roll Set Point:	-0.234	Pitch Set Point:	-0.122	Yaw Set Point:	-0.579	X_WP:	0.000	Y_WP:	0.000	Y_WP:	0.500	X:	0.099	Y:	0.096	Z:	0.399	yaw:	33.171	yaw rate:	1.947	Roll:	4.445	Pitch:	0.794	Yaw:	48.206	Thrust:	23.393
Time:	3.657	Roll Set Point:	-0.234	Pitch Set Point:	-0.122	Yaw Set Point:	-0.579	X_WP:	0.000	Y_WP:	0.000	Y_WP:	0.500	X:	0.099	Y:	0.096	Z:	0.399	yaw:	33.180	yaw rate:	0.927	Roll:	4.409	Pitch:	0.849	Yaw:	48.044	Thrust:	23.703
Time:	3.672	Roll Set Point:	-0.234	Pitch Set Point:	-0.122	Yaw Set Point:	-0.579	X_WP:	0.000	Y_WP:	0.000	Y_WP:	0.500	X:	0.099	Y:	0.096	Z:	0.399	yaw:	33.172	yaw rate:	-0.772	Roll:	4.436	Pitch:	0.839	Yaw:	47.751	Thrust:	23.824
Time:	3.688	Roll Set Point:	-0.234	Pitch Set Point:	-0.122	Yaw Set Point:	-0.579	X_WP:	0.000	Y_WP:	0.000	Y_WP:	0.500	X:	0.099	Y:	0.096	Z:	0.399	yaw:	33.152	yaw rate:	-2.022	Roll:	4.418	Pitch:	0.848	Yaw:	47.513	Thrust:	23.651
Time:	3.704	Roll Set Point:	-0.234	Pitch Set Point:	-0.122	Yaw Set Point:	-0.579	X_WP:	0.000	Y_WP:	0.000	Y_WP:	0.500	X:	0.099	Y:	0.096	Z:	0.399	yaw:	33.152	yaw rate:	-2.022	Roll:	4.441	Pitch:	0.850	Yaw:	47.852	Thrust:	24.181
Time:	3.719	Roll Set Point:	-0.234	Pitch Set Point:	-0.122	Yaw Set Point:	-0.579	X_WP:	0.000	Y_WP:	0.000	Y_WP:	0.500	X:	0.099	Y:	0.096	Z:	0.399	yaw:	33.151	yaw rate:	-0.571	Roll:	4.458	Pitch:	0.875	Yaw:	47.833	Thrust:	24.511
Time:	3.735	Roll Set Point:	-0.234	Pitch Set Point:	-0.122	Yaw Set Point:	-0.579	X_WP:	0.000	Y_WP:	0.000	Y_WP:	0.500	X:	0.099	Y:	0.096	Z:	0.399	yaw:	33.175	yaw rate:	2.349	Roll:	4.454	Pitch:	0.838	Yaw:	48.277	Thrust:	24.764
Time:	3.750	Roll Set Point:	-0.234	Pitch Set Point:	-0.122	Yaw Set Point:	-0.579	X_WP:	0.000	Y_WP:	0.000	Y_WP:	0.500	X:	0.099	Y:	0.096	Z:	0.399	yaw:	33.175	yaw rate:	2.349	Roll:	4.457	Pitch:	0.853	Yaw:	47.883	Thrust:	24.756
Time:	3.766	Roll Set Point:	-0.234	Pitch Set Point:	-0.122	Yaw Set Point:	-0.579	X_WP:	0.000	Y_WP:	0.000	Y_WP:	0.500	X:	0.099	Y:	0.096	Z:	0.399	yaw:	33.159	yaw rate:	0.266	Roll:	4.452	Pitch:	0.900	Yaw:	47.594	Thrust:	24.826
Time:	3.782	Roll Set Point:	-0.234	Pitch Set Point:	-0.122	Yaw Set Point:	-0.579	X_WP:	0.000	Y_WP:	0.000	Y_WP:	0.500	X:	0.099	Y:	0.096	Z:	0.399	yaw:	33.172	yaw rate:	1.314	Roll:	4.486	Pitch:	0.816	Yaw:	48.099	Thrust:	25.251
Time:	3.797	Roll Set Point:	-0.234	Pitch Set Point:	-0.122	Yaw Set Point:	-0.579	X_WP:	0.000	Y_WP:	0.000	Y_WP:	0.500	X:	0.099	Y:	0.096	Z:	0.399	yaw:	33.188	yaw rate:	1.613	Roll:	4.469	Pitch:	0.790	Yaw:	48.172	Thrust:	25.214
Time:	3.813	Roll Set Point:	-0.234	Pitch Set Point:	-0.122	Yaw Set Point:	-0.579	X_WP:	0.000	Y_WP:	0.000	Y_WP:	0.500	X:	0.099	Y:	0.096	Z:	0.399	yaw:	33.170	yaw rate:	-1.811	Roll:	4.472	Pitch:	0.876	Yaw:	47.573	Thrust:	25.530
Time:	3.829	Roll Set Point:	-0.234	Pitch Set Point:	-0.122	Yaw Set Point:	-0.578	X_WP:	0.000	Y_WP:	0.000	Y_WP:	0.500	X:	0.099	Y:	0.096	Z:	0.399	yaw:	33.096	yaw rate:	-7.376	Roll:	4.493	Pitch:	1.007	Yaw:	46.537	Thrust:	25.871
Time:	3.844	Roll Set Point:	-0.234	Pitch Set Point:	-0.122	Yaw Set Point:	-0.579	X_WP:	0.000	Y_WP:	0.000	Y_WP:	0.500	X:	0.099	Y:	0.096	Z:	0.399	yaw:	33.182	yaw rate:	8.633	Roll:	4.475	Pitch:	0.723	Yaw:	49.340	Thrust:	25.800
Time:	3.860	Roll Set Point:	-0.234	Pitch Set Point:	-0.122	Yaw Set Point:	-0.579	X_WP:	0.000	Y_WP:	0.000	Y_WP:	0.500	X:	0.099	Y:	0.096	Z:	0.399	yaw:	33.165	yaw rate:	-1.755	Roll:	4.506	Pitch:	0.897	Yaw:	47.576	Thrust:	26.100
Time:	3.875	Roll Set Point:	-0.234	Pitch Set Point:	-0.122	Yaw Set Point:	-0.578	X_WP:	0.000	Y_WP:	0.000	Y_WP:	0.500	X:	0.099	Y:	0.096	Z:	0.399	yaw:	33.124	yaw rate:	-4.109	Roll:	4.507	Pitch:	0.924	Yaw:	47.124	Thrust:	26.495
Time:	3.891	Roll Set Point:	-0.234	Pitch Set Point:	-0.122	Yaw Set Point:	-0.578	X_WP:	0.000	Y_WP:	0.000	Y_WP:	0.500	X:	0.099	Y:	0.096	Z:	0.399	yaw:	33.124	yaw rate:	-4.109	Roll:	4.505	Pitch:	0.864	Yaw:	47.812	Thrust:	26.468
Time:	3.907	Roll Set Point:	-0.234	Pitch Set Point:	-0.122	Yaw Set Point:	-0.579	X_WP:	0.000	Y_WP:	0.000	Y_WP:	0.500	X:	0.099	Y:	0.096	Z:	0.399	yaw:	33.156	yaw rate:	-0.849	Roll:	4.489	Pitch:	0.791	Yaw:	48.397	Thrust:	26.373
Time:	3.922	Roll Set Point:	-0.234	Pitch Set Point:	-0.122	Yaw Set Point:	-0.579	X_WP:	0.000	Y_WP:	0.000	Y_WP:	0.500	X:	0.099	Y:	0.096	Z:	0.399	yaw:	33.156	yaw rate:	-0.849	Roll:	4.509	Pitch:	0.864	Yaw:	47.857	Thrust:	26.842
Time:	3.938	Roll Set Point:	-0.234	Pitch Set Point:	-0.122	Yaw Set Point:	-0.578	X_WP:	0.000	Y_WP:	0.000	Y_WP:	0.500	X:	0.099	Y:	0.096	Z:	0.399	yaw:	33.127	yaw rate:	-2.894	Roll:	4.505	Pitch:	0.924	Yaw:	47.332	Thrust:	26.963
Time:	3.954	Roll Set Point:	-0.234	Pitch Set Point:	-0.122	Yaw Set Point:	-0.578	X_WP:	0.000	Y_WP:	0.000	Y_WP:	0.500	X:	0.099	Y:	0.096	Z:	0.399	yaw:	33.112	yaw rate:	3.581	Roll:	4.528	Pitch:	0.909	Yaw:	47.541	Thrust:	27.568
Time:	3.969	Roll Set Point:	-0.234	Pitch Set Point:	-0.122	Yaw Set Point:	-0.578	X_WP:	0.000	Y_WP:	0.000	Y_WP:	0.500	X:	0.099	Y:	0.096	Z:	0.399	yaw:	33.112	yaw rate:	3.581	Roll:	4.511	Pitch:	0.870	Yaw:	47.798	Thrust:	27.461
Time:	3.985	Roll Set Point:	-0.234	Pitch Set Point:	-0.122	Yaw Set Point:	-0.579	X_WP:	0.000	Y_WP:	0.000	Y_WP:	0.500	X:	0.099	Y:	0.096	Z:	0.399	yaw:	33.175	yaw rate:	6.342	Roll:	4.504	Pitch:	0.730	Yaw:	48.944	Thrust:	27.375
Time:	4.001	Roll Set Point:	-0.234	Pitch Set Point:	-0.122	Yaw Set Point:	-0.577	X_WP:	0.000	Y_WP:	0.000	Y_WP:	0.500	X:	0.099	Y:	0.096	Z:	0.399	yaw:	33.083	yaw rate:	-8.100	Roll:	4.520	Pitch:	1.026	Yaw:	46.225	Thrust:	27.978
Time:	4.016	Roll Set Point:	-0.234	Pitch Set Point:	-0.122	Yaw Set Point:	-0.579	X_WP:	0.000	Y_WP:	0.000	Y_WP:	0.500	X:	0.099	Y:	0.096	Z:	0.399	yaw:	33.146	yaw rate:	6.276	Roll:	4.493	Pitch:	0.811	Yaw:	48.895	Thrust:	27.828
Time:	4.032	Roll Set Point:	-0.234	Pitch Set Point:	-0.122	Yaw Set Point:	-0.579	X_WP:	0.000	Y_WP:	0.000	Y_WP:	0.500	X:	0.099	Y:	0.096	Z:	0.399	yaw:	33.146	yaw rate:	6.276	Roll:	4.508	Pitch:	0.873	Yaw:	47.841	Thrust:	28.142
Time:	4.047	Roll Set Point:	-0.234	Pitch Set Point:	-0.122	Yaw Set Point:	-0.579	X_WP:	0.000	Y_WP:	0.000	Y_WP:	0.500	X:	0.099	Y:	0.096	Z:	0.399	yaw:	33.148	yaw rate:	0.226	Roll:	4.486	Pitch:	0.828	Yaw:	47.884	Thrust:	28.230
Time:	4.063	Roll Set Point:	-0.234	Pitch Set Point:	-0.122	Yaw Set Point:	-0.579	X_WP:	0.000	Y_WP:	0.000	Y_WP:	0.500	X:	0.099	Y:	0.096	Z:	0.399	yaw:	33.148	yaw rate:	0.226	Roll:	4.508	Pitch:	0.874	Yaw:	47.846	Thrust:	28.547
Time:	4.079	Roll Set Point:	-0.234	Pitch Set Point:	-0.122	Yaw Set Point:	-0.578	X_WP:	0.000	Y_WP:	0.000	Y_WP:	0.500	X:	0.099	Y:	0.096	Z:	0.399	yaw:	33.144	yaw rate:	-0.417	Roll:	4.533	Pitch:	0.893	Yaw:	47.774	Thrust:	28.810
Time:	4.094	Roll Set Point:	-0.234	Pitch Set Point:	-0.122	Yaw Set Point:	-0.578	X_WP:	0.000	Y_WP:	0.000	Y_WP:	0.500	X:	0.099	Y:	0.096	Z:	0.399	yaw:	33.114	yaw rate:	4.873	Roll:	4.523	Pitch:	0.941	Yaw:	47.290	Thrust:	29.190
Time:	4.110	Roll Set Point:	-0.234	Pitch Set Point:	-0.122	Yaw Set Point:	-0.578	X_WP:	0.000	Y_WP:	0.000	Y_WP:	0.500	X:	0.099	Y:	0.096	Z:	0.399	yaw:	33.114	yaw rate:	4.873	Roll:	4.510	Pitch:	0.879	Yaw:	47.799	Thrust:	29.140
Time:	4.125	Roll Set Point:	-0.234	Pitch Set Point:	-0.122	Yaw Set Point:	-0.579	X_WP:	0.000	Y_WP:	0.000	Y_WP:	0.500	X:	0.099	Y:	0.096	Z:	0.399	yaw:	33.158	yaw rate:	4.352	Roll:	4.497	Pitch:	0.754	Yaw:	48.588	Thrust:	28.984
Time:	4.141	Roll Set Point:	-0.234	Pitch Set Point:	-0.122	Yaw Set Point:	-0.579	X_WP:	0.000	Y_WP:	0.000	Y_WP:	0.500	X:	0.099	Y:	0.096	Z:	0.399	yaw:	33.158	yaw rate:	4.352	Roll:	4.510	Pitch:	0.878	Yaw:	47.862	Thrust:	29.550
Time:	4.157	Roll Set Point:	-0.234	Pitch Set Point:	-0.122	Yaw Set Point:	-0.578	X_WP:	0.000	Y_WP:	0.000	Y_WP:	0.500	X:	0.099	Y:	0.096	Z:	0.399	yaw:	33.132	yaw rate:	1.994	Roll:	4.499	Pitch:	0.977	Yaw:	47.397	Thrust:	29.745
Time:	4.172	Roll Set Point:	-0.234	Pitch Set Point:	-0.122	Yaw Set Point:	-0.578	X_WP:	0.000	Y_WP:	0.000	Y_WP:	0.500	X:	0.099	Y:	0.096	Z:	0.399	yaw:	33.132	yaw rate:	1.994	Roll:	4.509	Pitch:	0.882	Yaw:	47.823	Thrust:	29.876
Time:	4.188	Roll Set Point:	-0.234	Pitch Set Point:	-0.122	Yaw Set Point:	-0.579	X_WP:	0.000	Y_WP:	0.000	Y_WP:	0.500	X:	0.099	Y:	0.096	Z:	0.399	yaw:	33.155	yaw rate:	1.682	Roll:	4.530	Pitch:	0.805	Yaw:	48.242	Thrust:	29.981
Time:	4.204	Roll Set Point:	-0.234	Pitch Set Point:	-0.121	Yaw Set Point:	-0.578	X_WP:	0.000	Y_WP:	0.000	Y_WP:	0.500	X:	0.099	Y:	0.096	Z:	0.399	yaw:	33.140	yaw rate:	-1.486	Roll:	4.492	Pitch:	0.874	Yaw:	47.590	Thrust:	30.223
Time:	4.218	Roll Set Point:	-0.234	Pitch Set Point:	-0.121	Yaw Set Point:	-0.579	X_WP:	0.000	Y_WP:	0.000	Y_WP:	0.500	X:	0.099	Y:	0.096	Z:	0.399	yaw:	33.174	yaw rate:	3.363	Roll:	4.495	Pitch:	0.832	Yaw:	48.389	Thrust:	29.150
Time:	4.234	Roll Set Point:	-0.234	Pitch Set Point:	-0.121	Yaw Set Point:	-0.579	X_WP:	0.000	Y_WP:	0.000	Y_WP:	0.500	X:	0.099	Y:	0.096	Z:	0.399	yaw:	33.174	yaw rate:	3.363	Roll:	4.510	Pitch:	0.883	Yaw:	47.882	Thrust:	30.647
Time:	4.250	Roll Set Point:	-0.234	Pitch Set Point:	-0.121	Yaw Set Point:	-0.579	X_WP:	0.000	Y_WP:	0.000	Y_WP:	0.500	X:	0.099	Y:	0.096	Z:	0.399	yaw:	33.163	yaw rate:	5.790	Roll:	4.503	Pitch:	0.895	Yaw:	47.693	Thrust:	30.695
Time:	4.265	Roll Set Point:	-0.234	Pitch Set Point:	-0.122	Yaw Set Point:	-0.578	X_WP:	0.000	Y_WP:	0.000	Y_WP:	0.500	X:	0.099	Y:	0.096	Z:	0.399	yaw:	33.103	yaw rate:	-6.053	Roll:	4.513	Pitch:	1.022	Yaw:	46.764	Thrust:	31.445
Time:	4.281	Roll Set Point:	-0.234	Pitch Set Point:	-0.122	Yaw Set Point:	-0.579	X_WP:	0.000	Y_WP:	0.000	Y_WP:	0.500	X:	0.099	Y:	0.096	Z:	0.399	yaw:	33.190	yaw rate:	8.741	Roll:	4.532	Pitch:	0.727	Yaw:	49.369	Thrust:	31.009
Time:	4.297	Roll Set Point:	-0.234	Pitch Set Point:	-0.122	Yaw Set Point:	-0.579	X_WP:	0.000	Y_WP:	0.000	Y_WP:	0.500	X:	0.099	Y:	0.096	Z:	0.399	yaw:	33.162	yaw rate:	-2.815	Roll:	4.488	Pitch:	0.971	Yaw:	47.394	Thrust:	31.314
Time:	4.312	Roll Set Point:	-0.234	Pitch Set Point:	-0.122	Yaw Set Point:	-0.579	X_WP:	0.000	Y_WP:	0.000	Y_WP:	0.500	X:	0.099	Y:	0.096	Z:	0.399	yaw:	33.178	yaw rate:	1.551	Roll:	4.515	Pitch:	0.837	Yaw:	48.147	Thrust:	31.525
Time:	4.328	Roll Set Point:	-0.234	Pitch Set Point:	-0.122	Yaw Set Point:	-0.579	X_WP:	0.000	Y_WP:	0.000	Y_WP:	0.500	X:	0.099	Y:	0.096	Z:	0.399	yaw:	33.178	yaw rate:	1.551	Roll:	4.510	Pitch:	0.889	Yaw:	47.888	Thrust:	31.792
Time:	4.343	Roll Set Point:	-0.234	Pitch Set Point:	-0.122	Yaw Set Point:	-0.579	X_WP:	0.000	Y_WP:	0.000	Y_WP:	0.500	X:	0.099	Y:	0.096	Z:	0.399	yaw:	33.176	yaw rate:	7.781	Roll:	4.525	Pitch:	0.894	Yaw:	47.858	Thrust:	32.040
Time:	4.359	Roll Set Point:	-0.234	Pitch Set Point:	-0.122	Yaw Set Point:	-0.579	X_WP:	0.000	Y_WP:	0.000	Y_WP:	0.500	X:	0.099	Y:	0.096	Z:	0.399	yaw:	33.152	yaw rate:	-2.411	Roll:	4.491	Pitch:	0.964	Yaw:	47.447	Thrust:	32.092
Time:	4.375	Roll Set Point:	-0.234	Pitch Set Point:	-0.122	Yaw Set Point:	-0.579	X_WP:	0.000	Y_WP:	0.000	Y_WP:	0.500	X:	0.099	Y:	0.096	Z:	0.399	yaw:	33.152	yaw rate:	-2.411	Roll:	4.509	Pitch:	0.894	Yaw:	47.851	Thrust:	32.343
Time:	4.390	Roll Set Point:	-0.234	Pitch Set Point:	-0.121	Yaw Set Point:	-0.579	X_WP:	0.000	Y_WP:	0.000	Y_WP:	0.500	X:	0.099	Y:	0.096	Z:	0.399	yaw:	33.173	yaw rate:	2.052	Roll:	4.522	Pitch:	0.804	Yaw:	48.240	Thrust:	32.559
Time:	4.406	Roll Set Point:	-0.234	Pitch Set Point:	-0.122	Yaw Set Point:	-0.578	X_WP:	0.000	Y_WP:	0.000	Y_WP:	0.500	X:	0.099	Y:	0.096	Z:	0.399	yaw:	33.091	yaw rate:	-8.203	Roll:	4.494	Pitch:	1.089	Yaw:	46.392	Thrust:	33.033
Time:	4.422	Roll Set Point:	-0.234	Pitch Set Point:	-0.122	Yaw Set Point:	-0.578	X_WP:	0.000	Y_WP:	0.000	Y_WP:	0.500	X:	0.099	Y:	0.096	Z:	0.399	yaw:	33.091	yaw rate:	-8.203	Roll:	4.509	Pitch:	0.900	Yaw:	47.767	Thrust:	32.928
Time:	4.437	Roll Set Point:	-0.234	Pitch Set Point:	-0.122	Yaw Set Point:	-0.579	X_WP:	0.000	Y_WP:	0.000	Y_WP:	0.500	X:	0.099	Y:	0.096	Z:	0.399	yaw:	33.200	yaw rate:	9.311	Roll:	4.526	Pitch:	0.712	Yaw:	49.735	Thrust:	33.029
Time:	4.453	Roll Set Point:	-0.234	Pitch Set Point:	-0.122	Yaw Set Point:	-0.579	X_WP:	0.000	Y_WP:	0.000	Y_WP:	0.500	X:	0.099	Y:	0.096	Z:	0.399	yaw:	33.153	yaw rate:	-4.627	Roll:	4.495	Pitch:	0.943	Yaw:	47.078	Thrust:	33.162
Time:	4.468	Roll Set Point:	-0.234	Pitch Set Point:	-0.122	Yaw Set Point:	-0.579	X_WP:	0.000	Y_WP:	0.000	Y_WP:	0.500	X:	0.099	Y:	0.096	Z:	0.399	yaw:	33.171	yaw rate:	1.734	Roll:	4.517	Pitch:	0.902	Yaw:	48.168	Thrust:	33.551
Time:	4.484	Roll Set Point:	-0.234	Pitch Set Point:	-0.122	Yaw Set Point:	-0.579	X_WP:	0.000	Y_WP:	0.000	Y_WP:	0.500	X:	0.099	Y:	0.096	Z:	0.399	yaw:	33.171	yaw rate:	1.734	Roll:	4.510	Pitch:	0.901	Yaw:	47.878	Thrust:	33.685
Time:	4.500	Roll Set Point:	-0.234	Pitch Set Point:	-0.122	Yaw Set Point:	-0.578	X_WP:	0.000	Y_WP:	0.000	Y_WP:	0.500	X:	0.099	Y:	0.096	Z:	0.399	yaw:	33.118	yaw rate:	-5.687	Roll:	4.519	Pitch:	1.010	Yaw:	46.916	Thrust:	34.056
Time:	4.515	Roll Set Point:	-0.234	Pitch Set Point:	-0.122	Yaw Set Point:	-0.578	X_WP:	0.000	Y_WP:	0.000	Y_WP:	0.500	X:	0.099	Y:	0.096	Z:	0.399	yaw:	33.118	yaw rate:	-5.687	Roll:	4.510	Pitch:	0.905	Yaw:	47.804	Thrust:	34.067
Time:	4.531	Roll Set Point:	-0.234	Pitch Set Point:	-0.122	Yaw Set Point:	-0.578	X_WP:	0.000	Y_WP:	0.000	Y_WP:	0.500	X:	0.099	Y:	0.096	Z:	0.399	yaw:	33.138	yaw rate:	1.973	Roll:	4.467	Pitch:	0.808	Yaw:	48.162	Thrust:	33.837
Time:	4.547	Roll Set Point:	-0.234	Pitch Set Point:	-0.122	Yaw Set Point:	-0.579	X_WP:	0.000	Y_WP:	0.000	Y_WP:	0.500	X:	0.099	Y:	0.096	Z:	0.399	yaw:	33.149	yaw rate:	-2.806	Roll:	4.504	Pitch:	0.931	Yaw:	48.034	Thrust:	34.592
Time:	4.562	Roll Set Point:	-0.234	Pitch Set Point:	-0.122	Yaw Set Point:	-0.579	X_WP:	0.000	Y_WP:	0.000	Y_WP:	0.500	X:	0.099	Y:	0.096	Z:	0.399	yaw:	33.148	yaw rate:	-0.110	Roll:	4.531	Pitch:	0.920	Yaw:	47.827	Thrust:	34.553
Time:	4.578	Roll Set Point:	-0.234	Pitch Set Point:	-0.122	Yaw Set Point:	-0.578	X_WP:	0.000	Y_WP:	0.000	Y_WP:	0.500	X:	0.099	Y:	0.096	Z:	0.399	yaw:	33.092	yaw rate:	-5.575	Roll:	4.511	Pitch:	1.006	Yaw:	46.834	Thrust:	35.121
Time:	4.593	Roll Set Point:	-0.234	Pitch Set Point:	-0.122	Yaw Set Point:	-0.579	X_WP:	0.000	Y_WP:	0.000	Y_WP:	0.500	X:	0.099	Y:	0.096	Z:	0.399	yaw:	33.202	yaw rate:	11.001	Roll:	4.533	Pitch:	0.705	Yaw:	49.764	Thrust:	35.014
Time:	4.609	Roll Set Point:	-0.234	Pitch Set Point:	-0.122	Yaw Set Point:	-0.579	X_WP:	0.000	Y_WP:	0.000	Y_WP:	0.500	X:	0.099	Y:	0.096	Z:	0.399	yaw:	33.171	yaw rate:	-3.083	Roll:	4.477	Pitch:	0.950	Yaw:	47.362	Thrust:	35.133
Time:	4.625	Roll Set Point:	-0.234	Pitch Set Point:	-0.122	Yaw Set Point:	-0.579	X_WP:	0.000	Y_WP:	0.000	Y_WP:	0.500	X:	0.099	Y:	0.096	Z:	0.399	yaw:	33.171	yaw rate:	-3.083	Roll:	4.509	Pitch:	0.909	Yaw:	47.878	Thrust:	35.394
Time:	4.640	Roll Set Point:	-0.234	Pitch Set Point:	-0.122	Yaw Set Point:	-0.578	X_WP:	0.000	Y_WP:	0.000	Y_WP:	0.500	X:	0.099	Y:	0.096	Z:	0.399	yaw:	33.102	yaw rate:	-5.911	Roll:	4.515	Pitch:	1.082	Yaw:	46.633	Thrust:	35.778
Time:	4.656	Roll Set Point:	-0.234	Pitch Set Point:	-0.122	Yaw Set Point:	-0.579	X_WP:	0.000	Y_WP:	0.000	Y_WP:	0.500	X:	0.099	Y:	0.096	Z:	0.399	yaw:	33.169	yaw rate:	6.678	Roll:	4.528	Pitch:	0.783	Yaw:	48.994	Thrust:	35.471
Time:	4.672	Roll Set Point:	-0.234	Pitch Set Point:	-0.122	Yaw Set Point:	-0.579	X_WP:	0.000	Y_WP:	0.000	Y_WP:	0.500	X:	0.099	Y:	0.096	Z:	0.399	yaw:	33.169	yaw rate:	0.020	Roll:	4.486	Pitch:	0.884	Yaw:	47.879	Thrust:	36.061
Time:	4.687	Roll Set Point:	-0.234	Pitch Set Point:	-0.122	Yaw Set Point:	-0.579	X_WP:	0.000	Y_WP:	0.000	Y_WP:	0.500	X:	0.099	Y:	0.096	Z:	0.399	yaw:	33.162	yaw rate:	-0.711	Roll:	4.509	Pitch:	0.909	Yaw:	47.747	Thrust:	36.088
Time:	4.703	Roll Set Point:	-0.234	Pitch Set Point:	-0.122	Yaw Set Point:	-0.579	X_WP:	0.000	Y_WP:	0.000	Y_WP:	0.500	X:	0.099	Y:	0.096	Z:	0.399	yaw:	33.162	yaw rate:	-0.711	Roll:	4.509	Pitch:	0.914	Yaw:	47.866	Thrust:	36.352
Time:	4.718	Roll Set Point:	-0.234	Pitch Set Point:	-0.122	Yaw Set Point:	-0.579	X_WP:	0.000	Y_WP:	0.000	Y_WP:	0.500	X:	0.099	Y:	0.096	Z:	0.399	yaw:	33.183	yaw rate:	2.098	Roll:	4.513	Pitch:	0.933	Yaw:	48.247	Thrust:	36.659
Time:	4.734	Roll Set Point:	-0.234	Pitch Set Point:	-0.122	Yaw Set Point:	-0.579	X_WP:	0.000	Y_WP:	0.000	Y_WP:	0.500	X:	0.099	Y:	0.096	Z:	0.399	yaw:	33.183	yaw rate:	2.098	Roll:	4.509	Pitch:	0.917	Yaw:	47.894	Thrust:	36.708
Time:	4.750	Roll Set Point:	-0.234	Pitch Set Point:	-0.122	Yaw Set Point:	-0.578	X_WP:	0.000	Y_WP:	0.000	Y_WP:	0.500	X:	0.099	Y:	0.096	Z:	0.399	yaw:	33.100	yaw rate:	-8.275	Roll:	4.528	Pitch:	1.030	Yaw:	46.393	Thrust:	37.037
Time:	4.765	Roll Set Point:	-0.234	Pitch Set Point:	-0.122	Yaw Set Point:	-0.579	X_WP:	0.000	Y_WP:	0.000	Y_WP:	0.500	X:	0.099	Y:	0.096	Z:	0.399	yaw:	33.182	yaw rate:	0.152	Roll:	4.498	Pitch:	0.779	Yaw:	49.250	Thrust:	36.950
Time:	4.781	Roll Set Point:	-0.234	Pitch Set Point:	-0.122	Yaw Set Point:	-0.579	X_WP:	0.000	Y_WP:	0.000	Y_WP:	0.500	X:	0.099	Y:	0.096	Z:	0.399	yaw:	33.182	yaw rate:	0.152	Roll:	4.509	Pitch:	0.919	Yaw:	47.893	Thrust:	37.294
Time:	4.797	Roll Set Point:	-0.234	Pitch Set Point:	-0.122	Yaw Set Point:	-0.579	X_WP:	0.000	Y_WP:	0.000	Y_WP:	0.500	X:	0.099	Y:	0.096	Z:	0.399	yaw:	33.175	yaw rate:	-0.161	Roll:	4.523	Pitch:	0.958	Yaw:	47.769	Thrust:	37.475
Time:	4.812	Roll Set Point:	-0.234	Pitch Set Point:	-0.122	Yaw Set Point:	-0.579	X_WP:	0.000	Y_WP:	0.000	Y_WP:	0.500	X:	0.099	Y:	0.096	Z:	0.399	yaw:	33.175	yaw rate:	-0.161	Roll:	4.510	Pitch:	0.922	Yaw:	47.883	Thrust:	37.673
Time:	4.828	Roll Set Point:	-0.234	Pitch Set Point:	-0.122	Yaw Set Point:	-0.579	X_WP:	0.000	Y_WP:	0.000	Y_WP:	0.500	X:	0.099	Y:	0.096	Z:	0.399	yaw:	33.173	yaw rate:	-0.136	Roll:	4.489	Pitch:	0.909	Yaw:	47.859	Thrust:	37.798
Time:	4.843	Roll Set Point:	-0.234	Pitch Set Point:	-0.122	Yaw Set Point:	-0.579	X_WP:	0.000	Y_WP:	0.000	Y_WP:	0.500	X:	0.099	Y:	0.096	Z:	0.399	yaw:	33.173	yaw rate:	1.655	Roll:	4.517	Pitch:	0.913	Yaw:	47.871	Thrust:	38.047
Time:	4.859	Roll Set Point:	-0.234	Pitch Set Point:	-0.122	Yaw Set Point:	-0.579	X_WP:	0.000	Y_WP:	0.000	Y_WP:	0.500	X:	0.099	Y:	0.096	Z:	0.399	yaw:	33.173	yaw rate:	1.655	Roll:	4.509	Pitch:	0.925	Yaw:	47.881	Thrust:	38.249
Time:	4.875	Roll Set Point:	-0.234	Pitch Set Point:	-0.122	Yaw Set Point:	-0.579	X_WP:	0.000	Y_WP:	0.000	Y_WP:	0.500	X:	0.099	Y:	0.096	Z:	0.399	yaw:	33.163	yaw rate:	-0.343	Roll:	4.510	Pitch:	0.919	Yaw:	47.711	Thrust:	38.369
Time:	4.890	Roll Set Point:	-0.234	Pitch Set Point:	-0.122	Yaw Set Point:	-0.578	X_WP:	0.000	Y_WP:	0.000	Y_WP:	0.500	X:	0.099	Y:	0.096	Z:	0.399	yaw:	33.112	yaw rate:	-5.135	Roll:	4.505	Pitch:	1.047	Yaw:	46.936	Thrust:	38.926
Time:	4.906	Roll Set Point:	-0.234	Pitch Set Point:	-0.122	Yaw Set Point:	-0.578	X_WP:	0.000	Y_WP:	0.000	Y_WP:	0.500	X:	0.099	Y:	0.096	Z:	0.399	yaw:	33.112	yaw rate:	-5.135	Roll:	4.509	Pitch:	0.930	Yaw:	47.796	Thrust:	38.817
Time:	4.922	Roll Set Point:	-0.234	Pitch Set Point:	-0.122	Yaw Set Point:	-0.579	X_WP:	0.000	Y_WP:	0.000	Y_WP:	0.500	X:	0.099	Y:	0.096	Z:	0.399	yaw:	33.161	yaw rate:	4.908	Roll:	4.512	Pitch:	0.892	Yaw:	48.687	Thrust:	38.810
Time:	4.937	Roll Set Point:	-0.234	Pitch Set Point:	-0.122	Yaw Set Point:	-0.579	X_WP:	0.000	Y_WP:	0.000	Y_WP:	0.500	X:	0.099	Y:	0.096	Z:	0.399	yaw:	33.161	yaw rate:	4.908	Roll:	4.509	Pitch:	0.932	Yaw:	47.864	Thrust:	39.195
Time:	4.953	Roll Set Point:	-0.234	Pitch Set Point:	-0.122	Yaw Set Point:	-0.579	X_WP:	0.000	Y_WP:	0.000	Y_WP:	0.500	X:	0.099	Y:	0.096	Z:	0.399	yaw:	33.146	yaw rate:	-1.474	Roll:	4.491	Pitch:	0.910	Yaw:	47.597	Thrust:	39.285
Time:	4.968	Roll Set Point:	-0.234	Pitch Set Point:	-0.122	Yaw Set Point:	-0.579	X_WP:	0.000	Y_WP:	0.000	Y_WP:	0.500	X:	0.099	Y:	0.096	Z:	0.399	yaw:	33.182	yaw rate:	0.004	Roll:	4.533	Pitch:	0.840	Yaw:	48.484	Thrust:	39.660
Time:	4.984	Roll Set Point:	-0.234	Pitch Set Point:	-0.122	Yaw Set Point:	-0.578	X_WP:	0.000	Y_WP:	0.000	Y_WP:	0.500	X:	0.099	Y:	0.096	Z:	0.399	yaw:	33.102	yaw rate:	-7.940	Roll:	4.515	Pitch:	1.109	Yaw:	46.452	Thrust:	39.897
Time:	5.000	Roll Set Point:	-0.234	Pitch Set Point:	-0.122	Yaw Set Point:	-0.578	X_WP:	0.000	Y_WP:	0.000	Y_WP:	0.500	X:	0.099	Y:	0.096	Z:	0.399	yaw:	33.123	yaw rate:	2.051	Roll:	4.535	Pitch:	0.868	Yaw:	48.154	Thrust:	40.012
Time:	5.015	Roll Set Point:	-0.234	Pitch Set Point:	-0.122	Yaw Set Point:	-0.578	X_WP:	0.000	Y_WP:	0.000	Y_WP:	0.500	X:	0.099	Y:	0.096	Z:	0.399	yaw:	33.123	yaw rate:	2.051	Roll:	4.510	Pitch:	0.936	Yaw:	47.811	Thrust:	40.147
Time:	5.031	Roll Set Point:	-0.234	Pitch Set Point:	-0.122	Yaw Set Point:	-0.579	X_WP:	0.000	Y_WP:	0.000	Y_WP:	0.500	X:	0.099	Y:	0.096	Z:	0.399	yaw:	33.190	yaw rate:	6.675	Roll:	4.473	Pitch:	0.830	Yaw:	49.022	Thrust:	40.183
Time:	5.047	Roll Set Point:	-0.234	Pitch Set Point:	-0.122	Yaw Set Point:	-0.579	X_WP:	0.000	Y_WP:	0.000	Y_WP:	0.500	X:	0.099	Y:	0.096	Z:	0.399	yaw:	33.155	yaw rate:	-1.213	Roll:	4.510	Pitch:	1.017	Yaw:	47.273	Thrust:	40.324
Time:	5.062	Roll Set Point:	-0.234	Pitch Set Point:	-0.122	Yaw Set Point:	-0.579	X_WP:	0.000	Y_WP:	0.000	Y_WP:	0.500	X:	0.099	Y:	0.096	Z:	0.399	yaw:	33.155	yaw rate:	-1.213	Roll:	4.509	Pitch:	0.939	Yaw:	47.855	Thrust:	40.708
Time:	5.078	Roll Set Point:	-0.234	Pitch Set Point:	-0.122	Yaw Set Point:	-0.579	X_WP:	0.000	Y_WP:	0.000	Y_WP:	0.500	X:	0.099	Y:	0.096	Z:	0.399	yaw:	33.169	yaw rate:	2.811	Roll:	4.506	Pitch:	0.904	Yaw:	48.105	Thrust:	40.998
Time:	5.093	Roll Set Point:	-0.234	Pitch Set Point:	-0.121	Yaw Set Point:	-0.579	X_WP:	0.000	Y_WP:	0.000	Y_WP:	0.500	X:	0.099	Y:	0.096	Z:	0.399	yaw:	33.180	yaw rate:	1.141	Roll:	4.523	Pitch:	0.861	Yaw:	48.082	Thrust:	40.991
Time:	5.109	Roll Set Point:	-0.234	Pitch Set Point:	-0.121	Yaw Set Point:	-0.579	X_WP:	0.000	Y_WP:	0.000	Y_WP:	0.500	X:	0.099	Y:	0.096	Z:	0.399	yaw:	33.180	yaw rate:	1.141	Roll:	4.510	Pitch:	0.939	Yaw:	47.891	Thrust:	41.281
Time:	5.125	Roll Set Point:	-0.234	Pitch Set Point:	-0.122	Yaw Set Point:	-0.579	X_WP:	0.000	Y_WP:	0.000	Y_WP:	0.500	X:	0.099	Y:	0.096	Z:	0.399	yaw:	33.178	yaw rate:	0.010	Roll:	4.532	Pitch:	0.991	Yaw:	47.852	Thrust:	41.525
Time:	5.140	Roll Set Point:	-0.234	Pitch Set Point:	-0.122	Yaw Set Point:	-0.579	X_WP:	0.000	Y_WP:	0.000	Y_WP:	0.500	X:	0.099	Y:	0.096	Z:	0.399	yaw:	33.178	yaw rate:	0.010	Roll:	4.510	Pitch:	0.942	Yaw:	47.888	Thrust:	41.661
Time:	5.156	Roll Set Point:	-0.234	Pitch Set Point:	-0.122	Yaw Set Point:	-0.579	X_WP:	0.000	Y_WP:	0.000	Y_WP:	0.500	X:	0.099	Y:	0.096	Z:	0.399	yaw:	33.185	yaw rate:	1.389	Roll:	4.486	Pitch:	0.930	Yaw:	48.018	Thrust:	41.952
Time:	5.172	Roll Set Point:	-0.234	Pitch Set Point:	-0.122	Yaw Set Point:	-0.579	X_WP:	0.000	Y_WP:	0.000	Y_WP:	0.500	X:	0.099	Y:	0.096	Z:	0.399	yaw:	33.166	yaw rate:	-1.915	Roll:	4.508	Pitch:	0.979	Yaw:	47.550	Thrust:	41.972
Time:	5.187	Roll Set Point:	-0.234	Pitch Set Point:	-0.122	Yaw Set Point:	-0.579	X_WP:	0.000	Y_WP:	0.000	Y_WP:	0.500	X:	0.099	Y:	0.096	Z:	0.399	yaw:	33.170	yaw rate:	0.388	Roll:	4.506	Pitch:	0.961	Yaw:	47.941	Thrust:	42.220
Time:	5.203	Roll Set Point:	-0.234	Pitch Set Point:	-0.122	Yaw Set Point:	-0.579	X_WP:	0.000	Y_WP:	0.000	Y_WP:	0.500	X:	0.099	Y:	0.096	Z:	0.399	yaw:	33.159	yaw rate:	-1.084	Roll:	4.500	Pitch:	0.987	Yaw:	47.680	Thrust:	42.509
Time:	5.235	Roll Set Point:	-0.234	Pitch Set Point:	-0.122	Yaw Set Point:	-0.578	X_WP:	0.000	Y_WP:	0.000	Y_WP:	0.500	X:	0.099	Y:	0.096	Z:	0.399	yaw:	33.124	yaw rate:	-3.536	Roll:	5.099	Pitch:	1.177	Yaw:	49.134	Thrust:	80.830
Time:	5.250	Roll Set Point:	-0.234	Pitch Set Point:	-0.122	Yaw Set Point:	-0.579	X_WP:	0.000	Y_WP:	0.000	Y_WP:	0.500	X:	0.099	Y:	0.096	Z:	0.399	yaw:	33.158	yaw rate:	-0.561	Roll:	4.528	Pitch:	0.861	Yaw:	48.430	Thrust:	42.823
Time:	5.266	Roll Set Point:	-0.235	Pitch Set Point:	-0.122	Yaw Set Point:	-0.577	X_WP:	0.000	Y_WP:	0.000	Y_WP:	0.500	X:	0.099	Y:	0.096	Z:	0.399	yaw:	33.054	yaw rate:	-10.374	Roll:	4.536	Pitch:	1.105	Yaw:	45.977	Thrust:	43.125
Time:	5.282	Roll Set Point:	-0.234	Pitch Set Point:	-0.122	Yaw Set Point:	-0.579	X_WP:	0.000	Y_WP:	0.000	Y_WP:	0.500	X:	0.099	Y:	0.096	Z:	0.399	yaw:	33.162	yaw rate:	10.769	Roll:	4.506	Pitch:	0.813	Yaw:	49.669	Thrust:	43.059
Time:	5.297	Roll Set Point:	-0.234	Pitch Set Point:	-0.121	Yaw Set Point:	-0.579	X_WP:	0.000	Y_WP:	0.000	Y_WP:	0.500	X:	0.099	Y:	0.096	Z:	0.399	yaw:	33.164	yaw rate:	0.258	Roll:	4.499	Pitch:	0.895	Yaw:	47.911	Thrust:	43.263
Time:	5.313	Roll Set Point:	-0.234	Pitch Set Point:	-0.122	Yaw Set Point:	-0.579	X_WP:	0.000	Y_WP:	0.000	Y_WP:	0.500	X:	0.099	Y:	0.096	Z:	0.399	yaw:	33.179	yaw rate:	1.495	Roll:	4.533	Pitch:	0.979	Yaw:	48.140	Thrust:	43.725
Time:	5.328	Roll Set Point:	-0.234	Pitch Set Point:	-0.122	Yaw Set Point:	-0.579	X_WP:	0.000	Y_WP:	0.000	Y_WP:	0.500	X:	0.099	Y:	0.096	Z:	0.399	yaw:	33.160	yaw rate:	-1.935	Roll:	4.508	Pitch:	0.959	Yaw:	47.539	Thrust:	43.652
Time:	5.344	Roll Set Point:	-0.234	Pitch Set Point:	-0.122	Yaw Set Point:	-0.579	X_WP:	0.000	Y_WP:	0.000	Y_WP:	0.500	X:	0.099	Y:	0.096	Z:	0.399	yaw:	33.154	yaw rate:	-0.611	Roll:	4.510	Pitch:	0.954	Yaw:	47.751	Thrust:	43.948
Time:	5.360	Roll Set Point:	-0.234	Pitch Set Point:	-0.122	Yaw Set Point:	-0.579	X_WP:	0.000	Y_WP:	0.000	Y_WP:	0.500	X:	0.099	Y:	0.096	Z:	0.399	yaw:	33.154	yaw rate:	-0.611	Roll:	4.510	Pitch:	0.956	Yaw:	47.854	Thrust:	44.130
Time:	5.375	Roll Set Point:	-0.234	Pitch Set Point:	-0.122	Yaw Set Point:	-0.579	X_WP:	0.000	Y_WP:	0.000	Y_WP:	0.500	X:	0.099	Y:	0.096	Z:	0.399	yaw:	33.175	yaw rate:	5.621	Roll:	4.514	Pitch:	0.943	Yaw:	48.238	Thrust:	44.441
Time:	5.391	Roll Set Point:	-0.234	Pitch Set Point:	-0.122	Yaw Set Point:	-0.579	X_WP:	0.000	Y_WP:	0.000	Y_WP:	0.500	X:	0.099	Y:	0.096	Z:	0.399	yaw:	33.152	yaw rate:	-2.273	Roll:	4.508	Pitch:	0.987	Yaw:	47.471	Thrust:	44.371
Time:	5.407	Roll Set Point:	-0.234	Pitch Set Point:	-0.122	Yaw Set Point:	-0.579	X_WP:	0.000	Y_WP:	0.000	Y_WP:	0.500	X:	0.099	Y:	0.096	Z:	0.399	yaw:	33.156	yaw rate:	0.368	Roll:	4.507	Pitch:	0.951	Yaw:	47.919	Thrust:	44.674
Time:	5.422	Roll Set Point:	-0.234	Pitch Set Point:	-0.121	Yaw Set Point:	-0.579	X_WP:	0.000	Y_WP:	0.000	Y_WP:	0.500	X:	0.099	Y:	0.096	Z:	0.399	yaw:	33.152	yaw rate:	-0.348	Roll:	4.481	Pitch:	0.910	Yaw:	47.793	Thrust:	44.831
Time:	5.438	Roll Set Point:	-0.234	Pitch Set Point:	-0.122	Yaw Set Point:	-0.579	X_WP:	0.000	Y_WP:	0.000	Y_WP:	0.500	X:	0.099	Y:	0.096	Z:	0.399	yaw:	33.161	yaw rate:	0.868	Roll:	4.528	Pitch:	1.008	Yaw:	48.010	Thrust:	45.182
Time:	5.453	Roll Set Point:	-0.234	Pitch Set Point:	-0.122	Yaw Set Point:	-0.579	X_WP:	0.000	Y_WP:	0.000	Y_WP:	0.500	X:	0.099	Y:	0.096	Z:	0.399	yaw:	33.183	yaw rate:	2.221	Roll:	4.539	Pitch:	0.925	Yaw:	48.267	Thrust:	45.283
Time:	5.469	Roll Set Point:	-0.234	Pitch Set Point:	-0.122	Yaw Set Point:	-0.579	X_WP:	0.000	Y_WP:	0.000	Y_WP:	0.500	X:	0.099	Y:	0.096	Z:	0.399	yaw:	33.183	yaw rate:	2.221	Roll:	4.510	Pitch:	0.962	Yaw:	47.895	Thrust:	45.459
Time:	5.485	Roll Set Point:	-0.235	Pitch Set Point:	-0.122	Yaw Set Point:	-0.578	X_WP:	0.000	Y_WP:	0.000	Y_WP:	0.500	X:	0.099	Y:	0.096	Z:	0.399	yaw:	33.093	yaw rate:	-9.066	Roll:	4.512	Pitch:	1.056	Yaw:	46.250	Thrust:	45.754
Time:	5.500	Roll Set Point:	-0.234	Pitch Set Point:	-0.121	Yaw Set Point:	-0.579	X_WP:	0.000	Y_WP:	0.000	Y_WP:	0.500	X:	0.099	Y:	0.096	Z:	0.399	yaw:	33.150	yaw rate:	-4.806	Roll:	4.478	Pitch:	0.890	Yaw:	48.815	Thrust:	45.690
Time:	5.516	Roll Set Point:	-0.234	Pitch Set Point:	-0.122	Yaw Set Point:	-0.577	X_WP:	0.000	Y_WP:	0.000	Y_WP:	0.500	X:	0.099	Y:	0.096	Z:	0.399	yaw:	33.057	yaw rate:	-9.270	Roll:	4.503	Pitch:	1.177	Yaw:	46.167	Thrust:	46.139
Time:	5.532	Roll Set Point:	-0.234	Pitch Set Point:	-0.122	Yaw Set Point:	-0.577	X_WP:	0.000	Y_WP:	0.000	Y_WP:	0.500	X:	0.099	Y:	0.096	Z:	0.399	yaw:	33.057	yaw rate:	-9.270	Roll:	4.509	Pitch:	0.972	Yaw:	47.720	Thrust:	46.220
Time:	5.547	Roll Set Point:	-0.234	Pitch Set Point:	-0.122	Yaw Set Point:	-0.579	X_WP:	0.000	Y_WP:	0.000	Y_WP:	0.500	X:	0.099	Y:	0.096	Z:	0.399	yaw:	33.160	yaw rate:	4.606	Roll:	4.501	Pitch:	0.766	Yaw:	49.580	Thrust:	46.373
Time:	5.563	Roll Set Point:	-0.234	Pitch Set Point:	-0.122	Yaw Set Point:	-0.579	X_WP:	0.000	Y_WP:	0.000	Y_WP:	0.500	X:	0.099	Y:	0.096	Z:	0.399	yaw:	33.151	yaw rate:	-0.908	Roll:	4.510	Pitch:	1.000	Yaw:	47.698	Thrust:	46.444
Time:	5.578	Roll Set Point:	-0.234	Pitch Set Point:	-0.122	Yaw Set Point:	-0.579	X_WP:	0.000	Y_WP:	0.000	Y_WP:	0.500	X:	0.099	Y:	0.096	Z:	0.399	yaw:	33.181	yaw rate:	2.982	Roll:	4.520	Pitch:	0.933	Yaw:	48.392	Thrust:	46.977
Time:	5.594	Roll Set Point:	-0.234	Pitch Set Point:	-0.122	Yaw Set Point:	-0.578	X_WP:	0.000	Y_WP:	0.000	Y_WP:	0.500	X:	0.099	Y:	0.096	Z:	0.399	yaw:	33.128	yaw rate:	-5.312	Roll:	4.493	Pitch:	1.010	Yaw:	46.927	Thrust:	46.705
Time:	5.610	Roll Set Point:	-0.234	Pitch Set Point:	-0.122	Yaw Set Point:	-0.578	X_WP:	0.000	Y_WP:	0.000	Y_WP:	0.500	X:	0.099	Y:	0.096	Z:	0.399	yaw:	33.128	yaw rate:	-5.312	Roll:	4.509	Pitch:	0.973	Yaw:	47.818	Thrust:	47.166
Time:	5.625	Roll Set Point:	-0.234	Pitch Set Point:	-0.122	Yaw Set Point:	-0.579	X_WP:	0.000	Y_WP:	0.000	Y_WP:	0.500	X:	0.099	Y:	0.096	Z:	0.399	yaw:	33.167	yaw rate:	3.985	Roll:	4.522	Pitch:	0.956	Yaw:	48.541	Thrust:	47.705
Time:	5.641	Roll Set Point:	-0.234	Pitch Set Point:	-0.122	Yaw Set Point:	-0.579	X_WP:	0.000	Y_WP:	0.000	Y_WP:	0.500	X:	0.099	Y:	0.096	Z:	0.399	yaw:	33.180	yaw rate:	1.290	Roll:	4.523	Pitch:	0.935	Yaw:	48.108	Thrust:	47.498
Time:	5.657	Roll Set Point:	-0.234	Pitch Set Point:	-0.122	Yaw Set Point:	-0.579	X_WP:	0.000	Y_WP:	0.000	Y_WP:	0.500	X:	0.099	Y:	0.096	Z:	0.399	yaw:	33.180	yaw rate:	1.290	Roll:	4.510	Pitch:	0.974	Yaw:	47.891	Thrust:	47.732
Time:	5.672	Roll Set Point:	-0.234	Pitch Set Point:	-0.122	Yaw Set Point:	-0.579	X_WP:	0.000	Y_WP:	0.000	Y_WP:	0.500	X:	0.099	Y:	0.096	Z:	0.399	yaw:	33.157	yaw rate:	0.056	Roll:	4.501	Pitch:	1.044	Yaw:	47.473	Thrust:	47.981
Time:	5.688	Roll Set Point:	-0.234	Pitch Set Point:	-0.122	Yaw Set Point:	-0.578	X_WP:	0.000	Y_WP:	0.000	Y_WP:	0.500	X:	0.099	Y:	0.096	Z:	0.399	yaw:	33.137	yaw rate:	-2.006	Roll:	4.485	Pitch:	0.983	Yaw:	47.495	Thrust:	47.958
Time:	5.703	Roll Set Point:	-0.234	Pitch Set Point:	-0.122	Yaw Set Point:	-0.578	X_WP:	0.000	Y_WP:	0.000	Y_WP:	0.500	X:	0.099	Y:	0.096	Z:	0.399	yaw:	33.137	yaw rate:	-2.006	Roll:	4.510	Pitch:	0.980	Yaw:	47.834	Thrust:	48.391
Time:	5.719	Roll Set Point:	-0.234	Pitch Set Point:	-0.122	Yaw Set Point:	-0.577	X_WP:	0.000	Y_WP:	0.000	Y_WP:	0.500	X:	0.099	Y:	0.096	Z:	0.399	yaw:	33.071	yaw rate:	-6.613	Roll:	4.532	Pitch:	1.077	Yaw:	46.626	Thrust:	48.530
Time:	5.735	Roll Set Point:	-0.234	Pitch Set Point:	-0.122	Yaw Set Point:	-0.578	X_WP:	0.000	Y_WP:	0.000	Y_WP:	0.500	X:	0.099	Y:	0.096	Z:	0.399	yaw:	33.138	yaw rate:	-4.628	Roll:	4.486	Pitch:	0.909	Yaw:	48.952	Thrust:	48.599
Time:	5.750	Roll Set Point:	-0.234	Pitch Set Point:	-0.122	Yaw Set Point:	-0.577	X_WP:	0.000	Y_WP:	0.000	Y_WP:	0.500	X:	0.099	Y:	0.096	Z:	0.399	yaw:	33.076	yaw rate:	-6.247	Roll:	4.532	Pitch:	1.057	Yaw:	46.698	Thrust:	49.099
Time:	5.766	Roll Set Point:	-0.234	Pitch Set Point:	-0.121	Yaw Set Point:	-0.579	X_WP:	0.000	Y_WP:	0.000	Y_WP:	0.500	X:	0.099	Y:	0.096	Z:	0.399	yaw:	33.186	yaw rate:	11.035	Roll:	4.522	Pitch:	0.774	Yaw:	49.748	Thrust:	48.837
Time:	5.782	Roll Set Point:	-0.234	Pitch Set Point:	-0.121	Yaw Set Point:	-0.579	X_WP:	0.000	Y_WP:	0.000	Y_WP:	0.500	X:	0.099	Y:	0.096	Z:	0.399	yaw:	33.186	yaw rate:	11.035	Roll:	4.510	Pitch:	0.981	Yaw:	47.899	Thrust:	49.255
Time:	5.797	Roll Set Point:	-0.234	Pitch Set Point:	-0.122	Yaw Set Point:	-0.577	X_WP:	0.000	Y_WP:	0.000	Y_WP:	0.500	X:	0.099	Y:	0.096	Z:	0.399	yaw:	33.085	yaw rate:	-10.081	Roll:	4.486	Pitch:	1.231	Yaw:	46.069	Thrust:	49.647
Time:	5.813	Roll Set Point:	-0.234	Pitch Set Point:	-0.122	Yaw Set Point:	-0.579	X_WP:	0.000	Y_WP:	0.000	Y_WP:	0.500	X:	0.099	Y:	0.096	Z:	0.399	yaw:	33.153	yaw rate:	-0.940	Roll:	4.524	Pitch:	0.854	Yaw:	48.997	Thrust:	49.528
Time:	5.828	Roll Set Point:	-0.234	Pitch Set Point:	-0.122	Yaw Set Point:	-0.579	X_WP:	0.000	Y_WP:	0.000	Y_WP:	0.500	X:	0.099	Y:	0.096	Z:	0.399	yaw:	33.153	yaw rate:	-0.940	Roll:	4.510	Pitch:	0.987	Yaw:	47.853	Thrust:	49.829
Time:	5.844	Roll Set Point:	-0.234	Pitch Set Point:	-0.122	Yaw Set Point:	-0.579	X_WP:	0.000	Y_WP:	0.000	Y_WP:	0.500	X:	0.099	Y:	0.096	Z:	0.399	yaw:	33.164	yaw rate:	1.077	Roll:	4.500	Pitch:	0.940	Yaw:	48.049	Thrust:	49.826
Time:	5.860	Roll Set Point:	-0.234	Pitch Set Point:	-0.122	Yaw Set Point:	-0.579	X_WP:	0.000	Y_WP:	0.000	Y_WP:	0.500	X:	0.099	Y:	0.096	Z:	0.399	yaw:	33.164	yaw rate:	1.077	Roll:	4.509	Pitch:	0.988	Yaw:	47.869	Thrust:	50.210
Time:	5.875	Roll Set Point:	-0.234	Pitch Set Point:	-0.122	Yaw Set Point:	-0.579	X_WP:	0.000	Y_WP:	0.000	Y_WP:	0.500	X:	0.099	Y:	0.096	Z:	0.399	yaw:	33.161	yaw rate:	-1.517	Roll:	4.500	Pitch:	1.016	Yaw:	47.815	Thrust:	50.617
Time:	5.891	Roll Set Point:	-0.234	Pitch Set Point:	-0.122	Yaw Set Point:	-0.579	X_WP:	0.000	Y_WP:	0.000	Y_WP:	0.500	X:	0.099	Y:	0.096	Z:	0.399	yaw:	33.161	yaw rate:	-1.517	Roll:	4.508	Pitch:	0.990	Yaw:	47.861	Thrust:	50.496
Time:	5.907	Roll Set Point:	-0.234	Pitch Set Point:	-0.122	Yaw Set Point:	-0.579	X_WP:	0.000	Y_WP:	0.000	Y_WP:	0.500	X:	0.099	Y:	0.096	Z:	0.399	yaw:	33.150	yaw rate:	1.245	Roll:	4.512	Pitch:	1.027	Yaw:	47.665	Thrust:	50.702
Time:	5.922	Roll Set Point:	-0.234	Pitch Set Point:	-0.122	Yaw Set Point:	-0.579	X_WP:	0.000	Y_WP:	0.000	Y_WP:	0.500	X:	0.099	Y:	0.096	Z:	0.399	yaw:	33.164	yaw rate:	1.400	Roll:	4.513	Pitch:	0.972	Yaw:	48.103	Thrust:	51.217
Time:	5.938	Roll Set Point:	-0.234	Pitch Set Point:	-0.122	Yaw Set Point:	-0.579	X_WP:	0.000	Y_WP:	0.000	Y_WP:	0.500	X:	0.099	Y:	0.096	Z:	0.399	yaw:	33.151	yaw rate:	-1.277	Roll:	4.520	Pitch:	1.001	Yaw:	47.636	Thrust:	51.105
Time:	5.953	Roll Set Point:	-0.234	Pitch Set Point:	-0.122	Yaw Set Point:	-0.579	X_WP:	0.000	Y_WP:	0.000	Y_WP:	0.500	X:	0.099	Y:	0.096	Z:	0.399	yaw:	33.146	yaw rate:	-0.521	Roll:	4.511	Pitch:	0.971	Yaw:	47.756	Thrust:	51.137
Time:	5.969	Roll Set Point:	-0.234	Pitch Set Point:	-0.122	Yaw Set Point:	-0.579	X_WP:	0.000	Y_WP:	0.000	Y_WP:	0.500	X:	0.099	Y:	0.096	Z:	0.399	yaw:	33.146	yaw rate:	-0.521	Roll:	4.510	Pitch:	0.996	Yaw:	47.844	Thrust:	51.565
Time:	5.985	Roll Set Point:	-0.234	Pitch Set Point:	-0.122	Yaw Set Point:	-0.578	X_WP:	0.000	Y_WP:	0.000	Y_WP:	0.500	X:	0.099	Y:	0.096	Z:	0.399	yaw:	33.132	yaw rate:	-1.416	Roll:	4.496	Pitch:	1.040	Yaw:	47.585	Thrust:	51.682
Time:	6.000	Roll Set Point:	-0.081	Pitch Set Point:	-0.036	Yaw Set Point:	-0.578	X_WP:	0.082	Y_WP:	0.156	Y_WP:	0.500	X:	0.099	Y:	0.096	Z:	0.399	yaw:	33.132	yaw rate:	-1.416	Roll:	-30.000	Pitch:	-30.000	Yaw:	47.824	Thrust:	51.919
Time:	6.016	Roll Set Point:	-0.081	Pitch Set Point:	-0.036	Yaw Set Point:	-0.579	X_WP:	0.082	Y_WP:	0.156	Y_WP:	0.500	X:	0.099	Y:	0.096	Z:	0.399	yaw:	33.176	yaw rate:	1.089	Roll:	0.015	Pitch:	-1.469	Yaw:	48.621	Thrust:	52.349
Time:	6.032	Roll Set Point:	-0.081	Pitch Set Point:	-0.036	Yaw Set Point:	-0.579	X_WP:	0.082	Y_WP:	0.156	Y_WP:	0.500	X:	0.099	Y:	0.096	Z:	0.399	yaw:	33.189	yaw rate:	1.373	Roll:	0.059	Pitch:	-1.490	Yaw:	48.130	Thrust:	52.282
Time:	6.047	Roll Set Point:	-0.081	Pitch Set Point:	-0.036	Yaw Set Point:	-0.579	X_WP:	0.082	Y_WP:	0.156	Y_WP:	0.500	X:	0.099	Y:	0.096	Z:	0.399	yaw:	33.189	yaw rate:	1.373	Roll:	0.058	Pitch:	-1.491	Yaw:	47.904	Thrust:	52.499
Time:	6.063	Roll Set Point:	-0.081	Pitch Set Point:	-0.036	Yaw Set Point:	-0.579	X_WP:	0.082	Y_WP:	0.156	Y_WP:	0.500	X:	0.099	Y:	0.096	Z:	0.399	yaw:	33.152	yaw rate:	0.790	Roll:	0.111	Pitch:	-1.509	Yaw:	47.233	Thrust:	52.673
Time:	6.078	Roll Set Point:	-0.081	Pitch Set Point:	-0.036	Yaw Set Point:	-0.579	X_WP:	0.082	Y_WP:	0.156	Y_WP:	0.500	X:	0.099	Y:	0.096	Z:	0.399	yaw:	33.152	yaw rate:	0.790	Roll:	0.059	Pitch:	-1.496	Yaw:	47.853	Thrust:	52.892
Time:	6.094	Roll Set Point:	-0.081	Pitch Set Point:	-0.036	Yaw Set Point:	-0.579	X_WP:	0.082	Y_WP:	0.156	Y_WP:	0.500	X:	0.099	Y:	0.096	Z:	0.399	yaw:	33.184	yaw rate:	-1.727	Roll:	0.011	Pitch:	-1.488	Yaw:	48.428	Thrust:	52.974
Time:	6.110	Roll Set Point:	-0.081	Pitch Set Point:	-0.036	Yaw Set Point:	-0.578	X_WP:	0.082	Y_WP:	0.156	Y_WP:	0.500	X:	0.099	Y:	0.096	Z:	0.399	yaw:	33.116	yaw rate:	-6.790	Roll:	0.117	Pitch:	-1.515	Yaw:	46.664	Thrust:	53.437
Time:	6.125	Roll Set Point:	-0.081	Pitch Set Point:	-0.036	Yaw Set Point:	-0.577	X_WP:	0.082	Y_WP:	0.156	Y_WP:	0.500	X:	0.099	Y:	0.096	Z:	0.399	yaw:	33.068	yaw rate:	-4.803	Roll:	0.088	Pitch:	-1.511	Yaw:	46.935	Thrust:	53.464
Time:	6.141	Roll Set Point:	-0.081	Pitch Set Point:	-0.036	Yaw Set Point:	-0.579	X_WP:	0.082	Y_WP:	0.156	Y_WP:	0.500	X:	0.099	Y:	0.096	Z:	0.399	yaw:	33.178	yaw rate:	10.994	Roll:	-0.030	Pitch:	-1.478	Yaw:	49.730	Thrust:	53.366
Time:	6.157	Roll Set Point:	-0.081	Pitch Set Point:	-0.036	Yaw Set Point:	-0.579	X_WP:	0.082	Y_WP:	0.156	Y_WP:	0.500	X:	0.099	Y:	0.096	Z:	0.399	yaw:	33.172	yaw rate:	-0.645	Roll:	0.063	Pitch:	-1.516	Yaw:	47.774	Thrust:	53.973
Time:	6.172	Roll Set Point:	-0.081	Pitch Set Point:	-0.036	Yaw Set Point:	-0.577	X_WP:	0.082	Y_WP:	0.155	Y_WP:	0.500	X:	0.099	Y:	0.096	Z:	0.399	yaw:	33.051	yaw rate:	-12.018	Roll:	0.142	Pitch:	-1.529	Yaw:	45.691	Thrust:	53.934
Time:	6.188	Roll Set Point:	-0.081	Pitch Set Point:	-0.036	Yaw Set Point:	-0.577	X_WP:	0.082	Y_WP:	0.156	Y_WP:	0.500	X:	0.099	Y:	0.096	Z:	0.399	yaw:	33.080	yaw rate:	2.810	Roll:	0.054	Pitch:	-1.515	Yaw:	48.223	Thrust:	54.418
Time:	6.203	Roll Set Point:	-0.081	Pitch Set Point:	-0.036	Yaw Set Point:	-0.577	X_WP:	0.082	Y_WP:	0.156	Y_WP:	0.500	X:	0.099	Y:	0.096	Z:	0.399	yaw:	33.080	yaw rate:	2.810	Roll:	0.058	Pitch:	-1.516	Yaw:	47.751	Thrust:	54.399
Time:	6.219	Roll Set Point:	-0.081	Pitch Set Point:	-0.036	Yaw Set Point:	-0.578	X_WP:	0.082	Y_WP:	0.156	Y_WP:	0.500	X:	0.099	Y:	0.096	Z:	0.399	yaw:	33.143	yaw rate:	0.739	Roll:	-0.049	Pitch:	-1.501	Yaw:	48.878	Thrust:	52.543
Time:	6.234	Roll Set Point:	-0.081	Pitch Set Point:	-0.036	Yaw Set Point:	-0.578	X_WP:	0.082	Y_WP:	0.156	Y_WP:	0.500	X:	0.099	Y:	0.096	Z:	0.399	yaw:	33.143	yaw rate:	0.739	Roll:	0.051	Pitch:	-1.519	Yaw:	47.839	Thrust:	54.771
Time:	6.250	Roll Set Point:	-0.081	Pitch Set Point:	-0.036	Yaw Set Point:	-0.579	X_WP:	0.082	Y_WP:	0.156	Y_WP:	0.500	X:	0.099	Y:	0.096	Z:	0.399	yaw:	33.163	yaw rate:	7.659	Roll:	0.041	Pitch:	-1.519	Yaw:	48.203	Thrust:	55.057
Time:	6.265	Roll Set Point:	-0.081	Pitch Set Point:	-0.036	Yaw Set Point:	-0.579	X_WP:	0.082	Y_WP:	0.156	Y_WP:	0.500	X:	0.099	Y:	0.096	Z:	0.399	yaw:	33.168	yaw rate:	0.546	Roll:	0.066	Pitch:	-1.529	Yaw:	47.969	Thrust:	55.383
Time:	6.281	Roll Set Point:	-0.081	Pitch Set Point:	-0.036	Yaw Set Point:	-0.579	X_WP:	0.082	Y_WP:	0.156	Y_WP:	0.500	X:	0.099	Y:	0.096	Z:	0.399	yaw:	33.154	yaw rate:	-1.385	Roll:	0.034	Pitch:	-1.520	Yaw:	47.622	Thrust:	55.218
Time:	6.297	Roll Set Point:	-0.081	Pitch Set Point:	-0.036	Yaw Set Point:	-0.578	X_WP:	0.082	Y_WP:	0.156	Y_WP:	0.500	X:	0.099	Y:	0.096	Z:	0.399	yaw:	33.140	yaw rate:	-1.452	Roll:	0.069	Pitch:	-1.539	Yaw:	47.591	Thrust:	55.396
Time:	6.312	Roll Set Point:	-0.081	Pitch Set Point:	-0.036	Yaw Set Point:	-0.579	X_WP:	0.082	Y_WP:	0.156	Y_WP:	0.500	X:	0.099	Y:	0.096	Z:	0.399	yaw:	33.147	yaw rate:	0.703	Roll:	0.058	Pitch:	-1.532	Yaw:	47.962	Thrust:	55.869
Time:	6.328	Roll Set Point:	-0.081	Pitch Set Point:	-0.036	Yaw Set Point:	-0.579	X_WP:	0.082	Y_WP:	0.156	Y_WP:	0.500	X:	0.099	Y:	0.096	Z:	0.399	yaw:	33.173	yaw rate:	2.650	Roll:	0.014	Pitch:	-1.527	Yaw:	48.323	Thrust:	55.806
Time:	6.344	Roll Set Point:	-0.081	Pitch Set Point:	-0.036	Yaw Set Point:	-0.579	X_WP:	0.082	Y_WP:	0.156	Y_WP:	0.500	X:	0.099	Y:	0.096	Z:	0.399	yaw:	33.181	yaw rate:	0.771	Roll:	0.016	Pitch:	-1.522	Yaw:	48.024	Thrust:	56.207
