Time:	2.126	Roll Set Point:	-0.262	Pitch Set Point:	-0.164	Yaw Set Point:	-0.063	X_WP:	0.000	Y_WP:	0.000	Y_WP:	0.500	X:	0.128	Y:	0.086	Z:	0.401	yaw:	3.588	yaw rate:	-1.974	Roll:	3.870	Pitch:	2.258	Yaw:	5.009	Thrust:	5.448
Time:	2.142	Roll Set Point:	-0.262	Pitch Set Point:	-0.164	Yaw Set Point:	-0.063	X_WP:	0.000	Y_WP:	0.000	Y_WP:	0.500	X:	0.128	Y:	0.086	Z:	0.401	yaw:	3.608	yaw rate:	2.016	Roll:	3.900	Pitch:	2.212	Yaw:	5.395	Thrust:	5.752
Time:	2.157	Roll Set Point:	-0.262	Pitch Set Point:	-0.164	Yaw Set Point:	-0.063	X_WP:	0.000	Y_WP:	0.000	Y_WP:	0.500	X:	0.128	Y:	0.086	Z:	0.401	yaw:	3.608	yaw rate:	2.016	Roll:	3.882	Pitch:	2.263	Yaw:	5.077	Thrust:	5.821
Time:	2.173	Roll Set Point:	-0.262	Pitch Set Point:	-0.164	Yaw Set Point:	-0.063	X_WP:	0.000	Y_WP:	0.000	Y_WP:	0.500	X:	0.128	Y:	0.086	Z:	0.401	yaw:	3.606	yaw rate:	2.988	Roll:	3.894	Pitch:	2.296	Yaw:	5.056	Thrust:	5.967
Time:	2.189	Roll Set Point:	-0.262	Pitch Set Point:	-0.164	Yaw Set Point:	-0.063	X_WP:	0.000	Y_WP:	0.000	Y_WP:	0.500	X:	0.128	Y:	0.086	Z:	0.401	yaw:	3.599	yaw rate:	-0.640	Roll:	3.882	Pitch:	2.291	Yaw:	4.997	Thrust:	6.263
Time:	2.204	Roll Set Point:	-0.262	Pitch Set Point:	-0.164	Yaw Set Point:	-0.063	X_WP:	0.000	Y_WP:	0.000	Y_WP:	0.500	X:	0.128	Y:	0.086	Z:	0.401	yaw:	3.598	yaw rate:	-0.102	Roll:	3.912	Pitch:	2.260	Yaw:	5.105	Thrust:	6.357
Time:	2.220	Roll Set Point:	-0.262	Pitch Set Point:	-0.164	Yaw Set Point:	-0.064	X_WP:	0.000	Y_WP:	0.000	Y_WP:	0.500	X:	0.128	Y:	0.086	Z:	0.401	yaw:	3.650	yaw rate:	5.198	Roll:	4.007	Pitch:	2.110	Yaw:	6.085	Thrust:	6.602
Time:	2.235	Roll Set Point:	-0.262	Pitch Set Point:	-0.164	Yaw Set Point:	-0.063	X_WP:	0.000	Y_WP:	0.000	Y_WP:	0.500	X:	0.128	Y:	0.086	Z:	0.401	yaw:	3.616	yaw rate:	-3.466	Roll:	3.850	Pitch:	2.388	Yaw:	4.605	Thrust:	6.716
Time:	2.251	Roll Set Point:	-0.262	Pitch Set Point:	-0.164	Yaw Set Point:	-0.062	X_WP:	0.000	Y_WP:	0.000	Y_WP:	0.500	X:	0.128	Y:	0.086	Z:	0.401	yaw:	3.563	yaw rate:	-5.290	Roll:	3.813	Pitch:	2.431	Yaw:	4.246	Thrust:	6.774
Time:	2.267	Roll Set Point:	-0.262	Pitch Set Point:	-0.164	Yaw Set Point:	-0.062	X_WP:	0.000	Y_WP:	0.000	Y_WP:	0.500	X:	0.128	Y:	0.086	Z:	0.401	yaw:	3.577	yaw rate:	1.465	Roll:	3.942	Pitch:	2.238	Yaw:	5.417	Thrust:	7.261
Time:	2.282	Roll Set Point:	-0.262	Pitch Set Point:	-0.164	Yaw Set Point:	-0.063	X_WP:	0.000	Y_WP:	0.000	Y_WP:	0.500	X:	0.128	Y:	0.086	Z:	0.401	yaw:	3.630	yaw rate:	5.237	Roll:	4.001	Pitch:	2.170	Yaw:	6.142	Thrust:	7.415
Time:	2.298	Roll Set Point:	-0.262	Pitch Set Point:	-0.164	Yaw Set Point:	-0.063	X_WP:	0.000	Y_WP:	0.000	Y_WP:	0.500	X:	0.128	Y:	0.086	Z:	0.401	yaw:	3.603	yaw rate:	-2.686	Roll:	3.870	Pitch:	2.336	Yaw:	4.797	Thrust:	7.350
Time:	2.314	Roll Set Point:	-0.262	Pitch Set Point:	-0.164	Yaw Set Point:	-0.063	X_WP:	0.000	Y_WP:	0.000	Y_WP:	0.500	X:	0.128	Y:	0.086	Z:	0.401	yaw:	3.614	yaw rate:	1.170	Roll:	3.941	Pitch:	2.281	Yaw:	5.479	Thrust:	7.764
Time:	2.329	Roll Set Point:	-0.262	Pitch Set Point:	-0.164	Yaw Set Point:	-0.063	X_WP:	0.000	Y_WP:	0.000	Y_WP:	0.500	X:	0.128	Y:	0.086	Z:	0.401	yaw:	3.591	yaw rate:	-2.352	Roll:	3.918	Pitch:	2.344	Yaw:	4.875	Thrust:	7.786
Time:	2.345	Roll Set Point:	-0.262	Pitch Set Point:	-0.164	Yaw Set Point:	-0.063	X_WP:	0.000	Y_WP:	0.000	Y_WP:	0.500	X:	0.128	Y:	0.086	Z:	0.401	yaw:	3.605	yaw rate:	1.381	Roll:	3.974	Pitch:	2.262	Yaw:	5.540	Thrust:	8.081
Time:	2.360	Roll Set Point:	-0.262	Pitch Set Point:	-0.164	Yaw Set Point:	-0.063	X_WP:	0.000	Y_WP:	0.000	Y_WP:	0.500	X:	0.128	Y:	0.086	Z:	0.401	yaw:	3.597	yaw rate:	-0.799	Roll:	3.972	Pitch:	2.322	Yaw:	5.183	Thrust:	8.293
Time:	2.376	Roll Set Point:	-0.262	Pitch Set Point:	-0.164	Yaw Set Point:	-0.063	X_WP:	0.000	Y_WP:	0.000	Y_WP:	0.500	X:	0.128	Y:	0.086	Z:	0.401	yaw:	3.597	yaw rate:	-0.799	Roll:	3.956	Pitch:	2.306	Yaw:	5.337	Thrust:	8.424
Time:	2.392	Roll Set Point:	-0.262	Pitch Set Point:	-0.164	Yaw Set Point:	-0.062	X_WP:	0.000	Y_WP:	0.000	Y_WP:	0.500	X:	0.128	Y:	0.086	Z:	0.401	yaw:	3.580	yaw rate:	-1.683	Roll:	3.880	Pitch:	2.395	Yaw:	5.051	Thrust:	8.560
Time:	2.407	Roll Set Point:	-0.262	Pitch Set Point:	-0.164	Yaw Set Point:	-0.062	X_WP:	0.000	Y_WP:	0.000	Y_WP:	0.500	X:	0.128	Y:	0.086	Z:	0.401	yaw:	3.580	yaw rate:	-1.683	Roll:	3.964	Pitch:	2.315	Yaw:	5.352	Thrust:	8.794
Time:	2.423	Roll Set Point:	-0.262	Pitch Set Point:	-0.164	Yaw Set Point:	-0.063	X_WP:	0.000	Y_WP:	0.000	Y_WP:	0.500	X:	0.128	Y:	0.086	Z:	0.401	yaw:	3.637	yaw rate:	5.705	Roll:	4.090	Pitch:	2.134	Yaw:	6.407	Thrust:	9.069
Time:	2.439	Roll Set Point:	-0.262	Pitch Set Point:	-0.164	Yaw Set Point:	-0.062	X_WP:	0.000	Y_WP:	0.000	Y_WP:	0.500	X:	0.128	Y:	0.086	Z:	0.401	yaw:	3.581	yaw rate:	-5.631	Roll:	3.868	Pitch:	2.515	Yaw:	4.449	Thrust:	8.974
Time:	2.454	Roll Set Point:	-0.262	Pitch Set Point:	-0.164	Yaw Set Point:	-0.063	X_WP:	0.000	Y_WP:	0.000	Y_WP:	0.500	X:	0.128	Y:	0.086	Z:	0.401	yaw:	3.608	yaw rate:	2.706	Roll:	4.009	Pitch:	2.226	Yaw:	5.903	Thrust:	9.549
Time:	2.470	Roll Set Point:	-0.262	Pitch Set Point:	-0.164	Yaw Set Point:	-0.063	X_WP:	0.000	Y_WP:	0.000	Y_WP:	0.500	X:	0.128	Y:	0.086	Z:	0.401	yaw:	3.608	yaw rate:	2.706	Roll:	3.986	Pitch:	2.325	Yaw:	5.470	Thrust:	9.539
Time:	2.485	Roll Set Point:	-0.262	Pitch Set Point:	-0.164	Yaw Set Point:	-0.064	X_WP:	0.000	Y_WP:	0.000	Y_WP:	0.500	X:	0.128	Y:	0.086	Z:	0.401	yaw:	3.650	yaw rate:	4.189	Roll:	4.101	Pitch:	2.136	Yaw:	6.250	Thrust:	9.622
Time:	2.501	Roll Set Point:	-0.262	Pitch Set Point:	-0.164	Yaw Set Point:	-0.063	X_WP:	0.000	Y_WP:	0.000	Y_WP:	0.500	X:	0.128	Y:	0.086	Z:	0.401	yaw:	3.638	yaw rate:	2.539	Roll:	3.942	Pitch:	2.471	Yaw:	5.358	Thrust:	9.984
Time:	2.517	Roll Set Point:	-0.262	Pitch Set Point:	-0.164	Yaw Set Point:	-0.062	X_WP:	0.000	Y_WP:	0.000	Y_WP:	0.500	X:	0.128	Y:	0.086	Z:	0.401	yaw:	3.552	yaw rate:	-8.599	Roll:	3.866	Pitch:	2.532	Yaw:	4.011	Thrust:	9.857
Time:	2.532	Roll Set Point:	-0.262	Pitch Set Point:	-0.164	Yaw Set Point:	-0.064	X_WP:	0.000	Y_WP:	0.000	Y_WP:	0.500	X:	0.128	Y:	0.086	Z:	0.401	yaw:	3.638	yaw rate:	8.637	Roll:	4.182	Pitch:	2.059	Yaw:	7.038	Thrust:	10.616
Time:	2.548	Roll Set Point:	-0.262	Pitch Set Point:	-0.164	Yaw Set Point:	-0.064	X_WP:	0.000	Y_WP:	0.000	Y_WP:	0.500	X:	0.128	Y:	0.086	Z:	0.401	yaw:	3.639	yaw rate:	0.032	Roll:	4.025	Pitch:	2.311	Yaw:	5.617	Thrust:	10.401
Time:	2.564	Roll Set Point:	-0.262	Pitch Set Point:	-0.164	Yaw Set Point:	-0.063	X_WP:	0.000	Y_WP:	0.000	Y_WP:	0.500	X:	0.128	Y:	0.086	Z:	0.401	yaw:	3.621	yaw rate:	-1.803	Roll:	3.943	Pitch:	2.460	Yaw:	5.304	Thrust:	10.567
Time:	2.579	Roll Set Point:	-0.262	Pitch Set Point:	-0.164	Yaw Set Point:	-0.063	X_WP:	0.000	Y_WP:	0.000	Y_WP:	0.500	X:	0.128	Y:	0.086	Z:	0.401	yaw:	3.621	yaw rate:	-1.803	Roll:	4.023	Pitch:	2.345	Yaw:	5.626	Thrust:	10.838
Time:	2.595	Roll Set Point:	-0.262	Pitch Set Point:	-0.164	Yaw Set Point:	-0.063	X_WP:	0.000	Y_WP:	0.000	Y_WP:	0.500	X:	0.128	Y:	0.086	Z:	0.401	yaw:	3.623	yaw rate:	0.243	Roll:	4.033	Pitch:	2.370	Yaw:	5.690	Thrust:	11.023
Time:	2.611	Roll Set Point:	-0.262	Pitch Set Point:	-0.164	Yaw Set Point:	-0.063	X_WP:	0.000	Y_WP:	0.000	Y_WP:	0.500	X:	0.128	Y:	0.086	Z:	0.401	yaw:	3.623	yaw rate:	0.243	Roll:	4.037	Pitch:	2.354	Yaw:	5.681	Thrust:	11.329
Time:	2.627	Roll Set Point:	-0.262	Pitch Set Point:	-0.164	Yaw Set Point:	-0.063	X_WP:	0.000	Y_WP:	0.000	Y_WP:	0.500	X:	0.128	Y:	0.086	Z:	0.401	yaw:	3.596	yaw rate:	-3.269	Roll:	4.028	Pitch:	2.335	Yaw:	5.229	Thrust:	11.627
Time:	2.641	Roll Set Point:	-0.262	Pitch Set Point:	-0.164	Yaw Set Point:	-0.063	X_WP:	0.000	Y_WP:	0.000	Y_WP:	0.500	X:	0.128	Y:	0.086	Z:	0.401	yaw:	3.590	yaw rate:	-0.612	Roll:	4.007	Pitch:	2.423	Yaw:	5.482	Thrust:	10.948
Time:	2.671	Roll Set Point:	-0.262	Pitch Set Point:	-0.164	Yaw Set Point:	-0.062	X_WP:	0.000	Y_WP:	0.000	Y_WP:	0.500	X:	0.128	Y:	0.086	Z:	0.401	yaw:	3.552	yaw rate:	-3.783	Roll:	4.173	Pitch:	2.529	Yaw:	5.898	Thrust:	17.354
Time:	2.686	Roll Set Point:	-0.262	Pitch Set Point:	-0.164	Yaw Set Point:	-0.063	X_WP:	0.000	Y_WP:	0.000	Y_WP:	0.500	X:	0.128	Y:	0.086	Z:	0.401	yaw:	3.620	yaw rate:	-1.311	Roll:	4.191	Pitch:	2.130	Yaw:	6.879	Thrust:	12.122
Time:	2.702	Roll Set Point:	-0.262	Pitch Set Point:	-0.164	Yaw Set Point:	-0.063	X_WP:	0.000	Y_WP:	0.000	Y_WP:	0.500	X:	0.128	Y:	0.086	Z:	0.401	yaw:	3.594	yaw rate:	-2.575	Roll:	3.958	Pitch:	2.491	Yaw:	5.317	Thrust:	12.206
Time:	2.720	Roll Set Point:	-0.262	Pitch Set Point:	-0.164	Yaw Set Point:	-0.062	X_WP:	0.000	Y_WP:	0.000	Y_WP:	0.500	X:	0.128	Y:	0.086	Z:	0.401	yaw:	3.579	yaw rate:	-1.585	Roll:	4.122	Pitch:	2.396	Yaw:	5.584	Thrust:	13.146
Time:	2.735	Roll Set Point:	-0.262	Pitch Set Point:	-0.164	Yaw Set Point:	-0.064	X_WP:	0.000	Y_WP:	0.000	Y_WP:	0.500	X:	0.128	Y:	0.086	Z:	0.401	yaw:	3.663	yaw rate:	8.402	Roll:	4.173	Pitch:	2.094	Yaw:	7.269	Thrust:	12.736
Time:	2.751	Roll Set Point:	-0.262	Pitch Set Point:	-0.164	Yaw Set Point:	-0.064	X_WP:	0.000	Y_WP:	0.000	Y_WP:	0.500	X:	0.128	Y:	0.086	Z:	0.401	yaw:	3.674	yaw rate:	1.108	Roll:	4.114	Pitch:	2.332	Yaw:	6.082	Thrust:	12.695
Time:	2.767	Roll Set Point:	-0.262	Pitch Set Point:	-0.164	Yaw Set Point:	-0.063	X_WP:	0.000	Y_WP:	0.000	Y_WP:	0.500	X:	0.128	Y:	0.086	Z:	0.401	yaw:	3.607	yaw rate:	-6.668	Roll:	3.932	Pitch:	2.646	Yaw:	4.706	Thrust:	12.790
Time:	2.782	Roll Set Point:	-0.262	Pitch Set Point:	-0.164	Yaw Set Point:	-0.063	X_WP:	0.000	Y_WP:	0.000	Y_WP:	0.500	X:	0.128	Y:	0.086	Z:	0.401	yaw:	3.592	yaw rate:	-1.495	Roll:	4.084	Pitch:	2.453	Yaw:	5.572	Thrust:	12.886
Time:	2.798	Roll Set Point:	-0.262	Pitch Set Point:	-0.164	Yaw Set Point:	-0.063	X_WP:	0.000	Y_WP:	0.000	Y_WP:	0.500	X:	0.128	Y:	0.086	Z:	0.401	yaw:	3.624	yaw rate:	3.198	Roll:	4.165	Pitch:	2.194	Yaw:	6.422	Thrust:	13.536
Time:	2.814	Roll Set Point:	-0.262	Pitch Set Point:	-0.164	Yaw Set Point:	-0.063	X_WP:	0.000	Y_WP:	0.000	Y_WP:	0.500	X:	0.128	Y:	0.086	Z:	0.401	yaw:	3.624	yaw rate:	3.198	Roll:	4.097	Pitch:	2.386	Yaw:	5.906	Thrust:	13.442
Time:	2.829	Roll Set Point:	-0.262	Pitch Set Point:	-0.164	Yaw Set Point:	-0.064	X_WP:	0.000	Y_WP:	0.000	Y_WP:	0.500	X:	0.128	Y:	0.086	Z:	0.401	yaw:	3.648	yaw rate:	2.446	Roll:	4.157	Pitch:	2.259	Yaw:	6.370	Thrust:	13.506
Time:	2.845	Roll Set Point:	-0.262	Pitch Set Point:	-0.164	Yaw Set Point:	-0.063	X_WP:	0.000	Y_WP:	0.000	Y_WP:	0.500	X:	0.128	Y:	0.086	Z:	0.401	yaw:	3.587	yaw rate:	-6.170	Roll:	3.952	Pitch:	2.690	Yaw:	4.860	Thrust:	13.755
Time:	2.860	Roll Set Point:	-0.262	Pitch Set Point:	-0.164	Yaw Set Point:	-0.063	X_WP:	0.000	Y_WP:	0.000	Y_WP:	0.500	X:	0.128	Y:	0.086	Z:	0.401	yaw:	3.609	yaw rate:	-1.049	Roll:	4.153	Pitch:	2.272	Yaw:	6.324	Thrust:	14.058
Time:	2.876	Roll Set Point:	-0.262	Pitch Set Point:	-0.164	Yaw Set Point:	-0.063	X_WP:	0.000	Y_WP:	0.000	Y_WP:	0.500	X:	0.128	Y:	0.086	Z:	0.401	yaw:	3.630	yaw rate:	2.082	Roll:	4.164	Pitch:	2.347	Yaw:	6.343	Thrust:	14.273
Time:	2.892	Roll Set Point:	-0.262	Pitch Set Point:	-0.164	Yaw Set Point:	-0.063	X_WP:	0.000	Y_WP:	0.000	Y_WP:	0.500	X:	0.128	Y:	0.086	Z:	0.401	yaw:	3.630	yaw rate:	2.082	Roll:	4.123	Pitch:	2.401	Yaw:	6.014	Thrust:	14.370
Time:	2.907	Roll Set Point:	-0.262	Pitch Set Point:	-0.164	Yaw Set Point:	-0.064	X_WP:	0.000	Y_WP:	0.000	Y_WP:	0.500	X:	0.128	Y:	0.086	Z:	0.401	yaw:	3.674	yaw rate:	4.421	Roll:	4.240	Pitch:	2.278	Yaw:	6.836	Thrust:	14.620
Time:	2.923	Roll Set Point:	-0.262	Pitch Set Point:	-0.164	Yaw Set Point:	-0.064	X_WP:	0.000	Y_WP:	0.000	Y_WP:	0.500	X:	0.128	Y:	0.086	Z:	0.401	yaw:	3.654	yaw rate:	6.522	Roll:	4.086	Pitch:	2.525	Yaw:	5.735	Thrust:	14.609
Time:	2.939	Roll Set Point:	-0.262	Pitch Set Point:	-0.164	Yaw Set Point:	-0.064	X_WP:	0.000	Y_WP:	0.000	Y_WP:	0.500	X:	0.128	Y:	0.086	Z:	0.401	yaw:	3.647	yaw rate:	-0.697	Roll:	4.132	Pitch:	2.322	Yaw:	5.980	Thrust:	14.983
Time:	2.954	Roll Set Point:	-0.262	Pitch Set Point:	-0.164	Yaw Set Point:	-0.063	X_WP:	0.000	Y_WP:	0.000	Y_WP:	0.500	X:	0.128	Y:	0.086	Z:	0.401	yaw:	3.584	yaw rate:	-6.229	Roll:	4.011	Pitch:	2.645	Yaw:	4.986	Thrust:	14.974
Time:	2.970	Roll Set Point:	-0.262	Pitch Set Point:	-0.164	Yaw Set Point:	-0.063	X_WP:	0.000	Y_WP:	0.000	Y_WP:	0.500	X:	0.128	Y:	0.086	Z:	0.401	yaw:	3.587	yaw rate:	0.310	Roll:	4.162	Pitch:	2.460	Yaw:	6.105	Thrust:	15.349
Time:	2.985	Roll Set Point:	-0.262	Pitch Set Point:	-0.164	Yaw Set Point:	-0.063	X_WP:	0.000	Y_WP:	0.000	Y_WP:	0.500	X:	0.128	Y:	0.086	Z:	0.401	yaw:	3.626	yaw rate:	3.831	Roll:	4.212	Pitch:	2.293	Yaw:	6.768	Thrust:	15.532
Time:	3.001	Roll Set Point:	-0.262	Pitch Set Point:	-0.164	Yaw Set Point:	-0.063	X_WP:	0.000	Y_WP:	0.000	Y_WP:	0.500	X:	0.128	Y:	0.086	Z:	0.401	yaw:	3.605	yaw rate:	-2.053	Roll:	4.146	Pitch:	2.447	Yaw:	5.774	Thrust:	15.675
Time:	3.017	Roll Set Point:	-0.262	Pitch Set Point:	-0.164	Yaw Set Point:	-0.063	X_WP:	0.000	Y_WP:	0.000	Y_WP:	0.500	X:	0.128	Y:	0.086	Z:	0.401	yaw:	3.605	yaw rate:	-2.053	Roll:	4.164	Pitch:	2.427	Yaw:	6.137	Thrust:	15.857
Time:	3.032	Roll Set Point:	-0.262	Pitch Set Point:	-0.164	Yaw Set Point:	-0.063	X_WP:	0.000	Y_WP:	0.000	Y_WP:	0.500	X:	0.128	Y:	0.086	Z:	0.401	yaw:	3.581	yaw rate:	-2.385	Roll:	4.134	Pitch:	2.460	Yaw:	5.724	Thrust:	15.959
Time:	3.048	Roll Set Point:	-0.262	Pitch Set Point:	-0.164	Yaw Set Point:	-0.063	X_WP:	0.000	Y_WP:	0.000	Y_WP:	0.500	X:	0.128	Y:	0.086	Z:	0.401	yaw:	3.604	yaw rate:	1.590	Roll:	4.188	Pitch:	2.461	Yaw:	6.551	Thrust:	16.220
Time:	3.064	Roll Set Point:	-0.262	Pitch Set Point:	-0.164	Yaw Set Point:	-0.063	X_WP:	0.000	Y_WP:	0.000	Y_WP:	0.500	X:	0.128	Y:	0.086	Z:	0.401	yaw:	3.632	yaw rate:	2.859	Roll:	4.285	Pitch:	2.280	Yaw:	6.713	Thrust:	16.565
Time:	3.079	Roll Set Point:	-0.262	Pitch Set Point:	-0.164	Yaw Set Point:	-0.063	X_WP:	0.000	Y_WP:	0.000	Y_WP:	0.500	X:	0.128	Y:	0.086	Z:	0.401	yaw:	3.632	yaw rate:	2.859	Roll:	4.187	Pitch:	2.437	Yaw:	6.254	Thrust:	16.602
Time:	3.095	Roll Set Point:	-0.262	Pitch Set Point:	-0.164	Yaw Set Point:	-0.062	X_WP:	0.000	Y_WP:	0.000	Y_WP:	0.500	X:	0.128	Y:	0.086	Z:	0.401	yaw:	3.579	yaw rate:	-3.285	Roll:	4.052	Pitch:	2.661	Yaw:	5.307	Thrust:	16.561
Time:	3.110	Roll Set Point:	-0.262	Pitch Set Point:	-0.164	Yaw Set Point:	-0.063	X_WP:	0.000	Y_WP:	0.000	Y_WP:	0.500	X:	0.128	Y:	0.086	Z:	0.401	yaw:	3.592	yaw rate:	1.309	Roll:	4.247	Pitch:	2.369	Yaw:	6.456	Thrust:	17.045
Time:	3.126	Roll Set Point:	-0.262	Pitch Set Point:	-0.164	Yaw Set Point:	-0.064	X_WP:	0.000	Y_WP:	0.000	Y_WP:	0.500	X:	0.128	Y:	0.086	Z:	0.401	yaw:	3.666	yaw rate:	7.422	Roll:	4.294	Pitch:	2.230	Yaw:	7.604	Thrust:	17.270
Time:	3.142	Roll Set Point:	-0.262	Pitch Set Point:	-0.164	Yaw Set Point:	-0.063	X_WP:	0.000	Y_WP:	0.000	Y_WP:	0.500	X:	0.128	Y:	0.086	Z:	0.401	yaw:	3.592	yaw rate:	-7.413	Roll:	4.070	Pitch:	2.683	Yaw:	5.043	Thrust:	17.421
Time:	3.157	Roll Set Point:	-0.262	Pitch Set Point:	-0.164	Yaw Set Point:	-0.063	X_WP:	0.000	Y_WP:	0.000	Y_WP:	0.500	X:	0.128	Y:	0.086	Z:	0.401	yaw:	3.606	yaw rate:	1.330	Roll:	4.243	Pitch:	2.434	Yaw:	6.532	Thrust:	17.290
Time:	3.173	Roll Set Point:	-0.262	Pitch Set Point:	-0.164	Yaw Set Point:	-0.062	X_WP:	0.000	Y_WP:	0.000	Y_WP:	0.500	X:	0.128	Y:	0.086	Z:	0.401	yaw:	3.558	yaw rate:	-4.717	Roll:	4.134	Pitch:	2.611	Yaw:	5.479	Thrust:	17.767
Time:	3.189	Roll Set Point:	-0.262	Pitch Set Point:	-0.164	Yaw Set Point:	-0.064	X_WP:	0.000	Y_WP:	0.000	Y_WP:	0.500	X:	0.128	Y:	0.086	Z:	0.401	yaw:	3.663	yaw rate:	10.500	Roll:	4.412	Pitch:	2.113	Yaw:	8.194	Thrust:	18.013
Time:	3.204	Roll Set Point:	-0.262	Pitch Set Point:	-0.164	Yaw Set Point:	-0.064	X_WP:	0.000	Y_WP:	0.000	Y_WP:	0.500	X:	0.128	Y:	0.086	Z:	0.401	yaw:	3.654	yaw rate:	-0.982	Roll:	4.206	Pitch:	2.477	Yaw:	6.277	Thrust:	18.158
Time:	3.220	Roll Set Point:	-0.262	Pitch Set Point:	-0.164	Yaw Set Point:	-0.064	X_WP:	0.000	Y_WP:	0.000	Y_WP:	0.500	X:	0.128	Y:	0.086	Z:	0.401	yaw:	3.654	yaw rate:	-0.982	Roll:	4.234	Pitch:	2.463	Yaw:	6.461	Thrust:	18.272
Time:	3.235	Roll Set Point:	-0.262	Pitch Set Point:	-0.164	Yaw Set Point:	-0.062	X_WP:	0.000	Y_WP:	0.000	Y_WP:	0.500	X:	0.128	Y:	0.086	Z:	0.401	yaw:	3.539	yaw rate:	-11.423	Roll:	4.052	Pitch:	2.827	Yaw:	4.407	Thrust:	18.102
Time:	3.267	Roll Set Point:	-0.262	Pitch Set Point:	-0.164	Yaw Set Point:	-0.064	X_WP:	0.000	Y_WP:	0.000	Y_WP:	0.500	X:	0.128	Y:	0.086	Z:	0.401	yaw:	3.639	yaw rate:	0.137	Roll:	4.698	Pitch:	2.547	Yaw:	8.713	Thrust:	31.950
Time:	3.282	Roll Set Point:	-0.262	Pitch Set Point:	-0.164	Yaw Set Point:	-0.064	X_WP:	0.000	Y_WP:	0.000	Y_WP:	0.500	X:	0.128	Y:	0.086	Z:	0.401	yaw:	3.639	yaw rate:	0.137	Roll:	4.249	Pitch:	2.474	Yaw:	6.499	Thrust:	18.828
Time:	3.298	Roll Set Point:	-0.262	Pitch Set Point:	-0.164	Yaw Set Point:	-0.063	X_WP:	0.000	Y_WP:	0.000	Y_WP:	0.500	X:	0.128	Y:	0.086	Z:	0.401	yaw:	3.613	yaw rate:	-2.654	Roll:	4.181	Pitch:	2.535	Yaw:	6.038	Thrust:	18.871
Time:	3.314	Roll Set Point:	-0.262	Pitch Set Point:	-0.164	Yaw Set Point:	-0.063	X_WP:	0.000	Y_WP:	0.000	Y_WP:	0.500	X:	0.128	Y:	0.086	Z:	0.401	yaw:	3.613	yaw rate:	-2.654	Roll:	4.258	Pitch:	2.481	Yaw:	6.502	Thrust:	19.199
Time:	3.329	Roll Set Point:	-0.262	Pitch Set Point:	-0.164	Yaw Set Point:	-0.063	X_WP:	0.000	Y_WP:	0.000	Y_WP:	0.500	X:	0.128	Y:	0.086	Z:	0.401	yaw:	3.609	yaw rate:	-0.351	Roll:	4.281	Pitch:	2.462	Yaw:	6.458	Thrust:	19.490
Time:	3.345	Roll Set Point:	-0.262	Pitch Set Point:	-0.164	Yaw Set Point:	-0.063	X_WP:	0.000	Y_WP:	0.000	Y_WP:	0.500	X:	0.128	Y:	0.086	Z:	0.401	yaw:	3.609	yaw rate:	-0.351	Roll:	4.268	Pitch:	2.487	Yaw:	6.537	Thrust:	19.571
Time:	3.361	Roll Set Point:	-0.262	Pitch Set Point:	-0.164	Yaw Set Point:	-0.063	X_WP:	0.000	Y_WP:	0.000	Y_WP:	0.500	X:	0.128	Y:	0.086	Z:	0.401	yaw:	3.617	yaw rate:	4.386	Roll:	4.277	Pitch:	2.497	Yaw:	6.694	Thrust:	19.678
Time:	3.376	Roll Set Point:	-0.262	Pitch Set Point:	-0.164	Yaw Set Point:	-0.063	X_WP:	0.000	Y_WP:	0.000	Y_WP:	0.500	X:	0.128	Y:	0.086	Z:	0.401	yaw:	3.617	yaw rate:	4.386	Roll:	4.279	Pitch:	2.493	Yaw:	6.587	Thrust:	19.943
Time:	3.392	Roll Set Point:	-0.262	Pitch Set Point:	-0.164	Yaw Set Point:	-0.064	X_WP:	0.000	Y_WP:	0.000	Y_WP:	0.500	X:	0.128	Y:	0.086	Z:	0.401	yaw:	3.658	yaw rate:	2.629	Roll:	4.321	Pitch:	2.434	Yaw:	7.353	Thrust:	20.343
Time:	3.407	Roll Set Point:	-0.262	Pitch Set Point:	-0.164	Yaw Set Point:	-0.062	X_WP:	0.000	Y_WP:	0.000	Y_WP:	0.500	X:	0.128	Y:	0.086	Z:	0.401	yaw:	3.578	yaw rate:	-7.977	Roll:	4.194	Pitch:	2.670	Yaw:	5.222	Thrust:	20.095
Time:	3.423	Roll Set Point:	-0.262	Pitch Set Point:	-0.164	Yaw Set Point:	-0.062	X_WP:	0.000	Y_WP:	0.000	Y_WP:	0.500	X:	0.128	Y:	0.086	Z:	0.401	yaw:	3.564	yaw rate:	-1.373	Roll:	4.259	Pitch:	2.586	Yaw:	6.309	Thrust:	20.482
Time:	3.439	Roll Set Point:	-0.262	Pitch Set Point:	-0.164	Yaw Set Point:	-0.063	X_WP:	0.000	Y_WP:	0.000	Y_WP:	0.500	X:	0.128	Y:	0.086	Z:	0.401	yaw:	3.632	yaw rate:	6.754	Roll:	4.438	Pitch:	2.253	Yaw:	7.765	Thrust:	20.866
Time:	3.454	Roll Set Point:	-0.262	Pitch Set Point:	-0.164	Yaw Set Point:	-0.063	X_WP:	0.000	Y_WP:	0.000	Y_WP:	0.500	X:	0.128	Y:	0.086	Z:	0.401	yaw:	3.596	yaw rate:	-3.551	Roll:	4.235	Pitch:	2.624	Yaw:	5.989	Thrust:	20.893
Time:	3.470	Roll Set Point:	-0.262	Pitch Set Point:	-0.164	Yaw Set Point:	-0.064	X_WP:	0.000	Y_WP:	0.000	Y_WP:	0.500	X:	0.128	Y:	0.086	Z:	0.401	yaw:	3.642	yaw rate:	4.534	Roll:	4.376	Pitch:	2.412	Yaw:	7.407	Thrust:	21.051
Time:	3.486	Roll Set Point:	-0.262	Pitch Set Point:	-0.164	Yaw Set Point:	-0.063	X_WP:	0.000	Y_WP:	0.000	Y_WP:	0.500	X:	0.128	Y:	0.086	Z:	0.401	yaw:	3.592	yaw rate:	-4.930	Roll:	4.191	Pitch:	2.734	Yaw:	5.753	Thrust:	21.132
Time:	3.501	Roll Set Point:	-0.262	Pitch Set Point:	-0.164	Yaw Set Point:	-0.063	X_WP:	0.000	Y_WP:	0.000	Y_WP:	0.500	X:	0.128	Y:	0.086	Z:	0.401	yaw:	3.596	yaw rate:	0.325	Roll:	4.368	Pitch:	2.470	Yaw:	6.638	Thrust:	21.404
Time:	3.517	Roll Set Point:	-0.262	Pitch Set Point:	-0.164	Yaw Set Point:	-0.063	X_WP:	0.000	Y_WP:	0.000	Y_WP:	0.500	X:	0.128	Y:	0.086	Z:	0.401	yaw:	3.596	yaw rate:	0.325	Roll:	4.325	Pitch:	2.524	Yaw:	6.583	Thrust:	21.613
Time:	3.532	Roll Set Point:	-0.262	Pitch Set Point:	-0.164	Yaw Set Point:	-0.063	X_WP:	0.000	Y_WP:	0.000	Y_WP:	0.500	X:	0.128	Y:	0.086	Z:	0.401	yaw:	3.631	yaw rate:	1.602	Roll:	4.419	Pitch:	2.374	Yaw:	7.227	Thrust:	21.851
Time:	3.548	Roll Set Point:	-0.262	Pitch Set Point:	-0.164	Yaw Set Point:	-0.063	X_WP:	0.000	Y_WP:	0.000	Y_WP:	0.500	X:	0.128	Y:	0.086	Z:	0.401	yaw:	3.612	yaw rate:	-1.927	Roll:	4.265	Pitch:	2.649	Yaw:	6.283	Thrust:	22.018
Time:	3.564	Roll Set Point:	-0.262	Pitch Set Point:	-0.164	Yaw Set Point:	-0.062	X_WP:	0.000	Y_WP:	0.000	Y_WP:	0.500	X:	0.128	Y:	0.086	Z:	0.401	yaw:	3.566	yaw rate:	-4.579	Roll:	4.257	Pitch:	2.638	Yaw:	5.775	Thrust:	22.055
Time:	3.579	Roll Set Point:	-0.262	Pitch Set Point:	-0.164	Yaw Set Point:	-0.062	X_WP:	0.000	Y_WP:	0.000	Y_WP:	0.500	X:	0.128	Y:	0.086	Z:	0.401	yaw:	3.566	yaw rate:	-4.579	Roll:	4.344	Pitch:	2.538	Yaw:	6.542	Thrust:	22.363
Time:	3.595	Roll Set Point:	-0.262	Pitch Set Point:	-0.164	Yaw Set Point:	-0.063	X_WP:	0.000	Y_WP:	0.000	Y_WP:	0.500	X:	0.128	Y:	0.086	Z:	0.401	yaw:	3.624	yaw rate:	0.448	Roll:	4.501	Pitch:	2.256	Yaw:	7.600	Thrust:	22.672
Time:	3.611	Roll Set Point:	-0.262	Pitch Set Point:	-0.164	Yaw Set Point:	-0.063	X_WP:	0.000	Y_WP:	0.000	Y_WP:	0.500	X:	0.128	Y:	0.086	Z:	0.401	yaw:	3.586	yaw rate:	-3.865	Roll:	4.257	Pitch:	2.812	Yaw:	5.922	Thrust:	22.675
Time:	3.626	Roll Set Point:	-0.262	Pitch Set Point:	-0.164	Yaw Set Point:	-0.062	X_WP:	0.000	Y_WP:	0.000	Y_WP:	0.500	X:	0.128	Y:	0.086	Z:	0.401	yaw:	3.558	yaw rate:	-2.781	Roll:	4.297	Pitch:	2.611	Yaw:	6.064	Thrust:	22.889
Time:	3.656	Roll Set Point:	-0.262	Pitch Set Point:	-0.164	Yaw Set Point:	-0.063	X_WP:	0.000	Y_WP:	0.000	Y_WP:	0.500	X:	0.128	Y:	0.086	Z:	0.401	yaw:	3.617	yaw rate:	-0.821	Roll:	4.873	Pitch:	2.685	Yaw:	8.569	Thrust:	39.469
Time:	3.672	Roll Set Point:	-0.262	Pitch Set Point:	-0.164	Yaw Set Point:	-0.063	X_WP:	0.000	Y_WP:	0.000	Y_WP:	0.500	X:	0.128	Y:	0.086	Z:	0.401	yaw:	3.617	yaw rate:	-0.821	Roll:	4.373	Pitch:	2.549	Yaw:	6.616	Thrust:	23.327
Time:	3.687	Roll Set Point:	-0.262	Pitch Set Point:	-0.164	Yaw Set Point:	-0.062	X_WP:	0.000	Y_WP:	0.000	Y_WP:	0.500	X:	0.128	Y:	0.086	Z:	0.401	yaw:	3.565	yaw rate:	-8.173	Roll:	4.306	Pitch:	2.804	Yaw:	5.665	Thrust:	23.276
Time:	3.703	Roll Set Point:	-0.262	Pitch Set Point:	-0.164	Yaw Set Point:	-0.063	X_WP:	0.000	Y_WP:	0.000	Y_WP:	0.500	X:	0.128	Y:	0.086	Z:	0.401	yaw:	3.617	yaw rate:	5.221	Roll:	4.487	Pitch:	2.277	Yaw:	7.488	Thrust:	23.735
Time:	3.719	Roll Set Point:	-0.262	Pitch Set Point:	-0.164	Yaw Set Point:	-0.063	X_WP:	0.000	Y_WP:	0.000	Y_WP:	0.500	X:	0.128	Y:	0.086	Z:	0.401	yaw:	3.626	yaw rate:	0.829	Roll:	4.389	Pitch:	2.541	Yaw:	6.764	Thrust:	23.854
Time:	3.734	Roll Set Point:	-0.262	Pitch Set Point:	-0.164	Yaw Set Point:	-0.064	X_WP:	0.000	Y_WP:	0.000	Y_WP:	0.500	X:	0.128	Y:	0.086	Z:	0.401	yaw:	3.648	yaw rate:	2.257	Roll:	4.428	Pitch:	2.531	Yaw:	7.037	Thrust:	24.116
Time:	3.750	Roll Set Point:	-0.262	Pitch Set Point:	-0.164	Yaw Set Point:	-0.063	X_WP:	0.000	Y_WP:	0.000	Y_WP:	0.500	X:	0.128	Y:	0.086	Z:	0.401	yaw:	3.600	yaw rate:	-4.791	Roll:	4.311	Pitch:	2.760	Yaw:	5.782	Thrust:	23.977
Time:	3.766	Roll Set Point:	-0.262	Pitch Set Point:	-0.164	Yaw Set Point:	-0.062	X_WP:	0.000	Y_WP:	0.000	Y_WP:	0.500	X:	0.128	Y:	0.086	Z:	0.401	yaw:	3.566	yaw rate:	-3.427	Roll:	4.350	Pitch:	2.638	Yaw:	5.968	Thrust:	24.419
Time:	3.781	Roll Set Point:	-0.262	Pitch Set Point:	-0.164	Yaw Set Point:	-0.064	X_WP:	0.000	Y_WP:	0.000	Y_WP:	0.500	X:	0.128	Y:	0.086	Z:	0.401	yaw:	3.653	yaw rate:	8.706	Roll:	4.594	Pitch:	2.205	Yaw:	8.122	Thrust:	24.768
Time:	3.797	Roll Set Point:	-0.262	Pitch Set Point:	-0.164	Yaw Set Point:	-0.064	X_WP:	0.000	Y_WP:	0.000	Y_WP:	0.500	X:	0.128	Y:	0.086	Z:	0.401	yaw:	3.653	yaw rate:	8.706	Roll:	4.417	Pitch:	2.568	Yaw:	6.663	Thrust:	24.775
Time:	3.812	Roll Set Point:	-0.262	Pitch Set Point:	-0.164	Yaw Set Point:	-0.063	X_WP:	0.000	Y_WP:	0.000	Y_WP:	0.500	X:	0.128	Y:	0.086	Z:	0.401	yaw:	3.589	yaw rate:	-0.698	Roll:	4.286	Pitch:	2.880	Yaw:	5.499	Thrust:	24.719
Time:	3.828	Roll Set Point:	-0.262	Pitch Set Point:	-0.164	Yaw Set Point:	-0.063	X_WP:	0.000	Y_WP:	0.000	Y_WP:	0.500	X:	0.128	Y:	0.086	Z:	0.401	yaw:	3.589	yaw rate:	-0.698	Roll:	4.424	Pitch:	2.582	Yaw:	6.574	Thrust:	25.144
Time:	3.844	Roll Set Point:	-0.262	Pitch Set Point:	-0.164	Yaw Set Point:	-0.063	X_WP:	0.000	Y_WP:	0.000	Y_WP:	0.500	X:	0.128	Y:	0.086	Z:	0.401	yaw:	3.635	yaw rate:	4.832	Roll:	4.535	Pitch:	2.342	Yaw:	7.406	Thrust:	25.528
Time:	3.859	Roll Set Point:	-0.262	Pitch Set Point:	-0.164	Yaw Set Point:	-0.063	X_WP:	0.000	Y_WP:	0.000	Y_WP:	0.500	X:	0.128	Y:	0.086	Z:	0.401	yaw:	3.602	yaw rate:	-3.278	Roll:	4.369	Pitch:	2.694	Yaw:	6.043	Thrust:	25.508
Time:	3.875	Roll Set Point:	-0.262	Pitch Set Point:	-0.164	Yaw Set Point:	-0.063	X_WP:	0.000	Y_WP:	0.000	Y_WP:	0.500	X:	0.128	Y:	0.086	Z:	0.401	yaw:	3.604	yaw rate:	0.199	Roll:	4.435	Pitch:	2.681	Yaw:	6.628	Thrust:	25.625
Time:	3.891	Roll Set Point:	-0.262	Pitch Set Point:	-0.164	Yaw Set Point:	-0.062	X_WP:	0.000	Y_WP:	0.000	Y_WP:	0.500	X:	0.128	Y:	0.086	Z:	0.401	yaw:	3.551	yaw rate:	-5.276	Roll:	4.345	Pitch:	2.719	Yaw:	5.637	Thrust:	25.807
Time:	3.906	Roll Set Point:	-0.262	Pitch Set Point:	-0.164	Yaw Set Point:	-0.063	X_WP:	0.000	Y_WP:	0.000	Y_WP:	0.500	X:	0.128	Y:	0.086	Z:	0.401	yaw:	3.604	yaw rate:	5.272	Roll:	4.545	Pitch:	2.405	Yaw:	7.478	Thrust:	26.179
Time:	3.922	Roll Set Point:	-0.262	Pitch Set Point:	-0.164	Yaw Set Point:	-0.064	X_WP:	0.000	Y_WP:	0.000	Y_WP:	0.500	X:	0.128	Y:	0.086	Z:	0.401	yaw:	3.644	yaw rate:	4.023	Roll:	4.531	Pitch:	2.459	Yaw:	7.325	Thrust:	26.340
Time:	3.937	Roll Set Point:	-0.262	Pitch Set Point:	-0.164	Yaw Set Point:	-0.064	X_WP:	0.000	Y_WP:	0.000	Y_WP:	0.500	X:	0.128	Y:	0.086	Z:	0.401	yaw:	3.644	yaw rate:	4.023	Roll:	4.460	Pitch:	2.597	Yaw:	6.651	Thrust:	26.448
Time:	3.953	Roll Set Point:	-0.262	Pitch Set Point:	-0.164	Yaw Set Point:	-0.063	X_WP:	0.000	Y_WP:	0.000	Y_WP:	0.500	X:	0.128	Y:	0.086	Z:	0.401	yaw:	3.596	yaw rate:	-4.833	Roll:	4.352	Pitch:	2.817	Yaw:	5.774	Thrust:	26.520
Time:	3.969	Roll Set Point:	-0.262	Pitch Set Point:	-0.164	Yaw Set Point:	-0.063	X_WP:	0.000	Y_WP:	0.000	Y_WP:	0.500	X:	0.128	Y:	0.086	Z:	0.401	yaw:	3.636	yaw rate:	3.849	Roll:	4.559	Pitch:	2.411	Yaw:	7.310	Thrust:	26.917
Time:	3.984	Roll Set Point:	-0.262	Pitch Set Point:	-0.164	Yaw Set Point:	-0.063	X_WP:	0.000	Y_WP:	0.000	Y_WP:	0.500	X:	0.128	Y:	0.086	Z:	0.401	yaw:	3.636	yaw rate:	3.849	Roll:	4.459	Pitch:	2.606	Yaw:	6.639	Thrust:	27.002
Time:	4.000	Roll Set Point:	-0.262	Pitch Set Point:	-0.164	Yaw Set Point:	-0.063	X_WP:	0.000	Y_WP:	0.000	Y_WP:	0.500	X:	0.128	Y:	0.086	Z:	0.401	yaw:	3.582	yaw rate:	-8.092	Roll:	4.317	Pitch:	2.803	Yaw:	5.659	Thrust:	27.053
Time:	4.016	Roll Set Point:	-0.262	Pitch Set Point:	-0.164	Yaw Set Point:	-0.063	X_WP:	0.000	Y_WP:	0.000	Y_WP:	0.500	X:	0.128	Y:	0.086	Z:	0.401	yaw:	3.604	yaw rate:	2.252	Roll:	4.488	Pitch:	2.610	Yaw:	6.973	Thrust:	27.431
Time:	4.031	Roll Set Point:	-0.262	Pitch Set Point:	-0.164	Yaw Set Point:	-0.063	X_WP:	0.000	Y_WP:	0.000	Y_WP:	0.500	X:	0.128	Y:	0.086	Z:	0.401	yaw:	3.604	yaw rate:	2.252	Roll:	4.457	Pitch:	2.620	Yaw:	6.595	Thrust:	27.560
Time:	4.047	Roll Set Point:	-0.262	Pitch Set Point:	-0.164	Yaw Set Point:	-0.063	X_WP:	0.000	Y_WP:	0.000	Y_WP:	0.500	X:	0.128	Y:	0.086	Z:	0.401	yaw:	3.635	yaw rate:	0.677	Roll:	4.593	Pitch:	2.400	Yaw:	7.148	Thrust:	27.860
Time:	4.062	Roll Set Point:	-0.262	Pitch Set Point:	-0.164	Yaw Set Point:	-0.063	X_WP:	0.000	Y_WP:	0.000	Y_WP:	0.500	X:	0.128	Y:	0.086	Z:	0.401	yaw:	3.635	yaw rate:	0.677	Roll:	4.460	Pitch:	2.621	Yaw:	6.638	Thrust:	27.935
Time:	4.078	Roll Set Point:	-0.262	Pitch Set Point:	-0.164	Yaw Set Point:	-0.063	X_WP:	0.000	Y_WP:	0.000	Y_WP:	0.500	X:	0.128	Y:	0.086	Z:	0.401	yaw:	3.614	yaw rate:	-2.054	Roll:	4.379	Pitch:	2.785	Yaw:	6.265	Thrust:	28.039
Time:	4.094	Roll Set Point:	-0.262	Pitch Set Point:	-0.164	Yaw Set Point:	-0.063	X_WP:	0.000	Y_WP:	0.000	Y_WP:	0.500	X:	0.128	Y:	0.086	Z:	0.401	yaw:	3.602	yaw rate:	-2.329	Roll:	4.426	Pitch:	2.649	Yaw:	6.386	Thrust:	28.344
Time:	4.109	Roll Set Point:	-0.262	Pitch Set Point:	-0.164	Yaw Set Point:	-0.063	X_WP:	0.000	Y_WP:	0.000	Y_WP:	0.500	X:	0.128	Y:	0.086	Z:	0.401	yaw:	3.602	yaw rate:	-2.329	Roll:	4.457	Pitch:	2.634	Yaw:	6.592	Thrust:	28.490
Time:	4.125	Roll Set Point:	-0.262	Pitch Set Point:	-0.164	Yaw Set Point:	-0.063	X_WP:	0.000	Y_WP:	0.000	Y_WP:	0.500	X:	0.128	Y:	0.086	Z:	0.401	yaw:	3.637	yaw rate:	3.505	Roll:	4.541	Pitch:	2.488	Yaw:	7.228	Thrust:	28.852
Time:	4.141	Roll Set Point:	-0.262	Pitch Set Point:	-0.164	Yaw Set Point:	-0.063	X_WP:	0.000	Y_WP:	0.000	Y_WP:	0.500	X:	0.128	Y:	0.086	Z:	0.401	yaw:	3.637	yaw rate:	3.505	Roll:	4.461	Pitch:	2.637	Yaw:	6.644	Thrust:	28.914
Time:	4.156	Roll Set Point:	-0.262	Pitch Set Point:	-0.164	Yaw Set Point:	-0.063	X_WP:	0.000	Y_WP:	0.000	Y_WP:	0.500	X:	0.128	Y:	0.086	Z:	0.401	yaw:	3.585	yaw rate:	0.036	Roll:	4.327	Pitch:	2.914	Yaw:	5.696	Thrust:	28.754
Time:	4.172	Roll Set Point:	-0.262	Pitch Set Point:	-0.164	Yaw Set Point:	-0.063	X_WP:	0.000	Y_WP:	0.000	Y_WP:	0.500	X:	0.128	Y:	0.086	Z:	0.401	yaw:	3.585	yaw rate:	0.036	Roll:	4.456	Pitch:	2.650	Yaw:	6.568	Thrust:	29.230
Time:	4.188	Roll Set Point:	-0.262	Pitch Set Point:	-0.164	Yaw Set Point:	-0.063	X_WP:	0.000	Y_WP:	0.000	Y_WP:	0.500	X:	0.128	Y:	0.086	Z:	0.401	yaw:	3.635	yaw rate:	0.697	Roll:	4.598	Pitch:	2.373	Yaw:	7.473	Thrust:	29.635
Time:	4.203	Roll Set Point:	-0.262	Pitch Set Point:	-0.164	Yaw Set Point:	-0.063	X_WP:	0.000	Y_WP:	0.000	Y_WP:	0.500	X:	0.128	Y:	0.086	Z:	0.401	yaw:	3.599	yaw rate:	-3.554	Roll:	4.351	Pitch:	2.845	Yaw:	5.988	Thrust:	29.327
Time:	4.219	Roll Set Point:	-0.262	Pitch Set Point:	-0.164	Yaw Set Point:	-0.062	X_WP:	0.000	Y_WP:	0.000	Y_WP:	0.500	X:	0.128	Y:	0.086	Z:	0.401	yaw:	3.564	yaw rate:	-3.534	Roll:	4.414	Pitch:	2.786	Yaw:	5.947	Thrust:	29.742
Time:	4.234	Roll Set Point:	-0.262	Pitch Set Point:	-0.164	Yaw Set Point:	-0.062	X_WP:	0.000	Y_WP:	0.000	Y_WP:	0.500	X:	0.128	Y:	0.086	Z:	0.401	yaw:	3.564	yaw rate:	-3.534	Roll:	4.457	Pitch:	2.664	Yaw:	6.542	Thrust:	30.027
Time:	4.250	Roll Set Point:	-0.262	Pitch Set Point:	-0.164	Yaw Set Point:	-0.064	X_WP:	0.000	Y_WP:	0.000	Y_WP:	0.500	X:	0.128	Y:	0.086	Z:	0.401	yaw:	3.655	yaw rate:	4.944	Roll:	4.648	Pitch:	2.246	Yaw:	8.190	Thrust:	30.410
Time:	4.266	Roll Set Point:	-0.262	Pitch Set Point:	-0.164	Yaw Set Point:	-0.064	X_WP:	0.000	Y_WP:	0.000	Y_WP:	0.500	X:	0.128	Y:	0.086	Z:	0.401	yaw:	3.655	yaw rate:	4.944	Roll:	4.460	Pitch:	2.658	Yaw:	6.663	Thrust:	30.305
Time:	4.281	Roll Set Point:	-0.262	Pitch Set Point:	-0.164	Yaw Set Point:	-0.062	X_WP:	0.000	Y_WP:	0.000	Y_WP:	0.500	X:	0.128	Y:	0.086	Z:	0.401	yaw:	3.573	yaw rate:	-2.279	Roll:	4.285	Pitch:	3.049	Yaw:	5.177	Thrust:	30.359
Time:	4.297	Roll Set Point:	-0.262	Pitch Set Point:	-0.164	Yaw Set Point:	-0.062	X_WP:	0.000	Y_WP:	0.000	Y_WP:	0.500	X:	0.128	Y:	0.086	Z:	0.401	yaw:	3.573	yaw rate:	-2.279	Roll:	4.456	Pitch:	2.674	Yaw:	6.552	Thrust:	30.720
Time:	4.313	Roll Set Point:	-0.262	Pitch Set Point:	-0.164	Yaw Set Point:	-0.063	X_WP:	0.000	Y_WP:	0.000	Y_WP:	0.500	X:	0.128	Y:	0.086	Z:	0.401	yaw:	3.627	yaw rate:	5.406	Roll:	4.510	Pitch:	2.509	Yaw:	7.533	Thrust:	30.931
Time:	4.328	Roll Set Point:	-0.262	Pitch Set Point:	-0.164	Yaw Set Point:	-0.063	X_WP:	0.000	Y_WP:	0.000	Y_WP:	0.500	X:	0.128	Y:	0.086	Z:	0.401	yaw:	3.611	yaw rate:	-4.172	Roll:	4.431	Pitch:	2.681	Yaw:	6.342	Thrust:	31.154
Time:	4.344	Roll Set Point:	-0.262	Pitch Set Point:	-0.164	Yaw Set Point:	-0.062	X_WP:	0.000	Y_WP:	0.000	Y_WP:	0.500	X:	0.128	Y:	0.086	Z:	0.401	yaw:	3.549	yaw rate:	-6.259	Roll:	4.403	Pitch:	2.889	Yaw:	5.469	Thrust:	31.096
Time:	4.359	Roll Set Point:	-0.262	Pitch Set Point:	-0.164	Yaw Set Point:	-0.062	X_WP:	0.000	Y_WP:	0.000	Y_WP:	0.500	X:	0.128	Y:	0.086	Z:	0.401	yaw:	3.549	yaw rate:	-6.259	Roll:	4.456	Pitch:	2.688	Yaw:	6.518	Thrust:	31.461
Time:	4.375	Roll Set Point:	-0.262	Pitch Set Point:	-0.164	Yaw Set Point:	-0.064	X_WP:	0.000	Y_WP:	0.000	Y_WP:	0.500	X:	0.128	Y:	0.086	Z:	0.401	yaw:	3.642	yaw rate:	5.143	Roll:	4.621	Pitch:	2.368	Yaw:	8.209	Thrust:	31.955
Time:	4.391	Roll Set Point:	-0.262	Pitch Set Point:	-0.164	Yaw Set Point:	-0.064	X_WP:	0.000	Y_WP:	0.000	Y_WP:	0.500	X:	0.128	Y:	0.086	Z:	0.401	yaw:	3.659	yaw rate:	1.702	Roll:	4.460	Pitch:	2.666	Yaw:	6.959	Thrust:	31.931
Time:	4.406	Roll Set Point:	-0.262	Pitch Set Point:	-0.164	Yaw Set Point:	-0.062	X_WP:	0.000	Y_WP:	0.000	Y_WP:	0.500	X:	0.128	Y:	0.086	Z:	0.401	yaw:	3.579	yaw rate:	-8.012	Roll:	4.334	Pitch:	2.951	Yaw:	5.212	Thrust:	31.672
Time:	4.422	Roll Set Point:	-0.262	Pitch Set Point:	-0.164	Yaw Set Point:	-0.062	X_WP:	0.000	Y_WP:	0.000	Y_WP:	0.500	X:	0.128	Y:	0.086	Z:	0.401	yaw:	3.579	yaw rate:	-8.012	Roll:	4.457	Pitch:	2.698	Yaw:	6.560	Thrust:	32.204
Time:	4.438	Roll Set Point:	-0.262	Pitch Set Point:	-0.164	Yaw Set Point:	-0.064	X_WP:	0.000	Y_WP:	0.000	Y_WP:	0.500	X:	0.128	Y:	0.086	Z:	0.401	yaw:	3.642	yaw rate:	-0.006	Roll:	4.575	Pitch:	2.474	Yaw:	7.708	Thrust:	32.717
Time:	4.453	Roll Set Point:	-0.262	Pitch Set Point:	-0.164	Yaw Set Point:	-0.064	X_WP:	0.000	Y_WP:	0.000	Y_WP:	0.500	X:	0.128	Y:	0.086	Z:	0.401	yaw:	3.675	yaw rate:	3.272	Roll:	4.484	Pitch:	2.587	Yaw:	7.240	Thrust:	32.506
Time:	4.469	Roll Set Point:	-0.262	Pitch Set Point:	-0.164	Yaw Set Point:	-0.064	X_WP:	0.000	Y_WP:	0.000	Y_WP:	0.500	X:	0.128	Y:	0.086	Z:	0.401	yaw:	3.675	yaw rate:	3.272	Roll:	4.460	Pitch:	2.698	Yaw:	6.694	Thrust:	32.768
Time:	4.484	Roll Set Point:	-0.262	Pitch Set Point:	-0.164	Yaw Set Point:	-0.062	X_WP:	0.000	Y_WP:	0.000	Y_WP:	0.500	X:	0.128	Y:	0.086	Z:	0.401	yaw:	3.577	yaw rate:	-1.256	Roll:	4.311	Pitch:	3.042	Yaw:	4.917	Thrust:	32.669
Time:	4.500	Roll Set Point:	-0.262	Pitch Set Point:	-0.164	Yaw Set Point:	-0.063	X_WP:	0.000	Y_WP:	0.000	Y_WP:	0.500	X:	0.128	Y:	0.086	Z:	0.401	yaw:	3.601	yaw rate:	2.417	Roll:	4.480	Pitch:	2.646	Yaw:	6.998	Thrust:	33.387
Time:	4.516	Roll Set Point:	-0.262	Pitch Set Point:	-0.164	Yaw Set Point:	-0.064	X_WP:	0.000	Y_WP:	0.000	Y_WP:	0.500	X:	0.128	Y:	0.086	Z:	0.401	yaw:	3.641	yaw rate:	3.981	Roll:	4.587	Pitch:	2.535	Yaw:	7.312	Thrust:	33.365
Time:	4.531	Roll Set Point:	-0.262	Pitch Set Point:	-0.164	Yaw Set Point:	-0.062	X_WP:	0.000	Y_WP:	0.000	Y_WP:	0.500	X:	0.128	Y:	0.086	Z:	0.401	yaw:	3.573	yaw rate:	-6.815	Roll:	4.317	Pitch:	2.972	Yaw:	5.410	Thrust:	33.355
Time:	4.547	Roll Set Point:	-0.262	Pitch Set Point:	-0.164	Yaw Set Point:	-0.063	X_WP:	0.000	Y_WP:	0.000	Y_WP:	0.500	X:	0.128	Y:	0.086	Z:	0.401	yaw:	3.616	yaw rate:	4.319	Roll:	4.502	Pitch:	2.598	Yaw:	7.335	Thrust:	33.647
Time:	4.563	Roll Set Point:	-0.262	Pitch Set Point:	-0.164	Yaw Set Point:	-0.062	X_WP:	0.000	Y_WP:	0.000	Y_WP:	0.500	X:	0.128	Y:	0.086	Z:	0.401	yaw:	3.578	yaw rate:	-3.744	Roll:	4.411	Pitch:	2.799	Yaw:	5.932	Thrust:	33.902
Time:	4.578	Roll Set Point:	-0.262	Pitch Set Point:	-0.164	Yaw Set Point:	-0.064	X_WP:	0.000	Y_WP:	0.000	Y_WP:	0.500	X:	0.128	Y:	0.086	Z:	0.401	yaw:	3.639	yaw rate:	6.093	Roll:	4.578	Pitch:	2.518	Yaw:	7.665	Thrust:	34.190
Time:	4.594	Roll Set Point:	-0.262	Pitch Set Point:	-0.164	Yaw Set Point:	-0.064	X_WP:	0.000	Y_WP:	0.000	Y_WP:	0.500	X:	0.128	Y:	0.086	Z:	0.401	yaw:	3.639	yaw rate:	6.093	Roll:	4.460	Pitch:	2.725	Yaw:	6.645	Thrust:	34.259
Time:	4.609	Roll Set Point:	-0.262	Pitch Set Point:	-0.164	Yaw Set Point:	-0.062	X_WP:	0.000	Y_WP:	0.000	Y_WP:	0.500	X:	0.128	Y:	0.086	Z:	0.401	yaw:	3.567	yaw rate:	-7.270	Roll:	4.314	Pitch:	2.982	Yaw:	5.324	Thrust:	34.206
Time:	4.625	Roll Set Point:	-0.262	Pitch Set Point:	-0.164	Yaw Set Point:	-0.062	X_WP:	0.000	Y_WP:	0.000	Y_WP:	0.500	X:	0.128	Y:	0.086	Z:	0.401	yaw:	3.567	yaw rate:	-7.270	Roll:	4.456	Pitch:	2.738	Yaw:	6.543	Thrust:	34.620
Time:	4.640	Roll Set Point:	-0.262	Pitch Set Point:	-0.164	Yaw Set Point:	-0.064	X_WP:	0.000	Y_WP:	0.000	Y_WP:	0.500	X:	0.128	Y:	0.086	Z:	0.401	yaw:	3.652	yaw rate:	8.292	Roll:	4.602	Pitch:	2.449	Yaw:	8.079	Thrust:	34.402
Time:	4.656	Roll Set Point:	-0.262	Pitch Set Point:	-0.164	Yaw Set Point:	-0.064	X_WP:	0.000	Y_WP:	0.000	Y_WP:	0.500	X:	0.128	Y:	0.086	Z:	0.401	yaw:	3.652	yaw rate:	8.292	Roll:	4.460	Pitch:	2.737	Yaw:	6.661	Thrust:	35.001
Time:	4.672	Roll Set Point:	-0.262	Pitch Set Point:	-0.164	Yaw Set Point:	-0.062	X_WP:	0.000	Y_WP:	0.000	Y_WP:	0.500	X:	0.128	Y:	0.086	Z:	0.401	yaw:	3.567	yaw rate:	-8.959	Roll:	4.281	Pitch:	3.080	Yaw:	5.124	Thrust:	35.026
Time:	4.687	Roll Set Point:	-0.262	Pitch Set Point:	-0.164	Yaw Set Point:	-0.062	X_WP:	0.000	Y_WP:	0.000	Y_WP:	0.500	X:	0.128	Y:	0.086	Z:	0.401	yaw:	3.567	yaw rate:	-8.959	Roll:	4.456	Pitch:	2.752	Yaw:	6.543	Thrust:	35.373
Time:	4.703	Roll Set Point:	-0.262	Pitch Set Point:	-0.164	Yaw Set Point:	-0.064	X_WP:	0.000	Y_WP:	0.000	Y_WP:	0.500	X:	0.128	Y:	0.086	Z:	0.401	yaw:	3.651	yaw rate:	8.457	Roll:	4.634	Pitch:	2.413	Yaw:	8.078	Thrust:	35.694
Time:	4.718	Roll Set Point:	-0.262	Pitch Set Point:	-0.164	Yaw Set Point:	-0.064	X_WP:	0.000	Y_WP:	0.000	Y_WP:	0.500	X:	0.128	Y:	0.086	Z:	0.401	yaw:	3.640	yaw rate:	-1.178	Roll:	4.444	Pitch:	2.787	Yaw:	6.447	Thrust:	35.711
Time:	4.734	Roll Set Point:	-0.262	Pitch Set Point:	-0.164	Yaw Set Point:	-0.064	X_WP:	0.000	Y_WP:	0.000	Y_WP:	0.500	X:	0.128	Y:	0.086	Z:	0.401	yaw:	3.640	yaw rate:	-1.178	Roll:	4.460	Pitch:	2.753	Yaw:	6.645	Thrust:	35.928
Time:	4.750	Roll Set Point:	-0.262	Pitch Set Point:	-0.164	Yaw Set Point:	-0.062	X_WP:	0.000	Y_WP:	0.000	Y_WP:	0.500	X:	0.128	Y:	0.086	Z:	0.401	yaw:	3.577	yaw rate:	-6.294	Roll:	4.318	Pitch:	2.949	Yaw:	5.502	Thrust:	35.934
Time:	4.765	Roll Set Point:	-0.262	Pitch Set Point:	-0.164	Yaw Set Point:	-0.063	X_WP:	0.000	Y_WP:	0.000	Y_WP:	0.500	X:	0.128	Y:	0.086	Z:	0.401	yaw:	3.635	yaw rate:	8.110	Roll:	4.590	Pitch:	2.592	Yaw:	7.622	Thrust:	36.409
Time:	4.781	Roll Set Point:	-0.262	Pitch Set Point:	-0.164	Yaw Set Point:	-0.064	X_WP:	0.000	Y_WP:	0.000	Y_WP:	0.500	X:	0.128	Y:	0.086	Z:	0.401	yaw:	3.672	yaw rate:	3.699	Roll:	4.523	Pitch:	2.625	Yaw:	7.310	Thrust:	36.660
Time:	4.797	Roll Set Point:	-0.262	Pitch Set Point:	-0.164	Yaw Set Point:	-0.064	X_WP:	0.000	Y_WP:	0.000	Y_WP:	0.500	X:	0.128	Y:	0.086	Z:	0.401	yaw:	3.672	yaw rate:	3.699	Roll:	4.461	Pitch:	2.762	Yaw:	6.690	Thrust:	36.671
Time:	4.812	Roll Set Point:	-0.262	Pitch Set Point:	-0.164	Yaw Set Point:	-0.063	X_WP:	0.000	Y_WP:	0.000	Y_WP:	0.500	X:	0.128	Y:	0.086	Z:	0.401	yaw:	3.597	yaw rate:	-7.553	Roll:	4.294	Pitch:	3.017	Yaw:	5.319	Thrust:	36.512
Time:	4.828	Roll Set Point:	-0.262	Pitch Set Point:	-0.164	Yaw Set Point:	-0.063	X_WP:	0.000	Y_WP:	0.000	Y_WP:	0.500	X:	0.128	Y:	0.086	Z:	0.401	yaw:	3.611	yaw rate:	1.788	Roll:	4.521	Pitch:	2.740	Yaw:	6.849	Thrust:	37.167
Time:	4.843	Roll Set Point:	-0.262	Pitch Set Point:	-0.164	Yaw Set Point:	-0.064	X_WP:	0.000	Y_WP:	0.000	Y_WP:	0.500	X:	0.128	Y:	0.086	Z:	0.401	yaw:	3.665	yaw rate:	5.318	Roll:	4.547	Pitch:	2.577	Yaw:	7.570	Thrust:	37.390
Time:	4.859	Roll Set Point:	-0.262	Pitch Set Point:	-0.164	Yaw Set Point:	-0.063	X_WP:	0.000	Y_WP:	0.000	Y_WP:	0.500	X:	0.128	Y:	0.086	Z:	0.401	yaw:	3.608	yaw rate:	-5.642	Roll:	4.376	Pitch:	2.936	Yaw:	5.658	Thrust:	37.287
Time:	4.875	Roll Set Point:	-0.262	Pitch Set Point:	-0.164	Yaw Set Point:	-0.062	X_WP:	0.000	Y_WP:	0.000	Y_WP:	0.500	X:	0.128	Y:	0.086	Z:	0.401	yaw:	3.570	yaw rate:	-3.775	Roll:	4.342	Pitch:	2.971	Yaw:	5.913	Thrust:	37.492
Time:	4.890	Roll Set Point:	-0.262	Pitch Set Point:	-0.164	Yaw Set Point:	-0.063	X_WP:	0.000	Y_WP:	0.000	Y_WP:	0.500	X:	0.128	Y:	0.086	Z:	0.401	yaw:	3.616	yaw rate:	4.550	Roll:	4.557	Pitch:	2.652	Yaw:	7.375	Thrust:	37.762
Time:	4.906	Roll Set Point:	-0.262	Pitch Set Point:	-0.164	Yaw Set Point:	-0.063	X_WP:	0.000	Y_WP:	0.000	Y_WP:	0.500	X:	0.128	Y:	0.086	Z:	0.401	yaw:	3.616	yaw rate:	4.550	Roll:	4.457	Pitch:	2.788	Yaw:	6.609	Thrust:	37.914
Time:	4.922	Roll Set Point:	-0.262	Pitch Set Point:	-0.164	Yaw Set Point:	-0.063	X_WP:	0.000	Y_WP:	0.000	Y_WP:	0.500	X:	0.128	Y:	0.086	Z:	0.401	yaw:	3.624	yaw rate:	-2.334	Roll:	4.481	Pitch:	2.694	Yaw:	6.754	Thrust:	38.294
Time:	4.937	Roll Set Point:	-0.262	Pitch Set Point:	-0.164	Yaw Set Point:	-0.062	X_WP:	0.000	Y_WP:	0.000	Y_WP:	0.500	X:	0.128	Y:	0.086	Z:	0.401	yaw:	3.553	yaw rate:	-7.099	Roll:	4.289	Pitch:	3.090	Yaw:	5.334	Thrust:	38.216
Time:	4.953	Roll Set Point:	-0.262	Pitch Set Point:	-0.164	Yaw Set Point:	-0.063	X_WP:	0.000	Y_WP:	0.000	Y_WP:	0.500	X:	0.128	Y:	0.086	Z:	0.401	yaw:	3.596	yaw rate:	4.360	Roll:	4.587	Pitch:	2.641	Yaw:	7.315	Thrust:	38.588
Time:	4.968	Roll Set Point:	-0.262	Pitch Set Point:	-0.164	Yaw Set Point:	-0.064	X_WP:	0.000	Y_WP:	0.000	Y_WP:	0.500	X:	0.128	Y:	0.086	Z:	0.401	yaw:	3.647	yaw rate:	5.110	Roll:	4.526	Pitch:	2.631	Yaw:	7.511	Thrust:	38.861
Time:	4.984	Roll Set Point:	-0.262	Pitch Set Point:	-0.164	Yaw Set Point:	-0.063	X_WP:	0.000	Y_WP:	0.000	Y_WP:	0.500	X:	0.128	Y:	0.086	Z:	0.401	yaw:	3.605	yaw rate:	-4.219	Roll:	4.365	Pitch:	2.942	Yaw:	5.890	Thrust:	38.876
Time:	5.000	Roll Set Point:	-0.262	Pitch Set Point:	-0.164	Yaw Set Point:	-0.063	X_WP:	0.000	Y_WP:	0.000	Y_WP:	0.500	X:	0.128	Y:	0.086	Z:	0.401	yaw:	3.605	yaw rate:	-4.219	Roll:	4.458	Pitch:	2.809	Yaw:	6.600	Thrust:	39.152
Time:	5.015	Roll Set Point:	-0.262	Pitch Set Point:	-0.164	Yaw Set Point:	-0.062	X_WP:	0.000	Y_WP:	0.000	Y_WP:	0.500	X:	0.128	Y:	0.086	Z:	0.401	yaw:	3.570	yaw rate:	-3.492	Roll:	4.386	Pitch:	2.932	Yaw:	5.959	Thrust:	38.956
Time:	5.031	Roll Set Point:	-0.262	Pitch Set Point:	-0.164	Yaw Set Point:	-0.062	X_WP:	0.000	Y_WP:	0.000	Y_WP:	0.500	X:	0.128	Y:	0.086	Z:	0.401	yaw:	3.577	yaw rate:	0.685	Roll:	4.453	Pitch:	2.822	Yaw:	6.672	Thrust:	39.567
Time:	5.047	Roll Set Point:	-0.262	Pitch Set Point:	-0.164	Yaw Set Point:	-0.064	X_WP:	0.000	Y_WP:	0.000	Y_WP:	0.500	X:	0.128	Y:	0.086	Z:	0.401	yaw:	3.656	yaw rate:	-0.885	Roll:	4.621	Pitch:	2.526	Yaw:	7.979	Thrust:	39.863
Time:	5.062	Roll Set Point:	-0.262	Pitch Set Point:	-0.164	Yaw Set Point:	-0.063	X_WP:	0.000	Y_WP:	0.000	Y_WP:	0.500	X:	0.128	Y:	0.086	Z:	0.401	yaw:	3.596	yaw rate:	-5.967	Roll:	4.357	Pitch:	3.023	Yaw:	5.584	Thrust:	39.511
Time:	5.078	Roll Set Point:	-0.262	Pitch Set Point:	-0.164	Yaw Set Point:	-0.062	X_WP:	0.000	Y_WP:	0.000	Y_WP:	0.500	X:	0.128	Y:	0.086	Z:	0.401	yaw:	3.571	yaw rate:	-2.445	Roll:	4.412	Pitch:	2.942	Yaw:	6.140	Thrust:	40.112
Time:	5.093	Roll Set Point:	-0.262	Pitch Set Point:	-0.164	Yaw Set Point:	-0.063	X_WP:	0.000	Y_WP:	0.000	Y_WP:	0.500	X:	0.128	Y:	0.086	Z:	0.401	yaw:	3.611	yaw rate:	3.974	Roll:	4.545	Pitch:	2.619	Yaw:	7.271	Thrust:	40.289
Time:	5.109	Roll Set Point:	-0.262	Pitch Set Point:	-0.164	Yaw Set Point:	-0.063	X_WP:	0.000	Y_WP:	0.000	Y_WP:	0.500	X:	0.128	Y:	0.086	Z:	0.401	yaw:	3.611	yaw rate:	3.974	Roll:	4.458	Pitch:	2.828	Yaw:	6.605	Thrust:	40.386
Time:	5.125	Roll Set Point:	-0.262	Pitch Set Point:	-0.164	Yaw Set Point:	-0.064	X_WP:	0.000	Y_WP:	0.000	Y_WP:	0.500	X:	0.128	Y:	0.086	Z:	0.401	yaw:	3.671	yaw rate:	5.965	Roll:	4.562	Pitch:	2.654	Yaw:	7.687	Thrust:	40.677
Time:	5.140	Roll Set Point:	-0.262	Pitch Set Point:	-0.164	Yaw Set Point:	-0.062	X_WP:	0.000	Y_WP:	0.000	Y_WP:	0.500	X:	0.128	Y:	0.086	Z:	0.401	yaw:	3.567	yaw rate:	-0.394	Roll:	4.256	Pitch:	3.199	Yaw:	4.796	Thrust:	40.475
Time:	5.156	Roll Set Point:	-0.262	Pitch Set Point:	-0.164	Yaw Set Point:	-0.063	X_WP:	0.000	Y_WP:	0.000	Y_WP:	0.500	X:	0.128	Y:	0.086	Z:	0.401	yaw:	3.614	yaw rate:	4.754	Roll:	4.535	Pitch:	2.696	Yaw:	7.405	Thrust:	41.049
Time:	5.172	Roll Set Point:	-0.262	Pitch Set Point:	-0.164	Yaw Set Point:	-0.064	X_WP:	0.000	Y_WP:	0.000	Y_WP:	0.500	X:	0.128	Y:	0.086	Z:	0.401	yaw:	3.655	yaw rate:	4.120	Roll:	4.582	Pitch:	2.624	Yaw:	7.357	Thrust:	41.330
Time:	5.187	Roll Set Point:	-0.262	Pitch Set Point:	-0.164	Yaw Set Point:	-0.064	X_WP:	0.000	Y_WP:	0.000	Y_WP:	0.500	X:	0.128	Y:	0.086	Z:	0.401	yaw:	3.645	yaw rate:	-0.998	Roll:	4.366	Pitch:	2.960	Yaw:	6.485	Thrust:	41.153
Time:	5.203	Roll Set Point:	-0.262	Pitch Set Point:	-0.164	Yaw Set Point:	-0.064	X_WP:	0.000	Y_WP:	0.000	Y_WP:	0.500	X:	0.128	Y:	0.086	Z:	0.401	yaw:	3.645	yaw rate:	-0.998	Roll:	4.458	Pitch:	2.841	Yaw:	6.653	Thrust:	41.502
Time:	5.218	Roll Set Point:	-0.262	Pitch Set Point:	-0.164	Yaw Set Point:	-0.062	X_WP:	0.000	Y_WP:	0.000	Y_WP:	0.500	X:	0.128	Y:	0.086	Z:	0.401	yaw:	3.545	yaw rate:	-10.032	Roll:	4.296	Pitch:	3.133	Yaw:	4.832	Thrust:	41.467
Time:	5.234	Roll Set Point:	-0.262	Pitch Set Point:	-0.164	Yaw Set Point:	-0.063	X_WP:	0.000	Y_WP:	0.000	Y_WP:	0.500	X:	0.128	Y:	0.086	Z:	0.401	yaw:	3.602	yaw rate:	1.703	Roll:	4.600	Pitch:	2.583	Yaw:	7.552	Thrust:	42.125
Time:	5.250	Roll Set Point:	-0.262	Pitch Set Point:	-0.164	Yaw Set Point:	-0.063	X_WP:	0.000	Y_WP:	0.000	Y_WP:	0.500	X:	0.128	Y:	0.086	Z:	0.401	yaw:	3.637	yaw rate:	3.492	Roll:	4.526	Pitch:	2.769	Yaw:	7.226	Thrust:	42.079
Time:	5.265	Roll Set Point:	-0.262	Pitch Set Point:	-0.164	Yaw Set Point:	-0.062	X_WP:	0.000	Y_WP:	0.000	Y_WP:	0.500	X:	0.128	Y:	0.086	Z:	0.401	yaw:	3.576	yaw rate:	-6.088	Roll:	4.310	Pitch:	3.115	Yaw:	5.536	Thrust:	42.100
Time:	5.281	Roll Set Point:	-0.262	Pitch Set Point:	-0.164	Yaw Set Point:	-0.062	X_WP:	0.000	Y_WP:	0.000	Y_WP:	0.500	X:	0.128	Y:	0.086	Z:	0.401	yaw:	3.576	yaw rate:	-6.088	Roll:	4.456	Pitch:	2.847	Yaw:	6.557	Thrust:	42.441
Time:	5.297	Roll Set Point:	-0.262	Pitch Set Point:	-0.164	Yaw Set Point:	-0.063	X_WP:	0.000	Y_WP:	0.000	Y_WP:	0.500	X:	0.128	Y:	0.086	Z:	0.401	yaw:	3.625	yaw rate:	3.121	Roll:	4.558	Pitch:	2.627	Yaw:	7.433	Thrust:	42.863
Time:	5.312	Roll Set Point:	-0.262	Pitch Set Point:	-0.164	Yaw Set Point:	-0.063	X_WP:	0.000	Y_WP:	0.000	Y_WP:	0.500	X:	0.128	Y:	0.086	Z:	0.401	yaw:	3.625	yaw rate:	3.121	Roll:	4.458	Pitch:	2.841	Yaw:	6.623	Thrust:	42.788
Time:	5.328	Roll Set Point:	-0.262	Pitch Set Point:	-0.164	Yaw Set Point:	-0.063	X_WP:	0.000	Y_WP:	0.000	Y_WP:	0.500	X:	0.128	Y:	0.086	Z:	0.401	yaw:	3.615	yaw rate:	-4.401	Roll:	4.256	Pitch:	3.103	Yaw:	6.456	Thrust:	42.023
Time:	5.343	Roll Set Point:	-0.262	Pitch Set Point:	-0.164	Yaw Set Point:	-0.062	X_WP:	0.000	Y_WP:	0.000	Y_WP:	0.500	X:	0.128	Y:	0.086	Z:	0.401	yaw:	3.580	yaw rate:	-3.509	Roll:	4.570	Pitch:	2.788	Yaw:	5.974	Thrust:	43.793
Time:	5.359	Roll Set Point:	-0.262	Pitch Set Point:	-0.164	Yaw Set Point:	-0.063	X_WP:	0.000	Y_WP:	0.000	Y_WP:	0.500	X:	0.128	Y:	0.086	Z:	0.401	yaw:	3.629	yaw rate:	4.836	Roll:	4.559	Pitch:	2.669	Yaw:	7.440	Thrust:	43.482
Time:	5.375	Roll Set Point:	-0.262	Pitch Set Point:	-0.164	Yaw Set Point:	-0.063	X_WP:	0.000	Y_WP:	0.000	Y_WP:	0.500	X:	0.128	Y:	0.086	Z:	0.401	yaw:	3.633	yaw rate:	0.407	Roll:	4.490	Pitch:	2.742	Yaw:	6.703	Thrust:	43.828
Time:	5.390	Roll Set Point:	-0.262	Pitch Set Point:	-0.164	Yaw Set Point:	-0.063	X_WP:	0.000	Y_WP:	0.000	Y_WP:	0.500	X:	0.128	Y:	0.086	Z:	0.401	yaw:	3.629	yaw rate:	-0.376	Roll:	4.458	Pitch:	2.919	Yaw:	6.567	Thrust:	43.372
Time:	5.406	Roll Set Point:	-0.262	Pitch Set Point:	-0.164	Yaw Set Point:	-0.063	X_WP:	0.000	Y_WP:	0.000	Y_WP:	0.500	X:	0.128	Y:	0.086	Z:	0.401	yaw:	3.629	yaw rate:	-0.376	Roll:	4.460	Pitch:	2.841	Yaw:	6.630	Thrust:	43.912
Time:	5.422	Roll Set Point:	-0.262	Pitch Set Point:	-0.164	Yaw Set Point:	-0.064	X_WP:	0.000	Y_WP:	0.000	Y_WP:	0.500	X:	0.128	Y:	0.086	Z:	0.401	yaw:	3.644	yaw rate:	-0.093	Roll:	4.481	Pitch:	2.843	Yaw:	6.898	Thrust:	44.318
Time:	5.437	Roll Set Point:	-0.262	Pitch Set Point:	-0.164	Yaw Set Point:	-0.064	X_WP:	0.000	Y_WP:	0.000	Y_WP:	0.500	X:	0.128	Y:	0.086	Z:	0.401	yaw:	3.674	yaw rate:	3.057	Roll:	4.527	Pitch:	2.631	Yaw:	7.205	Thrust:	44.365
Time:	5.453	Roll Set Point:	-0.262	Pitch Set Point:	-0.164	Yaw Set Point:	-0.063	X_WP:	0.000	Y_WP:	0.000	Y_WP:	0.500	X:	0.128	Y:	0.086	Z:	0.401	yaw:	3.613	yaw rate:	-6.105	Roll:	4.287	Pitch:	3.144	Yaw:	5.585	Thrust:	44.255
Time:	5.469	Roll Set Point:	-0.262	Pitch Set Point:	-0.164	Yaw Set Point:	-0.063	X_WP:	0.000	Y_WP:	0.000	Y_WP:	0.500	X:	0.128	Y:	0.086	Z:	0.401	yaw:	3.613	yaw rate:	-6.105	Roll:	4.457	Pitch:	2.844	Yaw:	6.608	Thrust:	44.653
Time:	5.484	Roll Set Point:	-0.262	Pitch Set Point:	-0.164	Yaw Set Point:	-0.064	X_WP:	0.000	Y_WP:	0.000	Y_WP:	0.500	X:	0.128	Y:	0.086	Z:	0.401	yaw:	3.644	yaw rate:	-0.604	Roll:	4.334	Pitch:	2.965	Yaw:	7.158	Thrust:	44.180
Time:	5.500	Roll Set Point:	-0.262	Pitch Set Point:	-0.164	Yaw Set Point:	-0.064	X_WP:	0.000	Y_WP:	0.000	Y_WP:	0.500	X:	0.128	Y:	0.086	Z:	0.401	yaw:	3.640	yaw rate:	-0.311	Roll:	4.685	Pitch:	2.519	Yaw:	6.594	Thrust:	45.793
Time:	5.515	Roll Set Point:	-0.262	Pitch Set Point:	-0.164	Yaw Set Point:	-0.064	X_WP:	0.000	Y_WP:	0.000	Y_WP:	0.500	X:	0.128	Y:	0.086	Z:	0.401	yaw:	3.654	yaw rate:	1.389	Roll:	4.452	Pitch:	2.832	Yaw:	6.898	Thrust:	45.349
Time:	5.531	Roll Set Point:	-0.262	Pitch Set Point:	-0.164	Yaw Set Point:	-0.064	X_WP:	0.000	Y_WP:	0.000	Y_WP:	0.500	X:	0.128	Y:	0.086	Z:	0.401	yaw:	3.654	yaw rate:	1.389	Roll:	4.460	Pitch:	2.838	Yaw:	6.665	Thrust:	45.403
Time:	5.547	Roll Set Point:	-0.262	Pitch Set Point:	-0.164	Yaw Set Point:	-0.064	X_WP:	0.000	Y_WP:	0.000	Y_WP:	0.500	X:	0.128	Y:	0.086	Z:	0.401	yaw:	3.655	yaw rate:	0.106	Roll:	4.269	Pitch:	3.110	Yaw:	6.684	Thrust:	44.565
Time:	5.562	Roll Set Point:	-0.262	Pitch Set Point:	-0.164	Yaw Set Point:	-0.064	X_WP:	0.000	Y_WP:	0.000	Y_WP:	0.500	X:	0.128	Y:	0.086	Z:	0.401	yaw:	3.654	yaw rate:	7.798	Roll:	4.683	Pitch:	2.564	Yaw:	6.636	Thrust:	46.714
Time:	5.578	Roll Set Point:	-0.262	Pitch Set Point:	-0.164	Yaw Set Point:	-0.064	X_WP:	0.000	Y_WP:	0.000	Y_WP:	0.500	X:	0.128	Y:	0.086	Z:	0.401	yaw:	3.645	yaw rate:	-0.906	Roll:	4.443	Pitch:	2.856	Yaw:	6.500	Thrust:	45.876
Time:	5.594	Roll Set Point:	-0.262	Pitch Set Point:	-0.164	Yaw Set Point:	-0.064	X_WP:	0.000	Y_WP:	0.000	Y_WP:	0.500	X:	0.128	Y:	0.086	Z:	0.401	yaw:	3.645	yaw rate:	-0.906	Roll:	4.460	Pitch:	2.838	Yaw:	6.652	Thrust:	46.146
Time:	5.609	Roll Set Point:	-0.262	Pitch Set Point:	-0.164	Yaw Set Point:	-0.062	X_WP:	0.000	Y_WP:	0.000	Y_WP:	0.500	X:	0.128	Y:	0.086	Z:	0.401	yaw:	3.577	yaw rate:	-6.749	Roll:	4.285	Pitch:	3.177	Yaw:	5.427	Thrust:	46.132
Time:	5.625	Roll Set Point:	-0.262	Pitch Set Point:	-0.164	Yaw Set Point:	-0.063	X_WP:	0.000	Y_WP:	0.000	Y_WP:	0.500	X:	0.128	Y:	0.086	Z:	0.401	yaw:	3.636	yaw rate:	-0.795	Roll:	4.556	Pitch:	2.660	Yaw:	7.618	Thrust:	46.719
Time:	5.640	Roll Set Point:	-0.262	Pitch Set Point:	-0.164	Yaw Set Point:	-0.064	X_WP:	0.000	Y_WP:	0.000	Y_WP:	0.500	X:	0.128	Y:	0.086	Z:	0.401	yaw:	3.660	yaw rate:	2.399	Roll:	4.561	Pitch:	2.626	Yaw:	7.051	Thrust:	46.013
Time:	5.656	Roll Set Point:	-0.262	Pitch Set Point:	-0.164	Yaw Set Point:	-0.064	X_WP:	0.000	Y_WP:	0.000	Y_WP:	0.500	X:	0.128	Y:	0.086	Z:	0.401	yaw:	3.660	yaw rate:	2.399	Roll:	4.461	Pitch:	2.837	Yaw:	6.672	Thrust:	46.890
Time:	5.671	Roll Set Point:	-0.262	Pitch Set Point:	-0.164	Yaw Set Point:	-0.064	X_WP:	0.000	Y_WP:	0.000	Y_WP:	0.500	X:	0.128	Y:	0.086	Z:	0.401	yaw:	3.653	yaw rate:	3.898	Roll:	4.199	Pitch:	3.148	Yaw:	6.559	Thrust:	46.041
Time:	5.687	Roll Set Point:	-0.262	Pitch Set Point:	-0.164	Yaw Set Point:	-0.063	X_WP:	0.000	Y_WP:	0.000	Y_WP:	0.500	X:	0.128	Y:	0.086	Z:	0.401	yaw:	3.587	yaw rate:	-6.652	Roll:	4.559	Pitch:	2.794	Yaw:	5.456	Thrust:	48.062
Time:	5.703	Roll Set Point:	-0.262	Pitch Set Point:	-0.164	Yaw Set Point:	-0.064	X_WP:	0.000	Y_WP:	0.000	Y_WP:	0.500	X:	0.128	Y:	0.086	Z:	0.401	yaw:	3.683	yaw rate:	9.623	Roll:	4.633	Pitch:	2.495	Yaw:	8.317	Thrust:	47.636
Time:	5.718	Roll Set Point:	-0.262	Pitch Set Point:	-0.164	Yaw Set Point:	-0.064	X_WP:	0.000	Y_WP:	0.000	Y_WP:	0.500	X:	0.128	Y:	0.086	Z:	0.401	yaw:	3.664	yaw rate:	-1.921	Roll:	4.434	Pitch:	2.954	Yaw:	6.357	Thrust:	47.523
Time:	5.734	Roll Set Point:	-0.262	Pitch Set Point:	-0.164	Yaw Set Point:	-0.064	X_WP:	0.000	Y_WP:	0.000	Y_WP:	0.500	X:	0.128	Y:	0.086	Z:	0.401	yaw:	3.662	yaw rate:	-0.220	Roll:	4.202	Pitch:	3.116	Yaw:	6.638	Thrust:	46.975
Time:	5.749	Roll Set Point:	-0.262	Pitch Set Point:	-0.164	Yaw Set Point:	-0.062	X_WP:	0.000	Y_WP:	0.000	Y_WP:	0.500	X:	0.128	Y:	0.086	Z:	0.401	yaw:	3.546	yaw rate:	-11.527	Roll:	4.486	Pitch:	2.980	Yaw:	4.583	Thrust:	48.573
Time:	5.765	Roll Set Point:	-0.262	Pitch Set Point:	-0.164	Yaw Set Point:	-0.062	X_WP:	0.000	Y_WP:	0.000	Y_WP:	0.500	X:	0.128	Y:	0.086	Z:	0.401	yaw:	3.546	yaw rate:	-11.527	Roll:	4.455	Pitch:	2.849	Yaw:	6.514	Thrust:	48.178
Time:	5.781	Roll Set Point:	-0.262	Pitch Set Point:	-0.163	Yaw Set Point:	-0.064	X_WP:	0.000	Y_WP:	0.000	Y_WP:	0.500	X:	0.128	Y:	0.086	Z:	0.401	yaw:	3.694	yaw rate:	14.712	Roll:	4.718	Pitch:	2.286	Yaw:	9.184	Thrust:	48.746
Time:	5.796	Roll Set Point:	-0.262	Pitch Set Point:	-0.164	Yaw Set Point:	-0.064	X_WP:	0.000	Y_WP:	0.000	Y_WP:	0.500	X:	0.128	Y:	0.086	Z:	0.401	yaw:	3.655	yaw rate:	-3.828	Roll:	4.145	Pitch:	3.296	Yaw:	6.025	Thrust:	47.643
Time:	5.812	Roll Set Point:	-0.262	Pitch Set Point:	-0.164	Yaw Set Point:	-0.064	X_WP:	0.000	Y_WP:	0.000	Y_WP:	0.500	X:	0.128	Y:	0.086	Z:	0.401	yaw:	3.655	yaw rate:	-3.828	Roll:	4.454	Pitch:	2.846	Yaw:	6.666	Thrust:	48.724
Time:	5.828	Roll Set Point:	-0.262	Pitch Set Point:	-0.164	Yaw Set Point:	-0.062	X_WP:	0.000	Y_WP:	0.000	Y_WP:	0.500	X:	0.128	Y:	0.086	Z:	0.401	yaw:	3.581	yaw rate:	-7.435	Roll:	4.535	Pitch:	2.888	Yaw:	5.317	Thrust:	49.508
Time:	5.843	Roll Set Point:	-0.262	Pitch Set Point:	-0.164	Yaw Set Point:	-0.064	X_WP:	0.000	Y_WP:	0.000	Y_WP:	0.500	X:	0.128	Y:	0.086	Z:	0.401	yaw:	3.672	yaw rate:	0.728	Roll:	4.645	Pitch:	2.419	Yaw:	8.222	Thrust:	49.421
Time:	5.859	Roll Set Point:	-0.262	Pitch Set Point:	-0.164	Yaw Set Point:	-0.064	X_WP:	0.000	Y_WP:	0.000	Y_WP:	0.500	X:	0.128	Y:	0.086	Z:	0.401	yaw:	3.672	yaw rate:	0.728	Roll:	4.461	Pitch:	2.836	Yaw:	6.690	Thrust:	49.307
Time:	5.874	Roll Set Point:	-0.262	Pitch Set Point:	-0.164	Yaw Set Point:	-0.064	X_WP:	0.000	Y_WP:	0.000	Y_WP:	0.500	X:	0.128	Y:	0.086	Z:	0.401	yaw:	3.655	yaw rate:	2.782	Roll:	4.228	Pitch:	3.245	Yaw:	6.383	Thrust:	48.664
Time:	5.890	Roll Set Point:	-0.262	Pitch Set Point:	-0.164	Yaw Set Point:	-0.063	X_WP:	0.000	Y_WP:	0.000	Y_WP:	0.500	X:	0.128	Y:	0.086	Z:	0.401	yaw:	3.610	yaw rate:	-4.531	Roll:	4.564	Pitch:	2.719	Yaw:	5.844	Thrust:	50.290
Time:	5.906	Roll Set Point:	-0.262	Pitch Set Point:	-0.164	Yaw Set Point:	-0.064	X_WP:	0.000	Y_WP:	0.000	Y_WP:	0.500	X:	0.128	Y:	0.086	Z:	0.401	yaw:	3.695	yaw rate:	8.460	Roll:	4.640	Pitch:	2.514	Yaw:	8.139	Thrust:	50.102
Time:	5.921	Roll Set Point:	-0.262	Pitch Set Point:	-0.164	Yaw Set Point:	-0.062	X_WP:	0.000	Y_WP:	0.000	Y_WP:	0.500	X:	0.128	Y:	0.086	Z:	0.401	yaw:	3.560	yaw rate:	-13.461	Roll:	4.207	Pitch:	3.302	Yaw:	4.279	Thrust:	49.758
Time:	5.937	Roll Set Point:	-0.262	Pitch Set Point:	-0.164	Yaw Set Point:	-0.064	X_WP:	0.000	Y_WP:	0.000	Y_WP:	0.500	X:	0.128	Y:	0.086	Z:	0.401	yaw:	3.653	yaw rate:	9.315	Roll:	4.383	Pitch:	2.805	Yaw:	8.224	Thrust:	49.577
Time:	5.953	Roll Set Point:	-0.262	Pitch Set Point:	-0.164	Yaw Set Point:	-0.064	X_WP:	0.000	Y_WP:	0.000	Y_WP:	0.500	X:	0.128	Y:	0.086	Z:	0.401	yaw:	3.653	yaw rate:	9.315	Roll:	4.455	Pitch:	2.847	Yaw:	6.666	Thrust:	50.479
Time:	5.968	Roll Set Point:	-0.262	Pitch Set Point:	-0.164	Yaw Set Point:	-0.064	X_WP:	0.000	Y_WP:	0.000	Y_WP:	0.500	X:	0.128	Y:	0.086	Z:	0.401	yaw:	3.650	yaw rate:	2.647	Roll:	4.714	Pitch:	2.540	Yaw:	6.598	Thrust:	51.279
Time:	5.984	Roll Set Point:	-0.262	Pitch Set Point:	-0.164	Yaw Set Point:	-0.063	X_WP:	0.000	Y_WP:	0.000	Y_WP:	0.500	X:	0.128	Y:	0.086	Z:	0.401	yaw:	3.614	yaw rate:	-3.623	Roll:	4.380	Pitch:	3.022	Yaw:	6.001	Thrust:	50.779
Time:	6.000	Roll Set Point:	-0.262	Pitch Set Point:	-0.164	Yaw Set Point:	-0.064	X_WP:	0.000	Y_WP:	0.000	Y_WP:	0.500	X:	0.128	Y:	0.086	Z:	0.401	yaw:	3.655	yaw rate:	4.185	Roll:	4.317	Pitch:	2.924	Yaw:	7.368	Thrust:	50.213
Time:	6.015	Roll Set Point:	-0.129	Pitch Set Point:	-0.024	Yaw Set Point:	-0.063	X_WP:	0.124	Y_WP:	0.148	Y_WP:	0.500	X:	0.128	Y:	0.086	Z:	0.401	yaw:	3.591	yaw rate:	-6.456	Roll:	-30.000	Pitch:	-30.000	Yaw:	5.495	Thrust:	51.897
Time:	6.031	Roll Set Point:	-0.129	Pitch Set Point:	-0.024	Yaw Set Point:	-0.063	X_WP:	0.124	Y_WP:	0.148	Y_WP:	0.500	X:	0.128	Y:	0.086	Z:	0.401	yaw:	3.626	yaw rate:	3.491	Roll:	0.482	Pitch:	-1.233	Yaw:	7.210	Thrust:	51.337
Time:	6.046	Roll Set Point:	-0.129	Pitch Set Point:	-0.024	Yaw Set Point:	-0.064	X_WP:	0.124	Y_WP:	0.148	Y_WP:	0.500	X:	0.128	Y:	0.086	Z:	0.401	yaw:	3.649	yaw rate:	2.367	Roll:	0.583	Pitch:	-1.236	Yaw:	7.055	Thrust:	51.577
Time:	6.062	Roll Set Point:	-0.129	Pitch Set Point:	-0.024	Yaw Set Point:	-0.064	X_WP:	0.124	Y_WP:	0.148	Y_WP:	0.500	X:	0.128	Y:	0.086	Z:	0.401	yaw:	3.649	yaw rate:	2.367	Roll:	0.599	Pitch:	-1.230	Yaw:	6.658	Thrust:	51.718
Time:	6.078	Roll Set Point:	-0.129	Pitch Set Point:	-0.024	Yaw Set Point:	-0.064	X_WP:	0.124	Y_WP:	0.148	Y_WP:	0.500	X:	0.128	Y:	0.086	Z:	0.401	yaw:	3.653	yaw rate:	0.354	Roll:	0.764	Pitch:	-1.207	Yaw:	6.723	Thrust:	50.980
Time:	6.093	Roll Set Point:	-0.129	Pitch Set Point:	-0.024	Yaw Set Point:	-0.064	X_WP:	0.124	Y_WP:	0.148	Y_WP:	0.500	X:	0.128	Y:	0.086	Z:	0.401	yaw:	3.685	yaw rate:	3.253	Roll:	0.394	Pitch:	-1.236	Yaw:	7.253	Thrust:	53.073
Time:	6.109	Roll Set Point:	-0.129	Pitch Set Point:	-0.024	Yaw Set Point:	-0.064	X_WP:	0.124	Y_WP:	0.148	Y_WP:	0.500	X:	0.128	Y:	0.086	Z:	0.401	yaw:	3.685	yaw rate:	3.253	Roll:	0.598	Pitch:	-1.237	Yaw:	6.709	Thrust:	52.295
Time:	6.125	Roll Set Point:	-0.129	Pitch Set Point:	-0.024	Yaw Set Point:	-0.064	X_WP:	0.124	Y_WP:	0.148	Y_WP:	0.500	X:	0.128	Y:	0.086	Z:	0.401	yaw:	3.645	yaw rate:	-3.999	Roll:	0.656	Pitch:	-1.265	Yaw:	5.983	Thrust:	52.375
Time:	6.140	Roll Set Point:	-0.129	Pitch Set Point:	-0.024	Yaw Set Point:	-0.062	X_WP:	0.124	Y_WP:	0.148	Y_WP:	0.500	X:	0.128	Y:	0.086	Z:	0.401	yaw:	3.568	yaw rate:	-1.177	Roll:	0.763	Pitch:	-1.240	Yaw:	5.243	Thrust:	52.437
Time:	6.156	Roll Set Point:	-0.129	Pitch Set Point:	-0.024	Yaw Set Point:	-0.063	X_WP:	0.124	Y_WP:	0.148	Y_WP:	0.500	X:	0.128	Y:	0.086	Z:	0.401	yaw:	3.625	yaw rate:	5.751	Roll:	0.456	Pitch:	-1.238	Yaw:	7.588	Thrust:	53.059
Time:	6.171	Roll Set Point:	-0.129	Pitch Set Point:	-0.024	Yaw Set Point:	-0.064	X_WP:	0.124	Y_WP:	0.148	Y_WP:	0.500	X:	0.128	Y:	0.086	Z:	0.401	yaw:	3.663	yaw rate:	3.728	Roll:	0.553	Pitch:	-1.256	Yaw:	7.301	Thrust:	53.078
Time:	6.187	Roll Set Point:	-0.129	Pitch Set Point:	-0.024	Yaw Set Point:	-0.063	X_WP:	0.124	Y_WP:	0.148	Y_WP:	0.500	X:	0.128	Y:	0.086	Z:	0.401	yaw:	3.594	yaw rate:	-6.893	Roll:	0.744	Pitch:	-1.243	Yaw:	5.425	Thrust:	52.973
Time:	6.203	Roll Set Point:	-0.129	Pitch Set Point:	-0.024	Yaw Set Point:	-0.062	X_WP:	0.124	Y_WP:	0.148	Y_WP:	0.500	X:	0.128	Y:	0.086	Z:	0.401	yaw:	3.554	yaw rate:	-4.021	Roll:	0.671	Pitch:	-1.256	Yaw:	5.851	Thrust:	53.286
Time:	6.218	Roll Set Point:	-0.129	Pitch Set Point:	-0.024	Yaw Set Point:	-0.062	X_WP:	0.124	Y_WP:	0.148	Y_WP:	0.500	X:	0.128	Y:	0.086	Z:	0.401	yaw:	3.554	yaw rate:	-4.021	Roll:	0.604	Pitch:	-1.255	Yaw:	6.524	Thrust:	53.572
Time:	6.234	Roll Set Point:	-0.129	Pitch Set Point:	-0.024	Yaw Set Point:	-0.064	X_WP:	0.124	Y_WP:	0.148	Y_WP:	0.500	X:	0.128	Y:	0.086	Z:	0.401	yaw:	3.661	yaw rate:	2.762	Roll:	0.388	Pitch:	-1.260	Yaw:	8.477	Thrust:	54.065
Time:	6.250	Roll Set Point:	-0.129	Pitch Set Point:	-0.024	Yaw Set Point:	-0.064	X_WP:	0.124	Y_WP:	0.148	Y_WP:	0.500	X:	0.128	Y:	0.086	Z:	0.401	yaw:	3.661	yaw rate:	2.762	Roll:	0.599	Pitch:	-1.260	Yaw:	6.675	Thrust:	53.954
Time:	6.265	Roll Set Point:	-0.129	Pitch Set Point:	-0.024	Yaw Set Point:	-0.063	X_WP:	0.124	Y_WP:	0.148	Y_WP:	0.500	X:	0.128	Y:	0.086	Z:	0.401	yaw:	3.598	yaw rate:	-0.293	Roll:	0.755	Pitch:	-1.257	Yaw:	5.528	Thrust:	53.956
Time:	6.281	Roll Set Point:	-0.129	Pitch Set Point:	-0.024	Yaw Set Point:	-0.063	X_WP:	0.124	Y_WP:	0.148	Y_WP:	0.500	X:	0.128	Y:	0.086	Z:	0.401	yaw:	3.588	yaw rate:	-0.982	Roll:	0.590	Pitch:	-1.265	Yaw:	6.408	Thrust:	54.237
Time:	6.296	Roll Set Point:	-0.129	Pitch Set Point:	-0.024	Yaw Set Point:	-0.063	X_WP:	0.124	Y_WP:	0.148	Y_WP:	0.500	X:	0.128	Y:	0.086	Z:	0.401	yaw:	3.626	yaw rate:	3.761	Roll:	0.501	Pitch:	-1.266	Yaw:	7.255	Thrust:	54.650
Time:	6.312	Roll Set Point:	-0.129	Pitch Set Point:	-0.024	Yaw Set Point:	-0.063	X_WP:	0.124	Y_WP:	0.148	Y_WP:	0.500	X:	0.128	Y:	0.086	Z:	0.401	yaw:	3.626	yaw rate:	3.761	Roll:	0.601	Pitch:	-1.268	Yaw:	6.628	Thrust:	54.793
Time:	6.328	Roll Set Point:	-0.129	Pitch Set Point:	-0.024	Yaw Set Point:	-0.063	X_WP:	0.124	Y_WP:	0.148	Y_WP:	0.500	X:	0.128	Y:	0.086	Z:	0.401	yaw:	3.585	yaw rate:	1.675	Roll:	0.695	Pitch:	-1.277	Yaw:	5.885	Thrust:	54.661
Time:	6.343	Roll Set Point:	-0.129	Pitch Set Point:	-0.024	Yaw Set Point:	-0.062	X_WP:	0.124	Y_WP:	0.148	Y_WP:	0.500	X:	0.128	Y:	0.086	Z:	0.401	yaw:	3.577	yaw rate:	-0.865	Roll:	0.615	Pitch:	-1.274	Yaw:	6.411	Thrust:	55.134
Time:	6.359	Roll Set Point:	-0.129	Pitch Set Point:	-0.024	Yaw Set Point:	-0.064	X_WP:	0.124	Y_WP:	0.148	Y_WP:	0.500	X:	0.128	Y:	0.086	Z:	0.401	yaw:	3.672	yaw rate:	9.510	Roll:	0.451	Pitch:	-1.276	Yaw:	8.282	Thrust:	55.347
