Time:	2.057	Roll Set Point:	-0.013	Pitch Set Point:	0.119	Yaw Set Point:	-0.031	X_WP:	0.000	Y_WP:	0.000	Y_WP:	0.500	X:	0.008	Y:	-0.059	Z:	0.049	yaw:	1.796	yaw rate:	1.608	Roll:	0.165	Pitch:	-1.727	Yaw:	2.508	Thrust:	24.785
Time:	2.069	Roll Set Point:	-0.013	Pitch Set Point:	0.119	Yaw Set Point:	-0.031	X_WP:	0.000	Y_WP:	0.000	Y_WP:	0.500	X:	0.008	Y:	-0.059	Z:	0.049	yaw:	1.757	yaw rate:	-3.943	Roll:	0.229	Pitch:	-1.735	Yaw:	1.603	Thrust:	25.590
Time:	2.080	Roll Set Point:	-0.014	Pitch Set Point:	0.119	Yaw Set Point:	-0.028	X_WP:	0.000	Y_WP:	0.000	Y_WP:	0.500	X:	0.008	Y:	-0.059	Z:	0.049	yaw:	1.615	yaw rate:	-14.170	Roll:	0.472	Pitch:	-1.608	Yaw:	-1.087	Thrust:	26.025
Time:	2.091	Roll Set Point:	-0.013	Pitch Set Point:	0.119	Yaw Set Point:	-0.030	X_WP:	0.000	Y_WP:	0.000	Y_WP:	0.500	X:	0.008	Y:	-0.059	Z:	0.049	yaw:	1.716	yaw rate:	10.040	Roll:	-0.138	Pitch:	-1.857	Yaw:	4.804	Thrust:	27.278
Time:	2.102	Roll Set Point:	-0.014	Pitch Set Point:	0.119	Yaw Set Point:	-0.023	X_WP:	0.000	Y_WP:	0.000	Y_WP:	0.500	X:	0.007	Y:	-0.060	Z:	0.049	yaw:	1.296	yaw rate:	-41.972	Roll:	0.750	Pitch:	-1.985	Yaw:	-8.127	Thrust:	25.853
Time:	2.113	Roll Set Point:	-0.013	Pitch Set Point:	0.119	Yaw Set Point:	-0.028	X_WP:	0.000	Y_WP:	0.000	Y_WP:	0.500	X:	0.007	Y:	-0.059	Z:	0.049	yaw:	1.579	yaw rate:	28.272	Roll:	-0.258	Pitch:	-1.495	Yaw:	8.946	Thrust:	29.222
Time:	2.124	Roll Set Point:	-0.013	Pitch Set Point:	0.119	Yaw Set Point:	-0.030	X_WP:	0.000	Y_WP:	0.000	Y_WP:	0.500	X:	0.007	Y:	-0.060	Z:	0.049	yaw:	1.729	yaw rate:	15.054	Roll:	-0.066	Pitch:	-2.139	Yaw:	6.016	Thrust:	27.703
Time:	2.135	Roll Set Point:	-0.013	Pitch Set Point:	0.119	Yaw Set Point:	-0.030	X_WP:	0.000	Y_WP:	0.000	Y_WP:	0.500	X:	0.008	Y:	-0.059	Z:	0.049	yaw:	1.734	yaw rate:	0.472	Roll:	0.334	Pitch:	-1.274	Yaw:	2.577	Thrust:	29.177
Time:	2.146	Roll Set Point:	-0.013	Pitch Set Point:	0.119	Yaw Set Point:	-0.032	X_WP:	0.000	Y_WP:	0.000	Y_WP:	0.500	X:	0.007	Y:	-0.059	Z:	0.049	yaw:	1.840	yaw rate:	10.636	Roll:	-0.294	Pitch:	-1.834	Yaw:	5.145	Thrust:	29.317
Time:	2.157	Roll Set Point:	-0.013	Pitch Set Point:	0.119	Yaw Set Point:	-0.026	X_WP:	0.000	Y_WP:	0.000	Y_WP:	0.500	X:	0.008	Y:	-0.059	Z:	0.049	yaw:	1.484	yaw rate:	-35.633	Roll:	0.919	Pitch:	-1.715	Yaw:	-6.328	Thrust:	29.936
Time:	2.168	Roll Set Point:	-0.014	Pitch Set Point:	0.119	Yaw Set Point:	-0.024	X_WP:	0.000	Y_WP:	0.000	Y_WP:	0.500	X:	0.007	Y:	-0.059	Z:	0.049	yaw:	1.355	yaw rate:	-12.881	Roll:	0.345	Pitch:	-1.708	Yaw:	-1.102	Thrust:	31.095
Time:	2.179	Roll Set Point:	-0.013	Pitch Set Point:	0.119	Yaw Set Point:	-0.028	X_WP:	0.000	Y_WP:	0.000	Y_WP:	0.500	X:	0.008	Y:	-0.059	Z:	0.049	yaw:	1.626	yaw rate:	27.097	Roll:	-0.128	Pitch:	-1.751	Yaw:	8.770	Thrust:	30.799
Time:	2.190	Roll Set Point:	-0.013	Pitch Set Point:	0.119	Yaw Set Point:	-0.028	X_WP:	0.000	Y_WP:	0.000	Y_WP:	0.500	X:	0.008	Y:	-0.059	Z:	0.049	yaw:	1.578	yaw rate:	-4.795	Roll:	0.142	Pitch:	-1.695	Yaw:	1.140	Thrust:	31.549
Time:	2.201	Roll Set Point:	-0.013	Pitch Set Point:	0.119	Yaw Set Point:	-0.035	X_WP:	0.000	Y_WP:	0.000	Y_WP:	0.500	X:	0.008	Y:	-0.059	Z:	0.049	yaw:	1.982	yaw rate:	40.337	Roll:	-0.307	Pitch:	-1.886	Yaw:	12.423	Thrust:	33.807
Time:	2.212	Roll Set Point:	-0.013	Pitch Set Point:	0.119	Yaw Set Point:	-0.027	X_WP:	0.000	Y_WP:	0.000	Y_WP:	0.500	X:	0.007	Y:	-0.059	Z:	0.049	yaw:	1.527	yaw rate:	-45.444	Roll:	0.596	Pitch:	-1.760	Yaw:	-8.565	Thrust:	33.008
Time:	2.223	Roll Set Point:	-0.014	Pitch Set Point:	0.119	Yaw Set Point:	-0.020	X_WP:	0.000	Y_WP:	0.000	Y_WP:	0.500	X:	0.008	Y:	-0.060	Z:	0.049	yaw:	1.125	yaw rate:	-40.209	Roll:	1.018	Pitch:	-1.841	Yaw:	-7.879	Thrust:	33.425
Time:	2.234	Roll Set Point:	-0.013	Pitch Set Point:	0.119	Yaw Set Point:	-0.029	X_WP:	0.000	Y_WP:	0.000	Y_WP:	0.500	X:	0.007	Y:	-0.059	Z:	0.049	yaw:	1.689	yaw rate:	56.376	Roll:	-1.034	Pitch:	-1.714	Yaw:	15.835	Thrust:	35.251
Time:	2.246	Roll Set Point:	-0.013	Pitch Set Point:	0.119	Yaw Set Point:	-0.036	X_WP:	0.000	Y_WP:	0.000	Y_WP:	0.500	X:	0.007	Y:	-0.059	Z:	0.049	yaw:	2.081	yaw rate:	39.223	Roll:	-0.241	Pitch:	-1.726	Yaw:	11.558	Thrust:	35.504
Time:	2.257	Roll Set Point:	-0.013	Pitch Set Point:	0.119	Yaw Set Point:	-0.029	X_WP:	0.000	Y_WP:	0.000	Y_WP:	0.500	X:	0.007	Y:	-0.059	Z:	0.049	yaw:	1.666	yaw rate:	-41.533	Roll:	0.818	Pitch:	-1.624	Yaw:	-7.419	Thrust:	34.500
Time:	2.268	Roll Set Point:	-0.014	Pitch Set Point:	0.119	Yaw Set Point:	-0.022	X_WP:	0.000	Y_WP:	0.000	Y_WP:	0.500	X:	0.007	Y:	-0.060	Z:	0.049	yaw:	1.232	yaw rate:	-43.328	Roll:	0.831	Pitch:	-1.971	Yaw:	-8.442	Thrust:	37.124
Time:	2.279	Roll Set Point:	-0.013	Pitch Set Point:	0.119	Yaw Set Point:	-0.030	X_WP:	0.000	Y_WP:	0.000	Y_WP:	0.500	X:	0.008	Y:	-0.059	Z:	0.050	yaw:	1.734	yaw rate:	50.133	Roll:	-0.374	Pitch:	-1.571	Yaw:	14.446	Thrust:	35.257
Time:	2.291	Roll Set Point:	-0.013	Pitch Set Point:	0.119	Yaw Set Point:	-0.029	X_WP:	0.000	Y_WP:	0.000	Y_WP:	0.500	X:	0.007	Y:	-0.059	Z:	0.049	yaw:	1.673	yaw rate:	-6.036	Roll:	0.086	Pitch:	-1.774	Yaw:	1.035	Thrust:	37.529
Time:	2.302	Roll Set Point:	-0.013	Pitch Set Point:	0.119	Yaw Set Point:	-0.031	X_WP:	0.000	Y_WP:	0.000	Y_WP:	0.500	X:	0.008	Y:	-0.059	Z:	0.049	yaw:	1.790	yaw rate:	11.667	Roll:	0.008	Pitch:	-1.945	Yaw:	5.406	Thrust:	38.228
Time:	2.313	Roll Set Point:	-0.013	Pitch Set Point:	0.119	Yaw Set Point:	-0.029	X_WP:	0.000	Y_WP:	0.000	Y_WP:	0.500	X:	0.008	Y:	-0.059	Z:	0.050	yaw:	1.682	yaw rate:	-10.764	Roll:	0.360	Pitch:	-1.609	Yaw:	-0.054	Thrust:	38.010
Time:	2.324	Roll Set Point:	-0.013	Pitch Set Point:	0.119	Yaw Set Point:	-0.030	X_WP:	0.000	Y_WP:	0.000	Y_WP:	0.500	X:	0.008	Y:	-0.059	Z:	0.050	yaw:	1.708	yaw rate:	2.529	Roll:	0.250	Pitch:	-1.710	Yaw:	3.136	Thrust:	39.043
Time:	2.335	Roll Set Point:	-0.013	Pitch Set Point:	0.119	Yaw Set Point:	-0.027	X_WP:	0.000	Y_WP:	0.000	Y_WP:	0.500	X:	0.007	Y:	-0.059	Z:	0.049	yaw:	1.525	yaw rate:	-18.225	Roll:	0.296	Pitch:	-1.896	Yaw:	-2.038	Thrust:	40.564
Time:	2.346	Roll Set Point:	-0.013	Pitch Set Point:	0.119	Yaw Set Point:	-0.030	X_WP:	0.000	Y_WP:	0.000	Y_WP:	0.500	X:	0.008	Y:	-0.059	Z:	0.049	yaw:	1.723	yaw rate:	19.754	Roll:	-0.053	Pitch:	-1.661	Yaw:	7.268	Thrust:	39.542
Time:	2.357	Roll Set Point:	-0.013	Pitch Set Point:	0.119	Yaw Set Point:	-0.030	X_WP:	0.000	Y_WP:	0.000	Y_WP:	0.500	X:	0.008	Y:	-0.059	Z:	0.049	yaw:	1.729	yaw rate:	0.623	Roll:	0.206	Pitch:	-1.752	Yaw:	2.733	Thrust:	41.066
Time:	2.368	Roll Set Point:	-0.013	Pitch Set Point:	0.119	Yaw Set Point:	-0.027	X_WP:	0.000	Y_WP:	0.000	Y_WP:	0.500	X:	0.008	Y:	-0.059	Z:	0.049	yaw:	1.567	yaw rate:	-16.178	Roll:	0.407	Pitch:	-1.834	Yaw:	-1.475	Thrust:	41.528
Time:	2.379	Roll Set Point:	-0.013	Pitch Set Point:	0.119	Yaw Set Point:	-0.034	X_WP:	0.000	Y_WP:	0.000	Y_WP:	0.500	X:	0.007	Y:	-0.059	Z:	0.049	yaw:	1.970	yaw rate:	40.228	Roll:	-0.772	Pitch:	-2.000	Yaw:	12.482	Thrust:	43.257
Time:	2.390	Roll Set Point:	-0.013	Pitch Set Point:	0.119	Yaw Set Point:	-0.027	X_WP:	0.000	Y_WP:	0.000	Y_WP:	0.500	X:	0.008	Y:	-0.059	Z:	0.049	yaw:	1.576	yaw rate:	-39.406	Roll:	1.074	Pitch:	-1.611	Yaw:	-6.938	Thrust:	41.942
Time:	2.402	Roll Set Point:	-0.013	Pitch Set Point:	0.119	Yaw Set Point:	-0.030	X_WP:	0.000	Y_WP:	0.000	Y_WP:	0.500	X:	0.008	Y:	-0.059	Z:	0.049	yaw:	1.712	yaw rate:	13.646	Roll:	-0.023	Pitch:	-1.670	Yaw:	5.580	Thrust:	44.538
Time:	2.413	Roll Set Point:	-0.014	Pitch Set Point:	0.119	Yaw Set Point:	-0.030	X_WP:	0.000	Y_WP:	0.000	Y_WP:	0.500	X:	0.008	Y:	-0.059	Z:	0.049	yaw:	1.735	yaw rate:	2.259	Roll:	0.382	Pitch:	-1.816	Yaw:	3.162	Thrust:	43.729
Time:	2.424	Roll Set Point:	-0.013	Pitch Set Point:	0.119	Yaw Set Point:	-0.030	X_WP:	0.000	Y_WP:	0.000	Y_WP:	0.500	X:	0.007	Y:	-0.059	Z:	0.049	yaw:	1.742	yaw rate:	0.771	Roll:	-0.171	Pitch:	-1.817	Yaw:	2.826	Thrust:	44.437
Time:	2.435	Roll Set Point:	-0.013	Pitch Set Point:	0.119	Yaw Set Point:	-0.026	X_WP:	0.000	Y_WP:	0.000	Y_WP:	0.500	X:	0.007	Y:	-0.059	Z:	0.049	yaw:	1.506	yaw rate:	-23.591	Roll:	0.533	Pitch:	-1.848	Yaw:	-3.293	Thrust:	45.653
Time:	2.446	Roll Set Point:	-0.014	Pitch Set Point:	0.119	Yaw Set Point:	-0.026	X_WP:	0.000	Y_WP:	0.000	Y_WP:	0.500	X:	0.008	Y:	-0.059	Z:	0.049	yaw:	1.461	yaw rate:	-4.502	Roll:	0.409	Pitch:	-1.852	Yaw:	1.198	Thrust:	45.200
Time:	2.457	Roll Set Point:	-0.013	Pitch Set Point:	0.119	Yaw Set Point:	-0.028	X_WP:	0.000	Y_WP:	0.000	Y_WP:	0.500	X:	0.008	Y:	-0.059	Z:	0.050	yaw:	1.631	yaw rate:	16.946	Roll:	-0.147	Pitch:	-1.605	Yaw:	6.527	Thrust:	45.984
Time:	2.470	Roll Set Point:	-0.013	Pitch Set Point:	0.119	Yaw Set Point:	-0.027	X_WP:	0.000	Y_WP:	0.000	Y_WP:	0.500	X:	0.007	Y:	-0.059	Z:	0.049	yaw:	1.565	yaw rate:	-6.571	Roll:	0.194	Pitch:	-1.793	Yaw:	1.142	Thrust:	51.780
Time:	2.483	Roll Set Point:	-0.013	Pitch Set Point:	0.119	Yaw Set Point:	-0.027	X_WP:	0.000	Y_WP:	0.000	Y_WP:	0.500	X:	0.007	Y:	-0.059	Z:	0.049	yaw:	1.526	yaw rate:	-3.886	Roll:	0.233	Pitch:	-1.905	Yaw:	1.632	Thrust:	51.533
Time:	2.496	Roll Set Point:	-0.014	Pitch Set Point:	0.119	Yaw Set Point:	-0.024	X_WP:	0.000	Y_WP:	0.000	Y_WP:	0.500	X:	0.007	Y:	-0.059	Z:	0.049	yaw:	1.354	yaw rate:	-17.227	Roll:	0.380	Pitch:	-1.773	Yaw:	-1.270	Thrust:	51.617
Time:	2.508	Roll Set Point:	-0.013	Pitch Set Point:	0.119	Yaw Set Point:	-0.031	X_WP:	0.000	Y_WP:	0.000	Y_WP:	0.500	X:	0.007	Y:	-0.059	Z:	0.049	yaw:	1.765	yaw rate:	41.076	Roll:	-0.418	Pitch:	-1.823	Yaw:	11.677	Thrust:	51.839
Time:	2.520	Roll Set Point:	-0.013	Pitch Set Point:	0.119	Yaw Set Point:	-0.030	X_WP:	0.000	Y_WP:	0.000	Y_WP:	0.500	X:	0.008	Y:	-0.059	Z:	0.049	yaw:	1.699	yaw rate:	-6.545	Roll:	0.455	Pitch:	-1.732	Yaw:	1.230	Thrust:	51.398
Time:	2.532	Roll Set Point:	-0.013	Pitch Set Point:	0.119	Yaw Set Point:	-0.028	X_WP:	0.000	Y_WP:	0.000	Y_WP:	0.500	X:	0.007	Y:	-0.059	Z:	0.049	yaw:	1.611	yaw rate:	-8.800	Roll:	0.129	Pitch:	-1.877	Yaw:	0.624	Thrust:	51.801
Time:	2.544	Roll Set Point:	-0.014	Pitch Set Point:	0.119	Yaw Set Point:	-0.029	X_WP:	0.000	Y_WP:	0.000	Y_WP:	0.500	X:	0.008	Y:	-0.059	Z:	0.049	yaw:	1.660	yaw rate:	4.827	Roll:	0.299	Pitch:	-1.785	Yaw:	3.665	Thrust:	52.570
Time:	2.556	Roll Set Point:	-0.013	Pitch Set Point:	0.119	Yaw Set Point:	-0.031	X_WP:	0.000	Y_WP:	0.000	Y_WP:	0.500	X:	0.008	Y:	-0.059	Z:	0.049	yaw:	1.797	yaw rate:	13.774	Roll:	-0.123	Pitch:	-1.743	Yaw:	5.809	Thrust:	53.350
Time:	2.567	Roll Set Point:	-0.013	Pitch Set Point:	0.119	Yaw Set Point:	-0.026	X_WP:	0.000	Y_WP:	0.000	Y_WP:	0.500	X:	0.007	Y:	-0.059	Z:	0.049	yaw:	1.479	yaw rate:	-31.801	Roll:	0.550	Pitch:	-1.891	Yaw:	-5.201	Thrust:	51.743
Time:	2.578	Roll Set Point:	-0.013	Pitch Set Point:	0.119	Yaw Set Point:	-0.029	X_WP:	0.000	Y_WP:	0.000	Y_WP:	0.500	X:	0.008	Y:	-0.059	Z:	0.049	yaw:	1.682	yaw rate:	20.245	Roll:	0.038	Pitch:	-1.634	Yaw:	7.444	Thrust:	51.844
Time:	2.589	Roll Set Point:	-0.014	Pitch Set Point:	0.119	Yaw Set Point:	-0.028	X_WP:	0.000	Y_WP:	0.000	Y_WP:	0.500	X:	0.008	Y:	-0.059	Z:	0.049	yaw:	1.578	yaw rate:	-10.348	Roll:	0.351	Pitch:	-1.894	Yaw:	0.044	Thrust:	52.921
Time:	2.600	Roll Set Point:	-0.013	Pitch Set Point:	0.119	Yaw Set Point:	-0.030	X_WP:	0.000	Y_WP:	0.000	Y_WP:	0.500	X:	0.008	Y:	-0.059	Z:	0.049	yaw:	1.730	yaw rate:	15.168	Roll:	-0.096	Pitch:	-1.775	Yaw:	6.319	Thrust:	53.243
Time:	2.611	Roll Set Point:	-0.013	Pitch Set Point:	0.119	Yaw Set Point:	-0.025	X_WP:	0.000	Y_WP:	0.000	Y_WP:	0.500	X:	0.007	Y:	-0.059	Z:	0.049	yaw:	1.458	yaw rate:	-27.169	Roll:	0.475	Pitch:	-1.903	Yaw:	-4.103	Thrust:	54.437
Time:	2.622	Roll Set Point:	-0.013	Pitch Set Point:	0.119	Yaw Set Point:	-0.029	X_WP:	0.000	Y_WP:	0.000	Y_WP:	0.500	X:	0.008	Y:	-0.059	Z:	0.049	yaw:	1.665	yaw rate:	20.661	Roll:	-0.033	Pitch:	-1.655	Yaw:	7.544	Thrust:	54.041
Time:	2.633	Roll Set Point:	-0.013	Pitch Set Point:	0.119	Yaw Set Point:	-0.029	X_WP:	0.000	Y_WP:	0.000	Y_WP:	0.500	X:	0.008	Y:	-0.059	Z:	0.050	yaw:	1.635	yaw rate:	-2.994	Roll:	0.249	Pitch:	-1.873	Yaw:	1.893	Thrust:	54.987
Time:	2.644	Roll Set Point:	-0.013	Pitch Set Point:	0.119	Yaw Set Point:	-0.031	X_WP:	0.000	Y_WP:	0.000	Y_WP:	0.500	X:	0.008	Y:	-0.059	Z:	0.049	yaw:	1.753	yaw rate:	11.823	Roll:	-0.108	Pitch:	-1.846	Yaw:	5.582	Thrust:	55.958
Time:	2.655	Roll Set Point:	-0.013	Pitch Set Point:	0.119	Yaw Set Point:	-0.030	X_WP:	0.000	Y_WP:	0.000	Y_WP:	0.500	X:	0.007	Y:	-0.060	Z:	0.049	yaw:	1.737	yaw rate:	-1.640	Roll:	0.104	Pitch:	-2.065	Yaw:	2.370	Thrust:	57.914
Time:	2.667	Roll Set Point:	-0.014	Pitch Set Point:	0.119	Yaw Set Point:	-0.026	X_WP:	0.000	Y_WP:	0.000	Y_WP:	0.500	X:	0.008	Y:	-0.060	Z:	0.049	yaw:	1.489	yaw rate:	-24.836	Roll:	0.935	Pitch:	-1.896	Yaw:	-3.475	Thrust:	56.065
Time:	2.678	Roll Set Point:	-0.014	Pitch Set Point:	0.119	Yaw Set Point:	-0.031	X_WP:	0.000	Y_WP:	0.000	Y_WP:	0.500	X:	0.008	Y:	-0.060	Z:	0.049	yaw:	1.769	yaw rate:	28.094	Roll:	-0.127	Pitch:	-1.770	Yaw:	9.473	Thrust:	57.372
Time:	2.689	Roll Set Point:	-0.014	Pitch Set Point:	0.119	Yaw Set Point:	-0.032	X_WP:	0.000	Y_WP:	0.000	Y_WP:	0.500	X:	0.008	Y:	-0.060	Z:	0.049	yaw:	1.831	yaw rate:	6.168	Roll:	0.469	Pitch:	-1.954	Yaw:	4.377	Thrust:	58.243
Time:	2.700	Roll Set Point:	-0.014	Pitch Set Point:	0.120	Yaw Set Point:	-0.029	X_WP:	0.000	Y_WP:	0.000	Y_WP:	0.500	X:	0.008	Y:	-0.060	Z:	0.049	yaw:	1.673	yaw rate:	-15.821	Roll:	0.484	Pitch:	-2.058	Yaw:	-1.052	Thrust:	59.145
Time:	2.711	Roll Set Point:	-0.015	Pitch Set Point:	0.119	Yaw Set Point:	-0.029	X_WP:	0.000	Y_WP:	0.000	Y_WP:	0.500	X:	0.008	Y:	-0.060	Z:	0.049	yaw:	1.662	yaw rate:	-1.047	Roll:	0.395	Pitch:	-1.676	Yaw:	2.438	Thrust:	58.666
Time:	2.722	Roll Set Point:	-0.015	Pitch Set Point:	0.120	Yaw Set Point:	-0.025	X_WP:	0.000	Y_WP:	0.000	Y_WP:	0.500	X:	0.008	Y:	-0.060	Z:	0.049	yaw:	1.454	yaw rate:	-20.871	Roll:	0.756	Pitch:	-2.042	Yaw:	-2.540	Thrust:	59.940
Time:	2.733	Roll Set Point:	-0.015	Pitch Set Point:	0.120	Yaw Set Point:	-0.023	X_WP:	0.000	Y_WP:	0.000	Y_WP:	0.500	X:	0.008	Y:	-0.060	Z:	0.050	yaw:	1.292	yaw rate:	-16.208	Roll:	0.639	Pitch:	-1.755	Yaw:	-1.674	Thrust:	60.154
Time:	2.744	Roll Set Point:	-0.015	Pitch Set Point:	0.120	Yaw Set Point:	-0.024	X_WP:	0.000	Y_WP:	0.000	Y_WP:	0.500	X:	0.008	Y:	-0.060	Z:	0.050	yaw:	1.382	yaw rate:	9.001	Roll:	0.094	Pitch:	-1.959	Yaw:	4.449	Thrust:	61.403
Time:	2.755	Roll Set Point:	-0.016	Pitch Set Point:	0.120	Yaw Set Point:	-0.020	X_WP:	0.000	Y_WP:	0.000	Y_WP:	0.500	X:	0.008	Y:	-0.060	Z:	0.049	yaw:	1.170	yaw rate:	-21.139	Roll:	0.465	Pitch:	-2.183	Yaw:	-2.995	Thrust:	63.846
Time:	2.766	Roll Set Point:	-0.015	Pitch Set Point:	0.120	Yaw Set Point:	-0.024	X_WP:	0.000	Y_WP:	0.000	Y_WP:	0.500	X:	0.008	Y:	-0.060	Z:	0.049	yaw:	1.381	yaw rate:	21.041	Roll:	-0.077	Pitch:	-1.804	Yaw:	7.316	Thrust:	61.304
Time:	2.777	Roll Set Point:	-0.015	Pitch Set Point:	0.120	Yaw Set Point:	-0.027	X_WP:	0.000	Y_WP:	0.000	Y_WP:	0.500	X:	0.008	Y:	-0.060	Z:	0.049	yaw:	1.567	yaw rate:	18.647	Roll:	0.044	Pitch:	-1.667	Yaw:	7.014	Thrust:	62.043
Time:	2.788	Roll Set Point:	-0.015	Pitch Set Point:	0.120	Yaw Set Point:	-0.030	X_WP:	0.000	Y_WP:	0.000	Y_WP:	0.500	X:	0.008	Y:	-0.060	Z:	0.050	yaw:	1.733	yaw rate:	16.546	Roll:	-0.072	Pitch:	-2.015	Yaw:	6.752	Thrust:	63.086
Time:	2.799	Roll Set Point:	-0.015	Pitch Set Point:	0.120	Yaw Set Point:	-0.029	X_WP:	0.000	Y_WP:	0.000	Y_WP:	0.500	X:	0.008	Y:	-0.060	Z:	0.049	yaw:	1.651	yaw rate:	-8.118	Roll:	0.246	Pitch:	-2.036	Yaw:	0.791	Thrust:	64.651
Time:	2.810	Roll Set Point:	-0.015	Pitch Set Point:	0.120	Yaw Set Point:	-0.037	X_WP:	0.000	Y_WP:	0.000	Y_WP:	0.500	X:	0.009	Y:	-0.060	Z:	0.050	yaw:	2.144	yaw rate:	49.216	Roll:	-0.455	Pitch:	-1.808	Yaw:	15.094	Thrust:	63.702
Time:	2.821	Roll Set Point:	-0.015	Pitch Set Point:	0.120	Yaw Set Point:	-0.039	X_WP:	0.000	Y_WP:	0.000	Y_WP:	0.500	X:	0.009	Y:	-0.060	Z:	0.050	yaw:	2.261	yaw rate:	11.738	Roll:	-0.031	Pitch:	-1.877	Yaw:	6.369	Thrust:	63.749
Time:	2.832	Roll Set Point:	-0.015	Pitch Set Point:	0.120	Yaw Set Point:	-0.041	X_WP:	0.000	Y_WP:	0.000	Y_WP:	0.500	X:	0.009	Y:	-0.060	Z:	0.050	yaw:	2.368	yaw rate:	10.752	Roll:	0.289	Pitch:	-1.950	Yaw:	6.290	Thrust:	65.538
Time:	2.843	Roll Set Point:	-0.015	Pitch Set Point:	0.121	Yaw Set Point:	-0.039	X_WP:	0.000	Y_WP:	0.000	Y_WP:	0.500	X:	0.008	Y:	-0.060	Z:	0.051	yaw:	2.233	yaw rate:	-13.506	Roll:	0.054	Pitch:	-1.994	Yaw:	0.349	Thrust:	64.842
Time:	2.854	Roll Set Point:	-0.014	Pitch Set Point:	0.120	Yaw Set Point:	-0.051	X_WP:	0.000	Y_WP:	0.000	Y_WP:	0.500	X:	0.008	Y:	-0.060	Z:	0.051	yaw:	2.930	yaw rate:	69.659	Roll:	-0.896	Pitch:	-1.799	Yaw:	21.078	Thrust:	65.721
Time:	2.865	Roll Set Point:	-0.014	Pitch Set Point:	0.120	Yaw Set Point:	-0.050	X_WP:	0.000	Y_WP:	0.000	Y_WP:	0.500	X:	0.008	Y:	-0.060	Z:	0.052	yaw:	2.859	yaw rate:	-7.129	Roll:	-0.062	Pitch:	-1.894	Yaw:	2.763	Thrust:	64.703
Time:	2.876	Roll Set Point:	-0.013	Pitch Set Point:	0.120	Yaw Set Point:	-0.054	X_WP:	0.000	Y_WP:	0.000	Y_WP:	0.500	X:	0.008	Y:	-0.060	Z:	0.052	yaw:	3.108	yaw rate:	24.916	Roll:	-0.189	Pitch:	-1.857	Yaw:	10.729	Thrust:	65.438
Time:	2.887	Roll Set Point:	-0.013	Pitch Set Point:	0.120	Yaw Set Point:	-0.059	X_WP:	0.000	Y_WP:	0.000	Y_WP:	0.500	X:	0.008	Y:	-0.060	Z:	0.053	yaw:	3.364	yaw rate:	25.567	Roll:	-0.368	Pitch:	-1.740	Yaw:	11.253	Thrust:	65.635
Time:	2.899	Roll Set Point:	-0.013	Pitch Set Point:	0.120	Yaw Set Point:	-0.063	X_WP:	0.000	Y_WP:	0.000	Y_WP:	0.500	X:	0.008	Y:	-0.060	Z:	0.054	yaw:	3.617	yaw rate:	25.377	Roll:	-0.186	Pitch:	-1.824	Yaw:	11.235	Thrust:	68.655
Time:	2.910	Roll Set Point:	-0.012	Pitch Set Point:	0.120	Yaw Set Point:	-0.066	X_WP:	0.000	Y_WP:	0.000	Y_WP:	0.500	X:	0.008	Y:	-0.060	Z:	0.055	yaw:	3.767	yaw rate:	14.941	Roll:	-0.402	Pitch:	-1.698	Yaw:	9.320	Thrust:	65.790
Time:	2.921	Roll Set Point:	-0.012	Pitch Set Point:	0.120	Yaw Set Point:	-0.070	X_WP:	0.000	Y_WP:	0.000	Y_WP:	0.500	X:	0.008	Y:	-0.060	Z:	0.057	yaw:	4.011	yaw rate:	24.384	Roll:	-0.602	Pitch:	-2.011	Yaw:	11.916	Thrust:	63.804
Time:	2.932	Roll Set Point:	-0.012	Pitch Set Point:	0.120	Yaw Set Point:	-0.071	X_WP:	0.000	Y_WP:	0.000	Y_WP:	0.500	X:	0.008	Y:	-0.060	Z:	0.058	yaw:	4.088	yaw rate:	7.771	Roll:	0.073	Pitch:	-1.771	Yaw:	8.097	Thrust:	64.813
Time:	2.943	Roll Set Point:	-0.011	Pitch Set Point:	0.120	Yaw Set Point:	-0.070	X_WP:	0.000	Y_WP:	0.000	Y_WP:	0.500	X:	0.008	Y:	-0.060	Z:	0.059	yaw:	4.018	yaw rate:	-6.987	Roll:	-0.242	Pitch:	-1.941	Yaw:	4.512	Thrust:	65.357
Time:	2.954	Roll Set Point:	-0.010	Pitch Set Point:	0.120	Yaw Set Point:	-0.083	X_WP:	0.000	Y_WP:	0.000	Y_WP:	0.500	X:	0.008	Y:	-0.060	Z:	0.061	yaw:	4.783	yaw rate:	76.418	Roll:	-1.209	Pitch:	-1.635	Yaw:	25.391	Thrust:	65.669
Time:	2.965	Roll Set Point:	-0.010	Pitch Set Point:	0.120	Yaw Set Point:	-0.085	X_WP:	0.000	Y_WP:	0.000	Y_WP:	0.500	X:	0.007	Y:	-0.060	Z:	0.062	yaw:	4.897	yaw rate:	11.422	Roll:	-0.399	Pitch:	-2.055	Yaw:	10.142	Thrust:	66.080
Time:	2.976	Roll Set Point:	-0.009	Pitch Set Point:	0.120	Yaw Set Point:	-0.093	X_WP:	0.000	Y_WP:	0.000	Y_WP:	0.500	X:	0.007	Y:	-0.060	Z:	0.065	yaw:	5.314	yaw rate:	41.730	Roll:	-1.015	Pitch:	-1.683	Yaw:	17.939	Thrust:	61.543
Time:	2.987	Roll Set Point:	-0.008	Pitch Set Point:	0.120	Yaw Set Point:	-0.093	X_WP:	0.000	Y_WP:	0.000	Y_WP:	0.500	X:	0.007	Y:	-0.060	Z:	0.067	yaw:	5.325	yaw rate:	1.051	Roll:	-0.191	Pitch:	-1.798	Yaw:	8.317	Thrust:	65.972
Time:	2.998	Roll Set Point:	-0.008	Pitch Set Point:	0.120	Yaw Set Point:	-0.098	X_WP:	0.000	Y_WP:	0.000	Y_WP:	0.500	X:	0.007	Y:	-0.060	Z:	0.069	yaw:	5.612	yaw rate:	28.733	Roll:	-0.792	Pitch:	-2.020	Yaw:	15.309	Thrust:	65.694
Time:	3.009	Roll Set Point:	-0.006	Pitch Set Point:	0.120	Yaw Set Point:	-0.110	X_WP:	0.000	Y_WP:	0.000	Y_WP:	0.500	X:	0.007	Y:	-0.060	Z:	0.071	yaw:	6.286	yaw rate:	67.414	Roll:	-1.442	Pitch:	-1.980	Yaw:	25.455	Thrust:	65.677
Time:	3.020	Roll Set Point:	-0.006	Pitch Set Point:	0.120	Yaw Set Point:	-0.104	X_WP:	0.000	Y_WP:	0.000	Y_WP:	0.500	X:	0.006	Y:	-0.060	Z:	0.073	yaw:	5.948	yaw rate:	-33.819	Roll:	0.271	Pitch:	-1.920	Yaw:	0.977	Thrust:	66.957
Time:	3.031	Roll Set Point:	-0.005	Pitch Set Point:	0.120	Yaw Set Point:	-0.111	X_WP:	0.000	Y_WP:	0.000	Y_WP:	0.500	X:	0.006	Y:	-0.060	Z:	0.076	yaw:	6.348	yaw rate:	39.964	Roll:	-1.156	Pitch:	-1.746	Yaw:	19.071	Thrust:	61.542
Time:	3.042	Roll Set Point:	-0.005	Pitch Set Point:	0.120	Yaw Set Point:	-0.114	X_WP:	0.000	Y_WP:	0.000	Y_WP:	0.500	X:	0.006	Y:	-0.060	Z:	0.078	yaw:	6.549	yaw rate:	20.145	Roll:	-0.745	Pitch:	-2.103	Yaw:	14.673	Thrust:	66.286
Time:	3.053	Roll Set Point:	-0.004	Pitch Set Point:	0.120	Yaw Set Point:	-0.114	X_WP:	0.000	Y_WP:	0.000	Y_WP:	0.500	X:	0.005	Y:	-0.060	Z:	0.081	yaw:	6.509	yaw rate:	-3.998	Roll:	-0.463	Pitch:	-1.785	Yaw:	8.920	Thrust:	67.254
Time:	3.064	Roll Set Point:	-0.003	Pitch Set Point:	0.121	Yaw Set Point:	-0.125	X_WP:	0.000	Y_WP:	0.000	Y_WP:	0.500	X:	0.005	Y:	-0.060	Z:	0.083	yaw:	7.153	yaw rate:	64.362	Roll:	-1.716	Pitch:	-2.357	Yaw:	26.061	Thrust:	66.914
Time:	3.075	Roll Set Point:	-0.002	Pitch Set Point:	0.120	Yaw Set Point:	-0.121	X_WP:	0.000	Y_WP:	0.000	Y_WP:	0.500	X:	0.005	Y:	-0.060	Z:	0.085	yaw:	6.959	yaw rate:	-19.325	Roll:	-0.128	Pitch:	-1.602	Yaw:	5.955	Thrust:	67.687
Time:	3.086	Roll Set Point:	-0.001	Pitch Set Point:	0.121	Yaw Set Point:	-0.127	X_WP:	0.000	Y_WP:	0.000	Y_WP:	0.500	X:	0.004	Y:	-0.061	Z:	0.089	yaw:	7.260	yaw rate:	30.028	Roll:	-1.489	Pitch:	-2.633	Yaw:	18.115	Thrust:	61.196
Time:	3.097	Roll Set Point:	0.000	Pitch Set Point:	0.121	Yaw Set Point:	-0.129	X_WP:	0.000	Y_WP:	0.000	Y_WP:	0.500	X:	0.004	Y:	-0.061	Z:	0.091	yaw:	7.401	yaw rate:	14.135	Roll:	-0.879	Pitch:	-1.886	Yaw:	14.568	Thrust:	67.338
Time:	3.108	Roll Set Point:	0.001	Pitch Set Point:	0.121	Yaw Set Point:	-0.130	X_WP:	0.000	Y_WP:	0.000	Y_WP:	0.500	X:	0.003	Y:	-0.061	Z:	0.094	yaw:	7.456	yaw rate:	5.452	Roll:	-0.915	Pitch:	-1.789	Yaw:	12.612	Thrust:	68.435
Time:	3.120	Roll Set Point:	0.002	Pitch Set Point:	0.122	Yaw Set Point:	-0.133	X_WP:	0.000	Y_WP:	0.000	Y_WP:	0.500	X:	0.003	Y:	-0.061	Z:	0.097	yaw:	7.612	yaw rate:	15.619	Roll:	-1.108	Pitch:	-2.358	Yaw:	15.272	Thrust:	66.878
Time:	3.131	Roll Set Point:	0.003	Pitch Set Point:	0.123	Yaw Set Point:	-0.121	X_WP:	0.000	Y_WP:	0.000	Y_WP:	0.500	X:	0.002	Y:	-0.062	Z:	0.100	yaw:	6.945	yaw rate:	-66.693	Roll:	-0.296	Pitch:	-2.688	Yaw:	-5.170	Thrust:	62.558
Time:	3.142	Roll Set Point:	0.005	Pitch Set Point:	0.123	Yaw Set Point:	-0.131	X_WP:	0.000	Y_WP:	0.000	Y_WP:	0.500	X:	0.002	Y:	-0.062	Z:	0.103	yaw:	7.489	yaw rate:	54.393	Roll:	-1.915	Pitch:	-1.868	Yaw:	24.360	Thrust:	68.386
Time:	3.153	Roll Set Point:	0.006	Pitch Set Point:	0.124	Yaw Set Point:	-0.129	X_WP:	0.000	Y_WP:	0.000	Y_WP:	0.500	X:	0.001	Y:	-0.062	Z:	0.109	yaw:	7.409	yaw rate:	-2.724	Roll:	-1.387	Pitch:	-2.555	Yaw:	9.705	Thrust:	62.401
Time:	3.165	Roll Set Point:	0.006	Pitch Set Point:	0.124	Yaw Set Point:	-0.129	X_WP:	0.000	Y_WP:	0.000	Y_WP:	0.500	X:	0.001	Y:	-0.062	Z:	0.109	yaw:	7.409	yaw rate:	-2.724	Roll:	-0.196	Pitch:	-1.955	Yaw:	11.397	Thrust:	79.805
Time:	3.176	Roll Set Point:	0.007	Pitch Set Point:	0.124	Yaw Set Point:	-0.127	X_WP:	0.000	Y_WP:	0.000	Y_WP:	0.500	X:	0.000	Y:	-0.062	Z:	0.111	yaw:	7.270	yaw rate:	-13.896	Roll:	-0.740	Pitch:	-2.066	Yaw:	7.931	Thrust:	68.950
Time:	3.187	Roll Set Point:	0.009	Pitch Set Point:	0.125	Yaw Set Point:	-0.129	X_WP:	0.000	Y_WP:	0.000	Y_WP:	0.500	X:	-0.000	Y:	-0.063	Z:	0.115	yaw:	7.365	yaw rate:	9.479	Roll:	-1.726	Pitch:	-2.229	Yaw:	13.637	Thrust:	64.294
Time:	3.198	Roll Set Point:	0.010	Pitch Set Point:	0.125	Yaw Set Point:	-0.127	X_WP:	0.000	Y_WP:	0.000	Y_WP:	0.500	X:	-0.001	Y:	-0.063	Z:	0.118	yaw:	7.276	yaw rate:	-8.966	Roll:	-0.998	Pitch:	-2.301	Yaw:	9.133	Thrust:	71.708
Time:	3.209	Roll Set Point:	0.011	Pitch Set Point:	0.125	Yaw Set Point:	-0.128	X_WP:	0.000	Y_WP:	0.000	Y_WP:	0.500	X:	-0.002	Y:	-0.063	Z:	0.120	yaw:	7.339	yaw rate:	6.298	Roll:	-1.219	Pitch:	-2.109	Yaw:	12.845	Thrust:	72.547
Time:	3.220	Roll Set Point:	0.013	Pitch Set Point:	0.125	Yaw Set Point:	-0.132	X_WP:	0.000	Y_WP:	0.000	Y_WP:	0.500	X:	-0.002	Y:	-0.063	Z:	0.121	yaw:	7.589	yaw rate:	25.091	Roll:	-1.760	Pitch:	-1.918	Yaw:	17.666	Thrust:	74.172
Time:	3.231	Roll Set Point:	0.014	Pitch Set Point:	0.126	Yaw Set Point:	-0.135	X_WP:	0.000	Y_WP:	0.000	Y_WP:	0.500	X:	-0.003	Y:	-0.063	Z:	0.123	yaw:	7.758	yaw rate:	16.812	Roll:	-1.400	Pitch:	-2.146	Yaw:	15.918	Thrust:	76.337
Time:	3.242	Roll Set Point:	0.016	Pitch Set Point:	0.126	Yaw Set Point:	-0.140	X_WP:	0.000	Y_WP:	0.000	Y_WP:	0.500	X:	-0.004	Y:	-0.064	Z:	0.124	yaw:	8.017	yaw rate:	25.909	Roll:	-2.373	Pitch:	-2.285	Yaw:	18.446	Thrust:	78.467
Time:	3.253	Roll Set Point:	0.018	Pitch Set Point:	0.126	Yaw Set Point:	-0.145	X_WP:	0.000	Y_WP:	0.000	Y_WP:	0.500	X:	-0.004	Y:	-0.064	Z:	0.124	yaw:	8.309	yaw rate:	29.235	Roll:	-1.838	Pitch:	-2.045	Yaw:	19.497	Thrust:	84.022
Time:	3.264	Roll Set Point:	0.020	Pitch Set Point:	0.126	Yaw Set Point:	-0.146	X_WP:	0.000	Y_WP:	0.000	Y_WP:	0.500	X:	-0.005	Y:	-0.064	Z:	0.124	yaw:	8.341	yaw rate:	3.235	Roll:	-1.719	Pitch:	-1.891	Yaw:	13.518	Thrust:	85.164
Time:	3.275	Roll Set Point:	0.021	Pitch Set Point:	0.126	Yaw Set Point:	-0.148	X_WP:	0.000	Y_WP:	0.000	Y_WP:	0.500	X:	-0.006	Y:	-0.064	Z:	0.122	yaw:	8.504	yaw rate:	16.244	Roll:	-1.691	Pitch:	-1.784	Yaw:	16.827	Thrust:	88.421
Time:	3.286	Roll Set Point:	0.024	Pitch Set Point:	0.127	Yaw Set Point:	-0.160	X_WP:	0.000	Y_WP:	0.000	Y_WP:	0.500	X:	-0.007	Y:	-0.064	Z:	0.120	yaw:	9.146	yaw rate:	64.260	Roll:	-3.372	Pitch:	-2.048	Yaw:	29.155	Thrust:	94.467
Time:	3.297	Roll Set Point:	0.026	Pitch Set Point:	0.127	Yaw Set Point:	-0.154	X_WP:	0.000	Y_WP:	0.000	Y_WP:	0.500	X:	-0.008	Y:	-0.064	Z:	0.117	yaw:	8.846	yaw rate:	-30.042	Roll:	-1.569	Pitch:	-2.081	Yaw:	6.323	Thrust:	97.143
Time:	3.308	Roll Set Point:	0.028	Pitch Set Point:	0.127	Yaw Set Point:	-0.170	X_WP:	0.000	Y_WP:	0.000	Y_WP:	0.500	X:	-0.009	Y:	-0.065	Z:	0.115	yaw:	9.733	yaw rate:	88.680	Roll:	-3.026	Pitch:	-1.574	Yaw:	35.741	Thrust:	96.223
Time:	3.319	Roll Set Point:	0.029	Pitch Set Point:	0.126	Yaw Set Point:	-0.169	X_WP:	0.000	Y_WP:	0.000	Y_WP:	0.500	X:	-0.009	Y:	-0.064	Z:	0.111	yaw:	9.694	yaw rate:	-3.855	Roll:	-1.712	Pitch:	-1.554	Yaw:	13.724	Thrust:	99.877
Time:	3.330	Roll Set Point:	0.033	Pitch Set Point:	0.127	Yaw Set Point:	-0.170	X_WP:	0.000	Y_WP:	0.000	Y_WP:	0.500	X:	-0.011	Y:	-0.065	Z:	0.106	yaw:	9.763	yaw rate:	6.842	Roll:	-3.226	Pitch:	-2.592	Yaw:	16.358	Thrust:	100.000
Time:	3.341	Roll Set Point:	0.035	Pitch Set Point:	0.127	Yaw Set Point:	-0.190	X_WP:	0.000	Y_WP:	0.000	Y_WP:	0.500	X:	-0.012	Y:	-0.065	Z:	0.103	yaw:	10.902	yaw rate:	113.921	Roll:	-3.770	Pitch:	-0.899	Yaw:	43.368	Thrust:	100.000
Time:	3.352	Roll Set Point:	0.038	Pitch Set Point:	0.127	Yaw Set Point:	-0.194	X_WP:	0.000	Y_WP:	0.000	Y_WP:	0.500	X:	-0.013	Y:	-0.065	Z:	0.099	yaw:	11.129	yaw rate:	22.669	Roll:	-2.984	Pitch:	-2.015	Yaw:	22.012	Thrust:	100.000
Time:	3.363	Roll Set Point:	0.041	Pitch Set Point:	0.127	Yaw Set Point:	-0.210	X_WP:	0.000	Y_WP:	0.000	Y_WP:	0.500	X:	-0.014	Y:	-0.066	Z:	0.095	yaw:	12.052	yaw rate:	92.335	Roll:	-3.925	Pitch:	-1.339	Yaw:	39.856	Thrust:	100.000
Time:	3.374	Roll Set Point:	0.044	Pitch Set Point:	0.127	Yaw Set Point:	-0.209	X_WP:	0.000	Y_WP:	0.000	Y_WP:	0.500	X:	-0.015	Y:	-0.066	Z:	0.092	yaw:	11.961	yaw rate:	-9.140	Roll:	-2.603	Pitch:	-1.938	Yaw:	15.627	Thrust:	100.000
Time:	3.386	Roll Set Point:	0.047	Pitch Set Point:	0.127	Yaw Set Point:	-0.222	X_WP:	0.000	Y_WP:	0.000	Y_WP:	0.500	X:	-0.016	Y:	-0.066	Z:	0.089	yaw:	12.736	yaw rate:	77.595	Roll:	-3.693	Pitch:	-1.775	Yaw:	35.843	Thrust:	100.000
Time:	3.397	Roll Set Point:	0.051	Pitch Set Point:	0.127	Yaw Set Point:	-0.233	X_WP:	0.000	Y_WP:	0.000	Y_WP:	0.500	X:	-0.018	Y:	-0.067	Z:	0.083	yaw:	13.338	yaw rate:	60.152	Roll:	-4.859	Pitch:	-1.468	Yaw:	33.996	Thrust:	100.000
Time:	3.408	Roll Set Point:	0.054	Pitch Set Point:	0.128	Yaw Set Point:	-0.247	X_WP:	0.000	Y_WP:	0.000	Y_WP:	0.500	X:	-0.019	Y:	-0.067	Z:	0.081	yaw:	14.143	yaw rate:	80.496	Roll:	-4.185	Pitch:	-1.747	Yaw:	39.960	Thrust:	100.000
Time:	3.420	Roll Set Point:	0.057	Pitch Set Point:	0.130	Yaw Set Point:	-0.244	X_WP:	0.000	Y_WP:	0.000	Y_WP:	0.500	X:	-0.021	Y:	-0.068	Z:	0.078	yaw:	13.974	yaw rate:	-16.892	Roll:	-3.615	Pitch:	-3.139	Yaw:	16.602	Thrust:	100.000
Time:	3.431	Roll Set Point:	0.062	Pitch Set Point:	0.130	Yaw Set Point:	-0.270	X_WP:	0.000	Y_WP:	0.000	Y_WP:	0.500	X:	-0.022	Y:	-0.069	Z:	0.076	yaw:	15.456	yaw rate:	148.210	Roll:	-5.971	Pitch:	-1.194	Yaw:	57.864	Thrust:	100.000
Time:	3.442	Roll Set Point:	0.068	Pitch Set Point:	0.132	Yaw Set Point:	-0.294	X_WP:	0.000	Y_WP:	0.000	Y_WP:	0.500	X:	-0.024	Y:	-0.071	Z:	0.071	yaw:	16.848	yaw rate:	139.165	Roll:	-7.548	Pitch:	-1.733	Yaw:	57.644	Thrust:	100.000
Time:	3.453	Roll Set Point:	0.072	Pitch Set Point:	0.133	Yaw Set Point:	-0.301	X_WP:	0.000	Y_WP:	0.000	Y_WP:	0.500	X:	-0.026	Y:	-0.072	Z:	0.068	yaw:	17.234	yaw rate:	38.639	Roll:	-4.430	Pitch:	-2.427	Yaw:	34.338	Thrust:	100.000
Time:	3.464	Roll Set Point:	0.077	Pitch Set Point:	0.135	Yaw Set Point:	-0.327	X_WP:	0.000	Y_WP:	0.000	Y_WP:	0.500	X:	-0.027	Y:	-0.074	Z:	0.066	yaw:	18.715	yaw rate:	148.124	Roll:	-7.327	Pitch:	-1.929	Yaw:	62.476	Thrust:	100.000
Time:	3.475	Roll Set Point:	0.081	Pitch Set Point:	0.136	Yaw Set Point:	-0.333	X_WP:	0.000	Y_WP:	0.000	Y_WP:	0.500	X:	-0.029	Y:	-0.075	Z:	0.062	yaw:	19.089	yaw rate:	37.379	Roll:	-4.865	Pitch:	-2.494	Yaw:	36.611	Thrust:	100.000
Time:	3.486	Roll Set Point:	0.085	Pitch Set Point:	0.138	Yaw Set Point:	-0.343	X_WP:	0.000	Y_WP:	0.000	Y_WP:	0.500	X:	-0.031	Y:	-0.076	Z:	0.059	yaw:	19.640	yaw rate:	55.053	Roll:	-5.774	Pitch:	-2.234	Yaw:	41.592	Thrust:	100.000
Time:	3.497	Roll Set Point:	0.092	Pitch Set Point:	0.140	Yaw Set Point:	-0.356	X_WP:	0.000	Y_WP:	0.000	Y_WP:	0.500	X:	-0.033	Y:	-0.078	Z:	0.054	yaw:	20.394	yaw rate:	75.399	Roll:	-7.554	Pitch:	-2.676	Yaw:	47.476	Thrust:	100.000
Time:	3.508	Roll Set Point:	0.096	Pitch Set Point:	0.141	Yaw Set Point:	-0.369	X_WP:	0.000	Y_WP:	0.000	Y_WP:	0.500	X:	-0.035	Y:	-0.079	Z:	0.052	yaw:	21.119	yaw rate:	72.540	Roll:	-5.907	Pitch:	-1.196	Yaw:	47.812	Thrust:	100.000
Time:	3.519	Roll Set Point:	0.095	Pitch Set Point:	0.143	Yaw Set Point:	-0.331	X_WP:	0.000	Y_WP:	0.000	Y_WP:	0.500	X:	-0.035	Y:	-0.079	Z:	0.051	yaw:	18.973	yaw rate:	-214.566	Roll:	0.967	Pitch:	-5.554	Yaw:	-23.456	Thrust:	100.000
Time:	3.530	Roll Set Point:	0.094	Pitch Set Point:	0.144	Yaw Set Point:	-0.315	X_WP:	0.000	Y_WP:	0.000	Y_WP:	0.500	X:	-0.036	Y:	-0.080	Z:	0.050	yaw:	18.067	yaw rate:	-90.647	Roll:	-0.714	Pitch:	-3.755	Yaw:	4.868	Thrust:	100.000
Time:	3.541	Roll Set Point:	0.093	Pitch Set Point:	0.146	Yaw Set Point:	-0.290	X_WP:	0.000	Y_WP:	0.000	Y_WP:	0.500	X:	-0.036	Y:	-0.080	Z:	0.052	yaw:	16.609	yaw rate:	-145.823	Roll:	0.472	Pitch:	-4.799	Yaw:	-10.403	Thrust:	92.134
Time:	3.552	Roll Set Point:	0.092	Pitch Set Point:	0.149	Yaw Set Point:	-0.261	X_WP:	0.000	Y_WP:	0.000	Y_WP:	0.500	X:	-0.036	Y:	-0.080	Z:	0.054	yaw:	14.928	yaw rate:	-168.093	Roll:	1.006	Pitch:	-5.229	Yaw:	-17.954	Thrust:	96.251
Time:	3.563	Roll Set Point:	0.092	Pitch Set Point:	0.149	Yaw Set Point:	-0.251	X_WP:	0.000	Y_WP:	0.000	Y_WP:	0.500	X:	-0.036	Y:	-0.080	Z:	0.055	yaw:	14.392	yaw rate:	-53.581	Roll:	-1.192	Pitch:	-2.768	Yaw:	8.480	Thrust:	95.552
Time:	3.574	Roll Set Point:	0.091	Pitch Set Point:	0.151	Yaw Set Point:	-0.233	X_WP:	0.000	Y_WP:	0.000	Y_WP:	0.500	X:	-0.037	Y:	-0.081	Z:	0.056	yaw:	13.359	yaw rate:	-103.266	Roll:	-0.502	Pitch:	-4.203	Yaw:	-4.755	Thrust:	97.425
Time:	3.585	Roll Set Point:	0.092	Pitch Set Point:	0.150	Yaw Set Point:	-0.230	X_WP:	0.000	Y_WP:	0.000	Y_WP:	0.500	X:	-0.037	Y:	-0.080	Z:	0.058	yaw:	13.169	yaw rate:	-19.032	Roll:	-1.698	Pitch:	-2.023	Yaw:	14.973	Thrust:	96.724
Time:	3.596	Roll Set Point:	0.092	Pitch Set Point:	0.151	Yaw Set Point:	-0.206	X_WP:	0.000	Y_WP:	0.000	Y_WP:	0.500	X:	-0.038	Y:	-0.080	Z:	0.060	yaw:	11.776	yaw rate:	-139.318	Roll:	-0.212	Pitch:	-4.026	Yaw:	-15.524	Thrust:	95.385
Time:	3.607	Roll Set Point:	0.093	Pitch Set Point:	0.150	Yaw Set Point:	-0.211	X_WP:	0.000	Y_WP:	0.000	Y_WP:	0.500	X:	-0.039	Y:	-0.080	Z:	0.061	yaw:	12.065	yaw rate:	28.910	Roll:	-2.924	Pitch:	-1.208	Yaw:	24.811	Thrust:	99.627
Time:	3.618	Roll Set Point:	0.094	Pitch Set Point:	0.151	Yaw Set Point:	-0.193	X_WP:	0.000	Y_WP:	0.000	Y_WP:	0.500	X:	-0.040	Y:	-0.080	Z:	0.062	yaw:	11.075	yaw rate:	-98.989	Roll:	-0.909	Pitch:	-3.263	Yaw:	-6.473	Thrust:	100.000
Time:	3.629	Roll Set Point:	0.095	Pitch Set Point:	0.150	Yaw Set Point:	-0.188	X_WP:	0.000	Y_WP:	0.000	Y_WP:	0.500	X:	-0.040	Y:	-0.079	Z:	0.064	yaw:	10.759	yaw rate:	-31.598	Roll:	-2.151	Pitch:	-1.631	Yaw:	8.644	Thrust:	97.637
Time:	3.640	Roll Set Point:	0.096	Pitch Set Point:	0.149	Yaw Set Point:	-0.185	X_WP:	0.000	Y_WP:	0.000	Y_WP:	0.500	X:	-0.041	Y:	-0.079	Z:	0.066	yaw:	10.615	yaw rate:	-14.437	Roll:	-2.555	Pitch:	-1.215	Yaw:	12.498	Thrust:	98.573
Time:	3.651	Roll Set Point:	0.100	Pitch Set Point:	0.145	Yaw Set Point:	-0.193	X_WP:	0.000	Y_WP:	0.000	Y_WP:	0.500	X:	-0.043	Y:	-0.077	Z:	0.069	yaw:	11.039	yaw rate:	42.389	Roll:	-4.508	Pitch:	0.932	Yaw:	26.579	Thrust:	93.189
Time:	3.662	Roll Set Point:	0.102	Pitch Set Point:	0.143	Yaw Set Point:	-0.191	X_WP:	0.000	Y_WP:	0.000	Y_WP:	0.500	X:	-0.044	Y:	-0.076	Z:	0.071	yaw:	10.929	yaw rate:	-10.934	Roll:	-3.312	Pitch:	-0.501	Yaw:	13.760	Thrust:	97.165
Time:	3.673	Roll Set Point:	0.105	Pitch Set Point:	0.141	Yaw Set Point:	-0.201	X_WP:	0.000	Y_WP:	0.000	Y_WP:	0.500	X:	-0.046	Y:	-0.076	Z:	0.074	yaw:	11.511	yaw rate:	58.168	Roll:	-4.515	Pitch:	0.442	Yaw:	30.958	Thrust:	95.691
Time:	3.684	Roll Set Point:	0.109	Pitch Set Point:	0.138	Yaw Set Point:	-0.198	X_WP:	0.000	Y_WP:	0.000	Y_WP:	0.500	X:	-0.047	Y:	-0.075	Z:	0.077	yaw:	11.317	yaw rate:	-19.353	Roll:	-3.914	Pitch:	-0.220	Yaw:	12.314	Thrust:	95.759
Time:	3.695	Roll Set Point:	0.112	Pitch Set Point:	0.135	Yaw Set Point:	-0.209	X_WP:	0.000	Y_WP:	0.000	Y_WP:	0.500	X:	-0.049	Y:	-0.073	Z:	0.081	yaw:	11.963	yaw rate:	64.598	Roll:	-4.860	Pitch:	1.120	Yaw:	33.144	Thrust:	93.122
Time:	3.706	Roll Set Point:	0.118	Pitch Set Point:	0.130	Yaw Set Point:	-0.230	X_WP:	0.000	Y_WP:	0.000	Y_WP:	0.500	X:	-0.052	Y:	-0.072	Z:	0.086	yaw:	13.164	yaw rate:	120.069	Roll:	-7.373	Pitch:	3.596	Yaw:	48.043	Thrust:	85.547
Time:	3.718	Roll Set Point:	0.122	Pitch Set Point:	0.127	Yaw Set Point:	-0.227	X_WP:	0.000	Y_WP:	0.000	Y_WP:	0.500	X:	-0.054	Y:	-0.071	Z:	0.090	yaw:	13.000	yaw rate:	-16.439	Roll:	-4.427	Pitch:	0.251	Yaw:	15.363	Thrust:	93.184
Time:	3.729	Roll Set Point:	0.126	Pitch Set Point:	0.124	Yaw Set Point:	-0.231	X_WP:	0.000	Y_WP:	0.000	Y_WP:	0.500	X:	-0.056	Y:	-0.069	Z:	0.094	yaw:	13.247	yaw rate:	24.714	Roll:	-5.455	Pitch:	1.153	Yaw:	25.467	Thrust:	88.768
Time:	3.740	Roll Set Point:	0.131	Pitch Set Point:	0.121	Yaw Set Point:	-0.246	X_WP:	0.000	Y_WP:	0.000	Y_WP:	0.500	X:	-0.058	Y:	-0.068	Z:	0.099	yaw:	14.111	yaw rate:	86.389	Roll:	-5.881	Pitch:	2.217	Yaw:	41.306	Thrust:	90.626
Time:	3.751	Roll Set Point:	0.135	Pitch Set Point:	0.118	Yaw Set Point:	-0.252	X_WP:	0.000	Y_WP:	0.000	Y_WP:	0.500	X:	-0.060	Y:	-0.068	Z:	0.104	yaw:	14.464	yaw rate:	35.351	Roll:	-5.695	Pitch:	1.151	Yaw:	29.705	Thrust:	88.367
Time:	3.762	Roll Set Point:	0.141	Pitch Set Point:	0.114	Yaw Set Point:	-0.262	X_WP:	0.000	Y_WP:	0.000	Y_WP:	0.500	X:	-0.063	Y:	-0.066	Z:	0.112	yaw:	15.038	yaw rate:	57.384	Roll:	-7.170	Pitch:	2.833	Yaw:	35.721	Thrust:	75.943
Time:	3.773	Roll Set Point:	0.146	Pitch Set Point:	0.111	Yaw Set Point:	-0.270	X_WP:	0.000	Y_WP:	0.000	Y_WP:	0.500	X:	-0.065	Y:	-0.065	Z:	0.118	yaw:	15.453	yaw rate:	41.440	Roll:	-5.870	Pitch:	1.684	Yaw:	32.516	Thrust:	86.427
Time:	3.784	Roll Set Point:	0.150	Pitch Set Point:	0.108	Yaw Set Point:	-0.280	X_WP:	0.000	Y_WP:	0.000	Y_WP:	0.500	X:	-0.068	Y:	-0.064	Z:	0.123	yaw:	16.044	yaw rate:	59.155	Roll:	-6.139	Pitch:	1.765	Yaw:	37.546	Thrust:	87.275
Time:	3.796	Roll Set Point:	0.155	Pitch Set Point:	0.105	Yaw Set Point:	-0.288	X_WP:	0.000	Y_WP:	0.000	Y_WP:	0.500	X:	-0.070	Y:	-0.064	Z:	0.129	yaw:	16.490	yaw rate:	44.567	Roll:	-5.612	Pitch:	1.239	Yaw:	33.924	Thrust:	94.502
Time:	3.807	Roll Set Point:	0.162	Pitch Set Point:	0.100	Yaw Set Point:	-0.314	X_WP:	0.000	Y_WP:	0.000	Y_WP:	0.500	X:	-0.073	Y:	-0.063	Z:	0.139	yaw:	18.003	yaw rate:	151.351	Roll:	-8.520	Pitch:	4.850	Yaw:	62.081	Thrust:	71.627
Time:	3.819	Roll Set Point:	0.171	Pitch Set Point:	0.097	Yaw Set Point:	-0.324	X_WP:	0.000	Y_WP:	0.000	Y_WP:	0.500	X:	-0.078	Y:	-0.063	Z:	0.152	yaw:	18.579	yaw rate:	73.648	Roll:	-9.341	Pitch:	2.583	Yaw:	39.697	Thrust:	66.338
Time:	3.830	Roll Set Point:	0.171	Pitch Set Point:	0.097	Yaw Set Point:	-0.324	X_WP:	0.000	Y_WP:	0.000	Y_WP:	0.500	X:	-0.078	Y:	-0.063	Z:	0.152	yaw:	18.579	yaw rate:	73.648	Roll:	-2.772	Pitch:	-1.267	Yaw:	27.047	Thrust:	100.000
Time:	3.841	Roll Set Point:	0.175	Pitch Set Point:	0.095	Yaw Set Point:	-0.342	X_WP:	0.000	Y_WP:	0.000	Y_WP:	0.500	X:	-0.079	Y:	-0.063	Z:	0.159	yaw:	19.591	yaw rate:	101.243	Roll:	-6.471	Pitch:	2.095	Yaw:	52.462	Thrust:	82.893
Time:	3.852	Roll Set Point:	0.183	Pitch Set Point:	0.093	Yaw Set Point:	-0.357	X_WP:	0.000	Y_WP:	0.000	Y_WP:	0.500	X:	-0.083	Y:	-0.063	Z:	0.170	yaw:	20.477	yaw rate:	88.545	Roll:	-9.095	Pitch:	2.403	Yaw:	50.783	Thrust:	65.836
Time:	3.863	Roll Set Point:	0.187	Pitch Set Point:	0.092	Yaw Set Point:	-0.364	X_WP:	0.000	Y_WP:	0.000	Y_WP:	0.500	X:	-0.085	Y:	-0.063	Z:	0.177	yaw:	20.866	yaw rate:	38.869	Roll:	-6.456	Pitch:	0.601	Yaw:	39.463	Thrust:	80.516
Time:	3.874	Roll Set Point:	0.193	Pitch Set Point:	0.092	Yaw Set Point:	-0.381	X_WP:	0.000	Y_WP:	0.000	Y_WP:	0.500	X:	-0.087	Y:	-0.064	Z:	0.184	yaw:	21.815	yaw rate:	94.981	Roll:	-7.965	Pitch:	1.671	Yaw:	54.109	Thrust:	79.462
Time:	3.885	Roll Set Point:	0.197	Pitch Set Point:	0.092	Yaw Set Point:	-0.385	X_WP:	0.000	Y_WP:	0.000	Y_WP:	0.500	X:	-0.090	Y:	-0.065	Z:	0.192	yaw:	22.056	yaw rate:	24.037	Roll:	-6.733	Pitch:	-0.051	Yaw:	37.604	Thrust:	79.553
Time:	3.896	Roll Set Point:	0.202	Pitch Set Point:	0.093	Yaw Set Point:	-0.385	X_WP:	0.000	Y_WP:	0.000	Y_WP:	0.500	X:	-0.092	Y:	-0.066	Z:	0.199	yaw:	22.056	yaw rate:	0.018	Roll:	-6.991	Pitch:	-1.381	Yaw:	31.905	Thrust:	80.032
Time:	3.907	Roll Set Point:	0.209	Pitch Set Point:	0.093	Yaw Set Point:	-0.399	X_WP:	0.000	Y_WP:	0.000	Y_WP:	0.500	X:	-0.095	Y:	-0.068	Z:	0.210	yaw:	22.837	yaw rate:	78.100	Roll:	-9.914	Pitch:	0.920	Yaw:	51.557	Thrust:	63.531
Time:	3.918	Roll Set Point:	0.214	Pitch Set Point:	0.095	Yaw Set Point:	-0.406	X_WP:	0.000	Y_WP:	0.000	Y_WP:	0.500	X:	-0.097	Y:	-0.069	Z:	0.218	yaw:	23.252	yaw rate:	41.545	Roll:	-7.486	Pitch:	-0.703	Yaw:	43.431	Thrust:	78.628
Time:	3.929	Roll Set Point:	0.219	Pitch Set Point:	0.097	Yaw Set Point:	-0.407	X_WP:	0.000	Y_WP:	0.000	Y_WP:	0.500	X:	-0.099	Y:	-0.071	Z:	0.225	yaw:	23.329	yaw rate:	7.642	Roll:	-7.519	Pitch:	-1.865	Yaw:	35.488	Thrust:	79.232
Time:	3.940	Roll Set Point:	0.226	Pitch Set Point:	0.101	Yaw Set Point:	-0.409	X_WP:	0.000	Y_WP:	0.000	Y_WP:	0.500	X:	-0.102	Y:	-0.074	Z:	0.237	yaw:	23.444	yaw rate:	11.523	Roll:	-9.968	Pitch:	-3.071	Yaw:	36.573	Thrust:	63.416
Time:	3.951	Roll Set Point:	0.230	Pitch Set Point:	0.105	Yaw Set Point:	-0.407	X_WP:	0.000	Y_WP:	0.000	Y_WP:	0.500	X:	-0.104	Y:	-0.076	Z:	0.244	yaw:	23.309	yaw rate:	-13.456	Roll:	-7.899	Pitch:	-3.288	Yaw:	30.446	Thrust:	77.867
Time:	3.962	Roll Set Point:	0.235	Pitch Set Point:	0.107	Yaw Set Point:	-0.417	X_WP:	0.000	Y_WP:	0.000	Y_WP:	0.500	X:	-0.106	Y:	-0.078	Z:	0.252	yaw:	23.913	yaw rate:	60.349	Roll:	-8.334	Pitch:	-0.772	Yaw:	48.816	Thrust:	78.925
Time:	3.973	Roll Set Point:	0.240	Pitch Set Point:	0.110	Yaw Set Point:	-0.420	X_WP:	0.000	Y_WP:	0.000	Y_WP:	0.500	X:	-0.108	Y:	-0.081	Z:	0.259	yaw:	24.046	yaw rate:	13.263	Roll:	-8.343	Pitch:	-2.927	Yaw:	37.820	Thrust:	77.995
Time:	3.984	Roll Set Point:	0.245	Pitch Set Point:	0.115	Yaw Set Point:	-0.412	X_WP:	0.000	Y_WP:	0.000	Y_WP:	0.500	X:	-0.110	Y:	-0.083	Z:	0.267	yaw:	23.628	yaw rate:	-41.742	Roll:	-7.928	Pitch:	-5.126	Yaw:	24.164	Thrust:	77.495
Time:	3.996	Roll Set Point:	0.249	Pitch Set Point:	0.120	Yaw Set Point:	-0.413	X_WP:	0.000	Y_WP:	0.000	Y_WP:	0.500	X:	-0.112	Y:	-0.086	Z:	0.274	yaw:	23.658	yaw rate:	2.991	Roll:	-7.790	Pitch:	-3.682	Yaw:	34.887	Thrust:	90.835
Time:	4.007	Roll Set Point:	0.256	Pitch Set Point:	0.126	Yaw Set Point:	-0.415	X_WP:	0.000	Y_WP:	0.000	Y_WP:	0.500	X:	-0.115	Y:	-0.090	Z:	0.285	yaw:	23.789	yaw rate:	13.062	Roll:	-10.804	Pitch:	-5.133	Yaw:	37.419	Thrust:	62.868
Time:	4.018	Roll Set Point:	0.260	Pitch Set Point:	0.131	Yaw Set Point:	-0.417	X_WP:	0.000	Y_WP:	0.000	Y_WP:	0.500	X:	-0.116	Y:	-0.093	Z:	0.293	yaw:	23.873	yaw rate:	8.400	Roll:	-8.278	Pitch:	-4.004	Yaw:	36.428	Thrust:	79.322
Time:	4.029	Roll Set Point:	0.265	Pitch Set Point:	0.136	Yaw Set Point:	-0.419	X_WP:	0.000	Y_WP:	0.000	Y_WP:	0.500	X:	-0.118	Y:	-0.096	Z:	0.300	yaw:	24.032	yaw rate:	15.938	Roll:	-8.855	Pitch:	-4.031	Yaw:	38.441	Thrust:	79.695
Time:	4.040	Roll Set Point:	0.269	Pitch Set Point:	0.140	Yaw Set Point:	-0.427	X_WP:	0.000	Y_WP:	0.000	Y_WP:	0.500	X:	-0.119	Y:	-0.099	Z:	0.307	yaw:	24.465	yaw rate:	43.274	Roll:	-8.970	Pitch:	-3.309	Yaw:	45.549	Thrust:	77.915
Time:	4.051	Roll Set Point:	0.275	Pitch Set Point:	0.148	Yaw Set Point:	-0.427	X_WP:	0.000	Y_WP:	0.000	Y_WP:	0.500	X:	-0.122	Y:	-0.104	Z:	0.318	yaw:	24.492	yaw rate:	2.704	Roll:	-10.772	Pitch:	-6.222	Yaw:	35.943	Thrust:	65.001
Time:	4.062	Roll Set Point:	0.279	Pitch Set Point:	0.153	Yaw Set Point:	-0.430	X_WP:	0.000	Y_WP:	0.000	Y_WP:	0.500	X:	-0.123	Y:	-0.107	Z:	0.324	yaw:	24.628	yaw rate:	13.599	Roll:	-8.712	Pitch:	-4.828	Yaw:	38.723	Thrust:	79.215
Time:	4.073	Roll Set Point:	0.283	Pitch Set Point:	0.158	Yaw Set Point:	-0.435	X_WP:	0.000	Y_WP:	0.000	Y_WP:	0.500	X:	-0.124	Y:	-0.110	Z:	0.331	yaw:	24.907	yaw rate:	27.932	Roll:	-8.495	Pitch:	-4.136	Yaw:	42.510	Thrust:	79.374
Time:	4.085	Roll Set Point:	0.287	Pitch Set Point:	0.162	Yaw Set Point:	-0.444	X_WP:	0.000	Y_WP:	0.000	Y_WP:	0.500	X:	-0.125	Y:	-0.113	Z:	0.339	yaw:	25.466	yaw rate:	55.872	Roll:	-9.385	Pitch:	-2.956	Yaw:	49.892	Thrust:	77.672
Time:	4.096	Roll Set Point:	0.292	Pitch Set Point:	0.169	Yaw Set Point:	-0.451	X_WP:	0.000	Y_WP:	0.000	Y_WP:	0.500	X:	-0.127	Y:	-0.118	Z:	0.349	yaw:	25.832	yaw rate:	36.572	Roll:	-10.828	Pitch:	-5.974	Yaw:	45.871	Thrust:	63.056
Time:	4.107	Roll Set Point:	0.296	Pitch Set Point:	0.174	Yaw Set Point:	-0.458	X_WP:	0.000	Y_WP:	0.000	Y_WP:	0.500	X:	-0.128	Y:	-0.121	Z:	0.357	yaw:	26.224	yaw rate:	39.248	Roll:	-9.069	Pitch:	-3.785	Yaw:	47.021	Thrust:	77.845
Time:	4.118	Roll Set Point:	0.299	Pitch Set Point:	0.180	Yaw Set Point:	-0.453	X_WP:	0.000	Y_WP:	0.000	Y_WP:	0.500	X:	-0.129	Y:	-0.124	Z:	0.364	yaw:	25.949	yaw rate:	-27.537	Roll:	-7.992	Pitch:	-6.899	Yaw:	30.784	Thrust:	75.582
Time:	4.129	Roll Set Point:	0.301	Pitch Set Point:	0.185	Yaw Set Point:	-0.458	X_WP:	0.000	Y_WP:	0.000	Y_WP:	0.500	X:	-0.129	Y:	-0.128	Z:	0.371	yaw:	26.215	yaw rate:	26.593	Roll:	-8.673	Pitch:	-4.902	Yaw:	44.006	Thrust:	77.377
Time:	4.140	Roll Set Point:	0.306	Pitch Set Point:	0.190	Yaw Set Point:	-0.467	X_WP:	0.000	Y_WP:	0.000	Y_WP:	0.500	X:	-0.130	Y:	-0.131	Z:	0.379	yaw:	26.758	yaw rate:	54.379	Roll:	-9.998	Pitch:	-3.691	Yaw:	51.398	Thrust:	74.595
Time:	4.151	Roll Set Point:	0.309	Pitch Set Point:	0.198	Yaw Set Point:	-0.468	X_WP:	0.000	Y_WP:	0.000	Y_WP:	0.500	X:	-0.131	Y:	-0.136	Z:	0.390	yaw:	26.838	yaw rate:	7.923	Roll:	-9.838	Pitch:	-7.741	Yaw:	40.456	Thrust:	60.038
Time:	4.162	Roll Set Point:	0.311	Pitch Set Point:	0.205	Yaw Set Point:	-0.465	X_WP:	0.000	Y_WP:	0.000	Y_WP:	0.500	X:	-0.131	Y:	-0.139	Z:	0.398	yaw:	26.658	yaw rate:	-18.000	Roll:	-7.992	Pitch:	-7.334	Yaw:	34.052	Thrust:	74.333
Time:	4.173	Roll Set Point:	0.314	Pitch Set Point:	0.210	Yaw Set Point:	-0.472	X_WP:	0.000	Y_WP:	0.000	Y_WP:	0.500	X:	-0.132	Y:	-0.143	Z:	0.406	yaw:	27.045	yaw rate:	38.773	Roll:	-8.752	Pitch:	-4.417	Yaw:	48.070	Thrust:	73.366
Time:	4.184	Roll Set Point:	0.316	Pitch Set Point:	0.215	Yaw Set Point:	-0.476	X_WP:	0.000	Y_WP:	0.000	Y_WP:	0.500	X:	-0.132	Y:	-0.146	Z:	0.413	yaw:	27.245	yaw rate:	20.002	Roll:	-8.500	Pitch:	-5.622	Yaw:	43.884	Thrust:	72.948
Time:	4.195	Roll Set Point:	0.318	Pitch Set Point:	0.221	Yaw Set Point:	-0.474	X_WP:	0.000	Y_WP:	0.000	Y_WP:	0.500	X:	-0.132	Y:	-0.149	Z:	0.421	yaw:	27.149	yaw rate:	-9.593	Roll:	-8.187	Pitch:	-7.191	Yaw:	36.726	Thrust:	72.924
Time:	4.206	Roll Set Point:	0.321	Pitch Set Point:	0.230	Yaw Set Point:	-0.477	X_WP:	0.000	Y_WP:	0.000	Y_WP:	0.500	X:	-0.133	Y:	-0.154	Z:	0.433	yaw:	27.328	yaw rate:	17.820	Roll:	-9.839	Pitch:	-8.140	Yaw:	43.484	Thrust:	56.530
Time:	4.217	Roll Set Point:	0.322	Pitch Set Point:	0.236	Yaw Set Point:	-0.478	X_WP:	0.000	Y_WP:	0.000	Y_WP:	0.500	X:	-0.132	Y:	-0.157	Z:	0.441	yaw:	27.374	yaw rate:	4.611	Roll:	-7.834	Pitch:	-6.678	Yaw:	40.418	Thrust:	70.600
Time:	4.228	Roll Set Point:	0.324	Pitch Set Point:	0.242	Yaw Set Point:	-0.480	X_WP:	0.000	Y_WP:	0.000	Y_WP:	0.500	X:	-0.133	Y:	-0.161	Z:	0.449	yaw:	27.502	yaw rate:	12.812	Roll:	-8.673	Pitch:	-6.499	Yaw:	42.540	Thrust:	71.147
Time:	4.239	Roll Set Point:	0.325	Pitch Set Point:	0.249	Yaw Set Point:	-0.471	X_WP:	0.000	Y_WP:	0.000	Y_WP:	0.500	X:	-0.132	Y:	-0.164	Z:	0.457	yaw:	26.979	yaw rate:	-52.256	Roll:	-6.470	Pitch:	-9.775	Yaw:	26.340	Thrust:	69.317
Time:	4.250	Roll Set Point:	0.326	Pitch Set Point:	0.255	Yaw Set Point:	-0.470	X_WP:	0.000	Y_WP:	0.000	Y_WP:	0.500	X:	-0.132	Y:	-0.167	Z:	0.465	yaw:	26.958	yaw rate:	-2.170	Roll:	-7.913	Pitch:	-7.453	Yaw:	38.228	Thrust:	69.936
Time:	4.262	Roll Set Point:	0.327	Pitch Set Point:	0.263	Yaw Set Point:	-0.473	X_WP:	0.000	Y_WP:	0.000	Y_WP:	0.500	X:	-0.132	Y:	-0.171	Z:	0.477	yaw:	27.107	yaw rate:	14.969	Roll:	-8.417	Pitch:	-8.341	Yaw:	42.386	Thrust:	60.492
Time:	4.273	Roll Set Point:	0.328	Pitch Set Point:	0.270	Yaw Set Point:	-0.472	X_WP:	0.000	Y_WP:	0.000	Y_WP:	0.500	X:	-0.131	Y:	-0.174	Z:	0.485	yaw:	27.072	yaw rate:	-3.522	Roll:	-7.691	Pitch:	-7.798	Yaw:	38.067	Thrust:	68.268
Time:	4.284	Roll Set Point:	0.328	Pitch Set Point:	0.277	Yaw Set Point:	-0.465	X_WP:	0.000	Y_WP:	0.000	Y_WP:	0.500	X:	-0.131	Y:	-0.177	Z:	0.493	yaw:	26.670	yaw rate:	-40.204	Roll:	-6.581	Pitch:	-9.448	Yaw:	28.811	Thrust:	68.097
Time:	4.295	Roll Set Point:	0.328	Pitch Set Point:	0.283	Yaw Set Point:	-0.460	X_WP:	0.000	Y_WP:	0.000	Y_WP:	0.500	X:	-0.131	Y:	-0.180	Z:	0.502	yaw:	26.361	yaw rate:	-30.926	Roll:	-6.209	Pitch:	-9.207	Yaw:	30.558	Thrust:	66.418
Time:	4.306	Roll Set Point:	0.328	Pitch Set Point:	0.290	Yaw Set Point:	-0.465	X_WP:	0.000	Y_WP:	0.000	Y_WP:	0.500	X:	-0.130	Y:	-0.184	Z:	0.514	yaw:	26.659	yaw rate:	29.845	Roll:	-8.371	Pitch:	-8.211	Yaw:	45.397	Thrust:	51.257
Time:	4.317	Roll Set Point:	0.327	Pitch Set Point:	0.298	Yaw Set Point:	-0.452	X_WP:	0.000	Y_WP:	0.000	Y_WP:	0.500	X:	-0.129	Y:	-0.187	Z:	0.522	yaw:	25.886	yaw rate:	-77.363	Roll:	-5.083	Pitch:	-11.522	Yaw:	18.840	Thrust:	65.847
Time:	4.328	Roll Set Point:	0.327	Pitch Set Point:	0.304	Yaw Set Point:	-0.448	X_WP:	0.000	Y_WP:	0.000	Y_WP:	0.500	X:	-0.129	Y:	-0.189	Z:	0.530	yaw:	25.671	yaw rate:	-21.466	Roll:	-6.010	Pitch:	-8.914	Yaw:	31.851	Thrust:	66.219
Time:	4.339	Roll Set Point:	0.327	Pitch Set Point:	0.307	Yaw Set Point:	-0.460	X_WP:	0.000	Y_WP:	0.000	Y_WP:	0.500	X:	-0.128	Y:	-0.192	Z:	0.538	yaw:	26.365	yaw rate:	69.429	Roll:	-8.464	Pitch:	-3.988	Yaw:	54.395	Thrust:	66.205
Time:	4.350	Roll Set Point:	0.325	Pitch Set Point:	0.316	Yaw Set Point:	-0.440	X_WP:	0.000	Y_WP:	0.000	Y_WP:	0.500	X:	-0.127	Y:	-0.194	Z:	0.546	yaw:	25.221	yaw rate:	-114.459	Roll:	-3.454	Pitch:	-13.598	Yaw:	9.148	Thrust:	64.532
Time:	4.361	Roll Set Point:	0.325	Pitch Set Point:	0.320	Yaw Set Point:	-0.443	X_WP:	0.000	Y_WP:	0.000	Y_WP:	0.500	X:	-0.126	Y:	-0.196	Z:	0.554	yaw:	25.358	yaw rate:	13.778	Roll:	-6.705	Pitch:	-6.879	Yaw:	39.780	Thrust:	65.170
Time:	4.372	Roll Set Point:	0.322	Pitch Set Point:	0.328	Yaw Set Point:	-0.432	X_WP:	0.000	Y_WP:	0.000	Y_WP:	0.500	X:	-0.125	Y:	-0.200	Z:	0.566	yaw:	24.742	yaw rate:	-61.663	Roll:	-4.266	Pitch:	-12.642	Yaw:	21.012	Thrust:	48.303
Time:	4.383	Roll Set Point:	0.320	Pitch Set Point:	0.334	Yaw Set Point:	-0.425	X_WP:	0.000	Y_WP:	0.000	Y_WP:	0.500	X:	-0.124	Y:	-0.202	Z:	0.574	yaw:	24.334	yaw rate:	-40.774	Roll:	-4.544	Pitch:	-9.744	Yaw:	25.401	Thrust:	63.924
Time:	4.394	Roll Set Point:	0.319	Pitch Set Point:	0.338	Yaw Set Point:	-0.425	X_WP:	0.000	Y_WP:	0.000	Y_WP:	0.500	X:	-0.123	Y:	-0.203	Z:	0.582	yaw:	24.341	yaw rate:	0.695	Roll:	-5.767	Pitch:	-7.393	Yaw:	35.254	Thrust:	63.414
Time:	4.405	Roll Set Point:	0.317	Pitch Set Point:	0.343	Yaw Set Point:	-0.417	X_WP:	0.000	Y_WP:	0.000	Y_WP:	0.500	X:	-0.122	Y:	-0.205	Z:	0.589	yaw:	23.865	yaw rate:	-47.599	Roll:	-3.988	Pitch:	-9.983	Yaw:	23.127	Thrust:	63.683
Time:	4.416	Roll Set Point:	0.314	Pitch Set Point:	0.351	Yaw Set Point:	-0.407	X_WP:	0.000	Y_WP:	0.000	Y_WP:	0.500	X:	-0.121	Y:	-0.208	Z:	0.601	yaw:	23.323	yaw rate:	-54.191	Roll:	-3.465	Pitch:	-11.762	Yaw:	20.805	Thrust:	46.887
Time:	4.427	Roll Set Point:	0.312	Pitch Set Point:	0.355	Yaw Set Point:	-0.402	X_WP:	0.000	Y_WP:	0.000	Y_WP:	0.500	X:	-0.120	Y:	-0.209	Z:	0.608	yaw:	23.024	yaw rate:	-29.932	Roll:	-4.097	Pitch:	-8.800	Yaw:	26.145	Thrust:	63.377
Time:	4.438	Roll Set Point:	0.310	Pitch Set Point:	0.359	Yaw Set Point:	-0.396	X_WP:	0.000	Y_WP:	0.000	Y_WP:	0.500	X:	-0.119	Y:	-0.211	Z:	0.616	yaw:	22.710	yaw rate:	-31.398	Roll:	-3.933	Pitch:	-8.998	Yaw:	25.378	Thrust:	62.366
Time:	4.449	Roll Set Point:	0.308	Pitch Set Point:	0.363	Yaw Set Point:	-0.391	X_WP:	0.000	Y_WP:	0.000	Y_WP:	0.500	X:	-0.118	Y:	-0.212	Z:	0.624	yaw:	22.402	yaw rate:	-30.779	Roll:	-4.031	Pitch:	-8.962	Yaw:	25.058	Thrust:	61.398
Time:	4.460	Roll Set Point:	0.304	Pitch Set Point:	0.367	Yaw Set Point:	-0.382	X_WP:	0.000	Y_WP:	0.000	Y_WP:	0.500	X:	-0.117	Y:	-0.213	Z:	0.631	yaw:	21.882	yaw rate:	-52.025	Roll:	-2.401	Pitch:	-9.521	Yaw:	19.307	Thrust:	62.794
Time:	4.471	Roll Set Point:	0.300	Pitch Set Point:	0.373	Yaw Set Point:	-0.372	X_WP:	0.000	Y_WP:	0.000	Y_WP:	0.500	X:	-0.115	Y:	-0.215	Z:	0.642	yaw:	21.338	yaw rate:	-54.411	Roll:	-2.069	Pitch:	-10.850	Yaw:	17.981	Thrust:	47.382
Time:	4.482	Roll Set Point:	0.297	Pitch Set Point:	0.376	Yaw Set Point:	-0.363	X_WP:	0.000	Y_WP:	0.000	Y_WP:	0.500	X:	-0.114	Y:	-0.215	Z:	0.649	yaw:	20.826	yaw rate:	-51.147	Roll:	-2.115	Pitch:	-9.101	Yaw:	18.041	Thrust:	61.504
Time:	4.493	Roll Set Point:	0.294	Pitch Set Point:	0.379	Yaw Set Point:	-0.358	X_WP:	0.000	Y_WP:	0.000	Y_WP:	0.500	X:	-0.113	Y:	-0.216	Z:	0.656	yaw:	20.515	yaw rate:	-31.151	Roll:	-2.822	Pitch:	-8.274	Yaw:	22.353	Thrust:	61.828
Time:	4.504	Roll Set Point:	0.289	Pitch Set Point:	0.384	Yaw Set Point:	-0.338	X_WP:	0.000	Y_WP:	0.000	Y_WP:	0.500	X:	-0.112	Y:	-0.217	Z:	0.663	yaw:	19.382	yaw rate:	-113.319	Roll:	0.720	Pitch:	-12.223	Yaw:	1.327	Thrust:	62.126
Time:	4.515	Roll Set Point:	0.287	Pitch Set Point:	0.385	Yaw Set Point:	-0.339	X_WP:	0.000	Y_WP:	0.000	Y_WP:	0.500	X:	-0.110	Y:	-0.217	Z:	0.669	yaw:	19.409	yaw rate:	2.775	Roll:	-4.130	Pitch:	-6.406	Yaw:	28.861	Thrust:	61.983
Time:	4.526	Roll Set Point:	0.283	Pitch Set Point:	0.387	Yaw Set Point:	-0.338	X_WP:	0.000	Y_WP:	0.000	Y_WP:	0.500	X:	-0.109	Y:	-0.218	Z:	0.679	yaw:	19.338	yaw rate:	-7.154	Roll:	-2.892	Pitch:	-7.300	Yaw:	26.405	Thrust:	49.597
Time:	4.537	Roll Set Point:	0.282	Pitch Set Point:	0.386	Yaw Set Point:	-0.346	X_WP:	0.000	Y_WP:	0.000	Y_WP:	0.500	X:	-0.107	Y:	-0.218	Z:	0.685	yaw:	19.814	yaw rate:	47.656	Roll:	-5.537	Pitch:	-3.729	Yaw:	40.080	Thrust:	62.877
Time:	4.549	Roll Set Point:	0.279	Pitch Set Point:	0.386	Yaw Set Point:	-0.345	X_WP:	0.000	Y_WP:	0.000	Y_WP:	0.500	X:	-0.106	Y:	-0.217	Z:	0.691	yaw:	19.766	yaw rate:	-4.837	Roll:	-3.548	Pitch:	-6.019	Yaw:	27.749	Thrust:	73.979
Time:	4.560	Roll Set Point:	0.278	Pitch Set Point:	0.386	Yaw Set Point:	-0.349	X_WP:	0.000	Y_WP:	0.000	Y_WP:	0.500	X:	-0.105	Y:	-0.217	Z:	0.697	yaw:	19.995	yaw rate:	22.880	Roll:	-4.646	Pitch:	-4.797	Yaw:	34.441	Thrust:	63.056
Time:	4.571	Roll Set Point:	0.274	Pitch Set Point:	0.386	Yaw Set Point:	-0.350	X_WP:	0.000	Y_WP:	0.000	Y_WP:	0.500	X:	-0.103	Y:	-0.217	Z:	0.705	yaw:	20.070	yaw rate:	7.531	Roll:	-2.985	Pitch:	-5.538	Yaw:	30.914	Thrust:	51.778
Time:	4.582	Roll Set Point:	0.272	Pitch Set Point:	0.385	Yaw Set Point:	-0.351	X_WP:	0.000	Y_WP:	0.000	Y_WP:	0.500	X:	-0.102	Y:	-0.217	Z:	0.710	yaw:	20.126	yaw rate:	5.624	Roll:	-3.646	Pitch:	-5.181	Yaw:	30.539	Thrust:	63.335
Time:	4.593	Roll Set Point:	0.270	Pitch Set Point:	0.384	Yaw Set Point:	-0.355	X_WP:	0.000	Y_WP:	0.000	Y_WP:	0.500	X:	-0.101	Y:	-0.216	Z:	0.716	yaw:	20.315	yaw rate:	18.851	Roll:	-4.236	Pitch:	-4.400	Yaw:	33.949	Thrust:	62.840
Time:	4.604	Roll Set Point:	0.268	Pitch Set Point:	0.384	Yaw Set Point:	-0.354	X_WP:	0.000	Y_WP:	0.000	Y_WP:	0.500	X:	-0.100	Y:	-0.216	Z:	0.721	yaw:	20.279	yaw rate:	-3.563	Roll:	-3.172	Pitch:	-5.354	Yaw:	28.577	Thrust:	62.682
Time:	4.616	Roll Set Point:	0.266	Pitch Set Point:	0.382	Yaw Set Point:	-0.359	X_WP:	0.000	Y_WP:	0.000	Y_WP:	0.500	X:	-0.098	Y:	-0.215	Z:	0.726	yaw:	20.558	yaw rate:	27.917	Roll:	-4.304	Pitch:	-3.780	Yaw:	36.433	Thrust:	63.228
Time:	4.627	Roll Set Point:	0.263	Pitch Set Point:	0.380	Yaw Set Point:	-0.364	X_WP:	0.000	Y_WP:	0.000	Y_WP:	0.500	X:	-0.097	Y:	-0.214	Z:	0.734	yaw:	20.832	yaw rate:	27.345	Roll:	-3.379	Pitch:	-3.412	Yaw:	36.685	Thrust:	52.221
Time:	4.638	Roll Set Point:	0.261	Pitch Set Point:	0.379	Yaw Set Point:	-0.365	X_WP:	0.000	Y_WP:	0.000	Y_WP:	0.500	X:	-0.095	Y:	-0.213	Z:	0.738	yaw:	20.892	yaw rate:	6.031	Roll:	-3.288	Pitch:	-4.525	Yaw:	31.705	Thrust:	63.106
Time:	4.649	Roll Set Point:	0.258	Pitch Set Point:	0.378	Yaw Set Point:	-0.364	X_WP:	0.000	Y_WP:	0.000	Y_WP:	0.500	X:	-0.094	Y:	-0.213	Z:	0.743	yaw:	20.850	yaw rate:	-4.233	Roll:	-2.736	Pitch:	-4.777	Yaw:	29.210	Thrust:	62.047
Time:	4.660	Roll Set Point:	0.256	Pitch Set Point:	0.376	Yaw Set Point:	-0.368	X_WP:	0.000	Y_WP:	0.000	Y_WP:	0.500	X:	-0.093	Y:	-0.212	Z:	0.748	yaw:	21.058	yaw rate:	20.803	Roll:	-3.789	Pitch:	-3.464	Yaw:	35.452	Thrust:	61.644
Time:	4.671	Roll Set Point:	0.254	Pitch Set Point:	0.373	Yaw Set Point:	-0.375	X_WP:	0.000	Y_WP:	0.000	Y_WP:	0.500	X:	-0.092	Y:	-0.211	Z:	0.753	yaw:	21.465	yaw rate:	40.760	Roll:	-4.880	Pitch:	-2.732	Yaw:	40.750	Thrust:	60.826
Time:	4.682	Roll Set Point:	0.250	Pitch Set Point:	0.370	Yaw Set Point:	-0.376	X_WP:	0.000	Y_WP:	0.000	Y_WP:	0.500	X:	-0.090	Y:	-0.209	Z:	0.759	yaw:	21.549	yaw rate:	8.403	Roll:	-1.510	Pitch:	-3.418	Yaw:	33.186	Thrust:	53.890
Time:	4.693	Roll Set Point:	0.249	Pitch Set Point:	0.368	Yaw Set Point:	-0.384	X_WP:	0.000	Y_WP:	0.000	Y_WP:	0.500	X:	-0.089	Y:	-0.208	Z:	0.763	yaw:	21.986	yaw rate:	43.619	Roll:	-4.813	Pitch:	-2.556	Yaw:	42.137	Thrust:	61.642
Time:	4.704	Roll Set Point:	0.245	Pitch Set Point:	0.366	Yaw Set Point:	-0.379	X_WP:	0.000	Y_WP:	0.000	Y_WP:	0.500	X:	-0.088	Y:	-0.207	Z:	0.768	yaw:	21.701	yaw rate:	-28.429	Roll:	-1.255	Pitch:	-4.762	Yaw:	24.640	Thrust:	61.126
Time:	4.715	Roll Set Point:	0.242	Pitch Set Point:	0.364	Yaw Set Point:	-0.379	X_WP:	0.000	Y_WP:	0.000	Y_WP:	0.500	X:	-0.086	Y:	-0.205	Z:	0.772	yaw:	21.708	yaw rate:	0.667	Roll:	-2.515	Pitch:	-3.872	Yaw:	31.571	Thrust:	60.686
Time:	4.726	Roll Set Point:	0.239	Pitch Set Point:	0.361	Yaw Set Point:	-0.380	X_WP:	0.000	Y_WP:	0.000	Y_WP:	0.500	X:	-0.085	Y:	-0.203	Z:	0.778	yaw:	21.757	yaw rate:	4.933	Roll:	-1.521	Pitch:	-3.160	Yaw:	32.653	Thrust:	52.461
Time:	4.737	Roll Set Point:	0.236	Pitch Set Point:	0.359	Yaw Set Point:	-0.380	X_WP:	0.000	Y_WP:	0.000	Y_WP:	0.500	X:	-0.083	Y:	-0.202	Z:	0.782	yaw:	21.747	yaw rate:	-0.987	Roll:	-2.355	Pitch:	-3.778	Yaw:	31.237	Thrust:	60.848
Time:	4.749	Roll Set Point:	0.233	Pitch Set Point:	0.357	Yaw Set Point:	-0.380	X_WP:	0.000	Y_WP:	0.000	Y_WP:	0.500	X:	-0.082	Y:	-0.201	Z:	0.786	yaw:	21.771	yaw rate:	2.325	Roll:	-2.711	Pitch:	-3.747	Yaw:	32.105	Thrust:	69.954
Time:	4.760	Roll Set Point:	0.230	Pitch Set Point:	0.355	Yaw Set Point:	-0.378	X_WP:	0.000	Y_WP:	0.000	Y_WP:	0.500	X:	-0.081	Y:	-0.199	Z:	0.790	yaw:	21.674	yaw rate:	-9.652	Roll:	-1.748	Pitch:	-3.929	Yaw:	29.075	Thrust:	59.635
Time:	4.771	Roll Set Point:	0.226	Pitch Set Point:	0.351	Yaw Set Point:	-0.377	X_WP:	0.000	Y_WP:	0.000	Y_WP:	0.500	X:	-0.079	Y:	-0.197	Z:	0.795	yaw:	21.591	yaw rate:	-8.364	Roll:	-0.636	Pitch:	-3.135	Yaw:	29.264	Thrust:	53.027
Time:	4.782	Roll Set Point:	0.223	Pitch Set Point:	0.349	Yaw Set Point:	-0.377	X_WP:	0.000	Y_WP:	0.000	Y_WP:	0.500	X:	-0.078	Y:	-0.196	Z:	0.799	yaw:	21.595	yaw rate:	0.497	Roll:	-2.071	Pitch:	-3.406	Yaw:	31.374	Thrust:	59.514
Time:	4.793	Roll Set Point:	0.220	Pitch Set Point:	0.347	Yaw Set Point:	-0.376	X_WP:	0.000	Y_WP:	0.000	Y_WP:	0.500	X:	-0.077	Y:	-0.194	Z:	0.803	yaw:	21.571	yaw rate:	-2.445	Roll:	-1.959	Pitch:	-3.575	Yaw:	30.641	Thrust:	59.506
Time:	4.804	Roll Set Point:	0.217	Pitch Set Point:	0.344	Yaw Set Point:	-0.375	X_WP:	0.000	Y_WP:	0.000	Y_WP:	0.500	X:	-0.076	Y:	-0.193	Z:	0.806	yaw:	21.496	yaw rate:	-7.461	Roll:	-1.672	Pitch:	-3.518	Yaw:	29.347	Thrust:	60.129
Time:	4.815	Roll Set Point:	0.215	Pitch Set Point:	0.342	Yaw Set Point:	-0.379	X_WP:	0.000	Y_WP:	0.000	Y_WP:	0.500	X:	-0.075	Y:	-0.191	Z:	0.809	yaw:	21.689	yaw rate:	19.272	Roll:	-2.828	Pitch:	-2.633	Yaw:	35.961	Thrust:	59.201
Time:	4.826	Roll Set Point:	0.212	Pitch Set Point:	0.339	Yaw Set Point:	-0.377	X_WP:	0.000	Y_WP:	0.000	Y_WP:	0.500	X:	-0.074	Y:	-0.190	Z:	0.812	yaw:	21.596	yaw rate:	-9.321	Roll:	-1.557	Pitch:	-3.501	Yaw:	29.044	Thrust:	61.338
Time:	4.837	Roll Set Point:	0.208	Pitch Set Point:	0.335	Yaw Set Point:	-0.380	X_WP:	0.000	Y_WP:	0.000	Y_WP:	0.500	X:	-0.072	Y:	-0.188	Z:	0.816	yaw:	21.785	yaw rate:	18.868	Roll:	-1.348	Pitch:	-1.768	Yaw:	35.998	Thrust:	54.275
Time:	4.848	Roll Set Point:	0.205	Pitch Set Point:	0.332	Yaw Set Point:	-0.379	X_WP:	0.000	Y_WP:	0.000	Y_WP:	0.500	X:	-0.071	Y:	-0.186	Z:	0.818	yaw:	21.728	yaw rate:	-5.620	Roll:	-1.655	Pitch:	-3.148	Yaw:	30.107	Thrust:	60.603
Time:	4.859	Roll Set Point:	0.203	Pitch Set Point:	0.330	Yaw Set Point:	-0.382	X_WP:	0.000	Y_WP:	0.000	Y_WP:	0.500	X:	-0.070	Y:	-0.185	Z:	0.821	yaw:	21.906	yaw rate:	17.802	Roll:	-2.551	Pitch:	-2.631	Yaw:	35.908	Thrust:	61.081
Time:	4.870	Roll Set Point:	0.201	Pitch Set Point:	0.327	Yaw Set Point:	-0.385	X_WP:	0.000	Y_WP:	0.000	Y_WP:	0.500	X:	-0.069	Y:	-0.183	Z:	0.823	yaw:	22.079	yaw rate:	17.234	Roll:	-2.461	Pitch:	-2.290	Yaw:	36.022	Thrust:	60.412
Time:	4.881	Roll Set Point:	0.196	Pitch Set Point:	0.323	Yaw Set Point:	-0.385	X_WP:	0.000	Y_WP:	0.000	Y_WP:	0.500	X:	-0.067	Y:	-0.181	Z:	0.826	yaw:	22.057	yaw rate:	-2.219	Roll:	-0.213	Pitch:	-2.162	Yaw:	31.369	Thrust:	55.785
Time:	4.892	Roll Set Point:	0.194	Pitch Set Point:	0.320	Yaw Set Point:	-0.388	X_WP:	0.000	Y_WP:	0.000	Y_WP:	0.500	X:	-0.066	Y:	-0.179	Z:	0.828	yaw:	22.251	yaw rate:	19.392	Roll:	-2.526	Pitch:	-2.229	Yaw:	36.773	Thrust:	60.808
Time:	4.904	Roll Set Point:	0.192	Pitch Set Point:	0.317	Yaw Set Point:	-0.389	X_WP:	0.000	Y_WP:	0.000	Y_WP:	0.500	X:	-0.065	Y:	-0.177	Z:	0.830	yaw:	22.312	yaw rate:	6.180	Roll:	-2.209	Pitch:	-2.876	Yaw:	33.702	Thrust:	69.020
Time:	4.915	Roll Set Point:	0.187	Pitch Set Point:	0.312	Yaw Set Point:	-0.391	X_WP:	0.000	Y_WP:	0.000	Y_WP:	0.500	X:	-0.063	Y:	-0.174	Z:	0.833	yaw:	22.392	yaw rate:	4.894	Roll:	0.557	Pitch:	-0.920	Yaw:	34.272	Thrust:	54.041
Time:	4.926	Roll Set Point:	0.184	Pitch Set Point:	0.309	Yaw Set Point:	-0.392	X_WP:	0.000	Y_WP:	0.000	Y_WP:	0.500	X:	-0.062	Y:	-0.173	Z:	0.835	yaw:	22.435	yaw rate:	4.209	Roll:	-1.793	Pitch:	-2.549	Yaw:	33.427	Thrust:	61.412
Time:	4.937	Roll Set Point:	0.181	Pitch Set Point:	0.305	Yaw Set Point:	-0.394	X_WP:	0.000	Y_WP:	0.000	Y_WP:	0.500	X:	-0.060	Y:	-0.171	Z:	0.837	yaw:	22.602	yaw rate:	16.771	Roll:	-1.287	Pitch:	-1.569	Yaw:	36.639	Thrust:	58.970
Time:	4.948	Roll Set Point:	0.179	Pitch Set Point:	0.302	Yaw Set Point:	-0.394	X_WP:	0.000	Y_WP:	0.000	Y_WP:	0.500	X:	-0.059	Y:	-0.169	Z:	0.838	yaw:	22.552	yaw rate:	-4.993	Roll:	-1.190	Pitch:	-2.796	Yaw:	31.405	Thrust:	60.307
Time:	4.959	Roll Set Point:	0.176	Pitch Set Point:	0.300	Yaw Set Point:	-0.396	X_WP:	0.000	Y_WP:	0.000	Y_WP:	0.500	X:	-0.058	Y:	-0.168	Z:	0.839	yaw:	22.690	yaw rate:	13.765	Roll:	-2.082	Pitch:	-2.292	Yaw:	36.055	Thrust:	61.125
Time:	4.970	Roll Set Point:	0.173	Pitch Set Point:	0.298	Yaw Set Point:	-0.392	X_WP:	0.000	Y_WP:	0.000	Y_WP:	0.500	X:	-0.057	Y:	-0.166	Z:	0.840	yaw:	22.433	yaw rate:	-25.659	Roll:	-0.552	Pitch:	-3.513	Yaw:	26.336	Thrust:	60.678
Time:	4.981	Roll Set Point:	0.172	Pitch Set Point:	0.295	Yaw Set Point:	-0.396	X_WP:	0.000	Y_WP:	0.000	Y_WP:	0.500	X:	-0.056	Y:	-0.165	Z:	0.841	yaw:	22.666	yaw rate:	23.252	Roll:	-2.512	Pitch:	-1.988	Yaw:	38.262	Thrust:	60.922
Time:	4.993	Roll Set Point:	0.168	Pitch Set Point:	0.291	Yaw Set Point:	-0.395	X_WP:	0.000	Y_WP:	0.000	Y_WP:	0.500	X:	-0.055	Y:	-0.163	Z:	0.842	yaw:	22.616	yaw rate:	-4.971	Roll:	-0.115	Pitch:	-2.123	Yaw:	31.497	Thrust:	59.193
