Time:	2.040	Roll Set Point:	-0.050	Pitch Set Point:	-0.050	Yaw Set Point:	-0.022	X_WP:	0.000	Y_WP:	0.000	Y_WP:	0.500	X:	0.025	Y:	0.025	Z:	0.049	yaw:	1.249	yaw rate:	-20.566	Roll:	0.726	Pitch:	0.715	Yaw:	1.743	Thrust:	24.828
Time:	2.051	Roll Set Point:	-0.050	Pitch Set Point:	-0.050	Yaw Set Point:	-0.025	X_WP:	0.000	Y_WP:	0.000	Y_WP:	0.500	X:	0.025	Y:	0.025	Z:	0.049	yaw:	1.439	yaw rate:	19.010	Roll:	0.844	Pitch:	0.517	Yaw:	6.525	Thrust:	25.516
Time:	2.063	Roll Set Point:	-0.050	Pitch Set Point:	-0.050	Yaw Set Point:	-0.021	X_WP:	0.000	Y_WP:	0.000	Y_WP:	0.500	X:	0.025	Y:	0.025	Z:	0.049	yaw:	1.225	yaw rate:	-21.372	Roll:	0.664	Pitch:	0.936	Yaw:	-3.337	Thrust:	25.895
Time:	2.079	Roll Set Point:	-0.050	Pitch Set Point:	-0.050	Yaw Set Point:	-0.030	X_WP:	0.000	Y_WP:	0.000	Y_WP:	0.500	X:	0.025	Y:	0.025	Z:	0.049	yaw:	1.733	yaw rate:	50.784	Roll:	0.989	Pitch:	0.432	Yaw:	10.486	Thrust:	27.505
Time:	2.091	Roll Set Point:	-0.049	Pitch Set Point:	-0.050	Yaw Set Point:	-0.019	X_WP:	0.000	Y_WP:	0.000	Y_WP:	0.500	X:	0.024	Y:	0.025	Z:	0.048	yaw:	1.103	yaw rate:	-59.263	Roll:	0.263	Pitch:	1.213	Yaw:	-12.421	Thrust:	28.130
Time:	2.102	Roll Set Point:	-0.049	Pitch Set Point:	-0.050	Yaw Set Point:	-0.024	X_WP:	0.000	Y_WP:	0.000	Y_WP:	0.500	X:	0.024	Y:	0.025	Z:	0.049	yaw:	1.376	yaw rate:	27.311	Roll:	0.847	Pitch:	0.482	Yaw:	8.146	Thrust:	27.219
Time:	2.113	Roll Set Point:	-0.050	Pitch Set Point:	-0.050	Yaw Set Point:	-0.017	X_WP:	0.000	Y_WP:	0.000	Y_WP:	0.500	X:	0.025	Y:	0.025	Z:	0.048	yaw:	0.992	yaw rate:	-38.396	Roll:	0.691	Pitch:	1.034	Yaw:	-7.696	Thrust:	29.092
Time:	2.124	Roll Set Point:	-0.050	Pitch Set Point:	-0.050	Yaw Set Point:	-0.020	X_WP:	0.000	Y_WP:	0.000	Y_WP:	0.500	X:	0.025	Y:	0.025	Z:	0.049	yaw:	1.168	yaw rate:	17.578	Roll:	0.868	Pitch:	0.596	Yaw:	5.839	Thrust:	27.075
Time:	2.141	Roll Set Point:	-0.050	Pitch Set Point:	-0.050	Yaw Set Point:	-0.028	X_WP:	0.000	Y_WP:	0.000	Y_WP:	0.500	X:	0.025	Y:	0.025	Z:	0.049	yaw:	1.618	yaw rate:	45.002	Roll:	0.925	Pitch:	0.541	Yaw:	9.873	Thrust:	31.542
Time:	2.153	Roll Set Point:	-0.050	Pitch Set Point:	-0.050	Yaw Set Point:	-0.029	X_WP:	0.000	Y_WP:	0.000	Y_WP:	0.500	X:	0.025	Y:	0.025	Z:	0.049	yaw:	1.678	yaw rate:	25.483	Roll:	0.823	Pitch:	0.716	Yaw:	3.561	Thrust:	32.300
Time:	2.164	Roll Set Point:	-0.049	Pitch Set Point:	-0.050	Yaw Set Point:	-0.025	X_WP:	0.000	Y_WP:	0.000	Y_WP:	0.500	X:	0.024	Y:	0.025	Z:	0.049	yaw:	1.454	yaw rate:	-22.422	Roll:	0.334	Pitch:	0.915	Yaw:	-3.237	Thrust:	30.502
Time:	2.176	Roll Set Point:	-0.050	Pitch Set Point:	-0.050	Yaw Set Point:	-0.033	X_WP:	0.000	Y_WP:	0.000	Y_WP:	0.500	X:	0.024	Y:	0.025	Z:	0.049	yaw:	1.881	yaw rate:	42.686	Roll:	1.082	Pitch:	0.286	Yaw:	12.376	Thrust:	31.742
Time:	2.186	Roll Set Point:	-0.049	Pitch Set Point:	-0.050	Yaw Set Point:	-0.025	X_WP:	0.000	Y_WP:	0.000	Y_WP:	0.500	X:	0.024	Y:	0.025	Z:	0.049	yaw:	1.424	yaw rate:	-45.694	Roll:	0.422	Pitch:	0.874	Yaw:	-9.245	Thrust:	31.401
Time:	2.197	Roll Set Point:	-0.050	Pitch Set Point:	-0.050	Yaw Set Point:	-0.028	X_WP:	0.000	Y_WP:	0.000	Y_WP:	0.500	X:	0.025	Y:	0.025	Z:	0.049	yaw:	1.599	yaw rate:	17.560	Roll:	1.120	Pitch:	0.702	Yaw:	6.809	Thrust:	31.558
Time:	2.213	Roll Set Point:	-0.050	Pitch Set Point:	-0.050	Yaw Set Point:	-0.027	X_WP:	0.000	Y_WP:	0.000	Y_WP:	0.500	X:	0.025	Y:	0.025	Z:	0.049	yaw:	1.565	yaw rate:	-3.397	Roll:	0.628	Pitch:	0.804	Yaw:	1.743	Thrust:	35.898
Time:	2.225	Roll Set Point:	-0.050	Pitch Set Point:	-0.050	Yaw Set Point:	-0.032	X_WP:	0.000	Y_WP:	0.000	Y_WP:	0.500	X:	0.024	Y:	0.025	Z:	0.049	yaw:	1.848	yaw rate:	28.211	Roll:	0.717	Pitch:	0.610	Yaw:	8.707	Thrust:	36.032
Time:	2.237	Roll Set Point:	-0.050	Pitch Set Point:	-0.050	Yaw Set Point:	-0.028	X_WP:	0.000	Y_WP:	0.000	Y_WP:	0.500	X:	0.025	Y:	0.025	Z:	0.049	yaw:	1.620	yaw rate:	-22.791	Roll:	0.891	Pitch:	0.741	Yaw:	-2.600	Thrust:	36.074
Time:	2.248	Roll Set Point:	-0.049	Pitch Set Point:	-0.050	Yaw Set Point:	-0.023	X_WP:	0.000	Y_WP:	0.000	Y_WP:	0.500	X:	0.024	Y:	0.025	Z:	0.049	yaw:	1.327	yaw rate:	-29.215	Roll:	0.346	Pitch:	0.719	Yaw:	-4.676	Thrust:	35.515
Time:	2.259	Roll Set Point:	-0.050	Pitch Set Point:	-0.050	Yaw Set Point:	-0.027	X_WP:	0.000	Y_WP:	0.000	Y_WP:	0.500	X:	0.025	Y:	0.025	Z:	0.049	yaw:	1.521	yaw rate:	19.391	Roll:	0.997	Pitch:	1.006	Yaw:	7.013	Thrust:	35.097
Time:	2.270	Roll Set Point:	-0.049	Pitch Set Point:	-0.050	Yaw Set Point:	-0.027	X_WP:	0.000	Y_WP:	0.000	Y_WP:	0.500	X:	0.024	Y:	0.025	Z:	0.049	yaw:	1.540	yaw rate:	1.895	Roll:	0.486	Pitch:	0.347	Yaw:	2.707	Thrust:	36.257
Time:	2.281	Roll Set Point:	-0.050	Pitch Set Point:	-0.050	Yaw Set Point:	-0.029	X_WP:	0.000	Y_WP:	0.000	Y_WP:	0.500	X:	0.025	Y:	0.025	Z:	0.049	yaw:	1.688	yaw rate:	14.785	Roll:	1.211	Pitch:	0.785	Yaw:	6.133	Thrust:	35.339
Time:	2.291	Roll Set Point:	-0.050	Pitch Set Point:	-0.050	Yaw Set Point:	-0.034	X_WP:	0.000	Y_WP:	0.000	Y_WP:	0.500	X:	0.024	Y:	0.025	Z:	0.049	yaw:	1.957	yaw rate:	26.862	Roll:	0.582	Pitch:	0.634	Yaw:	9.286	Thrust:	37.705
Time:	2.303	Roll Set Point:	-0.050	Pitch Set Point:	-0.050	Yaw Set Point:	-0.029	X_WP:	0.000	Y_WP:	0.000	Y_WP:	0.500	X:	0.025	Y:	0.025	Z:	0.049	yaw:	1.646	yaw rate:	-31.044	Roll:	0.852	Pitch:	0.865	Yaw:	-4.630	Thrust:	37.484
Time:	2.314	Roll Set Point:	-0.050	Pitch Set Point:	-0.050	Yaw Set Point:	-0.029	X_WP:	0.000	Y_WP:	0.000	Y_WP:	0.500	X:	0.024	Y:	0.025	Z:	0.049	yaw:	1.674	yaw rate:	2.780	Roll:	0.645	Pitch:	0.804	Yaw:	3.131	Thrust:	39.880
Time:	2.327	Roll Set Point:	-0.050	Pitch Set Point:	-0.050	Yaw Set Point:	-0.024	X_WP:	0.000	Y_WP:	0.000	Y_WP:	0.500	X:	0.025	Y:	0.025	Z:	0.049	yaw:	1.360	yaw rate:	-31.370	Roll:	0.634	Pitch:	0.919	Yaw:	-4.234	Thrust:	41.177
Time:	2.343	Roll Set Point:	-0.050	Pitch Set Point:	-0.050	Yaw Set Point:	-0.024	X_WP:	0.000	Y_WP:	0.000	Y_WP:	0.500	X:	0.024	Y:	0.025	Z:	0.049	yaw:	1.402	yaw rate:	-44.286	Roll:	0.680	Pitch:	0.571	Yaw:	2.859	Thrust:	46.417
Time:	2.354	Roll Set Point:	-0.050	Pitch Set Point:	-0.050	Yaw Set Point:	-0.029	X_WP:	0.000	Y_WP:	0.000	Y_WP:	0.500	X:	0.025	Y:	0.025	Z:	0.049	yaw:	1.666	yaw rate:	26.399	Roll:	0.992	Pitch:	0.686	Yaw:	8.473	Thrust:	41.155
Time:	2.365	Roll Set Point:	-0.050	Pitch Set Point:	-0.050	Yaw Set Point:	-0.026	X_WP:	0.000	Y_WP:	0.000	Y_WP:	0.500	X:	0.025	Y:	0.025	Z:	0.049	yaw:	1.484	yaw rate:	-18.209	Roll:	0.622	Pitch:	0.867	Yaw:	-2.096	Thrust:	40.400
Time:	2.377	Roll Set Point:	-0.049	Pitch Set Point:	-0.050	Yaw Set Point:	-0.030	X_WP:	0.000	Y_WP:	0.000	Y_WP:	0.500	X:	0.024	Y:	0.025	Z:	0.049	yaw:	1.719	yaw rate:	23.555	Roll:	0.665	Pitch:	0.449	Yaw:	7.916	Thrust:	42.611
Time:	2.388	Roll Set Point:	-0.050	Pitch Set Point:	-0.050	Yaw Set Point:	-0.031	X_WP:	0.000	Y_WP:	0.000	Y_WP:	0.500	X:	0.024	Y:	0.025	Z:	0.049	yaw:	1.750	yaw rate:	3.115	Roll:	0.887	Pitch:	0.936	Yaw:	3.366	Thrust:	41.623
Time:	2.398	Roll Set Point:	-0.050	Pitch Set Point:	-0.050	Yaw Set Point:	-0.027	X_WP:	0.000	Y_WP:	0.000	Y_WP:	0.500	X:	0.024	Y:	0.025	Z:	0.049	yaw:	1.528	yaw rate:	-22.222	Roll:	0.611	Pitch:	0.949	Yaw:	-3.509	Thrust:	41.060
Time:	2.416	Roll Set Point:	-0.049	Pitch Set Point:	-0.050	Yaw Set Point:	-0.023	X_WP:	0.000	Y_WP:	0.000	Y_WP:	0.500	X:	0.024	Y:	0.025	Z:	0.049	yaw:	1.315	yaw rate:	-21.313	Roll:	0.629	Pitch:	0.715	Yaw:	-0.957	Thrust:	54.471
Time:	2.430	Roll Set Point:	-0.050	Pitch Set Point:	-0.049	Yaw Set Point:	-0.033	X_WP:	0.000	Y_WP:	0.000	Y_WP:	0.500	X:	0.025	Y:	0.025	Z:	0.049	yaw:	1.869	yaw rate:	55.405	Roll:	1.261	Pitch:	0.275	Yaw:	13.553	Thrust:	48.400
Time:	2.441	Roll Set Point:	-0.050	Pitch Set Point:	-0.050	Yaw Set Point:	-0.031	X_WP:	0.000	Y_WP:	0.000	Y_WP:	0.500	X:	0.024	Y:	0.025	Z:	0.049	yaw:	1.757	yaw rate:	-11.194	Roll:	0.544	Pitch:	1.026	Yaw:	0.119	Thrust:	45.051
Time:	2.452	Roll Set Point:	-0.050	Pitch Set Point:	-0.050	Yaw Set Point:	-0.030	X_WP:	0.000	Y_WP:	0.000	Y_WP:	0.500	X:	0.025	Y:	0.025	Z:	0.049	yaw:	1.738	yaw rate:	-1.945	Roll:	0.871	Pitch:	0.770	Yaw:	2.166	Thrust:	45.777
Time:	2.463	Roll Set Point:	-0.050	Pitch Set Point:	-0.050	Yaw Set Point:	-0.028	X_WP:	0.000	Y_WP:	0.000	Y_WP:	0.500	X:	0.025	Y:	0.025	Z:	0.049	yaw:	1.584	yaw rate:	-15.388	Roll:	0.638	Pitch:	0.814	Yaw:	-1.163	Thrust:	46.369
Time:	2.479	Roll Set Point:	-0.050	Pitch Set Point:	-0.050	Yaw Set Point:	-0.029	X_WP:	0.000	Y_WP:	0.000	Y_WP:	0.500	X:	0.024	Y:	0.025	Z:	0.049	yaw:	1.679	yaw rate:	9.496	Roll:	0.705	Pitch:	0.789	Yaw:	4.288	Thrust:	54.482
Time:	2.490	Roll Set Point:	-0.050	Pitch Set Point:	-0.050	Yaw Set Point:	-0.031	X_WP:	0.000	Y_WP:	0.000	Y_WP:	0.500	X:	0.024	Y:	0.025	Z:	0.049	yaw:	1.762	yaw rate:	-5.508	Roll:	0.839	Pitch:	0.446	Yaw:	4.580	Thrust:	46.735
Time:	2.501	Roll Set Point:	-0.050	Pitch Set Point:	-0.050	Yaw Set Point:	-0.028	X_WP:	0.000	Y_WP:	0.000	Y_WP:	0.500	X:	0.024	Y:	0.025	Z:	0.049	yaw:	1.580	yaw rate:	-18.212	Roll:	0.616	Pitch:	0.812	Yaw:	-1.689	Thrust:	49.000
Time:	2.512	Roll Set Point:	-0.050	Pitch Set Point:	-0.050	Yaw Set Point:	-0.023	X_WP:	0.000	Y_WP:	0.000	Y_WP:	0.500	X:	0.024	Y:	0.025	Z:	0.049	yaw:	1.322	yaw rate:	-25.814	Roll:	0.554	Pitch:	0.822	Yaw:	-4.050	Thrust:	47.776
Time:	2.523	Roll Set Point:	-0.050	Pitch Set Point:	-0.050	Yaw Set Point:	-0.031	X_WP:	0.000	Y_WP:	0.000	Y_WP:	0.500	X:	0.025	Y:	0.025	Z:	0.049	yaw:	1.759	yaw rate:	43.701	Roll:	1.183	Pitch:	0.670	Yaw:	13.066	Thrust:	49.101
Time:	2.534	Roll Set Point:	-0.050	Pitch Set Point:	-0.050	Yaw Set Point:	-0.030	X_WP:	0.000	Y_WP:	0.000	Y_WP:	0.500	X:	0.025	Y:	0.025	Z:	0.049	yaw:	1.730	yaw rate:	-2.865	Roll:	0.679	Pitch:	0.707	Yaw:	1.981	Thrust:	49.852
Time:	2.547	Roll Set Point:	-0.050	Pitch Set Point:	-0.050	Yaw Set Point:	-0.028	X_WP:	0.000	Y_WP:	0.000	Y_WP:	0.500	X:	0.024	Y:	0.025	Z:	0.049	yaw:	1.627	yaw rate:	-10.363	Roll:	0.633	Pitch:	0.893	Yaw:	0.396	Thrust:	53.311
Time:	2.557	Roll Set Point:	-0.050	Pitch Set Point:	-0.050	Yaw Set Point:	-0.030	X_WP:	0.000	Y_WP:	0.000	Y_WP:	0.500	X:	0.025	Y:	0.025	Z:	0.049	yaw:	1.732	yaw rate:	10.539	Roll:	0.930	Pitch:	0.692	Yaw:	5.281	Thrust:	49.100
Time:	2.569	Roll Set Point:	-0.050	Pitch Set Point:	-0.050	Yaw Set Point:	-0.022	X_WP:	0.000	Y_WP:	0.000	Y_WP:	0.500	X:	0.025	Y:	0.025	Z:	0.049	yaw:	1.258	yaw rate:	-47.445	Roll:	0.526	Pitch:	1.089	Yaw:	-9.240	Thrust:	51.361
Time:	2.580	Roll Set Point:	-0.050	Pitch Set Point:	-0.050	Yaw Set Point:	-0.025	X_WP:	0.000	Y_WP:	0.000	Y_WP:	0.500	X:	0.025	Y:	0.025	Z:	0.049	yaw:	1.418	yaw rate:	16.059	Roll:	0.911	Pitch:	0.604	Yaw:	5.914	Thrust:	53.044
Time:	2.590	Roll Set Point:	-0.050	Pitch Set Point:	-0.050	Yaw Set Point:	-0.021	X_WP:	0.000	Y_WP:	0.000	Y_WP:	0.500	X:	0.025	Y:	0.025	Z:	0.049	yaw:	1.176	yaw rate:	-24.216	Roll:	0.447	Pitch:	0.745	Yaw:	-4.103	Thrust:	50.699
Time:	2.606	Roll Set Point:	-0.050	Pitch Set Point:	-0.049	Yaw Set Point:	-0.029	X_WP:	0.000	Y_WP:	0.000	Y_WP:	0.500	X:	0.024	Y:	0.025	Z:	0.049	yaw:	1.650	yaw rate:	47.415	Roll:	1.013	Pitch:	0.349	Yaw:	10.937	Thrust:	58.455
Time:	2.620	Roll Set Point:	-0.050	Pitch Set Point:	-0.050	Yaw Set Point:	-0.032	X_WP:	0.000	Y_WP:	0.000	Y_WP:	0.500	X:	0.025	Y:	0.025	Z:	0.049	yaw:	1.812	yaw rate:	29.530	Roll:	0.868	Pitch:	0.821	Yaw:	5.826	Thrust:	67.286
Time:	2.632	Roll Set Point:	-0.050	Pitch Set Point:	-0.050	Yaw Set Point:	-0.030	X_WP:	0.000	Y_WP:	0.000	Y_WP:	0.500	X:	0.024	Y:	0.025	Z:	0.049	yaw:	1.741	yaw rate:	-7.172	Roll:	0.685	Pitch:	0.828	Yaw:	1.190	Thrust:	56.816
Time:	2.644	Roll Set Point:	-0.050	Pitch Set Point:	-0.050	Yaw Set Point:	-0.026	X_WP:	0.000	Y_WP:	0.000	Y_WP:	0.500	X:	0.024	Y:	0.025	Z:	0.049	yaw:	1.463	yaw rate:	-27.740	Roll:	0.556	Pitch:	0.680	Yaw:	-3.940	Thrust:	55.876
Time:	2.655	Roll Set Point:	-0.050	Pitch Set Point:	-0.049	Yaw Set Point:	-0.026	X_WP:	0.000	Y_WP:	0.000	Y_WP:	0.500	X:	0.024	Y:	0.025	Z:	0.049	yaw:	1.481	yaw rate:	1.758	Roll:	0.805	Pitch:	0.714	Yaw:	2.790	Thrust:	54.978
Time:	2.667	Roll Set Point:	-0.050	Pitch Set Point:	-0.049	Yaw Set Point:	-0.031	X_WP:	0.000	Y_WP:	0.000	Y_WP:	0.500	X:	0.025	Y:	0.025	Z:	0.049	yaw:	1.774	yaw rate:	29.292	Roll:	1.294	Pitch:	0.541	Yaw:	9.188	Thrust:	55.870
Time:	2.679	Roll Set Point:	-0.050	Pitch Set Point:	-0.049	Yaw Set Point:	-0.031	X_WP:	0.000	Y_WP:	0.000	Y_WP:	0.500	X:	0.025	Y:	0.025	Z:	0.049	yaw:	1.759	yaw rate:	-1.425	Roll:	0.733	Pitch:	0.832	Yaw:	2.493	Thrust:	61.060
Time:	2.690	Roll Set Point:	-0.050	Pitch Set Point:	-0.050	Yaw Set Point:	-0.031	X_WP:	0.000	Y_WP:	0.000	Y_WP:	0.500	X:	0.025	Y:	0.025	Z:	0.049	yaw:	1.770	yaw rate:	1.019	Roll:	1.015	Pitch:	0.892	Yaw:	3.038	Thrust:	56.809
Time:	2.701	Roll Set Point:	-0.050	Pitch Set Point:	-0.050	Yaw Set Point:	-0.029	X_WP:	0.000	Y_WP:	0.000	Y_WP:	0.500	X:	0.025	Y:	0.025	Z:	0.049	yaw:	1.643	yaw rate:	-12.655	Roll:	0.810	Pitch:	0.927	Yaw:	-0.232	Thrust:	58.977
Time:	2.712	Roll Set Point:	-0.051	Pitch Set Point:	-0.050	Yaw Set Point:	-0.026	X_WP:	0.000	Y_WP:	0.000	Y_WP:	0.500	X:	0.025	Y:	0.025	Z:	0.050	yaw:	1.465	yaw rate:	-17.777	Roll:	0.754	Pitch:	0.742	Yaw:	-1.836	Thrust:	57.442
Time:	2.723	Roll Set Point:	-0.051	Pitch Set Point:	-0.050	Yaw Set Point:	-0.034	X_WP:	0.000	Y_WP:	0.000	Y_WP:	0.500	X:	0.025	Y:	0.025	Z:	0.051	yaw:	1.968	yaw rate:	15.533	Roll:	1.656	Pitch:	0.572	Yaw:	15.013	Thrust:	53.715
Time:	2.738	Roll Set Point:	-0.051	Pitch Set Point:	-0.050	Yaw Set Point:	-0.034	X_WP:	0.000	Y_WP:	0.000	Y_WP:	0.500	X:	0.025	Y:	0.025	Z:	0.051	yaw:	1.968	yaw rate:	15.533	Roll:	0.799	Pitch:	0.752	Yaw:	3.195	Thrust:	65.723
Time:	2.754	Roll Set Point:	-0.052	Pitch Set Point:	-0.050	Yaw Set Point:	-0.033	X_WP:	0.000	Y_WP:	0.000	Y_WP:	0.500	X:	0.026	Y:	0.025	Z:	0.052	yaw:	1.869	yaw rate:	26.316	Roll:	1.031	Pitch:	0.743	Yaw:	1.635	Thrust:	75.853
Time:	2.765	Roll Set Point:	-0.052	Pitch Set Point:	-0.050	Yaw Set Point:	-0.035	X_WP:	0.000	Y_WP:	0.000	Y_WP:	0.500	X:	0.026	Y:	0.025	Z:	0.053	yaw:	1.992	yaw rate:	12.321	Roll:	1.103	Pitch:	0.836	Yaw:	6.071	Thrust:	61.547
Time:	2.777	Roll Set Point:	-0.052	Pitch Set Point:	-0.050	Yaw Set Point:	-0.038	X_WP:	0.000	Y_WP:	0.000	Y_WP:	0.500	X:	0.026	Y:	0.025	Z:	0.053	yaw:	2.193	yaw rate:	20.153	Roll:	1.025	Pitch:	0.504	Yaw:	8.025	Thrust:	57.503
Time:	2.787	Roll Set Point:	-0.053	Pitch Set Point:	-0.050	Yaw Set Point:	-0.040	X_WP:	0.000	Y_WP:	0.000	Y_WP:	0.500	X:	0.026	Y:	0.025	Z:	0.055	yaw:	2.318	yaw rate:	12.513	Roll:	0.881	Pitch:	0.784	Yaw:	6.847	Thrust:	55.357
Time:	2.798	Roll Set Point:	-0.053	Pitch Set Point:	-0.050	Yaw Set Point:	-0.035	X_WP:	0.000	Y_WP:	0.000	Y_WP:	0.500	X:	0.026	Y:	0.025	Z:	0.055	yaw:	2.027	yaw rate:	-29.096	Roll:	0.940	Pitch:	1.096	Yaw:	-3.685	Thrust:	58.297
Time:	2.814	Roll Set Point:	-0.053	Pitch Set Point:	-0.050	Yaw Set Point:	-0.034	X_WP:	0.000	Y_WP:	0.000	Y_WP:	0.500	X:	0.026	Y:	0.025	Z:	0.057	yaw:	1.944	yaw rate:	-8.368	Roll:	0.895	Pitch:	0.686	Yaw:	1.802	Thrust:	69.038
Time:	2.826	Roll Set Point:	-0.053	Pitch Set Point:	-0.050	Yaw Set Point:	-0.035	X_WP:	0.000	Y_WP:	0.000	Y_WP:	0.500	X:	0.026	Y:	0.026	Z:	0.059	yaw:	1.983	yaw rate:	-0.027	Roll:	1.131	Pitch:	0.983	Yaw:	4.062	Thrust:	60.562
Time:	2.838	Roll Set Point:	-0.054	Pitch Set Point:	-0.050	Yaw Set Point:	-0.036	X_WP:	0.000	Y_WP:	0.000	Y_WP:	0.500	X:	0.027	Y:	0.026	Z:	0.061	yaw:	2.047	yaw rate:	6.388	Roll:	1.258	Pitch:	0.786	Yaw:	4.662	Thrust:	61.803
Time:	2.849	Roll Set Point:	-0.055	Pitch Set Point:	-0.051	Yaw Set Point:	-0.037	X_WP:	0.000	Y_WP:	0.000	Y_WP:	0.500	X:	0.027	Y:	0.026	Z:	0.065	yaw:	2.112	yaw rate:	6.471	Roll:	1.338	Pitch:	1.236	Yaw:	4.905	Thrust:	46.802
Time:	2.859	Roll Set Point:	-0.054	Pitch Set Point:	-0.051	Yaw Set Point:	-0.039	X_WP:	0.000	Y_WP:	0.000	Y_WP:	0.500	X:	0.027	Y:	0.026	Z:	0.067	yaw:	2.263	yaw rate:	15.165	Roll:	0.840	Pitch:	0.817	Yaw:	7.500	Thrust:	54.129
Time:	2.871	Roll Set Point:	-0.055	Pitch Set Point:	-0.051	Yaw Set Point:	-0.040	X_WP:	0.000	Y_WP:	0.000	Y_WP:	0.500	X:	0.027	Y:	0.026	Z:	0.069	yaw:	2.317	yaw rate:	5.366	Roll:	1.233	Pitch:	0.971	Yaw:	4.880	Thrust:	56.018
Time:	2.882	Roll Set Point:	-0.055	Pitch Set Point:	-0.051	Yaw Set Point:	-0.038	X_WP:	0.000	Y_WP:	0.000	Y_WP:	0.500	X:	0.027	Y:	0.026	Z:	0.072	yaw:	2.203	yaw rate:	-11.382	Roll:	1.013	Pitch:	0.909	Yaw:	0.823	Thrust:	60.001
Time:	2.895	Roll Set Point:	-0.055	Pitch Set Point:	-0.052	Yaw Set Point:	-0.033	X_WP:	0.000	Y_WP:	0.000	Y_WP:	0.500	X:	0.027	Y:	0.026	Z:	0.074	yaw:	1.883	yaw rate:	-32.012	Roll:	0.897	Pitch:	1.253	Yaw:	-2.994	Thrust:	68.037
Time:	2.907	Roll Set Point:	-0.055	Pitch Set Point:	-0.052	Yaw Set Point:	-0.038	X_WP:	0.000	Y_WP:	0.000	Y_WP:	0.500	X:	0.027	Y:	0.027	Z:	0.076	yaw:	2.196	yaw rate:	31.336	Roll:	1.074	Pitch:	0.620	Yaw:	10.663	Thrust:	58.017
Time:	2.918	Roll Set Point:	-0.056	Pitch Set Point:	-0.052	Yaw Set Point:	-0.041	X_WP:	0.000	Y_WP:	0.000	Y_WP:	0.500	X:	0.027	Y:	0.027	Z:	0.079	yaw:	2.330	yaw rate:	13.328	Roll:	1.167	Pitch:	0.863	Yaw:	6.887	Thrust:	55.231
Time:	2.931	Roll Set Point:	-0.056	Pitch Set Point:	-0.053	Yaw Set Point:	-0.044	X_WP:	0.000	Y_WP:	0.000	Y_WP:	0.500	X:	0.028	Y:	0.027	Z:	0.084	yaw:	2.541	yaw rate:	24.747	Roll:	1.449	Pitch:	1.387	Yaw:	8.411	Thrust:	49.858
Time:	2.943	Roll Set Point:	-0.056	Pitch Set Point:	-0.053	Yaw Set Point:	-0.045	X_WP:	0.000	Y_WP:	0.000	Y_WP:	0.500	X:	0.028	Y:	0.027	Z:	0.087	yaw:	2.586	yaw rate:	4.491	Roll:	0.932	Pitch:	0.897	Yaw:	5.121	Thrust:	65.150
Time:	2.955	Roll Set Point:	-0.057	Pitch Set Point:	-0.053	Yaw Set Point:	-0.050	X_WP:	0.000	Y_WP:	0.000	Y_WP:	0.500	X:	0.028	Y:	0.027	Z:	0.090	yaw:	2.850	yaw rate:	26.476	Roll:	1.104	Pitch:	0.781	Yaw:	10.069	Thrust:	58.929
Time:	2.967	Roll Set Point:	-0.057	Pitch Set Point:	-0.054	Yaw Set Point:	-0.052	X_WP:	0.000	Y_WP:	0.000	Y_WP:	0.500	X:	0.028	Y:	0.028	Z:	0.096	yaw:	2.964	yaw rate:	11.321	Roll:	1.184	Pitch:	1.184	Yaw:	7.336	Thrust:	50.575
Time:	2.978	Roll Set Point:	-0.057	Pitch Set Point:	-0.054	Yaw Set Point:	-0.043	X_WP:	0.000	Y_WP:	0.000	Y_WP:	0.500	X:	0.028	Y:	0.028	Z:	0.099	yaw:	2.453	yaw rate:	-51.034	Roll:	0.594	Pitch:	1.373	Yaw:	-7.613	Thrust:	55.985
Time:	2.989	Roll Set Point:	-0.057	Pitch Set Point:	-0.055	Yaw Set Point:	-0.045	X_WP:	0.000	Y_WP:	0.000	Y_WP:	0.500	X:	0.028	Y:	0.028	Z:	0.102	yaw:	2.594	yaw rate:	14.120	Roll:	0.998	Pitch:	1.003	Yaw:	7.499	Thrust:	59.402
Time:	3.001	Roll Set Point:	-0.057	Pitch Set Point:	-0.055	Yaw Set Point:	-0.050	X_WP:	0.000	Y_WP:	0.000	Y_WP:	0.500	X:	0.028	Y:	0.028	Z:	0.105	yaw:	2.885	yaw rate:	29.051	Roll:	1.117	Pitch:	0.758	Yaw:	11.187	Thrust:	58.875
Time:	3.015	Roll Set Point:	-0.057	Pitch Set Point:	-0.055	Yaw Set Point:	-0.051	X_WP:	0.000	Y_WP:	0.000	Y_WP:	0.500	X:	0.028	Y:	0.028	Z:	0.108	yaw:	2.901	yaw rate:	1.565	Roll:	1.029	Pitch:	1.051	Yaw:	5.061	Thrust:	75.271
Time:	3.030	Roll Set Point:	-0.057	Pitch Set Point:	-0.055	Yaw Set Point:	-0.049	X_WP:	0.000	Y_WP:	0.000	Y_WP:	0.500	X:	0.028	Y:	0.028	Z:	0.111	yaw:	2.783	yaw rate:	-11.743	Roll:	0.656	Pitch:	0.935	Yaw:	2.615	Thrust:	78.381
Time:	3.042	Roll Set Point:	-0.057	Pitch Set Point:	-0.055	Yaw Set Point:	-0.057	X_WP:	0.000	Y_WP:	0.000	Y_WP:	0.500	X:	0.028	Y:	0.028	Z:	0.117	yaw:	3.251	yaw rate:	35.661	Roll:	1.306	Pitch:	0.775	Yaw:	15.346	Thrust:	51.164
Time:	3.053	Roll Set Point:	-0.057	Pitch Set Point:	-0.056	Yaw Set Point:	-0.056	X_WP:	0.000	Y_WP:	0.000	Y_WP:	0.500	X:	0.028	Y:	0.029	Z:	0.120	yaw:	3.211	yaw rate:	-4.027	Roll:	0.906	Pitch:	1.031	Yaw:	4.042	Thrust:	54.911
Time:	3.064	Roll Set Point:	-0.057	Pitch Set Point:	-0.056	Yaw Set Point:	-0.056	X_WP:	0.000	Y_WP:	0.000	Y_WP:	0.500	X:	0.028	Y:	0.029	Z:	0.123	yaw:	3.200	yaw rate:	-1.048	Roll:	0.865	Pitch:	1.115	Yaw:	4.824	Thrust:	58.244
Time:	3.078	Roll Set Point:	-0.057	Pitch Set Point:	-0.056	Yaw Set Point:	-0.056	X_WP:	0.000	Y_WP:	0.000	Y_WP:	0.500	X:	0.028	Y:	0.029	Z:	0.126	yaw:	3.231	yaw rate:	3.051	Roll:	0.995	Pitch:	0.963	Yaw:	5.868	Thrust:	76.958
Time:	3.089	Roll Set Point:	-0.057	Pitch Set Point:	-0.056	Yaw Set Point:	-0.058	X_WP:	0.000	Y_WP:	0.000	Y_WP:	0.500	X:	0.028	Y:	0.029	Z:	0.133	yaw:	3.341	yaw rate:	11.054	Roll:	0.898	Pitch:	1.022	Yaw:	7.912	Thrust:	45.035
Time:	3.102	Roll Set Point:	-0.057	Pitch Set Point:	-0.056	Yaw Set Point:	-0.066	X_WP:	0.000	Y_WP:	0.000	Y_WP:	0.500	X:	0.028	Y:	0.029	Z:	0.136	yaw:	3.777	yaw rate:	43.569	Roll:	1.190	Pitch:	0.588	Yaw:	15.447	Thrust:	62.629
Time:	3.113	Roll Set Point:	-0.057	Pitch Set Point:	-0.057	Yaw Set Point:	-0.060	X_WP:	0.000	Y_WP:	0.000	Y_WP:	0.500	X:	0.028	Y:	0.029	Z:	0.140	yaw:	3.459	yaw rate:	-31.827	Roll:	0.625	Pitch:	1.390	Yaw:	-2.073	Thrust:	54.216
Time:	3.124	Roll Set Point:	-0.057	Pitch Set Point:	-0.057	Yaw Set Point:	-0.060	X_WP:	0.000	Y_WP:	0.000	Y_WP:	0.500	X:	0.028	Y:	0.029	Z:	0.143	yaw:	3.411	yaw rate:	-4.812	Roll:	0.839	Pitch:	0.853	Yaw:	4.291	Thrust:	61.191
Time:	3.136	Roll Set Point:	-0.057	Pitch Set Point:	-0.056	Yaw Set Point:	-0.066	X_WP:	0.000	Y_WP:	0.000	Y_WP:	0.500	X:	0.028	Y:	0.029	Z:	0.147	yaw:	3.767	yaw rate:	35.578	Roll:	1.125	Pitch:	0.567	Yaw:	13.736	Thrust:	62.874
Time:	3.153	Roll Set Point:	-0.057	Pitch Set Point:	-0.056	Yaw Set Point:	-0.068	X_WP:	0.000	Y_WP:	0.000	Y_WP:	0.500	X:	0.027	Y:	0.029	Z:	0.150	yaw:	3.889	yaw rate:	12.220	Roll:	0.871	Pitch:	0.792	Yaw:	8.429	Thrust:	80.488
Time:	3.164	Roll Set Point:	-0.057	Pitch Set Point:	-0.057	Yaw Set Point:	-0.059	X_WP:	0.000	Y_WP:	0.000	Y_WP:	0.500	X:	0.027	Y:	0.029	Z:	0.158	yaw:	3.400	yaw rate:	-48.898	Roll:	0.707	Pitch:	1.156	Yaw:	-4.610	Thrust:	59.488
Time:	3.175	Roll Set Point:	-0.057	Pitch Set Point:	-0.056	Yaw Set Point:	-0.061	X_WP:	0.000	Y_WP:	0.000	Y_WP:	0.500	X:	0.027	Y:	0.029	Z:	0.162	yaw:	3.468	yaw rate:	6.857	Roll:	0.922	Pitch:	0.709	Yaw:	7.236	Thrust:	53.175
Time:	3.186	Roll Set Point:	-0.057	Pitch Set Point:	-0.056	Yaw Set Point:	-0.066	X_WP:	0.000	Y_WP:	0.000	Y_WP:	0.500	X:	0.027	Y:	0.029	Z:	0.170	yaw:	3.805	yaw rate:	16.091	Roll:	1.181	Pitch:	0.593	Yaw:	14.043	Thrust:	39.981
Time:	3.197	Roll Set Point:	-0.057	Pitch Set Point:	-0.056	Yaw Set Point:	-0.067	X_WP:	0.000	Y_WP:	0.000	Y_WP:	0.500	X:	0.027	Y:	0.029	Z:	0.174	yaw:	3.817	yaw rate:	1.154	Roll:	0.964	Pitch:	0.586	Yaw:	6.369	Thrust:	59.503
Time:	3.215	Roll Set Point:	-0.057	Pitch Set Point:	-0.056	Yaw Set Point:	-0.066	X_WP:	0.000	Y_WP:	0.000	Y_WP:	0.500	X:	0.027	Y:	0.029	Z:	0.178	yaw:	3.783	yaw rate:	-3.426	Roll:	0.801	Pitch:	0.845	Yaw:	6.034	Thrust:	98.093
Time:	3.230	Roll Set Point:	-0.057	Pitch Set Point:	-0.055	Yaw Set Point:	-0.072	X_WP:	0.000	Y_WP:	0.000	Y_WP:	0.500	X:	0.027	Y:	0.029	Z:	0.186	yaw:	4.131	yaw rate:	42.227	Roll:	1.233	Pitch:	0.407	Yaw:	13.082	Thrust:	64.554
Time:	3.241	Roll Set Point:	-0.057	Pitch Set Point:	-0.055	Yaw Set Point:	-0.067	X_WP:	0.000	Y_WP:	0.000	Y_WP:	0.500	X:	0.027	Y:	0.028	Z:	0.190	yaw:	3.815	yaw rate:	-31.591	Roll:	0.670	Pitch:	0.814	Yaw:	-1.013	Thrust:	60.186
Time:	3.252	Roll Set Point:	-0.057	Pitch Set Point:	-0.055	Yaw Set Point:	-0.062	X_WP:	0.000	Y_WP:	0.000	Y_WP:	0.500	X:	0.027	Y:	0.028	Z:	0.195	yaw:	3.564	yaw rate:	-25.090	Roll:	0.720	Pitch:	0.608	Yaw:	-0.170	Thrust:	52.961
Time:	3.263	Roll Set Point:	-0.056	Pitch Set Point:	-0.054	Yaw Set Point:	-0.063	X_WP:	0.000	Y_WP:	0.000	Y_WP:	0.500	X:	0.027	Y:	0.028	Z:	0.199	yaw:	3.591	yaw rate:	2.667	Roll:	0.795	Pitch:	0.738	Yaw:	6.463	Thrust:	57.696
Time:	3.279	Roll Set Point:	-0.057	Pitch Set Point:	-0.054	Yaw Set Point:	-0.071	X_WP:	0.000	Y_WP:	0.000	Y_WP:	0.500	X:	0.027	Y:	0.028	Z:	0.203	yaw:	4.059	yaw rate:	46.778	Roll:	1.180	Pitch:	0.338	Yaw:	14.717	Thrust:	81.951
Time:	3.290	Roll Set Point:	-0.057	Pitch Set Point:	-0.053	Yaw Set Point:	-0.071	X_WP:	0.000	Y_WP:	0.000	Y_WP:	0.500	X:	0.027	Y:	0.028	Z:	0.207	yaw:	4.057	yaw rate:	-0.145	Roll:	0.920	Pitch:	0.585	Yaw:	6.544	Thrust:	64.435
Time:	3.302	Roll Set Point:	-0.057	Pitch Set Point:	-0.053	Yaw Set Point:	-0.076	X_WP:	0.000	Y_WP:	0.000	Y_WP:	0.500	X:	0.027	Y:	0.028	Z:	0.212	yaw:	4.352	yaw rate:	29.494	Roll:	1.133	Pitch:	0.290	Yaw:	13.675	Thrust:	56.315
Time:	3.312	Roll Set Point:	-0.057	Pitch Set Point:	-0.052	Yaw Set Point:	-0.068	X_WP:	0.000	Y_WP:	0.000	Y_WP:	0.500	X:	0.027	Y:	0.027	Z:	0.221	yaw:	3.919	yaw rate:	-43.349	Roll:	0.761	Pitch:	0.466	Yaw:	-4.463	Thrust:	30.140
Time:	3.324	Roll Set Point:	-0.057	Pitch Set Point:	-0.052	Yaw Set Point:	-0.070	X_WP:	0.000	Y_WP:	0.000	Y_WP:	0.500	X:	0.027	Y:	0.027	Z:	0.226	yaw:	3.990	yaw rate:	7.162	Roll:	0.918	Pitch:	0.251	Yaw:	8.166	Thrust:	57.207
Time:	3.338	Roll Set Point:	-0.057	Pitch Set Point:	-0.051	Yaw Set Point:	-0.070	X_WP:	0.000	Y_WP:	0.000	Y_WP:	0.500	X:	0.028	Y:	0.027	Z:	0.231	yaw:	3.993	yaw rate:	0.276	Roll:	1.019	Pitch:	0.512	Yaw:	6.713	Thrust:	60.834
Time:	3.355	Roll Set Point:	-0.057	Pitch Set Point:	-0.050	Yaw Set Point:	-0.067	X_WP:	0.000	Y_WP:	0.000	Y_WP:	0.500	X:	0.028	Y:	0.026	Z:	0.242	yaw:	3.823	yaw rate:	-13.916	Roll:	1.151	Pitch:	0.418	Yaw:	4.416	Thrust:	93.802
Time:	3.366	Roll Set Point:	-0.057	Pitch Set Point:	-0.050	Yaw Set Point:	-0.067	X_WP:	0.000	Y_WP:	0.000	Y_WP:	0.500	X:	0.028	Y:	0.026	Z:	0.247	yaw:	3.843	yaw rate:	1.987	Roll:	0.877	Pitch:	0.474	Yaw:	6.782	Thrust:	51.618
Time:	3.381	Roll Set Point:	-0.057	Pitch Set Point:	-0.049	Yaw Set Point:	-0.065	X_WP:	0.000	Y_WP:	0.000	Y_WP:	0.500	X:	0.028	Y:	0.026	Z:	0.252	yaw:	3.704	yaw rate:	-13.864	Roll:	0.996	Pitch:	0.582	Yaw:	4.188	Thrust:	83.550
Time:	3.392	Roll Set Point:	-0.057	Pitch Set Point:	-0.049	Yaw Set Point:	-0.060	X_WP:	0.000	Y_WP:	0.000	Y_WP:	0.500	X:	0.028	Y:	0.025	Z:	0.258	yaw:	3.432	yaw rate:	-27.219	Roll:	0.860	Pitch:	0.346	Yaw:	-0.975	Thrust:	49.030
Time:	3.405	Roll Set Point:	-0.057	Pitch Set Point:	-0.047	Yaw Set Point:	-0.056	X_WP:	0.000	Y_WP:	0.000	Y_WP:	0.500	X:	0.028	Y:	0.024	Z:	0.268	yaw:	3.182	yaw rate:	-25.020	Roll:	0.813	Pitch:	-0.180	Yaw:	0.343	Thrust:	42.970
Time:	3.418	Roll Set Point:	-0.058	Pitch Set Point:	-0.046	Yaw Set Point:	-0.054	X_WP:	0.000	Y_WP:	0.000	Y_WP:	0.500	X:	0.028	Y:	0.024	Z:	0.279	yaw:	3.083	yaw rate:	0.281	Roll:	1.323	Pitch:	0.099	Yaw:	3.500	Thrust:	38.211
Time:	3.430	Roll Set Point:	-0.058	Pitch Set Point:	-0.046	Yaw Set Point:	-0.053	X_WP:	0.000	Y_WP:	0.000	Y_WP:	0.500	X:	0.028	Y:	0.024	Z:	0.285	yaw:	3.046	yaw rate:	-3.663	Roll:	1.088	Pitch:	0.414	Yaw:	4.636	Thrust:	68.323
Time:	3.441	Roll Set Point:	-0.059	Pitch Set Point:	-0.045	Yaw Set Point:	-0.056	X_WP:	0.000	Y_WP:	0.000	Y_WP:	0.500	X:	0.029	Y:	0.023	Z:	0.291	yaw:	3.232	yaw rate:	18.577	Roll:	1.297	Pitch:	0.035	Yaw:	10.103	Thrust:	46.130
Time:	3.453	Roll Set Point:	-0.059	Pitch Set Point:	-0.044	Yaw Set Point:	-0.059	X_WP:	0.000	Y_WP:	0.000	Y_WP:	0.500	X:	0.029	Y:	0.023	Z:	0.297	yaw:	3.357	yaw rate:	12.516	Roll:	1.115	Pitch:	0.138	Yaw:	8.541	Thrust:	53.612
Time:	3.463	Roll Set Point:	-0.059	Pitch Set Point:	-0.044	Yaw Set Point:	-0.048	X_WP:	0.000	Y_WP:	0.000	Y_WP:	0.500	X:	0.029	Y:	0.022	Z:	0.302	yaw:	2.725	yaw rate:	-63.205	Roll:	0.697	Pitch:	0.325	Yaw:	-10.904	Thrust:	51.108
Time:	3.479	Roll Set Point:	-0.059	Pitch Set Point:	-0.043	Yaw Set Point:	-0.054	X_WP:	0.000	Y_WP:	0.000	Y_WP:	0.500	X:	0.029	Y:	0.022	Z:	0.308	yaw:	3.091	yaw rate:	36.569	Roll:	1.410	Pitch:	0.376	Yaw:	11.960	Thrust:	82.277
Time:	3.491	Roll Set Point:	-0.060	Pitch Set Point:	-0.042	Yaw Set Point:	-0.041	X_WP:	0.000	Y_WP:	0.000	Y_WP:	0.500	X:	0.029	Y:	0.022	Z:	0.319	yaw:	2.333	yaw rate:	-68.842	Roll:	0.944	Pitch:	0.045	Yaw:	-12.315	Thrust:	35.634
Time:	3.502	Roll Set Point:	-0.060	Pitch Set Point:	-0.041	Yaw Set Point:	-0.048	X_WP:	0.000	Y_WP:	0.000	Y_WP:	0.500	X:	0.029	Y:	0.021	Z:	0.324	yaw:	2.764	yaw rate:	43.075	Roll:	1.419	Pitch:	-0.334	Yaw:	14.759	Thrust:	50.208
Time:	3.513	Roll Set Point:	-0.060	Pitch Set Point:	-0.041	Yaw Set Point:	-0.039	X_WP:	0.000	Y_WP:	0.000	Y_WP:	0.500	X:	0.030	Y:	0.021	Z:	0.330	yaw:	2.207	yaw rate:	-55.634	Roll:	0.740	Pitch:	0.727	Yaw:	-9.035	Thrust:	50.230
Time:	3.524	Roll Set Point:	-0.060	Pitch Set Point:	-0.040	Yaw Set Point:	-0.034	X_WP:	0.000	Y_WP:	0.000	Y_WP:	0.500	X:	0.030	Y:	0.020	Z:	0.335	yaw:	1.959	yaw rate:	-24.830	Roll:	1.032	Pitch:	-0.021	Yaw:	-2.388	Thrust:	51.047
Time:	3.536	Roll Set Point:	-0.061	Pitch Set Point:	-0.039	Yaw Set Point:	-0.045	X_WP:	0.000	Y_WP:	0.000	Y_WP:	0.500	X:	0.030	Y:	0.020	Z:	0.341	yaw:	2.584	yaw rate:	62.547	Roll:	1.556	Pitch:	-0.369	Yaw:	18.400	Thrust:	57.873
Time:	3.553	Roll Set Point:	-0.061	Pitch Set Point:	-0.038	Yaw Set Point:	-0.036	X_WP:	0.000	Y_WP:	0.000	Y_WP:	0.500	X:	0.030	Y:	0.019	Z:	0.351	yaw:	2.075	yaw rate:	-50.933	Roll:	1.233	Pitch:	0.366	Yaw:	-3.491	Thrust:	72.979
Time:	3.563	Roll Set Point:	-0.061	Pitch Set Point:	-0.037	Yaw Set Point:	-0.030	X_WP:	0.000	Y_WP:	0.000	Y_WP:	0.500	X:	0.030	Y:	0.019	Z:	0.356	yaw:	1.737	yaw rate:	-33.834	Roll:	1.051	Pitch:	-0.114	Yaw:	-4.476	Thrust:	56.643
Time:	3.574	Roll Set Point:	-0.061	Pitch Set Point:	-0.036	Yaw Set Point:	-0.033	X_WP:	0.000	Y_WP:	0.000	Y_WP:	0.500	X:	0.030	Y:	0.018	Z:	0.361	yaw:	1.895	yaw rate:	15.865	Roll:	1.091	Pitch:	-0.080	Yaw:	7.642	Thrust:	47.982
Time:	3.585	Roll Set Point:	-0.062	Pitch Set Point:	-0.035	Yaw Set Point:	-0.030	X_WP:	0.000	Y_WP:	0.000	Y_WP:	0.500	X:	0.031	Y:	0.018	Z:	0.365	yaw:	1.697	yaw rate:	-19.866	Roll:	1.368	Pitch:	0.166	Yaw:	-1.244	Thrust:	52.480
Time:	3.595	Roll Set Point:	-0.062	Pitch Set Point:	-0.035	Yaw Set Point:	-0.024	X_WP:	0.000	Y_WP:	0.000	Y_WP:	0.500	X:	0.031	Y:	0.018	Z:	0.370	yaw:	1.366	yaw rate:	-33.032	Roll:	0.906	Pitch:	0.289	Yaw:	-5.689	Thrust:	45.876
Time:	3.611	Roll Set Point:	-0.062	Pitch Set Point:	-0.034	Yaw Set Point:	-0.022	X_WP:	0.000	Y_WP:	0.000	Y_WP:	0.500	X:	0.031	Y:	0.017	Z:	0.375	yaw:	1.254	yaw rate:	-11.223	Roll:	1.263	Pitch:	-0.005	Yaw:	1.418	Thrust:	75.111
Time:	3.624	Roll Set Point:	-0.063	Pitch Set Point:	-0.032	Yaw Set Point:	-0.024	X_WP:	0.000	Y_WP:	0.000	Y_WP:	0.500	X:	0.031	Y:	0.016	Z:	0.383	yaw:	1.368	yaw rate:	13.395	Roll:	1.282	Pitch:	-0.678	Yaw:	5.502	Thrust:	57.334
Time:	3.634	Roll Set Point:	-0.063	Pitch Set Point:	-0.031	Yaw Set Point:	-0.018	X_WP:	0.000	Y_WP:	0.000	Y_WP:	0.500	X:	0.031	Y:	0.016	Z:	0.388	yaw:	1.032	yaw rate:	-33.651	Roll:	1.144	Pitch:	0.408	Yaw:	-6.348	Thrust:	53.431
Time:	3.645	Roll Set Point:	-0.064	Pitch Set Point:	-0.030	Yaw Set Point:	-0.012	X_WP:	0.000	Y_WP:	0.000	Y_WP:	0.500	X:	0.032	Y:	0.015	Z:	0.396	yaw:	0.666	yaw rate:	-36.525	Roll:	1.420	Pitch:	-0.355	Yaw:	-6.207	Thrust:	42.400
Time:	3.656	Roll Set Point:	-0.064	Pitch Set Point:	-0.029	Yaw Set Point:	-0.012	X_WP:	0.000	Y_WP:	0.000	Y_WP:	0.500	X:	0.032	Y:	0.015	Z:	0.400	yaw:	0.696	yaw rate:	2.935	Roll:	1.211	Pitch:	-0.361	Yaw:	2.765	Thrust:	53.394
Time:	3.667	Roll Set Point:	-0.065	Pitch Set Point:	-0.028	Yaw Set Point:	-0.014	X_WP:	0.000	Y_WP:	0.000	Y_WP:	0.500	X:	0.032	Y:	0.014	Z:	0.404	yaw:	0.790	yaw rate:	9.392	Roll:	1.617	Pitch:	-0.231	Yaw:	4.435	Thrust:	55.477
Time:	3.680	Roll Set Point:	-0.065	Pitch Set Point:	-0.028	Yaw Set Point:	-0.001	X_WP:	0.000	Y_WP:	0.000	Y_WP:	0.500	X:	0.032	Y:	0.014	Z:	0.407	yaw:	0.048	yaw rate:	-74.143	Roll:	0.949	Pitch:	0.489	Yaw:	-14.144	Thrust:	63.070
Time:	3.690	Roll Set Point:	-0.065	Pitch Set Point:	-0.027	Yaw Set Point:	-0.002	X_WP:	0.000	Y_WP:	0.000	Y_WP:	0.500	X:	0.032	Y:	0.013	Z:	0.411	yaw:	0.094	yaw rate:	4.600	Roll:	1.110	Pitch:	-0.342	Yaw:	2.328	Thrust:	55.834
Time:	3.702	Roll Set Point:	-0.065	Pitch Set Point:	-0.025	Yaw Set Point:	-0.008	X_WP:	0.000	Y_WP:	0.000	Y_WP:	0.500	X:	0.033	Y:	0.013	Z:	0.415	yaw:	0.473	yaw rate:	37.864	Roll:	1.486	Pitch:	-0.579	Yaw:	10.393	Thrust:	59.600
Time:	3.713	Roll Set Point:	-0.065	Pitch Set Point:	-0.025	Yaw Set Point:	-0.002	X_WP:	0.000	Y_WP:	0.000	Y_WP:	0.500	X:	0.033	Y:	0.012	Z:	0.418	yaw:	0.125	yaw rate:	-34.781	Roll:	1.095	Pitch:	-0.017	Yaw:	-6.978	Thrust:	57.335
Time:	3.724	Roll Set Point:	-0.066	Pitch Set Point:	-0.024	Yaw Set Point:	-0.006	X_WP:	0.000	Y_WP:	0.000	Y_WP:	0.500	X:	0.033	Y:	0.012	Z:	0.421	yaw:	0.354	yaw rate:	22.859	Roll:	1.767	Pitch:	-0.296	Yaw:	7.097	Thrust:	55.469
Time:	3.736	Roll Set Point:	-0.066	Pitch Set Point:	-0.023	Yaw Set Point:	0.003	X_WP:	0.000	Y_WP:	0.000	Y_WP:	0.500	X:	0.033	Y:	0.011	Z:	0.425	yaw:	-0.156	yaw rate:	-50.957	Roll:	0.901	Pitch:	0.016	Yaw:	-10.092	Thrust:	64.336
Time:	3.754	Roll Set Point:	-0.067	Pitch Set Point:	-0.021	Yaw Set Point:	0.001	X_WP:	0.000	Y_WP:	0.000	Y_WP:	0.500	X:	0.034	Y:	0.011	Z:	0.431	yaw:	-0.070	yaw rate:	8.583	Roll:	1.678	Pitch:	-0.383	Yaw:	2.964	Thrust:	90.317
Time:	3.766	Roll Set Point:	-0.067	Pitch Set Point:	-0.020	Yaw Set Point:	0.008	X_WP:	0.000	Y_WP:	0.000	Y_WP:	0.500	X:	0.034	Y:	0.010	Z:	0.434	yaw:	-0.457	yaw rate:	-38.735	Roll:	1.111	Pitch:	-0.015	Yaw:	-8.733	Thrust:	66.807
Time:	3.777	Roll Set Point:	-0.068	Pitch Set Point:	-0.019	Yaw Set Point:	0.015	X_WP:	0.000	Y_WP:	0.000	Y_WP:	0.500	X:	0.034	Y:	0.009	Z:	0.440	yaw:	-0.844	yaw rate:	-10.612	Roll:	1.486	Pitch:	-0.883	Yaw:	-8.816	Thrust:	49.720
Time:	3.787	Roll Set Point:	-0.068	Pitch Set Point:	-0.017	Yaw Set Point:	0.015	X_WP:	0.000	Y_WP:	0.000	Y_WP:	0.500	X:	0.034	Y:	0.008	Z:	0.443	yaw:	-0.836	yaw rate:	0.878	Roll:	1.320	Pitch:	-0.455	Yaw:	0.111	Thrust:	55.034
Time:	3.797	Roll Set Point:	-0.068	Pitch Set Point:	-0.017	Yaw Set Point:	0.015	X_WP:	0.000	Y_WP:	0.000	Y_WP:	0.500	X:	0.034	Y:	0.008	Z:	0.443	yaw:	-0.836	yaw rate:	0.878	Roll:	1.088	Pitch:	0.345	Yaw:	-0.172	Thrust:	63.850
Time:	3.812	Roll Set Point:	-0.069	Pitch Set Point:	-0.016	Yaw Set Point:	0.015	X_WP:	0.000	Y_WP:	0.000	Y_WP:	0.500	X:	0.035	Y:	0.008	Z:	0.449	yaw:	-0.859	yaw rate:	12.403	Roll:	1.646	Pitch:	-0.731	Yaw:	-0.185	Thrust:	71.761
Time:	3.824	Roll Set Point:	-0.069	Pitch Set Point:	-0.014	Yaw Set Point:	0.013	X_WP:	0.000	Y_WP:	0.000	Y_WP:	0.500	X:	0.035	Y:	0.007	Z:	0.453	yaw:	-0.725	yaw rate:	13.439	Roll:	1.328	Pitch:	-0.603	Yaw:	3.102	Thrust:	63.073
Time:	3.835	Roll Set Point:	-0.069	Pitch Set Point:	-0.014	Yaw Set Point:	0.016	X_WP:	0.000	Y_WP:	0.000	Y_WP:	0.500	X:	0.035	Y:	0.007	Z:	0.456	yaw:	-0.898	yaw rate:	-17.312	Roll:	1.310	Pitch:	-0.249	Yaw:	-4.279	Thrust:	56.462
Time:	3.847	Roll Set Point:	-0.070	Pitch Set Point:	-0.012	Yaw Set Point:	0.011	X_WP:	0.000	Y_WP:	0.000	Y_WP:	0.500	X:	0.035	Y:	0.006	Z:	0.459	yaw:	-0.623	yaw rate:	27.447	Roll:	1.577	Pitch:	-0.874	Yaw:	6.490	Thrust:	56.236
Time:	3.857	Roll Set Point:	-0.070	Pitch Set Point:	-0.011	Yaw Set Point:	0.012	X_WP:	0.000	Y_WP:	0.000	Y_WP:	0.500	X:	0.035	Y:	0.005	Z:	0.462	yaw:	-0.679	yaw rate:	-5.586	Roll:	1.376	Pitch:	-0.594	Yaw:	-1.419	Thrust:	51.949
Time:	3.870	Roll Set Point:	-0.070	Pitch Set Point:	-0.010	Yaw Set Point:	0.021	X_WP:	0.000	Y_WP:	0.000	Y_WP:	0.500	X:	0.035	Y:	0.005	Z:	0.466	yaw:	-1.182	yaw rate:	-50.305	Roll:	1.200	Pitch:	-0.141	Yaw:	-11.413	Thrust:	62.688
Time:	3.880	Roll Set Point:	-0.071	Pitch Set Point:	-0.009	Yaw Set Point:	0.020	X_WP:	0.000	Y_WP:	0.000	Y_WP:	0.500	X:	0.035	Y:	0.004	Z:	0.469	yaw:	-1.120	yaw rate:	6.272	Roll:	1.437	Pitch:	-0.632	Yaw:	0.981	Thrust:	58.486
Time:	3.891	Roll Set Point:	-0.072	Pitch Set Point:	-0.007	Yaw Set Point:	0.020	X_WP:	0.000	Y_WP:	0.000	Y_WP:	0.500	X:	0.036	Y:	0.003	Z:	0.477	yaw:	-1.136	yaw rate:	-1.606	Roll:	2.092	Pitch:	-1.326	Yaw:	-0.966	Thrust:	34.304
Time:	3.902	Roll Set Point:	-0.072	Pitch Set Point:	-0.006	Yaw Set Point:	0.008	X_WP:	0.000	Y_WP:	0.000	Y_WP:	0.500	X:	0.036	Y:	0.003	Z:	0.480	yaw:	-0.471	yaw rate:	66.449	Roll:	1.343	Pitch:	-1.319	Yaw:	15.514	Thrust:	56.850
Time:	3.913	Roll Set Point:	-0.073	Pitch Set Point:	-0.005	Yaw Set Point:	0.020	X_WP:	0.000	Y_WP:	0.000	Y_WP:	0.500	X:	0.036	Y:	0.002	Z:	0.484	yaw:	-1.156	yaw rate:	-68.441	Roll:	1.717	Pitch:	0.124	Yaw:	-16.795	Thrust:	52.810
Time:	3.924	Roll Set Point:	-0.073	Pitch Set Point:	-0.004	Yaw Set Point:	0.023	X_WP:	0.000	Y_WP:	0.000	Y_WP:	0.500	X:	0.037	Y:	0.002	Z:	0.488	yaw:	-1.296	yaw rate:	-14.009	Roll:	1.368	Pitch:	-0.651	Yaw:	-4.072	Thrust:	52.375
Time:	3.934	Roll Set Point:	-0.074	Pitch Set Point:	-0.003	Yaw Set Point:	0.019	X_WP:	0.000	Y_WP:	0.000	Y_WP:	0.500	X:	0.037	Y:	0.001	Z:	0.492	yaw:	-1.098	yaw rate:	19.782	Roll:	1.532	Pitch:	-1.132	Yaw:	4.588	Thrust:	43.723
Time:	3.948	Roll Set Point:	-0.074	Pitch Set Point:	-0.001	Yaw Set Point:	0.015	X_WP:	0.000	Y_WP:	0.000	Y_WP:	0.500	X:	0.037	Y:	0.000	Z:	0.496	yaw:	-0.870	yaw rate:	22.729	Roll:	1.388	Pitch:	-0.743	Yaw:	4.344	Thrust:	70.763
Time:	3.960	Roll Set Point:	-0.074	Pitch Set Point:	-0.000	Yaw Set Point:	0.019	X_WP:	0.000	Y_WP:	0.000	Y_WP:	0.500	X:	0.037	Y:	-0.000	Z:	0.500	yaw:	-1.092	yaw rate:	-22.107	Roll:	1.305	Pitch:	-0.642	Yaw:	-5.725	Thrust:	55.175
Time:	3.971	Roll Set Point:	-0.075	Pitch Set Point:	0.002	Yaw Set Point:	0.027	X_WP:	0.000	Y_WP:	0.000	Y_WP:	0.500	X:	0.037	Y:	-0.002	Z:	0.507	yaw:	-1.549	yaw rate:	-24.307	Roll:	1.980	Pitch:	-1.283	Yaw:	-11.450	Thrust:	40.323
Time:	3.982	Roll Set Point:	-0.076	Pitch Set Point:	0.003	Yaw Set Point:	0.022	X_WP:	0.000	Y_WP:	0.000	Y_WP:	0.500	X:	0.038	Y:	-0.002	Z:	0.511	yaw:	-1.252	yaw rate:	29.677	Roll:	1.827	Pitch:	-0.845	Yaw:	6.330	Thrust:	51.677
Time:	3.993	Roll Set Point:	-0.076	Pitch Set Point:	0.004	Yaw Set Point:	0.029	X_WP:	0.000	Y_WP:	0.000	Y_WP:	0.500	X:	0.038	Y:	-0.002	Z:	0.515	yaw:	-1.634	yaw rate:	-38.199	Roll:	1.291	Pitch:	-0.384	Yaw:	-10.203	Thrust:	53.171
Time:	4.004	Roll Set Point:	-0.076	Pitch Set Point:	0.005	Yaw Set Point:	0.033	X_WP:	0.000	Y_WP:	0.000	Y_WP:	0.500	X:	0.038	Y:	-0.003	Z:	0.518	yaw:	-1.896	yaw rate:	-26.245	Roll:	1.767	Pitch:	-0.647	Yaw:	-7.847	Thrust:	47.816
Time:	4.020	Roll Set Point:	-0.077	Pitch Set Point:	0.007	Yaw Set Point:	0.032	X_WP:	0.000	Y_WP:	0.000	Y_WP:	0.500	X:	0.039	Y:	-0.004	Z:	0.525	yaw:	-1.836	yaw rate:	5.986	Roll:	1.787	Pitch:	-1.157	Yaw:	-0.125	Thrust:	76.891
Time:	4.031	Roll Set Point:	-0.078	Pitch Set Point:	0.008	Yaw Set Point:	0.033	X_WP:	0.000	Y_WP:	0.000	Y_WP:	0.500	X:	0.039	Y:	-0.005	Z:	0.528	yaw:	-1.912	yaw rate:	-7.594	Roll:	1.600	Pitch:	-0.808	Yaw:	-3.461	Thrust:	52.586
Time:	4.042	Roll Set Point:	-0.078	Pitch Set Point:	0.010	Yaw Set Point:	0.024	X_WP:	0.000	Y_WP:	0.000	Y_WP:	0.500	X:	0.039	Y:	-0.005	Z:	0.532	yaw:	-1.348	yaw rate:	56.400	Roll:	1.841	Pitch:	-1.360	Yaw:	11.967	Thrust:	56.198
Time:	4.053	Roll Set Point:	-0.079	Pitch Set Point:	0.010	Yaw Set Point:	0.036	X_WP:	0.000	Y_WP:	0.000	Y_WP:	0.500	X:	0.039	Y:	-0.006	Z:	0.535	yaw:	-2.049	yaw rate:	-70.111	Roll:	1.555	Pitch:	-0.171	Yaw:	-18.506	Thrust:	53.175
Time:	4.064	Roll Set Point:	-0.079	Pitch Set Point:	0.011	Yaw Set Point:	0.036	X_WP:	0.000	Y_WP:	0.000	Y_WP:	0.500	X:	0.040	Y:	-0.006	Z:	0.537	yaw:	-2.084	yaw rate:	-3.499	Roll:	1.726	Pitch:	-0.784	Yaw:	-2.752	Thrust:	53.164
Time:	4.080	Roll Set Point:	-0.080	Pitch Set Point:	0.013	Yaw Set Point:	0.028	X_WP:	0.000	Y_WP:	0.000	Y_WP:	0.500	X:	0.040	Y:	-0.007	Z:	0.540	yaw:	-1.587	yaw rate:	49.719	Roll:	1.634	Pitch:	-0.938	Yaw:	7.539	Thrust:	83.558
Time:	4.091	Roll Set Point:	-0.080	Pitch Set Point:	0.014	Yaw Set Point:	0.037	X_WP:	0.000	Y_WP:	0.000	Y_WP:	0.500	X:	0.040	Y:	-0.008	Z:	0.546	yaw:	-2.109	yaw rate:	-30.818	Roll:	1.771	Pitch:	-1.170	Yaw:	-14.985	Thrust:	37.252
Time:	4.104	Roll Set Point:	-0.081	Pitch Set Point:	0.016	Yaw Set Point:	0.032	X_WP:	0.000	Y_WP:	0.000	Y_WP:	0.500	X:	0.040	Y:	-0.009	Z:	0.549	yaw:	-1.830	yaw rate:	27.894	Roll:	1.543	Pitch:	-1.278	Yaw:	4.368	Thrust:	64.020
Time:	4.115	Roll Set Point:	-0.081	Pitch Set Point:	0.017	Yaw Set Point:	0.026	X_WP:	0.000	Y_WP:	0.000	Y_WP:	0.500	X:	0.040	Y:	-0.009	Z:	0.551	yaw:	-1.485	yaw rate:	34.481	Roll:	1.632	Pitch:	-1.281	Yaw:	6.698	Thrust:	57.830
Time:	4.125	Roll Set Point:	-0.081	Pitch Set Point:	0.018	Yaw Set Point:	0.028	X_WP:	0.000	Y_WP:	0.000	Y_WP:	0.500	X:	0.041	Y:	-0.010	Z:	0.554	yaw:	-1.586	yaw rate:	-10.091	Roll:	1.536	Pitch:	-0.937	Yaw:	-3.810	Thrust:	50.283
Time:	4.139	Roll Set Point:	-0.082	Pitch Set Point:	0.019	Yaw Set Point:	0.035	X_WP:	0.000	Y_WP:	0.000	Y_WP:	0.500	X:	0.041	Y:	-0.010	Z:	0.556	yaw:	-2.020	yaw rate:	-43.372	Roll:	1.995	Pitch:	-0.287	Yaw:	-10.760	Thrust:	60.340
Time:	4.153	Roll Set Point:	-0.082	Pitch Set Point:	0.020	Yaw Set Point:	0.033	X_WP:	0.000	Y_WP:	0.000	Y_WP:	0.500	X:	0.041	Y:	-0.011	Z:	0.559	yaw:	-1.895	yaw rate:	12.479	Roll:	1.585	Pitch:	-0.815	Yaw:	0.780	Thrust:	84.047
Time:	4.164	Roll Set Point:	-0.083	Pitch Set Point:	0.021	Yaw Set Point:	0.037	X_WP:	0.000	Y_WP:	0.000	Y_WP:	0.500	X:	0.041	Y:	-0.011	Z:	0.561	yaw:	-2.093	yaw rate:	-19.757	Roll:	1.926	Pitch:	-0.632	Yaw:	-6.675	Thrust:	57.267
Time:	4.176	Roll Set Point:	-0.085	Pitch Set Point:	0.023	Yaw Set Point:	0.035	X_WP:	0.000	Y_WP:	0.000	Y_WP:	0.500	X:	0.042	Y:	-0.012	Z:	0.568	yaw:	-2.014	yaw rate:	-15.031	Roll:	2.452	Pitch:	-2.392	Yaw:	-0.068	Thrust:	38.631
Time:	4.187	Roll Set Point:	-0.085	Pitch Set Point:	0.024	Yaw Set Point:	0.035	X_WP:	0.000	Y_WP:	0.000	Y_WP:	0.500	X:	0.042	Y:	-0.013	Z:	0.570	yaw:	-2.010	yaw rate:	0.447	Roll:	1.656	Pitch:	-0.845	Yaw:	-1.782	Thrust:	53.253
Time:	4.197	Roll Set Point:	-0.085	Pitch Set Point:	0.025	Yaw Set Point:	0.036	X_WP:	0.000	Y_WP:	0.000	Y_WP:	0.500	X:	0.043	Y:	-0.013	Z:	0.573	yaw:	-2.066	yaw rate:	-5.573	Roll:	1.863	Pitch:	-0.886	Yaw:	-3.514	Thrust:	45.757
Time:	4.211	Roll Set Point:	-0.086	Pitch Set Point:	0.026	Yaw Set Point:	0.037	X_WP:	0.000	Y_WP:	0.000	Y_WP:	0.500	X:	0.043	Y:	-0.014	Z:	0.575	yaw:	-2.123	yaw rate:	-5.794	Roll:	1.800	Pitch:	-0.742	Yaw:	-2.895	Thrust:	72.835
Time:	4.223	Roll Set Point:	-0.086	Pitch Set Point:	0.027	Yaw Set Point:	0.042	X_WP:	0.000	Y_WP:	0.000	Y_WP:	0.500	X:	0.043	Y:	-0.014	Z:	0.577	yaw:	-2.428	yaw rate:	-30.427	Roll:	1.784	Pitch:	-0.540	Yaw:	-9.120	Thrust:	58.751
Time:	4.234	Roll Set Point:	-0.087	Pitch Set Point:	0.028	Yaw Set Point:	0.040	X_WP:	0.000	Y_WP:	0.000	Y_WP:	0.500	X:	0.043	Y:	-0.015	Z:	0.580	yaw:	-2.306	yaw rate:	12.151	Roll:	1.729	Pitch:	-1.137	Yaw:	0.547	Thrust:	52.172
Time:	4.246	Roll Set Point:	-0.088	Pitch Set Point:	0.029	Yaw Set Point:	0.032	X_WP:	0.000	Y_WP:	0.000	Y_WP:	0.500	X:	0.044	Y:	-0.015	Z:	0.582	yaw:	-1.826	yaw rate:	48.057	Roll:	1.908	Pitch:	-1.397	Yaw:	9.272	Thrust:	52.127
Time:	4.256	Roll Set Point:	-0.088	Pitch Set Point:	0.029	Yaw Set Point:	0.035	X_WP:	0.000	Y_WP:	0.000	Y_WP:	0.500	X:	0.044	Y:	-0.015	Z:	0.584	yaw:	-2.031	yaw rate:	-20.564	Roll:	1.814	Pitch:	-0.589	Yaw:	-7.381	Thrust:	48.984
Time:	4.268	Roll Set Point:	-0.088	Pitch Set Point:	0.030	Yaw Set Point:	0.036	X_WP:	0.000	Y_WP:	0.000	Y_WP:	0.500	X:	0.044	Y:	-0.016	Z:	0.586	yaw:	-2.072	yaw rate:	-4.063	Roll:	1.788	Pitch:	-0.942	Yaw:	-2.838	Thrust:	58.579
Time:	4.280	Roll Set Point:	-0.089	Pitch Set Point:	0.031	Yaw Set Point:	0.038	X_WP:	0.000	Y_WP:	0.000	Y_WP:	0.500	X:	0.044	Y:	-0.016	Z:	0.588	yaw:	-2.158	yaw rate:	-8.620	Roll:	1.711	Pitch:	-0.725	Yaw:	-3.849	Thrust:	62.915
Time:	4.291	Roll Set Point:	-0.089	Pitch Set Point:	0.031	Yaw Set Point:	0.038	X_WP:	0.000	Y_WP:	0.000	Y_WP:	0.500	X:	0.044	Y:	-0.017	Z:	0.590	yaw:	-2.185	yaw rate:	-2.676	Roll:	1.676	Pitch:	-0.846	Yaw:	-2.822	Thrust:	53.107
Time:	4.303	Roll Set Point:	-0.089	Pitch Set Point:	0.033	Yaw Set Point:	0.026	X_WP:	0.000	Y_WP:	0.000	Y_WP:	0.500	X:	0.044	Y:	-0.017	Z:	0.592	yaw:	-1.511	yaw rate:	67.404	Roll:	1.359	Pitch:	-1.878	Yaw:	14.060	Thrust:	55.741
Time:	4.314	Roll Set Point:	-0.091	Pitch Set Point:	0.034	Yaw Set Point:	0.035	X_WP:	0.000	Y_WP:	0.000	Y_WP:	0.500	X:	0.045	Y:	-0.018	Z:	0.596	yaw:	-1.983	yaw rate:	-47.203	Roll:	2.698	Pitch:	-0.584	Yaw:	-12.621	Thrust:	47.045
Time:	4.326	Roll Set Point:	-0.092	Pitch Set Point:	0.035	Yaw Set Point:	0.031	X_WP:	0.000	Y_WP:	0.000	Y_WP:	0.500	X:	0.045	Y:	-0.018	Z:	0.600	yaw:	-1.804	yaw rate:	27.308	Roll:	2.223	Pitch:	-1.606	Yaw:	2.524	Thrust:	46.936
Time:	4.340	Roll Set Point:	-0.092	Pitch Set Point:	0.036	Yaw Set Point:	0.034	X_WP:	0.000	Y_WP:	0.000	Y_WP:	0.500	X:	0.046	Y:	-0.019	Z:	0.602	yaw:	-1.937	yaw rate:	-13.292	Roll:	1.685	Pitch:	-0.690	Yaw:	-4.263	Thrust:	65.001
Time:	4.356	Roll Set Point:	-0.092	Pitch Set Point:	0.036	Yaw Set Point:	0.039	X_WP:	0.000	Y_WP:	0.000	Y_WP:	0.500	X:	0.046	Y:	-0.019	Z:	0.603	yaw:	-2.216	yaw rate:	-27.924	Roll:	1.967	Pitch:	-0.428	Yaw:	-6.266	Thrust:	91.495
Time:	4.367	Roll Set Point:	-0.093	Pitch Set Point:	0.037	Yaw Set Point:	0.030	X_WP:	0.000	Y_WP:	0.000	Y_WP:	0.500	X:	0.046	Y:	-0.019	Z:	0.605	yaw:	-1.734	yaw rate:	48.218	Roll:	1.770	Pitch:	-1.331	Yaw:	9.822	Thrust:	51.058
Time:	4.378	Roll Set Point:	-0.093	Pitch Set Point:	0.038	Yaw Set Point:	0.029	X_WP:	0.000	Y_WP:	0.000	Y_WP:	0.500	X:	0.046	Y:	-0.020	Z:	0.606	yaw:	-1.634	yaw rate:	9.987	Roll:	1.517	Pitch:	-1.404	Yaw:	0.812	Thrust:	56.945
Time:	4.389	Roll Set Point:	-0.093	Pitch Set Point:	0.038	Yaw Set Point:	0.036	X_WP:	0.000	Y_WP:	0.000	Y_WP:	0.500	X:	0.046	Y:	-0.020	Z:	0.607	yaw:	-2.035	yaw rate:	-40.065	Roll:	1.928	Pitch:	-0.117	Yaw:	-12.019	Thrust:	49.999
Time:	4.401	Roll Set Point:	-0.094	Pitch Set Point:	0.039	Yaw Set Point:	0.029	X_WP:	0.000	Y_WP:	0.000	Y_WP:	0.500	X:	0.047	Y:	-0.020	Z:	0.608	yaw:	-1.675	yaw rate:	35.997	Roll:	2.058	Pitch:	-1.347	Yaw:	6.332	Thrust:	60.672
Time:	4.414	Roll Set Point:	-0.095	Pitch Set Point:	0.039	Yaw Set Point:	0.036	X_WP:	0.000	Y_WP:	0.000	Y_WP:	0.500	X:	0.047	Y:	-0.021	Z:	0.611	yaw:	-2.049	yaw rate:	-11.882	Roll:	2.051	Pitch:	-0.571	Yaw:	-9.807	Thrust:	58.009
Time:	4.426	Roll Set Point:	-0.095	Pitch Set Point:	0.040	Yaw Set Point:	0.034	X_WP:	0.000	Y_WP:	0.000	Y_WP:	0.500	X:	0.047	Y:	-0.021	Z:	0.612	yaw:	-1.959	yaw rate:	9.076	Roll:	1.908	Pitch:	-1.207	Yaw:	0.059	Thrust:	55.534
Time:	4.436	Roll Set Point:	-0.096	Pitch Set Point:	0.041	Yaw Set Point:	0.033	X_WP:	0.000	Y_WP:	0.000	Y_WP:	0.500	X:	0.048	Y:	-0.021	Z:	0.614	yaw:	-1.908	yaw rate:	5.093	Roll:	2.025	Pitch:	-1.170	Yaw:	-0.647	Thrust:	48.619
Time:	4.447	Roll Set Point:	-0.096	Pitch Set Point:	0.042	Yaw Set Point:	0.031	X_WP:	0.000	Y_WP:	0.000	Y_WP:	0.500	X:	0.048	Y:	-0.022	Z:	0.614	yaw:	-1.790	yaw rate:	11.713	Roll:	1.713	Pitch:	-1.104	Yaw:	0.941	Thrust:	58.584
Time:	4.459	Roll Set Point:	-0.097	Pitch Set Point:	0.042	Yaw Set Point:	0.025	X_WP:	0.000	Y_WP:	0.000	Y_WP:	0.500	X:	0.048	Y:	-0.022	Z:	0.615	yaw:	-1.415	yaw rate:	37.578	Roll:	1.945	Pitch:	-1.212	Yaw:	7.750	Thrust:	53.876
Time:	4.476	Roll Set Point:	-0.097	Pitch Set Point:	0.042	Yaw Set Point:	0.035	X_WP:	0.000	Y_WP:	0.000	Y_WP:	0.500	X:	0.048	Y:	-0.022	Z:	0.616	yaw:	-2.030	yaw rate:	-61.487	Roll:	2.034	Pitch:	-0.176	Yaw:	-11.419	Thrust:	80.968
Time:	4.489	Roll Set Point:	-0.097	Pitch Set Point:	0.043	Yaw Set Point:	0.036	X_WP:	0.000	Y_WP:	0.000	Y_WP:	0.500	X:	0.048	Y:	-0.022	Z:	0.616	yaw:	-2.044	yaw rate:	-1.463	Roll:	1.779	Pitch:	-0.601	Yaw:	-2.201	Thrust:	78.568
Time:	4.500	Roll Set Point:	-0.098	Pitch Set Point:	0.044	Yaw Set Point:	0.025	X_WP:	0.000	Y_WP:	0.000	Y_WP:	0.500	X:	0.049	Y:	-0.022	Z:	0.618	yaw:	-1.419	yaw rate:	46.388	Roll:	2.037	Pitch:	-1.610	Yaw:	12.961	Thrust:	54.262
Time:	4.511	Roll Set Point:	-0.098	Pitch Set Point:	0.044	Yaw Set Point:	0.034	X_WP:	0.000	Y_WP:	0.000	Y_WP:	0.500	X:	0.049	Y:	-0.023	Z:	0.618	yaw:	-1.962	yaw rate:	-54.269	Roll:	1.805	Pitch:	-0.287	Yaw:	-14.908	Thrust:	51.578
Time:	4.522	Roll Set Point:	-0.098	Pitch Set Point:	0.045	Yaw Set Point:	0.029	X_WP:	0.000	Y_WP:	0.000	Y_WP:	0.500	X:	0.048	Y:	-0.023	Z:	0.618	yaw:	-1.646	yaw rate:	31.625	Roll:	1.330	Pitch:	-1.631	Yaw:	6.355	Thrust:	55.295
Time:	4.532	Roll Set Point:	-0.098	Pitch Set Point:	0.045	Yaw Set Point:	0.029	X_WP:	0.000	Y_WP:	0.000	Y_WP:	0.500	X:	0.048	Y:	-0.023	Z:	0.618	yaw:	-1.646	yaw rate:	31.625	Roll:	1.592	Pitch:	-0.560	Yaw:	-1.661	Thrust:	50.441
Time:	4.547	Roll Set Point:	-0.099	Pitch Set Point:	0.046	Yaw Set Point:	0.028	X_WP:	0.000	Y_WP:	0.000	Y_WP:	0.500	X:	0.049	Y:	-0.024	Z:	0.619	yaw:	-1.624	yaw rate:	24.586	Roll:	2.313	Pitch:	-0.940	Yaw:	-0.927	Thrust:	78.449
Time:	4.559	Roll Set Point:	-0.099	Pitch Set Point:	0.046	Yaw Set Point:	0.025	X_WP:	0.000	Y_WP:	0.000	Y_WP:	0.500	X:	0.049	Y:	-0.023	Z:	0.620	yaw:	-1.429	yaw rate:	19.483	Roll:	1.984	Pitch:	-0.662	Yaw:	3.467	Thrust:	51.965
Time:	4.569	Roll Set Point:	-0.099	Pitch Set Point:	0.046	Yaw Set Point:	0.032	X_WP:	0.000	Y_WP:	0.000	Y_WP:	0.500	X:	0.049	Y:	-0.024	Z:	0.620	yaw:	-1.861	yaw rate:	-43.152	Roll:	1.792	Pitch:	-0.294	Yaw:	-12.159	Thrust:	54.336
Time:	4.581	Roll Set Point:	-0.099	Pitch Set Point:	0.046	Yaw Set Point:	0.034	X_WP:	0.000	Y_WP:	0.000	Y_WP:	0.500	X:	0.049	Y:	-0.024	Z:	0.620	yaw:	-1.967	yaw rate:	-10.593	Roll:	1.729	Pitch:	-0.426	Yaw:	-4.444	Thrust:	53.920
Time:	4.591	Roll Set Point:	-0.100	Pitch Set Point:	0.046	Yaw Set Point:	0.034	X_WP:	0.000	Y_WP:	0.000	Y_WP:	0.500	X:	0.049	Y:	-0.024	Z:	0.621	yaw:	-1.968	yaw rate:	-0.096	Roll:	1.816	Pitch:	-0.724	Yaw:	-2.128	Thrust:	54.732
Time:	4.603	Roll Set Point:	-0.100	Pitch Set Point:	0.046	Yaw Set Point:	0.035	X_WP:	0.000	Y_WP:	0.000	Y_WP:	0.500	X:	0.049	Y:	-0.024	Z:	0.621	yaw:	-2.000	yaw rate:	-3.232	Roll:	1.763	Pitch:	-0.694	Yaw:	-2.899	Thrust:	53.980
Time:	4.614	Roll Set Point:	-0.100	Pitch Set Point:	0.046	Yaw Set Point:	0.034	X_WP:	0.000	Y_WP:	0.000	Y_WP:	0.500	X:	0.050	Y:	-0.024	Z:	0.621	yaw:	-1.940	yaw rate:	6.037	Roll:	1.779	Pitch:	-0.714	Yaw:	-0.655	Thrust:	56.853
Time:	4.626	Roll Set Point:	-0.100	Pitch Set Point:	0.046	Yaw Set Point:	0.033	X_WP:	0.000	Y_WP:	0.000	Y_WP:	0.500	X:	0.050	Y:	-0.024	Z:	0.621	yaw:	-1.872	yaw rate:	6.771	Roll:	1.766	Pitch:	-0.766	Yaw:	-0.437	Thrust:	53.783
Time:	4.636	Roll Set Point:	-0.100	Pitch Set Point:	0.047	Yaw Set Point:	0.028	X_WP:	0.000	Y_WP:	0.000	Y_WP:	0.500	X:	0.050	Y:	-0.024	Z:	0.621	yaw:	-1.613	yaw rate:	25.900	Roll:	1.777	Pitch:	-1.107	Yaw:	5.090	Thrust:	53.935
Time:	4.647	Roll Set Point:	-0.101	Pitch Set Point:	0.047	Yaw Set Point:	0.025	X_WP:	0.000	Y_WP:	0.000	Y_WP:	0.500	X:	0.050	Y:	-0.024	Z:	0.622	yaw:	-1.413	yaw rate:	19.981	Roll:	1.840	Pitch:	-0.792	Yaw:	3.222	Thrust:	55.442
Time:	4.658	Roll Set Point:	-0.101	Pitch Set Point:	0.047	Yaw Set Point:	0.034	X_WP:	0.000	Y_WP:	0.000	Y_WP:	0.500	X:	0.050	Y:	-0.024	Z:	0.622	yaw:	-1.945	yaw rate:	-53.168	Roll:	1.863	Pitch:	-0.072	Yaw:	-14.906	Thrust:	52.675
Time:	4.669	Roll Set Point:	-0.101	Pitch Set Point:	0.047	Yaw Set Point:	0.034	X_WP:	0.000	Y_WP:	0.000	Y_WP:	0.500	X:	0.050	Y:	-0.024	Z:	0.622	yaw:	-1.974	yaw rate:	-2.922	Roll:	1.670	Pitch:	-0.766	Yaw:	-2.830	Thrust:	54.640
Time:	4.682	Roll Set Point:	-0.101	Pitch Set Point:	0.047	Yaw Set Point:	0.034	X_WP:	0.000	Y_WP:	0.000	Y_WP:	0.500	X:	0.050	Y:	-0.024	Z:	0.622	yaw:	-1.968	yaw rate:	0.581	Roll:	1.754	Pitch:	-0.779	Yaw:	-1.933	Thrust:	62.109
Time:	4.693	Roll Set Point:	-0.101	Pitch Set Point:	0.047	Yaw Set Point:	0.025	X_WP:	0.000	Y_WP:	0.000	Y_WP:	0.500	X:	0.050	Y:	-0.024	Z:	0.622	yaw:	-1.454	yaw rate:	51.394	Roll:	1.700	Pitch:	-1.024	Yaw:	10.238	Thrust:	56.425
Time:	4.704	Roll Set Point:	-0.101	Pitch Set Point:	0.047	Yaw Set Point:	0.030	X_WP:	0.000	Y_WP:	0.000	Y_WP:	0.500	X:	0.050	Y:	-0.024	Z:	0.622	yaw:	-1.707	yaw rate:	-23.578	Roll:	1.851	Pitch:	-0.076	Yaw:	-8.095	Thrust:	51.822
Time:	4.715	Roll Set Point:	-0.101	Pitch Set Point:	0.047	Yaw Set Point:	0.031	X_WP:	0.000	Y_WP:	0.000	Y_WP:	0.500	X:	0.050	Y:	-0.024	Z:	0.622	yaw:	-1.793	yaw rate:	-8.633	Roll:	1.886	Pitch:	-0.456	Yaw:	-3.846	Thrust:	56.381
Time:	4.726	Roll Set Point:	-0.101	Pitch Set Point:	0.047	Yaw Set Point:	0.034	X_WP:	0.000	Y_WP:	0.000	Y_WP:	0.500	X:	0.050	Y:	-0.024	Z:	0.621	yaw:	-1.962	yaw rate:	-16.877	Roll:	1.816	Pitch:	-0.405	Yaw:	-6.146	Thrust:	54.877
Time:	4.743	Roll Set Point:	-0.101	Pitch Set Point:	0.047	Yaw Set Point:	0.031	X_WP:	0.000	Y_WP:	0.000	Y_WP:	0.500	X:	0.050	Y:	-0.024	Z:	0.621	yaw:	-1.780	yaw rate:	18.169	Roll:	1.687	Pitch:	-0.813	Yaw:	1.379	Thrust:	74.630
Time:	4.757	Roll Set Point:	-0.102	Pitch Set Point:	0.047	Yaw Set Point:	0.031	X_WP:	0.000	Y_WP:	0.000	Y_WP:	0.500	X:	0.050	Y:	-0.024	Z:	0.620	yaw:	-1.753	yaw rate:	-9.483	Roll:	1.869	Pitch:	-0.718	Yaw:	-1.191	Thrust:	82.377
Time:	4.769	Roll Set Point:	-0.102	Pitch Set Point:	0.047	Yaw Set Point:	0.034	X_WP:	0.000	Y_WP:	0.000	Y_WP:	0.500	X:	0.050	Y:	-0.024	Z:	0.619	yaw:	-1.924	yaw rate:	-17.153	Roll:	1.907	Pitch:	-0.220	Yaw:	-5.805	Thrust:	60.753
Time:	4.781	Roll Set Point:	-0.102	Pitch Set Point:	0.047	Yaw Set Point:	0.024	X_WP:	0.000	Y_WP:	0.000	Y_WP:	0.500	X:	0.051	Y:	-0.024	Z:	0.619	yaw:	-1.375	yaw rate:	54.930	Roll:	1.606	Pitch:	-0.856	Yaw:	11.128	Thrust:	57.382
Time:	4.791	Roll Set Point:	-0.102	Pitch Set Point:	0.046	Yaw Set Point:	0.031	X_WP:	0.000	Y_WP:	0.000	Y_WP:	0.500	X:	0.051	Y:	-0.024	Z:	0.618	yaw:	-1.794	yaw rate:	-41.843	Roll:	1.739	Pitch:	-0.048	Yaw:	-12.244	Thrust:	53.675
Time:	4.804	Roll Set Point:	-0.102	Pitch Set Point:	0.046	Yaw Set Point:	0.032	X_WP:	0.000	Y_WP:	0.000	Y_WP:	0.500	X:	0.051	Y:	-0.024	Z:	0.617	yaw:	-1.824	yaw rate:	-3.036	Roll:	1.782	Pitch:	-0.599	Yaw:	-2.563	Thrust:	61.617
Time:	4.815	Roll Set Point:	-0.102	Pitch Set Point:	0.046	Yaw Set Point:	0.030	X_WP:	0.000	Y_WP:	0.000	Y_WP:	0.500	X:	0.050	Y:	-0.024	Z:	0.616	yaw:	-1.741	yaw rate:	8.312	Roll:	1.485	Pitch:	-0.570	Yaw:	0.018	Thrust:	61.952
Time:	4.829	Roll Set Point:	-0.102	Pitch Set Point:	0.046	Yaw Set Point:	0.032	X_WP:	0.000	Y_WP:	0.000	Y_WP:	0.500	X:	0.050	Y:	-0.024	Z:	0.615	yaw:	-1.819	yaw rate:	-7.853	Roll:	1.885	Pitch:	-0.490	Yaw:	-3.407	Thrust:	68.154
Time:	4.840	Roll Set Point:	-0.102	Pitch Set Point:	0.046	Yaw Set Point:	0.024	X_WP:	0.000	Y_WP:	0.000	Y_WP:	0.500	X:	0.051	Y:	-0.024	Z:	0.614	yaw:	-1.357	yaw rate:	46.200	Roll:	1.687	Pitch:	-0.854	Yaw:	9.135	Thrust:	57.180
Time:	4.852	Roll Set Point:	-0.102	Pitch Set Point:	0.046	Yaw Set Point:	0.030	X_WP:	0.000	Y_WP:	0.000	Y_WP:	0.500	X:	0.051	Y:	-0.024	Z:	0.612	yaw:	-1.694	yaw rate:	-33.689	Roll:	1.898	Pitch:	-0.158	Yaw:	-9.472	Thrust:	63.106
Time:	4.864	Roll Set Point:	-0.102	Pitch Set Point:	0.046	Yaw Set Point:	0.031	X_WP:	0.000	Y_WP:	0.000	Y_WP:	0.500	X:	0.051	Y:	-0.024	Z:	0.611	yaw:	-1.785	yaw rate:	-9.061	Roll:	1.623	Pitch:	-0.196	Yaw:	-4.124	Thrust:	55.730
Time:	4.878	Roll Set Point:	-0.102	Pitch Set Point:	0.046	Yaw Set Point:	0.030	X_WP:	0.000	Y_WP:	0.000	Y_WP:	0.500	X:	0.051	Y:	-0.024	Z:	0.610	yaw:	-1.708	yaw rate:	7.630	Roll:	1.810	Pitch:	-0.707	Yaw:	-0.346	Thrust:	74.096
Time:	4.890	Roll Set Point:	-0.102	Pitch Set Point:	0.046	Yaw Set Point:	0.015	X_WP:	0.000	Y_WP:	0.000	Y_WP:	0.500	X:	0.051	Y:	-0.023	Z:	0.608	yaw:	-0.855	yaw rate:	40.892	Roll:	1.385	Pitch:	-1.447	Yaw:	17.870	Thrust:	66.857
Time:	4.901	Roll Set Point:	-0.102	Pitch Set Point:	0.046	Yaw Set Point:	0.018	X_WP:	0.000	Y_WP:	0.000	Y_WP:	0.500	X:	0.051	Y:	-0.023	Z:	0.607	yaw:	-1.030	yaw rate:	-17.542	Roll:	1.999	Pitch:	-0.137	Yaw:	-5.106	Thrust:	52.468
Time:	4.912	Roll Set Point:	-0.102	Pitch Set Point:	0.046	Yaw Set Point:	0.011	X_WP:	0.000	Y_WP:	0.000	Y_WP:	0.500	X:	0.051	Y:	-0.023	Z:	0.606	yaw:	-0.628	yaw rate:	40.225	Roll:	1.305	Pitch:	-1.147	Yaw:	9.160	Thrust:	58.566
Time:	4.922	Roll Set Point:	-0.102	Pitch Set Point:	0.046	Yaw Set Point:	0.015	X_WP:	0.000	Y_WP:	0.000	Y_WP:	0.500	X:	0.051	Y:	-0.023	Z:	0.605	yaw:	-0.857	yaw rate:	-22.886	Roll:	2.035	Pitch:	-0.053	Yaw:	-6.396	Thrust:	55.319
Time:	4.934	Roll Set Point:	-0.102	Pitch Set Point:	0.045	Yaw Set Point:	0.018	X_WP:	0.000	Y_WP:	0.000	Y_WP:	0.500	X:	0.051	Y:	-0.023	Z:	0.604	yaw:	-1.009	yaw rate:	-15.197	Roll:	1.909	Pitch:	-0.111	Yaw:	-4.187	Thrust:	59.996
Time:	4.947	Roll Set Point:	-0.102	Pitch Set Point:	0.045	Yaw Set Point:	0.018	X_WP:	0.000	Y_WP:	0.000	Y_WP:	0.500	X:	0.051	Y:	-0.023	Z:	0.603	yaw:	-1.021	yaw rate:	-1.200	Roll:	1.787	Pitch:	-0.456	Yaw:	-1.096	Thrust:	65.813
Time:	4.959	Roll Set Point:	-0.102	Pitch Set Point:	0.045	Yaw Set Point:	0.019	X_WP:	0.000	Y_WP:	0.000	Y_WP:	0.500	X:	0.051	Y:	-0.023	Z:	0.602	yaw:	-1.102	yaw rate:	-8.131	Roll:	1.822	Pitch:	-0.287	Yaw:	-2.855	Thrust:	54.083
Time:	4.969	Roll Set Point:	-0.102	Pitch Set Point:	0.044	Yaw Set Point:	0.024	X_WP:	0.000	Y_WP:	0.000	Y_WP:	0.500	X:	0.051	Y:	-0.023	Z:	0.601	yaw:	-1.381	yaw rate:	-27.890	Roll:	1.539	Pitch:	0.080	Yaw:	-8.781	Thrust:	54.915
Time:	4.980	Roll Set Point:	-0.102	Pitch Set Point:	0.044	Yaw Set Point:	0.026	X_WP:	0.000	Y_WP:	0.000	Y_WP:	0.500	X:	0.051	Y:	-0.023	Z:	0.598	yaw:	-1.505	yaw rate:	-12.389	Roll:	1.801	Pitch:	-0.407	Yaw:	-4.729	Thrust:	58.525
Time:	4.990	Roll Set Point:	-0.102	Pitch Set Point:	0.044	Yaw Set Point:	0.024	X_WP:	0.000	Y_WP:	0.000	Y_WP:	0.500	X:	0.051	Y:	-0.023	Z:	0.598	yaw:	-1.351	yaw rate:	15.409	Roll:	1.513	Pitch:	-0.626	Yaw:	2.311	Thrust:	53.959
Time:	5.003	Roll Set Point:	-0.102	Pitch Set Point:	0.044	Yaw Set Point:	0.026	X_WP:	0.000	Y_WP:	0.000	Y_WP:	0.500	X:	0.051	Y:	-0.023	Z:	0.596	yaw:	-1.506	yaw rate:	-15.500	Roll:	1.834	Pitch:	-0.277	Yaw:	-4.818	Thrust:	61.221
Time:	5.015	Roll Set Point:	-0.102	Pitch Set Point:	0.044	Yaw Set Point:	0.023	X_WP:	0.000	Y_WP:	0.000	Y_WP:	0.500	X:	0.051	Y:	-0.022	Z:	0.595	yaw:	-1.340	yaw rate:	16.615	Roll:	1.627	Pitch:	-0.554	Yaw:	2.375	Thrust:	59.856
Time:	5.027	Roll Set Point:	-0.102	Pitch Set Point:	0.043	Yaw Set Point:	0.022	X_WP:	0.000	Y_WP:	0.000	Y_WP:	0.500	X:	0.051	Y:	-0.022	Z:	0.593	yaw:	-1.245	yaw rate:	11.650	Roll:	1.928	Pitch:	-0.342	Yaw:	0.911	Thrust:	59.895
Time:	5.038	Roll Set Point:	-0.102	Pitch Set Point:	0.043	Yaw Set Point:	0.022	X_WP:	0.000	Y_WP:	0.000	Y_WP:	0.500	X:	0.051	Y:	-0.022	Z:	0.593	yaw:	-1.245	yaw rate:	11.650	Roll:	1.730	Pitch:	-0.558	Yaw:	-1.258	Thrust:	56.147
Time:	5.051	Roll Set Point:	-0.102	Pitch Set Point:	0.043	Yaw Set Point:	0.020	X_WP:	0.000	Y_WP:	0.000	Y_WP:	0.500	X:	0.051	Y:	-0.022	Z:	0.591	yaw:	-1.148	yaw rate:	0.280	Roll:	1.788	Pitch:	-0.431	Yaw:	0.865	Thrust:	66.202
Time:	5.063	Roll Set Point:	-0.102	Pitch Set Point:	0.043	Yaw Set Point:	0.013	X_WP:	0.000	Y_WP:	0.000	Y_WP:	0.500	X:	0.051	Y:	-0.022	Z:	0.590	yaw:	-0.731	yaw rate:	41.668	Roll:	1.733	Pitch:	-0.751	Yaw:	8.885	Thrust:	59.930
Time:	5.080	Roll Set Point:	-0.102	Pitch Set Point:	0.043	Yaw Set Point:	0.009	X_WP:	0.000	Y_WP:	0.000	Y_WP:	0.500	X:	0.051	Y:	-0.022	Z:	0.589	yaw:	-0.507	yaw rate:	22.411	Roll:	1.508	Pitch:	-0.600	Yaw:	3.316	Thrust:	84.937
Time:	5.094	Roll Set Point:	-0.102	Pitch Set Point:	0.042	Yaw Set Point:	0.018	X_WP:	0.000	Y_WP:	0.000	Y_WP:	0.500	X:	0.051	Y:	-0.021	Z:	0.587	yaw:	-1.005	yaw rate:	4.815	Roll:	2.074	Pitch:	0.131	Yaw:	-10.493	Thrust:	71.981
Time:	5.107	Roll Set Point:	-0.102	Pitch Set Point:	0.042	Yaw Set Point:	0.018	X_WP:	0.000	Y_WP:	0.000	Y_WP:	0.500	X:	0.051	Y:	-0.021	Z:	0.586	yaw:	-1.016	yaw rate:	-1.149	Roll:	1.764	Pitch:	-0.428	Yaw:	-1.178	Thrust:	62.297
Time:	5.120	Roll Set Point:	-0.102	Pitch Set Point:	0.042	Yaw Set Point:	0.019	X_WP:	0.000	Y_WP:	0.000	Y_WP:	0.500	X:	0.051	Y:	-0.021	Z:	0.585	yaw:	-1.087	yaw rate:	-7.030	Roll:	1.873	Pitch:	-0.301	Yaw:	-2.434	Thrust:	62.343
Time:	5.137	Roll Set Point:	-0.102	Pitch Set Point:	0.041	Yaw Set Point:	0.019	X_WP:	0.000	Y_WP:	0.000	Y_WP:	0.500	X:	0.051	Y:	-0.021	Z:	0.584	yaw:	-1.066	yaw rate:	2.042	Roll:	1.830	Pitch:	-0.392	Yaw:	-0.552	Thrust:	81.421
Time:	5.157	Roll Set Point:	-0.102	Pitch Set Point:	0.041	Yaw Set Point:	0.016	X_WP:	0.000	Y_WP:	0.000	Y_WP:	0.500	X:	0.051	Y:	-0.021	Z:	0.581	yaw:	-0.899	yaw rate:	-30.542	Roll:	1.915	Pitch:	-0.403	Yaw:	1.607	Thrust:	100.000
Time:	5.170	Roll Set Point:	-0.102	Pitch Set Point:	0.040	Yaw Set Point:	0.014	X_WP:	0.000	Y_WP:	0.000	Y_WP:	0.500	X:	0.051	Y:	-0.021	Z:	0.580	yaw:	-0.796	yaw rate:	37.407	Roll:	1.857	Pitch:	-0.242	Yaw:	1.432	Thrust:	65.325
Time:	5.183	Roll Set Point:	-0.103	Pitch Set Point:	0.040	Yaw Set Point:	0.010	X_WP:	0.000	Y_WP:	0.000	Y_WP:	0.500	X:	0.051	Y:	-0.020	Z:	0.579	yaw:	-0.583	yaw rate:	21.285	Roll:	1.984	Pitch:	-0.488	Yaw:	3.937	Thrust:	60.154
Time:	5.195	Roll Set Point:	-0.102	Pitch Set Point:	0.040	Yaw Set Point:	0.017	X_WP:	0.000	Y_WP:	0.000	Y_WP:	0.500	X:	0.051	Y:	-0.020	Z:	0.579	yaw:	-0.970	yaw rate:	-38.637	Roll:	1.742	Pitch:	0.003	Yaw:	-8.965	Thrust:	56.904
Time:	5.213	Roll Set Point:	-0.102	Pitch Set Point:	0.040	Yaw Set Point:	0.014	X_WP:	0.000	Y_WP:	0.000	Y_WP:	0.500	X:	0.051	Y:	-0.020	Z:	0.578	yaw:	-0.817	yaw rate:	15.280	Roll:	1.835	Pitch:	-0.441	Yaw:	1.727	Thrust:	86.037
Time:	5.226	Roll Set Point:	-0.103	Pitch Set Point:	0.039	Yaw Set Point:	0.016	X_WP:	0.000	Y_WP:	0.000	Y_WP:	0.500	X:	0.051	Y:	-0.020	Z:	0.578	yaw:	-0.930	yaw rate:	-46.958	Roll:	2.016	Pitch:	-0.098	Yaw:	-3.109	Thrust:	65.561
Time:	5.238	Roll Set Point:	-0.102	Pitch Set Point:	0.039	Yaw Set Point:	0.007	X_WP:	0.000	Y_WP:	0.000	Y_WP:	0.500	X:	0.051	Y:	-0.020	Z:	0.579	yaw:	-0.385	yaw rate:	54.559	Roll:	1.513	Pitch:	-1.029	Yaw:	11.300	Thrust:	54.591
Time:	5.251	Roll Set Point:	-0.103	Pitch Set Point:	0.039	Yaw Set Point:	0.006	X_WP:	0.000	Y_WP:	0.000	Y_WP:	0.500	X:	0.051	Y:	-0.020	Z:	0.579	yaw:	-0.335	yaw rate:	4.981	Roll:	1.963	Pitch:	-0.196	Yaw:	1.016	Thrust:	55.361
Time:	5.264	Roll Set Point:	-0.103	Pitch Set Point:	0.038	Yaw Set Point:	0.013	X_WP:	0.000	Y_WP:	0.000	Y_WP:	0.500	X:	0.051	Y:	-0.019	Z:	0.580	yaw:	-0.743	yaw rate:	-40.858	Roll:	2.113	Pitch:	0.284	Yaw:	-9.905	Thrust:	53.015
