Time:	2.143	Roll Set Point:	0.059	Pitch Set Point:	-0.192	Yaw Set Point:	0.511	X_WP:	0.000	Y_WP:	0.000	Y_WP:	0.500	X:	-0.005	Y:	0.104	Z:	0.045	yaw:	-29.253	yaw rate:	-1.199	Roll:	-1.587	Pitch:	2.563	Yaw:	-40.845	Thrust:	25.006
Time:	2.159	Roll Set Point:	0.059	Pitch Set Point:	-0.192	Yaw Set Point:	0.510	X_WP:	0.000	Y_WP:	0.000	Y_WP:	0.500	X:	-0.005	Y:	0.104	Z:	0.045	yaw:	-29.232	yaw rate:	2.142	Roll:	-1.534	Pitch:	2.552	Yaw:	-40.616	Thrust:	25.996
Time:	2.175	Roll Set Point:	0.059	Pitch Set Point:	-0.192	Yaw Set Point:	0.511	X_WP:	0.000	Y_WP:	0.000	Y_WP:	0.500	X:	-0.005	Y:	0.104	Z:	0.045	yaw:	-29.269	yaw rate:	0.003	Roll:	-1.683	Pitch:	2.566	Yaw:	-41.803	Thrust:	26.591
Time:	2.191	Roll Set Point:	0.059	Pitch Set Point:	-0.192	Yaw Set Point:	0.511	X_WP:	0.000	Y_WP:	0.000	Y_WP:	0.500	X:	-0.005	Y:	0.104	Z:	0.045	yaw:	-29.262	yaw rate:	0.655	Roll:	-1.533	Pitch:	2.555	Yaw:	-41.248	Thrust:	27.621
Time:	2.218	Roll Set Point:	0.059	Pitch Set Point:	-0.192	Yaw Set Point:	0.511	X_WP:	0.000	Y_WP:	0.000	Y_WP:	0.500	X:	-0.005	Y:	0.104	Z:	0.045	yaw:	-29.257	yaw rate:	-0.464	Roll:	-1.588	Pitch:	2.596	Yaw:	-41.937	Thrust:	31.194
Time:	2.234	Roll Set Point:	0.059	Pitch Set Point:	-0.192	Yaw Set Point:	0.511	X_WP:	0.000	Y_WP:	0.000	Y_WP:	0.500	X:	-0.005	Y:	0.104	Z:	0.045	yaw:	-29.250	yaw rate:	0.757	Roll:	-1.617	Pitch:	2.597	Yaw:	-41.511	Thrust:	29.146
Time:	2.250	Roll Set Point:	0.059	Pitch Set Point:	-0.192	Yaw Set Point:	0.511	X_WP:	0.000	Y_WP:	0.000	Y_WP:	0.500	X:	-0.005	Y:	0.104	Z:	0.045	yaw:	-29.264	yaw rate:	-1.436	Roll:	-1.644	Pitch:	2.567	Yaw:	-42.058	Thrust:	29.978
Time:	2.265	Roll Set Point:	0.059	Pitch Set Point:	-0.192	Yaw Set Point:	0.511	X_WP:	0.000	Y_WP:	0.000	Y_WP:	0.500	X:	-0.005	Y:	0.104	Z:	0.045	yaw:	-29.267	yaw rate:	-0.285	Roll:	-1.598	Pitch:	2.567	Yaw:	-42.029	Thrust:	31.190
Time:	2.281	Roll Set Point:	0.059	Pitch Set Point:	-0.192	Yaw Set Point:	0.510	X_WP:	0.000	Y_WP:	0.000	Y_WP:	0.500	X:	-0.005	Y:	0.104	Z:	0.045	yaw:	-29.232	yaw rate:	3.445	Roll:	-1.554	Pitch:	2.638	Yaw:	-41.516	Thrust:	31.909
Time:	2.297	Roll Set Point:	0.059	Pitch Set Point:	-0.192	Yaw Set Point:	0.510	X_WP:	0.000	Y_WP:	0.000	Y_WP:	0.500	X:	-0.005	Y:	0.104	Z:	0.045	yaw:	-29.229	yaw rate:	0.362	Roll:	-1.574	Pitch:	2.624	Yaw:	-42.187	Thrust:	32.524
Time:	2.312	Roll Set Point:	0.059	Pitch Set Point:	-0.192	Yaw Set Point:	0.510	X_WP:	0.000	Y_WP:	0.000	Y_WP:	0.500	X:	-0.005	Y:	0.104	Z:	0.045	yaw:	-29.237	yaw rate:	-0.813	Roll:	-1.640	Pitch:	2.573	Yaw:	-42.554	Thrust:	33.592
Time:	2.328	Roll Set Point:	0.059	Pitch Set Point:	-0.192	Yaw Set Point:	0.511	X_WP:	0.000	Y_WP:	0.000	Y_WP:	0.500	X:	-0.005	Y:	0.104	Z:	0.045	yaw:	-29.254	yaw rate:	-1.669	Roll:	-1.682	Pitch:	2.572	Yaw:	-42.881	Thrust:	34.426
Time:	2.343	Roll Set Point:	0.059	Pitch Set Point:	-0.192	Yaw Set Point:	0.510	X_WP:	0.000	Y_WP:	0.000	Y_WP:	0.500	X:	-0.005	Y:	0.104	Z:	0.045	yaw:	-29.249	yaw rate:	0.423	Roll:	-1.564	Pitch:	2.601	Yaw:	-42.683	Thrust:	35.383
Time:	2.359	Roll Set Point:	0.059	Pitch Set Point:	-0.192	Yaw Set Point:	0.510	X_WP:	0.000	Y_WP:	0.000	Y_WP:	0.500	X:	-0.005	Y:	0.104	Z:	0.045	yaw:	-29.243	yaw rate:	0.642	Roll:	-1.612	Pitch:	2.619	Yaw:	-42.798	Thrust:	35.807
Time:	2.375	Roll Set Point:	0.059	Pitch Set Point:	-0.192	Yaw Set Point:	0.511	X_WP:	0.000	Y_WP:	0.000	Y_WP:	0.500	X:	-0.005	Y:	0.104	Z:	0.045	yaw:	-29.252	yaw rate:	-0.858	Roll:	-1.629	Pitch:	2.591	Yaw:	-43.220	Thrust:	36.934
Time:	2.390	Roll Set Point:	0.059	Pitch Set Point:	-0.192	Yaw Set Point:	0.511	X_WP:	0.000	Y_WP:	0.000	Y_WP:	0.500	X:	-0.005	Y:	0.104	Z:	0.045	yaw:	-29.259	yaw rate:	-0.772	Roll:	-1.643	Pitch:	2.638	Yaw:	-43.377	Thrust:	37.826
Time:	2.406	Roll Set Point:	0.059	Pitch Set Point:	-0.192	Yaw Set Point:	0.510	X_WP:	0.000	Y_WP:	0.000	Y_WP:	0.500	X:	-0.005	Y:	0.104	Z:	0.045	yaw:	-29.248	yaw rate:	1.140	Roll:	-1.587	Pitch:	2.601	Yaw:	-43.199	Thrust:	38.675
Time:	2.422	Roll Set Point:	0.059	Pitch Set Point:	-0.192	Yaw Set Point:	0.511	X_WP:	0.000	Y_WP:	0.000	Y_WP:	0.500	X:	-0.005	Y:	0.104	Z:	0.045	yaw:	-29.266	yaw rate:	-1.794	Roll:	-1.631	Pitch:	2.623	Yaw:	-43.876	Thrust:	39.558
Time:	2.437	Roll Set Point:	0.059	Pitch Set Point:	-0.192	Yaw Set Point:	0.511	X_WP:	0.000	Y_WP:	0.000	Y_WP:	0.500	X:	-0.005	Y:	0.104	Z:	0.045	yaw:	-29.260	yaw rate:	0.558	Roll:	-1.652	Pitch:	2.643	Yaw:	-43.634	Thrust:	40.196
Time:	2.453	Roll Set Point:	0.059	Pitch Set Point:	-0.192	Yaw Set Point:	0.510	X_WP:	0.000	Y_WP:	0.000	Y_WP:	0.500	X:	-0.005	Y:	0.104	Z:	0.045	yaw:	-29.240	yaw rate:	1.995	Roll:	-1.607	Pitch:	2.653	Yaw:	-43.524	Thrust:	41.353
Time:	2.468	Roll Set Point:	0.059	Pitch Set Point:	-0.192	Yaw Set Point:	0.511	X_WP:	0.000	Y_WP:	0.000	Y_WP:	0.500	X:	-0.005	Y:	0.104	Z:	0.045	yaw:	-29.259	yaw rate:	-1.908	Roll:	-1.613	Pitch:	2.577	Yaw:	-44.299	Thrust:	42.054
Time:	2.484	Roll Set Point:	0.059	Pitch Set Point:	-0.192	Yaw Set Point:	0.511	X_WP:	0.000	Y_WP:	0.000	Y_WP:	0.500	X:	-0.005	Y:	0.104	Z:	0.045	yaw:	-29.277	yaw rate:	-1.787	Roll:	-1.653	Pitch:	2.643	Yaw:	-44.303	Thrust:	42.981
Time:	2.500	Roll Set Point:	0.059	Pitch Set Point:	-0.192	Yaw Set Point:	0.509	X_WP:	0.000	Y_WP:	0.000	Y_WP:	0.500	X:	-0.005	Y:	0.104	Z:	0.045	yaw:	-29.182	yaw rate:	9.495	Roll:	-1.580	Pitch:	2.758	Yaw:	-42.282	Thrust:	43.835
Time:	2.515	Roll Set Point:	0.059	Pitch Set Point:	-0.192	Yaw Set Point:	0.509	X_WP:	0.000	Y_WP:	0.000	Y_WP:	0.500	X:	-0.005	Y:	0.104	Z:	0.045	yaw:	-29.182	yaw rate:	9.495	Roll:	-1.635	Pitch:	2.645	Yaw:	-43.873	Thrust:	44.629
Time:	2.531	Roll Set Point:	0.059	Pitch Set Point:	-0.192	Yaw Set Point:	0.511	X_WP:	0.000	Y_WP:	0.000	Y_WP:	0.500	X:	-0.005	Y:	0.104	Z:	0.045	yaw:	-29.255	yaw rate:	-7.216	Roll:	-1.655	Pitch:	2.515	Yaw:	-45.181	Thrust:	45.385
Time:	2.547	Roll Set Point:	0.059	Pitch Set Point:	-0.192	Yaw Set Point:	0.510	X_WP:	0.000	Y_WP:	0.000	Y_WP:	0.500	X:	-0.005	Y:	0.104	Z:	0.045	yaw:	-29.238	yaw rate:	1.635	Roll:	-1.590	Pitch:	2.665	Yaw:	-43.674	Thrust:	46.246
Time:	2.562	Roll Set Point:	0.059	Pitch Set Point:	-0.192	Yaw Set Point:	0.510	X_WP:	0.000	Y_WP:	0.000	Y_WP:	0.500	X:	-0.005	Y:	0.104	Z:	0.045	yaw:	-29.238	yaw rate:	1.635	Roll:	-1.640	Pitch:	2.652	Yaw:	-43.949	Thrust:	47.175
Time:	2.578	Roll Set Point:	0.059	Pitch Set Point:	-0.192	Yaw Set Point:	0.511	X_WP:	0.000	Y_WP:	0.000	Y_WP:	0.500	X:	-0.005	Y:	0.104	Z:	0.045	yaw:	-29.255	yaw rate:	-1.675	Roll:	-1.758	Pitch:	2.691	Yaw:	-44.254	Thrust:	48.026
Time:	2.594	Roll Set Point:	0.059	Pitch Set Point:	-0.192	Yaw Set Point:	0.511	X_WP:	0.000	Y_WP:	0.000	Y_WP:	0.500	X:	-0.005	Y:	0.104	Z:	0.045	yaw:	-29.282	yaw rate:	-1.826	Roll:	-1.617	Pitch:	2.566	Yaw:	-44.470	Thrust:	48.756
Time:	2.609	Roll Set Point:	0.059	Pitch Set Point:	-0.192	Yaw Set Point:	0.510	X_WP:	0.000	Y_WP:	0.000	Y_WP:	0.500	X:	-0.005	Y:	0.104	Z:	0.045	yaw:	-29.228	yaw rate:	5.455	Roll:	-1.627	Pitch:	2.749	Yaw:	-43.021	Thrust:	50.038
Time:	2.625	Roll Set Point:	0.059	Pitch Set Point:	-0.192	Yaw Set Point:	0.511	X_WP:	0.000	Y_WP:	0.000	Y_WP:	0.500	X:	-0.005	Y:	0.104	Z:	0.045	yaw:	-29.266	yaw rate:	-3.799	Roll:	-1.710	Pitch:	2.673	Yaw:	-44.624	Thrust:	50.519
Time:	2.640	Roll Set Point:	0.059	Pitch Set Point:	-0.192	Yaw Set Point:	0.511	X_WP:	0.000	Y_WP:	0.000	Y_WP:	0.500	X:	-0.005	Y:	0.104	Z:	0.045	yaw:	-29.266	yaw rate:	-3.799	Roll:	-1.654	Pitch:	2.670	Yaw:	-43.988	Thrust:	51.443
Time:	2.656	Roll Set Point:	0.059	Pitch Set Point:	-0.192	Yaw Set Point:	0.510	X_WP:	0.000	Y_WP:	0.000	Y_WP:	0.500	X:	-0.005	Y:	0.104	Z:	0.045	yaw:	-29.244	yaw rate:	-2.273	Roll:	-1.562	Pitch:	2.650	Yaw:	-43.594	Thrust:	52.304
Time:	2.672	Roll Set Point:	0.059	Pitch Set Point:	-0.192	Yaw Set Point:	0.511	X_WP:	0.000	Y_WP:	0.000	Y_WP:	0.500	X:	-0.005	Y:	0.104	Z:	0.045	yaw:	-29.261	yaw rate:	-1.687	Roll:	-1.738	Pitch:	2.663	Yaw:	-44.263	Thrust:	53.003
Time:	2.687	Roll Set Point:	0.059	Pitch Set Point:	-0.192	Yaw Set Point:	0.510	X_WP:	0.000	Y_WP:	0.000	Y_WP:	0.500	X:	-0.005	Y:	0.104	Z:	0.045	yaw:	-29.240	yaw rate:	2.060	Roll:	-1.601	Pitch:	2.731	Yaw:	-43.608	Thrust:	54.106
Time:	2.703	Roll Set Point:	0.059	Pitch Set Point:	-0.192	Yaw Set Point:	0.510	X_WP:	0.000	Y_WP:	0.000	Y_WP:	0.500	X:	-0.005	Y:	0.104	Z:	0.045	yaw:	-29.240	yaw rate:	2.060	Roll:	-1.661	Pitch:	2.684	Yaw:	-43.953	Thrust:	54.854
Time:	2.719	Roll Set Point:	0.059	Pitch Set Point:	-0.192	Yaw Set Point:	0.511	X_WP:	0.000	Y_WP:	0.000	Y_WP:	0.500	X:	-0.005	Y:	0.104	Z:	0.045	yaw:	-29.264	yaw rate:	-3.046	Roll:	-1.708	Pitch:	2.653	Yaw:	-44.390	Thrust:	55.730
Time:	2.734	Roll Set Point:	0.059	Pitch Set Point:	-0.192	Yaw Set Point:	0.511	X_WP:	0.000	Y_WP:	0.000	Y_WP:	0.500	X:	-0.005	Y:	0.104	Z:	0.045	yaw:	-29.264	yaw rate:	-3.046	Roll:	-1.666	Pitch:	2.690	Yaw:	-43.987	Thrust:	56.562
Time:	2.750	Roll Set Point:	0.059	Pitch Set Point:	-0.192	Yaw Set Point:	0.511	X_WP:	0.000	Y_WP:	0.000	Y_WP:	0.500	X:	-0.005	Y:	0.104	Z:	0.045	yaw:	-29.254	yaw rate:	1.085	Roll:	-1.632	Pitch:	2.692	Yaw:	-43.789	Thrust:	57.306
Time:	2.765	Roll Set Point:	0.059	Pitch Set Point:	-0.192	Yaw Set Point:	0.510	X_WP:	0.000	Y_WP:	0.000	Y_WP:	0.500	X:	-0.005	Y:	0.104	Z:	0.045	yaw:	-29.228	yaw rate:	2.568	Roll:	-1.620	Pitch:	2.742	Yaw:	-43.505	Thrust:	58.440
Time:	2.781	Roll Set Point:	0.059	Pitch Set Point:	-0.192	Yaw Set Point:	0.511	X_WP:	0.000	Y_WP:	0.000	Y_WP:	0.500	X:	-0.005	Y:	0.104	Z:	0.045	yaw:	-29.255	yaw rate:	-2.694	Roll:	-1.720	Pitch:	2.676	Yaw:	-44.424	Thrust:	58.988
Time:	2.797	Roll Set Point:	0.059	Pitch Set Point:	-0.192	Yaw Set Point:	0.511	X_WP:	0.000	Y_WP:	0.000	Y_WP:	0.500	X:	-0.005	Y:	0.104	Z:	0.045	yaw:	-29.267	yaw rate:	-1.240	Roll:	-1.735	Pitch:	2.686	Yaw:	-44.326	Thrust:	61.415
Time:	2.812	Roll Set Point:	0.059	Pitch Set Point:	-0.192	Yaw Set Point:	0.511	X_WP:	0.000	Y_WP:	0.000	Y_WP:	0.500	X:	-0.005	Y:	0.104	Z:	0.045	yaw:	-29.291	yaw rate:	-2.354	Roll:	-1.680	Pitch:	2.666	Yaw:	-44.318	Thrust:	59.583
Time:	2.837	Roll Set Point:	0.059	Pitch Set Point:	-0.192	Yaw Set Point:	0.511	X_WP:	0.000	Y_WP:	0.000	Y_WP:	0.500	X:	-0.005	Y:	0.104	Z:	0.045	yaw:	-29.281	yaw rate:	-0.918	Roll:	-1.713	Pitch:	2.813	Yaw:	-45.718	Thrust:	82.884
Time:	2.853	Roll Set Point:	0.059	Pitch Set Point:	-0.192	Yaw Set Point:	0.511	X_WP:	0.000	Y_WP:	0.000	Y_WP:	0.500	X:	-0.005	Y:	0.104	Z:	0.045	yaw:	-29.281	yaw rate:	-0.918	Roll:	-1.681	Pitch:	2.714	Yaw:	-44.012	Thrust:	62.556
Time:	2.868	Roll Set Point:	0.059	Pitch Set Point:	-0.192	Yaw Set Point:	0.511	X_WP:	0.000	Y_WP:	0.000	Y_WP:	0.500	X:	-0.005	Y:	0.104	Z:	0.045	yaw:	-29.276	yaw rate:	-2.605	Roll:	-1.702	Pitch:	2.728	Yaw:	-43.925	Thrust:	63.411
Time:	2.884	Roll Set Point:	0.059	Pitch Set Point:	-0.192	Yaw Set Point:	0.511	X_WP:	0.000	Y_WP:	0.000	Y_WP:	0.500	X:	-0.005	Y:	0.104	Z:	0.045	yaw:	-29.276	yaw rate:	-2.605	Roll:	-1.686	Pitch:	2.721	Yaw:	-44.003	Thrust:	64.229
Time:	2.900	Roll Set Point:	0.059	Pitch Set Point:	-0.192	Yaw Set Point:	0.511	X_WP:	0.000	Y_WP:	0.000	Y_WP:	0.500	X:	-0.005	Y:	0.104	Z:	0.045	yaw:	-29.275	yaw rate:	-4.027	Roll:	-1.708	Pitch:	2.697	Yaw:	-43.989	Thrust:	65.224
Time:	2.915	Roll Set Point:	0.059	Pitch Set Point:	-0.192	Yaw Set Point:	0.511	X_WP:	0.000	Y_WP:	0.000	Y_WP:	0.500	X:	-0.005	Y:	0.104	Z:	0.045	yaw:	-29.275	yaw rate:	-4.027	Roll:	-1.690	Pitch:	2.727	Yaw:	-43.993	Thrust:	65.823
Time:	2.931	Roll Set Point:	0.059	Pitch Set Point:	-0.192	Yaw Set Point:	0.511	X_WP:	0.000	Y_WP:	0.000	Y_WP:	0.500	X:	-0.005	Y:	0.104	Z:	0.045	yaw:	-29.258	yaw rate:	1.688	Roll:	-1.661	Pitch:	2.767	Yaw:	-43.695	Thrust:	66.831
Time:	2.947	Roll Set Point:	0.059	Pitch Set Point:	-0.192	Yaw Set Point:	0.511	X_WP:	0.000	Y_WP:	0.000	Y_WP:	0.500	X:	-0.005	Y:	0.104	Z:	0.045	yaw:	-29.264	yaw rate:	-0.544	Roll:	-1.691	Pitch:	2.724	Yaw:	-44.082	Thrust:	67.659
Time:	2.962	Roll Set Point:	0.059	Pitch Set Point:	-0.192	Yaw Set Point:	0.510	X_WP:	0.000	Y_WP:	0.000	Y_WP:	0.500	X:	-0.005	Y:	0.104	Z:	0.045	yaw:	-29.231	yaw rate:	3.257	Roll:	-1.609	Pitch:	2.754	Yaw:	-43.386	Thrust:	68.434
Time:	2.978	Roll Set Point:	0.059	Pitch Set Point:	-0.192	Yaw Set Point:	0.509	X_WP:	0.000	Y_WP:	0.000	Y_WP:	0.500	X:	-0.005	Y:	0.104	Z:	0.045	yaw:	-29.144	yaw rate:	8.667	Roll:	-1.650	Pitch:	2.875	Yaw:	-42.367	Thrust:	69.543
Time:	2.993	Roll Set Point:	0.059	Pitch Set Point:	-0.192	Yaw Set Point:	0.511	X_WP:	0.000	Y_WP:	0.000	Y_WP:	0.500	X:	-0.005	Y:	0.104	Z:	0.045	yaw:	-29.279	yaw rate:	-13.428	Roll:	-1.882	Pitch:	2.599	Yaw:	-46.256	Thrust:	69.970
Time:	3.009	Roll Set Point:	0.059	Pitch Set Point:	-0.192	Yaw Set Point:	0.511	X_WP:	0.000	Y_WP:	0.000	Y_WP:	0.500	X:	-0.005	Y:	0.104	Z:	0.045	yaw:	-29.279	yaw rate:	-13.428	Roll:	-1.704	Pitch:	2.749	Yaw:	-44.012	Thrust:	71.144
Time:	3.025	Roll Set Point:	0.059	Pitch Set Point:	-0.192	Yaw Set Point:	0.511	X_WP:	0.000	Y_WP:	0.000	Y_WP:	0.500	X:	-0.005	Y:	0.104	Z:	0.045	yaw:	-29.258	yaw rate:	-0.833	Roll:	-1.589	Pitch:	2.766	Yaw:	-43.619	Thrust:	71.817
Time:	3.040	Roll Set Point:	0.059	Pitch Set Point:	-0.192	Yaw Set Point:	0.511	X_WP:	0.000	Y_WP:	0.000	Y_WP:	0.500	X:	-0.005	Y:	0.104	Z:	0.045	yaw:	-29.272	yaw rate:	-1.382	Roll:	-1.826	Pitch:	2.764	Yaw:	-44.227	Thrust:	72.755
Time:	3.055	Roll Set Point:	0.059	Pitch Set Point:	-0.192	Yaw Set Point:	0.511	X_WP:	0.000	Y_WP:	0.000	Y_WP:	0.500	X:	-0.005	Y:	0.104	Z:	0.045	yaw:	-29.274	yaw rate:	-0.238	Roll:	-1.645	Pitch:	2.746	Yaw:	-43.830	Thrust:	70.230
Time:	3.078	Roll Set Point:	0.059	Pitch Set Point:	-0.192	Yaw Set Point:	0.511	X_WP:	0.000	Y_WP:	0.000	Y_WP:	0.500	X:	-0.005	Y:	0.104	Z:	0.045	yaw:	-29.278	yaw rate:	-0.369	Roll:	-1.801	Pitch:	2.838	Yaw:	-45.471	Thrust:	97.137
Time:	3.093	Roll Set Point:	0.059	Pitch Set Point:	-0.192	Yaw Set Point:	0.510	X_WP:	0.000	Y_WP:	0.000	Y_WP:	0.500	X:	-0.005	Y:	0.104	Z:	0.045	yaw:	-29.248	yaw rate:	3.008	Roll:	-1.599	Pitch:	2.771	Yaw:	-43.459	Thrust:	75.050
Time:	3.109	Roll Set Point:	0.059	Pitch Set Point:	-0.192	Yaw Set Point:	0.510	X_WP:	0.000	Y_WP:	0.000	Y_WP:	0.500	X:	-0.005	Y:	0.104	Z:	0.045	yaw:	-29.248	yaw rate:	3.008	Roll:	-1.714	Pitch:	2.769	Yaw:	-43.962	Thrust:	76.160
Time:	3.124	Roll Set Point:	0.059	Pitch Set Point:	-0.192	Yaw Set Point:	0.511	X_WP:	0.000	Y_WP:	0.000	Y_WP:	0.500	X:	-0.005	Y:	0.104	Z:	0.045	yaw:	-29.258	yaw rate:	-8.688	Roll:	-1.790	Pitch:	2.796	Yaw:	-44.155	Thrust:	77.146
Time:	3.144	Roll Set Point:	0.059	Pitch Set Point:	-0.192	Yaw Set Point:	0.511	X_WP:	0.000	Y_WP:	0.000	Y_WP:	0.500	X:	-0.005	Y:	0.104	Z:	0.045	yaw:	-29.270	yaw rate:	-1.167	Roll:	-1.718	Pitch:	2.784	Yaw:	-44.910	Thrust:	90.702
Time:	3.159	Roll Set Point:	0.059	Pitch Set Point:	-0.192	Yaw Set Point:	0.510	X_WP:	0.000	Y_WP:	0.000	Y_WP:	0.500	X:	-0.005	Y:	0.104	Z:	0.045	yaw:	-29.230	yaw rate:	4.026	Roll:	-1.677	Pitch:	2.856	Yaw:	-43.256	Thrust:	78.698
Time:	3.175	Roll Set Point:	0.059	Pitch Set Point:	-0.192	Yaw Set Point:	0.510	X_WP:	0.000	Y_WP:	0.000	Y_WP:	0.500	X:	-0.005	Y:	0.104	Z:	0.045	yaw:	-29.230	yaw rate:	4.026	Roll:	-1.722	Pitch:	2.784	Yaw:	-43.937	Thrust:	79.568
Time:	3.191	Roll Set Point:	0.059	Pitch Set Point:	-0.192	Yaw Set Point:	0.511	X_WP:	0.000	Y_WP:	0.000	Y_WP:	0.500	X:	-0.005	Y:	0.104	Z:	0.045	yaw:	-29.281	yaw rate:	-5.160	Roll:	-1.911	Pitch:	2.770	Yaw:	-44.887	Thrust:	80.693
Time:	3.206	Roll Set Point:	0.059	Pitch Set Point:	-0.192	Yaw Set Point:	0.511	X_WP:	0.000	Y_WP:	0.000	Y_WP:	0.500	X:	-0.005	Y:	0.104	Z:	0.045	yaw:	-29.281	yaw rate:	-5.160	Roll:	-1.731	Pitch:	2.791	Yaw:	-44.010	Thrust:	81.291
Time:	3.222	Roll Set Point:	0.059	Pitch Set Point:	-0.192	Yaw Set Point:	0.510	X_WP:	0.000	Y_WP:	0.000	Y_WP:	0.500	X:	-0.005	Y:	0.104	Z:	0.045	yaw:	-29.243	yaw rate:	3.793	Roll:	-1.552	Pitch:	2.760	Yaw:	-43.307	Thrust:	81.912
Time:	3.238	Roll Set Point:	0.059	Pitch Set Point:	-0.192	Yaw Set Point:	0.510	X_WP:	0.000	Y_WP:	0.000	Y_WP:	0.500	X:	-0.005	Y:	0.104	Z:	0.045	yaw:	-29.243	yaw rate:	3.793	Roll:	-1.730	Pitch:	2.797	Yaw:	-43.952	Thrust:	82.899
Time:	3.253	Roll Set Point:	0.059	Pitch Set Point:	-0.192	Yaw Set Point:	0.511	X_WP:	0.000	Y_WP:	0.000	Y_WP:	0.500	X:	-0.005	Y:	0.104	Z:	0.045	yaw:	-29.294	yaw rate:	-5.124	Roll:	-1.895	Pitch:	2.801	Yaw:	-44.886	Thrust:	83.758
Time:	3.269	Roll Set Point:	0.059	Pitch Set Point:	-0.192	Yaw Set Point:	0.511	X_WP:	0.000	Y_WP:	0.000	Y_WP:	0.500	X:	-0.005	Y:	0.104	Z:	0.045	yaw:	-29.294	yaw rate:	-5.124	Roll:	-1.739	Pitch:	2.804	Yaw:	-44.028	Thrust:	84.691
Time:	3.284	Roll Set Point:	0.059	Pitch Set Point:	-0.192	Yaw Set Point:	0.510	X_WP:	0.000	Y_WP:	0.000	Y_WP:	0.500	X:	-0.005	Y:	0.104	Z:	0.045	yaw:	-29.243	yaw rate:	-10.227	Roll:	-1.648	Pitch:	2.839	Yaw:	-43.092	Thrust:	85.681
Time:	3.300	Roll Set Point:	0.059	Pitch Set Point:	-0.192	Yaw Set Point:	0.510	X_WP:	0.000	Y_WP:	0.000	Y_WP:	0.500	X:	-0.005	Y:	0.104	Z:	0.045	yaw:	-29.243	yaw rate:	-10.227	Roll:	-1.741	Pitch:	2.812	Yaw:	-43.962	Thrust:	86.516
Time:	3.316	Roll Set Point:	0.059	Pitch Set Point:	-0.192	Yaw Set Point:	0.511	X_WP:	0.000	Y_WP:	0.000	Y_WP:	0.500	X:	-0.005	Y:	0.104	Z:	0.045	yaw:	-29.252	yaw rate:	-1.194	Roll:	-1.695	Pitch:	2.798	Yaw:	-44.114	Thrust:	87.034
Time:	3.331	Roll Set Point:	0.059	Pitch Set Point:	-0.192	Yaw Set Point:	0.511	X_WP:	0.000	Y_WP:	0.000	Y_WP:	0.500	X:	-0.005	Y:	0.104	Z:	0.045	yaw:	-29.252	yaw rate:	-1.194	Roll:	-1.744	Pitch:	2.818	Yaw:	-43.962	Thrust:	87.981
Time:	3.347	Roll Set Point:	0.059	Pitch Set Point:	-0.192	Yaw Set Point:	0.510	X_WP:	0.000	Y_WP:	0.000	Y_WP:	0.500	X:	-0.005	Y:	0.104	Z:	0.045	yaw:	-29.232	yaw rate:	1.952	Roll:	-1.759	Pitch:	2.810	Yaw:	-43.614	Thrust:	89.295
Time:	3.363	Roll Set Point:	0.059	Pitch Set Point:	-0.192	Yaw Set Point:	0.510	X_WP:	0.000	Y_WP:	0.000	Y_WP:	0.500	X:	-0.005	Y:	0.104	Z:	0.045	yaw:	-29.232	yaw rate:	1.952	Roll:	-1.749	Pitch:	2.825	Yaw:	-43.941	Thrust:	89.808
Time:	3.378	Roll Set Point:	0.059	Pitch Set Point:	-0.192	Yaw Set Point:	0.511	X_WP:	0.000	Y_WP:	0.000	Y_WP:	0.500	X:	-0.005	Y:	0.104	Z:	0.045	yaw:	-29.254	yaw rate:	-2.225	Roll:	-1.788	Pitch:	2.870	Yaw:	-44.350	Thrust:	90.459
Time:	3.394	Roll Set Point:	0.059	Pitch Set Point:	-0.192	Yaw Set Point:	0.511	X_WP:	0.000	Y_WP:	0.000	Y_WP:	0.500	X:	-0.005	Y:	0.104	Z:	0.045	yaw:	-29.267	yaw rate:	-1.304	Roll:	-1.728	Pitch:	2.792	Yaw:	-44.208	Thrust:	91.598
Time:	3.409	Roll Set Point:	0.059	Pitch Set Point:	-0.192	Yaw Set Point:	0.511	X_WP:	0.000	Y_WP:	0.000	Y_WP:	0.500	X:	-0.005	Y:	0.104	Z:	0.045	yaw:	-29.262	yaw rate:	0.507	Roll:	-1.772	Pitch:	2.818	Yaw:	-43.899	Thrust:	92.459
Time:	3.425	Roll Set Point:	0.059	Pitch Set Point:	-0.192	Yaw Set Point:	0.510	X_WP:	0.000	Y_WP:	0.000	Y_WP:	0.500	X:	-0.005	Y:	0.104	Z:	0.045	yaw:	-29.209	yaw rate:	5.280	Roll:	-1.717	Pitch:	2.935	Yaw:	-43.017	Thrust:	93.063
Time:	3.441	Roll Set Point:	0.059	Pitch Set Point:	-0.192	Yaw Set Point:	0.510	X_WP:	0.000	Y_WP:	0.000	Y_WP:	0.500	X:	-0.005	Y:	0.104	Z:	0.045	yaw:	-29.228	yaw rate:	-1.857	Roll:	-1.769	Pitch:	2.833	Yaw:	-44.252	Thrust:	94.116
Time:	3.456	Roll Set Point:	0.059	Pitch Set Point:	-0.192	Yaw Set Point:	0.510	X_WP:	0.000	Y_WP:	0.000	Y_WP:	0.500	X:	-0.005	Y:	0.104	Z:	0.045	yaw:	-29.231	yaw rate:	-0.341	Roll:	-1.695	Pitch:	2.801	Yaw:	-43.991	Thrust:	95.035
Time:	3.472	Roll Set Point:	0.059	Pitch Set Point:	-0.192	Yaw Set Point:	0.510	X_WP:	0.000	Y_WP:	0.000	Y_WP:	0.500	X:	-0.005	Y:	0.104	Z:	0.045	yaw:	-29.231	yaw rate:	-0.341	Roll:	-1.762	Pitch:	2.850	Yaw:	-43.946	Thrust:	95.917
Time:	3.488	Roll Set Point:	0.059	Pitch Set Point:	-0.192	Yaw Set Point:	0.511	X_WP:	0.000	Y_WP:	0.000	Y_WP:	0.500	X:	-0.005	Y:	0.104	Z:	0.045	yaw:	-29.254	yaw rate:	-0.404	Roll:	-1.885	Pitch:	2.865	Yaw:	-44.350	Thrust:	96.399
Time:	3.503	Roll Set Point:	0.059	Pitch Set Point:	-0.192	Yaw Set Point:	0.511	X_WP:	0.000	Y_WP:	0.000	Y_WP:	0.500	X:	-0.005	Y:	0.104	Z:	0.045	yaw:	-29.254	yaw rate:	-0.404	Roll:	-1.769	Pitch:	2.856	Yaw:	-43.966	Thrust:	97.349
Time:	3.519	Roll Set Point:	0.059	Pitch Set Point:	-0.192	Yaw Set Point:	0.510	X_WP:	0.000	Y_WP:	0.000	Y_WP:	0.500	X:	-0.005	Y:	0.104	Z:	0.045	yaw:	-29.236	yaw rate:	-1.425	Roll:	-1.655	Pitch:	2.824	Yaw:	-43.645	Thrust:	98.461
Time:	3.534	Roll Set Point:	0.059	Pitch Set Point:	-0.192	Yaw Set Point:	0.510	X_WP:	0.000	Y_WP:	0.000	Y_WP:	0.500	X:	-0.005	Y:	0.104	Z:	0.045	yaw:	-29.236	yaw rate:	-1.425	Roll:	-1.770	Pitch:	2.862	Yaw:	-43.940	Thrust:	99.042
Time:	3.550	Roll Set Point:	0.059	Pitch Set Point:	-0.192	Yaw Set Point:	0.510	X_WP:	0.000	Y_WP:	0.000	Y_WP:	0.500	X:	-0.005	Y:	0.104	Z:	0.045	yaw:	-29.222	yaw rate:	1.410	Roll:	-1.796	Pitch:	2.883	Yaw:	-43.710	Thrust:	100.000
Time:	3.566	Roll Set Point:	0.059	Pitch Set Point:	-0.192	Yaw Set Point:	0.511	X_WP:	0.000	Y_WP:	0.000	Y_WP:	0.500	X:	-0.005	Y:	0.104	Z:	0.045	yaw:	-29.274	yaw rate:	-5.234	Roll:	-1.857	Pitch:	2.828	Yaw:	-44.863	Thrust:	100.000
Time:	3.581	Roll Set Point:	0.059	Pitch Set Point:	-0.192	Yaw Set Point:	0.511	X_WP:	0.000	Y_WP:	0.000	Y_WP:	0.500	X:	-0.005	Y:	0.104	Z:	0.045	yaw:	-29.262	yaw rate:	-1.137	Roll:	-1.756	Pitch:	2.876	Yaw:	-43.787	Thrust:	100.000
Time:	3.597	Roll Set Point:	0.059	Pitch Set Point:	-0.192	Yaw Set Point:	0.511	X_WP:	0.000	Y_WP:	0.000	Y_WP:	0.500	X:	-0.005	Y:	0.104	Z:	0.045	yaw:	-29.262	yaw rate:	-1.137	Roll:	-1.781	Pitch:	2.876	Yaw:	-43.983	Thrust:	100.000
Time:	3.613	Roll Set Point:	0.059	Pitch Set Point:	-0.192	Yaw Set Point:	0.510	X_WP:	0.000	Y_WP:	0.000	Y_WP:	0.500	X:	-0.005	Y:	0.104	Z:	0.045	yaw:	-29.238	yaw rate:	2.390	Roll:	-1.732	Pitch:	2.918	Yaw:	-43.551	Thrust:	100.000
Time:	3.628	Roll Set Point:	0.059	Pitch Set Point:	-0.192	Yaw Set Point:	0.510	X_WP:	0.000	Y_WP:	0.000	Y_WP:	0.500	X:	-0.005	Y:	0.104	Z:	0.045	yaw:	-29.238	yaw rate:	2.390	Roll:	-1.784	Pitch:	2.884	Yaw:	-43.948	Thrust:	100.000
Time:	3.644	Roll Set Point:	0.059	Pitch Set Point:	-0.192	Yaw Set Point:	0.510	X_WP:	0.000	Y_WP:	0.000	Y_WP:	0.500	X:	-0.005	Y:	0.104	Z:	0.045	yaw:	-29.238	yaw rate:	0.037	Roll:	-1.827	Pitch:	2.935	Yaw:	-43.949	Thrust:	100.000
Time:	3.659	Roll Set Point:	0.059	Pitch Set Point:	-0.192	Yaw Set Point:	0.510	X_WP:	0.000	Y_WP:	0.000	Y_WP:	0.500	X:	-0.005	Y:	0.104	Z:	0.045	yaw:	-29.247	yaw rate:	-0.929	Roll:	-1.769	Pitch:	2.829	Yaw:	-44.111	Thrust:	100.000
Time:	3.675	Roll Set Point:	0.059	Pitch Set Point:	-0.192	Yaw Set Point:	0.510	X_WP:	0.000	Y_WP:	0.000	Y_WP:	0.500	X:	-0.005	Y:	0.104	Z:	0.045	yaw:	-29.247	yaw rate:	0.006	Roll:	-1.862	Pitch:	2.935	Yaw:	-43.963	Thrust:	100.000
Time:	3.691	Roll Set Point:	0.059	Pitch Set Point:	-0.192	Yaw Set Point:	0.510	X_WP:	0.000	Y_WP:	0.000	Y_WP:	0.500	X:	-0.005	Y:	0.104	Z:	0.045	yaw:	-29.247	yaw rate:	0.006	Roll:	-1.795	Pitch:	2.898	Yaw:	-43.960	Thrust:	100.000
Time:	3.706	Roll Set Point:	0.059	Pitch Set Point:	-0.192	Yaw Set Point:	0.510	X_WP:	0.000	Y_WP:	0.000	Y_WP:	0.500	X:	-0.005	Y:	0.104	Z:	0.045	yaw:	-29.240	yaw rate:	1.926	Roll:	-1.735	Pitch:	2.888	Yaw:	-43.837	Thrust:	100.000
Time:	3.722	Roll Set Point:	0.059	Pitch Set Point:	-0.192	Yaw Set Point:	0.510	X_WP:	0.000	Y_WP:	0.000	Y_WP:	0.500	X:	-0.005	Y:	0.104	Z:	0.045	yaw:	-29.240	yaw rate:	1.926	Roll:	-1.798	Pitch:	2.905	Yaw:	-43.953	Thrust:	100.000
Time:	3.738	Roll Set Point:	0.059	Pitch Set Point:	-0.192	Yaw Set Point:	0.511	X_WP:	0.000	Y_WP:	0.000	Y_WP:	0.500	X:	-0.005	Y:	0.104	Z:	0.045	yaw:	-29.269	yaw rate:	-0.656	Roll:	-1.877	Pitch:	2.900	Yaw:	-44.469	Thrust:	100.000
Time:	3.753	Roll Set Point:	0.059	Pitch Set Point:	-0.192	Yaw Set Point:	0.510	X_WP:	0.000	Y_WP:	0.000	Y_WP:	0.500	X:	-0.005	Y:	0.104	Z:	0.045	yaw:	-29.243	yaw rate:	2.558	Roll:	-1.757	Pitch:	2.940	Yaw:	-43.528	Thrust:	100.000
Time:	3.769	Roll Set Point:	0.059	Pitch Set Point:	-0.192	Yaw Set Point:	0.511	X_WP:	0.000	Y_WP:	0.000	Y_WP:	0.500	X:	-0.005	Y:	0.104	Z:	0.045	yaw:	-29.265	yaw rate:	-2.230	Roll:	-1.812	Pitch:	2.854	Yaw:	-44.361	Thrust:	100.000
Time:	3.785	Roll Set Point:	0.059	Pitch Set Point:	-0.192	Yaw Set Point:	0.511	X_WP:	0.000	Y_WP:	0.000	Y_WP:	0.500	X:	-0.005	Y:	0.104	Z:	0.045	yaw:	-29.265	yaw rate:	-2.230	Roll:	-1.807	Pitch:	2.918	Yaw:	-43.988	Thrust:	100.000
Time:	3.800	Roll Set Point:	0.059	Pitch Set Point:	-0.192	Yaw Set Point:	0.511	X_WP:	0.000	Y_WP:	0.000	Y_WP:	0.500	X:	-0.005	Y:	0.104	Z:	0.045	yaw:	-29.260	yaw rate:	0.563	Roll:	-1.761	Pitch:	2.933	Yaw:	-43.886	Thrust:	100.000
Time:	3.816	Roll Set Point:	0.059	Pitch Set Point:	-0.192	Yaw Set Point:	0.511	X_WP:	0.000	Y_WP:	0.000	Y_WP:	0.500	X:	-0.005	Y:	0.104	Z:	0.045	yaw:	-29.260	yaw rate:	0.563	Roll:	-1.810	Pitch:	2.925	Yaw:	-43.980	Thrust:	100.000
Time:	3.831	Roll Set Point:	0.059	Pitch Set Point:	-0.192	Yaw Set Point:	0.510	X_WP:	0.000	Y_WP:	0.000	Y_WP:	0.500	X:	-0.005	Y:	0.104	Z:	0.045	yaw:	-29.242	yaw rate:	1.771	Roll:	-1.865	Pitch:	2.996	Yaw:	-43.658	Thrust:	100.000
Time:	3.847	Roll Set Point:	0.059	Pitch Set Point:	-0.192	Yaw Set Point:	0.511	X_WP:	0.000	Y_WP:	0.000	Y_WP:	0.500	X:	-0.005	Y:	0.104	Z:	0.045	yaw:	-29.251	yaw rate:	-0.897	Roll:	-1.769	Pitch:	2.867	Yaw:	-44.118	Thrust:	100.000
Time:	3.863	Roll Set Point:	0.059	Pitch Set Point:	-0.192	Yaw Set Point:	0.511	X_WP:	0.000	Y_WP:	0.000	Y_WP:	0.500	X:	-0.005	Y:	0.104	Z:	0.045	yaw:	-29.251	yaw rate:	-0.897	Roll:	-1.817	Pitch:	2.935	Yaw:	-43.967	Thrust:	100.000
Time:	3.878	Roll Set Point:	0.059	Pitch Set Point:	-0.192	Yaw Set Point:	0.511	X_WP:	0.000	Y_WP:	0.000	Y_WP:	0.500	X:	-0.005	Y:	0.104	Z:	0.045	yaw:	-29.264	yaw rate:	1.921	Roll:	-1.922	Pitch:	2.955	Yaw:	-44.201	Thrust:	100.000
Time:	3.894	Roll Set Point:	0.059	Pitch Set Point:	-0.192	Yaw Set Point:	0.510	X_WP:	0.000	Y_WP:	0.000	Y_WP:	0.500	X:	-0.005	Y:	0.104	Z:	0.045	yaw:	-29.248	yaw rate:	1.615	Roll:	-1.759	Pitch:	2.969	Yaw:	-43.692	Thrust:	100.000
Time:	3.910	Roll Set Point:	0.059	Pitch Set Point:	-0.192	Yaw Set Point:	0.511	X_WP:	0.000	Y_WP:	0.000	Y_WP:	0.500	X:	-0.005	Y:	0.104	Z:	0.045	yaw:	-29.252	yaw rate:	-0.418	Roll:	-1.765	Pitch:	2.881	Yaw:	-44.039	Thrust:	100.000
Time:	3.925	Roll Set Point:	0.059	Pitch Set Point:	-0.192	Yaw Set Point:	0.508	X_WP:	0.000	Y_WP:	0.000	Y_WP:	0.500	X:	-0.005	Y:	0.104	Z:	0.045	yaw:	-29.126	yaw rate:	12.562	Roll:	-1.718	Pitch:	3.111	Yaw:	-41.699	Thrust:	100.000
Time:	3.941	Roll Set Point:	0.059	Pitch Set Point:	-0.192	Yaw Set Point:	0.511	X_WP:	0.000	Y_WP:	0.000	Y_WP:	0.500	X:	-0.005	Y:	0.104	Z:	0.045	yaw:	-29.270	yaw rate:	-14.384	Roll:	-2.055	Pitch:	2.822	Yaw:	-46.403	Thrust:	100.000
Time:	3.956	Roll Set Point:	0.059	Pitch Set Point:	-0.192	Yaw Set Point:	0.511	X_WP:	0.000	Y_WP:	0.000	Y_WP:	0.500	X:	-0.005	Y:	0.104	Z:	0.045	yaw:	-29.257	yaw rate:	1.302	Roll:	-1.731	Pitch:	2.966	Yaw:	-43.755	Thrust:	100.000
Time:	3.972	Roll Set Point:	0.059	Pitch Set Point:	-0.192	Yaw Set Point:	0.511	X_WP:	0.000	Y_WP:	0.000	Y_WP:	0.500	X:	-0.005	Y:	0.104	Z:	0.045	yaw:	-29.257	yaw rate:	1.302	Roll:	-1.832	Pitch:	2.960	Yaw:	-43.976	Thrust:	100.000
Time:	3.988	Roll Set Point:	0.059	Pitch Set Point:	-0.192	Yaw Set Point:	0.511	X_WP:	0.000	Y_WP:	0.000	Y_WP:	0.500	X:	-0.005	Y:	0.104	Z:	0.045	yaw:	-29.271	yaw rate:	-1.373	Roll:	-1.881	Pitch:	2.906	Yaw:	-44.225	Thrust:	100.000
Time:	4.003	Roll Set Point:	0.059	Pitch Set Point:	-0.192	Yaw Set Point:	0.511	X_WP:	0.000	Y_WP:	0.000	Y_WP:	0.500	X:	-0.005	Y:	0.104	Z:	0.045	yaw:	-29.271	yaw rate:	-1.373	Roll:	-1.838	Pitch:	2.966	Yaw:	-44.001	Thrust:	100.000
Time:	4.019	Roll Set Point:	0.059	Pitch Set Point:	-0.192	Yaw Set Point:	0.511	X_WP:	0.000	Y_WP:	0.000	Y_WP:	0.500	X:	-0.005	Y:	0.104	Z:	0.045	yaw:	-29.272	yaw rate:	-0.142	Roll:	-1.896	Pitch:	3.050	Yaw:	-44.015	Thrust:	100.000
Time:	4.035	Roll Set Point:	0.059	Pitch Set Point:	-0.192	Yaw Set Point:	0.511	X_WP:	0.000	Y_WP:	0.000	Y_WP:	0.500	X:	-0.005	Y:	0.104	Z:	0.045	yaw:	-29.253	yaw rate:	1.898	Roll:	-1.712	Pitch:	2.920	Yaw:	-43.653	Thrust:	100.000
Time:	4.050	Roll Set Point:	0.059	Pitch Set Point:	-0.192	Yaw Set Point:	0.511	X_WP:	0.000	Y_WP:	0.000	Y_WP:	0.500	X:	-0.005	Y:	0.104	Z:	0.045	yaw:	-29.253	yaw rate:	1.898	Roll:	-1.842	Pitch:	2.976	Yaw:	-43.970	Thrust:	100.000
Time:	4.078	Roll Set Point:	0.059	Pitch Set Point:	-0.192	Yaw Set Point:	0.511	X_WP:	0.000	Y_WP:	0.000	Y_WP:	0.500	X:	-0.005	Y:	0.104	Z:	0.045	yaw:	-29.253	yaw rate:	-2.362	Roll:	-2.090	Pitch:	3.319	Yaw:	-46.365	Thrust:	100.000
Time:	4.093	Roll Set Point:	0.059	Pitch Set Point:	-0.192	Yaw Set Point:	0.510	X_WP:	0.000	Y_WP:	0.000	Y_WP:	0.500	X:	-0.005	Y:	0.104	Z:	0.045	yaw:	-29.245	yaw rate:	0.803	Roll:	-1.779	Pitch:	2.989	Yaw:	-43.825	Thrust:	100.000
Time:	4.109	Roll Set Point:	0.059	Pitch Set Point:	-0.192	Yaw Set Point:	0.510	X_WP:	0.000	Y_WP:	0.000	Y_WP:	0.500	X:	-0.005	Y:	0.104	Z:	0.045	yaw:	-29.245	yaw rate:	0.803	Roll:	-1.849	Pitch:	2.988	Yaw:	-43.959	Thrust:	100.000
Time:	4.125	Roll Set Point:	0.059	Pitch Set Point:	-0.192	Yaw Set Point:	0.511	X_WP:	0.000	Y_WP:	0.000	Y_WP:	0.500	X:	-0.005	Y:	0.104	Z:	0.045	yaw:	-29.254	yaw rate:	-0.323	Roll:	-1.939	Pitch:	3.016	Yaw:	-44.162	Thrust:	100.000
Time:	4.149	Roll Set Point:	0.059	Pitch Set Point:	-0.192	Yaw Set Point:	0.511	X_WP:	0.000	Y_WP:	0.000	Y_WP:	0.500	X:	-0.005	Y:	0.104	Z:	0.045	yaw:	-29.268	yaw rate:	-1.424	Roll:	-1.988	Pitch:	3.192	Yaw:	-45.767	Thrust:	100.000
Time:	4.164	Roll Set Point:	0.059	Pitch Set Point:	-0.192	Yaw Set Point:	0.511	X_WP:	0.000	Y_WP:	0.000	Y_WP:	0.500	X:	-0.005	Y:	0.104	Z:	0.045	yaw:	-29.268	yaw rate:	-1.424	Roll:	-1.857	Pitch:	2.997	Yaw:	-43.991	Thrust:	100.000
Time:	4.180	Roll Set Point:	0.059	Pitch Set Point:	-0.192	Yaw Set Point:	0.510	X_WP:	0.000	Y_WP:	0.000	Y_WP:	0.500	X:	-0.005	Y:	0.104	Z:	0.045	yaw:	-29.218	yaw rate:	5.030	Roll:	-1.681	Pitch:	3.009	Yaw:	-43.080	Thrust:	100.000
Time:	4.195	Roll Set Point:	0.059	Pitch Set Point:	-0.192	Yaw Set Point:	0.510	X_WP:	0.000	Y_WP:	0.000	Y_WP:	0.500	X:	-0.005	Y:	0.104	Z:	0.045	yaw:	-29.218	yaw rate:	5.030	Roll:	-1.856	Pitch:	3.004	Yaw:	-43.920	Thrust:	100.000
Time:	4.211	Roll Set Point:	0.059	Pitch Set Point:	-0.192	Yaw Set Point:	0.510	X_WP:	0.000	Y_WP:	0.000	Y_WP:	0.500	X:	-0.005	Y:	0.104	Z:	0.045	yaw:	-29.234	yaw rate:	1.721	Roll:	-1.988	Pitch:	3.063	Yaw:	-44.221	Thrust:	100.000
Time:	4.227	Roll Set Point:	0.059	Pitch Set Point:	-0.192	Yaw Set Point:	0.511	X_WP:	0.000	Y_WP:	0.000	Y_WP:	0.500	X:	-0.005	Y:	0.104	Z:	0.045	yaw:	-29.250	yaw rate:	-1.563	Roll:	-1.815	Pitch:	2.940	Yaw:	-44.228	Thrust:	100.000
Time:	4.242	Roll Set Point:	0.059	Pitch Set Point:	-0.192	Yaw Set Point:	0.511	X_WP:	0.000	Y_WP:	0.000	Y_WP:	0.500	X:	-0.005	Y:	0.104	Z:	0.045	yaw:	-29.270	yaw rate:	-1.964	Roll:	-1.924	Pitch:	2.973	Yaw:	-44.322	Thrust:	100.000
Time:	4.258	Roll Set Point:	0.059	Pitch Set Point:	-0.192	Yaw Set Point:	0.510	X_WP:	0.000	Y_WP:	0.000	Y_WP:	0.500	X:	-0.005	Y:	0.104	Z:	0.045	yaw:	-29.242	yaw rate:	2.751	Roll:	-1.872	Pitch:	3.125	Yaw:	-43.494	Thrust:	100.000
Time:	4.274	Roll Set Point:	0.059	Pitch Set Point:	-0.192	Yaw Set Point:	0.511	X_WP:	0.000	Y_WP:	0.000	Y_WP:	0.500	X:	-0.005	Y:	0.104	Z:	0.045	yaw:	-29.261	yaw rate:	-1.890	Roll:	-1.865	Pitch:	2.983	Yaw:	-44.301	Thrust:	100.000
Time:	4.289	Roll Set Point:	0.059	Pitch Set Point:	-0.192	Yaw Set Point:	0.511	X_WP:	0.000	Y_WP:	0.000	Y_WP:	0.500	X:	-0.005	Y:	0.104	Z:	0.045	yaw:	-29.261	yaw rate:	-1.890	Roll:	-1.873	Pitch:	3.025	Yaw:	-43.979	Thrust:	100.000
Time:	4.305	Roll Set Point:	0.059	Pitch Set Point:	-0.192	Yaw Set Point:	0.511	X_WP:	0.000	Y_WP:	0.000	Y_WP:	0.500	X:	-0.005	Y:	0.104	Z:	0.045	yaw:	-29.252	yaw rate:	0.911	Roll:	-1.879	Pitch:	3.010	Yaw:	-43.816	Thrust:	100.000
Time:	4.320	Roll Set Point:	0.059	Pitch Set Point:	-0.192	Yaw Set Point:	0.510	X_WP:	0.000	Y_WP:	0.000	Y_WP:	0.500	X:	-0.005	Y:	0.104	Z:	0.045	yaw:	-29.236	yaw rate:	-0.342	Roll:	-1.859	Pitch:	3.079	Yaw:	-43.680	Thrust:	100.000
Time:	4.336	Roll Set Point:	0.059	Pitch Set Point:	-0.192	Yaw Set Point:	0.510	X_WP:	0.000	Y_WP:	0.000	Y_WP:	0.500	X:	-0.005	Y:	0.104	Z:	0.045	yaw:	-29.236	yaw rate:	-0.342	Roll:	-1.879	Pitch:	3.037	Yaw:	-43.947	Thrust:	100.000
Time:	4.352	Roll Set Point:	0.059	Pitch Set Point:	-0.192	Yaw Set Point:	0.511	X_WP:	0.000	Y_WP:	0.000	Y_WP:	0.500	X:	-0.005	Y:	0.104	Z:	0.045	yaw:	-29.291	yaw rate:	-5.473	Roll:	-1.948	Pitch:	2.972	Yaw:	-44.940	Thrust:	100.000
Time:	4.367	Roll Set Point:	0.059	Pitch Set Point:	-0.192	Yaw Set Point:	0.511	X_WP:	0.000	Y_WP:	0.000	Y_WP:	0.500	X:	-0.005	Y:	0.104	Z:	0.045	yaw:	-29.260	yaw rate:	3.040	Roll:	-1.825	Pitch:	3.081	Yaw:	-43.471	Thrust:	100.000
Time:	4.383	Roll Set Point:	0.059	Pitch Set Point:	-0.192	Yaw Set Point:	0.510	X_WP:	0.000	Y_WP:	0.000	Y_WP:	0.500	X:	-0.005	Y:	0.104	Z:	0.045	yaw:	-29.239	yaw rate:	2.167	Roll:	-1.835	Pitch:	3.008	Yaw:	-43.587	Thrust:	100.000
Time:	4.399	Roll Set Point:	0.059	Pitch Set Point:	-0.192	Yaw Set Point:	0.511	X_WP:	0.000	Y_WP:	0.000	Y_WP:	0.500	X:	-0.005	Y:	0.104	Z:	0.045	yaw:	-29.271	yaw rate:	-3.211	Roll:	-1.978	Pitch:	3.089	Yaw:	-44.533	Thrust:	100.000
Time:	4.414	Roll Set Point:	0.059	Pitch Set Point:	-0.192	Yaw Set Point:	0.511	X_WP:	0.000	Y_WP:	0.000	Y_WP:	0.500	X:	-0.005	Y:	0.104	Z:	0.045	yaw:	-29.271	yaw rate:	-3.211	Roll:	-1.891	Pitch:	3.053	Yaw:	-43.995	Thrust:	100.000
Time:	4.430	Roll Set Point:	0.059	Pitch Set Point:	-0.192	Yaw Set Point:	0.511	X_WP:	0.000	Y_WP:	0.000	Y_WP:	0.500	X:	-0.005	Y:	0.104	Z:	0.045	yaw:	-29.258	yaw rate:	1.227	Roll:	-1.845	Pitch:	3.048	Yaw:	-43.772	Thrust:	100.000
Time:	4.446	Roll Set Point:	0.059	Pitch Set Point:	-0.192	Yaw Set Point:	0.511	X_WP:	0.000	Y_WP:	0.000	Y_WP:	0.500	X:	-0.005	Y:	0.104	Z:	0.045	yaw:	-29.262	yaw rate:	-0.366	Roll:	-1.912	Pitch:	3.012	Yaw:	-44.045	Thrust:	100.000
Time:	4.461	Roll Set Point:	0.059	Pitch Set Point:	-0.192	Yaw Set Point:	0.511	X_WP:	0.000	Y_WP:	0.000	Y_WP:	0.500	X:	-0.005	Y:	0.104	Z:	0.045	yaw:	-29.262	yaw rate:	-0.366	Roll:	-1.897	Pitch:	3.062	Yaw:	-43.983	Thrust:	100.000
Time:	4.477	Roll Set Point:	0.059	Pitch Set Point:	-0.192	Yaw Set Point:	0.511	X_WP:	0.000	Y_WP:	0.000	Y_WP:	0.500	X:	-0.005	Y:	0.104	Z:	0.045	yaw:	-29.270	yaw rate:	-0.792	Roll:	-1.961	Pitch:	3.146	Yaw:	-44.126	Thrust:	100.000
Time:	4.492	Roll Set Point:	0.059	Pitch Set Point:	-0.192	Yaw Set Point:	0.511	X_WP:	0.000	Y_WP:	0.000	Y_WP:	0.500	X:	-0.005	Y:	0.104	Z:	0.045	yaw:	-29.270	yaw rate:	-0.792	Roll:	-1.902	Pitch:	3.071	Yaw:	-43.994	Thrust:	100.000
Time:	4.508	Roll Set Point:	0.059	Pitch Set Point:	-0.192	Yaw Set Point:	0.511	X_WP:	0.000	Y_WP:	0.000	Y_WP:	0.500	X:	-0.005	Y:	0.104	Z:	0.045	yaw:	-29.270	yaw rate:	0.039	Roll:	-1.826	Pitch:	2.993	Yaw:	-43.987	Thrust:	100.000
Time:	4.524	Roll Set Point:	0.059	Pitch Set Point:	-0.192	Yaw Set Point:	0.510	X_WP:	0.000	Y_WP:	0.000	Y_WP:	0.500	X:	-0.005	Y:	0.104	Z:	0.045	yaw:	-29.247	yaw rate:	2.232	Roll:	-1.925	Pitch:	3.143	Yaw:	-43.589	Thrust:	100.000
Time:	4.539	Roll Set Point:	0.059	Pitch Set Point:	-0.192	Yaw Set Point:	0.510	X_WP:	0.000	Y_WP:	0.000	Y_WP:	0.500	X:	-0.005	Y:	0.104	Z:	0.045	yaw:	-29.246	yaw rate:	0.115	Roll:	-1.875	Pitch:	3.104	Yaw:	-43.941	Thrust:	100.000
Time:	4.555	Roll Set Point:	0.059	Pitch Set Point:	-0.192	Yaw Set Point:	0.510	X_WP:	0.000	Y_WP:	0.000	Y_WP:	0.500	X:	-0.005	Y:	0.104	Z:	0.045	yaw:	-29.246	yaw rate:	0.115	Roll:	-1.909	Pitch:	3.085	Yaw:	-43.961	Thrust:	100.000
Time:	4.571	Roll Set Point:	0.059	Pitch Set Point:	-0.192	Yaw Set Point:	0.510	X_WP:	0.000	Y_WP:	0.000	Y_WP:	0.500	X:	-0.005	Y:	0.104	Z:	0.045	yaw:	-29.220	yaw rate:	2.656	Roll:	-1.796	Pitch:	3.044	Yaw:	-43.480	Thrust:	100.000
Time:	4.586	Roll Set Point:	0.059	Pitch Set Point:	-0.192	Yaw Set Point:	0.511	X_WP:	0.000	Y_WP:	0.000	Y_WP:	0.500	X:	-0.005	Y:	0.104	Z:	0.045	yaw:	-29.285	yaw rate:	-6.531	Roll:	-2.144	Pitch:	3.072	Yaw:	-45.108	Thrust:	100.000
Time:	4.602	Roll Set Point:	0.059	Pitch Set Point:	-0.192	Yaw Set Point:	0.511	X_WP:	0.000	Y_WP:	0.000	Y_WP:	0.500	X:	-0.005	Y:	0.104	Z:	0.045	yaw:	-29.276	yaw rate:	0.937	Roll:	-1.886	Pitch:	3.114	Yaw:	-43.845	Thrust:	100.000
Time:	4.617	Roll Set Point:	0.059	Pitch Set Point:	-0.192	Yaw Set Point:	0.511	X_WP:	0.000	Y_WP:	0.000	Y_WP:	0.500	X:	-0.005	Y:	0.104	Z:	0.045	yaw:	-29.276	yaw rate:	0.937	Roll:	-1.919	Pitch:	3.098	Yaw:	-44.001	Thrust:	100.000
Time:	4.633	Roll Set Point:	0.059	Pitch Set Point:	-0.192	Yaw Set Point:	0.511	X_WP:	0.000	Y_WP:	0.000	Y_WP:	0.500	X:	-0.005	Y:	0.104	Z:	0.045	yaw:	-29.255	yaw rate:	2.098	Roll:	-1.861	Pitch:	3.087	Yaw:	-43.621	Thrust:	100.000
Time:	4.649	Roll Set Point:	0.059	Pitch Set Point:	-0.192	Yaw Set Point:	0.511	X_WP:	0.000	Y_WP:	0.000	Y_WP:	0.500	X:	-0.005	Y:	0.104	Z:	0.045	yaw:	-29.255	yaw rate:	2.098	Roll:	-1.922	Pitch:	3.104	Yaw:	-43.973	Thrust:	100.000
Time:	4.664	Roll Set Point:	0.059	Pitch Set Point:	-0.192	Yaw Set Point:	0.510	X_WP:	0.000	Y_WP:	0.000	Y_WP:	0.500	X:	-0.005	Y:	0.104	Z:	0.045	yaw:	-29.241	yaw rate:	1.362	Roll:	-1.910	Pitch:	3.175	Yaw:	-43.725	Thrust:	100.000
Time:	4.680	Roll Set Point:	0.059	Pitch Set Point:	-0.192	Yaw Set Point:	0.511	X_WP:	0.000	Y_WP:	0.000	Y_WP:	0.500	X:	-0.005	Y:	0.104	Z:	0.045	yaw:	-29.257	yaw rate:	-0.181	Roll:	-1.907	Pitch:	3.060	Yaw:	-44.245	Thrust:	100.000
Time:	4.696	Roll Set Point:	0.059	Pitch Set Point:	-0.192	Yaw Set Point:	0.511	X_WP:	0.000	Y_WP:	0.000	Y_WP:	0.500	X:	-0.005	Y:	0.104	Z:	0.045	yaw:	-29.262	yaw rate:	-0.487	Roll:	-1.966	Pitch:	3.094	Yaw:	-44.064	Thrust:	100.000
Time:	4.711	Roll Set Point:	0.059	Pitch Set Point:	-0.192	Yaw Set Point:	0.511	X_WP:	0.000	Y_WP:	0.000	Y_WP:	0.500	X:	-0.005	Y:	0.104	Z:	0.045	yaw:	-29.262	yaw rate:	-0.487	Roll:	-1.931	Pitch:	3.118	Yaw:	-43.983	Thrust:	100.000
Time:	4.727	Roll Set Point:	0.059	Pitch Set Point:	-0.192	Yaw Set Point:	0.511	X_WP:	0.000	Y_WP:	0.000	Y_WP:	0.500	X:	-0.005	Y:	0.104	Z:	0.045	yaw:	-29.257	yaw rate:	0.476	Roll:	-1.919	Pitch:	3.173	Yaw:	-43.896	Thrust:	100.000
Time:	4.742	Roll Set Point:	0.059	Pitch Set Point:	-0.192	Yaw Set Point:	0.510	X_WP:	0.000	Y_WP:	0.000	Y_WP:	0.500	X:	-0.005	Y:	0.104	Z:	0.045	yaw:	-29.243	yaw rate:	1.380	Roll:	-1.945	Pitch:	3.093	Yaw:	-43.726	Thrust:	100.000
Time:	4.758	Roll Set Point:	0.059	Pitch Set Point:	-0.192	Yaw Set Point:	0.510	X_WP:	0.000	Y_WP:	0.000	Y_WP:	0.500	X:	-0.005	Y:	0.104	Z:	0.045	yaw:	-29.244	yaw rate:	-0.070	Roll:	-1.920	Pitch:	3.110	Yaw:	-43.969	Thrust:	100.000
Time:	4.774	Roll Set Point:	0.059	Pitch Set Point:	-0.192	Yaw Set Point:	0.511	X_WP:	0.000	Y_WP:	0.000	Y_WP:	0.500	X:	-0.005	Y:	0.104	Z:	0.045	yaw:	-29.293	yaw rate:	-4.932	Roll:	-2.016	Pitch:	3.098	Yaw:	-44.853	Thrust:	100.000
Time:	4.789	Roll Set Point:	0.059	Pitch Set Point:	-0.192	Yaw Set Point:	0.510	X_WP:	0.000	Y_WP:	0.000	Y_WP:	0.500	X:	-0.005	Y:	0.104	Z:	0.045	yaw:	-29.245	yaw rate:	4.831	Roll:	-1.899	Pitch:	3.202	Yaw:	-43.150	Thrust:	100.000
Time:	4.805	Roll Set Point:	0.059	Pitch Set Point:	-0.192	Yaw Set Point:	0.510	X_WP:	0.000	Y_WP:	0.000	Y_WP:	0.500	X:	-0.005	Y:	0.104	Z:	0.045	yaw:	-29.243	yaw rate:	0.218	Roll:	-1.910	Pitch:	3.153	Yaw:	-43.920	Thrust:	100.000
Time:	4.821	Roll Set Point:	0.059	Pitch Set Point:	-0.192	Yaw Set Point:	0.510	X_WP:	0.000	Y_WP:	0.000	Y_WP:	0.500	X:	-0.005	Y:	0.104	Z:	0.045	yaw:	-29.243	yaw rate:	0.218	Roll:	-1.945	Pitch:	3.143	Yaw:	-43.956	Thrust:	100.000
Time:	4.836	Roll Set Point:	0.059	Pitch Set Point:	-0.192	Yaw Set Point:	0.511	X_WP:	0.000	Y_WP:	0.000	Y_WP:	0.500	X:	-0.004	Y:	0.104	Z:	0.045	yaw:	-29.293	yaw rate:	-4.232	Roll:	-1.972	Pitch:	3.092	Yaw:	-44.856	Thrust:	100.000
Time:	4.852	Roll Set Point:	0.059	Pitch Set Point:	-0.192	Yaw Set Point:	0.511	X_WP:	0.000	Y_WP:	0.000	Y_WP:	0.500	X:	-0.005	Y:	0.104	Z:	0.045	yaw:	-29.297	yaw rate:	-0.465	Roll:	-2.043	Pitch:	3.146	Yaw:	-44.110	Thrust:	100.000
Time:	4.867	Roll Set Point:	0.059	Pitch Set Point:	-0.192	Yaw Set Point:	0.511	X_WP:	0.000	Y_WP:	0.000	Y_WP:	0.500	X:	-0.005	Y:	0.104	Z:	0.045	yaw:	-29.281	yaw rate:	1.590	Roll:	-1.920	Pitch:	3.143	Yaw:	-43.743	Thrust:	100.000
Time:	4.883	Roll Set Point:	0.059	Pitch Set Point:	-0.192	Yaw Set Point:	0.511	X_WP:	0.000	Y_WP:	0.000	Y_WP:	0.500	X:	-0.005	Y:	0.104	Z:	0.045	yaw:	-29.292	yaw rate:	-1.046	Roll:	-1.934	Pitch:	3.116	Yaw:	-44.201	Thrust:	100.000
Time:	4.899	Roll Set Point:	0.059	Pitch Set Point:	-0.192	Yaw Set Point:	0.511	X_WP:	0.000	Y_WP:	0.000	Y_WP:	0.500	X:	-0.005	Y:	0.104	Z:	0.045	yaw:	-29.292	yaw rate:	-1.046	Roll:	-1.957	Pitch:	3.147	Yaw:	-44.022	Thrust:	100.000
Time:	4.914	Roll Set Point:	0.059	Pitch Set Point:	-0.192	Yaw Set Point:	0.511	X_WP:	0.000	Y_WP:	0.000	Y_WP:	0.500	X:	-0.005	Y:	0.104	Z:	0.045	yaw:	-29.252	yaw rate:	3.990	Roll:	-1.861	Pitch:	3.192	Yaw:	-43.300	Thrust:	100.000
Time:	4.930	Roll Set Point:	0.059	Pitch Set Point:	-0.192	Yaw Set Point:	0.511	X_WP:	0.000	Y_WP:	0.000	Y_WP:	0.500	X:	-0.005	Y:	0.104	Z:	0.045	yaw:	-29.255	yaw rate:	0.977	Roll:	-2.009	Pitch:	3.158	Yaw:	-44.025	Thrust:	100.000
Time:	4.946	Roll Set Point:	0.059	Pitch Set Point:	-0.192	Yaw Set Point:	0.510	X_WP:	0.000	Y_WP:	0.000	Y_WP:	0.500	X:	-0.005	Y:	0.104	Z:	0.045	yaw:	-29.247	yaw rate:	0.754	Roll:	-1.963	Pitch:	3.159	Yaw:	-43.836	Thrust:	100.000
Time:	4.961	Roll Set Point:	0.059	Pitch Set Point:	-0.192	Yaw Set Point:	0.511	X_WP:	0.000	Y_WP:	0.000	Y_WP:	0.500	X:	-0.005	Y:	0.104	Z:	0.045	yaw:	-29.261	yaw rate:	-1.314	Roll:	-1.936	Pitch:	3.137	Yaw:	-44.201	Thrust:	100.000
Time:	4.977	Roll Set Point:	0.059	Pitch Set Point:	-0.192	Yaw Set Point:	0.510	X_WP:	0.000	Y_WP:	0.000	Y_WP:	0.500	X:	-0.005	Y:	0.104	Z:	0.045	yaw:	-29.231	yaw rate:	2.940	Roll:	-1.976	Pitch:	3.211	Yaw:	-43.447	Thrust:	100.000
Time:	4.992	Roll Set Point:	0.059	Pitch Set Point:	-0.192	Yaw Set Point:	0.510	X_WP:	0.000	Y_WP:	0.000	Y_WP:	0.500	X:	-0.005	Y:	0.104	Z:	0.045	yaw:	-29.221	yaw rate:	1.040	Roll:	-1.938	Pitch:	3.128	Yaw:	-43.751	Thrust:	100.000
Time:	5.008	Roll Set Point:	0.059	Pitch Set Point:	-0.192	Yaw Set Point:	0.511	X_WP:	0.000	Y_WP:	0.000	Y_WP:	0.500	X:	-0.005	Y:	0.104	Z:	0.045	yaw:	-29.254	yaw rate:	-3.365	Roll:	-2.036	Pitch:	3.125	Yaw:	-44.536	Thrust:	100.000
Time:	5.024	Roll Set Point:	0.059	Pitch Set Point:	-0.192	Yaw Set Point:	0.511	X_WP:	0.000	Y_WP:	0.000	Y_WP:	0.500	X:	-0.005	Y:	0.104	Z:	0.045	yaw:	-29.258	yaw rate:	-0.324	Roll:	-1.941	Pitch:	3.130	Yaw:	-44.031	Thrust:	100.000
Time:	5.039	Roll Set Point:	0.059	Pitch Set Point:	-0.192	Yaw Set Point:	0.511	X_WP:	0.000	Y_WP:	0.000	Y_WP:	0.500	X:	-0.005	Y:	0.104	Z:	0.045	yaw:	-29.274	yaw rate:	-1.636	Roll:	-2.067	Pitch:	3.147	Yaw:	-44.274	Thrust:	100.000
Time:	5.054	Roll Set Point:	0.059	Pitch Set Point:	-0.192	Yaw Set Point:	0.511	X_WP:	0.000	Y_WP:	0.000	Y_WP:	0.500	X:	-0.005	Y:	0.104	Z:	0.045	yaw:	-29.280	yaw rate:	-0.581	Roll:	-1.984	Pitch:	3.110	Yaw:	-43.982	Thrust:	100.000
Time:	5.079	Roll Set Point:	0.059	Pitch Set Point:	-0.192	Yaw Set Point:	0.511	X_WP:	0.000	Y_WP:	0.000	Y_WP:	0.500	X:	-0.005	Y:	0.104	Z:	0.045	yaw:	-29.262	yaw rate:	-3.325	Roll:	-2.169	Pitch:	3.495	Yaw:	-45.611	Thrust:	100.000
Time:	5.095	Roll Set Point:	0.059	Pitch Set Point:	-0.192	Yaw Set Point:	0.511	X_WP:	0.000	Y_WP:	0.000	Y_WP:	0.500	X:	-0.005	Y:	0.104	Z:	0.045	yaw:	-29.254	yaw rate:	0.826	Roll:	-1.939	Pitch:	3.191	Yaw:	-43.833	Thrust:	100.000
Time:	5.110	Roll Set Point:	0.059	Pitch Set Point:	-0.192	Yaw Set Point:	0.511	X_WP:	0.000	Y_WP:	0.000	Y_WP:	0.500	X:	-0.005	Y:	0.104	Z:	0.045	yaw:	-29.254	yaw rate:	0.826	Roll:	-1.984	Pitch:	3.149	Yaw:	-43.971	Thrust:	100.000
Time:	5.126	Roll Set Point:	0.059	Pitch Set Point:	-0.192	Yaw Set Point:	0.510	X_WP:	0.000	Y_WP:	0.000	Y_WP:	0.500	X:	-0.005	Y:	0.104	Z:	0.045	yaw:	-29.249	yaw rate:	0.451	Roll:	-1.999	Pitch:	3.127	Yaw:	-43.943	Thrust:	100.000
Time:	5.143	Roll Set Point:	0.059	Pitch Set Point:	-0.192	Yaw Set Point:	0.511	X_WP:	0.000	Y_WP:	0.000	Y_WP:	0.500	X:	-0.005	Y:	0.104	Z:	0.045	yaw:	-29.259	yaw rate:	-1.029	Roll:	-2.055	Pitch:	3.188	Yaw:	-44.421	Thrust:	100.000
Time:	5.159	Roll Set Point:	0.059	Pitch Set Point:	-0.192	Yaw Set Point:	0.511	X_WP:	0.000	Y_WP:	0.000	Y_WP:	0.500	X:	-0.005	Y:	0.104	Z:	0.045	yaw:	-29.259	yaw rate:	-1.029	Roll:	-1.991	Pitch:	3.148	Yaw:	-43.979	Thrust:	100.000
Time:	5.174	Roll Set Point:	0.059	Pitch Set Point:	-0.192	Yaw Set Point:	0.511	X_WP:	0.000	Y_WP:	0.000	Y_WP:	0.500	X:	-0.005	Y:	0.104	Z:	0.045	yaw:	-29.266	yaw rate:	-0.728	Roll:	-2.020	Pitch:	3.170	Yaw:	-44.098	Thrust:	100.000
Time:	5.190	Roll Set Point:	0.059	Pitch Set Point:	-0.192	Yaw Set Point:	0.510	X_WP:	0.000	Y_WP:	0.000	Y_WP:	0.500	X:	-0.005	Y:	0.104	Z:	0.045	yaw:	-29.230	yaw rate:	3.623	Roll:	-1.929	Pitch:	3.166	Yaw:	-43.331	Thrust:	100.000
Time:	5.206	Roll Set Point:	0.059	Pitch Set Point:	-0.192	Yaw Set Point:	0.510	X_WP:	0.000	Y_WP:	0.000	Y_WP:	0.500	X:	-0.005	Y:	0.104	Z:	0.045	yaw:	-29.230	yaw rate:	3.623	Roll:	-1.996	Pitch:	3.149	Yaw:	-43.937	Thrust:	100.000
Time:	5.221	Roll Set Point:	0.059	Pitch Set Point:	-0.192	Yaw Set Point:	0.510	X_WP:	0.000	Y_WP:	0.000	Y_WP:	0.500	X:	-0.005	Y:	0.104	Z:	0.045	yaw:	-29.246	yaw rate:	-1.645	Roll:	-2.006	Pitch:	3.174	Yaw:	-44.239	Thrust:	100.000
Time:	5.237	Roll Set Point:	0.059	Pitch Set Point:	-0.192	Yaw Set Point:	0.510	X_WP:	0.000	Y_WP:	0.000	Y_WP:	0.500	X:	-0.005	Y:	0.104	Z:	0.045	yaw:	-29.236	yaw rate:	3.816	Roll:	-1.958	Pitch:	3.158	Yaw:	-43.770	Thrust:	100.000
Time:	5.253	Roll Set Point:	0.059	Pitch Set Point:	-0.192	Yaw Set Point:	0.511	X_WP:	0.000	Y_WP:	0.000	Y_WP:	0.500	X:	-0.005	Y:	0.104	Z:	0.045	yaw:	-29.279	yaw rate:	-4.294	Roll:	-2.113	Pitch:	3.065	Yaw:	-44.725	Thrust:	100.000
Time:	5.268	Roll Set Point:	0.059	Pitch Set Point:	-0.192	Yaw Set Point:	0.511	X_WP:	0.000	Y_WP:	0.000	Y_WP:	0.500	X:	-0.005	Y:	0.104	Z:	0.045	yaw:	-29.253	yaw rate:	2.569	Roll:	-1.929	Pitch:	3.191	Yaw:	-43.540	Thrust:	100.000
Time:	5.284	Roll Set Point:	0.059	Pitch Set Point:	-0.192	Yaw Set Point:	0.511	X_WP:	0.000	Y_WP:	0.000	Y_WP:	0.500	X:	-0.005	Y:	0.104	Z:	0.045	yaw:	-29.261	yaw rate:	-0.834	Roll:	-2.016	Pitch:	3.148	Yaw:	-44.122	Thrust:	100.000
Time:	5.299	Roll Set Point:	0.059	Pitch Set Point:	-0.192	Yaw Set Point:	0.511	X_WP:	0.000	Y_WP:	0.000	Y_WP:	0.500	X:	-0.005	Y:	0.104	Z:	0.045	yaw:	-29.261	yaw rate:	-0.834	Roll:	-2.009	Pitch:	3.149	Yaw:	-43.982	Thrust:	100.000
Time:	5.315	Roll Set Point:	0.059	Pitch Set Point:	-0.192	Yaw Set Point:	0.510	X_WP:	0.000	Y_WP:	0.000	Y_WP:	0.500	X:	-0.005	Y:	0.104	Z:	0.045	yaw:	-29.249	yaw rate:	-0.109	Roll:	-2.027	Pitch:	3.162	Yaw:	-43.763	Thrust:	100.000
Time:	5.331	Roll Set Point:	0.059	Pitch Set Point:	-0.192	Yaw Set Point:	0.510	X_WP:	0.000	Y_WP:	0.000	Y_WP:	0.500	X:	-0.005	Y:	0.104	Z:	0.045	yaw:	-29.249	yaw rate:	-0.109	Roll:	-2.014	Pitch:	3.149	Yaw:	-43.965	Thrust:	100.000
Time:	5.346	Roll Set Point:	0.059	Pitch Set Point:	-0.192	Yaw Set Point:	0.511	X_WP:	0.000	Y_WP:	0.000	Y_WP:	0.500	X:	-0.005	Y:	0.104	Z:	0.045	yaw:	-29.268	yaw rate:	-1.859	Roll:	-2.016	Pitch:	3.120	Yaw:	-44.302	Thrust:	100.000
Time:	5.362	Roll Set Point:	0.059	Pitch Set Point:	-0.192	Yaw Set Point:	0.510	X_WP:	0.000	Y_WP:	0.000	Y_WP:	0.500	X:	-0.005	Y:	0.104	Z:	0.045	yaw:	-29.247	yaw rate:	2.093	Roll:	-1.967	Pitch:	3.183	Yaw:	-43.612	Thrust:	100.000
Time:	5.378	Roll Set Point:	0.059	Pitch Set Point:	-0.192	Yaw Set Point:	0.510	X_WP:	0.000	Y_WP:	0.000	Y_WP:	0.500	X:	-0.005	Y:	0.104	Z:	0.045	yaw:	-29.243	yaw rate:	0.411	Roll:	-2.027	Pitch:	3.148	Yaw:	-43.886	Thrust:	100.000
Time:	5.393	Roll Set Point:	0.059	Pitch Set Point:	-0.192	Yaw Set Point:	0.511	X_WP:	0.000	Y_WP:	0.000	Y_WP:	0.500	X:	-0.005	Y:	0.104	Z:	0.045	yaw:	-29.259	yaw rate:	-1.583	Roll:	-2.054	Pitch:	3.127	Yaw:	-44.243	Thrust:	100.000
Time:	5.409	Roll Set Point:	0.059	Pitch Set Point:	-0.192	Yaw Set Point:	0.511	X_WP:	0.000	Y_WP:	0.000	Y_WP:	0.500	X:	-0.005	Y:	0.104	Z:	0.045	yaw:	-29.262	yaw rate:	-0.295	Roll:	-2.050	Pitch:	3.151	Yaw:	-44.032	Thrust:	100.000
Time:	5.424	Roll Set Point:	0.059	Pitch Set Point:	-0.192	Yaw Set Point:	0.511	X_WP:	0.000	Y_WP:	0.000	Y_WP:	0.500	X:	-0.005	Y:	0.104	Z:	0.045	yaw:	-29.283	yaw rate:	-2.126	Roll:	-2.075	Pitch:	3.128	Yaw:	-44.368	Thrust:	100.000
Time:	5.440	Roll Set Point:	0.059	Pitch Set Point:	-0.192	Yaw Set Point:	0.510	X_WP:	0.000	Y_WP:	0.000	Y_WP:	0.500	X:	-0.005	Y:	0.104	Z:	0.045	yaw:	-29.248	yaw rate:	3.460	Roll:	-1.979	Pitch:	3.209	Yaw:	-43.384	Thrust:	100.000
Time:	5.456	Roll Set Point:	0.059	Pitch Set Point:	-0.192	Yaw Set Point:	0.510	X_WP:	0.000	Y_WP:	0.000	Y_WP:	0.500	X:	-0.005	Y:	0.104	Z:	0.045	yaw:	-29.229	yaw rate:	1.916	Roll:	-1.935	Pitch:	3.127	Yaw:	-43.616	Thrust:	100.000
Time:	5.471	Roll Set Point:	0.059	Pitch Set Point:	-0.192	Yaw Set Point:	0.511	X_WP:	0.000	Y_WP:	0.000	Y_WP:	0.500	X:	-0.005	Y:	0.104	Z:	0.045	yaw:	-29.276	yaw rate:	-4.661	Roll:	-2.152	Pitch:	3.105	Yaw:	-44.783	Thrust:	100.000
Time:	5.487	Roll Set Point:	0.059	Pitch Set Point:	-0.192	Yaw Set Point:	0.511	X_WP:	0.000	Y_WP:	0.000	Y_WP:	0.500	X:	-0.005	Y:	0.104	Z:	0.045	yaw:	-29.276	yaw rate:	-4.661	Roll:	-2.036	Pitch:	3.148	Yaw:	-44.003	Thrust:	100.000
Time:	5.503	Roll Set Point:	0.059	Pitch Set Point:	-0.192	Yaw Set Point:	0.511	X_WP:	0.000	Y_WP:	0.000	Y_WP:	0.500	X:	-0.005	Y:	0.104	Z:	0.045	yaw:	-29.264	yaw rate:	1.194	Roll:	-2.035	Pitch:	3.165	Yaw:	-43.784	Thrust:	100.000
Time:	5.518	Roll Set Point:	0.059	Pitch Set Point:	-0.192	Yaw Set Point:	0.511	X_WP:	0.000	Y_WP:	0.000	Y_WP:	0.500	X:	-0.005	Y:	0.104	Z:	0.045	yaw:	-29.256	yaw rate:	0.752	Roll:	-2.016	Pitch:	3.150	Yaw:	-43.849	Thrust:	100.000
Time:	5.534	Roll Set Point:	0.059	Pitch Set Point:	-0.192	Yaw Set Point:	0.511	X_WP:	0.000	Y_WP:	0.000	Y_WP:	0.500	X:	-0.005	Y:	0.104	Z:	0.045	yaw:	-29.256	yaw rate:	0.752	Roll:	-2.042	Pitch:	3.149	Yaw:	-43.977	Thrust:	100.000
Time:	5.550	Roll Set Point:	0.059	Pitch Set Point:	-0.192	Yaw Set Point:	0.511	X_WP:	0.000	Y_WP:	0.000	Y_WP:	0.500	X:	-0.005	Y:	0.104	Z:	0.045	yaw:	-29.259	yaw rate:	-0.658	Roll:	-2.013	Pitch:	3.154	Yaw:	-44.022	Thrust:	100.000
Time:	5.565	Roll Set Point:	0.059	Pitch Set Point:	-0.192	Yaw Set Point:	0.511	X_WP:	0.000	Y_WP:	0.000	Y_WP:	0.500	X:	-0.005	Y:	0.104	Z:	0.045	yaw:	-29.259	yaw rate:	-0.658	Roll:	-2.045	Pitch:	3.148	Yaw:	-43.976	Thrust:	100.000
Time:	5.581	Roll Set Point:	0.059	Pitch Set Point:	-0.192	Yaw Set Point:	0.511	X_WP:	0.000	Y_WP:	0.000	Y_WP:	0.500	X:	-0.005	Y:	0.104	Z:	0.045	yaw:	-29.252	yaw rate:	0.728	Roll:	-2.092	Pitch:	3.152	Yaw:	-43.846	Thrust:	100.000
Time:	5.596	Roll Set Point:	0.059	Pitch Set Point:	-0.192	Yaw Set Point:	0.510	X_WP:	0.000	Y_WP:	0.000	Y_WP:	0.500	X:	-0.005	Y:	0.104	Z:	0.045	yaw:	-29.245	yaw rate:	0.634	Roll:	-2.013	Pitch:	3.151	Yaw:	-43.853	Thrust:	100.000
Time:	5.612	Roll Set Point:	0.059	Pitch Set Point:	-0.192	Yaw Set Point:	0.511	X_WP:	0.000	Y_WP:	0.000	Y_WP:	0.500	X:	-0.005	Y:	0.104	Z:	0.045	yaw:	-29.277	yaw rate:	-3.200	Roll:	-2.105	Pitch:	3.097	Yaw:	-44.540	Thrust:	100.000
Time:	5.628	Roll Set Point:	0.059	Pitch Set Point:	-0.192	Yaw Set Point:	0.510	X_WP:	0.000	Y_WP:	0.000	Y_WP:	0.500	X:	-0.005	Y:	0.104	Z:	0.045	yaw:	-29.248	yaw rate:	2.900	Roll:	-1.960	Pitch:	3.192	Yaw:	-43.478	Thrust:	100.000
Time:	5.643	Roll Set Point:	0.059	Pitch Set Point:	-0.192	Yaw Set Point:	0.511	X_WP:	0.000	Y_WP:	0.000	Y_WP:	0.500	X:	-0.005	Y:	0.104	Z:	0.045	yaw:	-29.253	yaw rate:	-2.011	Roll:	-2.136	Pitch:	3.165	Yaw:	-44.048	Thrust:	100.000
Time:	5.659	Roll Set Point:	0.059	Pitch Set Point:	-0.192	Yaw Set Point:	0.510	X_WP:	0.000	Y_WP:	0.000	Y_WP:	0.500	X:	-0.005	Y:	0.104	Z:	0.045	yaw:	-29.243	yaw rate:	1.043	Roll:	-1.973	Pitch:	3.148	Yaw:	-43.781	Thrust:	100.000
Time:	5.675	Roll Set Point:	0.059	Pitch Set Point:	-0.192	Yaw Set Point:	0.511	X_WP:	0.000	Y_WP:	0.000	Y_WP:	0.500	X:	-0.005	Y:	0.104	Z:	0.045	yaw:	-29.272	yaw rate:	-2.898	Roll:	-2.122	Pitch:	3.110	Yaw:	-44.487	Thrust:	100.000
Time:	5.690	Roll Set Point:	0.059	Pitch Set Point:	-0.192	Yaw Set Point:	0.511	X_WP:	0.000	Y_WP:	0.000	Y_WP:	0.500	X:	-0.005	Y:	0.104	Z:	0.045	yaw:	-29.268	yaw rate:	0.355	Roll:	-2.065	Pitch:	3.158	Yaw:	-43.926	Thrust:	100.000
Time:	5.706	Roll Set Point:	0.059	Pitch Set Point:	-0.192	Yaw Set Point:	0.511	X_WP:	0.000	Y_WP:	0.000	Y_WP:	0.500	X:	-0.005	Y:	0.104	Z:	0.045	yaw:	-29.282	yaw rate:	-1.435	Roll:	-2.098	Pitch:	3.121	Yaw:	-44.252	Thrust:	100.000
Time:	5.721	Roll Set Point:	0.059	Pitch Set Point:	-0.192	Yaw Set Point:	0.510	X_WP:	0.000	Y_WP:	0.000	Y_WP:	0.500	X:	-0.005	Y:	0.104	Z:	0.045	yaw:	-29.232	yaw rate:	5.057	Roll:	-2.032	Pitch:	3.228	Yaw:	-43.093	Thrust:	100.000
Time:	5.737	Roll Set Point:	0.059	Pitch Set Point:	-0.192	Yaw Set Point:	0.511	X_WP:	0.000	Y_WP:	0.000	Y_WP:	0.500	X:	-0.005	Y:	0.104	Z:	0.045	yaw:	-29.278	yaw rate:	-4.659	Roll:	-2.073	Pitch:	3.075	Yaw:	-44.791	Thrust:	100.000
Time:	5.753	Roll Set Point:	0.059	Pitch Set Point:	-0.192	Yaw Set Point:	0.511	X_WP:	0.000	Y_WP:	0.000	Y_WP:	0.500	X:	-0.005	Y:	0.104	Z:	0.045	yaw:	-29.279	yaw rate:	-0.022	Roll:	-2.167	Pitch:	3.159	Yaw:	-44.010	Thrust:	100.000
Time:	5.768	Roll Set Point:	0.059	Pitch Set Point:	-0.192	Yaw Set Point:	0.511	X_WP:	0.000	Y_WP:	0.000	Y_WP:	0.500	X:	-0.005	Y:	0.104	Z:	0.045	yaw:	-29.261	yaw rate:	1.751	Roll:	-1.995	Pitch:	3.174	Yaw:	-43.682	Thrust:	100.000
Time:	5.784	Roll Set Point:	0.059	Pitch Set Point:	-0.192	Yaw Set Point:	0.510	X_WP:	0.000	Y_WP:	0.000	Y_WP:	0.500	X:	-0.005	Y:	0.104	Z:	0.045	yaw:	-29.235	yaw rate:	2.565	Roll:	-2.077	Pitch:	3.172	Yaw:	-43.516	Thrust:	100.000
Time:	5.800	Roll Set Point:	0.059	Pitch Set Point:	-0.192	Yaw Set Point:	0.510	X_WP:	0.000	Y_WP:	0.000	Y_WP:	0.500	X:	-0.005	Y:	0.104	Z:	0.045	yaw:	-29.235	yaw rate:	2.565	Roll:	-2.079	Pitch:	3.149	Yaw:	-43.946	Thrust:	100.000
Time:	5.815	Roll Set Point:	0.059	Pitch Set Point:	-0.192	Yaw Set Point:	0.511	X_WP:	0.000	Y_WP:	0.000	Y_WP:	0.500	X:	-0.005	Y:	0.104	Z:	0.045	yaw:	-29.253	yaw rate:	-1.761	Roll:	-2.016	Pitch:	3.116	Yaw:	-44.265	Thrust:	100.000
Time:	5.831	Roll Set Point:	0.059	Pitch Set Point:	-0.192	Yaw Set Point:	0.510	X_WP:	0.000	Y_WP:	0.000	Y_WP:	0.500	X:	-0.005	Y:	0.104	Z:	0.045	yaw:	-29.238	yaw rate:	0.646	Roll:	-2.120	Pitch:	3.202	Yaw:	-43.693	Thrust:	100.000
Time:	5.846	Roll Set Point:	0.059	Pitch Set Point:	-0.192	Yaw Set Point:	0.510	X_WP:	0.000	Y_WP:	0.000	Y_WP:	0.500	X:	-0.005	Y:	0.104	Z:	0.045	yaw:	-29.236	yaw rate:	0.207	Roll:	-2.055	Pitch:	3.116	Yaw:	-43.916	Thrust:	100.000
Time:	5.862	Roll Set Point:	0.059	Pitch Set Point:	-0.192	Yaw Set Point:	0.511	X_WP:	0.000	Y_WP:	0.000	Y_WP:	0.500	X:	-0.005	Y:	0.104	Z:	0.045	yaw:	-29.260	yaw rate:	-2.461	Roll:	-2.076	Pitch:	3.085	Yaw:	-44.389	Thrust:	100.000
Time:	5.878	Roll Set Point:	0.059	Pitch Set Point:	-0.192	Yaw Set Point:	0.510	X_WP:	0.000	Y_WP:	0.000	Y_WP:	0.500	X:	-0.005	Y:	0.104	Z:	0.045	yaw:	-29.236	yaw rate:	2.461	Roll:	-2.139	Pitch:	3.232	Yaw:	-43.533	Thrust:	100.000
Time:	5.893	Roll Set Point:	0.059	Pitch Set Point:	-0.192	Yaw Set Point:	0.511	X_WP:	0.000	Y_WP:	0.000	Y_WP:	0.500	X:	-0.005	Y:	0.104	Z:	0.045	yaw:	-29.253	yaw rate:	-1.705	Roll:	-2.130	Pitch:	3.179	Yaw:	-44.272	Thrust:	100.000
Time:	5.909	Roll Set Point:	0.059	Pitch Set Point:	-0.192	Yaw Set Point:	0.511	X_WP:	0.000	Y_WP:	0.000	Y_WP:	0.500	X:	-0.005	Y:	0.104	Z:	0.045	yaw:	-29.262	yaw rate:	-0.957	Roll:	-2.087	Pitch:	3.070	Yaw:	-44.126	Thrust:	100.000
Time:	5.925	Roll Set Point:	0.059	Pitch Set Point:	-0.192	Yaw Set Point:	0.511	X_WP:	0.000	Y_WP:	0.000	Y_WP:	0.500	X:	-0.005	Y:	0.104	Z:	0.045	yaw:	-29.259	yaw rate:	0.296	Roll:	-2.011	Pitch:	3.111	Yaw:	-43.935	Thrust:	100.000
Time:	5.940	Roll Set Point:	0.059	Pitch Set Point:	-0.192	Yaw Set Point:	0.511	X_WP:	0.000	Y_WP:	0.000	Y_WP:	0.500	X:	-0.005	Y:	0.104	Z:	0.045	yaw:	-29.257	yaw rate:	0.198	Roll:	-2.190	Pitch:	3.191	Yaw:	-43.943	Thrust:	100.000
Time:	5.956	Roll Set Point:	0.059	Pitch Set Point:	-0.192	Yaw Set Point:	0.510	X_WP:	0.000	Y_WP:	0.000	Y_WP:	0.500	X:	-0.005	Y:	0.104	Z:	0.045	yaw:	-29.247	yaw rate:	1.006	Roll:	-2.095	Pitch:	3.218	Yaw:	-43.787	Thrust:	100.000
Time:	5.971	Roll Set Point:	0.059	Pitch Set Point:	-0.192	Yaw Set Point:	0.510	X_WP:	0.000	Y_WP:	0.000	Y_WP:	0.500	X:	-0.005	Y:	0.104	Z:	0.045	yaw:	-29.241	yaw rate:	0.647	Roll:	-2.079	Pitch:	3.117	Yaw:	-43.851	Thrust:	100.000
Time:	5.987	Roll Set Point:	0.059	Pitch Set Point:	-0.192	Yaw Set Point:	0.510	X_WP:	0.000	Y_WP:	0.000	Y_WP:	0.500	X:	-0.005	Y:	0.104	Z:	0.045	yaw:	-29.244	yaw rate:	-0.283	Roll:	-2.029	Pitch:	3.118	Yaw:	-44.004	Thrust:	100.000
Time:	6.003	Roll Set Point:	-0.057	Pitch Set Point:	-0.111	Yaw Set Point:	0.510	X_WP:	-0.062	Y_WP:	0.128	Y_WP:	0.500	X:	-0.005	Y:	0.104	Z:	0.045	yaw:	-29.244	yaw rate:	-0.283	Roll:	30.000	Pitch:	-30.000	Yaw:	-43.951	Thrust:	100.000
Time:	6.018	Roll Set Point:	-0.057	Pitch Set Point:	-0.111	Yaw Set Point:	0.511	X_WP:	-0.062	Y_WP:	0.128	Y_WP:	0.500	X:	-0.005	Y:	0.104	Z:	0.045	yaw:	-29.274	yaw rate:	-1.865	Roll:	1.277	Pitch:	0.857	Yaw:	-44.522	Thrust:	100.000
Time:	6.034	Roll Set Point:	-0.057	Pitch Set Point:	-0.111	Yaw Set Point:	0.511	X_WP:	-0.062	Y_WP:	0.128	Y_WP:	0.500	X:	-0.005	Y:	0.104	Z:	0.045	yaw:	-29.274	yaw rate:	-1.865	Roll:	1.285	Pitch:	0.781	Yaw:	-43.992	Thrust:	100.000
Time:	6.050	Roll Set Point:	-0.057	Pitch Set Point:	-0.111	Yaw Set Point:	0.511	X_WP:	-0.062	Y_WP:	0.128	Y_WP:	0.500	X:	-0.005	Y:	0.104	Z:	0.045	yaw:	-29.252	yaw rate:	-1.582	Roll:	1.286	Pitch:	0.738	Yaw:	-43.601	Thrust:	100.000
Time:	6.078	Roll Set Point:	-0.057	Pitch Set Point:	-0.111	Yaw Set Point:	0.510	X_WP:	-0.062	Y_WP:	0.128	Y_WP:	0.500	X:	-0.005	Y:	0.104	Z:	0.045	yaw:	-29.239	yaw rate:	3.808	Roll:	0.880	Pitch:	1.247	Yaw:	-46.337	Thrust:	100.000
Time:	6.093	Roll Set Point:	-0.057	Pitch Set Point:	-0.111	Yaw Set Point:	0.511	X_WP:	-0.062	Y_WP:	0.128	Y_WP:	0.500	X:	-0.005	Y:	0.104	Z:	0.045	yaw:	-29.268	yaw rate:	-2.965	Roll:	1.287	Pitch:	0.829	Yaw:	-44.493	Thrust:	100.000
Time:	6.109	Roll Set Point:	-0.057	Pitch Set Point:	-0.111	Yaw Set Point:	0.511	X_WP:	-0.062	Y_WP:	0.128	Y_WP:	0.500	X:	-0.005	Y:	0.104	Z:	0.045	yaw:	-29.279	yaw rate:	-1.025	Roll:	1.293	Pitch:	0.771	Yaw:	-44.172	Thrust:	100.000
Time:	6.125	Roll Set Point:	-0.057	Pitch Set Point:	-0.111	Yaw Set Point:	0.511	X_WP:	-0.062	Y_WP:	0.128	Y_WP:	0.500	X:	-0.005	Y:	0.104	Z:	0.045	yaw:	-29.279	yaw rate:	-1.025	Roll:	1.296	Pitch:	0.782	Yaw:	-44.006	Thrust:	100.000
Time:	6.140	Roll Set Point:	-0.057	Pitch Set Point:	-0.111	Yaw Set Point:	0.510	X_WP:	-0.062	Y_WP:	0.128	Y_WP:	0.500	X:	-0.005	Y:	0.104	Z:	0.045	yaw:	-29.249	yaw rate:	1.079	Roll:	1.301	Pitch:	0.755	Yaw:	-43.469	Thrust:	100.000
Time:	6.156	Roll Set Point:	-0.057	Pitch Set Point:	-0.111	Yaw Set Point:	0.510	X_WP:	-0.062	Y_WP:	0.128	Y_WP:	0.500	X:	-0.005	Y:	0.104	Z:	0.045	yaw:	-29.249	yaw rate:	-0.023	Roll:	1.297	Pitch:	0.814	Yaw:	-43.962	Thrust:	100.000
Time:	6.172	Roll Set Point:	-0.057	Pitch Set Point:	-0.111	Yaw Set Point:	0.511	X_WP:	-0.062	Y_WP:	0.128	Y_WP:	0.500	X:	-0.005	Y:	0.104	Z:	0.045	yaw:	-29.256	yaw rate:	-0.701	Roll:	1.305	Pitch:	0.754	Yaw:	-44.092	Thrust:	100.000
Time:	6.187	Roll Set Point:	-0.057	Pitch Set Point:	-0.111	Yaw Set Point:	0.511	X_WP:	-0.062	Y_WP:	0.128	Y_WP:	0.500	X:	-0.005	Y:	0.104	Z:	0.045	yaw:	-29.256	yaw rate:	-0.701	Roll:	1.305	Pitch:	0.783	Yaw:	-43.981	Thrust:	100.000
Time:	6.203	Roll Set Point:	-0.057	Pitch Set Point:	-0.111	Yaw Set Point:	0.511	X_WP:	-0.062	Y_WP:	0.128	Y_WP:	0.500	X:	-0.005	Y:	0.104	Z:	0.045	yaw:	-29.252	yaw rate:	0.418	Roll:	1.315	Pitch:	0.767	Yaw:	-43.891	Thrust:	100.000
Time:	6.218	Roll Set Point:	-0.057	Pitch Set Point:	-0.111	Yaw Set Point:	0.511	X_WP:	-0.062	Y_WP:	0.128	Y_WP:	0.500	X:	-0.005	Y:	0.104	Z:	0.045	yaw:	-29.252	yaw rate:	-0.031	Roll:	1.310	Pitch:	0.789	Yaw:	-43.992	Thrust:	100.000
Time:	6.234	Roll Set Point:	-0.057	Pitch Set Point:	-0.111	Yaw Set Point:	0.511	X_WP:	-0.062	Y_WP:	0.128	Y_WP:	0.500	X:	-0.005	Y:	0.104	Z:	0.045	yaw:	-29.258	yaw rate:	-2.436	Roll:	1.305	Pitch:	0.816	Yaw:	-44.078	Thrust:	100.000
Time:	6.250	Roll Set Point:	-0.057	Pitch Set Point:	-0.111	Yaw Set Point:	0.510	X_WP:	-0.062	Y_WP:	0.128	Y_WP:	0.500	X:	-0.005	Y:	0.104	Z:	0.045	yaw:	-29.249	yaw rate:	0.879	Roll:	1.318	Pitch:	0.746	Yaw:	-43.805	Thrust:	100.000
Time:	6.265	Roll Set Point:	-0.057	Pitch Set Point:	-0.111	Yaw Set Point:	0.510	X_WP:	-0.062	Y_WP:	0.128	Y_WP:	0.500	X:	-0.005	Y:	0.104	Z:	0.045	yaw:	-29.249	yaw rate:	0.879	Roll:	1.318	Pitch:	0.781	Yaw:	-43.965	Thrust:	100.000
Time:	6.281	Roll Set Point:	-0.057	Pitch Set Point:	-0.111	Yaw Set Point:	0.511	X_WP:	-0.062	Y_WP:	0.128	Y_WP:	0.500	X:	-0.005	Y:	0.104	Z:	0.045	yaw:	-29.256	yaw rate:	-0.704	Roll:	1.326	Pitch:	0.774	Yaw:	-44.092	Thrust:	100.000
Time:	6.297	Roll Set Point:	-0.057	Pitch Set Point:	-0.111	Yaw Set Point:	0.510	X_WP:	-0.062	Y_WP:	0.128	Y_WP:	0.500	X:	-0.005	Y:	0.104	Z:	0.045	yaw:	-29.223	yaw rate:	3.365	Roll:	1.316	Pitch:	0.788	Yaw:	-43.364	Thrust:	100.000
Time:	6.312	Roll Set Point:	-0.057	Pitch Set Point:	-0.110	Yaw Set Point:	0.510	X_WP:	-0.062	Y_WP:	0.128	Y_WP:	0.500	X:	-0.005	Y:	0.104	Z:	0.045	yaw:	-29.220	yaw rate:	4.395	Roll:	1.334	Pitch:	0.732	Yaw:	-43.869	Thrust:	100.000
