Time:	2.035	Roll Set Point:	-0.066	Pitch Set Point:	0.052	Yaw Set Point:	2.537	X_WP:	0.100	Y_WP:	0.000	Y_WP:	0.500	X:	-0.001	Y:	0.029	Z:	0.049	yaw:	-145.356	yaw rate:	-14.360	Roll:	1.941	Pitch:	-2.361	Yaw:	-202.956	Thrust:	24.808
Time:	2.050	Roll Set Point:	-0.065	Pitch Set Point:	0.053	Yaw Set Point:	2.534	X_WP:	0.100	Y_WP:	0.000	Y_WP:	0.500	X:	-0.001	Y:	0.029	Z:	0.049	yaw:	-145.180	yaw rate:	17.678	Roll:	1.473	Pitch:	-2.644	Yaw:	-200.269	Thrust:	25.122
Time:	2.061	Roll Set Point:	-0.065	Pitch Set Point:	0.053	Yaw Set Point:	2.533	X_WP:	0.100	Y_WP:	0.000	Y_WP:	0.500	X:	-0.001	Y:	0.029	Z:	0.049	yaw:	-145.157	yaw rate:	-10.623	Roll:	1.795	Pitch:	-2.346	Yaw:	-203.268	Thrust:	26.183
Time:	2.071	Roll Set Point:	-0.065	Pitch Set Point:	0.053	Yaw Set Point:	2.533	X_WP:	0.100	Y_WP:	0.000	Y_WP:	0.500	X:	-0.001	Y:	0.029	Z:	0.049	yaw:	-145.107	yaw rate:	5.084	Roll:	1.916	Pitch:	-2.450	Yaw:	-202.944	Thrust:	26.039
Time:	2.084	Roll Set Point:	-0.065	Pitch Set Point:	0.053	Yaw Set Point:	2.535	X_WP:	0.100	Y_WP:	0.000	Y_WP:	0.500	X:	-0.001	Y:	0.029	Z:	0.049	yaw:	-145.239	yaw rate:	-13.232	Roll:	2.153	Pitch:	-2.239	Yaw:	-208.062	Thrust:	27.740
Time:	2.096	Roll Set Point:	-0.065	Pitch Set Point:	0.053	Yaw Set Point:	2.534	X_WP:	0.100	Y_WP:	0.000	Y_WP:	0.500	X:	-0.001	Y:	0.029	Z:	0.049	yaw:	-145.200	yaw rate:	3.884	Roll:	1.937	Pitch:	-2.423	Yaw:	-204.274	Thrust:	28.024
Time:	2.107	Roll Set Point:	-0.065	Pitch Set Point:	0.053	Yaw Set Point:	2.534	X_WP:	0.100	Y_WP:	0.000	Y_WP:	0.500	X:	-0.001	Y:	0.029	Z:	0.049	yaw:	-145.210	yaw rate:	-1.029	Roll:	1.991	Pitch:	-2.379	Yaw:	-205.202	Thrust:	28.500
Time:	2.118	Roll Set Point:	-0.065	Pitch Set Point:	0.053	Yaw Set Point:	2.534	X_WP:	0.100	Y_WP:	0.000	Y_WP:	0.500	X:	-0.001	Y:	0.029	Z:	0.049	yaw:	-145.174	yaw rate:	3.612	Roll:	1.826	Pitch:	-2.429	Yaw:	-204.052	Thrust:	28.745
Time:	2.129	Roll Set Point:	-0.065	Pitch Set Point:	0.053	Yaw Set Point:	2.534	X_WP:	0.100	Y_WP:	0.000	Y_WP:	0.500	X:	-0.001	Y:	0.029	Z:	0.049	yaw:	-145.170	yaw rate:	0.446	Roll:	1.896	Pitch:	-2.414	Yaw:	-204.900	Thrust:	29.872
Time:	2.140	Roll Set Point:	-0.065	Pitch Set Point:	0.053	Yaw Set Point:	2.535	X_WP:	0.100	Y_WP:	0.000	Y_WP:	0.500	X:	-0.001	Y:	0.029	Z:	0.049	yaw:	-145.243	yaw rate:	-7.313	Roll:	2.318	Pitch:	-2.254	Yaw:	-206.739	Thrust:	30.395
Time:	2.151	Roll Set Point:	-0.065	Pitch Set Point:	0.053	Yaw Set Point:	2.533	X_WP:	0.100	Y_WP:	0.000	Y_WP:	0.500	X:	-0.001	Y:	0.029	Z:	0.049	yaw:	-145.137	yaw rate:	10.567	Roll:	1.507	Pitch:	-2.623	Yaw:	-202.350	Thrust:	30.688
Time:	2.162	Roll Set Point:	-0.065	Pitch Set Point:	0.053	Yaw Set Point:	2.534	X_WP:	0.100	Y_WP:	0.000	Y_WP:	0.500	X:	-0.001	Y:	0.029	Z:	0.049	yaw:	-145.179	yaw rate:	-4.158	Roll:	2.041	Pitch:	-2.255	Yaw:	-205.901	Thrust:	30.892
Time:	2.173	Roll Set Point:	-0.065	Pitch Set Point:	0.053	Yaw Set Point:	2.535	X_WP:	0.100	Y_WP:	0.000	Y_WP:	0.500	X:	-0.001	Y:	0.029	Z:	0.049	yaw:	-145.232	yaw rate:	-5.297	Roll:	2.034	Pitch:	-2.321	Yaw:	-206.205	Thrust:	32.082
Time:	2.185	Roll Set Point:	-0.066	Pitch Set Point:	0.052	Yaw Set Point:	2.538	X_WP:	0.100	Y_WP:	0.000	Y_WP:	0.500	X:	-0.001	Y:	0.029	Z:	0.049	yaw:	-145.417	yaw rate:	-18.532	Roll:	2.590	Pitch:	-2.057	Yaw:	-209.549	Thrust:	33.545
Time:	2.195	Roll Set Point:	-0.065	Pitch Set Point:	0.053	Yaw Set Point:	2.532	X_WP:	0.100	Y_WP:	0.000	Y_WP:	0.500	X:	-0.001	Y:	0.029	Z:	0.049	yaw:	-145.092	yaw rate:	32.536	Roll:	1.093	Pitch:	-2.985	Yaw:	-196.602	Thrust:	31.721
Time:	2.206	Roll Set Point:	-0.065	Pitch Set Point:	0.053	Yaw Set Point:	2.534	X_WP:	0.100	Y_WP:	0.000	Y_WP:	0.500	X:	-0.001	Y:	0.029	Z:	0.049	yaw:	-145.168	yaw rate:	-7.671	Roll:	2.094	Pitch:	-2.327	Yaw:	-206.720	Thrust:	34.138
Time:	2.218	Roll Set Point:	-0.065	Pitch Set Point:	0.053	Yaw Set Point:	2.533	X_WP:	0.100	Y_WP:	0.000	Y_WP:	0.500	X:	-0.001	Y:	0.029	Z:	0.049	yaw:	-145.118	yaw rate:	5.027	Roll:	1.813	Pitch:	-2.413	Yaw:	-203.805	Thrust:	34.458
Time:	2.228	Roll Set Point:	-0.065	Pitch Set Point:	0.053	Yaw Set Point:	2.534	X_WP:	0.100	Y_WP:	0.000	Y_WP:	0.500	X:	-0.001	Y:	0.029	Z:	0.049	yaw:	-145.166	yaw rate:	-4.745	Roll:	2.020	Pitch:	-2.382	Yaw:	-205.975	Thrust:	34.732
Time:	2.239	Roll Set Point:	-0.065	Pitch Set Point:	0.053	Yaw Set Point:	2.533	X_WP:	0.100	Y_WP:	0.000	Y_WP:	0.500	X:	-0.001	Y:	0.029	Z:	0.049	yaw:	-145.113	yaw rate:	5.243	Roll:	1.955	Pitch:	-2.510	Yaw:	-203.578	Thrust:	35.666
Time:	2.251	Roll Set Point:	-0.065	Pitch Set Point:	0.053	Yaw Set Point:	2.534	X_WP:	0.100	Y_WP:	0.000	Y_WP:	0.500	X:	-0.001	Y:	0.029	Z:	0.049	yaw:	-145.194	yaw rate:	-8.075	Roll:	2.066	Pitch:	-2.276	Yaw:	-206.894	Thrust:	37.182
Time:	2.262	Roll Set Point:	-0.065	Pitch Set Point:	0.053	Yaw Set Point:	2.532	X_WP:	0.100	Y_WP:	0.000	Y_WP:	0.500	X:	-0.001	Y:	0.029	Z:	0.049	yaw:	-145.081	yaw rate:	11.250	Roll:	1.718	Pitch:	-2.553	Yaw:	-202.107	Thrust:	36.393
Time:	2.273	Roll Set Point:	-0.065	Pitch Set Point:	0.053	Yaw Set Point:	2.534	X_WP:	0.100	Y_WP:	0.000	Y_WP:	0.500	X:	-0.001	Y:	0.029	Z:	0.049	yaw:	-145.186	yaw rate:	-10.428	Roll:	2.218	Pitch:	-2.295	Yaw:	-207.398	Thrust:	37.709
Time:	2.284	Roll Set Point:	-0.065	Pitch Set Point:	0.053	Yaw Set Point:	2.533	X_WP:	0.100	Y_WP:	0.000	Y_WP:	0.500	X:	-0.001	Y:	0.029	Z:	0.049	yaw:	-145.122	yaw rate:	6.354	Roll:	1.844	Pitch:	-2.542	Yaw:	-203.168	Thrust:	37.228
Time:	2.294	Roll Set Point:	-0.065	Pitch Set Point:	0.053	Yaw Set Point:	2.534	X_WP:	0.100	Y_WP:	0.000	Y_WP:	0.500	X:	-0.001	Y:	0.029	Z:	0.049	yaw:	-145.197	yaw rate:	-7.507	Roll:	2.100	Pitch:	-2.239	Yaw:	-206.707	Thrust:	38.020
Time:	2.305	Roll Set Point:	-0.065	Pitch Set Point:	0.053	Yaw Set Point:	2.532	X_WP:	0.100	Y_WP:	0.000	Y_WP:	0.500	X:	-0.001	Y:	0.029	Z:	0.049	yaw:	-145.087	yaw rate:	11.013	Roll:	1.686	Pitch:	-2.563	Yaw:	-202.171	Thrust:	38.892
Time:	2.321	Roll Set Point:	-0.065	Pitch Set Point:	0.053	Yaw Set Point:	2.533	X_WP:	0.100	Y_WP:	0.000	Y_WP:	0.500	X:	-0.001	Y:	0.029	Z:	0.049	yaw:	-145.128	yaw rate:	-4.085	Roll:	2.115	Pitch:	-2.468	Yaw:	-206.283	Thrust:	44.058
Time:	2.331	Roll Set Point:	-0.066	Pitch Set Point:	0.052	Yaw Set Point:	2.538	X_WP:	0.100	Y_WP:	0.000	Y_WP:	0.500	X:	-0.001	Y:	0.029	Z:	0.049	yaw:	-145.393	yaw rate:	-18.401	Roll:	2.734	Pitch:	-1.914	Yaw:	-211.692	Thrust:	40.858
Time:	2.342	Roll Set Point:	-0.065	Pitch Set Point:	0.053	Yaw Set Point:	2.533	X_WP:	0.100	Y_WP:	0.000	Y_WP:	0.500	X:	-0.001	Y:	0.029	Z:	0.049	yaw:	-145.118	yaw rate:	27.406	Roll:	1.116	Pitch:	-2.950	Yaw:	-198.324	Thrust:	40.340
Time:	2.353	Roll Set Point:	-0.065	Pitch Set Point:	0.053	Yaw Set Point:	2.533	X_WP:	0.100	Y_WP:	0.000	Y_WP:	0.500	X:	-0.001	Y:	0.029	Z:	0.049	yaw:	-145.136	yaw rate:	-1.724	Roll:	2.039	Pitch:	-2.314	Yaw:	-205.268	Thrust:	41.301
Time:	2.364	Roll Set Point:	-0.065	Pitch Set Point:	0.053	Yaw Set Point:	2.534	X_WP:	0.100	Y_WP:	0.000	Y_WP:	0.500	X:	-0.001	Y:	0.029	Z:	0.049	yaw:	-145.173	yaw rate:	-3.729	Roll:	2.064	Pitch:	-2.452	Yaw:	-205.791	Thrust:	42.326
Time:	2.374	Roll Set Point:	-0.065	Pitch Set Point:	0.053	Yaw Set Point:	2.532	X_WP:	0.100	Y_WP:	0.000	Y_WP:	0.500	X:	-0.001	Y:	0.029	Z:	0.049	yaw:	-145.075	yaw rate:	9.750	Roll:	1.741	Pitch:	-2.621	Yaw:	-202.246	Thrust:	41.846
Time:	2.385	Roll Set Point:	-0.065	Pitch Set Point:	0.053	Yaw Set Point:	2.533	X_WP:	0.100	Y_WP:	0.000	Y_WP:	0.500	X:	-0.001	Y:	0.029	Z:	0.049	yaw:	-145.104	yaw rate:	-2.818	Roll:	2.040	Pitch:	-2.315	Yaw:	-205.481	Thrust:	42.225
Time:	2.396	Roll Set Point:	-0.065	Pitch Set Point:	0.053	Yaw Set Point:	2.535	X_WP:	0.100	Y_WP:	0.000	Y_WP:	0.500	X:	-0.001	Y:	0.029	Z:	0.049	yaw:	-145.232	yaw rate:	-12.852	Roll:	2.297	Pitch:	-2.264	Yaw:	-208.084	Thrust:	44.228
Time:	2.407	Roll Set Point:	-0.065	Pitch Set Point:	0.053	Yaw Set Point:	2.533	X_WP:	0.100	Y_WP:	0.000	Y_WP:	0.500	X:	-0.001	Y:	0.029	Z:	0.049	yaw:	-145.127	yaw rate:	10.540	Roll:	1.760	Pitch:	-2.558	Yaw:	-202.339	Thrust:	44.230
Time:	2.418	Roll Set Point:	-0.065	Pitch Set Point:	0.053	Yaw Set Point:	2.535	X_WP:	0.100	Y_WP:	0.000	Y_WP:	0.500	X:	-0.001	Y:	0.029	Z:	0.049	yaw:	-145.266	yaw rate:	-13.904	Roll:	2.305	Pitch:	-2.268	Yaw:	-208.389	Thrust:	44.515
Time:	2.428	Roll Set Point:	-0.065	Pitch Set Point:	0.053	Yaw Set Point:	2.534	X_WP:	0.100	Y_WP:	0.000	Y_WP:	0.500	X:	-0.001	Y:	0.029	Z:	0.049	yaw:	-145.164	yaw rate:	10.218	Roll:	1.815	Pitch:	-2.621	Yaw:	-202.354	Thrust:	45.256
Time:	2.439	Roll Set Point:	-0.065	Pitch Set Point:	0.053	Yaw Set Point:	2.534	X_WP:	0.100	Y_WP:	0.000	Y_WP:	0.500	X:	-0.001	Y:	0.029	Z:	0.049	yaw:	-145.180	yaw rate:	-1.654	Roll:	2.017	Pitch:	-2.416	Yaw:	-205.308	Thrust:	46.274
Time:	2.451	Roll Set Point:	-0.065	Pitch Set Point:	0.053	Yaw Set Point:	2.536	X_WP:	0.100	Y_WP:	0.000	Y_WP:	0.500	X:	-0.001	Y:	0.029	Z:	0.049	yaw:	-145.292	yaw rate:	-11.222	Roll:	2.409	Pitch:	-2.223	Yaw:	-207.736	Thrust:	47.456
Time:	2.462	Roll Set Point:	-0.065	Pitch Set Point:	0.053	Yaw Set Point:	2.533	X_WP:	0.100	Y_WP:	0.000	Y_WP:	0.500	X:	-0.001	Y:	0.029	Z:	0.049	yaw:	-145.133	yaw rate:	15.892	Roll:	1.489	Pitch:	-2.722	Yaw:	-201.344	Thrust:	47.843
Time:	2.472	Roll Set Point:	-0.065	Pitch Set Point:	0.053	Yaw Set Point:	2.534	X_WP:	0.100	Y_WP:	0.000	Y_WP:	0.500	X:	-0.001	Y:	0.029	Z:	0.049	yaw:	-145.208	yaw rate:	-7.457	Roll:	2.111	Pitch:	-2.337	Yaw:	-206.709	Thrust:	47.085
Time:	2.484	Roll Set Point:	-0.065	Pitch Set Point:	0.052	Yaw Set Point:	2.536	X_WP:	0.100	Y_WP:	0.000	Y_WP:	0.500	X:	-0.001	Y:	0.029	Z:	0.049	yaw:	-145.285	yaw rate:	-7.730	Roll:	2.169	Pitch:	-2.344	Yaw:	-206.919	Thrust:	49.856
Time:	2.495	Roll Set Point:	-0.065	Pitch Set Point:	0.053	Yaw Set Point:	2.534	X_WP:	0.100	Y_WP:	0.000	Y_WP:	0.500	X:	-0.001	Y:	0.029	Z:	0.049	yaw:	-145.176	yaw rate:	10.953	Roll:	1.772	Pitch:	-2.634	Yaw:	-202.312	Thrust:	49.146
Time:	2.505	Roll Set Point:	-0.065	Pitch Set Point:	0.053	Yaw Set Point:	2.534	X_WP:	0.100	Y_WP:	0.000	Y_WP:	0.500	X:	-0.001	Y:	0.029	Z:	0.049	yaw:	-145.188	yaw rate:	-1.254	Roll:	2.077	Pitch:	-2.421	Yaw:	-205.054	Thrust:	47.681
Time:	2.517	Roll Set Point:	-0.065	Pitch Set Point:	0.053	Yaw Set Point:	2.533	X_WP:	0.100	Y_WP:	0.000	Y_WP:	0.500	X:	-0.001	Y:	0.029	Z:	0.049	yaw:	-145.152	yaw rate:	3.587	Roll:	2.177	Pitch:	-2.443	Yaw:	-204.303	Thrust:	51.578
Time:	2.528	Roll Set Point:	-0.065	Pitch Set Point:	0.053	Yaw Set Point:	2.535	X_WP:	0.100	Y_WP:	0.000	Y_WP:	0.500	X:	-0.001	Y:	0.029	Z:	0.049	yaw:	-145.239	yaw rate:	-8.696	Roll:	1.922	Pitch:	-2.417	Yaw:	-207.061	Thrust:	51.158
Time:	2.539	Roll Set Point:	-0.065	Pitch Set Point:	0.053	Yaw Set Point:	2.533	X_WP:	0.100	Y_WP:	0.000	Y_WP:	0.500	X:	-0.001	Y:	0.029	Z:	0.049	yaw:	-145.152	yaw rate:	8.769	Roll:	1.829	Pitch:	-2.616	Yaw:	-202.794	Thrust:	51.624
Time:	2.551	Roll Set Point:	-0.066	Pitch Set Point:	0.052	Yaw Set Point:	2.537	X_WP:	0.100	Y_WP:	0.000	Y_WP:	0.500	X:	-0.001	Y:	0.029	Z:	0.049	yaw:	-145.361	yaw rate:	-20.965	Roll:	2.687	Pitch:	-2.128	Yaw:	-209.929	Thrust:	55.358
Time:	2.562	Roll Set Point:	-0.065	Pitch Set Point:	0.053	Yaw Set Point:	2.533	X_WP:	0.100	Y_WP:	0.000	Y_WP:	0.500	X:	-0.001	Y:	0.029	Z:	0.049	yaw:	-145.132	yaw rate:	22.938	Roll:	1.224	Pitch:	-2.874	Yaw:	-199.741	Thrust:	53.393
Time:	2.573	Roll Set Point:	-0.065	Pitch Set Point:	0.053	Yaw Set Point:	2.532	X_WP:	0.100	Y_WP:	0.000	Y_WP:	0.500	X:	-0.001	Y:	0.029	Z:	0.049	yaw:	-145.087	yaw rate:	4.464	Roll:	1.963	Pitch:	-2.506	Yaw:	-203.648	Thrust:	52.708
Time:	2.585	Roll Set Point:	-0.065	Pitch Set Point:	0.053	Yaw Set Point:	2.534	X_WP:	0.100	Y_WP:	0.000	Y_WP:	0.500	X:	-0.001	Y:	0.029	Z:	0.049	yaw:	-145.189	yaw rate:	-10.141	Roll:	2.244	Pitch:	-2.388	Yaw:	-207.336	Thrust:	57.021
Time:	2.596	Roll Set Point:	-0.065	Pitch Set Point:	0.053	Yaw Set Point:	2.533	X_WP:	0.100	Y_WP:	0.000	Y_WP:	0.500	X:	-0.001	Y:	0.029	Z:	0.049	yaw:	-145.159	yaw rate:	3.000	Roll:	1.968	Pitch:	-2.522	Yaw:	-204.176	Thrust:	54.644
Time:	2.606	Roll Set Point:	-0.065	Pitch Set Point:	0.053	Yaw Set Point:	2.534	X_WP:	0.100	Y_WP:	0.000	Y_WP:	0.500	X:	-0.001	Y:	0.029	Z:	0.049	yaw:	-145.181	yaw rate:	-2.237	Roll:	2.027	Pitch:	-2.436	Yaw:	-205.301	Thrust:	52.437
Time:	2.617	Roll Set Point:	-0.066	Pitch Set Point:	0.052	Yaw Set Point:	2.537	X_WP:	0.100	Y_WP:	0.000	Y_WP:	0.500	X:	-0.001	Y:	0.029	Z:	0.049	yaw:	-145.351	yaw rate:	-16.946	Roll:	2.644	Pitch:	-2.139	Yaw:	-209.173	Thrust:	56.543
Time:	2.628	Roll Set Point:	-0.065	Pitch Set Point:	0.053	Yaw Set Point:	2.533	X_WP:	0.100	Y_WP:	0.000	Y_WP:	0.500	X:	-0.001	Y:	0.029	Z:	0.049	yaw:	-145.142	yaw rate:	20.900	Roll:	1.349	Pitch:	-2.899	Yaw:	-199.559	Thrust:	54.334
Time:	2.639	Roll Set Point:	-0.065	Pitch Set Point:	0.053	Yaw Set Point:	2.534	X_WP:	0.100	Y_WP:	0.000	Y_WP:	0.500	X:	-0.001	Y:	0.029	Z:	0.049	yaw:	-145.200	yaw rate:	-5.883	Roll:	2.186	Pitch:	-2.398	Yaw:	-206.341	Thrust:	57.002
Time:	2.651	Roll Set Point:	-0.065	Pitch Set Point:	0.053	Yaw Set Point:	2.535	X_WP:	0.100	Y_WP:	0.000	Y_WP:	0.500	X:	-0.001	Y:	0.029	Z:	0.049	yaw:	-145.229	yaw rate:	-2.879	Roll:	2.119	Pitch:	-2.453	Yaw:	-205.815	Thrust:	60.743
Time:	2.662	Roll Set Point:	-0.065	Pitch Set Point:	0.053	Yaw Set Point:	2.533	X_WP:	0.100	Y_WP:	0.000	Y_WP:	0.500	X:	-0.001	Y:	0.029	Z:	0.049	yaw:	-145.130	yaw rate:	9.904	Roll:	1.754	Pitch:	-2.712	Yaw:	-202.495	Thrust:	58.285
Time:	2.672	Roll Set Point:	-0.065	Pitch Set Point:	0.053	Yaw Set Point:	2.534	X_WP:	0.100	Y_WP:	0.000	Y_WP:	0.500	X:	-0.001	Y:	0.029	Z:	0.049	yaw:	-145.182	yaw rate:	-5.172	Roll:	2.226	Pitch:	-2.364	Yaw:	-206.088	Thrust:	56.555
Time:	2.687	Roll Set Point:	-0.065	Pitch Set Point:	0.053	Yaw Set Point:	2.533	X_WP:	0.100	Y_WP:	0.000	Y_WP:	0.500	X:	-0.001	Y:	0.029	Z:	0.049	yaw:	-145.153	yaw rate:	2.943	Roll:	1.949	Pitch:	-2.550	Yaw:	-205.051	Thrust:	68.793
Time:	2.697	Roll Set Point:	-0.065	Pitch Set Point:	0.053	Yaw Set Point:	2.533	X_WP:	0.100	Y_WP:	0.000	Y_WP:	0.500	X:	-0.001	Y:	0.029	Z:	0.049	yaw:	-145.149	yaw rate:	3.476	Roll:	2.056	Pitch:	-2.525	Yaw:	-204.683	Thrust:	60.058
Time:	2.708	Roll Set Point:	-0.065	Pitch Set Point:	0.053	Yaw Set Point:	2.534	X_WP:	0.100	Y_WP:	0.000	Y_WP:	0.500	X:	-0.001	Y:	0.029	Z:	0.049	yaw:	-145.169	yaw rate:	-2.009	Roll:	2.072	Pitch:	-2.485	Yaw:	-205.375	Thrust:	60.683
Time:	2.719	Roll Set Point:	-0.065	Pitch Set Point:	0.053	Yaw Set Point:	2.533	X_WP:	0.100	Y_WP:	0.000	Y_WP:	0.500	X:	-0.001	Y:	0.029	Z:	0.049	yaw:	-145.125	yaw rate:	4.356	Roll:	1.989	Pitch:	-2.588	Yaw:	-203.659	Thrust:	59.573
Time:	2.729	Roll Set Point:	-0.065	Pitch Set Point:	0.053	Yaw Set Point:	2.534	X_WP:	0.100	Y_WP:	0.000	Y_WP:	0.500	X:	-0.001	Y:	0.029	Z:	0.049	yaw:	-145.165	yaw rate:	-3.922	Roll:	2.102	Pitch:	-2.397	Yaw:	-205.769	Thrust:	60.053
Time:	2.740	Roll Set Point:	-0.065	Pitch Set Point:	0.053	Yaw Set Point:	2.533	X_WP:	0.100	Y_WP:	0.000	Y_WP:	0.500	X:	-0.001	Y:	0.029	Z:	0.049	yaw:	-145.132	yaw rate:	3.309	Roll:	2.003	Pitch:	-2.557	Yaw:	-204.062	Thrust:	62.523
Time:	2.752	Roll Set Point:	-0.065	Pitch Set Point:	0.053	Yaw Set Point:	2.532	X_WP:	0.100	Y_WP:	0.000	Y_WP:	0.500	X:	-0.001	Y:	0.029	Z:	0.049	yaw:	-145.058	yaw rate:	7.302	Roll:	1.758	Pitch:	-2.613	Yaw:	-203.196	Thrust:	64.573
Time:	2.763	Roll Set Point:	-0.065	Pitch Set Point:	0.053	Yaw Set Point:	2.533	X_WP:	0.100	Y_WP:	0.000	Y_WP:	0.500	X:	-0.001	Y:	0.029	Z:	0.049	yaw:	-145.128	yaw rate:	-6.954	Roll:	2.395	Pitch:	-2.390	Yaw:	-206.494	Thrust:	63.661
Time:	2.773	Roll Set Point:	-0.065	Pitch Set Point:	0.053	Yaw Set Point:	2.532	X_WP:	0.100	Y_WP:	0.000	Y_WP:	0.500	X:	-0.001	Y:	0.029	Z:	0.049	yaw:	-145.060	yaw rate:	6.834	Roll:	1.792	Pitch:	-2.598	Yaw:	-202.948	Thrust:	62.238
Time:	2.784	Roll Set Point:	-0.065	Pitch Set Point:	0.053	Yaw Set Point:	2.533	X_WP:	0.100	Y_WP:	0.000	Y_WP:	0.500	X:	-0.001	Y:	0.029	Z:	0.049	yaw:	-145.130	yaw rate:	-7.054	Roll:	2.181	Pitch:	-2.430	Yaw:	-206.522	Thrust:	64.881
Time:	2.795	Roll Set Point:	-0.065	Pitch Set Point:	0.053	Yaw Set Point:	2.533	X_WP:	0.100	Y_WP:	0.000	Y_WP:	0.500	X:	-0.001	Y:	0.029	Z:	0.049	yaw:	-145.141	yaw rate:	-1.073	Roll:	2.023	Pitch:	-2.558	Yaw:	-204.992	Thrust:	63.043
Time:	2.805	Roll Set Point:	-0.066	Pitch Set Point:	0.052	Yaw Set Point:	2.537	X_WP:	0.100	Y_WP:	0.000	Y_WP:	0.500	X:	-0.001	Y:	0.029	Z:	0.049	yaw:	-145.385	yaw rate:	-24.387	Roll:	2.947	Pitch:	-1.971	Yaw:	-211.368	Thrust:	62.922
Time:	2.817	Roll Set Point:	-0.065	Pitch Set Point:	0.053	Yaw Set Point:	2.533	X_WP:	0.100	Y_WP:	0.000	Y_WP:	0.500	X:	-0.001	Y:	0.029	Z:	0.049	yaw:	-145.149	yaw rate:	23.560	Roll:	1.406	Pitch:	-2.936	Yaw:	-199.962	Thrust:	69.930
Time:	2.827	Roll Set Point:	-0.065	Pitch Set Point:	0.053	Yaw Set Point:	2.534	X_WP:	0.100	Y_WP:	0.000	Y_WP:	0.500	X:	-0.001	Y:	0.029	Z:	0.049	yaw:	-145.172	yaw rate:	-2.306	Roll:	2.064	Pitch:	-2.530	Yaw:	-205.378	Thrust:	65.238
Time:	2.838	Roll Set Point:	-0.065	Pitch Set Point:	0.053	Yaw Set Point:	2.535	X_WP:	0.100	Y_WP:	0.000	Y_WP:	0.500	X:	-0.001	Y:	0.029	Z:	0.049	yaw:	-145.238	yaw rate:	-6.583	Roll:	2.212	Pitch:	-2.415	Yaw:	-206.559	Thrust:	67.887
Time:	2.850	Roll Set Point:	-0.065	Pitch Set Point:	0.053	Yaw Set Point:	2.533	X_WP:	0.100	Y_WP:	0.000	Y_WP:	0.500	X:	-0.001	Y:	0.029	Z:	0.049	yaw:	-145.123	yaw rate:	11.474	Roll:	1.730	Pitch:	-2.717	Yaw:	-202.348	Thrust:	70.427
Time:	2.861	Roll Set Point:	-0.065	Pitch Set Point:	0.053	Yaw Set Point:	2.533	X_WP:	0.100	Y_WP:	0.000	Y_WP:	0.500	X:	-0.001	Y:	0.029	Z:	0.049	yaw:	-145.147	yaw rate:	-2.395	Roll:	2.203	Pitch:	-2.494	Yaw:	-205.514	Thrust:	70.900
Time:	2.871	Roll Set Point:	-0.065	Pitch Set Point:	0.053	Yaw Set Point:	2.533	X_WP:	0.100	Y_WP:	0.000	Y_WP:	0.500	X:	-0.001	Y:	0.029	Z:	0.049	yaw:	-145.148	yaw rate:	-0.073	Roll:	2.074	Pitch:	-2.559	Yaw:	-204.690	Thrust:	65.485
Time:	2.887	Roll Set Point:	-0.065	Pitch Set Point:	0.053	Yaw Set Point:	2.533	X_WP:	0.100	Y_WP:	0.000	Y_WP:	0.500	X:	-0.001	Y:	0.029	Z:	0.049	yaw:	-145.139	yaw rate:	0.916	Roll:	2.056	Pitch:	-2.603	Yaw:	-205.505	Thrust:	84.749
Time:	2.898	Roll Set Point:	-0.066	Pitch Set Point:	0.053	Yaw Set Point:	2.536	X_WP:	0.100	Y_WP:	0.000	Y_WP:	0.500	X:	-0.001	Y:	0.029	Z:	0.049	yaw:	-145.327	yaw rate:	-18.823	Roll:	2.699	Pitch:	-2.204	Yaw:	-209.501	Thrust:	75.407
Time:	2.908	Roll Set Point:	-0.065	Pitch Set Point:	0.053	Yaw Set Point:	2.534	X_WP:	0.100	Y_WP:	0.000	Y_WP:	0.500	X:	-0.001	Y:	0.029	Z:	0.049	yaw:	-145.182	yaw rate:	14.531	Roll:	1.395	Pitch:	-2.824	Yaw:	-200.924	Thrust:	66.260
Time:	2.920	Roll Set Point:	-0.065	Pitch Set Point:	0.053	Yaw Set Point:	2.535	X_WP:	0.100	Y_WP:	0.000	Y_WP:	0.500	X:	-0.001	Y:	0.029	Z:	0.049	yaw:	-145.228	yaw rate:	-4.571	Roll:	2.172	Pitch:	-2.478	Yaw:	-206.120	Thrust:	74.059
Time:	2.931	Roll Set Point:	-0.065	Pitch Set Point:	0.053	Yaw Set Point:	2.535	X_WP:	0.100	Y_WP:	0.000	Y_WP:	0.500	X:	-0.001	Y:	0.029	Z:	0.049	yaw:	-145.222	yaw rate:	0.585	Roll:	2.118	Pitch:	-2.565	Yaw:	-204.855	Thrust:	73.137
Time:	2.941	Roll Set Point:	-0.065	Pitch Set Point:	0.053	Yaw Set Point:	2.533	X_WP:	0.100	Y_WP:	0.000	Y_WP:	0.500	X:	-0.001	Y:	0.029	Z:	0.049	yaw:	-145.106	yaw rate:	11.522	Roll:	1.739	Pitch:	-2.701	Yaw:	-201.604	Thrust:	68.415
Time:	2.952	Roll Set Point:	-0.065	Pitch Set Point:	0.053	Yaw Set Point:	2.534	X_WP:	0.100	Y_WP:	0.000	Y_WP:	0.500	X:	-0.001	Y:	0.029	Z:	0.049	yaw:	-145.191	yaw rate:	-8.422	Roll:	2.329	Pitch:	-2.459	Yaw:	-206.944	Thrust:	76.343
Time:	2.963	Roll Set Point:	-0.065	Pitch Set Point:	0.053	Yaw Set Point:	2.534	X_WP:	0.100	Y_WP:	0.000	Y_WP:	0.500	X:	-0.001	Y:	0.029	Z:	0.049	yaw:	-145.185	yaw rate:	0.523	Roll:	2.082	Pitch:	-2.575	Yaw:	-204.797	Thrust:	74.320
Time:	2.974	Roll Set Point:	-0.065	Pitch Set Point:	0.053	Yaw Set Point:	2.534	X_WP:	0.100	Y_WP:	0.000	Y_WP:	0.500	X:	-0.001	Y:	0.029	Z:	0.049	yaw:	-145.204	yaw rate:	-1.851	Roll:	2.100	Pitch:	-2.534	Yaw:	-205.388	Thrust:	75.003
Time:	2.986	Roll Set Point:	-0.065	Pitch Set Point:	0.053	Yaw Set Point:	2.534	X_WP:	0.100	Y_WP:	0.000	Y_WP:	0.500	X:	-0.001	Y:	0.029	Z:	0.049	yaw:	-145.189	yaw rate:	1.470	Roll:	2.059	Pitch:	-2.582	Yaw:	-204.701	Thrust:	75.682
Time:	2.997	Roll Set Point:	-0.065	Pitch Set Point:	0.053	Yaw Set Point:	2.535	X_WP:	0.100	Y_WP:	0.000	Y_WP:	0.500	X:	-0.001	Y:	0.029	Z:	0.049	yaw:	-145.217	yaw rate:	-6.970	Roll:	2.161	Pitch:	-2.500	Yaw:	-205.575	Thrust:	76.360
Time:	3.008	Roll Set Point:	-0.065	Pitch Set Point:	0.053	Yaw Set Point:	2.533	X_WP:	0.100	Y_WP:	0.000	Y_WP:	0.500	X:	-0.001	Y:	0.029	Z:	0.049	yaw:	-145.145	yaw rate:	7.277	Roll:	1.936	Pitch:	-2.653	Yaw:	-203.139	Thrust:	76.821
Time:	3.019	Roll Set Point:	-0.065	Pitch Set Point:	0.053	Yaw Set Point:	2.534	X_WP:	0.100	Y_WP:	0.000	Y_WP:	0.500	X:	-0.001	Y:	0.029	Z:	0.049	yaw:	-145.172	yaw rate:	-2.737	Roll:	2.126	Pitch:	-2.571	Yaw:	-205.634	Thrust:	79.900
Time:	3.030	Roll Set Point:	-0.065	Pitch Set Point:	0.053	Yaw Set Point:	2.534	X_WP:	0.100	Y_WP:	0.000	Y_WP:	0.500	X:	-0.001	Y:	0.029	Z:	0.049	yaw:	-145.178	yaw rate:	-0.584	Roll:	2.087	Pitch:	-2.570	Yaw:	-205.012	Thrust:	76.844
Time:	3.040	Roll Set Point:	-0.065	Pitch Set Point:	0.053	Yaw Set Point:	2.534	X_WP:	0.100	Y_WP:	0.000	Y_WP:	0.500	X:	-0.001	Y:	0.029	Z:	0.049	yaw:	-145.178	yaw rate:	-0.584	Roll:	2.079	Pitch:	-2.552	Yaw:	-204.713	Thrust:	73.657
Time:	3.052	Roll Set Point:	-0.065	Pitch Set Point:	0.053	Yaw Set Point:	2.533	X_WP:	0.100	Y_WP:	0.000	Y_WP:	0.500	X:	-0.001	Y:	0.029	Z:	0.049	yaw:	-145.126	yaw rate:	21.026	Roll:	2.000	Pitch:	-2.583	Yaw:	-203.762	Thrust:	81.396
Time:	3.063	Roll Set Point:	-0.065	Pitch Set Point:	0.053	Yaw Set Point:	2.533	X_WP:	0.100	Y_WP:	0.000	Y_WP:	0.500	X:	-0.001	Y:	0.029	Z:	0.049	yaw:	-145.129	yaw rate:	-0.322	Roll:	2.108	Pitch:	-2.563	Yaw:	-204.920	Thrust:	77.317
Time:	3.073	Roll Set Point:	-0.065	Pitch Set Point:	0.053	Yaw Set Point:	2.533	X_WP:	0.100	Y_WP:	0.000	Y_WP:	0.500	X:	-0.001	Y:	0.029	Z:	0.049	yaw:	-145.129	yaw rate:	-0.322	Roll:	2.090	Pitch:	-2.568	Yaw:	-204.644	Thrust:	77.788
Time:	3.084	Roll Set Point:	-0.065	Pitch Set Point:	0.053	Yaw Set Point:	2.533	X_WP:	0.100	Y_WP:	0.000	Y_WP:	0.500	X:	-0.001	Y:	0.029	Z:	0.049	yaw:	-145.126	yaw rate:	0.256	Roll:	2.088	Pitch:	-2.646	Yaw:	-204.782	Thrust:	81.227
Time:	3.094	Roll Set Point:	-0.065	Pitch Set Point:	0.053	Yaw Set Point:	2.533	X_WP:	0.100	Y_WP:	0.000	Y_WP:	0.500	X:	-0.001	Y:	0.029	Z:	0.049	yaw:	-145.122	yaw rate:	23.158	Roll:	2.122	Pitch:	-2.588	Yaw:	-204.620	Thrust:	78.813
Time:	3.105	Roll Set Point:	-0.065	Pitch Set Point:	0.053	Yaw Set Point:	2.534	X_WP:	0.100	Y_WP:	0.000	Y_WP:	0.500	X:	-0.001	Y:	0.029	Z:	0.049	yaw:	-145.166	yaw rate:	-4.472	Roll:	2.206	Pitch:	-2.512	Yaw:	-205.958	Thrust:	82.165
Time:	3.117	Roll Set Point:	-0.065	Pitch Set Point:	0.053	Yaw Set Point:	2.534	X_WP:	0.100	Y_WP:	0.000	Y_WP:	0.500	X:	-0.001	Y:	0.029	Z:	0.049	yaw:	-145.194	yaw rate:	-2.712	Roll:	2.097	Pitch:	-2.554	Yaw:	-205.730	Thrust:	88.036
Time:	3.128	Roll Set Point:	-0.065	Pitch Set Point:	0.053	Yaw Set Point:	2.533	X_WP:	0.100	Y_WP:	0.000	Y_WP:	0.500	X:	-0.001	Y:	0.029	Z:	0.049	yaw:	-145.151	yaw rate:	4.219	Roll:	2.044	Pitch:	-2.670	Yaw:	-203.743	Thrust:	80.963
Time:	3.138	Roll Set Point:	-0.065	Pitch Set Point:	0.053	Yaw Set Point:	2.534	X_WP:	0.100	Y_WP:	0.000	Y_WP:	0.500	X:	-0.001	Y:	0.029	Z:	0.049	yaw:	-145.216	yaw rate:	-6.449	Roll:	2.318	Pitch:	-2.409	Yaw:	-206.449	Thrust:	78.610
Time:	3.150	Roll Set Point:	-0.065	Pitch Set Point:	0.053	Yaw Set Point:	2.534	X_WP:	0.100	Y_WP:	0.000	Y_WP:	0.500	X:	-0.001	Y:	0.029	Z:	0.049	yaw:	-145.206	yaw rate:	0.995	Roll:	2.058	Pitch:	-2.628	Yaw:	-205.050	Thrust:	89.954
Time:	3.161	Roll Set Point:	-0.065	Pitch Set Point:	0.053	Yaw Set Point:	2.534	X_WP:	0.100	Y_WP:	0.000	Y_WP:	0.500	X:	-0.001	Y:	0.029	Z:	0.049	yaw:	-145.162	yaw rate:	4.437	Roll:	2.084	Pitch:	-2.717	Yaw:	-203.836	Thrust:	87.793
Time:	3.172	Roll Set Point:	-0.065	Pitch Set Point:	0.053	Yaw Set Point:	2.533	X_WP:	0.100	Y_WP:	0.000	Y_WP:	0.500	X:	-0.001	Y:	0.029	Z:	0.049	yaw:	-145.148	yaw rate:	1.402	Roll:	2.026	Pitch:	-2.630	Yaw:	-204.538	Thrust:	85.600
Time:	3.184	Roll Set Point:	-0.065	Pitch Set Point:	0.053	Yaw Set Point:	2.534	X_WP:	0.100	Y_WP:	0.000	Y_WP:	0.500	X:	-0.001	Y:	0.029	Z:	0.049	yaw:	-145.186	yaw rate:	-3.883	Roll:	2.236	Pitch:	-2.525	Yaw:	-205.910	Thrust:	89.239
Time:	3.195	Roll Set Point:	-0.065	Pitch Set Point:	0.053	Yaw Set Point:	2.533	X_WP:	0.100	Y_WP:	0.000	Y_WP:	0.500	X:	-0.001	Y:	0.029	Z:	0.049	yaw:	-145.106	yaw rate:	8.016	Roll:	1.922	Pitch:	-2.673	Yaw:	-202.911	Thrust:	86.645
Time:	3.205	Roll Set Point:	-0.065	Pitch Set Point:	0.053	Yaw Set Point:	2.534	X_WP:	0.100	Y_WP:	0.000	Y_WP:	0.500	X:	-0.001	Y:	0.029	Z:	0.049	yaw:	-145.213	yaw rate:	-10.713	Roll:	2.409	Pitch:	-2.448	Yaw:	-207.559	Thrust:	82.181
Time:	3.217	Roll Set Point:	-0.065	Pitch Set Point:	0.053	Yaw Set Point:	2.532	X_WP:	0.100	Y_WP:	0.000	Y_WP:	0.500	X:	-0.001	Y:	0.029	Z:	0.049	yaw:	-145.101	yaw rate:	11.245	Roll:	1.888	Pitch:	-2.745	Yaw:	-202.573	Thrust:	93.759
Time:	3.229	Roll Set Point:	-0.065	Pitch Set Point:	0.053	Yaw Set Point:	2.533	X_WP:	0.100	Y_WP:	0.000	Y_WP:	0.500	X:	-0.001	Y:	0.029	Z:	0.049	yaw:	-145.134	yaw rate:	-3.281	Roll:	2.279	Pitch:	-2.589	Yaw:	-205.630	Thrust:	88.929
Time:	3.239	Roll Set Point:	-0.065	Pitch Set Point:	0.053	Yaw Set Point:	2.533	X_WP:	0.100	Y_WP:	0.000	Y_WP:	0.500	X:	-0.001	Y:	0.029	Z:	0.049	yaw:	-145.127	yaw rate:	0.702	Roll:	2.031	Pitch:	-2.670	Yaw:	-204.674	Thrust:	89.170
Time:	3.253	Roll Set Point:	-0.066	Pitch Set Point:	0.052	Yaw Set Point:	2.538	X_WP:	0.100	Y_WP:	0.000	Y_WP:	0.500	X:	-0.001	Y:	0.029	Z:	0.049	yaw:	-145.433	yaw rate:	-30.602	Roll:	2.914	Pitch:	-2.152	Yaw:	-211.681	Thrust:	100.000
Time:	3.264	Roll Set Point:	-0.065	Pitch Set Point:	0.053	Yaw Set Point:	2.534	X_WP:	0.100	Y_WP:	0.000	Y_WP:	0.500	X:	-0.001	Y:	0.029	Z:	0.049	yaw:	-145.211	yaw rate:	22.217	Roll:	1.518	Pitch:	-3.040	Yaw:	-199.684	Thrust:	92.762
Time:	3.274	Roll Set Point:	-0.065	Pitch Set Point:	0.053	Yaw Set Point:	2.533	X_WP:	0.100	Y_WP:	0.000	Y_WP:	0.500	X:	-0.001	Y:	0.029	Z:	0.049	yaw:	-145.109	yaw rate:	10.158	Roll:	1.846	Pitch:	-2.793	Yaw:	-202.192	Thrust:	88.103
Time:	3.286	Roll Set Point:	-0.065	Pitch Set Point:	0.053	Yaw Set Point:	2.533	X_WP:	0.100	Y_WP:	0.000	Y_WP:	0.500	X:	-0.001	Y:	0.029	Z:	0.049	yaw:	-145.136	yaw rate:	-2.677	Roll:	2.219	Pitch:	-2.528	Yaw:	-205.567	Thrust:	94.684
Time:	3.298	Roll Set Point:	-0.065	Pitch Set Point:	0.053	Yaw Set Point:	2.534	X_WP:	0.100	Y_WP:	0.000	Y_WP:	0.500	X:	-0.001	Y:	0.029	Z:	0.049	yaw:	-145.169	yaw rate:	-3.316	Roll:	2.203	Pitch:	-2.630	Yaw:	-205.765	Thrust:	95.987
Time:	3.308	Roll Set Point:	-0.065	Pitch Set Point:	0.053	Yaw Set Point:	2.533	X_WP:	0.100	Y_WP:	0.000	Y_WP:	0.500	X:	-0.001	Y:	0.029	Z:	0.049	yaw:	-145.141	yaw rate:	2.738	Roll:	2.058	Pitch:	-2.676	Yaw:	-203.946	Thrust:	86.556
Time:	3.318	Roll Set Point:	-0.065	Pitch Set Point:	0.053	Yaw Set Point:	2.535	X_WP:	0.100	Y_WP:	0.000	Y_WP:	0.500	X:	-0.001	Y:	0.029	Z:	0.049	yaw:	-145.223	yaw rate:	-8.172	Roll:	2.262	Pitch:	-2.458	Yaw:	-206.908	Thrust:	90.597
Time:	3.329	Roll Set Point:	-0.065	Pitch Set Point:	0.053	Yaw Set Point:	2.534	X_WP:	0.100	Y_WP:	0.000	Y_WP:	0.500	X:	-0.001	Y:	0.029	Z:	0.049	yaw:	-145.214	yaw rate:	0.945	Roll:	2.173	Pitch:	-2.635	Yaw:	-204.642	Thrust:	91.299
Time:	3.339	Roll Set Point:	-0.065	Pitch Set Point:	0.053	Yaw Set Point:	2.532	X_WP:	0.100	Y_WP:	0.000	Y_WP:	0.500	X:	-0.001	Y:	0.029	Z:	0.049	yaw:	-145.091	yaw rate:	12.265	Roll:	1.794	Pitch:	-2.776	Yaw:	-201.388	Thrust:	87.970
Time:	3.351	Roll Set Point:	-0.065	Pitch Set Point:	0.053	Yaw Set Point:	2.534	X_WP:	0.100	Y_WP:	0.000	Y_WP:	0.500	X:	-0.001	Y:	0.029	Z:	0.049	yaw:	-145.176	yaw rate:	-8.452	Roll:	2.341	Pitch:	-2.576	Yaw:	-206.930	Thrust:	99.003
Time:	3.362	Roll Set Point:	-0.065	Pitch Set Point:	0.053	Yaw Set Point:	2.533	X_WP:	0.100	Y_WP:	0.000	Y_WP:	0.500	X:	-0.001	Y:	0.029	Z:	0.049	yaw:	-145.117	yaw rate:	5.835	Roll:	2.008	Pitch:	-2.734	Yaw:	-203.759	Thrust:	98.949
Time:	3.373	Roll Set Point:	-0.065	Pitch Set Point:	0.053	Yaw Set Point:	2.535	X_WP:	0.100	Y_WP:	0.000	Y_WP:	0.500	X:	-0.001	Y:	0.029	Z:	0.049	yaw:	-145.250	yaw rate:	-13.313	Roll:	2.453	Pitch:	-2.400	Yaw:	-208.192	Thrust:	98.266
Time:	3.385	Roll Set Point:	-0.065	Pitch Set Point:	0.053	Yaw Set Point:	2.533	X_WP:	0.100	Y_WP:	0.000	Y_WP:	0.500	X:	-0.001	Y:	0.029	Z:	0.049	yaw:	-145.121	yaw rate:	12.940	Roll:	1.915	Pitch:	-2.890	Yaw:	-202.006	Thrust:	100.000
Time:	3.397	Roll Set Point:	-0.065	Pitch Set Point:	0.053	Yaw Set Point:	2.533	X_WP:	0.100	Y_WP:	0.000	Y_WP:	0.500	X:	-0.001	Y:	0.029	Z:	0.049	yaw:	-145.119	yaw rate:	0.168	Roll:	2.264	Pitch:	-2.587	Yaw:	-204.996	Thrust:	97.536
Time:	3.407	Roll Set Point:	-0.065	Pitch Set Point:	0.053	Yaw Set Point:	2.532	X_WP:	0.100	Y_WP:	0.000	Y_WP:	0.500	X:	-0.001	Y:	0.029	Z:	0.049	yaw:	-145.097	yaw rate:	2.213	Roll:	1.949	Pitch:	-2.675	Yaw:	-204.021	Thrust:	98.034
Time:	3.418	Roll Set Point:	-0.065	Pitch Set Point:	0.053	Yaw Set Point:	2.533	X_WP:	0.100	Y_WP:	0.000	Y_WP:	0.500	X:	-0.001	Y:	0.029	Z:	0.049	yaw:	-145.108	yaw rate:	-1.087	Roll:	2.224	Pitch:	-2.706	Yaw:	-205.078	Thrust:	99.382
Time:	3.429	Roll Set Point:	-0.065	Pitch Set Point:	0.053	Yaw Set Point:	2.534	X_WP:	0.100	Y_WP:	0.000	Y_WP:	0.500	X:	-0.001	Y:	0.029	Z:	0.049	yaw:	-145.188	yaw rate:	-7.953	Roll:	2.292	Pitch:	-2.466	Yaw:	-206.815	Thrust:	99.636
Time:	3.440	Roll Set Point:	-0.065	Pitch Set Point:	0.053	Yaw Set Point:	2.534	X_WP:	0.100	Y_WP:	0.000	Y_WP:	0.500	X:	-0.001	Y:	0.029	Z:	0.049	yaw:	-145.211	yaw rate:	-2.375	Roll:	2.156	Pitch:	-2.645	Yaw:	-205.524	Thrust:	100.000
Time:	3.451	Roll Set Point:	-0.066	Pitch Set Point:	0.053	Yaw Set Point:	2.536	X_WP:	0.100	Y_WP:	0.000	Y_WP:	0.500	X:	-0.001	Y:	0.029	Z:	0.049	yaw:	-145.312	yaw rate:	-10.018	Roll:	2.696	Pitch:	-2.359	Yaw:	-207.489	Thrust:	97.805
Time:	3.462	Roll Set Point:	-0.065	Pitch Set Point:	0.053	Yaw Set Point:	2.534	X_WP:	0.100	Y_WP:	0.000	Y_WP:	0.500	X:	-0.001	Y:	0.029	Z:	0.049	yaw:	-145.211	yaw rate:	10.082	Roll:	1.739	Pitch:	-2.925	Yaw:	-202.565	Thrust:	100.000
Time:	3.472	Roll Set Point:	-0.066	Pitch Set Point:	0.052	Yaw Set Point:	2.538	X_WP:	0.100	Y_WP:	0.000	Y_WP:	0.500	X:	-0.001	Y:	0.029	Z:	0.049	yaw:	-145.441	yaw rate:	-23.078	Roll:	2.978	Pitch:	-2.166	Yaw:	-210.898	Thrust:	99.525
Time:	3.486	Roll Set Point:	-0.066	Pitch Set Point:	0.052	Yaw Set Point:	2.537	X_WP:	0.100	Y_WP:	0.000	Y_WP:	0.500	X:	-0.001	Y:	0.029	Z:	0.049	yaw:	-145.371	yaw rate:	7.069	Roll:	2.016	Pitch:	-2.853	Yaw:	-204.477	Thrust:	100.000
Time:	3.498	Roll Set Point:	-0.065	Pitch Set Point:	0.053	Yaw Set Point:	2.533	X_WP:	0.100	Y_WP:	0.000	Y_WP:	0.500	X:	-0.001	Y:	0.029	Z:	0.049	yaw:	-145.125	yaw rate:	13.268	Roll:	1.516	Pitch:	-3.045	Yaw:	-199.404	Thrust:	100.000
Time:	3.508	Roll Set Point:	-0.065	Pitch Set Point:	0.053	Yaw Set Point:	2.532	X_WP:	0.100	Y_WP:	0.000	Y_WP:	0.500	X:	-0.001	Y:	0.029	Z:	0.049	yaw:	-145.079	yaw rate:	4.541	Roll:	1.991	Pitch:	-2.727	Yaw:	-203.389	Thrust:	96.672
Time:	3.519	Roll Set Point:	-0.065	Pitch Set Point:	0.053	Yaw Set Point:	2.534	X_WP:	0.100	Y_WP:	0.000	Y_WP:	0.500	X:	-0.001	Y:	0.029	Z:	0.049	yaw:	-145.196	yaw rate:	-11.661	Roll:	2.528	Pitch:	-2.550	Yaw:	-207.685	Thrust:	100.000
Time:	3.530	Roll Set Point:	-0.066	Pitch Set Point:	0.052	Yaw Set Point:	2.537	X_WP:	0.100	Y_WP:	0.000	Y_WP:	0.500	X:	-0.001	Y:	0.029	Z:	0.049	yaw:	-145.387	yaw rate:	-19.076	Roll:	2.856	Pitch:	-2.256	Yaw:	-209.731	Thrust:	100.000
Time:	3.541	Roll Set Point:	-0.065	Pitch Set Point:	0.053	Yaw Set Point:	2.534	X_WP:	0.100	Y_WP:	0.000	Y_WP:	0.500	X:	-0.001	Y:	0.029	Z:	0.049	yaw:	-145.161	yaw rate:	22.563	Roll:	1.318	Pitch:	-3.094	Yaw:	-199.534	Thrust:	100.000
Time:	3.554	Roll Set Point:	-0.065	Pitch Set Point:	0.053	Yaw Set Point:	2.534	X_WP:	0.100	Y_WP:	0.000	Y_WP:	0.500	X:	-0.001	Y:	0.029	Z:	0.049	yaw:	-145.216	yaw rate:	-5.480	Roll:	2.360	Pitch:	-2.634	Yaw:	-206.359	Thrust:	100.000
Time:	3.564	Roll Set Point:	-0.065	Pitch Set Point:	0.053	Yaw Set Point:	2.534	X_WP:	0.100	Y_WP:	0.000	Y_WP:	0.500	X:	-0.001	Y:	0.029	Z:	0.049	yaw:	-145.198	yaw rate:	1.773	Roll:	2.105	Pitch:	-2.675	Yaw:	-204.400	Thrust:	98.922
Time:	3.574	Roll Set Point:	-0.065	Pitch Set Point:	0.053	Yaw Set Point:	2.533	X_WP:	0.100	Y_WP:	0.000	Y_WP:	0.500	X:	-0.001	Y:	0.029	Z:	0.049	yaw:	-145.102	yaw rate:	9.606	Roll:	1.941	Pitch:	-2.772	Yaw:	-202.211	Thrust:	100.000
Time:	3.585	Roll Set Point:	-0.065	Pitch Set Point:	0.053	Yaw Set Point:	2.534	X_WP:	0.100	Y_WP:	0.000	Y_WP:	0.500	X:	-0.001	Y:	0.029	Z:	0.049	yaw:	-145.164	yaw rate:	-6.171	Roll:	2.367	Pitch:	-2.662	Yaw:	-206.329	Thrust:	100.000
Time:	3.596	Roll Set Point:	-0.065	Pitch Set Point:	0.053	Yaw Set Point:	2.534	X_WP:	0.100	Y_WP:	0.000	Y_WP:	0.500	X:	-0.001	Y:	0.029	Z:	0.049	yaw:	-145.215	yaw rate:	-5.147	Roll:	2.443	Pitch:	-2.570	Yaw:	-206.187	Thrust:	100.000
Time:	3.607	Roll Set Point:	-0.065	Pitch Set Point:	0.053	Yaw Set Point:	2.533	X_WP:	0.100	Y_WP:	0.000	Y_WP:	0.500	X:	-0.001	Y:	0.029	Z:	0.049	yaw:	-145.135	yaw rate:	8.082	Roll:	1.834	Pitch:	-2.815	Yaw:	-202.933	Thrust:	100.000
Time:	3.617	Roll Set Point:	-0.065	Pitch Set Point:	0.053	Yaw Set Point:	2.532	X_WP:	0.100	Y_WP:	0.000	Y_WP:	0.500	X:	-0.001	Y:	0.029	Z:	0.049	yaw:	-145.063	yaw rate:	7.192	Roll:	1.935	Pitch:	-2.762	Yaw:	-202.865	Thrust:	100.000
Time:	3.628	Roll Set Point:	-0.066	Pitch Set Point:	0.053	Yaw Set Point:	2.537	X_WP:	0.100	Y_WP:	0.000	Y_WP:	0.500	X:	-0.001	Y:	0.029	Z:	0.049	yaw:	-145.333	yaw rate:	-27.054	Roll:	3.078	Pitch:	-2.209	Yaw:	-211.664	Thrust:	100.000
Time:	3.639	Roll Set Point:	-0.065	Pitch Set Point:	0.053	Yaw Set Point:	2.533	X_WP:	0.100	Y_WP:	0.000	Y_WP:	0.500	X:	-0.001	Y:	0.029	Z:	0.049	yaw:	-145.148	yaw rate:	18.499	Roll:	1.522	Pitch:	-3.035	Yaw:	-200.480	Thrust:	100.000
Time:	3.651	Roll Set Point:	-0.066	Pitch Set Point:	0.052	Yaw Set Point:	2.538	X_WP:	0.100	Y_WP:	0.000	Y_WP:	0.500	X:	-0.001	Y:	0.029	Z:	0.049	yaw:	-145.392	yaw rate:	-24.357	Roll:	2.938	Pitch:	-2.270	Yaw:	-210.708	Thrust:	100.000
Time:	3.662	Roll Set Point:	-0.065	Pitch Set Point:	0.053	Yaw Set Point:	2.533	X_WP:	0.100	Y_WP:	0.000	Y_WP:	0.500	X:	-0.001	Y:	0.029	Z:	0.049	yaw:	-145.114	yaw rate:	27.817	Roll:	1.433	Pitch:	-3.247	Yaw:	-197.805	Thrust:	100.000
Time:	3.673	Roll Set Point:	-0.065	Pitch Set Point:	0.053	Yaw Set Point:	2.535	X_WP:	0.100	Y_WP:	0.000	Y_WP:	0.500	X:	-0.001	Y:	0.029	Z:	0.049	yaw:	-145.247	yaw rate:	-13.380	Roll:	2.426	Pitch:	-2.455	Yaw:	-208.185	Thrust:	100.000
Time:	3.684	Roll Set Point:	-0.066	Pitch Set Point:	0.052	Yaw Set Point:	2.538	X_WP:	0.100	Y_WP:	0.000	Y_WP:	0.500	X:	-0.001	Y:	0.029	Z:	0.049	yaw:	-145.426	yaw rate:	-17.825	Roll:	2.829	Pitch:	-2.383	Yaw:	-209.402	Thrust:	100.000
Time:	3.695	Roll Set Point:	-0.065	Pitch Set Point:	0.053	Yaw Set Point:	2.533	X_WP:	0.100	Y_WP:	0.000	Y_WP:	0.500	X:	-0.001	Y:	0.029	Z:	0.049	yaw:	-145.145	yaw rate:	28.084	Roll:	1.386	Pitch:	-3.201	Yaw:	-197.784	Thrust:	100.000
Time:	3.706	Roll Set Point:	-0.065	Pitch Set Point:	0.053	Yaw Set Point:	2.534	X_WP:	0.100	Y_WP:	0.000	Y_WP:	0.500	X:	-0.001	Y:	0.029	Z:	0.049	yaw:	-145.177	yaw rate:	-3.262	Roll:	2.353	Pitch:	-2.629	Yaw:	-205.563	Thrust:	100.000
Time:	3.718	Roll Set Point:	-0.065	Pitch Set Point:	0.053	Yaw Set Point:	2.532	X_WP:	0.100	Y_WP:	0.000	Y_WP:	0.500	X:	-0.001	Y:	0.029	Z:	0.049	yaw:	-145.068	yaw rate:	10.983	Roll:	1.932	Pitch:	-2.858	Yaw:	-202.770	Thrust:	100.000
Time:	3.728	Roll Set Point:	-0.065	Pitch Set Point:	0.053	Yaw Set Point:	2.535	X_WP:	0.100	Y_WP:	0.000	Y_WP:	0.500	X:	-0.001	Y:	0.029	Z:	0.049	yaw:	-145.239	yaw rate:	-17.188	Roll:	2.593	Pitch:	-2.472	Yaw:	-209.162	Thrust:	100.000
Time:	3.738	Roll Set Point:	-0.065	Pitch Set Point:	0.053	Yaw Set Point:	2.533	X_WP:	0.100	Y_WP:	0.000	Y_WP:	0.500	X:	-0.001	Y:	0.029	Z:	0.049	yaw:	-145.145	yaw rate:	9.451	Roll:	1.962	Pitch:	-2.870	Yaw:	-202.199	Thrust:	100.000
Time:	3.751	Roll Set Point:	-0.066	Pitch Set Point:	0.052	Yaw Set Point:	2.537	X_WP:	0.100	Y_WP:	0.000	Y_WP:	0.500	X:	-0.001	Y:	0.029	Z:	0.049	yaw:	-145.387	yaw rate:	-24.155	Roll:	2.880	Pitch:	-2.354	Yaw:	-210.548	Thrust:	100.000
Time:	3.762	Roll Set Point:	-0.065	Pitch Set Point:	0.052	Yaw Set Point:	2.536	X_WP:	0.100	Y_WP:	0.000	Y_WP:	0.500	X:	-0.001	Y:	0.029	Z:	0.049	yaw:	-145.307	yaw rate:	7.924	Roll:	1.988	Pitch:	-2.847	Yaw:	-203.212	Thrust:	100.000
Time:	3.772	Roll Set Point:	-0.065	Pitch Set Point:	0.053	Yaw Set Point:	2.535	X_WP:	0.100	Y_WP:	0.000	Y_WP:	0.500	X:	-0.001	Y:	0.029	Z:	0.049	yaw:	-145.219	yaw rate:	8.804	Roll:	1.857	Pitch:	-2.889	Yaw:	-202.470	Thrust:	100.000
Time:	3.783	Roll Set Point:	-0.066	Pitch Set Point:	0.052	Yaw Set Point:	2.538	X_WP:	0.100	Y_WP:	0.000	Y_WP:	0.500	X:	-0.001	Y:	0.029	Z:	0.049	yaw:	-145.426	yaw rate:	-20.629	Roll:	2.923	Pitch:	-2.376	Yaw:	-210.033	Thrust:	100.000
Time:	3.795	Roll Set Point:	-0.065	Pitch Set Point:	0.053	Yaw Set Point:	2.534	X_WP:	0.100	Y_WP:	0.000	Y_WP:	0.500	X:	-0.001	Y:	0.029	Z:	0.049	yaw:	-145.196	yaw rate:	22.992	Roll:	1.448	Pitch:	-3.143	Yaw:	-199.114	Thrust:	100.000
Time:	3.805	Roll Set Point:	-0.065	Pitch Set Point:	0.053	Yaw Set Point:	2.534	X_WP:	0.100	Y_WP:	0.000	Y_WP:	0.500	X:	-0.001	Y:	0.029	Z:	0.049	yaw:	-145.169	yaw rate:	2.623	Roll:	2.209	Pitch:	-2.770	Yaw:	-204.279	Thrust:	100.000
Time:	3.817	Roll Set Point:	-0.065	Pitch Set Point:	0.053	Yaw Set Point:	2.533	X_WP:	0.100	Y_WP:	0.000	Y_WP:	0.500	X:	-0.001	Y:	0.029	Z:	0.049	yaw:	-145.145	yaw rate:	2.459	Roll:	2.247	Pitch:	-2.792	Yaw:	-204.540	Thrust:	100.000
Time:	3.829	Roll Set Point:	-0.065	Pitch Set Point:	0.052	Yaw Set Point:	2.535	X_WP:	0.100	Y_WP:	0.000	Y_WP:	0.500	X:	-0.001	Y:	0.029	Z:	0.049	yaw:	-145.267	yaw rate:	-19.085	Roll:	2.403	Pitch:	-2.548	Yaw:	-207.881	Thrust:	100.000
Time:	3.839	Roll Set Point:	-0.065	Pitch Set Point:	0.053	Yaw Set Point:	2.534	X_WP:	0.100	Y_WP:	0.000	Y_WP:	0.500	X:	-0.001	Y:	0.029	Z:	0.049	yaw:	-145.164	yaw rate:	10.228	Roll:	2.027	Pitch:	-2.937	Yaw:	-202.022	Thrust:	100.000
Time:	3.852	Roll Set Point:	-0.065	Pitch Set Point:	0.053	Yaw Set Point:	2.534	X_WP:	0.100	Y_WP:	0.000	Y_WP:	0.500	X:	-0.001	Y:	0.029	Z:	0.049	yaw:	-145.164	yaw rate:	10.228	Roll:	2.268	Pitch:	-2.802	Yaw:	-205.296	Thrust:	100.000
Time:	3.863	Roll Set Point:	-0.066	Pitch Set Point:	0.052	Yaw Set Point:	2.538	X_WP:	0.100	Y_WP:	0.000	Y_WP:	0.500	X:	-0.001	Y:	0.029	Z:	0.049	yaw:	-145.416	yaw rate:	0.612	Roll:	3.016	Pitch:	-2.193	Yaw:	-211.208	Thrust:	100.000
Time:	3.874	Roll Set Point:	-0.066	Pitch Set Point:	0.052	Yaw Set Point:	2.537	X_WP:	0.100	Y_WP:	0.000	Y_WP:	0.500	X:	-0.001	Y:	0.029	Z:	0.049	yaw:	-145.364	yaw rate:	5.203	Roll:	2.154	Pitch:	-2.832	Yaw:	-203.781	Thrust:	100.000
Time:	3.885	Roll Set Point:	-0.065	Pitch Set Point:	0.053	Yaw Set Point:	2.534	X_WP:	0.100	Y_WP:	0.000	Y_WP:	0.500	X:	-0.001	Y:	0.029	Z:	0.049	yaw:	-145.191	yaw rate:	17.215	Roll:	1.593	Pitch:	-3.051	Yaw:	-200.572	Thrust:	100.000
Time:	3.896	Roll Set Point:	-0.065	Pitch Set Point:	0.053	Yaw Set Point:	2.534	X_WP:	0.100	Y_WP:	0.000	Y_WP:	0.500	X:	-0.001	Y:	0.029	Z:	0.049	yaw:	-145.168	yaw rate:	2.346	Roll:	2.248	Pitch:	-2.807	Yaw:	-204.467	Thrust:	100.000
Time:	3.906	Roll Set Point:	-0.065	Pitch Set Point:	0.053	Yaw Set Point:	2.533	X_WP:	0.100	Y_WP:	0.000	Y_WP:	0.500	X:	-0.001	Y:	0.029	Z:	0.049	yaw:	-145.104	yaw rate:	6.413	Roll:	1.993	Pitch:	-2.774	Yaw:	-202.934	Thrust:	100.000
Time:	3.918	Roll Set Point:	-0.065	Pitch Set Point:	0.053	Yaw Set Point:	2.533	X_WP:	0.100	Y_WP:	0.000	Y_WP:	0.500	X:	-0.001	Y:	0.029	Z:	0.049	yaw:	-145.147	yaw rate:	-4.303	Roll:	2.354	Pitch:	-2.751	Yaw:	-206.009	Thrust:	100.000
Time:	3.929	Roll Set Point:	-0.065	Pitch Set Point:	0.053	Yaw Set Point:	2.533	X_WP:	0.100	Y_WP:	0.000	Y_WP:	0.500	X:	-0.001	Y:	0.029	Z:	0.049	yaw:	-145.120	yaw rate:	2.725	Roll:	2.198	Pitch:	-2.739	Yaw:	-204.173	Thrust:	100.000
Time:	3.939	Roll Set Point:	-0.065	Pitch Set Point:	0.053	Yaw Set Point:	2.533	X_WP:	0.100	Y_WP:	0.000	Y_WP:	0.500	X:	-0.001	Y:	0.029	Z:	0.049	yaw:	-145.121	yaw rate:	-0.144	Roll:	2.269	Pitch:	-2.805	Yaw:	-204.670	Thrust:	100.000
Time:	3.951	Roll Set Point:	-0.065	Pitch Set Point:	0.053	Yaw Set Point:	2.533	X_WP:	0.100	Y_WP:	0.000	Y_WP:	0.500	X:	-0.001	Y:	0.029	Z:	0.049	yaw:	-145.111	yaw rate:	0.964	Roll:	2.171	Pitch:	-2.777	Yaw:	-204.704	Thrust:	100.000
Time:	3.962	Roll Set Point:	-0.065	Pitch Set Point:	0.053	Yaw Set Point:	2.532	X_WP:	0.100	Y_WP:	0.000	Y_WP:	0.500	X:	-0.001	Y:	0.029	Z:	0.049	yaw:	-145.072	yaw rate:	3.985	Roll:	2.168	Pitch:	-2.849	Yaw:	-203.818	Thrust:	100.000
Time:	3.972	Roll Set Point:	-0.065	Pitch Set Point:	0.053	Yaw Set Point:	2.533	X_WP:	0.100	Y_WP:	0.000	Y_WP:	0.500	X:	-0.001	Y:	0.029	Z:	0.049	yaw:	-145.110	yaw rate:	-3.867	Roll:	2.360	Pitch:	-2.669	Yaw:	-205.679	Thrust:	100.000
Time:	3.986	Roll Set Point:	-0.065	Pitch Set Point:	0.053	Yaw Set Point:	2.534	X_WP:	0.100	Y_WP:	0.000	Y_WP:	0.500	X:	-0.001	Y:	0.029	Z:	0.049	yaw:	-145.188	yaw rate:	-7.757	Roll:	2.431	Pitch:	-2.735	Yaw:	-206.976	Thrust:	100.000
Time:	3.998	Roll Set Point:	-0.065	Pitch Set Point:	0.053	Yaw Set Point:	2.534	X_WP:	0.100	Y_WP:	0.000	Y_WP:	0.500	X:	-0.001	Y:	0.029	Z:	0.049	yaw:	-145.169	yaw rate:	1.877	Roll:	2.259	Pitch:	-2.862	Yaw:	-204.576	Thrust:	100.000
Time:	4.009	Roll Set Point:	-0.065	Pitch Set Point:	0.053	Yaw Set Point:	2.535	X_WP:	0.100	Y_WP:	0.000	Y_WP:	0.500	X:	-0.001	Y:	0.029	Z:	0.049	yaw:	-145.228	yaw rate:	-5.900	Roll:	2.308	Pitch:	-2.651	Yaw:	-206.383	Thrust:	100.000
Time:	4.020	Roll Set Point:	-0.065	Pitch Set Point:	0.053	Yaw Set Point:	2.532	X_WP:	0.100	Y_WP:	0.000	Y_WP:	0.500	X:	-0.001	Y:	0.029	Z:	0.049	yaw:	-145.091	yaw rate:	13.728	Roll:	2.034	Pitch:	-3.016	Yaw:	-201.779	Thrust:	100.000
Time:	4.031	Roll Set Point:	-0.065	Pitch Set Point:	0.053	Yaw Set Point:	2.534	X_WP:	0.100	Y_WP:	0.000	Y_WP:	0.500	X:	-0.001	Y:	0.029	Z:	0.049	yaw:	-145.197	yaw rate:	-10.661	Roll:	2.496	Pitch:	-2.541	Yaw:	-207.484	Thrust:	100.000
Time:	4.041	Roll Set Point:	-0.066	Pitch Set Point:	0.052	Yaw Set Point:	2.537	X_WP:	0.100	Y_WP:	0.000	Y_WP:	0.500	X:	-0.001	Y:	0.029	Z:	0.049	yaw:	-145.334	yaw rate:	-13.623	Roll:	2.782	Pitch:	-2.467	Yaw:	-208.487	Thrust:	100.000
Time:	4.054	Roll Set Point:	-0.066	Pitch Set Point:	0.052	Yaw Set Point:	2.537	X_WP:	0.100	Y_WP:	0.000	Y_WP:	0.500	X:	-0.001	Y:	0.029	Z:	0.049	yaw:	-145.355	yaw rate:	-2.137	Roll:	2.331	Pitch:	-2.759	Yaw:	-205.910	Thrust:	100.000
Time:	4.065	Roll Set Point:	-0.065	Pitch Set Point:	0.053	Yaw Set Point:	2.533	X_WP:	0.100	Y_WP:	0.000	Y_WP:	0.500	X:	-0.001	Y:	0.029	Z:	0.049	yaw:	-145.134	yaw rate:	22.093	Roll:	1.626	Pitch:	-3.128	Yaw:	-199.251	Thrust:	100.000
Time:	4.075	Roll Set Point:	-0.065	Pitch Set Point:	0.053	Yaw Set Point:	2.534	X_WP:	0.100	Y_WP:	0.000	Y_WP:	0.500	X:	-0.001	Y:	0.029	Z:	0.049	yaw:	-145.170	yaw rate:	-3.595	Roll:	2.326	Pitch:	-2.820	Yaw:	-205.755	Thrust:	100.000
Time:	4.087	Roll Set Point:	-0.065	Pitch Set Point:	0.053	Yaw Set Point:	2.533	X_WP:	0.100	Y_WP:	0.000	Y_WP:	0.500	X:	-0.001	Y:	0.029	Z:	0.049	yaw:	-145.128	yaw rate:	4.175	Roll:	2.204	Pitch:	-2.823	Yaw:	-204.008	Thrust:	100.000
Time:	4.098	Roll Set Point:	-0.065	Pitch Set Point:	0.053	Yaw Set Point:	2.534	X_WP:	0.100	Y_WP:	0.000	Y_WP:	0.500	X:	-0.001	Y:	0.029	Z:	0.049	yaw:	-145.167	yaw rate:	-3.913	Roll:	2.382	Pitch:	-2.734	Yaw:	-205.808	Thrust:	100.000
Time:	4.108	Roll Set Point:	-0.065	Pitch Set Point:	0.052	Yaw Set Point:	2.536	X_WP:	0.100	Y_WP:	0.000	Y_WP:	0.500	X:	-0.001	Y:	0.029	Z:	0.049	yaw:	-145.296	yaw rate:	-12.864	Roll:	2.507	Pitch:	-2.469	Yaw:	-208.235	Thrust:	100.000
Time:	4.119	Roll Set Point:	-0.066	Pitch Set Point:	0.052	Yaw Set Point:	2.538	X_WP:	0.100	Y_WP:	0.000	Y_WP:	0.500	X:	-0.001	Y:	0.029	Z:	0.049	yaw:	-145.399	yaw rate:	-10.344	Roll:	2.732	Pitch:	-2.593	Yaw:	-207.671	Thrust:	100.000
Time:	4.129	Roll Set Point:	-0.066	Pitch Set Point:	0.052	Yaw Set Point:	2.537	X_WP:	0.100	Y_WP:	0.000	Y_WP:	0.500	X:	-0.001	Y:	0.029	Z:	0.049	yaw:	-145.361	yaw rate:	3.798	Roll:	2.232	Pitch:	-2.836	Yaw:	-203.978	Thrust:	100.000
Time:	4.139	Roll Set Point:	-0.065	Pitch Set Point:	0.053	Yaw Set Point:	2.535	X_WP:	0.100	Y_WP:	0.000	Y_WP:	0.500	X:	-0.001	Y:	0.029	Z:	0.049	yaw:	-145.223	yaw rate:	13.848	Roll:	1.621	Pitch:	-3.023	Yaw:	-201.159	Thrust:	100.000
Time:	4.151	Roll Set Point:	-0.065	Pitch Set Point:	0.053	Yaw Set Point:	2.534	X_WP:	0.100	Y_WP:	0.000	Y_WP:	0.500	X:	-0.001	Y:	0.029	Z:	0.049	yaw:	-145.199	yaw rate:	2.386	Roll:	2.205	Pitch:	-2.823	Yaw:	-204.502	Thrust:	100.000
Time:	4.162	Roll Set Point:	-0.065	Pitch Set Point:	0.053	Yaw Set Point:	2.535	X_WP:	0.100	Y_WP:	0.000	Y_WP:	0.500	X:	-0.001	Y:	0.029	Z:	0.049	yaw:	-145.242	yaw rate:	-4.296	Roll:	2.476	Pitch:	-2.642	Yaw:	-206.022	Thrust:	100.000
Time:	4.172	Roll Set Point:	-0.066	Pitch Set Point:	0.052	Yaw Set Point:	2.539	X_WP:	0.100	Y_WP:	0.000	Y_WP:	0.500	X:	-0.001	Y:	0.029	Z:	0.049	yaw:	-145.472	yaw rate:	-22.993	Roll:	2.888	Pitch:	-2.385	Yaw:	-210.940	Thrust:	100.000
Time:	4.184	Roll Set Point:	-0.065	Pitch Set Point:	0.053	Yaw Set Point:	2.536	X_WP:	0.100	Y_WP:	0.000	Y_WP:	0.500	X:	-0.001	Y:	0.029	Z:	0.049	yaw:	-145.297	yaw rate:	17.473	Roll:	2.038	Pitch:	-3.107	Yaw:	-201.228	Thrust:	100.000
Time:	4.195	Roll Set Point:	-0.065	Pitch Set Point:	0.052	Yaw Set Point:	2.535	X_WP:	0.100	Y_WP:	0.000	Y_WP:	0.500	X:	-0.001	Y:	0.029	Z:	0.049	yaw:	-145.263	yaw rate:	3.454	Roll:	1.944	Pitch:	-2.850	Yaw:	-204.143	Thrust:	100.000
Time:	4.206	Roll Set Point:	-0.065	Pitch Set Point:	0.053	Yaw Set Point:	2.533	X_WP:	0.100	Y_WP:	0.000	Y_WP:	0.500	X:	-0.001	Y:	0.029	Z:	0.049	yaw:	-145.147	yaw rate:	11.600	Roll:	2.090	Pitch:	-2.978	Yaw:	-202.115	Thrust:	100.000
Time:	4.217	Roll Set Point:	-0.065	Pitch Set Point:	0.053	Yaw Set Point:	2.533	X_WP:	0.100	Y_WP:	0.000	Y_WP:	0.500	X:	-0.001	Y:	0.029	Z:	0.049	yaw:	-145.136	yaw rate:	1.028	Roll:	2.269	Pitch:	-2.837	Yaw:	-204.727	Thrust:	100.000
Time:	4.228	Roll Set Point:	-0.066	Pitch Set Point:	0.052	Yaw Set Point:	2.537	X_WP:	0.100	Y_WP:	0.000	Y_WP:	0.500	X:	-0.001	Y:	0.029	Z:	0.049	yaw:	-145.352	yaw rate:	-21.592	Roll:	2.919	Pitch:	-2.352	Yaw:	-210.413	Thrust:	100.000
Time:	4.239	Roll Set Point:	-0.065	Pitch Set Point:	0.053	Yaw Set Point:	2.535	X_WP:	0.100	Y_WP:	0.000	Y_WP:	0.500	X:	-0.001	Y:	0.029	Z:	0.049	yaw:	-145.255	yaw rate:	9.759	Roll:	2.092	Pitch:	-2.979	Yaw:	-202.702	Thrust:	100.000
Time:	4.250	Roll Set Point:	-0.065	Pitch Set Point:	0.053	Yaw Set Point:	2.534	X_WP:	0.100	Y_WP:	0.000	Y_WP:	0.500	X:	-0.001	Y:	0.029	Z:	0.049	yaw:	-145.187	yaw rate:	6.758	Roll:	1.904	Pitch:	-2.872	Yaw:	-203.342	Thrust:	100.000
Time:	4.261	Roll Set Point:	-0.065	Pitch Set Point:	0.052	Yaw Set Point:	2.535	X_WP:	0.100	Y_WP:	0.000	Y_WP:	0.500	X:	-0.001	Y:	0.029	Z:	0.049	yaw:	-145.263	yaw rate:	-7.616	Roll:	2.471	Pitch:	-2.666	Yaw:	-206.839	Thrust:	100.000
Time:	4.272	Roll Set Point:	-0.065	Pitch Set Point:	0.053	Yaw Set Point:	2.533	X_WP:	0.100	Y_WP:	0.000	Y_WP:	0.500	X:	-0.001	Y:	0.029	Z:	0.049	yaw:	-145.155	yaw rate:	10.839	Roll:	2.055	Pitch:	-2.966	Yaw:	-202.307	Thrust:	100.000
Time:	4.284	Roll Set Point:	-0.065	Pitch Set Point:	0.053	Yaw Set Point:	2.533	X_WP:	0.100	Y_WP:	0.000	Y_WP:	0.500	X:	-0.001	Y:	0.029	Z:	0.049	yaw:	-145.105	yaw rate:	4.959	Roll:	2.265	Pitch:	-2.885	Yaw:	-203.895	Thrust:	100.000
Time:	4.295	Roll Set Point:	-0.066	Pitch Set Point:	0.052	Yaw Set Point:	2.537	X_WP:	0.100	Y_WP:	0.000	Y_WP:	0.500	X:	-0.001	Y:	0.029	Z:	0.049	yaw:	-145.347	yaw rate:	-24.201	Roll:	3.009	Pitch:	-2.360	Yaw:	-210.937	Thrust:	100.000
Time:	4.305	Roll Set Point:	-0.065	Pitch Set Point:	0.053	Yaw Set Point:	2.535	X_WP:	0.100	Y_WP:	0.000	Y_WP:	0.500	X:	-0.001	Y:	0.029	Z:	0.049	yaw:	-145.224	yaw rate:	12.311	Roll:	1.755	Pitch:	-3.006	Yaw:	-201.562	Thrust:	100.000
Time:	4.317	Roll Set Point:	-0.065	Pitch Set Point:	0.053	Yaw Set Point:	2.534	X_WP:	0.100	Y_WP:	0.000	Y_WP:	0.500	X:	-0.001	Y:	0.029	Z:	0.049	yaw:	-145.194	yaw rate:	2.993	Roll:	2.261	Pitch:	-2.868	Yaw:	-204.486	Thrust:	100.000
Time:	4.328	Roll Set Point:	-0.065	Pitch Set Point:	0.053	Yaw Set Point:	2.533	X_WP:	0.100	Y_WP:	0.000	Y_WP:	0.500	X:	-0.001	Y:	0.029	Z:	0.049	yaw:	-145.126	yaw rate:	6.876	Roll:	2.229	Pitch:	-2.917	Yaw:	-203.277	Thrust:	100.000
Time:	4.338	Roll Set Point:	-0.065	Pitch Set Point:	0.053	Yaw Set Point:	2.534	X_WP:	0.100	Y_WP:	0.000	Y_WP:	0.500	X:	-0.001	Y:	0.029	Z:	0.049	yaw:	-145.164	yaw rate:	-3.817	Roll:	2.336	Pitch:	-2.644	Yaw:	-205.689	Thrust:	100.000
Time:	4.350	Roll Set Point:	-0.066	Pitch Set Point:	0.052	Yaw Set Point:	2.538	X_WP:	0.100	Y_WP:	0.000	Y_WP:	0.500	X:	-0.001	Y:	0.029	Z:	0.049	yaw:	-145.425	yaw rate:	-26.170	Roll:	3.194	Pitch:	-2.354	Yaw:	-211.147	Thrust:	100.000
Time:	4.361	Roll Set Point:	-0.065	Pitch Set Point:	0.053	Yaw Set Point:	2.532	X_WP:	0.100	Y_WP:	0.000	Y_WP:	0.500	X:	-0.001	Y:	0.029	Z:	0.049	yaw:	-145.083	yaw rate:	34.275	Roll:	1.194	Pitch:	-3.372	Yaw:	-196.643	Thrust:	100.000
Time:	4.372	Roll Set Point:	-0.065	Pitch Set Point:	0.053	Yaw Set Point:	2.534	X_WP:	0.100	Y_WP:	0.000	Y_WP:	0.500	X:	-0.001	Y:	0.029	Z:	0.049	yaw:	-145.173	yaw rate:	-9.023	Roll:	2.557	Pitch:	-2.662	Yaw:	-207.047	Thrust:	100.000
Time:	4.383	Roll Set Point:	-0.065	Pitch Set Point:	0.053	Yaw Set Point:	2.535	X_WP:	0.100	Y_WP:	0.000	Y_WP:	0.500	X:	-0.001	Y:	0.029	Z:	0.049	yaw:	-145.232	yaw rate:	-5.950	Roll:	2.431	Pitch:	-2.720	Yaw:	-206.402	Thrust:	100.000
Time:	4.395	Roll Set Point:	-0.065	Pitch Set Point:	0.053	Yaw Set Point:	2.532	X_WP:	0.100	Y_WP:	0.000	Y_WP:	0.500	X:	-0.001	Y:	0.029	Z:	0.049	yaw:	-145.094	yaw rate:	13.836	Roll:	2.071	Pitch:	-2.974	Yaw:	-201.755	Thrust:	100.000
Time:	4.406	Roll Set Point:	-0.065	Pitch Set Point:	0.053	Yaw Set Point:	2.533	X_WP:	0.100	Y_WP:	0.000	Y_WP:	0.500	X:	-0.001	Y:	0.029	Z:	0.049	yaw:	-145.137	yaw rate:	-4.258	Roll:	2.420	Pitch:	-2.693	Yaw:	-205.865	Thrust:	100.000
Time:	4.418	Roll Set Point:	-0.065	Pitch Set Point:	0.053	Yaw Set Point:	2.534	X_WP:	0.100	Y_WP:	0.000	Y_WP:	0.500	X:	-0.001	Y:	0.029	Z:	0.049	yaw:	-145.168	yaw rate:	0.418	Roll:	2.381	Pitch:	-2.808	Yaw:	-205.775	Thrust:	100.000
Time:	4.429	Roll Set Point:	-0.066	Pitch Set Point:	0.052	Yaw Set Point:	2.537	X_WP:	0.100	Y_WP:	0.000	Y_WP:	0.500	X:	-0.001	Y:	0.029	Z:	0.049	yaw:	-145.335	yaw rate:	-16.783	Roll:	2.907	Pitch:	-2.450	Yaw:	-209.205	Thrust:	100.000
Time:	4.440	Roll Set Point:	-0.065	Pitch Set Point:	0.053	Yaw Set Point:	2.533	X_WP:	0.100	Y_WP:	0.000	Y_WP:	0.500	X:	-0.001	Y:	0.029	Z:	0.049	yaw:	-145.144	yaw rate:	19.181	Roll:	1.753	Pitch:	-3.180	Yaw:	-200.312	Thrust:	100.000
Time:	4.452	Roll Set Point:	-0.065	Pitch Set Point:	0.053	Yaw Set Point:	2.534	X_WP:	0.100	Y_WP:	0.000	Y_WP:	0.500	X:	-0.001	Y:	0.029	Z:	0.049	yaw:	-145.206	yaw rate:	-6.206	Roll:	2.467	Pitch:	-2.732	Yaw:	-206.553	Thrust:	100.000
Time:	4.464	Roll Set Point:	-0.065	Pitch Set Point:	0.053	Yaw Set Point:	2.534	X_WP:	0.100	Y_WP:	0.000	Y_WP:	0.500	X:	-0.001	Y:	0.029	Z:	0.049	yaw:	-145.189	yaw rate:	1.692	Roll:	2.273	Pitch:	-2.789	Yaw:	-204.645	Thrust:	100.000
Time:	4.474	Roll Set Point:	-0.065	Pitch Set Point:	0.053	Yaw Set Point:	2.535	X_WP:	0.100	Y_WP:	0.000	Y_WP:	0.500	X:	-0.001	Y:	0.029	Z:	0.049	yaw:	-145.271	yaw rate:	-8.244	Roll:	2.735	Pitch:	-2.530	Yaw:	-206.995	Thrust:	100.000
Time:	4.485	Roll Set Point:	-0.065	Pitch Set Point:	0.053	Yaw Set Point:	2.534	X_WP:	0.100	Y_WP:	0.000	Y_WP:	0.500	X:	-0.001	Y:	0.029	Z:	0.049	yaw:	-145.203	yaw rate:	6.781	Roll:	2.009	Pitch:	-2.978	Yaw:	-203.514	Thrust:	100.000
Time:	4.496	Roll Set Point:	-0.066	Pitch Set Point:	0.053	Yaw Set Point:	2.537	X_WP:	0.100	Y_WP:	0.000	Y_WP:	0.500	X:	-0.001	Y:	0.029	Z:	0.049	yaw:	-145.350	yaw rate:	-14.609	Roll:	2.969	Pitch:	-2.499	Yaw:	-208.684	Thrust:	100.000
Time:	4.506	Roll Set Point:	-0.066	Pitch Set Point:	0.052	Yaw Set Point:	2.537	X_WP:	0.100	Y_WP:	0.000	Y_WP:	0.500	X:	-0.001	Y:	0.029	Z:	0.049	yaw:	-145.335	yaw rate:	1.426	Roll:	2.165	Pitch:	-2.710	Yaw:	-204.560	Thrust:	100.000
Time:	4.518	Roll Set Point:	-0.066	Pitch Set Point:	0.053	Yaw Set Point:	2.536	X_WP:	0.100	Y_WP:	0.000	Y_WP:	0.500	X:	-0.001	Y:	0.029	Z:	0.049	yaw:	-145.329	yaw rate:	0.577	Roll:	2.363	Pitch:	-2.887	Yaw:	-205.204	Thrust:	100.000
Time:	4.529	Roll Set Point:	-0.065	Pitch Set Point:	0.053	Yaw Set Point:	2.533	X_WP:	0.100	Y_WP:	0.000	Y_WP:	0.500	X:	-0.001	Y:	0.029	Z:	0.049	yaw:	-145.129	yaw rate:	20.009	Roll:	1.731	Pitch:	-3.130	Yaw:	-200.153	Thrust:	100.000
Time:	4.539	Roll Set Point:	-0.066	Pitch Set Point:	0.052	Yaw Set Point:	2.537	X_WP:	0.100	Y_WP:	0.000	Y_WP:	0.500	X:	-0.001	Y:	0.029	Z:	0.049	yaw:	-145.381	yaw rate:	-25.179	Roll:	3.159	Pitch:	-2.262	Yaw:	-211.570	Thrust:	100.000
Time:	4.551	Roll Set Point:	-0.065	Pitch Set Point:	0.053	Yaw Set Point:	2.534	X_WP:	0.100	Y_WP:	0.000	Y_WP:	0.500	X:	-0.001	Y:	0.029	Z:	0.049	yaw:	-145.184	yaw rate:	19.685	Roll:	1.680	Pitch:	-3.119	Yaw:	-200.270	Thrust:	100.000
Time:	4.562	Roll Set Point:	-0.065	Pitch Set Point:	0.053	Yaw Set Point:	2.533	X_WP:	0.100	Y_WP:	0.000	Y_WP:	0.500	X:	-0.001	Y:	0.029	Z:	0.049	yaw:	-145.131	yaw rate:	5.305	Roll:	2.240	Pitch:	-2.831	Yaw:	-203.745	Thrust:	100.000
Time:	4.574	Roll Set Point:	-0.066	Pitch Set Point:	0.052	Yaw Set Point:	2.537	X_WP:	0.100	Y_WP:	0.000	Y_WP:	0.500	X:	-0.001	Y:	0.029	Z:	0.049	yaw:	-145.354	yaw rate:	-22.244	Roll:	3.044	Pitch:	-2.494	Yaw:	-210.199	Thrust:	100.000
Time:	4.584	Roll Set Point:	-0.065	Pitch Set Point:	0.053	Yaw Set Point:	2.534	X_WP:	0.100	Y_WP:	0.000	Y_WP:	0.500	X:	-0.001	Y:	0.029	Z:	0.049	yaw:	-145.191	yaw rate:	16.236	Roll:	1.637	Pitch:	-3.075	Yaw:	-200.803	Thrust:	100.000
Time:	4.595	Roll Set Point:	-0.065	Pitch Set Point:	0.053	Yaw Set Point:	2.535	X_WP:	0.100	Y_WP:	0.000	Y_WP:	0.500	X:	-0.001	Y:	0.029	Z:	0.049	yaw:	-145.224	yaw rate:	-3.271	Roll:	2.402	Pitch:	-2.762	Yaw:	-205.700	Thrust:	100.000
Time:	4.606	Roll Set Point:	-0.065	Pitch Set Point:	0.053	Yaw Set Point:	2.533	X_WP:	0.100	Y_WP:	0.000	Y_WP:	0.500	X:	-0.001	Y:	0.029	Z:	0.049	yaw:	-145.158	yaw rate:	6.643	Roll:	2.243	Pitch:	-2.870	Yaw:	-203.298	Thrust:	100.000
Time:	4.616	Roll Set Point:	-0.065	Pitch Set Point:	0.053	Yaw Set Point:	2.533	X_WP:	0.100	Y_WP:	0.000	Y_WP:	0.500	X:	-0.001	Y:	0.029	Z:	0.049	yaw:	-145.120	yaw rate:	3.791	Roll:	2.229	Pitch:	-2.748	Yaw:	-203.796	Thrust:	100.000
Time:	4.628	Roll Set Point:	-0.066	Pitch Set Point:	0.052	Yaw Set Point:	2.537	X_WP:	0.100	Y_WP:	0.000	Y_WP:	0.500	X:	-0.001	Y:	0.029	Z:	0.049	yaw:	-145.374	yaw rate:	-25.393	Roll:	3.090	Pitch:	-2.408	Yaw:	-211.031	Thrust:	100.000
Time:	4.638	Roll Set Point:	-0.065	Pitch Set Point:	0.053	Yaw Set Point:	2.532	X_WP:	0.100	Y_WP:	0.000	Y_WP:	0.500	X:	-0.001	Y:	0.029	Z:	0.049	yaw:	-145.084	yaw rate:	28.930	Roll:	1.348	Pitch:	-3.366	Yaw:	-197.028	Thrust:	100.000
Time:	4.653	Roll Set Point:	-0.065	Pitch Set Point:	0.053	Yaw Set Point:	2.533	X_WP:	0.100	Y_WP:	0.000	Y_WP:	0.500	X:	-0.001	Y:	0.029	Z:	0.049	yaw:	-145.111	yaw rate:	-2.666	Roll:	2.545	Pitch:	-2.861	Yaw:	-205.921	Thrust:	100.000
Time:	4.664	Roll Set Point:	-0.065	Pitch Set Point:	0.053	Yaw Set Point:	2.534	X_WP:	0.100	Y_WP:	0.000	Y_WP:	0.500	X:	-0.001	Y:	0.029	Z:	0.049	yaw:	-145.193	yaw rate:	-8.164	Roll:	2.512	Pitch:	-2.678	Yaw:	-206.910	Thrust:	100.000
Time:	4.675	Roll Set Point:	-0.065	Pitch Set Point:	0.053	Yaw Set Point:	2.534	X_WP:	0.100	Y_WP:	0.000	Y_WP:	0.500	X:	-0.001	Y:	0.029	Z:	0.049	yaw:	-145.171	yaw rate:	2.155	Roll:	2.306	Pitch:	-2.805	Yaw:	-204.283	Thrust:	100.000
Time:	4.686	Roll Set Point:	-0.065	Pitch Set Point:	0.053	Yaw Set Point:	2.535	X_WP:	0.100	Y_WP:	0.000	Y_WP:	0.500	X:	-0.001	Y:	0.029	Z:	0.049	yaw:	-145.250	yaw rate:	-7.930	Roll:	2.430	Pitch:	-2.620	Yaw:	-206.896	Thrust:	100.000
Time:	4.697	Roll Set Point:	-0.065	Pitch Set Point:	0.052	Yaw Set Point:	2.535	X_WP:	0.100	Y_WP:	0.000	Y_WP:	0.500	X:	-0.001	Y:	0.029	Z:	0.049	yaw:	-145.255	yaw rate:	-0.462	Roll:	2.393	Pitch:	-2.809	Yaw:	-205.181	Thrust:	100.000
Time:	4.708	Roll Set Point:	-0.066	Pitch Set Point:	0.052	Yaw Set Point:	2.538	X_WP:	0.100	Y_WP:	0.000	Y_WP:	0.500	X:	-0.001	Y:	0.029	Z:	0.049	yaw:	-145.428	yaw rate:	-17.317	Roll:	3.116	Pitch:	-2.423	Yaw:	-209.368	Thrust:	100.000
Time:	4.720	Roll Set Point:	-0.065	Pitch Set Point:	0.053	Yaw Set Point:	2.534	X_WP:	0.100	Y_WP:	0.000	Y_WP:	0.500	X:	-0.001	Y:	0.029	Z:	0.049	yaw:	-145.161	yaw rate:	26.686	Roll:	1.467	Pitch:	-3.274	Yaw:	-198.926	Thrust:	100.000
Time:	4.731	Roll Set Point:	-0.065	Pitch Set Point:	0.053	Yaw Set Point:	2.532	X_WP:	0.100	Y_WP:	0.000	Y_WP:	0.500	X:	-0.001	Y:	0.029	Z:	0.049	yaw:	-145.066	yaw rate:	9.488	Roll:	2.181	Pitch:	-2.864	Yaw:	-202.585	Thrust:	100.000
Time:	4.742	Roll Set Point:	-0.065	Pitch Set Point:	0.053	Yaw Set Point:	2.533	X_WP:	0.100	Y_WP:	0.000	Y_WP:	0.500	X:	-0.001	Y:	0.029	Z:	0.049	yaw:	-145.116	yaw rate:	-0.993	Roll:	2.396	Pitch:	-2.717	Yaw:	-206.006	Thrust:	100.000
Time:	4.753	Roll Set Point:	-0.066	Pitch Set Point:	0.053	Yaw Set Point:	2.536	X_WP:	0.100	Y_WP:	0.000	Y_WP:	0.500	X:	-0.001	Y:	0.029	Z:	0.049	yaw:	-145.320	yaw rate:	-20.386	Roll:	3.030	Pitch:	-2.399	Yaw:	-209.836	Thrust:	100.000
Time:	4.764	Roll Set Point:	-0.066	Pitch Set Point:	0.052	Yaw Set Point:	2.538	X_WP:	0.100	Y_WP:	0.000	Y_WP:	0.500	X:	-0.001	Y:	0.029	Z:	0.049	yaw:	-145.392	yaw rate:	-7.247	Roll:	2.501	Pitch:	-2.695	Yaw:	-206.931	Thrust:	100.000
Time:	4.775	Roll Set Point:	-0.066	Pitch Set Point:	0.052	Yaw Set Point:	2.537	X_WP:	0.100	Y_WP:	0.000	Y_WP:	0.500	X:	-0.001	Y:	0.029	Z:	0.049	yaw:	-145.352	yaw rate:	4.015	Roll:	2.251	Pitch:	-2.861	Yaw:	-204.058	Thrust:	100.000
Time:	4.785	Roll Set Point:	-0.066	Pitch Set Point:	0.052	Yaw Set Point:	2.538	X_WP:	0.100	Y_WP:	0.000	Y_WP:	0.500	X:	-0.001	Y:	0.029	Z:	0.049	yaw:	-145.396	yaw rate:	-4.386	Roll:	2.407	Pitch:	-2.632	Yaw:	-206.213	Thrust:	100.000
Time:	4.797	Roll Set Point:	-0.065	Pitch Set Point:	0.053	Yaw Set Point:	2.535	X_WP:	0.100	Y_WP:	0.000	Y_WP:	0.500	X:	-0.001	Y:	0.029	Z:	0.049	yaw:	-145.233	yaw rate:	16.321	Roll:	1.846	Pitch:	-3.109	Yaw:	-201.340	Thrust:	100.000
Time:	4.808	Roll Set Point:	-0.065	Pitch Set Point:	0.053	Yaw Set Point:	2.534	X_WP:	0.100	Y_WP:	0.000	Y_WP:	0.500	X:	-0.001	Y:	0.029	Z:	0.049	yaw:	-145.196	yaw rate:	3.660	Roll:	2.259	Pitch:	-2.865	Yaw:	-204.061	Thrust:	100.000
Time:	4.819	Roll Set Point:	-0.065	Pitch Set Point:	0.053	Yaw Set Point:	2.535	X_WP:	0.100	Y_WP:	0.000	Y_WP:	0.500	X:	-0.001	Y:	0.029	Z:	0.049	yaw:	-145.238	yaw rate:	-4.162	Roll:	2.424	Pitch:	-2.643	Yaw:	-205.986	Thrust:	100.000
Time:	4.830	Roll Set Point:	-0.065	Pitch Set Point:	0.053	Yaw Set Point:	2.533	X_WP:	0.100	Y_WP:	0.000	Y_WP:	0.500	X:	-0.001	Y:	0.029	Z:	0.049	yaw:	-145.107	yaw rate:	13.064	Roll:	2.025	Pitch:	-3.021	Yaw:	-201.212	Thrust:	100.000
Time:	4.841	Roll Set Point:	-0.065	Pitch Set Point:	0.053	Yaw Set Point:	2.533	X_WP:	0.100	Y_WP:	0.000	Y_WP:	0.500	X:	-0.001	Y:	0.029	Z:	0.049	yaw:	-145.106	yaw rate:	0.088	Roll:	2.352	Pitch:	-2.819	Yaw:	-204.994	Thrust:	100.000
Time:	4.853	Roll Set Point:	-0.065	Pitch Set Point:	0.053	Yaw Set Point:	2.535	X_WP:	0.100	Y_WP:	0.000	Y_WP:	0.500	X:	-0.001	Y:	0.029	Z:	0.049	yaw:	-145.234	yaw rate:	-12.794	Roll:	2.664	Pitch:	-2.567	Yaw:	-208.026	Thrust:	100.000
Time:	4.864	Roll Set Point:	-0.065	Pitch Set Point:	0.053	Yaw Set Point:	2.534	X_WP:	0.100	Y_WP:	0.000	Y_WP:	0.500	X:	-0.001	Y:	0.029	Z:	0.049	yaw:	-145.173	yaw rate:	6.135	Roll:	2.282	Pitch:	-2.919	Yaw:	-203.771	Thrust:	100.000
Time:	4.877	Roll Set Point:	-0.065	Pitch Set Point:	0.053	Yaw Set Point:	2.535	X_WP:	0.100	Y_WP:	0.000	Y_WP:	0.500	X:	-0.001	Y:	0.029	Z:	0.049	yaw:	-145.218	yaw rate:	-4.475	Roll:	2.446	Pitch:	-2.703	Yaw:	-206.147	Thrust:	100.000
Time:	4.890	Roll Set Point:	-0.065	Pitch Set Point:	0.053	Yaw Set Point:	2.535	X_WP:	0.100	Y_WP:	0.000	Y_WP:	0.500	X:	-0.001	Y:	0.029	Z:	0.049	yaw:	-145.221	yaw rate:	-0.356	Roll:	2.447	Pitch:	-2.902	Yaw:	-205.449	Thrust:	100.000
Time:	4.901	Roll Set Point:	-0.065	Pitch Set Point:	0.053	Yaw Set Point:	2.535	X_WP:	0.100	Y_WP:	0.000	Y_WP:	0.500	X:	-0.001	Y:	0.029	Z:	0.049	yaw:	-145.239	yaw rate:	-1.812	Roll:	2.329	Pitch:	-2.708	Yaw:	-205.510	Thrust:	100.000
Time:	4.917	Roll Set Point:	-0.065	Pitch Set Point:	0.053	Yaw Set Point:	2.534	X_WP:	0.100	Y_WP:	0.000	Y_WP:	0.500	X:	-0.001	Y:	0.029	Z:	0.049	yaw:	-145.192	yaw rate:	4.744	Roll:	2.366	Pitch:	-2.986	Yaw:	-205.166	Thrust:	100.000
Time:	4.930	Roll Set Point:	-0.065	Pitch Set Point:	0.053	Yaw Set Point:	2.533	X_WP:	0.100	Y_WP:	0.000	Y_WP:	0.500	X:	-0.001	Y:	0.029	Z:	0.049	yaw:	-145.129	yaw rate:	3.767	Roll:	2.439	Pitch:	-2.966	Yaw:	-203.737	Thrust:	100.000
Time:	4.941	Roll Set Point:	-0.066	Pitch Set Point:	0.052	Yaw Set Point:	2.538	X_WP:	0.100	Y_WP:	0.000	Y_WP:	0.500	X:	-0.001	Y:	0.029	Z:	0.049	yaw:	-145.434	yaw rate:	-30.433	Roll:	3.275	Pitch:	-2.274	Yaw:	-212.497	Thrust:	100.000
