Time:	2.143	Roll Set Point:	-0.018	Pitch Set Point:	0.033	Yaw Set Point:	-2.928	X_WP:	0.000	Y_WP:	0.000	Y_WP:	0.500	X:	0.162	Y:	0.067	Z:	0.404	yaw:	167.740	yaw rate:	-5.084	Roll:	-4.192	Pitch:	-2.891	Yaw:	234.209	Thrust:	5.287
Time:	2.158	Roll Set Point:	-0.018	Pitch Set Point:	0.033	Yaw Set Point:	-2.929	X_WP:	0.000	Y_WP:	0.000	Y_WP:	0.500	X:	0.162	Y:	0.067	Z:	0.404	yaw:	167.797	yaw rate:	2.860	Roll:	-4.322	Pitch:	-2.814	Yaw:	236.164	Thrust:	5.501
Time:	2.174	Roll Set Point:	-0.018	Pitch Set Point:	0.033	Yaw Set Point:	-2.928	X_WP:	0.000	Y_WP:	0.000	Y_WP:	0.500	X:	0.162	Y:	0.067	Z:	0.404	yaw:	167.736	yaw rate:	-6.120	Roll:	-4.068	Pitch:	-2.990	Yaw:	234.741	Thrust:	5.603
Time:	2.190	Roll Set Point:	-0.018	Pitch Set Point:	0.033	Yaw Set Point:	-2.928	X_WP:	0.000	Y_WP:	0.000	Y_WP:	0.500	X:	0.162	Y:	0.067	Z:	0.404	yaw:	167.736	yaw rate:	-6.120	Roll:	-4.208	Pitch:	-2.903	Yaw:	235.766	Thrust:	5.827
Time:	2.205	Roll Set Point:	-0.018	Pitch Set Point:	0.033	Yaw Set Point:	-2.928	X_WP:	0.000	Y_WP:	0.000	Y_WP:	0.500	X:	0.162	Y:	0.067	Z:	0.404	yaw:	167.744	yaw rate:	-6.240	Roll:	-4.221	Pitch:	-2.916	Yaw:	235.923	Thrust:	5.970
Time:	2.221	Roll Set Point:	-0.018	Pitch Set Point:	0.033	Yaw Set Point:	-2.929	X_WP:	0.000	Y_WP:	0.000	Y_WP:	0.500	X:	0.162	Y:	0.067	Z:	0.404	yaw:	167.799	yaw rate:	5.433	Roll:	-4.352	Pitch:	-2.813	Yaw:	236.768	Thrust:	6.360
Time:	2.237	Roll Set Point:	-0.018	Pitch Set Point:	0.033	Yaw Set Point:	-2.928	X_WP:	0.000	Y_WP:	0.000	Y_WP:	0.500	X:	0.162	Y:	0.067	Z:	0.404	yaw:	167.772	yaw rate:	-2.672	Roll:	-4.166	Pitch:	-2.882	Yaw:	235.358	Thrust:	6.236
Time:	2.252	Roll Set Point:	-0.017	Pitch Set Point:	0.032	Yaw Set Point:	-2.932	X_WP:	0.000	Y_WP:	0.000	Y_WP:	0.500	X:	0.162	Y:	0.067	Z:	0.404	yaw:	167.980	yaw rate:	20.843	Roll:	-4.642	Pitch:	-2.194	Yaw:	239.598	Thrust:	5.684
Time:	2.268	Roll Set Point:	-0.018	Pitch Set Point:	0.033	Yaw Set Point:	-2.929	X_WP:	0.000	Y_WP:	0.000	Y_WP:	0.500	X:	0.162	Y:	0.067	Z:	0.404	yaw:	167.795	yaw rate:	-18.565	Roll:	-3.880	Pitch:	-3.650	Yaw:	232.734	Thrust:	7.716
Time:	2.283	Roll Set Point:	-0.018	Pitch Set Point:	0.033	Yaw Set Point:	-2.929	X_WP:	0.000	Y_WP:	0.000	Y_WP:	0.500	X:	0.162	Y:	0.067	Z:	0.404	yaw:	167.795	yaw rate:	-18.565	Roll:	-4.245	Pitch:	-2.924	Yaw:	235.849	Thrust:	6.911
Time:	2.299	Roll Set Point:	-0.018	Pitch Set Point:	0.033	Yaw Set Point:	-2.929	X_WP:	0.000	Y_WP:	0.000	Y_WP:	0.500	X:	0.162	Y:	0.067	Z:	0.404	yaw:	167.802	yaw rate:	5.691	Roll:	-4.267	Pitch:	-2.888	Yaw:	235.969	Thrust:	7.041
Time:	2.315	Roll Set Point:	-0.018	Pitch Set Point:	0.033	Yaw Set Point:	-2.929	X_WP:	0.000	Y_WP:	0.000	Y_WP:	0.500	X:	0.162	Y:	0.067	Z:	0.404	yaw:	167.802	yaw rate:	5.691	Roll:	-4.257	Pitch:	-2.931	Yaw:	235.858	Thrust:	7.271
Time:	2.330	Roll Set Point:	-0.018	Pitch Set Point:	0.033	Yaw Set Point:	-2.928	X_WP:	0.000	Y_WP:	0.000	Y_WP:	0.500	X:	0.162	Y:	0.067	Z:	0.404	yaw:	167.767	yaw rate:	-3.438	Roll:	-4.182	Pitch:	-3.017	Yaw:	235.234	Thrust:	7.383
Time:	2.346	Roll Set Point:	-0.018	Pitch Set Point:	0.033	Yaw Set Point:	-2.928	X_WP:	0.000	Y_WP:	0.000	Y_WP:	0.500	X:	0.162	Y:	0.067	Z:	0.404	yaw:	167.767	yaw rate:	-3.438	Roll:	-4.266	Pitch:	-2.941	Yaw:	235.810	Thrust:	7.630
Time:	2.362	Roll Set Point:	-0.018	Pitch Set Point:	0.033	Yaw Set Point:	-2.929	X_WP:	0.000	Y_WP:	0.000	Y_WP:	0.500	X:	0.162	Y:	0.067	Z:	0.404	yaw:	167.813	yaw rate:	-17.203	Roll:	-4.395	Pitch:	-2.822	Yaw:	236.647	Thrust:	7.930
Time:	2.377	Roll Set Point:	-0.018	Pitch Set Point:	0.033	Yaw Set Point:	-2.928	X_WP:	0.000	Y_WP:	0.000	Y_WP:	0.500	X:	0.162	Y:	0.067	Z:	0.404	yaw:	167.772	yaw rate:	-4.161	Roll:	-4.174	Pitch:	-2.997	Yaw:	235.115	Thrust:	7.815
Time:	2.393	Roll Set Point:	-0.018	Pitch Set Point:	0.033	Yaw Set Point:	-2.929	X_WP:	0.000	Y_WP:	0.000	Y_WP:	0.500	X:	0.162	Y:	0.067	Z:	0.404	yaw:	167.808	yaw rate:	3.678	Roll:	-4.370	Pitch:	-2.911	Yaw:	236.484	Thrust:	8.242
Time:	2.408	Roll Set Point:	-0.018	Pitch Set Point:	0.033	Yaw Set Point:	-2.929	X_WP:	0.000	Y_WP:	0.000	Y_WP:	0.500	X:	0.162	Y:	0.067	Z:	0.404	yaw:	167.808	yaw rate:	3.678	Roll:	-4.291	Pitch:	-2.953	Yaw:	235.867	Thrust:	8.351
Time:	2.424	Roll Set Point:	-0.018	Pitch Set Point:	0.033	Yaw Set Point:	-2.928	X_WP:	0.000	Y_WP:	0.000	Y_WP:	0.500	X:	0.162	Y:	0.067	Z:	0.404	yaw:	167.787	yaw rate:	-2.147	Roll:	-4.232	Pitch:	-3.020	Yaw:	235.477	Thrust:	8.504
Time:	2.440	Roll Set Point:	-0.018	Pitch Set Point:	0.033	Yaw Set Point:	-2.928	X_WP:	0.000	Y_WP:	0.000	Y_WP:	0.500	X:	0.162	Y:	0.067	Z:	0.404	yaw:	167.787	yaw rate:	-2.147	Roll:	-4.301	Pitch:	-2.963	Yaw:	235.841	Thrust:	8.719
Time:	2.455	Roll Set Point:	-0.018	Pitch Set Point:	0.033	Yaw Set Point:	-2.929	X_WP:	0.000	Y_WP:	0.000	Y_WP:	0.500	X:	0.162	Y:	0.067	Z:	0.404	yaw:	167.800	yaw rate:	2.287	Roll:	-4.339	Pitch:	-2.936	Yaw:	236.079	Thrust:	8.959
Time:	2.471	Roll Set Point:	-0.018	Pitch Set Point:	0.033	Yaw Set Point:	-2.927	X_WP:	0.000	Y_WP:	0.000	Y_WP:	0.500	X:	0.162	Y:	0.067	Z:	0.404	yaw:	167.729	yaw rate:	-7.149	Roll:	-4.161	Pitch:	-3.133	Yaw:	234.564	Thrust:	9.015
Time:	2.487	Roll Set Point:	-0.018	Pitch Set Point:	0.033	Yaw Set Point:	-2.929	X_WP:	0.000	Y_WP:	0.000	Y_WP:	0.500	X:	0.162	Y:	0.067	Z:	0.404	yaw:	167.811	yaw rate:	8.245	Roll:	-4.486	Pitch:	-2.753	Yaw:	237.253	Thrust:	9.291
Time:	2.502	Roll Set Point:	-0.018	Pitch Set Point:	0.033	Yaw Set Point:	-2.928	X_WP:	0.000	Y_WP:	0.000	Y_WP:	0.500	X:	0.162	Y:	0.067	Z:	0.404	yaw:	167.771	yaw rate:	-4.029	Roll:	-4.250	Pitch:	-3.083	Yaw:	235.136	Thrust:	9.461
Time:	2.518	Roll Set Point:	-0.018	Pitch Set Point:	0.033	Yaw Set Point:	-2.928	X_WP:	0.000	Y_WP:	0.000	Y_WP:	0.500	X:	0.162	Y:	0.067	Z:	0.404	yaw:	167.766	yaw rate:	-0.472	Roll:	-4.331	Pitch:	-3.030	Yaw:	235.729	Thrust:	9.517
Time:	2.533	Roll Set Point:	-0.018	Pitch Set Point:	0.033	Yaw Set Point:	-2.928	X_WP:	0.000	Y_WP:	0.000	Y_WP:	0.500	X:	0.162	Y:	0.067	Z:	0.404	yaw:	167.746	yaw rate:	-2.034	Roll:	-4.278	Pitch:	-3.059	Yaw:	235.439	Thrust:	9.838
Time:	2.549	Roll Set Point:	-0.018	Pitch Set Point:	0.033	Yaw Set Point:	-2.928	X_WP:	0.000	Y_WP:	0.000	Y_WP:	0.500	X:	0.162	Y:	0.067	Z:	0.404	yaw:	167.786	yaw rate:	4.014	Roll:	-4.408	Pitch:	-2.843	Yaw:	236.509	Thrust:	10.092
Time:	2.565	Roll Set Point:	-0.017	Pitch Set Point:	0.032	Yaw Set Point:	-2.932	X_WP:	0.000	Y_WP:	0.000	Y_WP:	0.500	X:	0.162	Y:	0.067	Z:	0.404	yaw:	167.987	yaw rate:	20.105	Roll:	-4.750	Pitch:	-2.213	Yaw:	239.485	Thrust:	9.103
Time:	2.580	Roll Set Point:	-0.017	Pitch Set Point:	0.032	Yaw Set Point:	-2.932	X_WP:	0.000	Y_WP:	0.000	Y_WP:	0.500	X:	0.162	Y:	0.067	Z:	0.404	yaw:	167.987	yaw rate:	20.105	Roll:	-4.362	Pitch:	-2.977	Yaw:	236.120	Thrust:	10.326
Time:	2.596	Roll Set Point:	-0.018	Pitch Set Point:	0.033	Yaw Set Point:	-2.928	X_WP:	0.000	Y_WP:	0.000	Y_WP:	0.500	X:	0.162	Y:	0.067	Z:	0.404	yaw:	167.768	yaw rate:	-21.883	Roll:	-3.939	Pitch:	-3.817	Yaw:	232.145	Thrust:	11.514
Time:	2.612	Roll Set Point:	-0.018	Pitch Set Point:	0.033	Yaw Set Point:	-2.929	X_WP:	0.000	Y_WP:	0.000	Y_WP:	0.500	X:	0.162	Y:	0.067	Z:	0.404	yaw:	167.795	yaw rate:	1.676	Roll:	-4.401	Pitch:	-2.937	Yaw:	236.287	Thrust:	10.658
Time:	2.627	Roll Set Point:	-0.018	Pitch Set Point:	0.033	Yaw Set Point:	-2.929	X_WP:	0.000	Y_WP:	0.000	Y_WP:	0.500	X:	0.162	Y:	0.067	Z:	0.404	yaw:	167.795	yaw rate:	1.676	Roll:	-4.369	Pitch:	-3.009	Yaw:	235.848	Thrust:	10.876
Time:	2.643	Roll Set Point:	-0.018	Pitch Set Point:	0.033	Yaw Set Point:	-2.929	X_WP:	0.000	Y_WP:	0.000	Y_WP:	0.500	X:	0.162	Y:	0.067	Z:	0.404	yaw:	167.792	yaw rate:	-0.311	Roll:	-4.398	Pitch:	-3.007	Yaw:	235.792	Thrust:	10.998
Time:	2.658	Roll Set Point:	-0.018	Pitch Set Point:	0.033	Yaw Set Point:	-2.929	X_WP:	0.000	Y_WP:	0.000	Y_WP:	0.500	X:	0.162	Y:	0.067	Z:	0.404	yaw:	167.792	yaw rate:	-0.311	Roll:	-4.381	Pitch:	-3.016	Yaw:	235.844	Thrust:	11.235
Time:	2.674	Roll Set Point:	-0.018	Pitch Set Point:	0.033	Yaw Set Point:	-2.928	X_WP:	0.000	Y_WP:	0.000	Y_WP:	0.500	X:	0.162	Y:	0.067	Z:	0.404	yaw:	167.763	yaw rate:	-2.872	Roll:	-4.315	Pitch:	-3.112	Yaw:	235.322	Thrust:	11.382
Time:	2.690	Roll Set Point:	-0.018	Pitch Set Point:	0.033	Yaw Set Point:	-2.929	X_WP:	0.000	Y_WP:	0.000	Y_WP:	0.500	X:	0.162	Y:	0.067	Z:	0.404	yaw:	167.791	yaw rate:	2.879	Roll:	-4.449	Pitch:	-2.958	Yaw:	236.321	Thrust:	11.658
Time:	2.705	Roll Set Point:	-0.017	Pitch Set Point:	0.032	Yaw Set Point:	-2.932	X_WP:	0.000	Y_WP:	0.000	Y_WP:	0.500	X:	0.162	Y:	0.067	Z:	0.404	yaw:	167.982	yaw rate:	19.074	Roll:	-4.784	Pitch:	-2.308	Yaw:	239.305	Thrust:	10.891
Time:	2.721	Roll Set Point:	-0.017	Pitch Set Point:	0.032	Yaw Set Point:	-2.931	X_WP:	0.000	Y_WP:	0.000	Y_WP:	0.500	X:	0.162	Y:	0.067	Z:	0.404	yaw:	167.954	yaw rate:	-2.763	Roll:	-4.340	Pitch:	-3.061	Yaw:	235.608	Thrust:	11.819
Time:	2.737	Roll Set Point:	-0.018	Pitch Set Point:	0.033	Yaw Set Point:	-2.928	X_WP:	0.000	Y_WP:	0.000	Y_WP:	0.500	X:	0.162	Y:	0.067	Z:	0.404	yaw:	167.779	yaw rate:	-17.499	Roll:	-4.084	Pitch:	-3.727	Yaw:	232.895	Thrust:	13.110
Time:	2.752	Roll Set Point:	-0.018	Pitch Set Point:	0.033	Yaw Set Point:	-2.928	X_WP:	0.000	Y_WP:	0.000	Y_WP:	0.500	X:	0.162	Y:	0.067	Z:	0.404	yaw:	167.783	yaw rate:	0.356	Roll:	-4.416	Pitch:	-2.996	Yaw:	235.892	Thrust:	12.272
Time:	2.768	Roll Set Point:	-0.018	Pitch Set Point:	0.033	Yaw Set Point:	-2.928	X_WP:	0.000	Y_WP:	0.000	Y_WP:	0.500	X:	0.162	Y:	0.067	Z:	0.404	yaw:	167.787	yaw rate:	0.436	Roll:	-4.435	Pitch:	-3.075	Yaw:	235.911	Thrust:	12.572
Time:	2.783	Roll Set Point:	-0.018	Pitch Set Point:	0.033	Yaw Set Point:	-2.928	X_WP:	0.000	Y_WP:	0.000	Y_WP:	0.500	X:	0.162	Y:	0.067	Z:	0.404	yaw:	167.783	yaw rate:	-0.441	Roll:	-4.422	Pitch:	-3.029	Yaw:	235.758	Thrust:	12.623
Time:	2.799	Roll Set Point:	-0.018	Pitch Set Point:	0.033	Yaw Set Point:	-2.928	X_WP:	0.000	Y_WP:	0.000	Y_WP:	0.500	X:	0.162	Y:	0.067	Z:	0.404	yaw:	167.775	yaw rate:	-0.819	Roll:	-4.422	Pitch:	-3.102	Yaw:	235.683	Thrust:	12.865
Time:	2.815	Roll Set Point:	-0.018	Pitch Set Point:	0.033	Yaw Set Point:	-2.928	X_WP:	0.000	Y_WP:	0.000	Y_WP:	0.500	X:	0.162	Y:	0.067	Z:	0.404	yaw:	167.775	yaw rate:	-0.819	Roll:	-4.437	Pitch:	-3.057	Yaw:	235.820	Thrust:	13.036
Time:	2.830	Roll Set Point:	-0.018	Pitch Set Point:	0.033	Yaw Set Point:	-2.928	X_WP:	0.000	Y_WP:	0.000	Y_WP:	0.500	X:	0.162	Y:	0.067	Z:	0.404	yaw:	167.770	yaw rate:	-1.413	Roll:	-4.422	Pitch:	-3.027	Yaw:	235.740	Thrust:	13.116
Time:	2.846	Roll Set Point:	-0.018	Pitch Set Point:	0.033	Yaw Set Point:	-2.929	X_WP:	0.000	Y_WP:	0.000	Y_WP:	0.500	X:	0.162	Y:	0.067	Z:	0.404	yaw:	167.793	yaw rate:	2.257	Roll:	-4.491	Pitch:	-3.053	Yaw:	236.224	Thrust:	13.598
Time:	2.862	Roll Set Point:	-0.018	Pitch Set Point:	0.033	Yaw Set Point:	-2.928	X_WP:	0.000	Y_WP:	0.000	Y_WP:	0.500	X:	0.162	Y:	0.067	Z:	0.404	yaw:	167.776	yaw rate:	-1.702	Roll:	-4.429	Pitch:	-3.087	Yaw:	235.536	Thrust:	13.466
Time:	2.877	Roll Set Point:	-0.018	Pitch Set Point:	0.033	Yaw Set Point:	-2.928	X_WP:	0.000	Y_WP:	0.000	Y_WP:	0.500	X:	0.162	Y:	0.067	Z:	0.404	yaw:	167.771	yaw rate:	-0.525	Roll:	-4.429	Pitch:	-3.080	Yaw:	235.726	Thrust:	13.800
Time:	2.893	Roll Set Point:	-0.018	Pitch Set Point:	0.033	Yaw Set Point:	-2.928	X_WP:	0.000	Y_WP:	0.000	Y_WP:	0.500	X:	0.162	Y:	0.067	Z:	0.404	yaw:	167.771	yaw rate:	-0.525	Roll:	-4.464	Pitch:	-3.076	Yaw:	235.814	Thrust:	13.938
Time:	2.908	Roll Set Point:	-0.018	Pitch Set Point:	0.033	Yaw Set Point:	-2.928	X_WP:	0.000	Y_WP:	0.000	Y_WP:	0.500	X:	0.162	Y:	0.067	Z:	0.404	yaw:	167.763	yaw rate:	-0.810	Roll:	-4.475	Pitch:	-3.107	Yaw:	235.668	Thrust:	14.065
Time:	2.938	Roll Set Point:	-0.018	Pitch Set Point:	0.033	Yaw Set Point:	-2.928	X_WP:	0.000	Y_WP:	0.000	Y_WP:	0.500	X:	0.162	Y:	0.067	Z:	0.404	yaw:	167.752	yaw rate:	-1.880	Roll:	-4.696	Pitch:	-3.270	Yaw:	237.060	Thrust:	22.199
Time:	2.953	Roll Set Point:	-0.018	Pitch Set Point:	0.033	Yaw Set Point:	-2.928	X_WP:	0.000	Y_WP:	0.000	Y_WP:	0.500	X:	0.162	Y:	0.067	Z:	0.404	yaw:	167.752	yaw rate:	-1.880	Roll:	-4.480	Pitch:	-3.089	Yaw:	235.788	Thrust:	14.476
Time:	2.969	Roll Set Point:	-0.018	Pitch Set Point:	0.033	Yaw Set Point:	-2.928	X_WP:	0.000	Y_WP:	0.000	Y_WP:	0.500	X:	0.162	Y:	0.067	Z:	0.404	yaw:	167.777	yaw rate:	-1.328	Roll:	-4.567	Pitch:	-3.034	Yaw:	236.246	Thrust:	14.565
Time:	2.985	Roll Set Point:	-0.018	Pitch Set Point:	0.033	Yaw Set Point:	-2.928	X_WP:	0.000	Y_WP:	0.000	Y_WP:	0.500	X:	0.162	Y:	0.067	Z:	0.404	yaw:	167.777	yaw rate:	-1.328	Roll:	-4.494	Pitch:	-3.096	Yaw:	235.827	Thrust:	14.857
Time:	3.000	Roll Set Point:	-0.018	Pitch Set Point:	0.033	Yaw Set Point:	-2.928	X_WP:	0.000	Y_WP:	0.000	Y_WP:	0.500	X:	0.162	Y:	0.067	Z:	0.404	yaw:	167.777	yaw rate:	-0.043	Roll:	-4.472	Pitch:	-3.088	Yaw:	235.813	Thrust:	15.054
Time:	3.016	Roll Set Point:	-0.018	Pitch Set Point:	0.033	Yaw Set Point:	-2.929	X_WP:	0.000	Y_WP:	0.000	Y_WP:	0.500	X:	0.162	Y:	0.067	Z:	0.404	yaw:	167.814	yaw rate:	3.769	Roll:	-4.583	Pitch:	-3.022	Yaw:	236.507	Thrust:	15.192
Time:	3.032	Roll Set Point:	-0.017	Pitch Set Point:	0.032	Yaw Set Point:	-2.932	X_WP:	0.000	Y_WP:	0.000	Y_WP:	0.500	X:	0.162	Y:	0.067	Z:	0.404	yaw:	167.984	yaw rate:	20.175	Roll:	-4.853	Pitch:	-2.432	Yaw:	238.958	Thrust:	14.480
Time:	3.047	Roll Set Point:	-0.018	Pitch Set Point:	0.033	Yaw Set Point:	-2.929	X_WP:	0.000	Y_WP:	0.000	Y_WP:	0.500	X:	0.162	Y:	0.067	Z:	0.404	yaw:	167.794	yaw rate:	-18.986	Roll:	-4.152	Pitch:	-3.804	Yaw:	232.683	Thrust:	16.573
Time:	3.063	Roll Set Point:	-0.018	Pitch Set Point:	0.033	Yaw Set Point:	-2.929	X_WP:	0.000	Y_WP:	0.000	Y_WP:	0.500	X:	0.162	Y:	0.067	Z:	0.404	yaw:	167.794	yaw rate:	-18.986	Roll:	-4.522	Pitch:	-3.113	Yaw:	235.848	Thrust:	15.741
Time:	3.078	Roll Set Point:	-0.018	Pitch Set Point:	0.033	Yaw Set Point:	-2.928	X_WP:	0.000	Y_WP:	0.000	Y_WP:	0.500	X:	0.162	Y:	0.067	Z:	0.404	yaw:	167.784	yaw rate:	2.837	Roll:	-4.517	Pitch:	-3.143	Yaw:	235.660	Thrust:	15.821
Time:	3.094	Roll Set Point:	-0.018	Pitch Set Point:	0.033	Yaw Set Point:	-2.928	X_WP:	0.000	Y_WP:	0.000	Y_WP:	0.500	X:	0.162	Y:	0.067	Z:	0.404	yaw:	167.784	yaw rate:	2.837	Roll:	-4.532	Pitch:	-3.121	Yaw:	235.830	Thrust:	16.078
Time:	3.110	Roll Set Point:	-0.018	Pitch Set Point:	0.033	Yaw Set Point:	-2.929	X_WP:	0.000	Y_WP:	0.000	Y_WP:	0.500	X:	0.162	Y:	0.067	Z:	0.404	yaw:	167.807	yaw rate:	1.380	Roll:	-4.584	Pitch:	-3.065	Yaw:	236.248	Thrust:	16.312
Time:	3.125	Roll Set Point:	-0.018	Pitch Set Point:	0.033	Yaw Set Point:	-2.929	X_WP:	0.000	Y_WP:	0.000	Y_WP:	0.500	X:	0.162	Y:	0.067	Z:	0.404	yaw:	167.798	yaw rate:	-0.938	Roll:	-4.544	Pitch:	-3.150	Yaw:	235.695	Thrust:	16.542
Time:	3.141	Roll Set Point:	-0.018	Pitch Set Point:	0.033	Yaw Set Point:	-2.928	X_WP:	0.000	Y_WP:	0.000	Y_WP:	0.500	X:	0.162	Y:	0.067	Z:	0.404	yaw:	167.789	yaw rate:	-0.822	Roll:	-4.507	Pitch:	-3.155	Yaw:	235.703	Thrust:	16.482
Time:	3.157	Roll Set Point:	-0.018	Pitch Set Point:	0.033	Yaw Set Point:	-2.928	X_WP:	0.000	Y_WP:	0.000	Y_WP:	0.500	X:	0.162	Y:	0.067	Z:	0.404	yaw:	167.759	yaw rate:	-3.037	Roll:	-4.512	Pitch:	-3.221	Yaw:	235.290	Thrust:	16.857
Time:	3.172	Roll Set Point:	-0.018	Pitch Set Point:	0.033	Yaw Set Point:	-2.928	X_WP:	0.000	Y_WP:	0.000	Y_WP:	0.500	X:	0.162	Y:	0.067	Z:	0.404	yaw:	167.759	yaw rate:	-3.037	Roll:	-4.560	Pitch:	-3.143	Yaw:	235.798	Thrust:	17.002
Time:	3.188	Roll Set Point:	-0.018	Pitch Set Point:	0.033	Yaw Set Point:	-2.928	X_WP:	0.000	Y_WP:	0.000	Y_WP:	0.500	X:	0.162	Y:	0.067	Z:	0.404	yaw:	167.787	yaw rate:	-0.943	Roll:	-4.600	Pitch:	-3.088	Yaw:	236.303	Thrust:	17.257
Time:	3.203	Roll Set Point:	-0.018	Pitch Set Point:	0.033	Yaw Set Point:	-2.928	X_WP:	0.000	Y_WP:	0.000	Y_WP:	0.500	X:	0.162	Y:	0.067	Z:	0.404	yaw:	167.760	yaw rate:	-2.655	Roll:	-4.539	Pitch:	-3.188	Yaw:	235.355	Thrust:	17.261
Time:	3.219	Roll Set Point:	-0.018	Pitch Set Point:	0.033	Yaw Set Point:	-2.928	X_WP:	0.000	Y_WP:	0.000	Y_WP:	0.500	X:	0.162	Y:	0.067	Z:	0.404	yaw:	167.778	yaw rate:	1.821	Roll:	-4.598	Pitch:	-3.118	Yaw:	236.130	Thrust:	17.532
Time:	3.235	Roll Set Point:	-0.018	Pitch Set Point:	0.033	Yaw Set Point:	-2.928	X_WP:	0.000	Y_WP:	0.000	Y_WP:	0.500	X:	0.162	Y:	0.067	Z:	0.404	yaw:	167.781	yaw rate:	0.251	Roll:	-4.595	Pitch:	-3.162	Yaw:	235.871	Thrust:	17.821
Time:	3.250	Roll Set Point:	-0.018	Pitch Set Point:	0.033	Yaw Set Point:	-2.929	X_WP:	0.000	Y_WP:	0.000	Y_WP:	0.500	X:	0.162	Y:	0.067	Z:	0.404	yaw:	167.799	yaw rate:	1.830	Roll:	-4.632	Pitch:	-3.061	Yaw:	236.161	Thrust:	17.804
Time:	3.266	Roll Set Point:	-0.018	Pitch Set Point:	0.033	Yaw Set Point:	-2.928	X_WP:	0.000	Y_WP:	0.000	Y_WP:	0.500	X:	0.162	Y:	0.067	Z:	0.404	yaw:	167.782	yaw rate:	-1.748	Roll:	-4.556	Pitch:	-3.256	Yaw:	235.541	Thrust:	18.217
Time:	3.282	Roll Set Point:	-0.018	Pitch Set Point:	0.033	Yaw Set Point:	-2.928	X_WP:	0.000	Y_WP:	0.000	Y_WP:	0.500	X:	0.162	Y:	0.067	Z:	0.404	yaw:	167.754	yaw rate:	-2.772	Roll:	-4.540	Pitch:	-3.243	Yaw:	235.323	Thrust:	18.187
Time:	3.297	Roll Set Point:	-0.018	Pitch Set Point:	0.033	Yaw Set Point:	-2.928	X_WP:	0.000	Y_WP:	0.000	Y_WP:	0.500	X:	0.162	Y:	0.067	Z:	0.404	yaw:	167.781	yaw rate:	2.735	Roll:	-4.648	Pitch:	-3.093	Yaw:	236.290	Thrust:	18.467
Time:	3.313	Roll Set Point:	-0.018	Pitch Set Point:	0.033	Yaw Set Point:	-2.928	X_WP:	0.000	Y_WP:	0.000	Y_WP:	0.500	X:	0.162	Y:	0.067	Z:	0.404	yaw:	167.770	yaw rate:	-1.094	Roll:	-4.601	Pitch:	-3.184	Yaw:	235.628	Thrust:	18.543
Time:	3.328	Roll Set Point:	-0.018	Pitch Set Point:	0.033	Yaw Set Point:	-2.928	X_WP:	0.000	Y_WP:	0.000	Y_WP:	0.500	X:	0.162	Y:	0.067	Z:	0.404	yaw:	167.770	yaw rate:	-1.094	Roll:	-4.617	Pitch:	-3.181	Yaw:	235.814	Thrust:	18.803
Time:	3.344	Roll Set Point:	-0.018	Pitch Set Point:	0.033	Yaw Set Point:	-2.928	X_WP:	0.000	Y_WP:	0.000	Y_WP:	0.500	X:	0.162	Y:	0.067	Z:	0.404	yaw:	167.756	yaw rate:	-1.702	Roll:	-4.590	Pitch:	-3.260	Yaw:	235.552	Thrust:	19.148
Time:	3.360	Roll Set Point:	-0.018	Pitch Set Point:	0.033	Yaw Set Point:	-2.928	X_WP:	0.000	Y_WP:	0.000	Y_WP:	0.500	X:	0.162	Y:	0.067	Z:	0.404	yaw:	167.756	yaw rate:	-0.005	Roll:	-4.632	Pitch:	-3.180	Yaw:	235.790	Thrust:	19.053
Time:	3.375	Roll Set Point:	-0.018	Pitch Set Point:	0.033	Yaw Set Point:	-2.929	X_WP:	0.000	Y_WP:	0.000	Y_WP:	0.500	X:	0.162	Y:	0.067	Z:	0.404	yaw:	167.793	yaw rate:	3.707	Roll:	-4.706	Pitch:	-3.086	Yaw:	236.467	Thrust:	19.367
Time:	3.391	Roll Set Point:	-0.018	Pitch Set Point:	0.033	Yaw Set Point:	-2.928	X_WP:	0.000	Y_WP:	0.000	Y_WP:	0.500	X:	0.162	Y:	0.067	Z:	0.404	yaw:	167.765	yaw rate:	-2.733	Roll:	-4.597	Pitch:	-3.284	Yaw:	235.354	Thrust:	19.560
Time:	3.407	Roll Set Point:	-0.018	Pitch Set Point:	0.033	Yaw Set Point:	-2.928	X_WP:	0.000	Y_WP:	0.000	Y_WP:	0.500	X:	0.162	Y:	0.067	Z:	0.404	yaw:	167.765	yaw rate:	-2.733	Roll:	-4.644	Pitch:	-3.201	Yaw:	235.804	Thrust:	19.676
Time:	3.422	Roll Set Point:	-0.018	Pitch Set Point:	0.033	Yaw Set Point:	-2.928	X_WP:	0.000	Y_WP:	0.000	Y_WP:	0.500	X:	0.162	Y:	0.067	Z:	0.404	yaw:	167.773	yaw rate:	0.713	Roll:	-4.650	Pitch:	-3.160	Yaw:	235.937	Thrust:	19.805
Time:	3.438	Roll Set Point:	-0.018	Pitch Set Point:	0.033	Yaw Set Point:	-2.928	X_WP:	0.000	Y_WP:	0.000	Y_WP:	0.500	X:	0.162	Y:	0.067	Z:	0.404	yaw:	167.771	yaw rate:	-4.932	Roll:	-4.656	Pitch:	-3.243	Yaw:	235.799	Thrust:	20.204
Time:	3.453	Roll Set Point:	-0.018	Pitch Set Point:	0.033	Yaw Set Point:	-2.928	X_WP:	0.000	Y_WP:	0.000	Y_WP:	0.500	X:	0.162	Y:	0.067	Z:	0.404	yaw:	167.763	yaw rate:	-0.827	Roll:	-4.649	Pitch:	-3.214	Yaw:	235.660	Thrust:	20.051
Time:	3.469	Roll Set Point:	-0.018	Pitch Set Point:	0.033	Yaw Set Point:	-2.928	X_WP:	0.000	Y_WP:	0.000	Y_WP:	0.500	X:	0.162	Y:	0.067	Z:	0.404	yaw:	167.777	yaw rate:	1.405	Roll:	-4.697	Pitch:	-3.188	Yaw:	236.059	Thrust:	20.608
Time:	3.485	Roll Set Point:	-0.018	Pitch Set Point:	0.033	Yaw Set Point:	-2.928	X_WP:	0.000	Y_WP:	0.000	Y_WP:	0.500	X:	0.162	Y:	0.067	Z:	0.404	yaw:	167.786	yaw rate:	0.931	Roll:	-4.685	Pitch:	-3.165	Yaw:	235.993	Thrust:	20.465
Time:	3.500	Roll Set Point:	-0.018	Pitch Set Point:	0.033	Yaw Set Point:	-2.928	X_WP:	0.000	Y_WP:	0.000	Y_WP:	0.500	X:	0.162	Y:	0.067	Z:	0.404	yaw:	167.786	yaw rate:	0.931	Roll:	-4.680	Pitch:	-3.222	Yaw:	235.837	Thrust:	20.787
Time:	3.516	Roll Set Point:	-0.018	Pitch Set Point:	0.033	Yaw Set Point:	-2.929	X_WP:	0.000	Y_WP:	0.000	Y_WP:	0.500	X:	0.162	Y:	0.067	Z:	0.404	yaw:	167.795	yaw rate:	-16.303	Roll:	-4.707	Pitch:	-3.284	Yaw:	235.986	Thrust:	21.145
Time:	3.532	Roll Set Point:	-0.018	Pitch Set Point:	0.033	Yaw Set Point:	-2.928	X_WP:	0.000	Y_WP:	0.000	Y_WP:	0.500	X:	0.162	Y:	0.067	Z:	0.404	yaw:	167.767	yaw rate:	-2.736	Roll:	-4.628	Pitch:	-3.242	Yaw:	235.352	Thrust:	21.049
Time:	3.547	Roll Set Point:	-0.018	Pitch Set Point:	0.033	Yaw Set Point:	-2.928	X_WP:	0.000	Y_WP:	0.000	Y_WP:	0.500	X:	0.162	Y:	0.067	Z:	0.404	yaw:	167.780	yaw rate:	1.321	Roll:	-4.729	Pitch:	-3.187	Yaw:	236.050	Thrust:	21.332
Time:	3.563	Roll Set Point:	-0.018	Pitch Set Point:	0.033	Yaw Set Point:	-2.928	X_WP:	0.000	Y_WP:	0.000	Y_WP:	0.500	X:	0.162	Y:	0.067	Z:	0.404	yaw:	167.780	yaw rate:	1.321	Roll:	-4.702	Pitch:	-3.238	Yaw:	235.828	Thrust:	21.507
Time:	3.578	Roll Set Point:	-0.017	Pitch Set Point:	0.032	Yaw Set Point:	-2.932	X_WP:	0.000	Y_WP:	0.000	Y_WP:	0.500	X:	0.162	Y:	0.067	Z:	0.404	yaw:	167.977	yaw rate:	22.127	Roll:	-5.115	Pitch:	-2.558	Yaw:	239.399	Thrust:	20.737
Time:	3.594	Roll Set Point:	-0.018	Pitch Set Point:	0.033	Yaw Set Point:	-2.928	X_WP:	0.000	Y_WP:	0.000	Y_WP:	0.500	X:	0.162	Y:	0.067	Z:	0.404	yaw:	167.779	yaw rate:	-19.819	Roll:	-4.306	Pitch:	-3.918	Yaw:	232.513	Thrust:	22.881
Time:	3.610	Roll Set Point:	-0.018	Pitch Set Point:	0.033	Yaw Set Point:	-2.928	X_WP:	0.000	Y_WP:	0.000	Y_WP:	0.500	X:	0.162	Y:	0.067	Z:	0.404	yaw:	167.779	yaw rate:	-19.819	Roll:	-4.718	Pitch:	-3.250	Yaw:	235.824	Thrust:	22.029
Time:	3.625	Roll Set Point:	-0.018	Pitch Set Point:	0.033	Yaw Set Point:	-2.928	X_WP:	0.000	Y_WP:	0.000	Y_WP:	0.500	X:	0.162	Y:	0.067	Z:	0.404	yaw:	167.783	yaw rate:	-1.112	Roll:	-4.743	Pitch:	-3.269	Yaw:	235.893	Thrust:	22.169
Time:	3.641	Roll Set Point:	-0.018	Pitch Set Point:	0.033	Yaw Set Point:	-2.928	X_WP:	0.000	Y_WP:	0.000	Y_WP:	0.500	X:	0.162	Y:	0.067	Z:	0.404	yaw:	167.775	yaw rate:	-0.810	Roll:	-4.710	Pitch:	-3.279	Yaw:	235.685	Thrust:	22.468
Time:	3.657	Roll Set Point:	-0.018	Pitch Set Point:	0.033	Yaw Set Point:	-2.928	X_WP:	0.000	Y_WP:	0.000	Y_WP:	0.500	X:	0.162	Y:	0.067	Z:	0.404	yaw:	167.790	yaw rate:	1.566	Roll:	-4.796	Pitch:	-3.198	Yaw:	236.104	Thrust:	22.410
Time:	3.672	Roll Set Point:	-0.018	Pitch Set Point:	0.033	Yaw Set Point:	-2.929	X_WP:	0.000	Y_WP:	0.000	Y_WP:	0.500	X:	0.162	Y:	0.067	Z:	0.404	yaw:	167.798	yaw rate:	0.788	Roll:	-4.733	Pitch:	-3.282	Yaw:	235.985	Thrust:	23.022
Time:	3.688	Roll Set Point:	-0.018	Pitch Set Point:	0.033	Yaw Set Point:	-2.928	X_WP:	0.000	Y_WP:	0.000	Y_WP:	0.500	X:	0.162	Y:	0.067	Z:	0.404	yaw:	167.750	yaw rate:	-4.862	Roll:	-4.643	Pitch:	-3.378	Yaw:	234.971	Thrust:	22.781
Time:	3.703	Roll Set Point:	-0.018	Pitch Set Point:	0.033	Yaw Set Point:	-2.928	X_WP:	0.000	Y_WP:	0.000	Y_WP:	0.500	X:	0.162	Y:	0.067	Z:	0.404	yaw:	167.779	yaw rate:	2.940	Roll:	-4.814	Pitch:	-3.213	Yaw:	236.319	Thrust:	23.169
Time:	3.719	Roll Set Point:	-0.018	Pitch Set Point:	0.033	Yaw Set Point:	-2.928	X_WP:	0.000	Y_WP:	0.000	Y_WP:	0.500	X:	0.162	Y:	0.067	Z:	0.404	yaw:	167.779	yaw rate:	2.940	Roll:	-4.758	Pitch:	-3.278	Yaw:	235.826	Thrust:	23.310
Time:	3.735	Roll Set Point:	-0.018	Pitch Set Point:	0.033	Yaw Set Point:	-2.929	X_WP:	0.000	Y_WP:	0.000	Y_WP:	0.500	X:	0.162	Y:	0.067	Z:	0.404	yaw:	167.795	yaw rate:	4.193	Roll:	-4.808	Pitch:	-3.260	Yaw:	236.110	Thrust:	23.629
Time:	3.750	Roll Set Point:	-0.017	Pitch Set Point:	0.032	Yaw Set Point:	-2.931	X_WP:	0.000	Y_WP:	0.000	Y_WP:	0.500	X:	0.162	Y:	0.067	Z:	0.404	yaw:	167.962	yaw rate:	16.768	Roll:	-5.098	Pitch:	-2.588	Yaw:	238.891	Thrust:	22.539
Time:	3.766	Roll Set Point:	-0.017	Pitch Set Point:	0.032	Yaw Set Point:	-2.931	X_WP:	0.000	Y_WP:	0.000	Y_WP:	0.500	X:	0.162	Y:	0.067	Z:	0.404	yaw:	167.962	yaw rate:	16.768	Roll:	-4.785	Pitch:	-3.271	Yaw:	236.082	Thrust:	23.833
Time:	3.782	Roll Set Point:	-0.018	Pitch Set Point:	0.033	Yaw Set Point:	-2.929	X_WP:	0.000	Y_WP:	0.000	Y_WP:	0.500	X:	0.162	Y:	0.067	Z:	0.404	yaw:	167.796	yaw rate:	2.107	Roll:	-4.471	Pitch:	-3.963	Yaw:	233.081	Thrust:	25.065
Time:	3.797	Roll Set Point:	-0.018	Pitch Set Point:	0.033	Yaw Set Point:	-2.928	X_WP:	0.000	Y_WP:	0.000	Y_WP:	0.500	X:	0.162	Y:	0.067	Z:	0.404	yaw:	167.760	yaw rate:	-3.687	Roll:	-4.693	Pitch:	-3.332	Yaw:	235.182	Thrust:	24.134
Time:	3.813	Roll Set Point:	-0.018	Pitch Set Point:	0.033	Yaw Set Point:	-2.928	X_WP:	0.000	Y_WP:	0.000	Y_WP:	0.500	X:	0.162	Y:	0.067	Z:	0.404	yaw:	167.785	yaw rate:	2.555	Roll:	-4.826	Pitch:	-3.272	Yaw:	236.263	Thrust:	24.478
Time:	3.829	Roll Set Point:	-0.018	Pitch Set Point:	0.033	Yaw Set Point:	-2.928	X_WP:	0.000	Y_WP:	0.000	Y_WP:	0.500	X:	0.162	Y:	0.067	Z:	0.404	yaw:	167.787	yaw rate:	0.220	Roll:	-4.787	Pitch:	-3.337	Yaw:	235.877	Thrust:	24.598
Time:	3.844	Roll Set Point:	-0.018	Pitch Set Point:	0.033	Yaw Set Point:	-2.928	X_WP:	0.000	Y_WP:	0.000	Y_WP:	0.500	X:	0.162	Y:	0.067	Z:	0.404	yaw:	167.787	yaw rate:	0.220	Roll:	-4.778	Pitch:	-3.308	Yaw:	235.833	Thrust:	24.686
Time:	3.860	Roll Set Point:	-0.018	Pitch Set Point:	0.033	Yaw Set Point:	-2.929	X_WP:	0.000	Y_WP:	0.000	Y_WP:	0.500	X:	0.162	Y:	0.067	Z:	0.404	yaw:	167.793	yaw rate:	2.530	Roll:	-4.790	Pitch:	-3.228	Yaw:	235.938	Thrust:	24.980
Time:	3.875	Roll Set Point:	-0.017	Pitch Set Point:	0.032	Yaw Set Point:	-2.932	X_WP:	0.000	Y_WP:	0.000	Y_WP:	0.500	X:	0.162	Y:	0.067	Z:	0.404	yaw:	167.988	yaw rate:	19.562	Roll:	-5.170	Pitch:	-2.631	Yaw:	239.393	Thrust:	24.292
Time:	3.891	Roll Set Point:	-0.017	Pitch Set Point:	0.032	Yaw Set Point:	-2.931	X_WP:	0.000	Y_WP:	0.000	Y_WP:	0.500	X:	0.162	Y:	0.067	Z:	0.404	yaw:	167.949	yaw rate:	-3.969	Roll:	-4.707	Pitch:	-3.378	Yaw:	235.394	Thrust:	25.001
Time:	3.907	Roll Set Point:	-0.017	Pitch Set Point:	0.032	Yaw Set Point:	-2.931	X_WP:	0.000	Y_WP:	0.000	Y_WP:	0.500	X:	0.162	Y:	0.067	Z:	0.404	yaw:	167.949	yaw rate:	-3.969	Roll:	-4.789	Pitch:	-3.308	Yaw:	236.066	Thrust:	25.492
Time:	3.922	Roll Set Point:	-0.018	Pitch Set Point:	0.033	Yaw Set Point:	-2.928	X_WP:	0.000	Y_WP:	0.000	Y_WP:	0.500	X:	0.162	Y:	0.067	Z:	0.404	yaw:	167.767	yaw rate:	-2.829	Roll:	-4.433	Pitch:	-3.988	Yaw:	232.709	Thrust:	26.342
Time:	3.938	Roll Set Point:	-0.018	Pitch Set Point:	0.033	Yaw Set Point:	-2.928	X_WP:	0.000	Y_WP:	0.000	Y_WP:	0.500	X:	0.162	Y:	0.067	Z:	0.404	yaw:	167.767	yaw rate:	-2.829	Roll:	-4.780	Pitch:	-3.333	Yaw:	235.813	Thrust:	25.870
Time:	3.953	Roll Set Point:	-0.018	Pitch Set Point:	0.033	Yaw Set Point:	-2.928	X_WP:	0.000	Y_WP:	0.000	Y_WP:	0.500	X:	0.162	Y:	0.067	Z:	0.404	yaw:	167.767	yaw rate:	-3.244	Roll:	-4.780	Pitch:	-3.353	Yaw:	235.806	Thrust:	25.842
Time:	3.969	Roll Set Point:	-0.018	Pitch Set Point:	0.033	Yaw Set Point:	-2.928	X_WP:	0.000	Y_WP:	0.000	Y_WP:	0.500	X:	0.162	Y:	0.067	Z:	0.404	yaw:	167.784	yaw rate:	1.688	Roll:	-4.788	Pitch:	-3.338	Yaw:	236.116	Thrust:	26.430
Time:	3.985	Roll Set Point:	-0.018	Pitch Set Point:	0.033	Yaw Set Point:	-2.929	X_WP:	0.000	Y_WP:	0.000	Y_WP:	0.500	X:	0.162	Y:	0.067	Z:	0.404	yaw:	167.794	yaw rate:	1.019	Roll:	-4.827	Pitch:	-3.264	Yaw:	236.019	Thrust:	26.274
Time:	4.000	Roll Set Point:	-0.018	Pitch Set Point:	0.033	Yaw Set Point:	-2.929	X_WP:	0.000	Y_WP:	0.000	Y_WP:	0.500	X:	0.162	Y:	0.067	Z:	0.404	yaw:	167.794	yaw rate:	1.019	Roll:	-4.781	Pitch:	-3.346	Yaw:	235.848	Thrust:	26.551
Time:	4.016	Roll Set Point:	-0.018	Pitch Set Point:	0.033	Yaw Set Point:	-2.928	X_WP:	0.000	Y_WP:	0.000	Y_WP:	0.500	X:	0.162	Y:	0.067	Z:	0.404	yaw:	167.761	yaw rate:	-3.340	Roll:	-4.701	Pitch:	-3.473	Yaw:	235.242	Thrust:	26.771
Time:	4.031	Roll Set Point:	-0.018	Pitch Set Point:	0.033	Yaw Set Point:	-2.928	X_WP:	0.000	Y_WP:	0.000	Y_WP:	0.500	X:	0.162	Y:	0.067	Z:	0.404	yaw:	167.761	yaw rate:	-3.340	Roll:	-4.779	Pitch:	-3.357	Yaw:	235.801	Thrust:	26.914
Time:	4.047	Roll Set Point:	-0.018	Pitch Set Point:	0.033	Yaw Set Point:	-2.928	X_WP:	0.000	Y_WP:	0.000	Y_WP:	0.500	X:	0.162	Y:	0.067	Z:	0.404	yaw:	167.776	yaw rate:	1.474	Roll:	-4.821	Pitch:	-3.311	Yaw:	236.069	Thrust:	26.976
Time:	4.063	Roll Set Point:	-0.018	Pitch Set Point:	0.033	Yaw Set Point:	-2.928	X_WP:	0.000	Y_WP:	0.000	Y_WP:	0.500	X:	0.162	Y:	0.067	Z:	0.404	yaw:	167.752	yaw rate:	-4.111	Roll:	-4.719	Pitch:	-3.418	Yaw:	235.383	Thrust:	27.316
Time:	4.078	Roll Set Point:	-0.018	Pitch Set Point:	0.033	Yaw Set Point:	-2.929	X_WP:	0.000	Y_WP:	0.000	Y_WP:	0.500	X:	0.162	Y:	0.067	Z:	0.404	yaw:	167.806	yaw rate:	5.414	Roll:	-4.889	Pitch:	-3.294	Yaw:	236.771	Thrust:	27.556
Time:	4.094	Roll Set Point:	-0.015	Pitch Set Point:	0.029	Yaw Set Point:	-2.958	X_WP:	0.000	Y_WP:	0.000	Y_WP:	0.500	X:	0.163	Y:	0.069	Z:	0.401	yaw:	169.472	yaw rate:	166.658	Roll:	-7.853	Pitch:	-0.953	Yaw:	266.112	Thrust:	36.056
Time:	4.110	Roll Set Point:	-0.015	Pitch Set Point:	0.028	Yaw Set Point:	-2.958	X_WP:	0.000	Y_WP:	0.000	Y_WP:	0.500	X:	0.163	Y:	0.069	Z:	0.401	yaw:	169.503	yaw rate:	3.028	Roll:	-4.932	Pitch:	-3.151	Yaw:	238.740	Thrust:	28.022
Time:	4.125	Roll Set Point:	-0.015	Pitch Set Point:	0.028	Yaw Set Point:	-2.958	X_WP:	0.000	Y_WP:	0.000	Y_WP:	0.500	X:	0.163	Y:	0.069	Z:	0.401	yaw:	169.503	yaw rate:	3.028	Roll:	-4.863	Pitch:	-3.311	Yaw:	238.233	Thrust:	28.164
Time:	4.141	Roll Set Point:	-0.015	Pitch Set Point:	0.029	Yaw Set Point:	-2.958	X_WP:	0.000	Y_WP:	0.000	Y_WP:	0.500	X:	0.163	Y:	0.069	Z:	0.401	yaw:	169.481	yaw rate:	-0.621	Roll:	-4.805	Pitch:	-3.451	Yaw:	237.833	Thrust:	28.295
Time:	4.156	Roll Set Point:	-0.015	Pitch Set Point:	0.029	Yaw Set Point:	-2.958	X_WP:	0.000	Y_WP:	0.000	Y_WP:	0.500	X:	0.163	Y:	0.069	Z:	0.401	yaw:	169.479	yaw rate:	-0.190	Roll:	-4.887	Pitch:	-3.326	Yaw:	238.168	Thrust:	28.452
Time:	4.172	Roll Set Point:	-0.015	Pitch Set Point:	0.029	Yaw Set Point:	-2.958	X_WP:	0.000	Y_WP:	0.000	Y_WP:	0.500	X:	0.163	Y:	0.069	Z:	0.401	yaw:	169.484	yaw rate:	0.521	Roll:	-4.860	Pitch:	-3.285	Yaw:	238.294	Thrust:	28.819
Time:	4.188	Roll Set Point:	-0.015	Pitch Set Point:	0.028	Yaw Set Point:	-2.958	X_WP:	0.000	Y_WP:	0.000	Y_WP:	0.500	X:	0.163	Y:	0.069	Z:	0.401	yaw:	169.508	yaw rate:	2.406	Roll:	-4.944	Pitch:	-3.238	Yaw:	238.646	Thrust:	29.045
Time:	4.203	Roll Set Point:	-0.015	Pitch Set Point:	0.028	Yaw Set Point:	-2.958	X_WP:	0.000	Y_WP:	0.000	Y_WP:	0.500	X:	0.163	Y:	0.069	Z:	0.401	yaw:	169.508	yaw rate:	2.406	Roll:	-4.864	Pitch:	-3.331	Yaw:	238.240	Thrust:	29.090
Time:	4.219	Roll Set Point:	-0.015	Pitch Set Point:	0.029	Yaw Set Point:	-2.958	X_WP:	0.000	Y_WP:	0.000	Y_WP:	0.500	X:	0.163	Y:	0.069	Z:	0.401	yaw:	169.490	yaw rate:	-0.285	Roll:	-4.796	Pitch:	-3.452	Yaw:	237.913	Thrust:	29.096
Time:	4.235	Roll Set Point:	-0.015	Pitch Set Point:	0.029	Yaw Set Point:	-2.958	X_WP:	0.000	Y_WP:	0.000	Y_WP:	0.500	X:	0.163	Y:	0.069	Z:	0.401	yaw:	169.490	yaw rate:	-0.285	Roll:	-4.865	Pitch:	-3.344	Yaw:	238.224	Thrust:	29.597
Time:	4.250	Roll Set Point:	-0.015	Pitch Set Point:	0.028	Yaw Set Point:	-2.958	X_WP:	0.000	Y_WP:	0.000	Y_WP:	0.500	X:	0.163	Y:	0.069	Z:	0.401	yaw:	169.503	yaw rate:	1.304	Roll:	-4.877	Pitch:	-3.227	Yaw:	238.445	Thrust:	29.487
Time:	4.266	Roll Set Point:	-0.015	Pitch Set Point:	0.029	Yaw Set Point:	-2.958	X_WP:	0.000	Y_WP:	0.000	Y_WP:	0.500	X:	0.163	Y:	0.069	Z:	0.401	yaw:	169.488	yaw rate:	-1.529	Roll:	-4.863	Pitch:	-3.432	Yaw:	237.960	Thrust:	29.980
Time:	4.281	Roll Set Point:	-0.015	Pitch Set Point:	0.029	Yaw Set Point:	-2.958	X_WP:	0.000	Y_WP:	0.000	Y_WP:	0.500	X:	0.163	Y:	0.069	Z:	0.401	yaw:	169.488	yaw rate:	-1.529	Roll:	-4.861	Pitch:	-3.351	Yaw:	238.209	Thrust:	29.975
Time:	4.297	Roll Set Point:	-0.015	Pitch Set Point:	0.029	Yaw Set Point:	-2.958	X_WP:	0.000	Y_WP:	0.000	Y_WP:	0.500	X:	0.163	Y:	0.069	Z:	0.401	yaw:	169.495	yaw rate:	1.735	Roll:	-4.873	Pitch:	-3.313	Yaw:	238.346	Thrust:	30.206
Time:	4.313	Roll Set Point:	-0.015	Pitch Set Point:	0.029	Yaw Set Point:	-2.958	X_WP:	0.000	Y_WP:	0.000	Y_WP:	0.500	X:	0.163	Y:	0.069	Z:	0.401	yaw:	169.501	yaw rate:	0.560	Roll:	-4.852	Pitch:	-3.352	Yaw:	238.324	Thrust:	30.500
Time:	4.328	Roll Set Point:	-0.015	Pitch Set Point:	0.029	Yaw Set Point:	-2.958	X_WP:	0.000	Y_WP:	0.000	Y_WP:	0.500	X:	0.163	Y:	0.069	Z:	0.401	yaw:	169.486	yaw rate:	-1.501	Roll:	-4.841	Pitch:	-3.435	Yaw:	237.954	Thrust:	30.411
Time:	4.344	Roll Set Point:	-0.015	Pitch Set Point:	0.029	Yaw Set Point:	-2.958	X_WP:	0.000	Y_WP:	0.000	Y_WP:	0.500	X:	0.163	Y:	0.069	Z:	0.401	yaw:	169.472	yaw rate:	-1.385	Roll:	-4.804	Pitch:	-3.413	Yaw:	237.958	Thrust:	30.728
Time:	4.360	Roll Set Point:	-0.015	Pitch Set Point:	0.029	Yaw Set Point:	-2.958	X_WP:	0.000	Y_WP:	0.000	Y_WP:	0.500	X:	0.163	Y:	0.069	Z:	0.401	yaw:	169.487	yaw rate:	1.533	Roll:	-4.926	Pitch:	-3.288	Yaw:	238.468	Thrust:	31.050
Time:	4.375	Roll Set Point:	-0.015	Pitch Set Point:	0.029	Yaw Set Point:	-2.958	X_WP:	0.000	Y_WP:	0.000	Y_WP:	0.500	X:	0.163	Y:	0.069	Z:	0.401	yaw:	169.487	yaw rate:	1.533	Roll:	-4.862	Pitch:	-3.374	Yaw:	238.211	Thrust:	31.136
Time:	4.391	Roll Set Point:	-0.015	Pitch Set Point:	0.029	Yaw Set Point:	-2.958	X_WP:	0.000	Y_WP:	0.000	Y_WP:	0.500	X:	0.163	Y:	0.069	Z:	0.401	yaw:	169.492	yaw rate:	0.441	Roll:	-4.860	Pitch:	-3.347	Yaw:	238.294	Thrust:	31.362
Time:	4.406	Roll Set Point:	-0.015	Pitch Set Point:	0.029	Yaw Set Point:	-2.958	X_WP:	0.000	Y_WP:	0.000	Y_WP:	0.500	X:	0.163	Y:	0.069	Z:	0.401	yaw:	169.484	yaw rate:	-0.798	Roll:	-4.855	Pitch:	-3.452	Yaw:	238.069	Thrust:	31.375
Time:	4.422	Roll Set Point:	-0.015	Pitch Set Point:	0.029	Yaw Set Point:	-2.958	X_WP:	0.000	Y_WP:	0.000	Y_WP:	0.500	X:	0.163	Y:	0.069	Z:	0.401	yaw:	169.484	yaw rate:	-0.798	Roll:	-4.862	Pitch:	-3.387	Yaw:	238.206	Thrust:	31.690
Time:	4.438	Roll Set Point:	-0.015	Pitch Set Point:	0.029	Yaw Set Point:	-2.958	X_WP:	0.000	Y_WP:	0.000	Y_WP:	0.500	X:	0.163	Y:	0.069	Z:	0.401	yaw:	169.485	yaw rate:	0.142	Roll:	-4.841	Pitch:	-3.372	Yaw:	238.232	Thrust:	31.937
Time:	4.453	Roll Set Point:	-0.015	Pitch Set Point:	0.029	Yaw Set Point:	-2.958	X_WP:	0.000	Y_WP:	0.000	Y_WP:	0.500	X:	0.163	Y:	0.069	Z:	0.401	yaw:	169.485	yaw rate:	0.142	Roll:	-4.861	Pitch:	-3.394	Yaw:	238.208	Thrust:	32.064
Time:	4.469	Roll Set Point:	-0.015	Pitch Set Point:	0.028	Yaw Set Point:	-2.965	X_WP:	0.000	Y_WP:	0.000	Y_WP:	0.500	X:	0.163	Y:	0.069	Z:	0.401	yaw:	169.875	yaw rate:	38.805	Roll:	-5.559	Pitch:	-2.088	Yaw:	245.282	Thrust:	31.767
Time:	4.485	Roll Set Point:	-0.015	Pitch Set Point:	0.029	Yaw Set Point:	-2.958	X_WP:	0.000	Y_WP:	0.000	Y_WP:	0.500	X:	0.163	Y:	0.069	Z:	0.401	yaw:	169.494	yaw rate:	-38.133	Roll:	-4.185	Pitch:	-4.664	Yaw:	231.816	Thrust:	32.858
Time:	4.500	Roll Set Point:	-0.015	Pitch Set Point:	0.029	Yaw Set Point:	-2.958	X_WP:	0.000	Y_WP:	0.000	Y_WP:	0.500	X:	0.163	Y:	0.069	Z:	0.401	yaw:	169.494	yaw rate:	-38.133	Roll:	-4.862	Pitch:	-3.405	Yaw:	238.221	Thrust:	32.618
Time:	4.516	Roll Set Point:	-0.015	Pitch Set Point:	0.029	Yaw Set Point:	-2.958	X_WP:	0.000	Y_WP:	0.000	Y_WP:	0.500	X:	0.163	Y:	0.069	Z:	0.401	yaw:	169.494	yaw rate:	1.372	Roll:	-4.884	Pitch:	-3.391	Yaw:	238.226	Thrust:	32.883
Time:	4.531	Roll Set Point:	-0.015	Pitch Set Point:	0.028	Yaw Set Point:	-2.958	X_WP:	0.000	Y_WP:	0.000	Y_WP:	0.500	X:	0.163	Y:	0.069	Z:	0.401	yaw:	169.505	yaw rate:	1.050	Roll:	-4.922	Pitch:	-3.412	Yaw:	238.412	Thrust:	33.036
Time:	4.547	Roll Set Point:	-0.015	Pitch Set Point:	0.029	Yaw Set Point:	-2.958	X_WP:	0.000	Y_WP:	0.000	Y_WP:	0.500	X:	0.163	Y:	0.069	Z:	0.401	yaw:	169.465	yaw rate:	-3.947	Roll:	-4.714	Pitch:	-3.526	Yaw:	237.519	Thrust:	32.967
Time:	4.563	Roll Set Point:	-0.015	Pitch Set Point:	0.029	Yaw Set Point:	-2.958	X_WP:	0.000	Y_WP:	0.000	Y_WP:	0.500	X:	0.163	Y:	0.069	Z:	0.401	yaw:	169.495	yaw rate:	2.997	Roll:	-4.979	Pitch:	-3.297	Yaw:	238.725	Thrust:	33.479
Time:	4.578	Roll Set Point:	-0.015	Pitch Set Point:	0.029	Yaw Set Point:	-2.958	X_WP:	0.000	Y_WP:	0.000	Y_WP:	0.500	X:	0.163	Y:	0.069	Z:	0.401	yaw:	169.496	yaw rate:	0.105	Roll:	-4.861	Pitch:	-3.394	Yaw:	238.242	Thrust:	33.631
Time:	4.594	Roll Set Point:	-0.015	Pitch Set Point:	0.029	Yaw Set Point:	-2.958	X_WP:	0.000	Y_WP:	0.000	Y_WP:	0.500	X:	0.163	Y:	0.069	Z:	0.401	yaw:	169.475	yaw rate:	-2.134	Roll:	-4.832	Pitch:	-3.492	Yaw:	237.837	Thrust:	33.606
Time:	4.610	Roll Set Point:	-0.015	Pitch Set Point:	0.029	Yaw Set Point:	-2.958	X_WP:	0.000	Y_WP:	0.000	Y_WP:	0.500	X:	0.163	Y:	0.069	Z:	0.401	yaw:	169.470	yaw rate:	-0.508	Roll:	-4.818	Pitch:	-3.444	Yaw:	238.102	Thrust:	33.956
Time:	4.625	Roll Set Point:	-0.015	Pitch Set Point:	0.029	Yaw Set Point:	-2.958	X_WP:	0.000	Y_WP:	0.000	Y_WP:	0.500	X:	0.163	Y:	0.069	Z:	0.401	yaw:	169.470	yaw rate:	-0.508	Roll:	-4.861	Pitch:	-3.412	Yaw:	238.187	Thrust:	34.094
Time:	4.641	Roll Set Point:	-0.015	Pitch Set Point:	0.029	Yaw Set Point:	-2.958	X_WP:	0.000	Y_WP:	0.000	Y_WP:	0.500	X:	0.163	Y:	0.069	Z:	0.401	yaw:	169.492	yaw rate:	2.169	Roll:	-4.916	Pitch:	-3.325	Yaw:	238.581	Thrust:	34.333
Time:	4.657	Roll Set Point:	-0.015	Pitch Set Point:	0.029	Yaw Set Point:	-2.958	X_WP:	0.000	Y_WP:	0.000	Y_WP:	0.500	X:	0.163	Y:	0.069	Z:	0.401	yaw:	169.490	yaw rate:	-1.541	Roll:	-4.886	Pitch:	-3.377	Yaw:	238.188	Thrust:	34.475
Time:	4.672	Roll Set Point:	-0.015	Pitch Set Point:	0.029	Yaw Set Point:	-2.958	X_WP:	0.000	Y_WP:	0.000	Y_WP:	0.500	X:	0.163	Y:	0.069	Z:	0.401	yaw:	169.495	yaw rate:	0.534	Roll:	-4.807	Pitch:	-3.449	Yaw:	238.308	Thrust:	34.652
Time:	4.688	Roll Set Point:	-0.015	Pitch Set Point:	0.029	Yaw Set Point:	-2.958	X_WP:	0.000	Y_WP:	0.000	Y_WP:	0.500	X:	0.163	Y:	0.069	Z:	0.401	yaw:	169.495	yaw rate:	0.534	Roll:	-4.862	Pitch:	-3.410	Yaw:	238.224	Thrust:	34.878
Time:	4.703	Roll Set Point:	-0.015	Pitch Set Point:	0.029	Yaw Set Point:	-2.958	X_WP:	0.000	Y_WP:	0.000	Y_WP:	0.500	X:	0.163	Y:	0.069	Z:	0.401	yaw:	169.496	yaw rate:	1.221	Roll:	-4.919	Pitch:	-3.373	Yaw:	238.243	Thrust:	34.981
Time:	4.719	Roll Set Point:	-0.015	Pitch Set Point:	0.029	Yaw Set Point:	-2.958	X_WP:	0.000	Y_WP:	0.000	Y_WP:	0.500	X:	0.163	Y:	0.069	Z:	0.401	yaw:	169.496	yaw rate:	1.221	Roll:	-4.866	Pitch:	-3.412	Yaw:	238.233	Thrust:	35.391
Time:	4.735	Roll Set Point:	-0.015	Pitch Set Point:	0.029	Yaw Set Point:	-2.958	X_WP:	0.000	Y_WP:	0.000	Y_WP:	0.500	X:	0.163	Y:	0.069	Z:	0.401	yaw:	169.484	yaw rate:	-1.315	Roll:	-4.798	Pitch:	-3.459	Yaw:	237.997	Thrust:	35.224
Time:	4.750	Roll Set Point:	-0.015	Pitch Set Point:	0.029	Yaw Set Point:	-2.958	X_WP:	0.000	Y_WP:	0.000	Y_WP:	0.500	X:	0.163	Y:	0.069	Z:	0.401	yaw:	169.492	yaw rate:	0.760	Roll:	-4.879	Pitch:	-3.401	Yaw:	238.345	Thrust:	35.580
Time:	4.766	Roll Set Point:	-0.015	Pitch Set Point:	0.029	Yaw Set Point:	-2.958	X_WP:	0.000	Y_WP:	0.000	Y_WP:	0.500	X:	0.163	Y:	0.069	Z:	0.401	yaw:	169.492	yaw rate:	0.760	Roll:	-4.862	Pitch:	-3.410	Yaw:	238.218	Thrust:	35.778
Time:	4.782	Roll Set Point:	-0.015	Pitch Set Point:	0.029	Yaw Set Point:	-2.958	X_WP:	0.000	Y_WP:	0.000	Y_WP:	0.500	X:	0.163	Y:	0.069	Z:	0.401	yaw:	169.473	yaw rate:	-1.648	Roll:	-4.842	Pitch:	-3.456	Yaw:	237.867	Thrust:	35.943
Time:	4.797	Roll Set Point:	-0.015	Pitch Set Point:	0.029	Yaw Set Point:	-2.958	X_WP:	0.000	Y_WP:	0.000	Y_WP:	0.500	X:	0.163	Y:	0.069	Z:	0.401	yaw:	169.488	yaw rate:	1.502	Roll:	-4.888	Pitch:	-3.363	Yaw:	238.466	Thrust:	36.314
Time:	4.813	Roll Set Point:	-0.015	Pitch Set Point:	0.029	Yaw Set Point:	-2.958	X_WP:	0.000	Y_WP:	0.000	Y_WP:	0.500	X:	0.163	Y:	0.069	Z:	0.401	yaw:	169.475	yaw rate:	-1.222	Roll:	-4.824	Pitch:	-3.436	Yaw:	237.987	Thrust:	36.177
Time:	4.828	Roll Set Point:	-0.015	Pitch Set Point:	0.029	Yaw Set Point:	-2.958	X_WP:	0.000	Y_WP:	0.000	Y_WP:	0.500	X:	0.163	Y:	0.069	Z:	0.401	yaw:	169.474	yaw rate:	-0.135	Roll:	-4.863	Pitch:	-3.435	Yaw:	238.170	Thrust:	36.493
Time:	4.844	Roll Set Point:	-0.015	Pitch Set Point:	0.029	Yaw Set Point:	-2.958	X_WP:	0.000	Y_WP:	0.000	Y_WP:	0.500	X:	0.163	Y:	0.069	Z:	0.401	yaw:	169.457	yaw rate:	-1.731	Roll:	-4.843	Pitch:	-3.479	Yaw:	237.879	Thrust:	36.841
Time:	4.860	Roll Set Point:	-0.015	Pitch Set Point:	0.029	Yaw Set Point:	-2.958	X_WP:	0.000	Y_WP:	0.000	Y_WP:	0.500	X:	0.163	Y:	0.069	Z:	0.401	yaw:	169.457	yaw rate:	-1.731	Roll:	-4.861	Pitch:	-3.413	Yaw:	238.169	Thrust:	36.893
Time:	4.875	Roll Set Point:	-0.015	Pitch Set Point:	0.029	Yaw Set Point:	-2.958	X_WP:	0.000	Y_WP:	0.000	Y_WP:	0.500	X:	0.163	Y:	0.069	Z:	0.401	yaw:	169.500	yaw rate:	-0.517	Roll:	-4.952	Pitch:	-3.238	Yaw:	238.965	Thrust:	37.089
Time:	4.891	Roll Set Point:	-0.015	Pitch Set Point:	0.029	Yaw Set Point:	-2.958	X_WP:	0.000	Y_WP:	0.000	Y_WP:	0.500	X:	0.163	Y:	0.069	Z:	0.401	yaw:	169.493	yaw rate:	-0.688	Roll:	-4.847	Pitch:	-3.464	Yaw:	238.098	Thrust:	37.217
Time:	4.907	Roll Set Point:	-0.015	Pitch Set Point:	0.029	Yaw Set Point:	-2.958	X_WP:	0.000	Y_WP:	0.000	Y_WP:	0.500	X:	0.163	Y:	0.069	Z:	0.401	yaw:	169.486	yaw rate:	-0.759	Roll:	-4.853	Pitch:	-3.427	Yaw:	238.082	Thrust:	37.362
Time:	4.922	Roll Set Point:	-0.015	Pitch Set Point:	0.029	Yaw Set Point:	-2.958	X_WP:	0.000	Y_WP:	0.000	Y_WP:	0.500	X:	0.163	Y:	0.069	Z:	0.401	yaw:	169.503	yaw rate:	1.677	Roll:	-4.916	Pitch:	-3.449	Yaw:	238.513	Thrust:	37.828
Time:	4.938	Roll Set Point:	-0.015	Pitch Set Point:	0.029	Yaw Set Point:	-2.958	X_WP:	0.000	Y_WP:	0.000	Y_WP:	0.500	X:	0.163	Y:	0.069	Z:	0.401	yaw:	169.488	yaw rate:	-1.499	Roll:	-4.793	Pitch:	-3.352	Yaw:	237.961	Thrust:	37.580
Time:	4.953	Roll Set Point:	-0.015	Pitch Set Point:	0.029	Yaw Set Point:	-2.958	X_WP:	0.000	Y_WP:	0.000	Y_WP:	0.500	X:	0.163	Y:	0.069	Z:	0.401	yaw:	169.488	yaw rate:	-1.499	Roll:	-4.862	Pitch:	-3.410	Yaw:	238.212	Thrust:	38.001
Time:	4.969	Roll Set Point:	-0.015	Pitch Set Point:	0.029	Yaw Set Point:	-2.958	X_WP:	0.000	Y_WP:	0.000	Y_WP:	0.500	X:	0.163	Y:	0.069	Z:	0.401	yaw:	169.489	yaw rate:	0.135	Roll:	-4.865	Pitch:	-3.433	Yaw:	238.237	Thrust:	38.263
Time:	4.985	Roll Set Point:	-0.015	Pitch Set Point:	0.029	Yaw Set Point:	-2.958	X_WP:	0.000	Y_WP:	0.000	Y_WP:	0.500	X:	0.163	Y:	0.069	Z:	0.401	yaw:	169.477	yaw rate:	-1.817	Roll:	-4.843	Pitch:	-3.402	Yaw:	238.001	Thrust:	38.415
Time:	5.000	Roll Set Point:	-0.015	Pitch Set Point:	0.029	Yaw Set Point:	-2.958	X_WP:	0.000	Y_WP:	0.000	Y_WP:	0.500	X:	0.163	Y:	0.069	Z:	0.401	yaw:	169.499	yaw rate:	2.192	Roll:	-4.885	Pitch:	-3.357	Yaw:	238.595	Thrust:	38.481
Time:	5.016	Roll Set Point:	-0.015	Pitch Set Point:	0.029	Yaw Set Point:	-2.958	X_WP:	0.000	Y_WP:	0.000	Y_WP:	0.500	X:	0.163	Y:	0.069	Z:	0.401	yaw:	169.499	yaw rate:	2.192	Roll:	-4.862	Pitch:	-3.409	Yaw:	238.227	Thrust:	38.728
Time:	5.032	Roll Set Point:	-0.015	Pitch Set Point:	0.029	Yaw Set Point:	-2.958	X_WP:	0.000	Y_WP:	0.000	Y_WP:	0.500	X:	0.163	Y:	0.069	Z:	0.401	yaw:	169.490	yaw rate:	-0.218	Roll:	-4.883	Pitch:	-3.453	Yaw:	238.057	Thrust:	39.079
Time:	5.047	Roll Set Point:	-0.015	Pitch Set Point:	0.029	Yaw Set Point:	-2.958	X_WP:	0.000	Y_WP:	0.000	Y_WP:	0.500	X:	0.163	Y:	0.069	Z:	0.401	yaw:	169.502	yaw rate:	1.262	Roll:	-4.891	Pitch:	-3.327	Yaw:	238.444	Thrust:	39.088
Time:	5.063	Roll Set Point:	-0.015	Pitch Set Point:	0.029	Yaw Set Point:	-2.958	X_WP:	0.000	Y_WP:	0.000	Y_WP:	0.500	X:	0.163	Y:	0.069	Z:	0.401	yaw:	169.495	yaw rate:	-0.685	Roll:	-4.819	Pitch:	-3.470	Yaw:	238.105	Thrust:	39.216
Time:	5.078	Roll Set Point:	-0.015	Pitch Set Point:	0.028	Yaw Set Point:	-2.958	X_WP:	0.000	Y_WP:	0.000	Y_WP:	0.500	X:	0.163	Y:	0.069	Z:	0.401	yaw:	169.506	yaw rate:	1.037	Roll:	-4.887	Pitch:	-3.421	Yaw:	238.414	Thrust:	39.560
Time:	5.094	Roll Set Point:	-0.015	Pitch Set Point:	0.029	Yaw Set Point:	-2.958	X_WP:	0.000	Y_WP:	0.000	Y_WP:	0.500	X:	0.163	Y:	0.069	Z:	0.401	yaw:	169.470	yaw rate:	-3.582	Roll:	-4.782	Pitch:	-3.493	Yaw:	237.583	Thrust:	39.655
Time:	5.110	Roll Set Point:	-0.015	Pitch Set Point:	0.028	Yaw Set Point:	-2.959	X_WP:	0.000	Y_WP:	0.000	Y_WP:	0.500	X:	0.163	Y:	0.069	Z:	0.401	yaw:	169.510	yaw rate:	4.011	Roll:	-4.978	Pitch:	-3.235	Yaw:	238.915	Thrust:	39.855
Time:	5.125	Roll Set Point:	-0.015	Pitch Set Point:	0.028	Yaw Set Point:	-2.959	X_WP:	0.000	Y_WP:	0.000	Y_WP:	0.500	X:	0.163	Y:	0.069	Z:	0.401	yaw:	169.512	yaw rate:	0.198	Roll:	-4.862	Pitch:	-3.411	Yaw:	238.279	Thrust:	40.061
Time:	5.141	Roll Set Point:	-0.015	Pitch Set Point:	0.029	Yaw Set Point:	-2.958	X_WP:	0.000	Y_WP:	0.000	Y_WP:	0.500	X:	0.163	Y:	0.069	Z:	0.401	yaw:	169.487	yaw rate:	-2.525	Roll:	-4.767	Pitch:	-3.536	Yaw:	237.788	Thrust:	40.117
Time:	5.157	Roll Set Point:	-0.015	Pitch Set Point:	0.029	Yaw Set Point:	-2.958	X_WP:	0.000	Y_WP:	0.000	Y_WP:	0.500	X:	0.163	Y:	0.069	Z:	0.401	yaw:	169.489	yaw rate:	0.210	Roll:	-4.889	Pitch:	-3.411	Yaw:	238.249	Thrust:	40.531
Time:	5.172	Roll Set Point:	-0.015	Pitch Set Point:	0.029	Yaw Set Point:	-2.958	X_WP:	0.000	Y_WP:	0.000	Y_WP:	0.500	X:	0.163	Y:	0.069	Z:	0.401	yaw:	169.498	yaw rate:	0.893	Roll:	-4.894	Pitch:	-3.346	Yaw:	238.389	Thrust:	40.898
Time:	5.186	Roll Set Point:	-0.015	Pitch Set Point:	0.028	Yaw Set Point:	-2.959	X_WP:	0.000	Y_WP:	0.000	Y_WP:	0.500	X:	0.163	Y:	0.069	Z:	0.401	yaw:	169.514	yaw rate:	1.659	Roll:	-4.842	Pitch:	-3.280	Yaw:	238.400	Thrust:	37.194
Time:	5.203	Roll Set Point:	-0.015	Pitch Set Point:	0.028	Yaw Set Point:	-2.959	X_WP:	0.000	Y_WP:	0.000	Y_WP:	0.500	X:	0.163	Y:	0.069	Z:	0.401	yaw:	169.514	yaw rate:	1.659	Roll:	-4.906	Pitch:	-3.450	Yaw:	238.363	Thrust:	43.566
Time:	5.219	Roll Set Point:	-0.015	Pitch Set Point:	0.029	Yaw Set Point:	-2.958	X_WP:	0.000	Y_WP:	0.000	Y_WP:	0.500	X:	0.163	Y:	0.069	Z:	0.401	yaw:	169.486	yaw rate:	-2.844	Roll:	-4.793	Pitch:	-3.545	Yaw:	237.729	Thrust:	41.087
Time:	5.234	Roll Set Point:	-0.015	Pitch Set Point:	0.028	Yaw Set Point:	-2.958	X_WP:	0.000	Y_WP:	0.000	Y_WP:	0.500	X:	0.163	Y:	0.069	Z:	0.401	yaw:	169.505	yaw rate:	3.866	Roll:	-4.897	Pitch:	-3.319	Yaw:	238.564	Thrust:	41.344
Time:	5.250	Roll Set Point:	-0.015	Pitch Set Point:	0.029	Yaw Set Point:	-2.958	X_WP:	0.000	Y_WP:	0.000	Y_WP:	0.500	X:	0.163	Y:	0.069	Z:	0.401	yaw:	169.499	yaw rate:	-0.694	Roll:	-4.871	Pitch:	-3.420	Yaw:	238.111	Thrust:	41.557
Time:	5.266	Roll Set Point:	-0.015	Pitch Set Point:	0.029	Yaw Set Point:	-2.958	X_WP:	0.000	Y_WP:	0.000	Y_WP:	0.500	X:	0.163	Y:	0.069	Z:	0.401	yaw:	169.499	yaw rate:	-0.694	Roll:	-4.863	Pitch:	-3.409	Yaw:	238.228	Thrust:	41.735
Time:	5.281	Roll Set Point:	-0.015	Pitch Set Point:	0.029	Yaw Set Point:	-2.958	X_WP:	0.000	Y_WP:	0.000	Y_WP:	0.500	X:	0.163	Y:	0.069	Z:	0.401	yaw:	169.480	yaw rate:	0.632	Roll:	-4.822	Pitch:	-3.517	Yaw:	237.885	Thrust:	41.855
Time:	5.297	Roll Set Point:	-0.015	Pitch Set Point:	0.028	Yaw Set Point:	-2.959	X_WP:	0.000	Y_WP:	0.000	Y_WP:	0.500	X:	0.163	Y:	0.069	Z:	0.401	yaw:	169.511	yaw rate:	3.094	Roll:	-4.908	Pitch:	-3.284	Yaw:	238.762	Thrust:	42.204
Time:	5.312	Roll Set Point:	-0.015	Pitch Set Point:	0.028	Yaw Set Point:	-2.959	X_WP:	0.000	Y_WP:	0.000	Y_WP:	0.500	X:	0.163	Y:	0.069	Z:	0.401	yaw:	169.511	yaw rate:	3.094	Roll:	-4.863	Pitch:	-3.408	Yaw:	238.244	Thrust:	42.262
Time:	5.328	Roll Set Point:	-0.015	Pitch Set Point:	0.029	Yaw Set Point:	-2.958	X_WP:	0.000	Y_WP:	0.000	Y_WP:	0.500	X:	0.163	Y:	0.069	Z:	0.401	yaw:	169.488	yaw rate:	1.528	Roll:	-4.793	Pitch:	-3.496	Yaw:	237.825	Thrust:	42.339
Time:	5.344	Roll Set Point:	-0.015	Pitch Set Point:	0.029	Yaw Set Point:	-2.958	X_WP:	0.000	Y_WP:	0.000	Y_WP:	0.500	X:	0.163	Y:	0.069	Z:	0.401	yaw:	169.488	yaw rate:	1.528	Roll:	-4.861	Pitch:	-3.411	Yaw:	238.212	Thrust:	42.646
Time:	5.359	Roll Set Point:	-0.015	Pitch Set Point:	0.029	Yaw Set Point:	-2.958	X_WP:	0.000	Y_WP:	0.000	Y_WP:	0.500	X:	0.163	Y:	0.069	Z:	0.401	yaw:	169.476	yaw rate:	-1.193	Roll:	-4.858	Pitch:	-3.453	Yaw:	237.995	Thrust:	42.876
Time:	5.375	Roll Set Point:	-0.015	Pitch Set Point:	0.029	Yaw Set Point:	-2.958	X_WP:	0.000	Y_WP:	0.000	Y_WP:	0.500	X:	0.163	Y:	0.069	Z:	0.401	yaw:	169.492	yaw rate:	1.671	Roll:	-4.894	Pitch:	-3.302	Yaw:	238.499	Thrust:	43.082
Time:	5.391	Roll Set Point:	-0.015	Pitch Set Point:	0.028	Yaw Set Point:	-2.958	X_WP:	0.000	Y_WP:	0.000	Y_WP:	0.500	X:	0.163	Y:	0.069	Z:	0.401	yaw:	169.504	yaw rate:	-1.293	Roll:	-4.915	Pitch:	-3.416	Yaw:	238.438	Thrust:	43.093
Time:	5.406	Roll Set Point:	-0.015	Pitch Set Point:	0.028	Yaw Set Point:	-2.958	X_WP:	0.000	Y_WP:	0.000	Y_WP:	0.500	X:	0.163	Y:	0.069	Z:	0.401	yaw:	169.504	yaw rate:	-1.293	Roll:	-4.863	Pitch:	-3.409	Yaw:	238.235	Thrust:	43.389
Time:	5.422	Roll Set Point:	-0.015	Pitch Set Point:	0.028	Yaw Set Point:	-2.959	X_WP:	0.000	Y_WP:	0.000	Y_WP:	0.500	X:	0.163	Y:	0.069	Z:	0.401	yaw:	169.510	yaw rate:	3.345	Roll:	-4.881	Pitch:	-3.373	Yaw:	238.343	Thrust:	43.666
Time:	5.437	Roll Set Point:	-0.015	Pitch Set Point:	0.029	Yaw Set Point:	-2.958	X_WP:	0.000	Y_WP:	0.000	Y_WP:	0.500	X:	0.163	Y:	0.069	Z:	0.401	yaw:	169.495	yaw rate:	-1.535	Roll:	-4.802	Pitch:	-3.433	Yaw:	237.965	Thrust:	43.793
Time:	5.453	Roll Set Point:	-0.015	Pitch Set Point:	0.029	Yaw Set Point:	-2.958	X_WP:	0.000	Y_WP:	0.000	Y_WP:	0.500	X:	0.163	Y:	0.069	Z:	0.401	yaw:	169.473	yaw rate:	-2.162	Roll:	-4.806	Pitch:	-3.531	Yaw:	237.830	Thrust:	43.826
Time:	5.469	Roll Set Point:	-0.015	Pitch Set Point:	0.029	Yaw Set Point:	-2.958	X_WP:	0.000	Y_WP:	0.000	Y_WP:	0.500	X:	0.163	Y:	0.069	Z:	0.401	yaw:	169.473	yaw rate:	-2.162	Roll:	-4.862	Pitch:	-3.413	Yaw:	238.195	Thrust:	44.206
Time:	5.484	Roll Set Point:	-0.015	Pitch Set Point:	0.029	Yaw Set Point:	-2.958	X_WP:	0.000	Y_WP:	0.000	Y_WP:	0.500	X:	0.163	Y:	0.069	Z:	0.401	yaw:	169.485	yaw rate:	0.320	Roll:	-4.925	Pitch:	-3.333	Yaw:	238.397	Thrust:	44.168
Time:	5.500	Roll Set Point:	-0.015	Pitch Set Point:	0.029	Yaw Set Point:	-2.958	X_WP:	0.000	Y_WP:	0.000	Y_WP:	0.500	X:	0.163	Y:	0.069	Z:	0.401	yaw:	169.501	yaw rate:	1.595	Roll:	-4.886	Pitch:	-3.350	Yaw:	238.498	Thrust:	44.670
Time:	5.516	Roll Set Point:	-0.015	Pitch Set Point:	0.029	Yaw Set Point:	-2.958	X_WP:	0.000	Y_WP:	0.000	Y_WP:	0.500	X:	0.163	Y:	0.069	Z:	0.401	yaw:	169.501	yaw rate:	1.595	Roll:	-4.863	Pitch:	-3.408	Yaw:	238.230	Thrust:	44.689
Time:	5.531	Roll Set Point:	-0.015	Pitch Set Point:	0.029	Yaw Set Point:	-2.958	X_WP:	0.000	Y_WP:	0.000	Y_WP:	0.500	X:	0.163	Y:	0.069	Z:	0.401	yaw:	169.493	yaw rate:	-0.338	Roll:	-4.830	Pitch:	-3.494	Yaw:	238.091	Thrust:	45.019
Time:	5.547	Roll Set Point:	-0.015	Pitch Set Point:	0.029	Yaw Set Point:	-2.958	X_WP:	0.000	Y_WP:	0.000	Y_WP:	0.500	X:	0.163	Y:	0.069	Z:	0.401	yaw:	169.493	yaw rate:	-0.338	Roll:	-4.859	Pitch:	-3.407	Yaw:	238.211	Thrust:	44.848
Time:	5.562	Roll Set Point:	-0.015	Pitch Set Point:	0.029	Yaw Set Point:	-2.958	X_WP:	0.000	Y_WP:	0.000	Y_WP:	0.500	X:	0.163	Y:	0.069	Z:	0.401	yaw:	169.495	yaw rate:	0.196	Roll:	-4.876	Pitch:	-3.364	Yaw:	238.254	Thrust:	45.272
Time:	5.578	Roll Set Point:	-0.015	Pitch Set Point:	0.029	Yaw Set Point:	-2.958	X_WP:	0.000	Y_WP:	0.000	Y_WP:	0.500	X:	0.163	Y:	0.069	Z:	0.401	yaw:	169.495	yaw rate:	0.196	Roll:	-4.862	Pitch:	-3.409	Yaw:	238.222	Thrust:	45.432
Time:	5.594	Roll Set Point:	-0.015	Pitch Set Point:	0.029	Yaw Set Point:	-2.958	X_WP:	0.000	Y_WP:	0.000	Y_WP:	0.500	X:	0.163	Y:	0.069	Z:	0.401	yaw:	169.484	yaw rate:	-1.064	Roll:	-4.845	Pitch:	-3.455	Yaw:	238.029	Thrust:	45.542
Time:	5.609	Roll Set Point:	-0.015	Pitch Set Point:	0.029	Yaw Set Point:	-2.958	X_WP:	0.000	Y_WP:	0.000	Y_WP:	0.500	X:	0.163	Y:	0.069	Z:	0.401	yaw:	169.484	yaw rate:	-1.064	Roll:	-4.862	Pitch:	-3.410	Yaw:	238.207	Thrust:	45.801
Time:	5.625	Roll Set Point:	-0.015	Pitch Set Point:	0.029	Yaw Set Point:	-2.958	X_WP:	0.000	Y_WP:	0.000	Y_WP:	0.500	X:	0.163	Y:	0.069	Z:	0.401	yaw:	169.464	yaw rate:	-1.962	Roll:	-4.789	Pitch:	-3.471	Yaw:	237.854	Thrust:	46.127
Time:	5.641	Roll Set Point:	-0.015	Pitch Set Point:	0.029	Yaw Set Point:	-2.958	X_WP:	0.000	Y_WP:	0.000	Y_WP:	0.500	X:	0.163	Y:	0.069	Z:	0.401	yaw:	169.464	yaw rate:	-1.962	Roll:	-4.859	Pitch:	-3.411	Yaw:	238.176	Thrust:	46.097
Time:	5.656	Roll Set Point:	-0.015	Pitch Set Point:	0.029	Yaw Set Point:	-2.958	X_WP:	0.000	Y_WP:	0.000	Y_WP:	0.500	X:	0.163	Y:	0.069	Z:	0.401	yaw:	169.495	yaw rate:	0.678	Roll:	-4.953	Pitch:	-3.310	Yaw:	238.742	Thrust:	46.389
Time:	5.672	Roll Set Point:	-0.015	Pitch Set Point:	0.028	Yaw Set Point:	-2.958	X_WP:	0.000	Y_WP:	0.000	Y_WP:	0.500	X:	0.163	Y:	0.069	Z:	0.401	yaw:	169.500	yaw rate:	0.473	Roll:	-4.838	Pitch:	-3.407	Yaw:	238.309	Thrust:	46.411
Time:	5.688	Roll Set Point:	-0.015	Pitch Set Point:	0.029	Yaw Set Point:	-2.958	X_WP:	0.000	Y_WP:	0.000	Y_WP:	0.500	X:	0.163	Y:	0.069	Z:	0.401	yaw:	169.480	yaw rate:	-2.045	Roll:	-4.854	Pitch:	-3.476	Yaw:	237.858	Thrust:	46.988
Time:	5.703	Roll Set Point:	-0.015	Pitch Set Point:	0.029	Yaw Set Point:	-2.958	X_WP:	0.000	Y_WP:	0.000	Y_WP:	0.500	X:	0.163	Y:	0.069	Z:	0.401	yaw:	169.490	yaw rate:	1.054	Roll:	-4.870	Pitch:	-3.364	Yaw:	238.392	Thrust:	46.753
Time:	5.719	Roll Set Point:	-0.015	Pitch Set Point:	0.029	Yaw Set Point:	-2.958	X_WP:	0.000	Y_WP:	0.000	Y_WP:	0.500	X:	0.163	Y:	0.069	Z:	0.401	yaw:	169.488	yaw rate:	-0.191	Roll:	-4.861	Pitch:	-3.421	Yaw:	238.181	Thrust:	46.992
Time:	5.734	Roll Set Point:	-0.015	Pitch Set Point:	0.029	Yaw Set Point:	-2.958	X_WP:	0.000	Y_WP:	0.000	Y_WP:	0.500	X:	0.163	Y:	0.069	Z:	0.401	yaw:	169.488	yaw rate:	-0.191	Roll:	-4.862	Pitch:	-3.410	Yaw:	238.213	Thrust:	47.289
Time:	5.750	Roll Set Point:	-0.015	Pitch Set Point:	0.027	Yaw Set Point:	-2.965	X_WP:	0.000	Y_WP:	0.000	Y_WP:	0.500	X:	0.163	Y:	0.069	Z:	0.401	yaw:	169.888	yaw rate:	39.962	Roll:	-5.585	Pitch:	-2.044	Yaw:	245.466	Thrust:	47.214
Time:	5.766	Roll Set Point:	-0.015	Pitch Set Point:	0.029	Yaw Set Point:	-2.958	X_WP:	0.000	Y_WP:	0.000	Y_WP:	0.500	X:	0.163	Y:	0.069	Z:	0.401	yaw:	169.498	yaw rate:	-0.417	Roll:	-4.183	Pitch:	-4.705	Yaw:	231.700	Thrust:	48.068
Time:	5.781	Roll Set Point:	-0.015	Pitch Set Point:	0.029	Yaw Set Point:	-2.958	X_WP:	0.000	Y_WP:	0.000	Y_WP:	0.500	X:	0.163	Y:	0.069	Z:	0.401	yaw:	169.486	yaw rate:	-1.232	Roll:	-4.834	Pitch:	-3.459	Yaw:	238.003	Thrust:	47.842
Time:	5.797	Roll Set Point:	-0.015	Pitch Set Point:	0.028	Yaw Set Point:	-2.958	X_WP:	0.000	Y_WP:	0.000	Y_WP:	0.500	X:	0.163	Y:	0.069	Z:	0.401	yaw:	169.501	yaw rate:	1.560	Roll:	-4.878	Pitch:	-3.330	Yaw:	238.493	Thrust:	47.886
Time:	5.813	Roll Set Point:	-0.015	Pitch Set Point:	0.028	Yaw Set Point:	-2.958	X_WP:	0.000	Y_WP:	0.000	Y_WP:	0.500	X:	0.163	Y:	0.069	Z:	0.401	yaw:	169.501	yaw rate:	1.560	Roll:	-4.877	Pitch:	-3.423	Yaw:	238.271	Thrust:	49.307
Time:	5.830	Roll Set Point:	-0.015	Pitch Set Point:	0.029	Yaw Set Point:	-2.958	X_WP:	0.000	Y_WP:	0.000	Y_WP:	0.500	X:	0.163	Y:	0.069	Z:	0.401	yaw:	169.487	yaw rate:	0.701	Roll:	-4.851	Pitch:	-3.499	Yaw:	238.023	Thrust:	49.701
Time:	5.854	Roll Set Point:	-0.015	Pitch Set Point:	0.029	Yaw Set Point:	-2.958	X_WP:	0.000	Y_WP:	0.000	Y_WP:	0.500	X:	0.163	Y:	0.069	Z:	0.401	yaw:	169.491	yaw rate:	0.588	Roll:	-5.236	Pitch:	-3.752	Yaw:	239.228	Thrust:	75.243
Time:	5.870	Roll Set Point:	-0.015	Pitch Set Point:	0.029	Yaw Set Point:	-2.958	X_WP:	0.000	Y_WP:	0.000	Y_WP:	0.500	X:	0.163	Y:	0.069	Z:	0.401	yaw:	169.481	yaw rate:	-1.088	Roll:	-4.826	Pitch:	-3.465	Yaw:	238.020	Thrust:	48.902
Time:	5.886	Roll Set Point:	-0.015	Pitch Set Point:	0.029	Yaw Set Point:	-2.958	X_WP:	0.000	Y_WP:	0.000	Y_WP:	0.500	X:	0.163	Y:	0.069	Z:	0.401	yaw:	169.481	yaw rate:	-1.088	Roll:	-4.861	Pitch:	-3.411	Yaw:	238.203	Thrust:	48.979
Time:	5.901	Roll Set Point:	-0.015	Pitch Set Point:	0.028	Yaw Set Point:	-2.958	X_WP:	0.000	Y_WP:	0.000	Y_WP:	0.500	X:	0.163	Y:	0.069	Z:	0.401	yaw:	169.509	yaw rate:	0.344	Roll:	-4.935	Pitch:	-3.298	Yaw:	238.719	Thrust:	49.065
Time:	5.916	Roll Set Point:	-0.015	Pitch Set Point:	0.028	Yaw Set Point:	-2.959	X_WP:	0.000	Y_WP:	0.000	Y_WP:	0.500	X:	0.163	Y:	0.069	Z:	0.401	yaw:	169.513	yaw rate:	0.397	Roll:	-4.839	Pitch:	-3.350	Yaw:	238.217	Thrust:	46.543
Time:	5.938	Roll Set Point:	-0.015	Pitch Set Point:	0.028	Yaw Set Point:	-2.958	X_WP:	0.000	Y_WP:	0.000	Y_WP:	0.500	X:	0.163	Y:	0.069	Z:	0.401	yaw:	169.509	yaw rate:	-0.418	Roll:	-5.072	Pitch:	-3.672	Yaw:	238.805	Thrust:	66.761
Time:	5.953	Roll Set Point:	-0.015	Pitch Set Point:	0.028	Yaw Set Point:	-2.958	X_WP:	0.000	Y_WP:	0.000	Y_WP:	0.500	X:	0.163	Y:	0.069	Z:	0.401	yaw:	169.509	yaw rate:	-0.418	Roll:	-4.865	Pitch:	-3.411	Yaw:	238.247	Thrust:	49.865
Time:	5.969	Roll Set Point:	-0.015	Pitch Set Point:	0.029	Yaw Set Point:	-2.958	X_WP:	0.000	Y_WP:	0.000	Y_WP:	0.500	X:	0.163	Y:	0.069	Z:	0.401	yaw:	169.498	yaw rate:	1.639	Roll:	-4.875	Pitch:	-3.422	Yaw:	238.034	Thrust:	49.923
Time:	5.985	Roll Set Point:	-0.015	Pitch Set Point:	0.029	Yaw Set Point:	-2.958	X_WP:	0.000	Y_WP:	0.000	Y_WP:	0.500	X:	0.163	Y:	0.069	Z:	0.401	yaw:	169.498	yaw rate:	1.639	Roll:	-4.870	Pitch:	-3.416	Yaw:	238.244	Thrust:	50.586
Time:	6.001	Roll Set Point:	-0.223	Pitch Set Point:	-0.086	Yaw Set Point:	-2.958	X_WP:	0.225	Y_WP:	0.075	Y_WP:	0.500	X:	0.163	Y:	0.069	Z:	0.401	yaw:	169.478	yaw rate:	-2.005	Roll:	30.000	Pitch:	30.000	Yaw:	237.985	Thrust:	53.027
Time:	6.017	Roll Set Point:	-0.223	Pitch Set Point:	-0.086	Yaw Set Point:	-2.959	X_WP:	0.225	Y_WP:	0.075	Y_WP:	0.500	X:	0.163	Y:	0.069	Z:	0.401	yaw:	169.514	yaw rate:	3.683	Roll:	1.165	Pitch:	-0.129	Yaw:	238.868	Thrust:	50.680
Time:	6.033	Roll Set Point:	-0.223	Pitch Set Point:	-0.086	Yaw Set Point:	-2.958	X_WP:	0.225	Y_WP:	0.075	Y_WP:	0.500	X:	0.163	Y:	0.069	Z:	0.401	yaw:	169.495	yaw rate:	-1.954	Roll:	1.153	Pitch:	-0.060	Yaw:	237.891	Thrust:	50.429
Time:	6.048	Roll Set Point:	-0.223	Pitch Set Point:	-0.086	Yaw Set Point:	-2.958	X_WP:	0.225	Y_WP:	0.075	Y_WP:	0.500	X:	0.163	Y:	0.069	Z:	0.401	yaw:	169.495	yaw rate:	-1.954	Roll:	1.159	Pitch:	-0.081	Yaw:	238.223	Thrust:	50.828
Time:	6.064	Roll Set Point:	-0.223	Pitch Set Point:	-0.086	Yaw Set Point:	-2.958	X_WP:	0.225	Y_WP:	0.075	Y_WP:	0.500	X:	0.163	Y:	0.069	Z:	0.401	yaw:	169.489	yaw rate:	-0.627	Roll:	1.160	Pitch:	-0.079	Yaw:	238.107	Thrust:	51.018
Time:	6.079	Roll Set Point:	-0.223	Pitch Set Point:	-0.086	Yaw Set Point:	-2.958	X_WP:	0.225	Y_WP:	0.075	Y_WP:	0.500	X:	0.163	Y:	0.069	Z:	0.401	yaw:	169.490	yaw rate:	0.162	Roll:	1.166	Pitch:	-0.082	Yaw:	238.243	Thrust:	51.221
Time:	6.095	Roll Set Point:	-0.223	Pitch Set Point:	-0.086	Yaw Set Point:	-2.958	X_WP:	0.225	Y_WP:	0.075	Y_WP:	0.500	X:	0.163	Y:	0.069	Z:	0.401	yaw:	169.488	yaw rate:	-0.180	Roll:	1.165	Pitch:	-0.078	Yaw:	238.183	Thrust:	51.469
Time:	6.111	Roll Set Point:	-0.223	Pitch Set Point:	-0.086	Yaw Set Point:	-2.958	X_WP:	0.225	Y_WP:	0.075	Y_WP:	0.500	X:	0.163	Y:	0.069	Z:	0.401	yaw:	169.490	yaw rate:	0.169	Roll:	1.167	Pitch:	-0.084	Yaw:	238.247	Thrust:	51.453
Time:	6.126	Roll Set Point:	-0.223	Pitch Set Point:	-0.086	Yaw Set Point:	-2.958	X_WP:	0.225	Y_WP:	0.075	Y_WP:	0.500	X:	0.163	Y:	0.069	Z:	0.401	yaw:	169.501	yaw rate:	1.078	Roll:	1.175	Pitch:	-0.092	Yaw:	238.408	Thrust:	51.750
Time:	6.142	Roll Set Point:	-0.223	Pitch Set Point:	-0.086	Yaw Set Point:	-2.958	X_WP:	0.225	Y_WP:	0.075	Y_WP:	0.500	X:	0.163	Y:	0.069	Z:	0.401	yaw:	169.488	yaw rate:	-1.302	Roll:	1.172	Pitch:	-0.064	Yaw:	237.994	Thrust:	51.894
Time:	6.158	Roll Set Point:	-0.223	Pitch Set Point:	-0.086	Yaw Set Point:	-2.958	X_WP:	0.225	Y_WP:	0.075	Y_WP:	0.500	X:	0.163	Y:	0.069	Z:	0.401	yaw:	169.488	yaw rate:	-1.302	Roll:	1.176	Pitch:	-0.078	Yaw:	238.212	Thrust:	52.115
Time:	6.173	Roll Set Point:	-0.223	Pitch Set Point:	-0.086	Yaw Set Point:	-2.958	X_WP:	0.225	Y_WP:	0.075	Y_WP:	0.500	X:	0.163	Y:	0.069	Z:	0.401	yaw:	169.500	yaw rate:	0.616	Roll:	1.180	Pitch:	-0.090	Yaw:	238.427	Thrust:	52.325
Time:	6.189	Roll Set Point:	-0.223	Pitch Set Point:	-0.086	Yaw Set Point:	-2.958	X_WP:	0.225	Y_WP:	0.075	Y_WP:	0.500	X:	0.163	Y:	0.069	Z:	0.401	yaw:	169.485	yaw rate:	-1.455	Roll:	1.177	Pitch:	-0.060	Yaw:	237.965	Thrust:	52.448
Time:	6.204	Roll Set Point:	-0.223	Pitch Set Point:	-0.086	Yaw Set Point:	-2.958	X_WP:	0.225	Y_WP:	0.075	Y_WP:	0.500	X:	0.163	Y:	0.069	Z:	0.401	yaw:	169.477	yaw rate:	-0.810	Roll:	1.177	Pitch:	-0.071	Yaw:	238.062	Thrust:	52.612
Time:	6.220	Roll Set Point:	-0.223	Pitch Set Point:	-0.086	Yaw Set Point:	-2.958	X_WP:	0.225	Y_WP:	0.075	Y_WP:	0.500	X:	0.163	Y:	0.069	Z:	0.401	yaw:	169.498	yaw rate:	2.122	Roll:	1.192	Pitch:	-0.098	Yaw:	238.582	Thrust:	53.035
Time:	6.236	Roll Set Point:	-0.223	Pitch Set Point:	-0.086	Yaw Set Point:	-2.958	X_WP:	0.225	Y_WP:	0.075	Y_WP:	0.500	X:	0.163	Y:	0.069	Z:	0.401	yaw:	169.492	yaw rate:	-0.629	Roll:	1.187	Pitch:	-0.066	Yaw:	238.113	Thrust:	52.993
Time:	6.251	Roll Set Point:	-0.223	Pitch Set Point:	-0.086	Yaw Set Point:	-2.958	X_WP:	0.225	Y_WP:	0.075	Y_WP:	0.500	X:	0.163	Y:	0.069	Z:	0.401	yaw:	169.504	yaw rate:	1.246	Roll:	1.194	Pitch:	-0.092	Yaw:	238.444	Thrust:	53.092
Time:	6.267	Roll Set Point:	-0.223	Pitch Set Point:	-0.086	Yaw Set Point:	-2.958	X_WP:	0.225	Y_WP:	0.075	Y_WP:	0.500	X:	0.163	Y:	0.069	Z:	0.401	yaw:	169.496	yaw rate:	-0.878	Roll:	1.189	Pitch:	-0.063	Yaw:	238.080	Thrust:	53.655
