Time:	2.056	Roll Set Point:	-0.007	Pitch Set Point:	-0.063	Yaw Set Point:	0.065	X_WP:	0.000	Y_WP:	0.000	Y_WP:	0.500	X:	0.005	Y:	0.031	Z:	0.050	yaw:	-3.704	yaw rate:	-35.558	Roll:	0.073	Pitch:	0.911	Yaw:	-5.171	Thrust:	24.754
Time:	2.067	Roll Set Point:	-0.007	Pitch Set Point:	-0.063	Yaw Set Point:	0.060	X_WP:	0.000	Y_WP:	0.000	Y_WP:	0.500	X:	0.005	Y:	0.031	Z:	0.050	yaw:	-3.450	yaw rate:	25.351	Roll:	0.382	Pitch:	1.168	Yaw:	1.201	Thrust:	25.186
Time:	2.078	Roll Set Point:	-0.007	Pitch Set Point:	-0.063	Yaw Set Point:	0.060	X_WP:	0.000	Y_WP:	0.000	Y_WP:	0.500	X:	0.005	Y:	0.031	Z:	0.050	yaw:	-3.462	yaw rate:	-1.202	Roll:	0.102	Pitch:	0.923	Yaw:	-5.147	Thrust:	25.904
Time:	2.090	Roll Set Point:	-0.008	Pitch Set Point:	-0.063	Yaw Set Point:	0.058	X_WP:	0.000	Y_WP:	0.000	Y_WP:	0.500	X:	0.005	Y:	0.031	Z:	0.050	yaw:	-3.319	yaw rate:	14.271	Roll:	0.340	Pitch:	0.905	Yaw:	-1.297	Thrust:	26.046
Time:	2.101	Roll Set Point:	-0.007	Pitch Set Point:	-0.063	Yaw Set Point:	0.065	X_WP:	0.000	Y_WP:	0.000	Y_WP:	0.500	X:	0.005	Y:	0.031	Z:	0.050	yaw:	-3.740	yaw rate:	-42.069	Roll:	-0.568	Pitch:	0.925	Yaw:	-15.286	Thrust:	26.966
Time:	2.112	Roll Set Point:	-0.008	Pitch Set Point:	-0.063	Yaw Set Point:	0.052	X_WP:	0.000	Y_WP:	0.000	Y_WP:	0.500	X:	0.005	Y:	0.031	Z:	0.050	yaw:	-2.978	yaw rate:	76.222	Roll:	1.058	Pitch:	0.857	Yaw:	13.867	Thrust:	28.401
Time:	2.123	Roll Set Point:	-0.007	Pitch Set Point:	-0.063	Yaw Set Point:	0.059	X_WP:	0.000	Y_WP:	0.000	Y_WP:	0.500	X:	0.005	Y:	0.031	Z:	0.050	yaw:	-3.379	yaw rate:	-40.078	Roll:	-0.349	Pitch:	0.861	Yaw:	-14.310	Thrust:	27.537
Time:	2.134	Roll Set Point:	-0.008	Pitch Set Point:	-0.063	Yaw Set Point:	0.060	X_WP:	0.000	Y_WP:	0.000	Y_WP:	0.500	X:	0.005	Y:	0.031	Z:	0.050	yaw:	-3.453	yaw rate:	-7.474	Roll:	0.077	Pitch:	1.064	Yaw:	-6.688	Thrust:	29.363
Time:	2.145	Roll Set Point:	-0.007	Pitch Set Point:	-0.063	Yaw Set Point:	0.062	X_WP:	0.000	Y_WP:	0.000	Y_WP:	0.500	X:	0.005	Y:	0.031	Z:	0.050	yaw:	-3.566	yaw rate:	-11.255	Roll:	-0.260	Pitch:	0.727	Yaw:	-7.757	Thrust:	29.263
Time:	2.156	Roll Set Point:	-0.008	Pitch Set Point:	-0.063	Yaw Set Point:	0.054	X_WP:	0.000	Y_WP:	0.000	Y_WP:	0.500	X:	0.005	Y:	0.031	Z:	0.050	yaw:	-3.071	yaw rate:	49.499	Roll:	0.819	Pitch:	1.215	Yaw:	7.317	Thrust:	29.581
Time:	2.167	Roll Set Point:	-0.008	Pitch Set Point:	-0.063	Yaw Set Point:	0.057	X_WP:	0.000	Y_WP:	0.000	Y_WP:	0.500	X:	0.005	Y:	0.031	Z:	0.050	yaw:	-3.241	yaw rate:	-16.971	Roll:	0.088	Pitch:	0.632	Yaw:	-8.683	Thrust:	30.616
Time:	2.178	Roll Set Point:	-0.008	Pitch Set Point:	-0.063	Yaw Set Point:	0.058	X_WP:	0.000	Y_WP:	0.000	Y_WP:	0.500	X:	0.005	Y:	0.031	Z:	0.050	yaw:	-3.332	yaw rate:	-9.160	Roll:	-0.071	Pitch:	1.040	Yaw:	-6.971	Thrust:	32.727
Time:	2.190	Roll Set Point:	-0.007	Pitch Set Point:	-0.063	Yaw Set Point:	0.060	X_WP:	0.000	Y_WP:	0.000	Y_WP:	0.500	X:	0.005	Y:	0.031	Z:	0.050	yaw:	-3.444	yaw rate:	-11.172	Roll:	-0.270	Pitch:	0.901	Yaw:	-7.439	Thrust:	31.276
Time:	2.201	Roll Set Point:	-0.008	Pitch Set Point:	-0.063	Yaw Set Point:	0.055	X_WP:	0.000	Y_WP:	0.000	Y_WP:	0.500	X:	0.005	Y:	0.031	Z:	0.050	yaw:	-3.157	yaw rate:	28.700	Roll:	0.514	Pitch:	1.128	Yaw:	2.223	Thrust:	32.479
Time:	2.212	Roll Set Point:	-0.008	Pitch Set Point:	-0.063	Yaw Set Point:	0.059	X_WP:	0.000	Y_WP:	0.000	Y_WP:	0.500	X:	0.005	Y:	0.031	Z:	0.050	yaw:	-3.365	yaw rate:	-20.753	Roll:	-0.041	Pitch:	0.824	Yaw:	-9.804	Thrust:	33.555
Time:	2.223	Roll Set Point:	-0.008	Pitch Set Point:	-0.063	Yaw Set Point:	0.053	X_WP:	0.000	Y_WP:	0.000	Y_WP:	0.500	X:	0.005	Y:	0.031	Z:	0.050	yaw:	-3.016	yaw rate:	34.859	Roll:	0.518	Pitch:	0.786	Yaw:	3.885	Thrust:	33.660
Time:	2.234	Roll Set Point:	-0.008	Pitch Set Point:	-0.063	Yaw Set Point:	0.060	X_WP:	0.000	Y_WP:	0.000	Y_WP:	0.500	X:	0.005	Y:	0.031	Z:	0.050	yaw:	-3.422	yaw rate:	-40.621	Roll:	-0.474	Pitch:	0.992	Yaw:	-14.607	Thrust:	33.925
Time:	2.245	Roll Set Point:	-0.008	Pitch Set Point:	-0.063	Yaw Set Point:	0.059	X_WP:	0.000	Y_WP:	0.000	Y_WP:	0.500	X:	0.005	Y:	0.031	Z:	0.050	yaw:	-3.404	yaw rate:	1.804	Roll:	0.074	Pitch:	0.911	Yaw:	-4.545	Thrust:	35.659
Time:	2.256	Roll Set Point:	-0.008	Pitch Set Point:	-0.063	Yaw Set Point:	0.050	X_WP:	0.000	Y_WP:	0.000	Y_WP:	0.500	X:	0.005	Y:	0.031	Z:	0.050	yaw:	-2.893	yaw rate:	51.163	Roll:	0.936	Pitch:	1.089	Yaw:	7.873	Thrust:	34.706
Time:	2.267	Roll Set Point:	-0.008	Pitch Set Point:	-0.063	Yaw Set Point:	0.058	X_WP:	0.000	Y_WP:	0.000	Y_WP:	0.500	X:	0.005	Y:	0.031	Z:	0.050	yaw:	-3.300	yaw rate:	-40.745	Roll:	-0.668	Pitch:	0.634	Yaw:	-14.543	Thrust:	36.768
Time:	2.278	Roll Set Point:	-0.007	Pitch Set Point:	-0.062	Yaw Set Point:	0.059	X_WP:	0.000	Y_WP:	0.000	Y_WP:	0.500	X:	0.005	Y:	0.031	Z:	0.050	yaw:	-3.407	yaw rate:	-10.664	Roll:	-0.061	Pitch:	0.738	Yaw:	-7.540	Thrust:	36.988
Time:	2.289	Roll Set Point:	-0.008	Pitch Set Point:	-0.063	Yaw Set Point:	0.060	X_WP:	0.000	Y_WP:	0.000	Y_WP:	0.500	X:	0.005	Y:	0.031	Z:	0.050	yaw:	-3.427	yaw rate:	-2.072	Roll:	0.138	Pitch:	1.191	Yaw:	-5.547	Thrust:	36.071
Time:	2.300	Roll Set Point:	-0.008	Pitch Set Point:	-0.063	Yaw Set Point:	0.050	X_WP:	0.000	Y_WP:	0.000	Y_WP:	0.500	X:	0.005	Y:	0.031	Z:	0.050	yaw:	-2.836	yaw rate:	59.103	Roll:	0.666	Pitch:	1.038	Yaw:	9.785	Thrust:	38.363
Time:	2.311	Roll Set Point:	-0.008	Pitch Set Point:	-0.063	Yaw Set Point:	0.051	X_WP:	0.000	Y_WP:	0.000	Y_WP:	0.500	X:	0.005	Y:	0.031	Z:	0.050	yaw:	-2.946	yaw rate:	-10.991	Roll:	-0.069	Pitch:	0.734	Yaw:	-7.021	Thrust:	38.987
Time:	2.324	Roll Set Point:	-0.007	Pitch Set Point:	-0.063	Yaw Set Point:	0.061	X_WP:	0.000	Y_WP:	0.000	Y_WP:	0.500	X:	0.005	Y:	0.031	Z:	0.050	yaw:	-3.513	yaw rate:	-56.635	Roll:	-0.512	Pitch:	1.058	Yaw:	-16.639	Thrust:	41.267
Time:	2.337	Roll Set Point:	-0.008	Pitch Set Point:	-0.063	Yaw Set Point:	0.053	X_WP:	0.000	Y_WP:	0.000	Y_WP:	0.500	X:	0.005	Y:	0.031	Z:	0.050	yaw:	-3.016	yaw rate:	49.663	Roll:	0.487	Pitch:	1.051	Yaw:	5.391	Thrust:	42.396
Time:	2.349	Roll Set Point:	-0.007	Pitch Set Point:	-0.063	Yaw Set Point:	0.057	X_WP:	0.000	Y_WP:	0.000	Y_WP:	0.500	X:	0.005	Y:	0.031	Z:	0.050	yaw:	-3.291	yaw rate:	-27.492	Roll:	-0.170	Pitch:	0.884	Yaw:	-10.928	Thrust:	41.180
Time:	2.361	Roll Set Point:	-0.008	Pitch Set Point:	-0.063	Yaw Set Point:	0.052	X_WP:	0.000	Y_WP:	0.000	Y_WP:	0.500	X:	0.005	Y:	0.032	Z:	0.050	yaw:	-2.964	yaw rate:	32.646	Roll:	0.426	Pitch:	1.171	Yaw:	2.602	Thrust:	41.984
Time:	2.373	Roll Set Point:	-0.008	Pitch Set Point:	-0.063	Yaw Set Point:	0.047	X_WP:	0.000	Y_WP:	0.000	Y_WP:	0.500	X:	0.005	Y:	0.031	Z:	0.050	yaw:	-2.671	yaw rate:	29.342	Roll:	0.256	Pitch:	0.836	Yaw:	2.269	Thrust:	43.897
Time:	2.384	Roll Set Point:	-0.007	Pitch Set Point:	-0.063	Yaw Set Point:	0.057	X_WP:	0.000	Y_WP:	0.000	Y_WP:	0.500	X:	0.005	Y:	0.031	Z:	0.050	yaw:	-3.288	yaw rate:	-61.735	Roll:	-0.495	Pitch:	0.932	Yaw:	-19.579	Thrust:	42.281
Time:	2.395	Roll Set Point:	-0.007	Pitch Set Point:	-0.063	Yaw Set Point:	0.059	X_WP:	0.000	Y_WP:	0.000	Y_WP:	0.500	X:	0.005	Y:	0.031	Z:	0.050	yaw:	-3.384	yaw rate:	-9.581	Roll:	0.179	Pitch:	0.775	Yaw:	-7.378	Thrust:	40.810
Time:	2.406	Roll Set Point:	-0.008	Pitch Set Point:	-0.063	Yaw Set Point:	0.048	X_WP:	0.000	Y_WP:	0.000	Y_WP:	0.500	X:	0.005	Y:	0.031	Z:	0.050	yaw:	-2.764	yaw rate:	62.001	Roll:	0.891	Pitch:	1.017	Yaw:	10.463	Thrust:	43.771
Time:	2.417	Roll Set Point:	-0.007	Pitch Set Point:	-0.063	Yaw Set Point:	0.059	X_WP:	0.000	Y_WP:	0.000	Y_WP:	0.500	X:	0.004	Y:	0.031	Z:	0.050	yaw:	-3.356	yaw rate:	-59.162	Roll:	-0.946	Pitch:	0.824	Yaw:	-19.140	Thrust:	43.991
Time:	2.428	Roll Set Point:	-0.008	Pitch Set Point:	-0.063	Yaw Set Point:	0.052	X_WP:	0.000	Y_WP:	0.000	Y_WP:	0.500	X:	0.005	Y:	0.031	Z:	0.050	yaw:	-2.999	yaw rate:	35.708	Roll:	0.628	Pitch:	0.882	Yaw:	3.886	Thrust:	44.748
Time:	2.439	Roll Set Point:	-0.008	Pitch Set Point:	-0.063	Yaw Set Point:	0.044	X_WP:	0.000	Y_WP:	0.000	Y_WP:	0.500	X:	0.005	Y:	0.031	Z:	0.050	yaw:	-2.549	yaw rate:	44.987	Roll:	0.512	Pitch:	1.102	Yaw:	6.694	Thrust:	45.081
Time:	2.450	Roll Set Point:	-0.008	Pitch Set Point:	-0.063	Yaw Set Point:	0.045	X_WP:	0.000	Y_WP:	0.000	Y_WP:	0.500	X:	0.005	Y:	0.031	Z:	0.050	yaw:	-2.606	yaw rate:	-5.759	Roll:	0.118	Pitch:	0.868	Yaw:	-5.442	Thrust:	45.689
Time:	2.461	Roll Set Point:	-0.008	Pitch Set Point:	-0.063	Yaw Set Point:	0.057	X_WP:	0.000	Y_WP:	0.000	Y_WP:	0.500	X:	0.005	Y:	0.031	Z:	0.050	yaw:	-3.245	yaw rate:	-63.833	Roll:	-0.430	Pitch:	0.877	Yaw:	-20.129	Thrust:	46.016
Time:	2.472	Roll Set Point:	-0.008	Pitch Set Point:	-0.063	Yaw Set Point:	0.045	X_WP:	0.000	Y_WP:	0.000	Y_WP:	0.500	X:	0.005	Y:	0.031	Z:	0.050	yaw:	-2.581	yaw rate:	66.369	Roll:	0.698	Pitch:	0.960	Yaw:	11.692	Thrust:	46.497
Time:	2.483	Roll Set Point:	-0.008	Pitch Set Point:	-0.063	Yaw Set Point:	0.050	X_WP:	0.000	Y_WP:	0.000	Y_WP:	0.500	X:	0.005	Y:	0.031	Z:	0.050	yaw:	-2.890	yaw rate:	-30.935	Roll:	0.044	Pitch:	0.802	Yaw:	-11.847	Thrust:	47.503
Time:	2.494	Roll Set Point:	-0.009	Pitch Set Point:	-0.062	Yaw Set Point:	0.045	X_WP:	0.000	Y_WP:	0.000	Y_WP:	0.500	X:	0.005	Y:	0.031	Z:	0.050	yaw:	-2.563	yaw rate:	32.714	Roll:	0.753	Pitch:	0.786	Yaw:	3.703	Thrust:	47.469
Time:	2.506	Roll Set Point:	-0.008	Pitch Set Point:	-0.062	Yaw Set Point:	0.049	X_WP:	0.000	Y_WP:	0.000	Y_WP:	0.500	X:	0.005	Y:	0.031	Z:	0.050	yaw:	-2.789	yaw rate:	-22.542	Roll:	-0.380	Pitch:	0.648	Yaw:	-9.735	Thrust:	48.755
Time:	2.517	Roll Set Point:	-0.009	Pitch Set Point:	-0.062	Yaw Set Point:	0.056	X_WP:	0.000	Y_WP:	0.000	Y_WP:	0.500	X:	0.005	Y:	0.031	Z:	0.050	yaw:	-3.209	yaw rate:	-42.020	Roll:	0.139	Pitch:	1.020	Yaw:	-14.956	Thrust:	48.732
Time:	2.528	Roll Set Point:	-0.009	Pitch Set Point:	-0.062	Yaw Set Point:	0.047	X_WP:	0.000	Y_WP:	0.000	Y_WP:	0.500	X:	0.005	Y:	0.031	Z:	0.050	yaw:	-2.670	yaw rate:	53.884	Roll:	0.835	Pitch:	0.930	Yaw:	8.550	Thrust:	49.655
Time:	2.539	Roll Set Point:	-0.010	Pitch Set Point:	-0.062	Yaw Set Point:	0.047	X_WP:	0.000	Y_WP:	0.000	Y_WP:	0.500	X:	0.005	Y:	0.031	Z:	0.050	yaw:	-2.699	yaw rate:	-2.856	Roll:	0.348	Pitch:	0.885	Yaw:	-4.968	Thrust:	50.426
Time:	2.550	Roll Set Point:	-0.009	Pitch Set Point:	-0.062	Yaw Set Point:	0.048	X_WP:	0.000	Y_WP:	0.000	Y_WP:	0.500	X:	0.005	Y:	0.031	Z:	0.050	yaw:	-2.751	yaw rate:	-5.248	Roll:	0.009	Pitch:	0.701	Yaw:	-5.620	Thrust:	51.465
Time:	2.561	Roll Set Point:	-0.009	Pitch Set Point:	-0.061	Yaw Set Point:	0.055	X_WP:	0.000	Y_WP:	0.000	Y_WP:	0.500	X:	0.005	Y:	0.030	Z:	0.050	yaw:	-3.133	yaw rate:	-38.151	Roll:	-0.132	Pitch:	0.589	Yaw:	-13.972	Thrust:	50.971
Time:	2.572	Roll Set Point:	-0.009	Pitch Set Point:	-0.061	Yaw Set Point:	0.056	X_WP:	0.000	Y_WP:	0.000	Y_WP:	0.500	X:	0.005	Y:	0.030	Z:	0.050	yaw:	-3.236	yaw rate:	-10.317	Roll:	-0.155	Pitch:	0.401	Yaw:	-7.522	Thrust:	54.065
Time:	2.583	Roll Set Point:	-0.009	Pitch Set Point:	-0.061	Yaw Set Point:	0.054	X_WP:	0.000	Y_WP:	0.000	Y_WP:	0.500	X:	0.006	Y:	0.030	Z:	0.050	yaw:	-3.102	yaw rate:	13.364	Roll:	0.564	Pitch:	0.997	Yaw:	-1.727	Thrust:	51.216
Time:	2.594	Roll Set Point:	-0.010	Pitch Set Point:	-0.060	Yaw Set Point:	0.052	X_WP:	0.000	Y_WP:	0.000	Y_WP:	0.500	X:	0.006	Y:	0.030	Z:	0.050	yaw:	-2.953	yaw rate:	14.954	Roll:	0.327	Pitch:	0.537	Yaw:	-1.153	Thrust:	53.062
Time:	2.605	Roll Set Point:	-0.010	Pitch Set Point:	-0.060	Yaw Set Point:	0.042	X_WP:	0.000	Y_WP:	0.000	Y_WP:	0.500	X:	0.006	Y:	0.030	Z:	0.050	yaw:	-2.387	yaw rate:	56.534	Roll:	0.817	Pitch:	0.781	Yaw:	9.496	Thrust:	54.409
Time:	2.616	Roll Set Point:	-0.010	Pitch Set Point:	-0.060	Yaw Set Point:	0.046	X_WP:	0.000	Y_WP:	0.000	Y_WP:	0.500	X:	0.006	Y:	0.030	Z:	0.050	yaw:	-2.662	yaw rate:	-27.436	Roll:	-0.161	Pitch:	0.554	Yaw:	-10.828	Thrust:	54.146
Time:	2.627	Roll Set Point:	-0.010	Pitch Set Point:	-0.059	Yaw Set Point:	0.040	X_WP:	0.000	Y_WP:	0.000	Y_WP:	0.500	X:	0.005	Y:	0.029	Z:	0.050	yaw:	-2.304	yaw rate:	35.734	Roll:	0.071	Pitch:	0.422	Yaw:	4.654	Thrust:	56.097
Time:	2.638	Roll Set Point:	-0.010	Pitch Set Point:	-0.059	Yaw Set Point:	0.037	X_WP:	0.000	Y_WP:	0.000	Y_WP:	0.500	X:	0.005	Y:	0.029	Z:	0.050	yaw:	-2.114	yaw rate:	19.028	Roll:	0.317	Pitch:	0.643	Yaw:	0.946	Thrust:	56.001
Time:	2.649	Roll Set Point:	-0.010	Pitch Set Point:	-0.059	Yaw Set Point:	0.040	X_WP:	0.000	Y_WP:	0.000	Y_WP:	0.500	X:	0.006	Y:	0.029	Z:	0.050	yaw:	-2.309	yaw rate:	-19.526	Roll:	0.129	Pitch:	0.827	Yaw:	-8.486	Thrust:	56.274
Time:	2.660	Roll Set Point:	-0.010	Pitch Set Point:	-0.058	Yaw Set Point:	0.037	X_WP:	0.000	Y_WP:	0.000	Y_WP:	0.500	X:	0.006	Y:	0.029	Z:	0.050	yaw:	-2.114	yaw rate:	19.531	Roll:	0.209	Pitch:	0.542	Yaw:	1.039	Thrust:	56.144
Time:	2.671	Roll Set Point:	-0.010	Pitch Set Point:	-0.058	Yaw Set Point:	0.034	X_WP:	0.000	Y_WP:	0.000	Y_WP:	0.500	X:	0.006	Y:	0.029	Z:	0.050	yaw:	-1.964	yaw rate:	14.969	Roll:	0.267	Pitch:	0.658	Yaw:	0.139	Thrust:	56.434
Time:	2.682	Roll Set Point:	-0.010	Pitch Set Point:	-0.058	Yaw Set Point:	0.031	X_WP:	0.000	Y_WP:	0.000	Y_WP:	0.500	X:	0.006	Y:	0.029	Z:	0.051	yaw:	-1.764	yaw rate:	19.998	Roll:	0.389	Pitch:	0.677	Yaw:	1.621	Thrust:	57.729
Time:	2.693	Roll Set Point:	-0.010	Pitch Set Point:	-0.057	Yaw Set Point:	0.029	X_WP:	0.000	Y_WP:	0.000	Y_WP:	0.500	X:	0.006	Y:	0.029	Z:	0.051	yaw:	-1.650	yaw rate:	11.441	Roll:	0.160	Pitch:	0.630	Yaw:	-0.241	Thrust:	58.188
Time:	2.704	Roll Set Point:	-0.010	Pitch Set Point:	-0.057	Yaw Set Point:	0.023	X_WP:	0.000	Y_WP:	0.000	Y_WP:	0.500	X:	0.006	Y:	0.028	Z:	0.051	yaw:	-1.340	yaw rate:	30.986	Roll:	0.435	Pitch:	0.453	Yaw:	4.802	Thrust:	58.280
Time:	2.715	Roll Set Point:	-0.011	Pitch Set Point:	-0.056	Yaw Set Point:	0.023	X_WP:	0.000	Y_WP:	0.000	Y_WP:	0.500	X:	0.006	Y:	0.028	Z:	0.051	yaw:	-1.346	yaw rate:	-0.625	Roll:	0.220	Pitch:	0.722	Yaw:	-2.699	Thrust:	58.688
Time:	2.726	Roll Set Point:	-0.010	Pitch Set Point:	-0.055	Yaw Set Point:	0.017	X_WP:	0.000	Y_WP:	0.000	Y_WP:	0.500	X:	0.005	Y:	0.028	Z:	0.051	yaw:	-0.961	yaw rate:	38.503	Roll:	0.114	Pitch:	0.003	Yaw:	7.128	Thrust:	60.001
Time:	2.737	Roll Set Point:	-0.010	Pitch Set Point:	-0.055	Yaw Set Point:	0.013	X_WP:	0.000	Y_WP:	0.000	Y_WP:	0.500	X:	0.005	Y:	0.028	Z:	0.052	yaw:	-0.725	yaw rate:	23.653	Roll:	0.259	Pitch:	0.665	Yaw:	3.922	Thrust:	59.332
Time:	2.748	Roll Set Point:	-0.010	Pitch Set Point:	-0.055	Yaw Set Point:	0.018	X_WP:	0.000	Y_WP:	0.000	Y_WP:	0.500	X:	0.005	Y:	0.027	Z:	0.052	yaw:	-1.033	yaw rate:	-30.811	Roll:	0.118	Pitch:	0.458	Yaw:	-9.451	Thrust:	59.469
Time:	2.759	Roll Set Point:	-0.011	Pitch Set Point:	-0.054	Yaw Set Point:	0.007	X_WP:	0.000	Y_WP:	0.000	Y_WP:	0.500	X:	0.005	Y:	0.027	Z:	0.053	yaw:	-0.426	yaw rate:	60.637	Roll:	0.523	Pitch:	0.651	Yaw:	13.110	Thrust:	59.166
Time:	2.770	Roll Set Point:	-0.011	Pitch Set Point:	-0.054	Yaw Set Point:	0.002	X_WP:	0.000	Y_WP:	0.000	Y_WP:	0.500	X:	0.005	Y:	0.027	Z:	0.053	yaw:	-0.095	yaw rate:	33.184	Roll:	0.300	Pitch:	0.183	Yaw:	7.041	Thrust:	60.598
Time:	2.782	Roll Set Point:	-0.011	Pitch Set Point:	-0.053	Yaw Set Point:	-0.005	X_WP:	0.000	Y_WP:	0.000	Y_WP:	0.500	X:	0.005	Y:	0.026	Z:	0.054	yaw:	0.295	yaw rate:	39.005	Roll:	0.387	Pitch:	0.247	Yaw:	8.579	Thrust:	61.688
Time:	2.793	Roll Set Point:	-0.011	Pitch Set Point:	-0.052	Yaw Set Point:	-0.013	X_WP:	0.000	Y_WP:	0.000	Y_WP:	0.500	X:	0.005	Y:	0.026	Z:	0.055	yaw:	0.759	yaw rate:	46.309	Roll:	0.447	Pitch:	0.165	Yaw:	11.365	Thrust:	60.578
Time:	2.804	Roll Set Point:	-0.010	Pitch Set Point:	-0.051	Yaw Set Point:	-0.011	X_WP:	0.000	Y_WP:	0.000	Y_WP:	0.500	X:	0.005	Y:	0.026	Z:	0.055	yaw:	0.651	yaw rate:	-10.711	Roll:	-0.276	Pitch:	-0.000	Yaw:	-2.317	Thrust:	62.244
Time:	2.815	Roll Set Point:	-0.011	Pitch Set Point:	-0.050	Yaw Set Point:	-0.021	X_WP:	0.000	Y_WP:	0.000	Y_WP:	0.500	X:	0.005	Y:	0.025	Z:	0.056	yaw:	1.219	yaw rate:	56.755	Roll:	0.560	Pitch:	0.177	Yaw:	14.492	Thrust:	60.859
Time:	2.826	Roll Set Point:	-0.010	Pitch Set Point:	-0.049	Yaw Set Point:	-0.024	X_WP:	0.000	Y_WP:	0.000	Y_WP:	0.500	X:	0.005	Y:	0.025	Z:	0.058	yaw:	1.391	yaw rate:	17.172	Roll:	-0.022	Pitch:	-0.184	Yaw:	5.341	Thrust:	59.795
Time:	2.837	Roll Set Point:	-0.010	Pitch Set Point:	-0.048	Yaw Set Point:	-0.030	X_WP:	0.000	Y_WP:	0.000	Y_WP:	0.500	X:	0.005	Y:	0.024	Z:	0.058	yaw:	1.693	yaw rate:	30.227	Roll:	0.106	Pitch:	-0.249	Yaw:	8.867	Thrust:	63.839
Time:	2.848	Roll Set Point:	-0.010	Pitch Set Point:	-0.047	Yaw Set Point:	-0.037	X_WP:	0.000	Y_WP:	0.000	Y_WP:	0.500	X:	0.005	Y:	0.023	Z:	0.060	yaw:	2.102	yaw rate:	40.915	Roll:	0.374	Pitch:	-0.116	Yaw:	11.983	Thrust:	61.127
Time:	2.859	Roll Set Point:	-0.010	Pitch Set Point:	-0.045	Yaw Set Point:	-0.034	X_WP:	0.000	Y_WP:	0.000	Y_WP:	0.500	X:	0.005	Y:	0.023	Z:	0.060	yaw:	1.953	yaw rate:	-14.955	Roll:	0.039	Pitch:	-0.355	Yaw:	-1.480	Thrust:	63.428
Time:	2.870	Roll Set Point:	-0.010	Pitch Set Point:	-0.044	Yaw Set Point:	-0.043	X_WP:	0.000	Y_WP:	0.000	Y_WP:	0.500	X:	0.005	Y:	0.022	Z:	0.061	yaw:	2.436	yaw rate:	48.341	Roll:	0.159	Pitch:	-0.331	Yaw:	14.227	Thrust:	63.600
Time:	2.881	Roll Set Point:	-0.009	Pitch Set Point:	-0.042	Yaw Set Point:	-0.040	X_WP:	0.000	Y_WP:	0.000	Y_WP:	0.500	X:	0.004	Y:	0.021	Z:	0.063	yaw:	2.276	yaw rate:	-16.007	Roll:	-0.378	Pitch:	-1.157	Yaw:	-1.261	Thrust:	60.429
Time:	2.893	Roll Set Point:	-0.009	Pitch Set Point:	-0.040	Yaw Set Point:	-0.056	X_WP:	0.000	Y_WP:	0.000	Y_WP:	0.500	X:	0.004	Y:	0.020	Z:	0.064	yaw:	3.200	yaw rate:	92.423	Roll:	0.233	Pitch:	-0.668	Yaw:	24.415	Thrust:	67.399
Time:	2.904	Roll Set Point:	-0.009	Pitch Set Point:	-0.038	Yaw Set Point:	-0.047	X_WP:	0.000	Y_WP:	0.000	Y_WP:	0.500	X:	0.004	Y:	0.019	Z:	0.065	yaw:	2.706	yaw rate:	-49.372	Roll:	-0.447	Pitch:	-0.762	Yaw:	-8.559	Thrust:	64.350
Time:	2.915	Roll Set Point:	-0.009	Pitch Set Point:	-0.036	Yaw Set Point:	-0.059	X_WP:	0.000	Y_WP:	0.000	Y_WP:	0.500	X:	0.004	Y:	0.018	Z:	0.067	yaw:	3.353	yaw rate:	64.606	Roll:	0.206	Pitch:	-1.055	Yaw:	19.408	Thrust:	62.989
Time:	2.926	Roll Set Point:	-0.008	Pitch Set Point:	-0.033	Yaw Set Point:	-0.063	X_WP:	0.000	Y_WP:	0.000	Y_WP:	0.500	X:	0.003	Y:	0.017	Z:	0.069	yaw:	3.637	yaw rate:	28.436	Roll:	-0.414	Pitch:	-1.832	Yaw:	11.232	Thrust:	61.185
Time:	2.937	Roll Set Point:	-0.007	Pitch Set Point:	-0.031	Yaw Set Point:	-0.064	X_WP:	0.000	Y_WP:	0.000	Y_WP:	0.500	X:	0.003	Y:	0.016	Z:	0.071	yaw:	3.680	yaw rate:	4.341	Roll:	-0.296	Pitch:	-1.040	Yaw:	5.587	Thrust:	65.069
Time:	2.948	Roll Set Point:	-0.007	Pitch Set Point:	-0.028	Yaw Set Point:	-0.076	X_WP:	0.000	Y_WP:	0.000	Y_WP:	0.500	X:	0.003	Y:	0.014	Z:	0.072	yaw:	4.326	yaw rate:	64.559	Roll:	-0.448	Pitch:	-1.716	Yaw:	20.797	Thrust:	65.097
Time:	2.959	Roll Set Point:	-0.006	Pitch Set Point:	-0.025	Yaw Set Point:	-0.068	X_WP:	0.000	Y_WP:	0.000	Y_WP:	0.500	X:	0.003	Y:	0.013	Z:	0.074	yaw:	3.913	yaw rate:	-41.321	Roll:	-0.533	Pitch:	-1.645	Yaw:	-4.895	Thrust:	63.385
Time:	2.970	Roll Set Point:	-0.005	Pitch Set Point:	-0.023	Yaw Set Point:	-0.077	X_WP:	0.000	Y_WP:	0.000	Y_WP:	0.500	X:	0.002	Y:	0.012	Z:	0.076	yaw:	4.394	yaw rate:	48.093	Roll:	-0.393	Pitch:	-1.479	Yaw:	17.015	Thrust:	64.532
Time:	2.981	Roll Set Point:	-0.004	Pitch Set Point:	-0.019	Yaw Set Point:	-0.082	X_WP:	0.000	Y_WP:	0.000	Y_WP:	0.500	X:	0.002	Y:	0.009	Z:	0.078	yaw:	4.708	yaw rate:	31.401	Roll:	-0.861	Pitch:	-2.928	Yaw:	13.508	Thrust:	62.226
Time:	2.992	Roll Set Point:	-0.003	Pitch Set Point:	-0.016	Yaw Set Point:	-0.079	X_WP:	0.000	Y_WP:	0.000	Y_WP:	0.500	X:	0.001	Y:	0.008	Z:	0.080	yaw:	4.537	yaw rate:	-17.089	Roll:	-0.815	Pitch:	-1.964	Yaw:	1.778	Thrust:	64.835
Time:	3.003	Roll Set Point:	-0.002	Pitch Set Point:	-0.013	Yaw Set Point:	-0.087	X_WP:	0.000	Y_WP:	0.000	Y_WP:	0.500	X:	0.001	Y:	0.007	Z:	0.082	yaw:	4.987	yaw rate:	44.989	Roll:	-0.602	Pitch:	-1.832	Yaw:	17.158	Thrust:	65.720
Time:	3.014	Roll Set Point:	-0.002	Pitch Set Point:	-0.010	Yaw Set Point:	-0.090	X_WP:	0.000	Y_WP:	0.000	Y_WP:	0.500	X:	0.001	Y:	0.005	Z:	0.084	yaw:	5.156	yaw rate:	16.892	Roll:	-0.430	Pitch:	-2.059	Yaw:	10.744	Thrust:	65.474
Time:	3.025	Roll Set Point:	-0.001	Pitch Set Point:	-0.007	Yaw Set Point:	-0.085	X_WP:	0.000	Y_WP:	0.000	Y_WP:	0.500	X:	0.000	Y:	0.004	Z:	0.086	yaw:	4.858	yaw rate:	-29.761	Roll:	-0.906	Pitch:	-2.139	Yaw:	-0.726	Thrust:	67.676
Time:	3.036	Roll Set Point:	0.000	Pitch Set Point:	-0.002	Yaw Set Point:	-0.094	X_WP:	0.000	Y_WP:	0.000	Y_WP:	0.500	X:	-0.000	Y:	0.001	Z:	0.089	yaw:	5.382	yaw rate:	52.455	Roll:	-1.001	Pitch:	-3.792	Yaw:	19.541	Thrust:	60.443
Time:	3.047	Roll Set Point:	0.001	Pitch Set Point:	0.001	Yaw Set Point:	-0.087	X_WP:	0.000	Y_WP:	0.000	Y_WP:	0.500	X:	-0.001	Y:	-0.001	Z:	0.091	yaw:	4.987	yaw rate:	-39.561	Roll:	-0.963	Pitch:	-2.296	Yaw:	-2.832	Thrust:	67.107
Time:	3.058	Roll Set Point:	0.002	Pitch Set Point:	0.005	Yaw Set Point:	-0.104	X_WP:	0.000	Y_WP:	0.000	Y_WP:	0.500	X:	-0.001	Y:	-0.002	Z:	0.093	yaw:	5.939	yaw rate:	95.251	Roll:	-0.674	Pitch:	-2.707	Yaw:	30.514	Thrust:	65.572
Time:	3.069	Roll Set Point:	0.003	Pitch Set Point:	0.008	Yaw Set Point:	-0.108	X_WP:	0.000	Y_WP:	0.000	Y_WP:	0.500	X:	-0.001	Y:	-0.004	Z:	0.095	yaw:	6.205	yaw rate:	26.523	Roll:	-1.086	Pitch:	-2.664	Yaw:	14.597	Thrust:	66.814
Time:	3.080	Roll Set Point:	0.005	Pitch Set Point:	0.013	Yaw Set Point:	-0.110	X_WP:	0.000	Y_WP:	0.000	Y_WP:	0.500	X:	-0.002	Y:	-0.007	Z:	0.099	yaw:	6.294	yaw rate:	8.958	Roll:	-1.438	Pitch:	-4.125	Yaw:	10.570	Thrust:	62.283
Time:	3.091	Roll Set Point:	0.006	Pitch Set Point:	0.017	Yaw Set Point:	-0.110	X_WP:	0.000	Y_WP:	0.000	Y_WP:	0.500	X:	-0.002	Y:	-0.009	Z:	0.101	yaw:	6.282	yaw rate:	-1.261	Roll:	-0.998	Pitch:	-2.732	Yaw:	8.157	Thrust:	66.952
Time:	3.103	Roll Set Point:	0.007	Pitch Set Point:	0.021	Yaw Set Point:	-0.104	X_WP:	0.000	Y_WP:	0.000	Y_WP:	0.500	X:	-0.003	Y:	-0.011	Z:	0.103	yaw:	5.972	yaw rate:	-30.995	Roll:	-1.331	Pitch:	-3.287	Yaw:	0.754	Thrust:	68.170
Time:	3.114	Roll Set Point:	0.009	Pitch Set Point:	0.028	Yaw Set Point:	-0.109	X_WP:	0.000	Y_WP:	0.000	Y_WP:	0.500	X:	-0.004	Y:	-0.014	Z:	0.108	yaw:	6.222	yaw rate:	40.971	Roll:	-2.036	Pitch:	-5.457	Yaw:	14.205	Thrust:	59.034
Time:	3.126	Roll Set Point:	0.009	Pitch Set Point:	0.028	Yaw Set Point:	-0.109	X_WP:	0.000	Y_WP:	0.000	Y_WP:	0.500	X:	-0.004	Y:	-0.014	Z:	0.108	yaw:	6.222	yaw rate:	40.971	Roll:	-0.146	Pitch:	-0.326	Yaw:	8.423	Thrust:	82.745
Time:	3.137	Roll Set Point:	0.011	Pitch Set Point:	0.033	Yaw Set Point:	-0.106	X_WP:	0.000	Y_WP:	0.000	Y_WP:	0.500	X:	-0.005	Y:	-0.017	Z:	0.112	yaw:	6.091	yaw rate:	-13.094	Roll:	-1.828	Pitch:	-4.542	Yaw:	5.178	Thrust:	63.404
Time:	3.148	Roll Set Point:	0.012	Pitch Set Point:	0.037	Yaw Set Point:	-0.110	X_WP:	0.000	Y_WP:	0.000	Y_WP:	0.500	X:	-0.005	Y:	-0.019	Z:	0.115	yaw:	6.302	yaw rate:	21.064	Roll:	-1.442	Pitch:	-3.200	Yaw:	13.604	Thrust:	67.413
Time:	3.159	Roll Set Point:	0.013	Pitch Set Point:	0.041	Yaw Set Point:	-0.109	X_WP:	0.000	Y_WP:	0.000	Y_WP:	0.500	X:	-0.006	Y:	-0.021	Z:	0.117	yaw:	6.267	yaw rate:	-3.513	Roll:	-1.167	Pitch:	-3.277	Yaw:	7.745	Thrust:	68.200
Time:	3.170	Roll Set Point:	0.015	Pitch Set Point:	0.044	Yaw Set Point:	-0.114	X_WP:	0.000	Y_WP:	0.000	Y_WP:	0.500	X:	-0.006	Y:	-0.022	Z:	0.120	yaw:	6.552	yaw rate:	28.460	Roll:	-1.592	Pitch:	-3.063	Yaw:	15.755	Thrust:	68.405
Time:	3.181	Roll Set Point:	0.016	Pitch Set Point:	0.048	Yaw Set Point:	-0.115	X_WP:	0.000	Y_WP:	0.000	Y_WP:	0.500	X:	-0.007	Y:	-0.024	Z:	0.123	yaw:	6.598	yaw rate:	4.639	Roll:	-1.216	Pitch:	-3.296	Yaw:	10.192	Thrust:	67.917
Time:	3.192	Roll Set Point:	0.018	Pitch Set Point:	0.053	Yaw Set Point:	-0.106	X_WP:	0.000	Y_WP:	0.000	Y_WP:	0.500	X:	-0.007	Y:	-0.027	Z:	0.127	yaw:	6.083	yaw rate:	-51.510	Roll:	-1.754	Pitch:	-4.882	Yaw:	-3.831	Thrust:	62.559
Time:	3.203	Roll Set Point:	0.019	Pitch Set Point:	0.056	Yaw Set Point:	-0.103	X_WP:	0.000	Y_WP:	0.000	Y_WP:	0.500	X:	-0.008	Y:	-0.029	Z:	0.129	yaw:	5.918	yaw rate:	-16.516	Roll:	-1.575	Pitch:	-3.329	Yaw:	4.269	Thrust:	69.608
Time:	3.214	Roll Set Point:	0.021	Pitch Set Point:	0.060	Yaw Set Point:	-0.111	X_WP:	0.000	Y_WP:	0.000	Y_WP:	0.500	X:	-0.009	Y:	-0.030	Z:	0.133	yaw:	6.372	yaw rate:	45.461	Roll:	-1.641	Pitch:	-3.195	Yaw:	19.639	Thrust:	67.833
Time:	3.226	Roll Set Point:	0.022	Pitch Set Point:	0.064	Yaw Set Point:	-0.104	X_WP:	0.000	Y_WP:	0.000	Y_WP:	0.500	X:	-0.009	Y:	-0.032	Z:	0.135	yaw:	5.978	yaw rate:	-39.481	Roll:	-1.267	Pitch:	-3.766	Yaw:	-0.592	Thrust:	72.484
Time:	3.237	Roll Set Point:	0.024	Pitch Set Point:	0.068	Yaw Set Point:	-0.106	X_WP:	0.000	Y_WP:	0.000	Y_WP:	0.500	X:	-0.010	Y:	-0.035	Z:	0.140	yaw:	6.048	yaw rate:	7.005	Roll:	-2.081	Pitch:	-4.410	Yaw:	10.104	Thrust:	62.722
Time:	3.248	Roll Set Point:	0.025	Pitch Set Point:	0.072	Yaw Set Point:	-0.103	X_WP:	0.000	Y_WP:	0.000	Y_WP:	0.500	X:	-0.011	Y:	-0.037	Z:	0.143	yaw:	5.900	yaw rate:	-14.714	Roll:	-1.885	Pitch:	-3.981	Yaw:	4.766	Thrust:	70.111
Time:	3.259	Roll Set Point:	0.027	Pitch Set Point:	0.075	Yaw Set Point:	-0.095	X_WP:	0.000	Y_WP:	0.000	Y_WP:	0.500	X:	-0.011	Y:	-0.038	Z:	0.146	yaw:	5.450	yaw rate:	-45.076	Roll:	-1.146	Pitch:	-3.502	Yaw:	-3.047	Thrust:	69.213
Time:	3.270	Roll Set Point:	0.028	Pitch Set Point:	0.079	Yaw Set Point:	-0.096	X_WP:	0.000	Y_WP:	0.000	Y_WP:	0.500	X:	-0.012	Y:	-0.040	Z:	0.149	yaw:	5.482	yaw rate:	3.258	Roll:	-1.539	Pitch:	-3.463	Yaw:	8.492	Thrust:	68.614
Time:	3.281	Roll Set Point:	0.029	Pitch Set Point:	0.082	Yaw Set Point:	-0.099	X_WP:	0.000	Y_WP:	0.000	Y_WP:	0.500	X:	-0.013	Y:	-0.042	Z:	0.152	yaw:	5.659	yaw rate:	17.680	Roll:	-1.898	Pitch:	-3.569	Yaw:	12.183	Thrust:	68.645
Time:	3.292	Roll Set Point:	0.031	Pitch Set Point:	0.086	Yaw Set Point:	-0.104	X_WP:	0.000	Y_WP:	0.000	Y_WP:	0.500	X:	-0.013	Y:	-0.044	Z:	0.157	yaw:	5.972	yaw rate:	31.316	Roll:	-2.192	Pitch:	-4.153	Yaw:	15.878	Thrust:	61.668
Time:	3.303	Roll Set Point:	0.032	Pitch Set Point:	0.089	Yaw Set Point:	-0.094	X_WP:	0.000	Y_WP:	0.000	Y_WP:	0.500	X:	-0.014	Y:	-0.045	Z:	0.161	yaw:	5.401	yaw rate:	-57.100	Roll:	-1.416	Pitch:	-3.974	Yaw:	-5.913	Thrust:	68.574
Time:	3.314	Roll Set Point:	0.034	Pitch Set Point:	0.092	Yaw Set Point:	-0.093	X_WP:	0.000	Y_WP:	0.000	Y_WP:	0.500	X:	-0.015	Y:	-0.047	Z:	0.164	yaw:	5.311	yaw rate:	-9.021	Roll:	-1.573	Pitch:	-3.440	Yaw:	5.430	Thrust:	69.640
Time:	3.326	Roll Set Point:	0.037	Pitch Set Point:	0.099	Yaw Set Point:	-0.094	X_WP:	0.000	Y_WP:	0.000	Y_WP:	0.500	X:	-0.016	Y:	-0.050	Z:	0.173	yaw:	5.388	yaw rate:	-10.312	Roll:	-3.099	Pitch:	-6.069	Yaw:	9.371	Thrust:	56.264
Time:	3.337	Roll Set Point:	0.037	Pitch Set Point:	0.099	Yaw Set Point:	-0.094	X_WP:	0.000	Y_WP:	0.000	Y_WP:	0.500	X:	-0.016	Y:	-0.050	Z:	0.173	yaw:	5.388	yaw rate:	-10.312	Roll:	-0.601	Pitch:	-1.365	Yaw:	7.712	Thrust:	82.653
Time:	3.348	Roll Set Point:	0.038	Pitch Set Point:	0.102	Yaw Set Point:	-0.085	X_WP:	0.000	Y_WP:	0.000	Y_WP:	0.500	X:	-0.017	Y:	-0.052	Z:	0.176	yaw:	4.848	yaw rate:	-53.957	Roll:	-1.350	Pitch:	-3.751	Yaw:	-5.820	Thrust:	69.805
Time:	3.359	Roll Set Point:	0.040	Pitch Set Point:	0.104	Yaw Set Point:	-0.095	X_WP:	0.000	Y_WP:	0.000	Y_WP:	0.500	X:	-0.017	Y:	-0.053	Z:	0.180	yaw:	5.451	yaw rate:	60.343	Roll:	-2.278	Pitch:	-2.640	Yaw:	22.174	Thrust:	68.419
Time:	3.370	Roll Set Point:	0.041	Pitch Set Point:	0.107	Yaw Set Point:	-0.092	X_WP:	0.000	Y_WP:	0.000	Y_WP:	0.500	X:	-0.018	Y:	-0.054	Z:	0.183	yaw:	5.281	yaw rate:	-17.003	Roll:	-1.614	Pitch:	-3.480	Yaw:	3.591	Thrust:	68.892
Time:	3.381	Roll Set Point:	0.042	Pitch Set Point:	0.110	Yaw Set Point:	-0.081	X_WP:	0.000	Y_WP:	0.000	Y_WP:	0.500	X:	-0.019	Y:	-0.056	Z:	0.189	yaw:	4.623	yaw rate:	-65.881	Roll:	-1.423	Pitch:	-4.660	Yaw:	-8.913	Thrust:	61.055
Time:	3.392	Roll Set Point:	0.044	Pitch Set Point:	0.112	Yaw Set Point:	-0.084	X_WP:	0.000	Y_WP:	0.000	Y_WP:	0.500	X:	-0.020	Y:	-0.057	Z:	0.193	yaw:	4.819	yaw rate:	19.618	Roll:	-1.947	Pitch:	-2.982	Yaw:	11.671	Thrust:	68.978
Time:	3.403	Roll Set Point:	0.045	Pitch Set Point:	0.115	Yaw Set Point:	-0.086	X_WP:	0.000	Y_WP:	0.000	Y_WP:	0.500	X:	-0.020	Y:	-0.058	Z:	0.197	yaw:	4.914	yaw rate:	9.489	Roll:	-1.974	Pitch:	-3.175	Yaw:	9.427	Thrust:	67.926
Time:	3.414	Roll Set Point:	0.046	Pitch Set Point:	0.116	Yaw Set Point:	-0.082	X_WP:	0.000	Y_WP:	0.000	Y_WP:	0.500	X:	-0.021	Y:	-0.059	Z:	0.201	yaw:	4.700	yaw rate:	-21.380	Roll:	-1.273	Pitch:	-3.093	Yaw:	1.815	Thrust:	67.531
Time:	3.425	Roll Set Point:	0.047	Pitch Set Point:	0.119	Yaw Set Point:	-0.074	X_WP:	0.000	Y_WP:	0.000	Y_WP:	0.500	X:	-0.021	Y:	-0.060	Z:	0.205	yaw:	4.231	yaw rate:	-46.874	Roll:	-1.125	Pitch:	-3.627	Yaw:	-4.873	Thrust:	68.562
Time:	3.436	Roll Set Point:	0.049	Pitch Set Point:	0.121	Yaw Set Point:	-0.081	X_WP:	0.000	Y_WP:	0.000	Y_WP:	0.500	X:	-0.022	Y:	-0.062	Z:	0.211	yaw:	4.637	yaw rate:	40.602	Roll:	-2.720	Pitch:	-3.259	Yaw:	16.455	Thrust:	59.732
Time:	3.447	Roll Set Point:	0.050	Pitch Set Point:	0.122	Yaw Set Point:	-0.080	X_WP:	0.000	Y_WP:	0.000	Y_WP:	0.500	X:	-0.022	Y:	-0.062	Z:	0.216	yaw:	4.596	yaw rate:	-4.090	Roll:	-1.314	Pitch:	-2.744	Yaw:	5.827	Thrust:	67.237
Time:	3.458	Roll Set Point:	0.050	Pitch Set Point:	0.125	Yaw Set Point:	-0.070	X_WP:	0.000	Y_WP:	0.000	Y_WP:	0.500	X:	-0.023	Y:	-0.063	Z:	0.220	yaw:	3.982	yaw rate:	-61.403	Roll:	-0.874	Pitch:	-3.630	Yaw:	-8.616	Thrust:	67.803
Time:	3.469	Roll Set Point:	0.051	Pitch Set Point:	0.126	Yaw Set Point:	-0.071	X_WP:	0.000	Y_WP:	0.000	Y_WP:	0.500	X:	-0.023	Y:	-0.064	Z:	0.224	yaw:	4.050	yaw rate:	6.801	Roll:	-1.580	Pitch:	-2.524	Yaw:	7.685	Thrust:	67.184
Time:	3.481	Roll Set Point:	0.053	Pitch Set Point:	0.128	Yaw Set Point:	-0.072	X_WP:	0.000	Y_WP:	0.000	Y_WP:	0.500	X:	-0.024	Y:	-0.065	Z:	0.233	yaw:	4.127	yaw rate:	12.450	Roll:	-2.076	Pitch:	-3.368	Yaw:	7.955	Thrust:	53.228
Time:	3.492	Roll Set Point:	0.053	Pitch Set Point:	0.130	Yaw Set Point:	-0.057	X_WP:	0.000	Y_WP:	0.000	Y_WP:	0.500	X:	-0.025	Y:	-0.066	Z:	0.240	yaw:	3.266	yaw rate:	-86.062	Roll:	-0.605	Pitch:	-4.038	Yaw:	-15.422	Thrust:	56.771
Time:	3.504	Roll Set Point:	0.054	Pitch Set Point:	0.131	Yaw Set Point:	-0.058	X_WP:	0.000	Y_WP:	0.000	Y_WP:	0.500	X:	-0.025	Y:	-0.066	Z:	0.245	yaw:	3.297	yaw rate:	3.099	Roll:	-1.405	Pitch:	-2.394	Yaw:	5.777	Thrust:	75.199
Time:	3.515	Roll Set Point:	0.054	Pitch Set Point:	0.133	Yaw Set Point:	-0.048	X_WP:	0.000	Y_WP:	0.000	Y_WP:	0.500	X:	-0.025	Y:	-0.067	Z:	0.249	yaw:	2.740	yaw rate:	-55.761	Roll:	-0.441	Pitch:	-3.185	Yaw:	-8.941	Thrust:	65.934
Time:	3.526	Roll Set Point:	0.055	Pitch Set Point:	0.133	Yaw Set Point:	-0.047	X_WP:	0.000	Y_WP:	0.000	Y_WP:	0.500	X:	-0.026	Y:	-0.067	Z:	0.254	yaw:	2.691	yaw rate:	-4.844	Roll:	-1.374	Pitch:	-2.358	Yaw:	3.121	Thrust:	67.763
Time:	3.538	Roll Set Point:	0.056	Pitch Set Point:	0.133	Yaw Set Point:	-0.054	X_WP:	0.000	Y_WP:	0.000	Y_WP:	0.500	X:	-0.026	Y:	-0.067	Z:	0.259	yaw:	3.113	yaw rate:	42.121	Roll:	-1.827	Pitch:	-1.732	Yaw:	14.046	Thrust:	74.580
Time:	3.549	Roll Set Point:	0.057	Pitch Set Point:	0.134	Yaw Set Point:	-0.055	X_WP:	0.000	Y_WP:	0.000	Y_WP:	0.500	X:	-0.026	Y:	-0.068	Z:	0.266	yaw:	3.161	yaw rate:	4.809	Roll:	-1.625	Pitch:	-2.363	Yaw:	6.057	Thrust:	56.856
Time:	3.560	Roll Set Point:	0.057	Pitch Set Point:	0.134	Yaw Set Point:	-0.053	X_WP:	0.000	Y_WP:	0.000	Y_WP:	0.500	X:	-0.027	Y:	-0.068	Z:	0.270	yaw:	3.055	yaw rate:	-10.523	Roll:	-1.211	Pitch:	-2.187	Yaw:	2.276	Thrust:	66.236
Time:	3.571	Roll Set Point:	0.057	Pitch Set Point:	0.135	Yaw Set Point:	-0.044	X_WP:	0.000	Y_WP:	0.000	Y_WP:	0.500	X:	-0.027	Y:	-0.068	Z:	0.275	yaw:	2.542	yaw rate:	-51.380	Roll:	-0.600	Pitch:	-2.879	Yaw:	-8.093	Thrust:	66.694
Time:	3.582	Roll Set Point:	0.058	Pitch Set Point:	0.135	Yaw Set Point:	-0.047	X_WP:	0.000	Y_WP:	0.000	Y_WP:	0.500	X:	-0.027	Y:	-0.068	Z:	0.280	yaw:	2.717	yaw rate:	17.524	Roll:	-1.291	Pitch:	-1.672	Yaw:	8.446	Thrust:	66.884
Time:	3.593	Roll Set Point:	0.058	Pitch Set Point:	0.135	Yaw Set Point:	-0.042	X_WP:	0.000	Y_WP:	0.000	Y_WP:	0.500	X:	-0.027	Y:	-0.068	Z:	0.285	yaw:	2.392	yaw rate:	-32.477	Roll:	-0.559	Pitch:	-2.099	Yaw:	-3.877	Thrust:	65.686
Time:	3.604	Roll Set Point:	0.058	Pitch Set Point:	0.135	Yaw Set Point:	-0.041	X_WP:	0.000	Y_WP:	0.000	Y_WP:	0.500	X:	-0.027	Y:	-0.068	Z:	0.289	yaw:	2.377	yaw rate:	-1.510	Roll:	-1.044	Pitch:	-1.764	Yaw:	3.514	Thrust:	65.320
Time:	3.615	Roll Set Point:	0.058	Pitch Set Point:	0.135	Yaw Set Point:	-0.032	X_WP:	0.000	Y_WP:	0.000	Y_WP:	0.500	X:	-0.028	Y:	-0.068	Z:	0.297	yaw:	1.861	yaw rate:	-51.584	Roll:	-0.385	Pitch:	-2.551	Yaw:	-9.106	Thrust:	55.240
Time:	3.626	Roll Set Point:	0.058	Pitch Set Point:	0.135	Yaw Set Point:	-0.038	X_WP:	0.000	Y_WP:	0.000	Y_WP:	0.500	X:	-0.028	Y:	-0.068	Z:	0.302	yaw:	2.174	yaw rate:	31.274	Roll:	-1.510	Pitch:	-1.252	Yaw:	11.017	Thrust:	66.170
Time:	3.637	Roll Set Point:	0.058	Pitch Set Point:	0.134	Yaw Set Point:	-0.032	X_WP:	0.000	Y_WP:	0.000	Y_WP:	0.500	X:	-0.028	Y:	-0.067	Z:	0.306	yaw:	1.822	yaw rate:	-35.176	Roll:	-0.175	Pitch:	-1.678	Yaw:	-5.219	Thrust:	65.207
Time:	3.649	Roll Set Point:	0.057	Pitch Set Point:	0.134	Yaw Set Point:	-0.028	X_WP:	0.000	Y_WP:	0.000	Y_WP:	0.500	X:	-0.028	Y:	-0.067	Z:	0.311	yaw:	1.606	yaw rate:	-21.585	Roll:	-0.553	Pitch:	-1.757	Yaw:	-2.292	Thrust:	65.081
Time:	3.660	Roll Set Point:	0.058	Pitch Set Point:	0.133	Yaw Set Point:	-0.033	X_WP:	0.000	Y_WP:	0.000	Y_WP:	0.500	X:	-0.028	Y:	-0.067	Z:	0.316	yaw:	1.889	yaw rate:	28.265	Roll:	-1.209	Pitch:	-0.988	Yaw:	9.958	Thrust:	64.867
Time:	3.671	Roll Set Point:	0.057	Pitch Set Point:	0.132	Yaw Set Point:	-0.026	X_WP:	0.000	Y_WP:	0.000	Y_WP:	0.500	X:	-0.028	Y:	-0.067	Z:	0.321	yaw:	1.511	yaw rate:	-37.748	Roll:	-0.483	Pitch:	-1.903	Yaw:	-6.230	Thrust:	65.563
Time:	3.682	Roll Set Point:	0.057	Pitch Set Point:	0.131	Yaw Set Point:	-0.025	X_WP:	0.000	Y_WP:	0.000	Y_WP:	0.500	X:	-0.028	Y:	-0.066	Z:	0.329	yaw:	1.435	yaw rate:	-7.601	Roll:	-0.506	Pitch:	-0.900	Yaw:	0.802	Thrust:	54.915
Time:	3.693	Roll Set Point:	0.057	Pitch Set Point:	0.130	Yaw Set Point:	-0.022	X_WP:	0.000	Y_WP:	0.000	Y_WP:	0.500	X:	-0.028	Y:	-0.065	Z:	0.334	yaw:	1.257	yaw rate:	-17.840	Roll:	-0.410	Pitch:	-1.162	Yaw:	-1.855	Thrust:	64.603
Time:	3.704	Roll Set Point:	0.056	Pitch Set Point:	0.129	Yaw Set Point:	-0.022	X_WP:	0.000	Y_WP:	0.000	Y_WP:	0.500	X:	-0.027	Y:	-0.065	Z:	0.339	yaw:	1.288	yaw rate:	3.072	Roll:	-0.546	Pitch:	-1.169	Yaw:	3.145	Thrust:	64.113
Time:	3.715	Roll Set Point:	0.056	Pitch Set Point:	0.128	Yaw Set Point:	-0.022	X_WP:	0.000	Y_WP:	0.000	Y_WP:	0.500	X:	-0.027	Y:	-0.064	Z:	0.344	yaw:	1.248	yaw rate:	-3.955	Roll:	-0.522	Pitch:	-0.897	Yaw:	1.424	Thrust:	63.844
Time:	3.726	Roll Set Point:	0.056	Pitch Set Point:	0.126	Yaw Set Point:	-0.027	X_WP:	0.000	Y_WP:	0.000	Y_WP:	0.500	X:	-0.027	Y:	-0.063	Z:	0.351	yaw:	1.567	yaw rate:	31.877	Roll:	-0.933	Pitch:	-0.281	Yaw:	10.381	Thrust:	54.915
Time:	3.737	Roll Set Point:	0.056	Pitch Set Point:	0.125	Yaw Set Point:	-0.027	X_WP:	0.000	Y_WP:	0.000	Y_WP:	0.500	X:	-0.027	Y:	-0.063	Z:	0.354	yaw:	1.555	yaw rate:	-1.178	Roll:	-0.808	Pitch:	-1.333	Yaw:	2.527	Thrust:	75.111
Time:	3.748	Roll Set Point:	0.054	Pitch Set Point:	0.124	Yaw Set Point:	-0.011	X_WP:	0.000	Y_WP:	0.000	Y_WP:	0.500	X:	-0.027	Y:	-0.062	Z:	0.361	yaw:	0.603	yaw rate:	-95.241	Roll:	1.244	Pitch:	-1.078	Yaw:	-21.123	Thrust:	53.393
Time:	3.759	Roll Set Point:	0.054	Pitch Set Point:	0.122	Yaw Set Point:	-0.020	X_WP:	0.000	Y_WP:	0.000	Y_WP:	0.500	X:	-0.026	Y:	-0.061	Z:	0.366	yaw:	1.143	yaw rate:	54.017	Roll:	-1.245	Pitch:	-0.233	Yaw:	15.066	Thrust:	63.870
Time:	3.771	Roll Set Point:	0.053	Pitch Set Point:	0.121	Yaw Set Point:	-0.010	X_WP:	0.000	Y_WP:	0.000	Y_WP:	0.500	X:	-0.026	Y:	-0.061	Z:	0.372	yaw:	0.558	yaw rate:	-58.500	Roll:	0.393	Pitch:	-1.049	Yaw:	-11.270	Thrust:	72.468
Time:	3.782	Roll Set Point:	0.052	Pitch Set Point:	0.119	Yaw Set Point:	-0.012	X_WP:	0.000	Y_WP:	0.000	Y_WP:	0.500	X:	-0.026	Y:	-0.060	Z:	0.376	yaw:	0.684	yaw rate:	12.597	Roll:	-0.403	Pitch:	-0.491	Yaw:	4.588	Thrust:	64.590
Time:	3.793	Roll Set Point:	0.052	Pitch Set Point:	0.117	Yaw Set Point:	-0.014	X_WP:	0.000	Y_WP:	0.000	Y_WP:	0.500	X:	-0.026	Y:	-0.059	Z:	0.381	yaw:	0.777	yaw rate:	9.354	Roll:	-0.484	Pitch:	-0.183	Yaw:	3.960	Thrust:	64.159
Time:	3.804	Roll Set Point:	0.050	Pitch Set Point:	0.115	Yaw Set Point:	-0.011	X_WP:	0.000	Y_WP:	0.000	Y_WP:	0.500	X:	-0.025	Y:	-0.057	Z:	0.389	yaw:	0.646	yaw rate:	-13.169	Roll:	0.412	Pitch:	0.380	Yaw:	-1.528	Thrust:	54.901
Time:	3.816	Roll Set Point:	0.049	Pitch Set Point:	0.113	Yaw Set Point:	-0.006	X_WP:	0.000	Y_WP:	0.000	Y_WP:	0.500	X:	-0.024	Y:	-0.057	Z:	0.394	yaw:	0.316	yaw rate:	-32.946	Roll:	0.285	Pitch:	-0.674	Yaw:	-6.086	Thrust:	70.464
Time:	3.827	Roll Set Point:	0.049	Pitch Set Point:	0.111	Yaw Set Point:	-0.015	X_WP:	0.000	Y_WP:	0.000	Y_WP:	0.500	X:	-0.024	Y:	-0.055	Z:	0.399	yaw:	0.880	yaw rate:	56.393	Roll:	-0.758	Pitch:	0.520	Yaw:	15.253	Thrust:	63.592
Time:	3.838	Roll Set Point:	0.048	Pitch Set Point:	0.109	Yaw Set Point:	-0.012	X_WP:	0.000	Y_WP:	0.000	Y_WP:	0.500	X:	-0.024	Y:	-0.055	Z:	0.404	yaw:	0.711	yaw rate:	-16.913	Roll:	-0.127	Pitch:	-0.489	Yaw:	-2.356	Thrust:	63.101
Time:	3.849	Roll Set Point:	0.047	Pitch Set Point:	0.107	Yaw Set Point:	-0.007	X_WP:	0.000	Y_WP:	0.000	Y_WP:	0.500	X:	-0.023	Y:	-0.054	Z:	0.409	yaw:	0.382	yaw rate:	-32.868	Roll:	0.430	Pitch:	-0.355	Yaw:	-6.620	Thrust:	62.983
Time:	3.860	Roll Set Point:	0.046	Pitch Set Point:	0.104	Yaw Set Point:	-0.007	X_WP:	0.000	Y_WP:	0.000	Y_WP:	0.500	X:	-0.023	Y:	-0.052	Z:	0.416	yaw:	0.418	yaw rate:	3.539	Roll:	0.204	Pitch:	0.988	Yaw:	2.088	Thrust:	53.025
Time:	3.871	Roll Set Point:	0.044	Pitch Set Point:	0.102	Yaw Set Point:	0.002	X_WP:	0.000	Y_WP:	0.000	Y_WP:	0.500	X:	-0.022	Y:	-0.051	Z:	0.421	yaw:	-0.106	yaw rate:	-52.341	Roll:	0.891	Pitch:	-0.293	Yaw:	-11.936	Thrust:	61.915
Time:	3.882	Roll Set Point:	0.043	Pitch Set Point:	0.100	Yaw Set Point:	-0.001	X_WP:	0.000	Y_WP:	0.000	Y_WP:	0.500	X:	-0.022	Y:	-0.050	Z:	0.427	yaw:	0.055	yaw rate:	16.088	Roll:	-0.168	Pitch:	0.160	Yaw:	4.557	Thrust:	61.451
Time:	3.893	Roll Set Point:	0.042	Pitch Set Point:	0.097	Yaw Set Point:	-0.007	X_WP:	0.000	Y_WP:	0.000	Y_WP:	0.500	X:	-0.021	Y:	-0.049	Z:	0.432	yaw:	0.384	yaw rate:	32.900	Roll:	-0.107	Pitch:	0.783	Yaw:	9.024	Thrust:	61.869
Time:	3.904	Roll Set Point:	0.041	Pitch Set Point:	0.094	Yaw Set Point:	-0.003	X_WP:	0.000	Y_WP:	0.000	Y_WP:	0.500	X:	-0.020	Y:	-0.047	Z:	0.439	yaw:	0.178	yaw rate:	-20.588	Roll:	0.822	Pitch:	0.995	Yaw:	-3.970	Thrust:	51.354
Time:	3.915	Roll Set Point:	0.040	Pitch Set Point:	0.092	Yaw Set Point:	-0.007	X_WP:	0.000	Y_WP:	0.000	Y_WP:	0.500	X:	-0.020	Y:	-0.046	Z:	0.444	yaw:	0.422	yaw rate:	24.386	Roll:	0.149	Pitch:	0.584	Yaw:	7.034	Thrust:	61.938
Time:	3.926	Roll Set Point:	0.039	Pitch Set Point:	0.090	Yaw Set Point:	-0.006	X_WP:	0.000	Y_WP:	0.000	Y_WP:	0.500	X:	-0.019	Y:	-0.045	Z:	0.449	yaw:	0.359	yaw rate:	-6.368	Roll:	0.205	Pitch:	0.389	Yaw:	-0.346	Thrust:	60.889
Time:	3.937	Roll Set Point:	0.037	Pitch Set Point:	0.087	Yaw Set Point:	-0.006	X_WP:	0.000	Y_WP:	0.000	Y_WP:	0.500	X:	-0.019	Y:	-0.044	Z:	0.454	yaw:	0.339	yaw rate:	-1.990	Roll:	0.266	Pitch:	0.522	Yaw:	0.672	Thrust:	62.135
Time:	3.948	Roll Set Point:	0.036	Pitch Set Point:	0.085	Yaw Set Point:	0.005	X_WP:	0.000	Y_WP:	0.000	Y_WP:	0.500	X:	-0.018	Y:	-0.043	Z:	0.459	yaw:	-0.279	yaw rate:	-61.802	Roll:	1.088	Pitch:	-0.091	Yaw:	-14.385	Thrust:	61.263
Time:	3.959	Roll Set Point:	0.034	Pitch Set Point:	0.081	Yaw Set Point:	-0.004	X_WP:	0.000	Y_WP:	0.000	Y_WP:	0.500	X:	-0.017	Y:	-0.041	Z:	0.466	yaw:	0.231	yaw rate:	51.053	Roll:	0.265	Pitch:	2.136	Yaw:	13.091	Thrust:	51.504
Time:	3.970	Roll Set Point:	0.033	Pitch Set Point:	0.079	Yaw Set Point:	0.004	X_WP:	0.000	Y_WP:	0.000	Y_WP:	0.500	X:	-0.016	Y:	-0.039	Z:	0.471	yaw:	-0.215	yaw rate:	-44.647	Roll:	1.187	Pitch:	0.356	Yaw:	-10.229	Thrust:	61.079
Time:	3.981	Roll Set Point:	0.032	Pitch Set Point:	0.077	Yaw Set Point:	0.004	X_WP:	0.000	Y_WP:	0.000	Y_WP:	0.500	X:	-0.016	Y:	-0.038	Z:	0.476	yaw:	-0.218	yaw rate:	-0.320	Roll:	0.207	Pitch:	0.675	Yaw:	0.291	Thrust:	61.751
Time:	3.992	Roll Set Point:	0.030	Pitch Set Point:	0.074	Yaw Set Point:	-0.001	X_WP:	0.000	Y_WP:	0.000	Y_WP:	0.500	X:	-0.015	Y:	-0.037	Z:	0.480	yaw:	0.080	yaw rate:	29.871	Roll:	0.455	Pitch:	1.135	Yaw:	7.886	Thrust:	61.374
Time:	4.003	Roll Set Point:	0.029	Pitch Set Point:	0.071	Yaw Set Point:	-0.002	X_WP:	0.000	Y_WP:	0.000	Y_WP:	0.500	X:	-0.014	Y:	-0.036	Z:	0.485	yaw:	0.099	yaw rate:	1.875	Roll:	0.529	Pitch:	0.840	Yaw:	1.255	Thrust:	61.398
Time:	4.014	Roll Set Point:	0.027	Pitch Set Point:	0.068	Yaw Set Point:	0.005	X_WP:	0.000	Y_WP:	0.000	Y_WP:	0.500	X:	-0.013	Y:	-0.034	Z:	0.492	yaw:	-0.309	yaw rate:	-40.761	Roll:	1.540	Pitch:	1.669	Yaw:	-9.435	Thrust:	52.450
Time:	4.026	Roll Set Point:	0.026	Pitch Set Point:	0.065	Yaw Set Point:	0.005	X_WP:	0.000	Y_WP:	0.000	Y_WP:	0.500	X:	-0.013	Y:	-0.033	Z:	0.496	yaw:	-0.281	yaw rate:	2.744	Roll:	0.312	Pitch:	0.928	Yaw:	0.929	Thrust:	62.248
Time:	4.037	Roll Set Point:	0.024	Pitch Set Point:	0.062	Yaw Set Point:	0.006	X_WP:	0.000	Y_WP:	0.000	Y_WP:	0.500	X:	-0.012	Y:	-0.031	Z:	0.500	yaw:	-0.372	yaw rate:	-9.074	Roll:	0.926	Pitch:	1.171	Yaw:	-2.010	Thrust:	61.531
Time:	4.048	Roll Set Point:	0.022	Pitch Set Point:	0.060	Yaw Set Point:	0.006	X_WP:	0.000	Y_WP:	0.000	Y_WP:	0.500	X:	-0.011	Y:	-0.030	Z:	0.505	yaw:	-0.337	yaw rate:	3.485	Roll:	0.772	Pitch:	1.057	Yaw:	1.024	Thrust:	61.376
Time:	4.059	Roll Set Point:	0.021	Pitch Set Point:	0.058	Yaw Set Point:	0.015	X_WP:	0.000	Y_WP:	0.000	Y_WP:	0.500	X:	-0.011	Y:	-0.029	Z:	0.509	yaw:	-0.850	yaw rate:	-51.256	Roll:	1.151	Pitch:	0.873	Yaw:	-12.685	Thrust:	62.402
Time:	4.070	Roll Set Point:	0.019	Pitch Set Point:	0.054	Yaw Set Point:	0.013	X_WP:	0.000	Y_WP:	0.000	Y_WP:	0.500	X:	-0.010	Y:	-0.027	Z:	0.515	yaw:	-0.756	yaw rate:	9.407	Roll:	0.999	Pitch:	2.178	Yaw:	1.841	Thrust:	53.920
Time:	4.081	Roll Set Point:	0.018	Pitch Set Point:	0.051	Yaw Set Point:	0.013	X_WP:	0.000	Y_WP:	0.000	Y_WP:	0.500	X:	-0.009	Y:	-0.026	Z:	0.519	yaw:	-0.719	yaw rate:	3.615	Roll:	0.745	Pitch:	0.959	Yaw:	0.514	Thrust:	61.870
Time:	4.092	Roll Set Point:	0.016	Pitch Set Point:	0.049	Yaw Set Point:	0.014	X_WP:	0.000	Y_WP:	0.000	Y_WP:	0.500	X:	-0.008	Y:	-0.024	Z:	0.523	yaw:	-0.807	yaw rate:	-8.757	Roll:	0.796	Pitch:	1.233	Yaw:	-2.548	Thrust:	62.491
Time:	4.103	Roll Set Point:	0.015	Pitch Set Point:	0.046	Yaw Set Point:	0.013	X_WP:	0.000	Y_WP:	0.000	Y_WP:	0.500	X:	-0.007	Y:	-0.023	Z:	0.527	yaw:	-0.732	yaw rate:	7.499	Roll:	0.947	Pitch:	1.499	Yaw:	1.412	Thrust:	62.164
Time:	4.114	Roll Set Point:	0.013	Pitch Set Point:	0.043	Yaw Set Point:	0.009	X_WP:	0.000	Y_WP:	0.000	Y_WP:	0.500	X:	-0.007	Y:	-0.022	Z:	0.530	yaw:	-0.532	yaw rate:	19.969	Roll:	0.895	Pitch:	1.321	Yaw:	4.649	Thrust:	62.614
Time:	4.125	Roll Set Point:	0.011	Pitch Set Point:	0.040	Yaw Set Point:	0.017	X_WP:	0.000	Y_WP:	0.000	Y_WP:	0.500	X:	-0.006	Y:	-0.020	Z:	0.536	yaw:	-0.951	yaw rate:	-41.898	Roll:	1.684	Pitch:	2.264	Yaw:	-10.624	Thrust:	54.735
Time:	4.136	Roll Set Point:	0.010	Pitch Set Point:	0.037	Yaw Set Point:	0.017	X_WP:	0.000	Y_WP:	0.000	Y_WP:	0.500	X:	-0.005	Y:	-0.018	Z:	0.539	yaw:	-0.985	yaw rate:	-3.327	Roll:	0.746	Pitch:	1.374	Yaw:	-1.519	Thrust:	63.197
Time:	4.148	Roll Set Point:	0.008	Pitch Set Point:	0.035	Yaw Set Point:	0.014	X_WP:	0.000	Y_WP:	0.000	Y_WP:	0.500	X:	-0.004	Y:	-0.017	Z:	0.543	yaw:	-0.779	yaw rate:	20.586	Roll:	0.843	Pitch:	0.990	Yaw:	4.086	Thrust:	70.895
Time:	4.159	Roll Set Point:	0.007	Pitch Set Point:	0.032	Yaw Set Point:	0.019	X_WP:	0.000	Y_WP:	0.000	Y_WP:	0.500	X:	-0.004	Y:	-0.016	Z:	0.546	yaw:	-1.086	yaw rate:	-30.727	Roll:	0.969	Pitch:	1.486	Yaw:	-8.186	Thrust:	62.543
Time:	4.170	Roll Set Point:	0.005	Pitch Set Point:	0.029	Yaw Set Point:	0.018	X_WP:	0.000	Y_WP:	0.000	Y_WP:	0.500	X:	-0.003	Y:	-0.015	Z:	0.550	yaw:	-1.025	yaw rate:	6.110	Roll:	1.357	Pitch:	1.915	Yaw:	0.654	Thrust:	62.662
Time:	4.182	Roll Set Point:	0.003	Pitch Set Point:	0.025	Yaw Set Point:	0.013	X_WP:	0.000	Y_WP:	0.000	Y_WP:	0.500	X:	-0.001	Y:	-0.013	Z:	0.554	yaw:	-0.742	yaw rate:	28.325	Roll:	1.315	Pitch:	2.228	Yaw:	5.902	Thrust:	63.793
Time:	4.193	Roll Set Point:	-0.000	Pitch Set Point:	0.021	Yaw Set Point:	0.021	X_WP:	0.000	Y_WP:	0.000	Y_WP:	0.500	X:	0.000	Y:	-0.010	Z:	0.561	yaw:	-1.192	yaw rate:	9.540	Roll:	2.186	Pitch:	3.337	Yaw:	-11.342	Thrust:	53.441
Time:	4.205	Roll Set Point:	-0.001	Pitch Set Point:	0.018	Yaw Set Point:	0.016	X_WP:	0.000	Y_WP:	0.000	Y_WP:	0.500	X:	0.001	Y:	-0.009	Z:	0.564	yaw:	-0.935	yaw rate:	25.776	Roll:	0.671	Pitch:	1.236	Yaw:	4.984	Thrust:	71.398
Time:	4.216	Roll Set Point:	-0.003	Pitch Set Point:	0.016	Yaw Set Point:	0.029	X_WP:	0.000	Y_WP:	0.000	Y_WP:	0.500	X:	0.001	Y:	-0.008	Z:	0.567	yaw:	-1.637	yaw rate:	-70.222	Roll:	1.361	Pitch:	1.614	Yaw:	-18.333	Thrust:	62.838
Time:	4.227	Roll Set Point:	-0.004	Pitch Set Point:	0.013	Yaw Set Point:	0.026	X_WP:	0.000	Y_WP:	0.000	Y_WP:	0.500	X:	0.002	Y:	-0.007	Z:	0.570	yaw:	-1.463	yaw rate:	17.341	Roll:	1.156	Pitch:	1.904	Yaw:	2.681	Thrust:	62.556
Time:	4.238	Roll Set Point:	-0.007	Pitch Set Point:	0.009	Yaw Set Point:	0.021	X_WP:	0.000	Y_WP:	0.000	Y_WP:	0.500	X:	0.003	Y:	-0.005	Z:	0.574	yaw:	-1.199	yaw rate:	26.406	Roll:	1.869	Pitch:	2.679	Yaw:	5.211	Thrust:	55.999
Time:	4.249	Roll Set Point:	-0.008	Pitch Set Point:	0.007	Yaw Set Point:	0.020	X_WP:	0.000	Y_WP:	0.000	Y_WP:	0.500	X:	0.004	Y:	-0.004	Z:	0.577	yaw:	-1.154	yaw rate:	4.559	Roll:	1.082	Pitch:	1.629	Yaw:	0.075	Thrust:	62.945
Time:	4.260	Roll Set Point:	-0.010	Pitch Set Point:	0.005	Yaw Set Point:	0.029	X_WP:	0.000	Y_WP:	0.000	Y_WP:	0.500	X:	0.005	Y:	-0.003	Z:	0.580	yaw:	-1.682	yaw rate:	-52.796	Roll:	1.224	Pitch:	1.549	Yaw:	-14.281	Thrust:	62.892
Time:	4.271	Roll Set Point:	-0.011	Pitch Set Point:	0.003	Yaw Set Point:	0.019	X_WP:	0.000	Y_WP:	0.000	Y_WP:	0.500	X:	0.006	Y:	-0.001	Z:	0.582	yaw:	-1.091	yaw rate:	59.016	Roll:	1.439	Pitch:	1.729	Yaw:	12.942	Thrust:	63.668
Time:	4.283	Roll Set Point:	-0.013	Pitch Set Point:	0.000	Yaw Set Point:	0.021	X_WP:	0.000	Y_WP:	0.000	Y_WP:	0.500	X:	0.006	Y:	-0.000	Z:	0.585	yaw:	-1.176	yaw rate:	-8.419	Roll:	1.032	Pitch:	1.643	Yaw:	-3.043	Thrust:	63.110
Time:	4.294	Roll Set Point:	-0.014	Pitch Set Point:	-0.002	Yaw Set Point:	0.029	X_WP:	0.000	Y_WP:	0.000	Y_WP:	0.500	X:	0.007	Y:	0.001	Z:	0.588	yaw:	-1.639	yaw rate:	-46.314	Roll:	0.944	Pitch:	1.477	Yaw:	-12.703	Thrust:	62.694
Time:	4.305	Roll Set Point:	-0.016	Pitch Set Point:	-0.005	Yaw Set Point:	0.020	X_WP:	0.000	Y_WP:	0.000	Y_WP:	0.500	X:	0.008	Y:	0.002	Z:	0.591	yaw:	-1.150	yaw rate:	48.861	Roll:	1.647	Pitch:	2.381	Yaw:	10.588	Thrust:	58.245
Time:	4.316	Roll Set Point:	-0.017	Pitch Set Point:	-0.007	Yaw Set Point:	0.025	X_WP:	0.000	Y_WP:	0.000	Y_WP:	0.500	X:	0.008	Y:	0.003	Z:	0.594	yaw:	-1.408	yaw rate:	-25.744	Roll:	1.153	Pitch:	1.975	Yaw:	-7.503	Thrust:	62.151
Time:	4.327	Roll Set Point:	-0.018	Pitch Set Point:	-0.009	Yaw Set Point:	0.021	X_WP:	0.000	Y_WP:	0.000	Y_WP:	0.500	X:	0.009	Y:	0.004	Z:	0.596	yaw:	-1.211	yaw rate:	19.666	Roll:	1.340	Pitch:	1.554	Yaw:	3.545	Thrust:	62.985
Time:	4.338	Roll Set Point:	-0.020	Pitch Set Point:	-0.011	Yaw Set Point:	0.028	X_WP:	0.000	Y_WP:	0.000	Y_WP:	0.500	X:	0.010	Y:	0.005	Z:	0.598	yaw:	-1.592	yaw rate:	-38.055	Roll:	1.137	Pitch:	1.563	Yaw:	-10.691	Thrust:	62.210
Time:	4.349	Roll Set Point:	-0.022	Pitch Set Point:	-0.014	Yaw Set Point:	0.023	X_WP:	0.000	Y_WP:	0.000	Y_WP:	0.500	X:	0.011	Y:	0.007	Z:	0.602	yaw:	-1.325	yaw rate:	26.650	Roll:	1.833	Pitch:	2.429	Yaw:	5.033	Thrust:	58.487
Time:	4.360	Roll Set Point:	-0.023	Pitch Set Point:	-0.016	Yaw Set Point:	0.018	X_WP:	0.000	Y_WP:	0.000	Y_WP:	0.500	X:	0.012	Y:	0.008	Z:	0.604	yaw:	-1.056	yaw rate:	26.907	Roll:	1.362	Pitch:	1.825	Yaw:	5.464	Thrust:	62.215
Time:	4.371	Roll Set Point:	-0.024	Pitch Set Point:	-0.018	Yaw Set Point:	0.021	X_WP:	0.000	Y_WP:	0.000	Y_WP:	0.500	X:	0.012	Y:	0.009	Z:	0.606	yaw:	-1.182	yaw rate:	-12.631	Roll:	1.172	Pitch:	1.616	Yaw:	-4.094	Thrust:	62.596
Time:	4.382	Roll Set Point:	-0.025	Pitch Set Point:	-0.020	Yaw Set Point:	0.022	X_WP:	0.000	Y_WP:	0.000	Y_WP:	0.500	X:	0.013	Y:	0.010	Z:	0.608	yaw:	-1.288	yaw rate:	-10.571	Roll:	1.120	Pitch:	1.619	Yaw:	-3.771	Thrust:	62.392
Time:	4.393	Roll Set Point:	-0.026	Pitch Set Point:	-0.021	Yaw Set Point:	0.020	X_WP:	0.000	Y_WP:	0.000	Y_WP:	0.500	X:	0.013	Y:	0.010	Z:	0.610	yaw:	-1.162	yaw rate:	12.586	Roll:	1.244	Pitch:	1.524	Yaw:	1.903	Thrust:	62.295
Time:	4.404	Roll Set Point:	-0.027	Pitch Set Point:	-0.023	Yaw Set Point:	0.025	X_WP:	0.000	Y_WP:	0.000	Y_WP:	0.500	X:	0.014	Y:	0.011	Z:	0.612	yaw:	-1.442	yaw rate:	-28.033	Roll:	1.042	Pitch:	1.823	Yaw:	-8.134	Thrust:	62.378
Time:	4.415	Roll Set Point:	-0.029	Pitch Set Point:	-0.026	Yaw Set Point:	0.023	X_WP:	0.000	Y_WP:	0.000	Y_WP:	0.500	X:	0.015	Y:	0.013	Z:	0.615	yaw:	-1.317	yaw rate:	12.558	Roll:	1.737	Pitch:	2.240	Yaw:	1.670	Thrust:	57.604
Time:	4.426	Roll Set Point:	-0.030	Pitch Set Point:	-0.027	Yaw Set Point:	0.016	X_WP:	0.000	Y_WP:	0.000	Y_WP:	0.500	X:	0.015	Y:	0.013	Z:	0.617	yaw:	-0.890	yaw rate:	42.734	Roll:	1.440	Pitch:	1.256	Yaw:	9.424	Thrust:	62.550
Time:	4.437	Roll Set Point:	-0.031	Pitch Set Point:	-0.029	Yaw Set Point:	0.021	X_WP:	0.000	Y_WP:	0.000	Y_WP:	0.500	X:	0.016	Y:	0.014	Z:	0.619	yaw:	-1.228	yaw rate:	-33.800	Roll:	1.179	Pitch:	1.790	Yaw:	-9.209	Thrust:	61.847
Time:	4.448	Roll Set Point:	-0.032	Pitch Set Point:	-0.030	Yaw Set Point:	0.021	X_WP:	0.000	Y_WP:	0.000	Y_WP:	0.500	X:	0.016	Y:	0.015	Z:	0.621	yaw:	-1.225	yaw rate:	0.214	Roll:	0.967	Pitch:	1.287	Yaw:	-1.145	Thrust:	61.859
Time:	4.459	Roll Set Point:	-0.034	Pitch Set Point:	-0.032	Yaw Set Point:	0.017	X_WP:	0.000	Y_WP:	0.000	Y_WP:	0.500	X:	0.017	Y:	0.016	Z:	0.624	yaw:	-0.980	yaw rate:	24.529	Roll:	1.656	Pitch:	1.879	Yaw:	4.974	Thrust:	58.063
Time:	4.470	Roll Set Point:	-0.034	Pitch Set Point:	-0.033	Yaw Set Point:	0.026	X_WP:	0.000	Y_WP:	0.000	Y_WP:	0.500	X:	0.017	Y:	0.016	Z:	0.625	yaw:	-1.517	yaw rate:	-53.641	Roll:	0.830	Pitch:	1.679	Yaw:	-14.309	Thrust:	62.399
Time:	4.481	Roll Set Point:	-0.036	Pitch Set Point:	-0.035	Yaw Set Point:	0.021	X_WP:	0.000	Y_WP:	0.000	Y_WP:	0.500	X:	0.018	Y:	0.017	Z:	0.627	yaw:	-1.190	yaw rate:	32.646	Roll:	1.639	Pitch:	1.556	Yaw:	6.589	Thrust:	61.257
Time:	4.493	Roll Set Point:	-0.036	Pitch Set Point:	-0.036	Yaw Set Point:	0.023	X_WP:	0.000	Y_WP:	0.000	Y_WP:	0.500	X:	0.018	Y:	0.018	Z:	0.629	yaw:	-1.296	yaw rate:	-10.596	Roll:	0.654	Pitch:	1.155	Yaw:	-3.621	Thrust:	67.600
Time:	4.504	Roll Set Point:	-0.038	Pitch Set Point:	-0.037	Yaw Set Point:	0.018	X_WP:	0.000	Y_WP:	0.000	Y_WP:	0.500	X:	0.019	Y:	0.019	Z:	0.630	yaw:	-1.036	yaw rate:	26.048	Roll:	1.883	Pitch:	1.690	Yaw:	5.228	Thrust:	61.772
Time:	4.515	Roll Set Point:	-0.039	Pitch Set Point:	-0.038	Yaw Set Point:	0.014	X_WP:	0.000	Y_WP:	0.000	Y_WP:	0.500	X:	0.019	Y:	0.019	Z:	0.632	yaw:	-0.785	yaw rate:	25.055	Roll:	1.171	Pitch:	1.250	Yaw:	5.338	Thrust:	60.872
Time:	4.526	Roll Set Point:	-0.039	Pitch Set Point:	-0.040	Yaw Set Point:	0.020	X_WP:	0.000	Y_WP:	0.000	Y_WP:	0.500	X:	0.020	Y:	0.020	Z:	0.634	yaw:	-1.130	yaw rate:	-34.548	Roll:	1.109	Pitch:	1.951	Yaw:	-9.295	Thrust:	58.740
Time:	4.537	Roll Set Point:	-0.040	Pitch Set Point:	-0.041	Yaw Set Point:	0.020	X_WP:	0.000	Y_WP:	0.000	Y_WP:	0.500	X:	0.020	Y:	0.020	Z:	0.636	yaw:	-1.167	yaw rate:	-3.641	Roll:	1.178	Pitch:	1.337	Yaw:	-2.011	Thrust:	60.870
Time:	4.548	Roll Set Point:	-0.041	Pitch Set Point:	-0.042	Yaw Set Point:	0.027	X_WP:	0.000	Y_WP:	0.000	Y_WP:	0.500	X:	0.021	Y:	0.021	Z:	0.637	yaw:	-1.575	yaw rate:	-40.792	Roll:	0.736	Pitch:	1.358	Yaw:	-11.406	Thrust:	62.006
Time:	4.560	Roll Set Point:	-0.042	Pitch Set Point:	-0.043	Yaw Set Point:	0.019	X_WP:	0.000	Y_WP:	0.000	Y_WP:	0.500	X:	0.021	Y:	0.021	Z:	0.639	yaw:	-1.111	yaw rate:	46.421	Roll:	1.399	Pitch:	1.255	Yaw:	9.067	Thrust:	67.604
Time:	4.571	Roll Set Point:	-0.042	Pitch Set Point:	-0.044	Yaw Set Point:	0.018	X_WP:	0.000	Y_WP:	0.000	Y_WP:	0.500	X:	0.021	Y:	0.022	Z:	0.640	yaw:	-1.043	yaw rate:	6.710	Roll:	0.969	Pitch:	1.084	Yaw:	0.603	Thrust:	60.720
Time:	4.582	Roll Set Point:	-0.043	Pitch Set Point:	-0.045	Yaw Set Point:	0.023	X_WP:	0.000	Y_WP:	0.000	Y_WP:	0.500	X:	0.022	Y:	0.022	Z:	0.642	yaw:	-1.317	yaw rate:	-27.362	Roll:	1.195	Pitch:	1.728	Yaw:	-7.873	Thrust:	57.650
Time:	4.593	Roll Set Point:	-0.045	Pitch Set Point:	-0.046	Yaw Set Point:	0.014	X_WP:	0.000	Y_WP:	0.000	Y_WP:	0.500	X:	0.022	Y:	0.023	Z:	0.643	yaw:	-0.794	yaw rate:	52.260	Roll:	1.820	Pitch:	1.172	Yaw:	11.752	Thrust:	60.424
Time:	4.604	Roll Set Point:	-0.045	Pitch Set Point:	-0.047	Yaw Set Point:	0.018	X_WP:	0.000	Y_WP:	0.000	Y_WP:	0.500	X:	0.023	Y:	0.023	Z:	0.645	yaw:	-1.043	yaw rate:	-24.849	Roll:	0.792	Pitch:	1.411	Yaw:	-6.901	Thrust:	60.700
Time:	4.615	Roll Set Point:	-0.045	Pitch Set Point:	-0.047	Yaw Set Point:	0.020	X_WP:	0.000	Y_WP:	0.000	Y_WP:	0.500	X:	0.023	Y:	0.023	Z:	0.646	yaw:	-1.170	yaw rate:	-12.690	Roll:	0.961	Pitch:	0.997	Yaw:	-4.188	Thrust:	60.110
Time:	4.626	Roll Set Point:	-0.046	Pitch Set Point:	-0.048	Yaw Set Point:	0.014	X_WP:	0.000	Y_WP:	0.000	Y_WP:	0.500	X:	0.023	Y:	0.024	Z:	0.647	yaw:	-0.830	yaw rate:	34.037	Roll:	1.231	Pitch:	1.127	Yaw:	7.366	Thrust:	59.995
Time:	4.637	Roll Set Point:	-0.046	Pitch Set Point:	-0.049	Yaw Set Point:	0.018	X_WP:	0.000	Y_WP:	0.000	Y_WP:	0.500	X:	0.023	Y:	0.024	Z:	0.649	yaw:	-1.028	yaw rate:	-19.869	Roll:	0.851	Pitch:	1.252	Yaw:	-5.724	Thrust:	59.800
Time:	4.648	Roll Set Point:	-0.047	Pitch Set Point:	-0.050	Yaw Set Point:	0.017	X_WP:	0.000	Y_WP:	0.000	Y_WP:	0.500	X:	0.024	Y:	0.025	Z:	0.650	yaw:	-0.968	yaw rate:	5.977	Roll:	1.351	Pitch:	1.316	Yaw:	0.504	Thrust:	57.393
Time:	4.659	Roll Set Point:	-0.048	Pitch Set Point:	-0.050	Yaw Set Point:	0.019	X_WP:	0.000	Y_WP:	0.000	Y_WP:	0.500	X:	0.024	Y:	0.025	Z:	0.652	yaw:	-1.065	yaw rate:	-9.627	Roll:	1.062	Pitch:	0.797	Yaw:	-3.338	Thrust:	58.864
Time:	4.670	Roll Set Point:	-0.048	Pitch Set Point:	-0.050	Yaw Set Point:	0.019	X_WP:	0.000	Y_WP:	0.000	Y_WP:	0.500	X:	0.024	Y:	0.025	Z:	0.652	yaw:	-1.102	yaw rate:	-3.749	Roll:	0.748	Pitch:	1.329	Yaw:	-1.997	Thrust:	60.939
Time:	4.681	Roll Set Point:	-0.049	Pitch Set Point:	-0.051	Yaw Set Point:	0.019	X_WP:	0.000	Y_WP:	0.000	Y_WP:	0.500	X:	0.025	Y:	0.025	Z:	0.654	yaw:	-1.096	yaw rate:	0.612	Roll:	1.241	Pitch:	1.212	Yaw:	-0.960	Thrust:	59.250
Time:	4.692	Roll Set Point:	-0.049	Pitch Set Point:	-0.052	Yaw Set Point:	0.019	X_WP:	0.000	Y_WP:	0.000	Y_WP:	0.500	X:	0.025	Y:	0.026	Z:	0.655	yaw:	-1.074	yaw rate:	2.181	Roll:	0.929	Pitch:	1.214	Yaw:	-0.561	Thrust:	58.247
Time:	4.703	Roll Set Point:	-0.050	Pitch Set Point:	-0.052	Yaw Set Point:	0.012	X_WP:	0.000	Y_WP:	0.000	Y_WP:	0.500	X:	0.025	Y:	0.026	Z:	0.656	yaw:	-0.677	yaw rate:	39.687	Roll:	1.363	Pitch:	0.664	Yaw:	8.891	Thrust:	59.856
Time:	4.715	Roll Set Point:	-0.050	Pitch Set Point:	-0.053	Yaw Set Point:	0.022	X_WP:	0.000	Y_WP:	0.000	Y_WP:	0.500	X:	0.025	Y:	0.026	Z:	0.657	yaw:	-1.242	yaw rate:	-56.450	Roll:	0.494	Pitch:	1.522	Yaw:	-14.020	Thrust:	63.431
Time:	4.726	Roll Set Point:	-0.050	Pitch Set Point:	-0.053	Yaw Set Point:	0.024	X_WP:	0.000	Y_WP:	0.000	Y_WP:	0.500	X:	0.025	Y:	0.026	Z:	0.657	yaw:	-1.375	yaw rate:	-13.342	Roll:	0.803	Pitch:	0.705	Yaw:	-4.679	Thrust:	60.470
Time:	4.737	Roll Set Point:	-0.051	Pitch Set Point:	-0.053	Yaw Set Point:	0.016	X_WP:	0.000	Y_WP:	0.000	Y_WP:	0.500	X:	0.026	Y:	0.026	Z:	0.658	yaw:	-0.904	yaw rate:	47.105	Roll:	1.711	Pitch:	0.955	Yaw:	10.323	Thrust:	59.100
Time:	4.748	Roll Set Point:	-0.051	Pitch Set Point:	-0.054	Yaw Set Point:	0.020	X_WP:	0.000	Y_WP:	0.000	Y_WP:	0.500	X:	0.026	Y:	0.027	Z:	0.659	yaw:	-1.161	yaw rate:	-25.699	Roll:	0.472	Pitch:	1.153	Yaw:	-7.337	Thrust:	59.253
Time:	4.759	Roll Set Point:	-0.051	Pitch Set Point:	-0.054	Yaw Set Point:	0.024	X_WP:	0.000	Y_WP:	0.000	Y_WP:	0.500	X:	0.026	Y:	0.026	Z:	0.659	yaw:	-1.383	yaw rate:	-22.186	Roll:	0.547	Pitch:	0.843	Yaw:	-6.790	Thrust:	59.940
Time:	4.770	Roll Set Point:	-0.052	Pitch Set Point:	-0.054	Yaw Set Point:	0.015	X_WP:	0.000	Y_WP:	0.000	Y_WP:	0.500	X:	0.026	Y:	0.027	Z:	0.660	yaw:	-0.870	yaw rate:	51.296	Roll:	1.636	Pitch:	0.798	Yaw:	11.351	Thrust:	60.381
Time:	4.782	Roll Set Point:	-0.052	Pitch Set Point:	-0.054	Yaw Set Point:	0.019	X_WP:	0.000	Y_WP:	0.000	Y_WP:	0.500	X:	0.026	Y:	0.027	Z:	0.660	yaw:	-1.065	yaw rate:	-19.438	Roll:	0.557	Pitch:	0.979	Yaw:	-5.292	Thrust:	66.464
Time:	4.793	Roll Set Point:	-0.052	Pitch Set Point:	-0.054	Yaw Set Point:	0.020	X_WP:	0.000	Y_WP:	0.000	Y_WP:	0.500	X:	0.026	Y:	0.027	Z:	0.660	yaw:	-1.160	yaw rate:	-9.577	Roll:	0.743	Pitch:	0.874	Yaw:	-3.511	Thrust:	60.534
Time:	4.804	Roll Set Point:	-0.053	Pitch Set Point:	-0.055	Yaw Set Point:	0.016	X_WP:	0.000	Y_WP:	0.000	Y_WP:	0.500	X:	0.026	Y:	0.027	Z:	0.661	yaw:	-0.918	yaw rate:	24.212	Roll:	1.504	Pitch:	1.020	Yaw:	4.849	Thrust:	59.606
Time:	4.815	Roll Set Point:	-0.053	Pitch Set Point:	-0.055	Yaw Set Point:	0.018	X_WP:	0.000	Y_WP:	0.000	Y_WP:	0.500	X:	0.027	Y:	0.027	Z:	0.661	yaw:	-1.057	yaw rate:	-13.890	Roll:	0.690	Pitch:	0.985	Yaw:	-4.402	Thrust:	59.919
Time:	4.826	Roll Set Point:	-0.052	Pitch Set Point:	-0.055	Yaw Set Point:	0.027	X_WP:	0.000	Y_WP:	0.000	Y_WP:	0.500	X:	0.026	Y:	0.027	Z:	0.661	yaw:	-1.551	yaw rate:	-49.368	Roll:	0.295	Pitch:	0.939	Yaw:	-13.511	Thrust:	61.075
Time:	4.837	Roll Set Point:	-0.053	Pitch Set Point:	-0.055	Yaw Set Point:	0.025	X_WP:	0.000	Y_WP:	0.000	Y_WP:	0.500	X:	0.027	Y:	0.027	Z:	0.661	yaw:	-1.404	yaw rate:	14.632	Roll:	1.150	Pitch:	0.813	Yaw:	1.869	Thrust:	60.127
Time:	4.848	Roll Set Point:	-0.053	Pitch Set Point:	-0.055	Yaw Set Point:	0.018	X_WP:	0.000	Y_WP:	0.000	Y_WP:	0.500	X:	0.027	Y:	0.027	Z:	0.661	yaw:	-1.014	yaw rate:	39.008	Roll:	1.309	Pitch:	0.961	Yaw:	8.204	Thrust:	60.559
Time:	4.859	Roll Set Point:	-0.053	Pitch Set Point:	-0.055	Yaw Set Point:	0.023	X_WP:	0.000	Y_WP:	0.000	Y_WP:	0.500	X:	0.027	Y:	0.027	Z:	0.661	yaw:	-1.316	yaw rate:	-30.132	Roll:	0.242	Pitch:	0.549	Yaw:	-8.632	Thrust:	60.756
Time:	4.870	Roll Set Point:	-0.053	Pitch Set Point:	-0.055	Yaw Set Point:	0.019	X_WP:	0.000	Y_WP:	0.000	Y_WP:	0.500	X:	0.027	Y:	0.027	Z:	0.661	yaw:	-1.071	yaw rate:	24.441	Roll:	1.264	Pitch:	1.005	Yaw:	4.671	Thrust:	60.031
Time:	4.882	Roll Set Point:	-0.053	Pitch Set Point:	-0.055	Yaw Set Point:	0.024	X_WP:	0.000	Y_WP:	0.000	Y_WP:	0.500	X:	0.027	Y:	0.027	Z:	0.660	yaw:	-1.366	yaw rate:	-29.462	Roll:	0.433	Pitch:	0.833	Yaw:	-8.135	Thrust:	64.408
Time:	4.893	Roll Set Point:	-0.054	Pitch Set Point:	-0.055	Yaw Set Point:	0.015	X_WP:	0.000	Y_WP:	0.000	Y_WP:	0.500	X:	0.027	Y:	0.028	Z:	0.660	yaw:	-0.865	yaw rate:	50.099	Roll:	1.557	Pitch:	0.713	Yaw:	11.026	Thrust:	60.785
Time:	4.904	Roll Set Point:	-0.053	Pitch Set Point:	-0.055	Yaw Set Point:	0.027	X_WP:	0.000	Y_WP:	0.000	Y_WP:	0.500	X:	0.027	Y:	0.027	Z:	0.660	yaw:	-1.547	yaw rate:	-68.212	Roll:	-0.192	Pitch:	0.921	Yaw:	-18.013	Thrust:	59.983
Time:	4.915	Roll Set Point:	-0.053	Pitch Set Point:	-0.056	Yaw Set Point:	0.028	X_WP:	0.000	Y_WP:	0.000	Y_WP:	0.500	X:	0.027	Y:	0.027	Z:	0.659	yaw:	-1.579	yaw rate:	-3.235	Roll:	1.131	Pitch:	1.024	Yaw:	-2.641	Thrust:	61.694
Time:	4.926	Roll Set Point:	-0.053	Pitch Set Point:	-0.055	Yaw Set Point:	0.022	X_WP:	0.000	Y_WP:	0.000	Y_WP:	0.500	X:	0.027	Y:	0.027	Z:	0.659	yaw:	-1.288	yaw rate:	29.102	Roll:	0.921	Pitch:	0.422	Yaw:	5.355	Thrust:	61.198
Time:	4.937	Roll Set Point:	-0.054	Pitch Set Point:	-0.056	Yaw Set Point:	0.022	X_WP:	0.000	Y_WP:	0.000	Y_WP:	0.500	X:	0.027	Y:	0.028	Z:	0.658	yaw:	-1.273	yaw rate:	1.503	Roll:	1.057	Pitch:	1.119	Yaw:	-1.100	Thrust:	60.360
Time:	4.949	Roll Set Point:	-0.054	Pitch Set Point:	-0.055	Yaw Set Point:	0.020	X_WP:	0.000	Y_WP:	0.000	Y_WP:	0.500	X:	0.027	Y:	0.027	Z:	0.658	yaw:	-1.148	yaw rate:	12.487	Roll:	0.711	Pitch:	0.572	Yaw:	1.460	Thrust:	67.247
Time:	4.960	Roll Set Point:	-0.054	Pitch Set Point:	-0.055	Yaw Set Point:	0.020	X_WP:	0.000	Y_WP:	0.000	Y_WP:	0.500	X:	0.027	Y:	0.027	Z:	0.657	yaw:	-1.126	yaw rate:	2.279	Roll:	0.869	Pitch:	0.655	Yaw:	-0.719	Thrust:	60.550
Time:	4.972	Roll Set Point:	-0.054	Pitch Set Point:	-0.055	Yaw Set Point:	0.014	X_WP:	0.000	Y_WP:	0.000	Y_WP:	0.500	X:	0.027	Y:	0.027	Z:	0.656	yaw:	-0.793	yaw rate:	33.257	Roll:	1.153	Pitch:	0.424	Yaw:	7.094	Thrust:	62.375
Time:	4.983	Roll Set Point:	-0.054	Pitch Set Point:	-0.055	Yaw Set Point:	0.021	X_WP:	0.000	Y_WP:	0.000	Y_WP:	0.500	X:	0.027	Y:	0.027	Z:	0.656	yaw:	-1.184	yaw rate:	-39.121	Roll:	0.303	Pitch:	1.152	Yaw:	-10.635	Thrust:	60.518
Time:	4.994	Roll Set Point:	-0.054	Pitch Set Point:	-0.055	Yaw Set Point:	0.020	X_WP:	0.000	Y_WP:	0.000	Y_WP:	0.500	X:	0.027	Y:	0.027	Z:	0.655	yaw:	-1.164	yaw rate:	2.069	Roll:	0.630	Pitch:	0.504	Yaw:	-0.834	Thrust:	60.875
Time:	5.005	Roll Set Point:	-0.054	Pitch Set Point:	-0.055	Yaw Set Point:	0.020	X_WP:	0.000	Y_WP:	0.000	Y_WP:	0.500	X:	0.027	Y:	0.027	Z:	0.654	yaw:	-1.157	yaw rate:	0.689	Roll:	0.850	Pitch:	0.680	Yaw:	-1.156	Thrust:	60.884
