Time:	2.109	Roll Set Point:	-0.235	Pitch Set Point:	-0.114	Yaw Set Point:	-0.585	X_WP:	0.000	Y_WP:	0.000	Y_WP:	0.500	X:	0.100	Y:	0.093	Z:	0.402	yaw:	33.499	yaw rate:	0.071	Roll:	3.904	Pitch:	0.636	Yaw:	46.773	Thrust:	5.373
Time:	2.124	Roll Set Point:	-0.235	Pitch Set Point:	-0.114	Yaw Set Point:	-0.585	X_WP:	0.000	Y_WP:	0.000	Y_WP:	0.500	X:	0.100	Y:	0.093	Z:	0.402	yaw:	33.498	yaw rate:	-0.139	Roll:	3.893	Pitch:	0.610	Yaw:	46.931	Thrust:	5.561
Time:	2.140	Roll Set Point:	-0.235	Pitch Set Point:	-0.114	Yaw Set Point:	-0.584	X_WP:	0.000	Y_WP:	0.000	Y_WP:	0.500	X:	0.100	Y:	0.093	Z:	0.402	yaw:	33.486	yaw rate:	-1.170	Roll:	3.868	Pitch:	0.639	Yaw:	46.924	Thrust:	5.666
Time:	2.156	Roll Set Point:	-0.235	Pitch Set Point:	-0.114	Yaw Set Point:	-0.585	X_WP:	0.000	Y_WP:	0.000	Y_WP:	0.500	X:	0.100	Y:	0.093	Z:	0.402	yaw:	33.511	yaw rate:	2.485	Roll:	3.963	Pitch:	0.591	Yaw:	47.754	Thrust:	5.961
Time:	2.171	Roll Set Point:	-0.235	Pitch Set Point:	-0.114	Yaw Set Point:	-0.585	X_WP:	0.000	Y_WP:	0.000	Y_WP:	0.500	X:	0.100	Y:	0.093	Z:	0.402	yaw:	33.505	yaw rate:	-0.590	Roll:	3.952	Pitch:	0.679	Yaw:	47.418	Thrust:	6.176
Time:	2.187	Roll Set Point:	-0.235	Pitch Set Point:	-0.114	Yaw Set Point:	-0.584	X_WP:	0.000	Y_WP:	0.000	Y_WP:	0.500	X:	0.100	Y:	0.093	Z:	0.402	yaw:	33.488	yaw rate:	-1.661	Roll:	3.889	Pitch:	0.656	Yaw:	47.387	Thrust:	6.198
Time:	2.202	Roll Set Point:	-0.235	Pitch Set Point:	-0.114	Yaw Set Point:	-0.585	X_WP:	0.000	Y_WP:	0.000	Y_WP:	0.500	X:	0.100	Y:	0.093	Z:	0.402	yaw:	33.512	yaw rate:	2.349	Roll:	3.946	Pitch:	0.592	Yaw:	48.282	Thrust:	6.640
Time:	2.218	Roll Set Point:	-0.235	Pitch Set Point:	-0.114	Yaw Set Point:	-0.584	X_WP:	0.000	Y_WP:	0.000	Y_WP:	0.500	X:	0.100	Y:	0.093	Z:	0.402	yaw:	33.474	yaw rate:	-3.758	Roll:	3.928	Pitch:	0.736	Yaw:	47.385	Thrust:	6.431
Time:	2.234	Roll Set Point:	-0.235	Pitch Set Point:	-0.114	Yaw Set Point:	-0.585	X_WP:	0.000	Y_WP:	0.000	Y_WP:	0.500	X:	0.100	Y:	0.093	Z:	0.402	yaw:	33.498	yaw rate:	2.414	Roll:	3.976	Pitch:	0.596	Yaw:	48.639	Thrust:	6.863
Time:	2.249	Roll Set Point:	-0.235	Pitch Set Point:	-0.114	Yaw Set Point:	-0.584	X_WP:	0.000	Y_WP:	0.000	Y_WP:	0.500	X:	0.100	Y:	0.093	Z:	0.402	yaw:	33.489	yaw rate:	-0.898	Roll:	3.913	Pitch:	0.643	Yaw:	48.172	Thrust:	7.138
Time:	2.265	Roll Set Point:	-0.235	Pitch Set Point:	-0.114	Yaw Set Point:	-0.585	X_WP:	0.000	Y_WP:	0.000	Y_WP:	0.500	X:	0.100	Y:	0.093	Z:	0.402	yaw:	33.500	yaw rate:	1.089	Roll:	3.953	Pitch:	0.594	Yaw:	48.520	Thrust:	7.163
Time:	2.281	Roll Set Point:	-0.235	Pitch Set Point:	-0.114	Yaw Set Point:	-0.585	X_WP:	0.000	Y_WP:	0.000	Y_WP:	0.500	X:	0.100	Y:	0.093	Z:	0.402	yaw:	33.500	yaw rate:	1.089	Roll:	3.961	Pitch:	0.643	Yaw:	48.338	Thrust:	7.388
Time:	2.296	Roll Set Point:	-0.235	Pitch Set Point:	-0.114	Yaw Set Point:	-0.584	X_WP:	0.000	Y_WP:	0.000	Y_WP:	0.500	X:	0.100	Y:	0.093	Z:	0.402	yaw:	33.484	yaw rate:	-1.582	Roll:	3.984	Pitch:	0.707	Yaw:	48.050	Thrust:	7.484
Time:	2.312	Roll Set Point:	-0.235	Pitch Set Point:	-0.114	Yaw Set Point:	-0.585	X_WP:	0.000	Y_WP:	0.000	Y_WP:	0.500	X:	0.100	Y:	0.093	Z:	0.402	yaw:	33.505	yaw rate:	2.102	Roll:	3.999	Pitch:	0.609	Yaw:	48.698	Thrust:	7.847
Time:	2.327	Roll Set Point:	-0.235	Pitch Set Point:	-0.114	Yaw Set Point:	-0.585	X_WP:	0.000	Y_WP:	0.000	Y_WP:	0.500	X:	0.100	Y:	0.093	Z:	0.402	yaw:	33.499	yaw rate:	1.429	Roll:	3.948	Pitch:	0.637	Yaw:	48.223	Thrust:	7.882
Time:	2.343	Roll Set Point:	-0.235	Pitch Set Point:	-0.115	Yaw Set Point:	-0.585	X_WP:	0.000	Y_WP:	0.000	Y_WP:	0.500	X:	0.100	Y:	0.093	Z:	0.402	yaw:	33.508	yaw rate:	0.886	Roll:	4.015	Pitch:	0.909	Yaw:	48.496	Thrust:	9.068
Time:	2.359	Roll Set Point:	-0.235	Pitch Set Point:	-0.115	Yaw Set Point:	-0.585	X_WP:	0.000	Y_WP:	0.000	Y_WP:	0.500	X:	0.100	Y:	0.093	Z:	0.402	yaw:	33.508	yaw rate:	0.886	Roll:	3.988	Pitch:	0.655	Yaw:	48.351	Thrust:	8.327
Time:	2.374	Roll Set Point:	-0.235	Pitch Set Point:	-0.118	Yaw Set Point:	-0.592	X_WP:	0.000	Y_WP:	0.000	Y_WP:	0.500	X:	0.099	Y:	0.095	Z:	0.400	yaw:	33.918	yaw rate:	2.323	Roll:	4.693	Pitch:	1.938	Yaw:	55.797	Thrust:	15.625
Time:	2.390	Roll Set Point:	-0.234	Pitch Set Point:	-0.121	Yaw Set Point:	-0.579	X_WP:	0.000	Y_WP:	0.000	Y_WP:	0.500	X:	0.099	Y:	0.095	Z:	0.399	yaw:	33.163	yaw rate:	-75.494	Roll:	3.593	Pitch:	3.271	Yaw:	35.196	Thrust:	10.316
Time:	2.406	Roll Set Point:	-0.234	Pitch Set Point:	-0.121	Yaw Set Point:	-0.579	X_WP:	0.000	Y_WP:	0.000	Y_WP:	0.500	X:	0.099	Y:	0.095	Z:	0.399	yaw:	33.163	yaw rate:	-75.494	Roll:	4.011	Pitch:	0.758	Yaw:	47.867	Thrust:	9.043
Time:	2.421	Roll Set Point:	-0.234	Pitch Set Point:	-0.121	Yaw Set Point:	-0.578	X_WP:	0.000	Y_WP:	0.000	Y_WP:	0.500	X:	0.099	Y:	0.095	Z:	0.399	yaw:	33.096	yaw rate:	-1.286	Roll:	4.116	Pitch:	0.857	Yaw:	46.665	Thrust:	8.964
Time:	2.437	Roll Set Point:	-0.234	Pitch Set Point:	-0.121	Yaw Set Point:	-0.577	X_WP:	0.000	Y_WP:	0.000	Y_WP:	0.500	X:	0.099	Y:	0.095	Z:	0.399	yaw:	33.082	yaw rate:	-1.478	Roll:	4.031	Pitch:	0.778	Yaw:	47.506	Thrust:	9.512
Time:	2.453	Roll Set Point:	-0.234	Pitch Set Point:	-0.121	Yaw Set Point:	-0.577	X_WP:	0.000	Y_WP:	0.000	Y_WP:	0.500	X:	0.099	Y:	0.095	Z:	0.399	yaw:	33.063	yaw rate:	-1.878	Roll:	3.995	Pitch:	0.799	Yaw:	47.413	Thrust:	9.466
Time:	2.468	Roll Set Point:	-0.234	Pitch Set Point:	-0.121	Yaw Set Point:	-0.577	X_WP:	0.000	Y_WP:	0.000	Y_WP:	0.500	X:	0.099	Y:	0.095	Z:	0.399	yaw:	33.066	yaw rate:	0.299	Roll:	4.051	Pitch:	0.792	Yaw:	47.778	Thrust:	9.909
Time:	2.484	Roll Set Point:	-0.234	Pitch Set Point:	-0.121	Yaw Set Point:	-0.577	X_WP:	0.000	Y_WP:	0.000	Y_WP:	0.500	X:	0.099	Y:	0.095	Z:	0.399	yaw:	33.066	yaw rate:	0.299	Roll:	4.040	Pitch:	0.767	Yaw:	47.734	Thrust:	9.994
Time:	2.499	Roll Set Point:	-0.234	Pitch Set Point:	-0.121	Yaw Set Point:	-0.577	X_WP:	0.000	Y_WP:	0.000	Y_WP:	0.500	X:	0.099	Y:	0.095	Z:	0.399	yaw:	33.070	yaw rate:	3.732	Roll:	4.030	Pitch:	0.776	Yaw:	47.804	Thrust:	10.162
Time:	2.515	Roll Set Point:	-0.234	Pitch Set Point:	-0.121	Yaw Set Point:	-0.577	X_WP:	0.000	Y_WP:	0.000	Y_WP:	0.500	X:	0.099	Y:	0.095	Z:	0.399	yaw:	33.082	yaw rate:	1.166	Roll:	4.078	Pitch:	0.738	Yaw:	47.949	Thrust:	10.445
Time:	2.531	Roll Set Point:	-0.234	Pitch Set Point:	-0.121	Yaw Set Point:	-0.577	X_WP:	0.000	Y_WP:	0.000	Y_WP:	0.500	X:	0.099	Y:	0.095	Z:	0.399	yaw:	33.082	yaw rate:	1.166	Roll:	4.056	Pitch:	0.770	Yaw:	47.753	Thrust:	10.554
Time:	2.546	Roll Set Point:	-0.234	Pitch Set Point:	-0.121	Yaw Set Point:	-0.577	X_WP:	0.000	Y_WP:	0.000	Y_WP:	0.500	X:	0.099	Y:	0.095	Z:	0.399	yaw:	33.041	yaw rate:	-4.023	Roll:	4.012	Pitch:	0.827	Yaw:	47.024	Thrust:	10.659
Time:	2.562	Roll Set Point:	-0.234	Pitch Set Point:	-0.121	Yaw Set Point:	-0.577	X_WP:	0.000	Y_WP:	0.000	Y_WP:	0.500	X:	0.099	Y:	0.095	Z:	0.399	yaw:	33.080	yaw rate:	4.541	Roll:	4.112	Pitch:	0.714	Yaw:	48.405	Thrust:	10.968
Time:	2.578	Roll Set Point:	-0.234	Pitch Set Point:	-0.121	Yaw Set Point:	-0.577	X_WP:	0.000	Y_WP:	0.000	Y_WP:	0.500	X:	0.099	Y:	0.095	Z:	0.399	yaw:	33.057	yaw rate:	-2.337	Roll:	4.059	Pitch:	0.855	Yaw:	47.330	Thrust:	11.129
Time:	2.593	Roll Set Point:	-0.234	Pitch Set Point:	-0.121	Yaw Set Point:	-0.577	X_WP:	0.000	Y_WP:	0.000	Y_WP:	0.500	X:	0.099	Y:	0.095	Z:	0.399	yaw:	33.077	yaw rate:	2.028	Roll:	4.070	Pitch:	0.690	Yaw:	48.086	Thrust:	11.272
Time:	2.609	Roll Set Point:	-0.234	Pitch Set Point:	-0.121	Yaw Set Point:	-0.578	X_WP:	0.000	Y_WP:	0.000	Y_WP:	0.500	X:	0.099	Y:	0.095	Z:	0.399	yaw:	33.105	yaw rate:	2.745	Roll:	4.096	Pitch:	0.683	Yaw:	48.245	Thrust:	11.529
Time:	2.624	Roll Set Point:	-0.234	Pitch Set Point:	-0.121	Yaw Set Point:	-0.577	X_WP:	0.000	Y_WP:	0.000	Y_WP:	0.500	X:	0.099	Y:	0.095	Z:	0.399	yaw:	33.085	yaw rate:	-1.978	Roll:	4.092	Pitch:	0.837	Yaw:	47.427	Thrust:	11.674
Time:	2.640	Roll Set Point:	-0.234	Pitch Set Point:	-0.121	Yaw Set Point:	-0.577	X_WP:	0.000	Y_WP:	0.000	Y_WP:	0.500	X:	0.099	Y:	0.095	Z:	0.399	yaw:	33.085	yaw rate:	-1.978	Roll:	4.093	Pitch:	0.776	Yaw:	47.758	Thrust:	11.877
Time:	2.656	Roll Set Point:	-0.234	Pitch Set Point:	-0.121	Yaw Set Point:	-0.577	X_WP:	0.000	Y_WP:	0.000	Y_WP:	0.500	X:	0.099	Y:	0.095	Z:	0.399	yaw:	33.079	yaw rate:	-0.322	Roll:	4.081	Pitch:	0.831	Yaw:	47.645	Thrust:	12.091
Time:	2.671	Roll Set Point:	-0.234	Pitch Set Point:	-0.121	Yaw Set Point:	-0.578	X_WP:	0.000	Y_WP:	0.000	Y_WP:	0.500	X:	0.099	Y:	0.095	Z:	0.399	yaw:	33.100	yaw rate:	2.117	Roll:	4.107	Pitch:	0.657	Yaw:	48.134	Thrust:	12.183
Time:	2.687	Roll Set Point:	-0.234	Pitch Set Point:	-0.121	Yaw Set Point:	-0.578	X_WP:	0.000	Y_WP:	0.000	Y_WP:	0.500	X:	0.099	Y:	0.095	Z:	0.399	yaw:	33.089	yaw rate:	-1.114	Roll:	4.096	Pitch:	0.846	Yaw:	47.577	Thrust:	12.464
Time:	2.702	Roll Set Point:	-0.234	Pitch Set Point:	-0.121	Yaw Set Point:	-0.578	X_WP:	0.000	Y_WP:	0.000	Y_WP:	0.500	X:	0.099	Y:	0.095	Z:	0.399	yaw:	33.108	yaw rate:	1.940	Roll:	4.158	Pitch:	0.749	Yaw:	48.115	Thrust:	12.690
Time:	2.718	Roll Set Point:	-0.234	Pitch Set Point:	-0.121	Yaw Set Point:	-0.578	X_WP:	0.000	Y_WP:	0.000	Y_WP:	0.500	X:	0.099	Y:	0.095	Z:	0.399	yaw:	33.108	yaw rate:	1.940	Roll:	4.120	Pitch:	0.780	Yaw:	47.793	Thrust:	12.837
Time:	2.734	Roll Set Point:	-0.234	Pitch Set Point:	-0.121	Yaw Set Point:	-0.577	X_WP:	0.000	Y_WP:	0.000	Y_WP:	0.500	X:	0.099	Y:	0.095	Z:	0.399	yaw:	33.080	yaw rate:	1.063	Roll:	4.083	Pitch:	0.842	Yaw:	47.280	Thrust:	13.009
Time:	2.749	Roll Set Point:	-0.234	Pitch Set Point:	-0.121	Yaw Set Point:	-0.577	X_WP:	0.000	Y_WP:	0.000	Y_WP:	0.500	X:	0.099	Y:	0.095	Z:	0.399	yaw:	33.080	yaw rate:	1.063	Roll:	4.129	Pitch:	0.784	Yaw:	47.751	Thrust:	13.202
Time:	2.765	Roll Set Point:	-0.234	Pitch Set Point:	-0.121	Yaw Set Point:	-0.577	X_WP:	0.000	Y_WP:	0.000	Y_WP:	0.500	X:	0.099	Y:	0.095	Z:	0.399	yaw:	33.070	yaw rate:	-1.661	Roll:	4.333	Pitch:	0.932	Yaw:	47.565	Thrust:	13.705
Time:	2.781	Roll Set Point:	-0.234	Pitch Set Point:	-0.121	Yaw Set Point:	-0.577	X_WP:	0.000	Y_WP:	0.000	Y_WP:	0.500	X:	0.099	Y:	0.095	Z:	0.399	yaw:	33.070	yaw rate:	-1.661	Roll:	4.145	Pitch:	0.790	Yaw:	47.737	Thrust:	13.586
Time:	2.796	Roll Set Point:	-0.234	Pitch Set Point:	-0.121	Yaw Set Point:	-0.577	X_WP:	0.000	Y_WP:	0.000	Y_WP:	0.500	X:	0.099	Y:	0.095	Z:	0.399	yaw:	33.057	yaw rate:	-4.239	Roll:	4.161	Pitch:	0.807	Yaw:	47.498	Thrust:	13.778
Time:	2.812	Roll Set Point:	-0.234	Pitch Set Point:	-0.121	Yaw Set Point:	-0.577	X_WP:	0.000	Y_WP:	0.000	Y_WP:	0.500	X:	0.099	Y:	0.095	Z:	0.399	yaw:	33.067	yaw rate:	0.991	Roll:	4.141	Pitch:	0.734	Yaw:	47.895	Thrust:	13.916
Time:	2.828	Roll Set Point:	-0.234	Pitch Set Point:	-0.121	Yaw Set Point:	-0.578	X_WP:	0.000	Y_WP:	0.000	Y_WP:	0.500	X:	0.099	Y:	0.095	Z:	0.399	yaw:	33.096	yaw rate:	2.906	Roll:	3.987	Pitch:	0.646	Yaw:	48.260	Thrust:	13.877
Time:	2.843	Roll Set Point:	-0.234	Pitch Set Point:	-0.121	Yaw Set Point:	-0.577	X_WP:	0.000	Y_WP:	0.000	Y_WP:	0.500	X:	0.099	Y:	0.095	Z:	0.399	yaw:	33.078	yaw rate:	-1.783	Roll:	4.361	Pitch:	0.920	Yaw:	47.449	Thrust:	14.561
Time:	2.859	Roll Set Point:	-0.234	Pitch Set Point:	-0.121	Yaw Set Point:	-0.577	X_WP:	0.000	Y_WP:	0.000	Y_WP:	0.500	X:	0.099	Y:	0.095	Z:	0.399	yaw:	33.082	yaw rate:	0.375	Roll:	4.162	Pitch:	0.829	Yaw:	47.816	Thrust:	14.620
Time:	2.890	Roll Set Point:	-0.234	Pitch Set Point:	-0.121	Yaw Set Point:	-0.578	X_WP:	0.000	Y_WP:	0.000	Y_WP:	0.500	X:	0.099	Y:	0.095	Z:	0.399	yaw:	33.121	yaw rate:	4.569	Roll:	4.458	Pitch:	0.809	Yaw:	49.731	Thrust:	24.201
Time:	2.906	Roll Set Point:	-0.234	Pitch Set Point:	-0.121	Yaw Set Point:	-0.578	X_WP:	0.000	Y_WP:	0.000	Y_WP:	0.500	X:	0.099	Y:	0.095	Z:	0.399	yaw:	33.121	yaw rate:	4.569	Roll:	4.183	Pitch:	0.794	Yaw:	47.808	Thrust:	14.916
Time:	2.922	Roll Set Point:	-0.234	Pitch Set Point:	-0.121	Yaw Set Point:	-0.577	X_WP:	0.000	Y_WP:	0.000	Y_WP:	0.500	X:	0.099	Y:	0.095	Z:	0.399	yaw:	33.087	yaw rate:	1.097	Roll:	4.167	Pitch:	0.847	Yaw:	47.185	Thrust:	14.977
Time:	2.937	Roll Set Point:	-0.234	Pitch Set Point:	-0.121	Yaw Set Point:	-0.577	X_WP:	0.000	Y_WP:	0.000	Y_WP:	0.500	X:	0.099	Y:	0.095	Z:	0.399	yaw:	33.055	yaw rate:	-3.146	Roll:	4.155	Pitch:	0.813	Yaw:	47.195	Thrust:	15.094
Time:	2.953	Roll Set Point:	-0.234	Pitch Set Point:	-0.121	Yaw Set Point:	-0.578	X_WP:	0.000	Y_WP:	0.000	Y_WP:	0.500	X:	0.099	Y:	0.095	Z:	0.399	yaw:	33.093	yaw rate:	3.775	Roll:	4.221	Pitch:	0.770	Yaw:	48.399	Thrust:	15.651
Time:	2.969	Roll Set Point:	-0.234	Pitch Set Point:	-0.121	Yaw Set Point:	-0.577	X_WP:	0.000	Y_WP:	0.000	Y_WP:	0.500	X:	0.099	Y:	0.095	Z:	0.399	yaw:	33.070	yaw rate:	-2.324	Roll:	4.226	Pitch:	0.846	Yaw:	47.348	Thrust:	15.616
Time:	2.984	Roll Set Point:	-0.234	Pitch Set Point:	-0.121	Yaw Set Point:	-0.577	X_WP:	0.000	Y_WP:	0.000	Y_WP:	0.500	X:	0.099	Y:	0.095	Z:	0.399	yaw:	33.070	yaw rate:	-2.324	Roll:	4.209	Pitch:	0.802	Yaw:	47.736	Thrust:	15.855
Time:	3.000	Roll Set Point:	-0.234	Pitch Set Point:	-0.121	Yaw Set Point:	-0.577	X_WP:	0.000	Y_WP:	0.000	Y_WP:	0.500	X:	0.099	Y:	0.095	Z:	0.399	yaw:	33.088	yaw rate:	-2.083	Roll:	3.989	Pitch:	0.603	Yaw:	48.066	Thrust:	15.718
Time:	3.015	Roll Set Point:	-0.234	Pitch Set Point:	-0.121	Yaw Set Point:	-0.577	X_WP:	0.000	Y_WP:	0.000	Y_WP:	0.500	X:	0.099	Y:	0.095	Z:	0.399	yaw:	33.088	yaw rate:	-2.083	Roll:	4.214	Pitch:	0.798	Yaw:	47.761	Thrust:	16.224
Time:	3.031	Roll Set Point:	-0.234	Pitch Set Point:	-0.121	Yaw Set Point:	-0.578	X_WP:	0.000	Y_WP:	0.000	Y_WP:	0.500	X:	0.099	Y:	0.095	Z:	0.399	yaw:	33.091	yaw rate:	-1.148	Roll:	4.447	Pitch:	0.964	Yaw:	47.816	Thrust:	16.672
Time:	3.047	Roll Set Point:	-0.234	Pitch Set Point:	-0.121	Yaw Set Point:	-0.577	X_WP:	0.000	Y_WP:	0.000	Y_WP:	0.500	X:	0.099	Y:	0.095	Z:	0.399	yaw:	33.070	yaw rate:	-2.081	Roll:	4.220	Pitch:	0.853	Yaw:	47.388	Thrust:	16.632
Time:	3.062	Roll Set Point:	-0.234	Pitch Set Point:	-0.121	Yaw Set Point:	-0.577	X_WP:	0.000	Y_WP:	0.000	Y_WP:	0.500	X:	0.099	Y:	0.095	Z:	0.399	yaw:	33.062	yaw rate:	-0.768	Roll:	4.220	Pitch:	0.752	Yaw:	47.598	Thrust:	16.817
Time:	3.078	Roll Set Point:	-0.234	Pitch Set Point:	-0.121	Yaw Set Point:	-0.577	X_WP:	0.000	Y_WP:	0.000	Y_WP:	0.500	X:	0.099	Y:	0.095	Z:	0.399	yaw:	33.062	yaw rate:	-0.768	Roll:	4.241	Pitch:	0.807	Yaw:	47.729	Thrust:	17.013
Time:	3.094	Roll Set Point:	-0.234	Pitch Set Point:	-0.121	Yaw Set Point:	-0.578	X_WP:	0.000	Y_WP:	0.000	Y_WP:	0.500	X:	0.099	Y:	0.095	Z:	0.399	yaw:	33.111	yaw rate:	4.359	Roll:	4.263	Pitch:	0.743	Yaw:	48.619	Thrust:	17.193
Time:	3.109	Roll Set Point:	-0.234	Pitch Set Point:	-0.121	Yaw Set Point:	-0.578	X_WP:	0.000	Y_WP:	0.000	Y_WP:	0.500	X:	0.099	Y:	0.095	Z:	0.399	yaw:	33.102	yaw rate:	-0.911	Roll:	4.271	Pitch:	0.904	Yaw:	47.633	Thrust:	17.430
Time:	3.125	Roll Set Point:	-0.234	Pitch Set Point:	-0.121	Yaw Set Point:	-0.578	X_WP:	0.000	Y_WP:	0.000	Y_WP:	0.500	X:	0.099	Y:	0.095	Z:	0.399	yaw:	33.102	yaw rate:	-0.911	Roll:	4.257	Pitch:	0.810	Yaw:	47.782	Thrust:	17.560
Time:	3.140	Roll Set Point:	-0.234	Pitch Set Point:	-0.121	Yaw Set Point:	-0.577	X_WP:	0.000	Y_WP:	0.000	Y_WP:	0.500	X:	0.099	Y:	0.095	Z:	0.399	yaw:	33.065	yaw rate:	-3.565	Roll:	4.229	Pitch:	0.752	Yaw:	47.098	Thrust:	17.727
Time:	3.156	Roll Set Point:	-0.234	Pitch Set Point:	-0.121	Yaw Set Point:	-0.577	X_WP:	0.000	Y_WP:	0.000	Y_WP:	0.500	X:	0.099	Y:	0.095	Z:	0.399	yaw:	33.073	yaw rate:	0.869	Roll:	4.250	Pitch:	0.821	Yaw:	47.886	Thrust:	17.866
Time:	3.172	Roll Set Point:	-0.234	Pitch Set Point:	-0.121	Yaw Set Point:	-0.578	X_WP:	0.000	Y_WP:	0.000	Y_WP:	0.500	X:	0.099	Y:	0.095	Z:	0.399	yaw:	33.122	yaw rate:	4.847	Roll:	4.318	Pitch:	0.838	Yaw:	48.622	Thrust:	18.308
Time:	3.187	Roll Set Point:	-0.234	Pitch Set Point:	-0.121	Yaw Set Point:	-0.577	X_WP:	0.000	Y_WP:	0.000	Y_WP:	0.500	X:	0.099	Y:	0.095	Z:	0.399	yaw:	33.066	yaw rate:	-5.621	Roll:	4.241	Pitch:	0.812	Yaw:	46.795	Thrust:	18.231
Time:	3.203	Roll Set Point:	-0.234	Pitch Set Point:	-0.121	Yaw Set Point:	-0.577	X_WP:	0.000	Y_WP:	0.000	Y_WP:	0.500	X:	0.099	Y:	0.095	Z:	0.399	yaw:	33.066	yaw rate:	-5.621	Roll:	4.282	Pitch:	0.815	Yaw:	47.731	Thrust:	18.507
Time:	3.219	Roll Set Point:	-0.234	Pitch Set Point:	-0.121	Yaw Set Point:	-0.577	X_WP:	0.000	Y_WP:	0.000	Y_WP:	0.500	X:	0.099	Y:	0.095	Z:	0.399	yaw:	33.087	yaw rate:	2.079	Roll:	4.296	Pitch:	0.786	Yaw:	48.106	Thrust:	18.680
Time:	3.234	Roll Set Point:	-0.234	Pitch Set Point:	-0.121	Yaw Set Point:	-0.577	X_WP:	0.000	Y_WP:	0.000	Y_WP:	0.500	X:	0.099	Y:	0.095	Z:	0.399	yaw:	33.078	yaw rate:	-1.534	Roll:	4.091	Pitch:	0.763	Yaw:	47.614	Thrust:	18.534
Time:	3.250	Roll Set Point:	-0.234	Pitch Set Point:	-0.121	Yaw Set Point:	-0.577	X_WP:	0.000	Y_WP:	0.000	Y_WP:	0.500	X:	0.099	Y:	0.095	Z:	0.399	yaw:	33.050	yaw rate:	-2.883	Roll:	4.466	Pitch:	0.984	Yaw:	47.226	Thrust:	19.377
Time:	3.265	Roll Set Point:	-0.234	Pitch Set Point:	-0.121	Yaw Set Point:	-0.577	X_WP:	0.000	Y_WP:	0.000	Y_WP:	0.500	X:	0.099	Y:	0.095	Z:	0.399	yaw:	33.050	yaw rate:	-2.883	Roll:	4.304	Pitch:	0.821	Yaw:	47.712	Thrust:	19.290
Time:	3.281	Roll Set Point:	-0.234	Pitch Set Point:	-0.121	Yaw Set Point:	-0.577	X_WP:	0.000	Y_WP:	0.000	Y_WP:	0.500	X:	0.099	Y:	0.095	Z:	0.399	yaw:	33.064	yaw rate:	1.460	Roll:	4.329	Pitch:	0.730	Yaw:	47.971	Thrust:	19.407
Time:	3.297	Roll Set Point:	-0.234	Pitch Set Point:	-0.121	Yaw Set Point:	-0.578	X_WP:	0.000	Y_WP:	0.000	Y_WP:	0.500	X:	0.099	Y:	0.095	Z:	0.399	yaw:	33.119	yaw rate:	6.443	Roll:	4.338	Pitch:	0.808	Yaw:	48.728	Thrust:	19.906
Time:	3.312	Roll Set Point:	-0.234	Pitch Set Point:	-0.121	Yaw Set Point:	-0.577	X_WP:	0.000	Y_WP:	0.000	Y_WP:	0.500	X:	0.099	Y:	0.095	Z:	0.399	yaw:	33.078	yaw rate:	-4.114	Roll:	4.096	Pitch:	0.753	Yaw:	47.059	Thrust:	19.326
Time:	3.328	Roll Set Point:	-0.234	Pitch Set Point:	-0.121	Yaw Set Point:	-0.577	X_WP:	0.000	Y_WP:	0.000	Y_WP:	0.500	X:	0.099	Y:	0.095	Z:	0.399	yaw:	33.078	yaw rate:	-4.114	Roll:	4.320	Pitch:	0.821	Yaw:	47.749	Thrust:	20.023
Time:	3.344	Roll Set Point:	-0.234	Pitch Set Point:	-0.121	Yaw Set Point:	-0.577	X_WP:	0.000	Y_WP:	0.000	Y_WP:	0.500	X:	0.099	Y:	0.095	Z:	0.399	yaw:	33.076	yaw rate:	-1.545	Roll:	4.523	Pitch:	0.890	Yaw:	47.710	Thrust:	20.501
Time:	3.359	Roll Set Point:	-0.234	Pitch Set Point:	-0.121	Yaw Set Point:	-0.577	X_WP:	0.000	Y_WP:	0.000	Y_WP:	0.500	X:	0.099	Y:	0.095	Z:	0.399	yaw:	33.076	yaw rate:	-1.545	Roll:	4.335	Pitch:	0.824	Yaw:	47.745	Thrust:	20.398
Time:	3.375	Roll Set Point:	-0.234	Pitch Set Point:	-0.121	Yaw Set Point:	-0.577	X_WP:	0.000	Y_WP:	0.000	Y_WP:	0.500	X:	0.099	Y:	0.095	Z:	0.399	yaw:	33.087	yaw rate:	2.738	Roll:	4.144	Pitch:	0.714	Yaw:	47.945	Thrust:	20.290
Time:	3.390	Roll Set Point:	-0.234	Pitch Set Point:	-0.121	Yaw Set Point:	-0.577	X_WP:	0.000	Y_WP:	0.000	Y_WP:	0.500	X:	0.099	Y:	0.095	Z:	0.399	yaw:	33.087	yaw rate:	2.738	Roll:	4.341	Pitch:	0.823	Yaw:	47.761	Thrust:	20.775
Time:	3.406	Roll Set Point:	-0.234	Pitch Set Point:	-0.121	Yaw Set Point:	-0.577	X_WP:	0.000	Y_WP:	0.000	Y_WP:	0.500	X:	0.099	Y:	0.095	Z:	0.399	yaw:	33.083	yaw rate:	0.024	Roll:	4.350	Pitch:	0.853	Yaw:	47.700	Thrust:	21.031
Time:	3.422	Roll Set Point:	-0.234	Pitch Set Point:	-0.121	Yaw Set Point:	-0.578	X_WP:	0.000	Y_WP:	0.000	Y_WP:	0.500	X:	0.099	Y:	0.095	Z:	0.399	yaw:	33.097	yaw rate:	1.350	Roll:	4.556	Pitch:	0.912	Yaw:	47.998	Thrust:	21.514
Time:	3.437	Roll Set Point:	-0.234	Pitch Set Point:	-0.121	Yaw Set Point:	-0.577	X_WP:	0.000	Y_WP:	0.000	Y_WP:	0.500	X:	0.099	Y:	0.095	Z:	0.399	yaw:	33.068	yaw rate:	-2.857	Roll:	4.360	Pitch:	0.888	Yaw:	47.256	Thrust:	21.268
Time:	3.453	Roll Set Point:	-0.234	Pitch Set Point:	-0.121	Yaw Set Point:	-0.577	X_WP:	0.000	Y_WP:	0.000	Y_WP:	0.500	X:	0.099	Y:	0.095	Z:	0.399	yaw:	33.068	yaw rate:	-2.857	Roll:	4.367	Pitch:	0.832	Yaw:	47.735	Thrust:	21.538
Time:	3.469	Roll Set Point:	-0.234	Pitch Set Point:	-0.121	Yaw Set Point:	-0.577	X_WP:	0.000	Y_WP:	0.000	Y_WP:	0.500	X:	0.099	Y:	0.095	Z:	0.399	yaw:	33.069	yaw rate:	0.998	Roll:	4.364	Pitch:	0.797	Yaw:	47.745	Thrust:	21.667
Time:	3.484	Roll Set Point:	-0.234	Pitch Set Point:	-0.121	Yaw Set Point:	-0.577	X_WP:	0.000	Y_WP:	0.000	Y_WP:	0.500	X:	0.099	Y:	0.095	Z:	0.399	yaw:	33.084	yaw rate:	1.474	Roll:	4.380	Pitch:	0.824	Yaw:	48.003	Thrust:	21.954
Time:	3.500	Roll Set Point:	-0.234	Pitch Set Point:	-0.121	Yaw Set Point:	-0.577	X_WP:	0.000	Y_WP:	0.000	Y_WP:	0.500	X:	0.099	Y:	0.095	Z:	0.399	yaw:	33.065	yaw rate:	-1.871	Roll:	4.387	Pitch:	0.834	Yaw:	47.417	Thrust:	22.045
Time:	3.515	Roll Set Point:	-0.234	Pitch Set Point:	-0.121	Yaw Set Point:	-0.578	X_WP:	0.000	Y_WP:	0.000	Y_WP:	0.500	X:	0.099	Y:	0.095	Z:	0.399	yaw:	33.089	yaw rate:	2.374	Roll:	4.393	Pitch:	0.839	Yaw:	48.161	Thrust:	22.284
Time:	3.531	Roll Set Point:	-0.234	Pitch Set Point:	-0.121	Yaw Set Point:	-0.577	X_WP:	0.000	Y_WP:	0.000	Y_WP:	0.500	X:	0.099	Y:	0.095	Z:	0.399	yaw:	33.061	yaw rate:	-2.748	Roll:	4.389	Pitch:	0.850	Yaw:	47.265	Thrust:	22.584
Time:	3.547	Roll Set Point:	-0.234	Pitch Set Point:	-0.121	Yaw Set Point:	-0.578	X_WP:	0.000	Y_WP:	0.000	Y_WP:	0.500	X:	0.099	Y:	0.095	Z:	0.399	yaw:	33.118	yaw rate:	5.657	Roll:	4.423	Pitch:	0.727	Yaw:	48.752	Thrust:	22.779
Time:	3.562	Roll Set Point:	-0.234	Pitch Set Point:	-0.121	Yaw Set Point:	-0.578	X_WP:	0.000	Y_WP:	0.000	Y_WP:	0.500	X:	0.099	Y:	0.095	Z:	0.399	yaw:	33.118	yaw rate:	5.657	Roll:	4.404	Pitch:	0.835	Yaw:	47.803	Thrust:	22.860
Time:	3.578	Roll Set Point:	-0.234	Pitch Set Point:	-0.121	Yaw Set Point:	-0.577	X_WP:	0.000	Y_WP:	0.000	Y_WP:	0.500	X:	0.099	Y:	0.095	Z:	0.399	yaw:	33.075	yaw rate:	-4.298	Roll:	4.376	Pitch:	0.962	Yaw:	47.024	Thrust:	22.889
Time:	3.594	Roll Set Point:	-0.234	Pitch Set Point:	-0.121	Yaw Set Point:	-0.577	X_WP:	0.000	Y_WP:	0.000	Y_WP:	0.500	X:	0.099	Y:	0.095	Z:	0.399	yaw:	33.083	yaw rate:	-3.361	Roll:	4.436	Pitch:	0.808	Yaw:	47.889	Thrust:	23.314
Time:	3.609	Roll Set Point:	-0.234	Pitch Set Point:	-0.121	Yaw Set Point:	-0.578	X_WP:	0.000	Y_WP:	0.000	Y_WP:	0.500	X:	0.099	Y:	0.095	Z:	0.399	yaw:	33.100	yaw rate:	1.689	Roll:	4.204	Pitch:	0.686	Yaw:	48.062	Thrust:	23.076
Time:	3.625	Roll Set Point:	-0.234	Pitch Set Point:	-0.121	Yaw Set Point:	-0.578	X_WP:	0.000	Y_WP:	0.000	Y_WP:	0.500	X:	0.099	Y:	0.095	Z:	0.399	yaw:	33.100	yaw rate:	1.689	Roll:	4.420	Pitch:	0.838	Yaw:	47.779	Thrust:	23.614
Time:	3.640	Roll Set Point:	-0.234	Pitch Set Point:	-0.121	Yaw Set Point:	-0.578	X_WP:	0.000	Y_WP:	0.000	Y_WP:	0.500	X:	0.099	Y:	0.095	Z:	0.399	yaw:	33.092	yaw rate:	-0.736	Roll:	4.637	Pitch:	0.943	Yaw:	47.645	Thrust:	24.145
Time:	3.656	Roll Set Point:	-0.234	Pitch Set Point:	-0.121	Yaw Set Point:	-0.577	X_WP:	0.000	Y_WP:	0.000	Y_WP:	0.500	X:	0.099	Y:	0.095	Z:	0.399	yaw:	33.068	yaw rate:	-1.403	Roll:	4.215	Pitch:	0.812	Yaw:	47.332	Thrust:	23.558
Time:	3.672	Roll Set Point:	-0.234	Pitch Set Point:	-0.121	Yaw Set Point:	-0.578	X_WP:	0.000	Y_WP:	0.000	Y_WP:	0.500	X:	0.099	Y:	0.095	Z:	0.399	yaw:	33.141	yaw rate:	7.244	Roll:	4.686	Pitch:	0.846	Yaw:	49.049	Thrust:	24.896
Time:	3.687	Roll Set Point:	-0.234	Pitch Set Point:	-0.121	Yaw Set Point:	-0.578	X_WP:	0.000	Y_WP:	0.000	Y_WP:	0.500	X:	0.099	Y:	0.095	Z:	0.399	yaw:	33.107	yaw rate:	-3.385	Roll:	4.215	Pitch:	0.775	Yaw:	47.222	Thrust:	23.750
Time:	3.703	Roll Set Point:	-0.234	Pitch Set Point:	-0.121	Yaw Set Point:	-0.577	X_WP:	0.000	Y_WP:	0.000	Y_WP:	0.500	X:	0.099	Y:	0.095	Z:	0.399	yaw:	33.079	yaw rate:	-2.763	Roll:	4.625	Pitch:	1.046	Yaw:	47.287	Thrust:	25.024
Time:	3.719	Roll Set Point:	-0.234	Pitch Set Point:	-0.121	Yaw Set Point:	-0.578	X_WP:	0.000	Y_WP:	0.000	Y_WP:	0.500	X:	0.099	Y:	0.095	Z:	0.399	yaw:	33.115	yaw rate:	3.564	Roll:	4.285	Pitch:	0.553	Yaw:	48.397	Thrust:	24.268
Time:	3.734	Roll Set Point:	-0.234	Pitch Set Point:	-0.121	Yaw Set Point:	-0.578	X_WP:	0.000	Y_WP:	0.000	Y_WP:	0.500	X:	0.099	Y:	0.095	Z:	0.399	yaw:	33.115	yaw rate:	3.564	Roll:	4.457	Pitch:	0.843	Yaw:	47.800	Thrust:	24.943
Time:	3.750	Roll Set Point:	-0.234	Pitch Set Point:	-0.121	Yaw Set Point:	-0.578	X_WP:	0.000	Y_WP:	0.000	Y_WP:	0.500	X:	0.099	Y:	0.095	Z:	0.399	yaw:	33.124	yaw rate:	5.675	Roll:	4.681	Pitch:	1.034	Yaw:	47.968	Thrust:	25.631
Time:	3.765	Roll Set Point:	-0.234	Pitch Set Point:	-0.121	Yaw Set Point:	-0.578	X_WP:	0.000	Y_WP:	0.000	Y_WP:	0.500	X:	0.099	Y:	0.095	Z:	0.399	yaw:	33.093	yaw rate:	-3.094	Roll:	4.448	Pitch:	0.916	Yaw:	47.251	Thrust:	25.278
Time:	3.781	Roll Set Point:	-0.234	Pitch Set Point:	-0.121	Yaw Set Point:	-0.578	X_WP:	0.000	Y_WP:	0.000	Y_WP:	0.500	X:	0.099	Y:	0.095	Z:	0.399	yaw:	33.101	yaw rate:	0.785	Roll:	4.267	Pitch:	0.664	Yaw:	47.912	Thrust:	25.127
Time:	3.797	Roll Set Point:	-0.234	Pitch Set Point:	-0.121	Yaw Set Point:	-0.578	X_WP:	0.000	Y_WP:	0.000	Y_WP:	0.500	X:	0.099	Y:	0.095	Z:	0.399	yaw:	33.099	yaw rate:	-0.174	Roll:	4.705	Pitch:	0.961	Yaw:	47.749	Thrust:	26.075
Time:	3.812	Roll Set Point:	-0.234	Pitch Set Point:	-0.121	Yaw Set Point:	-0.578	X_WP:	0.000	Y_WP:	0.000	Y_WP:	0.500	X:	0.099	Y:	0.095	Z:	0.399	yaw:	33.099	yaw rate:	-0.174	Roll:	4.489	Pitch:	0.852	Yaw:	47.778	Thrust:	25.895
Time:	3.828	Roll Set Point:	-0.234	Pitch Set Point:	-0.121	Yaw Set Point:	-0.577	X_WP:	0.000	Y_WP:	0.000	Y_WP:	0.500	X:	0.099	Y:	0.095	Z:	0.399	yaw:	33.077	yaw rate:	-2.211	Roll:	4.257	Pitch:	0.828	Yaw:	47.377	Thrust:	25.747
Time:	3.844	Roll Set Point:	-0.234	Pitch Set Point:	-0.121	Yaw Set Point:	-0.577	X_WP:	0.000	Y_WP:	0.000	Y_WP:	0.500	X:	0.099	Y:	0.095	Z:	0.399	yaw:	33.077	yaw rate:	-0.022	Roll:	4.701	Pitch:	0.953	Yaw:	47.743	Thrust:	26.353
Time:	3.859	Roll Set Point:	-0.234	Pitch Set Point:	-0.121	Yaw Set Point:	-0.578	X_WP:	0.000	Y_WP:	0.000	Y_WP:	0.500	X:	0.099	Y:	0.095	Z:	0.399	yaw:	33.124	yaw rate:	2.366	Roll:	4.538	Pitch:	0.782	Yaw:	48.595	Thrust:	26.926
Time:	3.891	Roll Set Point:	-0.234	Pitch Set Point:	-0.121	Yaw Set Point:	-0.577	X_WP:	0.000	Y_WP:	0.000	Y_WP:	0.500	X:	0.099	Y:	0.095	Z:	0.399	yaw:	33.077	yaw rate:	-0.568	Roll:	5.081	Pitch:	0.999	Yaw:	48.922	Thrust:	47.597
Time:	3.906	Roll Set Point:	-0.234	Pitch Set Point:	-0.121	Yaw Set Point:	-0.577	X_WP:	0.000	Y_WP:	0.000	Y_WP:	0.500	X:	0.099	Y:	0.095	Z:	0.399	yaw:	33.077	yaw rate:	-0.568	Roll:	4.505	Pitch:	0.859	Yaw:	47.747	Thrust:	26.840
Time:	3.922	Roll Set Point:	-0.234	Pitch Set Point:	-0.121	Yaw Set Point:	-0.577	X_WP:	0.000	Y_WP:	0.000	Y_WP:	0.500	X:	0.099	Y:	0.095	Z:	0.399	yaw:	33.040	yaw rate:	-3.740	Roll:	4.484	Pitch:	0.966	Yaw:	47.068	Thrust:	27.009
Time:	3.937	Roll Set Point:	-0.234	Pitch Set Point:	-0.121	Yaw Set Point:	-0.577	X_WP:	0.000	Y_WP:	0.000	Y_WP:	0.500	X:	0.099	Y:	0.095	Z:	0.399	yaw:	33.040	yaw rate:	-3.740	Roll:	4.504	Pitch:	0.864	Yaw:	47.695	Thrust:	27.215
Time:	3.953	Roll Set Point:	-0.234	Pitch Set Point:	-0.121	Yaw Set Point:	-0.577	X_WP:	0.000	Y_WP:	0.000	Y_WP:	0.500	X:	0.099	Y:	0.095	Z:	0.399	yaw:	33.064	yaw rate:	2.385	Roll:	4.501	Pitch:	0.778	Yaw:	48.128	Thrust:	27.615
Time:	3.969	Roll Set Point:	-0.234	Pitch Set Point:	-0.121	Yaw Set Point:	-0.577	X_WP:	0.000	Y_WP:	0.000	Y_WP:	0.500	X:	0.099	Y:	0.095	Z:	0.399	yaw:	33.084	yaw rate:	2.091	Roll:	4.317	Pitch:	0.756	Yaw:	48.108	Thrust:	27.002
Time:	3.984	Roll Set Point:	-0.234	Pitch Set Point:	-0.121	Yaw Set Point:	-0.577	X_WP:	0.000	Y_WP:	0.000	Y_WP:	0.500	X:	0.099	Y:	0.095	Z:	0.399	yaw:	33.060	yaw rate:	-2.418	Roll:	4.718	Pitch:	0.962	Yaw:	47.318	Thrust:	28.213
Time:	4.000	Roll Set Point:	-0.234	Pitch Set Point:	-0.121	Yaw Set Point:	-0.577	X_WP:	0.000	Y_WP:	0.000	Y_WP:	0.500	X:	0.099	Y:	0.095	Z:	0.399	yaw:	33.068	yaw rate:	0.753	Roll:	4.481	Pitch:	0.841	Yaw:	47.860	Thrust:	27.991
Time:	4.016	Roll Set Point:	-0.234	Pitch Set Point:	-0.121	Yaw Set Point:	-0.577	X_WP:	0.000	Y_WP:	0.000	Y_WP:	0.500	X:	0.099	Y:	0.095	Z:	0.399	yaw:	33.068	yaw rate:	0.753	Roll:	4.504	Pitch:	0.866	Yaw:	47.734	Thrust:	28.161
Time:	4.031	Roll Set Point:	-0.234	Pitch Set Point:	-0.121	Yaw Set Point:	-0.577	X_WP:	0.000	Y_WP:	0.000	Y_WP:	0.500	X:	0.099	Y:	0.095	Z:	0.399	yaw:	33.081	yaw rate:	-0.890	Roll:	4.520	Pitch:	0.856	Yaw:	47.977	Thrust:	28.318
Time:	4.047	Roll Set Point:	-0.234	Pitch Set Point:	-0.121	Yaw Set Point:	-0.577	X_WP:	0.000	Y_WP:	0.000	Y_WP:	0.500	X:	0.099	Y:	0.095	Z:	0.399	yaw:	33.059	yaw rate:	-2.231	Roll:	4.499	Pitch:	0.920	Yaw:	47.348	Thrust:	28.477
Time:	4.062	Roll Set Point:	-0.234	Pitch Set Point:	-0.121	Yaw Set Point:	-0.578	X_WP:	0.000	Y_WP:	0.000	Y_WP:	0.500	X:	0.099	Y:	0.095	Z:	0.399	yaw:	33.117	yaw rate:	5.832	Roll:	4.325	Pitch:	0.644	Yaw:	48.780	Thrust:	28.514
Time:	4.078	Roll Set Point:	-0.234	Pitch Set Point:	-0.121	Yaw Set Point:	-0.578	X_WP:	0.000	Y_WP:	0.000	Y_WP:	0.500	X:	0.099	Y:	0.095	Z:	0.399	yaw:	33.090	yaw rate:	-2.682	Roll:	4.688	Pitch:	1.038	Yaw:	47.319	Thrust:	29.395
Time:	4.094	Roll Set Point:	-0.234	Pitch Set Point:	-0.121	Yaw Set Point:	-0.578	X_WP:	0.000	Y_WP:	0.000	Y_WP:	0.500	X:	0.099	Y:	0.095	Z:	0.399	yaw:	33.090	yaw rate:	-2.682	Roll:	4.504	Pitch:	0.870	Yaw:	47.763	Thrust:	29.076
Time:	4.109	Roll Set Point:	-0.234	Pitch Set Point:	-0.121	Yaw Set Point:	-0.578	X_WP:	0.000	Y_WP:	0.000	Y_WP:	0.500	X:	0.099	Y:	0.095	Z:	0.399	yaw:	33.115	yaw rate:	4.527	Roll:	4.532	Pitch:	0.880	Yaw:	48.213	Thrust:	29.364
Time:	4.125	Roll Set Point:	-0.234	Pitch Set Point:	-0.121	Yaw Set Point:	-0.577	X_WP:	0.000	Y_WP:	0.000	Y_WP:	0.500	X:	0.099	Y:	0.095	Z:	0.399	yaw:	33.065	yaw rate:	-4.985	Roll:	4.472	Pitch:	0.906	Yaw:	46.895	Thrust:	29.287
Time:	4.141	Roll Set Point:	-0.234	Pitch Set Point:	-0.121	Yaw Set Point:	-0.577	X_WP:	0.000	Y_WP:	0.000	Y_WP:	0.500	X:	0.099	Y:	0.095	Z:	0.399	yaw:	33.046	yaw rate:	-1.883	Roll:	4.469	Pitch:	0.924	Yaw:	47.388	Thrust:	29.693
Time:	4.156	Roll Set Point:	-0.234	Pitch Set Point:	-0.121	Yaw Set Point:	-0.578	X_WP:	0.000	Y_WP:	0.000	Y_WP:	0.500	X:	0.099	Y:	0.095	Z:	0.399	yaw:	33.095	yaw rate:	4.837	Roll:	4.539	Pitch:	0.759	Yaw:	48.582	Thrust:	29.901
Time:	4.172	Roll Set Point:	-0.234	Pitch Set Point:	-0.121	Yaw Set Point:	-0.577	X_WP:	0.000	Y_WP:	0.000	Y_WP:	0.500	X:	0.099	Y:	0.095	Z:	0.399	yaw:	33.055	yaw rate:	-4.009	Roll:	4.508	Pitch:	0.973	Yaw:	47.044	Thrust:	30.014
Time:	4.187	Roll Set Point:	-0.234	Pitch Set Point:	-0.121	Yaw Set Point:	-0.577	X_WP:	0.000	Y_WP:	0.000	Y_WP:	0.500	X:	0.099	Y:	0.095	Z:	0.399	yaw:	33.036	yaw rate:	-1.819	Roll:	4.468	Pitch:	0.896	Yaw:	47.386	Thrust:	30.216
Time:	4.203	Roll Set Point:	-0.234	Pitch Set Point:	-0.121	Yaw Set Point:	-0.578	X_WP:	0.000	Y_WP:	0.000	Y_WP:	0.500	X:	0.099	Y:	0.095	Z:	0.399	yaw:	33.112	yaw rate:	7.560	Roll:	4.551	Pitch:	0.721	Yaw:	49.062	Thrust:	30.643
Time:	4.219	Roll Set Point:	-0.234	Pitch Set Point:	-0.121	Yaw Set Point:	-0.577	X_WP:	0.000	Y_WP:	0.000	Y_WP:	0.500	X:	0.099	Y:	0.095	Z:	0.399	yaw:	33.078	yaw rate:	-3.428	Roll:	4.499	Pitch:	0.990	Yaw:	47.174	Thrust:	30.446
Time:	4.234	Roll Set Point:	-0.234	Pitch Set Point:	-0.121	Yaw Set Point:	-0.578	X_WP:	0.000	Y_WP:	0.000	Y_WP:	0.500	X:	0.099	Y:	0.095	Z:	0.399	yaw:	33.107	yaw rate:	2.946	Roll:	4.529	Pitch:	0.820	Yaw:	48.283	Thrust:	30.827
Time:	4.250	Roll Set Point:	-0.234	Pitch Set Point:	-0.121	Yaw Set Point:	-0.577	X_WP:	0.000	Y_WP:	0.000	Y_WP:	0.500	X:	0.099	Y:	0.095	Z:	0.399	yaw:	33.074	yaw rate:	-3.306	Roll:	4.475	Pitch:	0.915	Yaw:	47.188	Thrust:	31.087
Time:	4.266	Roll Set Point:	-0.234	Pitch Set Point:	-0.121	Yaw Set Point:	-0.577	X_WP:	0.000	Y_WP:	0.000	Y_WP:	0.500	X:	0.099	Y:	0.095	Z:	0.399	yaw:	33.077	yaw rate:	0.292	Roll:	4.500	Pitch:	0.853	Yaw:	47.796	Thrust:	31.214
Time:	4.281	Roll Set Point:	-0.234	Pitch Set Point:	-0.121	Yaw Set Point:	-0.578	X_WP:	0.000	Y_WP:	0.000	Y_WP:	0.500	X:	0.099	Y:	0.095	Z:	0.399	yaw:	33.142	yaw rate:	6.533	Roll:	4.537	Pitch:	0.845	Yaw:	48.933	Thrust:	31.546
Time:	4.297	Roll Set Point:	-0.234	Pitch Set Point:	-0.121	Yaw Set Point:	-0.578	X_WP:	0.000	Y_WP:	0.000	Y_WP:	0.500	X:	0.099	Y:	0.095	Z:	0.399	yaw:	33.142	yaw rate:	6.533	Roll:	4.505	Pitch:	0.882	Yaw:	47.838	Thrust:	31.574
Time:	4.312	Roll Set Point:	-0.234	Pitch Set Point:	-0.121	Yaw Set Point:	-0.577	X_WP:	0.000	Y_WP:	0.000	Y_WP:	0.500	X:	0.099	Y:	0.095	Z:	0.399	yaw:	33.071	yaw rate:	2.230	Roll:	4.489	Pitch:	0.942	Yaw:	46.539	Thrust:	31.431
Time:	4.328	Roll Set Point:	-0.234	Pitch Set Point:	-0.121	Yaw Set Point:	-0.577	X_WP:	0.000	Y_WP:	0.000	Y_WP:	0.500	X:	0.099	Y:	0.095	Z:	0.399	yaw:	33.071	yaw rate:	2.230	Roll:	4.505	Pitch:	0.886	Yaw:	47.738	Thrust:	31.946
Time:	4.344	Roll Set Point:	-0.234	Pitch Set Point:	-0.121	Yaw Set Point:	-0.577	X_WP:	0.000	Y_WP:	0.000	Y_WP:	0.500	X:	0.099	Y:	0.095	Z:	0.399	yaw:	33.054	yaw rate:	0.214	Roll:	4.482	Pitch:	0.914	Yaw:	47.431	Thrust:	32.229
Time:	4.359	Roll Set Point:	-0.234	Pitch Set Point:	-0.121	Yaw Set Point:	-0.577	X_WP:	0.000	Y_WP:	0.000	Y_WP:	0.500	X:	0.099	Y:	0.095	Z:	0.399	yaw:	33.054	yaw rate:	0.214	Roll:	4.504	Pitch:	0.889	Yaw:	47.715	Thrust:	32.330
Time:	4.375	Roll Set Point:	-0.234	Pitch Set Point:	-0.121	Yaw Set Point:	-0.577	X_WP:	0.000	Y_WP:	0.000	Y_WP:	0.500	X:	0.099	Y:	0.095	Z:	0.399	yaw:	33.088	yaw rate:	1.925	Roll:	4.530	Pitch:	0.869	Yaw:	48.327	Thrust:	32.465
Time:	4.391	Roll Set Point:	-0.234	Pitch Set Point:	-0.121	Yaw Set Point:	-0.577	X_WP:	0.000	Y_WP:	0.000	Y_WP:	0.500	X:	0.099	Y:	0.095	Z:	0.399	yaw:	33.088	yaw rate:	1.925	Roll:	4.505	Pitch:	0.890	Yaw:	47.762	Thrust:	32.706
Time:	4.406	Roll Set Point:	-0.234	Pitch Set Point:	-0.121	Yaw Set Point:	-0.577	X_WP:	0.000	Y_WP:	0.000	Y_WP:	0.500	X:	0.099	Y:	0.095	Z:	0.399	yaw:	33.037	yaw rate:	-5.206	Roll:	4.462	Pitch:	0.943	Yaw:	46.839	Thrust:	32.863
Time:	4.422	Roll Set Point:	-0.234	Pitch Set Point:	-0.121	Yaw Set Point:	-0.578	X_WP:	0.000	Y_WP:	0.000	Y_WP:	0.500	X:	0.099	Y:	0.095	Z:	0.399	yaw:	33.104	yaw rate:	6.751	Roll:	4.560	Pitch:	0.846	Yaw:	48.916	Thrust:	33.280
Time:	4.437	Roll Set Point:	-0.234	Pitch Set Point:	-0.121	Yaw Set Point:	-0.577	X_WP:	0.000	Y_WP:	0.000	Y_WP:	0.500	X:	0.099	Y:	0.095	Z:	0.399	yaw:	33.080	yaw rate:	-2.441	Roll:	4.484	Pitch:	0.883	Yaw:	47.342	Thrust:	33.131
Time:	4.453	Roll Set Point:	-0.234	Pitch Set Point:	-0.121	Yaw Set Point:	-0.577	X_WP:	0.000	Y_WP:	0.000	Y_WP:	0.500	X:	0.099	Y:	0.095	Z:	0.399	yaw:	33.071	yaw rate:	-0.892	Roll:	4.503	Pitch:	0.926	Yaw:	47.589	Thrust:	33.538
Time:	4.469	Roll Set Point:	-0.234	Pitch Set Point:	-0.121	Yaw Set Point:	-0.577	X_WP:	0.000	Y_WP:	0.000	Y_WP:	0.500	X:	0.099	Y:	0.095	Z:	0.399	yaw:	33.079	yaw rate:	0.800	Roll:	4.512	Pitch:	0.824	Yaw:	47.883	Thrust:	33.611
Time:	4.484	Roll Set Point:	-0.234	Pitch Set Point:	-0.121	Yaw Set Point:	-0.577	X_WP:	0.000	Y_WP:	0.000	Y_WP:	0.500	X:	0.099	Y:	0.095	Z:	0.399	yaw:	33.075	yaw rate:	-0.417	Roll:	4.507	Pitch:	0.926	Yaw:	47.674	Thrust:	33.854
Time:	4.500	Roll Set Point:	-0.234	Pitch Set Point:	-0.121	Yaw Set Point:	-0.578	X_WP:	0.000	Y_WP:	0.000	Y_WP:	0.500	X:	0.099	Y:	0.095	Z:	0.399	yaw:	33.090	yaw rate:	1.538	Roll:	4.492	Pitch:	0.927	Yaw:	48.023	Thrust:	34.077
Time:	4.516	Roll Set Point:	-0.234	Pitch Set Point:	-0.121	Yaw Set Point:	-0.578	X_WP:	0.000	Y_WP:	0.000	Y_WP:	0.500	X:	0.099	Y:	0.095	Z:	0.399	yaw:	33.090	yaw rate:	1.538	Roll:	4.505	Pitch:	0.899	Yaw:	47.765	Thrust:	34.228
Time:	4.531	Roll Set Point:	-0.234	Pitch Set Point:	-0.121	Yaw Set Point:	-0.577	X_WP:	0.000	Y_WP:	0.000	Y_WP:	0.500	X:	0.099	Y:	0.095	Z:	0.399	yaw:	33.086	yaw rate:	0.929	Roll:	4.505	Pitch:	0.914	Yaw:	47.698	Thrust:	34.533
Time:	4.547	Roll Set Point:	-0.234	Pitch Set Point:	-0.121	Yaw Set Point:	-0.577	X_WP:	0.000	Y_WP:	0.000	Y_WP:	0.500	X:	0.099	Y:	0.095	Z:	0.399	yaw:	33.086	yaw rate:	0.929	Roll:	4.505	Pitch:	0.901	Yaw:	47.760	Thrust:	34.609
Time:	4.562	Roll Set Point:	-0.234	Pitch Set Point:	-0.121	Yaw Set Point:	-0.577	X_WP:	0.000	Y_WP:	0.000	Y_WP:	0.500	X:	0.099	Y:	0.095	Z:	0.399	yaw:	33.045	yaw rate:	-4.101	Roll:	4.504	Pitch:	0.947	Yaw:	47.015	Thrust:	34.517
Time:	4.578	Roll Set Point:	-0.234	Pitch Set Point:	-0.121	Yaw Set Point:	-0.577	X_WP:	0.000	Y_WP:	0.000	Y_WP:	0.500	X:	0.099	Y:	0.095	Z:	0.399	yaw:	33.045	yaw rate:	-4.101	Roll:	4.505	Pitch:	0.904	Yaw:	47.703	Thrust:	34.978
Time:	4.594	Roll Set Point:	-0.234	Pitch Set Point:	-0.121	Yaw Set Point:	-0.576	X_WP:	0.000	Y_WP:	0.000	Y_WP:	0.500	X:	0.099	Y:	0.095	Z:	0.399	yaw:	33.024	yaw rate:	-3.406	Roll:	4.478	Pitch:	0.959	Yaw:	47.307	Thrust:	35.238
Time:	4.609	Roll Set Point:	-0.234	Pitch Set Point:	-0.121	Yaw Set Point:	-0.577	X_WP:	0.000	Y_WP:	0.000	Y_WP:	0.500	X:	0.099	Y:	0.095	Z:	0.399	yaw:	33.086	yaw rate:	6.278	Roll:	4.563	Pitch:	0.750	Yaw:	48.812	Thrust:	35.419
Time:	4.625	Roll Set Point:	-0.234	Pitch Set Point:	-0.121	Yaw Set Point:	-0.577	X_WP:	0.000	Y_WP:	0.000	Y_WP:	0.500	X:	0.099	Y:	0.095	Z:	0.399	yaw:	33.046	yaw rate:	-4.072	Roll:	4.458	Pitch:	1.018	Yaw:	47.020	Thrust:	35.430
Time:	4.641	Roll Set Point:	-0.234	Pitch Set Point:	-0.121	Yaw Set Point:	-0.577	X_WP:	0.000	Y_WP:	0.000	Y_WP:	0.500	X:	0.099	Y:	0.095	Z:	0.399	yaw:	33.046	yaw rate:	-4.072	Roll:	4.504	Pitch:	0.908	Yaw:	47.702	Thrust:	35.715
Time:	4.656	Roll Set Point:	-0.234	Pitch Set Point:	-0.121	Yaw Set Point:	-0.577	X_WP:	0.000	Y_WP:	0.000	Y_WP:	0.500	X:	0.099	Y:	0.095	Z:	0.399	yaw:	33.081	yaw rate:	-4.432	Roll:	4.533	Pitch:	0.802	Yaw:	48.352	Thrust:	36.183
Time:	4.672	Roll Set Point:	-0.234	Pitch Set Point:	-0.121	Yaw Set Point:	-0.577	X_WP:	0.000	Y_WP:	0.000	Y_WP:	0.500	X:	0.099	Y:	0.095	Z:	0.399	yaw:	33.080	yaw rate:	-0.135	Roll:	4.284	Pitch:	0.815	Yaw:	47.728	Thrust:	35.577
Time:	4.687	Roll Set Point:	-0.234	Pitch Set Point:	-0.121	Yaw Set Point:	-0.577	X_WP:	0.000	Y_WP:	0.000	Y_WP:	0.500	X:	0.099	Y:	0.095	Z:	0.399	yaw:	33.058	yaw rate:	-2.230	Roll:	4.702	Pitch:	1.065	Yaw:	47.346	Thrust:	36.631
Time:	4.703	Roll Set Point:	-0.234	Pitch Set Point:	-0.121	Yaw Set Point:	-0.577	X_WP:	0.000	Y_WP:	0.000	Y_WP:	0.500	X:	0.099	Y:	0.095	Z:	0.399	yaw:	33.055	yaw rate:	-0.288	Roll:	4.488	Pitch:	0.917	Yaw:	47.668	Thrust:	36.553
Time:	4.719	Roll Set Point:	-0.234	Pitch Set Point:	-0.121	Yaw Set Point:	-0.577	X_WP:	0.000	Y_WP:	0.000	Y_WP:	0.500	X:	0.099	Y:	0.095	Z:	0.399	yaw:	33.079	yaw rate:	2.393	Roll:	4.531	Pitch:	0.868	Yaw:	48.150	Thrust:	36.770
Time:	4.734	Roll Set Point:	-0.234	Pitch Set Point:	-0.121	Yaw Set Point:	-0.578	X_WP:	0.000	Y_WP:	0.000	Y_WP:	0.500	X:	0.099	Y:	0.095	Z:	0.399	yaw:	33.101	yaw rate:	2.227	Roll:	4.522	Pitch:	0.878	Yaw:	48.154	Thrust:	36.946
Time:	4.750	Roll Set Point:	-0.234	Pitch Set Point:	-0.121	Yaw Set Point:	-0.578	X_WP:	0.000	Y_WP:	0.000	Y_WP:	0.500	X:	0.099	Y:	0.095	Z:	0.399	yaw:	33.104	yaw rate:	0.330	Roll:	4.501	Pitch:	0.918	Yaw:	47.840	Thrust:	37.014
Time:	4.766	Roll Set Point:	-0.234	Pitch Set Point:	-0.121	Yaw Set Point:	-0.578	X_WP:	0.000	Y_WP:	0.000	Y_WP:	0.500	X:	0.099	Y:	0.095	Z:	0.399	yaw:	33.095	yaw rate:	-0.903	Roll:	4.263	Pitch:	0.821	Yaw:	47.621	Thrust:	36.830
Time:	4.781	Roll Set Point:	-0.234	Pitch Set Point:	-0.121	Yaw Set Point:	-0.577	X_WP:	0.000	Y_WP:	0.000	Y_WP:	0.500	X:	0.099	Y:	0.095	Z:	0.399	yaw:	33.071	yaw rate:	-2.463	Roll:	4.725	Pitch:	1.003	Yaw:	47.326	Thrust:	37.673
Time:	4.797	Roll Set Point:	-0.234	Pitch Set Point:	-0.121	Yaw Set Point:	-0.577	X_WP:	0.000	Y_WP:	0.000	Y_WP:	0.500	X:	0.099	Y:	0.095	Z:	0.399	yaw:	33.071	yaw rate:	-2.463	Roll:	4.505	Pitch:	0.916	Yaw:	47.738	Thrust:	37.627
Time:	4.812	Roll Set Point:	-0.234	Pitch Set Point:	-0.121	Yaw Set Point:	-0.577	X_WP:	0.000	Y_WP:	0.000	Y_WP:	0.500	X:	0.099	Y:	0.095	Z:	0.399	yaw:	33.069	yaw rate:	-0.194	Roll:	4.300	Pitch:	0.890	Yaw:	47.703	Thrust:	37.614
Time:	4.828	Roll Set Point:	-0.234	Pitch Set Point:	-0.121	Yaw Set Point:	-0.577	X_WP:	0.000	Y_WP:	0.000	Y_WP:	0.500	X:	0.099	Y:	0.095	Z:	0.399	yaw:	33.073	yaw rate:	0.442	Roll:	4.697	Pitch:	0.981	Yaw:	47.816	Thrust:	38.287
Time:	4.844	Roll Set Point:	-0.234	Pitch Set Point:	-0.121	Yaw Set Point:	-0.577	X_WP:	0.000	Y_WP:	0.000	Y_WP:	0.500	X:	0.099	Y:	0.095	Z:	0.399	yaw:	33.069	yaw rate:	-3.391	Roll:	4.491	Pitch:	0.952	Yaw:	47.659	Thrust:	38.201
Time:	4.859	Roll Set Point:	-0.234	Pitch Set Point:	-0.121	Yaw Set Point:	-0.577	X_WP:	0.000	Y_WP:	0.000	Y_WP:	0.500	X:	0.099	Y:	0.095	Z:	0.399	yaw:	33.069	yaw rate:	-3.391	Roll:	4.504	Pitch:	0.921	Yaw:	47.735	Thrust:	38.387
Time:	4.875	Roll Set Point:	-0.234	Pitch Set Point:	-0.121	Yaw Set Point:	-0.578	X_WP:	0.000	Y_WP:	0.000	Y_WP:	0.500	X:	0.099	Y:	0.095	Z:	0.399	yaw:	33.089	yaw rate:	0.524	Roll:	4.542	Pitch:	0.871	Yaw:	48.110	Thrust:	38.939
Time:	4.891	Roll Set Point:	-0.234	Pitch Set Point:	-0.121	Yaw Set Point:	-0.578	X_WP:	0.000	Y_WP:	0.000	Y_WP:	0.500	X:	0.099	Y:	0.095	Z:	0.399	yaw:	33.089	yaw rate:	0.524	Roll:	4.505	Pitch:	0.922	Yaw:	47.763	Thrust:	38.771
Time:	4.906	Roll Set Point:	-0.234	Pitch Set Point:	-0.121	Yaw Set Point:	-0.576	X_WP:	0.000	Y_WP:	0.000	Y_WP:	0.500	X:	0.099	Y:	0.095	Z:	0.399	yaw:	33.024	yaw rate:	-2.772	Roll:	4.451	Pitch:	1.043	Yaw:	46.594	Thrust:	38.769
Time:	4.922	Roll Set Point:	-0.234	Pitch Set Point:	-0.121	Yaw Set Point:	-0.576	X_WP:	0.000	Y_WP:	0.000	Y_WP:	0.500	X:	0.099	Y:	0.095	Z:	0.399	yaw:	33.024	yaw rate:	-2.772	Roll:	4.504	Pitch:	0.927	Yaw:	47.673	Thrust:	39.146
Time:	4.938	Roll Set Point:	-0.234	Pitch Set Point:	-0.121	Yaw Set Point:	-0.577	X_WP:	0.000	Y_WP:	0.000	Y_WP:	0.500	X:	0.099	Y:	0.095	Z:	0.399	yaw:	33.048	yaw rate:	-5.552	Roll:	4.527	Pitch:	0.872	Yaw:	48.096	Thrust:	39.359
Time:	4.953	Roll Set Point:	-0.234	Pitch Set Point:	-0.121	Yaw Set Point:	-0.577	X_WP:	0.000	Y_WP:	0.000	Y_WP:	0.500	X:	0.099	Y:	0.095	Z:	0.399	yaw:	33.085	yaw rate:	3.751	Roll:	4.541	Pitch:	0.884	Yaw:	48.387	Thrust:	39.753
Time:	4.969	Roll Set Point:	-0.234	Pitch Set Point:	-0.121	Yaw Set Point:	-0.578	X_WP:	0.000	Y_WP:	0.000	Y_WP:	0.500	X:	0.099	Y:	0.095	Z:	0.399	yaw:	33.093	yaw rate:	0.780	Roll:	4.489	Pitch:	0.872	Yaw:	47.900	Thrust:	39.570
Time:	4.985	Roll Set Point:	-0.234	Pitch Set Point:	-0.121	Yaw Set Point:	-0.577	X_WP:	0.000	Y_WP:	0.000	Y_WP:	0.500	X:	0.099	Y:	0.095	Z:	0.399	yaw:	33.064	yaw rate:	-2.859	Roll:	4.487	Pitch:	0.982	Yaw:	47.251	Thrust:	39.870
Time:	5.000	Roll Set Point:	-0.234	Pitch Set Point:	-0.121	Yaw Set Point:	-0.577	X_WP:	0.000	Y_WP:	0.000	Y_WP:	0.500	X:	0.099	Y:	0.095	Z:	0.399	yaw:	33.086	yaw rate:	2.180	Roll:	4.310	Pitch:	0.815	Yaw:	48.124	Thrust:	39.802
Time:	5.016	Roll Set Point:	-0.234	Pitch Set Point:	-0.121	Yaw Set Point:	-0.577	X_WP:	0.000	Y_WP:	0.000	Y_WP:	0.500	X:	0.099	Y:	0.095	Z:	0.399	yaw:	33.041	yaw rate:	-4.529	Roll:	4.697	Pitch:	1.114	Yaw:	46.937	Thrust:	40.496
Time:	5.031	Roll Set Point:	-0.234	Pitch Set Point:	-0.121	Yaw Set Point:	-0.577	X_WP:	0.000	Y_WP:	0.000	Y_WP:	0.500	X:	0.099	Y:	0.095	Z:	0.399	yaw:	33.066	yaw rate:	2.535	Roll:	4.501	Pitch:	0.889	Yaw:	48.157	Thrust:	40.600
Time:	5.047	Roll Set Point:	-0.234	Pitch Set Point:	-0.121	Yaw Set Point:	-0.577	X_WP:	0.000	Y_WP:	0.000	Y_WP:	0.500	X:	0.099	Y:	0.095	Z:	0.399	yaw:	33.066	yaw rate:	2.535	Roll:	4.504	Pitch:	0.933	Yaw:	47.731	Thrust:	40.651
Time:	5.063	Roll Set Point:	-0.234	Pitch Set Point:	-0.121	Yaw Set Point:	-0.578	X_WP:	0.000	Y_WP:	0.000	Y_WP:	0.500	X:	0.099	Y:	0.095	Z:	0.399	yaw:	33.092	yaw rate:	2.603	Roll:	4.540	Pitch:	0.868	Yaw:	48.206	Thrust:	40.978
Time:	5.078	Roll Set Point:	-0.234	Pitch Set Point:	-0.121	Yaw Set Point:	-0.577	X_WP:	0.000	Y_WP:	0.000	Y_WP:	0.500	X:	0.099	Y:	0.095	Z:	0.399	yaw:	33.088	yaw rate:	-0.096	Roll:	4.485	Pitch:	0.957	Yaw:	47.684	Thrust:	40.937
Time:	5.094	Roll Set Point:	-0.234	Pitch Set Point:	-0.121	Yaw Set Point:	-0.577	X_WP:	0.000	Y_WP:	0.000	Y_WP:	0.500	X:	0.099	Y:	0.095	Z:	0.399	yaw:	33.088	yaw rate:	-0.096	Roll:	4.505	Pitch:	0.935	Yaw:	47.762	Thrust:	41.229
Time:	5.110	Roll Set Point:	-0.234	Pitch Set Point:	-0.121	Yaw Set Point:	-0.577	X_WP:	0.000	Y_WP:	0.000	Y_WP:	0.500	X:	0.099	Y:	0.095	Z:	0.399	yaw:	33.055	yaw rate:	-1.354	Roll:	4.495	Pitch:	0.999	Yaw:	47.166	Thrust:	41.280
Time:	5.125	Roll Set Point:	-0.234	Pitch Set Point:	-0.121	Yaw Set Point:	-0.577	X_WP:	0.000	Y_WP:	0.000	Y_WP:	0.500	X:	0.099	Y:	0.095	Z:	0.399	yaw:	33.055	yaw rate:	-1.354	Roll:	4.505	Pitch:	0.939	Yaw:	47.716	Thrust:	41.612
Time:	5.156	Roll Set Point:	-0.234	Pitch Set Point:	-0.121	Yaw Set Point:	-0.577	X_WP:	0.000	Y_WP:	0.000	Y_WP:	0.500	X:	0.099	Y:	0.095	Z:	0.399	yaw:	33.066	yaw rate:	-5.474	Roll:	5.089	Pitch:	1.127	Yaw:	49.385	Thrust:	78.093
Time:	5.172	Roll Set Point:	-0.234	Pitch Set Point:	-0.121	Yaw Set Point:	-0.577	X_WP:	0.000	Y_WP:	0.000	Y_WP:	0.500	X:	0.099	Y:	0.095	Z:	0.399	yaw:	33.066	yaw rate:	-5.474	Roll:	4.504	Pitch:	0.941	Yaw:	47.731	Thrust:	41.984
Time:	5.188	Roll Set Point:	-0.234	Pitch Set Point:	-0.121	Yaw Set Point:	-0.577	X_WP:	0.000	Y_WP:	0.000	Y_WP:	0.500	X:	0.099	Y:	0.095	Z:	0.399	yaw:	33.078	yaw rate:	1.225	Roll:	4.524	Pitch:	0.927	Yaw:	47.954	Thrust:	42.182
Time:	5.203	Roll Set Point:	-0.234	Pitch Set Point:	-0.121	Yaw Set Point:	-0.577	X_WP:	0.000	Y_WP:	0.000	Y_WP:	0.500	X:	0.099	Y:	0.095	Z:	0.399	yaw:	33.078	yaw rate:	1.225	Roll:	4.505	Pitch:	0.942	Yaw:	47.748	Thrust:	42.366
Time:	5.219	Roll Set Point:	-0.234	Pitch Set Point:	-0.121	Yaw Set Point:	-0.577	X_WP:	0.000	Y_WP:	0.000	Y_WP:	0.500	X:	0.099	Y:	0.095	Z:	0.399	yaw:	33.082	yaw rate:	0.440	Roll:	4.500	Pitch:	0.899	Yaw:	47.828	Thrust:	42.498
Time:	5.235	Roll Set Point:	-0.234	Pitch Set Point:	-0.121	Yaw Set Point:	-0.578	X_WP:	0.000	Y_WP:	0.000	Y_WP:	0.500	X:	0.099	Y:	0.095	Z:	0.399	yaw:	33.097	yaw rate:	0.997	Roll:	4.521	Pitch:	0.914	Yaw:	48.015	Thrust:	42.863
Time:	5.250	Roll Set Point:	-0.234	Pitch Set Point:	-0.121	Yaw Set Point:	-0.578	X_WP:	0.000	Y_WP:	0.000	Y_WP:	0.500	X:	0.099	Y:	0.095	Z:	0.399	yaw:	33.097	yaw rate:	0.997	Roll:	4.505	Pitch:	0.944	Yaw:	47.775	Thrust:	42.942
Time:	5.266	Roll Set Point:	-0.234	Pitch Set Point:	-0.121	Yaw Set Point:	-0.578	X_WP:	0.000	Y_WP:	0.000	Y_WP:	0.500	X:	0.099	Y:	0.095	Z:	0.399	yaw:	33.105	yaw rate:	0.800	Roll:	4.516	Pitch:	0.965	Yaw:	47.919	Thrust:	43.074
Time:	5.281	Roll Set Point:	-0.234	Pitch Set Point:	-0.121	Yaw Set Point:	-0.577	X_WP:	0.000	Y_WP:	0.000	Y_WP:	0.500	X:	0.099	Y:	0.095	Z:	0.399	yaw:	33.086	yaw rate:	0.336	Roll:	4.279	Pitch:	0.835	Yaw:	47.447	Thrust:	42.992
Time:	5.297	Roll Set Point:	-0.234	Pitch Set Point:	-0.121	Yaw Set Point:	-0.577	X_WP:	0.000	Y_WP:	0.000	Y_WP:	0.500	X:	0.099	Y:	0.095	Z:	0.399	yaw:	33.086	yaw rate:	0.336	Roll:	4.500	Pitch:	0.944	Yaw:	47.760	Thrust:	43.497
Time:	5.313	Roll Set Point:	-0.234	Pitch Set Point:	-0.121	Yaw Set Point:	-0.578	X_WP:	0.000	Y_WP:	0.000	Y_WP:	0.500	X:	0.099	Y:	0.095	Z:	0.399	yaw:	33.093	yaw rate:	2.981	Roll:	4.701	Pitch:	1.070	Yaw:	47.875	Thrust:	43.998
Time:	5.328	Roll Set Point:	-0.234	Pitch Set Point:	-0.121	Yaw Set Point:	-0.578	X_WP:	0.000	Y_WP:	0.000	Y_WP:	0.500	X:	0.099	Y:	0.095	Z:	0.399	yaw:	33.093	yaw rate:	2.981	Roll:	4.505	Pitch:	0.949	Yaw:	47.768	Thrust:	43.874
Time:	5.344	Roll Set Point:	-0.234	Pitch Set Point:	-0.121	Yaw Set Point:	-0.577	X_WP:	0.000	Y_WP:	0.000	Y_WP:	0.500	X:	0.099	Y:	0.095	Z:	0.399	yaw:	33.073	yaw rate:	-1.952	Roll:	4.515	Pitch:	0.977	Yaw:	47.415	Thrust:	44.003
Time:	5.360	Roll Set Point:	-0.234	Pitch Set Point:	-0.121	Yaw Set Point:	-0.578	X_WP:	0.000	Y_WP:	0.000	Y_WP:	0.500	X:	0.099	Y:	0.095	Z:	0.399	yaw:	33.089	yaw rate:	1.835	Roll:	4.505	Pitch:	0.863	Yaw:	48.036	Thrust:	44.340
Time:	5.375	Roll Set Point:	-0.234	Pitch Set Point:	-0.121	Yaw Set Point:	-0.578	X_WP:	0.000	Y_WP:	0.000	Y_WP:	0.500	X:	0.099	Y:	0.095	Z:	0.399	yaw:	33.089	yaw rate:	1.835	Roll:	4.505	Pitch:	0.951	Yaw:	47.764	Thrust:	44.449
Time:	5.391	Roll Set Point:	-0.234	Pitch Set Point:	-0.121	Yaw Set Point:	-0.578	X_WP:	0.000	Y_WP:	0.000	Y_WP:	0.500	X:	0.099	Y:	0.095	Z:	0.399	yaw:	33.094	yaw rate:	0.463	Roll:	4.302	Pitch:	0.845	Yaw:	47.847	Thrust:	44.302
Time:	5.406	Roll Set Point:	-0.234	Pitch Set Point:	-0.121	Yaw Set Point:	-0.577	X_WP:	0.000	Y_WP:	0.000	Y_WP:	0.500	X:	0.099	Y:	0.095	Z:	0.399	yaw:	33.080	yaw rate:	-0.435	Roll:	4.498	Pitch:	1.038	Yaw:	47.514	Thrust:	44.784
Time:	5.422	Roll Set Point:	-0.234	Pitch Set Point:	-0.121	Yaw Set Point:	-0.577	X_WP:	0.000	Y_WP:	0.000	Y_WP:	0.500	X:	0.099	Y:	0.095	Z:	0.399	yaw:	33.080	yaw rate:	-0.435	Roll:	4.500	Pitch:	0.953	Yaw:	47.751	Thrust:	45.012
Time:	5.438	Roll Set Point:	-0.234	Pitch Set Point:	-0.121	Yaw Set Point:	-0.577	X_WP:	0.000	Y_WP:	0.000	Y_WP:	0.500	X:	0.099	Y:	0.095	Z:	0.399	yaw:	33.081	yaw rate:	-1.553	Roll:	4.467	Pitch:	0.912	Yaw:	47.775	Thrust:	45.213
Time:	5.453	Roll Set Point:	-0.234	Pitch Set Point:	-0.121	Yaw Set Point:	-0.577	X_WP:	0.000	Y_WP:	0.000	Y_WP:	0.500	X:	0.099	Y:	0.095	Z:	0.399	yaw:	33.084	yaw rate:	0.281	Roll:	4.507	Pitch:	0.964	Yaw:	47.804	Thrust:	45.389
Time:	5.469	Roll Set Point:	-0.234	Pitch Set Point:	-0.121	Yaw Set Point:	-0.578	X_WP:	0.000	Y_WP:	0.000	Y_WP:	0.500	X:	0.099	Y:	0.095	Z:	0.399	yaw:	33.091	yaw rate:	0.743	Roll:	4.527	Pitch:	0.945	Yaw:	47.891	Thrust:	45.444
Time:	5.485	Roll Set Point:	-0.234	Pitch Set Point:	-0.121	Yaw Set Point:	-0.577	X_WP:	0.000	Y_WP:	0.000	Y_WP:	0.500	X:	0.099	Y:	0.095	Z:	0.399	yaw:	33.073	yaw rate:	-1.861	Roll:	4.479	Pitch:	0.987	Yaw:	47.429	Thrust:	45.869
Time:	5.500	Roll Set Point:	-0.234	Pitch Set Point:	-0.121	Yaw Set Point:	-0.577	X_WP:	0.000	Y_WP:	0.000	Y_WP:	0.500	X:	0.099	Y:	0.095	Z:	0.399	yaw:	33.072	yaw rate:	-0.102	Roll:	4.496	Pitch:	0.910	Yaw:	47.722	Thrust:	45.915
Time:	5.516	Roll Set Point:	-0.234	Pitch Set Point:	-0.121	Yaw Set Point:	-0.578	X_WP:	0.000	Y_WP:	0.000	Y_WP:	0.500	X:	0.099	Y:	0.095	Z:	0.399	yaw:	33.102	yaw rate:	3.047	Roll:	4.507	Pitch:	0.936	Yaw:	48.293	Thrust:	46.235
Time:	5.531	Roll Set Point:	-0.234	Pitch Set Point:	-0.121	Yaw Set Point:	-0.577	X_WP:	0.000	Y_WP:	0.000	Y_WP:	0.500	X:	0.099	Y:	0.095	Z:	0.399	yaw:	33.067	yaw rate:	-3.495	Roll:	4.506	Pitch:	1.072	Yaw:	47.147	Thrust:	46.263
Time:	5.547	Roll Set Point:	-0.234	Pitch Set Point:	-0.121	Yaw Set Point:	-0.578	X_WP:	0.000	Y_WP:	0.000	Y_WP:	0.500	X:	0.099	Y:	0.095	Z:	0.399	yaw:	33.096	yaw rate:	2.903	Roll:	4.506	Pitch:	0.854	Yaw:	48.260	Thrust:	46.561
Time:	5.578	Roll Set Point:	-0.234	Pitch Set Point:	-0.121	Yaw Set Point:	-0.577	X_WP:	0.000	Y_WP:	0.000	Y_WP:	0.500	X:	0.099	Y:	0.095	Z:	0.399	yaw:	33.066	yaw rate:	-4.402	Roll:	5.073	Pitch:	1.226	Yaw:	49.044	Thrust:	87.903
Time:	5.594	Roll Set Point:	-0.234	Pitch Set Point:	-0.121	Yaw Set Point:	-0.577	X_WP:	0.000	Y_WP:	0.000	Y_WP:	0.500	X:	0.099	Y:	0.095	Z:	0.399	yaw:	33.066	yaw rate:	-4.402	Roll:	4.499	Pitch:	0.964	Yaw:	47.732	Thrust:	46.900
Time:	5.610	Roll Set Point:	-0.234	Pitch Set Point:	-0.121	Yaw Set Point:	-0.578	X_WP:	0.000	Y_WP:	0.000	Y_WP:	0.500	X:	0.099	Y:	0.095	Z:	0.399	yaw:	33.104	yaw rate:	-0.872	Roll:	4.548	Pitch:	0.857	Yaw:	48.407	Thrust:	46.999
Time:	5.625	Roll Set Point:	-0.234	Pitch Set Point:	-0.121	Yaw Set Point:	-0.578	X_WP:	0.000	Y_WP:	0.000	Y_WP:	0.500	X:	0.099	Y:	0.095	Z:	0.399	yaw:	33.104	yaw rate:	-0.872	Roll:	4.500	Pitch:	0.963	Yaw:	47.784	Thrust:	47.279
Time:	5.641	Roll Set Point:	-0.234	Pitch Set Point:	-0.121	Yaw Set Point:	-0.577	X_WP:	0.000	Y_WP:	0.000	Y_WP:	0.500	X:	0.099	Y:	0.095	Z:	0.399	yaw:	33.073	yaw rate:	-3.085	Roll:	4.446	Pitch:	1.008	Yaw:	47.224	Thrust:	47.436
Time:	5.656	Roll Set Point:	-0.234	Pitch Set Point:	-0.121	Yaw Set Point:	-0.577	X_WP:	0.000	Y_WP:	0.000	Y_WP:	0.500	X:	0.099	Y:	0.095	Z:	0.399	yaw:	33.073	yaw rate:	-3.085	Roll:	4.499	Pitch:	0.966	Yaw:	47.741	Thrust:	47.670
Time:	5.672	Roll Set Point:	-0.234	Pitch Set Point:	-0.121	Yaw Set Point:	-0.578	X_WP:	0.000	Y_WP:	0.000	Y_WP:	0.500	X:	0.099	Y:	0.095	Z:	0.399	yaw:	33.090	yaw rate:	1.705	Roll:	4.531	Pitch:	0.976	Yaw:	48.050	Thrust:	47.843
Time:	5.688	Roll Set Point:	-0.234	Pitch Set Point:	-0.121	Yaw Set Point:	-0.578	X_WP:	0.000	Y_WP:	0.000	Y_WP:	0.500	X:	0.099	Y:	0.095	Z:	0.399	yaw:	33.090	yaw rate:	1.705	Roll:	4.500	Pitch:	0.969	Yaw:	47.764	Thrust:	48.031
Time:	5.703	Roll Set Point:	-0.234	Pitch Set Point:	-0.121	Yaw Set Point:	-0.577	X_WP:	0.000	Y_WP:	0.000	Y_WP:	0.500	X:	0.099	Y:	0.095	Z:	0.399	yaw:	33.085	yaw rate:	0.282	Roll:	4.485	Pitch:	0.954	Yaw:	47.682	Thrust:	48.257
Time:	5.719	Roll Set Point:	-0.234	Pitch Set Point:	-0.121	Yaw Set Point:	-0.577	X_WP:	0.000	Y_WP:	0.000	Y_WP:	0.500	X:	0.099	Y:	0.095	Z:	0.399	yaw:	33.087	yaw rate:	0.152	Roll:	4.516	Pitch:	0.998	Yaw:	47.786	Thrust:	48.363
Time:	5.735	Roll Set Point:	-0.234	Pitch Set Point:	-0.121	Yaw Set Point:	-0.578	X_WP:	0.000	Y_WP:	0.000	Y_WP:	0.500	X:	0.099	Y:	0.095	Z:	0.399	yaw:	33.124	yaw rate:	3.781	Roll:	4.534	Pitch:	0.872	Yaw:	48.447	Thrust:	48.595
Time:	5.750	Roll Set Point:	-0.234	Pitch Set Point:	-0.121	Yaw Set Point:	-0.578	X_WP:	0.000	Y_WP:	0.000	Y_WP:	0.500	X:	0.099	Y:	0.095	Z:	0.399	yaw:	33.099	yaw rate:	-2.566	Roll:	4.490	Pitch:	1.005	Yaw:	47.348	Thrust:	48.857
Time:	5.766	Roll Set Point:	-0.234	Pitch Set Point:	-0.121	Yaw Set Point:	-0.578	X_WP:	0.000	Y_WP:	0.000	Y_WP:	0.500	X:	0.099	Y:	0.095	Z:	0.399	yaw:	33.098	yaw rate:	-0.086	Roll:	4.492	Pitch:	0.890	Yaw:	47.762	Thrust:	48.969
Time:	5.781	Roll Set Point:	-0.234	Pitch Set Point:	-0.121	Yaw Set Point:	-0.578	X_WP:	0.000	Y_WP:	0.000	Y_WP:	0.500	X:	0.099	Y:	0.095	Z:	0.399	yaw:	33.133	yaw rate:	3.497	Roll:	4.498	Pitch:	0.927	Yaw:	48.411	Thrust:	49.067
Time:	5.797	Roll Set Point:	-0.234	Pitch Set Point:	-0.121	Yaw Set Point:	-0.579	X_WP:	0.000	Y_WP:	0.000	Y_WP:	0.500	X:	0.099	Y:	0.095	Z:	0.399	yaw:	33.175	yaw rate:	4.224	Roll:	4.536	Pitch:	0.915	Yaw:	48.591	Thrust:	49.324
Time:	5.813	Roll Set Point:	-0.234	Pitch Set Point:	-0.121	Yaw Set Point:	-0.579	X_WP:	0.000	Y_WP:	0.000	Y_WP:	0.500	X:	0.099	Y:	0.095	Z:	0.399	yaw:	33.188	yaw rate:	1.245	Roll:	4.392	Pitch:	1.059	Yaw:	48.110	Thrust:	49.865
Time:	5.828	Roll Set Point:	-0.234	Pitch Set Point:	-0.121	Yaw Set Point:	-0.579	X_WP:	0.000	Y_WP:	0.000	Y_WP:	0.500	X:	0.099	Y:	0.095	Z:	0.399	yaw:	33.188	yaw rate:	1.245	Roll:	4.498	Pitch:	0.974	Yaw:	47.901	Thrust:	49.739
Time:	5.844	Roll Set Point:	-0.234	Pitch Set Point:	-0.121	Yaw Set Point:	-0.580	X_WP:	0.000	Y_WP:	0.000	Y_WP:	0.500	X:	0.099	Y:	0.095	Z:	0.399	yaw:	33.209	yaw rate:	2.158	Roll:	4.473	Pitch:	0.822	Yaw:	48.293	Thrust:	49.972
Time:	5.860	Roll Set Point:	-0.234	Pitch Set Point:	-0.121	Yaw Set Point:	-0.580	X_WP:	0.000	Y_WP:	0.000	Y_WP:	0.500	X:	0.099	Y:	0.095	Z:	0.399	yaw:	33.209	yaw rate:	2.158	Roll:	4.498	Pitch:	0.972	Yaw:	47.931	Thrust:	50.119
Time:	5.879	Roll Set Point:	-0.234	Pitch Set Point:	-0.121	Yaw Set Point:	-0.578	X_WP:	0.000	Y_WP:	0.000	Y_WP:	0.500	X:	0.099	Y:	0.095	Z:	0.399	yaw:	33.127	yaw rate:	-2.304	Roll:	4.756	Pitch:	1.156	Yaw:	47.131	Thrust:	61.654
Time:	5.905	Roll Set Point:	-0.234	Pitch Set Point:	-0.121	Yaw Set Point:	-0.577	X_WP:	0.000	Y_WP:	0.000	Y_WP:	0.500	X:	0.099	Y:	0.095	Z:	0.399	yaw:	33.085	yaw rate:	-4.197	Roll:	4.825	Pitch:	1.184	Yaw:	48.283	Thrust:	78.198
Time:	5.920	Roll Set Point:	-0.234	Pitch Set Point:	-0.121	Yaw Set Point:	-0.578	X_WP:	0.000	Y_WP:	0.000	Y_WP:	0.500	X:	0.099	Y:	0.095	Z:	0.399	yaw:	33.093	yaw rate:	0.765	Roll:	4.508	Pitch:	1.002	Yaw:	47.897	Thrust:	50.735
Time:	5.936	Roll Set Point:	-0.234	Pitch Set Point:	-0.121	Yaw Set Point:	-0.578	X_WP:	0.000	Y_WP:	0.000	Y_WP:	0.500	X:	0.099	Y:	0.095	Z:	0.399	yaw:	33.093	yaw rate:	0.765	Roll:	4.500	Pitch:	0.983	Yaw:	47.769	Thrust:	50.875
Time:	5.951	Roll Set Point:	-0.234	Pitch Set Point:	-0.121	Yaw Set Point:	-0.578	X_WP:	0.000	Y_WP:	0.000	Y_WP:	0.500	X:	0.099	Y:	0.095	Z:	0.399	yaw:	33.090	yaw rate:	-0.321	Roll:	4.500	Pitch:	0.995	Yaw:	47.711	Thrust:	50.997
Time:	5.967	Roll Set Point:	-0.234	Pitch Set Point:	-0.121	Yaw Set Point:	-0.577	X_WP:	0.000	Y_WP:	0.000	Y_WP:	0.500	X:	0.099	Y:	0.095	Z:	0.399	yaw:	33.075	yaw rate:	-1.453	Roll:	4.469	Pitch:	1.010	Yaw:	47.501	Thrust:	51.210
Time:	5.998	Roll Set Point:	-0.234	Pitch Set Point:	-0.121	Yaw Set Point:	-0.578	X_WP:	0.000	Y_WP:	0.000	Y_WP:	0.500	X:	0.099	Y:	0.095	Z:	0.399	yaw:	33.126	yaw rate:	5.065	Roll:	5.223	Pitch:	1.257	Yaw:	49.802	Thrust:	97.606
Time:	6.030	Roll Set Point:	-0.081	Pitch Set Point:	-0.036	Yaw Set Point:	-0.578	X_WP:	0.081	Y_WP:	0.155	Y_WP:	0.500	X:	0.099	Y:	0.095	Z:	0.399	yaw:	33.089	yaw rate:	-3.653	Roll:	-30.000	Pitch:	-30.000	Yaw:	49.021	Thrust:	97.730
Time:	6.045	Roll Set Point:	-0.081	Pitch Set Point:	-0.036	Yaw Set Point:	-0.578	X_WP:	0.081	Y_WP:	0.155	Y_WP:	0.500	X:	0.099	Y:	0.095	Z:	0.399	yaw:	33.089	yaw rate:	-3.653	Roll:	0.068	Pitch:	-1.493	Yaw:	47.764	Thrust:	51.832
Time:	6.061	Roll Set Point:	-0.081	Pitch Set Point:	-0.035	Yaw Set Point:	-0.578	X_WP:	0.081	Y_WP:	0.155	Y_WP:	0.500	X:	0.099	Y:	0.095	Z:	0.399	yaw:	33.096	yaw rate:	-2.972	Roll:	0.079	Pitch:	-1.486	Yaw:	47.894	Thrust:	51.499
Time:	6.076	Roll Set Point:	-0.081	Pitch Set Point:	-0.036	Yaw Set Point:	-0.578	X_WP:	0.081	Y_WP:	0.155	Y_WP:	0.500	X:	0.099	Y:	0.095	Z:	0.399	yaw:	33.099	yaw rate:	0.296	Roll:	0.081	Pitch:	-1.503	Yaw:	47.828	Thrust:	52.728
Time:	6.092	Roll Set Point:	-0.081	Pitch Set Point:	-0.036	Yaw Set Point:	-0.578	X_WP:	0.081	Y_WP:	0.155	Y_WP:	0.500	X:	0.099	Y:	0.095	Z:	0.399	yaw:	33.091	yaw rate:	-0.823	Roll:	0.052	Pitch:	-1.510	Yaw:	47.627	Thrust:	52.433
Time:	6.108	Roll Set Point:	-0.081	Pitch Set Point:	-0.036	Yaw Set Point:	-0.577	X_WP:	0.081	Y_WP:	0.155	Y_WP:	0.500	X:	0.099	Y:	0.095	Z:	0.399	yaw:	33.085	yaw rate:	-0.585	Roll:	0.075	Pitch:	-1.508	Yaw:	47.660	Thrust:	52.352
Time:	6.123	Roll Set Point:	-0.081	Pitch Set Point:	-0.036	Yaw Set Point:	-0.577	X_WP:	0.081	Y_WP:	0.155	Y_WP:	0.500	X:	0.099	Y:	0.095	Z:	0.399	yaw:	33.050	yaw rate:	-3.489	Roll:	0.108	Pitch:	-1.519	Yaw:	47.125	Thrust:	52.739
Time:	6.139	Roll Set Point:	-0.081	Pitch Set Point:	-0.036	Yaw Set Point:	-0.577	X_WP:	0.081	Y_WP:	0.155	Y_WP:	0.500	X:	0.099	Y:	0.095	Z:	0.399	yaw:	33.075	yaw rate:	2.476	Roll:	0.035	Pitch:	-1.498	Yaw:	48.159	Thrust:	52.999
Time:	6.155	Roll Set Point:	-0.081	Pitch Set Point:	-0.036	Yaw Set Point:	-0.577	X_WP:	0.082	Y_WP:	0.155	Y_WP:	0.500	X:	0.099	Y:	0.095	Z:	0.399	yaw:	33.054	yaw rate:	-2.132	Roll:	0.056	Pitch:	-1.503	Yaw:	47.357	Thrust:	53.182
Time:	6.170	Roll Set Point:	-0.081	Pitch Set Point:	-0.035	Yaw Set Point:	-0.577	X_WP:	0.081	Y_WP:	0.155	Y_WP:	0.500	X:	0.099	Y:	0.095	Z:	0.399	yaw:	33.087	yaw rate:	3.289	Roll:	0.025	Pitch:	-1.490	Yaw:	48.311	Thrust:	53.005
Time:	6.186	Roll Set Point:	-0.081	Pitch Set Point:	-0.036	Yaw Set Point:	-0.577	X_WP:	0.081	Y_WP:	0.155	Y_WP:	0.500	X:	0.099	Y:	0.095	Z:	0.399	yaw:	33.051	yaw rate:	-3.508	Roll:	0.127	Pitch:	-1.529	Yaw:	47.124	Thrust:	53.762
Time:	6.201	Roll Set Point:	-0.081	Pitch Set Point:	-0.036	Yaw Set Point:	-0.577	X_WP:	0.081	Y_WP:	0.155	Y_WP:	0.500	X:	0.099	Y:	0.095	Z:	0.399	yaw:	33.040	yaw rate:	-1.168	Roll:	0.075	Pitch:	-1.540	Yaw:	47.499	Thrust:	53.738
Time:	6.217	Roll Set Point:	-0.081	Pitch Set Point:	-0.036	Yaw Set Point:	-0.577	X_WP:	0.081	Y_WP:	0.155	Y_WP:	0.500	X:	0.099	Y:	0.095	Z:	0.399	yaw:	33.084	yaw rate:	4.415	Roll:	-0.002	Pitch:	-1.497	Yaw:	48.496	Thrust:	54.056
Time:	6.233	Roll Set Point:	-0.081	Pitch Set Point:	-0.036	Yaw Set Point:	-0.577	X_WP:	0.081	Y_WP:	0.155	Y_WP:	0.500	X:	0.099	Y:	0.095	Z:	0.399	yaw:	33.084	yaw rate:	4.415	Roll:	0.060	Pitch:	-1.521	Yaw:	47.757	Thrust:	54.101
Time:	6.248	Roll Set Point:	-0.081	Pitch Set Point:	-0.036	Yaw Set Point:	-0.577	X_WP:	0.081	Y_WP:	0.155	Y_WP:	0.500	X:	0.099	Y:	0.095	Z:	0.399	yaw:	33.082	yaw rate:	-0.199	Roll:	0.089	Pitch:	-1.531	Yaw:	47.720	Thrust:	54.158
Time:	6.264	Roll Set Point:	-0.081	Pitch Set Point:	-0.036	Yaw Set Point:	-0.577	X_WP:	0.081	Y_WP:	0.155	Y_WP:	0.500	X:	0.099	Y:	0.095	Z:	0.399	yaw:	33.082	yaw rate:	-0.199	Roll:	0.059	Pitch:	-1.526	Yaw:	47.754	Thrust:	54.481
Time:	6.280	Roll Set Point:	-0.081	Pitch Set Point:	-0.036	Yaw Set Point:	-0.577	X_WP:	0.081	Y_WP:	0.155	Y_WP:	0.500	X:	0.099	Y:	0.095	Z:	0.399	yaw:	33.074	yaw rate:	-1.708	Roll:	0.039	Pitch:	-1.522	Yaw:	47.610	Thrust:	54.785
Time:	6.295	Roll Set Point:	-0.081	Pitch Set Point:	-0.036	Yaw Set Point:	-0.577	X_WP:	0.081	Y_WP:	0.155	Y_WP:	0.500	X:	0.099	Y:	0.095	Z:	0.399	yaw:	33.074	yaw rate:	-1.708	Roll:	0.057	Pitch:	-1.531	Yaw:	47.743	Thrust:	54.856
Time:	6.311	Roll Set Point:	-0.081	Pitch Set Point:	-0.035	Yaw Set Point:	-0.578	X_WP:	0.081	Y_WP:	0.155	Y_WP:	0.500	X:	0.099	Y:	0.095	Z:	0.399	yaw:	33.098	yaw rate:	1.703	Roll:	0.034	Pitch:	-1.515	Yaw:	48.169	Thrust:	54.589
Time:	6.326	Roll Set Point:	-0.081	Pitch Set Point:	-0.035	Yaw Set Point:	-0.578	X_WP:	0.081	Y_WP:	0.155	Y_WP:	0.500	X:	0.099	Y:	0.095	Z:	0.399	yaw:	33.098	yaw rate:	1.703	Roll:	0.056	Pitch:	-1.535	Yaw:	47.777	Thrust:	55.263
Time:	6.342	Roll Set Point:	-0.081	Pitch Set Point:	-0.036	Yaw Set Point:	-0.578	X_WP:	0.081	Y_WP:	0.155	Y_WP:	0.500	X:	0.099	Y:	0.095	Z:	0.399	yaw:	33.094	yaw rate:	-0.387	Roll:	0.099	Pitch:	-1.547	Yaw:	47.704	Thrust:	55.780
Time:	6.358	Roll Set Point:	-0.081	Pitch Set Point:	-0.036	Yaw Set Point:	-0.578	X_WP:	0.081	Y_WP:	0.155	Y_WP:	0.500	X:	0.099	Y:	0.095	Z:	0.399	yaw:	33.102	yaw rate:	0.847	Roll:	0.026	Pitch:	-1.549	Yaw:	47.924	Thrust:	55.692
Time:	6.373	Roll Set Point:	-0.081	Pitch Set Point:	-0.035	Yaw Set Point:	-0.577	X_WP:	0.081	Y_WP:	0.155	Y_WP:	0.500	X:	0.099	Y:	0.095	Z:	0.399	yaw:	33.081	yaw rate:	0.341	Roll:	0.070	Pitch:	-1.533	Yaw:	47.406	Thrust:	55.346
