Time:	2.054	Roll Set Point:	0.011	Pitch Set Point:	-0.023	Yaw Set Point:	0.043	X_WP:	0.000	Y_WP:	0.000	Y_WP:	0.500	X:	-0.005	Y:	0.012	Z:	0.050	yaw:	-2.486	yaw rate:	0.452	Roll:	-0.161	Pitch:	0.328	Yaw:	-3.471	Thrust:	24.772
Time:	2.066	Roll Set Point:	0.011	Pitch Set Point:	-0.023	Yaw Set Point:	0.043	X_WP:	0.000	Y_WP:	0.000	Y_WP:	0.500	X:	-0.005	Y:	0.012	Z:	0.050	yaw:	-2.489	yaw rate:	-0.359	Roll:	-0.170	Pitch:	0.340	Yaw:	-3.571	Thrust:	25.395
Time:	2.077	Roll Set Point:	0.011	Pitch Set Point:	-0.023	Yaw Set Point:	0.043	X_WP:	0.000	Y_WP:	0.000	Y_WP:	0.500	X:	-0.005	Y:	0.012	Z:	0.050	yaw:	-2.479	yaw rate:	1.071	Roll:	-0.135	Pitch:	0.320	Yaw:	-3.226	Thrust:	25.907
Time:	2.088	Roll Set Point:	0.011	Pitch Set Point:	-0.023	Yaw Set Point:	0.043	X_WP:	0.000	Y_WP:	0.000	Y_WP:	0.500	X:	-0.005	Y:	0.012	Z:	0.050	yaw:	-2.490	yaw rate:	-1.146	Roll:	-0.199	Pitch:	0.318	Yaw:	-3.778	Thrust:	26.571
Time:	2.099	Roll Set Point:	0.011	Pitch Set Point:	-0.023	Yaw Set Point:	0.043	X_WP:	0.000	Y_WP:	0.000	Y_WP:	0.500	X:	-0.005	Y:	0.012	Z:	0.050	yaw:	-2.443	yaw rate:	4.718	Roll:	-0.128	Pitch:	0.360	Yaw:	-2.330	Thrust:	27.247
Time:	2.110	Roll Set Point:	0.011	Pitch Set Point:	-0.023	Yaw Set Point:	0.043	X_WP:	0.000	Y_WP:	0.000	Y_WP:	0.500	X:	-0.005	Y:	0.012	Z:	0.050	yaw:	-2.491	yaw rate:	-4.837	Roll:	-0.198	Pitch:	0.307	Yaw:	-4.674	Thrust:	27.734
Time:	2.122	Roll Set Point:	0.011	Pitch Set Point:	-0.023	Yaw Set Point:	0.043	X_WP:	0.000	Y_WP:	0.000	Y_WP:	0.500	X:	-0.005	Y:	0.012	Z:	0.050	yaw:	-2.470	yaw rate:	2.159	Roll:	-0.145	Pitch:	0.328	Yaw:	-3.040	Thrust:	28.691
Time:	2.133	Roll Set Point:	0.011	Pitch Set Point:	-0.023	Yaw Set Point:	0.043	X_WP:	0.000	Y_WP:	0.000	Y_WP:	0.500	X:	-0.005	Y:	0.012	Z:	0.050	yaw:	-2.488	yaw rate:	-1.794	Roll:	-0.174	Pitch:	0.338	Yaw:	-3.966	Thrust:	28.889
Time:	2.144	Roll Set Point:	0.011	Pitch Set Point:	-0.023	Yaw Set Point:	0.043	X_WP:	0.000	Y_WP:	0.000	Y_WP:	0.500	X:	-0.005	Y:	0.012	Z:	0.050	yaw:	-2.477	yaw rate:	1.093	Roll:	-0.144	Pitch:	0.355	Yaw:	-3.275	Thrust:	29.502
Time:	2.155	Roll Set Point:	0.011	Pitch Set Point:	-0.023	Yaw Set Point:	0.043	X_WP:	0.000	Y_WP:	0.000	Y_WP:	0.500	X:	-0.005	Y:	0.012	Z:	0.050	yaw:	-2.488	yaw rate:	-1.076	Roll:	-0.175	Pitch:	0.304	Yaw:	-3.815	Thrust:	30.186
Time:	2.166	Roll Set Point:	0.011	Pitch Set Point:	-0.023	Yaw Set Point:	0.043	X_WP:	0.000	Y_WP:	0.000	Y_WP:	0.500	X:	-0.005	Y:	0.012	Z:	0.050	yaw:	-2.478	yaw rate:	1.001	Roll:	-0.149	Pitch:	0.354	Yaw:	-3.318	Thrust:	30.687
Time:	2.177	Roll Set Point:	0.011	Pitch Set Point:	-0.023	Yaw Set Point:	0.044	X_WP:	0.000	Y_WP:	0.000	Y_WP:	0.500	X:	-0.005	Y:	0.012	Z:	0.050	yaw:	-2.515	yaw rate:	-3.746	Roll:	-0.217	Pitch:	0.312	Yaw:	-4.506	Thrust:	31.359
Time:	2.188	Roll Set Point:	0.011	Pitch Set Point:	-0.023	Yaw Set Point:	0.043	X_WP:	0.000	Y_WP:	0.000	Y_WP:	0.500	X:	-0.005	Y:	0.012	Z:	0.050	yaw:	-2.466	yaw rate:	4.875	Roll:	-0.102	Pitch:	0.344	Yaw:	-2.401	Thrust:	31.897
Time:	2.199	Roll Set Point:	0.011	Pitch Set Point:	-0.023	Yaw Set Point:	0.043	X_WP:	0.000	Y_WP:	0.000	Y_WP:	0.500	X:	-0.005	Y:	0.012	Z:	0.050	yaw:	-2.475	yaw rate:	-0.830	Roll:	-0.161	Pitch:	0.310	Yaw:	-3.774	Thrust:	32.838
Time:	2.210	Roll Set Point:	0.011	Pitch Set Point:	-0.023	Yaw Set Point:	0.044	X_WP:	0.000	Y_WP:	0.000	Y_WP:	0.500	X:	-0.005	Y:	0.012	Z:	0.050	yaw:	-2.497	yaw rate:	-2.215	Roll:	-0.173	Pitch:	0.337	Yaw:	-4.146	Thrust:	33.087
Time:	2.221	Roll Set Point:	0.011	Pitch Set Point:	-0.023	Yaw Set Point:	0.043	X_WP:	0.000	Y_WP:	0.000	Y_WP:	0.500	X:	-0.005	Y:	0.012	Z:	0.050	yaw:	-2.486	yaw rate:	1.076	Roll:	-0.202	Pitch:	0.322	Yaw:	-3.359	Thrust:	33.677
Time:	2.232	Roll Set Point:	0.011	Pitch Set Point:	-0.023	Yaw Set Point:	0.043	X_WP:	0.000	Y_WP:	0.000	Y_WP:	0.500	X:	-0.005	Y:	0.012	Z:	0.050	yaw:	-2.460	yaw rate:	2.570	Roll:	-0.131	Pitch:	0.353	Yaw:	-2.978	Thrust:	34.331
Time:	2.243	Roll Set Point:	0.011	Pitch Set Point:	-0.023	Yaw Set Point:	0.043	X_WP:	0.000	Y_WP:	0.000	Y_WP:	0.500	X:	-0.005	Y:	0.012	Z:	0.050	yaw:	-2.473	yaw rate:	-1.317	Roll:	-0.150	Pitch:	0.343	Yaw:	-3.928	Thrust:	34.907
Time:	2.254	Roll Set Point:	0.011	Pitch Set Point:	-0.023	Yaw Set Point:	0.043	X_WP:	0.000	Y_WP:	0.000	Y_WP:	0.500	X:	-0.005	Y:	0.012	Z:	0.050	yaw:	-2.467	yaw rate:	0.680	Roll:	-0.193	Pitch:	0.310	Yaw:	-3.454	Thrust:	35.488
Time:	2.265	Roll Set Point:	0.011	Pitch Set Point:	-0.023	Yaw Set Point:	0.043	X_WP:	0.000	Y_WP:	0.000	Y_WP:	0.500	X:	-0.005	Y:	0.012	Z:	0.050	yaw:	-2.478	yaw rate:	-1.177	Roll:	-0.138	Pitch:	0.334	Yaw:	-3.921	Thrust:	36.102
Time:	2.277	Roll Set Point:	0.011	Pitch Set Point:	-0.023	Yaw Set Point:	0.043	X_WP:	0.000	Y_WP:	0.000	Y_WP:	0.500	X:	-0.005	Y:	0.012	Z:	0.050	yaw:	-2.444	yaw rate:	3.470	Roll:	-0.177	Pitch:	0.350	Yaw:	-2.868	Thrust:	37.841
Time:	2.288	Roll Set Point:	0.011	Pitch Set Point:	-0.023	Yaw Set Point:	0.043	X_WP:	0.000	Y_WP:	0.000	Y_WP:	0.500	X:	-0.005	Y:	0.012	Z:	0.050	yaw:	-2.477	yaw rate:	-3.358	Roll:	-0.162	Pitch:	0.341	Yaw:	-4.458	Thrust:	37.272
Time:	2.299	Roll Set Point:	0.011	Pitch Set Point:	-0.023	Yaw Set Point:	0.043	X_WP:	0.000	Y_WP:	0.000	Y_WP:	0.500	X:	-0.005	Y:	0.012	Z:	0.050	yaw:	-2.476	yaw rate:	0.105	Roll:	-0.190	Pitch:	0.329	Yaw:	-3.642	Thrust:	37.935
Time:	2.311	Roll Set Point:	0.011	Pitch Set Point:	-0.023	Yaw Set Point:	0.043	X_WP:	0.000	Y_WP:	0.000	Y_WP:	0.500	X:	-0.005	Y:	0.012	Z:	0.050	yaw:	-2.472	yaw rate:	0.453	Roll:	-0.139	Pitch:	0.326	Yaw:	-3.563	Thrust:	38.302
Time:	2.322	Roll Set Point:	0.011	Pitch Set Point:	-0.023	Yaw Set Point:	0.043	X_WP:	0.000	Y_WP:	0.000	Y_WP:	0.500	X:	-0.005	Y:	0.012	Z:	0.050	yaw:	-2.480	yaw rate:	-0.814	Roll:	-0.176	Pitch:	0.331	Yaw:	-3.885	Thrust:	39.121
Time:	2.333	Roll Set Point:	0.011	Pitch Set Point:	-0.023	Yaw Set Point:	0.043	X_WP:	0.000	Y_WP:	0.000	Y_WP:	0.500	X:	-0.005	Y:	0.012	Z:	0.050	yaw:	-2.483	yaw rate:	-0.289	Roll:	-0.157	Pitch:	0.335	Yaw:	-3.773	Thrust:	39.806
Time:	2.344	Roll Set Point:	0.011	Pitch Set Point:	-0.023	Yaw Set Point:	0.043	X_WP:	0.000	Y_WP:	0.000	Y_WP:	0.500	X:	-0.005	Y:	0.012	Z:	0.050	yaw:	-2.488	yaw rate:	-0.489	Roll:	-0.198	Pitch:	0.332	Yaw:	-3.837	Thrust:	40.255
Time:	2.355	Roll Set Point:	0.011	Pitch Set Point:	-0.023	Yaw Set Point:	0.043	X_WP:	0.000	Y_WP:	0.000	Y_WP:	0.500	X:	-0.005	Y:	0.012	Z:	0.050	yaw:	-2.466	yaw rate:	2.119	Roll:	-0.142	Pitch:	0.371	Yaw:	-3.200	Thrust:	40.893
Time:	2.366	Roll Set Point:	0.011	Pitch Set Point:	-0.023	Yaw Set Point:	0.043	X_WP:	0.000	Y_WP:	0.000	Y_WP:	0.500	X:	-0.005	Y:	0.012	Z:	0.050	yaw:	-2.482	yaw rate:	-1.574	Roll:	-0.202	Pitch:	0.308	Yaw:	-4.107	Thrust:	41.415
Time:	2.377	Roll Set Point:	0.011	Pitch Set Point:	-0.023	Yaw Set Point:	0.042	X_WP:	0.000	Y_WP:	0.000	Y_WP:	0.500	X:	-0.005	Y:	0.012	Z:	0.050	yaw:	-2.429	yaw rate:	5.307	Roll:	-0.063	Pitch:	0.358	Yaw:	-2.412	Thrust:	42.022
Time:	2.388	Roll Set Point:	0.011	Pitch Set Point:	-0.023	Yaw Set Point:	0.044	X_WP:	0.000	Y_WP:	0.000	Y_WP:	0.500	X:	-0.005	Y:	0.012	Z:	0.050	yaw:	-2.503	yaw rate:	-7.414	Roll:	-0.260	Pitch:	0.319	Yaw:	-5.542	Thrust:	42.655
Time:	2.399	Roll Set Point:	0.011	Pitch Set Point:	-0.023	Yaw Set Point:	0.043	X_WP:	0.000	Y_WP:	0.000	Y_WP:	0.500	X:	-0.005	Y:	0.012	Z:	0.050	yaw:	-2.479	yaw rate:	2.406	Roll:	-0.131	Pitch:	0.356	Yaw:	-3.185	Thrust:	43.395
Time:	2.411	Roll Set Point:	0.011	Pitch Set Point:	-0.023	Yaw Set Point:	0.043	X_WP:	0.000	Y_WP:	0.000	Y_WP:	0.500	X:	-0.005	Y:	0.012	Z:	0.050	yaw:	-2.462	yaw rate:	1.694	Roll:	-0.186	Pitch:	0.329	Yaw:	-3.341	Thrust:	43.752
Time:	2.422	Roll Set Point:	0.011	Pitch Set Point:	-0.023	Yaw Set Point:	0.043	X_WP:	0.000	Y_WP:	0.000	Y_WP:	0.500	X:	-0.005	Y:	0.012	Z:	0.050	yaw:	-2.488	yaw rate:	-2.603	Roll:	-0.176	Pitch:	0.334	Yaw:	-4.384	Thrust:	46.232
Time:	2.433	Roll Set Point:	0.011	Pitch Set Point:	-0.023	Yaw Set Point:	0.044	X_WP:	0.000	Y_WP:	0.000	Y_WP:	0.500	X:	-0.005	Y:	0.012	Z:	0.050	yaw:	-2.507	yaw rate:	-1.883	Roll:	-0.191	Pitch:	0.323	Yaw:	-4.272	Thrust:	45.071
Time:	2.444	Roll Set Point:	0.011	Pitch Set Point:	-0.023	Yaw Set Point:	0.043	X_WP:	0.000	Y_WP:	0.000	Y_WP:	0.500	X:	-0.005	Y:	0.012	Z:	0.050	yaw:	-2.469	yaw rate:	3.821	Roll:	-0.122	Pitch:	0.363	Yaw:	-2.871	Thrust:	45.579
Time:	2.456	Roll Set Point:	0.011	Pitch Set Point:	-0.023	Yaw Set Point:	0.043	X_WP:	0.000	Y_WP:	0.000	Y_WP:	0.500	X:	-0.005	Y:	0.012	Z:	0.050	yaw:	-2.474	yaw rate:	2.518	Roll:	-0.171	Pitch:	0.341	Yaw:	-3.932	Thrust:	48.216
Time:	2.467	Roll Set Point:	0.011	Pitch Set Point:	-0.023	Yaw Set Point:	0.043	X_WP:	0.000	Y_WP:	0.000	Y_WP:	0.500	X:	-0.005	Y:	0.012	Z:	0.050	yaw:	-2.485	yaw rate:	-1.151	Roll:	-0.170	Pitch:	0.335	Yaw:	-4.096	Thrust:	46.897
Time:	2.478	Roll Set Point:	0.011	Pitch Set Point:	-0.023	Yaw Set Point:	0.043	X_WP:	0.000	Y_WP:	0.000	Y_WP:	0.500	X:	-0.005	Y:	0.012	Z:	0.050	yaw:	-2.486	yaw rate:	-0.057	Roll:	-0.163	Pitch:	0.323	Yaw:	-3.847	Thrust:	47.317
Time:	2.489	Roll Set Point:	0.011	Pitch Set Point:	-0.023	Yaw Set Point:	0.043	X_WP:	0.000	Y_WP:	0.000	Y_WP:	0.500	X:	-0.005	Y:	0.012	Z:	0.050	yaw:	-2.486	yaw rate:	-0.057	Roll:	-0.168	Pitch:	0.340	Yaw:	-3.843	Thrust:	48.021
Time:	2.500	Roll Set Point:	0.011	Pitch Set Point:	-0.023	Yaw Set Point:	0.043	X_WP:	0.000	Y_WP:	0.000	Y_WP:	0.500	X:	-0.005	Y:	0.012	Z:	0.050	yaw:	-2.451	yaw rate:	3.464	Roll:	-0.159	Pitch:	0.376	Yaw:	-2.982	Thrust:	48.655
Time:	2.511	Roll Set Point:	0.011	Pitch Set Point:	-0.023	Yaw Set Point:	0.043	X_WP:	0.000	Y_WP:	0.000	Y_WP:	0.500	X:	-0.005	Y:	0.012	Z:	0.050	yaw:	-2.486	yaw rate:	-3.494	Roll:	-0.172	Pitch:	0.304	Yaw:	-4.691	Thrust:	49.122
Time:	2.522	Roll Set Point:	0.011	Pitch Set Point:	-0.023	Yaw Set Point:	0.043	X_WP:	0.000	Y_WP:	0.000	Y_WP:	0.500	X:	-0.005	Y:	0.012	Z:	0.050	yaw:	-2.456	yaw rate:	2.955	Roll:	-0.142	Pitch:	0.373	Yaw:	-3.129	Thrust:	49.744
Time:	2.533	Roll Set Point:	0.011	Pitch Set Point:	-0.023	Yaw Set Point:	0.043	X_WP:	0.000	Y_WP:	0.000	Y_WP:	0.500	X:	-0.005	Y:	0.012	Z:	0.050	yaw:	-2.471	yaw rate:	-1.420	Roll:	-0.219	Pitch:	0.323	Yaw:	-4.197	Thrust:	50.555
Time:	2.544	Roll Set Point:	0.011	Pitch Set Point:	-0.023	Yaw Set Point:	0.043	X_WP:	0.000	Y_WP:	0.000	Y_WP:	0.500	X:	-0.005	Y:	0.012	Z:	0.050	yaw:	-2.469	yaw rate:	0.132	Roll:	-0.135	Pitch:	0.340	Yaw:	-3.836	Thrust:	51.087
Time:	2.555	Roll Set Point:	0.011	Pitch Set Point:	-0.023	Yaw Set Point:	0.044	X_WP:	0.000	Y_WP:	0.000	Y_WP:	0.500	X:	-0.005	Y:	0.012	Z:	0.050	yaw:	-2.497	yaw rate:	-2.736	Roll:	-0.206	Pitch:	0.334	Yaw:	-4.565	Thrust:	51.424
Time:	2.566	Roll Set Point:	0.011	Pitch Set Point:	-0.023	Yaw Set Point:	0.044	X_WP:	0.000	Y_WP:	0.000	Y_WP:	0.500	X:	-0.005	Y:	0.012	Z:	0.050	yaw:	-2.497	yaw rate:	-0.028	Roll:	-0.174	Pitch:	0.368	Yaw:	-3.932	Thrust:	52.199
Time:	2.577	Roll Set Point:	0.011	Pitch Set Point:	-0.023	Yaw Set Point:	0.043	X_WP:	0.000	Y_WP:	0.000	Y_WP:	0.500	X:	-0.005	Y:	0.012	Z:	0.050	yaw:	-2.474	yaw rate:	2.296	Roll:	-0.146	Pitch:	0.334	Yaw:	-3.358	Thrust:	52.809
Time:	2.588	Roll Set Point:	0.011	Pitch Set Point:	-0.023	Yaw Set Point:	0.043	X_WP:	0.000	Y_WP:	0.000	Y_WP:	0.500	X:	-0.005	Y:	0.012	Z:	0.050	yaw:	-2.479	yaw rate:	-0.540	Roll:	-0.133	Pitch:	0.334	Yaw:	-4.048	Thrust:	53.376
Time:	2.599	Roll Set Point:	0.011	Pitch Set Point:	-0.023	Yaw Set Point:	0.043	X_WP:	0.000	Y_WP:	0.000	Y_WP:	0.500	X:	-0.005	Y:	0.012	Z:	0.050	yaw:	-2.471	yaw rate:	0.821	Roll:	-0.194	Pitch:	0.351	Yaw:	-3.723	Thrust:	53.973
Time:	2.610	Roll Set Point:	0.011	Pitch Set Point:	-0.023	Yaw Set Point:	0.043	X_WP:	0.000	Y_WP:	0.000	Y_WP:	0.500	X:	-0.005	Y:	0.012	Z:	0.050	yaw:	-2.472	yaw rate:	-0.099	Roll:	-0.169	Pitch:	0.347	Yaw:	-3.952	Thrust:	54.626
Time:	2.621	Roll Set Point:	0.011	Pitch Set Point:	-0.023	Yaw Set Point:	0.043	X_WP:	0.000	Y_WP:	0.000	Y_WP:	0.500	X:	-0.005	Y:	0.012	Z:	0.050	yaw:	-2.486	yaw rate:	-1.365	Roll:	-0.223	Pitch:	0.335	Yaw:	-4.281	Thrust:	55.131
Time:	2.632	Roll Set Point:	0.011	Pitch Set Point:	-0.023	Yaw Set Point:	0.044	X_WP:	0.000	Y_WP:	0.000	Y_WP:	0.500	X:	-0.005	Y:	0.012	Z:	0.050	yaw:	-2.525	yaw rate:	-3.900	Roll:	-0.119	Pitch:	0.347	Yaw:	-4.947	Thrust:	55.874
Time:	2.644	Roll Set Point:	0.011	Pitch Set Point:	-0.023	Yaw Set Point:	0.043	X_WP:	0.000	Y_WP:	0.000	Y_WP:	0.500	X:	-0.005	Y:	0.012	Z:	0.050	yaw:	-2.483	yaw rate:	4.203	Roll:	-0.178	Pitch:	0.328	Yaw:	-3.104	Thrust:	59.137
Time:	2.657	Roll Set Point:	0.011	Pitch Set Point:	-0.023	Yaw Set Point:	0.043	X_WP:	0.000	Y_WP:	0.000	Y_WP:	0.500	X:	-0.005	Y:	0.012	Z:	0.050	yaw:	-2.458	yaw rate:	2.472	Roll:	-0.124	Pitch:	0.364	Yaw:	-3.544	Thrust:	62.807
Time:	2.668	Roll Set Point:	0.011	Pitch Set Point:	-0.023	Yaw Set Point:	0.043	X_WP:	0.000	Y_WP:	0.000	Y_WP:	0.500	X:	-0.005	Y:	0.012	Z:	0.050	yaw:	-2.444	yaw rate:	1.383	Roll:	-0.178	Pitch:	0.354	Yaw:	-3.609	Thrust:	57.601
Time:	2.681	Roll Set Point:	0.011	Pitch Set Point:	-0.023	Yaw Set Point:	0.043	X_WP:	0.000	Y_WP:	0.000	Y_WP:	0.500	X:	-0.005	Y:	0.012	Z:	0.050	yaw:	-2.490	yaw rate:	-4.610	Roll:	-0.220	Pitch:	0.340	Yaw:	-5.063	Thrust:	61.288
Time:	2.692	Roll Set Point:	0.011	Pitch Set Point:	-0.023	Yaw Set Point:	0.044	X_WP:	0.000	Y_WP:	0.000	Y_WP:	0.500	X:	-0.005	Y:	0.012	Z:	0.050	yaw:	-2.526	yaw rate:	-3.599	Roll:	-0.179	Pitch:	0.322	Yaw:	-4.926	Thrust:	58.712
Time:	2.705	Roll Set Point:	0.011	Pitch Set Point:	-0.023	Yaw Set Point:	0.044	X_WP:	0.000	Y_WP:	0.000	Y_WP:	0.500	X:	-0.005	Y:	0.012	Z:	0.050	yaw:	-2.500	yaw rate:	2.635	Roll:	-0.160	Pitch:	0.365	Yaw:	-3.616	Thrust:	65.533
Time:	2.717	Roll Set Point:	0.011	Pitch Set Point:	-0.023	Yaw Set Point:	0.043	X_WP:	0.000	Y_WP:	0.000	Y_WP:	0.500	X:	-0.005	Y:	0.012	Z:	0.050	yaw:	-2.470	yaw rate:	2.976	Roll:	-0.162	Pitch:	0.350	Yaw:	-3.416	Thrust:	63.217
Time:	2.728	Roll Set Point:	0.011	Pitch Set Point:	-0.023	Yaw Set Point:	0.043	X_WP:	0.000	Y_WP:	0.000	Y_WP:	0.500	X:	-0.005	Y:	0.012	Z:	0.050	yaw:	-2.483	yaw rate:	-1.308	Roll:	-0.154	Pitch:	0.343	Yaw:	-4.350	Thrust:	60.409
Time:	2.739	Roll Set Point:	0.011	Pitch Set Point:	-0.023	Yaw Set Point:	0.043	X_WP:	0.000	Y_WP:	0.000	Y_WP:	0.500	X:	-0.005	Y:	0.012	Z:	0.050	yaw:	-2.470	yaw rate:	1.321	Roll:	-0.192	Pitch:	0.349	Yaw:	-3.718	Thrust:	61.269
Time:	2.750	Roll Set Point:	0.011	Pitch Set Point:	-0.023	Yaw Set Point:	0.043	X_WP:	0.000	Y_WP:	0.000	Y_WP:	0.500	X:	-0.005	Y:	0.012	Z:	0.050	yaw:	-2.480	yaw rate:	-1.005	Roll:	-0.191	Pitch:	0.360	Yaw:	-4.293	Thrust:	61.768
Time:	2.761	Roll Set Point:	0.011	Pitch Set Point:	-0.023	Yaw Set Point:	0.043	X_WP:	0.000	Y_WP:	0.000	Y_WP:	0.500	X:	-0.005	Y:	0.012	Z:	0.050	yaw:	-2.487	yaw rate:	-0.679	Roll:	-0.167	Pitch:	0.320	Yaw:	-4.235	Thrust:	62.270
Time:	2.775	Roll Set Point:	0.011	Pitch Set Point:	-0.023	Yaw Set Point:	0.043	X_WP:	0.000	Y_WP:	0.000	Y_WP:	0.500	X:	-0.005	Y:	0.012	Z:	0.050	yaw:	-2.477	yaw rate:	0.993	Roll:	-0.150	Pitch:	0.373	Yaw:	-4.051	Thrust:	73.347
Time:	2.786	Roll Set Point:	0.011	Pitch Set Point:	-0.023	Yaw Set Point:	0.043	X_WP:	0.000	Y_WP:	0.000	Y_WP:	0.500	X:	-0.005	Y:	0.012	Z:	0.050	yaw:	-2.471	yaw rate:	0.571	Roll:	-0.186	Pitch:	0.366	Yaw:	-3.938	Thrust:	63.570
Time:	2.798	Roll Set Point:	0.011	Pitch Set Point:	-0.023	Yaw Set Point:	0.044	X_WP:	0.000	Y_WP:	0.000	Y_WP:	0.500	X:	-0.005	Y:	0.012	Z:	0.050	yaw:	-2.507	yaw rate:	-3.604	Roll:	-0.210	Pitch:	0.313	Yaw:	-4.973	Thrust:	67.586
Time:	2.810	Roll Set Point:	0.011	Pitch Set Point:	-0.023	Yaw Set Point:	0.044	X_WP:	0.000	Y_WP:	0.000	Y_WP:	0.500	X:	-0.005	Y:	0.012	Z:	0.050	yaw:	-2.496	yaw rate:	1.175	Roll:	-0.148	Pitch:	0.374	Yaw:	-3.927	Thrust:	68.378
Time:	2.821	Roll Set Point:	0.011	Pitch Set Point:	-0.023	Yaw Set Point:	0.043	X_WP:	0.000	Y_WP:	0.000	Y_WP:	0.500	X:	-0.005	Y:	0.012	Z:	0.050	yaw:	-2.480	yaw rate:	1.529	Roll:	-0.148	Pitch:	0.340	Yaw:	-3.752	Thrust:	65.391
Time:	2.832	Roll Set Point:	0.011	Pitch Set Point:	-0.023	Yaw Set Point:	0.043	X_WP:	0.000	Y_WP:	0.000	Y_WP:	0.500	X:	-0.005	Y:	0.012	Z:	0.050	yaw:	-2.491	yaw rate:	-1.039	Roll:	-0.205	Pitch:	0.324	Yaw:	-4.382	Thrust:	65.712
Time:	2.843	Roll Set Point:	0.011	Pitch Set Point:	-0.023	Yaw Set Point:	0.043	X_WP:	0.000	Y_WP:	0.000	Y_WP:	0.500	X:	-0.005	Y:	0.012	Z:	0.050	yaw:	-2.484	yaw rate:	0.684	Roll:	-0.150	Pitch:	0.387	Yaw:	-3.974	Thrust:	66.565
Time:	2.857	Roll Set Point:	0.011	Pitch Set Point:	-0.023	Yaw Set Point:	0.043	X_WP:	0.000	Y_WP:	0.000	Y_WP:	0.500	X:	-0.005	Y:	0.012	Z:	0.050	yaw:	-2.482	yaw rate:	0.156	Roll:	-0.231	Pitch:	0.342	Yaw:	-4.300	Thrust:	78.690
Time:	2.868	Roll Set Point:	0.011	Pitch Set Point:	-0.023	Yaw Set Point:	0.043	X_WP:	0.000	Y_WP:	0.000	Y_WP:	0.500	X:	-0.005	Y:	0.012	Z:	0.050	yaw:	-2.488	yaw rate:	-0.568	Roll:	-0.077	Pitch:	0.337	Yaw:	-4.296	Thrust:	67.696
Time:	2.879	Roll Set Point:	0.011	Pitch Set Point:	-0.023	Yaw Set Point:	0.043	X_WP:	0.000	Y_WP:	0.000	Y_WP:	0.500	X:	-0.005	Y:	0.012	Z:	0.050	yaw:	-2.467	yaw rate:	2.098	Roll:	-0.205	Pitch:	0.344	Yaw:	-3.644	Thrust:	68.226
Time:	2.890	Roll Set Point:	0.011	Pitch Set Point:	-0.023	Yaw Set Point:	0.043	X_WP:	0.000	Y_WP:	0.000	Y_WP:	0.500	X:	-0.005	Y:	0.012	Z:	0.050	yaw:	-2.490	yaw rate:	-2.305	Roll:	-0.158	Pitch:	0.331	Yaw:	-4.730	Thrust:	68.808
Time:	2.901	Roll Set Point:	0.011	Pitch Set Point:	-0.023	Yaw Set Point:	0.043	X_WP:	0.000	Y_WP:	0.000	Y_WP:	0.500	X:	-0.005	Y:	0.012	Z:	0.050	yaw:	-2.467	yaw rate:	2.355	Roll:	-0.184	Pitch:	0.357	Yaw:	-3.601	Thrust:	69.538
Time:	2.912	Roll Set Point:	0.011	Pitch Set Point:	-0.023	Yaw Set Point:	0.043	X_WP:	0.000	Y_WP:	0.000	Y_WP:	0.500	X:	-0.005	Y:	0.012	Z:	0.050	yaw:	-2.477	yaw rate:	-1.033	Roll:	-0.165	Pitch:	0.358	Yaw:	-4.429	Thrust:	70.146
Time:	2.923	Roll Set Point:	0.011	Pitch Set Point:	-0.023	Yaw Set Point:	0.044	X_WP:	0.000	Y_WP:	0.000	Y_WP:	0.500	X:	-0.005	Y:	0.012	Z:	0.050	yaw:	-2.498	yaw rate:	-2.089	Roll:	-0.144	Pitch:	0.336	Yaw:	-4.718	Thrust:	70.674
Time:	2.934	Roll Set Point:	0.011	Pitch Set Point:	-0.023	Yaw Set Point:	0.043	X_WP:	0.000	Y_WP:	0.000	Y_WP:	0.500	X:	-0.005	Y:	0.012	Z:	0.050	yaw:	-2.454	yaw rate:	4.327	Roll:	-0.205	Pitch:	0.369	Yaw:	-3.145	Thrust:	71.267
Time:	2.945	Roll Set Point:	0.011	Pitch Set Point:	-0.023	Yaw Set Point:	0.044	X_WP:	0.000	Y_WP:	0.000	Y_WP:	0.500	X:	-0.005	Y:	0.012	Z:	0.050	yaw:	-2.520	yaw rate:	-6.547	Roll:	-0.215	Pitch:	0.328	Yaw:	-5.827	Thrust:	71.705
Time:	2.956	Roll Set Point:	0.011	Pitch Set Point:	-0.023	Yaw Set Point:	0.043	X_WP:	0.000	Y_WP:	0.000	Y_WP:	0.500	X:	-0.005	Y:	0.012	Z:	0.050	yaw:	-2.472	yaw rate:	4.763	Roll:	-0.091	Pitch:	0.387	Yaw:	-3.085	Thrust:	72.507
Time:	2.967	Roll Set Point:	0.011	Pitch Set Point:	-0.023	Yaw Set Point:	0.043	X_WP:	0.000	Y_WP:	0.000	Y_WP:	0.500	X:	-0.005	Y:	0.012	Z:	0.050	yaw:	-2.492	yaw rate:	-1.929	Roll:	-0.224	Pitch:	0.348	Yaw:	-4.710	Thrust:	73.182
Time:	2.978	Roll Set Point:	0.011	Pitch Set Point:	-0.023	Yaw Set Point:	0.043	X_WP:	0.000	Y_WP:	0.000	Y_WP:	0.500	X:	-0.005	Y:	0.012	Z:	0.050	yaw:	-2.479	yaw rate:	1.294	Roll:	-0.141	Pitch:	0.359	Yaw:	-3.937	Thrust:	73.631
Time:	2.989	Roll Set Point:	0.011	Pitch Set Point:	-0.023	Yaw Set Point:	0.043	X_WP:	0.000	Y_WP:	0.000	Y_WP:	0.500	X:	-0.005	Y:	0.012	Z:	0.050	yaw:	-2.472	yaw rate:	0.712	Roll:	-0.193	Pitch:	0.370	Yaw:	-4.074	Thrust:	74.136
Time:	3.000	Roll Set Point:	0.011	Pitch Set Point:	-0.023	Yaw Set Point:	0.044	X_WP:	0.000	Y_WP:	0.000	Y_WP:	0.500	X:	-0.005	Y:	0.012	Z:	0.050	yaw:	-2.507	yaw rate:	-3.575	Roll:	-0.196	Pitch:	0.320	Yaw:	-5.151	Thrust:	75.026
Time:	3.011	Roll Set Point:	0.011	Pitch Set Point:	-0.023	Yaw Set Point:	0.044	X_WP:	0.000	Y_WP:	0.000	Y_WP:	0.500	X:	-0.005	Y:	0.012	Z:	0.050	yaw:	-2.505	yaw rate:	0.194	Roll:	-0.135	Pitch:	0.352	Yaw:	-4.264	Thrust:	75.361
Time:	3.022	Roll Set Point:	0.011	Pitch Set Point:	-0.023	Yaw Set Point:	0.043	X_WP:	0.000	Y_WP:	0.000	Y_WP:	0.500	X:	-0.005	Y:	0.012	Z:	0.050	yaw:	-2.474	yaw rate:	3.133	Roll:	-0.191	Pitch:	0.394	Yaw:	-3.532	Thrust:	76.062
Time:	3.033	Roll Set Point:	0.011	Pitch Set Point:	-0.023	Yaw Set Point:	0.043	X_WP:	0.000	Y_WP:	0.000	Y_WP:	0.500	X:	-0.005	Y:	0.012	Z:	0.050	yaw:	-2.476	yaw rate:	-0.173	Roll:	-0.186	Pitch:	0.349	Yaw:	-4.329	Thrust:	76.579
Time:	3.045	Roll Set Point:	0.011	Pitch Set Point:	-0.023	Yaw Set Point:	0.043	X_WP:	0.000	Y_WP:	0.000	Y_WP:	0.500	X:	-0.005	Y:	0.012	Z:	0.050	yaw:	-2.485	yaw rate:	-0.960	Roll:	-0.195	Pitch:	0.344	Yaw:	-4.540	Thrust:	77.412
Time:	3.056	Roll Set Point:	0.011	Pitch Set Point:	-0.023	Yaw Set Point:	0.043	X_WP:	0.000	Y_WP:	0.000	Y_WP:	0.500	X:	-0.005	Y:	0.012	Z:	0.050	yaw:	-2.471	yaw rate:	1.469	Roll:	-0.121	Pitch:	0.366	Yaw:	-3.950	Thrust:	77.819
Time:	3.067	Roll Set Point:	0.011	Pitch Set Point:	-0.023	Yaw Set Point:	0.043	X_WP:	0.000	Y_WP:	0.000	Y_WP:	0.500	X:	-0.005	Y:	0.012	Z:	0.050	yaw:	-2.461	yaw rate:	0.947	Roll:	-0.231	Pitch:	0.368	Yaw:	-4.072	Thrust:	78.460
Time:	3.079	Roll Set Point:	0.011	Pitch Set Point:	-0.023	Yaw Set Point:	0.043	X_WP:	0.000	Y_WP:	0.000	Y_WP:	0.500	X:	-0.005	Y:	0.012	Z:	0.050	yaw:	-2.483	yaw rate:	-2.164	Roll:	-0.133	Pitch:	0.343	Yaw:	-4.886	Thrust:	84.036
Time:	3.090	Roll Set Point:	0.011	Pitch Set Point:	-0.023	Yaw Set Point:	0.043	X_WP:	0.000	Y_WP:	0.000	Y_WP:	0.500	X:	-0.005	Y:	0.012	Z:	0.050	yaw:	-2.458	yaw rate:	2.531	Roll:	-0.186	Pitch:	0.372	Yaw:	-3.698	Thrust:	79.091
Time:	3.101	Roll Set Point:	0.011	Pitch Set Point:	-0.023	Yaw Set Point:	0.043	X_WP:	0.000	Y_WP:	0.000	Y_WP:	0.500	X:	-0.005	Y:	0.012	Z:	0.050	yaw:	-2.470	yaw rate:	-1.230	Roll:	-0.190	Pitch:	0.356	Yaw:	-4.627	Thrust:	80.170
Time:	3.112	Roll Set Point:	0.011	Pitch Set Point:	-0.023	Yaw Set Point:	0.043	X_WP:	0.000	Y_WP:	0.000	Y_WP:	0.500	X:	-0.005	Y:	0.012	Z:	0.050	yaw:	-2.481	yaw rate:	-1.071	Roll:	-0.187	Pitch:	0.354	Yaw:	-4.617	Thrust:	81.002
Time:	3.123	Roll Set Point:	0.011	Pitch Set Point:	-0.023	Yaw Set Point:	0.044	X_WP:	0.000	Y_WP:	0.000	Y_WP:	0.500	X:	-0.005	Y:	0.012	Z:	0.050	yaw:	-2.494	yaw rate:	-1.307	Roll:	-0.166	Pitch:	0.348	Yaw:	-4.699	Thrust:	81.214
Time:	3.134	Roll Set Point:	0.011	Pitch Set Point:	-0.023	Yaw Set Point:	0.044	X_WP:	0.000	Y_WP:	0.000	Y_WP:	0.500	X:	-0.005	Y:	0.012	Z:	0.050	yaw:	-2.499	yaw rate:	-0.498	Roll:	-0.198	Pitch:	0.347	Yaw:	-4.522	Thrust:	82.019
Time:	3.145	Roll Set Point:	0.011	Pitch Set Point:	-0.023	Yaw Set Point:	0.043	X_WP:	0.000	Y_WP:	0.000	Y_WP:	0.500	X:	-0.005	Y:	0.012	Z:	0.050	yaw:	-2.481	yaw rate:	1.763	Roll:	-0.162	Pitch:	0.376	Yaw:	-3.975	Thrust:	82.716
Time:	3.156	Roll Set Point:	0.011	Pitch Set Point:	-0.023	Yaw Set Point:	0.043	X_WP:	0.000	Y_WP:	0.000	Y_WP:	0.500	X:	-0.005	Y:	0.012	Z:	0.050	yaw:	-2.483	yaw rate:	-0.223	Roll:	-0.181	Pitch:	0.351	Yaw:	-4.456	Thrust:	83.181
Time:	3.167	Roll Set Point:	0.011	Pitch Set Point:	-0.023	Yaw Set Point:	0.043	X_WP:	0.000	Y_WP:	0.000	Y_WP:	0.500	X:	-0.005	Y:	0.012	Z:	0.050	yaw:	-2.484	yaw rate:	-0.042	Roll:	-0.155	Pitch:	0.384	Yaw:	-4.421	Thrust:	83.535
Time:	3.178	Roll Set Point:	0.011	Pitch Set Point:	-0.023	Yaw Set Point:	0.043	X_WP:	0.000	Y_WP:	0.000	Y_WP:	0.500	X:	-0.005	Y:	0.012	Z:	0.050	yaw:	-2.483	yaw rate:	0.021	Roll:	-0.223	Pitch:	0.342	Yaw:	-4.420	Thrust:	84.639
Time:	3.189	Roll Set Point:	0.011	Pitch Set Point:	-0.023	Yaw Set Point:	0.043	X_WP:	0.000	Y_WP:	0.000	Y_WP:	0.500	X:	-0.005	Y:	0.012	Z:	0.050	yaw:	-2.474	yaw rate:	0.965	Roll:	-0.130	Pitch:	0.348	Yaw:	-4.190	Thrust:	84.945
Time:	3.200	Roll Set Point:	0.011	Pitch Set Point:	-0.023	Yaw Set Point:	0.043	X_WP:	0.000	Y_WP:	0.000	Y_WP:	0.500	X:	-0.005	Y:	0.012	Z:	0.050	yaw:	-2.473	yaw rate:	0.044	Roll:	-0.155	Pitch:	0.394	Yaw:	-4.417	Thrust:	85.675
Time:	3.211	Roll Set Point:	0.011	Pitch Set Point:	-0.023	Yaw Set Point:	0.043	X_WP:	0.000	Y_WP:	0.000	Y_WP:	0.500	X:	-0.005	Y:	0.012	Z:	0.050	yaw:	-2.488	yaw rate:	-1.482	Roll:	-0.240	Pitch:	0.309	Yaw:	-4.808	Thrust:	86.101
Time:	3.222	Roll Set Point:	0.011	Pitch Set Point:	-0.023	Yaw Set Point:	0.043	X_WP:	0.000	Y_WP:	0.000	Y_WP:	0.500	X:	-0.005	Y:	0.012	Z:	0.050	yaw:	-2.482	yaw rate:	0.662	Roll:	-0.120	Pitch:	0.390	Yaw:	-4.303	Thrust:	86.653
Time:	3.233	Roll Set Point:	0.011	Pitch Set Point:	-0.023	Yaw Set Point:	0.044	X_WP:	0.000	Y_WP:	0.000	Y_WP:	0.500	X:	-0.005	Y:	0.012	Z:	0.050	yaw:	-2.511	yaw rate:	-2.905	Roll:	-0.249	Pitch:	0.350	Yaw:	-5.198	Thrust:	87.392
Time:	3.244	Roll Set Point:	0.011	Pitch Set Point:	-0.023	Yaw Set Point:	0.043	X_WP:	0.000	Y_WP:	0.000	Y_WP:	0.500	X:	-0.005	Y:	0.012	Z:	0.050	yaw:	-2.490	yaw rate:	2.096	Roll:	-0.181	Pitch:	0.362	Yaw:	-3.988	Thrust:	87.906
Time:	3.255	Roll Set Point:	0.011	Pitch Set Point:	-0.023	Yaw Set Point:	0.043	X_WP:	0.000	Y_WP:	0.000	Y_WP:	0.500	X:	-0.005	Y:	0.012	Z:	0.050	yaw:	-2.487	yaw rate:	0.277	Roll:	-0.137	Pitch:	0.374	Yaw:	-4.431	Thrust:	88.666
Time:	3.266	Roll Set Point:	0.011	Pitch Set Point:	-0.023	Yaw Set Point:	0.043	X_WP:	0.000	Y_WP:	0.000	Y_WP:	0.500	X:	-0.005	Y:	0.012	Z:	0.050	yaw:	-2.479	yaw rate:	0.788	Roll:	-0.183	Pitch:	0.350	Yaw:	-4.306	Thrust:	89.207
Time:	3.277	Roll Set Point:	0.011	Pitch Set Point:	-0.023	Yaw Set Point:	0.043	X_WP:	0.000	Y_WP:	0.000	Y_WP:	0.500	X:	-0.005	Y:	0.012	Z:	0.050	yaw:	-2.491	yaw rate:	-1.224	Roll:	-0.210	Pitch:	0.345	Yaw:	-4.809	Thrust:	89.577
Time:	3.288	Roll Set Point:	0.011	Pitch Set Point:	-0.023	Yaw Set Point:	0.044	X_WP:	0.000	Y_WP:	0.000	Y_WP:	0.500	X:	-0.005	Y:	0.012	Z:	0.050	yaw:	-2.493	yaw rate:	-0.186	Roll:	-0.100	Pitch:	0.392	Yaw:	-4.578	Thrust:	90.561
Time:	3.299	Roll Set Point:	0.011	Pitch Set Point:	-0.023	Yaw Set Point:	0.044	X_WP:	0.000	Y_WP:	0.000	Y_WP:	0.500	X:	-0.005	Y:	0.012	Z:	0.050	yaw:	-2.494	yaw rate:	-0.136	Roll:	-0.257	Pitch:	0.357	Yaw:	-4.575	Thrust:	90.774
Time:	3.310	Roll Set Point:	0.011	Pitch Set Point:	-0.023	Yaw Set Point:	0.044	X_WP:	0.000	Y_WP:	0.000	Y_WP:	0.500	X:	-0.005	Y:	0.012	Z:	0.050	yaw:	-2.519	yaw rate:	-2.470	Roll:	-0.169	Pitch:	0.335	Yaw:	-5.174	Thrust:	91.640
Time:	3.321	Roll Set Point:	0.011	Pitch Set Point:	-0.023	Yaw Set Point:	0.043	X_WP:	0.000	Y_WP:	0.000	Y_WP:	0.500	X:	-0.005	Y:	0.012	Z:	0.050	yaw:	-2.483	yaw rate:	3.653	Roll:	-0.180	Pitch:	0.394	Yaw:	-3.678	Thrust:	92.205
Time:	3.333	Roll Set Point:	0.011	Pitch Set Point:	-0.023	Yaw Set Point:	0.043	X_WP:	0.000	Y_WP:	0.000	Y_WP:	0.500	X:	-0.005	Y:	0.012	Z:	0.050	yaw:	-2.482	yaw rate:	0.053	Roll:	-0.154	Pitch:	0.358	Yaw:	-4.640	Thrust:	98.581
Time:	3.344	Roll Set Point:	0.011	Pitch Set Point:	-0.023	Yaw Set Point:	0.043	X_WP:	0.000	Y_WP:	0.000	Y_WP:	0.500	X:	-0.005	Y:	0.012	Z:	0.050	yaw:	-2.468	yaw rate:	1.422	Roll:	-0.176	Pitch:	0.357	Yaw:	-4.211	Thrust:	93.596
Time:	3.355	Roll Set Point:	0.011	Pitch Set Point:	-0.023	Yaw Set Point:	0.043	X_WP:	0.000	Y_WP:	0.000	Y_WP:	0.500	X:	-0.005	Y:	0.012	Z:	0.050	yaw:	-2.473	yaw rate:	-0.537	Roll:	-0.170	Pitch:	0.386	Yaw:	-4.686	Thrust:	93.749
Time:	3.366	Roll Set Point:	0.011	Pitch Set Point:	-0.023	Yaw Set Point:	0.043	X_WP:	0.000	Y_WP:	0.000	Y_WP:	0.500	X:	-0.005	Y:	0.012	Z:	0.050	yaw:	-2.485	yaw rate:	-1.222	Roll:	-0.203	Pitch:	0.345	Yaw:	-4.878	Thrust:	94.499
Time:	3.377	Roll Set Point:	0.011	Pitch Set Point:	-0.023	Yaw Set Point:	0.043	X_WP:	0.000	Y_WP:	0.000	Y_WP:	0.500	X:	-0.005	Y:	0.012	Z:	0.050	yaw:	-2.488	yaw rate:	-0.289	Roll:	-0.191	Pitch:	0.385	Yaw:	-4.672	Thrust:	95.311
Time:	3.388	Roll Set Point:	0.011	Pitch Set Point:	-0.023	Yaw Set Point:	0.043	X_WP:	0.000	Y_WP:	0.000	Y_WP:	0.500	X:	-0.005	Y:	0.012	Z:	0.050	yaw:	-2.466	yaw rate:	2.279	Roll:	-0.161	Pitch:	0.355	Yaw:	-4.039	Thrust:	95.643
Time:	3.399	Roll Set Point:	0.011	Pitch Set Point:	-0.023	Yaw Set Point:	0.043	X_WP:	0.000	Y_WP:	0.000	Y_WP:	0.500	X:	-0.005	Y:	0.012	Z:	0.050	yaw:	-2.483	yaw rate:	-1.732	Roll:	-0.192	Pitch:	0.349	Yaw:	-5.024	Thrust:	96.367
Time:	3.410	Roll Set Point:	0.011	Pitch Set Point:	-0.023	Yaw Set Point:	0.043	X_WP:	0.000	Y_WP:	0.000	Y_WP:	0.500	X:	-0.005	Y:	0.012	Z:	0.050	yaw:	-2.478	yaw rate:	0.464	Roll:	-0.153	Pitch:	0.377	Yaw:	-4.507	Thrust:	96.917
Time:	3.421	Roll Set Point:	0.011	Pitch Set Point:	-0.023	Yaw Set Point:	0.043	X_WP:	0.000	Y_WP:	0.000	Y_WP:	0.500	X:	-0.005	Y:	0.012	Z:	0.050	yaw:	-2.486	yaw rate:	-0.752	Roll:	-0.211	Pitch:	0.381	Yaw:	-4.814	Thrust:	97.447
Time:	3.432	Roll Set Point:	0.011	Pitch Set Point:	-0.023	Yaw Set Point:	0.043	X_WP:	0.000	Y_WP:	0.000	Y_WP:	0.500	X:	-0.005	Y:	0.012	Z:	0.050	yaw:	-2.455	yaw rate:	3.100	Roll:	-0.166	Pitch:	0.368	Yaw:	-3.868	Thrust:	98.078
Time:	3.443	Roll Set Point:	0.011	Pitch Set Point:	-0.023	Yaw Set Point:	0.044	X_WP:	0.000	Y_WP:	0.000	Y_WP:	0.500	X:	-0.005	Y:	0.012	Z:	0.050	yaw:	-2.501	yaw rate:	-4.623	Roll:	-0.203	Pitch:	0.346	Yaw:	-5.774	Thrust:	98.656
Time:	3.455	Roll Set Point:	0.011	Pitch Set Point:	-0.023	Yaw Set Point:	0.044	X_WP:	0.000	Y_WP:	0.000	Y_WP:	0.500	X:	-0.005	Y:	0.012	Z:	0.050	yaw:	-2.493	yaw rate:	0.814	Roll:	-0.157	Pitch:	0.384	Yaw:	-4.506	Thrust:	100.000
Time:	3.466	Roll Set Point:	0.011	Pitch Set Point:	-0.023	Yaw Set Point:	0.043	X_WP:	0.000	Y_WP:	0.000	Y_WP:	0.500	X:	-0.005	Y:	0.012	Z:	0.050	yaw:	-2.463	yaw rate:	3.005	Roll:	-0.168	Pitch:	0.364	Yaw:	-3.927	Thrust:	99.852
Time:	3.478	Roll Set Point:	0.011	Pitch Set Point:	-0.023	Yaw Set Point:	0.043	X_WP:	0.000	Y_WP:	0.000	Y_WP:	0.500	X:	-0.005	Y:	0.012	Z:	0.050	yaw:	-2.488	yaw rate:	-0.115	Roll:	-0.182	Pitch:	0.369	Yaw:	-5.347	Thrust:	100.000
Time:	3.489	Roll Set Point:	0.011	Pitch Set Point:	-0.023	Yaw Set Point:	0.043	X_WP:	0.000	Y_WP:	0.000	Y_WP:	0.500	X:	-0.005	Y:	0.012	Z:	0.050	yaw:	-2.488	yaw rate:	-0.115	Roll:	-0.181	Pitch:	0.368	Yaw:	-4.700	Thrust:	100.000
Time:	3.501	Roll Set Point:	0.011	Pitch Set Point:	-0.023	Yaw Set Point:	0.043	X_WP:	0.000	Y_WP:	0.000	Y_WP:	0.500	X:	-0.005	Y:	0.012	Z:	0.050	yaw:	-2.480	yaw rate:	0.762	Roll:	-0.183	Pitch:	0.366	Yaw:	-4.642	Thrust:	100.000
Time:	3.512	Roll Set Point:	0.011	Pitch Set Point:	-0.023	Yaw Set Point:	0.043	X_WP:	0.000	Y_WP:	0.000	Y_WP:	0.500	X:	-0.005	Y:	0.012	Z:	0.050	yaw:	-2.477	yaw rate:	0.305	Roll:	-0.205	Pitch:	0.367	Yaw:	-4.628	Thrust:	100.000
Time:	3.523	Roll Set Point:	0.011	Pitch Set Point:	-0.023	Yaw Set Point:	0.044	X_WP:	0.000	Y_WP:	0.000	Y_WP:	0.500	X:	-0.005	Y:	0.012	Z:	0.050	yaw:	-2.502	yaw rate:	-2.416	Roll:	-0.174	Pitch:	0.364	Yaw:	-5.317	Thrust:	100.000
Time:	3.534	Roll Set Point:	0.011	Pitch Set Point:	-0.023	Yaw Set Point:	0.044	X_WP:	0.000	Y_WP:	0.000	Y_WP:	0.500	X:	-0.005	Y:	0.012	Z:	0.050	yaw:	-2.499	yaw rate:	0.269	Roll:	-0.193	Pitch:	0.355	Yaw:	-4.687	Thrust:	100.000
Time:	3.545	Roll Set Point:	0.011	Pitch Set Point:	-0.023	Yaw Set Point:	0.044	X_WP:	0.000	Y_WP:	0.000	Y_WP:	0.500	X:	-0.005	Y:	0.012	Z:	0.050	yaw:	-2.505	yaw rate:	-0.606	Roll:	-0.187	Pitch:	0.383	Yaw:	-4.909	Thrust:	100.000
Time:	3.556	Roll Set Point:	0.011	Pitch Set Point:	-0.023	Yaw Set Point:	0.043	X_WP:	0.000	Y_WP:	0.000	Y_WP:	0.500	X:	-0.005	Y:	0.012	Z:	0.050	yaw:	-2.474	yaw rate:	3.087	Roll:	-0.188	Pitch:	0.360	Yaw:	-4.002	Thrust:	100.000
Time:	3.567	Roll Set Point:	0.011	Pitch Set Point:	-0.023	Yaw Set Point:	0.043	X_WP:	0.000	Y_WP:	0.000	Y_WP:	0.500	X:	-0.005	Y:	0.012	Z:	0.050	yaw:	-2.468	yaw rate:	0.618	Roll:	-0.153	Pitch:	0.399	Yaw:	-4.589	Thrust:	100.000
Time:	3.578	Roll Set Point:	0.011	Pitch Set Point:	-0.023	Yaw Set Point:	0.044	X_WP:	0.000	Y_WP:	0.000	Y_WP:	0.500	X:	-0.005	Y:	0.012	Z:	0.050	yaw:	-2.493	yaw rate:	-2.520	Roll:	-0.202	Pitch:	0.343	Yaw:	-5.379	Thrust:	100.000
Time:	3.589	Roll Set Point:	0.011	Pitch Set Point:	-0.023	Yaw Set Point:	0.044	X_WP:	0.000	Y_WP:	0.000	Y_WP:	0.500	X:	-0.005	Y:	0.012	Z:	0.050	yaw:	-2.501	yaw rate:	-0.756	Roll:	-0.206	Pitch:	0.400	Yaw:	-4.983	Thrust:	100.000
Time:	3.600	Roll Set Point:	0.011	Pitch Set Point:	-0.023	Yaw Set Point:	0.043	X_WP:	0.000	Y_WP:	0.000	Y_WP:	0.500	X:	-0.005	Y:	0.012	Z:	0.050	yaw:	-2.484	yaw rate:	1.710	Roll:	-0.150	Pitch:	0.337	Yaw:	-4.380	Thrust:	100.000
Time:	3.612	Roll Set Point:	0.011	Pitch Set Point:	-0.023	Yaw Set Point:	0.043	X_WP:	0.000	Y_WP:	0.000	Y_WP:	0.500	X:	-0.005	Y:	0.012	Z:	0.050	yaw:	-2.484	yaw rate:	-0.067	Roll:	-0.193	Pitch:	0.400	Yaw:	-4.932	Thrust:	100.000
Time:	3.623	Roll Set Point:	0.011	Pitch Set Point:	-0.023	Yaw Set Point:	0.044	X_WP:	0.000	Y_WP:	0.000	Y_WP:	0.500	X:	-0.005	Y:	0.012	Z:	0.050	yaw:	-2.499	yaw rate:	-1.513	Roll:	-0.191	Pitch:	0.346	Yaw:	-5.186	Thrust:	100.000
Time:	3.634	Roll Set Point:	0.011	Pitch Set Point:	-0.023	Yaw Set Point:	0.043	X_WP:	0.000	Y_WP:	0.000	Y_WP:	0.500	X:	-0.005	Y:	0.012	Z:	0.050	yaw:	-2.481	yaw rate:	1.813	Roll:	-0.179	Pitch:	0.396	Yaw:	-4.377	Thrust:	100.000
Time:	3.646	Roll Set Point:	0.011	Pitch Set Point:	-0.023	Yaw Set Point:	0.043	X_WP:	0.000	Y_WP:	0.000	Y_WP:	0.500	X:	-0.005	Y:	0.012	Z:	0.050	yaw:	-2.475	yaw rate:	0.627	Roll:	-0.184	Pitch:	0.362	Yaw:	-4.799	Thrust:	100.000
Time:	3.657	Roll Set Point:	0.011	Pitch Set Point:	-0.023	Yaw Set Point:	0.044	X_WP:	0.000	Y_WP:	0.000	Y_WP:	0.500	X:	-0.005	Y:	0.012	Z:	0.050	yaw:	-2.493	yaw rate:	-1.788	Roll:	-0.141	Pitch:	0.389	Yaw:	-5.274	Thrust:	100.000
Time:	3.668	Roll Set Point:	0.011	Pitch Set Point:	-0.023	Yaw Set Point:	0.043	X_WP:	0.000	Y_WP:	0.000	Y_WP:	0.500	X:	-0.005	Y:	0.012	Z:	0.050	yaw:	-2.453	yaw rate:	3.967	Roll:	-0.202	Pitch:	0.380	Yaw:	-3.854	Thrust:	100.000
Time:	3.679	Roll Set Point:	0.011	Pitch Set Point:	-0.023	Yaw Set Point:	0.043	X_WP:	0.000	Y_WP:	0.000	Y_WP:	0.500	X:	-0.005	Y:	0.012	Z:	0.050	yaw:	-2.489	yaw rate:	-3.600	Roll:	-0.236	Pitch:	0.346	Yaw:	-5.715	Thrust:	100.000
Time:	3.690	Roll Set Point:	0.011	Pitch Set Point:	-0.023	Yaw Set Point:	0.043	X_WP:	0.000	Y_WP:	0.000	Y_WP:	0.500	X:	-0.005	Y:	0.012	Z:	0.050	yaw:	-2.454	yaw rate:	3.543	Roll:	-0.142	Pitch:	0.405	Yaw:	-3.980	Thrust:	100.000
Time:	3.702	Roll Set Point:	0.011	Pitch Set Point:	-0.023	Yaw Set Point:	0.043	X_WP:	0.000	Y_WP:	0.000	Y_WP:	0.500	X:	-0.005	Y:	0.012	Z:	0.050	yaw:	-2.458	yaw rate:	-0.469	Roll:	-0.198	Pitch:	0.365	Yaw:	-5.030	Thrust:	100.000
Time:	3.713	Roll Set Point:	0.011	Pitch Set Point:	-0.023	Yaw Set Point:	0.044	X_WP:	0.000	Y_WP:	0.000	Y_WP:	0.500	X:	-0.005	Y:	0.012	Z:	0.050	yaw:	-2.496	yaw rate:	-3.796	Roll:	-0.154	Pitch:	0.352	Yaw:	-5.802	Thrust:	100.000
Time:	3.724	Roll Set Point:	0.011	Pitch Set Point:	-0.023	Yaw Set Point:	0.043	X_WP:	0.000	Y_WP:	0.000	Y_WP:	0.500	X:	-0.005	Y:	0.012	Z:	0.050	yaw:	-2.485	yaw rate:	1.155	Roll:	-0.188	Pitch:	0.386	Yaw:	-4.616	Thrust:	100.000
Time:	3.735	Roll Set Point:	0.011	Pitch Set Point:	-0.023	Yaw Set Point:	0.043	X_WP:	0.000	Y_WP:	0.000	Y_WP:	0.500	X:	-0.005	Y:	0.012	Z:	0.050	yaw:	-2.449	yaw rate:	3.561	Roll:	-0.210	Pitch:	0.392	Yaw:	-4.008	Thrust:	100.000
Time:	3.746	Roll Set Point:	0.011	Pitch Set Point:	-0.023	Yaw Set Point:	0.043	X_WP:	0.000	Y_WP:	0.000	Y_WP:	0.500	X:	-0.005	Y:	0.012	Z:	0.050	yaw:	-2.492	yaw rate:	-4.290	Roll:	-0.208	Pitch:	0.350	Yaw:	-5.941	Thrust:	100.000
Time:	3.757	Roll Set Point:	0.011	Pitch Set Point:	-0.023	Yaw Set Point:	0.043	X_WP:	0.000	Y_WP:	0.000	Y_WP:	0.500	X:	-0.005	Y:	0.012	Z:	0.050	yaw:	-2.442	yaw rate:	5.015	Roll:	-0.136	Pitch:	0.407	Yaw:	-3.678	Thrust:	100.000
Time:	3.768	Roll Set Point:	0.011	Pitch Set Point:	-0.023	Yaw Set Point:	0.043	X_WP:	0.000	Y_WP:	0.000	Y_WP:	0.500	X:	-0.005	Y:	0.012	Z:	0.050	yaw:	-2.466	yaw rate:	-2.410	Roll:	-0.211	Pitch:	0.348	Yaw:	-5.477	Thrust:	100.000
Time:	3.779	Roll Set Point:	0.011	Pitch Set Point:	-0.023	Yaw Set Point:	0.043	X_WP:	0.000	Y_WP:	0.000	Y_WP:	0.500	X:	-0.005	Y:	0.012	Z:	0.050	yaw:	-2.471	yaw rate:	-0.473	Roll:	-0.161	Pitch:	0.404	Yaw:	-5.034	Thrust:	100.000
Time:	3.790	Roll Set Point:	0.011	Pitch Set Point:	-0.023	Yaw Set Point:	0.043	X_WP:	0.000	Y_WP:	0.000	Y_WP:	0.500	X:	-0.005	Y:	0.012	Z:	0.050	yaw:	-2.484	yaw rate:	-1.285	Roll:	-0.214	Pitch:	0.354	Yaw:	-5.253	Thrust:	100.000
Time:	3.801	Roll Set Point:	0.011	Pitch Set Point:	-0.023	Yaw Set Point:	0.043	X_WP:	0.000	Y_WP:	0.000	Y_WP:	0.500	X:	-0.005	Y:	0.012	Z:	0.050	yaw:	-2.466	yaw rate:	1.754	Roll:	-0.144	Pitch:	0.385	Yaw:	-4.517	Thrust:	100.000
Time:	3.812	Roll Set Point:	0.011	Pitch Set Point:	-0.023	Yaw Set Point:	0.043	X_WP:	0.000	Y_WP:	0.000	Y_WP:	0.500	X:	-0.005	Y:	0.012	Z:	0.050	yaw:	-2.485	yaw rate:	-1.917	Roll:	-0.207	Pitch:	0.364	Yaw:	-5.431	Thrust:	100.000
Time:	3.824	Roll Set Point:	0.011	Pitch Set Point:	-0.023	Yaw Set Point:	0.043	X_WP:	0.000	Y_WP:	0.000	Y_WP:	0.500	X:	-0.005	Y:	0.012	Z:	0.050	yaw:	-2.492	yaw rate:	-0.630	Roll:	-0.230	Pitch:	0.382	Yaw:	-5.155	Thrust:	100.000
Time:	3.835	Roll Set Point:	0.011	Pitch Set Point:	-0.023	Yaw Set Point:	0.043	X_WP:	0.000	Y_WP:	0.000	Y_WP:	0.500	X:	-0.005	Y:	0.012	Z:	0.050	yaw:	-2.475	yaw rate:	1.676	Roll:	-0.161	Pitch:	0.383	Yaw:	-4.574	Thrust:	100.000
Time:	3.846	Roll Set Point:	0.011	Pitch Set Point:	-0.023	Yaw Set Point:	0.043	X_WP:	0.000	Y_WP:	0.000	Y_WP:	0.500	X:	-0.005	Y:	0.012	Z:	0.050	yaw:	-2.478	yaw rate:	-0.284	Roll:	-0.177	Pitch:	0.375	Yaw:	-5.053	Thrust:	100.000
Time:	3.857	Roll Set Point:	0.011	Pitch Set Point:	-0.023	Yaw Set Point:	0.043	X_WP:	0.000	Y_WP:	0.000	Y_WP:	0.500	X:	-0.005	Y:	0.012	Z:	0.050	yaw:	-2.491	yaw rate:	-1.304	Roll:	-0.195	Pitch:	0.381	Yaw:	-5.325	Thrust:	100.000
Time:	3.868	Roll Set Point:	0.011	Pitch Set Point:	-0.023	Yaw Set Point:	0.043	X_WP:	0.000	Y_WP:	0.000	Y_WP:	0.500	X:	-0.005	Y:	0.012	Z:	0.050	yaw:	-2.486	yaw rate:	0.469	Roll:	-0.190	Pitch:	0.387	Yaw:	-4.911	Thrust:	100.000
Time:	3.879	Roll Set Point:	0.011	Pitch Set Point:	-0.023	Yaw Set Point:	0.043	X_WP:	0.000	Y_WP:	0.000	Y_WP:	0.500	X:	-0.005	Y:	0.012	Z:	0.050	yaw:	-2.485	yaw rate:	0.121	Roll:	-0.165	Pitch:	0.371	Yaw:	-4.997	Thrust:	100.000
Time:	3.890	Roll Set Point:	0.011	Pitch Set Point:	-0.023	Yaw Set Point:	0.043	X_WP:	0.000	Y_WP:	0.000	Y_WP:	0.500	X:	-0.005	Y:	0.012	Z:	0.050	yaw:	-2.465	yaw rate:	2.023	Roll:	-0.181	Pitch:	0.368	Yaw:	-4.523	Thrust:	100.000
Time:	3.901	Roll Set Point:	0.011	Pitch Set Point:	-0.023	Yaw Set Point:	0.044	X_WP:	0.000	Y_WP:	0.000	Y_WP:	0.500	X:	-0.005	Y:	0.012	Z:	0.050	yaw:	-2.493	yaw rate:	-2.858	Roll:	-0.213	Pitch:	0.373	Yaw:	-5.737	Thrust:	100.000
Time:	3.912	Roll Set Point:	0.011	Pitch Set Point:	-0.023	Yaw Set Point:	0.043	X_WP:	0.000	Y_WP:	0.000	Y_WP:	0.500	X:	-0.005	Y:	0.012	Z:	0.050	yaw:	-2.489	yaw rate:	0.377	Roll:	-0.190	Pitch:	0.363	Yaw:	-4.972	Thrust:	100.000
Time:	3.923	Roll Set Point:	0.011	Pitch Set Point:	-0.023	Yaw Set Point:	0.043	X_WP:	0.000	Y_WP:	0.000	Y_WP:	0.500	X:	-0.005	Y:	0.012	Z:	0.050	yaw:	-2.490	yaw rate:	-0.075	Roll:	-0.196	Pitch:	0.388	Yaw:	-5.090	Thrust:	100.000
Time:	3.934	Roll Set Point:	0.011	Pitch Set Point:	-0.023	Yaw Set Point:	0.043	X_WP:	0.000	Y_WP:	0.000	Y_WP:	0.500	X:	-0.005	Y:	0.012	Z:	0.050	yaw:	-2.475	yaw rate:	1.545	Roll:	-0.148	Pitch:	0.402	Yaw:	-4.694	Thrust:	100.000
Time:	3.945	Roll Set Point:	0.011	Pitch Set Point:	-0.023	Yaw Set Point:	0.043	X_WP:	0.000	Y_WP:	0.000	Y_WP:	0.500	X:	-0.005	Y:	0.012	Z:	0.050	yaw:	-2.457	yaw rate:	1.770	Roll:	-0.208	Pitch:	0.367	Yaw:	-4.619	Thrust:	100.000
Time:	3.956	Roll Set Point:	0.011	Pitch Set Point:	-0.023	Yaw Set Point:	0.043	X_WP:	0.000	Y_WP:	0.000	Y_WP:	0.500	X:	-0.005	Y:	0.012	Z:	0.050	yaw:	-2.462	yaw rate:	-0.482	Roll:	-0.189	Pitch:	0.398	Yaw:	-5.175	Thrust:	100.000
Time:	3.967	Roll Set Point:	0.011	Pitch Set Point:	-0.023	Yaw Set Point:	0.043	X_WP:	0.000	Y_WP:	0.000	Y_WP:	0.500	X:	-0.005	Y:	0.012	Z:	0.050	yaw:	-2.482	yaw rate:	-1.971	Roll:	-0.195	Pitch:	0.352	Yaw:	-5.569	Thrust:	100.000
Time:	3.978	Roll Set Point:	0.011	Pitch Set Point:	-0.023	Yaw Set Point:	0.043	X_WP:	0.000	Y_WP:	0.000	Y_WP:	0.500	X:	-0.005	Y:	0.012	Z:	0.050	yaw:	-2.475	yaw rate:	0.697	Roll:	-0.198	Pitch:	0.388	Yaw:	-4.932	Thrust:	100.000
Time:	3.989	Roll Set Point:	0.011	Pitch Set Point:	-0.023	Yaw Set Point:	0.043	X_WP:	0.000	Y_WP:	0.000	Y_WP:	0.500	X:	-0.005	Y:	0.012	Z:	0.050	yaw:	-2.492	yaw rate:	-1.770	Roll:	-0.184	Pitch:	0.389	Yaw:	-5.552	Thrust:	100.000
Time:	4.000	Roll Set Point:	0.011	Pitch Set Point:	-0.023	Yaw Set Point:	0.043	X_WP:	0.000	Y_WP:	0.000	Y_WP:	0.500	X:	-0.005	Y:	0.012	Z:	0.050	yaw:	-2.475	yaw rate:	1.680	Roll:	-0.207	Pitch:	0.360	Yaw:	-4.720	Thrust:	100.000
Time:	4.011	Roll Set Point:	0.011	Pitch Set Point:	-0.023	Yaw Set Point:	0.043	X_WP:	0.000	Y_WP:	0.000	Y_WP:	0.500	X:	-0.005	Y:	0.012	Z:	0.050	yaw:	-2.467	yaw rate:	0.885	Roll:	-0.150	Pitch:	0.392	Yaw:	-4.900	Thrust:	100.000
Time:	4.022	Roll Set Point:	0.011	Pitch Set Point:	-0.023	Yaw Set Point:	0.044	X_WP:	0.000	Y_WP:	0.000	Y_WP:	0.500	X:	-0.005	Y:	0.012	Z:	0.050	yaw:	-2.497	yaw rate:	-3.070	Roll:	-0.221	Pitch:	0.383	Yaw:	-5.899	Thrust:	100.000
Time:	4.033	Roll Set Point:	0.011	Pitch Set Point:	-0.023	Yaw Set Point:	0.043	X_WP:	0.000	Y_WP:	0.000	Y_WP:	0.500	X:	-0.005	Y:	0.012	Z:	0.050	yaw:	-2.490	yaw rate:	0.696	Roll:	-0.155	Pitch:	0.385	Yaw:	-5.002	Thrust:	100.000
Time:	4.044	Roll Set Point:	0.011	Pitch Set Point:	-0.023	Yaw Set Point:	0.043	X_WP:	0.000	Y_WP:	0.000	Y_WP:	0.500	X:	-0.005	Y:	0.012	Z:	0.050	yaw:	-2.460	yaw rate:	3.035	Roll:	-0.175	Pitch:	0.396	Yaw:	-4.414	Thrust:	100.000
Time:	4.055	Roll Set Point:	0.011	Pitch Set Point:	-0.023	Yaw Set Point:	0.043	X_WP:	0.000	Y_WP:	0.000	Y_WP:	0.500	X:	-0.005	Y:	0.012	Z:	0.050	yaw:	-2.492	yaw rate:	-3.202	Roll:	-0.222	Pitch:	0.388	Yaw:	-5.949	Thrust:	100.000
Time:	4.066	Roll Set Point:	0.011	Pitch Set Point:	-0.023	Yaw Set Point:	0.043	X_WP:	0.000	Y_WP:	0.000	Y_WP:	0.500	X:	-0.005	Y:	0.012	Z:	0.050	yaw:	-2.485	yaw rate:	0.671	Roll:	-0.184	Pitch:	0.361	Yaw:	-5.026	Thrust:	100.000
Time:	4.077	Roll Set Point:	0.011	Pitch Set Point:	-0.023	Yaw Set Point:	0.043	X_WP:	0.000	Y_WP:	0.000	Y_WP:	0.500	X:	-0.005	Y:	0.012	Z:	0.050	yaw:	-2.476	yaw rate:	0.927	Roll:	-0.215	Pitch:	0.405	Yaw:	-4.971	Thrust:	100.000
Time:	4.088	Roll Set Point:	0.011	Pitch Set Point:	-0.023	Yaw Set Point:	0.043	X_WP:	0.000	Y_WP:	0.000	Y_WP:	0.500	X:	-0.005	Y:	0.012	Z:	0.050	yaw:	-2.482	yaw rate:	-0.628	Roll:	-0.169	Pitch:	0.391	Yaw:	-5.354	Thrust:	100.000
Time:	4.099	Roll Set Point:	0.011	Pitch Set Point:	-0.023	Yaw Set Point:	0.043	X_WP:	0.000	Y_WP:	0.000	Y_WP:	0.500	X:	-0.005	Y:	0.012	Z:	0.050	yaw:	-2.463	yaw rate:	1.880	Roll:	-0.196	Pitch:	0.380	Yaw:	-4.741	Thrust:	100.000
Time:	4.110	Roll Set Point:	0.011	Pitch Set Point:	-0.023	Yaw Set Point:	0.043	X_WP:	0.000	Y_WP:	0.000	Y_WP:	0.500	X:	-0.005	Y:	0.012	Z:	0.050	yaw:	-2.484	yaw rate:	-2.070	Roll:	-0.186	Pitch:	0.378	Yaw:	-5.714	Thrust:	100.000
Time:	4.121	Roll Set Point:	0.011	Pitch Set Point:	-0.023	Yaw Set Point:	0.043	X_WP:	0.000	Y_WP:	0.000	Y_WP:	0.500	X:	-0.005	Y:	0.012	Z:	0.050	yaw:	-2.491	yaw rate:	-0.726	Roll:	-0.225	Pitch:	0.393	Yaw:	-5.420	Thrust:	100.000
Time:	4.132	Roll Set Point:	0.011	Pitch Set Point:	-0.023	Yaw Set Point:	0.043	X_WP:	0.000	Y_WP:	0.000	Y_WP:	0.500	X:	-0.005	Y:	0.012	Z:	0.050	yaw:	-2.484	yaw rate:	0.716	Roll:	-0.167	Pitch:	0.376	Yaw:	-5.078	Thrust:	100.000
Time:	4.143	Roll Set Point:	0.011	Pitch Set Point:	-0.023	Yaw Set Point:	0.044	X_WP:	0.000	Y_WP:	0.000	Y_WP:	0.500	X:	-0.005	Y:	0.012	Z:	0.050	yaw:	-2.498	yaw rate:	-1.332	Roll:	-0.181	Pitch:	0.396	Yaw:	-5.590	Thrust:	100.000
Time:	4.154	Roll Set Point:	0.011	Pitch Set Point:	-0.023	Yaw Set Point:	0.043	X_WP:	0.000	Y_WP:	0.000	Y_WP:	0.500	X:	-0.005	Y:	0.012	Z:	0.050	yaw:	-2.478	yaw rate:	1.969	Roll:	-0.156	Pitch:	0.367	Yaw:	-4.787	Thrust:	100.000
Time:	4.166	Roll Set Point:	0.011	Pitch Set Point:	-0.023	Yaw Set Point:	0.043	X_WP:	0.000	Y_WP:	0.000	Y_WP:	0.500	X:	-0.005	Y:	0.012	Z:	0.050	yaw:	-2.471	yaw rate:	0.644	Roll:	-0.210	Pitch:	0.406	Yaw:	-5.104	Thrust:	100.000
Time:	4.177	Roll Set Point:	0.011	Pitch Set Point:	-0.023	Yaw Set Point:	0.044	X_WP:	0.000	Y_WP:	0.000	Y_WP:	0.500	X:	-0.005	Y:	0.012	Z:	0.050	yaw:	-2.493	yaw rate:	-2.102	Roll:	-0.216	Pitch:	0.392	Yaw:	-5.794	Thrust:	100.000
Time:	4.188	Roll Set Point:	0.011	Pitch Set Point:	-0.023	Yaw Set Point:	0.043	X_WP:	0.000	Y_WP:	0.000	Y_WP:	0.500	X:	-0.005	Y:	0.012	Z:	0.050	yaw:	-2.469	yaw rate:	2.318	Roll:	-0.198	Pitch:	0.376	Yaw:	-4.722	Thrust:	100.000
Time:	4.199	Roll Set Point:	0.011	Pitch Set Point:	-0.023	Yaw Set Point:	0.043	X_WP:	0.000	Y_WP:	0.000	Y_WP:	0.500	X:	-0.005	Y:	0.012	Z:	0.050	yaw:	-2.481	yaw rate:	-1.135	Roll:	-0.169	Pitch:	0.413	Yaw:	-5.567	Thrust:	100.000
Time:	4.210	Roll Set Point:	0.011	Pitch Set Point:	-0.023	Yaw Set Point:	0.044	X_WP:	0.000	Y_WP:	0.000	Y_WP:	0.500	X:	-0.005	Y:	0.012	Z:	0.050	yaw:	-2.496	yaw rate:	-1.502	Roll:	-0.219	Pitch:	0.352	Yaw:	-5.683	Thrust:	100.000
Time:	4.221	Roll Set Point:	0.011	Pitch Set Point:	-0.023	Yaw Set Point:	0.043	X_WP:	0.000	Y_WP:	0.000	Y_WP:	0.500	X:	-0.005	Y:	0.012	Z:	0.050	yaw:	-2.469	yaw rate:	2.638	Roll:	-0.133	Pitch:	0.430	Yaw:	-4.676	Thrust:	100.000
Time:	4.234	Roll Set Point:	0.011	Pitch Set Point:	-0.023	Yaw Set Point:	0.043	X_WP:	0.000	Y_WP:	0.000	Y_WP:	0.500	X:	-0.005	Y:	0.012	Z:	0.050	yaw:	-2.479	yaw rate:	-0.993	Roll:	-0.244	Pitch:	0.374	Yaw:	-5.863	Thrust:	100.000
Time:	4.245	Roll Set Point:	0.011	Pitch Set Point:	-0.023	Yaw Set Point:	0.043	X_WP:	0.000	Y_WP:	0.000	Y_WP:	0.500	X:	-0.005	Y:	0.012	Z:	0.050	yaw:	-2.481	yaw rate:	-0.202	Roll:	-0.165	Pitch:	0.392	Yaw:	-5.385	Thrust:	100.000
Time:	4.256	Roll Set Point:	0.011	Pitch Set Point:	-0.023	Yaw Set Point:	0.043	X_WP:	0.000	Y_WP:	0.000	Y_WP:	0.500	X:	-0.005	Y:	0.012	Z:	0.050	yaw:	-2.462	yaw rate:	1.902	Roll:	-0.209	Pitch:	0.387	Yaw:	-4.867	Thrust:	100.000
Time:	4.267	Roll Set Point:	0.011	Pitch Set Point:	-0.023	Yaw Set Point:	0.043	X_WP:	0.000	Y_WP:	0.000	Y_WP:	0.500	X:	-0.005	Y:	0.012	Z:	0.050	yaw:	-2.463	yaw rate:	-0.026	Roll:	-0.204	Pitch:	0.403	Yaw:	-5.336	Thrust:	100.000
Time:	4.278	Roll Set Point:	0.011	Pitch Set Point:	-0.023	Yaw Set Point:	0.043	X_WP:	0.000	Y_WP:	0.000	Y_WP:	0.500	X:	-0.005	Y:	0.012	Z:	0.050	yaw:	-2.476	yaw rate:	-1.319	Roll:	-0.172	Pitch:	0.377	Yaw:	-5.670	Thrust:	100.000
Time:	4.289	Roll Set Point:	0.011	Pitch Set Point:	-0.023	Yaw Set Point:	0.043	X_WP:	0.000	Y_WP:	0.000	Y_WP:	0.500	X:	-0.005	Y:	0.012	Z:	0.050	yaw:	-2.478	yaw rate:	-0.216	Roll:	-0.215	Pitch:	0.383	Yaw:	-5.421	Thrust:	100.000
Time:	4.300	Roll Set Point:	0.011	Pitch Set Point:	-0.023	Yaw Set Point:	0.043	X_WP:	0.000	Y_WP:	0.000	Y_WP:	0.500	X:	-0.005	Y:	0.012	Z:	0.050	yaw:	-2.480	yaw rate:	-0.186	Roll:	-0.160	Pitch:	0.400	Yaw:	-5.427	Thrust:	100.000
Time:	4.311	Roll Set Point:	0.011	Pitch Set Point:	-0.023	Yaw Set Point:	0.043	X_WP:	0.000	Y_WP:	0.000	Y_WP:	0.500	X:	-0.005	Y:	0.012	Z:	0.050	yaw:	-2.451	yaw rate:	2.865	Roll:	-0.154	Pitch:	0.402	Yaw:	-4.671	Thrust:	100.000
Time:	4.322	Roll Set Point:	0.011	Pitch Set Point:	-0.023	Yaw Set Point:	0.043	X_WP:	0.000	Y_WP:	0.000	Y_WP:	0.500	X:	-0.005	Y:	0.012	Z:	0.050	yaw:	-2.485	yaw rate:	-3.371	Roll:	-0.251	Pitch:	0.375	Yaw:	-6.208	Thrust:	100.000
Time:	4.333	Roll Set Point:	0.011	Pitch Set Point:	-0.023	Yaw Set Point:	0.044	X_WP:	0.000	Y_WP:	0.000	Y_WP:	0.500	X:	-0.005	Y:	0.012	Z:	0.050	yaw:	-2.515	yaw rate:	-3.033	Roll:	-0.225	Pitch:	0.373	Yaw:	-6.180	Thrust:	100.000
Time:	4.344	Roll Set Point:	0.011	Pitch Set Point:	-0.023	Yaw Set Point:	0.043	X_WP:	0.000	Y_WP:	0.000	Y_WP:	0.500	X:	-0.005	Y:	0.012	Z:	0.050	yaw:	-2.485	yaw rate:	3.016	Roll:	-0.148	Pitch:	0.423	Yaw:	-4.712	Thrust:	100.000
Time:	4.356	Roll Set Point:	0.011	Pitch Set Point:	-0.023	Yaw Set Point:	0.043	X_WP:	0.000	Y_WP:	0.000	Y_WP:	0.500	X:	-0.005	Y:	0.012	Z:	0.050	yaw:	-2.488	yaw rate:	0.821	Roll:	-0.207	Pitch:	0.369	Yaw:	-5.606	Thrust:	100.000
Time:	4.367	Roll Set Point:	0.011	Pitch Set Point:	-0.023	Yaw Set Point:	0.043	X_WP:	0.000	Y_WP:	0.000	Y_WP:	0.500	X:	-0.005	Y:	0.012	Z:	0.050	yaw:	-2.488	yaw rate:	0.821	Roll:	-0.194	Pitch:	0.392	Yaw:	-5.451	Thrust:	100.000
Time:	4.378	Roll Set Point:	0.011	Pitch Set Point:	-0.023	Yaw Set Point:	0.043	X_WP:	0.000	Y_WP:	0.000	Y_WP:	0.500	X:	-0.005	Y:	0.012	Z:	0.050	yaw:	-2.483	yaw rate:	0.553	Roll:	-0.194	Pitch:	0.404	Yaw:	-5.322	Thrust:	100.000
Time:	4.389	Roll Set Point:	0.011	Pitch Set Point:	-0.023	Yaw Set Point:	0.043	X_WP:	0.000	Y_WP:	0.000	Y_WP:	0.500	X:	-0.005	Y:	0.012	Z:	0.050	yaw:	-2.481	yaw rate:	0.164	Roll:	-0.171	Pitch:	0.401	Yaw:	-5.423	Thrust:	100.000
Time:	4.401	Roll Set Point:	0.011	Pitch Set Point:	-0.023	Yaw Set Point:	0.043	X_WP:	0.000	Y_WP:	0.000	Y_WP:	0.500	X:	-0.005	Y:	0.012	Z:	0.050	yaw:	-2.462	yaw rate:	1.935	Roll:	-0.201	Pitch:	0.396	Yaw:	-5.225	Thrust:	100.000
Time:	4.412	Roll Set Point:	0.011	Pitch Set Point:	-0.023	Yaw Set Point:	0.044	X_WP:	0.000	Y_WP:	0.000	Y_WP:	0.500	X:	-0.005	Y:	0.012	Z:	0.050	yaw:	-2.496	yaw rate:	-3.408	Roll:	-0.191	Pitch:	0.396	Yaw:	-6.309	Thrust:	100.000
Time:	4.423	Roll Set Point:	0.011	Pitch Set Point:	-0.023	Yaw Set Point:	0.044	X_WP:	0.000	Y_WP:	0.000	Y_WP:	0.500	X:	-0.005	Y:	0.012	Z:	0.050	yaw:	-2.506	yaw rate:	-1.040	Roll:	-0.240	Pitch:	0.373	Yaw:	-5.771	Thrust:	100.000
Time:	4.434	Roll Set Point:	0.011	Pitch Set Point:	-0.023	Yaw Set Point:	0.044	X_WP:	0.000	Y_WP:	0.000	Y_WP:	0.500	X:	-0.005	Y:	0.012	Z:	0.050	yaw:	-2.500	yaw rate:	0.585	Roll:	-0.207	Pitch:	0.405	Yaw:	-5.386	Thrust:	100.000
Time:	4.445	Roll Set Point:	0.011	Pitch Set Point:	-0.023	Yaw Set Point:	0.043	X_WP:	0.000	Y_WP:	0.000	Y_WP:	0.500	X:	-0.005	Y:	0.012	Z:	0.050	yaw:	-2.465	yaw rate:	3.561	Roll:	-0.133	Pitch:	0.408	Yaw:	-4.640	Thrust:	100.000
Time:	4.456	Roll Set Point:	0.011	Pitch Set Point:	-0.023	Yaw Set Point:	0.043	X_WP:	0.000	Y_WP:	0.000	Y_WP:	0.500	X:	-0.005	Y:	0.012	Z:	0.050	yaw:	-2.480	yaw rate:	-1.531	Roll:	-0.211	Pitch:	0.393	Yaw:	-5.880	Thrust:	100.000
Time:	4.467	Roll Set Point:	0.011	Pitch Set Point:	-0.023	Yaw Set Point:	0.044	X_WP:	0.000	Y_WP:	0.000	Y_WP:	0.500	X:	-0.005	Y:	0.012	Z:	0.050	yaw:	-2.494	yaw rate:	-1.435	Roll:	-0.229	Pitch:	0.376	Yaw:	-5.886	Thrust:	100.000
Time:	4.478	Roll Set Point:	0.011	Pitch Set Point:	-0.023	Yaw Set Point:	0.044	X_WP:	0.000	Y_WP:	0.000	Y_WP:	0.500	X:	-0.005	Y:	0.012	Z:	0.050	yaw:	-2.496	yaw rate:	-0.133	Roll:	-0.149	Pitch:	0.399	Yaw:	-5.589	Thrust:	100.000
Time:	4.489	Roll Set Point:	0.011	Pitch Set Point:	-0.023	Yaw Set Point:	0.043	X_WP:	0.000	Y_WP:	0.000	Y_WP:	0.500	X:	-0.005	Y:	0.012	Z:	0.050	yaw:	-2.458	yaw rate:	3.728	Roll:	-0.225	Pitch:	0.413	Yaw:	-4.636	Thrust:	100.000
Time:	4.500	Roll Set Point:	0.011	Pitch Set Point:	-0.023	Yaw Set Point:	0.043	X_WP:	0.000	Y_WP:	0.000	Y_WP:	0.500	X:	-0.005	Y:	0.012	Z:	0.050	yaw:	-2.480	yaw rate:	-2.194	Roll:	-0.140	Pitch:	0.402	Yaw:	-6.072	Thrust:	100.000
Time:	4.511	Roll Set Point:	0.011	Pitch Set Point:	-0.023	Yaw Set Point:	0.043	X_WP:	0.000	Y_WP:	0.000	Y_WP:	0.500	X:	-0.005	Y:	0.012	Z:	0.050	yaw:	-2.489	yaw rate:	-0.879	Roll:	-0.273	Pitch:	0.363	Yaw:	-5.785	Thrust:	100.000
Time:	4.522	Roll Set Point:	0.011	Pitch Set Point:	-0.023	Yaw Set Point:	0.043	X_WP:	0.000	Y_WP:	0.000	Y_WP:	0.500	X:	-0.005	Y:	0.012	Z:	0.050	yaw:	-2.488	yaw rate:	0.143	Roll:	-0.194	Pitch:	0.420	Yaw:	-5.550	Thrust:	100.000
Time:	4.533	Roll Set Point:	0.011	Pitch Set Point:	-0.023	Yaw Set Point:	0.043	X_WP:	0.000	Y_WP:	0.000	Y_WP:	0.500	X:	-0.005	Y:	0.012	Z:	0.050	yaw:	-2.482	yaw rate:	0.509	Roll:	-0.152	Pitch:	0.400	Yaw:	-5.466	Thrust:	100.000
Time:	4.544	Roll Set Point:	0.011	Pitch Set Point:	-0.023	Yaw Set Point:	0.044	X_WP:	0.000	Y_WP:	0.000	Y_WP:	0.500	X:	-0.005	Y:	0.012	Z:	0.050	yaw:	-2.500	yaw rate:	-1.723	Roll:	-0.229	Pitch:	0.383	Yaw:	-6.029	Thrust:	100.000
Time:	4.555	Roll Set Point:	0.011	Pitch Set Point:	-0.023	Yaw Set Point:	0.043	X_WP:	0.000	Y_WP:	0.000	Y_WP:	0.500	X:	-0.005	Y:	0.012	Z:	0.050	yaw:	-2.490	yaw rate:	0.996	Roll:	-0.180	Pitch:	0.393	Yaw:	-5.384	Thrust:	100.000
Time:	4.566	Roll Set Point:	0.011	Pitch Set Point:	-0.023	Yaw Set Point:	0.044	X_WP:	0.000	Y_WP:	0.000	Y_WP:	0.500	X:	-0.005	Y:	0.012	Z:	0.050	yaw:	-2.517	yaw rate:	-2.744	Roll:	-0.210	Pitch:	0.394	Yaw:	-6.312	Thrust:	100.000
Time:	4.577	Roll Set Point:	0.011	Pitch Set Point:	-0.023	Yaw Set Point:	0.044	X_WP:	0.000	Y_WP:	0.000	Y_WP:	0.500	X:	-0.005	Y:	0.012	Z:	0.050	yaw:	-2.498	yaw rate:	1.921	Roll:	-0.203	Pitch:	0.395	Yaw:	-5.191	Thrust:	100.000
Time:	4.588	Roll Set Point:	0.011	Pitch Set Point:	-0.023	Yaw Set Point:	0.043	X_WP:	0.000	Y_WP:	0.000	Y_WP:	0.500	X:	-0.005	Y:	0.012	Z:	0.050	yaw:	-2.485	yaw rate:	1.318	Roll:	-0.154	Pitch:	0.409	Yaw:	-5.325	Thrust:	100.000
Time:	4.599	Roll Set Point:	0.011	Pitch Set Point:	-0.023	Yaw Set Point:	0.044	X_WP:	0.000	Y_WP:	0.000	Y_WP:	0.500	X:	-0.005	Y:	0.012	Z:	0.050	yaw:	-2.500	yaw rate:	-1.506	Roll:	-0.242	Pitch:	0.424	Yaw:	-6.026	Thrust:	100.000
Time:	4.610	Roll Set Point:	0.011	Pitch Set Point:	-0.023	Yaw Set Point:	0.043	X_WP:	0.000	Y_WP:	0.000	Y_WP:	0.500	X:	-0.005	Y:	0.012	Z:	0.050	yaw:	-2.474	yaw rate:	2.626	Roll:	-0.188	Pitch:	0.374	Yaw:	-5.018	Thrust:	100.000
Time:	4.621	Roll Set Point:	0.011	Pitch Set Point:	-0.023	Yaw Set Point:	0.043	X_WP:	0.000	Y_WP:	0.000	Y_WP:	0.500	X:	-0.005	Y:	0.012	Z:	0.050	yaw:	-2.488	yaw rate:	-1.440	Roll:	-0.167	Pitch:	0.398	Yaw:	-6.013	Thrust:	100.000
Time:	4.632	Roll Set Point:	0.011	Pitch Set Point:	-0.023	Yaw Set Point:	0.043	X_WP:	0.000	Y_WP:	0.000	Y_WP:	0.500	X:	-0.005	Y:	0.012	Z:	0.050	yaw:	-2.479	yaw rate:	0.894	Roll:	-0.224	Pitch:	0.406	Yaw:	-5.455	Thrust:	100.000
Time:	4.643	Roll Set Point:	0.011	Pitch Set Point:	-0.023	Yaw Set Point:	0.043	X_WP:	0.000	Y_WP:	0.000	Y_WP:	0.500	X:	-0.005	Y:	0.012	Z:	0.050	yaw:	-2.470	yaw rate:	0.878	Roll:	-0.197	Pitch:	0.420	Yaw:	-5.447	Thrust:	100.000
Time:	4.654	Roll Set Point:	0.011	Pitch Set Point:	-0.023	Yaw Set Point:	0.043	X_WP:	0.000	Y_WP:	0.000	Y_WP:	0.500	X:	-0.005	Y:	0.012	Z:	0.050	yaw:	-2.469	yaw rate:	0.100	Roll:	-0.160	Pitch:	0.375	Yaw:	-5.630	Thrust:	100.000
Time:	4.665	Roll Set Point:	0.011	Pitch Set Point:	-0.023	Yaw Set Point:	0.043	X_WP:	0.000	Y_WP:	0.000	Y_WP:	0.500	X:	-0.005	Y:	0.012	Z:	0.050	yaw:	-2.460	yaw rate:	0.930	Roll:	-0.191	Pitch:	0.414	Yaw:	-5.420	Thrust:	100.000
Time:	4.676	Roll Set Point:	0.011	Pitch Set Point:	-0.023	Yaw Set Point:	0.043	X_WP:	0.000	Y_WP:	0.000	Y_WP:	0.500	X:	-0.005	Y:	0.012	Z:	0.050	yaw:	-2.482	yaw rate:	-2.229	Roll:	-0.209	Pitch:	0.374	Yaw:	-6.201	Thrust:	100.000
Time:	4.688	Roll Set Point:	0.011	Pitch Set Point:	-0.023	Yaw Set Point:	0.043	X_WP:	0.000	Y_WP:	0.000	Y_WP:	0.500	X:	-0.005	Y:	0.012	Z:	0.050	yaw:	-2.492	yaw rate:	-0.948	Roll:	-0.201	Pitch:	0.415	Yaw:	-5.910	Thrust:	100.000
Time:	4.699	Roll Set Point:	0.011	Pitch Set Point:	-0.023	Yaw Set Point:	0.043	X_WP:	0.000	Y_WP:	0.000	Y_WP:	0.500	X:	-0.005	Y:	0.012	Z:	0.050	yaw:	-2.469	yaw rate:	2.260	Roll:	-0.191	Pitch:	0.409	Yaw:	-5.117	Thrust:	100.000
Time:	4.710	Roll Set Point:	0.011	Pitch Set Point:	-0.023	Yaw Set Point:	0.043	X_WP:	0.000	Y_WP:	0.000	Y_WP:	0.500	X:	-0.005	Y:	0.012	Z:	0.050	yaw:	-2.483	yaw rate:	-1.362	Roll:	-0.216	Pitch:	0.395	Yaw:	-5.996	Thrust:	100.000
Time:	4.721	Roll Set Point:	0.011	Pitch Set Point:	-0.023	Yaw Set Point:	0.043	X_WP:	0.000	Y_WP:	0.000	Y_WP:	0.500	X:	-0.005	Y:	0.012	Z:	0.050	yaw:	-2.484	yaw rate:	-0.123	Roll:	-0.197	Pitch:	0.396	Yaw:	-5.704	Thrust:	100.000
Time:	4.732	Roll Set Point:	0.011	Pitch Set Point:	-0.023	Yaw Set Point:	0.043	X_WP:	0.000	Y_WP:	0.000	Y_WP:	0.500	X:	-0.005	Y:	0.012	Z:	0.050	yaw:	-2.462	yaw rate:	2.224	Roll:	-0.205	Pitch:	0.419	Yaw:	-5.115	Thrust:	100.000
Time:	4.743	Roll Set Point:	0.011	Pitch Set Point:	-0.023	Yaw Set Point:	0.044	X_WP:	0.000	Y_WP:	0.000	Y_WP:	0.500	X:	-0.005	Y:	0.012	Z:	0.050	yaw:	-2.493	yaw rate:	-3.145	Roll:	-0.164	Pitch:	0.402	Yaw:	-6.434	Thrust:	100.000
Time:	4.754	Roll Set Point:	0.011	Pitch Set Point:	-0.023	Yaw Set Point:	0.043	X_WP:	0.000	Y_WP:	0.000	Y_WP:	0.500	X:	-0.005	Y:	0.012	Z:	0.050	yaw:	-2.486	yaw rate:	0.754	Roll:	-0.230	Pitch:	0.394	Yaw:	-5.534	Thrust:	100.000
Time:	4.765	Roll Set Point:	0.011	Pitch Set Point:	-0.023	Yaw Set Point:	0.043	X_WP:	0.000	Y_WP:	0.000	Y_WP:	0.500	X:	-0.005	Y:	0.012	Z:	0.050	yaw:	-2.484	yaw rate:	0.209	Roll:	-0.213	Pitch:	0.406	Yaw:	-5.621	Thrust:	100.000
Time:	4.776	Roll Set Point:	0.011	Pitch Set Point:	-0.023	Yaw Set Point:	0.043	X_WP:	0.000	Y_WP:	0.000	Y_WP:	0.500	X:	-0.005	Y:	0.012	Z:	0.050	yaw:	-2.465	yaw rate:	1.826	Roll:	-0.163	Pitch:	0.426	Yaw:	-5.215	Thrust:	100.000
Time:	4.787	Roll Set Point:	0.011	Pitch Set Point:	-0.023	Yaw Set Point:	0.044	X_WP:	0.000	Y_WP:	0.000	Y_WP:	0.500	X:	-0.005	Y:	0.012	Z:	0.050	yaw:	-2.497	yaw rate:	-3.116	Roll:	-0.223	Pitch:	0.391	Yaw:	-6.431	Thrust:	100.000
Time:	4.798	Roll Set Point:	0.011	Pitch Set Point:	-0.023	Yaw Set Point:	0.044	X_WP:	0.000	Y_WP:	0.000	Y_WP:	0.500	X:	-0.005	Y:	0.012	Z:	0.050	yaw:	-2.497	yaw rate:	-0.090	Roll:	-0.196	Pitch:	0.384	Yaw:	-5.715	Thrust:	100.000
Time:	4.809	Roll Set Point:	0.011	Pitch Set Point:	-0.023	Yaw Set Point:	0.043	X_WP:	0.000	Y_WP:	0.000	Y_WP:	0.500	X:	-0.005	Y:	0.012	Z:	0.050	yaw:	-2.479	yaw rate:	1.841	Roll:	-0.216	Pitch:	0.435	Yaw:	-5.223	Thrust:	100.000
Time:	4.820	Roll Set Point:	0.011	Pitch Set Point:	-0.023	Yaw Set Point:	0.043	X_WP:	0.000	Y_WP:	0.000	Y_WP:	0.500	X:	-0.005	Y:	0.012	Z:	0.050	yaw:	-2.474	yaw rate:	0.533	Roll:	-0.194	Pitch:	0.406	Yaw:	-5.539	Thrust:	100.000
Time:	4.831	Roll Set Point:	0.011	Pitch Set Point:	-0.023	Yaw Set Point:	0.043	X_WP:	0.000	Y_WP:	0.000	Y_WP:	0.500	X:	-0.005	Y:	0.012	Z:	0.050	yaw:	-2.489	yaw rate:	-1.494	Roll:	-0.171	Pitch:	0.400	Yaw:	-6.035	Thrust:	100.000
Time:	4.842	Roll Set Point:	0.011	Pitch Set Point:	-0.023	Yaw Set Point:	0.043	X_WP:	0.000	Y_WP:	0.000	Y_WP:	0.500	X:	-0.005	Y:	0.012	Z:	0.050	yaw:	-2.489	yaw rate:	-0.026	Roll:	-0.262	Pitch:	0.396	Yaw:	-5.687	Thrust:	100.000
Time:	4.853	Roll Set Point:	0.011	Pitch Set Point:	-0.023	Yaw Set Point:	0.044	X_WP:	0.000	Y_WP:	0.000	Y_WP:	0.500	X:	-0.005	Y:	0.012	Z:	0.050	yaw:	-2.499	yaw rate:	-0.980	Roll:	-0.159	Pitch:	0.420	Yaw:	-5.927	Thrust:	100.000
Time:	4.864	Roll Set Point:	0.011	Pitch Set Point:	-0.023	Yaw Set Point:	0.043	X_WP:	0.000	Y_WP:	0.000	Y_WP:	0.500	X:	-0.005	Y:	0.012	Z:	0.050	yaw:	-2.481	yaw rate:	1.764	Roll:	-0.236	Pitch:	0.368	Yaw:	-5.252	Thrust:	100.000
Time:	4.875	Roll Set Point:	0.011	Pitch Set Point:	-0.023	Yaw Set Point:	0.043	X_WP:	0.000	Y_WP:	0.000	Y_WP:	0.500	X:	-0.005	Y:	0.012	Z:	0.050	yaw:	-2.486	yaw rate:	-0.465	Roll:	-0.182	Pitch:	0.452	Yaw:	-5.786	Thrust:	100.000
Time:	4.886	Roll Set Point:	0.011	Pitch Set Point:	-0.023	Yaw Set Point:	0.043	X_WP:	0.000	Y_WP:	0.000	Y_WP:	0.500	X:	-0.005	Y:	0.012	Z:	0.050	yaw:	-2.464	yaw rate:	2.150	Roll:	-0.137	Pitch:	0.413	Yaw:	-5.137	Thrust:	100.000
Time:	4.897	Roll Set Point:	0.011	Pitch Set Point:	-0.023	Yaw Set Point:	0.044	X_WP:	0.000	Y_WP:	0.000	Y_WP:	0.500	X:	-0.005	Y:	0.012	Z:	0.050	yaw:	-2.530	yaw rate:	-6.600	Roll:	-0.321	Pitch:	0.347	Yaw:	-7.305	Thrust:	100.000
Time:	4.908	Roll Set Point:	0.011	Pitch Set Point:	-0.023	Yaw Set Point:	0.042	X_WP:	0.000	Y_WP:	0.000	Y_WP:	0.500	X:	-0.005	Y:	0.012	Z:	0.050	yaw:	-2.431	yaw rate:	9.905	Roll:	-0.089	Pitch:	0.449	Yaw:	-3.251	Thrust:	100.000
Time:	4.919	Roll Set Point:	0.011	Pitch Set Point:	-0.023	Yaw Set Point:	0.043	X_WP:	0.000	Y_WP:	0.000	Y_WP:	0.500	X:	-0.005	Y:	0.012	Z:	0.050	yaw:	-2.490	yaw rate:	-5.929	Roll:	-0.246	Pitch:	0.422	Yaw:	-7.090	Thrust:	100.000
Time:	4.930	Roll Set Point:	0.011	Pitch Set Point:	-0.023	Yaw Set Point:	0.043	X_WP:	0.000	Y_WP:	0.000	Y_WP:	0.500	X:	-0.005	Y:	0.012	Z:	0.050	yaw:	-2.492	yaw rate:	-0.179	Roll:	-0.233	Pitch:	0.372	Yaw:	-5.728	Thrust:	100.000
Time:	4.941	Roll Set Point:	0.011	Pitch Set Point:	-0.023	Yaw Set Point:	0.043	X_WP:	0.000	Y_WP:	0.000	Y_WP:	0.500	X:	-0.005	Y:	0.012	Z:	0.050	yaw:	-2.491	yaw rate:	0.115	Roll:	-0.172	Pitch:	0.425	Yaw:	-5.657	Thrust:	100.000
Time:	4.952	Roll Set Point:	0.011	Pitch Set Point:	-0.023	Yaw Set Point:	0.043	X_WP:	0.000	Y_WP:	0.000	Y_WP:	0.500	X:	-0.005	Y:	0.012	Z:	0.050	yaw:	-2.479	yaw rate:	1.193	Roll:	-0.179	Pitch:	0.407	Yaw:	-5.385	Thrust:	100.000
Time:	4.963	Roll Set Point:	0.011	Pitch Set Point:	-0.023	Yaw Set Point:	0.044	X_WP:	0.000	Y_WP:	0.000	Y_WP:	0.500	X:	-0.005	Y:	0.012	Z:	0.050	yaw:	-2.494	yaw rate:	-1.489	Roll:	-0.260	Pitch:	0.380	Yaw:	-6.040	Thrust:	100.000
Time:	4.974	Roll Set Point:	0.011	Pitch Set Point:	-0.023	Yaw Set Point:	0.043	X_WP:	0.000	Y_WP:	0.000	Y_WP:	0.500	X:	-0.005	Y:	0.012	Z:	0.050	yaw:	-2.484	yaw rate:	0.992	Roll:	-0.137	Pitch:	0.451	Yaw:	-5.434	Thrust:	100.000
Time:	4.985	Roll Set Point:	0.011	Pitch Set Point:	-0.023	Yaw Set Point:	0.043	X_WP:	0.000	Y_WP:	0.000	Y_WP:	0.500	X:	-0.005	Y:	0.012	Z:	0.050	yaw:	-2.487	yaw rate:	-0.274	Roll:	-0.260	Pitch:	0.389	Yaw:	-5.743	Thrust:	100.000
Time:	4.997	Roll Set Point:	0.011	Pitch Set Point:	-0.023	Yaw Set Point:	0.043	X_WP:	0.000	Y_WP:	0.000	Y_WP:	0.500	X:	-0.005	Y:	0.012	Z:	0.050	yaw:	-2.485	yaw rate:	0.152	Roll:	-0.189	Pitch:	0.404	Yaw:	-5.647	Thrust:	100.000
Time:	5.009	Roll Set Point:	0.011	Pitch Set Point:	-0.023	Yaw Set Point:	0.043	X_WP:	0.000	Y_WP:	0.000	Y_WP:	0.500	X:	-0.005	Y:	0.012	Z:	0.050	yaw:	-2.464	yaw rate:	2.131	Roll:	-0.179	Pitch:	0.424	Yaw:	-5.375	Thrust:	100.000
