Time:	2.078	Roll Set Point:	0.059	Pitch Set Point:	-0.192	Yaw Set Point:	0.511	X_WP:	0.000	Y_WP:	0.000	Y_WP:	0.500	X:	-0.005	Y:	0.104	Z:	0.045	yaw:	-29.268	yaw rate:	0.352	Roll:	-1.588	Pitch:	2.563	Yaw:	-40.866	Thrust:	25.009
Time:	2.094	Roll Set Point:	0.059	Pitch Set Point:	-0.192	Yaw Set Point:	0.511	X_WP:	0.000	Y_WP:	0.000	Y_WP:	0.500	X:	-0.005	Y:	0.104	Z:	0.045	yaw:	-29.260	yaw rate:	0.879	Roll:	-1.568	Pitch:	2.588	Yaw:	-40.866	Thrust:	25.795
Time:	2.110	Roll Set Point:	0.059	Pitch Set Point:	-0.192	Yaw Set Point:	0.511	X_WP:	0.000	Y_WP:	0.000	Y_WP:	0.500	X:	-0.005	Y:	0.104	Z:	0.045	yaw:	-29.260	yaw rate:	0.879	Roll:	-1.592	Pitch:	2.571	Yaw:	-41.173	Thrust:	26.713
Time:	2.125	Roll Set Point:	0.059	Pitch Set Point:	-0.192	Yaw Set Point:	0.511	X_WP:	0.000	Y_WP:	0.000	Y_WP:	0.500	X:	-0.005	Y:	0.104	Z:	0.045	yaw:	-29.278	yaw rate:	-1.649	Roll:	-1.637	Pitch:	2.517	Yaw:	-41.666	Thrust:	27.570
Time:	2.156	Roll Set Point:	0.059	Pitch Set Point:	-0.192	Yaw Set Point:	0.510	X_WP:	0.000	Y_WP:	0.000	Y_WP:	0.500	X:	-0.005	Y:	0.104	Z:	0.045	yaw:	-29.230	yaw rate:	4.533	Roll:	-1.551	Pitch:	2.625	Yaw:	-41.644	Thrust:	31.635
Time:	2.171	Roll Set Point:	0.059	Pitch Set Point:	-0.192	Yaw Set Point:	0.510	X_WP:	0.000	Y_WP:	0.000	Y_WP:	0.500	X:	-0.005	Y:	0.104	Z:	0.045	yaw:	-29.207	yaw rate:	2.288	Roll:	-1.545	Pitch:	2.619	Yaw:	-41.193	Thrust:	29.306
Time:	2.187	Roll Set Point:	0.059	Pitch Set Point:	-0.192	Yaw Set Point:	0.511	X_WP:	0.000	Y_WP:	0.000	Y_WP:	0.500	X:	-0.005	Y:	0.104	Z:	0.045	yaw:	-29.273	yaw rate:	-6.596	Roll:	-1.743	Pitch:	2.474	Yaw:	-42.935	Thrust:	30.142
Time:	2.203	Roll Set Point:	0.059	Pitch Set Point:	-0.192	Yaw Set Point:	0.510	X_WP:	0.000	Y_WP:	0.000	Y_WP:	0.500	X:	-0.005	Y:	0.104	Z:	0.045	yaw:	-29.207	yaw rate:	6.534	Roll:	-1.498	Pitch:	2.703	Yaw:	-40.804	Thrust:	30.906
Time:	2.218	Roll Set Point:	0.059	Pitch Set Point:	-0.192	Yaw Set Point:	0.511	X_WP:	0.000	Y_WP:	0.000	Y_WP:	0.500	X:	-0.005	Y:	0.104	Z:	0.045	yaw:	-29.278	yaw rate:	-7.062	Roll:	-1.693	Pitch:	2.498	Yaw:	-43.339	Thrust:	31.777
Time:	2.234	Roll Set Point:	0.059	Pitch Set Point:	-0.192	Yaw Set Point:	0.510	X_WP:	0.000	Y_WP:	0.000	Y_WP:	0.500	X:	-0.005	Y:	0.104	Z:	0.045	yaw:	-29.249	yaw rate:	2.925	Roll:	-1.597	Pitch:	2.601	Yaw:	-41.785	Thrust:	32.880
Time:	2.250	Roll Set Point:	0.059	Pitch Set Point:	-0.192	Yaw Set Point:	0.510	X_WP:	0.000	Y_WP:	0.000	Y_WP:	0.500	X:	-0.005	Y:	0.104	Z:	0.045	yaw:	-29.249	yaw rate:	2.925	Roll:	-1.609	Pitch:	2.597	Yaw:	-42.434	Thrust:	33.535
Time:	2.265	Roll Set Point:	0.059	Pitch Set Point:	-0.192	Yaw Set Point:	0.511	X_WP:	0.000	Y_WP:	0.000	Y_WP:	0.500	X:	-0.005	Y:	0.104	Z:	0.045	yaw:	-29.259	yaw rate:	-2.221	Roll:	-1.628	Pitch:	2.622	Yaw:	-42.774	Thrust:	34.236
Time:	2.281	Roll Set Point:	0.059	Pitch Set Point:	-0.192	Yaw Set Point:	0.511	X_WP:	0.000	Y_WP:	0.000	Y_WP:	0.500	X:	-0.005	Y:	0.104	Z:	0.045	yaw:	-29.262	yaw rate:	-0.306	Roll:	-1.576	Pitch:	2.601	Yaw:	-42.823	Thrust:	35.330
Time:	2.296	Roll Set Point:	0.059	Pitch Set Point:	-0.192	Yaw Set Point:	0.511	X_WP:	0.000	Y_WP:	0.000	Y_WP:	0.500	X:	-0.005	Y:	0.104	Z:	0.045	yaw:	-29.262	yaw rate:	-0.306	Roll:	-1.615	Pitch:	2.608	Yaw:	-42.936	Thrust:	36.115
Time:	2.312	Roll Set Point:	0.059	Pitch Set Point:	-0.192	Yaw Set Point:	0.511	X_WP:	0.000	Y_WP:	0.000	Y_WP:	0.500	X:	-0.005	Y:	0.104	Z:	0.045	yaw:	-29.270	yaw rate:	-1.010	Roll:	-1.636	Pitch:	2.564	Yaw:	-43.230	Thrust:	36.700
Time:	2.328	Roll Set Point:	0.059	Pitch Set Point:	-0.192	Yaw Set Point:	0.510	X_WP:	0.000	Y_WP:	0.000	Y_WP:	0.500	X:	-0.005	Y:	0.104	Z:	0.045	yaw:	-29.237	yaw rate:	3.245	Roll:	-1.572	Pitch:	2.681	Yaw:	-42.673	Thrust:	37.879
Time:	2.343	Roll Set Point:	0.059	Pitch Set Point:	-0.192	Yaw Set Point:	0.510	X_WP:	0.000	Y_WP:	0.000	Y_WP:	0.500	X:	-0.005	Y:	0.104	Z:	0.045	yaw:	-29.225	yaw rate:	1.222	Roll:	-1.604	Pitch:	2.669	Yaw:	-43.154	Thrust:	38.662
Time:	2.359	Roll Set Point:	0.059	Pitch Set Point:	-0.192	Yaw Set Point:	0.511	X_WP:	0.000	Y_WP:	0.000	Y_WP:	0.500	X:	-0.005	Y:	0.104	Z:	0.045	yaw:	-29.254	yaw rate:	-2.948	Roll:	-1.623	Pitch:	2.557	Yaw:	-44.054	Thrust:	39.576
Time:	2.375	Roll Set Point:	0.059	Pitch Set Point:	-0.192	Yaw Set Point:	0.511	X_WP:	0.000	Y_WP:	0.000	Y_WP:	0.500	X:	-0.005	Y:	0.104	Z:	0.045	yaw:	-29.256	yaw rate:	-0.142	Roll:	-1.633	Pitch:	2.597	Yaw:	-43.745	Thrust:	40.438
Time:	2.390	Roll Set Point:	0.059	Pitch Set Point:	-0.192	Yaw Set Point:	0.511	X_WP:	0.000	Y_WP:	0.000	Y_WP:	0.500	X:	-0.005	Y:	0.104	Z:	0.045	yaw:	-29.260	yaw rate:	-0.458	Roll:	-1.706	Pitch:	2.662	Yaw:	-43.968	Thrust:	40.998
Time:	2.406	Roll Set Point:	0.059	Pitch Set Point:	-0.192	Yaw Set Point:	0.511	X_WP:	0.000	Y_WP:	0.000	Y_WP:	0.500	X:	-0.005	Y:	0.104	Z:	0.045	yaw:	-29.276	yaw rate:	-1.552	Roll:	-1.678	Pitch:	2.635	Yaw:	-44.258	Thrust:	42.124
Time:	2.421	Roll Set Point:	0.059	Pitch Set Point:	-0.192	Yaw Set Point:	0.511	X_WP:	0.000	Y_WP:	0.000	Y_WP:	0.500	X:	-0.005	Y:	0.104	Z:	0.045	yaw:	-29.252	yaw rate:	2.408	Roll:	-1.532	Pitch:	2.627	Yaw:	-43.565	Thrust:	43.089
Time:	2.437	Roll Set Point:	0.059	Pitch Set Point:	-0.192	Yaw Set Point:	0.510	X_WP:	0.000	Y_WP:	0.000	Y_WP:	0.500	X:	-0.005	Y:	0.104	Z:	0.045	yaw:	-29.245	yaw rate:	0.707	Roll:	-1.606	Pitch:	2.651	Yaw:	-43.840	Thrust:	43.712
Time:	2.453	Roll Set Point:	0.059	Pitch Set Point:	-0.192	Yaw Set Point:	0.511	X_WP:	0.000	Y_WP:	0.000	Y_WP:	0.500	X:	-0.005	Y:	0.104	Z:	0.045	yaw:	-29.287	yaw rate:	-4.245	Roll:	-1.688	Pitch:	2.592	Yaw:	-44.729	Thrust:	44.474
Time:	2.468	Roll Set Point:	0.059	Pitch Set Point:	-0.192	Yaw Set Point:	0.511	X_WP:	0.000	Y_WP:	0.000	Y_WP:	0.500	X:	-0.005	Y:	0.104	Z:	0.045	yaw:	-29.274	yaw rate:	1.363	Roll:	-1.697	Pitch:	2.674	Yaw:	-43.771	Thrust:	45.642
Time:	2.484	Roll Set Point:	0.059	Pitch Set Point:	-0.192	Yaw Set Point:	0.511	X_WP:	0.000	Y_WP:	0.000	Y_WP:	0.500	X:	-0.005	Y:	0.104	Z:	0.045	yaw:	-29.263	yaw rate:	1.105	Roll:	-1.562	Pitch:	2.641	Yaw:	-43.798	Thrust:	46.096
Time:	2.505	Roll Set Point:	0.059	Pitch Set Point:	-0.192	Yaw Set Point:	0.511	X_WP:	0.000	Y_WP:	0.000	Y_WP:	0.500	X:	-0.005	Y:	0.104	Z:	0.045	yaw:	-29.278	yaw rate:	-1.578	Roll:	-1.712	Pitch:	2.671	Yaw:	-45.305	Thrust:	55.181
Time:	2.521	Roll Set Point:	0.059	Pitch Set Point:	-0.192	Yaw Set Point:	0.511	X_WP:	0.000	Y_WP:	0.000	Y_WP:	0.500	X:	-0.005	Y:	0.104	Z:	0.045	yaw:	-29.262	yaw rate:	1.608	Roll:	-1.613	Pitch:	2.672	Yaw:	-43.715	Thrust:	47.747
Time:	2.536	Roll Set Point:	0.059	Pitch Set Point:	-0.192	Yaw Set Point:	0.511	X_WP:	0.000	Y_WP:	0.000	Y_WP:	0.500	X:	-0.005	Y:	0.104	Z:	0.045	yaw:	-29.262	yaw rate:	1.608	Roll:	-1.648	Pitch:	2.659	Yaw:	-43.983	Thrust:	48.875
Time:	2.552	Roll Set Point:	0.059	Pitch Set Point:	-0.192	Yaw Set Point:	0.511	X_WP:	0.000	Y_WP:	0.000	Y_WP:	0.500	X:	-0.005	Y:	0.104	Z:	0.045	yaw:	-29.274	yaw rate:	-3.983	Roll:	-1.658	Pitch:	2.657	Yaw:	-44.188	Thrust:	49.823
Time:	2.568	Roll Set Point:	0.059	Pitch Set Point:	-0.192	Yaw Set Point:	0.511	X_WP:	0.000	Y_WP:	0.000	Y_WP:	0.500	X:	-0.005	Y:	0.104	Z:	0.045	yaw:	-29.274	yaw rate:	-3.983	Roll:	-1.652	Pitch:	2.666	Yaw:	-43.999	Thrust:	50.586
Time:	2.583	Roll Set Point:	0.059	Pitch Set Point:	-0.192	Yaw Set Point:	0.510	X_WP:	0.000	Y_WP:	0.000	Y_WP:	0.500	X:	-0.005	Y:	0.104	Z:	0.045	yaw:	-29.248	yaw rate:	1.439	Roll:	-1.625	Pitch:	2.689	Yaw:	-43.545	Thrust:	51.550
Time:	2.599	Roll Set Point:	0.059	Pitch Set Point:	-0.192	Yaw Set Point:	0.511	X_WP:	0.000	Y_WP:	0.000	Y_WP:	0.500	X:	-0.005	Y:	0.104	Z:	0.045	yaw:	-29.272	yaw rate:	-2.348	Roll:	-1.691	Pitch:	2.683	Yaw:	-44.389	Thrust:	52.271
Time:	2.614	Roll Set Point:	0.059	Pitch Set Point:	-0.192	Yaw Set Point:	0.511	X_WP:	0.000	Y_WP:	0.000	Y_WP:	0.500	X:	-0.005	Y:	0.104	Z:	0.045	yaw:	-29.265	yaw rate:	0.633	Roll:	-1.642	Pitch:	2.665	Yaw:	-43.878	Thrust:	53.222
Time:	2.630	Roll Set Point:	0.059	Pitch Set Point:	-0.192	Yaw Set Point:	0.511	X_WP:	0.000	Y_WP:	0.000	Y_WP:	0.500	X:	-0.005	Y:	0.104	Z:	0.045	yaw:	-29.255	yaw rate:	1.073	Roll:	-1.587	Pitch:	2.699	Yaw:	-43.792	Thrust:	53.909
Time:	2.646	Roll Set Point:	0.059	Pitch Set Point:	-0.192	Yaw Set Point:	0.510	X_WP:	0.000	Y_WP:	0.000	Y_WP:	0.500	X:	-0.004	Y:	0.104	Z:	0.045	yaw:	-29.237	yaw rate:	1.741	Roll:	-1.625	Pitch:	2.716	Yaw:	-43.657	Thrust:	54.903
Time:	2.661	Roll Set Point:	0.059	Pitch Set Point:	-0.192	Yaw Set Point:	0.512	X_WP:	0.000	Y_WP:	0.000	Y_WP:	0.500	X:	-0.005	Y:	0.104	Z:	0.045	yaw:	-29.324	yaw rate:	-8.678	Roll:	-1.840	Pitch:	2.567	Yaw:	-45.523	Thrust:	55.471
Time:	2.677	Roll Set Point:	0.059	Pitch Set Point:	-0.192	Yaw Set Point:	0.510	X_WP:	0.000	Y_WP:	0.000	Y_WP:	0.500	X:	-0.005	Y:	0.104	Z:	0.045	yaw:	-29.219	yaw rate:	10.495	Roll:	-1.497	Pitch:	2.851	Yaw:	-42.164	Thrust:	56.732
Time:	2.693	Roll Set Point:	0.059	Pitch Set Point:	-0.192	Yaw Set Point:	0.510	X_WP:	0.000	Y_WP:	0.000	Y_WP:	0.500	X:	-0.005	Y:	0.104	Z:	0.045	yaw:	-29.247	yaw rate:	-2.784	Roll:	-1.687	Pitch:	2.647	Yaw:	-44.429	Thrust:	57.390
Time:	2.708	Roll Set Point:	0.059	Pitch Set Point:	-0.192	Yaw Set Point:	0.510	X_WP:	0.000	Y_WP:	0.000	Y_WP:	0.500	X:	-0.005	Y:	0.104	Z:	0.045	yaw:	-29.247	yaw rate:	-2.784	Roll:	-1.669	Pitch:	2.699	Yaw:	-43.961	Thrust:	58.254
Time:	2.724	Roll Set Point:	0.059	Pitch Set Point:	-0.192	Yaw Set Point:	0.511	X_WP:	0.000	Y_WP:	0.000	Y_WP:	0.500	X:	-0.005	Y:	0.104	Z:	0.045	yaw:	-29.261	yaw rate:	-1.392	Roll:	-1.762	Pitch:	2.642	Yaw:	-44.214	Thrust:	59.107
Time:	2.739	Roll Set Point:	0.059	Pitch Set Point:	-0.192	Yaw Set Point:	0.511	X_WP:	0.000	Y_WP:	0.000	Y_WP:	0.500	X:	-0.005	Y:	0.104	Z:	0.045	yaw:	-29.261	yaw rate:	-1.392	Roll:	-1.676	Pitch:	2.704	Yaw:	-43.981	Thrust:	59.965
Time:	2.755	Roll Set Point:	0.059	Pitch Set Point:	-0.192	Yaw Set Point:	0.511	X_WP:	0.000	Y_WP:	0.000	Y_WP:	0.500	X:	-0.005	Y:	0.104	Z:	0.045	yaw:	-29.258	yaw rate:	0.315	Roll:	-1.696	Pitch:	2.753	Yaw:	-43.924	Thrust:	60.945
Time:	2.771	Roll Set Point:	0.059	Pitch Set Point:	-0.192	Yaw Set Point:	0.511	X_WP:	0.000	Y_WP:	0.000	Y_WP:	0.500	X:	-0.005	Y:	0.104	Z:	0.045	yaw:	-29.279	yaw rate:	-2.179	Roll:	-1.662	Pitch:	2.651	Yaw:	-44.372	Thrust:	61.612
Time:	2.786	Roll Set Point:	0.059	Pitch Set Point:	-0.192	Yaw Set Point:	0.511	X_WP:	0.000	Y_WP:	0.000	Y_WP:	0.500	X:	-0.005	Y:	0.104	Z:	0.045	yaw:	-29.279	yaw rate:	-2.179	Roll:	-1.682	Pitch:	2.714	Yaw:	-44.007	Thrust:	62.522
Time:	2.802	Roll Set Point:	0.059	Pitch Set Point:	-0.192	Yaw Set Point:	0.511	X_WP:	0.000	Y_WP:	0.000	Y_WP:	0.500	X:	-0.005	Y:	0.104	Z:	0.045	yaw:	-29.263	yaw rate:	1.387	Roll:	-1.710	Pitch:	2.781	Yaw:	-43.715	Thrust:	63.255
Time:	2.818	Roll Set Point:	0.059	Pitch Set Point:	-0.192	Yaw Set Point:	0.511	X_WP:	0.000	Y_WP:	0.000	Y_WP:	0.500	X:	-0.005	Y:	0.104	Z:	0.045	yaw:	-29.268	yaw rate:	-0.459	Roll:	-1.678	Pitch:	2.716	Yaw:	-44.068	Thrust:	64.434
Time:	2.833	Roll Set Point:	0.059	Pitch Set Point:	-0.192	Yaw Set Point:	0.511	X_WP:	0.000	Y_WP:	0.000	Y_WP:	0.500	X:	-0.005	Y:	0.104	Z:	0.045	yaw:	-29.268	yaw rate:	-0.459	Roll:	-1.689	Pitch:	2.726	Yaw:	-43.991	Thrust:	65.081
Time:	2.849	Roll Set Point:	0.059	Pitch Set Point:	-0.192	Yaw Set Point:	0.511	X_WP:	0.000	Y_WP:	0.000	Y_WP:	0.500	X:	-0.005	Y:	0.104	Z:	0.045	yaw:	-29.251	yaw rate:	1.739	Roll:	-1.576	Pitch:	2.704	Yaw:	-43.676	Thrust:	65.795
Time:	2.864	Roll Set Point:	0.059	Pitch Set Point:	-0.192	Yaw Set Point:	0.511	X_WP:	0.000	Y_WP:	0.000	Y_WP:	0.500	X:	-0.005	Y:	0.104	Z:	0.045	yaw:	-29.278	yaw rate:	-2.712	Roll:	-1.819	Pitch:	2.705	Yaw:	-44.459	Thrust:	66.738
Time:	2.880	Roll Set Point:	0.059	Pitch Set Point:	-0.192	Yaw Set Point:	0.510	X_WP:	0.000	Y_WP:	0.000	Y_WP:	0.500	X:	-0.005	Y:	0.104	Z:	0.045	yaw:	-29.232	yaw rate:	7.175	Roll:	-1.582	Pitch:	2.843	Yaw:	-43.183	Thrust:	67.805
Time:	2.896	Roll Set Point:	0.059	Pitch Set Point:	-0.192	Yaw Set Point:	0.511	X_WP:	0.000	Y_WP:	0.000	Y_WP:	0.500	X:	-0.005	Y:	0.104	Z:	0.045	yaw:	-29.264	yaw rate:	-3.132	Roll:	-1.747	Pitch:	2.682	Yaw:	-44.509	Thrust:	68.359
Time:	2.911	Roll Set Point:	0.059	Pitch Set Point:	-0.192	Yaw Set Point:	0.512	X_WP:	0.000	Y_WP:	0.000	Y_WP:	0.500	X:	-0.005	Y:	0.104	Z:	0.045	yaw:	-29.311	yaw rate:	-4.705	Roll:	-1.728	Pitch:	2.659	Yaw:	-44.839	Thrust:	69.299
Time:	2.927	Roll Set Point:	0.059	Pitch Set Point:	-0.192	Yaw Set Point:	0.511	X_WP:	0.000	Y_WP:	0.000	Y_WP:	0.500	X:	-0.005	Y:	0.104	Z:	0.045	yaw:	-29.276	yaw rate:	3.469	Roll:	-1.762	Pitch:	2.816	Yaw:	-43.421	Thrust:	70.164
Time:	2.943	Roll Set Point:	0.059	Pitch Set Point:	-0.192	Yaw Set Point:	0.511	X_WP:	0.000	Y_WP:	0.000	Y_WP:	0.500	X:	-0.005	Y:	0.104	Z:	0.045	yaw:	-29.256	yaw rate:	1.981	Roll:	-1.619	Pitch:	2.782	Yaw:	-43.643	Thrust:	71.146
Time:	2.958	Roll Set Point:	0.059	Pitch Set Point:	-0.192	Yaw Set Point:	0.510	X_WP:	0.000	Y_WP:	0.000	Y_WP:	0.500	X:	-0.005	Y:	0.104	Z:	0.045	yaw:	-29.240	yaw rate:	1.585	Roll:	-1.621	Pitch:	2.727	Yaw:	-43.687	Thrust:	72.008
Time:	2.974	Roll Set Point:	0.059	Pitch Set Point:	-0.192	Yaw Set Point:	0.510	X_WP:	0.000	Y_WP:	0.000	Y_WP:	0.500	X:	-0.004	Y:	0.104	Z:	0.045	yaw:	-29.247	yaw rate:	-0.682	Roll:	-1.677	Pitch:	2.756	Yaw:	-44.077	Thrust:	72.496
Time:	2.989	Roll Set Point:	0.059	Pitch Set Point:	-0.192	Yaw Set Point:	0.510	X_WP:	0.000	Y_WP:	0.000	Y_WP:	0.500	X:	-0.004	Y:	0.104	Z:	0.045	yaw:	-29.247	yaw rate:	-0.682	Roll:	-1.706	Pitch:	2.760	Yaw:	-43.962	Thrust:	73.598
Time:	3.005	Roll Set Point:	0.059	Pitch Set Point:	-0.192	Yaw Set Point:	0.511	X_WP:	0.000	Y_WP:	0.000	Y_WP:	0.500	X:	-0.005	Y:	0.104	Z:	0.045	yaw:	-29.268	yaw rate:	-2.110	Roll:	-1.871	Pitch:	2.781	Yaw:	-44.345	Thrust:	74.722
Time:	3.021	Roll Set Point:	0.059	Pitch Set Point:	-0.192	Yaw Set Point:	0.511	X_WP:	0.000	Y_WP:	0.000	Y_WP:	0.500	X:	-0.005	Y:	0.104	Z:	0.045	yaw:	-29.268	yaw rate:	-2.110	Roll:	-1.715	Pitch:	2.768	Yaw:	-43.992	Thrust:	75.317
Time:	3.036	Roll Set Point:	0.059	Pitch Set Point:	-0.192	Yaw Set Point:	0.512	X_WP:	0.000	Y_WP:	0.000	Y_WP:	0.500	X:	-0.004	Y:	0.104	Z:	0.045	yaw:	-29.322	yaw rate:	-3.680	Roll:	-1.700	Pitch:	2.665	Yaw:	-44.970	Thrust:	75.958
Time:	3.052	Roll Set Point:	0.059	Pitch Set Point:	-0.192	Yaw Set Point:	0.512	X_WP:	0.000	Y_WP:	0.000	Y_WP:	0.500	X:	-0.004	Y:	0.104	Z:	0.045	yaw:	-29.322	yaw rate:	-3.680	Roll:	-1.719	Pitch:	2.772	Yaw:	-44.067	Thrust:	77.016
Time:	3.068	Roll Set Point:	0.059	Pitch Set Point:	-0.192	Yaw Set Point:	0.510	X_WP:	0.000	Y_WP:	0.000	Y_WP:	0.500	X:	-0.005	Y:	0.104	Z:	0.045	yaw:	-29.239	yaw rate:	0.364	Roll:	-1.662	Pitch:	2.892	Yaw:	-42.553	Thrust:	77.885
Time:	3.083	Roll Set Point:	0.059	Pitch Set Point:	-0.192	Yaw Set Point:	0.510	X_WP:	0.000	Y_WP:	0.000	Y_WP:	0.500	X:	-0.005	Y:	0.104	Z:	0.045	yaw:	-29.240	yaw rate:	-0.112	Roll:	-1.725	Pitch:	2.774	Yaw:	-43.971	Thrust:	78.968
Time:	3.099	Roll Set Point:	0.059	Pitch Set Point:	-0.192	Yaw Set Point:	0.511	X_WP:	0.000	Y_WP:	0.000	Y_WP:	0.500	X:	-0.005	Y:	0.104	Z:	0.045	yaw:	-29.288	yaw rate:	-4.855	Roll:	-1.765	Pitch:	2.714	Yaw:	-44.833	Thrust:	79.262
Time:	3.115	Roll Set Point:	0.059	Pitch Set Point:	-0.192	Yaw Set Point:	0.510	X_WP:	0.000	Y_WP:	0.000	Y_WP:	0.500	X:	-0.005	Y:	0.104	Z:	0.045	yaw:	-29.237	yaw rate:	5.107	Roll:	-1.731	Pitch:	2.850	Yaw:	-43.093	Thrust:	80.526
Time:	3.130	Roll Set Point:	0.059	Pitch Set Point:	-0.192	Yaw Set Point:	0.511	X_WP:	0.000	Y_WP:	0.000	Y_WP:	0.500	X:	-0.005	Y:	0.104	Z:	0.045	yaw:	-29.268	yaw rate:	-3.040	Roll:	-1.721	Pitch:	2.768	Yaw:	-44.500	Thrust:	81.207
Time:	3.156	Roll Set Point:	0.059	Pitch Set Point:	-0.192	Yaw Set Point:	0.511	X_WP:	0.000	Y_WP:	0.000	Y_WP:	0.500	X:	-0.005	Y:	0.104	Z:	0.045	yaw:	-29.255	yaw rate:	1.285	Roll:	-1.816	Pitch:	2.953	Yaw:	-45.914	Thrust:	100.000
Time:	3.172	Roll Set Point:	0.059	Pitch Set Point:	-0.192	Yaw Set Point:	0.511	X_WP:	0.000	Y_WP:	0.000	Y_WP:	0.500	X:	-0.005	Y:	0.104	Z:	0.045	yaw:	-29.255	yaw rate:	1.285	Roll:	-1.733	Pitch:	2.798	Yaw:	-43.973	Thrust:	82.994
Time:	3.187	Roll Set Point:	0.059	Pitch Set Point:	-0.192	Yaw Set Point:	0.511	X_WP:	0.000	Y_WP:	0.000	Y_WP:	0.500	X:	-0.005	Y:	0.104	Z:	0.045	yaw:	-29.257	yaw rate:	2.013	Roll:	-1.742	Pitch:	2.826	Yaw:	-44.010	Thrust:	83.633
Time:	3.203	Roll Set Point:	0.059	Pitch Set Point:	-0.192	Yaw Set Point:	0.511	X_WP:	0.000	Y_WP:	0.000	Y_WP:	0.500	X:	-0.005	Y:	0.104	Z:	0.045	yaw:	-29.257	yaw rate:	2.013	Roll:	-1.737	Pitch:	2.806	Yaw:	-43.976	Thrust:	84.694
Time:	3.219	Roll Set Point:	0.059	Pitch Set Point:	-0.192	Yaw Set Point:	0.511	X_WP:	0.000	Y_WP:	0.000	Y_WP:	0.500	X:	-0.005	Y:	0.104	Z:	0.045	yaw:	-29.252	yaw rate:	0.479	Roll:	-1.771	Pitch:	2.778	Yaw:	-43.889	Thrust:	85.663
Time:	3.234	Roll Set Point:	0.059	Pitch Set Point:	-0.192	Yaw Set Point:	0.511	X_WP:	0.000	Y_WP:	0.000	Y_WP:	0.500	X:	-0.005	Y:	0.104	Z:	0.045	yaw:	-29.251	yaw rate:	0.162	Roll:	-1.681	Pitch:	2.834	Yaw:	-43.942	Thrust:	86.386
Time:	3.250	Roll Set Point:	0.059	Pitch Set Point:	-0.192	Yaw Set Point:	0.511	X_WP:	0.000	Y_WP:	0.000	Y_WP:	0.500	X:	-0.005	Y:	0.104	Z:	0.045	yaw:	-29.272	yaw rate:	-2.189	Roll:	-1.799	Pitch:	2.785	Yaw:	-44.362	Thrust:	87.147
Time:	3.265	Roll Set Point:	0.059	Pitch Set Point:	-0.192	Yaw Set Point:	0.511	X_WP:	0.000	Y_WP:	0.000	Y_WP:	0.500	X:	-0.005	Y:	0.104	Z:	0.045	yaw:	-29.249	yaw rate:	2.416	Roll:	-1.726	Pitch:	2.858	Yaw:	-43.581	Thrust:	88.096
Time:	3.281	Roll Set Point:	0.059	Pitch Set Point:	-0.192	Yaw Set Point:	0.511	X_WP:	0.000	Y_WP:	0.000	Y_WP:	0.500	X:	-0.005	Y:	0.104	Z:	0.045	yaw:	-29.275	yaw rate:	-2.500	Roll:	-1.744	Pitch:	2.774	Yaw:	-44.419	Thrust:	89.035
Time:	3.297	Roll Set Point:	0.059	Pitch Set Point:	-0.192	Yaw Set Point:	0.511	X_WP:	0.000	Y_WP:	0.000	Y_WP:	0.500	X:	-0.005	Y:	0.104	Z:	0.045	yaw:	-29.284	yaw rate:	-0.972	Roll:	-1.789	Pitch:	2.797	Yaw:	-44.177	Thrust:	89.804
Time:	3.312	Roll Set Point:	0.059	Pitch Set Point:	-0.192	Yaw Set Point:	0.511	X_WP:	0.000	Y_WP:	0.000	Y_WP:	0.500	X:	-0.005	Y:	0.104	Z:	0.045	yaw:	-29.250	yaw rate:	3.395	Roll:	-1.704	Pitch:	2.906	Yaw:	-43.397	Thrust:	90.501
Time:	3.328	Roll Set Point:	0.059	Pitch Set Point:	-0.192	Yaw Set Point:	0.510	X_WP:	0.000	Y_WP:	0.000	Y_WP:	0.500	X:	-0.005	Y:	0.104	Z:	0.045	yaw:	-29.242	yaw rate:	0.803	Roll:	-1.796	Pitch:	2.846	Yaw:	-43.821	Thrust:	91.531
Time:	3.344	Roll Set Point:	0.059	Pitch Set Point:	-0.192	Yaw Set Point:	0.510	X_WP:	0.000	Y_WP:	0.000	Y_WP:	0.500	X:	-0.005	Y:	0.104	Z:	0.045	yaw:	-29.242	yaw rate:	0.803	Roll:	-1.757	Pitch:	2.837	Yaw:	-43.955	Thrust:	92.357
Time:	3.359	Roll Set Point:	0.059	Pitch Set Point:	-0.192	Yaw Set Point:	0.511	X_WP:	0.000	Y_WP:	0.000	Y_WP:	0.500	X:	-0.005	Y:	0.104	Z:	0.045	yaw:	-29.279	yaw rate:	-0.932	Roll:	-1.737	Pitch:	2.786	Yaw:	-44.623	Thrust:	93.305
Time:	3.375	Roll Set Point:	0.059	Pitch Set Point:	-0.192	Yaw Set Point:	0.511	X_WP:	0.000	Y_WP:	0.000	Y_WP:	0.500	X:	-0.005	Y:	0.104	Z:	0.045	yaw:	-29.278	yaw rate:	0.074	Roll:	-1.771	Pitch:	2.854	Yaw:	-43.993	Thrust:	93.912
Time:	3.391	Roll Set Point:	0.059	Pitch Set Point:	-0.192	Yaw Set Point:	0.511	X_WP:	0.000	Y_WP:	0.000	Y_WP:	0.500	X:	-0.005	Y:	0.104	Z:	0.045	yaw:	-29.254	yaw rate:	2.450	Roll:	-1.750	Pitch:	2.861	Yaw:	-43.561	Thrust:	95.020
Time:	3.406	Roll Set Point:	0.059	Pitch Set Point:	-0.192	Yaw Set Point:	0.511	X_WP:	0.000	Y_WP:	0.000	Y_WP:	0.500	X:	-0.005	Y:	0.104	Z:	0.045	yaw:	-29.254	yaw rate:	2.450	Roll:	-1.765	Pitch:	2.850	Yaw:	-43.971	Thrust:	95.776
Time:	3.422	Roll Set Point:	0.059	Pitch Set Point:	-0.192	Yaw Set Point:	0.511	X_WP:	0.000	Y_WP:	0.000	Y_WP:	0.500	X:	-0.005	Y:	0.104	Z:	0.045	yaw:	-29.260	yaw rate:	-0.648	Roll:	-1.730	Pitch:	2.830	Yaw:	-44.080	Thrust:	96.626
Time:	3.437	Roll Set Point:	0.059	Pitch Set Point:	-0.192	Yaw Set Point:	0.511	X_WP:	0.000	Y_WP:	0.000	Y_WP:	0.500	X:	-0.005	Y:	0.104	Z:	0.045	yaw:	-29.254	yaw rate:	0.555	Roll:	-1.744	Pitch:	2.863	Yaw:	-43.879	Thrust:	97.505
Time:	3.453	Roll Set Point:	0.059	Pitch Set Point:	-0.192	Yaw Set Point:	0.511	X_WP:	0.000	Y_WP:	0.000	Y_WP:	0.500	X:	-0.005	Y:	0.104	Z:	0.045	yaw:	-29.285	yaw rate:	-3.113	Roll:	-1.895	Pitch:	2.852	Yaw:	-44.542	Thrust:	98.369
Time:	3.469	Roll Set Point:	0.059	Pitch Set Point:	-0.192	Yaw Set Point:	0.511	X_WP:	0.000	Y_WP:	0.000	Y_WP:	0.500	X:	-0.005	Y:	0.104	Z:	0.045	yaw:	-29.285	yaw rate:	-3.113	Roll:	-1.775	Pitch:	2.863	Yaw:	-44.010	Thrust:	99.044
Time:	3.484	Roll Set Point:	0.059	Pitch Set Point:	-0.192	Yaw Set Point:	0.510	X_WP:	0.000	Y_WP:	0.000	Y_WP:	0.500	X:	-0.005	Y:	0.104	Z:	0.045	yaw:	-29.249	yaw rate:	3.626	Roll:	-1.722	Pitch:	2.900	Yaw:	-43.357	Thrust:	100.000
Time:	3.500	Roll Set Point:	0.059	Pitch Set Point:	-0.192	Yaw Set Point:	0.511	X_WP:	0.000	Y_WP:	0.000	Y_WP:	0.500	X:	-0.005	Y:	0.104	Z:	0.045	yaw:	-29.256	yaw rate:	1.656	Roll:	-1.742	Pitch:	2.864	Yaw:	-44.096	Thrust:	100.000
Time:	3.516	Roll Set Point:	0.059	Pitch Set Point:	-0.192	Yaw Set Point:	0.511	X_WP:	0.000	Y_WP:	0.000	Y_WP:	0.500	X:	-0.005	Y:	0.104	Z:	0.045	yaw:	-29.256	yaw rate:	1.656	Roll:	-1.779	Pitch:	2.874	Yaw:	-43.975	Thrust:	100.000
Time:	3.531	Roll Set Point:	0.059	Pitch Set Point:	-0.192	Yaw Set Point:	0.511	X_WP:	0.000	Y_WP:	0.000	Y_WP:	0.500	X:	-0.005	Y:	0.104	Z:	0.045	yaw:	-29.254	yaw rate:	-0.998	Roll:	-1.745	Pitch:	2.879	Yaw:	-43.936	Thrust:	100.000
Time:	3.547	Roll Set Point:	0.059	Pitch Set Point:	-0.192	Yaw Set Point:	0.511	X_WP:	0.000	Y_WP:	0.000	Y_WP:	0.500	X:	-0.005	Y:	0.104	Z:	0.045	yaw:	-29.265	yaw rate:	-1.045	Roll:	-1.850	Pitch:	2.860	Yaw:	-44.162	Thrust:	100.000
Time:	3.562	Roll Set Point:	0.059	Pitch Set Point:	-0.192	Yaw Set Point:	0.511	X_WP:	0.000	Y_WP:	0.000	Y_WP:	0.500	X:	-0.005	Y:	0.104	Z:	0.045	yaw:	-29.270	yaw rate:	-0.499	Roll:	-1.758	Pitch:	2.867	Yaw:	-44.076	Thrust:	100.000
Time:	3.578	Roll Set Point:	0.059	Pitch Set Point:	-0.192	Yaw Set Point:	0.510	X_WP:	0.000	Y_WP:	0.000	Y_WP:	0.500	X:	-0.005	Y:	0.104	Z:	0.045	yaw:	-29.238	yaw rate:	3.156	Roll:	-1.808	Pitch:	2.982	Yaw:	-43.423	Thrust:	100.000
Time:	3.594	Roll Set Point:	0.059	Pitch Set Point:	-0.192	Yaw Set Point:	0.511	X_WP:	0.000	Y_WP:	0.000	Y_WP:	0.500	X:	-0.005	Y:	0.104	Z:	0.045	yaw:	-29.289	yaw rate:	-5.143	Roll:	-1.856	Pitch:	2.794	Yaw:	-44.883	Thrust:	100.000
Time:	3.609	Roll Set Point:	0.059	Pitch Set Point:	-0.192	Yaw Set Point:	0.511	X_WP:	0.000	Y_WP:	0.000	Y_WP:	0.500	X:	-0.005	Y:	0.104	Z:	0.045	yaw:	-29.293	yaw rate:	-0.370	Roll:	-1.793	Pitch:	2.883	Yaw:	-44.086	Thrust:	100.000
Time:	3.625	Roll Set Point:	0.059	Pitch Set Point:	-0.192	Yaw Set Point:	0.511	X_WP:	0.000	Y_WP:	0.000	Y_WP:	0.500	X:	-0.005	Y:	0.104	Z:	0.045	yaw:	-29.293	yaw rate:	-0.370	Roll:	-1.797	Pitch:	2.897	Yaw:	-44.026	Thrust:	100.000
Time:	3.641	Roll Set Point:	0.059	Pitch Set Point:	-0.192	Yaw Set Point:	0.511	X_WP:	0.000	Y_WP:	0.000	Y_WP:	0.500	X:	-0.005	Y:	0.104	Z:	0.045	yaw:	-29.286	yaw rate:	0.690	Roll:	-1.774	Pitch:	2.924	Yaw:	-43.901	Thrust:	100.000
Time:	3.656	Roll Set Point:	0.059	Pitch Set Point:	-0.192	Yaw Set Point:	0.511	X_WP:	0.000	Y_WP:	0.000	Y_WP:	0.500	X:	-0.005	Y:	0.104	Z:	0.045	yaw:	-29.286	yaw rate:	0.690	Roll:	-1.800	Pitch:	2.905	Yaw:	-44.017	Thrust:	100.000
Time:	3.672	Roll Set Point:	0.059	Pitch Set Point:	-0.192	Yaw Set Point:	0.510	X_WP:	0.000	Y_WP:	0.000	Y_WP:	0.500	X:	-0.005	Y:	0.104	Z:	0.045	yaw:	-29.209	yaw rate:	7.758	Roll:	-1.630	Pitch:	2.995	Yaw:	-42.609	Thrust:	100.000
Time:	3.687	Roll Set Point:	0.059	Pitch Set Point:	-0.192	Yaw Set Point:	0.510	X_WP:	0.000	Y_WP:	0.000	Y_WP:	0.500	X:	-0.005	Y:	0.104	Z:	0.045	yaw:	-29.209	yaw rate:	7.758	Roll:	-1.800	Pitch:	2.914	Yaw:	-43.909	Thrust:	100.000
Time:	3.703	Roll Set Point:	0.059	Pitch Set Point:	-0.192	Yaw Set Point:	0.511	X_WP:	0.000	Y_WP:	0.000	Y_WP:	0.500	X:	-0.005	Y:	0.104	Z:	0.045	yaw:	-29.269	yaw rate:	-6.077	Roll:	-1.953	Pitch:	2.829	Yaw:	-45.010	Thrust:	100.000
Time:	3.719	Roll Set Point:	0.059	Pitch Set Point:	-0.192	Yaw Set Point:	0.511	X_WP:	0.000	Y_WP:	0.000	Y_WP:	0.500	X:	-0.005	Y:	0.104	Z:	0.045	yaw:	-29.258	yaw rate:	1.193	Roll:	-1.766	Pitch:	2.954	Yaw:	-43.777	Thrust:	100.000
Time:	3.734	Roll Set Point:	0.059	Pitch Set Point:	-0.192	Yaw Set Point:	0.511	X_WP:	0.000	Y_WP:	0.000	Y_WP:	0.500	X:	-0.005	Y:	0.104	Z:	0.045	yaw:	-29.253	yaw rate:	0.433	Roll:	-1.808	Pitch:	2.921	Yaw:	-43.898	Thrust:	100.000
Time:	3.750	Roll Set Point:	0.059	Pitch Set Point:	-0.192	Yaw Set Point:	0.511	X_WP:	0.000	Y_WP:	0.000	Y_WP:	0.500	X:	-0.005	Y:	0.104	Z:	0.045	yaw:	-29.256	yaw rate:	-0.291	Roll:	-1.821	Pitch:	2.945	Yaw:	-44.023	Thrust:	100.000
Time:	3.766	Roll Set Point:	0.059	Pitch Set Point:	-0.192	Yaw Set Point:	0.511	X_WP:	0.000	Y_WP:	0.000	Y_WP:	0.500	X:	-0.005	Y:	0.104	Z:	0.045	yaw:	-29.256	yaw rate:	-0.291	Roll:	-1.814	Pitch:	2.930	Yaw:	-43.976	Thrust:	100.000
Time:	3.781	Roll Set Point:	0.059	Pitch Set Point:	-0.192	Yaw Set Point:	0.510	X_WP:	0.000	Y_WP:	0.000	Y_WP:	0.500	X:	-0.005	Y:	0.104	Z:	0.045	yaw:	-29.247	yaw rate:	0.936	Roll:	-1.867	Pitch:	2.922	Yaw:	-43.804	Thrust:	100.000
Time:	3.797	Roll Set Point:	0.059	Pitch Set Point:	-0.192	Yaw Set Point:	0.510	X_WP:	0.000	Y_WP:	0.000	Y_WP:	0.500	X:	-0.005	Y:	0.104	Z:	0.045	yaw:	-29.247	yaw rate:	0.936	Roll:	-1.819	Pitch:	2.937	Yaw:	-43.960	Thrust:	100.000
Time:	3.812	Roll Set Point:	0.059	Pitch Set Point:	-0.192	Yaw Set Point:	0.511	X_WP:	0.000	Y_WP:	0.000	Y_WP:	0.500	X:	-0.005	Y:	0.104	Z:	0.045	yaw:	-29.287	yaw rate:	-4.037	Roll:	-1.827	Pitch:	2.903	Yaw:	-44.694	Thrust:	100.000
Time:	3.828	Roll Set Point:	0.059	Pitch Set Point:	-0.192	Yaw Set Point:	0.511	X_WP:	0.000	Y_WP:	0.000	Y_WP:	0.500	X:	-0.005	Y:	0.104	Z:	0.045	yaw:	-29.287	yaw rate:	-4.037	Roll:	-1.824	Pitch:	2.943	Yaw:	-44.018	Thrust:	100.000
Time:	3.844	Roll Set Point:	0.059	Pitch Set Point:	-0.192	Yaw Set Point:	0.510	X_WP:	0.000	Y_WP:	0.000	Y_WP:	0.500	X:	-0.005	Y:	0.104	Z:	0.045	yaw:	-29.247	yaw rate:	4.010	Roll:	-1.736	Pitch:	2.980	Yaw:	-43.290	Thrust:	100.000
Time:	3.859	Roll Set Point:	0.059	Pitch Set Point:	-0.192	Yaw Set Point:	0.511	X_WP:	0.000	Y_WP:	0.000	Y_WP:	0.500	X:	-0.005	Y:	0.104	Z:	0.045	yaw:	-29.267	yaw rate:	-2.033	Roll:	-1.905	Pitch:	2.943	Yaw:	-44.331	Thrust:	100.000
Time:	3.875	Roll Set Point:	0.059	Pitch Set Point:	-0.192	Yaw Set Point:	0.511	X_WP:	0.000	Y_WP:	0.000	Y_WP:	0.500	X:	-0.005	Y:	0.104	Z:	0.045	yaw:	-29.286	yaw rate:	-1.817	Roll:	-1.827	Pitch:	2.922	Yaw:	-44.321	Thrust:	100.000
Time:	3.891	Roll Set Point:	0.059	Pitch Set Point:	-0.192	Yaw Set Point:	0.511	X_WP:	0.000	Y_WP:	0.000	Y_WP:	0.500	X:	-0.005	Y:	0.104	Z:	0.045	yaw:	-29.286	yaw rate:	-0.012	Roll:	-1.798	Pitch:	2.926	Yaw:	-44.017	Thrust:	100.000
Time:	3.906	Roll Set Point:	0.059	Pitch Set Point:	-0.192	Yaw Set Point:	0.511	X_WP:	0.000	Y_WP:	0.000	Y_WP:	0.500	X:	-0.005	Y:	0.104	Z:	0.045	yaw:	-29.286	yaw rate:	-0.012	Roll:	-1.833	Pitch:	2.959	Yaw:	-44.016	Thrust:	100.000
Time:	3.922	Roll Set Point:	0.059	Pitch Set Point:	-0.192	Yaw Set Point:	0.510	X_WP:	0.000	Y_WP:	0.000	Y_WP:	0.500	X:	-0.005	Y:	0.104	Z:	0.045	yaw:	-29.246	yaw rate:	3.918	Roll:	-1.858	Pitch:	3.046	Yaw:	-43.305	Thrust:	100.000
Time:	3.937	Roll Set Point:	0.059	Pitch Set Point:	-0.192	Yaw Set Point:	0.510	X_WP:	0.000	Y_WP:	0.000	Y_WP:	0.500	X:	-0.005	Y:	0.104	Z:	0.045	yaw:	-29.246	yaw rate:	3.918	Roll:	-1.838	Pitch:	2.968	Yaw:	-43.961	Thrust:	100.000
Time:	3.953	Roll Set Point:	0.059	Pitch Set Point:	-0.192	Yaw Set Point:	0.511	X_WP:	0.000	Y_WP:	0.000	Y_WP:	0.500	X:	-0.005	Y:	0.104	Z:	0.045	yaw:	-29.269	yaw rate:	-2.218	Roll:	-1.785	Pitch:	2.927	Yaw:	-44.364	Thrust:	100.000
Time:	3.969	Roll Set Point:	0.059	Pitch Set Point:	-0.192	Yaw Set Point:	0.511	X_WP:	0.000	Y_WP:	0.000	Y_WP:	0.500	X:	-0.005	Y:	0.104	Z:	0.045	yaw:	-29.269	yaw rate:	-2.218	Roll:	-1.841	Pitch:	2.974	Yaw:	-43.992	Thrust:	100.000
Time:	3.984	Roll Set Point:	0.059	Pitch Set Point:	-0.192	Yaw Set Point:	0.510	X_WP:	0.000	Y_WP:	0.000	Y_WP:	0.500	X:	-0.005	Y:	0.104	Z:	0.045	yaw:	-29.226	yaw rate:	4.226	Roll:	-1.831	Pitch:	3.033	Yaw:	-43.225	Thrust:	100.000
Time:	4.000	Roll Set Point:	0.059	Pitch Set Point:	-0.192	Yaw Set Point:	0.511	X_WP:	0.000	Y_WP:	0.000	Y_WP:	0.500	X:	-0.005	Y:	0.104	Z:	0.045	yaw:	-29.274	yaw rate:	-4.719	Roll:	-1.882	Pitch:	2.907	Yaw:	-44.790	Thrust:	100.000
Time:	4.016	Roll Set Point:	0.059	Pitch Set Point:	-0.192	Yaw Set Point:	0.511	X_WP:	0.000	Y_WP:	0.000	Y_WP:	0.500	X:	-0.005	Y:	0.104	Z:	0.045	yaw:	-29.274	yaw rate:	-4.719	Roll:	-1.848	Pitch:	2.984	Yaw:	-43.999	Thrust:	100.000
Time:	4.031	Roll Set Point:	0.059	Pitch Set Point:	-0.192	Yaw Set Point:	0.511	X_WP:	0.000	Y_WP:	0.000	Y_WP:	0.500	X:	-0.005	Y:	0.104	Z:	0.045	yaw:	-29.260	yaw rate:	1.323	Roll:	-1.854	Pitch:	3.026	Yaw:	-43.759	Thrust:	100.000
Time:	4.047	Roll Set Point:	0.059	Pitch Set Point:	-0.192	Yaw Set Point:	0.510	X_WP:	0.000	Y_WP:	0.000	Y_WP:	0.500	X:	-0.005	Y:	0.104	Z:	0.045	yaw:	-29.248	yaw rate:	1.245	Roll:	-1.875	Pitch:	3.003	Yaw:	-43.757	Thrust:	100.000
Time:	4.062	Roll Set Point:	0.059	Pitch Set Point:	-0.192	Yaw Set Point:	0.510	X_WP:	0.000	Y_WP:	0.000	Y_WP:	0.500	X:	-0.005	Y:	0.104	Z:	0.045	yaw:	-29.248	yaw rate:	1.245	Roll:	-1.855	Pitch:	2.995	Yaw:	-43.963	Thrust:	100.000
Time:	4.078	Roll Set Point:	0.059	Pitch Set Point:	-0.192	Yaw Set Point:	0.511	X_WP:	0.000	Y_WP:	0.000	Y_WP:	0.500	X:	-0.005	Y:	0.104	Z:	0.045	yaw:	-29.255	yaw rate:	-0.692	Roll:	-1.847	Pitch:	2.999	Yaw:	-44.087	Thrust:	100.000
Time:	4.094	Roll Set Point:	0.059	Pitch Set Point:	-0.192	Yaw Set Point:	0.511	X_WP:	0.000	Y_WP:	0.000	Y_WP:	0.500	X:	-0.005	Y:	0.104	Z:	0.045	yaw:	-29.255	yaw rate:	-0.692	Roll:	-1.859	Pitch:	3.002	Yaw:	-43.972	Thrust:	100.000
Time:	4.109	Roll Set Point:	0.059	Pitch Set Point:	-0.192	Yaw Set Point:	0.511	X_WP:	0.000	Y_WP:	0.000	Y_WP:	0.500	X:	-0.005	Y:	0.104	Z:	0.045	yaw:	-29.278	yaw rate:	0.018	Roll:	-1.924	Pitch:	2.960	Yaw:	-44.387	Thrust:	100.000
Time:	4.125	Roll Set Point:	0.059	Pitch Set Point:	-0.192	Yaw Set Point:	0.511	X_WP:	0.000	Y_WP:	0.000	Y_WP:	0.500	X:	-0.005	Y:	0.104	Z:	0.045	yaw:	-29.252	yaw rate:	2.568	Roll:	-1.741	Pitch:	3.039	Yaw:	-43.537	Thrust:	100.000
Time:	4.156	Roll Set Point:	0.059	Pitch Set Point:	-0.192	Yaw Set Point:	0.511	X_WP:	0.000	Y_WP:	0.000	Y_WP:	0.500	X:	-0.005	Y:	0.104	Z:	0.045	yaw:	-29.265	yaw rate:	-1.358	Roll:	-2.178	Pitch:	3.460	Yaw:	-47.245	Thrust:	100.000
Time:	4.172	Roll Set Point:	0.059	Pitch Set Point:	-0.192	Yaw Set Point:	0.510	X_WP:	0.000	Y_WP:	0.000	Y_WP:	0.500	X:	-0.005	Y:	0.104	Z:	0.045	yaw:	-29.210	yaw rate:	5.499	Roll:	-1.748	Pitch:	3.104	Yaw:	-42.989	Thrust:	100.000
Time:	4.188	Roll Set Point:	0.059	Pitch Set Point:	-0.192	Yaw Set Point:	0.510	X_WP:	0.000	Y_WP:	0.000	Y_WP:	0.500	X:	-0.005	Y:	0.104	Z:	0.045	yaw:	-29.216	yaw rate:	-0.580	Roll:	-1.912	Pitch:	2.968	Yaw:	-44.016	Thrust:	100.000
Time:	4.203	Roll Set Point:	0.059	Pitch Set Point:	-0.192	Yaw Set Point:	0.510	X_WP:	0.000	Y_WP:	0.000	Y_WP:	0.500	X:	-0.005	Y:	0.104	Z:	0.045	yaw:	-29.213	yaw rate:	0.286	Roll:	-1.851	Pitch:	3.036	Yaw:	-43.867	Thrust:	100.000
Time:	4.219	Roll Set Point:	0.059	Pitch Set Point:	-0.192	Yaw Set Point:	0.511	X_WP:	0.000	Y_WP:	0.000	Y_WP:	0.500	X:	-0.005	Y:	0.104	Z:	0.045	yaw:	-29.251	yaw rate:	-0.003	Roll:	-1.924	Pitch:	2.989	Yaw:	-44.605	Thrust:	100.000
Time:	4.234	Roll Set Point:	0.059	Pitch Set Point:	-0.192	Yaw Set Point:	0.509	X_WP:	0.000	Y_WP:	0.000	Y_WP:	0.500	X:	-0.005	Y:	0.104	Z:	0.045	yaw:	-29.189	yaw rate:	6.275	Roll:	-1.902	Pitch:	3.113	Yaw:	-42.829	Thrust:	100.000
Time:	4.250	Roll Set Point:	0.059	Pitch Set Point:	-0.192	Yaw Set Point:	0.509	X_WP:	0.000	Y_WP:	0.000	Y_WP:	0.500	X:	-0.005	Y:	0.104	Z:	0.045	yaw:	-29.189	yaw rate:	6.275	Roll:	-1.878	Pitch:	3.035	Yaw:	-43.880	Thrust:	100.000
Time:	4.266	Roll Set Point:	0.059	Pitch Set Point:	-0.192	Yaw Set Point:	0.511	X_WP:	0.000	Y_WP:	0.000	Y_WP:	0.500	X:	-0.005	Y:	0.104	Z:	0.045	yaw:	-29.277	yaw rate:	-8.860	Roll:	-1.904	Pitch:	2.951	Yaw:	-45.488	Thrust:	100.000
Time:	4.281	Roll Set Point:	0.059	Pitch Set Point:	-0.192	Yaw Set Point:	0.511	X_WP:	0.000	Y_WP:	0.000	Y_WP:	0.500	X:	-0.005	Y:	0.104	Z:	0.045	yaw:	-29.277	yaw rate:	-8.860	Roll:	-1.883	Pitch:	3.040	Yaw:	-44.006	Thrust:	100.000
Time:	4.297	Roll Set Point:	0.059	Pitch Set Point:	-0.192	Yaw Set Point:	0.511	X_WP:	0.000	Y_WP:	0.000	Y_WP:	0.500	X:	-0.005	Y:	0.104	Z:	0.045	yaw:	-29.258	yaw rate:	3.322	Roll:	-1.890	Pitch:	3.033	Yaw:	-43.658	Thrust:	100.000
Time:	4.313	Roll Set Point:	0.059	Pitch Set Point:	-0.192	Yaw Set Point:	0.511	X_WP:	0.000	Y_WP:	0.000	Y_WP:	0.500	X:	-0.005	Y:	0.104	Z:	0.045	yaw:	-29.273	yaw rate:	-1.515	Roll:	-1.939	Pitch:	3.035	Yaw:	-44.252	Thrust:	100.000
Time:	4.328	Roll Set Point:	0.059	Pitch Set Point:	-0.192	Yaw Set Point:	0.512	X_WP:	0.000	Y_WP:	0.000	Y_WP:	0.500	X:	-0.005	Y:	0.104	Z:	0.045	yaw:	-29.314	yaw rate:	-4.011	Roll:	-1.843	Pitch:	3.001	Yaw:	-44.727	Thrust:	100.000
Time:	4.344	Roll Set Point:	0.059	Pitch Set Point:	-0.192	Yaw Set Point:	0.510	X_WP:	0.000	Y_WP:	0.000	Y_WP:	0.500	X:	-0.005	Y:	0.104	Z:	0.045	yaw:	-29.248	yaw rate:	6.556	Roll:	-1.845	Pitch:	3.133	Yaw:	-42.865	Thrust:	100.000
Time:	4.359	Roll Set Point:	0.059	Pitch Set Point:	-0.192	Yaw Set Point:	0.511	X_WP:	0.000	Y_WP:	0.000	Y_WP:	0.500	X:	-0.005	Y:	0.104	Z:	0.045	yaw:	-29.256	yaw rate:	-0.791	Roll:	-1.892	Pitch:	3.076	Yaw:	-44.107	Thrust:	100.000
Time:	4.375	Roll Set Point:	0.059	Pitch Set Point:	-0.192	Yaw Set Point:	0.511	X_WP:	0.000	Y_WP:	0.000	Y_WP:	0.500	X:	-0.005	Y:	0.104	Z:	0.045	yaw:	-29.263	yaw rate:	-0.752	Roll:	-1.963	Pitch:	3.030	Yaw:	-44.111	Thrust:	100.000
Time:	4.391	Roll Set Point:	0.059	Pitch Set Point:	-0.192	Yaw Set Point:	0.511	X_WP:	0.000	Y_WP:	0.000	Y_WP:	0.500	X:	-0.005	Y:	0.104	Z:	0.045	yaw:	-29.263	yaw rate:	-0.752	Roll:	-1.899	Pitch:	3.064	Yaw:	-43.985	Thrust:	100.000
Time:	4.406	Roll Set Point:	0.059	Pitch Set Point:	-0.192	Yaw Set Point:	0.511	X_WP:	0.000	Y_WP:	0.000	Y_WP:	0.500	X:	-0.005	Y:	0.104	Z:	0.045	yaw:	-29.287	yaw rate:	2.135	Roll:	-1.886	Pitch:	3.064	Yaw:	-44.422	Thrust:	100.000
Time:	4.422	Roll Set Point:	0.059	Pitch Set Point:	-0.192	Yaw Set Point:	0.511	X_WP:	0.000	Y_WP:	0.000	Y_WP:	0.500	X:	-0.005	Y:	0.104	Z:	0.045	yaw:	-29.287	yaw rate:	2.135	Roll:	-1.903	Pitch:	3.071	Yaw:	-44.018	Thrust:	100.000
Time:	4.438	Roll Set Point:	0.059	Pitch Set Point:	-0.192	Yaw Set Point:	0.511	X_WP:	0.000	Y_WP:	0.000	Y_WP:	0.500	X:	-0.005	Y:	0.104	Z:	0.045	yaw:	-29.276	yaw rate:	0.921	Roll:	-1.921	Pitch:	3.100	Yaw:	-43.802	Thrust:	100.000
Time:	4.453	Roll Set Point:	0.059	Pitch Set Point:	-0.192	Yaw Set Point:	0.511	X_WP:	0.000	Y_WP:	0.000	Y_WP:	0.500	X:	-0.004	Y:	0.104	Z:	0.045	yaw:	-29.298	yaw rate:	-2.228	Roll:	-1.832	Pitch:	2.987	Yaw:	-44.406	Thrust:	100.000
Time:	4.469	Roll Set Point:	0.059	Pitch Set Point:	-0.192	Yaw Set Point:	0.511	X_WP:	0.000	Y_WP:	0.000	Y_WP:	0.500	X:	-0.005	Y:	0.104	Z:	0.045	yaw:	-29.259	yaw rate:	3.880	Roll:	-1.942	Pitch:	3.141	Yaw:	-43.330	Thrust:	100.000
Time:	4.484	Roll Set Point:	0.059	Pitch Set Point:	-0.192	Yaw Set Point:	0.511	X_WP:	0.000	Y_WP:	0.000	Y_WP:	0.500	X:	-0.005	Y:	0.104	Z:	0.045	yaw:	-29.281	yaw rate:	-2.244	Roll:	-1.931	Pitch:	3.099	Yaw:	-44.385	Thrust:	100.000
Time:	4.500	Roll Set Point:	0.059	Pitch Set Point:	-0.192	Yaw Set Point:	0.511	X_WP:	0.000	Y_WP:	0.000	Y_WP:	0.500	X:	-0.005	Y:	0.104	Z:	0.045	yaw:	-29.281	yaw rate:	-2.244	Roll:	-1.913	Pitch:	3.088	Yaw:	-44.010	Thrust:	100.000
Time:	4.516	Roll Set Point:	0.059	Pitch Set Point:	-0.192	Yaw Set Point:	0.511	X_WP:	0.000	Y_WP:	0.000	Y_WP:	0.500	X:	-0.005	Y:	0.104	Z:	0.045	yaw:	-29.254	yaw rate:	2.765	Roll:	-1.898	Pitch:	3.121	Yaw:	-43.508	Thrust:	100.000
Time:	4.531	Roll Set Point:	0.059	Pitch Set Point:	-0.192	Yaw Set Point:	0.511	X_WP:	0.000	Y_WP:	0.000	Y_WP:	0.500	X:	-0.005	Y:	0.104	Z:	0.045	yaw:	-29.254	yaw rate:	2.905	Roll:	-1.865	Pitch:	3.035	Yaw:	-43.969	Thrust:	100.000
Time:	4.547	Roll Set Point:	0.059	Pitch Set Point:	-0.192	Yaw Set Point:	0.512	X_WP:	0.000	Y_WP:	0.000	Y_WP:	0.500	X:	-0.005	Y:	0.104	Z:	0.045	yaw:	-29.307	yaw rate:	-5.344	Roll:	-2.059	Pitch:	3.101	Yaw:	-44.941	Thrust:	100.000
Time:	4.563	Roll Set Point:	0.059	Pitch Set Point:	-0.192	Yaw Set Point:	0.511	X_WP:	0.000	Y_WP:	0.000	Y_WP:	0.500	X:	-0.005	Y:	0.104	Z:	0.045	yaw:	-29.262	yaw rate:	4.527	Roll:	-1.870	Pitch:	3.161	Yaw:	-43.224	Thrust:	100.000
Time:	4.578	Roll Set Point:	0.059	Pitch Set Point:	-0.192	Yaw Set Point:	0.511	X_WP:	0.000	Y_WP:	0.000	Y_WP:	0.500	X:	-0.005	Y:	0.104	Z:	0.045	yaw:	-29.251	yaw rate:	1.042	Roll:	-1.799	Pitch:	3.069	Yaw:	-43.793	Thrust:	100.000
Time:	4.594	Roll Set Point:	0.059	Pitch Set Point:	-0.192	Yaw Set Point:	0.511	X_WP:	0.000	Y_WP:	0.000	Y_WP:	0.500	X:	-0.005	Y:	0.104	Z:	0.045	yaw:	-29.271	yaw rate:	-2.000	Roll:	-2.024	Pitch:	3.093	Yaw:	-44.331	Thrust:	100.000
Time:	4.609	Roll Set Point:	0.059	Pitch Set Point:	-0.192	Yaw Set Point:	0.511	X_WP:	0.000	Y_WP:	0.000	Y_WP:	0.500	X:	-0.005	Y:	0.104	Z:	0.045	yaw:	-29.284	yaw rate:	-1.232	Roll:	-1.924	Pitch:	3.122	Yaw:	-44.220	Thrust:	100.000
Time:	4.625	Roll Set Point:	0.059	Pitch Set Point:	-0.192	Yaw Set Point:	0.511	X_WP:	0.000	Y_WP:	0.000	Y_WP:	0.500	X:	-0.005	Y:	0.104	Z:	0.045	yaw:	-29.265	yaw rate:	1.865	Roll:	-1.990	Pitch:	3.148	Yaw:	-43.675	Thrust:	100.000
Time:	4.641	Roll Set Point:	0.059	Pitch Set Point:	-0.192	Yaw Set Point:	0.511	X_WP:	0.000	Y_WP:	0.000	Y_WP:	0.500	X:	-0.005	Y:	0.104	Z:	0.045	yaw:	-29.284	yaw rate:	-1.907	Roll:	-1.830	Pitch:	3.036	Yaw:	-44.338	Thrust:	100.000
Time:	4.656	Roll Set Point:	0.059	Pitch Set Point:	-0.192	Yaw Set Point:	0.511	X_WP:	0.000	Y_WP:	0.000	Y_WP:	0.500	X:	-0.005	Y:	0.104	Z:	0.045	yaw:	-29.269	yaw rate:	1.528	Roll:	-1.940	Pitch:	3.126	Yaw:	-43.730	Thrust:	100.000
Time:	4.672	Roll Set Point:	0.059	Pitch Set Point:	-0.192	Yaw Set Point:	0.512	X_WP:	0.000	Y_WP:	0.000	Y_WP:	0.500	X:	-0.005	Y:	0.104	Z:	0.045	yaw:	-29.314	yaw rate:	-4.524	Roll:	-2.026	Pitch:	3.110	Yaw:	-44.814	Thrust:	100.000
Time:	4.688	Roll Set Point:	0.059	Pitch Set Point:	-0.192	Yaw Set Point:	0.512	X_WP:	0.000	Y_WP:	0.000	Y_WP:	0.500	X:	-0.005	Y:	0.104	Z:	0.045	yaw:	-29.314	yaw rate:	-4.524	Roll:	-1.940	Pitch:	3.128	Yaw:	-44.056	Thrust:	100.000
Time:	4.703	Roll Set Point:	0.059	Pitch Set Point:	-0.192	Yaw Set Point:	0.511	X_WP:	0.000	Y_WP:	0.000	Y_WP:	0.500	X:	-0.004	Y:	0.104	Z:	0.045	yaw:	-29.260	yaw rate:	0.378	Roll:	-1.808	Pitch:	3.205	Yaw:	-43.075	Thrust:	100.000
Time:	4.719	Roll Set Point:	0.059	Pitch Set Point:	-0.192	Yaw Set Point:	0.511	X_WP:	0.000	Y_WP:	0.000	Y_WP:	0.500	X:	-0.004	Y:	0.104	Z:	0.045	yaw:	-29.260	yaw rate:	0.378	Roll:	-1.941	Pitch:	3.137	Yaw:	-43.980	Thrust:	100.000
Time:	4.734	Roll Set Point:	0.059	Pitch Set Point:	-0.192	Yaw Set Point:	0.510	X_WP:	0.000	Y_WP:	0.000	Y_WP:	0.500	X:	-0.005	Y:	0.104	Z:	0.045	yaw:	-29.240	yaw rate:	1.021	Roll:	-1.939	Pitch:	3.146	Yaw:	-43.607	Thrust:	100.000
Time:	4.750	Roll Set Point:	0.059	Pitch Set Point:	-0.192	Yaw Set Point:	0.510	X_WP:	0.000	Y_WP:	0.000	Y_WP:	0.500	X:	-0.005	Y:	0.104	Z:	0.045	yaw:	-29.240	yaw rate:	1.021	Roll:	-1.947	Pitch:	3.148	Yaw:	-43.972	Thrust:	100.000
Time:	4.766	Roll Set Point:	0.059	Pitch Set Point:	-0.192	Yaw Set Point:	0.511	X_WP:	0.000	Y_WP:	0.000	Y_WP:	0.500	X:	-0.005	Y:	0.104	Z:	0.045	yaw:	-29.270	yaw rate:	-1.591	Roll:	-1.989	Pitch:	3.104	Yaw:	-44.486	Thrust:	100.000
Time:	4.781	Roll Set Point:	0.059	Pitch Set Point:	-0.192	Yaw Set Point:	0.511	X_WP:	0.000	Y_WP:	0.000	Y_WP:	0.500	X:	-0.005	Y:	0.104	Z:	0.045	yaw:	-29.292	yaw rate:	-2.251	Roll:	-2.046	Pitch:	3.141	Yaw:	-44.404	Thrust:	100.000
Time:	4.797	Roll Set Point:	0.059	Pitch Set Point:	-0.192	Yaw Set Point:	0.510	X_WP:	0.000	Y_WP:	0.000	Y_WP:	0.500	X:	-0.005	Y:	0.104	Z:	0.045	yaw:	-29.244	yaw rate:	4.824	Roll:	-1.838	Pitch:	3.180	Yaw:	-43.148	Thrust:	100.000
Time:	4.813	Roll Set Point:	0.059	Pitch Set Point:	-0.192	Yaw Set Point:	0.510	X_WP:	0.000	Y_WP:	0.000	Y_WP:	0.500	X:	-0.005	Y:	0.104	Z:	0.045	yaw:	-29.244	yaw rate:	4.824	Roll:	-1.954	Pitch:	3.149	Yaw:	-43.958	Thrust:	100.000
Time:	4.828	Roll Set Point:	0.059	Pitch Set Point:	-0.192	Yaw Set Point:	0.511	X_WP:	0.000	Y_WP:	0.000	Y_WP:	0.500	X:	-0.005	Y:	0.104	Z:	0.045	yaw:	-29.276	yaw rate:	-3.193	Roll:	-2.029	Pitch:	3.162	Yaw:	-44.538	Thrust:	100.000
Time:	4.844	Roll Set Point:	0.059	Pitch Set Point:	-0.192	Yaw Set Point:	0.511	X_WP:	0.000	Y_WP:	0.000	Y_WP:	0.500	X:	-0.005	Y:	0.104	Z:	0.045	yaw:	-29.273	yaw rate:	0.316	Roll:	-1.936	Pitch:	3.094	Yaw:	-43.945	Thrust:	100.000
Time:	4.860	Roll Set Point:	0.059	Pitch Set Point:	-0.192	Yaw Set Point:	0.511	X_WP:	0.000	Y_WP:	0.000	Y_WP:	0.500	X:	-0.005	Y:	0.104	Z:	0.045	yaw:	-29.273	yaw rate:	0.316	Roll:	-1.962	Pitch:	3.148	Yaw:	-43.999	Thrust:	100.000
Time:	4.875	Roll Set Point:	0.059	Pitch Set Point:	-0.192	Yaw Set Point:	0.511	X_WP:	0.000	Y_WP:	0.000	Y_WP:	0.500	X:	-0.005	Y:	0.104	Z:	0.045	yaw:	-29.277	yaw rate:	-0.375	Roll:	-1.936	Pitch:	3.169	Yaw:	-44.066	Thrust:	100.000
Time:	4.891	Roll Set Point:	0.059	Pitch Set Point:	-0.192	Yaw Set Point:	0.509	X_WP:	0.000	Y_WP:	0.000	Y_WP:	0.500	X:	-0.005	Y:	0.104	Z:	0.045	yaw:	-29.189	yaw rate:	8.801	Roll:	-1.962	Pitch:	3.249	Yaw:	-42.406	Thrust:	100.000
Time:	4.906	Roll Set Point:	0.059	Pitch Set Point:	-0.192	Yaw Set Point:	0.511	X_WP:	0.000	Y_WP:	0.000	Y_WP:	0.500	X:	-0.005	Y:	0.104	Z:	0.045	yaw:	-29.258	yaw rate:	-6.974	Roll:	-1.988	Pitch:	3.082	Yaw:	-45.146	Thrust:	100.000
Time:	4.922	Roll Set Point:	0.059	Pitch Set Point:	-0.192	Yaw Set Point:	0.511	X_WP:	0.000	Y_WP:	0.000	Y_WP:	0.500	X:	-0.005	Y:	0.104	Z:	0.045	yaw:	-29.294	yaw rate:	-3.545	Roll:	-2.060	Pitch:	3.089	Yaw:	-44.621	Thrust:	100.000
Time:	4.938	Roll Set Point:	0.059	Pitch Set Point:	-0.192	Yaw Set Point:	0.511	X_WP:	0.000	Y_WP:	0.000	Y_WP:	0.500	X:	-0.005	Y:	0.104	Z:	0.045	yaw:	-29.265	yaw rate:	2.859	Roll:	-1.876	Pitch:	3.177	Yaw:	-43.509	Thrust:	100.000
Time:	4.953	Roll Set Point:	0.059	Pitch Set Point:	-0.192	Yaw Set Point:	0.510	X_WP:	0.000	Y_WP:	0.000	Y_WP:	0.500	X:	-0.005	Y:	0.104	Z:	0.045	yaw:	-29.229	yaw rate:	3.668	Roll:	-1.958	Pitch:	3.243	Yaw:	-43.322	Thrust:	100.000
Time:	4.969	Roll Set Point:	0.059	Pitch Set Point:	-0.192	Yaw Set Point:	0.511	X_WP:	0.000	Y_WP:	0.000	Y_WP:	0.500	X:	-0.005	Y:	0.104	Z:	0.045	yaw:	-29.265	yaw rate:	-3.620	Roll:	-1.955	Pitch:	3.039	Yaw:	-44.593	Thrust:	100.000
Time:	4.985	Roll Set Point:	0.059	Pitch Set Point:	-0.192	Yaw Set Point:	0.511	X_WP:	0.000	Y_WP:	0.000	Y_WP:	0.500	X:	-0.005	Y:	0.104	Z:	0.045	yaw:	-29.265	yaw rate:	-3.620	Roll:	-1.977	Pitch:	3.148	Yaw:	-43.987	Thrust:	100.000
Time:	5.000	Roll Set Point:	0.059	Pitch Set Point:	-0.192	Yaw Set Point:	0.511	X_WP:	0.000	Y_WP:	0.000	Y_WP:	0.500	X:	-0.005	Y:	0.104	Z:	0.045	yaw:	-29.284	yaw rate:	-1.958	Roll:	-2.057	Pitch:	3.175	Yaw:	-44.342	Thrust:	100.000
Time:	5.016	Roll Set Point:	0.059	Pitch Set Point:	-0.192	Yaw Set Point:	0.512	X_WP:	0.000	Y_WP:	0.000	Y_WP:	0.500	X:	-0.005	Y:	0.104	Z:	0.045	yaw:	-29.307	yaw rate:	-2.279	Roll:	-2.055	Pitch:	3.156	Yaw:	-44.483	Thrust:	100.000
Time:	5.030	Roll Set Point:	0.059	Pitch Set Point:	-0.192	Yaw Set Point:	0.511	X_WP:	0.000	Y_WP:	0.000	Y_WP:	0.500	X:	-0.005	Y:	0.104	Z:	0.045	yaw:	-29.279	yaw rate:	2.798	Roll:	-1.873	Pitch:	3.084	Yaw:	-43.167	Thrust:	100.000
Time:	5.052	Roll Set Point:	0.059	Pitch Set Point:	-0.192	Yaw Set Point:	0.510	X_WP:	0.000	Y_WP:	0.000	Y_WP:	0.500	X:	-0.005	Y:	0.104	Z:	0.045	yaw:	-29.234	yaw rate:	4.499	Roll:	-2.088	Pitch:	3.414	Yaw:	-44.660	Thrust:	100.000
Time:	5.068	Roll Set Point:	0.059	Pitch Set Point:	-0.192	Yaw Set Point:	0.511	X_WP:	0.000	Y_WP:	0.000	Y_WP:	0.500	X:	-0.005	Y:	0.104	Z:	0.045	yaw:	-29.289	yaw rate:	-5.507	Roll:	-2.077	Pitch:	3.103	Yaw:	-44.944	Thrust:	100.000
Time:	5.083	Roll Set Point:	0.059	Pitch Set Point:	-0.192	Yaw Set Point:	0.511	X_WP:	0.000	Y_WP:	0.000	Y_WP:	0.500	X:	-0.005	Y:	0.104	Z:	0.045	yaw:	-29.266	yaw rate:	2.351	Roll:	-2.031	Pitch:	3.215	Yaw:	-43.614	Thrust:	100.000
Time:	5.099	Roll Set Point:	0.059	Pitch Set Point:	-0.192	Yaw Set Point:	0.511	X_WP:	0.000	Y_WP:	0.000	Y_WP:	0.500	X:	-0.005	Y:	0.104	Z:	0.045	yaw:	-29.263	yaw rate:	3.373	Roll:	-1.932	Pitch:	3.068	Yaw:	-43.914	Thrust:	100.000
Time:	5.115	Roll Set Point:	0.059	Pitch Set Point:	-0.192	Yaw Set Point:	0.510	X_WP:	0.000	Y_WP:	0.000	Y_WP:	0.500	X:	-0.005	Y:	0.104	Z:	0.045	yaw:	-29.248	yaw rate:	1.455	Roll:	-1.954	Pitch:	3.208	Yaw:	-43.720	Thrust:	100.000
Time:	5.130	Roll Set Point:	0.059	Pitch Set Point:	-0.192	Yaw Set Point:	0.510	X_WP:	0.000	Y_WP:	0.000	Y_WP:	0.500	X:	-0.005	Y:	0.104	Z:	0.045	yaw:	-29.242	yaw rate:	0.624	Roll:	-2.044	Pitch:	3.212	Yaw:	-43.850	Thrust:	100.000
Time:	5.156	Roll Set Point:	0.059	Pitch Set Point:	-0.192	Yaw Set Point:	0.511	X_WP:	0.000	Y_WP:	0.000	Y_WP:	0.500	X:	-0.004	Y:	0.104	Z:	0.045	yaw:	-29.267	yaw rate:	-3.184	Roll:	-2.228	Pitch:	3.479	Yaw:	-46.374	Thrust:	100.000
Time:	5.172	Roll Set Point:	0.059	Pitch Set Point:	-0.192	Yaw Set Point:	0.510	X_WP:	0.000	Y_WP:	0.000	Y_WP:	0.500	X:	-0.005	Y:	0.104	Z:	0.045	yaw:	-29.231	yaw rate:	3.638	Roll:	-2.078	Pitch:	3.231	Yaw:	-43.330	Thrust:	100.000
Time:	5.188	Roll Set Point:	0.059	Pitch Set Point:	-0.192	Yaw Set Point:	0.510	X_WP:	0.000	Y_WP:	0.000	Y_WP:	0.500	X:	-0.005	Y:	0.104	Z:	0.045	yaw:	-29.231	yaw rate:	3.638	Roll:	-2.004	Pitch:	3.150	Yaw:	-43.940	Thrust:	100.000
Time:	5.203	Roll Set Point:	0.059	Pitch Set Point:	-0.192	Yaw Set Point:	0.511	X_WP:	0.000	Y_WP:	0.000	Y_WP:	0.500	X:	-0.005	Y:	0.104	Z:	0.045	yaw:	-29.265	yaw rate:	-3.371	Roll:	-1.997	Pitch:	3.119	Yaw:	-44.551	Thrust:	100.000
Time:	5.219	Roll Set Point:	0.059	Pitch Set Point:	-0.192	Yaw Set Point:	0.508	X_WP:	0.000	Y_WP:	0.000	Y_WP:	0.500	X:	-0.005	Y:	0.104	Z:	0.045	yaw:	-29.127	yaw rate:	13.795	Roll:	-1.750	Pitch:	3.221	Yaw:	-41.483	Thrust:	100.000
Time:	5.235	Roll Set Point:	0.059	Pitch Set Point:	-0.192	Yaw Set Point:	0.508	X_WP:	0.000	Y_WP:	0.000	Y_WP:	0.500	X:	-0.005	Y:	0.104	Z:	0.045	yaw:	-29.127	yaw rate:	13.795	Roll:	-2.004	Pitch:	3.152	Yaw:	-43.797	Thrust:	100.000
Time:	5.250	Roll Set Point:	0.059	Pitch Set Point:	-0.192	Yaw Set Point:	0.511	X_WP:	0.000	Y_WP:	0.000	Y_WP:	0.500	X:	-0.005	Y:	0.104	Z:	0.045	yaw:	-29.268	yaw rate:	-14.120	Roll:	-2.268	Pitch:	3.064	Yaw:	-46.356	Thrust:	100.000
Time:	5.266	Roll Set Point:	0.059	Pitch Set Point:	-0.192	Yaw Set Point:	0.511	X_WP:	0.000	Y_WP:	0.000	Y_WP:	0.500	X:	-0.005	Y:	0.104	Z:	0.045	yaw:	-29.254	yaw rate:	1.355	Roll:	-2.039	Pitch:	3.205	Yaw:	-43.744	Thrust:	100.000
Time:	5.281	Roll Set Point:	0.059	Pitch Set Point:	-0.192	Yaw Set Point:	0.511	X_WP:	0.000	Y_WP:	0.000	Y_WP:	0.500	X:	-0.005	Y:	0.104	Z:	0.045	yaw:	-29.283	yaw rate:	0.584	Roll:	-1.981	Pitch:	3.032	Yaw:	-44.497	Thrust:	100.000
Time:	5.297	Roll Set Point:	0.059	Pitch Set Point:	-0.192	Yaw Set Point:	0.511	X_WP:	0.000	Y_WP:	0.000	Y_WP:	0.500	X:	-0.005	Y:	0.104	Z:	0.045	yaw:	-29.295	yaw rate:	-1.157	Roll:	-2.053	Pitch:	3.162	Yaw:	-44.223	Thrust:	100.000
Time:	5.313	Roll Set Point:	0.059	Pitch Set Point:	-0.192	Yaw Set Point:	0.511	X_WP:	0.000	Y_WP:	0.000	Y_WP:	0.500	X:	-0.005	Y:	0.104	Z:	0.045	yaw:	-29.272	yaw rate:	2.309	Roll:	-2.084	Pitch:	3.223	Yaw:	-43.616	Thrust:	100.000
Time:	5.328	Roll Set Point:	0.059	Pitch Set Point:	-0.192	Yaw Set Point:	0.511	X_WP:	0.000	Y_WP:	0.000	Y_WP:	0.500	X:	-0.005	Y:	0.104	Z:	0.045	yaw:	-29.280	yaw rate:	-0.869	Roll:	-1.968	Pitch:	3.108	Yaw:	-44.148	Thrust:	100.000
Time:	5.344	Roll Set Point:	0.059	Pitch Set Point:	-0.192	Yaw Set Point:	0.511	X_WP:	0.000	Y_WP:	0.000	Y_WP:	0.500	X:	-0.005	Y:	0.104	Z:	0.045	yaw:	-29.262	yaw rate:	1.800	Roll:	-1.966	Pitch:	3.164	Yaw:	-43.682	Thrust:	100.000
Time:	5.360	Roll Set Point:	0.059	Pitch Set Point:	-0.192	Yaw Set Point:	0.510	X_WP:	0.000	Y_WP:	0.000	Y_WP:	0.500	X:	-0.005	Y:	0.104	Z:	0.045	yaw:	-29.230	yaw rate:	3.199	Roll:	-2.007	Pitch:	3.178	Yaw:	-43.403	Thrust:	100.000
Time:	5.375	Roll Set Point:	0.059	Pitch Set Point:	-0.192	Yaw Set Point:	0.511	X_WP:	0.000	Y_WP:	0.000	Y_WP:	0.500	X:	-0.005	Y:	0.104	Z:	0.045	yaw:	-29.254	yaw rate:	-2.369	Roll:	-2.126	Pitch:	3.172	Yaw:	-44.369	Thrust:	100.000
Time:	5.391	Roll Set Point:	0.059	Pitch Set Point:	-0.192	Yaw Set Point:	0.511	X_WP:	0.000	Y_WP:	0.000	Y_WP:	0.500	X:	-0.005	Y:	0.104	Z:	0.045	yaw:	-29.254	yaw rate:	-2.369	Roll:	-2.033	Pitch:	3.150	Yaw:	-43.971	Thrust:	100.000
Time:	5.406	Roll Set Point:	0.059	Pitch Set Point:	-0.192	Yaw Set Point:	0.511	X_WP:	0.000	Y_WP:	0.000	Y_WP:	0.500	X:	-0.005	Y:	0.104	Z:	0.045	yaw:	-29.266	yaw rate:	-1.138	Roll:	-1.980	Pitch:	3.099	Yaw:	-44.181	Thrust:	100.000
Time:	5.422	Roll Set Point:	0.059	Pitch Set Point:	-0.192	Yaw Set Point:	0.511	X_WP:	0.000	Y_WP:	0.000	Y_WP:	0.500	X:	-0.005	Y:	0.104	Z:	0.045	yaw:	-29.257	yaw rate:	0.866	Roll:	-1.992	Pitch:	3.156	Yaw:	-43.831	Thrust:	100.000
Time:	5.438	Roll Set Point:	0.059	Pitch Set Point:	-0.192	Yaw Set Point:	0.510	X_WP:	0.000	Y_WP:	0.000	Y_WP:	0.500	X:	-0.005	Y:	0.104	Z:	0.045	yaw:	-29.218	yaw rate:	6.124	Roll:	-2.008	Pitch:	3.218	Yaw:	-43.263	Thrust:	100.000
Time:	5.453	Roll Set Point:	0.059	Pitch Set Point:	-0.192	Yaw Set Point:	0.511	X_WP:	0.000	Y_WP:	0.000	Y_WP:	0.500	X:	-0.005	Y:	0.104	Z:	0.045	yaw:	-29.256	yaw rate:	-3.829	Roll:	-2.123	Pitch:	3.129	Yaw:	-44.616	Thrust:	100.000
Time:	5.469	Roll Set Point:	0.059	Pitch Set Point:	-0.192	Yaw Set Point:	0.511	X_WP:	0.000	Y_WP:	0.000	Y_WP:	0.500	X:	-0.005	Y:	0.104	Z:	0.045	yaw:	-29.253	yaw rate:	0.316	Roll:	-2.023	Pitch:	3.106	Yaw:	-43.917	Thrust:	100.000
Time:	5.485	Roll Set Point:	0.059	Pitch Set Point:	-0.192	Yaw Set Point:	0.511	X_WP:	0.000	Y_WP:	0.000	Y_WP:	0.500	X:	-0.005	Y:	0.104	Z:	0.045	yaw:	-29.253	yaw rate:	0.316	Roll:	-2.044	Pitch:	3.149	Yaw:	-43.970	Thrust:	100.000
Time:	5.500	Roll Set Point:	0.059	Pitch Set Point:	-0.192	Yaw Set Point:	0.511	X_WP:	0.000	Y_WP:	0.000	Y_WP:	0.500	X:	-0.005	Y:	0.104	Z:	0.045	yaw:	-29.260	yaw rate:	-0.697	Roll:	-2.057	Pitch:	3.139	Yaw:	-44.096	Thrust:	100.000
Time:	5.516	Roll Set Point:	0.059	Pitch Set Point:	-0.192	Yaw Set Point:	0.511	X_WP:	0.000	Y_WP:	0.000	Y_WP:	0.500	X:	-0.005	Y:	0.104	Z:	0.045	yaw:	-29.287	yaw rate:	-2.752	Roll:	-2.133	Pitch:	3.144	Yaw:	-44.480	Thrust:	100.000
Time:	5.531	Roll Set Point:	0.059	Pitch Set Point:	-0.192	Yaw Set Point:	0.511	X_WP:	0.000	Y_WP:	0.000	Y_WP:	0.500	X:	-0.005	Y:	0.104	Z:	0.045	yaw:	-29.275	yaw rate:	-1.881	Roll:	-1.993	Pitch:	3.130	Yaw:	-43.789	Thrust:	100.000
Time:	5.547	Roll Set Point:	0.059	Pitch Set Point:	-0.192	Yaw Set Point:	0.511	X_WP:	0.000	Y_WP:	0.000	Y_WP:	0.500	X:	-0.005	Y:	0.104	Z:	0.045	yaw:	-29.275	yaw rate:	-1.881	Roll:	-2.054	Pitch:	3.149	Yaw:	-44.002	Thrust:	100.000
Time:	5.563	Roll Set Point:	0.059	Pitch Set Point:	-0.192	Yaw Set Point:	0.511	X_WP:	0.000	Y_WP:	0.000	Y_WP:	0.500	X:	-0.005	Y:	0.104	Z:	0.045	yaw:	-29.264	yaw rate:	-0.416	Roll:	-2.075	Pitch:	3.174	Yaw:	-43.813	Thrust:	100.000
Time:	5.578	Roll Set Point:	0.059	Pitch Set Point:	-0.192	Yaw Set Point:	0.511	X_WP:	0.000	Y_WP:	0.000	Y_WP:	0.500	X:	-0.005	Y:	0.104	Z:	0.045	yaw:	-29.276	yaw rate:	-1.132	Roll:	-2.054	Pitch:	3.177	Yaw:	-44.192	Thrust:	100.000
Time:	5.594	Roll Set Point:	0.059	Pitch Set Point:	-0.192	Yaw Set Point:	0.510	X_WP:	0.000	Y_WP:	0.000	Y_WP:	0.500	X:	-0.005	Y:	0.104	Z:	0.045	yaw:	-29.199	yaw rate:	7.663	Roll:	-1.890	Pitch:	3.191	Yaw:	-42.611	Thrust:	100.000
Time:	5.610	Roll Set Point:	0.059	Pitch Set Point:	-0.192	Yaw Set Point:	0.511	X_WP:	0.000	Y_WP:	0.000	Y_WP:	0.500	X:	-0.005	Y:	0.104	Z:	0.045	yaw:	-29.294	yaw rate:	-9.444	Roll:	-2.198	Pitch:	3.040	Yaw:	-45.609	Thrust:	100.000
Time:	5.625	Roll Set Point:	0.059	Pitch Set Point:	-0.192	Yaw Set Point:	0.511	X_WP:	0.000	Y_WP:	0.000	Y_WP:	0.500	X:	-0.005	Y:	0.104	Z:	0.045	yaw:	-29.278	yaw rate:	1.550	Roll:	-2.133	Pitch:	3.202	Yaw:	-43.746	Thrust:	100.000
Time:	5.641	Roll Set Point:	0.059	Pitch Set Point:	-0.192	Yaw Set Point:	0.510	X_WP:	0.000	Y_WP:	0.000	Y_WP:	0.500	X:	-0.005	Y:	0.104	Z:	0.045	yaw:	-29.232	yaw rate:	4.575	Roll:	-1.957	Pitch:	3.191	Yaw:	-43.175	Thrust:	100.000
Time:	5.656	Roll Set Point:	0.059	Pitch Set Point:	-0.192	Yaw Set Point:	0.510	X_WP:	0.000	Y_WP:	0.000	Y_WP:	0.500	X:	-0.005	Y:	0.104	Z:	0.045	yaw:	-29.232	yaw rate:	4.575	Roll:	-2.067	Pitch:	3.150	Yaw:	-43.941	Thrust:	100.000
Time:	5.672	Roll Set Point:	0.059	Pitch Set Point:	-0.192	Yaw Set Point:	0.511	X_WP:	0.000	Y_WP:	0.000	Y_WP:	0.500	X:	-0.004	Y:	0.104	Z:	0.045	yaw:	-29.260	yaw rate:	2.855	Roll:	-2.033	Pitch:	3.077	Yaw:	-44.451	Thrust:	100.000
Time:	5.688	Roll Set Point:	0.059	Pitch Set Point:	-0.192	Yaw Set Point:	0.511	X_WP:	0.000	Y_WP:	0.000	Y_WP:	0.500	X:	-0.005	Y:	0.104	Z:	0.045	yaw:	-29.283	yaw rate:	-2.269	Roll:	-2.184	Pitch:	3.148	Yaw:	-44.392	Thrust:	100.000
Time:	5.703	Roll Set Point:	0.059	Pitch Set Point:	-0.192	Yaw Set Point:	0.511	X_WP:	0.000	Y_WP:	0.000	Y_WP:	0.500	X:	-0.005	Y:	0.104	Z:	0.045	yaw:	-29.265	yaw rate:	1.825	Roll:	-2.102	Pitch:	3.211	Yaw:	-43.682	Thrust:	100.000
Time:	5.719	Roll Set Point:	0.059	Pitch Set Point:	-0.192	Yaw Set Point:	0.511	X_WP:	0.000	Y_WP:	0.000	Y_WP:	0.500	X:	-0.005	Y:	0.104	Z:	0.045	yaw:	-29.265	yaw rate:	1.825	Roll:	-2.078	Pitch:	3.150	Yaw:	-43.987	Thrust:	100.000
Time:	5.735	Roll Set Point:	0.059	Pitch Set Point:	-0.192	Yaw Set Point:	0.511	X_WP:	0.000	Y_WP:	0.000	Y_WP:	0.500	X:	-0.005	Y:	0.104	Z:	0.045	yaw:	-29.258	yaw rate:	-2.552	Roll:	-1.964	Pitch:	3.101	Yaw:	-43.866	Thrust:	100.000
Time:	5.750	Roll Set Point:	0.059	Pitch Set Point:	-0.192	Yaw Set Point:	0.511	X_WP:	0.000	Y_WP:	0.000	Y_WP:	0.500	X:	-0.005	Y:	0.104	Z:	0.045	yaw:	-29.258	yaw rate:	-2.552	Roll:	-2.080	Pitch:	3.149	Yaw:	-43.978	Thrust:	100.000
Time:	5.766	Roll Set Point:	0.059	Pitch Set Point:	-0.192	Yaw Set Point:	0.511	X_WP:	0.000	Y_WP:	0.000	Y_WP:	0.500	X:	-0.005	Y:	0.104	Z:	0.045	yaw:	-29.271	yaw rate:	0.980	Roll:	-2.212	Pitch:	3.187	Yaw:	-44.216	Thrust:	100.000
Time:	5.782	Roll Set Point:	0.059	Pitch Set Point:	-0.192	Yaw Set Point:	0.511	X_WP:	0.000	Y_WP:	0.000	Y_WP:	0.500	X:	-0.005	Y:	0.104	Z:	0.045	yaw:	-29.271	yaw rate:	0.980	Roll:	-2.087	Pitch:	3.149	Yaw:	-43.992	Thrust:	100.000
Time:	5.797	Roll Set Point:	0.059	Pitch Set Point:	-0.192	Yaw Set Point:	0.511	X_WP:	0.000	Y_WP:	0.000	Y_WP:	0.500	X:	-0.005	Y:	0.104	Z:	0.045	yaw:	-29.263	yaw rate:	-1.976	Roll:	-1.993	Pitch:	3.119	Yaw:	-43.853	Thrust:	100.000
Time:	5.813	Roll Set Point:	0.059	Pitch Set Point:	-0.192	Yaw Set Point:	0.511	X_WP:	0.000	Y_WP:	0.000	Y_WP:	0.500	X:	-0.005	Y:	0.104	Z:	0.045	yaw:	-29.264	yaw rate:	-0.112	Roll:	-2.165	Pitch:	3.172	Yaw:	-44.005	Thrust:	100.000
Time:	5.828	Roll Set Point:	0.059	Pitch Set Point:	-0.192	Yaw Set Point:	0.511	X_WP:	0.000	Y_WP:	0.000	Y_WP:	0.500	X:	-0.005	Y:	0.104	Z:	0.045	yaw:	-29.267	yaw rate:	-0.233	Roll:	-2.050	Pitch:	3.131	Yaw:	-44.028	Thrust:	100.000
Time:	5.844	Roll Set Point:	0.059	Pitch Set Point:	-0.192	Yaw Set Point:	0.511	X_WP:	0.000	Y_WP:	0.000	Y_WP:	0.500	X:	-0.005	Y:	0.104	Z:	0.045	yaw:	-29.267	yaw rate:	-0.233	Roll:	-2.094	Pitch:	3.149	Yaw:	-43.990	Thrust:	100.000
Time:	5.860	Roll Set Point:	0.059	Pitch Set Point:	-0.192	Yaw Set Point:	0.511	X_WP:	0.000	Y_WP:	0.000	Y_WP:	0.500	X:	-0.005	Y:	0.104	Z:	0.045	yaw:	-29.288	yaw rate:	-2.116	Roll:	-2.101	Pitch:	3.106	Yaw:	-44.373	Thrust:	100.000
Time:	5.875	Roll Set Point:	0.059	Pitch Set Point:	-0.192	Yaw Set Point:	0.511	X_WP:	0.000	Y_WP:	0.000	Y_WP:	0.500	X:	-0.005	Y:	0.104	Z:	0.045	yaw:	-29.265	yaw rate:	2.304	Roll:	-2.121	Pitch:	3.212	Yaw:	-43.601	Thrust:	100.000
Time:	5.891	Roll Set Point:	0.059	Pitch Set Point:	-0.192	Yaw Set Point:	0.511	X_WP:	0.000	Y_WP:	0.000	Y_WP:	0.500	X:	-0.005	Y:	0.104	Z:	0.045	yaw:	-29.250	yaw rate:	1.513	Roll:	-2.034	Pitch:	3.153	Yaw:	-43.712	Thrust:	100.000
Time:	5.907	Roll Set Point:	0.059	Pitch Set Point:	-0.192	Yaw Set Point:	0.511	X_WP:	0.000	Y_WP:	0.000	Y_WP:	0.500	X:	-0.005	Y:	0.104	Z:	0.045	yaw:	-29.261	yaw rate:	-1.093	Roll:	-2.118	Pitch:	3.138	Yaw:	-44.164	Thrust:	100.000
Time:	5.922	Roll Set Point:	0.059	Pitch Set Point:	-0.192	Yaw Set Point:	0.511	X_WP:	0.000	Y_WP:	0.000	Y_WP:	0.500	X:	-0.005	Y:	0.104	Z:	0.045	yaw:	-29.261	yaw rate:	-1.093	Roll:	-2.104	Pitch:	3.149	Yaw:	-43.981	Thrust:	100.000
Time:	5.938	Roll Set Point:	0.059	Pitch Set Point:	-0.192	Yaw Set Point:	0.511	X_WP:	0.000	Y_WP:	0.000	Y_WP:	0.500	X:	-0.005	Y:	0.104	Z:	0.045	yaw:	-29.282	yaw rate:	-2.092	Roll:	-2.127	Pitch:	3.122	Yaw:	-44.361	Thrust:	100.000
Time:	5.953	Roll Set Point:	0.059	Pitch Set Point:	-0.192	Yaw Set Point:	0.511	X_WP:	0.000	Y_WP:	0.000	Y_WP:	0.500	X:	-0.005	Y:	0.104	Z:	0.045	yaw:	-29.282	yaw rate:	-2.092	Roll:	-2.109	Pitch:	3.149	Yaw:	-44.010	Thrust:	100.000
Time:	5.969	Roll Set Point:	0.059	Pitch Set Point:	-0.192	Yaw Set Point:	0.511	X_WP:	0.000	Y_WP:	0.000	Y_WP:	0.500	X:	-0.005	Y:	0.104	Z:	0.045	yaw:	-29.275	yaw rate:	0.640	Roll:	-2.104	Pitch:	3.162	Yaw:	-43.894	Thrust:	100.000
Time:	5.985	Roll Set Point:	0.059	Pitch Set Point:	-0.192	Yaw Set Point:	0.511	X_WP:	0.000	Y_WP:	0.000	Y_WP:	0.500	X:	-0.005	Y:	0.104	Z:	0.045	yaw:	-29.275	yaw rate:	0.640	Roll:	-2.113	Pitch:	3.149	Yaw:	-44.002	Thrust:	100.000
Time:	6.000	Roll Set Point:	-0.057	Pitch Set Point:	-0.111	Yaw Set Point:	0.511	X_WP:	-0.062	Y_WP:	0.128	Y_WP:	0.500	X:	-0.005	Y:	0.104	Z:	0.045	yaw:	-29.264	yaw rate:	1.141	Roll:	30.000	Pitch:	-30.000	Yaw:	-43.794	Thrust:	100.000
Time:	6.016	Roll Set Point:	-0.057	Pitch Set Point:	-0.111	Yaw Set Point:	0.511	X_WP:	-0.062	Y_WP:	0.128	Y_WP:	0.500	X:	-0.005	Y:	0.104	Z:	0.045	yaw:	-29.264	yaw rate:	1.141	Roll:	1.273	Pitch:	0.781	Yaw:	-43.985	Thrust:	100.000
Time:	6.032	Roll Set Point:	-0.057	Pitch Set Point:	-0.111	Yaw Set Point:	0.511	X_WP:	-0.062	Y_WP:	0.128	Y_WP:	0.500	X:	-0.005	Y:	0.104	Z:	0.045	yaw:	-29.251	yaw rate:	1.285	Roll:	1.278	Pitch:	0.771	Yaw:	-43.752	Thrust:	100.000
Time:	6.047	Roll Set Point:	-0.057	Pitch Set Point:	-0.111	Yaw Set Point:	0.511	X_WP:	-0.062	Y_WP:	0.128	Y_WP:	0.500	X:	-0.005	Y:	0.104	Z:	0.045	yaw:	-29.273	yaw rate:	-2.198	Roll:	1.273	Pitch:	0.817	Yaw:	-44.366	Thrust:	100.000
Time:	6.063	Roll Set Point:	-0.057	Pitch Set Point:	-0.111	Yaw Set Point:	0.511	X_WP:	-0.062	Y_WP:	0.128	Y_WP:	0.500	X:	-0.005	Y:	0.104	Z:	0.045	yaw:	-29.261	yaw rate:	1.186	Roll:	1.282	Pitch:	0.748	Yaw:	-43.783	Thrust:	100.000
Time:	6.078	Roll Set Point:	-0.057	Pitch Set Point:	-0.111	Yaw Set Point:	0.511	X_WP:	-0.062	Y_WP:	0.128	Y_WP:	0.500	X:	-0.005	Y:	0.104	Z:	0.045	yaw:	-29.261	yaw rate:	1.186	Roll:	1.282	Pitch:	0.781	Yaw:	-43.981	Thrust:	100.000
Time:	6.094	Roll Set Point:	-0.057	Pitch Set Point:	-0.111	Yaw Set Point:	0.510	X_WP:	-0.062	Y_WP:	0.128	Y_WP:	0.500	X:	-0.005	Y:	0.104	Z:	0.045	yaw:	-29.247	yaw rate:	1.373	Roll:	1.285	Pitch:	0.785	Yaw:	-43.733	Thrust:	100.000
Time:	6.110	Roll Set Point:	-0.057	Pitch Set Point:	-0.111	Yaw Set Point:	0.511	X_WP:	-0.062	Y_WP:	0.128	Y_WP:	0.500	X:	-0.005	Y:	0.104	Z:	0.045	yaw:	-29.273	yaw rate:	-2.957	Roll:	1.286	Pitch:	0.796	Yaw:	-44.436	Thrust:	100.000
Time:	6.125	Roll Set Point:	-0.057	Pitch Set Point:	-0.111	Yaw Set Point:	0.511	X_WP:	-0.062	Y_WP:	0.128	Y_WP:	0.500	X:	-0.005	Y:	0.104	Z:	0.045	yaw:	-29.292	yaw rate:	-1.900	Roll:	1.286	Pitch:	0.802	Yaw:	-44.344	Thrust:	100.000
Time:	6.140	Roll Set Point:	-0.057	Pitch Set Point:	-0.111	Yaw Set Point:	0.510	X_WP:	-0.062	Y_WP:	0.128	Y_WP:	0.500	X:	-0.005	Y:	0.104	Z:	0.045	yaw:	-29.235	yaw rate:	5.766	Roll:	1.317	Pitch:	0.692	Yaw:	-42.860	Thrust:	100.000
Time:	6.156	Roll Set Point:	-0.057	Pitch Set Point:	-0.111	Yaw Set Point:	0.510	X_WP:	-0.062	Y_WP:	0.128	Y_WP:	0.500	X:	-0.005	Y:	0.104	Z:	0.045	yaw:	-29.235	yaw rate:	5.766	Roll:	1.295	Pitch:	0.780	Yaw:	-43.945	Thrust:	100.000
Time:	6.172	Roll Set Point:	-0.057	Pitch Set Point:	-0.111	Yaw Set Point:	0.511	X_WP:	-0.062	Y_WP:	0.128	Y_WP:	0.500	X:	-0.005	Y:	0.104	Z:	0.045	yaw:	-29.258	yaw rate:	-2.305	Roll:	1.291	Pitch:	0.809	Yaw:	-44.363	Thrust:	100.000
Time:	6.187	Roll Set Point:	-0.057	Pitch Set Point:	-0.111	Yaw Set Point:	0.511	X_WP:	-0.062	Y_WP:	0.128	Y_WP:	0.500	X:	-0.005	Y:	0.104	Z:	0.045	yaw:	-29.299	yaw rate:	-4.145	Roll:	1.295	Pitch:	0.842	Yaw:	-44.731	Thrust:	100.000
Time:	6.203	Roll Set Point:	-0.057	Pitch Set Point:	-0.111	Yaw Set Point:	0.511	X_WP:	-0.062	Y_WP:	0.128	Y_WP:	0.500	X:	-0.005	Y:	0.104	Z:	0.045	yaw:	-29.262	yaw rate:	3.141	Roll:	1.309	Pitch:	0.721	Yaw:	-43.358	Thrust:	100.000
Time:	6.219	Roll Set Point:	-0.057	Pitch Set Point:	-0.111	Yaw Set Point:	0.511	X_WP:	-0.062	Y_WP:	0.128	Y_WP:	0.500	X:	-0.005	Y:	0.104	Z:	0.045	yaw:	-29.262	yaw rate:	3.141	Roll:	1.305	Pitch:	0.781	Yaw:	-43.981	Thrust:	100.000
Time:	6.234	Roll Set Point:	-0.057	Pitch Set Point:	-0.111	Yaw Set Point:	0.510	X_WP:	-0.062	Y_WP:	0.128	Y_WP:	0.500	X:	-0.005	Y:	0.104	Z:	0.045	yaw:	-29.245	yaw rate:	1.659	Roll:	1.303	Pitch:	0.776	Yaw:	-43.682	Thrust:	100.000
Time:	6.250	Roll Set Point:	-0.057	Pitch Set Point:	-0.111	Yaw Set Point:	0.511	X_WP:	-0.062	Y_WP:	0.128	Y_WP:	0.500	X:	-0.005	Y:	0.104	Z:	0.045	yaw:	-29.282	yaw rate:	-3.641	Roll:	1.307	Pitch:	0.823	Yaw:	-44.621	Thrust:	100.000
