Time:	2.056	Roll Set Point:	-0.951	Pitch Set Point:	1.769	Yaw Set Point:	0.983	X_WP:	0.000	Y_WP:	0.000	Y_WP:	0.500	X:	0.002	Y:	-1.139	Z:	1.258	yaw:	-56.316	yaw rate:	-52.385	Roll:	27.517	Pitch:	-18.272	Yaw:	-78.632	Thrust:	0.000
Time:	2.067	Roll Set Point:	-0.958	Pitch Set Point:	1.771	Yaw Set Point:	0.987	X_WP:	0.000	Y_WP:	0.000	Y_WP:	0.500	X:	0.003	Y:	-1.143	Z:	1.257	yaw:	-56.550	yaw rate:	-23.410	Roll:	30.000	Pitch:	-14.716	Yaw:	-84.732	Thrust:	0.000
Time:	2.078	Roll Set Point:	-0.970	Pitch Set Point:	1.768	Yaw Set Point:	0.996	X_WP:	0.000	Y_WP:	0.000	Y_WP:	0.500	X:	0.004	Y:	-1.148	Z:	1.255	yaw:	-57.079	yaw rate:	-52.860	Roll:	30.000	Pitch:	-6.553	Yaw:	-92.679	Thrust:	0.000
Time:	2.090	Roll Set Point:	-0.978	Pitch Set Point:	1.769	Yaw Set Point:	1.001	X_WP:	0.000	Y_WP:	0.000	Y_WP:	0.500	X:	0.005	Y:	-1.152	Z:	1.254	yaw:	-57.348	yaw rate:	-26.962	Roll:	30.000	Pitch:	-13.344	Yaw:	-86.653	Thrust:	0.000
Time:	2.102	Roll Set Point:	-0.993	Pitch Set Point:	1.757	Yaw Set Point:	1.019	X_WP:	0.000	Y_WP:	0.000	Y_WP:	0.500	X:	0.006	Y:	-1.156	Z:	1.254	yaw:	-58.356	yaw rate:	-100.785	Roll:	30.000	Pitch:	7.179	Yaw:	-106.271	Thrust:	0.000
Time:	2.113	Roll Set Point:	-0.998	Pitch Set Point:	1.771	Yaw Set Point:	1.013	X_WP:	0.000	Y_WP:	0.000	Y_WP:	0.500	X:	0.008	Y:	-1.162	Z:	1.253	yaw:	-58.026	yaw rate:	33.050	Roll:	30.000	Pitch:	-29.096	Yaw:	-74.270	Thrust:	0.000
Time:	2.124	Roll Set Point:	-1.005	Pitch Set Point:	1.773	Yaw Set Point:	1.015	X_WP:	0.000	Y_WP:	0.000	Y_WP:	0.500	X:	0.009	Y:	-1.166	Z:	1.253	yaw:	-58.171	yaw rate:	-14.506	Roll:	30.000	Pitch:	-15.539	Yaw:	-85.988	Thrust:	0.000
Time:	2.135	Roll Set Point:	-1.012	Pitch Set Point:	1.777	Yaw Set Point:	1.017	X_WP:	0.000	Y_WP:	0.000	Y_WP:	0.500	X:	0.011	Y:	-1.170	Z:	1.254	yaw:	-58.262	yaw rate:	-9.146	Roll:	30.000	Pitch:	-16.879	Yaw:	-85.067	Thrust:	0.000
Time:	2.146	Roll Set Point:	-1.019	Pitch Set Point:	1.778	Yaw Set Point:	1.020	X_WP:	0.000	Y_WP:	0.000	Y_WP:	0.500	X:	0.012	Y:	-1.174	Z:	1.254	yaw:	-58.470	yaw rate:	-20.826	Roll:	30.000	Pitch:	-13.607	Yaw:	-88.325	Thrust:	0.000
Time:	2.157	Roll Set Point:	-1.030	Pitch Set Point:	1.781	Yaw Set Point:	1.025	X_WP:	0.000	Y_WP:	0.000	Y_WP:	0.500	X:	0.014	Y:	-1.180	Z:	1.254	yaw:	-58.752	yaw rate:	-28.194	Roll:	30.000	Pitch:	-12.477	Yaw:	-90.725	Thrust:	0.000
Time:	2.168	Roll Set Point:	-1.047	Pitch Set Point:	1.764	Yaw Set Point:	1.047	X_WP:	0.000	Y_WP:	0.000	Y_WP:	0.500	X:	0.015	Y:	-1.184	Z:	1.254	yaw:	-59.962	yaw rate:	-120.949	Roll:	30.000	Pitch:	15.044	Yaw:	-114.636	Thrust:	0.000
Time:	2.179	Roll Set Point:	-1.056	Pitch Set Point:	1.761	Yaw Set Point:	1.053	X_WP:	0.000	Y_WP:	0.000	Y_WP:	0.500	X:	0.016	Y:	-1.188	Z:	1.254	yaw:	-60.361	yaw rate:	-39.925	Roll:	30.000	Pitch:	-7.388	Yaw:	-95.963	Thrust:	0.000
Time:	2.190	Roll Set Point:	-1.063	Pitch Set Point:	1.763	Yaw Set Point:	1.057	X_WP:	0.000	Y_WP:	0.000	Y_WP:	0.500	X:	0.017	Y:	-1.192	Z:	1.254	yaw:	-60.574	yaw rate:	-21.253	Roll:	30.000	Pitch:	-12.618	Yaw:	-91.827	Thrust:	0.000
Time:	2.201	Roll Set Point:	-1.062	Pitch Set Point:	1.777	Yaw Set Point:	1.049	X_WP:	0.000	Y_WP:	0.000	Y_WP:	0.500	X:	0.017	Y:	-1.196	Z:	1.254	yaw:	-60.095	yaw rate:	47.818	Roll:	29.320	Pitch:	-30.000	Yaw:	-74.772	Thrust:	0.000
Time:	2.212	Roll Set Point:	-1.073	Pitch Set Point:	1.777	Yaw Set Point:	1.056	X_WP:	0.000	Y_WP:	0.000	Y_WP:	0.500	X:	0.018	Y:	-1.202	Z:	1.254	yaw:	-60.512	yaw rate:	-41.662	Roll:	30.000	Pitch:	-8.342	Yaw:	-96.583	Thrust:	0.000
Time:	2.223	Roll Set Point:	-1.083	Pitch Set Point:	1.772	Yaw Set Point:	1.065	X_WP:	0.000	Y_WP:	0.000	Y_WP:	0.500	X:	0.019	Y:	-1.205	Z:	1.255	yaw:	-61.030	yaw rate:	-51.804	Roll:	30.000	Pitch:	-3.559	Yaw:	-99.721	Thrust:	0.000
Time:	2.234	Roll Set Point:	-1.097	Pitch Set Point:	1.756	Yaw Set Point:	1.084	X_WP:	0.000	Y_WP:	0.000	Y_WP:	0.500	X:	0.020	Y:	-1.208	Z:	1.255	yaw:	-62.090	yaw rate:	-105.984	Roll:	30.000	Pitch:	13.147	Yaw:	-114.057	Thrust:	0.000
Time:	2.245	Roll Set Point:	-1.102	Pitch Set Point:	1.757	Yaw Set Point:	1.087	X_WP:	0.000	Y_WP:	0.000	Y_WP:	0.500	X:	0.020	Y:	-1.212	Z:	1.256	yaw:	-62.282	yaw rate:	-19.234	Roll:	30.000	Pitch:	-12.265	Yaw:	-93.739	Thrust:	0.000
Time:	2.256	Roll Set Point:	-1.110	Pitch Set Point:	1.754	Yaw Set Point:	1.093	X_WP:	0.000	Y_WP:	0.000	Y_WP:	0.500	X:	0.021	Y:	-1.215	Z:	1.256	yaw:	-62.647	yaw rate:	-36.510	Roll:	30.000	Pitch:	-6.577	Yaw:	-98.345	Thrust:	0.000
Time:	2.267	Roll Set Point:	-1.124	Pitch Set Point:	1.738	Yaw Set Point:	1.112	X_WP:	0.000	Y_WP:	0.000	Y_WP:	0.500	X:	0.022	Y:	-1.218	Z:	1.257	yaw:	-63.736	yaw rate:	-108.869	Roll:	30.000	Pitch:	15.304	Yaw:	-117.040	Thrust:	0.000
Time:	2.278	Roll Set Point:	-1.131	Pitch Set Point:	1.741	Yaw Set Point:	1.115	X_WP:	0.000	Y_WP:	0.000	Y_WP:	0.500	X:	0.023	Y:	-1.223	Z:	1.259	yaw:	-63.880	yaw rate:	-14.404	Roll:	30.000	Pitch:	-12.789	Yaw:	-94.818	Thrust:	0.000
Time:	2.289	Roll Set Point:	-1.139	Pitch Set Point:	1.736	Yaw Set Point:	1.122	X_WP:	0.000	Y_WP:	0.000	Y_WP:	0.500	X:	0.024	Y:	-1.226	Z:	1.260	yaw:	-64.307	yaw rate:	-42.702	Roll:	30.000	Pitch:	-3.144	Yaw:	-102.117	Thrust:	0.000
Time:	2.300	Roll Set Point:	-1.146	Pitch Set Point:	1.733	Yaw Set Point:	1.128	X_WP:	0.000	Y_WP:	0.000	Y_WP:	0.500	X:	0.025	Y:	-1.229	Z:	1.261	yaw:	-64.615	yaw rate:	-30.759	Roll:	30.000	Pitch:	-6.337	Yaw:	-99.726	Thrust:	0.000
Time:	2.311	Roll Set Point:	-1.143	Pitch Set Point:	1.753	Yaw Set Point:	1.114	X_WP:	0.000	Y_WP:	0.000	Y_WP:	0.500	X:	0.026	Y:	-1.232	Z:	1.262	yaw:	-63.820	yaw rate:	79.417	Roll:	26.870	Pitch:	-30.000	Yaw:	-72.475	Thrust:	0.000
Time:	2.322	Roll Set Point:	-1.155	Pitch Set Point:	1.743	Yaw Set Point:	1.126	X_WP:	0.000	Y_WP:	0.000	Y_WP:	0.500	X:	0.027	Y:	-1.236	Z:	1.264	yaw:	-64.521	yaw rate:	-70.020	Roll:	30.000	Pitch:	5.745	Yaw:	-108.920	Thrust:	0.000
Time:	2.333	Roll Set Point:	-1.152	Pitch Set Point:	1.761	Yaw Set Point:	1.113	X_WP:	0.000	Y_WP:	0.000	Y_WP:	0.500	X:	0.028	Y:	-1.239	Z:	1.266	yaw:	-63.775	yaw rate:	74.530	Roll:	27.355	Pitch:	-30.000	Yaw:	-73.535	Thrust:	0.000
Time:	2.344	Roll Set Point:	-1.157	Pitch Set Point:	1.762	Yaw Set Point:	1.114	X_WP:	0.000	Y_WP:	0.000	Y_WP:	0.500	X:	0.030	Y:	-1.241	Z:	1.268	yaw:	-63.821	yaw rate:	-4.521	Roll:	30.000	Pitch:	-14.109	Yaw:	-92.391	Thrust:	0.000
Time:	2.355	Roll Set Point:	-1.167	Pitch Set Point:	1.749	Yaw Set Point:	1.127	X_WP:	0.000	Y_WP:	0.000	Y_WP:	0.500	X:	0.031	Y:	-1.243	Z:	1.269	yaw:	-64.591	yaw rate:	-77.056	Roll:	30.000	Pitch:	8.564	Yaw:	-110.676	Thrust:	0.000
Time:	2.366	Roll Set Point:	-1.173	Pitch Set Point:	1.746	Yaw Set Point:	1.132	X_WP:	0.000	Y_WP:	0.000	Y_WP:	0.500	X:	0.032	Y:	-1.245	Z:	1.271	yaw:	-64.856	yaw rate:	-26.523	Roll:	30.000	Pitch:	-6.663	Yaw:	-99.057	Thrust:	0.000
Time:	2.377	Roll Set Point:	-1.177	Pitch Set Point:	1.750	Yaw Set Point:	1.131	X_WP:	0.000	Y_WP:	0.000	Y_WP:	0.500	X:	0.033	Y:	-1.248	Z:	1.274	yaw:	-64.802	yaw rate:	5.440	Roll:	30.000	Pitch:	-16.362	Yaw:	-91.393	Thrust:	0.000
Time:	2.388	Roll Set Point:	-1.175	Pitch Set Point:	1.766	Yaw Set Point:	1.119	X_WP:	0.000	Y_WP:	0.000	Y_WP:	0.500	X:	0.034	Y:	-1.251	Z:	1.275	yaw:	-64.108	yaw rate:	69.435	Roll:	27.612	Pitch:	-30.000	Yaw:	-75.234	Thrust:	0.000
Time:	2.399	Roll Set Point:	-1.178	Pitch Set Point:	1.766	Yaw Set Point:	1.120	X_WP:	0.000	Y_WP:	0.000	Y_WP:	0.500	X:	0.035	Y:	-1.252	Z:	1.277	yaw:	-64.157	yaw rate:	-4.907	Roll:	30.000	Pitch:	-13.624	Yaw:	-92.950	Thrust:	0.000
Time:	2.410	Roll Set Point:	-1.188	Pitch Set Point:	1.750	Yaw Set Point:	1.134	X_WP:	0.000	Y_WP:	0.000	Y_WP:	0.500	X:	0.036	Y:	-1.254	Z:	1.278	yaw:	-64.997	yaw rate:	-84.066	Roll:	30.000	Pitch:	11.581	Yaw:	-112.909	Thrust:	0.000
Time:	2.421	Roll Set Point:	-1.184	Pitch Set Point:	1.766	Yaw Set Point:	1.122	X_WP:	0.000	Y_WP:	0.000	Y_WP:	0.500	X:	0.037	Y:	-1.255	Z:	1.280	yaw:	-64.296	yaw rate:	70.113	Roll:	27.193	Pitch:	-30.000	Yaw:	-75.297	Thrust:	0.000
Time:	2.433	Roll Set Point:	-1.187	Pitch Set Point:	1.771	Yaw Set Point:	1.120	X_WP:	0.000	Y_WP:	0.000	Y_WP:	0.500	X:	0.038	Y:	-1.257	Z:	1.282	yaw:	-64.143	yaw rate:	15.339	Roll:	30.000	Pitch:	-19.930	Yaw:	-88.139	Thrust:	0.000
Time:	2.444	Roll Set Point:	-1.196	Pitch Set Point:	1.755	Yaw Set Point:	1.135	X_WP:	0.000	Y_WP:	0.000	Y_WP:	0.500	X:	0.039	Y:	-1.258	Z:	1.283	yaw:	-65.010	yaw rate:	-86.688	Roll:	30.000	Pitch:	12.419	Yaw:	-113.600	Thrust:	0.000
Time:	2.455	Roll Set Point:	-1.193	Pitch Set Point:	1.769	Yaw Set Point:	1.124	X_WP:	0.000	Y_WP:	0.000	Y_WP:	0.500	X:	0.039	Y:	-1.260	Z:	1.284	yaw:	-64.384	yaw rate:	62.547	Roll:	27.673	Pitch:	-30.000	Yaw:	-77.302	Thrust:	0.000
Time:	2.466	Roll Set Point:	-1.193	Pitch Set Point:	1.774	Yaw Set Point:	1.121	X_WP:	0.000	Y_WP:	0.000	Y_WP:	0.500	X:	0.040	Y:	-1.261	Z:	1.285	yaw:	-64.213	yaw rate:	17.083	Roll:	30.000	Pitch:	-20.942	Yaw:	-87.809	Thrust:	0.000
Time:	2.477	Roll Set Point:	-1.195	Pitch Set Point:	1.775	Yaw Set Point:	1.121	X_WP:	0.000	Y_WP:	0.000	Y_WP:	0.500	X:	0.040	Y:	-1.263	Z:	1.286	yaw:	-64.234	yaw rate:	-2.025	Roll:	30.000	Pitch:	-14.985	Yaw:	-92.374	Thrust:	0.000
Time:	2.488	Roll Set Point:	-1.197	Pitch Set Point:	1.776	Yaw Set Point:	1.121	X_WP:	0.000	Y_WP:	0.000	Y_WP:	0.500	X:	0.041	Y:	-1.264	Z:	1.287	yaw:	-64.251	yaw rate:	-1.741	Roll:	30.000	Pitch:	-14.960	Yaw:	-92.329	Thrust:	0.000
Time:	2.499	Roll Set Point:	-1.198	Pitch Set Point:	1.777	Yaw Set Point:	1.122	X_WP:	0.000	Y_WP:	0.000	Y_WP:	0.500	X:	0.041	Y:	-1.265	Z:	1.287	yaw:	-64.263	yaw rate:	-1.208	Roll:	30.000	Pitch:	-15.193	Yaw:	-92.217	Thrust:	0.000
Time:	2.510	Roll Set Point:	-1.196	Pitch Set Point:	1.784	Yaw Set Point:	1.116	X_WP:	0.000	Y_WP:	0.000	Y_WP:	0.500	X:	0.041	Y:	-1.265	Z:	1.288	yaw:	-63.955	yaw rate:	30.836	Roll:	30.000	Pitch:	-25.629	Yaw:	-84.207	Thrust:	0.000
Time:	2.522	Roll Set Point:	-1.205	Pitch Set Point:	1.766	Yaw Set Point:	1.132	X_WP:	0.000	Y_WP:	0.000	Y_WP:	0.500	X:	0.041	Y:	-1.266	Z:	1.289	yaw:	-64.857	yaw rate:	-90.259	Roll:	30.000	Pitch:	13.320	Yaw:	-112.595	Thrust:	0.000
Time:	2.533	Roll Set Point:	-1.200	Pitch Set Point:	1.782	Yaw Set Point:	1.120	X_WP:	0.000	Y_WP:	0.000	Y_WP:	0.500	X:	0.041	Y:	-1.267	Z:	1.289	yaw:	-64.196	yaw rate:	66.177	Roll:	27.352	Pitch:	-30.000	Yaw:	-76.080	Thrust:	0.000
Time:	2.544	Roll Set Point:	-1.201	Pitch Set Point:	1.781	Yaw Set Point:	1.122	X_WP:	0.000	Y_WP:	0.000	Y_WP:	0.500	X:	0.041	Y:	-1.268	Z:	1.290	yaw:	-64.284	yaw rate:	-8.788	Roll:	30.000	Pitch:	-13.042	Yaw:	-94.051	Thrust:	0.000
Time:	2.555	Roll Set Point:	-1.202	Pitch Set Point:	1.781	Yaw Set Point:	1.123	X_WP:	0.000	Y_WP:	0.000	Y_WP:	0.500	X:	0.041	Y:	-1.269	Z:	1.290	yaw:	-64.350	yaw rate:	-6.636	Roll:	30.000	Pitch:	-13.626	Yaw:	-93.630	Thrust:	0.000
Time:	2.566	Roll Set Point:	-1.209	Pitch Set Point:	1.766	Yaw Set Point:	1.136	X_WP:	0.000	Y_WP:	0.000	Y_WP:	0.500	X:	0.041	Y:	-1.269	Z:	1.290	yaw:	-65.086	yaw rate:	-73.647	Roll:	30.000	Pitch:	7.946	Yaw:	-110.564	Thrust:	0.000
Time:	2.578	Roll Set Point:	-1.205	Pitch Set Point:	1.780	Yaw Set Point:	1.126	X_WP:	0.000	Y_WP:	0.000	Y_WP:	0.500	X:	0.041	Y:	-1.270	Z:	1.291	yaw:	-64.487	yaw rate:	59.953	Roll:	28.514	Pitch:	-30.000	Yaw:	-79.401	Thrust:	0.000
Time:	2.590	Roll Set Point:	-1.209	Pitch Set Point:	1.774	Yaw Set Point:	1.132	X_WP:	0.000	Y_WP:	0.000	Y_WP:	0.500	X:	0.041	Y:	-1.271	Z:	1.291	yaw:	-64.868	yaw rate:	-46.324	Roll:	30.000	Pitch:	-5.166	Yaw:	-101.289	Thrust:	0.000
Time:	2.601	Roll Set Point:	-1.206	Pitch Set Point:	1.784	Yaw Set Point:	1.125	X_WP:	0.000	Y_WP:	0.000	Y_WP:	0.500	X:	0.041	Y:	-1.272	Z:	1.290	yaw:	-64.434	yaw rate:	43.441	Roll:	29.611	Pitch:	-29.261	Yaw:	-81.861	Thrust:	0.000
Time:	2.612	Roll Set Point:	-1.208	Pitch Set Point:	1.782	Yaw Set Point:	1.127	X_WP:	0.000	Y_WP:	0.000	Y_WP:	0.500	X:	0.041	Y:	-1.273	Z:	1.290	yaw:	-64.575	yaw rate:	-14.118	Roll:	30.000	Pitch:	-11.036	Yaw:	-95.718	Thrust:	0.000
Time:	2.623	Roll Set Point:	-1.209	Pitch Set Point:	1.783	Yaw Set Point:	1.127	X_WP:	0.000	Y_WP:	0.000	Y_WP:	0.500	X:	0.041	Y:	-1.273	Z:	1.291	yaw:	-64.553	yaw rate:	2.202	Roll:	30.000	Pitch:	-16.008	Yaw:	-91.817	Thrust:	0.000
Time:	2.634	Roll Set Point:	-1.211	Pitch Set Point:	1.780	Yaw Set Point:	1.130	X_WP:	0.000	Y_WP:	0.000	Y_WP:	0.500	X:	0.041	Y:	-1.274	Z:	1.292	yaw:	-64.729	yaw rate:	-17.570	Roll:	30.000	Pitch:	-9.522	Yaw:	-96.755	Thrust:	0.000
Time:	2.645	Roll Set Point:	-1.212	Pitch Set Point:	1.780	Yaw Set Point:	1.130	X_WP:	0.000	Y_WP:	0.000	Y_WP:	0.500	X:	0.042	Y:	-1.274	Z:	1.292	yaw:	-64.752	yaw rate:	-2.322	Roll:	30.000	Pitch:	-13.921	Yaw:	-93.168	Thrust:	0.000
Time:	2.656	Roll Set Point:	-1.214	Pitch Set Point:	1.779	Yaw Set Point:	1.131	X_WP:	0.000	Y_WP:	0.000	Y_WP:	0.500	X:	0.042	Y:	-1.275	Z:	1.293	yaw:	-64.823	yaw rate:	-7.094	Roll:	30.000	Pitch:	-12.312	Yaw:	-94.399	Thrust:	0.000
Time:	2.667	Roll Set Point:	-1.213	Pitch Set Point:	1.784	Yaw Set Point:	1.127	X_WP:	0.000	Y_WP:	0.000	Y_WP:	0.500	X:	0.043	Y:	-1.275	Z:	1.294	yaw:	-64.595	yaw rate:	22.755	Roll:	30.000	Pitch:	-21.863	Yaw:	-87.002	Thrust:	0.000
Time:	2.678	Roll Set Point:	-1.220	Pitch Set Point:	1.773	Yaw Set Point:	1.136	X_WP:	0.000	Y_WP:	0.000	Y_WP:	0.500	X:	0.044	Y:	-1.276	Z:	1.294	yaw:	-65.077	yaw rate:	-48.188	Roll:	30.000	Pitch:	1.765	Yaw:	-104.514	Thrust:	0.000
Time:	2.689	Roll Set Point:	-1.215	Pitch Set Point:	1.790	Yaw Set Point:	1.122	X_WP:	0.000	Y_WP:	0.000	Y_WP:	0.500	X:	0.045	Y:	-1.277	Z:	1.295	yaw:	-64.279	yaw rate:	79.821	Roll:	25.157	Pitch:	-30.000	Yaw:	-72.998	Thrust:	0.000
Time:	2.700	Roll Set Point:	-1.216	Pitch Set Point:	1.791	Yaw Set Point:	1.121	X_WP:	0.000	Y_WP:	0.000	Y_WP:	0.500	X:	0.046	Y:	-1.277	Z:	1.295	yaw:	-64.246	yaw rate:	3.321	Roll:	30.000	Pitch:	-15.741	Yaw:	-91.123	Thrust:	0.000
Time:	2.711	Roll Set Point:	-1.218	Pitch Set Point:	1.792	Yaw Set Point:	1.121	X_WP:	0.000	Y_WP:	0.000	Y_WP:	0.500	X:	0.046	Y:	-1.278	Z:	1.296	yaw:	-64.238	yaw rate:	0.801	Roll:	30.000	Pitch:	-15.234	Yaw:	-91.708	Thrust:	0.000
Time:	2.722	Roll Set Point:	-1.223	Pitch Set Point:	1.781	Yaw Set Point:	1.130	X_WP:	0.000	Y_WP:	0.000	Y_WP:	0.500	X:	0.047	Y:	-1.278	Z:	1.296	yaw:	-64.765	yaw rate:	-52.782	Roll:	30.000	Pitch:	2.357	Yaw:	-105.163	Thrust:	0.000
Time:	2.733	Roll Set Point:	-1.221	Pitch Set Point:	1.793	Yaw Set Point:	1.121	X_WP:	0.000	Y_WP:	0.000	Y_WP:	0.500	X:	0.048	Y:	-1.280	Z:	1.296	yaw:	-64.230	yaw rate:	53.501	Roll:	29.557	Pitch:	-30.000	Yaw:	-79.182	Thrust:	0.000
Time:	2.744	Roll Set Point:	-1.223	Pitch Set Point:	1.794	Yaw Set Point:	1.120	X_WP:	0.000	Y_WP:	0.000	Y_WP:	0.500	X:	0.049	Y:	-1.280	Z:	1.296	yaw:	-64.198	yaw rate:	3.229	Roll:	30.000	Pitch:	-15.944	Yaw:	-91.071	Thrust:	0.000
Time:	2.756	Roll Set Point:	-1.225	Pitch Set Point:	1.793	Yaw Set Point:	1.122	X_WP:	0.000	Y_WP:	0.000	Y_WP:	0.500	X:	0.049	Y:	-1.281	Z:	1.296	yaw:	-64.265	yaw rate:	-6.642	Roll:	30.000	Pitch:	-12.881	Yaw:	-93.514	Thrust:	0.000
Time:	2.767	Roll Set Point:	-1.226	Pitch Set Point:	1.792	Yaw Set Point:	1.123	X_WP:	0.000	Y_WP:	0.000	Y_WP:	0.500	X:	0.050	Y:	-1.282	Z:	1.296	yaw:	-64.343	yaw rate:	-7.841	Roll:	30.000	Pitch:	-12.503	Yaw:	-93.907	Thrust:	0.000
Time:	2.778	Roll Set Point:	-1.229	Pitch Set Point:	1.790	Yaw Set Point:	1.125	X_WP:	0.000	Y_WP:	0.000	Y_WP:	0.500	X:	0.050	Y:	-1.282	Z:	1.295	yaw:	-64.452	yaw rate:	-10.881	Roll:	30.000	Pitch:	-11.566	Yaw:	-94.780	Thrust:	0.000
Time:	2.789	Roll Set Point:	-1.231	Pitch Set Point:	1.789	Yaw Set Point:	1.127	X_WP:	0.000	Y_WP:	0.000	Y_WP:	0.500	X:	0.051	Y:	-1.283	Z:	1.295	yaw:	-64.552	yaw rate:	-10.055	Roll:	30.000	Pitch:	-11.753	Yaw:	-94.725	Thrust:	0.000
Time:	2.800	Roll Set Point:	-1.233	Pitch Set Point:	1.787	Yaw Set Point:	1.129	X_WP:	0.000	Y_WP:	0.000	Y_WP:	0.500	X:	0.051	Y:	-1.284	Z:	1.294	yaw:	-64.664	yaw rate:	-11.177	Roll:	30.000	Pitch:	-11.575	Yaw:	-95.147	Thrust:	0.000
Time:	2.811	Roll Set Point:	-1.235	Pitch Set Point:	1.786	Yaw Set Point:	1.130	X_WP:	0.000	Y_WP:	0.000	Y_WP:	0.500	X:	0.051	Y:	-1.285	Z:	1.294	yaw:	-64.760	yaw rate:	-9.600	Roll:	30.000	Pitch:	-11.994	Yaw:	-94.907	Thrust:	0.000
Time:	2.822	Roll Set Point:	-1.237	Pitch Set Point:	1.784	Yaw Set Point:	1.132	X_WP:	0.000	Y_WP:	0.000	Y_WP:	0.500	X:	0.051	Y:	-1.285	Z:	1.293	yaw:	-64.868	yaw rate:	-10.748	Roll:	30.000	Pitch:	-11.528	Yaw:	-95.329	Thrust:	0.000
Time:	2.833	Roll Set Point:	-1.245	Pitch Set Point:	1.767	Yaw Set Point:	1.148	X_WP:	0.000	Y_WP:	0.000	Y_WP:	0.500	X:	0.052	Y:	-1.286	Z:	1.292	yaw:	-65.750	yaw rate:	-88.247	Roll:	30.000	Pitch:	13.841	Yaw:	-114.947	Thrust:	0.000
Time:	2.844	Roll Set Point:	-1.242	Pitch Set Point:	1.780	Yaw Set Point:	1.137	X_WP:	0.000	Y_WP:	0.000	Y_WP:	0.500	X:	0.052	Y:	-1.287	Z:	1.291	yaw:	-65.147	yaw rate:	60.279	Roll:	28.570	Pitch:	-30.000	Yaw:	-78.859	Thrust:	0.000
Time:	2.855	Roll Set Point:	-1.243	Pitch Set Point:	1.779	Yaw Set Point:	1.139	X_WP:	0.000	Y_WP:	0.000	Y_WP:	0.500	X:	0.052	Y:	-1.288	Z:	1.291	yaw:	-65.248	yaw rate:	-10.065	Roll:	30.000	Pitch:	-11.518	Yaw:	-95.699	Thrust:	0.000
Time:	2.866	Roll Set Point:	-1.245	Pitch Set Point:	1.778	Yaw Set Point:	1.140	X_WP:	0.000	Y_WP:	0.000	Y_WP:	0.500	X:	0.053	Y:	-1.288	Z:	1.290	yaw:	-65.330	yaw rate:	-8.240	Roll:	30.000	Pitch:	-12.102	Yaw:	-95.380	Thrust:	0.000
Time:	2.877	Roll Set Point:	-1.251	Pitch Set Point:	1.766	Yaw Set Point:	1.151	X_WP:	0.000	Y_WP:	0.000	Y_WP:	0.500	X:	0.053	Y:	-1.289	Z:	1.289	yaw:	-65.927	yaw rate:	-59.711	Roll:	30.000	Pitch:	5.194	Yaw:	-108.400	Thrust:	0.000
Time:	2.888	Roll Set Point:	-1.254	Pitch Set Point:	1.763	Yaw Set Point:	1.154	X_WP:	0.000	Y_WP:	0.000	Y_WP:	0.500	X:	0.053	Y:	-1.289	Z:	1.289	yaw:	-66.111	yaw rate:	-18.356	Roll:	30.000	Pitch:	-8.253	Yaw:	-98.877	Thrust:	0.000
Time:	2.899	Roll Set Point:	-1.250	Pitch Set Point:	1.779	Yaw Set Point:	1.142	X_WP:	0.000	Y_WP:	0.000	Y_WP:	0.500	X:	0.054	Y:	-1.291	Z:	1.289	yaw:	-65.406	yaw rate:	70.458	Roll:	28.433	Pitch:	-30.000	Yaw:	-76.805	Thrust:	0.000
Time:	2.910	Roll Set Point:	-1.250	Pitch Set Point:	1.782	Yaw Set Point:	1.140	X_WP:	0.000	Y_WP:	0.000	Y_WP:	0.500	X:	0.054	Y:	-1.292	Z:	1.289	yaw:	-65.292	yaw rate:	11.438	Roll:	30.000	Pitch:	-18.183	Yaw:	-90.656	Thrust:	0.000
Time:	2.921	Roll Set Point:	-1.251	Pitch Set Point:	1.785	Yaw Set Point:	1.137	X_WP:	0.000	Y_WP:	0.000	Y_WP:	0.500	X:	0.055	Y:	-1.292	Z:	1.288	yaw:	-65.173	yaw rate:	11.873	Roll:	30.000	Pitch:	-18.318	Yaw:	-90.386	Thrust:	0.000
Time:	2.932	Roll Set Point:	-1.252	Pitch Set Point:	1.787	Yaw Set Point:	1.137	X_WP:	0.000	Y_WP:	0.000	Y_WP:	0.500	X:	0.055	Y:	-1.293	Z:	1.288	yaw:	-65.131	yaw rate:	4.222	Roll:	30.000	Pitch:	-15.918	Yaw:	-92.144	Thrust:	0.000
Time:	2.943	Roll Set Point:	-1.253	Pitch Set Point:	1.788	Yaw Set Point:	1.136	X_WP:	0.000	Y_WP:	0.000	Y_WP:	0.500	X:	0.056	Y:	-1.294	Z:	1.288	yaw:	-65.089	yaw rate:	4.203	Roll:	30.000	Pitch:	-15.929	Yaw:	-92.109	Thrust:	0.000
Time:	2.954	Roll Set Point:	-1.252	Pitch Set Point:	1.797	Yaw Set Point:	1.130	X_WP:	0.000	Y_WP:	0.000	Y_WP:	0.500	X:	0.057	Y:	-1.295	Z:	1.288	yaw:	-64.736	yaw rate:	35.323	Roll:	30.000	Pitch:	-26.202	Yaw:	-84.143	Thrust:	0.000
Time:	2.965	Roll Set Point:	-1.252	Pitch Set Point:	1.800	Yaw Set Point:	1.128	X_WP:	0.000	Y_WP:	0.000	Y_WP:	0.500	X:	0.057	Y:	-1.296	Z:	1.288	yaw:	-64.637	yaw rate:	9.847	Roll:	30.000	Pitch:	-18.218	Yaw:	-90.130	Thrust:	0.000
Time:	2.976	Roll Set Point:	-1.257	Pitch Set Point:	1.791	Yaw Set Point:	1.136	X_WP:	0.000	Y_WP:	0.000	Y_WP:	0.500	X:	0.057	Y:	-1.297	Z:	1.288	yaw:	-65.075	yaw rate:	-43.780	Roll:	30.000	Pitch:	-0.697	Yaw:	-103.464	Thrust:	0.000
Time:	2.987	Roll Set Point:	-1.260	Pitch Set Point:	1.786	Yaw Set Point:	1.141	X_WP:	0.000	Y_WP:	0.000	Y_WP:	0.500	X:	0.057	Y:	-1.297	Z:	1.288	yaw:	-65.355	yaw rate:	-27.995	Roll:	30.000	Pitch:	-5.838	Yaw:	-100.112	Thrust:	0.000
Time:	2.998	Roll Set Point:	-1.253	Pitch Set Point:	1.806	Yaw Set Point:	1.125	X_WP:	0.000	Y_WP:	0.000	Y_WP:	0.500	X:	0.057	Y:	-1.298	Z:	1.288	yaw:	-64.478	yaw rate:	87.712	Roll:	24.456	Pitch:	-30.000	Yaw:	-71.412	Thrust:	0.000
Time:	3.009	Roll Set Point:	-1.254	Pitch Set Point:	1.805	Yaw Set Point:	1.127	X_WP:	0.000	Y_WP:	0.000	Y_WP:	0.500	X:	0.057	Y:	-1.299	Z:	1.287	yaw:	-64.550	yaw rate:	-7.243	Roll:	30.000	Pitch:	-13.631	Yaw:	-94.055	Thrust:	0.000
Time:	3.020	Roll Set Point:	-1.254	Pitch Set Point:	1.806	Yaw Set Point:	1.127	X_WP:	0.000	Y_WP:	0.000	Y_WP:	0.500	X:	0.057	Y:	-1.299	Z:	1.287	yaw:	-64.577	yaw rate:	-2.682	Roll:	30.000	Pitch:	-15.035	Yaw:	-93.009	Thrust:	0.000
Time:	3.031	Roll Set Point:	-1.259	Pitch Set Point:	1.793	Yaw Set Point:	1.138	X_WP:	0.000	Y_WP:	0.000	Y_WP:	0.500	X:	0.056	Y:	-1.299	Z:	1.287	yaw:	-65.222	yaw rate:	-64.477	Roll:	30.000	Pitch:	5.285	Yaw:	-108.578	Thrust:	0.000
Time:	3.042	Roll Set Point:	-1.255	Pitch Set Point:	1.804	Yaw Set Point:	1.130	X_WP:	0.000	Y_WP:	0.000	Y_WP:	0.500	X:	0.056	Y:	-1.300	Z:	1.287	yaw:	-64.733	yaw rate:	48.906	Roll:	28.935	Pitch:	-30.000	Yaw:	-80.954	Thrust:	0.000
Time:	3.053	Roll Set Point:	-1.256	Pitch Set Point:	1.801	Yaw Set Point:	1.133	X_WP:	0.000	Y_WP:	0.000	Y_WP:	0.500	X:	0.055	Y:	-1.300	Z:	1.287	yaw:	-64.939	yaw rate:	-20.616	Roll:	30.000	Pitch:	-9.368	Yaw:	-97.771	Thrust:	0.000
Time:	3.064	Roll Set Point:	-1.261	Pitch Set Point:	1.786	Yaw Set Point:	1.147	X_WP:	0.000	Y_WP:	0.000	Y_WP:	0.500	X:	0.054	Y:	-1.300	Z:	1.286	yaw:	-65.708	yaw rate:	-76.872	Roll:	30.000	Pitch:	8.826	Yaw:	-112.198	Thrust:	0.000
Time:	3.075	Roll Set Point:	-1.261	Pitch Set Point:	1.782	Yaw Set Point:	1.150	X_WP:	0.000	Y_WP:	0.000	Y_WP:	0.500	X:	0.053	Y:	-1.300	Z:	1.286	yaw:	-65.917	yaw rate:	-20.886	Roll:	30.000	Pitch:	-8.848	Yaw:	-99.194	Thrust:	0.000
Time:	3.086	Roll Set Point:	-1.261	Pitch Set Point:	1.781	Yaw Set Point:	1.152	X_WP:	0.000	Y_WP:	0.000	Y_WP:	0.500	X:	0.052	Y:	-1.300	Z:	1.286	yaw:	-66.022	yaw rate:	-10.514	Roll:	30.000	Pitch:	-12.079	Yaw:	-96.885	Thrust:	0.000
Time:	3.097	Roll Set Point:	-1.261	Pitch Set Point:	1.779	Yaw Set Point:	1.154	X_WP:	0.000	Y_WP:	0.000	Y_WP:	0.500	X:	0.051	Y:	-1.300	Z:	1.286	yaw:	-66.128	yaw rate:	-10.617	Roll:	30.000	Pitch:	-12.057	Yaw:	-97.058	Thrust:	0.000
Time:	3.108	Roll Set Point:	-1.255	Pitch Set Point:	1.794	Yaw Set Point:	1.144	X_WP:	0.000	Y_WP:	0.000	Y_WP:	0.500	X:	0.050	Y:	-1.301	Z:	1.286	yaw:	-65.524	yaw rate:	60.403	Roll:	27.578	Pitch:	-30.000	Yaw:	-79.357	Thrust:	0.000
Time:	3.119	Roll Set Point:	-1.254	Pitch Set Point:	1.795	Yaw Set Point:	1.144	X_WP:	0.000	Y_WP:	0.000	Y_WP:	0.500	X:	0.049	Y:	-1.301	Z:	1.287	yaw:	-65.540	yaw rate:	-1.560	Roll:	30.000	Pitch:	-15.553	Yaw:	-94.087	Thrust:	0.000
Time:	3.131	Roll Set Point:	-1.254	Pitch Set Point:	1.795	Yaw Set Point:	1.145	X_WP:	0.000	Y_WP:	0.000	Y_WP:	0.500	X:	0.049	Y:	-1.301	Z:	1.287	yaw:	-65.575	yaw rate:	-3.580	Roll:	30.000	Pitch:	-14.886	Yaw:	-94.616	Thrust:	0.000
Time:	3.142	Roll Set Point:	-1.252	Pitch Set Point:	1.797	Yaw Set Point:	1.144	X_WP:	0.000	Y_WP:	0.000	Y_WP:	0.500	X:	0.048	Y:	-1.302	Z:	1.287	yaw:	-65.546	yaw rate:	2.933	Roll:	30.000	Pitch:	-17.206	Yaw:	-93.029	Thrust:	0.000
Time:	3.153	Roll Set Point:	-1.252	Pitch Set Point:	1.798	Yaw Set Point:	1.144	X_WP:	0.000	Y_WP:	0.000	Y_WP:	0.500	X:	0.047	Y:	-1.302	Z:	1.287	yaw:	-65.566	yaw rate:	-1.966	Roll:	30.000	Pitch:	-15.626	Yaw:	-94.215	Thrust:	0.000
Time:	3.164	Roll Set Point:	-1.251	Pitch Set Point:	1.800	Yaw Set Point:	1.144	X_WP:	0.000	Y_WP:	0.000	Y_WP:	0.500	X:	0.046	Y:	-1.303	Z:	1.287	yaw:	-65.539	yaw rate:	2.686	Roll:	30.000	Pitch:	-17.120	Yaw:	-93.078	Thrust:	0.000
Time:	3.175	Roll Set Point:	-1.249	Pitch Set Point:	1.804	Yaw Set Point:	1.143	X_WP:	0.000	Y_WP:	0.000	Y_WP:	0.500	X:	0.045	Y:	-1.303	Z:	1.288	yaw:	-65.477	yaw rate:	6.161	Roll:	30.000	Pitch:	-19.454	Yaw:	-92.176	Thrust:	0.000
Time:	3.186	Roll Set Point:	-1.248	Pitch Set Point:	1.806	Yaw Set Point:	1.143	X_WP:	0.000	Y_WP:	0.000	Y_WP:	0.500	X:	0.044	Y:	-1.304	Z:	1.288	yaw:	-65.466	yaw rate:	1.143	Roll:	30.000	Pitch:	-17.067	Yaw:	-93.341	Thrust:	0.000
Time:	3.197	Roll Set Point:	-1.246	Pitch Set Point:	1.811	Yaw Set Point:	1.140	X_WP:	0.000	Y_WP:	0.000	Y_WP:	0.500	X:	0.043	Y:	-1.305	Z:	1.288	yaw:	-65.314	yaw rate:	15.162	Roll:	30.000	Pitch:	-21.891	Yaw:	-89.810	Thrust:	0.000
Time:	3.208	Roll Set Point:	-1.246	Pitch Set Point:	1.810	Yaw Set Point:	1.142	X_WP:	0.000	Y_WP:	0.000	Y_WP:	0.500	X:	0.041	Y:	-1.305	Z:	1.288	yaw:	-65.422	yaw rate:	-10.760	Roll:	30.000	Pitch:	-13.387	Yaw:	-96.106	Thrust:	0.000
Time:	3.219	Roll Set Point:	-1.243	Pitch Set Point:	1.814	Yaw Set Point:	1.141	X_WP:	0.000	Y_WP:	0.000	Y_WP:	0.500	X:	0.040	Y:	-1.306	Z:	1.288	yaw:	-65.359	yaw rate:	6.320	Roll:	30.000	Pitch:	-20.321	Yaw:	-91.971	Thrust:	0.000
Time:	3.230	Roll Set Point:	-1.242	Pitch Set Point:	1.816	Yaw Set Point:	1.141	X_WP:	0.000	Y_WP:	0.000	Y_WP:	0.500	X:	0.038	Y:	-1.306	Z:	1.288	yaw:	-65.388	yaw rate:	-2.948	Roll:	30.000	Pitch:	-16.271	Yaw:	-94.199	Thrust:	0.000
Time:	3.241	Roll Set Point:	-1.240	Pitch Set Point:	1.817	Yaw Set Point:	1.141	X_WP:	0.000	Y_WP:	0.000	Y_WP:	0.500	X:	0.037	Y:	-1.307	Z:	1.289	yaw:	-65.388	yaw rate:	-0.008	Roll:	30.000	Pitch:	-17.441	Yaw:	-93.512	Thrust:	0.000
Time:	3.252	Roll Set Point:	-1.238	Pitch Set Point:	1.820	Yaw Set Point:	1.141	X_WP:	0.000	Y_WP:	0.000	Y_WP:	0.500	X:	0.036	Y:	-1.307	Z:	1.289	yaw:	-65.349	yaw rate:	3.893	Roll:	30.000	Pitch:	-18.828	Yaw:	-92.519	Thrust:	0.000
Time:	3.263	Roll Set Point:	-1.238	Pitch Set Point:	1.819	Yaw Set Point:	1.143	X_WP:	0.000	Y_WP:	0.000	Y_WP:	0.500	X:	0.034	Y:	-1.308	Z:	1.289	yaw:	-65.499	yaw rate:	-15.005	Roll:	30.000	Pitch:	-12.700	Yaw:	-97.219	Thrust:	0.000
Time:	3.274	Roll Set Point:	-1.236	Pitch Set Point:	1.821	Yaw Set Point:	1.143	X_WP:	0.000	Y_WP:	0.000	Y_WP:	0.500	X:	0.033	Y:	-1.308	Z:	1.289	yaw:	-65.471	yaw rate:	2.773	Roll:	30.000	Pitch:	-18.524	Yaw:	-92.957	Thrust:	0.000
Time:	3.285	Roll Set Point:	-1.233	Pitch Set Point:	1.825	Yaw Set Point:	1.142	X_WP:	0.000	Y_WP:	0.000	Y_WP:	0.500	X:	0.030	Y:	-1.308	Z:	1.289	yaw:	-65.431	yaw rate:	4.091	Roll:	30.000	Pitch:	-20.288	Yaw:	-92.600	Thrust:	0.000
Time:	3.296	Roll Set Point:	-1.231	Pitch Set Point:	1.824	Yaw Set Point:	1.144	X_WP:	0.000	Y_WP:	0.000	Y_WP:	0.500	X:	0.028	Y:	-1.309	Z:	1.289	yaw:	-65.537	yaw rate:	-10.603	Roll:	30.000	Pitch:	-14.491	Yaw:	-96.229	Thrust:	0.000
Time:	3.307	Roll Set Point:	-1.230	Pitch Set Point:	1.824	Yaw Set Point:	1.145	X_WP:	0.000	Y_WP:	0.000	Y_WP:	0.500	X:	0.027	Y:	-1.309	Z:	1.290	yaw:	-65.629	yaw rate:	-9.228	Roll:	30.000	Pitch:	-14.739	Yaw:	-96.032	Thrust:	0.000
Time:	3.319	Roll Set Point:	-1.228	Pitch Set Point:	1.825	Yaw Set Point:	1.146	X_WP:	0.000	Y_WP:	0.000	Y_WP:	0.500	X:	0.025	Y:	-1.309	Z:	1.290	yaw:	-65.679	yaw rate:	-4.999	Roll:	30.000	Pitch:	-16.529	Yaw:	-95.203	Thrust:	0.000
Time:	3.331	Roll Set Point:	-1.227	Pitch Set Point:	1.822	Yaw Set Point:	1.151	X_WP:	0.000	Y_WP:	0.000	Y_WP:	0.500	X:	0.022	Y:	-1.309	Z:	1.290	yaw:	-65.949	yaw rate:	-27.029	Roll:	30.000	Pitch:	-10.710	Yaw:	-100.372	Thrust:	0.000
Time:	3.342	Roll Set Point:	-1.232	Pitch Set Point:	1.805	Yaw Set Point:	1.166	X_WP:	0.000	Y_WP:	0.000	Y_WP:	0.500	X:	0.021	Y:	-1.309	Z:	1.290	yaw:	-66.818	yaw rate:	-86.913	Roll:	30.000	Pitch:	11.025	Yaw:	-116.135	Thrust:	0.000
Time:	3.353	Roll Set Point:	-1.230	Pitch Set Point:	1.804	Yaw Set Point:	1.168	X_WP:	0.000	Y_WP:	0.000	Y_WP:	0.500	X:	0.019	Y:	-1.309	Z:	1.290	yaw:	-66.921	yaw rate:	-10.239	Roll:	30.000	Pitch:	-13.989	Yaw:	-98.075	Thrust:	0.000
Time:	3.364	Roll Set Point:	-1.225	Pitch Set Point:	1.812	Yaw Set Point:	1.163	X_WP:	0.000	Y_WP:	0.000	Y_WP:	0.500	X:	0.017	Y:	-1.309	Z:	1.291	yaw:	-66.634	yaw rate:	28.663	Roll:	30.000	Pitch:	-26.874	Yaw:	-88.442	Thrust:	0.000
Time:	3.375	Roll Set Point:	-1.219	Pitch Set Point:	1.822	Yaw Set Point:	1.156	X_WP:	0.000	Y_WP:	0.000	Y_WP:	0.500	X:	0.015	Y:	-1.309	Z:	1.291	yaw:	-66.257	yaw rate:	37.656	Roll:	28.871	Pitch:	-30.000	Yaw:	-85.780	Thrust:	0.000
Time:	3.386	Roll Set Point:	-1.218	Pitch Set Point:	1.820	Yaw Set Point:	1.159	X_WP:	0.000	Y_WP:	0.000	Y_WP:	0.500	X:	0.013	Y:	-1.309	Z:	1.291	yaw:	-66.426	yaw rate:	-16.884	Roll:	30.000	Pitch:	-12.098	Yaw:	-98.962	Thrust:	0.000
Time:	3.397	Roll Set Point:	-1.215	Pitch Set Point:	1.819	Yaw Set Point:	1.162	X_WP:	0.000	Y_WP:	0.000	Y_WP:	0.500	X:	0.010	Y:	-1.308	Z:	1.292	yaw:	-66.583	yaw rate:	-15.688	Roll:	30.000	Pitch:	-13.938	Yaw:	-98.897	Thrust:	0.000
Time:	3.408	Roll Set Point:	-1.214	Pitch Set Point:	1.817	Yaw Set Point:	1.165	X_WP:	0.000	Y_WP:	0.000	Y_WP:	0.500	X:	0.008	Y:	-1.308	Z:	1.292	yaw:	-66.770	yaw rate:	-18.651	Roll:	30.000	Pitch:	-11.994	Yaw:	-99.862	Thrust:	0.000
Time:	3.419	Roll Set Point:	-1.211	Pitch Set Point:	1.818	Yaw Set Point:	1.166	X_WP:	0.000	Y_WP:	0.000	Y_WP:	0.500	X:	0.006	Y:	-1.308	Z:	1.292	yaw:	-66.788	yaw rate:	-1.806	Roll:	30.000	Pitch:	-17.207	Yaw:	-95.888	Thrust:	0.000
Time:	3.430	Roll Set Point:	-1.209	Pitch Set Point:	1.817	Yaw Set Point:	1.168	X_WP:	0.000	Y_WP:	0.000	Y_WP:	0.500	X:	0.004	Y:	-1.308	Z:	1.292	yaw:	-66.910	yaw rate:	-12.234	Roll:	30.000	Pitch:	-13.939	Yaw:	-98.534	Thrust:	0.000
Time:	3.441	Roll Set Point:	-1.207	Pitch Set Point:	1.815	Yaw Set Point:	1.171	X_WP:	0.000	Y_WP:	0.000	Y_WP:	0.500	X:	0.002	Y:	-1.307	Z:	1.292	yaw:	-67.065	yaw rate:	-15.495	Roll:	30.000	Pitch:	-12.844	Yaw:	-99.528	Thrust:	0.000
Time:	3.452	Roll Set Point:	-1.204	Pitch Set Point:	1.814	Yaw Set Point:	1.173	X_WP:	0.000	Y_WP:	0.000	Y_WP:	0.500	X:	-0.001	Y:	-1.307	Z:	1.292	yaw:	-67.223	yaw rate:	-15.818	Roll:	30.000	Pitch:	-14.108	Yaw:	-99.819	Thrust:	0.000
Time:	3.463	Roll Set Point:	-1.201	Pitch Set Point:	1.814	Yaw Set Point:	1.174	X_WP:	0.000	Y_WP:	0.000	Y_WP:	0.500	X:	-0.003	Y:	-1.307	Z:	1.292	yaw:	-67.292	yaw rate:	-6.882	Roll:	30.000	Pitch:	-15.733	Yaw:	-97.797	Thrust:	0.000
Time:	3.474	Roll Set Point:	-1.199	Pitch Set Point:	1.814	Yaw Set Point:	1.175	X_WP:	0.000	Y_WP:	0.000	Y_WP:	0.500	X:	-0.005	Y:	-1.306	Z:	1.292	yaw:	-67.341	yaw rate:	-4.895	Roll:	30.000	Pitch:	-16.469	Yaw:	-97.394	Thrust:	0.000
Time:	3.485	Roll Set Point:	-1.195	Pitch Set Point:	1.816	Yaw Set Point:	1.176	X_WP:	0.000	Y_WP:	0.000	Y_WP:	0.500	X:	-0.007	Y:	-1.306	Z:	1.292	yaw:	-67.367	yaw rate:	-2.635	Roll:	30.000	Pitch:	-17.344	Yaw:	-96.895	Thrust:	0.000
Time:	3.496	Roll Set Point:	-1.194	Pitch Set Point:	1.812	Yaw Set Point:	1.180	X_WP:	0.000	Y_WP:	0.000	Y_WP:	0.500	X:	-0.010	Y:	-1.306	Z:	1.292	yaw:	-67.611	yaw rate:	-24.360	Roll:	30.000	Pitch:	-10.181	Yaw:	-102.400	Thrust:	0.000
Time:	3.508	Roll Set Point:	-1.190	Pitch Set Point:	1.812	Yaw Set Point:	1.182	X_WP:	0.000	Y_WP:	0.000	Y_WP:	0.500	X:	-0.013	Y:	-1.305	Z:	1.291	yaw:	-67.733	yaw rate:	-12.158	Roll:	30.000	Pitch:	-16.043	Yaw:	-99.662	Thrust:	0.000
Time:	3.519	Roll Set Point:	-1.188	Pitch Set Point:	1.810	Yaw Set Point:	1.186	X_WP:	0.000	Y_WP:	0.000	Y_WP:	0.500	X:	-0.016	Y:	-1.305	Z:	1.291	yaw:	-67.936	yaw rate:	-20.317	Roll:	30.000	Pitch:	-11.736	Yaw:	-101.885	Thrust:	0.000
Time:	3.530	Roll Set Point:	-1.185	Pitch Set Point:	1.810	Yaw Set Point:	1.187	X_WP:	0.000	Y_WP:	0.000	Y_WP:	0.500	X:	-0.018	Y:	-1.305	Z:	1.291	yaw:	-68.012	yaw rate:	-7.629	Roll:	30.000	Pitch:	-15.997	Yaw:	-98.979	Thrust:	0.000
Time:	3.541	Roll Set Point:	-1.181	Pitch Set Point:	1.809	Yaw Set Point:	1.189	X_WP:	0.000	Y_WP:	0.000	Y_WP:	0.500	X:	-0.021	Y:	-1.304	Z:	1.290	yaw:	-68.120	yaw rate:	-10.772	Roll:	30.000	Pitch:	-15.209	Yaw:	-99.876	Thrust:	0.000
Time:	3.552	Roll Set Point:	-1.176	Pitch Set Point:	1.810	Yaw Set Point:	1.191	X_WP:	0.000	Y_WP:	0.000	Y_WP:	0.500	X:	-0.025	Y:	-1.303	Z:	1.290	yaw:	-68.240	yaw rate:	-12.075	Roll:	30.000	Pitch:	-16.769	Yaw:	-100.354	Thrust:	0.000
Time:	3.563	Roll Set Point:	-1.172	Pitch Set Point:	1.809	Yaw Set Point:	1.193	X_WP:	0.000	Y_WP:	0.000	Y_WP:	0.500	X:	-0.028	Y:	-1.303	Z:	1.290	yaw:	-68.353	yaw rate:	-11.283	Roll:	30.000	Pitch:	-15.382	Yaw:	-100.323	Thrust:	0.000
Time:	3.574	Roll Set Point:	-1.169	Pitch Set Point:	1.808	Yaw Set Point:	1.196	X_WP:	0.000	Y_WP:	0.000	Y_WP:	0.500	X:	-0.031	Y:	-1.302	Z:	1.289	yaw:	-68.520	yaw rate:	-16.632	Roll:	30.000	Pitch:	-13.566	Yaw:	-101.825	Thrust:	0.000
Time:	3.585	Roll Set Point:	-1.165	Pitch Set Point:	1.808	Yaw Set Point:	1.198	X_WP:	0.000	Y_WP:	0.000	Y_WP:	0.500	X:	-0.034	Y:	-1.301	Z:	1.289	yaw:	-68.621	yaw rate:	-10.098	Roll:	30.000	Pitch:	-16.059	Yaw:	-100.415	Thrust:	0.000
Time:	3.596	Roll Set Point:	-1.161	Pitch Set Point:	1.807	Yaw Set Point:	1.200	X_WP:	0.000	Y_WP:	0.000	Y_WP:	0.500	X:	-0.038	Y:	-1.300	Z:	1.289	yaw:	-68.747	yaw rate:	-12.603	Roll:	30.000	Pitch:	-15.449	Yaw:	-101.188	Thrust:	0.000
Time:	3.607	Roll Set Point:	-1.154	Pitch Set Point:	1.807	Yaw Set Point:	1.202	X_WP:	0.000	Y_WP:	0.000	Y_WP:	0.500	X:	-0.043	Y:	-1.299	Z:	1.288	yaw:	-68.879	yaw rate:	-13.215	Roll:	30.000	Pitch:	-17.503	Yaw:	-101.514	Thrust:	0.000
Time:	3.618	Roll Set Point:	-1.150	Pitch Set Point:	1.805	Yaw Set Point:	1.206	X_WP:	0.000	Y_WP:	0.000	Y_WP:	0.500	X:	-0.046	Y:	-1.298	Z:	1.288	yaw:	-69.073	yaw rate:	-19.461	Roll:	30.000	Pitch:	-13.341	Yaw:	-103.275	Thrust:	0.000
Time:	3.629	Roll Set Point:	-1.145	Pitch Set Point:	1.805	Yaw Set Point:	1.208	X_WP:	0.000	Y_WP:	0.000	Y_WP:	0.500	X:	-0.050	Y:	-1.298	Z:	1.288	yaw:	-69.209	yaw rate:	-13.559	Roll:	30.000	Pitch:	-15.544	Yaw:	-102.057	Thrust:	0.000
Time:	3.640	Roll Set Point:	-1.141	Pitch Set Point:	1.804	Yaw Set Point:	1.210	X_WP:	0.000	Y_WP:	0.000	Y_WP:	0.500	X:	-0.054	Y:	-1.297	Z:	1.287	yaw:	-69.342	yaw rate:	-13.334	Roll:	30.000	Pitch:	-15.764	Yaw:	-102.191	Thrust:	0.000
Time:	3.651	Roll Set Point:	-1.135	Pitch Set Point:	1.806	Yaw Set Point:	1.211	X_WP:	0.000	Y_WP:	0.000	Y_WP:	0.500	X:	-0.057	Y:	-1.296	Z:	1.287	yaw:	-69.365	yaw rate:	-2.263	Roll:	30.000	Pitch:	-19.491	Yaw:	-99.595	Thrust:	0.000
Time:	3.662	Roll Set Point:	-1.130	Pitch Set Point:	1.805	Yaw Set Point:	1.213	X_WP:	0.000	Y_WP:	0.000	Y_WP:	0.500	X:	-0.062	Y:	-1.295	Z:	1.287	yaw:	-69.516	yaw rate:	-15.083	Roll:	30.000	Pitch:	-15.718	Yaw:	-102.848	Thrust:	0.000
Time:	3.673	Roll Set Point:	-1.123	Pitch Set Point:	1.802	Yaw Set Point:	1.219	X_WP:	0.000	Y_WP:	0.000	Y_WP:	0.500	X:	-0.068	Y:	-1.293	Z:	1.286	yaw:	-69.823	yaw rate:	-30.676	Roll:	30.000	Pitch:	-13.310	Yaw:	-106.980	Thrust:	0.000
Time:	3.684	Roll Set Point:	-1.117	Pitch Set Point:	1.802	Yaw Set Point:	1.221	X_WP:	0.000	Y_WP:	0.000	Y_WP:	0.500	X:	-0.072	Y:	-1.292	Z:	1.286	yaw:	-69.981	yaw rate:	-15.851	Roll:	30.000	Pitch:	-15.745	Yaw:	-103.680	Thrust:	0.000
Time:	3.695	Roll Set Point:	-1.111	Pitch Set Point:	1.802	Yaw Set Point:	1.223	X_WP:	0.000	Y_WP:	0.000	Y_WP:	0.500	X:	-0.076	Y:	-1.291	Z:	1.286	yaw:	-70.092	yaw rate:	-11.122	Roll:	30.000	Pitch:	-17.461	Yaw:	-102.714	Thrust:	0.000
Time:	3.706	Roll Set Point:	-1.104	Pitch Set Point:	1.802	Yaw Set Point:	1.225	X_WP:	0.000	Y_WP:	0.000	Y_WP:	0.500	X:	-0.081	Y:	-1.289	Z:	1.286	yaw:	-70.193	yaw rate:	-10.051	Roll:	30.000	Pitch:	-18.107	Yaw:	-102.599	Thrust:	0.000
Time:	3.717	Roll Set Point:	-1.093	Pitch Set Point:	1.806	Yaw Set Point:	1.225	X_WP:	0.000	Y_WP:	0.000	Y_WP:	0.500	X:	-0.088	Y:	-1.287	Z:	1.286	yaw:	-70.186	yaw rate:	0.633	Roll:	27.923	Pitch:	-24.985	Yaw:	-100.059	Thrust:	0.000
Time:	3.728	Roll Set Point:	-1.090	Pitch Set Point:	1.800	Yaw Set Point:	1.233	X_WP:	0.000	Y_WP:	0.000	Y_WP:	0.500	X:	-0.093	Y:	-1.286	Z:	1.286	yaw:	-70.636	yaw rate:	-44.906	Roll:	30.000	Pitch:	-6.970	Yaw:	-111.507	Thrust:	0.000
Time:	3.739	Roll Set Point:	-1.084	Pitch Set Point:	1.796	Yaw Set Point:	1.238	X_WP:	0.000	Y_WP:	0.000	Y_WP:	0.500	X:	-0.098	Y:	-1.284	Z:	1.286	yaw:	-70.959	yaw rate:	-32.376	Roll:	30.000	Pitch:	-11.385	Yaw:	-108.953	Thrust:	0.000
Time:	3.750	Roll Set Point:	-1.077	Pitch Set Point:	1.796	Yaw Set Point:	1.240	X_WP:	0.000	Y_WP:	0.000	Y_WP:	0.500	X:	-0.103	Y:	-1.283	Z:	1.286	yaw:	-71.057	yaw rate:	-9.787	Roll:	30.000	Pitch:	-18.653	Yaw:	-103.743	Thrust:	0.000
Time:	3.761	Roll Set Point:	-1.072	Pitch Set Point:	1.793	Yaw Set Point:	1.245	X_WP:	0.000	Y_WP:	0.000	Y_WP:	0.500	X:	-0.108	Y:	-1.281	Z:	1.285	yaw:	-71.346	yaw rate:	-28.847	Roll:	30.000	Pitch:	-12.905	Yaw:	-108.671	Thrust:	0.000
Time:	3.772	Roll Set Point:	-1.060	Pitch Set Point:	1.795	Yaw Set Point:	1.247	X_WP:	0.000	Y_WP:	0.000	Y_WP:	0.500	X:	-0.116	Y:	-1.279	Z:	1.285	yaw:	-71.464	yaw rate:	-11.838	Roll:	29.004	Pitch:	-21.950	Yaw:	-104.800	Thrust:	0.000
Time:	3.783	Roll Set Point:	-1.055	Pitch Set Point:	1.791	Yaw Set Point:	1.253	X_WP:	0.000	Y_WP:	0.000	Y_WP:	0.500	X:	-0.121	Y:	-1.278	Z:	1.285	yaw:	-71.790	yaw rate:	-32.603	Roll:	30.000	Pitch:	-11.699	Yaw:	-110.169	Thrust:	0.000
Time:	3.794	Roll Set Point:	-1.047	Pitch Set Point:	1.793	Yaw Set Point:	1.255	X_WP:	0.000	Y_WP:	0.000	Y_WP:	0.500	X:	-0.126	Y:	-1.276	Z:	1.285	yaw:	-71.884	yaw rate:	-9.392	Roll:	30.000	Pitch:	-19.711	Yaw:	-104.804	Thrust:	0.000
Time:	3.805	Roll Set Point:	-1.040	Pitch Set Point:	1.791	Yaw Set Point:	1.258	X_WP:	0.000	Y_WP:	0.000	Y_WP:	0.500	X:	-0.132	Y:	-1.274	Z:	1.285	yaw:	-72.093	yaw rate:	-20.902	Roll:	30.000	Pitch:	-16.144	Yaw:	-107.835	Thrust:	0.000
Time:	3.816	Roll Set Point:	-1.032	Pitch Set Point:	1.786	Yaw Set Point:	1.267	X_WP:	0.000	Y_WP:	0.000	Y_WP:	0.500	X:	-0.140	Y:	-1.272	Z:	1.285	yaw:	-72.579	yaw rate:	-48.580	Roll:	30.000	Pitch:	-10.917	Yaw:	-115.057	Thrust:	0.000
Time:	3.827	Roll Set Point:	-1.024	Pitch Set Point:	1.787	Yaw Set Point:	1.269	X_WP:	0.000	Y_WP:	0.000	Y_WP:	0.500	X:	-0.146	Y:	-1.270	Z:	1.285	yaw:	-72.683	yaw rate:	-10.385	Roll:	30.000	Pitch:	-19.724	Yaw:	-106.155	Thrust:	0.000
Time:	3.838	Roll Set Point:	-1.017	Pitch Set Point:	1.786	Yaw Set Point:	1.273	X_WP:	0.000	Y_WP:	0.000	Y_WP:	0.500	X:	-0.151	Y:	-1.269	Z:	1.285	yaw:	-72.912	yaw rate:	-22.890	Roll:	30.000	Pitch:	-16.118	Yaw:	-109.443	Thrust:	0.000
Time:	3.849	Roll Set Point:	-1.008	Pitch Set Point:	1.789	Yaw Set Point:	1.273	X_WP:	0.000	Y_WP:	0.000	Y_WP:	0.500	X:	-0.157	Y:	-1.267	Z:	1.285	yaw:	-72.915	yaw rate:	-0.300	Roll:	28.950	Pitch:	-23.252	Yaw:	-104.081	Thrust:	0.000
Time:	3.861	Roll Set Point:	-1.004	Pitch Set Point:	1.781	Yaw Set Point:	1.282	X_WP:	0.000	Y_WP:	0.000	Y_WP:	0.500	X:	-0.163	Y:	-1.265	Z:	1.285	yaw:	-73.472	yaw rate:	-55.766	Roll:	30.000	Pitch:	-5.531	Yaw:	-118.004	Thrust:	0.000
Time:	3.872	Roll Set Point:	-0.992	Pitch Set Point:	1.781	Yaw Set Point:	1.287	X_WP:	0.000	Y_WP:	0.000	Y_WP:	0.500	X:	-0.172	Y:	-1.263	Z:	1.285	yaw:	-73.752	yaw rate:	-28.012	Roll:	30.000	Pitch:	-18.794	Yaw:	-111.834	Thrust:	0.000
Time:	3.883	Roll Set Point:	-0.987	Pitch Set Point:	1.775	Yaw Set Point:	1.296	X_WP:	0.000	Y_WP:	0.000	Y_WP:	0.500	X:	-0.178	Y:	-1.261	Z:	1.285	yaw:	-74.234	yaw rate:	-48.219	Roll:	30.000	Pitch:	-8.590	Yaw:	-117.303	Thrust:	0.000
Time:	3.894	Roll Set Point:	-0.976	Pitch Set Point:	1.781	Yaw Set Point:	1.293	X_WP:	0.000	Y_WP:	0.000	Y_WP:	0.500	X:	-0.184	Y:	-1.259	Z:	1.286	yaw:	-74.110	yaw rate:	12.488	Roll:	27.426	Pitch:	-27.727	Yaw:	-102.721	Thrust:	0.000
Time:	3.905	Roll Set Point:	-0.968	Pitch Set Point:	1.781	Yaw Set Point:	1.296	X_WP:	0.000	Y_WP:	0.000	Y_WP:	0.500	X:	-0.190	Y:	-1.257	Z:	1.286	yaw:	-74.278	yaw rate:	-16.817	Roll:	30.000	Pitch:	-18.964	Yaw:	-109.909	Thrust:	0.000
Time:	3.916	Roll Set Point:	-0.959	Pitch Set Point:	1.784	Yaw Set Point:	1.298	X_WP:	0.000	Y_WP:	0.000	Y_WP:	0.500	X:	-0.197	Y:	-1.256	Z:	1.286	yaw:	-74.346	yaw rate:	-6.789	Roll:	29.673	Pitch:	-22.230	Yaw:	-107.623	Thrust:	0.000
Time:	3.927	Roll Set Point:	-0.948	Pitch Set Point:	1.783	Yaw Set Point:	1.304	X_WP:	0.000	Y_WP:	0.000	Y_WP:	0.500	X:	-0.206	Y:	-1.253	Z:	1.286	yaw:	-74.694	yaw rate:	-34.852	Roll:	30.000	Pitch:	-18.003	Yaw:	-114.769	Thrust:	0.000
Time:	3.938	Roll Set Point:	-0.939	Pitch Set Point:	1.784	Yaw Set Point:	1.306	X_WP:	0.000	Y_WP:	0.000	Y_WP:	0.500	X:	-0.213	Y:	-1.251	Z:	1.286	yaw:	-74.844	yaw rate:	-15.005	Roll:	30.000	Pitch:	-20.212	Yaw:	-110.273	Thrust:	0.000
Time:	3.949	Roll Set Point:	-0.931	Pitch Set Point:	1.784	Yaw Set Point:	1.310	X_WP:	0.000	Y_WP:	0.000	Y_WP:	0.500	X:	-0.219	Y:	-1.249	Z:	1.286	yaw:	-75.042	yaw rate:	-19.747	Roll:	30.000	Pitch:	-18.854	Yaw:	-111.671	Thrust:	0.000
Time:	3.960	Roll Set Point:	-0.923	Pitch Set Point:	1.784	Yaw Set Point:	1.313	X_WP:	0.000	Y_WP:	0.000	Y_WP:	0.500	X:	-0.226	Y:	-1.248	Z:	1.286	yaw:	-75.239	yaw rate:	-19.700	Roll:	30.000	Pitch:	-19.039	Yaw:	-111.929	Thrust:	0.000
Time:	3.971	Roll Set Point:	-0.915	Pitch Set Point:	1.782	Yaw Set Point:	1.319	X_WP:	0.000	Y_WP:	0.000	Y_WP:	0.500	X:	-0.233	Y:	-1.246	Z:	1.286	yaw:	-75.550	yaw rate:	-31.166	Roll:	30.000	Pitch:	-15.777	Yaw:	-115.092	Thrust:	0.000
Time:	3.982	Roll Set Point:	-0.904	Pitch Set Point:	1.780	Yaw Set Point:	1.326	X_WP:	0.000	Y_WP:	0.000	Y_WP:	0.500	X:	-0.243	Y:	-1.243	Z:	1.285	yaw:	-75.958	yaw rate:	-40.714	Roll:	30.000	Pitch:	-17.267	Yaw:	-117.927	Thrust:	0.000
Time:	3.993	Roll Set Point:	-0.893	Pitch Set Point:	1.786	Yaw Set Point:	1.324	X_WP:	0.000	Y_WP:	0.000	Y_WP:	0.500	X:	-0.250	Y:	-1.241	Z:	1.285	yaw:	-75.845	yaw rate:	11.228	Roll:	26.704	Pitch:	-29.041	Yaw:	-105.447	Thrust:	0.000
Time:	4.004	Roll Set Point:	-0.887	Pitch Set Point:	1.780	Yaw Set Point:	1.333	X_WP:	0.000	Y_WP:	0.000	Y_WP:	0.500	X:	-0.256	Y:	-1.239	Z:	1.285	yaw:	-76.369	yaw rate:	-52.398	Roll:	30.000	Pitch:	-9.380	Yaw:	-121.288	Thrust:	0.000
Time:	4.015	Roll Set Point:	-0.876	Pitch Set Point:	1.786	Yaw Set Point:	1.331	X_WP:	0.000	Y_WP:	0.000	Y_WP:	0.500	X:	-0.263	Y:	-1.237	Z:	1.285	yaw:	-76.267	yaw rate:	10.187	Roll:	26.690	Pitch:	-28.895	Yaw:	-106.279	Thrust:	0.000
Time:	4.026	Roll Set Point:	-0.868	Pitch Set Point:	1.787	Yaw Set Point:	1.334	X_WP:	0.000	Y_WP:	0.000	Y_WP:	0.500	X:	-0.270	Y:	-1.235	Z:	1.286	yaw:	-76.447	yaw rate:	-17.972	Roll:	30.000	Pitch:	-20.394	Yaw:	-113.213	Thrust:	0.000
Time:	4.037	Roll Set Point:	-0.854	Pitch Set Point:	1.789	Yaw Set Point:	1.338	X_WP:	0.000	Y_WP:	0.000	Y_WP:	0.500	X:	-0.280	Y:	-1.232	Z:	1.286	yaw:	-76.648	yaw rate:	-20.121	Roll:	28.071	Pitch:	-24.422	Yaw:	-114.010	Thrust:	0.000
Time:	4.048	Roll Set Point:	-0.849	Pitch Set Point:	1.783	Yaw Set Point:	1.347	X_WP:	0.000	Y_WP:	0.000	Y_WP:	0.500	X:	-0.287	Y:	-1.230	Z:	1.287	yaw:	-77.159	yaw rate:	-51.121	Roll:	30.000	Pitch:	-10.271	Yaw:	-122.075	Thrust:	0.000
Time:	4.059	Roll Set Point:	-0.839	Pitch Set Point:	1.786	Yaw Set Point:	1.347	X_WP:	0.000	Y_WP:	0.000	Y_WP:	0.500	X:	-0.293	Y:	-1.228	Z:	1.287	yaw:	-77.197	yaw rate:	-3.774	Roll:	28.482	Pitch:	-24.695	Yaw:	-110.889	Thrust:	0.000
Time:	4.070	Roll Set Point:	-0.828	Pitch Set Point:	1.783	Yaw Set Point:	1.355	X_WP:	0.000	Y_WP:	0.000	Y_WP:	0.500	X:	-0.304	Y:	-1.224	Z:	1.288	yaw:	-77.656	yaw rate:	-45.889	Roll:	30.000	Pitch:	-16.872	Yaw:	-121.526	Thrust:	0.000
Time:	4.081	Roll Set Point:	-0.818	Pitch Set Point:	1.785	Yaw Set Point:	1.357	X_WP:	0.000	Y_WP:	0.000	Y_WP:	0.500	X:	-0.310	Y:	-1.222	Z:	1.289	yaw:	-77.742	yaw rate:	-8.593	Roll:	28.847	Pitch:	-23.482	Yaw:	-112.794	Thrust:	0.000
Time:	4.092	Roll Set Point:	-0.810	Pitch Set Point:	1.784	Yaw Set Point:	1.361	X_WP:	0.000	Y_WP:	0.000	Y_WP:	0.500	X:	-0.317	Y:	-1.220	Z:	1.289	yaw:	-77.970	yaw rate:	-22.812	Roll:	30.000	Pitch:	-19.258	Yaw:	-116.487	Thrust:	0.000
Time:	4.103	Roll Set Point:	-0.799	Pitch Set Point:	1.790	Yaw Set Point:	1.359	X_WP:	0.000	Y_WP:	0.000	Y_WP:	0.500	X:	-0.324	Y:	-1.218	Z:	1.290	yaw:	-77.872	yaw rate:	9.796	Roll:	25.921	Pitch:	-29.502	Yaw:	-108.622	Thrust:	0.000
Time:	4.114	Roll Set Point:	-0.791	Pitch Set Point:	1.788	Yaw Set Point:	1.364	X_WP:	0.000	Y_WP:	0.000	Y_WP:	0.500	X:	-0.331	Y:	-1.215	Z:	1.291	yaw:	-78.166	yaw rate:	-29.367	Roll:	30.000	Pitch:	-17.582	Yaw:	-118.316	Thrust:	0.000
Time:	4.125	Roll Set Point:	-0.787	Pitch Set Point:	1.780	Yaw Set Point:	1.375	X_WP:	0.000	Y_WP:	0.000	Y_WP:	0.500	X:	-0.337	Y:	-1.213	Z:	1.291	yaw:	-78.765	yaw rate:	-59.932	Roll:	30.000	Pitch:	-8.233	Yaw:	-126.438	Thrust:	0.000
Time:	4.136	Roll Set Point:	-0.776	Pitch Set Point:	1.784	Yaw Set Point:	1.374	X_WP:	0.000	Y_WP:	0.000	Y_WP:	0.500	X:	-0.344	Y:	-1.211	Z:	1.292	yaw:	-78.741	yaw rate:	2.462	Roll:	26.720	Pitch:	-27.342	Yaw:	-111.564	Thrust:	0.000
Time:	4.147	Roll Set Point:	-0.763	Pitch Set Point:	1.783	Yaw Set Point:	1.380	X_WP:	0.000	Y_WP:	0.000	Y_WP:	0.500	X:	-0.354	Y:	-1.207	Z:	1.293	yaw:	-79.090	yaw rate:	-34.928	Roll:	29.575	Pitch:	-21.063	Yaw:	-120.862	Thrust:	0.000
Time:	4.158	Roll Set Point:	-0.754	Pitch Set Point:	1.785	Yaw Set Point:	1.383	X_WP:	0.000	Y_WP:	0.000	Y_WP:	0.500	X:	-0.361	Y:	-1.204	Z:	1.294	yaw:	-79.218	yaw rate:	-12.793	Roll:	28.956	Pitch:	-23.103	Yaw:	-115.851	Thrust:	0.000
Time:	4.169	Roll Set Point:	-0.745	Pitch Set Point:	1.785	Yaw Set Point:	1.385	X_WP:	0.000	Y_WP:	0.000	Y_WP:	0.500	X:	-0.368	Y:	-1.202	Z:	1.294	yaw:	-79.370	yaw rate:	-15.248	Roll:	29.411	Pitch:	-22.122	Yaw:	-116.645	Thrust:	0.000
Time:	4.180	Roll Set Point:	-0.735	Pitch Set Point:	1.779	Yaw Set Point:	1.395	X_WP:	0.000	Y_WP:	0.000	Y_WP:	0.500	X:	-0.378	Y:	-1.198	Z:	1.295	yaw:	-79.956	yaw rate:	-58.572	Roll:	30.000	Pitch:	-13.955	Yaw:	-127.756	Thrust:	0.000
Time:	4.191	Roll Set Point:	-0.724	Pitch Set Point:	1.784	Yaw Set Point:	1.394	X_WP:	0.000	Y_WP:	0.000	Y_WP:	0.500	X:	-0.385	Y:	-1.195	Z:	1.296	yaw:	-79.857	yaw rate:	9.897	Roll:	25.311	Pitch:	-29.920	Yaw:	-111.359	Thrust:	0.000
Time:	4.202	Roll Set Point:	-0.717	Pitch Set Point:	1.781	Yaw Set Point:	1.400	X_WP:	0.000	Y_WP:	0.000	Y_WP:	0.500	X:	-0.391	Y:	-1.193	Z:	1.296	yaw:	-80.206	yaw rate:	-34.880	Roll:	30.000	Pitch:	-16.244	Yaw:	-122.489	Thrust:	0.000
Time:	4.214	Roll Set Point:	-0.709	Pitch Set Point:	1.780	Yaw Set Point:	1.404	X_WP:	0.000	Y_WP:	0.000	Y_WP:	0.500	X:	-0.398	Y:	-1.190	Z:	1.297	yaw:	-80.445	yaw rate:	-23.878	Roll:	30.000	Pitch:	-19.886	Yaw:	-120.189	Thrust:	0.000
Time:	4.225	Roll Set Point:	-0.703	Pitch Set Point:	1.775	Yaw Set Point:	1.411	X_WP:	0.000	Y_WP:	0.000	Y_WP:	0.500	X:	-0.404	Y:	-1.187	Z:	1.297	yaw:	-80.835	yaw rate:	-39.063	Roll:	30.000	Pitch:	-14.713	Yaw:	-124.342	Thrust:	0.000
Time:	4.236	Roll Set Point:	-0.696	Pitch Set Point:	1.773	Yaw Set Point:	1.415	X_WP:	0.000	Y_WP:	0.000	Y_WP:	0.500	X:	-0.411	Y:	-1.184	Z:	1.298	yaw:	-81.082	yaw rate:	-24.696	Roll:	30.000	Pitch:	-19.032	Yaw:	-121.279	Thrust:	0.000
Time:	4.247	Roll Set Point:	-0.684	Pitch Set Point:	1.773	Yaw Set Point:	1.420	X_WP:	0.000	Y_WP:	0.000	Y_WP:	0.500	X:	-0.420	Y:	-1.180	Z:	1.299	yaw:	-81.361	yaw rate:	-27.901	Roll:	28.519	Pitch:	-22.407	Yaw:	-122.434	Thrust:	0.000
Time:	4.258	Roll Set Point:	-0.676	Pitch Set Point:	1.772	Yaw Set Point:	1.423	X_WP:	0.000	Y_WP:	0.000	Y_WP:	0.500	X:	-0.426	Y:	-1.178	Z:	1.300	yaw:	-81.519	yaw rate:	-15.788	Roll:	29.441	Pitch:	-21.583	Yaw:	-119.775	Thrust:	0.000
Time:	4.269	Roll Set Point:	-0.670	Pitch Set Point:	1.768	Yaw Set Point:	1.429	X_WP:	0.000	Y_WP:	0.000	Y_WP:	0.500	X:	-0.432	Y:	-1.175	Z:	1.301	yaw:	-81.891	yaw rate:	-37.226	Roll:	30.000	Pitch:	-14.989	Yaw:	-125.382	Thrust:	0.000
Time:	4.280	Roll Set Point:	-0.662	Pitch Set Point:	1.769	Yaw Set Point:	1.431	X_WP:	0.000	Y_WP:	0.000	Y_WP:	0.500	X:	-0.438	Y:	-1.172	Z:	1.301	yaw:	-81.991	yaw rate:	-9.949	Roll:	28.166	Pitch:	-23.418	Yaw:	-119.048	Thrust:	0.000
Time:	4.291	Roll Set Point:	-0.649	Pitch Set Point:	1.771	Yaw Set Point:	1.432	X_WP:	0.000	Y_WP:	0.000	Y_WP:	0.500	X:	-0.446	Y:	-1.168	Z:	1.303	yaw:	-82.071	yaw rate:	-8.006	Roll:	25.584	Pitch:	-27.826	Yaw:	-118.699	Thrust:	0.000
Time:	4.302	Roll Set Point:	-0.641	Pitch Set Point:	1.771	Yaw Set Point:	1.435	X_WP:	0.000	Y_WP:	0.000	Y_WP:	0.500	X:	-0.452	Y:	-1.165	Z:	1.303	yaw:	-82.192	yaw rate:	-12.065	Roll:	29.002	Pitch:	-22.278	Yaw:	-119.830	Thrust:	0.000
Time:	4.313	Roll Set Point:	-0.630	Pitch Set Point:	1.779	Yaw Set Point:	1.430	X_WP:	0.000	Y_WP:	0.000	Y_WP:	0.500	X:	-0.457	Y:	-1.163	Z:	1.304	yaw:	-81.952	yaw rate:	23.996	Roll:	23.423	Pitch:	-30.000	Yaw:	-110.940	Thrust:	0.000
Time:	4.324	Roll Set Point:	-0.619	Pitch Set Point:	1.786	Yaw Set Point:	1.426	X_WP:	0.000	Y_WP:	0.000	Y_WP:	0.500	X:	-0.463	Y:	-1.160	Z:	1.304	yaw:	-81.708	yaw rate:	24.312	Roll:	22.337	Pitch:	-30.000	Yaw:	-110.518	Thrust:	0.000
Time:	4.335	Roll Set Point:	-0.610	Pitch Set Point:	1.789	Yaw Set Point:	1.425	X_WP:	0.000	Y_WP:	0.000	Y_WP:	0.500	X:	-0.468	Y:	-1.158	Z:	1.305	yaw:	-81.670	yaw rate:	3.887	Roll:	25.966	Pitch:	-27.759	Yaw:	-115.315	Thrust:	0.000
Time:	4.346	Roll Set Point:	-0.614	Pitch Set Point:	1.767	Yaw Set Point:	1.447	X_WP:	0.000	Y_WP:	0.000	Y_WP:	0.500	X:	-0.474	Y:	-1.155	Z:	1.306	yaw:	-82.918	yaw rate:	-124.819	Roll:	30.000	Pitch:	10.684	Yaw:	-147.613	Thrust:	0.000
Time:	4.357	Roll Set Point:	-0.596	Pitch Set Point:	1.781	Yaw Set Point:	1.438	X_WP:	0.000	Y_WP:	0.000	Y_WP:	0.500	X:	-0.481	Y:	-1.151	Z:	1.306	yaw:	-82.372	yaw rate:	54.554	Roll:	15.298	Pitch:	-30.000	Yaw:	-104.272	Thrust:	0.000
Time:	4.368	Roll Set Point:	-0.586	Pitch Set Point:	1.784	Yaw Set Point:	1.436	X_WP:	0.000	Y_WP:	0.000	Y_WP:	0.500	X:	-0.487	Y:	-1.148	Z:	1.306	yaw:	-82.304	yaw rate:	6.836	Roll:	25.281	Pitch:	-28.312	Yaw:	-115.492	Thrust:	0.000
Time:	4.379	Roll Set Point:	-0.592	Pitch Set Point:	1.762	Yaw Set Point:	1.460	X_WP:	0.000	Y_WP:	0.000	Y_WP:	0.500	X:	-0.492	Y:	-1.146	Z:	1.307	yaw:	-83.625	yaw rate:	-132.077	Roll:	30.000	Pitch:	12.385	Yaw:	-150.247	Thrust:	0.000
Time:	4.390	Roll Set Point:	-0.579	Pitch Set Point:	1.773	Yaw Set Point:	1.451	X_WP:	0.000	Y_WP:	0.000	Y_WP:	0.500	X:	-0.497	Y:	-1.143	Z:	1.307	yaw:	-83.122	yaw rate:	50.264	Roll:	17.996	Pitch:	-30.000	Yaw:	-106.335	Thrust:	0.000
Time:	4.401	Roll Set Point:	-0.576	Pitch Set Point:	1.760	Yaw Set Point:	1.466	X_WP:	0.000	Y_WP:	0.000	Y_WP:	0.500	X:	-0.504	Y:	-1.139	Z:	1.308	yaw:	-84.000	yaw rate:	-87.775	Roll:	30.000	Pitch:	-3.601	Yaw:	-140.325	Thrust:	0.000
Time:	4.412	Roll Set Point:	-0.556	Pitch Set Point:	1.782	Yaw Set Point:	1.447	X_WP:	0.000	Y_WP:	0.000	Y_WP:	0.500	X:	-0.509	Y:	-1.137	Z:	1.308	yaw:	-82.913	yaw rate:	108.670	Roll:	8.206	Pitch:	-30.000	Yaw:	-92.178	Thrust:	0.000
Time:	4.423	Roll Set Point:	-0.554	Pitch Set Point:	1.773	Yaw Set Point:	1.457	X_WP:	0.000	Y_WP:	0.000	Y_WP:	0.500	X:	-0.514	Y:	-1.134	Z:	1.309	yaw:	-83.505	yaw rate:	-59.183	Roll:	30.000	Pitch:	-9.208	Yaw:	-132.849	Thrust:	0.000
Time:	4.434	Roll Set Point:	-0.548	Pitch Set Point:	1.771	Yaw Set Point:	1.461	X_WP:	0.000	Y_WP:	0.000	Y_WP:	0.500	X:	-0.519	Y:	-1.131	Z:	1.309	yaw:	-83.711	yaw rate:	-20.594	Roll:	30.000	Pitch:	-20.120	Yaw:	-123.977	Thrust:	0.000
Time:	4.445	Roll Set Point:	-0.534	Pitch Set Point:	1.784	Yaw Set Point:	1.451	X_WP:	0.000	Y_WP:	0.000	Y_WP:	0.500	X:	-0.524	Y:	-1.129	Z:	1.309	yaw:	-83.142	yaw rate:	56.839	Roll:	16.572	Pitch:	-30.000	Yaw:	-104.807	Thrust:	0.000
Time:	4.456	Roll Set Point:	-0.534	Pitch Set Point:	1.768	Yaw Set Point:	1.469	X_WP:	0.000	Y_WP:	0.000	Y_WP:	0.500	X:	-0.531	Y:	-1.125	Z:	1.310	yaw:	-84.164	yaw rate:	-102.158	Roll:	30.000	Pitch:	-0.241	Yaw:	-143.967	Thrust:	0.000
Time:	4.467	Roll Set Point:	-0.531	Pitch Set Point:	1.761	Yaw Set Point:	1.478	X_WP:	0.000	Y_WP:	0.000	Y_WP:	0.500	X:	-0.536	Y:	-1.122	Z:	1.310	yaw:	-84.668	yaw rate:	-50.365	Roll:	30.000	Pitch:	-11.478	Yaw:	-132.382	Thrust:	0.000
Time:	4.479	Roll Set Point:	-0.511	Pitch Set Point:	1.784	Yaw Set Point:	1.458	X_WP:	0.000	Y_WP:	0.000	Y_WP:	0.500	X:	-0.541	Y:	-1.120	Z:	1.310	yaw:	-83.533	yaw rate:	113.497	Roll:	8.728	Pitch:	-30.000	Yaw:	-94.344	Thrust:	0.000
Time:	4.490	Roll Set Point:	-0.514	Pitch Set Point:	1.767	Yaw Set Point:	1.476	X_WP:	0.000	Y_WP:	0.000	Y_WP:	0.500	X:	-0.546	Y:	-1.117	Z:	1.311	yaw:	-84.546	yaw rate:	-101.340	Roll:	30.000	Pitch:	2.479	Yaw:	-144.302	Thrust:	0.000
Time:	4.501	Roll Set Point:	-0.502	Pitch Set Point:	1.775	Yaw Set Point:	1.470	X_WP:	0.000	Y_WP:	0.000	Y_WP:	0.500	X:	-0.552	Y:	-1.115	Z:	1.311	yaw:	-84.245	yaw rate:	30.121	Roll:	20.731	Pitch:	-30.000	Yaw:	-112.681	Thrust:	0.000
Time:	4.513	Roll Set Point:	-0.501	Pitch Set Point:	1.762	Yaw Set Point:	1.486	X_WP:	0.000	Y_WP:	0.000	Y_WP:	0.500	X:	-0.559	Y:	-1.111	Z:	1.311	yaw:	-85.140	yaw rate:	-89.557	Roll:	30.000	Pitch:	-5.408	Yaw:	-140.770	Thrust:	0.000
Time:	4.524	Roll Set Point:	-0.496	Pitch Set Point:	1.760	Yaw Set Point:	1.490	X_WP:	0.000	Y_WP:	0.000	Y_WP:	0.500	X:	-0.564	Y:	-1.109	Z:	1.311	yaw:	-85.349	yaw rate:	-20.816	Roll:	30.000	Pitch:	-20.904	Yaw:	-126.316	Thrust:	0.000
Time:	4.535	Roll Set Point:	-0.485	Pitch Set Point:	1.767	Yaw Set Point:	1.485	X_WP:	0.000	Y_WP:	0.000	Y_WP:	0.500	X:	-0.569	Y:	-1.106	Z:	1.311	yaw:	-85.112	yaw rate:	23.661	Roll:	22.357	Pitch:	-30.000	Yaw:	-115.428	Thrust:	0.000
Time:	4.546	Roll Set Point:	-0.476	Pitch Set Point:	1.771	Yaw Set Point:	1.484	X_WP:	0.000	Y_WP:	0.000	Y_WP:	0.500	X:	-0.574	Y:	-1.104	Z:	1.311	yaw:	-85.029	yaw rate:	8.341	Roll:	25.037	Pitch:	-29.646	Yaw:	-118.949	Thrust:	0.000
Time:	4.557	Roll Set Point:	-0.471	Pitch Set Point:	1.769	Yaw Set Point:	1.489	X_WP:	0.000	Y_WP:	0.000	Y_WP:	0.500	X:	-0.579	Y:	-1.101	Z:	1.311	yaw:	-85.302	yaw rate:	-27.353	Roll:	30.000	Pitch:	-19.518	Yaw:	-127.804	Thrust:	0.000
Time:	4.568	Roll Set Point:	-0.468	Pitch Set Point:	1.762	Yaw Set Point:	1.497	X_WP:	0.000	Y_WP:	0.000	Y_WP:	0.500	X:	-0.584	Y:	-1.099	Z:	1.310	yaw:	-85.758	yaw rate:	-45.549	Roll:	30.000	Pitch:	-14.113	Yaw:	-132.779	Thrust:	0.000
Time:	4.580	Roll Set Point:	-0.455	Pitch Set Point:	1.769	Yaw Set Point:	1.495	X_WP:	0.000	Y_WP:	0.000	Y_WP:	0.500	X:	-0.592	Y:	-1.095	Z:	1.311	yaw:	-85.634	yaw rate:	12.356	Roll:	22.320	Pitch:	-30.000	Yaw:	-118.853	Thrust:	0.000
Time:	4.592	Roll Set Point:	-0.452	Pitch Set Point:	1.763	Yaw Set Point:	1.502	X_WP:	0.000	Y_WP:	0.000	Y_WP:	0.500	X:	-0.597	Y:	-1.093	Z:	1.311	yaw:	-86.045	yaw rate:	-41.059	Roll:	30.000	Pitch:	-16.414	Yaw:	-131.481	Thrust:	0.000
Time:	4.603	Roll Set Point:	-0.449	Pitch Set Point:	1.758	Yaw Set Point:	1.509	X_WP:	0.000	Y_WP:	0.000	Y_WP:	0.500	X:	-0.602	Y:	-1.090	Z:	1.310	yaw:	-86.459	yaw rate:	-41.477	Roll:	30.000	Pitch:	-15.642	Yaw:	-132.770	Thrust:	0.000
Time:	4.614	Roll Set Point:	-0.443	Pitch Set Point:	1.758	Yaw Set Point:	1.512	X_WP:	0.000	Y_WP:	0.000	Y_WP:	0.500	X:	-0.607	Y:	-1.088	Z:	1.310	yaw:	-86.625	yaw rate:	-16.541	Roll:	29.607	Pitch:	-22.659	Yaw:	-127.084	Thrust:	0.000
Time:	4.625	Roll Set Point:	-0.437	Pitch Set Point:	1.752	Yaw Set Point:	1.521	X_WP:	0.000	Y_WP:	0.000	Y_WP:	0.500	X:	-0.615	Y:	-1.084	Z:	1.310	yaw:	-87.168	yaw rate:	-54.341	Roll:	30.000	Pitch:	-16.086	Yaw:	-136.812	Thrust:	0.000
Time:	4.636	Roll Set Point:	-0.431	Pitch Set Point:	1.752	Yaw Set Point:	1.523	X_WP:	0.000	Y_WP:	0.000	Y_WP:	0.500	X:	-0.620	Y:	-1.082	Z:	1.310	yaw:	-87.261	yaw rate:	-9.274	Roll:	28.636	Pitch:	-24.763	Yaw:	-126.247	Thrust:	0.000
Time:	4.647	Roll Set Point:	-0.428	Pitch Set Point:	1.747	Yaw Set Point:	1.530	X_WP:	0.000	Y_WP:	0.000	Y_WP:	0.500	X:	-0.625	Y:	-1.079	Z:	1.309	yaw:	-87.683	yaw rate:	-42.177	Roll:	30.000	Pitch:	-15.698	Yaw:	-134.646	Thrust:	0.000
Time:	4.658	Roll Set Point:	-0.422	Pitch Set Point:	1.747	Yaw Set Point:	1.533	X_WP:	0.000	Y_WP:	0.000	Y_WP:	0.500	X:	-0.630	Y:	-1.077	Z:	1.309	yaw:	-87.858	yaw rate:	-17.505	Roll:	30.000	Pitch:	-23.079	Yaw:	-129.034	Thrust:	0.000
Time:	4.669	Roll Set Point:	-0.418	Pitch Set Point:	1.745	Yaw Set Point:	1.538	X_WP:	0.000	Y_WP:	0.000	Y_WP:	0.500	X:	-0.636	Y:	-1.075	Z:	1.309	yaw:	-88.130	yaw rate:	-27.210	Roll:	30.000	Pitch:	-20.024	Yaw:	-131.717	Thrust:	0.000
Time:	4.680	Roll Set Point:	-0.409	Pitch Set Point:	1.745	Yaw Set Point:	1.542	X_WP:	0.000	Y_WP:	0.000	Y_WP:	0.500	X:	-0.643	Y:	-1.071	Z:	1.308	yaw:	-88.340	yaw rate:	-21.057	Roll:	29.237	Pitch:	-25.508	Yaw:	-130.551	Thrust:	0.000
Time:	4.691	Roll Set Point:	-0.407	Pitch Set Point:	1.739	Yaw Set Point:	1.550	X_WP:	0.000	Y_WP:	0.000	Y_WP:	0.500	X:	-0.649	Y:	-1.069	Z:	1.308	yaw:	-88.827	yaw rate:	-48.617	Roll:	30.000	Pitch:	-14.131	Yaw:	-137.769	Thrust:	0.000
Time:	4.702	Roll Set Point:	-0.400	Pitch Set Point:	1.741	Yaw Set Point:	1.551	X_WP:	0.000	Y_WP:	0.000	Y_WP:	0.500	X:	-0.654	Y:	-1.067	Z:	1.308	yaw:	-88.891	yaw rate:	-6.433	Roll:	28.787	Pitch:	-26.027	Yaw:	-127.846	Thrust:	0.000
Time:	4.713	Roll Set Point:	-0.394	Pitch Set Point:	1.743	Yaw Set Point:	1.553	X_WP:	0.000	Y_WP:	0.000	Y_WP:	0.500	X:	-0.659	Y:	-1.065	Z:	1.307	yaw:	-88.957	yaw rate:	-6.650	Roll:	28.668	Pitch:	-26.372	Yaw:	-127.992	Thrust:	0.000
Time:	4.724	Roll Set Point:	-0.391	Pitch Set Point:	1.738	Yaw Set Point:	1.561	X_WP:	0.000	Y_WP:	0.000	Y_WP:	0.500	X:	-0.665	Y:	-1.063	Z:	1.307	yaw:	-89.445	yaw rate:	-48.768	Roll:	30.000	Pitch:	-14.964	Yaw:	-138.647	Thrust:	0.000
Time:	4.737	Roll Set Point:	-0.383	Pitch Set Point:	1.738	Yaw Set Point:	1.566	X_WP:	0.000	Y_WP:	0.000	Y_WP:	0.500	X:	-0.673	Y:	-1.059	Z:	1.307	yaw:	-89.705	yaw rate:	-25.962	Roll:	30.000	Pitch:	-24.477	Yaw:	-133.079	Thrust:	0.000
Time:	4.747	Roll Set Point:	-0.382	Pitch Set Point:	1.730	Yaw Set Point:	1.575	X_WP:	0.000	Y_WP:	0.000	Y_WP:	0.500	X:	-0.678	Y:	-1.057	Z:	1.307	yaw:	-90.266	yaw rate:	-56.121	Roll:	30.000	Pitch:	-12.249	Yaw:	-142.693	Thrust:	0.000
Time:	4.759	Roll Set Point:	-0.373	Pitch Set Point:	1.737	Yaw Set Point:	1.572	X_WP:	0.000	Y_WP:	0.000	Y_WP:	0.500	X:	-0.683	Y:	-1.055	Z:	1.306	yaw:	-90.077	yaw rate:	18.867	Roll:	25.168	Pitch:	-30.000	Yaw:	-124.072	Thrust:	0.000
Time:	4.770	Roll Set Point:	-0.372	Pitch Set Point:	1.730	Yaw Set Point:	1.582	X_WP:	0.000	Y_WP:	0.000	Y_WP:	0.500	X:	-0.689	Y:	-1.053	Z:	1.306	yaw:	-90.622	yaw rate:	-54.440	Roll:	30.000	Pitch:	-13.077	Yaw:	-141.634	Thrust:	0.000
Time:	4.781	Roll Set Point:	-0.364	Pitch Set Point:	1.730	Yaw Set Point:	1.588	X_WP:	0.000	Y_WP:	0.000	Y_WP:	0.500	X:	-0.697	Y:	-1.050	Z:	1.306	yaw:	-90.968	yaw rate:	-34.663	Roll:	30.000	Pitch:	-23.544	Yaw:	-137.452	Thrust:	0.000
Time:	4.792	Roll Set Point:	-0.360	Pitch Set Point:	1.728	Yaw Set Point:	1.592	X_WP:	0.000	Y_WP:	0.000	Y_WP:	0.500	X:	-0.703	Y:	-1.048	Z:	1.306	yaw:	-91.237	yaw rate:	-26.902	Roll:	30.000	Pitch:	-20.516	Yaw:	-135.981	Thrust:	0.000
Time:	4.803	Roll Set Point:	-0.344	Pitch Set Point:	1.744	Yaw Set Point:	1.580	X_WP:	0.000	Y_WP:	0.000	Y_WP:	0.500	X:	-0.708	Y:	-1.046	Z:	1.306	yaw:	-90.509	yaw rate:	72.845	Roll:	14.388	Pitch:	-30.000	Yaw:	-111.285	Thrust:	0.000
Time:	4.814	Roll Set Point:	-0.342	Pitch Set Point:	1.739	Yaw Set Point:	1.588	X_WP:	0.000	Y_WP:	0.000	Y_WP:	0.500	X:	-0.713	Y:	-1.044	Z:	1.306	yaw:	-90.968	yaw rate:	-45.887	Roll:	30.000	Pitch:	-16.066	Yaw:	-140.111	Thrust:	0.000
Time:	4.825	Roll Set Point:	-0.335	Pitch Set Point:	1.742	Yaw Set Point:	1.588	X_WP:	0.000	Y_WP:	0.000	Y_WP:	0.500	X:	-0.719	Y:	-1.042	Z:	1.306	yaw:	-91.000	yaw rate:	-3.222	Roll:	28.526	Pitch:	-28.510	Yaw:	-130.030	Thrust:	0.000
Time:	4.836	Roll Set Point:	-0.330	Pitch Set Point:	1.741	Yaw Set Point:	1.593	X_WP:	0.000	Y_WP:	0.000	Y_WP:	0.500	X:	-0.725	Y:	-1.039	Z:	1.306	yaw:	-91.250	yaw rate:	-25.035	Roll:	30.000	Pitch:	-22.507	Yaw:	-135.552	Thrust:	0.000
Time:	4.847	Roll Set Point:	-0.325	Pitch Set Point:	1.737	Yaw Set Point:	1.601	X_WP:	0.000	Y_WP:	0.000	Y_WP:	0.500	X:	-0.733	Y:	-1.036	Z:	1.307	yaw:	-91.753	yaw rate:	-50.216	Roll:	30.000	Pitch:	-19.625	Yaw:	-142.248	Thrust:	0.000
Time:	4.858	Roll Set Point:	-0.322	Pitch Set Point:	1.732	Yaw Set Point:	1.609	X_WP:	0.000	Y_WP:	0.000	Y_WP:	0.500	X:	-0.739	Y:	-1.034	Z:	1.307	yaw:	-92.198	yaw rate:	-44.546	Roll:	30.000	Pitch:	-16.802	Yaw:	-141.514	Thrust:	0.000
Time:	4.869	Roll Set Point:	-0.315	Pitch Set Point:	1.736	Yaw Set Point:	1.609	X_WP:	0.000	Y_WP:	0.000	Y_WP:	0.500	X:	-0.744	Y:	-1.031	Z:	1.307	yaw:	-92.193	yaw rate:	0.515	Roll:	27.933	Pitch:	-29.775	Yaw:	-130.808	Thrust:	0.000
Time:	4.880	Roll Set Point:	-0.309	Pitch Set Point:	1.736	Yaw Set Point:	1.612	X_WP:	0.000	Y_WP:	0.000	Y_WP:	0.500	X:	-0.750	Y:	-1.029	Z:	1.307	yaw:	-92.340	yaw rate:	-14.691	Roll:	30.000	Pitch:	-25.435	Yaw:	-134.624	Thrust:	0.000
Time:	4.891	Roll Set Point:	-0.309	Pitch Set Point:	1.727	Yaw Set Point:	1.623	X_WP:	0.000	Y_WP:	0.000	Y_WP:	0.500	X:	-0.756	Y:	-1.026	Z:	1.308	yaw:	-93.015	yaw rate:	-67.523	Roll:	30.000	Pitch:	-10.451	Yaw:	-148.103	Thrust:	0.000
Time:	4.902	Roll Set Point:	-0.307	Pitch Set Point:	1.716	Yaw Set Point:	1.638	X_WP:	0.000	Y_WP:	0.000	Y_WP:	0.500	X:	-0.764	Y:	-1.022	Z:	1.308	yaw:	-93.828	yaw rate:	-81.338	Roll:	30.000	Pitch:	-10.396	Yaw:	-152.545	Thrust:	0.000
Time:	4.913	Roll Set Point:	-0.310	Pitch Set Point:	1.704	Yaw Set Point:	1.652	X_WP:	0.000	Y_WP:	0.000	Y_WP:	0.500	X:	-0.769	Y:	-1.020	Z:	1.308	yaw:	-94.659	yaw rate:	-83.067	Roll:	30.000	Pitch:	-5.050	Yaw:	-154.068	Thrust:	0.000
Time:	4.924	Roll Set Point:	-0.307	Pitch Set Point:	1.699	Yaw Set Point:	1.659	X_WP:	0.000	Y_WP:	0.000	Y_WP:	0.500	X:	-0.775	Y:	-1.017	Z:	1.309	yaw:	-95.064	yaw rate:	-40.490	Roll:	30.000	Pitch:	-17.355	Yaw:	-144.550	Thrust:	0.000
Time:	4.935	Roll Set Point:	-0.301	Pitch Set Point:	1.699	Yaw Set Point:	1.662	X_WP:	0.000	Y_WP:	0.000	Y_WP:	0.500	X:	-0.781	Y:	-1.015	Z:	1.309	yaw:	-95.247	yaw rate:	-18.314	Roll:	30.000	Pitch:	-23.956	Yaw:	-139.543	Thrust:	0.000
