Time:	2.107	Roll Set Point:	-0.012	Pitch Set Point:	-0.038	Yaw Set Point:	-0.029	X_WP:	0.000	Y_WP:	0.000	Y_WP:	0.500	X:	0.006	Y:	0.019	Z:	0.049	yaw:	1.649	yaw rate:	0.936	Roll:	0.181	Pitch:	0.542	Yaw:	2.303	Thrust:	24.816
Time:	2.121	Roll Set Point:	-0.012	Pitch Set Point:	-0.037	Yaw Set Point:	-0.029	X_WP:	0.000	Y_WP:	0.000	Y_WP:	0.500	X:	0.006	Y:	0.019	Z:	0.049	yaw:	1.657	yaw rate:	0.386	Roll:	0.185	Pitch:	0.490	Yaw:	2.470	Thrust:	25.426
Time:	2.430	Roll Set Point:	-0.012	Pitch Set Point:	-0.038	Yaw Set Point:	-0.029	X_WP:	0.000	Y_WP:	0.000	Y_WP:	0.500	X:	0.006	Y:	0.019	Z:	0.049	yaw:	1.661	yaw rate:	0.369	Roll:	0.191	Pitch:	0.571	Yaw:	2.680	Thrust:	58.474
Time:	2.462	Roll Set Point:	-0.012	Pitch Set Point:	-0.038	Yaw Set Point:	-0.029	X_WP:	0.000	Y_WP:	0.000	Y_WP:	0.500	X:	0.006	Y:	0.019	Z:	0.049	yaw:	1.661	yaw rate:	0.369	Roll:	0.183	Pitch:	0.546	Yaw:	2.373	Thrust:	29.865
Time:	2.481	Roll Set Point:	-0.012	Pitch Set Point:	-0.038	Yaw Set Point:	-0.029	X_WP:	0.000	Y_WP:	0.000	Y_WP:	0.500	X:	0.006	Y:	0.019	Z:	0.049	yaw:	1.659	yaw rate:	-0.261	Roll:	0.187	Pitch:	0.570	Yaw:	2.328	Thrust:	28.925
Time:	2.495	Roll Set Point:	-0.012	Pitch Set Point:	-0.038	Yaw Set Point:	-0.029	X_WP:	0.000	Y_WP:	0.000	Y_WP:	0.500	X:	0.006	Y:	0.019	Z:	0.049	yaw:	1.651	yaw rate:	-0.751	Roll:	0.174	Pitch:	0.506	Yaw:	2.206	Thrust:	28.362
Time:	2.508	Roll Set Point:	-0.012	Pitch Set Point:	-0.038	Yaw Set Point:	-0.029	X_WP:	0.000	Y_WP:	0.000	Y_WP:	0.500	X:	0.006	Y:	0.019	Z:	0.049	yaw:	1.651	yaw rate:	-0.751	Roll:	0.183	Pitch:	0.545	Yaw:	2.351	Thrust:	29.372
Time:	2.605	Roll Set Point:	-0.012	Pitch Set Point:	-0.038	Yaw Set Point:	-0.029	X_WP:	0.000	Y_WP:	0.000	Y_WP:	0.500	X:	0.006	Y:	0.019	Z:	0.049	yaw:	1.661	yaw rate:	1.028	Roll:	0.196	Pitch:	0.574	Yaw:	2.741	Thrust:	61.668
Time:	2.619	Roll Set Point:	-0.012	Pitch Set Point:	-0.038	Yaw Set Point:	-0.029	X_WP:	0.000	Y_WP:	0.000	Y_WP:	0.500	X:	0.006	Y:	0.019	Z:	0.049	yaw:	1.664	yaw rate:	0.252	Roll:	0.174	Pitch:	0.569	Yaw:	2.440	Thrust:	31.034
Time:	2.641	Roll Set Point:	-0.012	Pitch Set Point:	-0.038	Yaw Set Point:	-0.029	X_WP:	0.000	Y_WP:	0.000	Y_WP:	0.500	X:	0.006	Y:	0.019	Z:	0.049	yaw:	1.658	yaw rate:	-0.586	Roll:	0.204	Pitch:	0.566	Yaw:	2.363	Thrust:	35.525
Time:	2.660	Roll Set Point:	-0.012	Pitch Set Point:	-0.038	Yaw Set Point:	-0.029	X_WP:	0.000	Y_WP:	0.000	Y_WP:	0.500	X:	0.006	Y:	0.019	Z:	0.049	yaw:	1.658	yaw rate:	-0.586	Roll:	0.185	Pitch:	0.552	Yaw:	2.426	Thrust:	35.131
Time:	2.672	Roll Set Point:	-0.012	Pitch Set Point:	-0.038	Yaw Set Point:	-0.029	X_WP:	0.000	Y_WP:	0.000	Y_WP:	0.500	X:	0.006	Y:	0.019	Z:	0.049	yaw:	1.663	yaw rate:	2.098	Roll:	0.141	Pitch:	0.505	Yaw:	2.489	Thrust:	32.141
Time:	2.687	Roll Set Point:	-0.012	Pitch Set Point:	-0.038	Yaw Set Point:	-0.029	X_WP:	0.000	Y_WP:	0.000	Y_WP:	0.500	X:	0.006	Y:	0.019	Z:	0.049	yaw:	1.673	yaw rate:	1.023	Roll:	0.203	Pitch:	0.545	Yaw:	2.618	Thrust:	34.588
Time:	2.700	Roll Set Point:	-0.012	Pitch Set Point:	-0.038	Yaw Set Point:	-0.029	X_WP:	0.000	Y_WP:	0.000	Y_WP:	0.500	X:	0.006	Y:	0.019	Z:	0.049	yaw:	1.652	yaw rate:	-2.105	Roll:	0.171	Pitch:	0.546	Yaw:	1.981	Thrust:	33.962
Time:	3.005	Roll Set Point:	-0.012	Pitch Set Point:	-0.038	Yaw Set Point:	-0.029	X_WP:	0.000	Y_WP:	0.000	Y_WP:	0.500	X:	0.006	Y:	0.019	Z:	0.049	yaw:	1.636	yaw rate:	-1.612	Roll:	0.251	Pitch:	0.745	Yaw:	4.740	Thrust:	100.000
Time:	3.019	Roll Set Point:	-0.012	Pitch Set Point:	-0.038	Yaw Set Point:	-0.029	X_WP:	0.000	Y_WP:	0.000	Y_WP:	0.500	X:	0.006	Y:	0.019	Z:	0.049	yaw:	1.659	yaw rate:	2.359	Roll:	0.117	Pitch:	0.511	Yaw:	2.904	Thrust:	35.580
Time:	3.032	Roll Set Point:	-0.012	Pitch Set Point:	-0.038	Yaw Set Point:	-0.028	X_WP:	0.000	Y_WP:	0.000	Y_WP:	0.500	X:	0.006	Y:	0.019	Z:	0.049	yaw:	1.631	yaw rate:	-2.847	Roll:	0.241	Pitch:	0.570	Yaw:	1.876	Thrust:	36.760
Time:	3.046	Roll Set Point:	-0.012	Pitch Set Point:	-0.038	Yaw Set Point:	-0.029	X_WP:	0.000	Y_WP:	0.000	Y_WP:	0.500	X:	0.006	Y:	0.019	Z:	0.049	yaw:	1.635	yaw rate:	0.429	Roll:	0.192	Pitch:	0.584	Yaw:	2.501	Thrust:	37.852
Time:	3.062	Roll Set Point:	-0.012	Pitch Set Point:	-0.038	Yaw Set Point:	-0.029	X_WP:	0.000	Y_WP:	0.000	Y_WP:	0.500	X:	0.006	Y:	0.019	Z:	0.049	yaw:	1.658	yaw rate:	2.340	Roll:	0.155	Pitch:	0.509	Yaw:	2.864	Thrust:	40.474
Time:	3.076	Roll Set Point:	-0.012	Pitch Set Point:	-0.038	Yaw Set Point:	-0.028	X_WP:	0.000	Y_WP:	0.000	Y_WP:	0.500	X:	0.006	Y:	0.019	Z:	0.049	yaw:	1.630	yaw rate:	-1.203	Roll:	0.210	Pitch:	0.590	Yaw:	1.891	Thrust:	39.195
Time:	3.089	Roll Set Point:	-0.012	Pitch Set Point:	-0.038	Yaw Set Point:	-0.029	X_WP:	0.000	Y_WP:	0.000	Y_WP:	0.500	X:	0.006	Y:	0.019	Z:	0.049	yaw:	1.637	yaw rate:	0.723	Roll:	0.184	Pitch:	0.551	Yaw:	2.581	Thrust:	38.861
Time:	3.103	Roll Set Point:	-0.012	Pitch Set Point:	-0.038	Yaw Set Point:	-0.029	X_WP:	0.000	Y_WP:	0.000	Y_WP:	0.500	X:	0.006	Y:	0.019	Z:	0.049	yaw:	1.643	yaw rate:	0.628	Roll:	0.141	Pitch:	0.531	Yaw:	2.581	Thrust:	40.854
Time:	3.118	Roll Set Point:	-0.012	Pitch Set Point:	-0.038	Yaw Set Point:	-0.029	X_WP:	0.000	Y_WP:	0.000	Y_WP:	0.500	X:	0.006	Y:	0.019	Z:	0.049	yaw:	1.641	yaw rate:	-0.223	Roll:	0.246	Pitch:	0.606	Yaw:	2.427	Thrust:	41.519
Time:	3.132	Roll Set Point:	-0.012	Pitch Set Point:	-0.038	Yaw Set Point:	-0.029	X_WP:	0.000	Y_WP:	0.000	Y_WP:	0.500	X:	0.006	Y:	0.019	Z:	0.049	yaw:	1.681	yaw rate:	4.000	Roll:	0.154	Pitch:	0.507	Yaw:	3.279	Thrust:	42.415
Time:	3.147	Roll Set Point:	-0.012	Pitch Set Point:	-0.038	Yaw Set Point:	-0.029	X_WP:	0.000	Y_WP:	0.000	Y_WP:	0.500	X:	0.006	Y:	0.019	Z:	0.049	yaw:	1.660	yaw rate:	-2.117	Roll:	0.179	Pitch:	0.541	Yaw:	2.157	Thrust:	44.303
Time:	3.164	Roll Set Point:	-0.012	Pitch Set Point:	-0.038	Yaw Set Point:	-0.029	X_WP:	0.000	Y_WP:	0.000	Y_WP:	0.500	X:	0.006	Y:	0.019	Z:	0.049	yaw:	1.680	yaw rate:	2.081	Roll:	0.195	Pitch:	0.567	Yaw:	2.912	Thrust:	47.859
Time:	3.191	Roll Set Point:	-0.012	Pitch Set Point:	-0.038	Yaw Set Point:	-0.029	X_WP:	0.000	Y_WP:	0.000	Y_WP:	0.500	X:	0.006	Y:	0.019	Z:	0.049	yaw:	1.660	yaw rate:	-2.045	Roll:	0.191	Pitch:	0.584	Yaw:	2.526	Thrust:	62.943
Time:	3.206	Roll Set Point:	-0.012	Pitch Set Point:	-0.038	Yaw Set Point:	-0.029	X_WP:	0.000	Y_WP:	0.000	Y_WP:	0.500	X:	0.006	Y:	0.019	Z:	0.049	yaw:	1.647	yaw rate:	-1.328	Roll:	0.171	Pitch:	0.538	Yaw:	2.303	Thrust:	46.767
Time:	3.220	Roll Set Point:	-0.012	Pitch Set Point:	-0.038	Yaw Set Point:	-0.029	X_WP:	0.000	Y_WP:	0.000	Y_WP:	0.500	X:	0.006	Y:	0.019	Z:	0.049	yaw:	1.677	yaw rate:	1.765	Roll:	0.195	Pitch:	0.583	Yaw:	3.134	Thrust:	46.097
Time:	3.245	Roll Set Point:	-0.012	Pitch Set Point:	-0.038	Yaw Set Point:	-0.029	X_WP:	0.000	Y_WP:	0.000	Y_WP:	0.500	X:	0.006	Y:	0.019	Z:	0.049	yaw:	1.677	yaw rate:	1.765	Roll:	0.192	Pitch:	0.576	Yaw:	2.762	Thrust:	64.170
Time:	3.259	Roll Set Point:	-0.012	Pitch Set Point:	-0.038	Yaw Set Point:	-0.029	X_WP:	0.000	Y_WP:	0.000	Y_WP:	0.500	X:	0.006	Y:	0.019	Z:	0.049	yaw:	1.644	yaw rate:	-1.072	Roll:	0.245	Pitch:	0.578	Yaw:	1.916	Thrust:	47.615
Time:	3.273	Roll Set Point:	-0.012	Pitch Set Point:	-0.038	Yaw Set Point:	-0.029	X_WP:	0.000	Y_WP:	0.000	Y_WP:	0.500	X:	0.006	Y:	0.019	Z:	0.049	yaw:	1.643	yaw rate:	-0.070	Roll:	0.178	Pitch:	0.573	Yaw:	2.532	Thrust:	48.265
Time:	3.287	Roll Set Point:	-0.012	Pitch Set Point:	-0.038	Yaw Set Point:	-0.029	X_WP:	0.000	Y_WP:	0.000	Y_WP:	0.500	X:	0.006	Y:	0.019	Z:	0.049	yaw:	1.650	yaw rate:	0.668	Roll:	0.120	Pitch:	0.545	Yaw:	2.687	Thrust:	47.583
Time:	3.302	Roll Set Point:	-0.012	Pitch Set Point:	-0.038	Yaw Set Point:	-0.029	X_WP:	0.000	Y_WP:	0.000	Y_WP:	0.500	X:	0.006	Y:	0.019	Z:	0.049	yaw:	1.660	yaw rate:	1.057	Roll:	0.211	Pitch:	0.553	Yaw:	2.789	Thrust:	53.438
Time:	3.316	Roll Set Point:	-0.012	Pitch Set Point:	-0.038	Yaw Set Point:	-0.029	X_WP:	0.000	Y_WP:	0.000	Y_WP:	0.500	X:	0.006	Y:	0.019	Z:	0.049	yaw:	1.664	yaw rate:	0.408	Roll:	0.185	Pitch:	0.581	Yaw:	2.676	Thrust:	50.685
Time:	3.330	Roll Set Point:	-0.012	Pitch Set Point:	-0.038	Yaw Set Point:	-0.029	X_WP:	0.000	Y_WP:	0.000	Y_WP:	0.500	X:	0.006	Y:	0.019	Z:	0.049	yaw:	1.657	yaw rate:	-0.705	Roll:	0.206	Pitch:	0.523	Yaw:	2.466	Thrust:	51.392
Time:	3.350	Roll Set Point:	-0.012	Pitch Set Point:	-0.038	Yaw Set Point:	-0.029	X_WP:	0.000	Y_WP:	0.000	Y_WP:	0.500	X:	0.006	Y:	0.019	Z:	0.049	yaw:	1.660	yaw rate:	0.268	Roll:	0.184	Pitch:	0.600	Yaw:	2.770	Thrust:	63.895
