Time:	2.094	Roll Set Point:	0.568	Pitch Set Point:	0.285	Yaw Set Point:	-0.660	X_WP:	0.000	Y_WP:	0.000	Y_WP:	0.500	X:	-0.235	Y:	-0.240	Z:	0.047	yaw:	37.826	yaw rate:	4.671	Roll:	-9.658	Pitch:	-1.314	Yaw:	52.815	Thrust:	24.926
Time:	2.110	Roll Set Point:	0.568	Pitch Set Point:	0.286	Yaw Set Point:	-0.659	X_WP:	0.000	Y_WP:	0.000	Y_WP:	0.500	X:	-0.235	Y:	-0.240	Z:	0.047	yaw:	37.767	yaw rate:	-10.445	Roll:	-9.621	Pitch:	-1.673	Yaw:	51.953	Thrust:	25.803
Time:	2.125	Roll Set Point:	0.568	Pitch Set Point:	0.285	Yaw Set Point:	-0.661	X_WP:	0.000	Y_WP:	0.000	Y_WP:	0.500	X:	-0.235	Y:	-0.240	Z:	0.047	yaw:	37.858	yaw rate:	9.095	Roll:	-9.799	Pitch:	-0.726	Yaw:	54.802	Thrust:	26.540
Time:	2.141	Roll Set Point:	0.568	Pitch Set Point:	0.285	Yaw Set Point:	-0.661	X_WP:	0.000	Y_WP:	0.000	Y_WP:	0.500	X:	-0.235	Y:	-0.240	Z:	0.047	yaw:	37.873	yaw rate:	1.509	Roll:	-9.694	Pitch:	-1.208	Yaw:	53.752	Thrust:	27.765
Time:	2.156	Roll Set Point:	0.568	Pitch Set Point:	0.285	Yaw Set Point:	-0.660	X_WP:	0.000	Y_WP:	0.000	Y_WP:	0.500	X:	-0.235	Y:	-0.240	Z:	0.047	yaw:	37.794	yaw rate:	-7.914	Roll:	-9.615	Pitch:	-1.837	Yaw:	52.270	Thrust:	28.207
Time:	2.172	Roll Set Point:	0.568	Pitch Set Point:	0.285	Yaw Set Point:	-0.660	X_WP:	0.000	Y_WP:	0.000	Y_WP:	0.500	X:	-0.235	Y:	-0.240	Z:	0.047	yaw:	37.844	yaw rate:	4.965	Roll:	-9.781	Pitch:	-0.988	Yaw:	54.703	Thrust:	29.169
Time:	2.188	Roll Set Point:	0.569	Pitch Set Point:	0.285	Yaw Set Point:	-0.662	X_WP:	0.000	Y_WP:	0.000	Y_WP:	0.500	X:	-0.235	Y:	-0.240	Z:	0.047	yaw:	37.912	yaw rate:	6.844	Roll:	-9.937	Pitch:	-1.018	Yaw:	55.320	Thrust:	29.386
Time:	2.203	Roll Set Point:	0.568	Pitch Set Point:	0.285	Yaw Set Point:	-0.660	X_WP:	0.000	Y_WP:	0.000	Y_WP:	0.500	X:	-0.235	Y:	-0.240	Z:	0.047	yaw:	37.800	yaw rate:	-11.181	Roll:	-9.502	Pitch:	-1.948	Yaw:	52.345	Thrust:	31.482
Time:	2.219	Roll Set Point:	0.568	Pitch Set Point:	0.285	Yaw Set Point:	-0.660	X_WP:	0.000	Y_WP:	0.000	Y_WP:	0.500	X:	-0.235	Y:	-0.240	Z:	0.047	yaw:	37.800	yaw rate:	-11.181	Roll:	-9.761	Pitch:	-1.333	Yaw:	54.342	Thrust:	31.726
Time:	2.234	Roll Set Point:	0.568	Pitch Set Point:	0.285	Yaw Set Point:	-0.661	X_WP:	0.000	Y_WP:	0.000	Y_WP:	0.500	X:	-0.235	Y:	-0.240	Z:	0.047	yaw:	37.852	yaw rate:	7.237	Roll:	-9.840	Pitch:	-0.985	Yaw:	55.287	Thrust:	32.557
Time:	2.250	Roll Set Point:	0.568	Pitch Set Point:	0.285	Yaw Set Point:	-0.661	X_WP:	0.000	Y_WP:	0.000	Y_WP:	0.500	X:	-0.235	Y:	-0.240	Z:	0.047	yaw:	37.852	yaw rate:	7.237	Roll:	-9.789	Pitch:	-1.327	Yaw:	54.414	Thrust:	33.426
Time:	2.266	Roll Set Point:	0.568	Pitch Set Point:	0.285	Yaw Set Point:	-0.660	X_WP:	0.000	Y_WP:	0.000	Y_WP:	0.500	X:	-0.235	Y:	-0.240	Z:	0.047	yaw:	37.807	yaw rate:	-4.524	Roll:	-9.720	Pitch:	-1.587	Yaw:	53.593	Thrust:	34.296
Time:	2.281	Roll Set Point:	0.568	Pitch Set Point:	0.285	Yaw Set Point:	-0.660	X_WP:	0.000	Y_WP:	0.000	Y_WP:	0.500	X:	-0.235	Y:	-0.240	Z:	0.047	yaw:	37.797	yaw rate:	0.722	Roll:	-9.800	Pitch:	-1.392	Yaw:	54.177	Thrust:	35.276
Time:	2.297	Roll Set Point:	0.568	Pitch Set Point:	0.285	Yaw Set Point:	-0.660	X_WP:	0.000	Y_WP:	0.000	Y_WP:	0.500	X:	-0.235	Y:	-0.240	Z:	0.047	yaw:	37.797	yaw rate:	0.722	Roll:	-9.826	Pitch:	-1.340	Yaw:	54.338	Thrust:	35.980
Time:	2.313	Roll Set Point:	0.568	Pitch Set Point:	0.285	Yaw Set Point:	-0.660	X_WP:	0.000	Y_WP:	0.000	Y_WP:	0.500	X:	-0.235	Y:	-0.240	Z:	0.047	yaw:	37.811	yaw rate:	1.336	Roll:	-9.866	Pitch:	-1.279	Yaw:	54.583	Thrust:	36.646
Time:	2.328	Roll Set Point:	0.568	Pitch Set Point:	0.285	Yaw Set Point:	-0.661	X_WP:	0.000	Y_WP:	0.000	Y_WP:	0.500	X:	-0.235	Y:	-0.240	Z:	0.047	yaw:	37.848	yaw rate:	5.505	Roll:	-9.908	Pitch:	-1.075	Yaw:	55.029	Thrust:	37.739
Time:	2.344	Roll Set Point:	0.568	Pitch Set Point:	0.285	Yaw Set Point:	-0.660	X_WP:	0.000	Y_WP:	0.000	Y_WP:	0.500	X:	-0.235	Y:	-0.240	Z:	0.047	yaw:	37.804	yaw rate:	-4.373	Roll:	-9.785	Pitch:	-1.674	Yaw:	53.613	Thrust:	38.525
Time:	2.359	Roll Set Point:	0.568	Pitch Set Point:	0.285	Yaw Set Point:	-0.660	X_WP:	0.000	Y_WP:	0.000	Y_WP:	0.500	X:	-0.235	Y:	-0.240	Z:	0.047	yaw:	37.812	yaw rate:	0.795	Roll:	-9.914	Pitch:	-1.272	Yaw:	54.492	Thrust:	39.352
Time:	2.375	Roll Set Point:	0.568	Pitch Set Point:	0.285	Yaw Set Point:	-0.660	X_WP:	0.000	Y_WP:	0.000	Y_WP:	0.500	X:	-0.235	Y:	-0.240	Z:	0.047	yaw:	37.810	yaw rate:	-0.248	Roll:	-9.921	Pitch:	-1.387	Yaw:	54.313	Thrust:	40.068
Time:	2.391	Roll Set Point:	0.568	Pitch Set Point:	0.285	Yaw Set Point:	-0.660	X_WP:	0.000	Y_WP:	0.000	Y_WP:	0.500	X:	-0.235	Y:	-0.240	Z:	0.047	yaw:	37.840	yaw rate:	3.074	Roll:	-9.896	Pitch:	-1.110	Yaw:	54.913	Thrust:	41.311
Time:	2.422	Roll Set Point:	0.568	Pitch Set Point:	0.285	Yaw Set Point:	-0.660	X_WP:	0.000	Y_WP:	0.000	Y_WP:	0.500	X:	-0.235	Y:	-0.240	Z:	0.047	yaw:	37.825	yaw rate:	-1.546	Roll:	-10.168	Pitch:	-1.438	Yaw:	55.803	Thrust:	58.874
Time:	2.437	Roll Set Point:	0.568	Pitch Set Point:	0.286	Yaw Set Point:	-0.659	X_WP:	0.000	Y_WP:	0.000	Y_WP:	0.500	X:	-0.235	Y:	-0.240	Z:	0.047	yaw:	37.772	yaw rate:	-17.971	Roll:	-9.857	Pitch:	-1.721	Yaw:	53.406	Thrust:	42.597
Time:	2.453	Roll Set Point:	0.568	Pitch Set Point:	0.285	Yaw Set Point:	-0.661	X_WP:	0.000	Y_WP:	0.000	Y_WP:	0.500	X:	-0.235	Y:	-0.240	Z:	0.047	yaw:	37.845	yaw rate:	7.307	Roll:	-10.054	Pitch:	-0.884	Yaw:	55.629	Thrust:	43.682
Time:	2.469	Roll Set Point:	0.568	Pitch Set Point:	0.285	Yaw Set Point:	-0.660	X_WP:	0.000	Y_WP:	0.000	Y_WP:	0.500	X:	-0.235	Y:	-0.240	Z:	0.047	yaw:	37.828	yaw rate:	-1.657	Roll:	-9.923	Pitch:	-1.457	Yaw:	54.103	Thrust:	44.548
Time:	2.484	Roll Set Point:	0.568	Pitch Set Point:	0.285	Yaw Set Point:	-0.660	X_WP:	0.000	Y_WP:	0.000	Y_WP:	0.500	X:	-0.235	Y:	-0.240	Z:	0.047	yaw:	37.828	yaw rate:	-1.657	Roll:	-9.970	Pitch:	-1.356	Yaw:	54.383	Thrust:	45.358
Time:	2.500	Roll Set Point:	0.568	Pitch Set Point:	0.285	Yaw Set Point:	-0.661	X_WP:	0.000	Y_WP:	0.000	Y_WP:	0.500	X:	-0.235	Y:	-0.240	Z:	0.047	yaw:	37.876	yaw rate:	4.764	Roll:	-10.041	Pitch:	-1.025	Yaw:	55.246	Thrust:	46.211
Time:	2.516	Roll Set Point:	0.569	Pitch Set Point:	0.285	Yaw Set Point:	-0.661	X_WP:	0.000	Y_WP:	0.000	Y_WP:	0.500	X:	-0.235	Y:	-0.240	Z:	0.047	yaw:	37.869	yaw rate:	-0.666	Roll:	-10.145	Pitch:	-1.558	Yaw:	54.321	Thrust:	46.176
Time:	2.531	Roll Set Point:	0.568	Pitch Set Point:	0.285	Yaw Set Point:	-0.661	X_WP:	0.000	Y_WP:	0.000	Y_WP:	0.500	X:	-0.235	Y:	-0.240	Z:	0.047	yaw:	37.852	yaw rate:	9.016	Roll:	-9.834	Pitch:	-1.313	Yaw:	54.122	Thrust:	48.688
Time:	2.547	Roll Set Point:	0.568	Pitch Set Point:	0.286	Yaw Set Point:	-0.659	X_WP:	0.000	Y_WP:	0.000	Y_WP:	0.500	X:	-0.235	Y:	-0.240	Z:	0.047	yaw:	37.751	yaw rate:	-10.087	Roll:	-9.879	Pitch:	-2.022	Yaw:	52.583	Thrust:	48.684
Time:	2.563	Roll Set Point:	0.568	Pitch Set Point:	0.286	Yaw Set Point:	-0.659	X_WP:	0.000	Y_WP:	0.000	Y_WP:	0.500	X:	-0.235	Y:	-0.240	Z:	0.047	yaw:	37.751	yaw rate:	-10.087	Roll:	-10.033	Pitch:	-1.378	Yaw:	54.276	Thrust:	49.627
Time:	2.578	Roll Set Point:	0.568	Pitch Set Point:	0.285	Yaw Set Point:	-0.660	X_WP:	0.000	Y_WP:	0.000	Y_WP:	0.500	X:	-0.235	Y:	-0.240	Z:	0.047	yaw:	37.834	yaw rate:	2.300	Roll:	-10.186	Pitch:	-0.846	Yaw:	55.784	Thrust:	50.090
Time:	2.594	Roll Set Point:	0.568	Pitch Set Point:	0.285	Yaw Set Point:	-0.661	X_WP:	0.000	Y_WP:	0.000	Y_WP:	0.500	X:	-0.235	Y:	-0.240	Z:	0.047	yaw:	37.852	yaw rate:	1.809	Roll:	-10.083	Pitch:	-1.266	Yaw:	54.718	Thrust:	51.378
Time:	2.609	Roll Set Point:	0.568	Pitch Set Point:	0.286	Yaw Set Point:	-0.659	X_WP:	0.000	Y_WP:	0.000	Y_WP:	0.500	X:	-0.235	Y:	-0.240	Z:	0.047	yaw:	37.769	yaw rate:	-8.380	Roll:	-9.987	Pitch:	-1.907	Yaw:	52.899	Thrust:	52.182
Time:	2.625	Roll Set Point:	0.568	Pitch Set Point:	0.286	Yaw Set Point:	-0.659	X_WP:	0.000	Y_WP:	0.000	Y_WP:	0.500	X:	-0.235	Y:	-0.240	Z:	0.047	yaw:	37.769	yaw rate:	-8.380	Roll:	-10.085	Pitch:	-1.382	Yaw:	54.295	Thrust:	52.920
Time:	2.641	Roll Set Point:	0.568	Pitch Set Point:	0.285	Yaw Set Point:	-0.660	X_WP:	0.000	Y_WP:	0.000	Y_WP:	0.500	X:	-0.235	Y:	-0.240	Z:	0.047	yaw:	37.811	yaw rate:	-1.030	Roll:	-10.131	Pitch:	-1.072	Yaw:	55.078	Thrust:	53.878
Time:	2.656	Roll Set Point:	0.568	Pitch Set Point:	0.285	Yaw Set Point:	-0.661	X_WP:	0.000	Y_WP:	0.000	Y_WP:	0.500	X:	-0.235	Y:	-0.240	Z:	0.047	yaw:	37.849	yaw rate:	3.740	Roll:	-10.140	Pitch:	-1.107	Yaw:	55.034	Thrust:	54.636
Time:	2.672	Roll Set Point:	0.568	Pitch Set Point:	0.285	Yaw Set Point:	-0.661	X_WP:	0.000	Y_WP:	0.000	Y_WP:	0.500	X:	-0.235	Y:	-0.240	Z:	0.047	yaw:	37.872	yaw rate:	2.330	Roll:	-10.306	Pitch:	-1.438	Yaw:	54.835	Thrust:	55.067
Time:	2.688	Roll Set Point:	0.568	Pitch Set Point:	0.286	Yaw Set Point:	-0.660	X_WP:	0.000	Y_WP:	0.000	Y_WP:	0.500	X:	-0.235	Y:	-0.240	Z:	0.047	yaw:	37.796	yaw rate:	-7.621	Roll:	-9.939	Pitch:	-1.706	Yaw:	53.053	Thrust:	56.773
Time:	2.703	Roll Set Point:	0.568	Pitch Set Point:	0.285	Yaw Set Point:	-0.661	X_WP:	0.000	Y_WP:	0.000	Y_WP:	0.500	X:	-0.235	Y:	-0.240	Z:	0.047	yaw:	37.846	yaw rate:	4.990	Roll:	-10.176	Pitch:	-1.038	Yaw:	55.241	Thrust:	57.228
Time:	2.719	Roll Set Point:	0.568	Pitch Set Point:	0.285	Yaw Set Point:	-0.660	X_WP:	0.000	Y_WP:	0.000	Y_WP:	0.500	X:	-0.235	Y:	-0.240	Z:	0.047	yaw:	37.799	yaw rate:	-4.638	Roll:	-10.096	Pitch:	-1.646	Yaw:	53.565	Thrust:	58.244
Time:	2.734	Roll Set Point:	0.568	Pitch Set Point:	0.285	Yaw Set Point:	-0.660	X_WP:	0.000	Y_WP:	0.000	Y_WP:	0.500	X:	-0.235	Y:	-0.240	Z:	0.047	yaw:	37.832	yaw rate:	3.254	Roll:	-10.246	Pitch:	-1.273	Yaw:	54.931	Thrust:	58.756
Time:	2.750	Roll Set Point:	0.568	Pitch Set Point:	0.285	Yaw Set Point:	-0.660	X_WP:	0.000	Y_WP:	0.000	Y_WP:	0.500	X:	-0.235	Y:	-0.240	Z:	0.047	yaw:	37.798	yaw rate:	-3.443	Roll:	-10.137	Pitch:	-1.523	Yaw:	53.766	Thrust:	60.109
Time:	2.766	Roll Set Point:	0.568	Pitch Set Point:	0.285	Yaw Set Point:	-0.660	X_WP:	0.000	Y_WP:	0.000	Y_WP:	0.500	X:	-0.235	Y:	-0.240	Z:	0.047	yaw:	37.819	yaw rate:	2.150	Roll:	-10.246	Pitch:	-1.273	Yaw:	54.726	Thrust:	60.309
Time:	2.781	Roll Set Point:	0.569	Pitch Set Point:	0.285	Yaw Set Point:	-0.661	X_WP:	0.000	Y_WP:	0.000	Y_WP:	0.500	X:	-0.235	Y:	-0.240	Z:	0.047	yaw:	37.884	yaw rate:	6.520	Roll:	-10.421	Pitch:	-1.119	Yaw:	55.551	Thrust:	60.808
Time:	2.797	Roll Set Point:	0.569	Pitch Set Point:	0.285	Yaw Set Point:	-0.661	X_WP:	0.000	Y_WP:	0.000	Y_WP:	0.500	X:	-0.235	Y:	-0.240	Z:	0.047	yaw:	37.884	yaw rate:	6.520	Roll:	-10.237	Pitch:	-1.385	Yaw:	54.462	Thrust:	62.391
Time:	2.813	Roll Set Point:	0.568	Pitch Set Point:	0.286	Yaw Set Point:	-0.660	X_WP:	0.000	Y_WP:	0.000	Y_WP:	0.500	X:	-0.235	Y:	-0.240	Z:	0.047	yaw:	37.792	yaw rate:	-9.517	Roll:	-10.044	Pitch:	-1.881	Yaw:	52.770	Thrust:	63.551
Time:	2.828	Roll Set Point:	0.568	Pitch Set Point:	0.285	Yaw Set Point:	-0.661	X_WP:	0.000	Y_WP:	0.000	Y_WP:	0.500	X:	-0.235	Y:	-0.240	Z:	0.047	yaw:	37.900	yaw rate:	10.885	Roll:	-10.337	Pitch:	-0.621	Yaw:	56.305	Thrust:	64.441
Time:	2.844	Roll Set Point:	0.569	Pitch Set Point:	0.285	Yaw Set Point:	-0.662	X_WP:	0.000	Y_WP:	0.000	Y_WP:	0.500	X:	-0.235	Y:	-0.240	Z:	0.047	yaw:	37.909	yaw rate:	0.884	Roll:	-10.383	Pitch:	-1.547	Yaw:	54.639	Thrust:	63.977
Time:	2.859	Roll Set Point:	0.568	Pitch Set Point:	0.285	Yaw Set Point:	-0.661	X_WP:	0.000	Y_WP:	0.000	Y_WP:	0.500	X:	-0.235	Y:	-0.240	Z:	0.047	yaw:	37.859	yaw rate:	-5.020	Roll:	-10.091	Pitch:	-1.544	Yaw:	53.584	Thrust:	66.466
Time:	2.875	Roll Set Point:	0.568	Pitch Set Point:	0.285	Yaw Set Point:	-0.660	X_WP:	0.000	Y_WP:	0.000	Y_WP:	0.500	X:	-0.235	Y:	-0.240	Z:	0.047	yaw:	37.807	yaw rate:	-5.245	Roll:	-10.159	Pitch:	-1.748	Yaw:	53.471	Thrust:	66.471
Time:	2.891	Roll Set Point:	0.568	Pitch Set Point:	0.285	Yaw Set Point:	-0.661	X_WP:	0.000	Y_WP:	0.000	Y_WP:	0.500	X:	-0.235	Y:	-0.240	Z:	0.047	yaw:	37.848	yaw rate:	4.164	Roll:	-10.273	Pitch:	-1.121	Yaw:	55.106	Thrust:	67.447
Time:	2.906	Roll Set Point:	0.568	Pitch Set Point:	0.285	Yaw Set Point:	-0.661	X_WP:	0.000	Y_WP:	0.000	Y_WP:	0.500	X:	-0.235	Y:	-0.240	Z:	0.047	yaw:	37.895	yaw rate:	4.703	Roll:	-10.334	Pitch:	-1.042	Yaw:	55.262	Thrust:	68.244
Time:	2.922	Roll Set Point:	0.568	Pitch Set Point:	0.285	Yaw Set Point:	-0.661	X_WP:	0.000	Y_WP:	0.000	Y_WP:	0.500	X:	-0.235	Y:	-0.240	Z:	0.047	yaw:	37.895	yaw rate:	4.703	Roll:	-10.246	Pitch:	-1.392	Yaw:	54.474	Thrust:	69.118
Time:	2.938	Roll Set Point:	0.569	Pitch Set Point:	0.285	Yaw Set Point:	-0.661	X_WP:	0.000	Y_WP:	0.000	Y_WP:	0.500	X:	-0.235	Y:	-0.240	Z:	0.047	yaw:	37.895	yaw rate:	1.497	Roll:	-10.377	Pitch:	-1.625	Yaw:	54.477	Thrust:	69.516
Time:	2.953	Roll Set Point:	0.568	Pitch Set Point:	0.285	Yaw Set Point:	-0.660	X_WP:	0.000	Y_WP:	0.000	Y_WP:	0.500	X:	-0.235	Y:	-0.240	Z:	0.047	yaw:	37.838	yaw rate:	-5.781	Roll:	-10.050	Pitch:	-1.569	Yaw:	53.425	Thrust:	71.229
Time:	2.969	Roll Set Point:	0.568	Pitch Set Point:	0.285	Yaw Set Point:	-0.660	X_WP:	0.000	Y_WP:	0.000	Y_WP:	0.500	X:	-0.235	Y:	-0.240	Z:	0.047	yaw:	37.813	yaw rate:	-2.438	Roll:	-10.189	Pitch:	-1.533	Yaw:	53.951	Thrust:	71.732
Time:	2.984	Roll Set Point:	0.568	Pitch Set Point:	0.285	Yaw Set Point:	-0.661	X_WP:	0.000	Y_WP:	0.000	Y_WP:	0.500	X:	-0.235	Y:	-0.240	Z:	0.047	yaw:	37.854	yaw rate:	4.125	Roll:	-10.305	Pitch:	-1.227	Yaw:	55.109	Thrust:	72.523
Time:	3.000	Roll Set Point:	0.568	Pitch Set Point:	0.285	Yaw Set Point:	-0.661	X_WP:	0.000	Y_WP:	0.000	Y_WP:	0.500	X:	-0.235	Y:	-0.240	Z:	0.047	yaw:	37.854	yaw rate:	4.125	Roll:	-10.245	Pitch:	-1.410	Yaw:	54.418	Thrust:	73.370
Time:	3.016	Roll Set Point:	0.568	Pitch Set Point:	0.285	Yaw Set Point:	-0.660	X_WP:	0.000	Y_WP:	0.000	Y_WP:	0.500	X:	-0.235	Y:	-0.240	Z:	0.047	yaw:	37.838	yaw rate:	-1.649	Roll:	-10.255	Pitch:	-1.492	Yaw:	54.118	Thrust:	74.231
Time:	3.031	Roll Set Point:	0.568	Pitch Set Point:	0.285	Yaw Set Point:	-0.660	X_WP:	0.000	Y_WP:	0.000	Y_WP:	0.500	X:	-0.235	Y:	-0.240	Z:	0.047	yaw:	37.798	yaw rate:	-9.914	Roll:	-10.149	Pitch:	-1.659	Yaw:	53.677	Thrust:	74.965
Time:	3.047	Roll Set Point:	0.568	Pitch Set Point:	0.285	Yaw Set Point:	-0.661	X_WP:	0.000	Y_WP:	0.000	Y_WP:	0.500	X:	-0.235	Y:	-0.240	Z:	0.047	yaw:	37.886	yaw rate:	8.752	Roll:	-10.378	Pitch:	-0.879	Yaw:	55.928	Thrust:	75.917
Time:	3.063	Roll Set Point:	0.568	Pitch Set Point:	0.285	Yaw Set Point:	-0.660	X_WP:	0.000	Y_WP:	0.000	Y_WP:	0.500	X:	-0.235	Y:	-0.240	Z:	0.047	yaw:	37.805	yaw rate:	-8.150	Roll:	-10.146	Pitch:	-1.946	Yaw:	52.982	Thrust:	76.980
Time:	3.078	Roll Set Point:	0.568	Pitch Set Point:	0.285	Yaw Set Point:	-0.661	X_WP:	0.000	Y_WP:	0.000	Y_WP:	0.500	X:	-0.235	Y:	-0.240	Z:	0.047	yaw:	37.875	yaw rate:	7.046	Roll:	-10.336	Pitch:	-0.995	Yaw:	55.626	Thrust:	77.482
Time:	3.094	Roll Set Point:	0.568	Pitch Set Point:	0.285	Yaw Set Point:	-0.661	X_WP:	0.000	Y_WP:	0.000	Y_WP:	0.500	X:	-0.235	Y:	-0.240	Z:	0.047	yaw:	37.871	yaw rate:	-0.388	Roll:	-10.241	Pitch:	-1.381	Yaw:	54.376	Thrust:	78.488
Time:	3.109	Roll Set Point:	0.568	Pitch Set Point:	0.285	Yaw Set Point:	-0.661	X_WP:	0.000	Y_WP:	0.000	Y_WP:	0.500	X:	-0.235	Y:	-0.240	Z:	0.047	yaw:	37.871	yaw rate:	-0.388	Roll:	-10.246	Pitch:	-1.418	Yaw:	54.441	Thrust:	79.317
Time:	3.125	Roll Set Point:	0.568	Pitch Set Point:	0.285	Yaw Set Point:	-0.660	X_WP:	0.000	Y_WP:	0.000	Y_WP:	0.500	X:	-0.235	Y:	-0.240	Z:	0.047	yaw:	37.824	yaw rate:	-4.679	Roll:	-10.167	Pitch:	-1.756	Yaw:	53.592	Thrust:	80.175
Time:	3.141	Roll Set Point:	0.568	Pitch Set Point:	0.285	Yaw Set Point:	-0.660	X_WP:	0.000	Y_WP:	0.000	Y_WP:	0.500	X:	-0.235	Y:	-0.240	Z:	0.047	yaw:	37.821	yaw rate:	0.210	Roll:	-10.229	Pitch:	-1.486	Yaw:	54.320	Thrust:	80.967
Time:	3.156	Roll Set Point:	0.568	Pitch Set Point:	0.286	Yaw Set Point:	-0.660	X_WP:	0.000	Y_WP:	0.000	Y_WP:	0.500	X:	-0.235	Y:	-0.240	Z:	0.047	yaw:	37.790	yaw rate:	-3.123	Roll:	-10.247	Pitch:	-1.686	Yaw:	53.803	Thrust:	81.774
Time:	3.172	Roll Set Point:	0.568	Pitch Set Point:	0.285	Yaw Set Point:	-0.660	X_WP:	0.000	Y_WP:	0.000	Y_WP:	0.500	X:	-0.235	Y:	-0.240	Z:	0.047	yaw:	37.841	yaw rate:	5.099	Roll:	-10.294	Pitch:	-1.008	Yaw:	55.253	Thrust:	82.837
Time:	3.188	Roll Set Point:	0.568	Pitch Set Point:	0.285	Yaw Set Point:	-0.660	X_WP:	0.000	Y_WP:	0.000	Y_WP:	0.500	X:	-0.235	Y:	-0.240	Z:	0.047	yaw:	37.802	yaw rate:	-3.852	Roll:	-10.178	Pitch:	-1.672	Yaw:	53.700	Thrust:	83.508
Time:	3.203	Roll Set Point:	0.568	Pitch Set Point:	0.286	Yaw Set Point:	-0.659	X_WP:	0.000	Y_WP:	0.000	Y_WP:	0.500	X:	-0.235	Y:	-0.240	Z:	0.047	yaw:	37.781	yaw rate:	-2.179	Roll:	-10.225	Pitch:	-1.667	Yaw:	53.949	Thrust:	84.395
Time:	3.219	Roll Set Point:	0.568	Pitch Set Point:	0.286	Yaw Set Point:	-0.660	X_WP:	0.000	Y_WP:	0.000	Y_WP:	0.500	X:	-0.235	Y:	-0.240	Z:	0.047	yaw:	37.793	yaw rate:	1.282	Roll:	-10.265	Pitch:	-1.363	Yaw:	54.547	Thrust:	85.282
Time:	3.234	Roll Set Point:	0.568	Pitch Set Point:	0.285	Yaw Set Point:	-0.660	X_WP:	0.000	Y_WP:	0.000	Y_WP:	0.500	X:	-0.235	Y:	-0.240	Z:	0.047	yaw:	37.839	yaw rate:	4.602	Roll:	-10.284	Pitch:	-1.090	Yaw:	55.168	Thrust:	86.206
Time:	3.250	Roll Set Point:	0.568	Pitch Set Point:	0.286	Yaw Set Point:	-0.659	X_WP:	0.000	Y_WP:	0.000	Y_WP:	0.500	X:	-0.235	Y:	-0.240	Z:	0.047	yaw:	37.784	yaw rate:	-5.548	Roll:	-10.150	Pitch:	-1.809	Yaw:	53.390	Thrust:	86.915
Time:	3.266	Roll Set Point:	0.568	Pitch Set Point:	0.285	Yaw Set Point:	-0.661	X_WP:	0.000	Y_WP:	0.000	Y_WP:	0.500	X:	-0.235	Y:	-0.240	Z:	0.047	yaw:	37.869	yaw rate:	8.454	Roll:	-10.400	Pitch:	-0.880	Yaw:	55.853	Thrust:	87.853
Time:	3.281	Roll Set Point:	0.568	Pitch Set Point:	0.285	Yaw Set Point:	-0.660	X_WP:	0.000	Y_WP:	0.000	Y_WP:	0.500	X:	-0.235	Y:	-0.240	Z:	0.047	yaw:	37.815	yaw rate:	-5.398	Roll:	-10.127	Pitch:	-1.826	Yaw:	53.457	Thrust:	88.659
Time:	3.297	Roll Set Point:	0.568	Pitch Set Point:	0.285	Yaw Set Point:	-0.660	X_WP:	0.000	Y_WP:	0.000	Y_WP:	0.500	X:	-0.235	Y:	-0.240	Z:	0.047	yaw:	37.815	yaw rate:	-5.398	Roll:	-10.243	Pitch:	-1.450	Yaw:	54.362	Thrust:	89.514
Time:	3.313	Roll Set Point:	0.569	Pitch Set Point:	0.285	Yaw Set Point:	-0.661	X_WP:	0.000	Y_WP:	0.000	Y_WP:	0.500	X:	-0.235	Y:	-0.240	Z:	0.047	yaw:	37.898	yaw rate:	8.525	Roll:	-10.500	Pitch:	-1.057	Yaw:	55.884	Thrust:	89.724
Time:	3.328	Roll Set Point:	0.568	Pitch Set Point:	0.286	Yaw Set Point:	-0.659	X_WP:	0.000	Y_WP:	0.000	Y_WP:	0.500	X:	-0.235	Y:	-0.240	Z:	0.047	yaw:	37.778	yaw rate:	-12.070	Roll:	-9.971	Pitch:	-2.129	Yaw:	52.288	Thrust:	91.707
Time:	3.344	Roll Set Point:	0.568	Pitch Set Point:	0.285	Yaw Set Point:	-0.660	X_WP:	0.000	Y_WP:	0.000	Y_WP:	0.500	X:	-0.235	Y:	-0.240	Z:	0.047	yaw:	37.795	yaw rate:	1.769	Roll:	-10.263	Pitch:	-1.287	Yaw:	54.631	Thrust:	92.289
Time:	3.359	Roll Set Point:	0.568	Pitch Set Point:	0.285	Yaw Set Point:	-0.660	X_WP:	0.000	Y_WP:	0.000	Y_WP:	0.500	X:	-0.235	Y:	-0.240	Z:	0.047	yaw:	37.795	yaw rate:	1.769	Roll:	-10.243	Pitch:	-1.460	Yaw:	54.335	Thrust:	92.915
Time:	3.375	Roll Set Point:	0.568	Pitch Set Point:	0.285	Yaw Set Point:	-0.661	X_WP:	0.000	Y_WP:	0.000	Y_WP:	0.500	X:	-0.235	Y:	-0.240	Z:	0.047	yaw:	37.876	yaw rate:	0.726	Roll:	-10.325	Pitch:	-0.932	Yaw:	55.791	Thrust:	93.734
Time:	3.391	Roll Set Point:	0.568	Pitch Set Point:	0.285	Yaw Set Point:	-0.661	X_WP:	0.000	Y_WP:	0.000	Y_WP:	0.500	X:	-0.235	Y:	-0.240	Z:	0.047	yaw:	37.892	yaw rate:	1.666	Roll:	-10.308	Pitch:	-1.353	Yaw:	54.750	Thrust:	94.612
Time:	3.421	Roll Set Point:	0.568	Pitch Set Point:	0.285	Yaw Set Point:	-0.660	X_WP:	0.000	Y_WP:	0.000	Y_WP:	0.500	X:	-0.235	Y:	-0.240	Z:	0.047	yaw:	37.825	yaw rate:	6.394	Roll:	-10.754	Pitch:	-1.816	Yaw:	55.300	Thrust:	100.000
Time:	3.437	Roll Set Point:	0.568	Pitch Set Point:	0.285	Yaw Set Point:	-0.661	X_WP:	0.000	Y_WP:	0.000	Y_WP:	0.500	X:	-0.235	Y:	-0.240	Z:	0.047	yaw:	37.855	yaw rate:	3.087	Roll:	-10.300	Pitch:	-1.214	Yaw:	54.936	Thrust:	96.164
Time:	3.453	Roll Set Point:	0.568	Pitch Set Point:	0.285	Yaw Set Point:	-0.660	X_WP:	0.000	Y_WP:	0.000	Y_WP:	0.500	X:	-0.235	Y:	-0.240	Z:	0.047	yaw:	37.844	yaw rate:	-1.182	Roll:	-10.183	Pitch:	-1.608	Yaw:	54.204	Thrust:	96.963
Time:	3.468	Roll Set Point:	0.568	Pitch Set Point:	0.285	Yaw Set Point:	-0.661	X_WP:	0.000	Y_WP:	0.000	Y_WP:	0.500	X:	-0.235	Y:	-0.240	Z:	0.047	yaw:	37.856	yaw rate:	1.267	Roll:	-10.294	Pitch:	-1.331	Yaw:	54.632	Thrust:	98.359
Time:	3.484	Roll Set Point:	0.568	Pitch Set Point:	0.285	Yaw Set Point:	-0.661	X_WP:	0.000	Y_WP:	0.000	Y_WP:	0.500	X:	-0.235	Y:	-0.240	Z:	0.047	yaw:	37.856	yaw rate:	1.267	Roll:	-10.245	Pitch:	-1.462	Yaw:	54.420	Thrust:	98.867
Time:	3.500	Roll Set Point:	0.568	Pitch Set Point:	0.285	Yaw Set Point:	-0.662	X_WP:	0.000	Y_WP:	0.000	Y_WP:	0.500	X:	-0.235	Y:	-0.240	Z:	0.047	yaw:	37.905	yaw rate:	7.976	Roll:	-10.299	Pitch:	-1.122	Yaw:	55.308	Thrust:	99.594
Time:	3.515	Roll Set Point:	0.568	Pitch Set Point:	0.285	Yaw Set Point:	-0.660	X_WP:	0.000	Y_WP:	0.000	Y_WP:	0.500	X:	-0.235	Y:	-0.240	Z:	0.047	yaw:	37.831	yaw rate:	-7.423	Roll:	-10.169	Pitch:	-1.968	Yaw:	53.141	Thrust:	100.000
Time:	3.531	Roll Set Point:	0.568	Pitch Set Point:	0.285	Yaw Set Point:	-0.660	X_WP:	0.000	Y_WP:	0.000	Y_WP:	0.500	X:	-0.235	Y:	-0.240	Z:	0.047	yaw:	37.830	yaw rate:	-0.074	Roll:	-10.237	Pitch:	-1.445	Yaw:	54.371	Thrust:	100.000
Time:	3.546	Roll Set Point:	0.568	Pitch Set Point:	0.286	Yaw Set Point:	-0.658	X_WP:	0.000	Y_WP:	0.000	Y_WP:	0.500	X:	-0.235	Y:	-0.240	Z:	0.047	yaw:	37.723	yaw rate:	-10.737	Roll:	-10.109	Pitch:	-2.221	Yaw:	52.435	Thrust:	100.000
Time:	3.562	Roll Set Point:	0.568	Pitch Set Point:	0.286	Yaw Set Point:	-0.658	X_WP:	0.000	Y_WP:	0.000	Y_WP:	0.500	X:	-0.235	Y:	-0.240	Z:	0.047	yaw:	37.723	yaw rate:	-10.737	Roll:	-10.241	Pitch:	-1.494	Yaw:	54.234	Thrust:	100.000
Time:	3.578	Roll Set Point:	0.568	Pitch Set Point:	0.285	Yaw Set Point:	-0.660	X_WP:	0.000	Y_WP:	0.000	Y_WP:	0.500	X:	-0.235	Y:	-0.240	Z:	0.047	yaw:	37.811	yaw rate:	-6.455	Roll:	-10.339	Pitch:	-0.903	Yaw:	55.831	Thrust:	100.000
Time:	3.593	Roll Set Point:	0.568	Pitch Set Point:	0.285	Yaw Set Point:	-0.660	X_WP:	0.000	Y_WP:	0.000	Y_WP:	0.500	X:	-0.235	Y:	-0.240	Z:	0.047	yaw:	37.811	yaw rate:	-6.455	Roll:	-10.243	Pitch:	-1.482	Yaw:	54.356	Thrust:	100.000
Time:	3.609	Roll Set Point:	0.568	Pitch Set Point:	0.285	Yaw Set Point:	-0.660	X_WP:	0.000	Y_WP:	0.000	Y_WP:	0.500	X:	-0.235	Y:	-0.240	Z:	0.047	yaw:	37.819	yaw rate:	0.850	Roll:	-10.232	Pitch:	-1.426	Yaw:	54.511	Thrust:	100.000
Time:	3.625	Roll Set Point:	0.568	Pitch Set Point:	0.285	Yaw Set Point:	-0.662	X_WP:	0.000	Y_WP:	0.000	Y_WP:	0.500	X:	-0.235	Y:	-0.240	Z:	0.047	yaw:	37.901	yaw rate:	6.237	Roll:	-10.378	Pitch:	-0.926	Yaw:	55.853	Thrust:	100.000
Time:	3.640	Roll Set Point:	0.568	Pitch Set Point:	0.285	Yaw Set Point:	-0.660	X_WP:	0.000	Y_WP:	0.000	Y_WP:	0.500	X:	-0.235	Y:	-0.240	Z:	0.047	yaw:	37.818	yaw rate:	-8.367	Roll:	-10.138	Pitch:	-2.034	Yaw:	52.964	Thrust:	100.000
Time:	3.656	Roll Set Point:	0.568	Pitch Set Point:	0.285	Yaw Set Point:	-0.660	X_WP:	0.000	Y_WP:	0.000	Y_WP:	0.500	X:	-0.235	Y:	-0.240	Z:	0.047	yaw:	37.818	yaw rate:	-8.367	Roll:	-10.243	Pitch:	-1.488	Yaw:	54.366	Thrust:	100.000
Time:	3.671	Roll Set Point:	0.568	Pitch Set Point:	0.286	Yaw Set Point:	-0.660	X_WP:	0.000	Y_WP:	0.000	Y_WP:	0.500	X:	-0.235	Y:	-0.240	Z:	0.047	yaw:	37.796	yaw rate:	-3.298	Roll:	-10.209	Pitch:	-1.684	Yaw:	53.966	Thrust:	100.000
Time:	3.687	Roll Set Point:	0.568	Pitch Set Point:	0.285	Yaw Set Point:	-0.661	X_WP:	0.000	Y_WP:	0.000	Y_WP:	0.500	X:	-0.235	Y:	-0.240	Z:	0.047	yaw:	37.871	yaw rate:	7.581	Roll:	-10.323	Pitch:	-0.980	Yaw:	55.712	Thrust:	100.000
Time:	3.703	Roll Set Point:	0.568	Pitch Set Point:	0.285	Yaw Set Point:	-0.660	X_WP:	0.000	Y_WP:	0.000	Y_WP:	0.500	X:	-0.235	Y:	-0.240	Z:	0.047	yaw:	37.832	yaw rate:	-3.911	Roll:	-10.248	Pitch:	-1.721	Yaw:	53.726	Thrust:	100.000
Time:	3.718	Roll Set Point:	0.568	Pitch Set Point:	0.285	Yaw Set Point:	-0.662	X_WP:	0.000	Y_WP:	0.000	Y_WP:	0.500	X:	-0.235	Y:	-0.240	Z:	0.047	yaw:	37.906	yaw rate:	7.357	Roll:	-10.413	Pitch:	-1.196	Yaw:	55.722	Thrust:	100.000
Time:	3.734	Roll Set Point:	0.568	Pitch Set Point:	0.286	Yaw Set Point:	-0.660	X_WP:	0.000	Y_WP:	0.000	Y_WP:	0.500	X:	-0.235	Y:	-0.240	Z:	0.047	yaw:	37.792	yaw rate:	-11.374	Roll:	-9.987	Pitch:	-2.076	Yaw:	52.432	Thrust:	100.000
Time:	3.750	Roll Set Point:	0.568	Pitch Set Point:	0.285	Yaw Set Point:	-0.660	X_WP:	0.000	Y_WP:	0.000	Y_WP:	0.500	X:	-0.235	Y:	-0.240	Z:	0.047	yaw:	37.816	yaw rate:	2.391	Roll:	-10.260	Pitch:	-1.319	Yaw:	54.762	Thrust:	100.000
Time:	3.765	Roll Set Point:	0.568	Pitch Set Point:	0.285	Yaw Set Point:	-0.660	X_WP:	0.000	Y_WP:	0.000	Y_WP:	0.500	X:	-0.235	Y:	-0.240	Z:	0.047	yaw:	37.816	yaw rate:	2.391	Roll:	-10.246	Pitch:	-1.502	Yaw:	54.372	Thrust:	100.000
Time:	3.781	Roll Set Point:	0.568	Pitch Set Point:	0.285	Yaw Set Point:	-0.660	X_WP:	0.000	Y_WP:	0.000	Y_WP:	0.500	X:	-0.235	Y:	-0.240	Z:	0.047	yaw:	37.831	yaw rate:	1.463	Roll:	-10.278	Pitch:	-1.367	Yaw:	54.622	Thrust:	100.000
Time:	3.796	Roll Set Point:	0.568	Pitch Set Point:	0.286	Yaw Set Point:	-0.659	X_WP:	0.000	Y_WP:	0.000	Y_WP:	0.500	X:	-0.235	Y:	-0.240	Z:	0.047	yaw:	37.777	yaw rate:	-5.342	Roll:	-10.188	Pitch:	-1.927	Yaw:	53.415	Thrust:	100.000
Time:	3.812	Roll Set Point:	0.569	Pitch Set Point:	0.285	Yaw Set Point:	-0.662	X_WP:	0.000	Y_WP:	0.000	Y_WP:	0.500	X:	-0.235	Y:	-0.240	Z:	0.047	yaw:	37.909	yaw rate:	4.611	Roll:	-10.508	Pitch:	-0.781	Yaw:	56.706	Thrust:	100.000
Time:	3.828	Roll Set Point:	0.568	Pitch Set Point:	0.285	Yaw Set Point:	-0.662	X_WP:	0.000	Y_WP:	0.000	Y_WP:	0.500	X:	-0.235	Y:	-0.240	Z:	0.047	yaw:	37.903	yaw rate:	-0.633	Roll:	-10.147	Pitch:	-1.368	Yaw:	54.379	Thrust:	100.000
Time:	3.843	Roll Set Point:	0.568	Pitch Set Point:	0.285	Yaw Set Point:	-0.660	X_WP:	0.000	Y_WP:	0.000	Y_WP:	0.500	X:	-0.235	Y:	-0.240	Z:	0.047	yaw:	37.837	yaw rate:	-6.587	Roll:	-10.169	Pitch:	-1.914	Yaw:	53.291	Thrust:	100.000
Time:	3.859	Roll Set Point:	0.568	Pitch Set Point:	0.285	Yaw Set Point:	-0.660	X_WP:	0.000	Y_WP:	0.000	Y_WP:	0.500	X:	-0.235	Y:	-0.240	Z:	0.047	yaw:	37.837	yaw rate:	-6.587	Roll:	-10.244	Pitch:	-1.507	Yaw:	54.392	Thrust:	100.000
Time:	3.875	Roll Set Point:	0.568	Pitch Set Point:	0.285	Yaw Set Point:	-0.660	X_WP:	0.000	Y_WP:	0.000	Y_WP:	0.500	X:	-0.235	Y:	-0.240	Z:	0.047	yaw:	37.821	yaw rate:	-1.302	Roll:	-10.180	Pitch:	-1.568	Yaw:	54.097	Thrust:	100.000
Time:	3.890	Roll Set Point:	0.568	Pitch Set Point:	0.285	Yaw Set Point:	-0.660	X_WP:	0.000	Y_WP:	0.000	Y_WP:	0.500	X:	-0.235	Y:	-0.240	Z:	0.047	yaw:	37.821	yaw rate:	-1.302	Roll:	-10.243	Pitch:	-1.512	Yaw:	54.370	Thrust:	100.000
Time:	3.906	Roll Set Point:	0.568	Pitch Set Point:	0.285	Yaw Set Point:	-0.660	X_WP:	0.000	Y_WP:	0.000	Y_WP:	0.500	X:	-0.235	Y:	-0.240	Z:	0.047	yaw:	37.824	yaw rate:	-5.129	Roll:	-10.247	Pitch:	-1.546	Yaw:	54.422	Thrust:	100.000
Time:	3.921	Roll Set Point:	0.568	Pitch Set Point:	0.286	Yaw Set Point:	-0.660	X_WP:	0.000	Y_WP:	0.000	Y_WP:	0.500	X:	-0.235	Y:	-0.240	Z:	0.047	yaw:	37.796	yaw rate:	-2.783	Roll:	-10.229	Pitch:	-1.780	Yaw:	53.869	Thrust:	100.000
Time:	3.937	Roll Set Point:	0.568	Pitch Set Point:	0.285	Yaw Set Point:	-0.661	X_WP:	0.000	Y_WP:	0.000	Y_WP:	0.500	X:	-0.235	Y:	-0.240	Z:	0.047	yaw:	37.853	yaw rate:	5.748	Roll:	-10.320	Pitch:	-1.066	Yaw:	55.379	Thrust:	100.000
Time:	3.953	Roll Set Point:	0.568	Pitch Set Point:	0.285	Yaw Set Point:	-0.661	X_WP:	0.000	Y_WP:	0.000	Y_WP:	0.500	X:	-0.235	Y:	-0.240	Z:	0.047	yaw:	37.878	yaw rate:	2.474	Roll:	-10.297	Pitch:	-1.405	Yaw:	54.865	Thrust:	100.000
Time:	3.968	Roll Set Point:	0.568	Pitch Set Point:	0.285	Yaw Set Point:	-0.660	X_WP:	0.000	Y_WP:	0.000	Y_WP:	0.500	X:	-0.235	Y:	-0.240	Z:	0.047	yaw:	37.836	yaw rate:	-4.161	Roll:	-10.177	Pitch:	-1.697	Yaw:	53.695	Thrust:	100.000
Time:	3.984	Roll Set Point:	0.568	Pitch Set Point:	0.285	Yaw Set Point:	-0.660	X_WP:	0.000	Y_WP:	0.000	Y_WP:	0.500	X:	-0.235	Y:	-0.240	Z:	0.047	yaw:	37.836	yaw rate:	-4.161	Roll:	-10.244	Pitch:	-1.521	Yaw:	54.392	Thrust:	100.000
Time:	4.000	Roll Set Point:	0.568	Pitch Set Point:	0.285	Yaw Set Point:	-0.660	X_WP:	0.000	Y_WP:	0.000	Y_WP:	0.500	X:	-0.235	Y:	-0.240	Z:	0.047	yaw:	37.836	yaw rate:	-1.544	Roll:	-10.245	Pitch:	-1.636	Yaw:	54.384	Thrust:	100.000
Time:	4.015	Roll Set Point:	0.568	Pitch Set Point:	0.285	Yaw Set Point:	-0.660	X_WP:	0.000	Y_WP:	0.000	Y_WP:	0.500	X:	-0.235	Y:	-0.240	Z:	0.047	yaw:	37.836	yaw rate:	-1.544	Roll:	-10.244	Pitch:	-1.527	Yaw:	54.391	Thrust:	100.000
Time:	4.031	Roll Set Point:	0.568	Pitch Set Point:	0.285	Yaw Set Point:	-0.660	X_WP:	0.000	Y_WP:	0.000	Y_WP:	0.500	X:	-0.235	Y:	-0.240	Z:	0.047	yaw:	37.804	yaw rate:	0.342	Roll:	-10.213	Pitch:	-1.678	Yaw:	53.817	Thrust:	100.000
Time:	4.046	Roll Set Point:	0.568	Pitch Set Point:	0.285	Yaw Set Point:	-0.660	X_WP:	0.000	Y_WP:	0.000	Y_WP:	0.500	X:	-0.235	Y:	-0.240	Z:	0.047	yaw:	37.804	yaw rate:	0.342	Roll:	-10.244	Pitch:	-1.534	Yaw:	54.348	Thrust:	100.000
Time:	4.062	Roll Set Point:	0.568	Pitch Set Point:	0.285	Yaw Set Point:	-0.660	X_WP:	0.000	Y_WP:	0.000	Y_WP:	0.500	X:	-0.235	Y:	-0.240	Z:	0.047	yaw:	37.820	yaw rate:	1.604	Roll:	-10.233	Pitch:	-1.454	Yaw:	54.641	Thrust:	100.000
Time:	4.078	Roll Set Point:	0.569	Pitch Set Point:	0.285	Yaw Set Point:	-0.661	X_WP:	0.000	Y_WP:	0.000	Y_WP:	0.500	X:	-0.235	Y:	-0.240	Z:	0.047	yaw:	37.872	yaw rate:	4.842	Roll:	-10.479	Pitch:	-1.360	Yaw:	55.303	Thrust:	100.000
Time:	4.093	Roll Set Point:	0.569	Pitch Set Point:	0.285	Yaw Set Point:	-0.661	X_WP:	0.000	Y_WP:	0.000	Y_WP:	0.500	X:	-0.235	Y:	-0.240	Z:	0.047	yaw:	37.872	yaw rate:	4.842	Roll:	-10.249	Pitch:	-1.533	Yaw:	54.442	Thrust:	100.000
Time:	4.109	Roll Set Point:	0.568	Pitch Set Point:	0.285	Yaw Set Point:	-0.661	X_WP:	0.000	Y_WP:	0.000	Y_WP:	0.500	X:	-0.235	Y:	-0.240	Z:	0.047	yaw:	37.898	yaw rate:	7.843	Roll:	-10.135	Pitch:	-1.154	Yaw:	54.912	Thrust:	100.000
Time:	4.125	Roll Set Point:	0.568	Pitch Set Point:	0.285	Yaw Set Point:	-0.661	X_WP:	0.000	Y_WP:	0.000	Y_WP:	0.500	X:	-0.235	Y:	-0.240	Z:	0.047	yaw:	37.898	yaw rate:	7.843	Roll:	-10.247	Pitch:	-1.527	Yaw:	54.480	Thrust:	100.000
Time:	4.140	Roll Set Point:	0.568	Pitch Set Point:	0.285	Yaw Set Point:	-0.660	X_WP:	0.000	Y_WP:	0.000	Y_WP:	0.500	X:	-0.235	Y:	-0.240	Z:	0.047	yaw:	37.818	yaw rate:	1.148	Roll:	-10.154	Pitch:	-2.124	Yaw:	53.049	Thrust:	100.000
Time:	4.156	Roll Set Point:	0.568	Pitch Set Point:	0.285	Yaw Set Point:	-0.660	X_WP:	0.000	Y_WP:	0.000	Y_WP:	0.500	X:	-0.235	Y:	-0.240	Z:	0.047	yaw:	37.818	yaw rate:	1.148	Roll:	-10.244	Pitch:	-1.546	Yaw:	54.367	Thrust:	100.000
Time:	4.171	Roll Set Point:	0.568	Pitch Set Point:	0.285	Yaw Set Point:	-0.661	X_WP:	0.000	Y_WP:	0.000	Y_WP:	0.500	X:	-0.235	Y:	-0.240	Z:	0.047	yaw:	37.890	yaw rate:	7.175	Roll:	-10.436	Pitch:	-1.188	Yaw:	55.667	Thrust:	100.000
Time:	4.187	Roll Set Point:	0.568	Pitch Set Point:	0.285	Yaw Set Point:	-0.661	X_WP:	0.000	Y_WP:	0.000	Y_WP:	0.500	X:	-0.235	Y:	-0.240	Z:	0.047	yaw:	37.890	yaw rate:	7.175	Roll:	-10.249	Pitch:	-1.540	Yaw:	54.467	Thrust:	100.000
Time:	4.203	Roll Set Point:	0.568	Pitch Set Point:	0.285	Yaw Set Point:	-0.660	X_WP:	0.000	Y_WP:	0.000	Y_WP:	0.500	X:	-0.235	Y:	-0.240	Z:	0.047	yaw:	37.808	yaw rate:	-7.254	Roll:	-10.049	Pitch:	-1.956	Yaw:	52.983	Thrust:	100.000
Time:	4.218	Roll Set Point:	0.568	Pitch Set Point:	0.285	Yaw Set Point:	-0.660	X_WP:	0.000	Y_WP:	0.000	Y_WP:	0.500	X:	-0.235	Y:	-0.240	Z:	0.047	yaw:	37.816	yaw rate:	0.728	Roll:	-10.216	Pitch:	-1.438	Yaw:	54.488	Thrust:	100.000
Time:	4.234	Roll Set Point:	0.568	Pitch Set Point:	0.285	Yaw Set Point:	-0.660	X_WP:	0.000	Y_WP:	0.000	Y_WP:	0.500	X:	-0.235	Y:	-0.240	Z:	0.047	yaw:	37.827	yaw rate:	1.147	Roll:	-10.294	Pitch:	-1.520	Yaw:	54.569	Thrust:	100.000
Time:	4.250	Roll Set Point:	0.568	Pitch Set Point:	0.285	Yaw Set Point:	-0.660	X_WP:	0.000	Y_WP:	0.000	Y_WP:	0.500	X:	-0.235	Y:	-0.240	Z:	0.047	yaw:	37.827	yaw rate:	1.147	Roll:	-10.244	Pitch:	-1.554	Yaw:	54.379	Thrust:	100.000
Time:	4.265	Roll Set Point:	0.568	Pitch Set Point:	0.285	Yaw Set Point:	-0.660	X_WP:	0.000	Y_WP:	0.000	Y_WP:	0.500	X:	-0.235	Y:	-0.240	Z:	0.047	yaw:	37.824	yaw rate:	-0.329	Roll:	-10.212	Pitch:	-1.545	Yaw:	54.319	Thrust:	100.000
Time:	4.281	Roll Set Point:	0.568	Pitch Set Point:	0.285	Yaw Set Point:	-0.660	X_WP:	0.000	Y_WP:	0.000	Y_WP:	0.500	X:	-0.235	Y:	-0.240	Z:	0.047	yaw:	37.841	yaw rate:	1.698	Roll:	-10.289	Pitch:	-1.538	Yaw:	54.686	Thrust:	100.000
Time:	4.296	Roll Set Point:	0.568	Pitch Set Point:	0.285	Yaw Set Point:	-0.661	X_WP:	0.000	Y_WP:	0.000	Y_WP:	0.500	X:	-0.235	Y:	-0.240	Z:	0.047	yaw:	37.860	yaw rate:	4.498	Roll:	-10.230	Pitch:	-1.340	Yaw:	54.745	Thrust:	100.000
Time:	4.312	Roll Set Point:	0.568	Pitch Set Point:	0.285	Yaw Set Point:	-0.660	X_WP:	0.000	Y_WP:	0.000	Y_WP:	0.500	X:	-0.235	Y:	-0.240	Z:	0.047	yaw:	37.838	yaw rate:	-2.227	Roll:	-10.228	Pitch:	-1.710	Yaw:	54.021	Thrust:	100.000
Time:	4.328	Roll Set Point:	0.568	Pitch Set Point:	0.285	Yaw Set Point:	-0.661	X_WP:	0.000	Y_WP:	0.000	Y_WP:	0.500	X:	-0.235	Y:	-0.240	Z:	0.047	yaw:	37.846	yaw rate:	0.863	Roll:	-10.308	Pitch:	-1.507	Yaw:	54.551	Thrust:	100.000
Time:	4.343	Roll Set Point:	0.568	Pitch Set Point:	0.285	Yaw Set Point:	-0.660	X_WP:	0.000	Y_WP:	0.000	Y_WP:	0.500	X:	-0.235	Y:	-0.240	Z:	0.047	yaw:	37.840	yaw rate:	-0.611	Roll:	-10.192	Pitch:	-1.591	Yaw:	54.295	Thrust:	100.000
Time:	4.359	Roll Set Point:	0.568	Pitch Set Point:	0.285	Yaw Set Point:	-0.661	X_WP:	0.000	Y_WP:	0.000	Y_WP:	0.500	X:	-0.235	Y:	-0.240	Z:	0.047	yaw:	37.858	yaw rate:	1.766	Roll:	-10.267	Pitch:	-1.482	Yaw:	54.721	Thrust:	100.000
Time:	4.375	Roll Set Point:	0.568	Pitch Set Point:	0.285	Yaw Set Point:	-0.660	X_WP:	0.000	Y_WP:	0.000	Y_WP:	0.500	X:	-0.235	Y:	-0.240	Z:	0.047	yaw:	37.819	yaw rate:	-3.893	Roll:	-10.167	Pitch:	-1.795	Yaw:	53.711	Thrust:	100.000
Time:	4.390	Roll Set Point:	0.568	Pitch Set Point:	0.285	Yaw Set Point:	-0.660	X_WP:	0.000	Y_WP:	0.000	Y_WP:	0.500	X:	-0.235	Y:	-0.240	Z:	0.047	yaw:	37.808	yaw rate:	-1.136	Roll:	-10.274	Pitch:	-1.655	Yaw:	54.162	Thrust:	100.000
Time:	4.405	Roll Set Point:	0.568	Pitch Set Point:	0.285	Yaw Set Point:	-0.660	X_WP:	0.000	Y_WP:	0.000	Y_WP:	0.500	X:	-0.235	Y:	-0.240	Z:	0.047	yaw:	37.815	yaw rate:	0.736	Roll:	-10.217	Pitch:	-1.529	Yaw:	54.376	Thrust:	100.000
Time:	4.421	Roll Set Point:	0.569	Pitch Set Point:	0.285	Yaw Set Point:	-0.661	X_WP:	0.000	Y_WP:	0.000	Y_WP:	0.500	X:	-0.235	Y:	-0.240	Z:	0.047	yaw:	37.877	yaw rate:	6.221	Roll:	-10.471	Pitch:	-1.320	Yaw:	55.535	Thrust:	100.000
Time:	4.437	Roll Set Point:	0.568	Pitch Set Point:	0.285	Yaw Set Point:	-0.660	X_WP:	0.000	Y_WP:	0.000	Y_WP:	0.500	X:	-0.235	Y:	-0.240	Z:	0.047	yaw:	37.814	yaw rate:	-6.271	Roll:	-10.003	Pitch:	-1.813	Yaw:	53.311	Thrust:	100.000
Time:	4.453	Roll Set Point:	0.568	Pitch Set Point:	0.285	Yaw Set Point:	-0.660	X_WP:	0.000	Y_WP:	0.000	Y_WP:	0.500	X:	-0.235	Y:	-0.240	Z:	0.047	yaw:	37.822	yaw rate:	0.747	Roll:	-10.296	Pitch:	-1.550	Yaw:	54.497	Thrust:	100.000
Time:	4.468	Roll Set Point:	0.568	Pitch Set Point:	0.285	Yaw Set Point:	-0.660	X_WP:	0.000	Y_WP:	0.000	Y_WP:	0.500	X:	-0.235	Y:	-0.240	Z:	0.047	yaw:	37.819	yaw rate:	-0.293	Roll:	-10.258	Pitch:	-1.597	Yaw:	54.319	Thrust:	100.000
Time:	4.484	Roll Set Point:	0.568	Pitch Set Point:	0.285	Yaw Set Point:	-0.661	X_WP:	0.000	Y_WP:	0.000	Y_WP:	0.500	X:	-0.235	Y:	-0.240	Z:	0.047	yaw:	37.876	yaw rate:	5.705	Roll:	-10.280	Pitch:	-1.204	Yaw:	55.403	Thrust:	100.000
Time:	4.500	Roll Set Point:	0.568	Pitch Set Point:	0.285	Yaw Set Point:	-0.661	X_WP:	0.000	Y_WP:	0.000	Y_WP:	0.500	X:	-0.235	Y:	-0.240	Z:	0.047	yaw:	37.876	yaw rate:	5.705	Roll:	-10.245	Pitch:	-1.573	Yaw:	54.448	Thrust:	100.000
Time:	4.515	Roll Set Point:	0.568	Pitch Set Point:	0.285	Yaw Set Point:	-0.661	X_WP:	0.000	Y_WP:	0.000	Y_WP:	0.500	X:	-0.235	Y:	-0.240	Z:	0.047	yaw:	37.898	yaw rate:	2.155	Roll:	-10.263	Pitch:	-1.409	Yaw:	54.839	Thrust:	100.000
Time:	4.531	Roll Set Point:	0.568	Pitch Set Point:	0.285	Yaw Set Point:	-0.660	X_WP:	0.000	Y_WP:	0.000	Y_WP:	0.500	X:	-0.235	Y:	-0.240	Z:	0.047	yaw:	37.812	yaw rate:	-8.608	Roll:	-10.160	Pitch:	-2.191	Yaw:	52.921	Thrust:	100.000
Time:	4.546	Roll Set Point:	0.568	Pitch Set Point:	0.285	Yaw Set Point:	-0.660	X_WP:	0.000	Y_WP:	0.000	Y_WP:	0.500	X:	-0.235	Y:	-0.240	Z:	0.047	yaw:	37.812	yaw rate:	-8.608	Roll:	-10.244	Pitch:	-1.590	Yaw:	54.358	Thrust:	100.000
Time:	4.562	Roll Set Point:	0.568	Pitch Set Point:	0.285	Yaw Set Point:	-0.660	X_WP:	0.000	Y_WP:	0.000	Y_WP:	0.500	X:	-0.235	Y:	-0.240	Z:	0.047	yaw:	37.824	yaw rate:	-4.877	Roll:	-10.272	Pitch:	-1.502	Yaw:	54.587	Thrust:	100.000
Time:	4.578	Roll Set Point:	0.568	Pitch Set Point:	0.285	Yaw Set Point:	-0.661	X_WP:	0.000	Y_WP:	0.000	Y_WP:	0.500	X:	-0.235	Y:	-0.240	Z:	0.047	yaw:	37.845	yaw rate:	2.128	Roll:	-10.238	Pitch:	-1.419	Yaw:	54.756	Thrust:	100.000
Time:	4.593	Roll Set Point:	0.568	Pitch Set Point:	0.285	Yaw Set Point:	-0.661	X_WP:	0.000	Y_WP:	0.000	Y_WP:	0.500	X:	-0.235	Y:	-0.240	Z:	0.047	yaw:	37.880	yaw rate:	3.485	Roll:	-10.362	Pitch:	-1.419	Yaw:	55.037	Thrust:	100.000
Time:	4.609	Roll Set Point:	0.568	Pitch Set Point:	0.285	Yaw Set Point:	-0.661	X_WP:	0.000	Y_WP:	0.000	Y_WP:	0.500	X:	-0.235	Y:	-0.240	Z:	0.047	yaw:	37.880	yaw rate:	3.485	Roll:	-10.248	Pitch:	-1.587	Yaw:	54.456	Thrust:	100.000
Time:	4.625	Roll Set Point:	0.568	Pitch Set Point:	0.285	Yaw Set Point:	-0.660	X_WP:	0.000	Y_WP:	0.000	Y_WP:	0.500	X:	-0.235	Y:	-0.240	Z:	0.047	yaw:	37.824	yaw rate:	5.292	Roll:	-10.084	Pitch:	-1.910	Yaw:	53.425	Thrust:	100.000
Time:	4.640	Roll Set Point:	0.568	Pitch Set Point:	0.285	Yaw Set Point:	-0.660	X_WP:	0.000	Y_WP:	0.000	Y_WP:	0.500	X:	-0.235	Y:	-0.240	Z:	0.047	yaw:	37.806	yaw rate:	-1.742	Roll:	-10.214	Pitch:	-1.693	Yaw:	54.058	Thrust:	100.000
Time:	4.656	Roll Set Point:	0.568	Pitch Set Point:	0.285	Yaw Set Point:	-0.661	X_WP:	0.000	Y_WP:	0.000	Y_WP:	0.500	X:	-0.235	Y:	-0.240	Z:	0.047	yaw:	37.846	yaw rate:	3.982	Roll:	-10.321	Pitch:	-1.396	Yaw:	55.073	Thrust:	100.000
Time:	4.671	Roll Set Point:	0.568	Pitch Set Point:	0.285	Yaw Set Point:	-0.660	X_WP:	0.000	Y_WP:	0.000	Y_WP:	0.500	X:	-0.235	Y:	-0.240	Z:	0.047	yaw:	37.834	yaw rate:	-1.163	Roll:	-10.228	Pitch:	-1.626	Yaw:	54.197	Thrust:	100.000
Time:	4.687	Roll Set Point:	0.568	Pitch Set Point:	0.285	Yaw Set Point:	-0.661	X_WP:	0.000	Y_WP:	0.000	Y_WP:	0.500	X:	-0.235	Y:	-0.240	Z:	0.047	yaw:	37.862	yaw rate:	2.744	Roll:	-10.263	Pitch:	-1.382	Yaw:	54.887	Thrust:	100.000
Time:	4.703	Roll Set Point:	0.568	Pitch Set Point:	0.285	Yaw Set Point:	-0.661	X_WP:	0.000	Y_WP:	0.000	Y_WP:	0.500	X:	-0.235	Y:	-0.240	Z:	0.047	yaw:	37.862	yaw rate:	2.744	Roll:	-10.244	Pitch:	-1.597	Yaw:	54.427	Thrust:	100.000
Time:	4.718	Roll Set Point:	0.568	Pitch Set Point:	0.285	Yaw Set Point:	-0.661	X_WP:	0.000	Y_WP:	0.000	Y_WP:	0.500	X:	-0.235	Y:	-0.240	Z:	0.047	yaw:	37.845	yaw rate:	1.632	Roll:	-10.255	Pitch:	-1.818	Yaw:	54.114	Thrust:	100.000
Time:	4.734	Roll Set Point:	0.568	Pitch Set Point:	0.285	Yaw Set Point:	-0.661	X_WP:	0.000	Y_WP:	0.000	Y_WP:	0.500	X:	-0.235	Y:	-0.240	Z:	0.047	yaw:	37.845	yaw rate:	1.632	Roll:	-10.245	Pitch:	-1.606	Yaw:	54.404	Thrust:	100.000
Time:	4.750	Roll Set Point:	0.568	Pitch Set Point:	0.285	Yaw Set Point:	-0.660	X_WP:	0.000	Y_WP:	0.000	Y_WP:	0.500	X:	-0.235	Y:	-0.240	Z:	0.047	yaw:	37.808	yaw rate:	-3.706	Roll:	-10.174	Pitch:	-1.775	Yaw:	53.731	Thrust:	100.000
Time:	4.765	Roll Set Point:	0.568	Pitch Set Point:	0.285	Yaw Set Point:	-0.660	X_WP:	0.000	Y_WP:	0.000	Y_WP:	0.500	X:	-0.235	Y:	-0.240	Z:	0.047	yaw:	37.808	yaw rate:	-3.706	Roll:	-10.243	Pitch:	-1.614	Yaw:	54.352	Thrust:	100.000
Time:	4.781	Roll Set Point:	0.568	Pitch Set Point:	0.285	Yaw Set Point:	-0.660	X_WP:	0.000	Y_WP:	0.000	Y_WP:	0.500	X:	-0.235	Y:	-0.240	Z:	0.047	yaw:	37.805	yaw rate:	-4.625	Roll:	-10.268	Pitch:	-1.688	Yaw:	54.309	Thrust:	100.000
Time:	4.796	Roll Set Point:	0.568	Pitch Set Point:	0.285	Yaw Set Point:	-0.660	X_WP:	0.000	Y_WP:	0.000	Y_WP:	0.500	X:	-0.235	Y:	-0.240	Z:	0.047	yaw:	37.805	yaw rate:	-4.625	Roll:	-10.243	Pitch:	-1.620	Yaw:	54.349	Thrust:	100.000
Time:	4.812	Roll Set Point:	0.568	Pitch Set Point:	0.285	Yaw Set Point:	-0.660	X_WP:	0.000	Y_WP:	0.000	Y_WP:	0.500	X:	-0.235	Y:	-0.240	Z:	0.047	yaw:	37.808	yaw rate:	4.004	Roll:	-10.202	Pitch:	-1.508	Yaw:	54.394	Thrust:	100.000
Time:	4.828	Roll Set Point:	0.569	Pitch Set Point:	0.285	Yaw Set Point:	-0.662	X_WP:	0.000	Y_WP:	0.000	Y_WP:	0.500	X:	-0.235	Y:	-0.240	Z:	0.047	yaw:	37.913	yaw rate:	10.518	Roll:	-10.548	Pitch:	-1.164	Yaw:	56.261	Thrust:	100.000
Time:	4.843	Roll Set Point:	0.568	Pitch Set Point:	0.285	Yaw Set Point:	-0.660	X_WP:	0.000	Y_WP:	0.000	Y_WP:	0.500	X:	-0.235	Y:	-0.240	Z:	0.047	yaw:	37.811	yaw rate:	-10.212	Roll:	-9.984	Pitch:	-2.167	Yaw:	52.646	Thrust:	100.000
Time:	4.859	Roll Set Point:	0.568	Pitch Set Point:	0.285	Yaw Set Point:	-0.660	X_WP:	0.000	Y_WP:	0.000	Y_WP:	0.500	X:	-0.235	Y:	-0.240	Z:	0.047	yaw:	37.804	yaw rate:	-0.671	Roll:	-10.236	Pitch:	-1.655	Yaw:	54.235	Thrust:	100.000
Time:	4.875	Roll Set Point:	0.568	Pitch Set Point:	0.285	Yaw Set Point:	-0.660	X_WP:	0.000	Y_WP:	0.000	Y_WP:	0.500	X:	-0.235	Y:	-0.240	Z:	0.047	yaw:	37.794	yaw rate:	-0.992	Roll:	-10.208	Pitch:	-1.649	Yaw:	54.169	Thrust:	100.000
Time:	4.890	Roll Set Point:	0.568	Pitch Set Point:	0.285	Yaw Set Point:	-0.661	X_WP:	0.000	Y_WP:	0.000	Y_WP:	0.500	X:	-0.235	Y:	-0.240	Z:	0.047	yaw:	37.851	yaw rate:	5.701	Roll:	-10.312	Pitch:	-1.245	Yaw:	55.368	Thrust:	100.000
Time:	4.906	Roll Set Point:	0.568	Pitch Set Point:	0.285	Yaw Set Point:	-0.660	X_WP:	0.000	Y_WP:	0.000	Y_WP:	0.500	X:	-0.235	Y:	-0.240	Z:	0.047	yaw:	37.800	yaw rate:	-5.073	Roll:	-10.205	Pitch:	-1.982	Yaw:	53.492	Thrust:	100.000
Time:	4.922	Roll Set Point:	0.568	Pitch Set Point:	0.285	Yaw Set Point:	-0.660	X_WP:	0.000	Y_WP:	0.000	Y_WP:	0.500	X:	-0.235	Y:	-0.240	Z:	0.047	yaw:	37.800	yaw rate:	-5.073	Roll:	-10.242	Pitch:	-1.634	Yaw:	54.340	Thrust:	100.000
Time:	4.937	Roll Set Point:	0.568	Pitch Set Point:	0.285	Yaw Set Point:	-0.660	X_WP:	0.000	Y_WP:	0.000	Y_WP:	0.500	X:	-0.235	Y:	-0.240	Z:	0.047	yaw:	37.829	yaw rate:	7.413	Roll:	-10.273	Pitch:	-1.417	Yaw:	54.865	Thrust:	100.000
Time:	4.953	Roll Set Point:	0.568	Pitch Set Point:	0.285	Yaw Set Point:	-0.660	X_WP:	0.000	Y_WP:	0.000	Y_WP:	0.500	X:	-0.235	Y:	-0.240	Z:	0.047	yaw:	37.811	yaw rate:	-1.785	Roll:	-10.255	Pitch:	-1.818	Yaw:	54.052	Thrust:	100.000
Time:	4.968	Roll Set Point:	0.568	Pitch Set Point:	0.285	Yaw Set Point:	-0.660	X_WP:	0.000	Y_WP:	0.000	Y_WP:	0.500	X:	-0.235	Y:	-0.240	Z:	0.047	yaw:	37.804	yaw rate:	-0.707	Roll:	-10.239	Pitch:	-1.620	Yaw:	54.229	Thrust:	100.000
Time:	4.984	Roll Set Point:	0.568	Pitch Set Point:	0.285	Yaw Set Point:	-0.660	X_WP:	0.000	Y_WP:	0.000	Y_WP:	0.500	X:	-0.235	Y:	-0.240	Z:	0.047	yaw:	37.804	yaw rate:	-0.707	Roll:	-10.244	Pitch:	-1.640	Yaw:	54.347	Thrust:	100.000
Time:	5.000	Roll Set Point:	0.568	Pitch Set Point:	0.285	Yaw Set Point:	-0.660	X_WP:	0.000	Y_WP:	0.000	Y_WP:	0.500	X:	-0.235	Y:	-0.240	Z:	0.047	yaw:	37.794	yaw rate:	-7.473	Roll:	-10.192	Pitch:	-1.700	Yaw:	54.164	Thrust:	100.000
Time:	5.015	Roll Set Point:	0.568	Pitch Set Point:	0.285	Yaw Set Point:	-0.661	X_WP:	0.000	Y_WP:	0.000	Y_WP:	0.500	X:	-0.235	Y:	-0.240	Z:	0.047	yaw:	37.869	yaw rate:	7.463	Roll:	-10.337	Pitch:	-1.220	Yaw:	55.687	Thrust:	100.000
Time:	5.031	Roll Set Point:	0.568	Pitch Set Point:	0.286	Yaw Set Point:	-0.660	X_WP:	0.000	Y_WP:	0.000	Y_WP:	0.500	X:	-0.235	Y:	-0.240	Z:	0.047	yaw:	37.802	yaw rate:	-6.685	Roll:	-10.176	Pitch:	-2.108	Yaw:	53.224	Thrust:	100.000
Time:	5.047	Roll Set Point:	0.568	Pitch Set Point:	0.285	Yaw Set Point:	-0.661	X_WP:	0.000	Y_WP:	0.000	Y_WP:	0.500	X:	-0.235	Y:	-0.240	Z:	0.047	yaw:	37.861	yaw rate:	5.884	Roll:	-10.337	Pitch:	-1.232	Yaw:	55.412	Thrust:	100.000
Time:	5.062	Roll Set Point:	0.568	Pitch Set Point:	0.285	Yaw Set Point:	-0.660	X_WP:	0.000	Y_WP:	0.000	Y_WP:	0.500	X:	-0.235	Y:	-0.240	Z:	0.047	yaw:	37.838	yaw rate:	-2.284	Roll:	-10.151	Pitch:	-1.710	Yaw:	54.012	Thrust:	100.000
Time:	5.078	Roll Set Point:	0.568	Pitch Set Point:	0.285	Yaw Set Point:	-0.660	X_WP:	0.000	Y_WP:	0.000	Y_WP:	0.500	X:	-0.235	Y:	-0.240	Z:	0.047	yaw:	37.838	yaw rate:	-2.284	Roll:	-10.243	Pitch:	-1.644	Yaw:	54.394	Thrust:	100.000
Time:	5.093	Roll Set Point:	0.568	Pitch Set Point:	0.285	Yaw Set Point:	-0.661	X_WP:	0.000	Y_WP:	0.000	Y_WP:	0.500	X:	-0.235	Y:	-0.240	Z:	0.047	yaw:	37.879	yaw rate:	4.101	Roll:	-10.444	Pitch:	-1.572	Yaw:	55.140	Thrust:	100.000
Time:	5.109	Roll Set Point:	0.568	Pitch Set Point:	0.286	Yaw Set Point:	-0.659	X_WP:	0.000	Y_WP:	0.000	Y_WP:	0.500	X:	-0.235	Y:	-0.240	Z:	0.047	yaw:	37.763	yaw rate:	-11.626	Roll:	-9.995	Pitch:	-2.298	Yaw:	52.337	Thrust:	100.000
Time:	5.125	Roll Set Point:	0.568	Pitch Set Point:	0.286	Yaw Set Point:	-0.660	X_WP:	0.000	Y_WP:	0.000	Y_WP:	0.500	X:	-0.235	Y:	-0.240	Z:	0.047	yaw:	37.792	yaw rate:	0.637	Roll:	-10.278	Pitch:	-1.464	Yaw:	54.819	Thrust:	100.000
Time:	5.140	Roll Set Point:	0.568	Pitch Set Point:	0.286	Yaw Set Point:	-0.660	X_WP:	0.000	Y_WP:	0.000	Y_WP:	0.500	X:	-0.235	Y:	-0.240	Z:	0.047	yaw:	37.792	yaw rate:	0.637	Roll:	-10.243	Pitch:	-1.661	Yaw:	54.330	Thrust:	100.000
Time:	5.156	Roll Set Point:	0.568	Pitch Set Point:	0.286	Yaw Set Point:	-0.660	X_WP:	0.000	Y_WP:	0.000	Y_WP:	0.500	X:	-0.235	Y:	-0.240	Z:	0.047	yaw:	37.798	yaw rate:	1.776	Roll:	-10.255	Pitch:	-1.697	Yaw:	54.441	Thrust:	100.000
Time:	5.172	Roll Set Point:	0.568	Pitch Set Point:	0.286	Yaw Set Point:	-0.660	X_WP:	0.000	Y_WP:	0.000	Y_WP:	0.500	X:	-0.235	Y:	-0.240	Z:	0.047	yaw:	37.798	yaw rate:	1.776	Roll:	-10.243	Pitch:	-1.665	Yaw:	54.338	Thrust:	100.000
Time:	5.187	Roll Set Point:	0.568	Pitch Set Point:	0.285	Yaw Set Point:	-0.660	X_WP:	0.000	Y_WP:	0.000	Y_WP:	0.500	X:	-0.235	Y:	-0.240	Z:	0.047	yaw:	37.830	yaw rate:	1.946	Roll:	-10.249	Pitch:	-1.373	Yaw:	54.927	Thrust:	100.000
Time:	5.203	Roll Set Point:	0.568	Pitch Set Point:	0.285	Yaw Set Point:	-0.660	X_WP:	0.000	Y_WP:	0.000	Y_WP:	0.500	X:	-0.235	Y:	-0.240	Z:	0.047	yaw:	37.830	yaw rate:	1.946	Roll:	-10.243	Pitch:	-1.661	Yaw:	54.384	Thrust:	100.000
Time:	5.218	Roll Set Point:	0.568	Pitch Set Point:	0.285	Yaw Set Point:	-0.661	X_WP:	0.000	Y_WP:	0.000	Y_WP:	0.500	X:	-0.235	Y:	-0.240	Z:	0.047	yaw:	37.852	yaw rate:	-6.500	Roll:	-10.428	Pitch:	-1.679	Yaw:	54.772	Thrust:	100.000
Time:	5.234	Roll Set Point:	0.568	Pitch Set Point:	0.285	Yaw Set Point:	-0.661	X_WP:	0.000	Y_WP:	0.000	Y_WP:	0.500	X:	-0.235	Y:	-0.240	Z:	0.047	yaw:	37.852	yaw rate:	-6.500	Roll:	-10.248	Pitch:	-1.665	Yaw:	54.413	Thrust:	100.000
Time:	5.250	Roll Set Point:	0.568	Pitch Set Point:	0.286	Yaw Set Point:	-0.659	X_WP:	0.000	Y_WP:	0.000	Y_WP:	0.500	X:	-0.235	Y:	-0.240	Z:	0.047	yaw:	37.771	yaw rate:	-0.748	Roll:	-10.005	Pitch:	-2.037	Yaw:	52.946	Thrust:	100.000
Time:	5.265	Roll Set Point:	0.568	Pitch Set Point:	0.286	Yaw Set Point:	-0.659	X_WP:	0.000	Y_WP:	0.000	Y_WP:	0.500	X:	-0.235	Y:	-0.240	Z:	0.047	yaw:	37.771	yaw rate:	-0.748	Roll:	-10.242	Pitch:	-1.678	Yaw:	54.301	Thrust:	100.000
Time:	5.281	Roll Set Point:	0.568	Pitch Set Point:	0.285	Yaw Set Point:	-0.661	X_WP:	0.000	Y_WP:	0.000	Y_WP:	0.500	X:	-0.235	Y:	-0.240	Z:	0.047	yaw:	37.871	yaw rate:	2.193	Roll:	-10.389	Pitch:	-1.008	Yaw:	56.116	Thrust:	100.000
Time:	5.297	Roll Set Point:	0.568	Pitch Set Point:	0.285	Yaw Set Point:	-0.661	X_WP:	0.000	Y_WP:	0.000	Y_WP:	0.500	X:	-0.235	Y:	-0.240	Z:	0.047	yaw:	37.871	yaw rate:	2.193	Roll:	-10.246	Pitch:	-1.665	Yaw:	54.440	Thrust:	100.000
Time:	5.312	Roll Set Point:	0.568	Pitch Set Point:	0.285	Yaw Set Point:	-0.660	X_WP:	0.000	Y_WP:	0.000	Y_WP:	0.500	X:	-0.235	Y:	-0.240	Z:	0.047	yaw:	37.788	yaw rate:	-2.677	Roll:	-10.142	Pitch:	-2.190	Yaw:	52.941	Thrust:	100.000
Time:	5.328	Roll Set Point:	0.568	Pitch Set Point:	0.285	Yaw Set Point:	-0.660	X_WP:	0.000	Y_WP:	0.000	Y_WP:	0.500	X:	-0.235	Y:	-0.240	Z:	0.047	yaw:	37.788	yaw rate:	-2.677	Roll:	-10.246	Pitch:	-1.684	Yaw:	54.334	Thrust:	100.000
Time:	5.343	Roll Set Point:	0.568	Pitch Set Point:	0.285	Yaw Set Point:	-0.661	X_WP:	0.000	Y_WP:	0.000	Y_WP:	0.500	X:	-0.235	Y:	-0.240	Z:	0.047	yaw:	37.866	yaw rate:	7.766	Roll:	-10.318	Pitch:	-1.191	Yaw:	55.733	Thrust:	100.000
Time:	5.359	Roll Set Point:	0.568	Pitch Set Point:	0.285	Yaw Set Point:	-0.661	X_WP:	0.000	Y_WP:	0.000	Y_WP:	0.500	X:	-0.235	Y:	-0.240	Z:	0.047	yaw:	37.877	yaw rate:	-2.712	Roll:	-10.282	Pitch:	-1.615	Yaw:	54.629	Thrust:	100.000
Time:	5.375	Roll Set Point:	0.568	Pitch Set Point:	0.285	Yaw Set Point:	-0.660	X_WP:	0.000	Y_WP:	0.000	Y_WP:	0.500	X:	-0.235	Y:	-0.240	Z:	0.047	yaw:	37.816	yaw rate:	-6.017	Roll:	-10.153	Pitch:	-2.107	Yaw:	53.352	Thrust:	100.000
Time:	5.390	Roll Set Point:	0.568	Pitch Set Point:	0.285	Yaw Set Point:	-0.660	X_WP:	0.000	Y_WP:	0.000	Y_WP:	0.500	X:	-0.235	Y:	-0.240	Z:	0.047	yaw:	37.826	yaw rate:	0.993	Roll:	-10.223	Pitch:	-1.479	Yaw:	54.545	Thrust:	100.000
Time:	5.421	Roll Set Point:	0.568	Pitch Set Point:	0.285	Yaw Set Point:	-0.660	X_WP:	0.000	Y_WP:	0.000	Y_WP:	0.500	X:	-0.235	Y:	-0.240	Z:	0.047	yaw:	37.808	yaw rate:	-2.226	Roll:	-10.821	Pitch:	-2.182	Yaw:	55.739	Thrust:	100.000
Time:	5.437	Roll Set Point:	0.568	Pitch Set Point:	0.286	Yaw Set Point:	-0.659	X_WP:	0.000	Y_WP:	0.000	Y_WP:	0.500	X:	-0.235	Y:	-0.240	Z:	0.047	yaw:	37.773	yaw rate:	-3.514	Roll:	-10.201	Pitch:	-1.897	Yaw:	53.714	Thrust:	100.000
Time:	5.453	Roll Set Point:	0.568	Pitch Set Point:	0.285	Yaw Set Point:	-0.660	X_WP:	0.000	Y_WP:	0.000	Y_WP:	0.500	X:	-0.235	Y:	-0.240	Z:	0.047	yaw:	37.844	yaw rate:	7.117	Roll:	-10.313	Pitch:	-1.195	Yaw:	55.595	Thrust:	100.000
Time:	5.468	Roll Set Point:	0.569	Pitch Set Point:	0.285	Yaw Set Point:	-0.662	X_WP:	0.000	Y_WP:	0.000	Y_WP:	0.500	X:	-0.235	Y:	-0.240	Z:	0.047	yaw:	37.923	yaw rate:	7.947	Roll:	-10.505	Pitch:	-1.372	Yaw:	55.845	Thrust:	100.000
Time:	5.484	Roll Set Point:	0.568	Pitch Set Point:	0.285	Yaw Set Point:	-0.662	X_WP:	0.000	Y_WP:	0.000	Y_WP:	0.500	X:	-0.235	Y:	-0.240	Z:	0.047	yaw:	37.908	yaw rate:	-1.565	Roll:	-10.108	Pitch:	-1.592	Yaw:	54.230	Thrust:	100.000
Time:	5.499	Roll Set Point:	0.568	Pitch Set Point:	0.286	Yaw Set Point:	-0.659	X_WP:	0.000	Y_WP:	0.000	Y_WP:	0.500	X:	-0.235	Y:	-0.240	Z:	0.047	yaw:	37.775	yaw rate:	-13.248	Roll:	-10.068	Pitch:	-2.626	Yaw:	52.087	Thrust:	100.000
Time:	5.515	Roll Set Point:	0.568	Pitch Set Point:	0.285	Yaw Set Point:	-0.661	X_WP:	0.000	Y_WP:	0.000	Y_WP:	0.500	X:	-0.235	Y:	-0.240	Z:	0.047	yaw:	37.866	yaw rate:	9.090	Roll:	-10.329	Pitch:	-1.059	Yaw:	55.956	Thrust:	100.000
Time:	5.531	Roll Set Point:	0.568	Pitch Set Point:	0.285	Yaw Set Point:	-0.661	X_WP:	0.000	Y_WP:	0.000	Y_WP:	0.500	X:	-0.235	Y:	-0.240	Z:	0.047	yaw:	37.866	yaw rate:	9.090	Roll:	-10.244	Pitch:	-1.691	Yaw:	54.433	Thrust:	100.000
Time:	5.546	Roll Set Point:	0.568	Pitch Set Point:	0.285	Yaw Set Point:	-0.661	X_WP:	0.000	Y_WP:	0.000	Y_WP:	0.500	X:	-0.235	Y:	-0.240	Z:	0.047	yaw:	37.889	yaw rate:	2.283	Roll:	-10.302	Pitch:	-1.504	Yaw:	54.848	Thrust:	100.000
Time:	5.562	Roll Set Point:	0.568	Pitch Set Point:	0.286	Yaw Set Point:	-0.659	X_WP:	0.000	Y_WP:	0.000	Y_WP:	0.500	X:	-0.235	Y:	-0.240	Z:	0.047	yaw:	37.782	yaw rate:	-10.652	Roll:	-10.096	Pitch:	-2.436	Yaw:	52.532	Thrust:	100.000
Time:	5.578	Roll Set Point:	0.568	Pitch Set Point:	0.285	Yaw Set Point:	-0.661	X_WP:	0.000	Y_WP:	0.000	Y_WP:	0.500	X:	-0.235	Y:	-0.240	Z:	0.047	yaw:	37.858	yaw rate:	7.622	Roll:	-10.346	Pitch:	-1.160	Yaw:	55.700	Thrust:	100.000
Time:	5.593	Roll Set Point:	0.568	Pitch Set Point:	0.285	Yaw Set Point:	-0.660	X_WP:	0.000	Y_WP:	0.000	Y_WP:	0.500	X:	-0.235	Y:	-0.240	Z:	0.047	yaw:	37.822	yaw rate:	-3.609	Roll:	-10.199	Pitch:	-1.962	Yaw:	53.768	Thrust:	100.000
Time:	5.609	Roll Set Point:	0.568	Pitch Set Point:	0.285	Yaw Set Point:	-0.661	X_WP:	0.000	Y_WP:	0.000	Y_WP:	0.500	X:	-0.235	Y:	-0.240	Z:	0.047	yaw:	37.854	yaw rate:	3.164	Roll:	-10.241	Pitch:	-1.483	Yaw:	54.947	Thrust:	100.000
Time:	5.625	Roll Set Point:	0.568	Pitch Set Point:	0.285	Yaw Set Point:	-0.660	X_WP:	0.000	Y_WP:	0.000	Y_WP:	0.500	X:	-0.235	Y:	-0.240	Z:	0.047	yaw:	37.814	yaw rate:	-4.026	Roll:	-10.249	Pitch:	-1.988	Yaw:	53.685	Thrust:	100.000
Time:	5.640	Roll Set Point:	0.568	Pitch Set Point:	0.285	Yaw Set Point:	-0.660	X_WP:	0.000	Y_WP:	0.000	Y_WP:	0.500	X:	-0.235	Y:	-0.240	Z:	0.047	yaw:	37.814	yaw rate:	-4.026	Roll:	-10.244	Pitch:	-1.712	Yaw:	54.361	Thrust:	100.000
Time:	5.656	Roll Set Point:	0.568	Pitch Set Point:	0.285	Yaw Set Point:	-0.660	X_WP:	0.000	Y_WP:	0.000	Y_WP:	0.500	X:	-0.235	Y:	-0.240	Z:	0.047	yaw:	37.838	yaw rate:	2.466	Roll:	-10.300	Pitch:	-1.543	Yaw:	54.808	Thrust:	100.000
Time:	5.671	Roll Set Point:	0.568	Pitch Set Point:	0.285	Yaw Set Point:	-0.660	X_WP:	0.000	Y_WP:	0.000	Y_WP:	0.500	X:	-0.235	Y:	-0.240	Z:	0.047	yaw:	37.835	yaw rate:	-3.218	Roll:	-10.219	Pitch:	-1.725	Yaw:	54.341	Thrust:	100.000
Time:	5.687	Roll Set Point:	0.568	Pitch Set Point:	0.285	Yaw Set Point:	-0.661	X_WP:	0.000	Y_WP:	0.000	Y_WP:	0.500	X:	-0.235	Y:	-0.240	Z:	0.047	yaw:	37.875	yaw rate:	3.967	Roll:	-10.297	Pitch:	-1.500	Yaw:	55.111	Thrust:	100.000
Time:	5.703	Roll Set Point:	0.568	Pitch Set Point:	0.285	Yaw Set Point:	-0.660	X_WP:	0.000	Y_WP:	0.000	Y_WP:	0.500	X:	-0.235	Y:	-0.240	Z:	0.047	yaw:	37.798	yaw rate:	-7.724	Roll:	-10.136	Pitch:	-2.166	Yaw:	53.045	Thrust:	100.000
Time:	5.718	Roll Set Point:	0.568	Pitch Set Point:	0.285	Yaw Set Point:	-0.660	X_WP:	0.000	Y_WP:	0.000	Y_WP:	0.500	X:	-0.235	Y:	-0.240	Z:	0.047	yaw:	37.798	yaw rate:	-7.724	Roll:	-10.243	Pitch:	-1.723	Yaw:	54.338	Thrust:	100.000
Time:	5.734	Roll Set Point:	0.568	Pitch Set Point:	0.285	Yaw Set Point:	-0.661	X_WP:	0.000	Y_WP:	0.000	Y_WP:	0.500	X:	-0.235	Y:	-0.240	Z:	0.047	yaw:	37.882	yaw rate:	1.819	Roll:	-10.380	Pitch:	-1.174	Yaw:	55.873	Thrust:	100.000
Time:	5.750	Roll Set Point:	0.568	Pitch Set Point:	0.285	Yaw Set Point:	-0.661	X_WP:	0.000	Y_WP:	0.000	Y_WP:	0.500	X:	-0.235	Y:	-0.240	Z:	0.047	yaw:	37.882	yaw rate:	1.819	Roll:	-10.247	Pitch:	-1.712	Yaw:	54.457	Thrust:	100.000
Time:	5.765	Roll Set Point:	0.568	Pitch Set Point:	0.285	Yaw Set Point:	-0.660	X_WP:	0.000	Y_WP:	0.000	Y_WP:	0.500	X:	-0.235	Y:	-0.240	Z:	0.047	yaw:	37.829	yaw rate:	-5.326	Roll:	-10.142	Pitch:	-2.079	Yaw:	53.490	Thrust:	100.000
Time:	5.781	Roll Set Point:	0.568	Pitch Set Point:	0.285	Yaw Set Point:	-0.661	X_WP:	0.000	Y_WP:	0.000	Y_WP:	0.500	X:	-0.235	Y:	-0.240	Z:	0.047	yaw:	37.879	yaw rate:	6.306	Roll:	-10.312	Pitch:	-1.388	Yaw:	55.291	Thrust:	100.000
Time:	5.796	Roll Set Point:	0.568	Pitch Set Point:	0.286	Yaw Set Point:	-0.659	X_WP:	0.000	Y_WP:	0.000	Y_WP:	0.500	X:	-0.235	Y:	-0.240	Z:	0.047	yaw:	37.761	yaw rate:	-11.863	Roll:	-10.102	Pitch:	-2.486	Yaw:	52.299	Thrust:	100.000
Time:	5.812	Roll Set Point:	0.568	Pitch Set Point:	0.286	Yaw Set Point:	-0.659	X_WP:	0.000	Y_WP:	0.000	Y_WP:	0.500	X:	-0.235	Y:	-0.240	Z:	0.047	yaw:	37.761	yaw rate:	-11.863	Roll:	-10.243	Pitch:	-1.741	Yaw:	54.289	Thrust:	100.000
Time:	5.828	Roll Set Point:	0.568	Pitch Set Point:	0.285	Yaw Set Point:	-0.661	X_WP:	0.000	Y_WP:	0.000	Y_WP:	0.500	X:	-0.235	Y:	-0.240	Z:	0.047	yaw:	37.850	yaw rate:	8.928	Roll:	-10.341	Pitch:	-1.170	Yaw:	55.907	Thrust:	100.000
Time:	5.843	Roll Set Point:	0.568	Pitch Set Point:	0.285	Yaw Set Point:	-0.660	X_WP:	0.000	Y_WP:	0.000	Y_WP:	0.500	X:	-0.235	Y:	-0.240	Z:	0.047	yaw:	37.841	yaw rate:	-0.902	Roll:	-10.262	Pitch:	-1.775	Yaw:	54.247	Thrust:	100.000
Time:	5.859	Roll Set Point:	0.568	Pitch Set Point:	0.286	Yaw Set Point:	-0.660	X_WP:	0.000	Y_WP:	0.000	Y_WP:	0.500	X:	-0.235	Y:	-0.240	Z:	0.047	yaw:	37.803	yaw rate:	-8.970	Roll:	-10.194	Pitch:	-2.030	Yaw:	53.704	Thrust:	100.000
Time:	5.875	Roll Set Point:	0.568	Pitch Set Point:	0.285	Yaw Set Point:	-0.661	X_WP:	0.000	Y_WP:	0.000	Y_WP:	0.500	X:	-0.235	Y:	-0.240	Z:	0.047	yaw:	37.876	yaw rate:	7.346	Roll:	-10.321	Pitch:	-1.211	Yaw:	55.679	Thrust:	100.000
Time:	5.890	Roll Set Point:	0.568	Pitch Set Point:	0.285	Yaw Set Point:	-0.660	X_WP:	0.000	Y_WP:	0.000	Y_WP:	0.500	X:	-0.235	Y:	-0.240	Z:	0.047	yaw:	37.830	yaw rate:	-4.577	Roll:	-10.181	Pitch:	-2.000	Yaw:	53.613	Thrust:	100.000
Time:	5.906	Roll Set Point:	0.568	Pitch Set Point:	0.285	Yaw Set Point:	-0.660	X_WP:	0.000	Y_WP:	0.000	Y_WP:	0.500	X:	-0.235	Y:	-0.240	Z:	0.047	yaw:	37.831	yaw rate:	0.074	Roll:	-10.260	Pitch:	-1.724	Yaw:	54.397	Thrust:	100.000
Time:	5.921	Roll Set Point:	0.568	Pitch Set Point:	0.285	Yaw Set Point:	-0.660	X_WP:	0.000	Y_WP:	0.000	Y_WP:	0.500	X:	-0.235	Y:	-0.240	Z:	0.047	yaw:	37.837	yaw rate:	0.605	Roll:	-10.245	Pitch:	-1.700	Yaw:	54.495	Thrust:	100.000
Time:	5.937	Roll Set Point:	0.568	Pitch Set Point:	0.285	Yaw Set Point:	-0.660	X_WP:	0.000	Y_WP:	0.000	Y_WP:	0.500	X:	-0.235	Y:	-0.240	Z:	0.047	yaw:	37.837	yaw rate:	0.605	Roll:	-10.244	Pitch:	-1.740	Yaw:	54.393	Thrust:	100.000
Time:	5.953	Roll Set Point:	0.568	Pitch Set Point:	0.285	Yaw Set Point:	-0.661	X_WP:	0.000	Y_WP:	0.000	Y_WP:	0.500	X:	-0.235	Y:	-0.240	Z:	0.047	yaw:	37.875	yaw rate:	10.871	Roll:	-10.291	Pitch:	-1.520	Yaw:	55.075	Thrust:	100.000
Time:	5.968	Roll Set Point:	0.568	Pitch Set Point:	0.285	Yaw Set Point:	-0.660	X_WP:	0.000	Y_WP:	0.000	Y_WP:	0.500	X:	-0.235	Y:	-0.240	Z:	0.047	yaw:	37.796	yaw rate:	-7.834	Roll:	-10.133	Pitch:	-2.234	Yaw:	53.024	Thrust:	100.000
Time:	5.984	Roll Set Point:	0.568	Pitch Set Point:	0.285	Yaw Set Point:	-0.660	X_WP:	0.000	Y_WP:	0.000	Y_WP:	0.500	X:	-0.235	Y:	-0.240	Z:	0.047	yaw:	37.831	yaw rate:	3.511	Roll:	-10.311	Pitch:	-1.551	Yaw:	54.973	Thrust:	100.000
Time:	6.000	Roll Set Point:	0.568	Pitch Set Point:	0.285	Yaw Set Point:	-0.661	X_WP:	0.000	Y_WP:	0.000	Y_WP:	0.500	X:	-0.235	Y:	-0.240	Z:	0.047	yaw:	37.855	yaw rate:	2.350	Roll:	-10.255	Pitch:	-1.610	Yaw:	54.812	Thrust:	100.000
Time:	6.015	Roll Set Point:	0.227	Pitch Set Point:	0.178	Yaw Set Point:	-0.660	X_WP:	-0.204	Y_WP:	-0.294	Y_WP:	0.500	X:	-0.235	Y:	-0.240	Z:	0.047	yaw:	37.809	yaw rate:	-4.547	Roll:	30.000	Pitch:	30.000	Yaw:	53.593	Thrust:	100.000
Time:	6.031	Roll Set Point:	0.227	Pitch Set Point:	0.178	Yaw Set Point:	-0.660	X_WP:	-0.204	Y_WP:	-0.294	Y_WP:	0.500	X:	-0.235	Y:	-0.240	Z:	0.047	yaw:	37.809	yaw rate:	-4.547	Roll:	-0.347	Pitch:	1.357	Yaw:	54.355	Thrust:	100.000
Time:	6.046	Roll Set Point:	0.227	Pitch Set Point:	0.178	Yaw Set Point:	-0.661	X_WP:	-0.204	Y_WP:	-0.294	Y_WP:	0.500	X:	-0.235	Y:	-0.240	Z:	0.047	yaw:	37.867	yaw rate:	5.800	Roll:	-0.281	Pitch:	1.350	Yaw:	55.407	Thrust:	100.000
Time:	6.062	Roll Set Point:	0.227	Pitch Set Point:	0.178	Yaw Set Point:	-0.658	X_WP:	-0.204	Y_WP:	-0.294	Y_WP:	0.500	X:	-0.235	Y:	-0.240	Z:	0.047	yaw:	37.720	yaw rate:	-14.751	Roll:	-0.529	Pitch:	1.382	Yaw:	51.760	Thrust:	100.000
Time:	6.078	Roll Set Point:	0.227	Pitch Set Point:	0.178	Yaw Set Point:	-0.662	X_WP:	-0.204	Y_WP:	-0.294	Y_WP:	0.500	X:	-0.235	Y:	-0.240	Z:	0.047	yaw:	37.951	yaw rate:	16.784	Roll:	-0.068	Pitch:	1.329	Yaw:	58.421	Thrust:	100.000
Time:	6.093	Roll Set Point:	0.227	Pitch Set Point:	0.178	Yaw Set Point:	-0.660	X_WP:	-0.204	Y_WP:	-0.294	Y_WP:	0.500	X:	-0.235	Y:	-0.240	Z:	0.047	yaw:	37.838	yaw rate:	-11.337	Roll:	-0.467	Pitch:	1.383	Yaw:	52.495	Thrust:	100.000
Time:	6.109	Roll Set Point:	0.227	Pitch Set Point:	0.178	Yaw Set Point:	-0.660	X_WP:	-0.204	Y_WP:	-0.294	Y_WP:	0.500	X:	-0.235	Y:	-0.240	Z:	0.047	yaw:	37.838	yaw rate:	-11.337	Roll:	-0.345	Pitch:	1.369	Yaw:	54.394	Thrust:	100.000
Time:	6.125	Roll Set Point:	0.227	Pitch Set Point:	0.178	Yaw Set Point:	-0.660	X_WP:	-0.204	Y_WP:	-0.294	Y_WP:	0.500	X:	-0.235	Y:	-0.240	Z:	0.047	yaw:	37.810	yaw rate:	4.679	Roll:	-0.378	Pitch:	1.376	Yaw:	53.886	Thrust:	100.000
Time:	6.140	Roll Set Point:	0.227	Pitch Set Point:	0.178	Yaw Set Point:	-0.660	X_WP:	-0.204	Y_WP:	-0.294	Y_WP:	0.500	X:	-0.235	Y:	-0.240	Z:	0.047	yaw:	37.811	yaw rate:	0.170	Roll:	-0.346	Pitch:	1.377	Yaw:	54.386	Thrust:	100.000
Time:	6.156	Roll Set Point:	0.227	Pitch Set Point:	0.178	Yaw Set Point:	-0.661	X_WP:	-0.204	Y_WP:	-0.294	Y_WP:	0.500	X:	-0.235	Y:	-0.240	Z:	0.047	yaw:	37.848	yaw rate:	3.664	Roll:	-0.300	Pitch:	1.371	Yaw:	55.022	Thrust:	100.000
Time:	6.171	Roll Set Point:	0.227	Pitch Set Point:	0.178	Yaw Set Point:	-0.661	X_WP:	-0.204	Y_WP:	-0.294	Y_WP:	0.500	X:	-0.235	Y:	-0.240	Z:	0.047	yaw:	37.848	yaw rate:	3.664	Roll:	-0.343	Pitch:	1.379	Yaw:	54.408	Thrust:	100.000
Time:	6.187	Roll Set Point:	0.227	Pitch Set Point:	0.178	Yaw Set Point:	-0.660	X_WP:	-0.204	Y_WP:	-0.294	Y_WP:	0.500	X:	-0.235	Y:	-0.240	Z:	0.047	yaw:	37.813	yaw rate:	-2.361	Roll:	-0.388	Pitch:	1.386	Yaw:	53.777	Thrust:	100.000
Time:	6.203	Roll Set Point:	0.227	Pitch Set Point:	0.178	Yaw Set Point:	-0.661	X_WP:	-0.204	Y_WP:	-0.294	Y_WP:	0.500	X:	-0.235	Y:	-0.240	Z:	0.047	yaw:	37.866	yaw rate:	5.283	Roll:	-0.274	Pitch:	1.373	Yaw:	55.319	Thrust:	100.000
Time:	6.218	Roll Set Point:	0.227	Pitch Set Point:	0.178	Yaw Set Point:	-0.659	X_WP:	-0.204	Y_WP:	-0.294	Y_WP:	0.500	X:	-0.235	Y:	-0.240	Z:	0.047	yaw:	37.773	yaw rate:	-9.330	Roll:	-0.464	Pitch:	1.399	Yaw:	52.740	Thrust:	100.000
Time:	6.234	Roll Set Point:	0.227	Pitch Set Point:	0.178	Yaw Set Point:	-0.661	X_WP:	-0.204	Y_WP:	-0.294	Y_WP:	0.500	X:	-0.235	Y:	-0.240	Z:	0.047	yaw:	37.882	yaw rate:	10.904	Roll:	-0.208	Pitch:	1.374	Yaw:	56.282	Thrust:	100.000
