Time:	2.090	Roll Set Point:	0.059	Pitch Set Point:	-0.193	Yaw Set Point:	0.508	X_WP:	0.000	Y_WP:	0.000	Y_WP:	0.500	X:	-0.005	Y:	0.104	Z:	0.045	yaw:	-29.095	yaw rate:	-7.806	Roll:	-1.583	Pitch:	2.576	Yaw:	-40.624	Thrust:	25.013
Time:	2.106	Roll Set Point:	0.059	Pitch Set Point:	-0.193	Yaw Set Point:	0.507	X_WP:	0.000	Y_WP:	0.000	Y_WP:	0.500	X:	-0.005	Y:	0.104	Z:	0.045	yaw:	-29.036	yaw rate:	5.881	Roll:	-1.648	Pitch:	2.692	Yaw:	-39.715	Thrust:	25.666
Time:	2.121	Roll Set Point:	0.059	Pitch Set Point:	-0.193	Yaw Set Point:	0.509	X_WP:	0.000	Y_WP:	0.000	Y_WP:	0.500	X:	-0.005	Y:	0.104	Z:	0.045	yaw:	-29.146	yaw rate:	-10.986	Roll:	-1.732	Pitch:	2.339	Yaw:	-42.853	Thrust:	26.782
Time:	2.137	Roll Set Point:	0.060	Pitch Set Point:	-0.193	Yaw Set Point:	0.508	X_WP:	0.000	Y_WP:	0.000	Y_WP:	0.500	X:	-0.005	Y:	0.104	Z:	0.045	yaw:	-29.119	yaw rate:	2.696	Roll:	-1.668	Pitch:	2.416	Yaw:	-40.682	Thrust:	27.597
Time:	2.153	Roll Set Point:	0.060	Pitch Set Point:	-0.193	Yaw Set Point:	0.509	X_WP:	0.000	Y_WP:	0.000	Y_WP:	0.500	X:	-0.005	Y:	0.104	Z:	0.045	yaw:	-29.163	yaw rate:	-4.425	Roll:	-1.801	Pitch:	2.614	Yaw:	-42.096	Thrust:	28.305
Time:	2.168	Roll Set Point:	0.060	Pitch Set Point:	-0.192	Yaw Set Point:	0.514	X_WP:	0.000	Y_WP:	0.000	Y_WP:	0.500	X:	-0.005	Y:	0.104	Z:	0.045	yaw:	-29.455	yaw rate:	-29.149	Roll:	-1.832	Pitch:	2.256	Yaw:	-46.803	Thrust:	29.892
Time:	2.184	Roll Set Point:	0.060	Pitch Set Point:	-0.192	Yaw Set Point:	0.514	X_WP:	0.000	Y_WP:	0.000	Y_WP:	0.500	X:	-0.005	Y:	0.104	Z:	0.045	yaw:	-29.464	yaw rate:	-0.904	Roll:	-1.647	Pitch:	2.578	Yaw:	-42.248	Thrust:	30.062
Time:	2.200	Roll Set Point:	0.060	Pitch Set Point:	-0.192	Yaw Set Point:	0.515	X_WP:	0.000	Y_WP:	0.000	Y_WP:	0.500	X:	-0.004	Y:	0.104	Z:	0.045	yaw:	-29.499	yaw rate:	-3.531	Roll:	-1.490	Pitch:	2.665	Yaw:	-42.896	Thrust:	30.146
Time:	2.215	Roll Set Point:	0.060	Pitch Set Point:	-0.192	Yaw Set Point:	0.513	X_WP:	0.000	Y_WP:	0.000	Y_WP:	0.500	X:	-0.005	Y:	0.104	Z:	0.045	yaw:	-29.407	yaw rate:	9.245	Roll:	-1.693	Pitch:	2.577	Yaw:	-40.776	Thrust:	32.638
Time:	2.231	Roll Set Point:	0.060	Pitch Set Point:	-0.192	Yaw Set Point:	0.516	X_WP:	0.000	Y_WP:	0.000	Y_WP:	0.500	X:	-0.005	Y:	0.104	Z:	0.045	yaw:	-29.549	yaw rate:	-14.210	Roll:	-1.670	Pitch:	2.532	Yaw:	-45.075	Thrust:	31.807
Time:	2.246	Roll Set Point:	0.060	Pitch Set Point:	-0.192	Yaw Set Point:	0.516	X_WP:	0.000	Y_WP:	0.000	Y_WP:	0.500	X:	-0.005	Y:	0.104	Z:	0.045	yaw:	-29.571	yaw rate:	-2.226	Roll:	-1.899	Pitch:	2.416	Yaw:	-43.260	Thrust:	34.092
Time:	2.262	Roll Set Point:	0.060	Pitch Set Point:	-0.192	Yaw Set Point:	0.516	X_WP:	0.000	Y_WP:	0.000	Y_WP:	0.500	X:	-0.005	Y:	0.104	Z:	0.045	yaw:	-29.571	yaw rate:	-2.226	Roll:	-1.633	Pitch:	2.594	Yaw:	-43.048	Thrust:	34.393
Time:	2.278	Roll Set Point:	0.061	Pitch Set Point:	-0.192	Yaw Set Point:	0.515	X_WP:	0.000	Y_WP:	0.000	Y_WP:	0.500	X:	-0.005	Y:	0.104	Z:	0.045	yaw:	-29.508	yaw rate:	3.779	Roll:	-1.753	Pitch:	2.699	Yaw:	-42.064	Thrust:	35.239
Time:	2.293	Roll Set Point:	0.061	Pitch Set Point:	-0.193	Yaw Set Point:	0.515	X_WP:	0.000	Y_WP:	0.000	Y_WP:	0.500	X:	-0.005	Y:	0.104	Z:	0.045	yaw:	-29.488	yaw rate:	2.021	Roll:	-1.936	Pitch:	2.643	Yaw:	-42.921	Thrust:	36.208
Time:	2.309	Roll Set Point:	0.061	Pitch Set Point:	-0.193	Yaw Set Point:	0.515	X_WP:	0.000	Y_WP:	0.000	Y_WP:	0.500	X:	-0.005	Y:	0.104	Z:	0.045	yaw:	-29.488	yaw rate:	2.021	Roll:	-1.650	Pitch:	2.608	Yaw:	-43.410	Thrust:	36.928
Time:	2.324	Roll Set Point:	0.062	Pitch Set Point:	-0.194	Yaw Set Point:	0.507	X_WP:	0.000	Y_WP:	0.000	Y_WP:	0.500	X:	-0.006	Y:	0.105	Z:	0.045	yaw:	-29.066	yaw rate:	43.076	Roll:	-2.175	Pitch:	3.241	Yaw:	-35.930	Thrust:	37.373
Time:	2.340	Roll Set Point:	0.063	Pitch Set Point:	-0.194	Yaw Set Point:	0.509	X_WP:	0.000	Y_WP:	0.000	Y_WP:	0.500	X:	-0.006	Y:	0.105	Z:	0.045	yaw:	-29.142	yaw rate:	-7.548	Roll:	-1.890	Pitch:	2.818	Yaw:	-44.516	Thrust:	38.791
Time:	2.356	Roll Set Point:	0.063	Pitch Set Point:	-0.194	Yaw Set Point:	0.509	X_WP:	0.000	Y_WP:	0.000	Y_WP:	0.500	X:	-0.006	Y:	0.105	Z:	0.045	yaw:	-29.142	yaw rate:	-7.548	Roll:	-1.676	Pitch:	2.640	Yaw:	-43.411	Thrust:	39.507
Time:	2.371	Roll Set Point:	0.063	Pitch Set Point:	-0.194	Yaw Set Point:	0.508	X_WP:	0.000	Y_WP:	0.000	Y_WP:	0.500	X:	-0.006	Y:	0.105	Z:	0.045	yaw:	-29.133	yaw rate:	-1.656	Roll:	-1.692	Pitch:	2.692	Yaw:	-43.409	Thrust:	40.013
Time:	2.387	Roll Set Point:	0.062	Pitch Set Point:	-0.194	Yaw Set Point:	0.509	X_WP:	0.000	Y_WP:	0.000	Y_WP:	0.500	X:	-0.006	Y:	0.105	Z:	0.045	yaw:	-29.136	yaw rate:	-0.286	Roll:	-1.600	Pitch:	2.626	Yaw:	-43.768	Thrust:	41.173
Time:	2.403	Roll Set Point:	0.063	Pitch Set Point:	-0.194	Yaw Set Point:	0.509	X_WP:	0.000	Y_WP:	0.000	Y_WP:	0.500	X:	-0.006	Y:	0.105	Z:	0.045	yaw:	-29.148	yaw rate:	-1.224	Roll:	-1.750	Pitch:	2.636	Yaw:	-44.029	Thrust:	42.193
Time:	2.418	Roll Set Point:	0.063	Pitch Set Point:	-0.194	Yaw Set Point:	0.509	X_WP:	0.000	Y_WP:	0.000	Y_WP:	0.500	X:	-0.006	Y:	0.105	Z:	0.045	yaw:	-29.150	yaw rate:	-0.220	Roll:	-1.713	Pitch:	2.613	Yaw:	-43.864	Thrust:	42.896
Time:	2.434	Roll Set Point:	0.063	Pitch Set Point:	-0.194	Yaw Set Point:	0.508	X_WP:	0.000	Y_WP:	0.000	Y_WP:	0.500	X:	-0.006	Y:	0.105	Z:	0.045	yaw:	-29.111	yaw rate:	3.896	Roll:	-1.612	Pitch:	2.708	Yaw:	-43.120	Thrust:	43.607
Time:	2.450	Roll Set Point:	0.063	Pitch Set Point:	-0.194	Yaw Set Point:	0.508	X_WP:	0.000	Y_WP:	0.000	Y_WP:	0.500	X:	-0.006	Y:	0.105	Z:	0.045	yaw:	-29.111	yaw rate:	3.896	Roll:	-1.688	Pitch:	2.661	Yaw:	-43.773	Thrust:	44.613
Time:	2.465	Roll Set Point:	0.063	Pitch Set Point:	-0.194	Yaw Set Point:	0.514	X_WP:	0.000	Y_WP:	0.000	Y_WP:	0.500	X:	-0.006	Y:	0.105	Z:	0.045	yaw:	-29.460	yaw rate:	-6.535	Roll:	-2.107	Pitch:	2.328	Yaw:	-50.091	Thrust:	46.067
Time:	2.481	Roll Set Point:	0.063	Pitch Set Point:	-0.193	Yaw Set Point:	0.529	X_WP:	0.000	Y_WP:	0.000	Y_WP:	0.500	X:	-0.005	Y:	0.105	Z:	0.046	yaw:	-30.286	yaw rate:	-82.627	Roll:	-2.650	Pitch:	2.027	Yaw:	-59.234	Thrust:	44.311
Time:	2.496	Roll Set Point:	0.063	Pitch Set Point:	-0.193	Yaw Set Point:	0.529	X_WP:	0.000	Y_WP:	0.000	Y_WP:	0.500	X:	-0.005	Y:	0.105	Z:	0.046	yaw:	-30.286	yaw rate:	-82.627	Roll:	-1.730	Pitch:	2.646	Yaw:	-45.406	Thrust:	47.093
Time:	2.512	Roll Set Point:	0.063	Pitch Set Point:	-0.194	Yaw Set Point:	0.514	X_WP:	0.000	Y_WP:	0.000	Y_WP:	0.500	X:	-0.006	Y:	0.105	Z:	0.045	yaw:	-29.428	yaw rate:	-2.302	Roll:	-1.084	Pitch:	3.321	Yaw:	-29.886	Thrust:	50.697
Time:	2.528	Roll Set Point:	0.063	Pitch Set Point:	-0.194	Yaw Set Point:	0.514	X_WP:	0.000	Y_WP:	0.000	Y_WP:	0.500	X:	-0.006	Y:	0.105	Z:	0.045	yaw:	-29.428	yaw rate:	-2.302	Roll:	-1.718	Pitch:	2.671	Yaw:	-44.215	Thrust:	48.897
Time:	2.544	Roll Set Point:	0.064	Pitch Set Point:	-0.194	Yaw Set Point:	0.521	X_WP:	0.000	Y_WP:	0.000	Y_WP:	0.500	X:	-0.006	Y:	0.106	Z:	0.045	yaw:	-29.846	yaw rate:	-41.799	Roll:	-2.755	Pitch:	2.397	Yaw:	-51.648	Thrust:	50.567
Time:	2.559	Roll Set Point:	0.063	Pitch Set Point:	-0.195	Yaw Set Point:	0.507	X_WP:	0.000	Y_WP:	0.000	Y_WP:	0.500	X:	-0.006	Y:	0.106	Z:	0.045	yaw:	-29.039	yaw rate:	36.226	Roll:	-0.267	Pitch:	3.731	Yaw:	-29.498	Thrust:	49.087
Time:	2.581	Roll Set Point:	0.061	Pitch Set Point:	-0.195	Yaw Set Point:	0.491	X_WP:	0.000	Y_WP:	0.000	Y_WP:	0.500	X:	-0.006	Y:	0.105	Z:	0.045	yaw:	-28.133	yaw rate:	12.914	Roll:	-0.154	Pitch:	3.225	Yaw:	-32.721	Thrust:	61.753
Time:	2.596	Roll Set Point:	0.061	Pitch Set Point:	-0.195	Yaw Set Point:	0.491	X_WP:	0.000	Y_WP:	0.000	Y_WP:	0.500	X:	-0.006	Y:	0.105	Z:	0.045	yaw:	-28.133	yaw rate:	12.914	Roll:	-1.661	Pitch:	2.721	Yaw:	-42.407	Thrust:	52.293
Time:	2.612	Roll Set Point:	0.061	Pitch Set Point:	-0.195	Yaw Set Point:	0.487	X_WP:	0.000	Y_WP:	0.000	Y_WP:	0.500	X:	-0.006	Y:	0.105	Z:	0.045	yaw:	-27.919	yaw rate:	8.542	Roll:	-1.339	Pitch:	2.949	Yaw:	-38.515	Thrust:	53.568
Time:	2.628	Roll Set Point:	0.061	Pitch Set Point:	-0.195	Yaw Set Point:	0.487	X_WP:	0.000	Y_WP:	0.000	Y_WP:	0.500	X:	-0.006	Y:	0.105	Z:	0.045	yaw:	-27.919	yaw rate:	8.542	Roll:	-1.657	Pitch:	2.734	Yaw:	-42.107	Thrust:	54.000
Time:	2.643	Roll Set Point:	0.061	Pitch Set Point:	-0.196	Yaw Set Point:	0.480	X_WP:	0.000	Y_WP:	0.000	Y_WP:	0.500	X:	-0.007	Y:	0.106	Z:	0.045	yaw:	-27.526	yaw rate:	26.473	Roll:	-1.632	Pitch:	3.148	Yaw:	-35.020	Thrust:	54.281
Time:	2.659	Roll Set Point:	0.061	Pitch Set Point:	-0.196	Yaw Set Point:	0.480	X_WP:	0.000	Y_WP:	0.000	Y_WP:	0.500	X:	-0.007	Y:	0.106	Z:	0.045	yaw:	-27.526	yaw rate:	26.473	Roll:	-1.660	Pitch:	2.751	Yaw:	-41.548	Thrust:	55.590
Time:	2.684	Roll Set Point:	0.046	Pitch Set Point:	-0.217	Yaw Set Point:	0.406	X_WP:	0.000	Y_WP:	0.000	Y_WP:	0.500	X:	-0.001	Y:	0.113	Z:	0.048	yaw:	-23.246	yaw rate:	358.779	Roll:	4.870	Pitch:	12.488	Yaw:	8.089	Thrust:	70.176
Time:	2.699	Roll Set Point:	0.046	Pitch Set Point:	-0.217	Yaw Set Point:	0.406	X_WP:	0.000	Y_WP:	0.000	Y_WP:	0.500	X:	-0.001	Y:	0.113	Z:	0.048	yaw:	-23.246	yaw rate:	358.779	Roll:	-1.399	Pitch:	3.149	Yaw:	-35.582	Thrust:	57.266
Time:	2.715	Roll Set Point:	0.035	Pitch Set Point:	-0.225	Yaw Set Point:	0.320	X_WP:	0.000	Y_WP:	0.000	Y_WP:	0.500	X:	0.001	Y:	0.116	Z:	0.053	yaw:	-18.325	yaw rate:	492.020	Roll:	9.347	Pitch:	9.702	Yaw:	53.710	Thrust:	43.198
Time:	2.730	Roll Set Point:	0.040	Pitch Set Point:	-0.225	Yaw Set Point:	0.393	X_WP:	0.000	Y_WP:	0.000	Y_WP:	0.500	X:	0.002	Y:	0.116	Z:	0.057	yaw:	-22.524	yaw rate:	-419.880	Roll:	-8.398	Pitch:	1.569	Yaw:	-104.928	Thrust:	46.982
Time:	2.746	Roll Set Point:	0.036	Pitch Set Point:	-0.225	Yaw Set Point:	0.379	X_WP:	0.000	Y_WP:	0.000	Y_WP:	0.500	X:	0.004	Y:	0.116	Z:	0.066	yaw:	-21.734	yaw rate:	79.025	Roll:	1.742	Pitch:	4.247	Yaw:	-20.232	Thrust:	31.537
Time:	2.762	Roll Set Point:	0.025	Pitch Set Point:	-0.221	Yaw Set Point:	0.343	X_WP:	0.000	Y_WP:	0.000	Y_WP:	0.500	X:	0.007	Y:	0.113	Z:	0.086	yaw:	-19.674	yaw rate:	-95.503	Roll:	7.476	Pitch:	2.257	Yaw:	3.914	Thrust:	2.988
Time:	2.777	Roll Set Point:	0.016	Pitch Set Point:	-0.217	Yaw Set Point:	0.323	X_WP:	0.000	Y_WP:	0.000	Y_WP:	0.500	X:	0.009	Y:	0.110	Z:	0.102	yaw:	-18.492	yaw rate:	118.208	Roll:	5.576	Pitch:	2.002	Yaw:	-9.139	Thrust:	9.868
Time:	2.793	Roll Set Point:	0.016	Pitch Set Point:	-0.217	Yaw Set Point:	0.323	X_WP:	0.000	Y_WP:	0.000	Y_WP:	0.500	X:	0.009	Y:	0.110	Z:	0.102	yaw:	-18.492	yaw rate:	118.208	Roll:	-0.841	Pitch:	3.263	Yaw:	-28.945	Thrust:	59.114
Time:	2.809	Roll Set Point:	0.016	Pitch Set Point:	-0.216	Yaw Set Point:	0.367	X_WP:	0.000	Y_WP:	0.000	Y_WP:	0.500	X:	0.012	Y:	0.110	Z:	0.112	yaw:	-21.025	yaw rate:	-253.285	Roll:	-3.479	Pitch:	2.648	Yaw:	-74.915	Thrust:	33.028
Time:	2.824	Roll Set Point:	0.000	Pitch Set Point:	-0.208	Yaw Set Point:	0.298	X_WP:	0.000	Y_WP:	0.000	Y_WP:	0.500	X:	0.016	Y:	0.104	Z:	0.145	yaw:	-17.067	yaw rate:	167.288	Roll:	13.124	Pitch:	0.573	Yaw:	39.353	Thrust:	0.000
Time:	2.840	Roll Set Point:	0.010	Pitch Set Point:	-0.211	Yaw Set Point:	0.474	X_WP:	0.000	Y_WP:	0.000	Y_WP:	0.500	X:	0.020	Y:	0.107	Z:	0.157	yaw:	-27.146	yaw rate:	-1007.938	Roll:	-17.309	Pitch:	3.570	Yaw:	-209.885	Thrust:	23.825
Time:	2.855	Roll Set Point:	0.010	Pitch Set Point:	-0.206	Yaw Set Point:	0.470	X_WP:	0.000	Y_WP:	0.000	Y_WP:	0.500	X:	0.020	Y:	0.104	Z:	0.171	yaw:	-26.956	yaw rate:	19.058	Roll:	0.255	Pitch:	0.571	Yaw:	-37.570	Thrust:	18.018
Time:	2.871	Roll Set Point:	-0.040	Pitch Set Point:	-0.184	Yaw Set Point:	-0.105	X_WP:	0.000	Y_WP:	0.000	Y_WP:	0.500	X:	0.015	Y:	0.093	Z:	0.210	yaw:	6.006	yaw rate:	3296.197	Roll:	30.000	Pitch:	-9.195	Yaw:	557.528	Thrust:	0.000
Time:	2.887	Roll Set Point:	-0.057	Pitch Set Point:	-0.168	Yaw Set Point:	-0.128	X_WP:	0.000	Y_WP:	0.000	Y_WP:	0.500	X:	0.023	Y:	0.086	Z:	0.253	yaw:	7.314	yaw rate:	130.767	Roll:	10.404	Pitch:	-7.086	Yaw:	29.026	Thrust:	0.000
Time:	2.902	Roll Set Point:	-0.066	Pitch Set Point:	-0.157	Yaw Set Point:	-0.186	X_WP:	0.000	Y_WP:	0.000	Y_WP:	0.500	X:	0.026	Y:	0.082	Z:	0.272	yaw:	10.668	yaw rate:	335.388	Roll:	8.212	Pitch:	-4.726	Yaw:	68.032	Thrust:	0.402
Time:	2.918	Roll Set Point:	-0.075	Pitch Set Point:	-0.141	Yaw Set Point:	-0.296	X_WP:	0.000	Y_WP:	0.000	Y_WP:	0.500	X:	0.027	Y:	0.076	Z:	0.308	yaw:	16.939	yaw rate:	627.148	Roll:	9.575	Pitch:	-9.372	Yaw:	125.731	Thrust:	0.000
Time:	2.934	Roll Set Point:	-0.079	Pitch Set Point:	-0.133	Yaw Set Point:	-0.371	X_WP:	0.000	Y_WP:	0.000	Y_WP:	0.500	X:	0.027	Y:	0.074	Z:	0.327	yaw:	21.268	yaw rate:	432.843	Roll:	5.700	Pitch:	-4.387	Yaw:	99.304	Thrust:	0.000
Time:	2.949	Roll Set Point:	-0.079	Pitch Set Point:	-0.133	Yaw Set Point:	-0.371	X_WP:	0.000	Y_WP:	0.000	Y_WP:	0.500	X:	0.027	Y:	0.074	Z:	0.327	yaw:	21.268	yaw rate:	432.843	Roll:	1.416	Pitch:	1.913	Yaw:	26.909	Thrust:	52.294
Time:	2.965	Roll Set Point:	-0.086	Pitch Set Point:	-0.113	Yaw Set Point:	-0.501	X_WP:	0.000	Y_WP:	0.000	Y_WP:	0.500	X:	0.029	Y:	0.068	Z:	0.366	yaw:	28.712	yaw rate:	744.448	Roll:	7.979	Pitch:	-13.347	Yaw:	162.134	Thrust:	0.000
Time:	2.980	Roll Set Point:	-0.082	Pitch Set Point:	-0.104	Yaw Set Point:	-0.553	X_WP:	0.000	Y_WP:	0.000	Y_WP:	0.500	X:	0.026	Y:	0.064	Z:	0.403	yaw:	31.713	yaw rate:	300.070	Roll:	-0.702	Pitch:	-4.302	Yaw:	91.937	Thrust:	0.000
Time:	2.996	Roll Set Point:	-0.088	Pitch Set Point:	-0.091	Yaw Set Point:	-0.683	X_WP:	0.000	Y_WP:	0.000	Y_WP:	0.500	X:	0.028	Y:	0.061	Z:	0.425	yaw:	39.124	yaw rate:	741.112	Roll:	6.491	Pitch:	-10.407	Yaw:	176.686	Thrust:	0.000
Time:	3.012	Roll Set Point:	-0.089	Pitch Set Point:	-0.089	Yaw Set Point:	-0.721	X_WP:	0.000	Y_WP:	0.000	Y_WP:	0.500	X:	0.028	Y:	0.061	Z:	0.491	yaw:	41.336	yaw rate:	-74.294	Roll:	2.945	Pitch:	-1.327	Yaw:	92.491	Thrust:	0.000
Time:	3.027	Roll Set Point:	-0.087	Pitch Set Point:	-0.100	Yaw Set Point:	-0.661	X_WP:	0.000	Y_WP:	0.000	Y_WP:	0.500	X:	0.026	Y:	0.065	Z:	0.535	yaw:	37.876	yaw rate:	-345.938	Roll:	0.791	Pitch:	9.383	Yaw:	-6.975	Thrust:	0.000
Time:	3.043	Roll Set Point:	-0.078	Pitch Set Point:	-0.112	Yaw Set Point:	-0.577	X_WP:	0.000	Y_WP:	0.000	Y_WP:	0.500	X:	0.023	Y:	0.068	Z:	0.556	yaw:	33.058	yaw rate:	-481.798	Roll:	-3.626	Pitch:	11.401	Yaw:	-36.551	Thrust:	0.000
Time:	3.059	Roll Set Point:	-0.078	Pitch Set Point:	-0.112	Yaw Set Point:	-0.577	X_WP:	0.000	Y_WP:	0.000	Y_WP:	0.500	X:	0.023	Y:	0.068	Z:	0.556	yaw:	33.058	yaw rate:	-481.798	Roll:	1.543	Pitch:	1.490	Yaw:	44.643	Thrust:	40.416
Time:	3.074	Roll Set Point:	-0.027	Pitch Set Point:	0.001	Yaw Set Point:	-2.785	X_WP:	0.000	Y_WP:	0.000	Y_WP:	0.500	X:	0.017	Y:	0.074	Z:	0.626	yaw:	159.555	yaw rate:	-1076.097	Roll:	-30.000	Pitch:	-30.000	Yaw:	2340.765	Thrust:	0.000
Time:	3.090	Roll Set Point:	-0.027	Pitch Set Point:	0.001	Yaw Set Point:	-2.785	X_WP:	0.000	Y_WP:	0.000	Y_WP:	0.500	X:	0.017	Y:	0.074	Z:	0.626	yaw:	159.555	yaw rate:	-1076.097	Roll:	0.223	Pitch:	-1.965	Yaw:	222.317	Thrust:	36.219
Time:	3.105	Roll Set Point:	-0.016	Pitch Set Point:	0.000	Yaw Set Point:	-2.938	X_WP:	0.000	Y_WP:	0.000	Y_WP:	0.500	X:	0.011	Y:	0.080	Z:	0.691	yaw:	168.325	yaw rate:	39.663	Roll:	-4.474	Pitch:	-8.760	Yaw:	382.349	Thrust:	0.000
Time:	3.121	Roll Set Point:	-0.056	Pitch Set Point:	-0.161	Yaw Set Point:	-0.492	X_WP:	0.000	Y_WP:	0.000	Y_WP:	0.500	X:	0.008	Y:	0.087	Z:	0.729	yaw:	28.202	yaw rate:	-14012.306	Roll:	30.000	Pitch:	30.000	Yaw:	-2307.226	Thrust:	0.000
Time:	3.137	Roll Set Point:	-0.048	Pitch Set Point:	-0.163	Yaw Set Point:	-0.488	X_WP:	0.000	Y_WP:	0.000	Y_WP:	0.500	X:	0.004	Y:	0.088	Z:	0.766	yaw:	27.977	yaw rate:	-22.535	Roll:	-3.043	Pitch:	5.147	Yaw:	36.766	Thrust:	0.000
Time:	3.152	Roll Set Point:	-0.042	Pitch Set Point:	-0.164	Yaw Set Point:	-0.478	X_WP:	0.000	Y_WP:	0.000	Y_WP:	0.500	X:	0.001	Y:	0.087	Z:	0.784	yaw:	27.374	yaw rate:	-60.295	Roll:	-2.584	Pitch:	3.876	Yaw:	29.683	Thrust:	0.000
Time:	3.168	Roll Set Point:	-0.042	Pitch Set Point:	-0.164	Yaw Set Point:	-0.478	X_WP:	0.000	Y_WP:	0.000	Y_WP:	0.500	X:	0.001	Y:	0.087	Z:	0.784	yaw:	27.374	yaw rate:	-60.295	Roll:	1.121	Pitch:	2.441	Yaw:	39.784	Thrust:	25.487
Time:	3.184	Roll Set Point:	-0.031	Pitch Set Point:	-0.163	Yaw Set Point:	-0.479	X_WP:	0.000	Y_WP:	0.000	Y_WP:	0.500	X:	-0.005	Y:	0.085	Z:	0.816	yaw:	27.434	yaw rate:	5.992	Roll:	-5.198	Pitch:	3.471	Yaw:	40.871	Thrust:	0.000
Time:	3.199	Roll Set Point:	-0.025	Pitch Set Point:	-0.163	Yaw Set Point:	-0.468	X_WP:	0.000	Y_WP:	0.000	Y_WP:	0.500	X:	-0.007	Y:	0.084	Z:	0.832	yaw:	26.840	yaw rate:	-59.349	Roll:	-2.821	Pitch:	2.985	Yaw:	29.095	Thrust:	0.000
Time:	3.215	Roll Set Point:	-0.006	Pitch Set Point:	-0.158	Yaw Set Point:	-0.446	X_WP:	0.000	Y_WP:	0.000	Y_WP:	0.500	X:	-0.015	Y:	0.080	Z:	0.872	yaw:	25.545	yaw rate:	226.274	Roll:	-11.181	Pitch:	2.524	Yaw:	15.525	Thrust:	0.000
Time:	3.230	Roll Set Point:	-0.006	Pitch Set Point:	-0.158	Yaw Set Point:	-0.446	X_WP:	0.000	Y_WP:	0.000	Y_WP:	0.500	X:	-0.015	Y:	0.080	Z:	0.872	yaw:	25.545	yaw rate:	226.274	Roll:	0.551	Pitch:	2.494	Yaw:	37.230	Thrust:	18.194
Time:	3.246	Roll Set Point:	0.017	Pitch Set Point:	-0.148	Yaw Set Point:	-0.469	X_WP:	0.000	Y_WP:	0.000	Y_WP:	0.500	X:	-0.026	Y:	0.072	Z:	0.915	yaw:	26.845	yaw rate:	-163.203	Roll:	-13.037	Pitch:	-0.397	Yaw:	60.826	Thrust:	0.000
Time:	3.262	Roll Set Point:	0.028	Pitch Set Point:	-0.145	Yaw Set Point:	-0.435	X_WP:	0.000	Y_WP:	0.000	Y_WP:	0.500	X:	-0.030	Y:	0.069	Z:	0.923	yaw:	24.936	yaw rate:	-190.878	Roll:	-7.546	Pitch:	1.900	Yaw:	4.400	Thrust:	0.000
Time:	3.277	Roll Set Point:	0.045	Pitch Set Point:	-0.137	Yaw Set Point:	-0.407	X_WP:	0.000	Y_WP:	0.000	Y_WP:	0.500	X:	-0.037	Y:	0.064	Z:	0.937	yaw:	23.333	yaw rate:	-160.288	Roll:	-11.553	Pitch:	-0.309	Yaw:	7.289	Thrust:	0.000
Time:	3.293	Roll Set Point:	0.055	Pitch Set Point:	-0.132	Yaw Set Point:	-0.393	X_WP:	0.000	Y_WP:	0.000	Y_WP:	0.500	X:	-0.041	Y:	0.060	Z:	0.942	yaw:	22.497	yaw rate:	-83.636	Roll:	-7.009	Pitch:	0.582	Yaw:	18.962	Thrust:	0.000
Time:	3.309	Roll Set Point:	0.055	Pitch Set Point:	-0.132	Yaw Set Point:	-0.393	X_WP:	0.000	Y_WP:	0.000	Y_WP:	0.500	X:	-0.041	Y:	0.060	Z:	0.942	yaw:	22.497	yaw rate:	-83.636	Roll:	-0.477	Pitch:	2.303	Yaw:	32.974	Thrust:	10.433
Time:	3.324	Roll Set Point:	0.077	Pitch Set Point:	-0.118	Yaw Set Point:	-0.407	X_WP:	0.000	Y_WP:	0.000	Y_WP:	0.500	X:	-0.051	Y:	0.051	Z:	0.958	yaw:	23.329	yaw rate:	151.627	Roll:	-13.851	Pitch:	-2.687	Yaw:	48.068	Thrust:	0.000
Time:	3.340	Roll Set Point:	0.093	Pitch Set Point:	-0.105	Yaw Set Point:	-0.427	X_WP:	0.000	Y_WP:	0.000	Y_WP:	0.500	X:	-0.058	Y:	0.043	Z:	0.964	yaw:	24.473	yaw rate:	114.467	Roll:	-10.562	Pitch:	-2.427	Yaw:	54.911	Thrust:	0.000
Time:	3.355	Roll Set Point:	0.108	Pitch Set Point:	-0.096	Yaw Set Point:	-0.521	X_WP:	0.000	Y_WP:	0.000	Y_WP:	0.500	X:	-0.067	Y:	0.034	Z:	0.970	yaw:	29.851	yaw rate:	537.746	Roll:	-8.152	Pitch:	1.723	Yaw:	133.346	Thrust:	0.000
Time:	3.371	Roll Set Point:	0.118	Pitch Set Point:	-0.092	Yaw Set Point:	-0.546	X_WP:	0.000	Y_WP:	0.000	Y_WP:	0.500	X:	-0.072	Y:	0.030	Z:	0.972	yaw:	31.267	yaw rate:	141.653	Roll:	-6.349	Pitch:	1.994	Yaw:	68.952	Thrust:	0.000
Time:	3.387	Roll Set Point:	0.136	Pitch Set Point:	-0.083	Yaw Set Point:	-0.558	X_WP:	0.000	Y_WP:	0.000	Y_WP:	0.500	X:	-0.080	Y:	0.022	Z:	0.976	yaw:	31.997	yaw rate:	73.026	Roll:	-12.535	Pitch:	0.108	Yaw:	58.466	Thrust:	0.000
Time:	3.402	Roll Set Point:	0.136	Pitch Set Point:	-0.083	Yaw Set Point:	-0.558	X_WP:	0.000	Y_WP:	0.000	Y_WP:	0.500	X:	-0.080	Y:	0.022	Z:	0.976	yaw:	31.997	yaw rate:	73.026	Roll:	-1.691	Pitch:	2.008	Yaw:	46.240	Thrust:	3.361
Time:	3.418	Roll Set Point:	0.164	Pitch Set Point:	-0.073	Yaw Set Point:	-0.600	X_WP:	0.000	Y_WP:	0.000	Y_WP:	0.500	X:	-0.093	Y:	0.011	Z:	0.982	yaw:	34.403	yaw rate:	245.365	Roll:	-18.009	Pitch:	3.039	Yaw:	89.936	Thrust:	0.000
Time:	3.434	Roll Set Point:	0.164	Pitch Set Point:	-0.073	Yaw Set Point:	-0.600	X_WP:	0.000	Y_WP:	0.000	Y_WP:	0.500	X:	-0.093	Y:	0.011	Z:	0.982	yaw:	34.403	yaw rate:	245.365	Roll:	-2.119	Pitch:	2.040	Yaw:	49.599	Thrust:	1.242
Time:	3.449	Roll Set Point:	0.172	Pitch Set Point:	-0.072	Yaw Set Point:	-0.618	X_WP:	0.000	Y_WP:	0.000	Y_WP:	0.500	X:	-0.097	Y:	0.009	Z:	0.982	yaw:	35.410	yaw rate:	100.630	Roll:	-6.419	Pitch:	3.938	Yaw:	67.863	Thrust:	0.000
Time:	3.465	Roll Set Point:	0.194	Pitch Set Point:	-0.062	Yaw Set Point:	-0.597	X_WP:	0.000	Y_WP:	0.000	Y_WP:	0.500	X:	-0.107	Y:	0.001	Z:	0.986	yaw:	34.179	yaw rate:	-123.126	Roll:	-16.998	Pitch:	-0.815	Yaw:	28.671	Thrust:	0.000
Time:	3.480	Roll Set Point:	0.205	Pitch Set Point:	-0.057	Yaw Set Point:	-0.589	X_WP:	0.000	Y_WP:	0.000	Y_WP:	0.500	X:	-0.111	Y:	-0.003	Z:	0.988	yaw:	33.741	yaw rate:	-43.752	Roll:	-9.516	Pitch:	0.818	Yaw:	41.343	Thrust:	0.000
Time:	3.496	Roll Set Point:	0.229	Pitch Set Point:	-0.040	Yaw Set Point:	-0.521	X_WP:	0.000	Y_WP:	0.000	Y_WP:	0.500	X:	-0.120	Y:	-0.011	Z:	0.989	yaw:	29.871	yaw rate:	-386.992	Roll:	-19.875	Pitch:	-8.413	Yaw:	-21.592	Thrust:	0.000
Time:	3.512	Roll Set Point:	0.000	Pitch Set Point:	0.000	Yaw Set Point:	-0.521	X_WP:	0.000	Y_WP:	0.000	Y_WP:	0.500	X:	0.000	Y:	0.000	Z:	0.000	yaw:	29.871	yaw rate:	-386.992	Roll:	30.000	Pitch:	-30.000	Yaw:	43.271	Thrust:	100.000
Time:	3.527	Roll Set Point:	0.000	Pitch Set Point:	0.000	Yaw Set Point:	-0.521	X_WP:	0.000	Y_WP:	0.000	Y_WP:	0.500	X:	0.000	Y:	0.000	Z:	0.000	yaw:	29.871	yaw rate:	-386.992	Roll:	-0.089	Pitch:	0.264	Yaw:	43.271	Thrust:	51.621
Time:	3.543	Roll Set Point:	0.000	Pitch Set Point:	0.000	Yaw Set Point:	-0.521	X_WP:	0.000	Y_WP:	0.000	Y_WP:	0.500	X:	0.000	Y:	0.000	Z:	0.000	yaw:	29.871	yaw rate:	-386.992	Roll:	-0.089	Pitch:	0.264	Yaw:	43.271	Thrust:	52.560
Time:	3.559	Roll Set Point:	0.000	Pitch Set Point:	0.000	Yaw Set Point:	-0.521	X_WP:	0.000	Y_WP:	0.000	Y_WP:	0.500	X:	0.000	Y:	0.000	Z:	0.000	yaw:	29.871	yaw rate:	-386.992	Roll:	-0.090	Pitch:	0.264	Yaw:	43.273	Thrust:	53.546
Time:	3.574	Roll Set Point:	0.000	Pitch Set Point:	0.000	Yaw Set Point:	-0.521	X_WP:	0.000	Y_WP:	0.000	Y_WP:	0.500	X:	0.000	Y:	0.000	Z:	0.000	yaw:	29.871	yaw rate:	-386.992	Roll:	-0.089	Pitch:	0.263	Yaw:	43.268	Thrust:	54.384
Time:	3.590	Roll Set Point:	0.000	Pitch Set Point:	0.000	Yaw Set Point:	-0.521	X_WP:	0.000	Y_WP:	0.000	Y_WP:	0.500	X:	0.000	Y:	0.000	Z:	0.000	yaw:	29.871	yaw rate:	-386.992	Roll:	-0.089	Pitch:	0.264	Yaw:	43.271	Thrust:	55.385
Time:	3.605	Roll Set Point:	0.000	Pitch Set Point:	0.000	Yaw Set Point:	-0.521	X_WP:	0.000	Y_WP:	0.000	Y_WP:	0.500	X:	0.000	Y:	0.000	Z:	0.000	yaw:	29.871	yaw rate:	-386.992	Roll:	-0.089	Pitch:	0.264	Yaw:	43.270	Thrust:	56.296
Time:	3.621	Roll Set Point:	0.000	Pitch Set Point:	0.000	Yaw Set Point:	-0.521	X_WP:	0.000	Y_WP:	0.000	Y_WP:	0.500	X:	0.000	Y:	0.000	Z:	0.000	yaw:	29.871	yaw rate:	-386.992	Roll:	-0.089	Pitch:	0.264	Yaw:	43.271	Thrust:	57.248
Time:	3.637	Roll Set Point:	0.000	Pitch Set Point:	0.000	Yaw Set Point:	-0.521	X_WP:	0.000	Y_WP:	0.000	Y_WP:	0.500	X:	0.000	Y:	0.000	Z:	0.000	yaw:	29.871	yaw rate:	-386.992	Roll:	-0.089	Pitch:	0.264	Yaw:	43.271	Thrust:	58.185
Time:	3.652	Roll Set Point:	0.000	Pitch Set Point:	0.000	Yaw Set Point:	-0.521	X_WP:	0.000	Y_WP:	0.000	Y_WP:	0.500	X:	0.000	Y:	0.000	Z:	0.000	yaw:	29.871	yaw rate:	-386.992	Roll:	-0.089	Pitch:	0.264	Yaw:	43.271	Thrust:	59.124
Time:	3.684	Roll Set Point:	0.000	Pitch Set Point:	0.000	Yaw Set Point:	-0.521	X_WP:	0.000	Y_WP:	0.000	Y_WP:	0.500	X:	0.000	Y:	0.000	Z:	0.000	yaw:	29.871	yaw rate:	-386.992	Roll:	-0.180	Pitch:	0.530	Yaw:	44.849	Thrust:	92.950
Time:	3.699	Roll Set Point:	0.000	Pitch Set Point:	0.000	Yaw Set Point:	-0.521	X_WP:	0.000	Y_WP:	0.000	Y_WP:	0.500	X:	0.000	Y:	0.000	Z:	0.000	yaw:	29.871	yaw rate:	-386.992	Roll:	-0.089	Pitch:	0.264	Yaw:	43.271	Thrust:	60.998
Time:	3.715	Roll Set Point:	0.000	Pitch Set Point:	0.000	Yaw Set Point:	-0.521	X_WP:	0.000	Y_WP:	0.000	Y_WP:	0.500	X:	0.000	Y:	0.000	Z:	0.000	yaw:	29.871	yaw rate:	-386.992	Roll:	-0.089	Pitch:	0.264	Yaw:	43.271	Thrust:	61.941
Time:	3.731	Roll Set Point:	0.000	Pitch Set Point:	0.000	Yaw Set Point:	-0.521	X_WP:	0.000	Y_WP:	0.000	Y_WP:	0.500	X:	0.000	Y:	0.000	Z:	0.000	yaw:	29.871	yaw rate:	-386.992	Roll:	-0.089	Pitch:	0.264	Yaw:	43.271	Thrust:	62.876
Time:	3.746	Roll Set Point:	0.000	Pitch Set Point:	0.000	Yaw Set Point:	-0.521	X_WP:	0.000	Y_WP:	0.000	Y_WP:	0.500	X:	0.000	Y:	0.000	Z:	0.000	yaw:	29.871	yaw rate:	-386.992	Roll:	-0.089	Pitch:	0.264	Yaw:	43.270	Thrust:	63.800
Time:	3.762	Roll Set Point:	0.000	Pitch Set Point:	0.000	Yaw Set Point:	-0.521	X_WP:	0.000	Y_WP:	0.000	Y_WP:	0.500	X:	0.000	Y:	0.000	Z:	0.000	yaw:	29.871	yaw rate:	-386.992	Roll:	-0.090	Pitch:	0.265	Yaw:	43.276	Thrust:	64.884
Time:	3.778	Roll Set Point:	0.000	Pitch Set Point:	0.000	Yaw Set Point:	-0.521	X_WP:	0.000	Y_WP:	0.000	Y_WP:	0.500	X:	0.000	Y:	0.000	Z:	0.000	yaw:	29.871	yaw rate:	-386.992	Roll:	-0.089	Pitch:	0.263	Yaw:	43.265	Thrust:	65.550
Time:	3.793	Roll Set Point:	0.000	Pitch Set Point:	0.000	Yaw Set Point:	-0.521	X_WP:	0.000	Y_WP:	0.000	Y_WP:	0.500	X:	0.000	Y:	0.000	Z:	0.000	yaw:	29.871	yaw rate:	-386.992	Roll:	-0.089	Pitch:	0.264	Yaw:	43.271	Thrust:	66.624
Time:	3.809	Roll Set Point:	0.000	Pitch Set Point:	0.000	Yaw Set Point:	-0.521	X_WP:	0.000	Y_WP:	0.000	Y_WP:	0.500	X:	0.000	Y:	0.000	Z:	0.000	yaw:	29.871	yaw rate:	-386.992	Roll:	-0.089	Pitch:	0.264	Yaw:	43.271	Thrust:	67.562
Time:	3.824	Roll Set Point:	0.000	Pitch Set Point:	0.000	Yaw Set Point:	-0.521	X_WP:	0.000	Y_WP:	0.000	Y_WP:	0.500	X:	0.000	Y:	0.000	Z:	0.000	yaw:	29.871	yaw rate:	-386.992	Roll:	-0.089	Pitch:	0.264	Yaw:	43.271	Thrust:	68.499
Time:	3.840	Roll Set Point:	0.000	Pitch Set Point:	0.000	Yaw Set Point:	-0.521	X_WP:	0.000	Y_WP:	0.000	Y_WP:	0.500	X:	0.000	Y:	0.000	Z:	0.000	yaw:	29.871	yaw rate:	-386.992	Roll:	-0.089	Pitch:	0.264	Yaw:	43.271	Thrust:	69.436
Time:	3.856	Roll Set Point:	0.000	Pitch Set Point:	0.000	Yaw Set Point:	-0.521	X_WP:	0.000	Y_WP:	0.000	Y_WP:	0.500	X:	0.000	Y:	0.000	Z:	0.000	yaw:	29.871	yaw rate:	-386.992	Roll:	-0.089	Pitch:	0.264	Yaw:	43.271	Thrust:	70.373
Time:	3.871	Roll Set Point:	0.000	Pitch Set Point:	0.000	Yaw Set Point:	-0.521	X_WP:	0.000	Y_WP:	0.000	Y_WP:	0.500	X:	0.000	Y:	0.000	Z:	0.000	yaw:	29.871	yaw rate:	-386.992	Roll:	-0.089	Pitch:	0.264	Yaw:	43.271	Thrust:	71.314
Time:	3.887	Roll Set Point:	0.000	Pitch Set Point:	0.000	Yaw Set Point:	-0.521	X_WP:	0.000	Y_WP:	0.000	Y_WP:	0.500	X:	0.000	Y:	0.000	Z:	0.000	yaw:	29.871	yaw rate:	-386.992	Roll:	-0.089	Pitch:	0.264	Yaw:	43.271	Thrust:	72.251
Time:	3.903	Roll Set Point:	0.000	Pitch Set Point:	0.000	Yaw Set Point:	-0.521	X_WP:	0.000	Y_WP:	0.000	Y_WP:	0.500	X:	0.000	Y:	0.000	Z:	0.000	yaw:	29.871	yaw rate:	-386.992	Roll:	-0.089	Pitch:	0.264	Yaw:	43.271	Thrust:	73.186
Time:	3.918	Roll Set Point:	0.000	Pitch Set Point:	0.000	Yaw Set Point:	-0.521	X_WP:	0.000	Y_WP:	0.000	Y_WP:	0.500	X:	0.000	Y:	0.000	Z:	0.000	yaw:	29.871	yaw rate:	-386.992	Roll:	-0.089	Pitch:	0.264	Yaw:	43.271	Thrust:	74.124
Time:	3.934	Roll Set Point:	0.000	Pitch Set Point:	0.000	Yaw Set Point:	-0.521	X_WP:	0.000	Y_WP:	0.000	Y_WP:	0.500	X:	0.000	Y:	0.000	Z:	0.000	yaw:	29.871	yaw rate:	-386.992	Roll:	-0.089	Pitch:	0.264	Yaw:	43.271	Thrust:	75.061
Time:	3.949	Roll Set Point:	0.000	Pitch Set Point:	0.000	Yaw Set Point:	-0.521	X_WP:	0.000	Y_WP:	0.000	Y_WP:	0.500	X:	0.000	Y:	0.000	Z:	0.000	yaw:	29.871	yaw rate:	-386.992	Roll:	-0.089	Pitch:	0.264	Yaw:	43.271	Thrust:	75.998
Time:	3.965	Roll Set Point:	0.000	Pitch Set Point:	0.000	Yaw Set Point:	-0.521	X_WP:	0.000	Y_WP:	0.000	Y_WP:	0.500	X:	0.000	Y:	0.000	Z:	0.000	yaw:	29.871	yaw rate:	-386.992	Roll:	-0.089	Pitch:	0.264	Yaw:	43.271	Thrust:	76.941
Time:	3.981	Roll Set Point:	0.000	Pitch Set Point:	0.000	Yaw Set Point:	-0.521	X_WP:	0.000	Y_WP:	0.000	Y_WP:	0.500	X:	0.000	Y:	0.000	Z:	0.000	yaw:	29.871	yaw rate:	-386.992	Roll:	-0.089	Pitch:	0.264	Yaw:	43.271	Thrust:	77.873
Time:	3.996	Roll Set Point:	0.000	Pitch Set Point:	0.000	Yaw Set Point:	-0.521	X_WP:	0.000	Y_WP:	0.000	Y_WP:	0.500	X:	0.000	Y:	0.000	Z:	0.000	yaw:	29.871	yaw rate:	-386.992	Roll:	-0.089	Pitch:	0.264	Yaw:	43.270	Thrust:	78.809
Time:	4.012	Roll Set Point:	0.000	Pitch Set Point:	0.000	Yaw Set Point:	-0.521	X_WP:	0.000	Y_WP:	0.000	Y_WP:	0.500	X:	0.000	Y:	0.000	Z:	0.000	yaw:	29.871	yaw rate:	-386.992	Roll:	-0.089	Pitch:	0.264	Yaw:	43.271	Thrust:	79.752
Time:	4.028	Roll Set Point:	0.000	Pitch Set Point:	0.000	Yaw Set Point:	-0.521	X_WP:	0.000	Y_WP:	0.000	Y_WP:	0.500	X:	0.000	Y:	0.000	Z:	0.000	yaw:	29.871	yaw rate:	-386.992	Roll:	-0.089	Pitch:	0.264	Yaw:	43.271	Thrust:	80.687
Time:	4.043	Roll Set Point:	0.000	Pitch Set Point:	0.000	Yaw Set Point:	-0.521	X_WP:	0.000	Y_WP:	0.000	Y_WP:	0.500	X:	0.000	Y:	0.000	Z:	0.000	yaw:	29.871	yaw rate:	-386.992	Roll:	-0.089	Pitch:	0.264	Yaw:	43.270	Thrust:	81.621
Time:	4.059	Roll Set Point:	0.000	Pitch Set Point:	0.000	Yaw Set Point:	-0.521	X_WP:	0.000	Y_WP:	0.000	Y_WP:	0.500	X:	0.000	Y:	0.000	Z:	0.000	yaw:	29.871	yaw rate:	-386.992	Roll:	-0.089	Pitch:	0.264	Yaw:	43.271	Thrust:	82.569
Time:	4.074	Roll Set Point:	0.000	Pitch Set Point:	0.000	Yaw Set Point:	-0.521	X_WP:	0.000	Y_WP:	0.000	Y_WP:	0.500	X:	0.000	Y:	0.000	Z:	0.000	yaw:	29.871	yaw rate:	-386.992	Roll:	-0.089	Pitch:	0.264	Yaw:	43.270	Thrust:	83.496
Time:	4.090	Roll Set Point:	0.000	Pitch Set Point:	0.000	Yaw Set Point:	-0.521	X_WP:	0.000	Y_WP:	0.000	Y_WP:	0.500	X:	0.000	Y:	0.000	Z:	0.000	yaw:	29.871	yaw rate:	-386.992	Roll:	-0.090	Pitch:	0.264	Yaw:	43.274	Thrust:	84.549
Time:	4.106	Roll Set Point:	0.000	Pitch Set Point:	0.000	Yaw Set Point:	-0.521	X_WP:	0.000	Y_WP:	0.000	Y_WP:	0.500	X:	0.000	Y:	0.000	Z:	0.000	yaw:	29.871	yaw rate:	-386.992	Roll:	-0.089	Pitch:	0.263	Yaw:	43.268	Thrust:	85.263
Time:	4.121	Roll Set Point:	0.000	Pitch Set Point:	0.000	Yaw Set Point:	-0.521	X_WP:	0.000	Y_WP:	0.000	Y_WP:	0.500	X:	0.000	Y:	0.000	Z:	0.000	yaw:	29.871	yaw rate:	-386.992	Roll:	-0.090	Pitch:	0.265	Yaw:	43.276	Thrust:	86.535
Time:	4.137	Roll Set Point:	0.000	Pitch Set Point:	0.000	Yaw Set Point:	-0.521	X_WP:	0.000	Y_WP:	0.000	Y_WP:	0.500	X:	0.000	Y:	0.000	Z:	0.000	yaw:	29.871	yaw rate:	-386.992	Roll:	-0.089	Pitch:	0.263	Yaw:	43.265	Thrust:	87.027
Time:	4.153	Roll Set Point:	0.000	Pitch Set Point:	0.000	Yaw Set Point:	-0.521	X_WP:	0.000	Y_WP:	0.000	Y_WP:	0.500	X:	0.000	Y:	0.000	Z:	0.000	yaw:	29.871	yaw rate:	-386.992	Roll:	-0.089	Pitch:	0.264	Yaw:	43.271	Thrust:	88.194
Time:	4.168	Roll Set Point:	0.000	Pitch Set Point:	0.000	Yaw Set Point:	-0.521	X_WP:	0.000	Y_WP:	0.000	Y_WP:	0.500	X:	0.000	Y:	0.000	Z:	0.000	yaw:	29.871	yaw rate:	-386.992	Roll:	-0.089	Pitch:	0.264	Yaw:	43.270	Thrust:	89.118
Time:	4.184	Roll Set Point:	0.000	Pitch Set Point:	0.000	Yaw Set Point:	-0.521	X_WP:	0.000	Y_WP:	0.000	Y_WP:	0.500	X:	0.000	Y:	0.000	Z:	0.000	yaw:	29.871	yaw rate:	-386.992	Roll:	-0.089	Pitch:	0.264	Yaw:	43.272	Thrust:	90.103
Time:	4.199	Roll Set Point:	0.000	Pitch Set Point:	0.000	Yaw Set Point:	-0.521	X_WP:	0.000	Y_WP:	0.000	Y_WP:	0.500	X:	0.000	Y:	0.000	Z:	0.000	yaw:	29.871	yaw rate:	-386.992	Roll:	-0.089	Pitch:	0.264	Yaw:	43.271	Thrust:	91.003
Time:	4.215	Roll Set Point:	0.000	Pitch Set Point:	0.000	Yaw Set Point:	-0.521	X_WP:	0.000	Y_WP:	0.000	Y_WP:	0.500	X:	0.000	Y:	0.000	Z:	0.000	yaw:	29.871	yaw rate:	-386.992	Roll:	-0.089	Pitch:	0.264	Yaw:	43.270	Thrust:	91.900
Time:	4.231	Roll Set Point:	0.000	Pitch Set Point:	0.000	Yaw Set Point:	-0.521	X_WP:	0.000	Y_WP:	0.000	Y_WP:	0.500	X:	0.000	Y:	0.000	Z:	0.000	yaw:	29.871	yaw rate:	-386.992	Roll:	-0.089	Pitch:	0.264	Yaw:	43.271	Thrust:	92.876
Time:	4.246	Roll Set Point:	0.000	Pitch Set Point:	0.000	Yaw Set Point:	-0.521	X_WP:	0.000	Y_WP:	0.000	Y_WP:	0.500	X:	0.000	Y:	0.000	Z:	0.000	yaw:	29.871	yaw rate:	-386.992	Roll:	-0.090	Pitch:	0.264	Yaw:	43.273	Thrust:	93.924
Time:	4.262	Roll Set Point:	0.000	Pitch Set Point:	0.000	Yaw Set Point:	-0.521	X_WP:	0.000	Y_WP:	0.000	Y_WP:	0.500	X:	0.000	Y:	0.000	Z:	0.000	yaw:	29.871	yaw rate:	-386.992	Roll:	-0.089	Pitch:	0.264	Yaw:	43.271	Thrust:	94.773
Time:	4.278	Roll Set Point:	0.000	Pitch Set Point:	0.000	Yaw Set Point:	-0.521	X_WP:	0.000	Y_WP:	0.000	Y_WP:	0.500	X:	0.000	Y:	0.000	Z:	0.000	yaw:	29.871	yaw rate:	-386.992	Roll:	-0.089	Pitch:	0.264	Yaw:	43.270	Thrust:	95.680
Time:	4.293	Roll Set Point:	0.000	Pitch Set Point:	0.000	Yaw Set Point:	-0.521	X_WP:	0.000	Y_WP:	0.000	Y_WP:	0.500	X:	0.000	Y:	0.000	Z:	0.000	yaw:	29.871	yaw rate:	-386.992	Roll:	-0.089	Pitch:	0.264	Yaw:	43.271	Thrust:	96.632
Time:	4.309	Roll Set Point:	0.000	Pitch Set Point:	0.000	Yaw Set Point:	-0.521	X_WP:	0.000	Y_WP:	0.000	Y_WP:	0.500	X:	0.000	Y:	0.000	Z:	0.000	yaw:	29.871	yaw rate:	-386.992	Roll:	-0.089	Pitch:	0.263	Yaw:	43.269	Thrust:	97.488
Time:	4.324	Roll Set Point:	0.000	Pitch Set Point:	0.000	Yaw Set Point:	-0.521	X_WP:	0.000	Y_WP:	0.000	Y_WP:	0.500	X:	0.000	Y:	0.000	Z:	0.000	yaw:	29.871	yaw rate:	-386.992	Roll:	-0.089	Pitch:	0.264	Yaw:	43.269	Thrust:	98.436
Time:	4.340	Roll Set Point:	0.000	Pitch Set Point:	0.000	Yaw Set Point:	-0.521	X_WP:	0.000	Y_WP:	0.000	Y_WP:	0.500	X:	0.000	Y:	0.000	Z:	0.000	yaw:	29.871	yaw rate:	-386.992	Roll:	-0.089	Pitch:	0.264	Yaw:	43.271	Thrust:	99.446
Time:	4.356	Roll Set Point:	0.000	Pitch Set Point:	0.000	Yaw Set Point:	-0.521	X_WP:	0.000	Y_WP:	0.000	Y_WP:	0.500	X:	0.000	Y:	0.000	Z:	0.000	yaw:	29.871	yaw rate:	-386.992	Roll:	-0.089	Pitch:	0.264	Yaw:	43.270	Thrust:	100.000
Time:	4.371	Roll Set Point:	0.000	Pitch Set Point:	0.000	Yaw Set Point:	-0.521	X_WP:	0.000	Y_WP:	0.000	Y_WP:	0.500	X:	0.000	Y:	0.000	Z:	0.000	yaw:	29.871	yaw rate:	-386.992	Roll:	-0.089	Pitch:	0.264	Yaw:	43.271	Thrust:	100.000
Time:	4.387	Roll Set Point:	0.000	Pitch Set Point:	0.000	Yaw Set Point:	-0.521	X_WP:	0.000	Y_WP:	0.000	Y_WP:	0.500	X:	0.000	Y:	0.000	Z:	0.000	yaw:	29.871	yaw rate:	-386.992	Roll:	-0.089	Pitch:	0.264	Yaw:	43.271	Thrust:	100.000
Time:	4.403	Roll Set Point:	0.000	Pitch Set Point:	0.000	Yaw Set Point:	-0.521	X_WP:	0.000	Y_WP:	0.000	Y_WP:	0.500	X:	0.000	Y:	0.000	Z:	0.000	yaw:	29.871	yaw rate:	-386.992	Roll:	-0.090	Pitch:	0.264	Yaw:	43.274	Thrust:	100.000
Time:	4.418	Roll Set Point:	0.000	Pitch Set Point:	0.000	Yaw Set Point:	-0.521	X_WP:	0.000	Y_WP:	0.000	Y_WP:	0.500	X:	0.000	Y:	0.000	Z:	0.000	yaw:	29.871	yaw rate:	-386.992	Roll:	-0.089	Pitch:	0.263	Yaw:	43.268	Thrust:	100.000
Time:	4.434	Roll Set Point:	0.000	Pitch Set Point:	0.000	Yaw Set Point:	-0.521	X_WP:	0.000	Y_WP:	0.000	Y_WP:	0.500	X:	0.000	Y:	0.000	Z:	0.000	yaw:	29.871	yaw rate:	-386.992	Roll:	-0.089	Pitch:	0.264	Yaw:	43.271	Thrust:	100.000
Time:	4.449	Roll Set Point:	0.000	Pitch Set Point:	0.000	Yaw Set Point:	-0.521	X_WP:	0.000	Y_WP:	0.000	Y_WP:	0.500	X:	0.000	Y:	0.000	Z:	0.000	yaw:	29.871	yaw rate:	-386.992	Roll:	-0.089	Pitch:	0.264	Yaw:	43.271	Thrust:	100.000
Time:	4.465	Roll Set Point:	0.000	Pitch Set Point:	0.000	Yaw Set Point:	-0.521	X_WP:	0.000	Y_WP:	0.000	Y_WP:	0.500	X:	0.000	Y:	0.000	Z:	0.000	yaw:	29.871	yaw rate:	-386.992	Roll:	-0.089	Pitch:	0.264	Yaw:	43.270	Thrust:	100.000
Time:	4.481	Roll Set Point:	0.000	Pitch Set Point:	0.000	Yaw Set Point:	-0.521	X_WP:	0.000	Y_WP:	0.000	Y_WP:	0.500	X:	0.000	Y:	0.000	Z:	0.000	yaw:	29.871	yaw rate:	-386.992	Roll:	-0.090	Pitch:	0.265	Yaw:	43.276	Thrust:	100.000
Time:	4.496	Roll Set Point:	0.000	Pitch Set Point:	0.000	Yaw Set Point:	-0.521	X_WP:	0.000	Y_WP:	0.000	Y_WP:	0.500	X:	0.000	Y:	0.000	Z:	0.000	yaw:	29.871	yaw rate:	-386.992	Roll:	-0.089	Pitch:	0.264	Yaw:	43.271	Thrust:	100.000
Time:	4.512	Roll Set Point:	0.000	Pitch Set Point:	0.000	Yaw Set Point:	-0.521	X_WP:	0.000	Y_WP:	0.000	Y_WP:	0.500	X:	0.000	Y:	0.000	Z:	0.000	yaw:	29.871	yaw rate:	-386.992	Roll:	-0.089	Pitch:	0.263	Yaw:	43.268	Thrust:	100.000
Time:	4.528	Roll Set Point:	0.000	Pitch Set Point:	0.000	Yaw Set Point:	-0.521	X_WP:	0.000	Y_WP:	0.000	Y_WP:	0.500	X:	0.000	Y:	0.000	Z:	0.000	yaw:	29.871	yaw rate:	-386.992	Roll:	-0.089	Pitch:	0.263	Yaw:	43.268	Thrust:	100.000
Time:	4.543	Roll Set Point:	0.000	Pitch Set Point:	0.000	Yaw Set Point:	-0.521	X_WP:	0.000	Y_WP:	0.000	Y_WP:	0.500	X:	0.000	Y:	0.000	Z:	0.000	yaw:	29.871	yaw rate:	-386.992	Roll:	-0.089	Pitch:	0.264	Yaw:	43.270	Thrust:	100.000
Time:	4.559	Roll Set Point:	0.000	Pitch Set Point:	0.000	Yaw Set Point:	-0.521	X_WP:	0.000	Y_WP:	0.000	Y_WP:	0.500	X:	0.000	Y:	0.000	Z:	0.000	yaw:	29.871	yaw rate:	-386.992	Roll:	-0.089	Pitch:	0.264	Yaw:	43.271	Thrust:	100.000
Time:	4.575	Roll Set Point:	0.000	Pitch Set Point:	0.000	Yaw Set Point:	-0.521	X_WP:	0.000	Y_WP:	0.000	Y_WP:	0.500	X:	0.000	Y:	0.000	Z:	0.000	yaw:	29.871	yaw rate:	-386.992	Roll:	-0.090	Pitch:	0.264	Yaw:	43.273	Thrust:	100.000
Time:	4.590	Roll Set Point:	0.000	Pitch Set Point:	0.000	Yaw Set Point:	-0.521	X_WP:	0.000	Y_WP:	0.000	Y_WP:	0.500	X:	0.000	Y:	0.000	Z:	0.000	yaw:	29.871	yaw rate:	-386.992	Roll:	-0.089	Pitch:	0.263	Yaw:	43.268	Thrust:	100.000
Time:	4.606	Roll Set Point:	0.000	Pitch Set Point:	0.000	Yaw Set Point:	-0.521	X_WP:	0.000	Y_WP:	0.000	Y_WP:	0.500	X:	0.000	Y:	0.000	Z:	0.000	yaw:	29.871	yaw rate:	-386.992	Roll:	-0.089	Pitch:	0.264	Yaw:	43.271	Thrust:	100.000
Time:	4.621	Roll Set Point:	0.000	Pitch Set Point:	0.000	Yaw Set Point:	-0.521	X_WP:	0.000	Y_WP:	0.000	Y_WP:	0.500	X:	0.000	Y:	0.000	Z:	0.000	yaw:	29.871	yaw rate:	-386.992	Roll:	-0.089	Pitch:	0.264	Yaw:	43.270	Thrust:	100.000
Time:	4.637	Roll Set Point:	0.000	Pitch Set Point:	0.000	Yaw Set Point:	-0.521	X_WP:	0.000	Y_WP:	0.000	Y_WP:	0.500	X:	0.000	Y:	0.000	Z:	0.000	yaw:	29.871	yaw rate:	-386.992	Roll:	-0.090	Pitch:	0.264	Yaw:	43.274	Thrust:	100.000
Time:	4.653	Roll Set Point:	0.000	Pitch Set Point:	0.000	Yaw Set Point:	-0.521	X_WP:	0.000	Y_WP:	0.000	Y_WP:	0.500	X:	0.000	Y:	0.000	Z:	0.000	yaw:	29.871	yaw rate:	-386.992	Roll:	-0.089	Pitch:	0.263	Yaw:	43.268	Thrust:	100.000
Time:	4.684	Roll Set Point:	0.000	Pitch Set Point:	0.000	Yaw Set Point:	-0.521	X_WP:	0.000	Y_WP:	0.000	Y_WP:	0.500	X:	0.000	Y:	0.000	Z:	0.000	yaw:	29.871	yaw rate:	-386.992	Roll:	-0.178	Pitch:	0.524	Yaw:	44.810	Thrust:	100.000
Time:	4.699	Roll Set Point:	0.000	Pitch Set Point:	0.000	Yaw Set Point:	-0.521	X_WP:	0.000	Y_WP:	0.000	Y_WP:	0.500	X:	0.000	Y:	0.000	Z:	0.000	yaw:	29.871	yaw rate:	-386.992	Roll:	-0.089	Pitch:	0.264	Yaw:	43.270	Thrust:	100.000
Time:	4.715	Roll Set Point:	0.000	Pitch Set Point:	0.000	Yaw Set Point:	-0.521	X_WP:	0.000	Y_WP:	0.000	Y_WP:	0.500	X:	0.000	Y:	0.000	Z:	0.000	yaw:	29.871	yaw rate:	-386.992	Roll:	-0.089	Pitch:	0.264	Yaw:	43.270	Thrust:	100.000
Time:	4.731	Roll Set Point:	0.000	Pitch Set Point:	0.000	Yaw Set Point:	-0.521	X_WP:	0.000	Y_WP:	0.000	Y_WP:	0.500	X:	0.000	Y:	0.000	Z:	0.000	yaw:	29.871	yaw rate:	-386.992	Roll:	-0.089	Pitch:	0.264	Yaw:	43.271	Thrust:	100.000
Time:	4.746	Roll Set Point:	0.000	Pitch Set Point:	0.000	Yaw Set Point:	-0.521	X_WP:	0.000	Y_WP:	0.000	Y_WP:	0.500	X:	0.000	Y:	0.000	Z:	0.000	yaw:	29.871	yaw rate:	-386.992	Roll:	-0.089	Pitch:	0.264	Yaw:	43.271	Thrust:	100.000
Time:	4.762	Roll Set Point:	0.000	Pitch Set Point:	0.000	Yaw Set Point:	-0.521	X_WP:	0.000	Y_WP:	0.000	Y_WP:	0.500	X:	0.000	Y:	0.000	Z:	0.000	yaw:	29.871	yaw rate:	-386.992	Roll:	-0.089	Pitch:	0.264	Yaw:	43.271	Thrust:	100.000
Time:	4.777	Roll Set Point:	0.000	Pitch Set Point:	0.000	Yaw Set Point:	-0.521	X_WP:	0.000	Y_WP:	0.000	Y_WP:	0.500	X:	0.000	Y:	0.000	Z:	0.000	yaw:	29.871	yaw rate:	-386.992	Roll:	-0.089	Pitch:	0.264	Yaw:	43.271	Thrust:	100.000
Time:	4.793	Roll Set Point:	0.000	Pitch Set Point:	0.000	Yaw Set Point:	-0.521	X_WP:	0.000	Y_WP:	0.000	Y_WP:	0.500	X:	0.000	Y:	0.000	Z:	0.000	yaw:	29.871	yaw rate:	-386.992	Roll:	-0.089	Pitch:	0.264	Yaw:	43.271	Thrust:	100.000
Time:	4.809	Roll Set Point:	0.000	Pitch Set Point:	0.000	Yaw Set Point:	-0.521	X_WP:	0.000	Y_WP:	0.000	Y_WP:	0.500	X:	0.000	Y:	0.000	Z:	0.000	yaw:	29.871	yaw rate:	-386.992	Roll:	-0.090	Pitch:	0.264	Yaw:	43.274	Thrust:	100.000
Time:	4.824	Roll Set Point:	0.000	Pitch Set Point:	0.000	Yaw Set Point:	-0.521	X_WP:	0.000	Y_WP:	0.000	Y_WP:	0.500	X:	0.000	Y:	0.000	Z:	0.000	yaw:	29.871	yaw rate:	-386.992	Roll:	-0.089	Pitch:	0.263	Yaw:	43.268	Thrust:	100.000
Time:	4.840	Roll Set Point:	0.000	Pitch Set Point:	0.000	Yaw Set Point:	-0.521	X_WP:	0.000	Y_WP:	0.000	Y_WP:	0.500	X:	0.000	Y:	0.000	Z:	0.000	yaw:	29.871	yaw rate:	-386.992	Roll:	-0.090	Pitch:	0.264	Yaw:	43.274	Thrust:	100.000
Time:	4.856	Roll Set Point:	0.000	Pitch Set Point:	0.000	Yaw Set Point:	-0.521	X_WP:	0.000	Y_WP:	0.000	Y_WP:	0.500	X:	0.000	Y:	0.000	Z:	0.000	yaw:	29.871	yaw rate:	-386.992	Roll:	-0.089	Pitch:	0.263	Yaw:	43.267	Thrust:	100.000
Time:	4.871	Roll Set Point:	0.000	Pitch Set Point:	0.000	Yaw Set Point:	-0.521	X_WP:	0.000	Y_WP:	0.000	Y_WP:	0.500	X:	0.000	Y:	0.000	Z:	0.000	yaw:	29.871	yaw rate:	-386.992	Roll:	-0.089	Pitch:	0.264	Yaw:	43.271	Thrust:	100.000
Time:	4.887	Roll Set Point:	0.000	Pitch Set Point:	0.000	Yaw Set Point:	-0.521	X_WP:	0.000	Y_WP:	0.000	Y_WP:	0.500	X:	0.000	Y:	0.000	Z:	0.000	yaw:	29.871	yaw rate:	-386.992	Roll:	-0.089	Pitch:	0.264	Yaw:	43.271	Thrust:	100.000
Time:	4.902	Roll Set Point:	0.000	Pitch Set Point:	0.000	Yaw Set Point:	-0.521	X_WP:	0.000	Y_WP:	0.000	Y_WP:	0.500	X:	0.000	Y:	0.000	Z:	0.000	yaw:	29.871	yaw rate:	-386.992	Roll:	-0.089	Pitch:	0.264	Yaw:	43.270	Thrust:	100.000
Time:	4.918	Roll Set Point:	0.000	Pitch Set Point:	0.000	Yaw Set Point:	-0.521	X_WP:	0.000	Y_WP:	0.000	Y_WP:	0.500	X:	0.000	Y:	0.000	Z:	0.000	yaw:	29.871	yaw rate:	-386.992	Roll:	-0.089	Pitch:	0.264	Yaw:	43.271	Thrust:	100.000
Time:	4.934	Roll Set Point:	0.000	Pitch Set Point:	0.000	Yaw Set Point:	-0.521	X_WP:	0.000	Y_WP:	0.000	Y_WP:	0.500	X:	0.000	Y:	0.000	Z:	0.000	yaw:	29.871	yaw rate:	-386.992	Roll:	-0.089	Pitch:	0.264	Yaw:	43.271	Thrust:	100.000
Time:	4.949	Roll Set Point:	0.000	Pitch Set Point:	0.000	Yaw Set Point:	-0.521	X_WP:	0.000	Y_WP:	0.000	Y_WP:	0.500	X:	0.000	Y:	0.000	Z:	0.000	yaw:	29.871	yaw rate:	-386.992	Roll:	-0.089	Pitch:	0.264	Yaw:	43.270	Thrust:	100.000
Time:	4.965	Roll Set Point:	0.000	Pitch Set Point:	0.000	Yaw Set Point:	-0.521	X_WP:	0.000	Y_WP:	0.000	Y_WP:	0.500	X:	0.000	Y:	0.000	Z:	0.000	yaw:	29.871	yaw rate:	-386.992	Roll:	-0.089	Pitch:	0.264	Yaw:	43.271	Thrust:	100.000
Time:	4.981	Roll Set Point:	0.000	Pitch Set Point:	0.000	Yaw Set Point:	-0.521	X_WP:	0.000	Y_WP:	0.000	Y_WP:	0.500	X:	0.000	Y:	0.000	Z:	0.000	yaw:	29.871	yaw rate:	-386.992	Roll:	-0.089	Pitch:	0.264	Yaw:	43.270	Thrust:	100.000
Time:	4.996	Roll Set Point:	0.000	Pitch Set Point:	0.000	Yaw Set Point:	-0.521	X_WP:	0.000	Y_WP:	0.000	Y_WP:	0.500	X:	0.000	Y:	0.000	Z:	0.000	yaw:	29.871	yaw rate:	-386.992	Roll:	-0.089	Pitch:	0.264	Yaw:	43.270	Thrust:	100.000
Time:	5.012	Roll Set Point:	0.000	Pitch Set Point:	0.000	Yaw Set Point:	-0.521	X_WP:	0.000	Y_WP:	0.000	Y_WP:	0.500	X:	0.000	Y:	0.000	Z:	0.000	yaw:	29.871	yaw rate:	-386.992	Roll:	-0.089	Pitch:	0.264	Yaw:	43.271	Thrust:	100.000
Time:	5.027	Roll Set Point:	0.000	Pitch Set Point:	0.000	Yaw Set Point:	-0.521	X_WP:	0.000	Y_WP:	0.000	Y_WP:	0.500	X:	0.000	Y:	0.000	Z:	0.000	yaw:	29.871	yaw rate:	-386.992	Roll:	-0.090	Pitch:	0.264	Yaw:	43.274	Thrust:	100.000
Time:	5.043	Roll Set Point:	0.000	Pitch Set Point:	0.000	Yaw Set Point:	-0.521	X_WP:	0.000	Y_WP:	0.000	Y_WP:	0.500	X:	0.000	Y:	0.000	Z:	0.000	yaw:	29.871	yaw rate:	-386.992	Roll:	-0.089	Pitch:	0.263	Yaw:	43.267	Thrust:	100.000
Time:	5.059	Roll Set Point:	0.000	Pitch Set Point:	0.000	Yaw Set Point:	-0.521	X_WP:	0.000	Y_WP:	0.000	Y_WP:	0.500	X:	0.000	Y:	0.000	Z:	0.000	yaw:	29.871	yaw rate:	-386.992	Roll:	-0.089	Pitch:	0.264	Yaw:	43.271	Thrust:	100.000
Time:	5.074	Roll Set Point:	0.000	Pitch Set Point:	0.000	Yaw Set Point:	-0.521	X_WP:	0.000	Y_WP:	0.000	Y_WP:	0.500	X:	0.000	Y:	0.000	Z:	0.000	yaw:	29.871	yaw rate:	-386.992	Roll:	-0.089	Pitch:	0.264	Yaw:	43.271	Thrust:	100.000
Time:	5.090	Roll Set Point:	0.000	Pitch Set Point:	0.000	Yaw Set Point:	-0.521	X_WP:	0.000	Y_WP:	0.000	Y_WP:	0.500	X:	0.000	Y:	0.000	Z:	0.000	yaw:	29.871	yaw rate:	-386.992	Roll:	-0.089	Pitch:	0.264	Yaw:	43.270	Thrust:	100.000
Time:	5.106	Roll Set Point:	0.000	Pitch Set Point:	0.000	Yaw Set Point:	-0.521	X_WP:	0.000	Y_WP:	0.000	Y_WP:	0.500	X:	0.000	Y:	0.000	Z:	0.000	yaw:	29.871	yaw rate:	-386.992	Roll:	-0.089	Pitch:	0.264	Yaw:	43.271	Thrust:	100.000
Time:	5.121	Roll Set Point:	0.000	Pitch Set Point:	0.000	Yaw Set Point:	-0.521	X_WP:	0.000	Y_WP:	0.000	Y_WP:	0.500	X:	0.000	Y:	0.000	Z:	0.000	yaw:	29.871	yaw rate:	-386.992	Roll:	-0.089	Pitch:	0.264	Yaw:	43.270	Thrust:	100.000
Time:	5.137	Roll Set Point:	0.000	Pitch Set Point:	0.000	Yaw Set Point:	-0.521	X_WP:	0.000	Y_WP:	0.000	Y_WP:	0.500	X:	0.000	Y:	0.000	Z:	0.000	yaw:	29.871	yaw rate:	-386.992	Roll:	-0.089	Pitch:	0.264	Yaw:	43.271	Thrust:	100.000
Time:	5.152	Roll Set Point:	0.000	Pitch Set Point:	0.000	Yaw Set Point:	-0.521	X_WP:	0.000	Y_WP:	0.000	Y_WP:	0.500	X:	0.000	Y:	0.000	Z:	0.000	yaw:	29.871	yaw rate:	-386.992	Roll:	-0.089	Pitch:	0.264	Yaw:	43.271	Thrust:	100.000
Time:	5.168	Roll Set Point:	0.000	Pitch Set Point:	0.000	Yaw Set Point:	-0.521	X_WP:	0.000	Y_WP:	0.000	Y_WP:	0.500	X:	0.000	Y:	0.000	Z:	0.000	yaw:	29.871	yaw rate:	-386.992	Roll:	-0.089	Pitch:	0.264	Yaw:	43.270	Thrust:	100.000
Time:	5.184	Roll Set Point:	0.000	Pitch Set Point:	0.000	Yaw Set Point:	-0.521	X_WP:	0.000	Y_WP:	0.000	Y_WP:	0.500	X:	0.000	Y:	0.000	Z:	0.000	yaw:	29.871	yaw rate:	-386.992	Roll:	-0.089	Pitch:	0.264	Yaw:	43.270	Thrust:	100.000
Time:	5.199	Roll Set Point:	0.000	Pitch Set Point:	0.000	Yaw Set Point:	-0.521	X_WP:	0.000	Y_WP:	0.000	Y_WP:	0.500	X:	0.000	Y:	0.000	Z:	0.000	yaw:	29.871	yaw rate:	-386.992	Roll:	-0.090	Pitch:	0.264	Yaw:	43.274	Thrust:	100.000
Time:	5.215	Roll Set Point:	0.000	Pitch Set Point:	0.000	Yaw Set Point:	-0.521	X_WP:	0.000	Y_WP:	0.000	Y_WP:	0.500	X:	0.000	Y:	0.000	Z:	0.000	yaw:	29.871	yaw rate:	-386.992	Roll:	-0.090	Pitch:	0.265	Yaw:	43.277	Thrust:	100.000
Time:	5.231	Roll Set Point:	0.000	Pitch Set Point:	0.000	Yaw Set Point:	-0.521	X_WP:	0.000	Y_WP:	0.000	Y_WP:	0.500	X:	0.000	Y:	0.000	Z:	0.000	yaw:	29.871	yaw rate:	-386.992	Roll:	-0.089	Pitch:	0.262	Yaw:	43.261	Thrust:	100.000
Time:	5.246	Roll Set Point:	0.000	Pitch Set Point:	0.000	Yaw Set Point:	-0.521	X_WP:	0.000	Y_WP:	0.000	Y_WP:	0.500	X:	0.000	Y:	0.000	Z:	0.000	yaw:	29.871	yaw rate:	-386.992	Roll:	-0.089	Pitch:	0.264	Yaw:	43.271	Thrust:	100.000
Time:	5.262	Roll Set Point:	0.000	Pitch Set Point:	0.000	Yaw Set Point:	-0.521	X_WP:	0.000	Y_WP:	0.000	Y_WP:	0.500	X:	0.000	Y:	0.000	Z:	0.000	yaw:	29.871	yaw rate:	-386.992	Roll:	-0.089	Pitch:	0.264	Yaw:	43.271	Thrust:	100.000
Time:	5.277	Roll Set Point:	0.000	Pitch Set Point:	0.000	Yaw Set Point:	-0.521	X_WP:	0.000	Y_WP:	0.000	Y_WP:	0.500	X:	0.000	Y:	0.000	Z:	0.000	yaw:	29.871	yaw rate:	-386.992	Roll:	-0.089	Pitch:	0.264	Yaw:	43.270	Thrust:	100.000
Time:	5.293	Roll Set Point:	0.000	Pitch Set Point:	0.000	Yaw Set Point:	-0.521	X_WP:	0.000	Y_WP:	0.000	Y_WP:	0.500	X:	0.000	Y:	0.000	Z:	0.000	yaw:	29.871	yaw rate:	-386.992	Roll:	-0.089	Pitch:	0.264	Yaw:	43.271	Thrust:	100.000
Time:	5.309	Roll Set Point:	0.000	Pitch Set Point:	0.000	Yaw Set Point:	-0.521	X_WP:	0.000	Y_WP:	0.000	Y_WP:	0.500	X:	0.000	Y:	0.000	Z:	0.000	yaw:	29.871	yaw rate:	-386.992	Roll:	-0.089	Pitch:	0.264	Yaw:	43.271	Thrust:	100.000
Time:	5.324	Roll Set Point:	0.000	Pitch Set Point:	0.000	Yaw Set Point:	-0.521	X_WP:	0.000	Y_WP:	0.000	Y_WP:	0.500	X:	0.000	Y:	0.000	Z:	0.000	yaw:	29.871	yaw rate:	-386.992	Roll:	-0.089	Pitch:	0.264	Yaw:	43.271	Thrust:	100.000
Time:	5.340	Roll Set Point:	0.000	Pitch Set Point:	0.000	Yaw Set Point:	-0.521	X_WP:	0.000	Y_WP:	0.000	Y_WP:	0.500	X:	0.000	Y:	0.000	Z:	0.000	yaw:	29.871	yaw rate:	-386.992	Roll:	-0.090	Pitch:	0.264	Yaw:	43.274	Thrust:	100.000
Time:	5.356	Roll Set Point:	0.000	Pitch Set Point:	0.000	Yaw Set Point:	-0.521	X_WP:	0.000	Y_WP:	0.000	Y_WP:	0.500	X:	0.000	Y:	0.000	Z:	0.000	yaw:	29.871	yaw rate:	-386.992	Roll:	-0.089	Pitch:	0.263	Yaw:	43.267	Thrust:	100.000
Time:	5.371	Roll Set Point:	0.000	Pitch Set Point:	0.000	Yaw Set Point:	-0.521	X_WP:	0.000	Y_WP:	0.000	Y_WP:	0.500	X:	0.000	Y:	0.000	Z:	0.000	yaw:	29.871	yaw rate:	-386.992	Roll:	-0.089	Pitch:	0.264	Yaw:	43.271	Thrust:	100.000
Time:	5.387	Roll Set Point:	0.000	Pitch Set Point:	0.000	Yaw Set Point:	-0.521	X_WP:	0.000	Y_WP:	0.000	Y_WP:	0.500	X:	0.000	Y:	0.000	Z:	0.000	yaw:	29.871	yaw rate:	-386.992	Roll:	-0.089	Pitch:	0.264	Yaw:	43.270	Thrust:	100.000
Time:	5.402	Roll Set Point:	0.000	Pitch Set Point:	0.000	Yaw Set Point:	-0.521	X_WP:	0.000	Y_WP:	0.000	Y_WP:	0.500	X:	0.000	Y:	0.000	Z:	0.000	yaw:	29.871	yaw rate:	-386.992	Roll:	-0.089	Pitch:	0.264	Yaw:	43.271	Thrust:	100.000
Time:	5.418	Roll Set Point:	0.000	Pitch Set Point:	0.000	Yaw Set Point:	-0.521	X_WP:	0.000	Y_WP:	0.000	Y_WP:	0.500	X:	0.000	Y:	0.000	Z:	0.000	yaw:	29.871	yaw rate:	-386.992	Roll:	-0.089	Pitch:	0.264	Yaw:	43.271	Thrust:	100.000
Time:	5.434	Roll Set Point:	0.000	Pitch Set Point:	0.000	Yaw Set Point:	-0.521	X_WP:	0.000	Y_WP:	0.000	Y_WP:	0.500	X:	0.000	Y:	0.000	Z:	0.000	yaw:	29.871	yaw rate:	-386.992	Roll:	-0.089	Pitch:	0.264	Yaw:	43.271	Thrust:	100.000
Time:	5.449	Roll Set Point:	0.000	Pitch Set Point:	0.000	Yaw Set Point:	-0.521	X_WP:	0.000	Y_WP:	0.000	Y_WP:	0.500	X:	0.000	Y:	0.000	Z:	0.000	yaw:	29.871	yaw rate:	-386.992	Roll:	-0.089	Pitch:	0.264	Yaw:	43.271	Thrust:	100.000
Time:	5.465	Roll Set Point:	0.000	Pitch Set Point:	0.000	Yaw Set Point:	-0.521	X_WP:	0.000	Y_WP:	0.000	Y_WP:	0.500	X:	0.000	Y:	0.000	Z:	0.000	yaw:	29.871	yaw rate:	-386.992	Roll:	-0.089	Pitch:	0.264	Yaw:	43.271	Thrust:	100.000
Time:	5.481	Roll Set Point:	0.000	Pitch Set Point:	0.000	Yaw Set Point:	-0.521	X_WP:	0.000	Y_WP:	0.000	Y_WP:	0.500	X:	0.000	Y:	0.000	Z:	0.000	yaw:	29.871	yaw rate:	-386.992	Roll:	-0.089	Pitch:	0.264	Yaw:	43.271	Thrust:	100.000
Time:	5.496	Roll Set Point:	0.000	Pitch Set Point:	0.000	Yaw Set Point:	-0.521	X_WP:	0.000	Y_WP:	0.000	Y_WP:	0.500	X:	0.000	Y:	0.000	Z:	0.000	yaw:	29.871	yaw rate:	-386.992	Roll:	-0.089	Pitch:	0.264	Yaw:	43.271	Thrust:	100.000
Time:	5.512	Roll Set Point:	0.000	Pitch Set Point:	0.000	Yaw Set Point:	-0.521	X_WP:	0.000	Y_WP:	0.000	Y_WP:	0.500	X:	0.000	Y:	0.000	Z:	0.000	yaw:	29.871	yaw rate:	-386.992	Roll:	-0.089	Pitch:	0.264	Yaw:	43.271	Thrust:	100.000
Time:	5.528	Roll Set Point:	0.000	Pitch Set Point:	0.000	Yaw Set Point:	-0.521	X_WP:	0.000	Y_WP:	0.000	Y_WP:	0.500	X:	0.000	Y:	0.000	Z:	0.000	yaw:	29.871	yaw rate:	-386.992	Roll:	-0.089	Pitch:	0.264	Yaw:	43.271	Thrust:	100.000
Time:	5.543	Roll Set Point:	0.000	Pitch Set Point:	0.000	Yaw Set Point:	-0.521	X_WP:	0.000	Y_WP:	0.000	Y_WP:	0.500	X:	0.000	Y:	0.000	Z:	0.000	yaw:	29.871	yaw rate:	-386.992	Roll:	-0.089	Pitch:	0.264	Yaw:	43.271	Thrust:	100.000
Time:	5.559	Roll Set Point:	0.000	Pitch Set Point:	0.000	Yaw Set Point:	-0.521	X_WP:	0.000	Y_WP:	0.000	Y_WP:	0.500	X:	0.000	Y:	0.000	Z:	0.000	yaw:	29.871	yaw rate:	-386.992	Roll:	-0.090	Pitch:	0.264	Yaw:	43.274	Thrust:	100.000
Time:	5.574	Roll Set Point:	0.000	Pitch Set Point:	0.000	Yaw Set Point:	-0.521	X_WP:	0.000	Y_WP:	0.000	Y_WP:	0.500	X:	0.000	Y:	0.000	Z:	0.000	yaw:	29.871	yaw rate:	-386.992	Roll:	-0.089	Pitch:	0.263	Yaw:	43.268	Thrust:	100.000
Time:	5.590	Roll Set Point:	0.000	Pitch Set Point:	0.000	Yaw Set Point:	-0.521	X_WP:	0.000	Y_WP:	0.000	Y_WP:	0.500	X:	0.000	Y:	0.000	Z:	0.000	yaw:	29.871	yaw rate:	-386.992	Roll:	-0.090	Pitch:	0.265	Yaw:	43.276	Thrust:	100.000
Time:	5.606	Roll Set Point:	0.000	Pitch Set Point:	0.000	Yaw Set Point:	-0.521	X_WP:	0.000	Y_WP:	0.000	Y_WP:	0.500	X:	0.000	Y:	0.000	Z:	0.000	yaw:	29.871	yaw rate:	-386.992	Roll:	-0.089	Pitch:	0.263	Yaw:	43.265	Thrust:	100.000
Time:	5.621	Roll Set Point:	0.000	Pitch Set Point:	0.000	Yaw Set Point:	-0.521	X_WP:	0.000	Y_WP:	0.000	Y_WP:	0.500	X:	0.000	Y:	0.000	Z:	0.000	yaw:	29.871	yaw rate:	-386.992	Roll:	-0.089	Pitch:	0.264	Yaw:	43.271	Thrust:	100.000
Time:	5.637	Roll Set Point:	0.000	Pitch Set Point:	0.000	Yaw Set Point:	-0.521	X_WP:	0.000	Y_WP:	0.000	Y_WP:	0.500	X:	0.000	Y:	0.000	Z:	0.000	yaw:	29.871	yaw rate:	-386.992	Roll:	-0.091	Pitch:	0.269	Yaw:	43.301	Thrust:	100.000
Time:	5.653	Roll Set Point:	0.000	Pitch Set Point:	0.000	Yaw Set Point:	-0.521	X_WP:	0.000	Y_WP:	0.000	Y_WP:	0.500	X:	0.000	Y:	0.000	Z:	0.000	yaw:	29.871	yaw rate:	-386.992	Roll:	-0.092	Pitch:	0.271	Yaw:	43.312	Thrust:	100.000
Time:	5.668	Roll Set Point:	0.000	Pitch Set Point:	0.000	Yaw Set Point:	-0.521	X_WP:	0.000	Y_WP:	0.000	Y_WP:	0.500	X:	0.000	Y:	0.000	Z:	0.000	yaw:	29.871	yaw rate:	-386.992	Roll:	-0.086	Pitch:	0.254	Yaw:	43.212	Thrust:	100.000
Time:	5.685	Roll Set Point:	0.000	Pitch Set Point:	0.000	Yaw Set Point:	-0.521	X_WP:	0.000	Y_WP:	0.000	Y_WP:	0.500	X:	0.000	Y:	0.000	Z:	0.000	yaw:	29.871	yaw rate:	-386.992	Roll:	-0.096	Pitch:	0.282	Yaw:	43.378	Thrust:	100.000
Time:	5.701	Roll Set Point:	0.000	Pitch Set Point:	0.000	Yaw Set Point:	-0.521	X_WP:	0.000	Y_WP:	0.000	Y_WP:	0.500	X:	0.000	Y:	0.000	Z:	0.000	yaw:	29.871	yaw rate:	-386.992	Roll:	-0.089	Pitch:	0.264	Yaw:	43.270	Thrust:	100.000
Time:	5.716	Roll Set Point:	0.000	Pitch Set Point:	0.000	Yaw Set Point:	-0.521	X_WP:	0.000	Y_WP:	0.000	Y_WP:	0.500	X:	0.000	Y:	0.000	Z:	0.000	yaw:	29.871	yaw rate:	-386.992	Roll:	-0.089	Pitch:	0.263	Yaw:	43.268	Thrust:	100.000
Time:	5.732	Roll Set Point:	0.000	Pitch Set Point:	0.000	Yaw Set Point:	-0.521	X_WP:	0.000	Y_WP:	0.000	Y_WP:	0.500	X:	0.000	Y:	0.000	Z:	0.000	yaw:	29.871	yaw rate:	-386.992	Roll:	-0.090	Pitch:	0.267	Yaw:	43.289	Thrust:	100.000
Time:	5.749	Roll Set Point:	0.000	Pitch Set Point:	0.000	Yaw Set Point:	-0.521	X_WP:	0.000	Y_WP:	0.000	Y_WP:	0.500	X:	0.000	Y:	0.000	Z:	0.000	yaw:	29.871	yaw rate:	-386.992	Roll:	-0.095	Pitch:	0.282	Yaw:	43.377	Thrust:	100.000
Time:	5.764	Roll Set Point:	0.000	Pitch Set Point:	0.000	Yaw Set Point:	-0.521	X_WP:	0.000	Y_WP:	0.000	Y_WP:	0.500	X:	0.000	Y:	0.000	Z:	0.000	yaw:	29.871	yaw rate:	-386.992	Roll:	-0.089	Pitch:	0.264	Yaw:	43.270	Thrust:	100.000
Time:	5.780	Roll Set Point:	0.000	Pitch Set Point:	0.000	Yaw Set Point:	-0.521	X_WP:	0.000	Y_WP:	0.000	Y_WP:	0.500	X:	0.000	Y:	0.000	Z:	0.000	yaw:	29.871	yaw rate:	-386.992	Roll:	-0.089	Pitch:	0.264	Yaw:	43.270	Thrust:	100.000
Time:	5.796	Roll Set Point:	0.000	Pitch Set Point:	0.000	Yaw Set Point:	-0.521	X_WP:	0.000	Y_WP:	0.000	Y_WP:	0.500	X:	0.000	Y:	0.000	Z:	0.000	yaw:	29.871	yaw rate:	-386.992	Roll:	-0.089	Pitch:	0.264	Yaw:	43.271	Thrust:	100.000
Time:	5.811	Roll Set Point:	0.000	Pitch Set Point:	0.000	Yaw Set Point:	-0.521	X_WP:	0.000	Y_WP:	0.000	Y_WP:	0.500	X:	0.000	Y:	0.000	Z:	0.000	yaw:	29.871	yaw rate:	-386.992	Roll:	-0.089	Pitch:	0.264	Yaw:	43.271	Thrust:	100.000
Time:	5.827	Roll Set Point:	0.000	Pitch Set Point:	0.000	Yaw Set Point:	-0.521	X_WP:	0.000	Y_WP:	0.000	Y_WP:	0.500	X:	0.000	Y:	0.000	Z:	0.000	yaw:	29.871	yaw rate:	-386.992	Roll:	-0.089	Pitch:	0.264	Yaw:	43.271	Thrust:	100.000
Time:	5.842	Roll Set Point:	0.000	Pitch Set Point:	0.000	Yaw Set Point:	-0.521	X_WP:	0.000	Y_WP:	0.000	Y_WP:	0.500	X:	0.000	Y:	0.000	Z:	0.000	yaw:	29.871	yaw rate:	-386.992	Roll:	-0.089	Pitch:	0.264	Yaw:	43.270	Thrust:	100.000
Time:	5.858	Roll Set Point:	0.000	Pitch Set Point:	0.000	Yaw Set Point:	-0.521	X_WP:	0.000	Y_WP:	0.000	Y_WP:	0.500	X:	0.000	Y:	0.000	Z:	0.000	yaw:	29.871	yaw rate:	-386.992	Roll:	-0.089	Pitch:	0.264	Yaw:	43.271	Thrust:	100.000
Time:	5.874	Roll Set Point:	0.000	Pitch Set Point:	0.000	Yaw Set Point:	-0.521	X_WP:	0.000	Y_WP:	0.000	Y_WP:	0.500	X:	0.000	Y:	0.000	Z:	0.000	yaw:	29.871	yaw rate:	-386.992	Roll:	-0.089	Pitch:	0.264	Yaw:	43.270	Thrust:	100.000
Time:	5.889	Roll Set Point:	0.000	Pitch Set Point:	0.000	Yaw Set Point:	-0.521	X_WP:	0.000	Y_WP:	0.000	Y_WP:	0.500	X:	0.000	Y:	0.000	Z:	0.000	yaw:	29.871	yaw rate:	-386.992	Roll:	-0.089	Pitch:	0.264	Yaw:	43.271	Thrust:	100.000
Time:	5.905	Roll Set Point:	0.000	Pitch Set Point:	0.000	Yaw Set Point:	-0.521	X_WP:	0.000	Y_WP:	0.000	Y_WP:	0.500	X:	0.000	Y:	0.000	Z:	0.000	yaw:	29.871	yaw rate:	-386.992	Roll:	-0.089	Pitch:	0.264	Yaw:	43.271	Thrust:	100.000
Time:	5.921	Roll Set Point:	0.000	Pitch Set Point:	0.000	Yaw Set Point:	-0.521	X_WP:	0.000	Y_WP:	0.000	Y_WP:	0.500	X:	0.000	Y:	0.000	Z:	0.000	yaw:	29.871	yaw rate:	-386.992	Roll:	-0.089	Pitch:	0.264	Yaw:	43.271	Thrust:	100.000
Time:	5.936	Roll Set Point:	0.000	Pitch Set Point:	0.000	Yaw Set Point:	-0.521	X_WP:	0.000	Y_WP:	0.000	Y_WP:	0.500	X:	0.000	Y:	0.000	Z:	0.000	yaw:	29.871	yaw rate:	-386.992	Roll:	-0.089	Pitch:	0.264	Yaw:	43.271	Thrust:	100.000
Time:	5.952	Roll Set Point:	0.000	Pitch Set Point:	0.000	Yaw Set Point:	-0.521	X_WP:	0.000	Y_WP:	0.000	Y_WP:	0.500	X:	0.000	Y:	0.000	Z:	0.000	yaw:	29.871	yaw rate:	-386.992	Roll:	-0.090	Pitch:	0.264	Yaw:	43.274	Thrust:	100.000
Time:	5.967	Roll Set Point:	0.000	Pitch Set Point:	0.000	Yaw Set Point:	-0.521	X_WP:	0.000	Y_WP:	0.000	Y_WP:	0.500	X:	0.000	Y:	0.000	Z:	0.000	yaw:	29.871	yaw rate:	-386.992	Roll:	-0.089	Pitch:	0.264	Yaw:	43.271	Thrust:	100.000
Time:	5.983	Roll Set Point:	0.000	Pitch Set Point:	0.000	Yaw Set Point:	-0.521	X_WP:	0.000	Y_WP:	0.000	Y_WP:	0.500	X:	0.000	Y:	0.000	Z:	0.000	yaw:	29.871	yaw rate:	-386.992	Roll:	-0.089	Pitch:	0.263	Yaw:	43.268	Thrust:	100.000
Time:	5.999	Roll Set Point:	0.000	Pitch Set Point:	0.000	Yaw Set Point:	-0.521	X_WP:	0.000	Y_WP:	0.000	Y_WP:	0.500	X:	0.000	Y:	0.000	Z:	0.000	yaw:	29.871	yaw rate:	-386.992	Roll:	-0.090	Pitch:	0.264	Yaw:	43.273	Thrust:	100.000
Time:	6.014	Roll Set Point:	nan	Pitch Set Point:	nan	Yaw Set Point:	-0.521	X_WP:	nan	Y_WP:	nan	Y_WP:	0.500	X:	0.000	Y:	0.000	Z:	0.000	yaw:	29.871	yaw rate:	-386.992	Roll:	nan	Pitch:	nan	Yaw:	43.273	Thrust:	100.000
Time:	6.030	Roll Set Point:	nan	Pitch Set Point:	nan	Yaw Set Point:	-0.521	X_WP:	nan	Y_WP:	nan	Y_WP:	0.500	X:	0.000	Y:	0.000	Z:	0.000	yaw:	29.871	yaw rate:	-386.992	Roll:	nan	Pitch:	nan	Yaw:	43.265	Thrust:	100.000
Time:	6.046	Roll Set Point:	nan	Pitch Set Point:	nan	Yaw Set Point:	-0.521	X_WP:	nan	Y_WP:	nan	Y_WP:	0.500	X:	0.000	Y:	0.000	Z:	0.000	yaw:	29.871	yaw rate:	-386.992	Roll:	nan	Pitch:	nan	Yaw:	43.271	Thrust:	100.000
Time:	6.061	Roll Set Point:	nan	Pitch Set Point:	nan	Yaw Set Point:	-0.521	X_WP:	nan	Y_WP:	nan	Y_WP:	0.500	X:	0.000	Y:	0.000	Z:	0.000	yaw:	29.871	yaw rate:	-386.992	Roll:	nan	Pitch:	nan	Yaw:	43.274	Thrust:	100.000
Time:	6.077	Roll Set Point:	nan	Pitch Set Point:	nan	Yaw Set Point:	-0.521	X_WP:	nan	Y_WP:	nan	Y_WP:	0.500	X:	0.000	Y:	0.000	Z:	0.000	yaw:	29.871	yaw rate:	-386.992	Roll:	nan	Pitch:	nan	Yaw:	43.267	Thrust:	100.000
Time:	6.092	Roll Set Point:	nan	Pitch Set Point:	nan	Yaw Set Point:	-0.521	X_WP:	nan	Y_WP:	nan	Y_WP:	0.500	X:	0.000	Y:	0.000	Z:	0.000	yaw:	29.871	yaw rate:	-386.992	Roll:	nan	Pitch:	nan	Yaw:	43.271	Thrust:	100.000
Time:	6.108	Roll Set Point:	nan	Pitch Set Point:	nan	Yaw Set Point:	-0.521	X_WP:	nan	Y_WP:	nan	Y_WP:	0.500	X:	0.000	Y:	0.000	Z:	0.000	yaw:	29.871	yaw rate:	-386.992	Roll:	nan	Pitch:	nan	Yaw:	43.274	Thrust:	100.000
Time:	6.124	Roll Set Point:	nan	Pitch Set Point:	nan	Yaw Set Point:	-0.521	X_WP:	nan	Y_WP:	nan	Y_WP:	0.500	X:	0.000	Y:	0.000	Z:	0.000	yaw:	29.871	yaw rate:	-386.992	Roll:	nan	Pitch:	nan	Yaw:	43.267	Thrust:	100.000
Time:	6.139	Roll Set Point:	nan	Pitch Set Point:	nan	Yaw Set Point:	-0.521	X_WP:	nan	Y_WP:	nan	Y_WP:	0.500	X:	0.000	Y:	0.000	Z:	0.000	yaw:	29.871	yaw rate:	-386.992	Roll:	nan	Pitch:	nan	Yaw:	43.270	Thrust:	100.000
Time:	6.155	Roll Set Point:	nan	Pitch Set Point:	nan	Yaw Set Point:	-0.521	X_WP:	nan	Y_WP:	nan	Y_WP:	0.500	X:	0.000	Y:	0.000	Z:	0.000	yaw:	29.871	yaw rate:	-386.992	Roll:	nan	Pitch:	nan	Yaw:	43.274	Thrust:	100.000
Time:	6.171	Roll Set Point:	nan	Pitch Set Point:	nan	Yaw Set Point:	-0.521	X_WP:	nan	Y_WP:	nan	Y_WP:	0.500	X:	0.000	Y:	0.000	Z:	0.000	yaw:	29.871	yaw rate:	-386.992	Roll:	nan	Pitch:	nan	Yaw:	43.270	Thrust:	100.000
Time:	6.186	Roll Set Point:	nan	Pitch Set Point:	nan	Yaw Set Point:	-0.521	X_WP:	nan	Y_WP:	nan	Y_WP:	0.500	X:	0.000	Y:	0.000	Z:	0.000	yaw:	29.871	yaw rate:	-386.992	Roll:	nan	Pitch:	nan	Yaw:	43.268	Thrust:	100.000
Time:	6.202	Roll Set Point:	nan	Pitch Set Point:	nan	Yaw Set Point:	-0.521	X_WP:	nan	Y_WP:	nan	Y_WP:	0.500	X:	0.000	Y:	0.000	Z:	0.000	yaw:	29.871	yaw rate:	-386.992	Roll:	nan	Pitch:	nan	Yaw:	43.271	Thrust:	100.000
Time:	6.217	Roll Set Point:	nan	Pitch Set Point:	nan	Yaw Set Point:	-0.521	X_WP:	nan	Y_WP:	nan	Y_WP:	0.500	X:	0.000	Y:	0.000	Z:	0.000	yaw:	29.871	yaw rate:	-386.992	Roll:	nan	Pitch:	nan	Yaw:	43.271	Thrust:	100.000
Time:	6.233	Roll Set Point:	nan	Pitch Set Point:	nan	Yaw Set Point:	-0.521	X_WP:	nan	Y_WP:	nan	Y_WP:	0.500	X:	0.000	Y:	0.000	Z:	0.000	yaw:	29.871	yaw rate:	-386.992	Roll:	nan	Pitch:	nan	Yaw:	43.271	Thrust:	100.000
Time:	6.249	Roll Set Point:	nan	Pitch Set Point:	nan	Yaw Set Point:	-0.521	X_WP:	nan	Y_WP:	nan	Y_WP:	0.500	X:	0.000	Y:	0.000	Z:	0.000	yaw:	29.871	yaw rate:	-386.992	Roll:	nan	Pitch:	nan	Yaw:	43.271	Thrust:	100.000
Time:	6.264	Roll Set Point:	nan	Pitch Set Point:	nan	Yaw Set Point:	-0.521	X_WP:	nan	Y_WP:	nan	Y_WP:	0.500	X:	0.000	Y:	0.000	Z:	0.000	yaw:	29.871	yaw rate:	-386.992	Roll:	nan	Pitch:	nan	Yaw:	43.271	Thrust:	100.000
