Time:	2.057	Roll Set Point:	0.010	Pitch Set Point:	-0.022	Yaw Set Point:	-0.072	X_WP:	0.000	Y_WP:	0.000	Y_WP:	0.500	X:	-0.005	Y:	0.011	Z:	0.050	yaw:	4.153	yaw rate:	0.170	Roll:	-0.132	Pitch:	0.330	Yaw:	5.799	Thrust:	24.774
Time:	2.068	Roll Set Point:	0.010	Pitch Set Point:	-0.022	Yaw Set Point:	-0.072	X_WP:	0.000	Y_WP:	0.000	Y_WP:	0.500	X:	-0.005	Y:	0.011	Z:	0.050	yaw:	4.123	yaw rate:	-3.029	Roll:	-0.178	Pitch:	0.318	Yaw:	5.054	Thrust:	25.477
Time:	2.079	Roll Set Point:	0.010	Pitch Set Point:	-0.022	Yaw Set Point:	-0.073	X_WP:	0.000	Y_WP:	0.000	Y_WP:	0.500	X:	-0.005	Y:	0.011	Z:	0.050	yaw:	4.162	yaw rate:	3.876	Roll:	-0.108	Pitch:	0.358	Yaw:	6.753	Thrust:	25.741
Time:	2.090	Roll Set Point:	0.010	Pitch Set Point:	-0.022	Yaw Set Point:	-0.068	X_WP:	0.000	Y_WP:	0.000	Y_WP:	0.500	X:	-0.006	Y:	0.011	Z:	0.050	yaw:	3.879	yaw rate:	-28.241	Roll:	-0.462	Pitch:	0.186	Yaw:	-1.306	Thrust:	26.890
Time:	2.101	Roll Set Point:	0.010	Pitch Set Point:	-0.022	Yaw Set Point:	-0.069	X_WP:	0.000	Y_WP:	0.000	Y_WP:	0.500	X:	-0.005	Y:	0.011	Z:	0.050	yaw:	3.928	yaw rate:	4.860	Roll:	0.070	Pitch:	0.493	Yaw:	6.699	Thrust:	25.086
Time:	2.112	Roll Set Point:	0.010	Pitch Set Point:	-0.022	Yaw Set Point:	-0.070	X_WP:	0.000	Y_WP:	0.000	Y_WP:	0.500	X:	-0.005	Y:	0.011	Z:	0.050	yaw:	3.984	yaw rate:	5.587	Roll:	-0.238	Pitch:	0.303	Yaw:	6.969	Thrust:	28.216
Time:	2.123	Roll Set Point:	0.010	Pitch Set Point:	-0.022	Yaw Set Point:	-0.071	X_WP:	0.000	Y_WP:	0.000	Y_WP:	0.500	X:	-0.006	Y:	0.011	Z:	0.050	yaw:	4.063	yaw rate:	7.934	Roll:	-0.274	Pitch:	0.366	Yaw:	7.650	Thrust:	28.528
Time:	2.134	Roll Set Point:	0.010	Pitch Set Point:	-0.022	Yaw Set Point:	-0.070	X_WP:	0.000	Y_WP:	0.000	Y_WP:	0.500	X:	-0.005	Y:	0.011	Z:	0.050	yaw:	4.034	yaw rate:	-2.938	Roll:	0.119	Pitch:	0.364	Yaw:	5.045	Thrust:	28.754
Time:	2.145	Roll Set Point:	0.010	Pitch Set Point:	-0.023	Yaw Set Point:	-0.072	X_WP:	0.000	Y_WP:	0.000	Y_WP:	0.500	X:	-0.005	Y:	0.011	Z:	0.050	yaw:	4.123	yaw rate:	8.916	Roll:	-0.124	Pitch:	0.378	Yaw:	7.997	Thrust:	30.450
Time:	2.156	Roll Set Point:	0.010	Pitch Set Point:	-0.022	Yaw Set Point:	-0.069	X_WP:	0.000	Y_WP:	0.000	Y_WP:	0.500	X:	-0.005	Y:	0.011	Z:	0.050	yaw:	3.982	yaw rate:	-14.139	Roll:	-0.156	Pitch:	0.240	Yaw:	2.337	Thrust:	29.187
Time:	2.167	Roll Set Point:	0.010	Pitch Set Point:	-0.022	Yaw Set Point:	-0.069	X_WP:	0.000	Y_WP:	0.000	Y_WP:	0.500	X:	-0.006	Y:	0.011	Z:	0.050	yaw:	3.957	yaw rate:	-2.496	Roll:	-0.418	Pitch:	0.356	Yaw:	5.088	Thrust:	31.099
Time:	2.178	Roll Set Point:	0.010	Pitch Set Point:	-0.022	Yaw Set Point:	-0.074	X_WP:	0.000	Y_WP:	0.000	Y_WP:	0.500	X:	-0.006	Y:	0.011	Z:	0.050	yaw:	4.217	yaw rate:	26.018	Roll:	0.008	Pitch:	0.383	Yaw:	12.235	Thrust:	31.654
Time:	2.189	Roll Set Point:	0.010	Pitch Set Point:	-0.022	Yaw Set Point:	-0.068	X_WP:	0.000	Y_WP:	0.000	Y_WP:	0.500	X:	-0.005	Y:	0.011	Z:	0.050	yaw:	3.885	yaw rate:	-33.213	Roll:	0.129	Pitch:	0.180	Yaw:	-2.252	Thrust:	32.152
Time:	2.200	Roll Set Point:	0.010	Pitch Set Point:	-0.022	Yaw Set Point:	-0.070	X_WP:	0.000	Y_WP:	0.000	Y_WP:	0.500	X:	-0.005	Y:	0.011	Z:	0.050	yaw:	3.988	yaw rate:	10.349	Roll:	-0.237	Pitch:	0.272	Yaw:	8.233	Thrust:	31.371
Time:	2.211	Roll Set Point:	0.010	Pitch Set Point:	-0.022	Yaw Set Point:	-0.072	X_WP:	0.000	Y_WP:	0.000	Y_WP:	0.500	X:	-0.006	Y:	0.011	Z:	0.050	yaw:	4.134	yaw rate:	14.548	Roll:	-0.279	Pitch:	0.479	Yaw:	9.442	Thrust:	33.170
Time:	2.222	Roll Set Point:	0.010	Pitch Set Point:	-0.023	Yaw Set Point:	-0.082	X_WP:	0.000	Y_WP:	0.000	Y_WP:	0.500	X:	-0.005	Y:	0.011	Z:	0.050	yaw:	4.687	yaw rate:	55.379	Roll:	0.343	Pitch:	0.677	Yaw:	19.924	Thrust:	34.404
Time:	2.236	Roll Set Point:	0.010	Pitch Set Point:	-0.023	Yaw Set Point:	-0.070	X_WP:	0.000	Y_WP:	0.000	Y_WP:	0.500	X:	-0.006	Y:	0.011	Z:	0.050	yaw:	4.004	yaw rate:	-68.375	Roll:	-0.564	Pitch:	0.159	Yaw:	-6.824	Thrust:	36.105
Time:	2.247	Roll Set Point:	0.010	Pitch Set Point:	-0.023	Yaw Set Point:	-0.080	X_WP:	0.000	Y_WP:	0.000	Y_WP:	0.500	X:	-0.005	Y:	0.011	Z:	0.050	yaw:	4.563	yaw rate:	55.952	Roll:	0.345	Pitch:	0.577	Yaw:	19.915	Thrust:	35.704
Time:	2.258	Roll Set Point:	0.010	Pitch Set Point:	-0.023	Yaw Set Point:	-0.076	X_WP:	0.000	Y_WP:	0.000	Y_WP:	0.500	X:	-0.005	Y:	0.011	Z:	0.050	yaw:	4.375	yaw rate:	-18.820	Roll:	-0.137	Pitch:	0.395	Yaw:	1.916	Thrust:	34.701
Time:	2.269	Roll Set Point:	0.010	Pitch Set Point:	-0.023	Yaw Set Point:	-0.078	X_WP:	0.000	Y_WP:	0.000	Y_WP:	0.500	X:	-0.005	Y:	0.011	Z:	0.050	yaw:	4.455	yaw rate:	8.021	Roll:	-0.143	Pitch:	0.267	Yaw:	8.426	Thrust:	37.143
Time:	2.280	Roll Set Point:	0.010	Pitch Set Point:	-0.022	Yaw Set Point:	-0.071	X_WP:	0.000	Y_WP:	0.000	Y_WP:	0.500	X:	-0.005	Y:	0.011	Z:	0.050	yaw:	4.075	yaw rate:	-38.072	Roll:	-0.262	Pitch:	0.029	Yaw:	-3.012	Thrust:	36.651
Time:	2.291	Roll Set Point:	0.010	Pitch Set Point:	-0.022	Yaw Set Point:	-0.071	X_WP:	0.000	Y_WP:	0.000	Y_WP:	0.500	X:	-0.005	Y:	0.011	Z:	0.050	yaw:	4.090	yaw rate:	1.512	Roll:	-0.337	Pitch:	0.381	Yaw:	6.403	Thrust:	37.195
Time:	2.302	Roll Set Point:	0.010	Pitch Set Point:	-0.022	Yaw Set Point:	-0.073	X_WP:	0.000	Y_WP:	0.000	Y_WP:	0.500	X:	-0.005	Y:	0.011	Z:	0.050	yaw:	4.175	yaw rate:	8.530	Roll:	-0.067	Pitch:	0.204	Yaw:	8.204	Thrust:	37.436
Time:	2.314	Roll Set Point:	0.010	Pitch Set Point:	-0.022	Yaw Set Point:	-0.072	X_WP:	0.000	Y_WP:	0.000	Y_WP:	0.500	X:	-0.005	Y:	0.011	Z:	0.050	yaw:	4.110	yaw rate:	-6.447	Roll:	-0.244	Pitch:	0.389	Yaw:	4.575	Thrust:	38.318
Time:	2.325	Roll Set Point:	0.010	Pitch Set Point:	-0.023	Yaw Set Point:	-0.079	X_WP:	0.000	Y_WP:	0.000	Y_WP:	0.500	X:	-0.005	Y:	0.011	Z:	0.050	yaw:	4.549	yaw rate:	43.885	Roll:	0.124	Pitch:	0.602	Yaw:	17.151	Thrust:	38.856
Time:	2.336	Roll Set Point:	0.010	Pitch Set Point:	-0.022	Yaw Set Point:	-0.066	X_WP:	0.000	Y_WP:	0.000	Y_WP:	0.500	X:	-0.006	Y:	0.011	Z:	0.050	yaw:	3.789	yaw rate:	-76.078	Roll:	-0.625	Pitch:	-0.141	Yaw:	-12.325	Thrust:	40.872
Time:	2.347	Roll Set Point:	0.010	Pitch Set Point:	-0.022	Yaw Set Point:	-0.068	X_WP:	0.000	Y_WP:	0.000	Y_WP:	0.500	X:	-0.005	Y:	0.011	Z:	0.050	yaw:	3.911	yaw rate:	12.245	Roll:	0.119	Pitch:	0.628	Yaw:	8.787	Thrust:	38.650
Time:	2.358	Roll Set Point:	0.010	Pitch Set Point:	-0.023	Yaw Set Point:	-0.068	X_WP:	0.000	Y_WP:	0.000	Y_WP:	0.500	X:	-0.005	Y:	0.011	Z:	0.050	yaw:	3.908	yaw rate:	-0.323	Roll:	-0.044	Pitch:	0.452	Yaw:	5.808	Thrust:	41.754
Time:	2.369	Roll Set Point:	0.010	Pitch Set Point:	-0.023	Yaw Set Point:	-0.084	X_WP:	0.000	Y_WP:	0.000	Y_WP:	0.500	X:	-0.005	Y:	0.011	Z:	0.050	yaw:	4.792	yaw rate:	88.458	Roll:	0.327	Pitch:	0.552	Yaw:	28.131	Thrust:	42.085
Time:	2.380	Roll Set Point:	0.010	Pitch Set Point:	-0.022	Yaw Set Point:	-0.066	X_WP:	0.000	Y_WP:	0.000	Y_WP:	0.500	X:	-0.005	Y:	0.011	Z:	0.050	yaw:	3.786	yaw rate:	-100.652	Roll:	-0.732	Pitch:	-0.180	Yaw:	-18.143	Thrust:	41.824
Time:	2.391	Roll Set Point:	0.010	Pitch Set Point:	-0.022	Yaw Set Point:	-0.073	X_WP:	0.000	Y_WP:	0.000	Y_WP:	0.500	X:	-0.005	Y:	0.011	Z:	0.050	yaw:	4.190	yaw rate:	40.467	Roll:	0.234	Pitch:	0.498	Yaw:	15.934	Thrust:	42.196
Time:	2.402	Roll Set Point:	0.010	Pitch Set Point:	-0.022	Yaw Set Point:	-0.073	X_WP:	0.000	Y_WP:	0.000	Y_WP:	0.500	X:	-0.005	Y:	0.011	Z:	0.050	yaw:	4.172	yaw rate:	-1.856	Roll:	-0.424	Pitch:	0.303	Yaw:	5.878	Thrust:	42.964
Time:	2.413	Roll Set Point:	0.010	Pitch Set Point:	-0.023	Yaw Set Point:	-0.075	X_WP:	0.000	Y_WP:	0.000	Y_WP:	0.500	X:	-0.005	Y:	0.011	Z:	0.050	yaw:	4.304	yaw rate:	13.188	Roll:	-0.039	Pitch:	0.499	Yaw:	9.645	Thrust:	44.007
Time:	2.424	Roll Set Point:	0.010	Pitch Set Point:	-0.023	Yaw Set Point:	-0.080	X_WP:	0.000	Y_WP:	0.000	Y_WP:	0.500	X:	-0.005	Y:	0.011	Z:	0.050	yaw:	4.569	yaw rate:	26.513	Roll:	0.222	Pitch:	0.516	Yaw:	13.195	Thrust:	44.137
Time:	2.435	Roll Set Point:	0.010	Pitch Set Point:	-0.023	Yaw Set Point:	-0.077	X_WP:	0.000	Y_WP:	0.000	Y_WP:	0.500	X:	-0.005	Y:	0.011	Z:	0.050	yaw:	4.424	yaw rate:	-14.500	Roll:	-0.215	Pitch:	0.298	Yaw:	3.268	Thrust:	45.160
Time:	2.446	Roll Set Point:	0.010	Pitch Set Point:	-0.023	Yaw Set Point:	-0.075	X_WP:	0.000	Y_WP:	0.000	Y_WP:	0.500	X:	-0.005	Y:	0.011	Z:	0.050	yaw:	4.281	yaw rate:	-14.326	Roll:	-0.234	Pitch:	0.220	Yaw:	3.143	Thrust:	46.517
Time:	2.457	Roll Set Point:	0.010	Pitch Set Point:	-0.022	Yaw Set Point:	-0.072	X_WP:	0.000	Y_WP:	0.000	Y_WP:	0.500	X:	-0.005	Y:	0.011	Z:	0.050	yaw:	4.149	yaw rate:	-13.168	Roll:	-0.366	Pitch:	0.101	Yaw:	3.244	Thrust:	45.445
Time:	2.468	Roll Set Point:	0.010	Pitch Set Point:	-0.022	Yaw Set Point:	-0.074	X_WP:	0.000	Y_WP:	0.000	Y_WP:	0.500	X:	-0.005	Y:	0.011	Z:	0.050	yaw:	4.245	yaw rate:	9.583	Roll:	0.121	Pitch:	0.259	Yaw:	8.793	Thrust:	46.723
Time:	2.479	Roll Set Point:	0.010	Pitch Set Point:	-0.022	Yaw Set Point:	-0.076	X_WP:	0.000	Y_WP:	0.000	Y_WP:	0.500	X:	-0.005	Y:	0.011	Z:	0.050	yaw:	4.361	yaw rate:	11.589	Roll:	-0.136	Pitch:	0.329	Yaw:	9.451	Thrust:	47.167
Time:	2.490	Roll Set Point:	0.009	Pitch Set Point:	-0.023	Yaw Set Point:	-0.084	X_WP:	0.000	Y_WP:	0.000	Y_WP:	0.500	X:	-0.005	Y:	0.011	Z:	0.050	yaw:	4.802	yaw rate:	44.112	Roll:	0.280	Pitch:	0.686	Yaw:	17.691	Thrust:	47.646
Time:	2.501	Roll Set Point:	0.009	Pitch Set Point:	-0.022	Yaw Set Point:	-0.075	X_WP:	0.000	Y_WP:	0.000	Y_WP:	0.500	X:	-0.005	Y:	0.011	Z:	0.050	yaw:	4.280	yaw rate:	-52.159	Roll:	-0.241	Pitch:	-0.049	Yaw:	-5.759	Thrust:	49.034
Time:	2.512	Roll Set Point:	0.009	Pitch Set Point:	-0.022	Yaw Set Point:	-0.075	X_WP:	0.000	Y_WP:	0.000	Y_WP:	0.500	X:	-0.005	Y:	0.011	Z:	0.050	yaw:	4.279	yaw rate:	-0.076	Roll:	-0.124	Pitch:	0.270	Yaw:	6.618	Thrust:	49.502
Time:	2.523	Roll Set Point:	0.009	Pitch Set Point:	-0.022	Yaw Set Point:	-0.082	X_WP:	0.000	Y_WP:	0.000	Y_WP:	0.500	X:	-0.005	Y:	0.011	Z:	0.050	yaw:	4.725	yaw rate:	44.546	Roll:	0.204	Pitch:	0.597	Yaw:	17.848	Thrust:	50.061
Time:	2.534	Roll Set Point:	0.009	Pitch Set Point:	-0.022	Yaw Set Point:	-0.081	X_WP:	0.000	Y_WP:	0.000	Y_WP:	0.500	X:	-0.005	Y:	0.011	Z:	0.050	yaw:	4.628	yaw rate:	-9.696	Roll:	-0.211	Pitch:	0.215	Yaw:	4.856	Thrust:	49.739
Time:	2.545	Roll Set Point:	0.009	Pitch Set Point:	-0.022	Yaw Set Point:	-0.078	X_WP:	0.000	Y_WP:	0.000	Y_WP:	0.500	X:	-0.005	Y:	0.011	Z:	0.050	yaw:	4.473	yaw rate:	-15.465	Roll:	-0.166	Pitch:	-0.098	Yaw:	3.288	Thrust:	52.202
Time:	2.556	Roll Set Point:	0.009	Pitch Set Point:	-0.022	Yaw Set Point:	-0.085	X_WP:	0.000	Y_WP:	0.000	Y_WP:	0.500	X:	-0.005	Y:	0.011	Z:	0.050	yaw:	4.883	yaw rate:	41.004	Roll:	0.129	Pitch:	0.902	Yaw:	17.283	Thrust:	50.618
Time:	2.567	Roll Set Point:	0.009	Pitch Set Point:	-0.022	Yaw Set Point:	-0.080	X_WP:	0.000	Y_WP:	0.000	Y_WP:	0.500	X:	-0.005	Y:	0.011	Z:	0.050	yaw:	4.580	yaw rate:	-30.340	Roll:	-0.504	Pitch:	0.111	Yaw:	-0.057	Thrust:	51.641
Time:	2.578	Roll Set Point:	0.009	Pitch Set Point:	-0.022	Yaw Set Point:	-0.082	X_WP:	0.000	Y_WP:	0.000	Y_WP:	0.500	X:	-0.005	Y:	0.011	Z:	0.050	yaw:	4.707	yaw rate:	12.654	Roll:	0.155	Pitch:	0.481	Yaw:	10.339	Thrust:	53.832
Time:	2.589	Roll Set Point:	0.009	Pitch Set Point:	-0.022	Yaw Set Point:	-0.077	X_WP:	0.000	Y_WP:	0.000	Y_WP:	0.500	X:	-0.005	Y:	0.011	Z:	0.050	yaw:	4.403	yaw rate:	-30.340	Roll:	-0.325	Pitch:	0.120	Yaw:	-0.267	Thrust:	52.623
Time:	2.600	Roll Set Point:	0.009	Pitch Set Point:	-0.022	Yaw Set Point:	-0.084	X_WP:	0.000	Y_WP:	0.000	Y_WP:	0.500	X:	-0.005	Y:	0.011	Z:	0.050	yaw:	4.810	yaw rate:	40.672	Roll:	-0.070	Pitch:	0.578	Yaw:	17.141	Thrust:	54.850
Time:	2.612	Roll Set Point:	0.009	Pitch Set Point:	-0.022	Yaw Set Point:	-0.074	X_WP:	0.000	Y_WP:	0.000	Y_WP:	0.500	X:	-0.005	Y:	0.011	Z:	0.050	yaw:	4.227	yaw rate:	-58.260	Roll:	-0.274	Pitch:	0.160	Yaw:	-7.109	Thrust:	54.617
Time:	2.622	Roll Set Point:	0.009	Pitch Set Point:	-0.022	Yaw Set Point:	-0.087	X_WP:	0.000	Y_WP:	0.000	Y_WP:	0.500	X:	-0.005	Y:	0.011	Z:	0.050	yaw:	4.998	yaw rate:	77.110	Roll:	0.103	Pitch:	0.538	Yaw:	26.177	Thrust:	54.705
Time:	2.634	Roll Set Point:	0.009	Pitch Set Point:	-0.022	Yaw Set Point:	-0.080	X_WP:	0.000	Y_WP:	0.000	Y_WP:	0.500	X:	-0.005	Y:	0.011	Z:	0.050	yaw:	4.599	yaw rate:	-39.979	Roll:	-0.203	Pitch:	0.317	Yaw:	-2.192	Thrust:	55.645
Time:	2.645	Roll Set Point:	0.009	Pitch Set Point:	-0.022	Yaw Set Point:	-0.076	X_WP:	0.000	Y_WP:	0.000	Y_WP:	0.500	X:	-0.005	Y:	0.011	Z:	0.050	yaw:	4.361	yaw rate:	-23.706	Roll:	-0.352	Pitch:	0.068	Yaw:	1.323	Thrust:	57.119
Time:	2.656	Roll Set Point:	0.009	Pitch Set Point:	-0.022	Yaw Set Point:	-0.083	X_WP:	0.000	Y_WP:	0.000	Y_WP:	0.500	X:	-0.005	Y:	0.011	Z:	0.050	yaw:	4.741	yaw rate:	37.904	Roll:	-0.036	Pitch:	0.792	Yaw:	16.506	Thrust:	55.084
Time:	2.667	Roll Set Point:	0.009	Pitch Set Point:	-0.023	Yaw Set Point:	-0.083	X_WP:	0.000	Y_WP:	0.000	Y_WP:	0.500	X:	-0.005	Y:	0.011	Z:	0.050	yaw:	4.782	yaw rate:	4.174	Roll:	0.041	Pitch:	0.537	Yaw:	8.577	Thrust:	57.739
Time:	2.678	Roll Set Point:	0.010	Pitch Set Point:	-0.023	Yaw Set Point:	-0.082	X_WP:	0.000	Y_WP:	0.000	Y_WP:	0.500	X:	-0.005	Y:	0.011	Z:	0.050	yaw:	4.682	yaw rate:	-9.979	Roll:	-0.707	Pitch:	0.361	Yaw:	5.103	Thrust:	59.245
Time:	2.689	Roll Set Point:	0.010	Pitch Set Point:	-0.023	Yaw Set Point:	-0.081	X_WP:	0.000	Y_WP:	0.000	Y_WP:	0.500	X:	-0.005	Y:	0.011	Z:	0.050	yaw:	4.654	yaw rate:	-2.853	Roll:	-0.006	Pitch:	0.444	Yaw:	6.763	Thrust:	58.180
Time:	2.700	Roll Set Point:	0.010	Pitch Set Point:	-0.023	Yaw Set Point:	-0.078	X_WP:	0.000	Y_WP:	0.000	Y_WP:	0.500	X:	-0.005	Y:	0.011	Z:	0.050	yaw:	4.488	yaw rate:	-16.559	Roll:	-0.299	Pitch:	0.728	Yaw:	3.309	Thrust:	58.095
Time:	2.711	Roll Set Point:	0.010	Pitch Set Point:	-0.024	Yaw Set Point:	-0.079	X_WP:	0.000	Y_WP:	0.000	Y_WP:	0.500	X:	-0.005	Y:	0.012	Z:	0.050	yaw:	4.529	yaw rate:	4.094	Roll:	-0.265	Pitch:	0.612	Yaw:	8.276	Thrust:	60.062
Time:	2.722	Roll Set Point:	0.010	Pitch Set Point:	-0.024	Yaw Set Point:	-0.067	X_WP:	0.000	Y_WP:	0.000	Y_WP:	0.500	X:	-0.006	Y:	0.012	Z:	0.050	yaw:	3.825	yaw rate:	-70.460	Roll:	-0.421	Pitch:	0.397	Yaw:	-10.420	Thrust:	59.783
Time:	2.734	Roll Set Point:	0.010	Pitch Set Point:	-0.024	Yaw Set Point:	-0.073	X_WP:	0.000	Y_WP:	0.000	Y_WP:	0.500	X:	-0.005	Y:	0.012	Z:	0.051	yaw:	4.196	yaw rate:	37.155	Roll:	0.063	Pitch:	0.677	Yaw:	15.033	Thrust:	63.357
Time:	2.745	Roll Set Point:	0.010	Pitch Set Point:	-0.024	Yaw Set Point:	-0.073	X_WP:	0.000	Y_WP:	0.000	Y_WP:	0.500	X:	-0.005	Y:	0.012	Z:	0.051	yaw:	4.161	yaw rate:	-3.532	Roll:	-0.111	Pitch:	0.569	Yaw:	6.000	Thrust:	61.244
Time:	2.756	Roll Set Point:	0.011	Pitch Set Point:	-0.024	Yaw Set Point:	-0.067	X_WP:	0.000	Y_WP:	0.000	Y_WP:	0.500	X:	-0.006	Y:	0.012	Z:	0.051	yaw:	3.859	yaw rate:	-30.165	Roll:	-0.555	Pitch:	0.450	Yaw:	-0.744	Thrust:	62.148
Time:	2.767	Roll Set Point:	0.011	Pitch Set Point:	-0.025	Yaw Set Point:	-0.075	X_WP:	0.000	Y_WP:	0.000	Y_WP:	0.500	X:	-0.006	Y:	0.012	Z:	0.051	yaw:	4.311	yaw rate:	45.199	Roll:	-0.052	Pitch:	0.870	Yaw:	17.808	Thrust:	61.600
Time:	2.778	Roll Set Point:	0.010	Pitch Set Point:	-0.026	Yaw Set Point:	-0.081	X_WP:	0.000	Y_WP:	0.000	Y_WP:	0.500	X:	-0.006	Y:	0.013	Z:	0.052	yaw:	4.627	yaw rate:	31.618	Roll:	0.042	Pitch:	1.049	Yaw:	15.042	Thrust:	61.143
Time:	2.789	Roll Set Point:	0.011	Pitch Set Point:	-0.026	Yaw Set Point:	-0.077	X_WP:	0.000	Y_WP:	0.000	Y_WP:	0.500	X:	-0.006	Y:	0.013	Z:	0.052	yaw:	4.428	yaw rate:	-19.896	Roll:	-0.385	Pitch:	0.475	Yaw:	2.566	Thrust:	62.355
Time:	2.800	Roll Set Point:	0.011	Pitch Set Point:	-0.026	Yaw Set Point:	-0.078	X_WP:	0.000	Y_WP:	0.000	Y_WP:	0.500	X:	-0.006	Y:	0.013	Z:	0.053	yaw:	4.478	yaw rate:	4.906	Roll:	-0.346	Pitch:	0.576	Yaw:	8.519	Thrust:	62.407
Time:	2.811	Roll Set Point:	0.011	Pitch Set Point:	-0.027	Yaw Set Point:	-0.086	X_WP:	0.000	Y_WP:	0.000	Y_WP:	0.500	X:	-0.006	Y:	0.013	Z:	0.054	yaw:	4.909	yaw rate:	43.192	Roll:	-0.071	Pitch:	1.206	Yaw:	18.210	Thrust:	60.453
Time:	2.822	Roll Set Point:	0.011	Pitch Set Point:	-0.027	Yaw Set Point:	-0.082	X_WP:	0.000	Y_WP:	0.000	Y_WP:	0.500	X:	-0.006	Y:	0.013	Z:	0.054	yaw:	4.718	yaw rate:	-19.175	Roll:	-0.370	Pitch:	0.565	Yaw:	3.124	Thrust:	62.659
Time:	2.833	Roll Set Point:	0.012	Pitch Set Point:	-0.028	Yaw Set Point:	-0.089	X_WP:	0.000	Y_WP:	0.000	Y_WP:	0.500	X:	-0.006	Y:	0.014	Z:	0.055	yaw:	5.107	yaw rate:	38.961	Roll:	-0.385	Pitch:	0.819	Yaw:	17.482	Thrust:	61.718
Time:	2.844	Roll Set Point:	0.012	Pitch Set Point:	-0.028	Yaw Set Point:	-0.093	X_WP:	0.000	Y_WP:	0.000	Y_WP:	0.500	X:	-0.006	Y:	0.014	Z:	0.057	yaw:	5.333	yaw rate:	22.521	Roll:	-0.144	Pitch:	0.763	Yaw:	13.886	Thrust:	62.207
Time:	2.855	Roll Set Point:	0.012	Pitch Set Point:	-0.029	Yaw Set Point:	-0.096	X_WP:	0.000	Y_WP:	0.000	Y_WP:	0.500	X:	-0.007	Y:	0.014	Z:	0.058	yaw:	5.494	yaw rate:	16.102	Roll:	-0.288	Pitch:	0.802	Yaw:	12.593	Thrust:	62.199
Time:	2.866	Roll Set Point:	0.012	Pitch Set Point:	-0.029	Yaw Set Point:	-0.092	X_WP:	0.000	Y_WP:	0.000	Y_WP:	0.500	X:	-0.007	Y:	0.014	Z:	0.059	yaw:	5.249	yaw rate:	-24.470	Roll:	-0.610	Pitch:	0.472	Yaw:	2.603	Thrust:	62.730
Time:	2.877	Roll Set Point:	0.013	Pitch Set Point:	-0.029	Yaw Set Point:	-0.098	X_WP:	0.000	Y_WP:	0.000	Y_WP:	0.500	X:	-0.007	Y:	0.014	Z:	0.061	yaw:	5.587	yaw rate:	33.842	Roll:	-0.532	Pitch:	1.141	Yaw:	16.918	Thrust:	59.390
Time:	2.888	Roll Set Point:	0.013	Pitch Set Point:	-0.030	Yaw Set Point:	-0.097	X_WP:	0.000	Y_WP:	0.000	Y_WP:	0.500	X:	-0.007	Y:	0.015	Z:	0.063	yaw:	5.573	yaw rate:	-1.416	Roll:	-0.524	Pitch:	0.728	Yaw:	8.548	Thrust:	62.582
Time:	2.899	Roll Set Point:	0.014	Pitch Set Point:	-0.030	Yaw Set Point:	-0.092	X_WP:	0.000	Y_WP:	0.000	Y_WP:	0.500	X:	-0.008	Y:	0.014	Z:	0.064	yaw:	5.288	yaw rate:	-28.485	Roll:	-0.670	Pitch:	0.327	Yaw:	1.725	Thrust:	63.043
Time:	2.910	Roll Set Point:	0.014	Pitch Set Point:	-0.030	Yaw Set Point:	-0.099	X_WP:	0.000	Y_WP:	0.000	Y_WP:	0.500	X:	-0.008	Y:	0.015	Z:	0.066	yaw:	5.665	yaw rate:	37.628	Roll:	-0.386	Pitch:	1.014	Yaw:	17.943	Thrust:	62.712
Time:	2.921	Roll Set Point:	0.016	Pitch Set Point:	-0.030	Yaw Set Point:	-0.095	X_WP:	0.000	Y_WP:	0.000	Y_WP:	0.500	X:	-0.009	Y:	0.015	Z:	0.068	yaw:	5.431	yaw rate:	-23.389	Roll:	-1.391	Pitch:	0.181	Yaw:	3.117	Thrust:	60.710
Time:	2.932	Roll Set Point:	0.016	Pitch Set Point:	-0.030	Yaw Set Point:	-0.100	X_WP:	0.000	Y_WP:	0.000	Y_WP:	0.500	X:	-0.009	Y:	0.015	Z:	0.070	yaw:	5.736	yaw rate:	30.540	Roll:	-0.385	Pitch:	1.030	Yaw:	16.361	Thrust:	62.477
Time:	2.943	Roll Set Point:	0.017	Pitch Set Point:	-0.030	Yaw Set Point:	-0.099	X_WP:	0.000	Y_WP:	0.000	Y_WP:	0.500	X:	-0.009	Y:	0.015	Z:	0.072	yaw:	5.697	yaw rate:	-3.934	Roll:	-0.568	Pitch:	0.412	Yaw:	8.127	Thrust:	63.196
Time:	2.954	Roll Set Point:	0.018	Pitch Set Point:	-0.030	Yaw Set Point:	-0.101	X_WP:	0.000	Y_WP:	0.000	Y_WP:	0.500	X:	-0.010	Y:	0.015	Z:	0.074	yaw:	5.766	yaw rate:	6.966	Roll:	-0.991	Pitch:	0.492	Yaw:	10.808	Thrust:	63.095
Time:	2.965	Roll Set Point:	0.018	Pitch Set Point:	-0.030	Yaw Set Point:	-0.110	X_WP:	0.000	Y_WP:	0.000	Y_WP:	0.500	X:	-0.010	Y:	0.015	Z:	0.076	yaw:	6.292	yaw rate:	52.537	Roll:	-0.701	Pitch:	0.684	Yaw:	22.361	Thrust:	64.208
Time:	2.976	Roll Set Point:	0.019	Pitch Set Point:	-0.030	Yaw Set Point:	-0.101	X_WP:	0.000	Y_WP:	0.000	Y_WP:	0.500	X:	-0.010	Y:	0.015	Z:	0.078	yaw:	5.795	yaw rate:	-49.715	Roll:	-1.047	Pitch:	0.223	Yaw:	-2.606	Thrust:	64.524
Time:	2.987	Roll Set Point:	0.020	Pitch Set Point:	-0.030	Yaw Set Point:	-0.103	X_WP:	0.000	Y_WP:	0.000	Y_WP:	0.500	X:	-0.011	Y:	0.014	Z:	0.081	yaw:	5.916	yaw rate:	12.144	Roll:	-0.952	Pitch:	0.428	Yaw:	12.246	Thrust:	59.593
Time:	2.999	Roll Set Point:	0.021	Pitch Set Point:	-0.030	Yaw Set Point:	-0.102	X_WP:	0.000	Y_WP:	0.000	Y_WP:	0.500	X:	-0.011	Y:	0.014	Z:	0.083	yaw:	5.832	yaw rate:	-8.369	Roll:	-1.182	Pitch:	0.267	Yaw:	7.262	Thrust:	64.530
Time:	3.010	Roll Set Point:	0.022	Pitch Set Point:	-0.030	Yaw Set Point:	-0.107	X_WP:	0.000	Y_WP:	0.000	Y_WP:	0.500	X:	-0.012	Y:	0.014	Z:	0.085	yaw:	6.136	yaw rate:	30.375	Roll:	-0.730	Pitch:	0.639	Yaw:	16.887	Thrust:	64.392
Time:	3.021	Roll Set Point:	0.023	Pitch Set Point:	-0.029	Yaw Set Point:	-0.110	X_WP:	0.000	Y_WP:	0.000	Y_WP:	0.500	X:	-0.012	Y:	0.014	Z:	0.088	yaw:	6.298	yaw rate:	16.142	Roll:	-1.153	Pitch:	0.282	Yaw:	13.732	Thrust:	65.533
Time:	3.032	Roll Set Point:	0.024	Pitch Set Point:	-0.029	Yaw Set Point:	-0.112	X_WP:	0.000	Y_WP:	0.000	Y_WP:	0.500	X:	-0.013	Y:	0.014	Z:	0.091	yaw:	6.397	yaw rate:	9.903	Roll:	-1.212	Pitch:	0.407	Yaw:	12.382	Thrust:	61.289
Time:	3.043	Roll Set Point:	0.025	Pitch Set Point:	-0.029	Yaw Set Point:	-0.108	X_WP:	0.000	Y_WP:	0.000	Y_WP:	0.500	X:	-0.013	Y:	0.014	Z:	0.093	yaw:	6.195	yaw rate:	-20.142	Roll:	-1.108	Pitch:	0.216	Yaw:	4.975	Thrust:	65.208
Time:	3.055	Roll Set Point:	0.027	Pitch Set Point:	-0.028	Yaw Set Point:	-0.097	X_WP:	0.000	Y_WP:	0.000	Y_WP:	0.500	X:	-0.014	Y:	0.013	Z:	0.098	yaw:	5.553	yaw rate:	-12.802	Roll:	-2.253	Pitch:	-0.405	Yaw:	-5.053	Thrust:	61.826
Time:	3.066	Roll Set Point:	0.028	Pitch Set Point:	-0.028	Yaw Set Point:	-0.102	X_WP:	0.000	Y_WP:	0.000	Y_WP:	0.500	X:	-0.015	Y:	0.013	Z:	0.101	yaw:	5.852	yaw rate:	29.947	Roll:	-0.779	Pitch:	0.515	Yaw:	16.368	Thrust:	65.319
Time:	3.077	Roll Set Point:	0.029	Pitch Set Point:	-0.027	Yaw Set Point:	-0.105	X_WP:	0.000	Y_WP:	0.000	Y_WP:	0.500	X:	-0.015	Y:	0.013	Z:	0.103	yaw:	6.015	yaw rate:	16.210	Roll:	-1.366	Pitch:	0.094	Yaw:	13.349	Thrust:	66.504
Time:	3.088	Roll Set Point:	0.031	Pitch Set Point:	-0.026	Yaw Set Point:	-0.109	X_WP:	0.000	Y_WP:	0.000	Y_WP:	0.500	X:	-0.016	Y:	0.012	Z:	0.106	yaw:	6.265	yaw rate:	25.010	Roll:	-1.666	Pitch:	0.009	Yaw:	15.798	Thrust:	61.613
Time:	3.099	Roll Set Point:	0.032	Pitch Set Point:	-0.026	Yaw Set Point:	-0.099	X_WP:	0.000	Y_WP:	0.000	Y_WP:	0.500	X:	-0.017	Y:	0.012	Z:	0.109	yaw:	5.695	yaw rate:	-56.962	Roll:	-1.476	Pitch:	0.116	Yaw:	-4.436	Thrust:	66.070
Time:	3.111	Roll Set Point:	0.033	Pitch Set Point:	-0.026	Yaw Set Point:	-0.096	X_WP:	0.000	Y_WP:	0.000	Y_WP:	0.500	X:	-0.017	Y:	0.012	Z:	0.111	yaw:	5.518	yaw rate:	-17.745	Roll:	-1.392	Pitch:	0.071	Yaw:	5.036	Thrust:	72.752
Time:	3.122	Roll Set Point:	0.034	Pitch Set Point:	-0.025	Yaw Set Point:	-0.095	X_WP:	0.000	Y_WP:	0.000	Y_WP:	0.500	X:	-0.018	Y:	0.012	Z:	0.114	yaw:	5.450	yaw rate:	-6.706	Roll:	-1.376	Pitch:	-0.076	Yaw:	7.121	Thrust:	66.408
Time:	3.133	Roll Set Point:	0.036	Pitch Set Point:	-0.024	Yaw Set Point:	-0.085	X_WP:	0.000	Y_WP:	0.000	Y_WP:	0.500	X:	-0.018	Y:	0.011	Z:	0.117	yaw:	4.842	yaw rate:	-60.827	Roll:	-1.914	Pitch:	-0.573	Yaw:	-6.574	Thrust:	67.866
Time:	3.144	Roll Set Point:	0.037	Pitch Set Point:	-0.024	Yaw Set Point:	-0.094	X_WP:	0.000	Y_WP:	0.000	Y_WP:	0.500	X:	-0.019	Y:	0.011	Z:	0.121	yaw:	5.360	yaw rate:	51.771	Roll:	-1.517	Pitch:	0.433	Yaw:	20.852	Thrust:	61.484
Time:	3.155	Roll Set Point:	0.039	Pitch Set Point:	-0.023	Yaw Set Point:	-0.089	X_WP:	0.000	Y_WP:	0.000	Y_WP:	0.500	X:	-0.020	Y:	0.011	Z:	0.123	yaw:	5.086	yaw rate:	-27.418	Roll:	-1.807	Pitch:	-0.141	Yaw:	1.681	Thrust:	67.008
Time:	3.166	Roll Set Point:	0.040	Pitch Set Point:	-0.022	Yaw Set Point:	-0.088	X_WP:	0.000	Y_WP:	0.000	Y_WP:	0.500	X:	-0.021	Y:	0.010	Z:	0.126	yaw:	5.066	yaw rate:	-1.942	Roll:	-1.577	Pitch:	-0.097	Yaw:	7.719	Thrust:	67.672
Time:	3.177	Roll Set Point:	0.042	Pitch Set Point:	-0.021	Yaw Set Point:	-0.075	X_WP:	0.000	Y_WP:	0.000	Y_WP:	0.500	X:	-0.021	Y:	0.010	Z:	0.129	yaw:	4.304	yaw rate:	-76.227	Roll:	-2.055	Pitch:	-0.613	Yaw:	-10.831	Thrust:	69.547
Time:	3.188	Roll Set Point:	0.042	Pitch Set Point:	-0.021	Yaw Set Point:	-0.087	X_WP:	0.000	Y_WP:	0.000	Y_WP:	0.500	X:	-0.022	Y:	0.010	Z:	0.132	yaw:	5.005	yaw rate:	70.140	Roll:	-0.962	Pitch:	0.729	Yaw:	24.697	Thrust:	67.103
Time:	3.199	Roll Set Point:	0.045	Pitch Set Point:	-0.020	Yaw Set Point:	-0.084	X_WP:	0.000	Y_WP:	0.000	Y_WP:	0.500	X:	-0.023	Y:	0.009	Z:	0.136	yaw:	4.788	yaw rate:	-21.774	Roll:	-2.455	Pitch:	-0.431	Yaw:	2.630	Thrust:	61.767
Time:	3.210	Roll Set Point:	0.046	Pitch Set Point:	-0.020	Yaw Set Point:	-0.083	X_WP:	0.000	Y_WP:	0.000	Y_WP:	0.500	X:	-0.023	Y:	0.009	Z:	0.139	yaw:	4.753	yaw rate:	-3.428	Roll:	-1.637	Pitch:	-0.184	Yaw:	6.927	Thrust:	68.352
Time:	3.221	Roll Set Point:	0.047	Pitch Set Point:	-0.019	Yaw Set Point:	-0.085	X_WP:	0.000	Y_WP:	0.000	Y_WP:	0.500	X:	-0.024	Y:	0.009	Z:	0.142	yaw:	4.898	yaw rate:	14.415	Roll:	-1.625	Pitch:	0.068	Yaw:	11.368	Thrust:	67.307
Time:	3.232	Roll Set Point:	0.048	Pitch Set Point:	-0.018	Yaw Set Point:	-0.083	X_WP:	0.000	Y_WP:	0.000	Y_WP:	0.500	X:	-0.025	Y:	0.008	Z:	0.145	yaw:	4.734	yaw rate:	-16.360	Roll:	-1.859	Pitch:	-0.236	Yaw:	3.829	Thrust:	68.000
Time:	3.243	Roll Set Point:	0.050	Pitch Set Point:	-0.017	Yaw Set Point:	-0.072	X_WP:	0.000	Y_WP:	0.000	Y_WP:	0.500	X:	-0.025	Y:	0.008	Z:	0.148	yaw:	4.115	yaw rate:	-61.876	Roll:	-1.864	Pitch:	-0.631	Yaw:	-7.839	Thrust:	67.544
Time:	3.254	Roll Set Point:	0.052	Pitch Set Point:	-0.017	Yaw Set Point:	-0.074	X_WP:	0.000	Y_WP:	0.000	Y_WP:	0.500	X:	-0.026	Y:	0.007	Z:	0.153	yaw:	4.262	yaw rate:	14.634	Roll:	-2.106	Pitch:	-0.115	Yaw:	10.527	Thrust:	61.403
Time:	3.265	Roll Set Point:	0.052	Pitch Set Point:	-0.017	Yaw Set Point:	-0.077	X_WP:	0.000	Y_WP:	0.000	Y_WP:	0.500	X:	-0.027	Y:	0.007	Z:	0.157	yaw:	4.433	yaw rate:	17.191	Roll:	-1.453	Pitch:	0.208	Yaw:	11.374	Thrust:	67.726
Time:	3.276	Roll Set Point:	0.054	Pitch Set Point:	-0.016	Yaw Set Point:	-0.074	X_WP:	0.000	Y_WP:	0.000	Y_WP:	0.500	X:	-0.027	Y:	0.007	Z:	0.160	yaw:	4.245	yaw rate:	-18.843	Roll:	-1.843	Pitch:	-0.264	Yaw:	2.557	Thrust:	67.657
Time:	3.287	Roll Set Point:	0.055	Pitch Set Point:	-0.015	Yaw Set Point:	-0.073	X_WP:	0.000	Y_WP:	0.000	Y_WP:	0.500	X:	-0.028	Y:	0.007	Z:	0.163	yaw:	4.211	yaw rate:	-3.428	Roll:	-1.715	Pitch:	-0.122	Yaw:	6.169	Thrust:	68.016
Time:	3.298	Roll Set Point:	0.057	Pitch Set Point:	-0.014	Yaw Set Point:	-0.068	X_WP:	0.000	Y_WP:	0.000	Y_WP:	0.500	X:	-0.029	Y:	0.006	Z:	0.168	yaw:	3.875	yaw rate:	-33.580	Roll:	-2.395	Pitch:	-0.509	Yaw:	-1.437	Thrust:	62.121
Time:	3.309	Roll Set Point:	0.058	Pitch Set Point:	-0.014	Yaw Set Point:	-0.069	X_WP:	0.000	Y_WP:	0.000	Y_WP:	0.500	X:	-0.029	Y:	0.006	Z:	0.172	yaw:	3.969	yaw rate:	9.405	Roll:	-1.834	Pitch:	-0.004	Yaw:	8.877	Thrust:	67.831
Time:	3.321	Roll Set Point:	0.059	Pitch Set Point:	-0.013	Yaw Set Point:	-0.075	X_WP:	0.000	Y_WP:	0.000	Y_WP:	0.500	X:	-0.030	Y:	0.006	Z:	0.175	yaw:	4.285	yaw rate:	31.556	Roll:	-1.658	Pitch:	0.084	Yaw:	14.576	Thrust:	68.303
Time:	3.333	Roll Set Point:	0.061	Pitch Set Point:	-0.012	Yaw Set Point:	-0.059	X_WP:	0.000	Y_WP:	0.000	Y_WP:	0.500	X:	-0.030	Y:	0.005	Z:	0.179	yaw:	3.385	yaw rate:	-90.003	Roll:	-1.995	Pitch:	-0.917	Yaw:	-13.696	Thrust:	74.420
Time:	3.344	Roll Set Point:	0.061	Pitch Set Point:	-0.012	Yaw Set Point:	-0.059	X_WP:	0.000	Y_WP:	0.000	Y_WP:	0.500	X:	-0.031	Y:	0.005	Z:	0.183	yaw:	3.386	yaw rate:	0.167	Roll:	-1.524	Pitch:	0.046	Yaw:	5.872	Thrust:	67.873
Time:	3.355	Roll Set Point:	0.062	Pitch Set Point:	-0.012	Yaw Set Point:	-0.062	X_WP:	0.000	Y_WP:	0.000	Y_WP:	0.500	X:	-0.031	Y:	0.005	Z:	0.186	yaw:	3.548	yaw rate:	16.185	Roll:	-1.659	Pitch:	0.190	Yaw:	9.903	Thrust:	68.729
Time:	3.366	Roll Set Point:	0.064	Pitch Set Point:	-0.012	Yaw Set Point:	-0.068	X_WP:	0.000	Y_WP:	0.000	Y_WP:	0.500	X:	-0.032	Y:	0.005	Z:	0.192	yaw:	3.881	yaw rate:	33.341	Roll:	-1.925	Pitch:	0.191	Yaw:	14.437	Thrust:	59.745
Time:	3.377	Roll Set Point:	0.065	Pitch Set Point:	-0.011	Yaw Set Point:	-0.061	X_WP:	0.000	Y_WP:	0.000	Y_WP:	0.500	X:	-0.032	Y:	0.005	Z:	0.196	yaw:	3.524	yaw rate:	-35.786	Roll:	-1.834	Pitch:	-0.228	Yaw:	-2.321	Thrust:	69.322
Time:	3.388	Roll Set Point:	0.066	Pitch Set Point:	-0.010	Yaw Set Point:	-0.060	X_WP:	0.000	Y_WP:	0.000	Y_WP:	0.500	X:	-0.033	Y:	0.004	Z:	0.200	yaw:	3.441	yaw rate:	-8.277	Roll:	-2.089	Pitch:	-0.391	Yaw:	3.943	Thrust:	68.681
Time:	3.399	Roll Set Point:	0.067	Pitch Set Point:	-0.010	Yaw Set Point:	-0.065	X_WP:	0.000	Y_WP:	0.000	Y_WP:	0.500	X:	-0.033	Y:	0.004	Z:	0.204	yaw:	3.716	yaw rate:	27.545	Roll:	-1.416	Pitch:	0.372	Yaw:	12.830	Thrust:	67.408
Time:	3.410	Roll Set Point:	0.067	Pitch Set Point:	-0.010	Yaw Set Point:	-0.065	X_WP:	0.000	Y_WP:	0.000	Y_WP:	0.500	X:	-0.034	Y:	0.004	Z:	0.208	yaw:	3.723	yaw rate:	0.709	Roll:	-1.637	Pitch:	0.133	Yaw:	6.470	Thrust:	67.530
Time:	3.421	Roll Set Point:	0.069	Pitch Set Point:	-0.009	Yaw Set Point:	-0.051	X_WP:	0.000	Y_WP:	0.000	Y_WP:	0.500	X:	-0.034	Y:	0.004	Z:	0.212	yaw:	2.950	yaw rate:	-77.339	Roll:	-1.981	Pitch:	-0.933	Yaw:	-13.136	Thrust:	67.206
Time:	3.433	Roll Set Point:	0.070	Pitch Set Point:	-0.009	Yaw Set Point:	-0.056	X_WP:	0.000	Y_WP:	0.000	Y_WP:	0.500	X:	-0.035	Y:	0.004	Z:	0.218	yaw:	3.202	yaw rate:	25.175	Roll:	-1.888	Pitch:	0.241	Yaw:	11.263	Thrust:	65.157
Time:	3.444	Roll Set Point:	0.070	Pitch Set Point:	-0.009	Yaw Set Point:	-0.056	X_WP:	0.000	Y_WP:	0.000	Y_WP:	0.500	X:	-0.035	Y:	0.003	Z:	0.222	yaw:	3.201	yaw rate:	-0.123	Roll:	-1.441	Pitch:	0.141	Yaw:	5.540	Thrust:	66.688
Time:	3.455	Roll Set Point:	0.071	Pitch Set Point:	-0.008	Yaw Set Point:	-0.049	X_WP:	0.000	Y_WP:	0.000	Y_WP:	0.500	X:	-0.036	Y:	0.003	Z:	0.227	yaw:	2.826	yaw rate:	-37.420	Roll:	-1.762	Pitch:	-0.462	Yaw:	-3.814	Thrust:	67.432
Time:	3.466	Roll Set Point:	0.072	Pitch Set Point:	-0.009	Yaw Set Point:	-0.056	X_WP:	0.000	Y_WP:	0.000	Y_WP:	0.500	X:	-0.036	Y:	0.003	Z:	0.231	yaw:	3.191	yaw rate:	36.440	Roll:	-1.509	Pitch:	0.633	Yaw:	14.207	Thrust:	67.185
Time:	3.477	Roll Set Point:	0.072	Pitch Set Point:	-0.008	Yaw Set Point:	-0.054	X_WP:	0.000	Y_WP:	0.000	Y_WP:	0.500	X:	-0.036	Y:	0.003	Z:	0.235	yaw:	3.083	yaw rate:	-10.782	Roll:	-1.590	Pitch:	-0.140	Yaw:	2.847	Thrust:	67.742
Time:	3.488	Roll Set Point:	0.073	Pitch Set Point:	-0.008	Yaw Set Point:	-0.049	X_WP:	0.000	Y_WP:	0.000	Y_WP:	0.500	X:	-0.037	Y:	0.003	Z:	0.242	yaw:	2.790	yaw rate:	-29.277	Roll:	-1.871	Pitch:	-0.081	Yaw:	-1.952	Thrust:	57.811
Time:	3.499	Roll Set Point:	0.074	Pitch Set Point:	-0.008	Yaw Set Point:	-0.044	X_WP:	0.000	Y_WP:	0.000	Y_WP:	0.500	X:	-0.037	Y:	0.003	Z:	0.246	yaw:	2.549	yaw rate:	-24.127	Roll:	-1.521	Pitch:	-0.237	Yaw:	-1.062	Thrust:	66.873
Time:	3.510	Roll Set Point:	0.075	Pitch Set Point:	-0.007	Yaw Set Point:	-0.041	X_WP:	0.000	Y_WP:	0.000	Y_WP:	0.500	X:	-0.037	Y:	0.003	Z:	0.251	yaw:	2.343	yaw rate:	-20.626	Roll:	-1.684	Pitch:	-0.104	Yaw:	-0.535	Thrust:	66.066
Time:	3.521	Roll Set Point:	0.075	Pitch Set Point:	-0.008	Yaw Set Point:	-0.049	X_WP:	0.000	Y_WP:	0.000	Y_WP:	0.500	X:	-0.037	Y:	0.003	Z:	0.255	yaw:	2.793	yaw rate:	44.998	Roll:	-1.173	Pitch:	0.828	Yaw:	15.634	Thrust:	67.235
Time:	3.532	Roll Set Point:	0.075	Pitch Set Point:	-0.007	Yaw Set Point:	-0.044	X_WP:	0.000	Y_WP:	0.000	Y_WP:	0.500	X:	-0.038	Y:	0.003	Z:	0.259	yaw:	2.536	yaw rate:	-25.669	Roll:	-1.701	Pitch:	-0.344	Yaw:	-1.449	Thrust:	67.151
Time:	3.543	Roll Set Point:	0.076	Pitch Set Point:	-0.008	Yaw Set Point:	-0.045	X_WP:	0.000	Y_WP:	0.000	Y_WP:	0.500	X:	-0.038	Y:	0.003	Z:	0.267	yaw:	2.570	yaw rate:	3.457	Roll:	-1.383	Pitch:	0.462	Yaw:	5.513	Thrust:	56.348
Time:	3.554	Roll Set Point:	0.076	Pitch Set Point:	-0.007	Yaw Set Point:	-0.037	X_WP:	0.000	Y_WP:	0.000	Y_WP:	0.500	X:	-0.038	Y:	0.003	Z:	0.271	yaw:	2.137	yaw rate:	-43.327	Roll:	-1.512	Pitch:	-0.350	Yaw:	-6.174	Thrust:	66.878
Time:	3.565	Roll Set Point:	0.076	Pitch Set Point:	-0.008	Yaw Set Point:	-0.042	X_WP:	0.000	Y_WP:	0.000	Y_WP:	0.500	X:	-0.038	Y:	0.003	Z:	0.276	yaw:	2.400	yaw rate:	26.279	Roll:	-1.147	Pitch:	0.579	Yaw:	10.702	Thrust:	65.508
Time:	3.576	Roll Set Point:	0.076	Pitch Set Point:	-0.008	Yaw Set Point:	-0.041	X_WP:	0.000	Y_WP:	0.000	Y_WP:	0.500	X:	-0.038	Y:	0.003	Z:	0.281	yaw:	2.350	yaw rate:	-5.024	Roll:	-1.311	Pitch:	0.351	Yaw:	3.191	Thrust:	65.996
Time:	3.587	Roll Set Point:	0.076	Pitch Set Point:	-0.008	Yaw Set Point:	-0.040	X_WP:	0.000	Y_WP:	0.000	Y_WP:	0.500	X:	-0.038	Y:	0.003	Z:	0.285	yaw:	2.299	yaw rate:	-5.116	Roll:	-1.180	Pitch:	0.223	Yaw:	3.098	Thrust:	66.370
Time:	3.598	Roll Set Point:	0.077	Pitch Set Point:	-0.008	Yaw Set Point:	-0.036	X_WP:	0.000	Y_WP:	0.000	Y_WP:	0.500	X:	-0.038	Y:	0.003	Z:	0.292	yaw:	2.044	yaw rate:	-25.449	Roll:	-1.349	Pitch:	-0.020	Yaw:	-2.097	Thrust:	56.665
Time:	3.609	Roll Set Point:	0.077	Pitch Set Point:	-0.008	Yaw Set Point:	-0.031	X_WP:	0.000	Y_WP:	0.000	Y_WP:	0.500	X:	-0.038	Y:	0.003	Z:	0.297	yaw:	1.796	yaw rate:	-24.856	Roll:	-1.170	Pitch:	0.228	Yaw:	-2.290	Thrust:	65.634
Time:	3.620	Roll Set Point:	0.076	Pitch Set Point:	-0.009	Yaw Set Point:	-0.033	X_WP:	0.000	Y_WP:	0.000	Y_WP:	0.500	X:	-0.038	Y:	0.004	Z:	0.302	yaw:	1.885	yaw rate:	8.976	Roll:	-1.018	Pitch:	0.475	Yaw:	5.864	Thrust:	65.877
Time:	3.631	Roll Set Point:	0.076	Pitch Set Point:	-0.009	Yaw Set Point:	-0.035	X_WP:	0.000	Y_WP:	0.000	Y_WP:	0.500	X:	-0.038	Y:	0.004	Z:	0.306	yaw:	1.996	yaw rate:	11.082	Roll:	-0.949	Pitch:	0.569	Yaw:	6.521	Thrust:	65.886
Time:	3.643	Roll Set Point:	0.076	Pitch Set Point:	-0.009	Yaw Set Point:	-0.031	X_WP:	0.000	Y_WP:	0.000	Y_WP:	0.500	X:	-0.038	Y:	0.004	Z:	0.311	yaw:	1.798	yaw rate:	-19.828	Roll:	-0.816	Pitch:	0.305	Yaw:	-0.601	Thrust:	73.512
Time:	3.654	Roll Set Point:	0.076	Pitch Set Point:	-0.009	Yaw Set Point:	-0.020	X_WP:	0.000	Y_WP:	0.000	Y_WP:	0.500	X:	-0.038	Y:	0.004	Z:	0.318	yaw:	1.147	yaw rate:	-65.076	Roll:	-1.372	Pitch:	-0.400	Yaw:	-12.686	Thrust:	56.191
Time:	3.665	Roll Set Point:	0.075	Pitch Set Point:	-0.010	Yaw Set Point:	-0.021	X_WP:	0.000	Y_WP:	0.000	Y_WP:	0.500	X:	-0.038	Y:	0.004	Z:	0.323	yaw:	1.210	yaw rate:	6.282	Roll:	-0.657	Pitch:	0.696	Yaw:	4.284	Thrust:	65.867
Time:	3.676	Roll Set Point:	0.075	Pitch Set Point:	-0.010	Yaw Set Point:	-0.027	X_WP:	0.000	Y_WP:	0.000	Y_WP:	0.500	X:	-0.038	Y:	0.005	Z:	0.328	yaw:	1.544	yaw rate:	33.434	Roll:	-0.864	Pitch:	0.935	Yaw:	11.195	Thrust:	65.180
Time:	3.687	Roll Set Point:	0.075	Pitch Set Point:	-0.011	Yaw Set Point:	-0.021	X_WP:	0.000	Y_WP:	0.000	Y_WP:	0.500	X:	-0.037	Y:	0.005	Z:	0.333	yaw:	1.191	yaw rate:	-35.352	Roll:	-0.814	Pitch:	0.269	Yaw:	-5.626	Thrust:	65.797
Time:	3.698	Roll Set Point:	0.074	Pitch Set Point:	-0.011	Yaw Set Point:	-0.021	X_WP:	0.000	Y_WP:	0.000	Y_WP:	0.500	X:	-0.037	Y:	0.005	Z:	0.337	yaw:	1.185	yaw rate:	-0.554	Roll:	-0.837	Pitch:	0.569	Yaw:	2.626	Thrust:	65.671
Time:	3.709	Roll Set Point:	0.073	Pitch Set Point:	-0.012	Yaw Set Point:	-0.023	X_WP:	0.000	Y_WP:	0.000	Y_WP:	0.500	X:	-0.037	Y:	0.006	Z:	0.344	yaw:	1.344	yaw rate:	15.909	Roll:	-0.245	Pitch:	1.074	Yaw:	6.756	Thrust:	55.874
Time:	3.720	Roll Set Point:	0.073	Pitch Set Point:	-0.012	Yaw Set Point:	-0.015	X_WP:	0.000	Y_WP:	0.000	Y_WP:	0.500	X:	-0.036	Y:	0.006	Z:	0.349	yaw:	0.832	yaw rate:	-51.256	Roll:	-0.945	Pitch:	-0.078	Yaw:	-9.901	Thrust:	65.179
Time:	3.732	Roll Set Point:	0.072	Pitch Set Point:	-0.013	Yaw Set Point:	-0.022	X_WP:	0.000	Y_WP:	0.000	Y_WP:	0.500	X:	-0.036	Y:	0.006	Z:	0.354	yaw:	1.246	yaw rate:	41.411	Roll:	-0.315	Pitch:	1.473	Yaw:	12.673	Thrust:	65.134
Time:	3.743	Roll Set Point:	0.071	Pitch Set Point:	-0.014	Yaw Set Point:	-0.024	X_WP:	0.000	Y_WP:	0.000	Y_WP:	0.500	X:	-0.036	Y:	0.006	Z:	0.359	yaw:	1.392	yaw rate:	14.634	Roll:	-0.441	Pitch:	0.740	Yaw:	6.520	Thrust:	65.244
Time:	3.754	Roll Set Point:	0.070	Pitch Set Point:	-0.014	Yaw Set Point:	-0.011	X_WP:	0.000	Y_WP:	0.000	Y_WP:	0.500	X:	-0.035	Y:	0.007	Z:	0.366	yaw:	0.645	yaw rate:	-74.705	Roll:	-0.273	Pitch:	0.243	Yaw:	-15.729	Thrust:	55.851
Time:	3.765	Roll Set Point:	0.069	Pitch Set Point:	-0.015	Yaw Set Point:	-0.008	X_WP:	0.000	Y_WP:	0.000	Y_WP:	0.500	X:	-0.035	Y:	0.007	Z:	0.370	yaw:	0.441	yaw rate:	-20.398	Roll:	-0.579	Pitch:	0.680	Yaw:	-3.123	Thrust:	64.811
Time:	3.776	Roll Set Point:	0.068	Pitch Set Point:	-0.016	Yaw Set Point:	-0.015	X_WP:	0.000	Y_WP:	0.000	Y_WP:	0.500	X:	-0.034	Y:	0.008	Z:	0.375	yaw:	0.877	yaw rate:	43.626	Roll:	0.037	Pitch:	1.459	Yaw:	12.683	Thrust:	64.005
Time:	3.787	Roll Set Point:	0.067	Pitch Set Point:	-0.016	Yaw Set Point:	-0.006	X_WP:	0.000	Y_WP:	0.000	Y_WP:	0.500	X:	-0.034	Y:	0.008	Z:	0.380	yaw:	0.344	yaw rate:	-53.336	Roll:	-0.632	Pitch:	0.234	Yaw:	-11.077	Thrust:	65.342
Time:	3.798	Roll Set Point:	0.066	Pitch Set Point:	-0.017	Yaw Set Point:	-0.007	X_WP:	0.000	Y_WP:	0.000	Y_WP:	0.500	X:	-0.033	Y:	0.009	Z:	0.385	yaw:	0.390	yaw rate:	4.639	Roll:	-0.218	Pitch:	0.993	Yaw:	2.749	Thrust:	65.074
Time:	3.809	Roll Set Point:	0.065	Pitch Set Point:	-0.019	Yaw Set Point:	-0.014	X_WP:	0.000	Y_WP:	0.000	Y_WP:	0.500	X:	-0.032	Y:	0.009	Z:	0.391	yaw:	0.804	yaw rate:	41.344	Roll:	0.263	Pitch:	1.808	Yaw:	12.039	Thrust:	55.952
Time:	3.820	Roll Set Point:	0.064	Pitch Set Point:	-0.019	Yaw Set Point:	-0.005	X_WP:	0.000	Y_WP:	0.000	Y_WP:	0.500	X:	-0.032	Y:	0.010	Z:	0.396	yaw:	0.307	yaw rate:	-49.714	Roll:	-0.319	Pitch:	0.302	Yaw:	-10.269	Thrust:	65.415
Time:	3.831	Roll Set Point:	0.062	Pitch Set Point:	-0.021	Yaw Set Point:	-0.009	X_WP:	0.000	Y_WP:	0.000	Y_WP:	0.500	X:	-0.031	Y:	0.010	Z:	0.400	yaw:	0.515	yaw rate:	20.844	Roll:	0.276	Pitch:	1.603	Yaw:	6.770	Thrust:	64.673
Time:	3.842	Roll Set Point:	0.061	Pitch Set Point:	-0.021	Yaw Set Point:	-0.002	X_WP:	0.000	Y_WP:	0.000	Y_WP:	0.500	X:	-0.030	Y:	0.011	Z:	0.405	yaw:	0.101	yaw rate:	-41.464	Roll:	-0.123	Pitch:	0.422	Yaw:	-8.599	Thrust:	64.163
Time:	3.853	Roll Set Point:	0.060	Pitch Set Point:	-0.023	Yaw Set Point:	-0.007	X_WP:	0.000	Y_WP:	0.000	Y_WP:	0.500	X:	-0.030	Y:	0.011	Z:	0.409	yaw:	0.421	yaw rate:	32.063	Roll:	0.139	Pitch:	1.577	Yaw:	9.050	Thrust:	69.252
Time:	3.864	Roll Set Point:	0.058	Pitch Set Point:	-0.024	Yaw Set Point:	-0.006	X_WP:	0.000	Y_WP:	0.000	Y_WP:	0.500	X:	-0.029	Y:	0.012	Z:	0.416	yaw:	0.318	yaw rate:	-10.361	Roll:	0.655	Pitch:	1.547	Yaw:	-0.913	Thrust:	55.287
Time:	3.875	Roll Set Point:	0.057	Pitch Set Point:	-0.025	Yaw Set Point:	0.003	X_WP:	0.000	Y_WP:	0.000	Y_WP:	0.500	X:	-0.028	Y:	0.012	Z:	0.421	yaw:	-0.145	yaw rate:	-46.246	Roll:	-0.341	Pitch:	0.575	Yaw:	-10.076	Thrust:	65.190
Time:	3.886	Roll Set Point:	0.055	Pitch Set Point:	-0.026	Yaw Set Point:	-0.004	X_WP:	0.000	Y_WP:	0.000	Y_WP:	0.500	X:	-0.028	Y:	0.013	Z:	0.425	yaw:	0.227	yaw rate:	37.168	Roll:	0.520	Pitch:	1.771	Yaw:	10.242	Thrust:	64.718
Time:	3.897	Roll Set Point:	0.054	Pitch Set Point:	-0.027	Yaw Set Point:	0.005	X_WP:	0.000	Y_WP:	0.000	Y_WP:	0.500	X:	-0.027	Y:	0.013	Z:	0.429	yaw:	-0.273	yaw rate:	-49.952	Roll:	0.015	Pitch:	0.634	Yaw:	-11.103	Thrust:	65.262
Time:	3.908	Roll Set Point:	0.052	Pitch Set Point:	-0.028	Yaw Set Point:	-0.002	X_WP:	0.000	Y_WP:	0.000	Y_WP:	0.500	X:	-0.026	Y:	0.014	Z:	0.434	yaw:	0.137	yaw rate:	40.950	Roll:	0.665	Pitch:	1.819	Yaw:	11.003	Thrust:	64.133
Time:	3.920	Roll Set Point:	0.051	Pitch Set Point:	-0.029	Yaw Set Point:	-0.001	X_WP:	0.000	Y_WP:	0.000	Y_WP:	0.500	X:	-0.025	Y:	0.015	Z:	0.438	yaw:	0.056	yaw rate:	-8.103	Roll:	0.113	Pitch:	1.194	Yaw:	-0.563	Thrust:	70.676
Time:	3.931	Roll Set Point:	0.048	Pitch Set Point:	-0.031	Yaw Set Point:	0.000	X_WP:	0.000	Y_WP:	0.000	Y_WP:	0.500	X:	-0.024	Y:	0.016	Z:	0.445	yaw:	-0.025	yaw rate:	-8.058	Roll:	0.993	Pitch:	1.893	Yaw:	-0.845	Thrust:	55.593
Time:	3.942	Roll Set Point:	0.047	Pitch Set Point:	-0.032	Yaw Set Point:	0.005	X_WP:	0.000	Y_WP:	0.000	Y_WP:	0.500	X:	-0.023	Y:	0.016	Z:	0.449	yaw:	-0.313	yaw rate:	-28.831	Roll:	0.192	Pitch:	0.733	Yaw:	-6.178	Thrust:	65.177
Time:	3.953	Roll Set Point:	0.045	Pitch Set Point:	-0.033	Yaw Set Point:	0.001	X_WP:	0.000	Y_WP:	0.000	Y_WP:	0.500	X:	-0.023	Y:	0.017	Z:	0.453	yaw:	-0.058	yaw rate:	25.533	Roll:	0.546	Pitch:	1.985	Yaw:	7.071	Thrust:	64.553
Time:	3.964	Roll Set Point:	0.044	Pitch Set Point:	-0.034	Yaw Set Point:	0.001	X_WP:	0.000	Y_WP:	0.000	Y_WP:	0.500	X:	-0.022	Y:	0.017	Z:	0.457	yaw:	-0.085	yaw rate:	-2.722	Roll:	0.478	Pitch:	1.296	Yaw:	0.332	Thrust:	64.068
Time:	3.975	Roll Set Point:	0.042	Pitch Set Point:	-0.036	Yaw Set Point:	0.005	X_WP:	0.000	Y_WP:	0.000	Y_WP:	0.500	X:	-0.021	Y:	0.018	Z:	0.462	yaw:	-0.262	yaw rate:	-17.682	Roll:	0.551	Pitch:	1.562	Yaw:	-3.449	Thrust:	64.192
Time:	3.986	Roll Set Point:	0.040	Pitch Set Point:	-0.037	Yaw Set Point:	0.005	X_WP:	0.000	Y_WP:	0.000	Y_WP:	0.500	X:	-0.020	Y:	0.018	Z:	0.466	yaw:	-0.268	yaw rate:	-0.614	Roll:	0.602	Pitch:	1.543	Yaw:	0.580	Thrust:	64.037
Time:	3.997	Roll Set Point:	0.038	Pitch Set Point:	-0.038	Yaw Set Point:	0.012	X_WP:	0.000	Y_WP:	0.000	Y_WP:	0.500	X:	-0.019	Y:	0.019	Z:	0.472	yaw:	-0.695	yaw rate:	-42.717	Roll:	1.134	Pitch:	1.616	Yaw:	-10.020	Thrust:	54.646
Time:	4.008	Roll Set Point:	0.036	Pitch Set Point:	-0.040	Yaw Set Point:	0.005	X_WP:	0.000	Y_WP:	0.000	Y_WP:	0.500	X:	-0.018	Y:	0.020	Z:	0.476	yaw:	-0.287	yaw rate:	40.815	Roll:	0.864	Pitch:	1.961	Yaw:	10.380	Thrust:	63.608
Time:	4.019	Roll Set Point:	0.035	Pitch Set Point:	-0.041	Yaw Set Point:	0.005	X_WP:	0.000	Y_WP:	0.000	Y_WP:	0.500	X:	-0.017	Y:	0.021	Z:	0.480	yaw:	-0.258	yaw rate:	2.902	Roll:	0.652	Pitch:	1.645	Yaw:	1.423	Thrust:	63.937
Time:	4.030	Roll Set Point:	0.033	Pitch Set Point:	-0.042	Yaw Set Point:	0.006	X_WP:	0.000	Y_WP:	0.000	Y_WP:	0.500	X:	-0.016	Y:	0.021	Z:	0.485	yaw:	-0.336	yaw rate:	-7.796	Roll:	0.755	Pitch:	1.663	Yaw:	-1.226	Thrust:	63.256
Time:	4.042	Roll Set Point:	0.030	Pitch Set Point:	-0.044	Yaw Set Point:	0.008	X_WP:	0.000	Y_WP:	0.000	Y_WP:	0.500	X:	-0.015	Y:	0.022	Z:	0.490	yaw:	-0.483	yaw rate:	-14.714	Roll:	1.597	Pitch:	1.708	Yaw:	-3.075	Thrust:	55.861
Time:	4.053	Roll Set Point:	0.029	Pitch Set Point:	-0.045	Yaw Set Point:	0.003	X_WP:	0.000	Y_WP:	0.000	Y_WP:	0.500	X:	-0.014	Y:	0.023	Z:	0.495	yaw:	-0.144	yaw rate:	33.920	Roll:	0.817	Pitch:	1.930	Yaw:	8.941	Thrust:	62.926
Time:	4.064	Roll Set Point:	0.027	Pitch Set Point:	-0.047	Yaw Set Point:	0.004	X_WP:	0.000	Y_WP:	0.000	Y_WP:	0.500	X:	-0.013	Y:	0.023	Z:	0.498	yaw:	-0.245	yaw rate:	-10.086	Roll:	0.798	Pitch:	1.857	Yaw:	-1.646	Thrust:	63.930
Time:	4.075	Roll Set Point:	0.025	Pitch Set Point:	-0.048	Yaw Set Point:	0.006	X_WP:	0.000	Y_WP:	0.000	Y_WP:	0.500	X:	-0.012	Y:	0.024	Z:	0.502	yaw:	-0.362	yaw rate:	-11.694	Roll:	0.813	Pitch:	1.655	Yaw:	-2.192	Thrust:	63.463
Time:	4.086	Roll Set Point:	0.023	Pitch Set Point:	-0.050	Yaw Set Point:	0.008	X_WP:	0.000	Y_WP:	0.000	Y_WP:	0.500	X:	-0.011	Y:	0.025	Z:	0.508	yaw:	-0.461	yaw rate:	-9.929	Roll:	1.545	Pitch:	2.184	Yaw:	-1.913	Thrust:	55.142
Time:	4.097	Roll Set Point:	0.021	Pitch Set Point:	-0.051	Yaw Set Point:	0.009	X_WP:	0.000	Y_WP:	0.000	Y_WP:	0.500	X:	-0.010	Y:	0.026	Z:	0.512	yaw:	-0.531	yaw rate:	-7.017	Roll:	0.811	Pitch:	1.865	Yaw:	-1.321	Thrust:	62.996
Time:	4.108	Roll Set Point:	0.019	Pitch Set Point:	-0.052	Yaw Set Point:	0.013	X_WP:	0.000	Y_WP:	0.000	Y_WP:	0.500	X:	-0.009	Y:	0.026	Z:	0.516	yaw:	-0.757	yaw rate:	-22.538	Roll:	0.784	Pitch:	1.715	Yaw:	-5.322	Thrust:	63.493
Time:	4.119	Roll Set Point:	0.018	Pitch Set Point:	-0.054	Yaw Set Point:	0.013	X_WP:	0.000	Y_WP:	0.000	Y_WP:	0.500	X:	-0.009	Y:	0.027	Z:	0.519	yaw:	-0.753	yaw rate:	0.371	Roll:	0.911	Pitch:	1.848	Yaw:	0.118	Thrust:	63.669
Time:	4.130	Roll Set Point:	0.016	Pitch Set Point:	-0.055	Yaw Set Point:	0.022	X_WP:	0.000	Y_WP:	0.000	Y_WP:	0.500	X:	-0.008	Y:	0.027	Z:	0.523	yaw:	-1.284	yaw rate:	-53.156	Roll:	0.505	Pitch:	1.563	Yaw:	-13.333	Thrust:	63.567
Time:	4.141	Roll Set Point:	0.014	Pitch Set Point:	-0.056	Yaw Set Point:	0.020	X_WP:	0.000	Y_WP:	0.000	Y_WP:	0.500	X:	-0.007	Y:	0.028	Z:	0.528	yaw:	-1.169	yaw rate:	11.557	Roll:	1.577	Pitch:	2.158	Yaw:	2.184	Thrust:	55.492
Time:	4.152	Roll Set Point:	0.012	Pitch Set Point:	-0.058	Yaw Set Point:	0.011	X_WP:	0.000	Y_WP:	0.000	Y_WP:	0.500	X:	-0.006	Y:	0.029	Z:	0.532	yaw:	-0.624	yaw rate:	54.473	Roll:	1.552	Pitch:	2.353	Yaw:	13.128	Thrust:	62.928
Time:	4.163	Roll Set Point:	0.010	Pitch Set Point:	-0.059	Yaw Set Point:	0.023	X_WP:	0.000	Y_WP:	0.000	Y_WP:	0.500	X:	-0.005	Y:	0.030	Z:	0.535	yaw:	-1.341	yaw rate:	-71.636	Roll:	0.502	Pitch:	1.706	Yaw:	-17.851	Thrust:	62.896
Time:	4.174	Roll Set Point:	0.008	Pitch Set Point:	-0.061	Yaw Set Point:	0.015	X_WP:	0.000	Y_WP:	0.000	Y_WP:	0.500	X:	-0.004	Y:	0.030	Z:	0.539	yaw:	-0.838	yaw rate:	50.213	Roll:	1.651	Pitch:	2.087	Yaw:	11.810	Thrust:	62.658
Time:	4.185	Roll Set Point:	0.006	Pitch Set Point:	-0.062	Yaw Set Point:	0.012	X_WP:	0.000	Y_WP:	0.000	Y_WP:	0.500	X:	-0.003	Y:	0.031	Z:	0.542	yaw:	-0.683	yaw rate:	15.585	Roll:	1.391	Pitch:	2.081	Yaw:	3.804	Thrust:	63.517
Time:	4.196	Roll Set Point:	0.004	Pitch Set Point:	-0.064	Yaw Set Point:	0.022	X_WP:	0.000	Y_WP:	0.000	Y_WP:	0.500	X:	-0.002	Y:	0.032	Z:	0.547	yaw:	-1.274	yaw rate:	-59.155	Roll:	1.042	Pitch:	2.231	Yaw:	-14.765	Thrust:	55.781
Time:	4.207	Roll Set Point:	0.002	Pitch Set Point:	-0.065	Yaw Set Point:	0.015	X_WP:	0.000	Y_WP:	0.000	Y_WP:	0.500	X:	-0.001	Y:	0.033	Z:	0.551	yaw:	-0.863	yaw rate:	41.146	Roll:	1.551	Pitch:	2.023	Yaw:	9.613	Thrust:	62.999
Time:	4.218	Roll Set Point:	0.001	Pitch Set Point:	-0.066	Yaw Set Point:	0.018	X_WP:	0.000	Y_WP:	0.000	Y_WP:	0.500	X:	-0.000	Y:	0.033	Z:	0.554	yaw:	-1.040	yaw rate:	-17.786	Roll:	1.082	Pitch:	2.148	Yaw:	-4.627	Thrust:	62.888
Time:	4.229	Roll Set Point:	-0.001	Pitch Set Point:	-0.068	Yaw Set Point:	0.019	X_WP:	0.000	Y_WP:	0.000	Y_WP:	0.500	X:	0.001	Y:	0.034	Z:	0.557	yaw:	-1.110	yaw rate:	-6.952	Roll:	0.934	Pitch:	2.030	Yaw:	-2.148	Thrust:	63.097
Time:	4.240	Roll Set Point:	-0.002	Pitch Set Point:	-0.069	Yaw Set Point:	0.015	X_WP:	0.000	Y_WP:	0.000	Y_WP:	0.500	X:	0.001	Y:	0.034	Z:	0.560	yaw:	-0.848	yaw rate:	26.247	Roll:	1.243	Pitch:	1.902	Yaw:	6.091	Thrust:	62.937
Time:	4.251	Roll Set Point:	-0.004	Pitch Set Point:	-0.071	Yaw Set Point:	0.025	X_WP:	0.000	Y_WP:	0.000	Y_WP:	0.500	X:	0.003	Y:	0.035	Z:	0.565	yaw:	-1.455	yaw rate:	-60.714	Roll:	1.484	Pitch:	2.677	Yaw:	-15.414	Thrust:	56.184
Time:	4.262	Roll Set Point:	-0.006	Pitch Set Point:	-0.072	Yaw Set Point:	0.018	X_WP:	0.000	Y_WP:	0.000	Y_WP:	0.500	X:	0.004	Y:	0.036	Z:	0.568	yaw:	-1.044	yaw rate:	41.029	Roll:	1.742	Pitch:	2.141	Yaw:	9.311	Thrust:	61.941
Time:	4.273	Roll Set Point:	-0.008	Pitch Set Point:	-0.073	Yaw Set Point:	0.018	X_WP:	0.000	Y_WP:	0.000	Y_WP:	0.500	X:	0.004	Y:	0.037	Z:	0.571	yaw:	-1.032	yaw rate:	1.259	Roll:	1.243	Pitch:	2.218	Yaw:	-0.117	Thrust:	62.424
Time:	4.284	Roll Set Point:	-0.009	Pitch Set Point:	-0.074	Yaw Set Point:	0.026	X_WP:	0.000	Y_WP:	0.000	Y_WP:	0.500	X:	0.005	Y:	0.037	Z:	0.574	yaw:	-1.468	yaw rate:	-43.651	Roll:	0.514	Pitch:	1.894	Yaw:	-11.389	Thrust:	62.984
Time:	4.295	Roll Set Point:	-0.011	Pitch Set Point:	-0.076	Yaw Set Point:	0.017	X_WP:	0.000	Y_WP:	0.000	Y_WP:	0.500	X:	0.006	Y:	0.038	Z:	0.577	yaw:	-0.995	yaw rate:	47.369	Roll:	1.947	Pitch:	2.433	Yaw:	10.871	Thrust:	61.598
Time:	4.306	Roll Set Point:	-0.012	Pitch Set Point:	-0.077	Yaw Set Point:	0.029	X_WP:	0.000	Y_WP:	0.000	Y_WP:	0.500	X:	0.007	Y:	0.039	Z:	0.581	yaw:	-1.667	yaw rate:	-67.248	Roll:	0.686	Pitch:	2.130	Yaw:	-17.249	Thrust:	56.921
Time:	4.317	Roll Set Point:	-0.014	Pitch Set Point:	-0.078	Yaw Set Point:	0.019	X_WP:	0.000	Y_WP:	0.000	Y_WP:	0.500	X:	0.007	Y:	0.039	Z:	0.584	yaw:	-1.066	yaw rate:	60.109	Roll:	1.742	Pitch:	2.021	Yaw:	13.779	Thrust:	62.842
Time:	4.328	Roll Set Point:	-0.016	Pitch Set Point:	-0.080	Yaw Set Point:	0.020	X_WP:	0.000	Y_WP:	0.000	Y_WP:	0.500	X:	0.008	Y:	0.040	Z:	0.587	yaw:	-1.143	yaw rate:	-7.675	Roll:	1.430	Pitch:	2.502	Yaw:	-2.422	Thrust:	61.125
Time:	4.339	Roll Set Point:	-0.018	Pitch Set Point:	-0.081	Yaw Set Point:	0.019	X_WP:	0.000	Y_WP:	0.000	Y_WP:	0.500	X:	0.009	Y:	0.041	Z:	0.589	yaw:	-1.112	yaw rate:	3.033	Roll:	1.548	Pitch:	2.286	Yaw:	0.164	Thrust:	61.765
Time:	4.350	Roll Set Point:	-0.019	Pitch Set Point:	-0.083	Yaw Set Point:	0.020	X_WP:	0.000	Y_WP:	0.000	Y_WP:	0.500	X:	0.010	Y:	0.041	Z:	0.592	yaw:	-1.134	yaw rate:	-2.120	Roll:	1.268	Pitch:	2.296	Yaw:	-1.093	Thrust:	61.846
Time:	4.361	Roll Set Point:	-0.020	Pitch Set Point:	-0.084	Yaw Set Point:	0.027	X_WP:	0.000	Y_WP:	0.000	Y_WP:	0.500	X:	0.011	Y:	0.042	Z:	0.596	yaw:	-1.575	yaw rate:	-44.179	Roll:	0.912	Pitch:	2.434	Yaw:	-11.697	Thrust:	57.208
Time:	4.372	Roll Set Point:	-0.022	Pitch Set Point:	-0.085	Yaw Set Point:	0.023	X_WP:	0.000	Y_WP:	0.000	Y_WP:	0.500	X:	0.011	Y:	0.042	Z:	0.598	yaw:	-1.327	yaw rate:	24.828	Roll:	1.566	Pitch:	2.319	Yaw:	5.024	Thrust:	62.212
Time:	4.383	Roll Set Point:	-0.023	Pitch Set Point:	-0.086	Yaw Set Point:	0.030	X_WP:	0.000	Y_WP:	0.000	Y_WP:	0.500	X:	0.012	Y:	0.043	Z:	0.601	yaw:	-1.723	yaw rate:	-39.611	Roll:	0.867	Pitch:	2.144	Yaw:	-10.830	Thrust:	61.897
Time:	4.394	Roll Set Point:	-0.025	Pitch Set Point:	-0.088	Yaw Set Point:	0.018	X_WP:	0.000	Y_WP:	0.000	Y_WP:	0.500	X:	0.013	Y:	0.044	Z:	0.603	yaw:	-1.042	yaw rate:	68.113	Roll:	2.249	Pitch:	2.409	Yaw:	15.671	Thrust:	62.303
Time:	4.406	Roll Set Point:	-0.027	Pitch Set Point:	-0.089	Yaw Set Point:	0.018	X_WP:	0.000	Y_WP:	0.000	Y_WP:	0.500	X:	0.014	Y:	0.044	Z:	0.605	yaw:	-1.032	yaw rate:	1.033	Roll:	1.288	Pitch:	2.063	Yaw:	-0.198	Thrust:	65.825
Time:	4.417	Roll Set Point:	-0.028	Pitch Set Point:	-0.090	Yaw Set Point:	0.020	X_WP:	0.000	Y_WP:	0.000	Y_WP:	0.500	X:	0.014	Y:	0.045	Z:	0.608	yaw:	-1.123	yaw rate:	-9.138	Roll:	1.120	Pitch:	2.390	Yaw:	-2.774	Thrust:	61.444
Time:	4.428	Roll Set Point:	-0.029	Pitch Set Point:	-0.091	Yaw Set Point:	0.030	X_WP:	0.000	Y_WP:	0.000	Y_WP:	0.500	X:	0.015	Y:	0.045	Z:	0.611	yaw:	-1.743	yaw rate:	-61.992	Roll:	0.813	Pitch:	2.644	Yaw:	-16.190	Thrust:	58.756
Time:	4.439	Roll Set Point:	-0.031	Pitch Set Point:	-0.093	Yaw Set Point:	0.022	X_WP:	0.000	Y_WP:	0.000	Y_WP:	0.500	X:	0.016	Y:	0.046	Z:	0.613	yaw:	-1.259	yaw rate:	48.418	Roll:	2.062	Pitch:	2.376	Yaw:	10.687	Thrust:	61.321
Time:	4.450	Roll Set Point:	-0.032	Pitch Set Point:	-0.094	Yaw Set Point:	0.019	X_WP:	0.000	Y_WP:	0.000	Y_WP:	0.500	X:	0.016	Y:	0.047	Z:	0.615	yaw:	-1.107	yaw rate:	15.153	Roll:	1.497	Pitch:	2.256	Yaw:	2.998	Thrust:	62.429
Time:	4.461	Roll Set Point:	-0.033	Pitch Set Point:	-0.095	Yaw Set Point:	0.015	X_WP:	0.000	Y_WP:	0.000	Y_WP:	0.500	X:	0.017	Y:	0.047	Z:	0.617	yaw:	-0.860	yaw rate:	24.781	Roll:	1.588	Pitch:	2.092	Yaw:	5.625	Thrust:	62.522
Time:	4.472	Roll Set Point:	-0.034	Pitch Set Point:	-0.096	Yaw Set Point:	0.019	X_WP:	0.000	Y_WP:	0.000	Y_WP:	0.500	X:	0.018	Y:	0.048	Z:	0.620	yaw:	-1.092	yaw rate:	-23.264	Roll:	1.086	Pitch:	2.660	Yaw:	-6.107	Thrust:	58.162
Time:	4.483	Roll Set Point:	-0.036	Pitch Set Point:	-0.097	Yaw Set Point:	0.027	X_WP:	0.000	Y_WP:	0.000	Y_WP:	0.500	X:	0.018	Y:	0.048	Z:	0.621	yaw:	-1.551	yaw rate:	-45.869	Roll:	0.992	Pitch:	2.613	Yaw:	-12.117	Thrust:	61.892
Time:	4.494	Roll Set Point:	-0.037	Pitch Set Point:	-0.098	Yaw Set Point:	0.017	X_WP:	0.000	Y_WP:	0.000	Y_WP:	0.500	X:	0.019	Y:	0.049	Z:	0.623	yaw:	-0.984	yaw rate:	56.680	Roll:	1.533	Pitch:	1.900	Yaw:	13.010	Thrust:	62.191
Time:	4.505	Roll Set Point:	-0.037	Pitch Set Point:	-0.099	Yaw Set Point:	0.028	X_WP:	0.000	Y_WP:	0.000	Y_WP:	0.500	X:	0.019	Y:	0.049	Z:	0.625	yaw:	-1.586	yaw rate:	-60.146	Roll:	0.606	Pitch:	2.636	Yaw:	-15.564	Thrust:	61.645
Time:	4.516	Roll Set Point:	-0.039	Pitch Set Point:	-0.100	Yaw Set Point:	0.018	X_WP:	0.000	Y_WP:	0.000	Y_WP:	0.500	X:	0.020	Y:	0.050	Z:	0.627	yaw:	-1.006	yaw rate:	57.939	Roll:	2.263	Pitch:	2.376	Yaw:	13.268	Thrust:	61.609
Time:	4.527	Roll Set Point:	-0.040	Pitch Set Point:	-0.101	Yaw Set Point:	0.019	X_WP:	0.000	Y_WP:	0.000	Y_WP:	0.500	X:	0.021	Y:	0.050	Z:	0.628	yaw:	-1.092	yaw rate:	-8.636	Roll:	1.290	Pitch:	2.381	Yaw:	-2.659	Thrust:	61.337
Time:	4.538	Roll Set Point:	-0.042	Pitch Set Point:	-0.103	Yaw Set Point:	0.018	X_WP:	0.000	Y_WP:	0.000	Y_WP:	0.500	X:	0.021	Y:	0.051	Z:	0.631	yaw:	-1.040	yaw rate:	5.262	Roll:	1.646	Pitch:	2.668	Yaw:	0.709	Thrust:	58.772
Time:	4.549	Roll Set Point:	-0.042	Pitch Set Point:	-0.104	Yaw Set Point:	0.022	X_WP:	0.000	Y_WP:	0.000	Y_WP:	0.500	X:	0.022	Y:	0.052	Z:	0.632	yaw:	-1.264	yaw rate:	-22.411	Roll:	0.795	Pitch:	2.480	Yaw:	-6.177	Thrust:	61.446
Time:	4.560	Roll Set Point:	-0.042	Pitch Set Point:	-0.104	Yaw Set Point:	0.027	X_WP:	0.000	Y_WP:	0.000	Y_WP:	0.500	X:	0.022	Y:	0.052	Z:	0.634	yaw:	-1.563	yaw rate:	-29.905	Roll:	0.370	Pitch:	1.976	Yaw:	-8.378	Thrust:	61.926
Time:	4.572	Roll Set Point:	-0.045	Pitch Set Point:	-0.106	Yaw Set Point:	0.025	X_WP:	0.000	Y_WP:	0.000	Y_WP:	0.500	X:	0.023	Y:	0.053	Z:	0.637	yaw:	-1.436	yaw rate:	-37.673	Roll:	2.451	Pitch:	3.329	Yaw:	1.813	Thrust:	57.494
Time:	4.583	Roll Set Point:	-0.045	Pitch Set Point:	-0.108	Yaw Set Point:	0.028	X_WP:	0.000	Y_WP:	0.000	Y_WP:	0.500	X:	0.023	Y:	0.053	Z:	0.639	yaw:	-1.623	yaw rate:	-18.764	Roll:	0.790	Pitch:	2.580	Yaw:	-5.829	Thrust:	61.614
Time:	4.594	Roll Set Point:	-0.045	Pitch Set Point:	-0.108	Yaw Set Point:	0.028	X_WP:	0.000	Y_WP:	0.000	Y_WP:	0.500	X:	0.023	Y:	0.053	Z:	0.639	yaw:	-1.623	yaw rate:	-18.764	Roll:	0.559	Pitch:	1.676	Yaw:	-1.379	Thrust:	67.023
Time:	4.605	Roll Set Point:	-0.047	Pitch Set Point:	-0.109	Yaw Set Point:	0.021	X_WP:	0.000	Y_WP:	0.000	Y_WP:	0.500	X:	0.024	Y:	0.054	Z:	0.640	yaw:	-1.178	yaw rate:	44.470	Roll:	1.870	Pitch:	2.363	Yaw:	9.786	Thrust:	61.339
Time:	4.616	Roll Set Point:	-0.048	Pitch Set Point:	-0.109	Yaw Set Point:	0.019	X_WP:	0.000	Y_WP:	0.000	Y_WP:	0.500	X:	0.024	Y:	0.054	Z:	0.641	yaw:	-1.071	yaw rate:	10.777	Roll:	1.654	Pitch:	2.151	Yaw:	1.938	Thrust:	61.176
Time:	4.628	Roll Set Point:	-0.049	Pitch Set Point:	-0.111	Yaw Set Point:	0.020	X_WP:	0.000	Y_WP:	0.000	Y_WP:	0.500	X:	0.025	Y:	0.055	Z:	0.644	yaw:	-1.143	yaw rate:	14.778	Roll:	1.475	Pitch:	3.296	Yaw:	-2.226	Thrust:	62.271
Time:	4.639	Roll Set Point:	-0.050	Pitch Set Point:	-0.112	Yaw Set Point:	0.021	X_WP:	0.000	Y_WP:	0.000	Y_WP:	0.500	X:	0.025	Y:	0.056	Z:	0.645	yaw:	-1.223	yaw rate:	-7.959	Roll:	0.991	Pitch:	2.348	Yaw:	-2.694	Thrust:	62.932
Time:	4.651	Roll Set Point:	-0.050	Pitch Set Point:	-0.113	Yaw Set Point:	0.027	X_WP:	0.000	Y_WP:	0.000	Y_WP:	0.500	X:	0.026	Y:	0.056	Z:	0.646	yaw:	-1.528	yaw rate:	-30.535	Roll:	0.435	Pitch:	2.210	Yaw:	-7.941	Thrust:	68.167
Time:	4.662	Roll Set Point:	-0.050	Pitch Set Point:	-0.113	Yaw Set Point:	0.027	X_WP:	0.000	Y_WP:	0.000	Y_WP:	0.500	X:	0.026	Y:	0.056	Z:	0.647	yaw:	-1.541	yaw rate:	-1.259	Roll:	0.992	Pitch:	2.330	Yaw:	-1.595	Thrust:	61.126
Time:	4.673	Roll Set Point:	-0.052	Pitch Set Point:	-0.114	Yaw Set Point:	0.014	X_WP:	0.000	Y_WP:	0.000	Y_WP:	0.500	X:	0.027	Y:	0.057	Z:	0.648	yaw:	-0.809	yaw rate:	73.116	Roll:	2.688	Pitch:	2.136	Yaw:	17.074	Thrust:	61.201
Time:	4.684	Roll Set Point:	-0.052	Pitch Set Point:	-0.115	Yaw Set Point:	0.019	X_WP:	0.000	Y_WP:	0.000	Y_WP:	0.500	X:	0.027	Y:	0.057	Z:	0.648	yaw:	-1.090	yaw rate:	-28.045	Roll:	0.431	Pitch:	2.466	Yaw:	-7.333	Thrust:	61.275
Time:	4.695	Roll Set Point:	-0.052	Pitch Set Point:	-0.116	Yaw Set Point:	0.028	X_WP:	0.000	Y_WP:	0.000	Y_WP:	0.500	X:	0.027	Y:	0.057	Z:	0.649	yaw:	-1.613	yaw rate:	-52.311	Roll:	0.160	Pitch:	2.656	Yaw:	-13.828	Thrust:	60.580
Time:	4.706	Roll Set Point:	-0.053	Pitch Set Point:	-0.116	Yaw Set Point:	0.021	X_WP:	0.000	Y_WP:	0.000	Y_WP:	0.500	X:	0.027	Y:	0.058	Z:	0.650	yaw:	-1.199	yaw rate:	41.389	Roll:	1.660	Pitch:	2.242	Yaw:	8.986	Thrust:	60.928
Time:	4.717	Roll Set Point:	-0.053	Pitch Set Point:	-0.117	Yaw Set Point:	0.026	X_WP:	0.000	Y_WP:	0.000	Y_WP:	0.500	X:	0.027	Y:	0.058	Z:	0.651	yaw:	-1.505	yaw rate:	-30.619	Roll:	0.321	Pitch:	2.220	Yaw:	-8.538	Thrust:	61.303
Time:	4.728	Roll Set Point:	-0.054	Pitch Set Point:	-0.117	Yaw Set Point:	0.016	X_WP:	0.000	Y_WP:	0.000	Y_WP:	0.500	X:	0.027	Y:	0.058	Z:	0.652	yaw:	-0.932	yaw rate:	57.330	Roll:	2.037	Pitch:	2.125	Yaw:	13.101	Thrust:	61.330
Time:	4.740	Roll Set Point:	-0.055	Pitch Set Point:	-0.118	Yaw Set Point:	0.016	X_WP:	0.000	Y_WP:	0.000	Y_WP:	0.500	X:	0.028	Y:	0.059	Z:	0.652	yaw:	-0.929	yaw rate:	0.244	Roll:	1.282	Pitch:	2.545	Yaw:	-0.349	Thrust:	66.753
Time:	4.751	Roll Set Point:	-0.055	Pitch Set Point:	-0.119	Yaw Set Point:	0.020	X_WP:	0.000	Y_WP:	0.000	Y_WP:	0.500	X:	0.028	Y:	0.059	Z:	0.653	yaw:	-1.121	yaw rate:	-19.146	Roll:	0.498	Pitch:	2.239	Yaw:	-5.301	Thrust:	60.168
Time:	4.762	Roll Set Point:	-0.054	Pitch Set Point:	-0.119	Yaw Set Point:	0.026	X_WP:	0.000	Y_WP:	0.000	Y_WP:	0.500	X:	0.028	Y:	0.059	Z:	0.653	yaw:	-1.462	yaw rate:	-34.091	Roll:	-0.032	Pitch:	2.183	Yaw:	-9.319	Thrust:	61.977
Time:	4.773	Roll Set Point:	-0.055	Pitch Set Point:	-0.120	Yaw Set Point:	0.018	X_WP:	0.000	Y_WP:	0.000	Y_WP:	0.500	X:	0.028	Y:	0.060	Z:	0.654	yaw:	-1.046	yaw rate:	41.554	Roll:	1.731	Pitch:	2.103	Yaw:	9.204	Thrust:	60.484
Time:	4.785	Roll Set Point:	-0.054	Pitch Set Point:	-0.120	Yaw Set Point:	0.027	X_WP:	0.000	Y_WP:	0.000	Y_WP:	0.500	X:	0.028	Y:	0.060	Z:	0.655	yaw:	-1.530	yaw rate:	-48.349	Roll:	-0.335	Pitch:	2.440	Yaw:	-12.818	Thrust:	60.578
Time:	4.796	Roll Set Point:	-0.056	Pitch Set Point:	-0.120	Yaw Set Point:	0.014	X_WP:	0.000	Y_WP:	0.000	Y_WP:	0.500	X:	0.028	Y:	0.060	Z:	0.655	yaw:	-0.792	yaw rate:	73.824	Roll:	2.391	Pitch:	1.805	Yaw:	17.215	Thrust:	61.275
Time:	4.807	Roll Set Point:	-0.055	Pitch Set Point:	-0.121	Yaw Set Point:	0.018	X_WP:	0.000	Y_WP:	0.000	Y_WP:	0.500	X:	0.028	Y:	0.060	Z:	0.655	yaw:	-1.017	yaw rate:	-22.592	Roll:	0.444	Pitch:	2.604	Yaw:	-5.988	Thrust:	59.903
Time:	4.818	Roll Set Point:	-0.055	Pitch Set Point:	-0.122	Yaw Set Point:	0.022	X_WP:	0.000	Y_WP:	0.000	Y_WP:	0.500	X:	0.028	Y:	0.061	Z:	0.656	yaw:	-1.266	yaw rate:	-24.842	Roll:	0.395	Pitch:	2.435	Yaw:	-6.873	Thrust:	60.947
Time:	4.829	Roll Set Point:	-0.056	Pitch Set Point:	-0.122	Yaw Set Point:	0.022	X_WP:	0.000	Y_WP:	0.000	Y_WP:	0.500	X:	0.028	Y:	0.061	Z:	0.656	yaw:	-1.274	yaw rate:	-0.806	Roll:	0.948	Pitch:	2.198	Yaw:	-1.182	Thrust:	60.875
Time:	4.840	Roll Set Point:	-0.056	Pitch Set Point:	-0.122	Yaw Set Point:	0.018	X_WP:	0.000	Y_WP:	0.000	Y_WP:	0.500	X:	0.028	Y:	0.061	Z:	0.656	yaw:	-1.003	yaw rate:	27.123	Roll:	1.170	Pitch:	1.991	Yaw:	5.819	Thrust:	60.529
Time:	4.851	Roll Set Point:	-0.055	Pitch Set Point:	-0.123	Yaw Set Point:	0.022	X_WP:	0.000	Y_WP:	0.000	Y_WP:	0.500	X:	0.028	Y:	0.061	Z:	0.656	yaw:	-1.245	yaw rate:	-24.229	Roll:	0.132	Pitch:	2.353	Yaw:	-6.712	Thrust:	60.515
Time:	4.862	Roll Set Point:	-0.055	Pitch Set Point:	-0.123	Yaw Set Point:	0.021	X_WP:	0.000	Y_WP:	0.000	Y_WP:	0.500	X:	0.028	Y:	0.061	Z:	0.656	yaw:	-1.230	yaw rate:	1.507	Roll:	0.758	Pitch:	2.135	Yaw:	-0.587	Thrust:	60.566
Time:	4.873	Roll Set Point:	-0.055	Pitch Set Point:	-0.123	Yaw Set Point:	0.027	X_WP:	0.000	Y_WP:	0.000	Y_WP:	0.500	X:	0.028	Y:	0.061	Z:	0.656	yaw:	-1.561	yaw rate:	-33.056	Roll:	0.024	Pitch:	2.178	Yaw:	-9.276	Thrust:	60.784
Time:	4.884	Roll Set Point:	-0.055	Pitch Set Point:	-0.123	Yaw Set Point:	0.027	X_WP:	0.000	Y_WP:	0.000	Y_WP:	0.500	X:	0.028	Y:	0.061	Z:	0.656	yaw:	-1.564	yaw rate:	-0.391	Roll:	0.792	Pitch:	2.172	Yaw:	-1.511	Thrust:	61.370
Time:	4.895	Roll Set Point:	-0.055	Pitch Set Point:	-0.123	Yaw Set Point:	0.027	X_WP:	0.000	Y_WP:	0.000	Y_WP:	0.500	X:	0.028	Y:	0.061	Z:	0.656	yaw:	-1.563	yaw rate:	0.190	Roll:	0.520	Pitch:	2.072	Yaw:	-1.381	Thrust:	60.142
Time:	4.906	Roll Set Point:	-0.054	Pitch Set Point:	-0.124	Yaw Set Point:	0.029	X_WP:	0.000	Y_WP:	0.000	Y_WP:	0.500	X:	0.028	Y:	0.061	Z:	0.656	yaw:	-1.665	yaw rate:	-10.233	Roll:	0.299	Pitch:	2.153	Yaw:	-4.005	Thrust:	61.817
Time:	4.918	Roll Set Point:	-0.054	Pitch Set Point:	-0.124	Yaw Set Point:	0.028	X_WP:	0.000	Y_WP:	0.000	Y_WP:	0.500	X:	0.028	Y:	0.062	Z:	0.656	yaw:	-1.594	yaw rate:	7.131	Roll:	0.729	Pitch:	2.083	Yaw:	0.139	Thrust:	66.689
Time:	4.929	Roll Set Point:	-0.055	Pitch Set Point:	-0.124	Yaw Set Point:	0.024	X_WP:	0.000	Y_WP:	0.000	Y_WP:	0.500	X:	0.028	Y:	0.062	Z:	0.656	yaw:	-1.381	yaw rate:	21.293	Roll:	1.062	Pitch:	2.013	Yaw:	3.864	Thrust:	61.481
Time:	4.940	Roll Set Point:	-0.054	Pitch Set Point:	-0.124	Yaw Set Point:	0.029	X_WP:	0.000	Y_WP:	0.000	Y_WP:	0.500	X:	0.028	Y:	0.062	Z:	0.655	yaw:	-1.655	yaw rate:	-27.451	Roll:	0.129	Pitch:	2.301	Yaw:	-8.095	Thrust:	60.864
Time:	4.952	Roll Set Point:	-0.055	Pitch Set Point:	-0.125	Yaw Set Point:	0.020	X_WP:	0.000	Y_WP:	0.000	Y_WP:	0.500	X:	0.028	Y:	0.062	Z:	0.655	yaw:	-1.161	yaw rate:	49.378	Roll:	1.475	Pitch:	1.931	Yaw:	10.825	Thrust:	60.527
Time:	4.962	Roll Set Point:	-0.054	Pitch Set Point:	-0.124	Yaw Set Point:	0.023	X_WP:	0.000	Y_WP:	0.000	Y_WP:	0.500	X:	0.028	Y:	0.062	Z:	0.654	yaw:	-1.325	yaw rate:	-16.396	Roll:	-0.112	Pitch:	1.814	Yaw:	-5.012	Thrust:	62.489
Time:	4.973	Roll Set Point:	-0.054	Pitch Set Point:	-0.125	Yaw Set Point:	0.027	X_WP:	0.000	Y_WP:	0.000	Y_WP:	0.500	X:	0.028	Y:	0.062	Z:	0.654	yaw:	-1.522	yaw rate:	-19.639	Roll:	0.643	Pitch:	2.342	Yaw:	-6.069	Thrust:	61.425
Time:	4.984	Roll Set Point:	-0.054	Pitch Set Point:	-0.125	Yaw Set Point:	0.026	X_WP:	0.000	Y_WP:	0.000	Y_WP:	0.500	X:	0.028	Y:	0.062	Z:	0.653	yaw:	-1.470	yaw rate:	5.131	Roll:	0.590	Pitch:	2.224	Yaw:	-0.124	Thrust:	60.639
Time:	4.995	Roll Set Point:	-0.053	Pitch Set Point:	-0.125	Yaw Set Point:	0.026	X_WP:	0.000	Y_WP:	0.000	Y_WP:	0.500	X:	0.027	Y:	0.062	Z:	0.653	yaw:	-1.477	yaw rate:	-0.659	Roll:	0.443	Pitch:	1.991	Yaw:	-1.514	Thrust:	61.531
Time:	5.006	Roll Set Point:	-0.053	Pitch Set Point:	-0.125	Yaw Set Point:	0.027	X_WP:	0.000	Y_WP:	0.000	Y_WP:	0.500	X:	0.027	Y:	0.062	Z:	0.652	yaw:	-1.531	yaw rate:	-5.447	Roll:	0.492	Pitch:	2.181	Yaw:	-2.732	Thrust:	61.413
