Time:	2.452	Roll Set Point:	-0.015	Pitch Set Point:	0.029	Yaw Set Point:	-2.957	X_WP:	0.000	Y_WP:	0.000	Y_WP:	0.500	X:	0.163	Y:	0.069	Z:	0.401	yaw:	169.451	yaw rate:	0.571	Roll:	-4.279	Pitch:	-2.829	Yaw:	236.598	Thrust:	5.454
Time:	2.483	Roll Set Point:	-0.015	Pitch Set Point:	0.029	Yaw Set Point:	-2.957	X_WP:	0.000	Y_WP:	0.000	Y_WP:	0.500	X:	0.163	Y:	0.069	Z:	0.401	yaw:	169.444	yaw rate:	1.792	Roll:	-4.282	Pitch:	-2.843	Yaw:	238.383	Thrust:	5.776
Time:	2.514	Roll Set Point:	-0.015	Pitch Set Point:	0.029	Yaw Set Point:	-2.957	X_WP:	0.000	Y_WP:	0.000	Y_WP:	0.500	X:	0.163	Y:	0.069	Z:	0.401	yaw:	169.438	yaw rate:	-0.692	Roll:	-4.296	Pitch:	-2.858	Yaw:	239.650	Thrust:	6.167
Time:	2.545	Roll Set Point:	-0.015	Pitch Set Point:	0.029	Yaw Set Point:	-2.957	X_WP:	0.000	Y_WP:	0.000	Y_WP:	0.500	X:	0.163	Y:	0.069	Z:	0.401	yaw:	169.422	yaw rate:	-16.909	Roll:	-4.299	Pitch:	-2.884	Yaw:	239.508	Thrust:	6.568
Time:	2.576	Roll Set Point:	-0.015	Pitch Set Point:	0.029	Yaw Set Point:	-2.957	X_WP:	0.000	Y_WP:	0.000	Y_WP:	0.500	X:	0.163	Y:	0.069	Z:	0.401	yaw:	169.438	yaw rate:	1.637	Roll:	-4.338	Pitch:	-2.828	Yaw:	239.843	Thrust:	6.956
Time:	2.608	Roll Set Point:	-0.015	Pitch Set Point:	0.029	Yaw Set Point:	-2.957	X_WP:	0.000	Y_WP:	0.000	Y_WP:	0.500	X:	0.163	Y:	0.069	Z:	0.401	yaw:	169.446	yaw rate:	0.802	Roll:	-4.338	Pitch:	-2.867	Yaw:	239.784	Thrust:	7.288
Time:	2.639	Roll Set Point:	-0.015	Pitch Set Point:	0.029	Yaw Set Point:	-2.957	X_WP:	0.000	Y_WP:	0.000	Y_WP:	0.500	X:	0.163	Y:	0.069	Z:	0.401	yaw:	169.448	yaw rate:	-0.854	Roll:	-4.346	Pitch:	-2.864	Yaw:	239.732	Thrust:	7.742
Time:	2.670	Roll Set Point:	-0.015	Pitch Set Point:	0.029	Yaw Set Point:	-2.957	X_WP:	0.000	Y_WP:	0.000	Y_WP:	0.500	X:	0.163	Y:	0.069	Z:	0.401	yaw:	169.439	yaw rate:	-0.850	Roll:	-4.350	Pitch:	-2.912	Yaw:	239.636	Thrust:	8.088
Time:	2.703	Roll Set Point:	-0.015	Pitch Set Point:	0.029	Yaw Set Point:	-2.957	X_WP:	0.000	Y_WP:	0.000	Y_WP:	0.500	X:	0.163	Y:	0.069	Z:	0.401	yaw:	169.434	yaw rate:	-0.699	Roll:	-4.385	Pitch:	-2.887	Yaw:	239.819	Thrust:	8.558
Time:	2.726	Roll Set Point:	-0.015	Pitch Set Point:	0.029	Yaw Set Point:	-2.957	X_WP:	0.000	Y_WP:	0.000	Y_WP:	0.500	X:	0.163	Y:	0.069	Z:	0.401	yaw:	169.434	yaw rate:	-0.699	Roll:	-4.354	Pitch:	-2.880	Yaw:	238.848	Thrust:	7.887
Time:	2.757	Roll Set Point:	-0.015	Pitch Set Point:	0.029	Yaw Set Point:	-2.957	X_WP:	0.000	Y_WP:	0.000	Y_WP:	0.500	X:	0.163	Y:	0.069	Z:	0.401	yaw:	169.435	yaw rate:	-3.017	Roll:	-4.397	Pitch:	-2.917	Yaw:	239.711	Thrust:	9.136
Time:	2.788	Roll Set Point:	-0.015	Pitch Set Point:	0.029	Yaw Set Point:	-2.957	X_WP:	0.000	Y_WP:	0.000	Y_WP:	0.500	X:	0.163	Y:	0.069	Z:	0.401	yaw:	169.427	yaw rate:	-1.007	Roll:	-4.402	Pitch:	-2.917	Yaw:	239.620	Thrust:	9.543
Time:	2.820	Roll Set Point:	-0.015	Pitch Set Point:	0.029	Yaw Set Point:	-2.957	X_WP:	0.000	Y_WP:	0.000	Y_WP:	0.500	X:	0.163	Y:	0.069	Z:	0.401	yaw:	169.435	yaw rate:	0.828	Roll:	-4.401	Pitch:	-2.928	Yaw:	239.771	Thrust:	9.928
Time:	2.851	Roll Set Point:	-0.015	Pitch Set Point:	0.029	Yaw Set Point:	-2.957	X_WP:	0.000	Y_WP:	0.000	Y_WP:	0.500	X:	0.163	Y:	0.069	Z:	0.401	yaw:	169.448	yaw rate:	1.316	Roll:	-4.451	Pitch:	-2.886	Yaw:	239.830	Thrust:	10.307
Time:	2.882	Roll Set Point:	-0.015	Pitch Set Point:	0.029	Yaw Set Point:	-2.957	X_WP:	0.000	Y_WP:	0.000	Y_WP:	0.500	X:	0.163	Y:	0.069	Z:	0.401	yaw:	169.429	yaw rate:	-1.947	Roll:	-4.409	Pitch:	-2.978	Yaw:	239.530	Thrust:	10.606
Time:	2.913	Roll Set Point:	-0.015	Pitch Set Point:	0.029	Yaw Set Point:	-2.957	X_WP:	0.000	Y_WP:	0.000	Y_WP:	0.500	X:	0.163	Y:	0.069	Z:	0.401	yaw:	169.451	yaw rate:	1.684	Roll:	-4.476	Pitch:	-2.903	Yaw:	239.908	Thrust:	11.014
Time:	2.945	Roll Set Point:	-0.015	Pitch Set Point:	0.029	Yaw Set Point:	-2.957	X_WP:	0.000	Y_WP:	0.000	Y_WP:	0.500	X:	0.163	Y:	0.069	Z:	0.401	yaw:	169.427	yaw rate:	-1.414	Roll:	-4.422	Pitch:	-3.009	Yaw:	239.488	Thrust:	11.440
Time:	2.976	Roll Set Point:	-0.015	Pitch Set Point:	0.029	Yaw Set Point:	-2.957	X_WP:	0.000	Y_WP:	0.000	Y_WP:	0.500	X:	0.163	Y:	0.069	Z:	0.401	yaw:	169.447	yaw rate:	2.046	Roll:	-4.534	Pitch:	-2.912	Yaw:	239.890	Thrust:	11.820
Time:	3.007	Roll Set Point:	-0.015	Pitch Set Point:	0.029	Yaw Set Point:	-2.957	X_WP:	0.000	Y_WP:	0.000	Y_WP:	0.500	X:	0.163	Y:	0.069	Z:	0.401	yaw:	169.432	yaw rate:	-1.231	Roll:	-4.439	Pitch:	-3.008	Yaw:	239.569	Thrust:	12.068
Time:	3.038	Roll Set Point:	-0.015	Pitch Set Point:	0.029	Yaw Set Point:	-2.957	X_WP:	0.000	Y_WP:	0.000	Y_WP:	0.500	X:	0.163	Y:	0.069	Z:	0.401	yaw:	169.432	yaw rate:	-0.047	Roll:	-4.515	Pitch:	-2.968	Yaw:	239.692	Thrust:	12.589
Time:	3.070	Roll Set Point:	-0.015	Pitch Set Point:	0.029	Yaw Set Point:	-2.957	X_WP:	0.000	Y_WP:	0.000	Y_WP:	0.500	X:	0.163	Y:	0.069	Z:	0.401	yaw:	169.422	yaw rate:	-0.484	Roll:	-4.496	Pitch:	-3.005	Yaw:	239.603	Thrust:	12.833
Time:	3.101	Roll Set Point:	-0.015	Pitch Set Point:	0.029	Yaw Set Point:	-2.958	X_WP:	0.000	Y_WP:	0.000	Y_WP:	0.500	X:	0.163	Y:	0.069	Z:	0.401	yaw:	169.454	yaw rate:	2.167	Roll:	-4.584	Pitch:	-2.964	Yaw:	239.999	Thrust:	13.338
Time:	3.132	Roll Set Point:	-0.015	Pitch Set Point:	0.029	Yaw Set Point:	-2.957	X_WP:	0.000	Y_WP:	0.000	Y_WP:	0.500	X:	0.163	Y:	0.069	Z:	0.401	yaw:	169.450	yaw rate:	-0.707	Roll:	-4.489	Pitch:	-2.988	Yaw:	239.683	Thrust:	13.542
Time:	3.163	Roll Set Point:	-0.015	Pitch Set Point:	0.029	Yaw Set Point:	-2.957	X_WP:	0.000	Y_WP:	0.000	Y_WP:	0.500	X:	0.163	Y:	0.069	Z:	0.401	yaw:	169.440	yaw rate:	-0.965	Roll:	-4.552	Pitch:	-2.990	Yaw:	239.628	Thrust:	13.994
Time:	3.195	Roll Set Point:	-0.015	Pitch Set Point:	0.029	Yaw Set Point:	-2.957	X_WP:	0.000	Y_WP:	0.000	Y_WP:	0.500	X:	0.163	Y:	0.069	Z:	0.401	yaw:	169.434	yaw rate:	-0.638	Roll:	-4.536	Pitch:	-3.047	Yaw:	239.646	Thrust:	14.368
Time:	3.226	Roll Set Point:	-0.015	Pitch Set Point:	0.029	Yaw Set Point:	-2.957	X_WP:	0.000	Y_WP:	0.000	Y_WP:	0.500	X:	0.163	Y:	0.069	Z:	0.401	yaw:	169.441	yaw rate:	0.682	Roll:	-4.572	Pitch:	-2.991	Yaw:	239.766	Thrust:	14.823
Time:	3.257	Roll Set Point:	-0.015	Pitch Set Point:	0.029	Yaw Set Point:	-2.957	X_WP:	0.000	Y_WP:	0.000	Y_WP:	0.500	X:	0.163	Y:	0.069	Z:	0.401	yaw:	169.440	yaw rate:	-0.161	Roll:	-4.577	Pitch:	-3.049	Yaw:	239.705	Thrust:	15.065
Time:	3.288	Roll Set Point:	-0.015	Pitch Set Point:	0.029	Yaw Set Point:	-2.957	X_WP:	0.000	Y_WP:	0.000	Y_WP:	0.500	X:	0.163	Y:	0.069	Z:	0.401	yaw:	169.452	yaw rate:	1.168	Roll:	-4.622	Pitch:	-3.002	Yaw:	239.823	Thrust:	15.559
Time:	3.320	Roll Set Point:	-0.015	Pitch Set Point:	0.029	Yaw Set Point:	-2.957	X_WP:	0.000	Y_WP:	0.000	Y_WP:	0.500	X:	0.163	Y:	0.069	Z:	0.401	yaw:	169.451	yaw rate:	0.955	Roll:	-4.581	Pitch:	-3.059	Yaw:	239.715	Thrust:	15.817
Time:	3.351	Roll Set Point:	-0.015	Pitch Set Point:	0.029	Yaw Set Point:	-2.957	X_WP:	0.000	Y_WP:	0.000	Y_WP:	0.500	X:	0.163	Y:	0.069	Z:	0.401	yaw:	169.437	yaw rate:	-1.401	Roll:	-4.618	Pitch:	-3.102	Yaw:	239.587	Thrust:	16.279
Time:	3.382	Roll Set Point:	-0.015	Pitch Set Point:	0.029	Yaw Set Point:	-2.957	X_WP:	0.000	Y_WP:	0.000	Y_WP:	0.500	X:	0.163	Y:	0.069	Z:	0.401	yaw:	169.432	yaw rate:	-1.463	Roll:	-4.604	Pitch:	-3.034	Yaw:	239.657	Thrust:	16.565
Time:	3.413	Roll Set Point:	-0.015	Pitch Set Point:	0.029	Yaw Set Point:	-2.958	X_WP:	0.000	Y_WP:	0.000	Y_WP:	0.500	X:	0.163	Y:	0.069	Z:	0.401	yaw:	169.454	yaw rate:	2.192	Roll:	-4.674	Pitch:	-3.016	Yaw:	239.914	Thrust:	17.047
Time:	3.445	Roll Set Point:	-0.015	Pitch Set Point:	0.029	Yaw Set Point:	-2.957	X_WP:	0.000	Y_WP:	0.000	Y_WP:	0.500	X:	0.163	Y:	0.069	Z:	0.401	yaw:	169.443	yaw rate:	-1.076	Roll:	-4.609	Pitch:	-3.108	Yaw:	239.620	Thrust:	17.251
Time:	3.476	Roll Set Point:	-0.015	Pitch Set Point:	0.029	Yaw Set Point:	-2.958	X_WP:	0.000	Y_WP:	0.000	Y_WP:	0.500	X:	0.163	Y:	0.069	Z:	0.401	yaw:	169.456	yaw rate:	1.243	Roll:	-4.677	Pitch:	-3.049	Yaw:	239.834	Thrust:	17.824
Time:	3.508	Roll Set Point:	-0.015	Pitch Set Point:	0.029	Yaw Set Point:	-2.958	X_WP:	0.000	Y_WP:	0.000	Y_WP:	0.500	X:	0.163	Y:	0.069	Z:	0.401	yaw:	169.462	yaw rate:	1.138	Roll:	-4.697	Pitch:	-3.103	Yaw:	239.854	Thrust:	18.298
Time:	3.545	Roll Set Point:	-0.015	Pitch Set Point:	0.029	Yaw Set Point:	-2.957	X_WP:	0.000	Y_WP:	0.000	Y_WP:	0.500	X:	0.163	Y:	0.069	Z:	0.401	yaw:	169.430	yaw rate:	-3.191	Roll:	-4.727	Pitch:	-3.189	Yaw:	240.119	Thrust:	21.067
Time:	3.577	Roll Set Point:	-0.015	Pitch Set Point:	0.029	Yaw Set Point:	-2.958	X_WP:	0.000	Y_WP:	0.000	Y_WP:	0.500	X:	0.163	Y:	0.069	Z:	0.401	yaw:	169.453	yaw rate:	0.692	Roll:	-4.736	Pitch:	-3.050	Yaw:	239.914	Thrust:	18.899
Time:	3.608	Roll Set Point:	-0.015	Pitch Set Point:	0.029	Yaw Set Point:	-2.957	X_WP:	0.000	Y_WP:	0.000	Y_WP:	0.500	X:	0.163	Y:	0.069	Z:	0.401	yaw:	169.446	yaw rate:	1.152	Roll:	-4.691	Pitch:	-3.129	Yaw:	239.657	Thrust:	19.270
Time:	3.639	Roll Set Point:	-0.015	Pitch Set Point:	0.029	Yaw Set Point:	-2.958	X_WP:	0.000	Y_WP:	0.000	Y_WP:	0.500	X:	0.163	Y:	0.069	Z:	0.401	yaw:	169.456	yaw rate:	1.018	Roll:	-4.760	Pitch:	-3.141	Yaw:	239.816	Thrust:	19.590
Time:	3.670	Roll Set Point:	-0.015	Pitch Set Point:	0.029	Yaw Set Point:	-2.957	X_WP:	0.000	Y_WP:	0.000	Y_WP:	0.500	X:	0.163	Y:	0.069	Z:	0.401	yaw:	169.437	yaw rate:	-1.896	Roll:	-4.658	Pitch:	-3.139	Yaw:	239.545	Thrust:	19.880
Time:	3.702	Roll Set Point:	-0.015	Pitch Set Point:	0.029	Yaw Set Point:	-2.958	X_WP:	0.000	Y_WP:	0.000	Y_WP:	0.500	X:	0.163	Y:	0.069	Z:	0.401	yaw:	169.453	yaw rate:	-0.073	Roll:	-4.787	Pitch:	-3.082	Yaw:	239.858	Thrust:	20.329
Time:	3.733	Roll Set Point:	-0.015	Pitch Set Point:	0.029	Yaw Set Point:	-2.957	X_WP:	0.000	Y_WP:	0.000	Y_WP:	0.500	X:	0.163	Y:	0.069	Z:	0.401	yaw:	169.431	yaw rate:	-2.137	Roll:	-4.705	Pitch:	-3.210	Yaw:	239.517	Thrust:	20.706
Time:	3.780	Roll Set Point:	-0.015	Pitch Set Point:	0.029	Yaw Set Point:	-2.957	X_WP:	0.000	Y_WP:	0.000	Y_WP:	0.500	X:	0.163	Y:	0.069	Z:	0.401	yaw:	169.435	yaw rate:	-2.758	Roll:	-5.009	Pitch:	-3.283	Yaw:	241.254	Thrust:	28.744
Time:	3.811	Roll Set Point:	-0.015	Pitch Set Point:	0.029	Yaw Set Point:	-2.957	X_WP:	0.000	Y_WP:	0.000	Y_WP:	0.500	X:	0.163	Y:	0.069	Z:	0.401	yaw:	169.450	yaw rate:	0.666	Roll:	-4.808	Pitch:	-3.130	Yaw:	239.855	Thrust:	21.445
Time:	3.842	Roll Set Point:	-0.015	Pitch Set Point:	0.029	Yaw Set Point:	-2.957	X_WP:	0.000	Y_WP:	0.000	Y_WP:	0.500	X:	0.163	Y:	0.069	Z:	0.401	yaw:	169.441	yaw rate:	-0.998	Roll:	-4.746	Pitch:	-3.201	Yaw:	239.625	Thrust:	21.744
Time:	3.873	Roll Set Point:	-0.015	Pitch Set Point:	0.029	Yaw Set Point:	-2.957	X_WP:	0.000	Y_WP:	0.000	Y_WP:	0.500	X:	0.163	Y:	0.069	Z:	0.401	yaw:	169.442	yaw rate:	0.115	Roll:	-4.816	Pitch:	-3.174	Yaw:	239.720	Thrust:	22.267
Time:	3.905	Roll Set Point:	-0.015	Pitch Set Point:	0.029	Yaw Set Point:	-2.957	X_WP:	0.000	Y_WP:	0.000	Y_WP:	0.500	X:	0.163	Y:	0.069	Z:	0.401	yaw:	169.425	yaw rate:	-1.627	Roll:	-4.792	Pitch:	-3.205	Yaw:	239.552	Thrust:	22.527
Time:	3.936	Roll Set Point:	-0.015	Pitch Set Point:	0.029	Yaw Set Point:	-2.957	X_WP:	0.000	Y_WP:	0.000	Y_WP:	0.500	X:	0.163	Y:	0.069	Z:	0.401	yaw:	169.428	yaw rate:	0.291	Roll:	-4.804	Pitch:	-3.192	Yaw:	239.716	Thrust:	22.920
Time:	3.967	Roll Set Point:	-0.015	Pitch Set Point:	0.029	Yaw Set Point:	-2.957	X_WP:	0.000	Y_WP:	0.000	Y_WP:	0.500	X:	0.163	Y:	0.069	Z:	0.401	yaw:	169.430	yaw rate:	-4.005	Roll:	-4.848	Pitch:	-3.189	Yaw:	239.711	Thrust:	23.311
Time:	3.998	Roll Set Point:	-0.015	Pitch Set Point:	0.029	Yaw Set Point:	-2.957	X_WP:	0.000	Y_WP:	0.000	Y_WP:	0.500	X:	0.163	Y:	0.069	Z:	0.401	yaw:	169.445	yaw rate:	1.470	Roll:	-4.848	Pitch:	-3.187	Yaw:	239.839	Thrust:	23.636
Time:	4.030	Roll Set Point:	-0.015	Pitch Set Point:	0.029	Yaw Set Point:	-2.957	X_WP:	0.000	Y_WP:	0.000	Y_WP:	0.500	X:	0.163	Y:	0.069	Z:	0.401	yaw:	169.425	yaw rate:	-0.990	Roll:	-4.838	Pitch:	-3.241	Yaw:	239.517	Thrust:	24.081
Time:	4.061	Roll Set Point:	-0.015	Pitch Set Point:	0.029	Yaw Set Point:	-2.957	X_WP:	0.000	Y_WP:	0.000	Y_WP:	0.500	X:	0.163	Y:	0.069	Z:	0.401	yaw:	169.447	yaw rate:	-0.432	Roll:	-4.882	Pitch:	-3.173	Yaw:	239.909	Thrust:	24.426
Time:	4.092	Roll Set Point:	-0.015	Pitch Set Point:	0.029	Yaw Set Point:	-2.957	X_WP:	0.000	Y_WP:	0.000	Y_WP:	0.500	X:	0.163	Y:	0.069	Z:	0.401	yaw:	169.446	yaw rate:	-0.153	Roll:	-4.910	Pitch:	-3.228	Yaw:	239.704	Thrust:	24.765
Time:	4.123	Roll Set Point:	-0.015	Pitch Set Point:	0.029	Yaw Set Point:	-2.957	X_WP:	0.000	Y_WP:	0.000	Y_WP:	0.500	X:	0.163	Y:	0.069	Z:	0.401	yaw:	169.451	yaw rate:	1.778	Roll:	-4.880	Pitch:	-3.226	Yaw:	239.769	Thrust:	25.160
Time:	4.155	Roll Set Point:	-0.015	Pitch Set Point:	0.029	Yaw Set Point:	-2.957	X_WP:	0.000	Y_WP:	0.000	Y_WP:	0.500	X:	0.163	Y:	0.069	Z:	0.401	yaw:	169.442	yaw rate:	-0.913	Roll:	-4.885	Pitch:	-3.243	Yaw:	239.634	Thrust:	25.566
Time:	4.186	Roll Set Point:	-0.015	Pitch Set Point:	0.029	Yaw Set Point:	-2.958	X_WP:	0.000	Y_WP:	0.000	Y_WP:	0.500	X:	0.163	Y:	0.069	Z:	0.401	yaw:	169.459	yaw rate:	2.324	Roll:	-4.923	Pitch:	-3.237	Yaw:	239.874	Thrust:	25.843
Time:	4.217	Roll Set Point:	-0.015	Pitch Set Point:	0.029	Yaw Set Point:	-2.957	X_WP:	0.000	Y_WP:	0.000	Y_WP:	0.500	X:	0.163	Y:	0.069	Z:	0.401	yaw:	169.449	yaw rate:	-0.978	Roll:	-4.941	Pitch:	-3.259	Yaw:	239.640	Thrust:	26.353
Time:	4.248	Roll Set Point:	-0.015	Pitch Set Point:	0.029	Yaw Set Point:	-2.957	X_WP:	0.000	Y_WP:	0.000	Y_WP:	0.500	X:	0.163	Y:	0.069	Z:	0.401	yaw:	169.436	yaw rate:	-1.279	Roll:	-4.892	Pitch:	-3.303	Yaw:	239.594	Thrust:	26.505
Time:	4.280	Roll Set Point:	-0.015	Pitch Set Point:	0.029	Yaw Set Point:	-2.957	X_WP:	0.000	Y_WP:	0.000	Y_WP:	0.500	X:	0.163	Y:	0.069	Z:	0.401	yaw:	169.444	yaw rate:	-1.370	Roll:	-4.972	Pitch:	-3.243	Yaw:	239.782	Thrust:	27.116
Time:	4.311	Roll Set Point:	-0.015	Pitch Set Point:	0.029	Yaw Set Point:	-2.958	X_WP:	0.000	Y_WP:	0.000	Y_WP:	0.500	X:	0.163	Y:	0.069	Z:	0.401	yaw:	169.453	yaw rate:	2.710	Roll:	-4.953	Pitch:	-3.271	Yaw:	239.798	Thrust:	27.327
Time:	4.342	Roll Set Point:	-0.015	Pitch Set Point:	0.029	Yaw Set Point:	-2.957	X_WP:	0.000	Y_WP:	0.000	Y_WP:	0.500	X:	0.163	Y:	0.069	Z:	0.401	yaw:	169.424	yaw rate:	-4.568	Roll:	-4.951	Pitch:	-3.329	Yaw:	239.441	Thrust:	27.838
Time:	4.373	Roll Set Point:	-0.015	Pitch Set Point:	0.029	Yaw Set Point:	-2.958	X_WP:	0.000	Y_WP:	0.000	Y_WP:	0.500	X:	0.163	Y:	0.069	Z:	0.401	yaw:	169.453	yaw rate:	2.888	Roll:	-5.003	Pitch:	-3.272	Yaw:	239.970	Thrust:	28.143
Time:	4.405	Roll Set Point:	-0.015	Pitch Set Point:	0.029	Yaw Set Point:	-2.957	X_WP:	0.000	Y_WP:	0.000	Y_WP:	0.500	X:	0.163	Y:	0.069	Z:	0.401	yaw:	169.438	yaw rate:	-1.427	Roll:	-4.999	Pitch:	-3.301	Yaw:	239.583	Thrust:	28.417
Time:	4.436	Roll Set Point:	-0.015	Pitch Set Point:	0.029	Yaw Set Point:	-2.957	X_WP:	0.000	Y_WP:	0.000	Y_WP:	0.500	X:	0.163	Y:	0.069	Z:	0.401	yaw:	169.451	yaw rate:	1.365	Roll:	-5.001	Pitch:	-3.298	Yaw:	239.833	Thrust:	28.921
Time:	4.467	Roll Set Point:	-0.015	Pitch Set Point:	0.029	Yaw Set Point:	-2.957	X_WP:	0.000	Y_WP:	0.000	Y_WP:	0.500	X:	0.163	Y:	0.069	Z:	0.401	yaw:	169.447	yaw rate:	-0.331	Roll:	-5.029	Pitch:	-3.326	Yaw:	239.681	Thrust:	29.272
Time:	4.498	Roll Set Point:	-0.015	Pitch Set Point:	0.029	Yaw Set Point:	-2.957	X_WP:	0.000	Y_WP:	0.000	Y_WP:	0.500	X:	0.163	Y:	0.069	Z:	0.401	yaw:	169.450	yaw rate:	0.349	Roll:	-5.019	Pitch:	-3.329	Yaw:	239.748	Thrust:	29.591
Time:	4.545	Roll Set Point:	-0.015	Pitch Set Point:	0.029	Yaw Set Point:	-2.958	X_WP:	0.000	Y_WP:	0.000	Y_WP:	0.500	X:	0.163	Y:	0.069	Z:	0.401	yaw:	169.459	yaw rate:	0.854	Roll:	-5.429	Pitch:	-3.561	Yaw:	241.338	Thrust:	42.229
Time:	4.576	Roll Set Point:	-0.015	Pitch Set Point:	0.029	Yaw Set Point:	-2.957	X_WP:	0.000	Y_WP:	0.000	Y_WP:	0.500	X:	0.163	Y:	0.069	Z:	0.401	yaw:	169.442	yaw rate:	0.949	Roll:	-5.018	Pitch:	-3.368	Yaw:	239.569	Thrust:	30.284
Time:	4.608	Roll Set Point:	-0.015	Pitch Set Point:	0.029	Yaw Set Point:	-2.957	X_WP:	0.000	Y_WP:	0.000	Y_WP:	0.500	X:	0.163	Y:	0.069	Z:	0.401	yaw:	169.443	yaw rate:	0.127	Roll:	-5.086	Pitch:	-3.362	Yaw:	239.723	Thrust:	30.836
Time:	4.639	Roll Set Point:	-0.015	Pitch Set Point:	0.029	Yaw Set Point:	-2.957	X_WP:	0.000	Y_WP:	0.000	Y_WP:	0.500	X:	0.163	Y:	0.069	Z:	0.401	yaw:	169.436	yaw rate:	-0.700	Roll:	-5.067	Pitch:	-3.351	Yaw:	239.644	Thrust:	31.060
Time:	4.670	Roll Set Point:	-0.015	Pitch Set Point:	0.029	Yaw Set Point:	-2.958	X_WP:	0.000	Y_WP:	0.000	Y_WP:	0.500	X:	0.163	Y:	0.069	Z:	0.401	yaw:	169.460	yaw rate:	1.293	Roll:	-5.109	Pitch:	-3.340	Yaw:	239.936	Thrust:	31.530
Time:	4.701	Roll Set Point:	-0.015	Pitch Set Point:	0.029	Yaw Set Point:	-2.957	X_WP:	0.000	Y_WP:	0.000	Y_WP:	0.500	X:	0.163	Y:	0.069	Z:	0.401	yaw:	169.442	yaw rate:	-1.794	Roll:	-5.061	Pitch:	-3.395	Yaw:	239.561	Thrust:	31.795
Time:	4.733	Roll Set Point:	-0.015	Pitch Set Point:	0.029	Yaw Set Point:	-2.958	X_WP:	0.000	Y_WP:	0.000	Y_WP:	0.500	X:	0.163	Y:	0.069	Z:	0.401	yaw:	169.453	yaw rate:	1.222	Roll:	-5.143	Pitch:	-3.359	Yaw:	239.817	Thrust:	32.219
Time:	4.764	Roll Set Point:	-0.015	Pitch Set Point:	0.029	Yaw Set Point:	-2.957	X_WP:	0.000	Y_WP:	0.000	Y_WP:	0.500	X:	0.163	Y:	0.069	Z:	0.401	yaw:	169.442	yaw rate:	-1.052	Roll:	-5.103	Pitch:	-3.400	Yaw:	239.623	Thrust:	32.623
Time:	4.795	Roll Set Point:	-0.015	Pitch Set Point:	0.029	Yaw Set Point:	-2.957	X_WP:	0.000	Y_WP:	0.000	Y_WP:	0.500	X:	0.163	Y:	0.069	Z:	0.401	yaw:	169.451	yaw rate:	1.006	Roll:	-5.136	Pitch:	-3.390	Yaw:	239.801	Thrust:	32.967
Time:	4.826	Roll Set Point:	-0.015	Pitch Set Point:	0.029	Yaw Set Point:	-2.958	X_WP:	0.000	Y_WP:	0.000	Y_WP:	0.500	X:	0.163	Y:	0.069	Z:	0.401	yaw:	169.458	yaw rate:	-0.906	Roll:	-5.141	Pitch:	-3.379	Yaw:	239.786	Thrust:	33.306
Time:	4.858	Roll Set Point:	-0.015	Pitch Set Point:	0.029	Yaw Set Point:	-2.958	X_WP:	0.000	Y_WP:	0.000	Y_WP:	0.500	X:	0.163	Y:	0.069	Z:	0.401	yaw:	169.463	yaw rate:	0.554	Roll:	-5.161	Pitch:	-3.407	Yaw:	239.787	Thrust:	33.725
Time:	4.889	Roll Set Point:	-0.015	Pitch Set Point:	0.029	Yaw Set Point:	-2.958	X_WP:	0.000	Y_WP:	0.000	Y_WP:	0.500	X:	0.163	Y:	0.069	Z:	0.401	yaw:	169.464	yaw rate:	0.117	Roll:	-5.183	Pitch:	-3.409	Yaw:	239.755	Thrust:	34.166
Time:	4.920	Roll Set Point:	-0.015	Pitch Set Point:	0.029	Yaw Set Point:	-2.957	X_WP:	0.000	Y_WP:	0.000	Y_WP:	0.500	X:	0.163	Y:	0.069	Z:	0.401	yaw:	169.441	yaw rate:	0.455	Roll:	-5.140	Pitch:	-3.481	Yaw:	239.510	Thrust:	34.367
Time:	4.951	Roll Set Point:	-0.015	Pitch Set Point:	0.029	Yaw Set Point:	-2.957	X_WP:	0.000	Y_WP:	0.000	Y_WP:	0.500	X:	0.163	Y:	0.069	Z:	0.401	yaw:	169.444	yaw rate:	-0.810	Roll:	-5.197	Pitch:	-3.396	Yaw:	239.742	Thrust:	34.845
Time:	4.983	Roll Set Point:	-0.015	Pitch Set Point:	0.029	Yaw Set Point:	-2.957	X_WP:	0.000	Y_WP:	0.000	Y_WP:	0.500	X:	0.163	Y:	0.069	Z:	0.401	yaw:	169.431	yaw rate:	-1.373	Roll:	-5.195	Pitch:	-3.472	Yaw:	239.580	Thrust:	35.130
Time:	5.014	Roll Set Point:	-0.015	Pitch Set Point:	0.029	Yaw Set Point:	-2.958	X_WP:	0.000	Y_WP:	0.000	Y_WP:	0.500	X:	0.163	Y:	0.069	Z:	0.401	yaw:	169.459	yaw rate:	2.514	Roll:	-5.239	Pitch:	-3.392	Yaw:	239.972	Thrust:	35.644
Time:	5.045	Roll Set Point:	-0.015	Pitch Set Point:	0.029	Yaw Set Point:	-2.957	X_WP:	0.000	Y_WP:	0.000	Y_WP:	0.500	X:	0.163	Y:	0.069	Z:	0.401	yaw:	169.438	yaw rate:	-2.110	Roll:	-5.201	Pitch:	-3.514	Yaw:	239.528	Thrust:	35.894
Time:	5.076	Roll Set Point:	-0.015	Pitch Set Point:	0.029	Yaw Set Point:	-2.957	X_WP:	0.000	Y_WP:	0.000	Y_WP:	0.500	X:	0.163	Y:	0.069	Z:	0.401	yaw:	169.445	yaw rate:	0.676	Roll:	-5.258	Pitch:	-3.429	Yaw:	239.771	Thrust:	36.307
Time:	5.108	Roll Set Point:	-0.015	Pitch Set Point:	0.029	Yaw Set Point:	-2.958	X_WP:	0.000	Y_WP:	0.000	Y_WP:	0.500	X:	0.163	Y:	0.069	Z:	0.401	yaw:	169.458	yaw rate:	1.318	Roll:	-5.233	Pitch:	-3.468	Yaw:	239.846	Thrust:	36.707
Time:	5.139	Roll Set Point:	-0.015	Pitch Set Point:	0.029	Yaw Set Point:	-2.958	X_WP:	0.000	Y_WP:	0.000	Y_WP:	0.500	X:	0.163	Y:	0.069	Z:	0.401	yaw:	169.463	yaw rate:	2.066	Roll:	-5.286	Pitch:	-3.455	Yaw:	239.780	Thrust:	37.081
Time:	5.170	Roll Set Point:	-0.015	Pitch Set Point:	0.029	Yaw Set Point:	-2.957	X_WP:	0.000	Y_WP:	0.000	Y_WP:	0.500	X:	0.163	Y:	0.069	Z:	0.401	yaw:	169.432	yaw rate:	0.032	Roll:	-5.221	Pitch:	-3.546	Yaw:	239.436	Thrust:	37.387
Time:	5.201	Roll Set Point:	-0.015	Pitch Set Point:	0.029	Yaw Set Point:	-2.958	X_WP:	0.000	Y_WP:	0.000	Y_WP:	0.500	X:	0.163	Y:	0.069	Z:	0.401	yaw:	169.456	yaw rate:	2.465	Roll:	-5.311	Pitch:	-3.436	Yaw:	239.935	Thrust:	37.786
Time:	5.233	Roll Set Point:	-0.015	Pitch Set Point:	0.029	Yaw Set Point:	-2.957	X_WP:	0.000	Y_WP:	0.000	Y_WP:	0.500	X:	0.163	Y:	0.069	Z:	0.401	yaw:	169.446	yaw rate:	-0.982	Roll:	-5.282	Pitch:	-3.539	Yaw:	239.635	Thrust:	38.182
Time:	5.264	Roll Set Point:	-0.015	Pitch Set Point:	0.029	Yaw Set Point:	-2.958	X_WP:	0.000	Y_WP:	0.000	Y_WP:	0.500	X:	0.163	Y:	0.069	Z:	0.401	yaw:	169.457	yaw rate:	1.550	Roll:	-5.321	Pitch:	-3.469	Yaw:	239.823	Thrust:	38.550
Time:	5.295	Roll Set Point:	-0.015	Pitch Set Point:	0.029	Yaw Set Point:	-2.957	X_WP:	0.000	Y_WP:	0.000	Y_WP:	0.500	X:	0.163	Y:	0.069	Z:	0.401	yaw:	169.438	yaw rate:	-2.205	Roll:	-5.276	Pitch:	-3.576	Yaw:	239.547	Thrust:	38.914
Time:	5.326	Roll Set Point:	-0.015	Pitch Set Point:	0.029	Yaw Set Point:	-2.958	X_WP:	0.000	Y_WP:	0.000	Y_WP:	0.500	X:	0.163	Y:	0.069	Z:	0.401	yaw:	169.459	yaw rate:	2.059	Roll:	-5.354	Pitch:	-3.454	Yaw:	239.907	Thrust:	39.275
Time:	5.358	Roll Set Point:	-0.015	Pitch Set Point:	0.029	Yaw Set Point:	-2.957	X_WP:	0.000	Y_WP:	0.000	Y_WP:	0.500	X:	0.163	Y:	0.069	Z:	0.401	yaw:	169.428	yaw rate:	-3.131	Roll:	-5.332	Pitch:	-3.615	Yaw:	239.429	Thrust:	39.659
Time:	5.389	Roll Set Point:	-0.015	Pitch Set Point:	0.029	Yaw Set Point:	-2.957	X_WP:	0.000	Y_WP:	0.000	Y_WP:	0.500	X:	0.163	Y:	0.069	Z:	0.401	yaw:	169.447	yaw rate:	1.221	Roll:	-5.377	Pitch:	-3.469	Yaw:	239.914	Thrust:	40.324
Time:	5.424	Roll Set Point:	-0.015	Pitch Set Point:	0.029	Yaw Set Point:	-2.957	X_WP:	0.000	Y_WP:	0.000	Y_WP:	0.500	X:	0.163	Y:	0.069	Z:	0.401	yaw:	169.447	yaw rate:	-0.556	Roll:	-5.476	Pitch:	-3.666	Yaw:	240.036	Thrust:	44.033
Time:	5.465	Roll Set Point:	-0.015	Pitch Set Point:	0.029	Yaw Set Point:	-2.957	X_WP:	0.000	Y_WP:	0.000	Y_WP:	0.500	X:	0.163	Y:	0.069	Z:	0.401	yaw:	169.446	yaw rate:	0.731	Roll:	-5.704	Pitch:	-3.743	Yaw:	240.669	Thrust:	51.606
Time:	5.496	Roll Set Point:	-0.015	Pitch Set Point:	0.029	Yaw Set Point:	-2.957	X_WP:	0.000	Y_WP:	0.000	Y_WP:	0.500	X:	0.163	Y:	0.069	Z:	0.401	yaw:	169.443	yaw rate:	-1.508	Roll:	-5.368	Pitch:	-3.596	Yaw:	239.688	Thrust:	41.169
Time:	5.526	Roll Set Point:	-0.015	Pitch Set Point:	0.029	Yaw Set Point:	-2.957	X_WP:	0.000	Y_WP:	0.000	Y_WP:	0.500	X:	0.163	Y:	0.069	Z:	0.401	yaw:	169.445	yaw rate:	0.179	Roll:	-5.363	Pitch:	-3.502	Yaw:	239.615	Thrust:	40.153
Time:	5.546	Roll Set Point:	-0.015	Pitch Set Point:	0.029	Yaw Set Point:	-2.957	X_WP:	0.000	Y_WP:	0.000	Y_WP:	0.500	X:	0.163	Y:	0.069	Z:	0.401	yaw:	169.444	yaw rate:	-0.146	Roll:	-4.994	Pitch:	-3.369	Yaw:	238.537	Thrust:	28.403
Time:	5.577	Roll Set Point:	-0.015	Pitch Set Point:	0.029	Yaw Set Point:	-2.958	X_WP:	0.000	Y_WP:	0.000	Y_WP:	0.500	X:	0.163	Y:	0.069	Z:	0.401	yaw:	169.457	yaw rate:	1.352	Roll:	-5.425	Pitch:	-3.535	Yaw:	239.845	Thrust:	42.262
Time:	5.609	Roll Set Point:	-0.015	Pitch Set Point:	0.029	Yaw Set Point:	-2.958	X_WP:	0.000	Y_WP:	0.000	Y_WP:	0.500	X:	0.163	Y:	0.069	Z:	0.401	yaw:	169.453	yaw rate:	-0.434	Roll:	-5.491	Pitch:	-3.642	Yaw:	239.805	Thrust:	44.010
Time:	5.641	Roll Set Point:	-0.015	Pitch Set Point:	0.029	Yaw Set Point:	-2.958	X_WP:	0.000	Y_WP:	0.000	Y_WP:	0.500	X:	0.163	Y:	0.069	Z:	0.401	yaw:	169.456	yaw rate:	1.872	Roll:	-5.432	Pitch:	-3.597	Yaw:	239.756	Thrust:	43.006
Time:	5.672	Roll Set Point:	-0.015	Pitch Set Point:	0.029	Yaw Set Point:	-2.957	X_WP:	0.000	Y_WP:	0.000	Y_WP:	0.500	X:	0.163	Y:	0.069	Z:	0.401	yaw:	169.447	yaw rate:	-0.839	Roll:	-5.443	Pitch:	-3.632	Yaw:	239.648	Thrust:	43.334
Time:	5.703	Roll Set Point:	-0.015	Pitch Set Point:	0.029	Yaw Set Point:	-2.957	X_WP:	0.000	Y_WP:	0.000	Y_WP:	0.500	X:	0.163	Y:	0.069	Z:	0.401	yaw:	169.447	yaw rate:	-0.688	Roll:	-5.454	Pitch:	-3.578	Yaw:	239.712	Thrust:	43.776
Time:	5.734	Roll Set Point:	-0.015	Pitch Set Point:	0.029	Yaw Set Point:	-2.957	X_WP:	0.000	Y_WP:	0.000	Y_WP:	0.500	X:	0.163	Y:	0.069	Z:	0.401	yaw:	169.411	yaw rate:	-3.620	Roll:	-5.416	Pitch:	-3.723	Yaw:	239.364	Thrust:	44.110
Time:	5.781	Roll Set Point:	-0.015	Pitch Set Point:	0.029	Yaw Set Point:	-2.958	X_WP:	0.000	Y_WP:	0.000	Y_WP:	0.500	X:	0.163	Y:	0.069	Z:	0.401	yaw:	169.455	yaw rate:	-1.481	Roll:	-6.064	Pitch:	-3.962	Yaw:	241.540	Thrust:	64.009
Time:	5.812	Roll Set Point:	-0.015	Pitch Set Point:	0.029	Yaw Set Point:	-2.958	X_WP:	0.000	Y_WP:	0.000	Y_WP:	0.500	X:	0.163	Y:	0.069	Z:	0.401	yaw:	169.463	yaw rate:	0.762	Roll:	-5.464	Pitch:	-3.643	Yaw:	239.804	Thrust:	44.931
Time:	5.844	Roll Set Point:	-0.015	Pitch Set Point:	0.029	Yaw Set Point:	-2.957	X_WP:	0.000	Y_WP:	0.000	Y_WP:	0.500	X:	0.163	Y:	0.069	Z:	0.401	yaw:	169.451	yaw rate:	-1.139	Roll:	-5.429	Pitch:	-3.629	Yaw:	239.628	Thrust:	45.135
Time:	5.875	Roll Set Point:	-0.015	Pitch Set Point:	0.029	Yaw Set Point:	-2.957	X_WP:	0.000	Y_WP:	0.000	Y_WP:	0.500	X:	0.163	Y:	0.069	Z:	0.401	yaw:	169.436	yaw rate:	-1.497	Roll:	-5.438	Pitch:	-3.718	Yaw:	239.578	Thrust:	45.623
Time:	5.906	Roll Set Point:	-0.015	Pitch Set Point:	0.029	Yaw Set Point:	-2.958	X_WP:	0.000	Y_WP:	0.000	Y_WP:	0.500	X:	0.163	Y:	0.069	Z:	0.401	yaw:	169.469	yaw rate:	3.292	Roll:	-5.501	Pitch:	-3.556	Yaw:	240.025	Thrust:	45.982
Time:	5.937	Roll Set Point:	-0.015	Pitch Set Point:	0.029	Yaw Set Point:	-2.957	X_WP:	0.000	Y_WP:	0.000	Y_WP:	0.500	X:	0.163	Y:	0.069	Z:	0.401	yaw:	169.450	yaw rate:	3.479	Roll:	-5.416	Pitch:	-3.761	Yaw:	239.558	Thrust:	46.404
Time:	5.969	Roll Set Point:	-0.015	Pitch Set Point:	0.029	Yaw Set Point:	-2.957	X_WP:	0.000	Y_WP:	0.000	Y_WP:	0.500	X:	0.163	Y:	0.069	Z:	0.401	yaw:	169.449	yaw rate:	-0.041	Roll:	-5.479	Pitch:	-3.604	Yaw:	239.718	Thrust:	46.643
Time:	6.000	Roll Set Point:	-0.015	Pitch Set Point:	0.029	Yaw Set Point:	-2.957	X_WP:	0.000	Y_WP:	0.000	Y_WP:	0.500	X:	0.163	Y:	0.069	Z:	0.401	yaw:	169.435	yaw rate:	2.285	Roll:	-5.414	Pitch:	-3.781	Yaw:	239.583	Thrust:	47.197
Time:	6.031	Roll Set Point:	-0.167	Pitch Set Point:	-0.007	Yaw Set Point:	-2.958	X_WP:	0.155	Y_WP:	0.007	Y_WP:	0.500	X:	0.163	Y:	0.069	Z:	0.401	yaw:	169.467	yaw rate:	-0.859	Roll:	30.000	Pitch:	16.602	Yaw:	240.016	Thrust:	47.353
Time:	6.062	Roll Set Point:	-0.167	Pitch Set Point:	-0.007	Yaw Set Point:	-2.957	X_WP:	0.155	Y_WP:	0.007	Y_WP:	0.500	X:	0.163	Y:	0.069	Z:	0.401	yaw:	169.405	yaw rate:	-6.264	Roll:	-1.024	Pitch:	-2.664	Yaw:	239.134	Thrust:	47.834
Time:	6.094	Roll Set Point:	-0.167	Pitch Set Point:	-0.007	Yaw Set Point:	-2.958	X_WP:	0.155	Y_WP:	0.007	Y_WP:	0.500	X:	0.163	Y:	0.069	Z:	0.401	yaw:	169.479	yaw rate:	7.449	Roll:	-1.101	Pitch:	-2.681	Yaw:	240.387	Thrust:	48.373
Time:	6.125	Roll Set Point:	-0.167	Pitch Set Point:	-0.007	Yaw Set Point:	-2.957	X_WP:	0.155	Y_WP:	0.007	Y_WP:	0.500	X:	0.163	Y:	0.069	Z:	0.401	yaw:	169.425	yaw rate:	-5.368	Roll:	-1.034	Pitch:	-2.680	Yaw:	239.242	Thrust:	48.455
Time:	6.156	Roll Set Point:	-0.167	Pitch Set Point:	-0.007	Yaw Set Point:	-2.957	X_WP:	0.155	Y_WP:	0.007	Y_WP:	0.500	X:	0.163	Y:	0.069	Z:	0.401	yaw:	169.451	yaw rate:	4.243	Roll:	-1.073	Pitch:	-2.688	Yaw:	239.942	Thrust:	49.032
Time:	6.187	Roll Set Point:	-0.167	Pitch Set Point:	-0.007	Yaw Set Point:	-2.957	X_WP:	0.155	Y_WP:	0.007	Y_WP:	0.500	X:	0.163	Y:	0.069	Z:	0.401	yaw:	169.422	yaw rate:	-2.904	Roll:	-1.042	Pitch:	-2.689	Yaw:	239.437	Thrust:	49.241
Time:	6.219	Roll Set Point:	-0.167	Pitch Set Point:	-0.007	Yaw Set Point:	-2.958	X_WP:	0.155	Y_WP:	0.007	Y_WP:	0.500	X:	0.163	Y:	0.069	Z:	0.401	yaw:	169.470	yaw rate:	1.778	Roll:	-1.084	Pitch:	-2.701	Yaw:	240.145	Thrust:	49.749
Time:	6.250	Roll Set Point:	-0.167	Pitch Set Point:	-0.007	Yaw Set Point:	-2.957	X_WP:	0.155	Y_WP:	0.007	Y_WP:	0.500	X:	0.163	Y:	0.069	Z:	0.401	yaw:	169.420	yaw rate:	-0.287	Roll:	-1.032	Pitch:	-2.700	Yaw:	239.265	Thrust:	49.972
Time:	6.281	Roll Set Point:	-0.167	Pitch Set Point:	-0.007	Yaw Set Point:	-2.958	X_WP:	0.155	Y_WP:	0.007	Y_WP:	0.500	X:	0.163	Y:	0.069	Z:	0.401	yaw:	169.461	yaw rate:	4.122	Roll:	-1.082	Pitch:	-2.705	Yaw:	240.086	Thrust:	50.604
Time:	6.313	Roll Set Point:	-0.167	Pitch Set Point:	-0.007	Yaw Set Point:	-2.958	X_WP:	0.155	Y_WP:	0.007	Y_WP:	0.500	X:	0.163	Y:	0.069	Z:	0.401	yaw:	169.457	yaw rate:	-0.465	Roll:	-1.055	Pitch:	-2.714	Yaw:	239.693	Thrust:	50.685
Time:	6.344	Roll Set Point:	-0.167	Pitch Set Point:	-0.007	Yaw Set Point:	-2.958	X_WP:	0.155	Y_WP:	0.007	Y_WP:	0.500	X:	0.163	Y:	0.069	Z:	0.401	yaw:	169.457	yaw rate:	2.551	Roll:	-1.058	Pitch:	-2.712	Yaw:	239.736	Thrust:	51.240
Time:	6.375	Roll Set Point:	-0.167	Pitch Set Point:	-0.007	Yaw Set Point:	-2.957	X_WP:	0.155	Y_WP:	0.007	Y_WP:	0.500	X:	0.163	Y:	0.069	Z:	0.401	yaw:	169.449	yaw rate:	-0.827	Roll:	-1.055	Pitch:	-2.724	Yaw:	239.655	Thrust:	51.516
Time:	6.406	Roll Set Point:	-0.167	Pitch Set Point:	-0.007	Yaw Set Point:	-2.957	X_WP:	0.155	Y_WP:	0.007	Y_WP:	0.500	X:	0.163	Y:	0.069	Z:	0.401	yaw:	169.439	yaw rate:	-1.021	Roll:	-1.049	Pitch:	-2.723	Yaw:	239.618	Thrust:	51.940
Time:	6.437	Roll Set Point:	-0.167	Pitch Set Point:	-0.007	Yaw Set Point:	-2.957	X_WP:	0.155	Y_WP:	0.007	Y_WP:	0.500	X:	0.163	Y:	0.069	Z:	0.401	yaw:	169.444	yaw rate:	0.471	Roll:	-1.061	Pitch:	-2.731	Yaw:	239.753	Thrust:	52.225
Time:	6.469	Roll Set Point:	-0.167	Pitch Set Point:	-0.007	Yaw Set Point:	-2.957	X_WP:	0.155	Y_WP:	0.007	Y_WP:	0.500	X:	0.163	Y:	0.069	Z:	0.401	yaw:	169.436	yaw rate:	-0.721	Roll:	-1.051	Pitch:	-2.736	Yaw:	239.643	Thrust:	52.731
Time:	6.500	Roll Set Point:	-0.167	Pitch Set Point:	-0.007	Yaw Set Point:	-2.957	X_WP:	0.155	Y_WP:	0.007	Y_WP:	0.500	X:	0.163	Y:	0.069	Z:	0.401	yaw:	169.440	yaw rate:	-2.994	Roll:	-1.061	Pitch:	-2.742	Yaw:	239.746	Thrust:	53.092
Time:	6.546	Roll Set Point:	-0.167	Pitch Set Point:	-0.007	Yaw Set Point:	-2.958	X_WP:	0.155	Y_WP:	0.007	Y_WP:	0.500	X:	0.163	Y:	0.069	Z:	0.401	yaw:	169.459	yaw rate:	2.627	Roll:	-1.597	Pitch:	-3.173	Yaw:	241.274	Thrust:	75.364
Time:	6.577	Roll Set Point:	-0.167	Pitch Set Point:	-0.007	Yaw Set Point:	-2.957	X_WP:	0.155	Y_WP:	0.007	Y_WP:	0.500	X:	0.163	Y:	0.069	Z:	0.401	yaw:	169.439	yaw rate:	-2.077	Roll:	-1.045	Pitch:	-2.750	Yaw:	239.532	Thrust:	53.718
Time:	6.608	Roll Set Point:	-0.167	Pitch Set Point:	-0.007	Yaw Set Point:	-2.957	X_WP:	0.155	Y_WP:	0.007	Y_WP:	0.500	X:	0.163	Y:	0.069	Z:	0.401	yaw:	169.448	yaw rate:	2.043	Roll:	-1.060	Pitch:	-2.756	Yaw:	239.796	Thrust:	54.250
Time:	6.639	Roll Set Point:	-0.167	Pitch Set Point:	-0.007	Yaw Set Point:	-2.957	X_WP:	0.155	Y_WP:	0.007	Y_WP:	0.500	X:	0.163	Y:	0.069	Z:	0.401	yaw:	169.439	yaw rate:	-0.849	Roll:	-1.050	Pitch:	-2.760	Yaw:	239.636	Thrust:	54.459
Time:	6.671	Roll Set Point:	-0.167	Pitch Set Point:	-0.007	Yaw Set Point:	-2.958	X_WP:	0.155	Y_WP:	0.007	Y_WP:	0.500	X:	0.163	Y:	0.069	Z:	0.401	yaw:	169.473	yaw rate:	1.995	Roll:	-1.075	Pitch:	-2.763	Yaw:	240.035	Thrust:	55.018
Time:	6.702	Roll Set Point:	-0.167	Pitch Set Point:	-0.007	Yaw Set Point:	-2.957	X_WP:	0.155	Y_WP:	0.007	Y_WP:	0.500	X:	0.163	Y:	0.069	Z:	0.401	yaw:	169.442	yaw rate:	-3.062	Roll:	-1.037	Pitch:	-2.771	Yaw:	239.455	Thrust:	55.164
Time:	6.733	Roll Set Point:	-0.167	Pitch Set Point:	-0.007	Yaw Set Point:	-2.957	X_WP:	0.155	Y_WP:	0.007	Y_WP:	0.500	X:	0.163	Y:	0.069	Z:	0.401	yaw:	169.443	yaw rate:	-0.594	Roll:	-1.056	Pitch:	-2.774	Yaw:	239.716	Thrust:	55.706
Time:	6.764	Roll Set Point:	-0.167	Pitch Set Point:	-0.007	Yaw Set Point:	-2.957	X_WP:	0.155	Y_WP:	0.007	Y_WP:	0.500	X:	0.163	Y:	0.069	Z:	0.401	yaw:	169.435	yaw rate:	-3.485	Roll:	-1.049	Pitch:	-2.777	Yaw:	239.634	Thrust:	55.926
Time:	6.796	Roll Set Point:	-0.167	Pitch Set Point:	-0.007	Yaw Set Point:	-2.957	X_WP:	0.155	Y_WP:	0.007	Y_WP:	0.500	X:	0.163	Y:	0.069	Z:	0.401	yaw:	169.434	yaw rate:	-0.042	Roll:	-1.052	Pitch:	-2.784	Yaw:	239.697	Thrust:	56.451
Time:	6.827	Roll Set Point:	-0.167	Pitch Set Point:	-0.007	Yaw Set Point:	-2.957	X_WP:	0.155	Y_WP:	0.007	Y_WP:	0.500	X:	0.163	Y:	0.069	Z:	0.401	yaw:	169.433	yaw rate:	-2.236	Roll:	-1.053	Pitch:	-2.787	Yaw:	239.685	Thrust:	56.753
Time:	6.858	Roll Set Point:	-0.167	Pitch Set Point:	-0.007	Yaw Set Point:	-2.957	X_WP:	0.155	Y_WP:	0.007	Y_WP:	0.500	X:	0.163	Y:	0.069	Z:	0.401	yaw:	169.435	yaw rate:	0.712	Roll:	-1.050	Pitch:	-2.793	Yaw:	239.723	Thrust:	57.194
Time:	6.889	Roll Set Point:	-0.167	Pitch Set Point:	-0.007	Yaw Set Point:	-2.958	X_WP:	0.155	Y_WP:	0.007	Y_WP:	0.500	X:	0.163	Y:	0.069	Z:	0.401	yaw:	169.455	yaw rate:	1.929	Roll:	-1.065	Pitch:	-2.797	Yaw:	239.890	Thrust:	57.462
Time:	6.921	Roll Set Point:	-0.167	Pitch Set Point:	-0.007	Yaw Set Point:	-2.957	X_WP:	0.155	Y_WP:	0.007	Y_WP:	0.500	X:	0.163	Y:	0.069	Z:	0.401	yaw:	169.428	yaw rate:	-2.711	Roll:	-1.038	Pitch:	-2.805	Yaw:	239.464	Thrust:	57.777
Time:	6.968	Roll Set Point:	-0.167	Pitch Set Point:	-0.007	Yaw Set Point:	-2.957	X_WP:	0.155	Y_WP:	0.007	Y_WP:	0.500	X:	0.163	Y:	0.069	Z:	0.401	yaw:	169.448	yaw rate:	1.056	Roll:	-1.642	Pitch:	-3.312	Yaw:	241.397	Thrust:	84.650
Time:	7.014	Roll Set Point:	-0.167	Pitch Set Point:	-0.007	Yaw Set Point:	-2.958	X_WP:	0.155	Y_WP:	0.007	Y_WP:	0.500	X:	0.163	Y:	0.069	Z:	0.401	yaw:	169.476	yaw rate:	2.802	Roll:	-1.645	Pitch:	-3.318	Yaw:	241.478	Thrust:	85.291
Time:	7.061	Roll Set Point:	-0.167	Pitch Set Point:	-0.007	Yaw Set Point:	-2.957	X_WP:	0.155	Y_WP:	0.007	Y_WP:	0.500	X:	0.163	Y:	0.069	Z:	0.401	yaw:	169.449	yaw rate:	2.646	Roll:	-1.622	Pitch:	-3.322	Yaw:	241.130	Thrust:	85.775
Time:	7.108	Roll Set Point:	-0.167	Pitch Set Point:	-0.007	Yaw Set Point:	-2.957	X_WP:	0.155	Y_WP:	0.007	Y_WP:	0.500	X:	0.163	Y:	0.069	Z:	0.401	yaw:	169.425	yaw rate:	-1.551	Roll:	-1.624	Pitch:	-3.330	Yaw:	241.114	Thrust:	86.228
Time:	7.155	Roll Set Point:	-0.167	Pitch Set Point:	-0.007	Yaw Set Point:	-2.957	X_WP:	0.155	Y_WP:	0.007	Y_WP:	0.500	X:	0.163	Y:	0.069	Z:	0.401	yaw:	169.434	yaw rate:	-2.969	Roll:	-1.634	Pitch:	-3.341	Yaw:	241.316	Thrust:	86.887
Time:	7.202	Roll Set Point:	-0.167	Pitch Set Point:	-0.007	Yaw Set Point:	-2.958	X_WP:	0.155	Y_WP:	0.007	Y_WP:	0.500	X:	0.163	Y:	0.069	Z:	0.401	yaw:	169.456	yaw rate:	0.935	Roll:	-1.640	Pitch:	-3.346	Yaw:	241.419	Thrust:	87.511
Time:	7.249	Roll Set Point:	-0.167	Pitch Set Point:	-0.007	Yaw Set Point:	-2.957	X_WP:	0.155	Y_WP:	0.007	Y_WP:	0.500	X:	0.163	Y:	0.069	Z:	0.401	yaw:	169.442	yaw rate:	0.728	Roll:	-1.627	Pitch:	-3.354	Yaw:	241.191	Thrust:	87.932
Time:	7.280	Roll Set Point:	-0.167	Pitch Set Point:	-0.007	Yaw Set Point:	-2.958	X_WP:	0.155	Y_WP:	0.007	Y_WP:	0.500	X:	0.163	Y:	0.069	Z:	0.401	yaw:	169.471	yaw rate:	2.923	Roll:	-1.067	Pitch:	-2.840	Yaw:	239.996	Thrust:	60.965
Time:	7.311	Roll Set Point:	-0.167	Pitch Set Point:	-0.007	Yaw Set Point:	-2.957	X_WP:	0.155	Y_WP:	0.007	Y_WP:	0.500	X:	0.163	Y:	0.069	Z:	0.401	yaw:	169.431	yaw rate:	-4.035	Roll:	-1.028	Pitch:	-2.845	Yaw:	239.357	Thrust:	61.037
Time:	7.343	Roll Set Point:	-0.167	Pitch Set Point:	-0.007	Yaw Set Point:	-2.958	X_WP:	0.155	Y_WP:	0.007	Y_WP:	0.500	X:	0.163	Y:	0.069	Z:	0.401	yaw:	169.455	yaw rate:	2.391	Roll:	-1.059	Pitch:	-2.852	Yaw:	239.929	Thrust:	61.723
Time:	7.374	Roll Set Point:	-0.167	Pitch Set Point:	-0.007	Yaw Set Point:	-2.957	X_WP:	0.155	Y_WP:	0.007	Y_WP:	0.500	X:	0.163	Y:	0.069	Z:	0.401	yaw:	169.440	yaw rate:	1.617	Roll:	-1.044	Pitch:	-2.856	Yaw:	239.591	Thrust:	61.913
Time:	7.405	Roll Set Point:	-0.167	Pitch Set Point:	-0.007	Yaw Set Point:	-2.957	X_WP:	0.155	Y_WP:	0.007	Y_WP:	0.500	X:	0.163	Y:	0.069	Z:	0.401	yaw:	169.449	yaw rate:	0.812	Roll:	-1.052	Pitch:	-2.859	Yaw:	239.788	Thrust:	62.392
Time:	7.436	Roll Set Point:	-0.167	Pitch Set Point:	-0.007	Yaw Set Point:	-2.957	X_WP:	0.155	Y_WP:	0.007	Y_WP:	0.500	X:	0.163	Y:	0.069	Z:	0.401	yaw:	169.428	yaw rate:	-2.074	Roll:	-1.039	Pitch:	-2.870	Yaw:	239.515	Thrust:	62.569
Time:	7.468	Roll Set Point:	-0.167	Pitch Set Point:	-0.007	Yaw Set Point:	-2.957	X_WP:	0.155	Y_WP:	0.007	Y_WP:	0.500	X:	0.163	Y:	0.069	Z:	0.401	yaw:	169.440	yaw rate:	1.257	Roll:	-1.054	Pitch:	-2.873	Yaw:	239.814	Thrust:	63.149
Time:	7.499	Roll Set Point:	-0.167	Pitch Set Point:	-0.007	Yaw Set Point:	-2.957	X_WP:	0.155	Y_WP:	0.007	Y_WP:	0.500	X:	0.163	Y:	0.069	Z:	0.401	yaw:	169.426	yaw rate:	-1.398	Roll:	-1.039	Pitch:	-2.878	Yaw:	239.572	Thrust:	63.430
Time:	7.528	Roll Set Point:	-0.167	Pitch Set Point:	-0.007	Yaw Set Point:	-2.958	X_WP:	0.155	Y_WP:	0.007	Y_WP:	0.500	X:	0.163	Y:	0.069	Z:	0.401	yaw:	169.464	yaw rate:	2.283	Roll:	-1.007	Pitch:	-2.821	Yaw:	239.908	Thrust:	60.663
Time:	7.561	Roll Set Point:	-0.167	Pitch Set Point:	-0.007	Yaw Set Point:	-2.957	X_WP:	0.155	Y_WP:	0.007	Y_WP:	0.500	X:	0.163	Y:	0.069	Z:	0.401	yaw:	169.443	yaw rate:	-2.134	Roll:	-1.076	Pitch:	-2.923	Yaw:	239.647	Thrust:	66.179
Time:	7.592	Roll Set Point:	-0.167	Pitch Set Point:	-0.007	Yaw Set Point:	-2.957	X_WP:	0.155	Y_WP:	0.007	Y_WP:	0.500	X:	0.163	Y:	0.069	Z:	0.401	yaw:	169.443	yaw rate:	-0.003	Roll:	-1.046	Pitch:	-2.892	Yaw:	239.712	Thrust:	64.652
Time:	7.623	Roll Set Point:	-0.167	Pitch Set Point:	-0.007	Yaw Set Point:	-2.957	X_WP:	0.155	Y_WP:	0.007	Y_WP:	0.500	X:	0.163	Y:	0.069	Z:	0.401	yaw:	169.432	yaw rate:	-2.528	Roll:	-1.041	Pitch:	-2.895	Yaw:	239.601	Thrust:	64.818
Time:	7.654	Roll Set Point:	-0.167	Pitch Set Point:	-0.007	Yaw Set Point:	-2.958	X_WP:	0.155	Y_WP:	0.007	Y_WP:	0.500	X:	0.163	Y:	0.069	Z:	0.401	yaw:	169.467	yaw rate:	3.540	Roll:	-1.068	Pitch:	-2.901	Yaw:	240.043	Thrust:	65.377
Time:	7.686	Roll Set Point:	-0.167	Pitch Set Point:	-0.007	Yaw Set Point:	-2.957	X_WP:	0.155	Y_WP:	0.007	Y_WP:	0.500	X:	0.163	Y:	0.069	Z:	0.401	yaw:	169.436	yaw rate:	-3.117	Roll:	-1.027	Pitch:	-2.904	Yaw:	239.441	Thrust:	65.742
Time:	7.717	Roll Set Point:	-0.166	Pitch Set Point:	-0.007	Yaw Set Point:	-2.964	X_WP:	0.155	Y_WP:	0.007	Y_WP:	0.500	X:	0.163	Y:	0.069	Z:	0.401	yaw:	169.824	yaw rate:	38.720	Roll:	-1.295	Pitch:	-2.920	Yaw:	243.497	Thrust:	66.117
Time:	7.748	Roll Set Point:	-0.167	Pitch Set Point:	-0.007	Yaw Set Point:	-2.958	X_WP:	0.155	Y_WP:	0.007	Y_WP:	0.500	X:	0.163	Y:	0.069	Z:	0.401	yaw:	169.480	yaw rate:	-34.381	Roll:	-0.834	Pitch:	-2.897	Yaw:	236.885	Thrust:	66.379
Time:	7.779	Roll Set Point:	-0.167	Pitch Set Point:	-0.007	Yaw Set Point:	-2.957	X_WP:	0.155	Y_WP:	0.007	Y_WP:	0.500	X:	0.163	Y:	0.069	Z:	0.401	yaw:	169.425	yaw rate:	-5.572	Roll:	-1.015	Pitch:	-2.926	Yaw:	239.220	Thrust:	66.681
Time:	7.811	Roll Set Point:	-0.167	Pitch Set Point:	-0.007	Yaw Set Point:	-2.958	X_WP:	0.155	Y_WP:	0.007	Y_WP:	0.500	X:	0.163	Y:	0.069	Z:	0.401	yaw:	169.454	yaw rate:	2.965	Roll:	-1.060	Pitch:	-2.927	Yaw:	239.977	Thrust:	67.244
Time:	7.842	Roll Set Point:	-0.167	Pitch Set Point:	-0.007	Yaw Set Point:	-2.957	X_WP:	0.155	Y_WP:	0.007	Y_WP:	0.500	X:	0.163	Y:	0.069	Z:	0.401	yaw:	169.433	yaw rate:	-0.450	Roll:	-1.033	Pitch:	-2.931	Yaw:	239.522	Thrust:	67.466
Time:	7.873	Roll Set Point:	-0.167	Pitch Set Point:	-0.007	Yaw Set Point:	-2.958	X_WP:	0.155	Y_WP:	0.007	Y_WP:	0.500	X:	0.163	Y:	0.069	Z:	0.401	yaw:	169.468	yaw rate:	3.480	Roll:	-1.063	Pitch:	-2.934	Yaw:	240.039	Thrust:	68.043
Time:	7.904	Roll Set Point:	-0.167	Pitch Set Point:	-0.007	Yaw Set Point:	-2.957	X_WP:	0.155	Y_WP:	0.007	Y_WP:	0.500	X:	0.163	Y:	0.069	Z:	0.401	yaw:	169.436	yaw rate:	-3.160	Roll:	-1.030	Pitch:	-2.936	Yaw:	239.438	Thrust:	68.204
Time:	7.936	Roll Set Point:	-0.167	Pitch Set Point:	-0.007	Yaw Set Point:	-2.957	X_WP:	0.155	Y_WP:	0.007	Y_WP:	0.500	X:	0.163	Y:	0.069	Z:	0.401	yaw:	169.450	yaw rate:	-0.751	Roll:	-1.046	Pitch:	-2.947	Yaw:	239.832	Thrust:	68.719
Time:	7.967	Roll Set Point:	-0.167	Pitch Set Point:	-0.007	Yaw Set Point:	-2.958	X_WP:	0.155	Y_WP:	0.007	Y_WP:	0.500	X:	0.163	Y:	0.069	Z:	0.401	yaw:	169.455	yaw rate:	0.578	Roll:	-1.052	Pitch:	-2.948	Yaw:	239.778	Thrust:	68.934
Time:	7.998	Roll Set Point:	-0.167	Pitch Set Point:	-0.007	Yaw Set Point:	-2.957	X_WP:	0.155	Y_WP:	0.007	Y_WP:	0.500	X:	0.163	Y:	0.069	Z:	0.401	yaw:	169.447	yaw rate:	-0.302	Roll:	-1.036	Pitch:	-2.957	Yaw:	239.645	Thrust:	69.506
Time:	8.029	Roll Set Point:	-0.167	Pitch Set Point:	-0.007	Yaw Set Point:	-2.957	X_WP:	0.155	Y_WP:	0.007	Y_WP:	0.500	X:	0.163	Y:	0.069	Z:	0.401	yaw:	169.427	yaw rate:	-2.097	Roll:	-1.032	Pitch:	-2.958	Yaw:	239.522	Thrust:	69.652
Time:	8.061	Roll Set Point:	-0.167	Pitch Set Point:	-0.007	Yaw Set Point:	-2.958	X_WP:	0.155	Y_WP:	0.007	Y_WP:	0.500	X:	0.163	Y:	0.069	Z:	0.401	yaw:	169.460	yaw rate:	1.653	Roll:	-1.061	Pitch:	-2.967	Yaw:	240.013	Thrust:	70.244
Time:	8.092	Roll Set Point:	-0.167	Pitch Set Point:	-0.007	Yaw Set Point:	-2.957	X_WP:	0.155	Y_WP:	0.007	Y_WP:	0.500	X:	0.163	Y:	0.069	Z:	0.401	yaw:	169.445	yaw rate:	-1.462	Roll:	-1.036	Pitch:	-2.966	Yaw:	239.593	Thrust:	70.466
Time:	8.123	Roll Set Point:	-0.167	Pitch Set Point:	-0.007	Yaw Set Point:	-2.958	X_WP:	0.155	Y_WP:	0.007	Y_WP:	0.500	X:	0.163	Y:	0.069	Z:	0.401	yaw:	169.453	yaw rate:	0.788	Roll:	-1.046	Pitch:	-2.974	Yaw:	239.792	Thrust:	70.900
Time:	8.154	Roll Set Point:	-0.167	Pitch Set Point:	-0.007	Yaw Set Point:	-2.957	X_WP:	0.155	Y_WP:	0.007	Y_WP:	0.500	X:	0.163	Y:	0.069	Z:	0.401	yaw:	169.449	yaw rate:	0.600	Roll:	-1.040	Pitch:	-2.979	Yaw:	239.688	Thrust:	71.297
Time:	8.186	Roll Set Point:	-0.167	Pitch Set Point:	-0.007	Yaw Set Point:	-2.957	X_WP:	0.155	Y_WP:	0.007	Y_WP:	0.500	X:	0.163	Y:	0.069	Z:	0.401	yaw:	169.441	yaw rate:	-0.809	Roll:	-1.035	Pitch:	-2.977	Yaw:	239.642	Thrust:	71.614
Time:	8.217	Roll Set Point:	-0.167	Pitch Set Point:	-0.007	Yaw Set Point:	-2.958	X_WP:	0.155	Y_WP:	0.007	Y_WP:	0.500	X:	0.163	Y:	0.069	Z:	0.401	yaw:	169.474	yaw rate:	3.346	Roll:	-1.061	Pitch:	-2.979	Yaw:	240.036	Thrust:	72.000
Time:	8.248	Roll Set Point:	-0.167	Pitch Set Point:	-0.007	Yaw Set Point:	-2.957	X_WP:	0.155	Y_WP:	0.007	Y_WP:	0.500	X:	0.163	Y:	0.069	Z:	0.401	yaw:	169.433	yaw rate:	-4.122	Roll:	-1.016	Pitch:	-2.973	Yaw:	239.354	Thrust:	72.390
Time:	8.279	Roll Set Point:	-0.167	Pitch Set Point:	-0.007	Yaw Set Point:	-2.958	X_WP:	0.155	Y_WP:	0.007	Y_WP:	0.500	X:	0.163	Y:	0.069	Z:	0.401	yaw:	169.470	yaw rate:	1.344	Roll:	-1.065	Pitch:	-2.982	Yaw:	240.060	Thrust:	72.706
Time:	8.311	Roll Set Point:	-0.167	Pitch Set Point:	-0.007	Yaw Set Point:	-2.957	X_WP:	0.155	Y_WP:	0.007	Y_WP:	0.500	X:	0.163	Y:	0.069	Z:	0.401	yaw:	169.451	yaw rate:	-1.880	Roll:	-1.028	Pitch:	-2.973	Yaw:	239.566	Thrust:	73.162
Time:	8.342	Roll Set Point:	-0.167	Pitch Set Point:	-0.007	Yaw Set Point:	-2.957	X_WP:	0.155	Y_WP:	0.007	Y_WP:	0.500	X:	0.163	Y:	0.069	Z:	0.401	yaw:	169.447	yaw rate:	-0.505	Roll:	-1.038	Pitch:	-2.981	Yaw:	239.683	Thrust:	73.459
Time:	8.373	Roll Set Point:	-0.167	Pitch Set Point:	-0.007	Yaw Set Point:	-2.957	X_WP:	0.155	Y_WP:	0.007	Y_WP:	0.500	X:	0.163	Y:	0.069	Z:	0.401	yaw:	169.437	yaw rate:	-1.067	Roll:	-1.034	Pitch:	-2.978	Yaw:	239.614	Thrust:	73.818
Time:	8.405	Roll Set Point:	-0.167	Pitch Set Point:	-0.007	Yaw Set Point:	-2.957	X_WP:	0.155	Y_WP:	0.007	Y_WP:	0.500	X:	0.163	Y:	0.069	Z:	0.401	yaw:	169.452	yaw rate:	1.505	Roll:	-1.048	Pitch:	-2.979	Yaw:	239.850	Thrust:	74.337
Time:	8.436	Roll Set Point:	-0.167	Pitch Set Point:	-0.007	Yaw Set Point:	-2.958	X_WP:	0.155	Y_WP:	0.007	Y_WP:	0.500	X:	0.163	Y:	0.069	Z:	0.401	yaw:	169.460	yaw rate:	0.843	Roll:	-1.046	Pitch:	-2.977	Yaw:	239.807	Thrust:	74.499
Time:	8.467	Roll Set Point:	-0.167	Pitch Set Point:	-0.007	Yaw Set Point:	-2.957	X_WP:	0.155	Y_WP:	0.007	Y_WP:	0.500	X:	0.163	Y:	0.069	Z:	0.401	yaw:	169.446	yaw rate:	-1.356	Roll:	-1.029	Pitch:	-2.977	Yaw:	239.604	Thrust:	75.073
Time:	8.498	Roll Set Point:	-0.167	Pitch Set Point:	-0.007	Yaw Set Point:	-2.957	X_WP:	0.155	Y_WP:	0.007	Y_WP:	0.500	X:	0.163	Y:	0.069	Z:	0.401	yaw:	169.448	yaw rate:	0.136	Roll:	-1.040	Pitch:	-2.979	Yaw:	239.731	Thrust:	75.283
Time:	8.528	Roll Set Point:	-0.167	Pitch Set Point:	-0.007	Yaw Set Point:	-2.957	X_WP:	0.155	Y_WP:	0.007	Y_WP:	0.500	X:	0.163	Y:	0.069	Z:	0.401	yaw:	169.440	yaw rate:	-0.758	Roll:	-0.971	Pitch:	-2.914	Yaw:	239.477	Thrust:	72.065
Time:	8.561	Roll Set Point:	-0.167	Pitch Set Point:	-0.007	Yaw Set Point:	-2.957	X_WP:	0.155	Y_WP:	0.007	Y_WP:	0.500	X:	0.163	Y:	0.069	Z:	0.401	yaw:	169.424	yaw rate:	-0.693	Roll:	-1.105	Pitch:	-3.057	Yaw:	239.768	Thrust:	80.741
Time:	8.592	Roll Set Point:	-0.167	Pitch Set Point:	-0.007	Yaw Set Point:	-2.958	X_WP:	0.155	Y_WP:	0.007	Y_WP:	0.500	X:	0.163	Y:	0.069	Z:	0.401	yaw:	169.456	yaw rate:	3.217	Roll:	-1.055	Pitch:	-2.976	Yaw:	240.001	Thrust:	76.542
Time:	8.624	Roll Set Point:	-0.167	Pitch Set Point:	-0.007	Yaw Set Point:	-2.957	X_WP:	0.155	Y_WP:	0.007	Y_WP:	0.500	X:	0.163	Y:	0.069	Z:	0.401	yaw:	169.425	yaw rate:	-3.186	Roll:	-1.019	Pitch:	-2.977	Yaw:	239.420	Thrust:	76.753
Time:	8.655	Roll Set Point:	-0.167	Pitch Set Point:	-0.007	Yaw Set Point:	-2.957	X_WP:	0.155	Y_WP:	0.007	Y_WP:	0.500	X:	0.163	Y:	0.069	Z:	0.401	yaw:	169.432	yaw rate:	0.748	Roll:	-1.040	Pitch:	-2.979	Yaw:	239.760	Thrust:	77.262
Time:	8.686	Roll Set Point:	-0.167	Pitch Set Point:	-0.007	Yaw Set Point:	-2.957	X_WP:	0.155	Y_WP:	0.007	Y_WP:	0.500	X:	0.163	Y:	0.069	Z:	0.401	yaw:	169.427	yaw rate:	-2.080	Roll:	-1.034	Pitch:	-2.976	Yaw:	239.646	Thrust:	77.486
Time:	8.717	Roll Set Point:	-0.167	Pitch Set Point:	-0.007	Yaw Set Point:	-2.957	X_WP:	0.155	Y_WP:	0.007	Y_WP:	0.500	X:	0.163	Y:	0.069	Z:	0.401	yaw:	169.445	yaw rate:	1.805	Roll:	-1.047	Pitch:	-2.980	Yaw:	239.866	Thrust:	78.012
Time:	8.749	Roll Set Point:	-0.167	Pitch Set Point:	-0.007	Yaw Set Point:	-2.957	X_WP:	0.155	Y_WP:	0.007	Y_WP:	0.500	X:	0.163	Y:	0.069	Z:	0.401	yaw:	169.431	yaw rate:	-1.401	Roll:	-1.027	Pitch:	-2.977	Yaw:	239.578	Thrust:	78.311
Time:	8.780	Roll Set Point:	-0.167	Pitch Set Point:	-0.007	Yaw Set Point:	-2.957	X_WP:	0.155	Y_WP:	0.007	Y_WP:	0.500	X:	0.163	Y:	0.069	Z:	0.401	yaw:	169.442	yaw rate:	2.964	Roll:	-1.042	Pitch:	-2.977	Yaw:	239.802	Thrust:	78.755
Time:	8.811	Roll Set Point:	-0.167	Pitch Set Point:	-0.007	Yaw Set Point:	-2.957	X_WP:	0.155	Y_WP:	0.007	Y_WP:	0.500	X:	0.163	Y:	0.069	Z:	0.401	yaw:	169.429	yaw rate:	-3.557	Roll:	-1.028	Pitch:	-2.976	Yaw:	239.586	Thrust:	78.986
Time:	8.842	Roll Set Point:	-0.167	Pitch Set Point:	-0.007	Yaw Set Point:	-2.957	X_WP:	0.155	Y_WP:	0.007	Y_WP:	0.500	X:	0.163	Y:	0.069	Z:	0.401	yaw:	169.447	yaw rate:	1.792	Roll:	-1.045	Pitch:	-2.977	Yaw:	239.868	Thrust:	79.515
Time:	8.874	Roll Set Point:	-0.167	Pitch Set Point:	-0.007	Yaw Set Point:	-2.958	X_WP:	0.155	Y_WP:	0.007	Y_WP:	0.500	X:	0.163	Y:	0.069	Z:	0.401	yaw:	169.480	yaw rate:	3.377	Roll:	-1.056	Pitch:	-2.983	Yaw:	240.041	Thrust:	79.880
Time:	8.905	Roll Set Point:	-0.167	Pitch Set Point:	-0.007	Yaw Set Point:	-2.957	X_WP:	0.155	Y_WP:	0.007	Y_WP:	0.500	X:	0.163	Y:	0.069	Z:	0.401	yaw:	169.448	yaw rate:	-3.140	Roll:	-1.017	Pitch:	-2.974	Yaw:	239.454	Thrust:	80.064
Time:	8.952	Roll Set Point:	-0.167	Pitch Set Point:	-0.007	Yaw Set Point:	-2.958	X_WP:	0.155	Y_WP:	0.007	Y_WP:	0.500	X:	0.163	Y:	0.069	Z:	0.401	yaw:	169.461	yaw rate:	1.290	Roll:	-1.612	Pitch:	-3.565	Yaw:	241.372	Thrust:	100.000
Time:	8.983	Roll Set Point:	-0.167	Pitch Set Point:	-0.007	Yaw Set Point:	-2.957	X_WP:	0.155	Y_WP:	0.007	Y_WP:	0.500	X:	0.163	Y:	0.069	Z:	0.401	yaw:	169.440	yaw rate:	1.771	Roll:	-1.022	Pitch:	-2.977	Yaw:	239.529	Thrust:	80.987
Time:	9.014	Roll Set Point:	-0.167	Pitch Set Point:	-0.007	Yaw Set Point:	-2.958	X_WP:	0.155	Y_WP:	0.007	Y_WP:	0.500	X:	0.163	Y:	0.069	Z:	0.401	yaw:	169.456	yaw rate:	0.971	Roll:	-1.043	Pitch:	-2.979	Yaw:	239.863	Thrust:	81.211
Time:	9.046	Roll Set Point:	-0.167	Pitch Set Point:	-0.007	Yaw Set Point:	-2.957	X_WP:	0.155	Y_WP:	0.007	Y_WP:	0.500	X:	0.163	Y:	0.069	Z:	0.401	yaw:	169.449	yaw rate:	1.705	Roll:	-1.029	Pitch:	-2.977	Yaw:	239.665	Thrust:	81.746
Time:	9.077	Roll Set Point:	-0.167	Pitch Set Point:	-0.007	Yaw Set Point:	-2.957	X_WP:	0.155	Y_WP:	0.007	Y_WP:	0.500	X:	0.163	Y:	0.069	Z:	0.401	yaw:	169.447	yaw rate:	-0.194	Roll:	-1.032	Pitch:	-2.977	Yaw:	239.702	Thrust:	81.985
Time:	9.108	Roll Set Point:	-0.167	Pitch Set Point:	-0.007	Yaw Set Point:	-2.957	X_WP:	0.155	Y_WP:	0.007	Y_WP:	0.500	X:	0.163	Y:	0.069	Z:	0.401	yaw:	169.445	yaw rate:	-0.219	Roll:	-1.032	Pitch:	-2.978	Yaw:	239.697	Thrust:	82.380
Time:	9.139	Roll Set Point:	-0.167	Pitch Set Point:	-0.007	Yaw Set Point:	-2.957	X_WP:	0.155	Y_WP:	0.007	Y_WP:	0.500	X:	0.163	Y:	0.069	Z:	0.401	yaw:	169.446	yaw rate:	1.874	Roll:	-1.031	Pitch:	-2.975	Yaw:	239.729	Thrust:	82.861
Time:	9.171	Roll Set Point:	-0.167	Pitch Set Point:	-0.007	Yaw Set Point:	-2.957	X_WP:	0.155	Y_WP:	0.007	Y_WP:	0.500	X:	0.163	Y:	0.069	Z:	0.401	yaw:	169.451	yaw rate:	0.510	Roll:	-1.038	Pitch:	-2.978	Yaw:	239.768	Thrust:	83.133
Time:	9.202	Roll Set Point:	-0.167	Pitch Set Point:	-0.007	Yaw Set Point:	-2.957	X_WP:	0.155	Y_WP:	0.007	Y_WP:	0.500	X:	0.163	Y:	0.069	Z:	0.401	yaw:	169.445	yaw rate:	-0.991	Roll:	-1.027	Pitch:	-2.980	Yaw:	239.664	Thrust:	83.496
Time:	9.233	Roll Set Point:	-0.167	Pitch Set Point:	-0.007	Yaw Set Point:	-2.957	X_WP:	0.155	Y_WP:	0.007	Y_WP:	0.500	X:	0.163	Y:	0.069	Z:	0.401	yaw:	169.426	yaw rate:	-1.936	Roll:	-1.021	Pitch:	-2.977	Yaw:	239.526	Thrust:	83.872
Time:	9.264	Roll Set Point:	-0.167	Pitch Set Point:	-0.007	Yaw Set Point:	-2.957	X_WP:	0.155	Y_WP:	0.007	Y_WP:	0.500	X:	0.163	Y:	0.069	Z:	0.401	yaw:	169.434	yaw rate:	0.816	Roll:	-1.035	Pitch:	-2.978	Yaw:	239.769	Thrust:	84.369
Time:	9.296	Roll Set Point:	-0.167	Pitch Set Point:	-0.007	Yaw Set Point:	-2.957	X_WP:	0.155	Y_WP:	0.007	Y_WP:	0.500	X:	0.163	Y:	0.069	Z:	0.401	yaw:	169.434	yaw rate:	-0.010	Roll:	-1.029	Pitch:	-2.977	Yaw:	239.699	Thrust:	84.560
Time:	9.327	Roll Set Point:	-0.167	Pitch Set Point:	-0.007	Yaw Set Point:	-2.958	X_WP:	0.155	Y_WP:	0.007	Y_WP:	0.500	X:	0.163	Y:	0.069	Z:	0.401	yaw:	169.453	yaw rate:	1.861	Roll:	-1.041	Pitch:	-2.978	Yaw:	239.882	Thrust:	85.110
Time:	9.358	Roll Set Point:	-0.167	Pitch Set Point:	-0.007	Yaw Set Point:	-2.957	X_WP:	0.155	Y_WP:	0.007	Y_WP:	0.500	X:	0.163	Y:	0.069	Z:	0.401	yaw:	169.432	yaw rate:	-2.109	Roll:	-1.019	Pitch:	-2.976	Yaw:	239.520	Thrust:	85.326
Time:	9.389	Roll Set Point:	-0.167	Pitch Set Point:	-0.007	Yaw Set Point:	-2.957	X_WP:	0.155	Y_WP:	0.007	Y_WP:	0.500	X:	0.163	Y:	0.069	Z:	0.401	yaw:	169.446	yaw rate:	-0.072	Roll:	-1.038	Pitch:	-2.979	Yaw:	239.837	Thrust:	85.786
Time:	9.421	Roll Set Point:	-0.167	Pitch Set Point:	-0.007	Yaw Set Point:	-2.958	X_WP:	0.155	Y_WP:	0.007	Y_WP:	0.500	X:	0.163	Y:	0.069	Z:	0.401	yaw:	169.459	yaw rate:	1.533	Roll:	-1.038	Pitch:	-2.979	Yaw:	239.839	Thrust:	86.084
Time:	9.452	Roll Set Point:	-0.167	Pitch Set Point:	-0.007	Yaw Set Point:	-2.957	X_WP:	0.155	Y_WP:	0.007	Y_WP:	0.500	X:	0.163	Y:	0.069	Z:	0.401	yaw:	169.433	yaw rate:	-2.592	Roll:	-1.014	Pitch:	-2.977	Yaw:	239.481	Thrust:	86.555
Time:	9.483	Roll Set Point:	-0.167	Pitch Set Point:	-0.007	Yaw Set Point:	-2.958	X_WP:	0.155	Y_WP:	0.007	Y_WP:	0.500	X:	0.163	Y:	0.069	Z:	0.401	yaw:	169.456	yaw rate:	0.745	Roll:	-1.042	Pitch:	-2.979	Yaw:	239.927	Thrust:	86.843
Time:	9.514	Roll Set Point:	-0.167	Pitch Set Point:	-0.007	Yaw Set Point:	-2.957	X_WP:	0.155	Y_WP:	0.007	Y_WP:	0.500	X:	0.163	Y:	0.069	Z:	0.401	yaw:	169.431	yaw rate:	-2.530	Roll:	-1.014	Pitch:	-2.976	Yaw:	239.483	Thrust:	87.296
Time:	9.545	Roll Set Point:	-0.167	Pitch Set Point:	-0.007	Yaw Set Point:	-2.957	X_WP:	0.155	Y_WP:	0.007	Y_WP:	0.500	X:	0.163	Y:	0.069	Z:	0.401	yaw:	169.438	yaw rate:	-2.759	Roll:	-1.021	Pitch:	-2.966	Yaw:	239.736	Thrust:	86.755
Time:	9.577	Roll Set Point:	-0.167	Pitch Set Point:	-0.007	Yaw Set Point:	-2.957	X_WP:	0.155	Y_WP:	0.007	Y_WP:	0.500	X:	0.163	Y:	0.069	Z:	0.401	yaw:	169.447	yaw rate:	0.152	Roll:	-1.034	Pitch:	-2.977	Yaw:	239.789	Thrust:	87.953
Time:	9.608	Roll Set Point:	-0.167	Pitch Set Point:	-0.007	Yaw Set Point:	-2.957	X_WP:	0.155	Y_WP:	0.007	Y_WP:	0.500	X:	0.163	Y:	0.069	Z:	0.401	yaw:	169.451	yaw rate:	0.415	Roll:	-1.029	Pitch:	-2.977	Yaw:	239.758	Thrust:	88.413
Time:	9.639	Roll Set Point:	-0.167	Pitch Set Point:	-0.007	Yaw Set Point:	-2.957	X_WP:	0.155	Y_WP:	0.007	Y_WP:	0.500	X:	0.163	Y:	0.069	Z:	0.401	yaw:	169.442	yaw rate:	-0.855	Roll:	-1.023	Pitch:	-2.977	Yaw:	239.640	Thrust:	88.689
Time:	9.670	Roll Set Point:	-0.167	Pitch Set Point:	-0.007	Yaw Set Point:	-2.958	X_WP:	0.155	Y_WP:	0.007	Y_WP:	0.500	X:	0.163	Y:	0.069	Z:	0.401	yaw:	169.456	yaw rate:	1.376	Roll:	-1.035	Pitch:	-2.977	Yaw:	239.846	Thrust:	89.131
Time:	9.702	Roll Set Point:	-0.167	Pitch Set Point:	-0.007	Yaw Set Point:	-2.958	X_WP:	0.155	Y_WP:	0.007	Y_WP:	0.500	X:	0.163	Y:	0.069	Z:	0.401	yaw:	169.457	yaw rate:	0.104	Roll:	-1.028	Pitch:	-2.979	Yaw:	239.741	Thrust:	89.429
Time:	9.733	Roll Set Point:	-0.167	Pitch Set Point:	-0.007	Yaw Set Point:	-2.957	X_WP:	0.155	Y_WP:	0.007	Y_WP:	0.500	X:	0.163	Y:	0.069	Z:	0.401	yaw:	169.441	yaw rate:	-1.585	Roll:	-1.017	Pitch:	-2.978	Yaw:	239.577	Thrust:	89.865
Time:	9.764	Roll Set Point:	-0.167	Pitch Set Point:	-0.007	Yaw Set Point:	-2.957	X_WP:	0.155	Y_WP:	0.007	Y_WP:	0.500	X:	0.163	Y:	0.069	Z:	0.401	yaw:	169.448	yaw rate:	0.667	Roll:	-1.030	Pitch:	-2.975	Yaw:	239.775	Thrust:	90.215
Time:	9.795	Roll Set Point:	-0.167	Pitch Set Point:	-0.007	Yaw Set Point:	-2.957	X_WP:	0.155	Y_WP:	0.007	Y_WP:	0.500	X:	0.163	Y:	0.069	Z:	0.401	yaw:	169.441	yaw rate:	-1.310	Roll:	-1.023	Pitch:	-2.978	Yaw:	239.651	Thrust:	90.622
Time:	9.827	Roll Set Point:	-0.167	Pitch Set Point:	-0.007	Yaw Set Point:	-2.957	X_WP:	0.155	Y_WP:	0.007	Y_WP:	0.500	X:	0.163	Y:	0.069	Z:	0.401	yaw:	169.441	yaw rate:	0.001	Roll:	-1.025	Pitch:	-2.978	Yaw:	239.710	Thrust:	90.957
Time:	9.858	Roll Set Point:	-0.167	Pitch Set Point:	-0.007	Yaw Set Point:	-2.958	X_WP:	0.155	Y_WP:	0.007	Y_WP:	0.500	X:	0.163	Y:	0.069	Z:	0.401	yaw:	169.460	yaw rate:	1.862	Roll:	-1.037	Pitch:	-2.979	Yaw:	239.891	Thrust:	91.373
Time:	9.889	Roll Set Point:	-0.167	Pitch Set Point:	-0.007	Yaw Set Point:	-2.957	X_WP:	0.155	Y_WP:	0.007	Y_WP:	0.500	X:	0.163	Y:	0.069	Z:	0.401	yaw:	169.436	yaw rate:	-2.311	Roll:	-1.013	Pitch:	-2.977	Yaw:	239.510	Thrust:	91.594
Time:	9.920	Roll Set Point:	-0.167	Pitch Set Point:	-0.007	Yaw Set Point:	-2.957	X_WP:	0.155	Y_WP:	0.007	Y_WP:	0.500	X:	0.163	Y:	0.069	Z:	0.401	yaw:	169.452	yaw rate:	1.509	Roll:	-1.033	Pitch:	-2.979	Yaw:	239.851	Thrust:	92.174
Time:	9.952	Roll Set Point:	-0.167	Pitch Set Point:	-0.007	Yaw Set Point:	-2.957	X_WP:	0.155	Y_WP:	0.007	Y_WP:	0.500	X:	0.163	Y:	0.069	Z:	0.401	yaw:	169.435	yaw rate:	-1.646	Roll:	-1.016	Pitch:	-2.976	Yaw:	239.563	Thrust:	92.385
Time:	9.983	Roll Set Point:	-0.167	Pitch Set Point:	-0.007	Yaw Set Point:	-2.958	X_WP:	0.155	Y_WP:	0.007	Y_WP:	0.500	X:	0.163	Y:	0.069	Z:	0.401	yaw:	169.467	yaw rate:	2.809	Roll:	-1.043	Pitch:	-2.979	Yaw:	240.010	Thrust:	92.909
Time:	10.014	Roll Set Point:	-0.167	Pitch Set Point:	-0.007	Yaw Set Point:	-2.958	X_WP:	0.155	Y_WP:	0.007	Y_WP:	0.500	X:	0.163	Y:	0.069	Z:	0.401	yaw:	169.452	yaw rate:	-1.422	Roll:	-1.025	Pitch:	-2.987	Yaw:	239.632	Thrust:	93.875
Time:	10.053	Roll Set Point:	-0.167	Pitch Set Point:	-0.007	Yaw Set Point:	-2.958	X_WP:	0.155	Y_WP:	0.007	Y_WP:	0.500	X:	0.163	Y:	0.069	Z:	0.401	yaw:	169.474	yaw rate:	2.576	Roll:	-1.309	Pitch:	-3.260	Yaw:	240.657	Thrust:	100.000
Time:	10.084	Roll Set Point:	-0.167	Pitch Set Point:	-0.007	Yaw Set Point:	-2.957	X_WP:	0.155	Y_WP:	0.007	Y_WP:	0.500	X:	0.163	Y:	0.069	Z:	0.401	yaw:	169.419	yaw rate:	-3.447	Roll:	-0.990	Pitch:	-2.975	Yaw:	239.220	Thrust:	93.831
Time:	10.116	Roll Set Point:	-0.167	Pitch Set Point:	-0.007	Yaw Set Point:	-2.958	X_WP:	0.155	Y_WP:	0.007	Y_WP:	0.500	X:	0.163	Y:	0.069	Z:	0.401	yaw:	169.458	yaw rate:	3.851	Roll:	-1.047	Pitch:	-2.979	Yaw:	240.056	Thrust:	94.317
Time:	10.147	Roll Set Point:	-0.167	Pitch Set Point:	-0.007	Yaw Set Point:	-2.957	X_WP:	0.155	Y_WP:	0.007	Y_WP:	0.500	X:	0.163	Y:	0.069	Z:	0.401	yaw:	169.448	yaw rate:	-1.918	Roll:	-1.018	Pitch:	-2.980	Yaw:	239.639	Thrust:	94.749
Time:	10.178	Roll Set Point:	-0.167	Pitch Set Point:	-0.007	Yaw Set Point:	-2.957	X_WP:	0.155	Y_WP:	0.007	Y_WP:	0.500	X:	0.163	Y:	0.069	Z:	0.401	yaw:	169.446	yaw rate:	-0.150	Roll:	-1.019	Pitch:	-2.975	Yaw:	239.701	Thrust:	94.991
Time:	10.209	Roll Set Point:	-0.167	Pitch Set Point:	-0.007	Yaw Set Point:	-2.957	X_WP:	0.155	Y_WP:	0.007	Y_WP:	0.500	X:	0.163	Y:	0.069	Z:	0.401	yaw:	169.423	yaw rate:	-2.341	Roll:	-1.009	Pitch:	-2.976	Yaw:	239.488	Thrust:	95.471
Time:	10.241	Roll Set Point:	-0.167	Pitch Set Point:	-0.007	Yaw Set Point:	-2.958	X_WP:	0.155	Y_WP:	0.007	Y_WP:	0.500	X:	0.163	Y:	0.069	Z:	0.401	yaw:	169.453	yaw rate:	2.960	Roll:	-1.039	Pitch:	-2.979	Yaw:	239.974	Thrust:	95.772
Time:	10.272	Roll Set Point:	-0.167	Pitch Set Point:	-0.007	Yaw Set Point:	-2.958	X_WP:	0.155	Y_WP:	0.007	Y_WP:	0.500	X:	0.163	Y:	0.069	Z:	0.401	yaw:	169.454	yaw rate:	1.136	Roll:	-1.025	Pitch:	-2.977	Yaw:	239.743	Thrust:	96.253
Time:	10.303	Roll Set Point:	-0.167	Pitch Set Point:	-0.007	Yaw Set Point:	-2.957	X_WP:	0.155	Y_WP:	0.007	Y_WP:	0.500	X:	0.163	Y:	0.069	Z:	0.401	yaw:	169.434	yaw rate:	-2.005	Roll:	-1.005	Pitch:	-2.977	Yaw:	239.529	Thrust:	96.409
Time:	10.334	Roll Set Point:	-0.167	Pitch Set Point:	-0.007	Yaw Set Point:	-2.958	X_WP:	0.155	Y_WP:	0.007	Y_WP:	0.500	X:	0.163	Y:	0.069	Z:	0.401	yaw:	169.465	yaw rate:	3.119	Roll:	-1.041	Pitch:	-2.980	Yaw:	240.005	Thrust:	96.948
Time:	10.366	Roll Set Point:	-0.167	Pitch Set Point:	-0.007	Yaw Set Point:	-2.957	X_WP:	0.155	Y_WP:	0.007	Y_WP:	0.500	X:	0.163	Y:	0.069	Z:	0.401	yaw:	169.448	yaw rate:	0.468	Roll:	-1.012	Pitch:	-2.977	Yaw:	239.576	Thrust:	97.335
Time:	10.397	Roll Set Point:	-0.167	Pitch Set Point:	-0.007	Yaw Set Point:	-2.957	X_WP:	0.155	Y_WP:	0.007	Y_WP:	0.500	X:	0.163	Y:	0.069	Z:	0.401	yaw:	169.449	yaw rate:	0.145	Roll:	-1.022	Pitch:	-2.979	Yaw:	239.733	Thrust:	97.729
Time:	10.428	Roll Set Point:	-0.167	Pitch Set Point:	-0.007	Yaw Set Point:	-2.958	X_WP:	0.155	Y_WP:	0.007	Y_WP:	0.500	X:	0.163	Y:	0.069	Z:	0.401	yaw:	169.454	yaw rate:	1.827	Roll:	-1.023	Pitch:	-2.977	Yaw:	239.769	Thrust:	97.917
Time:	10.459	Roll Set Point:	-0.167	Pitch Set Point:	-0.007	Yaw Set Point:	-2.957	X_WP:	0.155	Y_WP:	0.007	Y_WP:	0.500	X:	0.163	Y:	0.069	Z:	0.401	yaw:	169.444	yaw rate:	-0.885	Roll:	-1.012	Pitch:	-2.976	Yaw:	239.624	Thrust:	98.367
Time:	10.491	Roll Set Point:	-0.167	Pitch Set Point:	-0.007	Yaw Set Point:	-2.957	X_WP:	0.155	Y_WP:	0.007	Y_WP:	0.500	X:	0.163	Y:	0.069	Z:	0.401	yaw:	169.436	yaw rate:	-0.830	Roll:	-1.016	Pitch:	-2.977	Yaw:	239.633	Thrust:	98.811
Time:	10.530	Roll Set Point:	-0.167	Pitch Set Point:	-0.007	Yaw Set Point:	-2.957	X_WP:	0.155	Y_WP:	0.007	Y_WP:	0.500	X:	0.163	Y:	0.069	Z:	0.401	yaw:	169.445	yaw rate:	1.727	Roll:	-1.279	Pitch:	-3.244	Yaw:	240.589	Thrust:	100.000
Time:	10.561	Roll Set Point:	-0.167	Pitch Set Point:	-0.007	Yaw Set Point:	-2.957	X_WP:	0.155	Y_WP:	0.007	Y_WP:	0.500	X:	0.163	Y:	0.069	Z:	0.401	yaw:	169.442	yaw rate:	-0.273	Roll:	-1.056	Pitch:	-3.017	Yaw:	239.688	Thrust:	99.450
Time:	10.594	Roll Set Point:	-0.167	Pitch Set Point:	-0.007	Yaw Set Point:	-2.957	X_WP:	0.155	Y_WP:	0.007	Y_WP:	0.500	X:	0.163	Y:	0.069	Z:	0.401	yaw:	169.435	yaw rate:	-0.731	Roll:	-1.026	Pitch:	-2.989	Yaw:	239.777	Thrust:	100.000
Time:	10.625	Roll Set Point:	-0.167	Pitch Set Point:	-0.007	Yaw Set Point:	-2.957	X_WP:	0.155	Y_WP:	0.007	Y_WP:	0.500	X:	0.163	Y:	0.069	Z:	0.401	yaw:	169.445	yaw rate:	0.999	Roll:	-1.060	Pitch:	-3.016	Yaw:	239.799	Thrust:	100.000
Time:	10.656	Roll Set Point:	-0.167	Pitch Set Point:	-0.007	Yaw Set Point:	-2.957	X_WP:	0.155	Y_WP:	0.007	Y_WP:	0.500	X:	0.163	Y:	0.069	Z:	0.401	yaw:	169.436	yaw rate:	-0.883	Roll:	-1.013	Pitch:	-2.977	Yaw:	239.629	Thrust:	100.000
Time:	10.688	Roll Set Point:	-0.167	Pitch Set Point:	-0.007	Yaw Set Point:	-2.958	X_WP:	0.155	Y_WP:	0.007	Y_WP:	0.500	X:	0.163	Y:	0.069	Z:	0.401	yaw:	169.453	yaw rate:	1.669	Roll:	-1.027	Pitch:	-2.979	Yaw:	239.866	Thrust:	100.000
Time:	10.719	Roll Set Point:	-0.167	Pitch Set Point:	-0.007	Yaw Set Point:	-2.957	X_WP:	0.155	Y_WP:	0.007	Y_WP:	0.500	X:	0.163	Y:	0.069	Z:	0.401	yaw:	169.436	yaw rate:	-1.694	Roll:	-1.008	Pitch:	-2.978	Yaw:	239.560	Thrust:	100.000
Time:	10.750	Roll Set Point:	-0.167	Pitch Set Point:	-0.007	Yaw Set Point:	-2.957	X_WP:	0.155	Y_WP:	0.007	Y_WP:	0.500	X:	0.163	Y:	0.069	Z:	0.401	yaw:	169.452	yaw rate:	0.214	Roll:	-1.027	Pitch:	-2.978	Yaw:	239.863	Thrust:	100.000
Time:	10.781	Roll Set Point:	-0.167	Pitch Set Point:	-0.007	Yaw Set Point:	-2.957	X_WP:	0.155	Y_WP:	0.007	Y_WP:	0.500	X:	0.163	Y:	0.069	Z:	0.401	yaw:	169.445	yaw rate:	0.615	Roll:	-1.012	Pitch:	-2.977	Yaw:	239.650	Thrust:	100.000
Time:	10.813	Roll Set Point:	-0.167	Pitch Set Point:	-0.007	Yaw Set Point:	-2.958	X_WP:	0.155	Y_WP:	0.007	Y_WP:	0.500	X:	0.163	Y:	0.069	Z:	0.401	yaw:	169.467	yaw rate:	1.913	Roll:	-1.031	Pitch:	-2.978	Yaw:	239.936	Thrust:	100.000
