Time:	2.125	Roll Set Point:	-0.234	Pitch Set Point:	-0.122	Yaw Set Point:	-0.578	X_WP:	0.000	Y_WP:	0.000	Y_WP:	0.500	X:	0.099	Y:	0.096	Z:	0.399	yaw:	33.106	yaw rate:	-5.574	Roll:	3.924	Pitch:	0.754	Yaw:	46.224	Thrust:	5.573
Time:	2.141	Roll Set Point:	-0.234	Pitch Set Point:	-0.122	Yaw Set Point:	-0.579	X_WP:	0.000	Y_WP:	0.000	Y_WP:	0.500	X:	0.099	Y:	0.096	Z:	0.399	yaw:	33.160	yaw rate:	5.439	Roll:	3.897	Pitch:	0.617	Yaw:	47.392	Thrust:	5.550
Time:	2.156	Roll Set Point:	-0.234	Pitch Set Point:	-0.122	Yaw Set Point:	-0.577	X_WP:	0.000	Y_WP:	0.000	Y_WP:	0.500	X:	0.099	Y:	0.096	Z:	0.399	yaw:	33.081	yaw rate:	-9.352	Roll:	3.936	Pitch:	0.969	Yaw:	45.225	Thrust:	6.227
Time:	2.172	Roll Set Point:	-0.234	Pitch Set Point:	-0.122	Yaw Set Point:	-0.577	X_WP:	0.000	Y_WP:	0.000	Y_WP:	0.500	X:	0.099	Y:	0.096	Z:	0.399	yaw:	33.081	yaw rate:	-9.352	Roll:	3.939	Pitch:	0.759	Yaw:	46.730	Thrust:	6.143
Time:	2.188	Roll Set Point:	-0.234	Pitch Set Point:	-0.122	Yaw Set Point:	-0.579	X_WP:	0.000	Y_WP:	0.000	Y_WP:	0.500	X:	0.099	Y:	0.096	Z:	0.399	yaw:	33.168	yaw rate:	8.710	Roll:	3.957	Pitch:	0.590	Yaw:	48.491	Thrust:	6.093
Time:	2.203	Roll Set Point:	-0.234	Pitch Set Point:	-0.122	Yaw Set Point:	-0.579	X_WP:	0.000	Y_WP:	0.000	Y_WP:	0.500	X:	0.099	Y:	0.096	Z:	0.399	yaw:	33.169	yaw rate:	0.127	Roll:	3.935	Pitch:	0.704	Yaw:	47.235	Thrust:	6.551
Time:	2.219	Roll Set Point:	-0.234	Pitch Set Point:	-0.122	Yaw Set Point:	-0.579	X_WP:	0.000	Y_WP:	0.000	Y_WP:	0.500	X:	0.099	Y:	0.096	Z:	0.399	yaw:	33.147	yaw rate:	-2.251	Roll:	3.959	Pitch:	0.835	Yaw:	46.992	Thrust:	6.688
Time:	2.234	Roll Set Point:	-0.234	Pitch Set Point:	-0.122	Yaw Set Point:	-0.579	X_WP:	0.000	Y_WP:	0.000	Y_WP:	0.500	X:	0.099	Y:	0.096	Z:	0.399	yaw:	33.147	yaw rate:	-2.251	Roll:	3.960	Pitch:	0.759	Yaw:	47.544	Thrust:	6.897
Time:	2.250	Roll Set Point:	-0.234	Pitch Set Point:	-0.122	Yaw Set Point:	-0.579	X_WP:	0.000	Y_WP:	0.000	Y_WP:	0.500	X:	0.099	Y:	0.096	Z:	0.399	yaw:	33.170	yaw rate:	1.170	Roll:	3.967	Pitch:	0.749	Yaw:	48.144	Thrust:	7.138
Time:	2.266	Roll Set Point:	-0.234	Pitch Set Point:	-0.122	Yaw Set Point:	-0.579	X_WP:	0.000	Y_WP:	0.000	Y_WP:	0.500	X:	0.099	Y:	0.096	Z:	0.399	yaw:	33.151	yaw rate:	-1.846	Roll:	3.964	Pitch:	0.703	Yaw:	47.541	Thrust:	7.126
Time:	2.281	Roll Set Point:	-0.234	Pitch Set Point:	-0.122	Yaw Set Point:	-0.579	X_WP:	0.000	Y_WP:	0.000	Y_WP:	0.500	X:	0.099	Y:	0.096	Z:	0.399	yaw:	33.151	yaw rate:	-1.846	Roll:	3.976	Pitch:	0.760	Yaw:	47.851	Thrust:	7.467
Time:	2.297	Roll Set Point:	-0.234	Pitch Set Point:	-0.122	Yaw Set Point:	-0.579	X_WP:	0.000	Y_WP:	0.000	Y_WP:	0.500	X:	0.099	Y:	0.096	Z:	0.399	yaw:	33.154	yaw rate:	0.270	Roll:	4.000	Pitch:	0.810	Yaw:	47.899	Thrust:	7.670
Time:	2.312	Roll Set Point:	-0.234	Pitch Set Point:	-0.122	Yaw Set Point:	-0.577	X_WP:	0.000	Y_WP:	0.000	Y_WP:	0.500	X:	0.099	Y:	0.096	Z:	0.399	yaw:	33.079	yaw rate:	-7.506	Roll:	3.982	Pitch:	0.952	Yaw:	46.492	Thrust:	8.154
Time:	2.328	Roll Set Point:	-0.234	Pitch Set Point:	-0.121	Yaw Set Point:	-0.580	X_WP:	0.000	Y_WP:	0.000	Y_WP:	0.500	X:	0.099	Y:	0.096	Z:	0.399	yaw:	33.207	yaw rate:	5.079	Roll:	3.992	Pitch:	0.427	Yaw:	50.083	Thrust:	7.875
Time:	2.344	Roll Set Point:	-0.234	Pitch Set Point:	-0.121	Yaw Set Point:	-0.580	X_WP:	0.000	Y_WP:	0.000	Y_WP:	0.500	X:	0.099	Y:	0.096	Z:	0.399	yaw:	33.207	yaw rate:	5.079	Roll:	3.997	Pitch:	0.762	Yaw:	47.929	Thrust:	8.230
Time:	2.359	Roll Set Point:	-0.234	Pitch Set Point:	-0.122	Yaw Set Point:	-0.579	X_WP:	0.000	Y_WP:	0.000	Y_WP:	0.500	X:	0.099	Y:	0.096	Z:	0.399	yaw:	33.186	yaw rate:	-2.152	Roll:	4.020	Pitch:	0.851	Yaw:	47.539	Thrust:	8.356
Time:	2.375	Roll Set Point:	-0.234	Pitch Set Point:	-0.122	Yaw Set Point:	-0.579	X_WP:	0.000	Y_WP:	0.000	Y_WP:	0.500	X:	0.099	Y:	0.096	Z:	0.399	yaw:	33.186	yaw rate:	-2.152	Roll:	4.008	Pitch:	0.766	Yaw:	47.899	Thrust:	8.609
Time:	2.391	Roll Set Point:	-0.234	Pitch Set Point:	-0.121	Yaw Set Point:	-0.580	X_WP:	0.000	Y_WP:	0.000	Y_WP:	0.500	X:	0.099	Y:	0.096	Z:	0.399	yaw:	33.207	yaw rate:	2.067	Roll:	4.023	Pitch:	0.693	Yaw:	48.275	Thrust:	8.857
Time:	2.406	Roll Set Point:	-0.234	Pitch Set Point:	-0.122	Yaw Set Point:	-0.579	X_WP:	0.000	Y_WP:	0.000	Y_WP:	0.500	X:	0.099	Y:	0.096	Z:	0.399	yaw:	33.168	yaw rate:	5.169	Roll:	3.996	Pitch:	0.894	Yaw:	47.221	Thrust:	8.944
Time:	2.422	Roll Set Point:	-0.234	Pitch Set Point:	-0.122	Yaw Set Point:	-0.578	X_WP:	0.000	Y_WP:	0.000	Y_WP:	0.500	X:	0.099	Y:	0.096	Z:	0.399	yaw:	33.105	yaw rate:	-6.240	Roll:	4.035	Pitch:	0.934	Yaw:	46.741	Thrust:	9.484
Time:	2.437	Roll Set Point:	-0.234	Pitch Set Point:	-0.122	Yaw Set Point:	-0.578	X_WP:	0.000	Y_WP:	0.000	Y_WP:	0.500	X:	0.099	Y:	0.096	Z:	0.399	yaw:	33.105	yaw rate:	-6.240	Roll:	4.030	Pitch:	0.776	Yaw:	47.786	Thrust:	9.374
Time:	2.453	Roll Set Point:	-0.234	Pitch Set Point:	-0.121	Yaw Set Point:	-0.579	X_WP:	0.000	Y_WP:	0.000	Y_WP:	0.500	X:	0.099	Y:	0.096	Z:	0.399	yaw:	33.197	yaw rate:	6.543	Roll:	4.021	Pitch:	0.516	Yaw:	49.451	Thrust:	9.363
Time:	2.469	Roll Set Point:	-0.234	Pitch Set Point:	-0.122	Yaw Set Point:	-0.579	X_WP:	0.000	Y_WP:	0.000	Y_WP:	0.500	X:	0.099	Y:	0.096	Z:	0.399	yaw:	33.172	yaw rate:	-2.507	Roll:	4.038	Pitch:	0.806	Yaw:	47.461	Thrust:	9.649
Time:	2.484	Roll Set Point:	-0.234	Pitch Set Point:	-0.122	Yaw Set Point:	-0.578	X_WP:	0.000	Y_WP:	0.000	Y_WP:	0.500	X:	0.099	Y:	0.096	Z:	0.399	yaw:	33.125	yaw rate:	-4.659	Roll:	4.084	Pitch:	0.889	Yaw:	47.034	Thrust:	10.076
Time:	2.500	Roll Set Point:	-0.234	Pitch Set Point:	-0.122	Yaw Set Point:	-0.578	X_WP:	0.000	Y_WP:	0.000	Y_WP:	0.500	X:	0.099	Y:	0.096	Z:	0.399	yaw:	33.124	yaw rate:	-0.125	Roll:	4.034	Pitch:	0.819	Yaw:	47.791	Thrust:	10.256
Time:	2.516	Roll Set Point:	-0.234	Pitch Set Point:	-0.122	Yaw Set Point:	-0.578	X_WP:	0.000	Y_WP:	0.000	Y_WP:	0.500	X:	0.099	Y:	0.096	Z:	0.399	yaw:	33.124	yaw rate:	-0.125	Roll:	4.056	Pitch:	0.779	Yaw:	47.812	Thrust:	10.322
Time:	2.531	Roll Set Point:	-0.234	Pitch Set Point:	-0.122	Yaw Set Point:	-0.579	X_WP:	0.000	Y_WP:	0.000	Y_WP:	0.500	X:	0.099	Y:	0.096	Z:	0.399	yaw:	33.182	yaw rate:	5.792	Roll:	4.042	Pitch:	0.631	Yaw:	48.864	Thrust:	10.450
Time:	2.547	Roll Set Point:	-0.234	Pitch Set Point:	-0.122	Yaw Set Point:	-0.579	X_WP:	0.000	Y_WP:	0.000	Y_WP:	0.500	X:	0.099	Y:	0.096	Z:	0.399	yaw:	33.151	yaw rate:	-1.987	Roll:	4.056	Pitch:	0.864	Yaw:	47.321	Thrust:	10.459
Time:	2.563	Roll Set Point:	-0.234	Pitch Set Point:	-0.122	Yaw Set Point:	-0.579	X_WP:	0.000	Y_WP:	0.000	Y_WP:	0.500	X:	0.099	Y:	0.096	Z:	0.399	yaw:	33.175	yaw rate:	2.453	Roll:	4.094	Pitch:	0.752	Yaw:	48.295	Thrust:	10.942
Time:	2.594	Roll Set Point:	-0.234	Pitch Set Point:	-0.122	Yaw Set Point:	-0.579	X_WP:	0.000	Y_WP:	0.000	Y_WP:	0.500	X:	0.099	Y:	0.096	Z:	0.399	yaw:	33.161	yaw rate:	-1.387	Roll:	4.223	Pitch:	0.816	Yaw:	49.309	Thrust:	16.621
Time:	2.609	Roll Set Point:	-0.235	Pitch Set Point:	-0.122	Yaw Set Point:	-0.578	X_WP:	0.000	Y_WP:	0.000	Y_WP:	0.500	X:	0.099	Y:	0.096	Z:	0.399	yaw:	33.101	yaw rate:	-4.040	Roll:	4.104	Pitch:	0.797	Yaw:	46.767	Thrust:	11.316
Time:	2.625	Roll Set Point:	-0.234	Pitch Set Point:	-0.122	Yaw Set Point:	-0.577	X_WP:	0.000	Y_WP:	0.000	Y_WP:	0.500	X:	0.099	Y:	0.096	Z:	0.399	yaw:	33.077	yaw rate:	-2.344	Roll:	4.068	Pitch:	0.914	Yaw:	47.355	Thrust:	11.473
Time:	2.641	Roll Set Point:	-0.234	Pitch Set Point:	-0.122	Yaw Set Point:	-0.579	X_WP:	0.000	Y_WP:	0.000	Y_WP:	0.500	X:	0.099	Y:	0.096	Z:	0.399	yaw:	33.183	yaw rate:	10.580	Roll:	4.086	Pitch:	0.598	Yaw:	49.668	Thrust:	11.494
Time:	2.656	Roll Set Point:	-0.234	Pitch Set Point:	-0.122	Yaw Set Point:	-0.578	X_WP:	0.000	Y_WP:	0.000	Y_WP:	0.500	X:	0.099	Y:	0.096	Z:	0.399	yaw:	33.094	yaw rate:	-8.888	Roll:	4.110	Pitch:	0.892	Yaw:	46.282	Thrust:	12.131
Time:	2.672	Roll Set Point:	-0.234	Pitch Set Point:	-0.122	Yaw Set Point:	-0.578	X_WP:	0.000	Y_WP:	0.000	Y_WP:	0.500	X:	0.099	Y:	0.096	Z:	0.399	yaw:	33.094	yaw rate:	-8.888	Roll:	4.104	Pitch:	0.788	Yaw:	47.774	Thrust:	12.046
Time:	2.688	Roll Set Point:	-0.234	Pitch Set Point:	-0.122	Yaw Set Point:	-0.579	X_WP:	0.000	Y_WP:	0.000	Y_WP:	0.500	X:	0.099	Y:	0.096	Z:	0.399	yaw:	33.163	yaw rate:	6.897	Roll:	4.101	Pitch:	0.737	Yaw:	49.023	Thrust:	11.953
Time:	2.703	Roll Set Point:	-0.234	Pitch Set Point:	-0.122	Yaw Set Point:	-0.579	X_WP:	0.000	Y_WP:	0.000	Y_WP:	0.500	X:	0.099	Y:	0.096	Z:	0.399	yaw:	33.158	yaw rate:	2.287	Roll:	4.102	Pitch:	0.752	Yaw:	47.768	Thrust:	12.429
Time:	2.719	Roll Set Point:	-0.234	Pitch Set Point:	-0.122	Yaw Set Point:	-0.579	X_WP:	0.000	Y_WP:	0.000	Y_WP:	0.500	X:	0.099	Y:	0.096	Z:	0.399	yaw:	33.158	yaw rate:	2.287	Roll:	4.118	Pitch:	0.788	Yaw:	47.856	Thrust:	12.584
Time:	2.734	Roll Set Point:	-0.234	Pitch Set Point:	-0.122	Yaw Set Point:	-0.579	X_WP:	0.000	Y_WP:	0.000	Y_WP:	0.500	X:	0.099	Y:	0.096	Z:	0.399	yaw:	33.163	yaw rate:	0.567	Roll:	4.112	Pitch:	0.765	Yaw:	47.966	Thrust:	12.699
Time:	2.750	Roll Set Point:	-0.234	Pitch Set Point:	-0.122	Yaw Set Point:	-0.578	X_WP:	0.000	Y_WP:	0.000	Y_WP:	0.500	X:	0.099	Y:	0.096	Z:	0.399	yaw:	33.137	yaw rate:	-4.137	Roll:	4.138	Pitch:	0.887	Yaw:	47.385	Thrust:	12.985
Time:	2.766	Roll Set Point:	-0.234	Pitch Set Point:	-0.122	Yaw Set Point:	-0.578	X_WP:	0.000	Y_WP:	0.000	Y_WP:	0.500	X:	0.099	Y:	0.096	Z:	0.399	yaw:	33.137	yaw rate:	-4.137	Roll:	4.135	Pitch:	0.793	Yaw:	47.834	Thrust:	13.183
Time:	2.781	Roll Set Point:	-0.234	Pitch Set Point:	-0.121	Yaw Set Point:	-0.579	X_WP:	0.000	Y_WP:	0.000	Y_WP:	0.500	X:	0.099	Y:	0.096	Z:	0.399	yaw:	33.178	yaw rate:	3.849	Roll:	4.156	Pitch:	0.633	Yaw:	48.576	Thrust:	13.360
Time:	2.797	Roll Set Point:	-0.234	Pitch Set Point:	-0.122	Yaw Set Point:	-0.578	X_WP:	0.000	Y_WP:	0.000	Y_WP:	0.500	X:	0.099	Y:	0.096	Z:	0.399	yaw:	33.137	yaw rate:	-4.131	Roll:	4.118	Pitch:	0.929	Yaw:	47.138	Thrust:	13.443
Time:	2.813	Roll Set Point:	-0.234	Pitch Set Point:	-0.122	Yaw Set Point:	-0.578	X_WP:	0.000	Y_WP:	0.000	Y_WP:	0.500	X:	0.099	Y:	0.096	Z:	0.399	yaw:	33.113	yaw rate:	-2.394	Roll:	4.189	Pitch:	0.858	Yaw:	47.396	Thrust:	14.069
Time:	2.828	Roll Set Point:	-0.234	Pitch Set Point:	-0.122	Yaw Set Point:	-0.578	X_WP:	0.000	Y_WP:	0.000	Y_WP:	0.500	X:	0.099	Y:	0.096	Z:	0.399	yaw:	33.144	yaw rate:	3.065	Roll:	4.130	Pitch:	0.730	Yaw:	48.353	Thrust:	13.634
Time:	2.844	Roll Set Point:	-0.234	Pitch Set Point:	-0.122	Yaw Set Point:	-0.579	X_WP:	0.000	Y_WP:	0.000	Y_WP:	0.500	X:	0.099	Y:	0.096	Z:	0.399	yaw:	33.183	yaw rate:	3.923	Roll:	4.179	Pitch:	0.699	Yaw:	48.552	Thrust:	14.353
Time:	2.859	Roll Set Point:	-0.234	Pitch Set Point:	-0.122	Yaw Set Point:	-0.579	X_WP:	0.000	Y_WP:	0.000	Y_WP:	0.500	X:	0.099	Y:	0.096	Z:	0.399	yaw:	33.156	yaw rate:	-2.690	Roll:	4.151	Pitch:	0.873	Yaw:	47.406	Thrust:	14.225
Time:	2.875	Roll Set Point:	-0.234	Pitch Set Point:	-0.122	Yaw Set Point:	-0.578	X_WP:	0.000	Y_WP:	0.000	Y_WP:	0.500	X:	0.099	Y:	0.096	Z:	0.399	yaw:	33.136	yaw rate:	-1.996	Roll:	4.163	Pitch:	0.813	Yaw:	47.495	Thrust:	14.276
Time:	2.891	Roll Set Point:	-0.234	Pitch Set Point:	-0.122	Yaw Set Point:	-0.578	X_WP:	0.000	Y_WP:	0.000	Y_WP:	0.500	X:	0.099	Y:	0.096	Z:	0.399	yaw:	33.089	yaw rate:	-4.675	Roll:	4.186	Pitch:	0.901	Yaw:	46.982	Thrust:	15.032
Time:	2.906	Roll Set Point:	-0.234	Pitch Set Point:	-0.122	Yaw Set Point:	-0.579	X_WP:	0.000	Y_WP:	0.000	Y_WP:	0.500	X:	0.099	Y:	0.096	Z:	0.399	yaw:	33.162	yaw rate:	7.306	Roll:	4.189	Pitch:	0.676	Yaw:	49.090	Thrust:	14.784
Time:	2.922	Roll Set Point:	-0.234	Pitch Set Point:	-0.122	Yaw Set Point:	-0.579	X_WP:	0.000	Y_WP:	0.000	Y_WP:	0.500	X:	0.099	Y:	0.096	Z:	0.399	yaw:	33.185	yaw rate:	2.308	Roll:	4.200	Pitch:	0.749	Yaw:	48.283	Thrust:	15.085
Time:	2.938	Roll Set Point:	-0.234	Pitch Set Point:	-0.122	Yaw Set Point:	-0.578	X_WP:	0.000	Y_WP:	0.000	Y_WP:	0.500	X:	0.099	Y:	0.096	Z:	0.399	yaw:	33.102	yaw rate:	-8.317	Roll:	4.195	Pitch:	0.925	Yaw:	46.387	Thrust:	15.413
Time:	2.953	Roll Set Point:	-0.234	Pitch Set Point:	-0.122	Yaw Set Point:	-0.577	X_WP:	0.000	Y_WP:	0.000	Y_WP:	0.500	X:	0.099	Y:	0.096	Z:	0.399	yaw:	33.082	yaw rate:	-2.059	Roll:	4.161	Pitch:	0.878	Yaw:	47.408	Thrust:	15.400
Time:	2.969	Roll Set Point:	-0.234	Pitch Set Point:	-0.122	Yaw Set Point:	-0.579	X_WP:	0.000	Y_WP:	0.000	Y_WP:	0.500	X:	0.099	Y:	0.096	Z:	0.399	yaw:	33.181	yaw rate:	9.936	Roll:	4.228	Pitch:	0.609	Yaw:	49.557	Thrust:	15.450
Time:	2.984	Roll Set Point:	-0.234	Pitch Set Point:	-0.122	Yaw Set Point:	-0.579	X_WP:	0.000	Y_WP:	0.000	Y_WP:	0.500	X:	0.099	Y:	0.096	Z:	0.399	yaw:	33.149	yaw rate:	-3.226	Roll:	4.207	Pitch:	0.885	Yaw:	47.306	Thrust:	15.778
Time:	3.000	Roll Set Point:	-0.234	Pitch Set Point:	-0.122	Yaw Set Point:	-0.578	X_WP:	0.000	Y_WP:	0.000	Y_WP:	0.500	X:	0.099	Y:	0.096	Z:	0.399	yaw:	33.130	yaw rate:	-1.905	Roll:	4.195	Pitch:	0.895	Yaw:	47.501	Thrust:	16.109
Time:	3.016	Roll Set Point:	-0.234	Pitch Set Point:	-0.122	Yaw Set Point:	-0.578	X_WP:	0.000	Y_WP:	0.000	Y_WP:	0.500	X:	0.099	Y:	0.096	Z:	0.399	yaw:	33.130	yaw rate:	-1.905	Roll:	4.219	Pitch:	0.811	Yaw:	47.820	Thrust:	16.208
Time:	3.031	Roll Set Point:	-0.234	Pitch Set Point:	-0.122	Yaw Set Point:	-0.579	X_WP:	0.000	Y_WP:	0.000	Y_WP:	0.500	X:	0.099	Y:	0.096	Z:	0.399	yaw:	33.185	yaw rate:	0.159	Roll:	4.253	Pitch:	0.655	Yaw:	48.826	Thrust:	16.424
Time:	3.047	Roll Set Point:	-0.234	Pitch Set Point:	-0.122	Yaw Set Point:	-0.578	X_WP:	0.000	Y_WP:	0.000	Y_WP:	0.500	X:	0.099	Y:	0.096	Z:	0.399	yaw:	33.095	yaw rate:	-8.965	Roll:	4.243	Pitch:	0.957	Yaw:	46.271	Thrust:	16.760
Time:	3.063	Roll Set Point:	-0.234	Pitch Set Point:	-0.122	Yaw Set Point:	-0.579	X_WP:	0.000	Y_WP:	0.000	Y_WP:	0.500	X:	0.099	Y:	0.096	Z:	0.399	yaw:	33.153	yaw rate:	5.738	Roll:	4.194	Pitch:	0.749	Yaw:	48.814	Thrust:	16.592
Time:	3.078	Roll Set Point:	-0.234	Pitch Set Point:	-0.122	Yaw Set Point:	-0.579	X_WP:	0.000	Y_WP:	0.000	Y_WP:	0.500	X:	0.099	Y:	0.096	Z:	0.399	yaw:	33.186	yaw rate:	3.307	Roll:	4.263	Pitch:	0.747	Yaw:	48.453	Thrust:	17.001
Time:	3.094	Roll Set Point:	-0.234	Pitch Set Point:	-0.121	Yaw Set Point:	-0.579	X_WP:	0.000	Y_WP:	0.000	Y_WP:	0.500	X:	0.099	Y:	0.096	Z:	0.399	yaw:	33.188	yaw rate:	0.221	Roll:	4.255	Pitch:	0.754	Yaw:	47.939	Thrust:	17.155
Time:	3.109	Roll Set Point:	-0.234	Pitch Set Point:	-0.121	Yaw Set Point:	-0.579	X_WP:	0.000	Y_WP:	0.000	Y_WP:	0.500	X:	0.099	Y:	0.096	Z:	0.399	yaw:	33.188	yaw rate:	0.221	Roll:	4.252	Pitch:	0.812	Yaw:	47.904	Thrust:	17.363
Time:	3.125	Roll Set Point:	-0.234	Pitch Set Point:	-0.122	Yaw Set Point:	-0.577	X_WP:	0.000	Y_WP:	0.000	Y_WP:	0.500	X:	0.099	Y:	0.096	Z:	0.399	yaw:	33.077	yaw rate:	-11.057	Roll:	4.263	Pitch:	1.036	Yaw:	45.898	Thrust:	17.725
Time:	3.141	Roll Set Point:	-0.234	Pitch Set Point:	-0.122	Yaw Set Point:	-0.578	X_WP:	0.000	Y_WP:	0.000	Y_WP:	0.500	X:	0.099	Y:	0.096	Z:	0.399	yaw:	33.140	yaw rate:	-1.864	Roll:	4.213	Pitch:	0.722	Yaw:	48.874	Thrust:	17.393
Time:	3.156	Roll Set Point:	-0.234	Pitch Set Point:	-0.122	Yaw Set Point:	-0.578	X_WP:	0.000	Y_WP:	0.000	Y_WP:	0.500	X:	0.099	Y:	0.096	Z:	0.399	yaw:	33.135	yaw rate:	-0.451	Roll:	4.285	Pitch:	0.816	Yaw:	47.752	Thrust:	17.851
Time:	3.172	Roll Set Point:	-0.234	Pitch Set Point:	-0.122	Yaw Set Point:	-0.579	X_WP:	0.000	Y_WP:	0.000	Y_WP:	0.500	X:	0.099	Y:	0.096	Z:	0.399	yaw:	33.170	yaw rate:	3.463	Roll:	4.292	Pitch:	0.796	Yaw:	48.457	Thrust:	18.361
Time:	3.188	Roll Set Point:	-0.234	Pitch Set Point:	-0.122	Yaw Set Point:	-0.579	X_WP:	0.000	Y_WP:	0.000	Y_WP:	0.500	X:	0.099	Y:	0.096	Z:	0.399	yaw:	33.185	yaw rate:	1.557	Roll:	4.296	Pitch:	0.796	Yaw:	48.160	Thrust:	18.347
Time:	3.203	Roll Set Point:	-0.234	Pitch Set Point:	-0.122	Yaw Set Point:	-0.579	X_WP:	0.000	Y_WP:	0.000	Y_WP:	0.500	X:	0.099	Y:	0.096	Z:	0.399	yaw:	33.177	yaw rate:	-0.796	Roll:	4.246	Pitch:	0.806	Yaw:	47.768	Thrust:	18.491
Time:	3.217	Roll Set Point:	-0.234	Pitch Set Point:	-0.122	Yaw Set Point:	-0.579	X_WP:	0.000	Y_WP:	0.000	Y_WP:	0.500	X:	0.099	Y:	0.096	Z:	0.399	yaw:	33.182	yaw rate:	0.451	Roll:	4.255	Pitch:	0.782	Yaw:	47.818	Thrust:	17.285
Time:	3.235	Roll Set Point:	-0.234	Pitch Set Point:	-0.122	Yaw Set Point:	-0.579	X_WP:	0.000	Y_WP:	0.000	Y_WP:	0.500	X:	0.099	Y:	0.096	Z:	0.399	yaw:	33.182	yaw rate:	0.451	Roll:	4.343	Pitch:	0.830	Yaw:	48.105	Thrust:	20.673
Time:	3.251	Roll Set Point:	-0.234	Pitch Set Point:	-0.122	Yaw Set Point:	-0.579	X_WP:	0.000	Y_WP:	0.000	Y_WP:	0.500	X:	0.099	Y:	0.096	Z:	0.399	yaw:	33.179	yaw rate:	2.356	Roll:	4.322	Pitch:	0.845	Yaw:	47.849	Thrust:	19.071
Time:	3.266	Roll Set Point:	-0.234	Pitch Set Point:	-0.122	Yaw Set Point:	-0.579	X_WP:	0.000	Y_WP:	0.000	Y_WP:	0.500	X:	0.099	Y:	0.096	Z:	0.399	yaw:	33.174	yaw rate:	-0.500	Roll:	4.290	Pitch:	0.795	Yaw:	47.798	Thrust:	19.285
Time:	3.282	Roll Set Point:	-0.234	Pitch Set Point:	-0.122	Yaw Set Point:	-0.579	X_WP:	0.000	Y_WP:	0.000	Y_WP:	0.500	X:	0.099	Y:	0.096	Z:	0.399	yaw:	33.174	yaw rate:	-0.500	Roll:	4.309	Pitch:	0.824	Yaw:	47.882	Thrust:	19.429
Time:	3.298	Roll Set Point:	-0.234	Pitch Set Point:	-0.122	Yaw Set Point:	-0.579	X_WP:	0.000	Y_WP:	0.000	Y_WP:	0.500	X:	0.099	Y:	0.096	Z:	0.399	yaw:	33.167	yaw rate:	1.584	Roll:	4.323	Pitch:	0.864	Yaw:	47.742	Thrust:	19.500
Time:	3.313	Roll Set Point:	-0.234	Pitch Set Point:	-0.122	Yaw Set Point:	-0.579	X_WP:	0.000	Y_WP:	0.000	Y_WP:	0.500	X:	0.099	Y:	0.096	Z:	0.399	yaw:	33.167	yaw rate:	1.584	Roll:	4.320	Pitch:	0.827	Yaw:	47.872	Thrust:	19.812
Time:	3.329	Roll Set Point:	-0.234	Pitch Set Point:	-0.122	Yaw Set Point:	-0.578	X_WP:	0.000	Y_WP:	0.000	Y_WP:	0.500	X:	0.099	Y:	0.096	Z:	0.399	yaw:	33.123	yaw rate:	-6.152	Roll:	4.334	Pitch:	0.920	Yaw:	47.085	Thrust:	20.472
Time:	3.345	Roll Set Point:	-0.234	Pitch Set Point:	-0.122	Yaw Set Point:	-0.578	X_WP:	0.000	Y_WP:	0.000	Y_WP:	0.500	X:	0.099	Y:	0.096	Z:	0.399	yaw:	33.123	yaw rate:	-6.152	Roll:	4.330	Pitch:	0.831	Yaw:	47.808	Thrust:	20.174
Time:	3.360	Roll Set Point:	-0.234	Pitch Set Point:	-0.122	Yaw Set Point:	-0.578	X_WP:	0.000	Y_WP:	0.000	Y_WP:	0.500	X:	0.099	Y:	0.096	Z:	0.399	yaw:	33.144	yaw rate:	8.257	Roll:	4.316	Pitch:	0.770	Yaw:	48.187	Thrust:	19.984
Time:	3.376	Roll Set Point:	-0.234	Pitch Set Point:	-0.122	Yaw Set Point:	-0.579	X_WP:	0.000	Y_WP:	0.000	Y_WP:	0.500	X:	0.099	Y:	0.096	Z:	0.399	yaw:	33.194	yaw rate:	5.050	Roll:	4.389	Pitch:	0.781	Yaw:	48.756	Thrust:	20.862
Time:	3.391	Roll Set Point:	-0.234	Pitch Set Point:	-0.122	Yaw Set Point:	-0.579	X_WP:	0.000	Y_WP:	0.000	Y_WP:	0.500	X:	0.099	Y:	0.096	Z:	0.399	yaw:	33.194	yaw rate:	5.050	Roll:	4.347	Pitch:	0.831	Yaw:	47.910	Thrust:	20.766
Time:	3.407	Roll Set Point:	-0.234	Pitch Set Point:	-0.122	Yaw Set Point:	-0.579	X_WP:	0.000	Y_WP:	0.000	Y_WP:	0.500	X:	0.099	Y:	0.096	Z:	0.399	yaw:	33.195	yaw rate:	0.109	Roll:	4.304	Pitch:	0.807	Yaw:	47.928	Thrust:	20.792
Time:	3.423	Roll Set Point:	-0.234	Pitch Set Point:	-0.122	Yaw Set Point:	-0.577	X_WP:	0.000	Y_WP:	0.000	Y_WP:	0.500	X:	0.099	Y:	0.096	Z:	0.399	yaw:	33.087	yaw rate:	-10.806	Roll:	4.351	Pitch:	0.989	Yaw:	45.950	Thrust:	21.278
Time:	3.438	Roll Set Point:	-0.234	Pitch Set Point:	-0.122	Yaw Set Point:	-0.578	X_WP:	0.000	Y_WP:	0.000	Y_WP:	0.500	X:	0.099	Y:	0.096	Z:	0.399	yaw:	33.140	yaw rate:	-2.256	Roll:	4.367	Pitch:	0.794	Yaw:	48.717	Thrust:	21.050
Time:	3.454	Roll Set Point:	-0.234	Pitch Set Point:	-0.122	Yaw Set Point:	-0.579	X_WP:	0.000	Y_WP:	0.000	Y_WP:	0.500	X:	0.099	Y:	0.096	Z:	0.399	yaw:	33.150	yaw rate:	1.017	Roll:	4.353	Pitch:	0.768	Yaw:	48.018	Thrust:	21.594
Time:	3.470	Roll Set Point:	-0.234	Pitch Set Point:	-0.122	Yaw Set Point:	-0.579	X_WP:	0.000	Y_WP:	0.000	Y_WP:	0.500	X:	0.099	Y:	0.096	Z:	0.399	yaw:	33.167	yaw rate:	1.690	Roll:	4.378	Pitch:	0.821	Yaw:	48.153	Thrust:	21.702
Time:	3.485	Roll Set Point:	-0.234	Pitch Set Point:	-0.122	Yaw Set Point:	-0.577	X_WP:	0.000	Y_WP:	0.000	Y_WP:	0.500	X:	0.099	Y:	0.096	Z:	0.399	yaw:	33.068	yaw rate:	-9.835	Roll:	4.392	Pitch:	1.025	Yaw:	46.087	Thrust:	22.022
Time:	3.501	Roll Set Point:	-0.234	Pitch Set Point:	-0.122	Yaw Set Point:	-0.577	X_WP:	0.000	Y_WP:	0.000	Y_WP:	0.500	X:	0.099	Y:	0.096	Z:	0.399	yaw:	33.068	yaw rate:	-9.835	Roll:	4.384	Pitch:	0.843	Yaw:	47.738	Thrust:	22.129
Time:	3.516	Roll Set Point:	-0.234	Pitch Set Point:	-0.121	Yaw Set Point:	-0.579	X_WP:	0.000	Y_WP:	0.000	Y_WP:	0.500	X:	0.099	Y:	0.096	Z:	0.399	yaw:	33.177	yaw rate:	1.553	Roll:	4.400	Pitch:	0.614	Yaw:	49.705	Thrust:	22.138
Time:	3.532	Roll Set Point:	-0.234	Pitch Set Point:	-0.122	Yaw Set Point:	-0.579	X_WP:	0.000	Y_WP:	0.000	Y_WP:	0.500	X:	0.099	Y:	0.096	Z:	0.399	yaw:	33.174	yaw rate:	-0.320	Roll:	4.396	Pitch:	0.901	Yaw:	47.828	Thrust:	22.577
Time:	3.548	Roll Set Point:	-0.234	Pitch Set Point:	-0.122	Yaw Set Point:	-0.578	X_WP:	0.000	Y_WP:	0.000	Y_WP:	0.500	X:	0.099	Y:	0.096	Z:	0.399	yaw:	33.138	yaw rate:	-3.578	Roll:	4.375	Pitch:	0.906	Yaw:	47.228	Thrust:	22.545
Time:	3.563	Roll Set Point:	-0.234	Pitch Set Point:	-0.122	Yaw Set Point:	-0.579	X_WP:	0.000	Y_WP:	0.000	Y_WP:	0.500	X:	0.099	Y:	0.096	Z:	0.399	yaw:	33.147	yaw rate:	0.942	Roll:	4.401	Pitch:	0.800	Yaw:	48.003	Thrust:	22.737
Time:	3.593	Roll Set Point:	-0.234	Pitch Set Point:	-0.122	Yaw Set Point:	-0.578	X_WP:	0.000	Y_WP:	0.000	Y_WP:	0.500	X:	0.099	Y:	0.096	Z:	0.399	yaw:	33.141	yaw rate:	-5.551	Roll:	4.852	Pitch:	0.962	Yaw:	49.219	Thrust:	39.167
Time:	3.609	Roll Set Point:	-0.234	Pitch Set Point:	-0.122	Yaw Set Point:	-0.579	X_WP:	0.000	Y_WP:	0.000	Y_WP:	0.500	X:	0.099	Y:	0.096	Z:	0.399	yaw:	33.174	yaw rate:	3.293	Roll:	4.434	Pitch:	0.755	Yaw:	48.438	Thrust:	23.256
Time:	3.624	Roll Set Point:	-0.234	Pitch Set Point:	-0.122	Yaw Set Point:	-0.579	X_WP:	0.000	Y_WP:	0.000	Y_WP:	0.500	X:	0.099	Y:	0.096	Z:	0.399	yaw:	33.174	yaw rate:	3.293	Roll:	4.418	Pitch:	0.845	Yaw:	47.877	Thrust:	23.354
Time:	3.640	Roll Set Point:	-0.234	Pitch Set Point:	-0.122	Yaw Set Point:	-0.577	X_WP:	0.000	Y_WP:	0.000	Y_WP:	0.500	X:	0.099	Y:	0.096	Z:	0.399	yaw:	33.087	yaw rate:	-6.868	Roll:	4.445	Pitch:	0.989	Yaw:	46.292	Thrust:	23.911
Time:	3.656	Roll Set Point:	-0.234	Pitch Set Point:	-0.122	Yaw Set Point:	-0.577	X_WP:	0.000	Y_WP:	0.000	Y_WP:	0.500	X:	0.099	Y:	0.096	Z:	0.399	yaw:	33.087	yaw rate:	-6.868	Roll:	4.431	Pitch:	0.851	Yaw:	47.760	Thrust:	23.810
Time:	3.671	Roll Set Point:	-0.234	Pitch Set Point:	-0.122	Yaw Set Point:	-0.579	X_WP:	0.000	Y_WP:	0.000	Y_WP:	0.500	X:	0.099	Y:	0.096	Z:	0.399	yaw:	33.183	yaw rate:	9.625	Roll:	4.432	Pitch:	0.694	Yaw:	49.507	Thrust:	23.851
Time:	3.687	Roll Set Point:	-0.234	Pitch Set Point:	-0.122	Yaw Set Point:	-0.578	X_WP:	0.000	Y_WP:	0.000	Y_WP:	0.500	X:	0.099	Y:	0.096	Z:	0.399	yaw:	33.095	yaw rate:	-8.727	Roll:	4.456	Pitch:	0.954	Yaw:	46.300	Thrust:	24.302
Time:	3.703	Roll Set Point:	-0.234	Pitch Set Point:	-0.122	Yaw Set Point:	-0.579	X_WP:	0.000	Y_WP:	0.000	Y_WP:	0.500	X:	0.099	Y:	0.096	Z:	0.399	yaw:	33.181	yaw rate:	8.647	Roll:	4.422	Pitch:	0.777	Yaw:	49.341	Thrust:	24.207
Time:	3.718	Roll Set Point:	-0.234	Pitch Set Point:	-0.122	Yaw Set Point:	-0.579	X_WP:	0.000	Y_WP:	0.000	Y_WP:	0.500	X:	0.099	Y:	0.096	Z:	0.399	yaw:	33.173	yaw rate:	-0.859	Roll:	4.462	Pitch:	0.848	Yaw:	47.738	Thrust:	24.628
Time:	3.734	Roll Set Point:	-0.234	Pitch Set Point:	-0.122	Yaw Set Point:	-0.578	X_WP:	0.000	Y_WP:	0.000	Y_WP:	0.500	X:	0.099	Y:	0.096	Z:	0.399	yaw:	33.112	yaw rate:	-6.090	Roll:	4.457	Pitch:	0.973	Yaw:	46.773	Thrust:	24.893
Time:	3.750	Roll Set Point:	-0.234	Pitch Set Point:	-0.122	Yaw Set Point:	-0.578	X_WP:	0.000	Y_WP:	0.000	Y_WP:	0.500	X:	0.099	Y:	0.096	Z:	0.399	yaw:	33.112	yaw rate:	-6.090	Roll:	4.463	Pitch:	0.857	Yaw:	47.795	Thrust:	24.949
Time:	3.765	Roll Set Point:	-0.234	Pitch Set Point:	-0.122	Yaw Set Point:	-0.578	X_WP:	0.000	Y_WP:	0.000	Y_WP:	0.500	X:	0.099	Y:	0.096	Z:	0.399	yaw:	33.099	yaw rate:	1.360	Roll:	4.467	Pitch:	0.865	Yaw:	47.562	Thrust:	25.286
Time:	3.781	Roll Set Point:	-0.234	Pitch Set Point:	-0.122	Yaw Set Point:	-0.578	X_WP:	0.000	Y_WP:	0.000	Y_WP:	0.500	X:	0.099	Y:	0.096	Z:	0.399	yaw:	33.099	yaw rate:	1.360	Roll:	4.473	Pitch:	0.859	Yaw:	47.777	Thrust:	25.326
Time:	3.796	Roll Set Point:	-0.234	Pitch Set Point:	-0.122	Yaw Set Point:	-0.579	X_WP:	0.000	Y_WP:	0.000	Y_WP:	0.500	X:	0.099	Y:	0.096	Z:	0.399	yaw:	33.178	yaw rate:	8.012	Roll:	4.487	Pitch:	0.726	Yaw:	49.217	Thrust:	25.179
Time:	3.812	Roll Set Point:	-0.234	Pitch Set Point:	-0.122	Yaw Set Point:	-0.579	X_WP:	0.000	Y_WP:	0.000	Y_WP:	0.500	X:	0.099	Y:	0.096	Z:	0.399	yaw:	33.178	yaw rate:	8.012	Roll:	4.484	Pitch:	0.858	Yaw:	47.888	Thrust:	25.709
Time:	3.828	Roll Set Point:	-0.234	Pitch Set Point:	-0.122	Yaw Set Point:	-0.578	X_WP:	0.000	Y_WP:	0.000	Y_WP:	0.500	X:	0.099	Y:	0.096	Z:	0.399	yaw:	33.131	yaw rate:	-4.866	Roll:	4.450	Pitch:	0.941	Yaw:	47.036	Thrust:	25.820
Time:	3.843	Roll Set Point:	-0.234	Pitch Set Point:	-0.122	Yaw Set Point:	-0.578	X_WP:	0.000	Y_WP:	0.000	Y_WP:	0.500	X:	0.099	Y:	0.096	Z:	0.399	yaw:	33.101	yaw rate:	-3.063	Roll:	4.532	Pitch:	0.866	Yaw:	47.267	Thrust:	26.327
Time:	3.859	Roll Set Point:	-0.234	Pitch Set Point:	-0.122	Yaw Set Point:	-0.579	X_WP:	0.000	Y_WP:	0.000	Y_WP:	0.500	X:	0.099	Y:	0.096	Z:	0.399	yaw:	33.152	yaw rate:	5.154	Roll:	4.489	Pitch:	0.797	Yaw:	48.715	Thrust:	25.949
Time:	3.875	Roll Set Point:	-0.234	Pitch Set Point:	-0.122	Yaw Set Point:	-0.579	X_WP:	0.000	Y_WP:	0.000	Y_WP:	0.500	X:	0.099	Y:	0.096	Z:	0.399	yaw:	33.152	yaw rate:	5.154	Roll:	4.506	Pitch:	0.863	Yaw:	47.855	Thrust:	26.499
Time:	3.890	Roll Set Point:	-0.234	Pitch Set Point:	-0.122	Yaw Set Point:	-0.578	X_WP:	0.000	Y_WP:	0.000	Y_WP:	0.500	X:	0.099	Y:	0.096	Z:	0.399	yaw:	33.092	yaw rate:	-5.990	Roll:	4.498	Pitch:	1.037	Yaw:	46.760	Thrust:	26.996
Time:	3.906	Roll Set Point:	-0.234	Pitch Set Point:	-0.122	Yaw Set Point:	-0.578	X_WP:	0.000	Y_WP:	0.000	Y_WP:	0.500	X:	0.099	Y:	0.096	Z:	0.399	yaw:	33.092	yaw rate:	-5.990	Roll:	4.511	Pitch:	0.869	Yaw:	47.772	Thrust:	26.899
Time:	3.921	Roll Set Point:	-0.234	Pitch Set Point:	-0.122	Yaw Set Point:	-0.579	X_WP:	0.000	Y_WP:	0.000	Y_WP:	0.500	X:	0.099	Y:	0.096	Z:	0.399	yaw:	33.184	yaw rate:	9.125	Roll:	4.526	Pitch:	0.666	Yaw:	49.424	Thrust:	26.775
Time:	3.937	Roll Set Point:	-0.234	Pitch Set Point:	-0.122	Yaw Set Point:	-0.577	X_WP:	0.000	Y_WP:	0.000	Y_WP:	0.500	X:	0.099	Y:	0.096	Z:	0.399	yaw:	33.064	yaw rate:	-11.947	Roll:	4.496	Pitch:	1.096	Yaw:	45.734	Thrust:	27.350
Time:	3.953	Roll Set Point:	-0.234	Pitch Set Point:	-0.122	Yaw Set Point:	-0.579	X_WP:	0.000	Y_WP:	0.000	Y_WP:	0.500	X:	0.099	Y:	0.096	Z:	0.399	yaw:	33.160	yaw rate:	9.622	Roll:	4.513	Pitch:	0.641	Yaw:	49.475	Thrust:	27.232
Time:	3.968	Roll Set Point:	-0.234	Pitch Set Point:	-0.122	Yaw Set Point:	-0.579	X_WP:	0.000	Y_WP:	0.000	Y_WP:	0.500	X:	0.099	Y:	0.096	Z:	0.399	yaw:	33.160	yaw rate:	9.622	Roll:	4.510	Pitch:	0.868	Yaw:	47.864	Thrust:	27.618
Time:	3.984	Roll Set Point:	-0.234	Pitch Set Point:	-0.122	Yaw Set Point:	-0.579	X_WP:	0.000	Y_WP:	0.000	Y_WP:	0.500	X:	0.099	Y:	0.096	Z:	0.399	yaw:	33.155	yaw rate:	-1.037	Roll:	4.508	Pitch:	0.929	Yaw:	47.759	Thrust:	27.861
Time:	4.000	Roll Set Point:	-0.234	Pitch Set Point:	-0.122	Yaw Set Point:	-0.579	X_WP:	0.000	Y_WP:	0.000	Y_WP:	0.500	X:	0.099	Y:	0.096	Z:	0.399	yaw:	33.163	yaw rate:	0.805	Roll:	4.525	Pitch:	0.846	Yaw:	48.001	Thrust:	27.920
Time:	4.015	Roll Set Point:	-0.234	Pitch Set Point:	-0.122	Yaw Set Point:	-0.579	X_WP:	0.000	Y_WP:	0.000	Y_WP:	0.500	X:	0.099	Y:	0.096	Z:	0.399	yaw:	33.163	yaw rate:	0.805	Roll:	4.511	Pitch:	0.872	Yaw:	47.869	Thrust:	28.213
Time:	4.031	Roll Set Point:	-0.234	Pitch Set Point:	-0.122	Yaw Set Point:	-0.579	X_WP:	0.000	Y_WP:	0.000	Y_WP:	0.500	X:	0.099	Y:	0.096	Z:	0.399	yaw:	33.146	yaw rate:	-1.705	Roll:	4.465	Pitch:	0.907	Yaw:	47.554	Thrust:	28.340
Time:	4.046	Roll Set Point:	-0.234	Pitch Set Point:	-0.122	Yaw Set Point:	-0.577	X_WP:	0.000	Y_WP:	0.000	Y_WP:	0.500	X:	0.099	Y:	0.096	Z:	0.399	yaw:	33.056	yaw rate:	-8.980	Roll:	4.534	Pitch:	1.002	Yaw:	46.219	Thrust:	28.782
Time:	4.062	Roll Set Point:	-0.234	Pitch Set Point:	-0.122	Yaw Set Point:	-0.579	X_WP:	0.000	Y_WP:	0.000	Y_WP:	0.500	X:	0.099	Y:	0.096	Z:	0.399	yaw:	33.177	yaw rate:	12.153	Roll:	4.524	Pitch:	0.711	Yaw:	49.924	Thrust:	28.621
Time:	4.078	Roll Set Point:	-0.234	Pitch Set Point:	-0.122	Yaw Set Point:	-0.579	X_WP:	0.000	Y_WP:	0.000	Y_WP:	0.500	X:	0.099	Y:	0.096	Z:	0.399	yaw:	33.177	yaw rate:	12.153	Roll:	4.511	Pitch:	0.876	Yaw:	47.890	Thrust:	28.973
Time:	4.093	Roll Set Point:	-0.234	Pitch Set Point:	-0.122	Yaw Set Point:	-0.578	X_WP:	0.000	Y_WP:	0.000	Y_WP:	0.500	X:	0.099	Y:	0.096	Z:	0.399	yaw:	33.144	yaw rate:	-3.330	Roll:	4.491	Pitch:	0.886	Yaw:	47.283	Thrust:	29.049
Time:	4.109	Roll Set Point:	-0.234	Pitch Set Point:	-0.122	Yaw Set Point:	-0.579	X_WP:	0.000	Y_WP:	0.000	Y_WP:	0.500	X:	0.099	Y:	0.096	Z:	0.399	yaw:	33.160	yaw rate:	1.624	Roll:	4.506	Pitch:	0.909	Yaw:	48.136	Thrust:	29.461
Time:	4.125	Roll Set Point:	-0.234	Pitch Set Point:	-0.122	Yaw Set Point:	-0.579	X_WP:	0.000	Y_WP:	0.000	Y_WP:	0.500	X:	0.099	Y:	0.096	Z:	0.399	yaw:	33.160	yaw rate:	1.624	Roll:	4.509	Pitch:	0.880	Yaw:	47.863	Thrust:	29.507
Time:	4.140	Roll Set Point:	-0.234	Pitch Set Point:	-0.122	Yaw Set Point:	-0.579	X_WP:	0.000	Y_WP:	0.000	Y_WP:	0.500	X:	0.099	Y:	0.096	Z:	0.399	yaw:	33.170	yaw rate:	0.925	Roll:	4.524	Pitch:	0.787	Yaw:	48.029	Thrust:	29.370
Time:	4.156	Roll Set Point:	-0.234	Pitch Set Point:	-0.122	Yaw Set Point:	-0.579	X_WP:	0.000	Y_WP:	0.000	Y_WP:	0.500	X:	0.099	Y:	0.096	Z:	0.399	yaw:	33.170	yaw rate:	0.925	Roll:	4.511	Pitch:	0.879	Yaw:	47.880	Thrust:	29.934
Time:	4.171	Roll Set Point:	-0.234	Pitch Set Point:	-0.122	Yaw Set Point:	-0.579	X_WP:	0.000	Y_WP:	0.000	Y_WP:	0.500	X:	0.099	Y:	0.096	Z:	0.399	yaw:	33.173	yaw rate:	-0.750	Roll:	4.488	Pitch:	0.914	Yaw:	47.936	Thrust:	30.216
Time:	4.187	Roll Set Point:	-0.234	Pitch Set Point:	-0.122	Yaw Set Point:	-0.579	X_WP:	0.000	Y_WP:	0.000	Y_WP:	0.500	X:	0.099	Y:	0.096	Z:	0.399	yaw:	33.173	yaw rate:	-0.750	Roll:	4.509	Pitch:	0.882	Yaw:	47.881	Thrust:	30.267
Time:	4.203	Roll Set Point:	-0.234	Pitch Set Point:	-0.122	Yaw Set Point:	-0.579	X_WP:	0.000	Y_WP:	0.000	Y_WP:	0.500	X:	0.099	Y:	0.096	Z:	0.399	yaw:	33.156	yaw rate:	6.029	Roll:	4.521	Pitch:	0.927	Yaw:	47.582	Thrust:	30.367
Time:	4.218	Roll Set Point:	-0.234	Pitch Set Point:	-0.122	Yaw Set Point:	-0.579	X_WP:	0.000	Y_WP:	0.000	Y_WP:	0.500	X:	0.099	Y:	0.096	Z:	0.399	yaw:	33.156	yaw rate:	6.029	Roll:	4.509	Pitch:	0.885	Yaw:	47.858	Thrust:	30.646
Time:	4.234	Roll Set Point:	-0.234	Pitch Set Point:	-0.121	Yaw Set Point:	-0.579	X_WP:	0.000	Y_WP:	0.000	Y_WP:	0.500	X:	0.099	Y:	0.096	Z:	0.399	yaw:	33.185	yaw rate:	4.459	Roll:	4.502	Pitch:	0.789	Yaw:	48.374	Thrust:	30.879
Time:	4.250	Roll Set Point:	-0.234	Pitch Set Point:	-0.122	Yaw Set Point:	-0.579	X_WP:	0.000	Y_WP:	0.000	Y_WP:	0.500	X:	0.099	Y:	0.096	Z:	0.399	yaw:	33.181	yaw rate:	-0.375	Roll:	4.536	Pitch:	0.919	Yaw:	47.829	Thrust:	31.077
Time:	4.265	Roll Set Point:	-0.234	Pitch Set Point:	-0.122	Yaw Set Point:	-0.579	X_WP:	0.000	Y_WP:	0.000	Y_WP:	0.500	X:	0.099	Y:	0.096	Z:	0.399	yaw:	33.181	yaw rate:	-0.375	Roll:	4.509	Pitch:	0.886	Yaw:	47.889	Thrust:	31.167
Time:	4.281	Roll Set Point:	-0.234	Pitch Set Point:	-0.122	Yaw Set Point:	-0.579	X_WP:	0.000	Y_WP:	0.000	Y_WP:	0.500	X:	0.099	Y:	0.096	Z:	0.399	yaw:	33.153	yaw rate:	-2.788	Roll:	4.494	Pitch:	0.977	Yaw:	47.386	Thrust:	31.327
Time:	4.296	Roll Set Point:	-0.234	Pitch Set Point:	-0.122	Yaw Set Point:	-0.578	X_WP:	0.000	Y_WP:	0.000	Y_WP:	0.500	X:	0.099	Y:	0.096	Z:	0.399	yaw:	33.118	yaw rate:	-3.516	Roll:	4.523	Pitch:	0.927	Yaw:	47.219	Thrust:	31.864
Time:	4.312	Roll Set Point:	-0.234	Pitch Set Point:	-0.122	Yaw Set Point:	-0.577	X_WP:	0.000	Y_WP:	0.000	Y_WP:	0.500	X:	0.099	Y:	0.096	Z:	0.399	yaw:	33.081	yaw rate:	-12.057	Roll:	4.485	Pitch:	0.969	Yaw:	47.127	Thrust:	31.719
Time:	4.328	Roll Set Point:	-0.234	Pitch Set Point:	-0.122	Yaw Set Point:	-0.579	X_WP:	0.000	Y_WP:	0.000	Y_WP:	0.500	X:	0.099	Y:	0.096	Z:	0.399	yaw:	33.173	yaw rate:	9.201	Roll:	4.533	Pitch:	0.723	Yaw:	49.422	Thrust:	31.705
Time:	4.343	Roll Set Point:	-0.234	Pitch Set Point:	-0.122	Yaw Set Point:	-0.579	X_WP:	0.000	Y_WP:	0.000	Y_WP:	0.500	X:	0.099	Y:	0.096	Z:	0.399	yaw:	33.155	yaw rate:	-1.776	Roll:	4.481	Pitch:	0.904	Yaw:	47.559	Thrust:	32.208
Time:	4.359	Roll Set Point:	-0.234	Pitch Set Point:	-0.122	Yaw Set Point:	-0.579	X_WP:	0.000	Y_WP:	0.000	Y_WP:	0.500	X:	0.099	Y:	0.096	Z:	0.399	yaw:	33.155	yaw rate:	-1.776	Roll:	4.509	Pitch:	0.894	Yaw:	47.856	Thrust:	32.350
Time:	4.375	Roll Set Point:	-0.234	Pitch Set Point:	-0.122	Yaw Set Point:	-0.578	X_WP:	0.000	Y_WP:	0.000	Y_WP:	0.500	X:	0.099	Y:	0.096	Z:	0.399	yaw:	33.140	yaw rate:	-4.884	Roll:	4.498	Pitch:	0.930	Yaw:	47.583	Thrust:	32.556
Time:	4.390	Roll Set Point:	-0.234	Pitch Set Point:	-0.122	Yaw Set Point:	-0.578	X_WP:	0.000	Y_WP:	0.000	Y_WP:	0.500	X:	0.099	Y:	0.096	Z:	0.399	yaw:	33.098	yaw rate:	-4.185	Roll:	4.559	Pitch:	0.988	Yaw:	47.075	Thrust:	33.068
Time:	4.406	Roll Set Point:	-0.234	Pitch Set Point:	-0.122	Yaw Set Point:	-0.578	X_WP:	0.000	Y_WP:	0.000	Y_WP:	0.500	X:	0.099	Y:	0.096	Z:	0.399	yaw:	33.109	yaw rate:	1.096	Roll:	4.480	Pitch:	0.911	Yaw:	47.975	Thrust:	32.830
Time:	4.421	Roll Set Point:	-0.234	Pitch Set Point:	-0.121	Yaw Set Point:	-0.579	X_WP:	0.000	Y_WP:	0.000	Y_WP:	0.500	X:	0.099	Y:	0.096	Z:	0.399	yaw:	33.197	yaw rate:	8.719	Roll:	4.530	Pitch:	0.671	Yaw:	49.374	Thrust:	32.977
Time:	4.437	Roll Set Point:	-0.234	Pitch Set Point:	-0.121	Yaw Set Point:	-0.580	X_WP:	0.000	Y_WP:	0.000	Y_WP:	0.500	X:	0.099	Y:	0.096	Z:	0.399	yaw:	33.204	yaw rate:	0.758	Roll:	4.510	Pitch:	0.882	Yaw:	48.051	Thrust:	33.298
Time:	4.453	Roll Set Point:	-0.234	Pitch Set Point:	-0.121	Yaw Set Point:	-0.580	X_WP:	0.000	Y_WP:	0.000	Y_WP:	0.500	X:	0.099	Y:	0.096	Z:	0.399	yaw:	33.204	yaw rate:	0.758	Roll:	4.510	Pitch:	0.897	Yaw:	47.924	Thrust:	33.493
Time:	4.468	Roll Set Point:	-0.234	Pitch Set Point:	-0.122	Yaw Set Point:	-0.578	X_WP:	0.000	Y_WP:	0.000	Y_WP:	0.500	X:	0.099	Y:	0.096	Z:	0.399	yaw:	33.125	yaw rate:	-7.944	Roll:	4.522	Pitch:	1.059	Yaw:	46.483	Thrust:	33.795
Time:	4.484	Roll Set Point:	-0.234	Pitch Set Point:	-0.122	Yaw Set Point:	-0.579	X_WP:	0.000	Y_WP:	0.000	Y_WP:	0.500	X:	0.099	Y:	0.096	Z:	0.399	yaw:	33.153	yaw rate:	-0.707	Roll:	4.464	Pitch:	0.870	Yaw:	48.333	Thrust:	33.688
Time:	4.500	Roll Set Point:	-0.234	Pitch Set Point:	-0.122	Yaw Set Point:	-0.579	X_WP:	0.000	Y_WP:	0.000	Y_WP:	0.500	X:	0.099	Y:	0.096	Z:	0.399	yaw:	33.185	yaw rate:	3.171	Roll:	4.538	Pitch:	0.823	Yaw:	48.429	Thrust:	34.155
Time:	4.515	Roll Set Point:	-0.234	Pitch Set Point:	-0.122	Yaw Set Point:	-0.579	X_WP:	0.000	Y_WP:	0.000	Y_WP:	0.500	X:	0.099	Y:	0.096	Z:	0.399	yaw:	33.164	yaw rate:	-2.136	Roll:	4.504	Pitch:	0.961	Yaw:	47.509	Thrust:	34.154
Time:	4.531	Roll Set Point:	-0.234	Pitch Set Point:	-0.122	Yaw Set Point:	-0.579	X_WP:	0.000	Y_WP:	0.000	Y_WP:	0.500	X:	0.099	Y:	0.096	Z:	0.399	yaw:	33.153	yaw rate:	-1.059	Roll:	4.502	Pitch:	0.960	Yaw:	47.676	Thrust:	34.471
Time:	4.546	Roll Set Point:	-0.234	Pitch Set Point:	-0.122	Yaw Set Point:	-0.578	X_WP:	0.000	Y_WP:	0.000	Y_WP:	0.500	X:	0.099	Y:	0.096	Z:	0.399	yaw:	33.140	yaw rate:	-1.281	Roll:	4.488	Pitch:	0.894	Yaw:	47.620	Thrust:	34.513
Time:	4.562	Roll Set Point:	-0.234	Pitch Set Point:	-0.122	Yaw Set Point:	-0.579	X_WP:	0.000	Y_WP:	0.000	Y_WP:	0.500	X:	0.099	Y:	0.096	Z:	0.399	yaw:	33.163	yaw rate:	2.290	Roll:	4.534	Pitch:	0.842	Yaw:	48.253	Thrust:	34.945
Time:	4.578	Roll Set Point:	-0.234	Pitch Set Point:	-0.122	Yaw Set Point:	-0.579	X_WP:	0.000	Y_WP:	0.000	Y_WP:	0.500	X:	0.099	Y:	0.096	Z:	0.399	yaw:	33.162	yaw rate:	-0.160	Roll:	4.530	Pitch:	0.963	Yaw:	47.880	Thrust:	35.905
Time:	4.594	Roll Set Point:	-0.234	Pitch Set Point:	-0.122	Yaw Set Point:	-0.579	X_WP:	0.000	Y_WP:	0.000	Y_WP:	0.500	X:	0.099	Y:	0.096	Z:	0.399	yaw:	33.162	yaw rate:	-0.160	Roll:	4.510	Pitch:	0.910	Yaw:	47.865	Thrust:	35.206
Time:	4.609	Roll Set Point:	-0.234	Pitch Set Point:	-0.122	Yaw Set Point:	-0.579	X_WP:	0.000	Y_WP:	0.000	Y_WP:	0.500	X:	0.099	Y:	0.096	Z:	0.399	yaw:	33.169	yaw rate:	-3.733	Roll:	4.496	Pitch:	0.871	Yaw:	48.010	Thrust:	35.346
Time:	4.625	Roll Set Point:	-0.234	Pitch Set Point:	-0.122	Yaw Set Point:	-0.578	X_WP:	0.000	Y_WP:	0.000	Y_WP:	0.500	X:	0.099	Y:	0.096	Z:	0.399	yaw:	33.145	yaw rate:	-2.491	Roll:	4.507	Pitch:	0.932	Yaw:	47.424	Thrust:	35.488
Time:	4.641	Roll Set Point:	-0.234	Pitch Set Point:	-0.122	Yaw Set Point:	-0.578	X_WP:	0.000	Y_WP:	0.000	Y_WP:	0.500	X:	0.099	Y:	0.096	Z:	0.399	yaw:	33.145	yaw rate:	-2.491	Roll:	4.510	Pitch:	0.913	Yaw:	47.844	Thrust:	35.828
Time:	4.656	Roll Set Point:	-0.234	Pitch Set Point:	-0.122	Yaw Set Point:	-0.580	X_WP:	0.000	Y_WP:	0.000	Y_WP:	0.500	X:	0.099	Y:	0.096	Z:	0.399	yaw:	33.203	yaw rate:	5.867	Roll:	4.544	Pitch:	0.869	Yaw:	48.906	Thrust:	36.268
Time:	4.672	Roll Set Point:	-0.234	Pitch Set Point:	-0.122	Yaw Set Point:	-0.578	X_WP:	0.000	Y_WP:	0.000	Y_WP:	0.500	X:	0.099	Y:	0.096	Z:	0.399	yaw:	33.101	yaw rate:	-6.497	Roll:	4.480	Pitch:	1.064	Yaw:	46.065	Thrust:	36.121
Time:	4.688	Roll Set Point:	-0.234	Pitch Set Point:	-0.122	Yaw Set Point:	-0.579	X_WP:	0.000	Y_WP:	0.000	Y_WP:	0.500	X:	0.099	Y:	0.096	Z:	0.399	yaw:	33.161	yaw rate:	5.971	Roll:	4.510	Pitch:	0.804	Yaw:	48.863	Thrust:	36.023
Time:	4.703	Roll Set Point:	-0.234	Pitch Set Point:	-0.122	Yaw Set Point:	-0.577	X_WP:	0.000	Y_WP:	0.000	Y_WP:	0.500	X:	0.099	Y:	0.096	Z:	0.399	yaw:	33.075	yaw rate:	-8.584	Roll:	4.518	Pitch:	1.056	Yaw:	46.311	Thrust:	36.837
Time:	4.719	Roll Set Point:	-0.234	Pitch Set Point:	-0.122	Yaw Set Point:	-0.577	X_WP:	0.000	Y_WP:	0.000	Y_WP:	0.500	X:	0.099	Y:	0.096	Z:	0.399	yaw:	33.075	yaw rate:	-8.584	Roll:	4.510	Pitch:	0.921	Yaw:	47.744	Thrust:	36.727
Time:	4.734	Roll Set Point:	-0.234	Pitch Set Point:	-0.122	Yaw Set Point:	-0.579	X_WP:	0.000	Y_WP:	0.000	Y_WP:	0.500	X:	0.099	Y:	0.096	Z:	0.399	yaw:	33.181	yaw rate:	10.671	Roll:	4.512	Pitch:	0.781	Yaw:	49.681	Thrust:	36.801
Time:	4.750	Roll Set Point:	-0.234	Pitch Set Point:	-0.122	Yaw Set Point:	-0.579	X_WP:	0.000	Y_WP:	0.000	Y_WP:	0.500	X:	0.099	Y:	0.096	Z:	0.399	yaw:	33.152	yaw rate:	-0.855	Roll:	4.488	Pitch:	0.989	Yaw:	47.366	Thrust:	37.048
Time:	4.766	Roll Set Point:	-0.234	Pitch Set Point:	-0.122	Yaw Set Point:	-0.579	X_WP:	0.000	Y_WP:	0.000	Y_WP:	0.500	X:	0.099	Y:	0.096	Z:	0.399	yaw:	33.174	yaw rate:	2.184	Roll:	4.537	Pitch:	0.852	Yaw:	48.251	Thrust:	37.288
Time:	4.781	Roll Set Point:	-0.234	Pitch Set Point:	-0.121	Yaw Set Point:	-0.579	X_WP:	0.000	Y_WP:	0.000	Y_WP:	0.500	X:	0.099	Y:	0.096	Z:	0.399	yaw:	33.196	yaw rate:	2.220	Roll:	4.501	Pitch:	0.830	Yaw:	48.286	Thrust:	37.552
Time:	4.797	Roll Set Point:	-0.234	Pitch Set Point:	-0.121	Yaw Set Point:	-0.579	X_WP:	0.000	Y_WP:	0.000	Y_WP:	0.500	X:	0.099	Y:	0.096	Z:	0.399	yaw:	33.196	yaw rate:	2.220	Roll:	4.510	Pitch:	0.920	Yaw:	47.914	Thrust:	37.686
Time:	4.813	Roll Set Point:	-0.234	Pitch Set Point:	-0.122	Yaw Set Point:	-0.578	X_WP:	0.000	Y_WP:	0.000	Y_WP:	0.500	X:	0.099	Y:	0.096	Z:	0.399	yaw:	33.108	yaw rate:	-8.896	Roll:	4.512	Pitch:	1.091	Yaw:	46.292	Thrust:	37.913
Time:	4.828	Roll Set Point:	-0.234	Pitch Set Point:	-0.122	Yaw Set Point:	-0.578	X_WP:	0.000	Y_WP:	0.000	Y_WP:	0.500	X:	0.099	Y:	0.096	Z:	0.399	yaw:	33.108	yaw rate:	-8.896	Roll:	4.510	Pitch:	0.926	Yaw:	47.790	Thrust:	38.056
Time:	4.844	Roll Set Point:	-0.234	Pitch Set Point:	-0.122	Yaw Set Point:	-0.578	X_WP:	0.000	Y_WP:	0.000	Y_WP:	0.500	X:	0.099	Y:	0.096	Z:	0.399	yaw:	33.115	yaw rate:	-6.207	Roll:	4.515	Pitch:	0.895	Yaw:	47.920	Thrust:	38.362
Time:	4.859	Roll Set Point:	-0.234	Pitch Set Point:	-0.122	Yaw Set Point:	-0.579	X_WP:	0.000	Y_WP:	0.000	Y_WP:	0.500	X:	0.099	Y:	0.096	Z:	0.399	yaw:	33.167	yaw rate:	5.259	Roll:	4.481	Pitch:	0.858	Yaw:	48.754	Thrust:	38.197
Time:	4.875	Roll Set Point:	-0.234	Pitch Set Point:	-0.122	Yaw Set Point:	-0.579	X_WP:	0.000	Y_WP:	0.000	Y_WP:	0.500	X:	0.099	Y:	0.096	Z:	0.399	yaw:	33.167	yaw rate:	5.259	Roll:	4.508	Pitch:	0.926	Yaw:	47.870	Thrust:	38.557
Time:	4.891	Roll Set Point:	-0.234	Pitch Set Point:	-0.122	Yaw Set Point:	-0.579	X_WP:	0.000	Y_WP:	0.000	Y_WP:	0.500	X:	0.099	Y:	0.096	Z:	0.399	yaw:	33.176	yaw rate:	-0.230	Roll:	4.534	Pitch:	0.945	Yaw:	48.030	Thrust:	38.810
Time:	4.906	Roll Set Point:	-0.234	Pitch Set Point:	-0.122	Yaw Set Point:	-0.578	X_WP:	0.000	Y_WP:	0.000	Y_WP:	0.500	X:	0.099	Y:	0.096	Z:	0.399	yaw:	33.136	yaw rate:	-3.974	Roll:	4.485	Pitch:	0.981	Yaw:	47.168	Thrust:	38.946
Time:	4.922	Roll Set Point:	-0.234	Pitch Set Point:	-0.122	Yaw Set Point:	-0.579	X_WP:	0.000	Y_WP:	0.000	Y_WP:	0.500	X:	0.099	Y:	0.096	Z:	0.399	yaw:	33.172	yaw rate:	3.602	Roll:	4.512	Pitch:	0.888	Yaw:	48.481	Thrust:	39.240
Time:	4.938	Roll Set Point:	-0.234	Pitch Set Point:	-0.122	Yaw Set Point:	-0.579	X_WP:	0.000	Y_WP:	0.000	Y_WP:	0.500	X:	0.099	Y:	0.096	Z:	0.399	yaw:	33.157	yaw rate:	-1.538	Roll:	4.503	Pitch:	0.905	Yaw:	47.601	Thrust:	39.265
Time:	4.953	Roll Set Point:	-0.234	Pitch Set Point:	-0.122	Yaw Set Point:	-0.579	X_WP:	0.000	Y_WP:	0.000	Y_WP:	0.500	X:	0.099	Y:	0.096	Z:	0.399	yaw:	33.165	yaw rate:	0.853	Roll:	4.530	Pitch:	0.999	Yaw:	48.013	Thrust:	39.823
Time:	4.969	Roll Set Point:	-0.234	Pitch Set Point:	-0.122	Yaw Set Point:	-0.579	X_WP:	0.000	Y_WP:	0.000	Y_WP:	0.500	X:	0.099	Y:	0.096	Z:	0.399	yaw:	33.165	yaw rate:	0.853	Roll:	4.509	Pitch:	0.934	Yaw:	47.870	Thrust:	39.765
Time:	4.984	Roll Set Point:	-0.234	Pitch Set Point:	-0.122	Yaw Set Point:	-0.578	X_WP:	0.000	Y_WP:	0.000	Y_WP:	0.500	X:	0.099	Y:	0.096	Z:	0.399	yaw:	33.116	yaw rate:	-4.942	Roll:	4.535	Pitch:	0.966	Yaw:	46.973	Thrust:	40.210
Time:	5.000	Roll Set Point:	-0.234	Pitch Set Point:	-0.122	Yaw Set Point:	-0.578	X_WP:	0.000	Y_WP:	0.000	Y_WP:	0.500	X:	0.099	Y:	0.096	Z:	0.399	yaw:	33.092	yaw rate:	-7.690	Roll:	4.473	Pitch:	1.019	Yaw:	47.362	Thrust:	39.974
Time:	5.016	Roll Set Point:	-0.234	Pitch Set Point:	-0.121	Yaw Set Point:	-0.579	X_WP:	0.000	Y_WP:	0.000	Y_WP:	0.500	X:	0.099	Y:	0.096	Z:	0.399	yaw:	33.197	yaw rate:	10.586	Roll:	4.317	Pitch:	0.600	Yaw:	49.689	Thrust:	39.657
Time:	5.031	Roll Set Point:	-0.234	Pitch Set Point:	-0.122	Yaw Set Point:	-0.579	X_WP:	0.000	Y_WP:	0.000	Y_WP:	0.500	X:	0.099	Y:	0.096	Z:	0.399	yaw:	33.167	yaw rate:	-3.036	Roll:	4.694	Pitch:	1.099	Yaw:	47.364	Thrust:	40.985
Time:	5.047	Roll Set Point:	-0.234	Pitch Set Point:	-0.121	Yaw Set Point:	-0.579	X_WP:	0.000	Y_WP:	0.000	Y_WP:	0.500	X:	0.099	Y:	0.096	Z:	0.399	yaw:	33.189	yaw rate:	2.228	Roll:	4.518	Pitch:	0.864	Yaw:	48.277	Thrust:	40.785
Time:	5.063	Roll Set Point:	-0.234	Pitch Set Point:	-0.122	Yaw Set Point:	-0.577	X_WP:	0.000	Y_WP:	0.000	Y_WP:	0.500	X:	0.099	Y:	0.096	Z:	0.399	yaw:	33.058	yaw rate:	-13.129	Roll:	4.494	Pitch:	1.201	Yaw:	45.520	Thrust:	40.819
Time:	5.078	Roll Set Point:	-0.234	Pitch Set Point:	-0.122	Yaw Set Point:	-0.577	X_WP:	0.000	Y_WP:	0.000	Y_WP:	0.500	X:	0.099	Y:	0.096	Z:	0.399	yaw:	33.058	yaw rate:	-13.129	Roll:	4.509	Pitch:	0.945	Yaw:	47.720	Thrust:	41.092
Time:	5.094	Roll Set Point:	-0.234	Pitch Set Point:	-0.122	Yaw Set Point:	-0.578	X_WP:	0.000	Y_WP:	0.000	Y_WP:	0.500	X:	0.099	Y:	0.096	Z:	0.399	yaw:	33.134	yaw rate:	7.598	Roll:	4.563	Pitch:	0.833	Yaw:	49.099	Thrust:	41.424
Time:	5.109	Roll Set Point:	-0.234	Pitch Set Point:	-0.122	Yaw Set Point:	-0.577	X_WP:	0.000	Y_WP:	0.000	Y_WP:	0.500	X:	0.099	Y:	0.096	Z:	0.399	yaw:	33.080	yaw rate:	-5.373	Roll:	4.475	Pitch:	0.980	Yaw:	46.852	Thrust:	41.433
Time:	5.125	Roll Set Point:	-0.234	Pitch Set Point:	-0.122	Yaw Set Point:	-0.578	X_WP:	0.000	Y_WP:	0.000	Y_WP:	0.500	X:	0.099	Y:	0.096	Z:	0.399	yaw:	33.135	yaw rate:	-5.979	Roll:	4.486	Pitch:	0.889	Yaw:	48.750	Thrust:	41.371
Time:	5.141	Roll Set Point:	-0.234	Pitch Set Point:	-0.122	Yaw Set Point:	-0.577	X_WP:	0.000	Y_WP:	0.000	Y_WP:	0.500	X:	0.099	Y:	0.096	Z:	0.399	yaw:	33.079	yaw rate:	-5.592	Roll:	4.520	Pitch:	1.049	Yaw:	46.814	Thrust:	42.129
Time:	5.156	Roll Set Point:	-0.234	Pitch Set Point:	-0.122	Yaw Set Point:	-0.579	X_WP:	0.000	Y_WP:	0.000	Y_WP:	0.500	X:	0.099	Y:	0.096	Z:	0.399	yaw:	33.153	yaw rate:	7.381	Roll:	4.503	Pitch:	0.845	Yaw:	49.090	Thrust:	41.851
Time:	5.172	Roll Set Point:	-0.234	Pitch Set Point:	-0.122	Yaw Set Point:	-0.577	X_WP:	0.000	Y_WP:	0.000	Y_WP:	0.500	X:	0.099	Y:	0.096	Z:	0.399	yaw:	33.039	yaw rate:	-11.435	Roll:	4.505	Pitch:	1.081	Yaw:	45.778	Thrust:	42.383
Time:	5.188	Roll Set Point:	-0.234	Pitch Set Point:	-0.122	Yaw Set Point:	-0.577	X_WP:	0.000	Y_WP:	0.000	Y_WP:	0.500	X:	0.099	Y:	0.096	Z:	0.399	yaw:	33.039	yaw rate:	-11.435	Roll:	4.509	Pitch:	0.952	Yaw:	47.694	Thrust:	42.440
Time:	5.203	Roll Set Point:	-0.234	Pitch Set Point:	-0.122	Yaw Set Point:	-0.579	X_WP:	0.000	Y_WP:	0.000	Y_WP:	0.500	X:	0.099	Y:	0.096	Z:	0.399	yaw:	33.164	yaw rate:	-2.772	Roll:	4.530	Pitch:	0.814	Yaw:	49.963	Thrust:	42.553
Time:	5.219	Roll Set Point:	-0.234	Pitch Set Point:	-0.122	Yaw Set Point:	-0.577	X_WP:	0.000	Y_WP:	0.000	Y_WP:	0.500	X:	0.099	Y:	0.096	Z:	0.399	yaw:	33.057	yaw rate:	-10.703	Roll:	4.494	Pitch:	1.085	Yaw:	45.924	Thrust:	42.822
Time:	5.234	Roll Set Point:	-0.234	Pitch Set Point:	-0.122	Yaw Set Point:	-0.578	X_WP:	0.000	Y_WP:	0.000	Y_WP:	0.500	X:	0.099	Y:	0.096	Z:	0.399	yaw:	33.100	yaw rate:	4.294	Roll:	4.537	Pitch:	0.837	Yaw:	48.498	Thrust:	43.156
Time:	5.250	Roll Set Point:	-0.234	Pitch Set Point:	-0.122	Yaw Set Point:	-0.578	X_WP:	0.000	Y_WP:	0.000	Y_WP:	0.500	X:	0.099	Y:	0.096	Z:	0.399	yaw:	33.100	yaw rate:	4.294	Roll:	4.510	Pitch:	0.953	Yaw:	47.779	Thrust:	43.188
Time:	5.266	Roll Set Point:	-0.234	Pitch Set Point:	-0.122	Yaw Set Point:	-0.578	X_WP:	0.000	Y_WP:	0.000	Y_WP:	0.500	X:	0.099	Y:	0.096	Z:	0.399	yaw:	33.105	yaw rate:	-5.386	Roll:	4.511	Pitch:	1.000	Yaw:	47.876	Thrust:	43.300
Time:	5.281	Roll Set Point:	-0.234	Pitch Set Point:	-0.122	Yaw Set Point:	-0.578	X_WP:	0.000	Y_WP:	0.000	Y_WP:	0.500	X:	0.099	Y:	0.096	Z:	0.399	yaw:	33.105	yaw rate:	-5.386	Roll:	4.510	Pitch:	0.956	Yaw:	47.786	Thrust:	43.559
Time:	5.297	Roll Set Point:	-0.234	Pitch Set Point:	-0.122	Yaw Set Point:	-0.578	X_WP:	0.000	Y_WP:	0.000	Y_WP:	0.500	X:	0.099	Y:	0.096	Z:	0.399	yaw:	33.090	yaw rate:	-1.547	Roll:	4.503	Pitch:	0.967	Yaw:	47.505	Thrust:	43.837
Time:	5.313	Roll Set Point:	-0.234	Pitch Set Point:	-0.122	Yaw Set Point:	-0.578	X_WP:	0.000	Y_WP:	0.000	Y_WP:	0.500	X:	0.099	Y:	0.096	Z:	0.399	yaw:	33.090	yaw rate:	-1.547	Roll:	4.511	Pitch:	0.959	Yaw:	47.768	Thrust:	44.025
Time:	5.328	Roll Set Point:	-0.234	Pitch Set Point:	-0.122	Yaw Set Point:	-0.579	X_WP:	0.000	Y_WP:	0.000	Y_WP:	0.500	X:	0.099	Y:	0.096	Z:	0.399	yaw:	33.183	yaw rate:	0.834	Roll:	4.495	Pitch:	0.824	Yaw:	49.452	Thrust:	43.908
Time:	5.344	Roll Set Point:	-0.234	Pitch Set Point:	-0.122	Yaw Set Point:	-0.577	X_WP:	0.000	Y_WP:	0.000	Y_WP:	0.500	X:	0.099	Y:	0.096	Z:	0.399	yaw:	33.080	yaw rate:	-10.288	Roll:	4.498	Pitch:	1.153	Yaw:	46.033	Thrust:	44.453
Time:	5.360	Roll Set Point:	-0.234	Pitch Set Point:	-0.122	Yaw Set Point:	-0.577	X_WP:	0.000	Y_WP:	0.000	Y_WP:	0.500	X:	0.099	Y:	0.096	Z:	0.399	yaw:	33.080	yaw rate:	-10.288	Roll:	4.508	Pitch:	0.963	Yaw:	47.748	Thrust:	44.436
Time:	5.375	Roll Set Point:	-0.234	Pitch Set Point:	-0.122	Yaw Set Point:	-0.578	X_WP:	0.000	Y_WP:	0.000	Y_WP:	0.500	X:	0.099	Y:	0.096	Z:	0.399	yaw:	33.096	yaw rate:	1.581	Roll:	4.543	Pitch:	0.903	Yaw:	48.040	Thrust:	44.883
Time:	5.391	Roll Set Point:	-0.234	Pitch Set Point:	-0.122	Yaw Set Point:	-0.579	X_WP:	0.000	Y_WP:	0.000	Y_WP:	0.500	X:	0.099	Y:	0.096	Z:	0.399	yaw:	33.170	yaw rate:	7.444	Roll:	4.487	Pitch:	0.857	Yaw:	49.123	Thrust:	44.630
Time:	5.406	Roll Set Point:	-0.234	Pitch Set Point:	-0.122	Yaw Set Point:	-0.579	X_WP:	0.000	Y_WP:	0.000	Y_WP:	0.500	X:	0.099	Y:	0.096	Z:	0.399	yaw:	33.194	yaw rate:	2.367	Roll:	4.525	Pitch:	0.906	Yaw:	48.309	Thrust:	45.162
Time:	5.422	Roll Set Point:	-0.234	Pitch Set Point:	-0.122	Yaw Set Point:	-0.579	X_WP:	0.000	Y_WP:	0.000	Y_WP:	0.500	X:	0.099	Y:	0.096	Z:	0.399	yaw:	33.152	yaw rate:	-4.200	Roll:	4.490	Pitch:	1.057	Yaw:	47.143	Thrust:	45.143
Time:	5.438	Roll Set Point:	-0.234	Pitch Set Point:	-0.122	Yaw Set Point:	-0.579	X_WP:	0.000	Y_WP:	0.000	Y_WP:	0.500	X:	0.099	Y:	0.096	Z:	0.399	yaw:	33.152	yaw rate:	-4.200	Roll:	4.509	Pitch:	0.965	Yaw:	47.851	Thrust:	45.461
Time:	5.453	Roll Set Point:	-0.234	Pitch Set Point:	-0.122	Yaw Set Point:	-0.579	X_WP:	0.000	Y_WP:	0.000	Y_WP:	0.500	X:	0.099	Y:	0.096	Z:	0.399	yaw:	33.182	yaw rate:	13.025	Roll:	4.528	Pitch:	0.918	Yaw:	48.400	Thrust:	45.698
Time:	5.469	Roll Set Point:	-0.234	Pitch Set Point:	-0.122	Yaw Set Point:	-0.579	X_WP:	0.000	Y_WP:	0.000	Y_WP:	0.500	X:	0.099	Y:	0.096	Z:	0.399	yaw:	33.171	yaw rate:	-1.127	Roll:	4.509	Pitch:	0.966	Yaw:	47.692	Thrust:	45.827
Time:	5.485	Roll Set Point:	-0.234	Pitch Set Point:	-0.122	Yaw Set Point:	-0.579	X_WP:	0.000	Y_WP:	0.000	Y_WP:	0.500	X:	0.099	Y:	0.096	Z:	0.399	yaw:	33.192	yaw rate:	2.154	Roll:	4.499	Pitch:	0.944	Yaw:	48.269	Thrust:	46.146
Time:	5.500	Roll Set Point:	-0.234	Pitch Set Point:	-0.122	Yaw Set Point:	-0.579	X_WP:	0.000	Y_WP:	0.000	Y_WP:	0.500	X:	0.099	Y:	0.096	Z:	0.399	yaw:	33.159	yaw rate:	-3.317	Roll:	4.504	Pitch:	1.026	Yaw:	47.301	Thrust:	46.105
Time:	5.516	Roll Set Point:	-0.234	Pitch Set Point:	-0.122	Yaw Set Point:	-0.579	X_WP:	0.000	Y_WP:	0.000	Y_WP:	0.500	X:	0.099	Y:	0.096	Z:	0.399	yaw:	33.172	yaw rate:	1.313	Roll:	4.515	Pitch:	0.923	Yaw:	48.100	Thrust:	46.275
Time:	5.531	Roll Set Point:	-0.234	Pitch Set Point:	-0.122	Yaw Set Point:	-0.579	X_WP:	0.000	Y_WP:	0.000	Y_WP:	0.500	X:	0.099	Y:	0.096	Z:	0.399	yaw:	33.186	yaw rate:	1.408	Roll:	4.504	Pitch:	0.953	Yaw:	48.135	Thrust:	46.741
Time:	5.547	Roll Set Point:	-0.234	Pitch Set Point:	-0.122	Yaw Set Point:	-0.579	X_WP:	0.000	Y_WP:	0.000	Y_WP:	0.500	X:	0.099	Y:	0.096	Z:	0.399	yaw:	33.186	yaw rate:	1.408	Roll:	4.511	Pitch:	0.970	Yaw:	47.903	Thrust:	46.895
Time:	5.563	Roll Set Point:	-0.234	Pitch Set Point:	-0.122	Yaw Set Point:	-0.579	X_WP:	0.000	Y_WP:	0.000	Y_WP:	0.500	X:	0.099	Y:	0.096	Z:	0.399	yaw:	33.185	yaw rate:	1.432	Roll:	4.517	Pitch:	1.002	Yaw:	47.872	Thrust:	46.982
Time:	5.577	Roll Set Point:	-0.234	Pitch Set Point:	-0.122	Yaw Set Point:	-0.579	X_WP:	0.000	Y_WP:	0.000	Y_WP:	0.500	X:	0.099	Y:	0.096	Z:	0.399	yaw:	33.158	yaw rate:	-2.678	Roll:	4.463	Pitch:	0.988	Yaw:	47.276	Thrust:	44.330
Time:	5.595	Roll Set Point:	-0.234	Pitch Set Point:	-0.122	Yaw Set Point:	-0.579	X_WP:	0.000	Y_WP:	0.000	Y_WP:	0.500	X:	0.099	Y:	0.096	Z:	0.399	yaw:	33.158	yaw rate:	-2.678	Roll:	4.587	Pitch:	1.004	Yaw:	48.068	Thrust:	52.924
Time:	5.611	Roll Set Point:	-0.234	Pitch Set Point:	-0.122	Yaw Set Point:	-0.579	X_WP:	0.000	Y_WP:	0.000	Y_WP:	0.500	X:	0.099	Y:	0.096	Z:	0.399	yaw:	33.172	yaw rate:	-0.583	Roll:	4.501	Pitch:	0.950	Yaw:	48.123	Thrust:	47.664
Time:	5.626	Roll Set Point:	-0.234	Pitch Set Point:	-0.122	Yaw Set Point:	-0.579	X_WP:	0.000	Y_WP:	0.000	Y_WP:	0.500	X:	0.099	Y:	0.096	Z:	0.399	yaw:	33.164	yaw rate:	-0.871	Roll:	4.518	Pitch:	1.017	Yaw:	47.714	Thrust:	47.618
Time:	5.642	Roll Set Point:	-0.234	Pitch Set Point:	-0.122	Yaw Set Point:	-0.579	X_WP:	0.000	Y_WP:	0.000	Y_WP:	0.500	X:	0.099	Y:	0.096	Z:	0.399	yaw:	33.164	yaw rate:	-0.871	Roll:	4.509	Pitch:	0.978	Yaw:	47.868	Thrust:	47.927
Time:	5.657	Roll Set Point:	-0.234	Pitch Set Point:	-0.122	Yaw Set Point:	-0.578	X_WP:	0.000	Y_WP:	0.000	Y_WP:	0.500	X:	0.099	Y:	0.096	Z:	0.399	yaw:	33.123	yaw rate:	-3.995	Roll:	4.456	Pitch:	0.989	Yaw:	47.124	Thrust:	47.810
Time:	5.673	Roll Set Point:	-0.234	Pitch Set Point:	-0.122	Yaw Set Point:	-0.579	X_WP:	0.000	Y_WP:	0.000	Y_WP:	0.500	X:	0.099	Y:	0.096	Z:	0.399	yaw:	33.172	yaw rate:	4.897	Roll:	4.555	Pitch:	0.902	Yaw:	48.699	Thrust:	48.470
Time:	5.689	Roll Set Point:	-0.234	Pitch Set Point:	-0.122	Yaw Set Point:	-0.577	X_WP:	0.000	Y_WP:	0.000	Y_WP:	0.500	X:	0.099	Y:	0.096	Z:	0.399	yaw:	33.067	yaw rate:	-10.441	Roll:	4.496	Pitch:	1.200	Yaw:	45.990	Thrust:	48.706
Time:	5.704	Roll Set Point:	-0.234	Pitch Set Point:	-0.122	Yaw Set Point:	-0.579	X_WP:	0.000	Y_WP:	0.000	Y_WP:	0.500	X:	0.099	Y:	0.096	Z:	0.399	yaw:	33.165	yaw rate:	9.744	Roll:	4.535	Pitch:	0.816	Yaw:	49.502	Thrust:	48.518
Time:	5.720	Roll Set Point:	-0.234	Pitch Set Point:	-0.122	Yaw Set Point:	-0.579	X_WP:	0.000	Y_WP:	0.000	Y_WP:	0.500	X:	0.099	Y:	0.096	Z:	0.399	yaw:	33.175	yaw rate:	0.990	Roll:	4.506	Pitch:	0.934	Yaw:	48.049	Thrust:	48.949
Time:	5.736	Roll Set Point:	-0.234	Pitch Set Point:	-0.122	Yaw Set Point:	-0.579	X_WP:	0.000	Y_WP:	0.000	Y_WP:	0.500	X:	0.099	Y:	0.096	Z:	0.399	yaw:	33.175	yaw rate:	0.990	Roll:	4.510	Pitch:	0.983	Yaw:	47.886	Thrust:	49.149
Time:	5.751	Roll Set Point:	-0.234	Pitch Set Point:	-0.122	Yaw Set Point:	-0.579	X_WP:	0.000	Y_WP:	0.000	Y_WP:	0.500	X:	0.099	Y:	0.096	Z:	0.399	yaw:	33.176	yaw rate:	0.971	Roll:	4.504	Pitch:	1.021	Yaw:	47.907	Thrust:	49.229
Time:	5.767	Roll Set Point:	-0.234	Pitch Set Point:	-0.122	Yaw Set Point:	-0.579	X_WP:	0.000	Y_WP:	0.000	Y_WP:	0.500	X:	0.099	Y:	0.096	Z:	0.399	yaw:	33.163	yaw rate:	-1.282	Roll:	4.511	Pitch:	1.027	Yaw:	47.652	Thrust:	49.381
Time:	5.782	Roll Set Point:	-0.234	Pitch Set Point:	-0.122	Yaw Set Point:	-0.579	X_WP:	0.000	Y_WP:	0.000	Y_WP:	0.500	X:	0.099	Y:	0.096	Z:	0.399	yaw:	33.163	yaw rate:	-1.282	Roll:	4.509	Pitch:	0.987	Yaw:	47.867	Thrust:	49.637
Time:	5.798	Roll Set Point:	-0.234	Pitch Set Point:	-0.122	Yaw Set Point:	-0.579	X_WP:	0.000	Y_WP:	0.000	Y_WP:	0.500	X:	0.099	Y:	0.096	Z:	0.399	yaw:	33.167	yaw rate:	-0.262	Roll:	4.499	Pitch:	0.939	Yaw:	47.940	Thrust:	49.899
Time:	5.814	Roll Set Point:	-0.234	Pitch Set Point:	-0.122	Yaw Set Point:	-0.579	X_WP:	0.000	Y_WP:	0.000	Y_WP:	0.500	X:	0.099	Y:	0.096	Z:	0.399	yaw:	33.175	yaw rate:	0.767	Roll:	4.506	Pitch:	0.968	Yaw:	48.011	Thrust:	49.988
Time:	5.829	Roll Set Point:	-0.234	Pitch Set Point:	-0.122	Yaw Set Point:	-0.579	X_WP:	0.000	Y_WP:	0.000	Y_WP:	0.500	X:	0.099	Y:	0.096	Z:	0.399	yaw:	33.162	yaw rate:	-1.323	Roll:	4.520	Pitch:	1.054	Yaw:	47.643	Thrust:	50.193
Time:	5.845	Roll Set Point:	-0.234	Pitch Set Point:	-0.122	Yaw Set Point:	-0.579	X_WP:	0.000	Y_WP:	0.000	Y_WP:	0.500	X:	0.099	Y:	0.096	Z:	0.399	yaw:	33.151	yaw rate:	-1.027	Roll:	4.478	Pitch:	0.949	Yaw:	47.679	Thrust:	50.225
Time:	5.861	Roll Set Point:	-0.234	Pitch Set Point:	-0.122	Yaw Set Point:	-0.579	X_WP:	0.000	Y_WP:	0.000	Y_WP:	0.500	X:	0.099	Y:	0.096	Z:	0.399	yaw:	33.151	yaw rate:	-1.027	Roll:	4.508	Pitch:	0.991	Yaw:	47.851	Thrust:	50.583
Time:	5.876	Roll Set Point:	-0.234	Pitch Set Point:	-0.122	Yaw Set Point:	-0.577	X_WP:	0.000	Y_WP:	0.000	Y_WP:	0.500	X:	0.099	Y:	0.096	Z:	0.399	yaw:	33.072	yaw rate:	-13.395	Roll:	4.520	Pitch:	1.141	Yaw:	46.409	Thrust:	51.013
Time:	5.892	Roll Set Point:	-0.234	Pitch Set Point:	-0.122	Yaw Set Point:	-0.579	X_WP:	0.000	Y_WP:	0.000	Y_WP:	0.500	X:	0.099	Y:	0.096	Z:	0.399	yaw:	33.175	yaw rate:	10.274	Roll:	4.543	Pitch:	0.867	Yaw:	49.604	Thrust:	51.045
Time:	5.907	Roll Set Point:	-0.234	Pitch Set Point:	-0.122	Yaw Set Point:	-0.579	X_WP:	0.000	Y_WP:	0.000	Y_WP:	0.500	X:	0.099	Y:	0.096	Z:	0.399	yaw:	33.173	yaw rate:	-0.194	Roll:	4.497	Pitch:	0.952	Yaw:	47.847	Thrust:	51.027
Time:	5.923	Roll Set Point:	-0.234	Pitch Set Point:	-0.122	Yaw Set Point:	-0.579	X_WP:	0.000	Y_WP:	0.000	Y_WP:	0.500	X:	0.099	Y:	0.096	Z:	0.399	yaw:	33.162	yaw rate:	-1.042	Roll:	4.502	Pitch:	1.031	Yaw:	47.691	Thrust:	51.323
Time:	5.939	Roll Set Point:	-0.234	Pitch Set Point:	-0.122	Yaw Set Point:	-0.579	X_WP:	0.000	Y_WP:	0.000	Y_WP:	0.500	X:	0.099	Y:	0.096	Z:	0.399	yaw:	33.179	yaw rate:	1.655	Roll:	4.505	Pitch:	0.981	Yaw:	48.166	Thrust:	51.603
Time:	5.954	Roll Set Point:	-0.234	Pitch Set Point:	-0.122	Yaw Set Point:	-0.579	X_WP:	0.000	Y_WP:	0.000	Y_WP:	0.500	X:	0.099	Y:	0.096	Z:	0.399	yaw:	33.195	yaw rate:	1.610	Roll:	4.534	Pitch:	0.958	Yaw:	48.182	Thrust:	51.732
Time:	5.970	Roll Set Point:	-0.234	Pitch Set Point:	-0.122	Yaw Set Point:	-0.579	X_WP:	0.000	Y_WP:	0.000	Y_WP:	0.500	X:	0.099	Y:	0.096	Z:	0.399	yaw:	33.195	yaw rate:	1.610	Roll:	4.510	Pitch:	0.997	Yaw:	47.912	Thrust:	51.917
Time:	5.986	Roll Set Point:	-0.234	Pitch Set Point:	-0.122	Yaw Set Point:	-0.579	X_WP:	0.000	Y_WP:	0.000	Y_WP:	0.500	X:	0.099	Y:	0.096	Z:	0.399	yaw:	33.171	yaw rate:	-0.582	Roll:	4.496	Pitch:	0.982	Yaw:	47.478	Thrust:	51.992
Time:	6.001	Roll Set Point:	-0.081	Pitch Set Point:	-0.036	Yaw Set Point:	-0.579	X_WP:	0.082	Y_WP:	0.156	Y_WP:	0.500	X:	0.099	Y:	0.096	Z:	0.399	yaw:	33.171	yaw rate:	-0.582	Roll:	-30.000	Pitch:	-30.000	Yaw:	47.880	Thrust:	52.349
Time:	6.017	Roll Set Point:	-0.081	Pitch Set Point:	-0.036	Yaw Set Point:	-0.578	X_WP:	0.082	Y_WP:	0.156	Y_WP:	0.500	X:	0.099	Y:	0.096	Z:	0.399	yaw:	33.119	yaw rate:	-5.221	Roll:	0.127	Pitch:	-1.508	Yaw:	46.928	Thrust:	52.293
Time:	6.032	Roll Set Point:	-0.081	Pitch Set Point:	-0.036	Yaw Set Point:	-0.578	X_WP:	0.082	Y_WP:	0.156	Y_WP:	0.500	X:	0.099	Y:	0.096	Z:	0.399	yaw:	33.141	yaw rate:	2.194	Roll:	0.036	Pitch:	-1.479	Yaw:	48.204	Thrust:	52.783
Time:	6.048	Roll Set Point:	-0.081	Pitch Set Point:	-0.036	Yaw Set Point:	-0.578	X_WP:	0.082	Y_WP:	0.156	Y_WP:	0.500	X:	0.099	Y:	0.096	Z:	0.399	yaw:	33.141	yaw rate:	2.194	Roll:	0.061	Pitch:	-1.490	Yaw:	47.836	Thrust:	52.867
Time:	6.064	Roll Set Point:	-0.081	Pitch Set Point:	-0.036	Yaw Set Point:	-0.579	X_WP:	0.082	Y_WP:	0.156	Y_WP:	0.500	X:	0.099	Y:	0.096	Z:	0.399	yaw:	33.178	yaw rate:	5.929	Roll:	0.037	Pitch:	-1.479	Yaw:	48.502	Thrust:	53.280
Time:	6.079	Roll Set Point:	-0.081	Pitch Set Point:	-0.036	Yaw Set Point:	-0.579	X_WP:	0.082	Y_WP:	0.156	Y_WP:	0.500	X:	0.099	Y:	0.096	Z:	0.399	yaw:	33.153	yaw rate:	-2.467	Roll:	0.075	Pitch:	-1.505	Yaw:	47.443	Thrust:	53.093
Time:	6.095	Roll Set Point:	-0.081	Pitch Set Point:	-0.036	Yaw Set Point:	-0.579	X_WP:	0.082	Y_WP:	0.156	Y_WP:	0.500	X:	0.099	Y:	0.096	Z:	0.399	yaw:	33.169	yaw rate:	1.615	Roll:	0.050	Pitch:	-1.493	Yaw:	48.146	Thrust:	53.506
Time:	6.111	Roll Set Point:	-0.081	Pitch Set Point:	-0.036	Yaw Set Point:	-0.578	X_WP:	0.082	Y_WP:	0.156	Y_WP:	0.500	X:	0.099	Y:	0.096	Z:	0.399	yaw:	33.131	yaw rate:	-3.847	Roll:	0.075	Pitch:	-1.502	Yaw:	47.177	Thrust:	53.468
Time:	6.126	Roll Set Point:	-0.081	Pitch Set Point:	-0.036	Yaw Set Point:	-0.577	X_WP:	0.082	Y_WP:	0.155	Y_WP:	0.500	X:	0.099	Y:	0.096	Z:	0.399	yaw:	33.060	yaw rate:	-7.035	Roll:	0.067	Pitch:	-1.498	Yaw:	46.539	Thrust:	53.958
Time:	6.142	Roll Set Point:	-0.081	Pitch Set Point:	-0.036	Yaw Set Point:	-0.577	X_WP:	0.082	Y_WP:	0.155	Y_WP:	0.500	X:	0.099	Y:	0.096	Z:	0.399	yaw:	33.060	yaw rate:	-7.035	Roll:	0.057	Pitch:	-1.503	Yaw:	47.726	Thrust:	54.103
Time:	6.158	Roll Set Point:	-0.081	Pitch Set Point:	-0.036	Yaw Set Point:	-0.578	X_WP:	0.082	Y_WP:	0.156	Y_WP:	0.500	X:	0.099	Y:	0.096	Z:	0.399	yaw:	33.116	yaw rate:	3.394	Roll:	0.043	Pitch:	-1.513	Yaw:	48.741	Thrust:	54.252
Time:	6.173	Roll Set Point:	-0.081	Pitch Set Point:	-0.036	Yaw Set Point:	-0.579	X_WP:	0.082	Y_WP:	0.156	Y_WP:	0.500	X:	0.099	Y:	0.096	Z:	0.399	yaw:	33.185	yaw rate:	6.916	Roll:	0.006	Pitch:	-1.489	Yaw:	49.058	Thrust:	54.358
Time:	6.189	Roll Set Point:	-0.081	Pitch Set Point:	-0.036	Yaw Set Point:	-0.579	X_WP:	0.082	Y_WP:	0.156	Y_WP:	0.500	X:	0.099	Y:	0.096	Z:	0.399	yaw:	33.180	yaw rate:	-0.538	Roll:	0.036	Pitch:	-1.508	Yaw:	47.797	Thrust:	54.399
Time:	6.204	Roll Set Point:	-0.081	Pitch Set Point:	-0.036	Yaw Set Point:	-0.579	X_WP:	0.082	Y_WP:	0.156	Y_WP:	0.500	X:	0.099	Y:	0.096	Z:	0.399	yaw:	33.158	yaw rate:	-2.194	Roll:	0.093	Pitch:	-1.525	Yaw:	47.493	Thrust:	54.766
Time:	6.220	Roll Set Point:	-0.081	Pitch Set Point:	-0.036	Yaw Set Point:	-0.577	X_WP:	0.082	Y_WP:	0.156	Y_WP:	0.500	X:	0.099	Y:	0.096	Z:	0.399	yaw:	33.041	yaw rate:	-11.685	Roll:	0.138	Pitch:	-1.535	Yaw:	45.740	Thrust:	55.004
Time:	6.236	Roll Set Point:	-0.081	Pitch Set Point:	-0.036	Yaw Set Point:	-0.577	X_WP:	0.082	Y_WP:	0.156	Y_WP:	0.500	X:	0.099	Y:	0.096	Z:	0.399	yaw:	33.041	yaw rate:	-11.685	Roll:	0.053	Pitch:	-1.518	Yaw:	47.697	Thrust:	55.143
Time:	6.251	Roll Set Point:	-0.081	Pitch Set Point:	-0.036	Yaw Set Point:	-0.579	X_WP:	0.082	Y_WP:	0.156	Y_WP:	0.500	X:	0.099	Y:	0.096	Z:	0.399	yaw:	33.175	yaw rate:	-0.160	Roll:	-0.060	Pitch:	-1.489	Yaw:	50.127	Thrust:	55.309
Time:	6.267	Roll Set Point:	-0.081	Pitch Set Point:	-0.036	Yaw Set Point:	-0.578	X_WP:	0.082	Y_WP:	0.156	Y_WP:	0.500	X:	0.099	Y:	0.096	Z:	0.399	yaw:	33.145	yaw rate:	-2.993	Roll:	0.067	Pitch:	-1.529	Yaw:	47.345	Thrust:	55.435
Time:	6.283	Roll Set Point:	-0.081	Pitch Set Point:	-0.036	Yaw Set Point:	-0.578	X_WP:	0.082	Y_WP:	0.156	Y_WP:	0.500	X:	0.099	Y:	0.096	Z:	0.399	yaw:	33.145	yaw rate:	-2.993	Roll:	0.048	Pitch:	-1.524	Yaw:	47.842	Thrust:	55.702
Time:	6.298	Roll Set Point:	-0.081	Pitch Set Point:	-0.036	Yaw Set Point:	-0.579	X_WP:	0.082	Y_WP:	0.156	Y_WP:	0.500	X:	0.099	Y:	0.096	Z:	0.399	yaw:	33.159	yaw rate:	6.583	Roll:	0.061	Pitch:	-1.529	Yaw:	48.085	Thrust:	55.941
Time:	6.314	Roll Set Point:	-0.081	Pitch Set Point:	-0.036	Yaw Set Point:	-0.579	X_WP:	0.082	Y_WP:	0.156	Y_WP:	0.500	X:	0.099	Y:	0.096	Z:	0.399	yaw:	33.155	yaw rate:	-0.388	Roll:	0.042	Pitch:	-1.530	Yaw:	47.791	Thrust:	56.137
