Time:	2.096	Roll Set Point:	-0.235	Pitch Set Point:	-0.114	Yaw Set Point:	-0.584	X_WP:	0.000	Y_WP:	0.000	Y_WP:	0.500	X:	0.100	Y:	0.093	Z:	0.402	yaw:	33.486	yaw rate:	-1.417	Roll:	3.904	Pitch:	0.635	Yaw:	46.755	Thrust:	5.373
Time:	2.112	Roll Set Point:	-0.235	Pitch Set Point:	-0.114	Yaw Set Point:	-0.585	X_WP:	0.000	Y_WP:	0.000	Y_WP:	0.500	X:	0.100	Y:	0.093	Z:	0.402	yaw:	33.495	yaw rate:	0.902	Roll:	3.900	Pitch:	0.598	Yaw:	47.102	Thrust:	5.574
Time:	2.127	Roll Set Point:	-0.235	Pitch Set Point:	-0.114	Yaw Set Point:	-0.585	X_WP:	0.000	Y_WP:	0.000	Y_WP:	0.500	X:	0.100	Y:	0.093	Z:	0.402	yaw:	33.519	yaw rate:	2.406	Roll:	3.899	Pitch:	0.569	Yaw:	47.570	Thrust:	5.835
Time:	2.143	Roll Set Point:	-0.235	Pitch Set Point:	-0.114	Yaw Set Point:	-0.585	X_WP:	0.000	Y_WP:	0.000	Y_WP:	0.500	X:	0.100	Y:	0.093	Z:	0.402	yaw:	33.492	yaw rate:	-2.707	Roll:	3.911	Pitch:	0.704	Yaw:	46.858	Thrust:	5.724
Time:	2.159	Roll Set Point:	-0.235	Pitch Set Point:	-0.114	Yaw Set Point:	-0.584	X_WP:	0.000	Y_WP:	0.000	Y_WP:	0.500	X:	0.100	Y:	0.093	Z:	0.402	yaw:	33.479	yaw rate:	-1.284	Roll:	3.964	Pitch:	0.699	Yaw:	47.263	Thrust:	6.215
Time:	2.174	Roll Set Point:	-0.235	Pitch Set Point:	-0.114	Yaw Set Point:	-0.585	X_WP:	0.000	Y_WP:	0.000	Y_WP:	0.500	X:	0.100	Y:	0.093	Z:	0.402	yaw:	33.504	yaw rate:	2.503	Roll:	3.904	Pitch:	0.559	Yaw:	48.113	Thrust:	6.329
Time:	2.190	Roll Set Point:	-0.235	Pitch Set Point:	-0.114	Yaw Set Point:	-0.585	X_WP:	0.000	Y_WP:	0.000	Y_WP:	0.500	X:	0.100	Y:	0.092	Z:	0.402	yaw:	33.507	yaw rate:	0.321	Roll:	3.916	Pitch:	0.575	Yaw:	47.937	Thrust:	6.362
Time:	2.206	Roll Set Point:	-0.235	Pitch Set Point:	-0.114	Yaw Set Point:	-0.585	X_WP:	0.000	Y_WP:	0.000	Y_WP:	0.500	X:	0.100	Y:	0.093	Z:	0.402	yaw:	33.491	yaw rate:	-1.623	Roll:	3.954	Pitch:	0.746	Yaw:	47.770	Thrust:	6.702
Time:	2.221	Roll Set Point:	-0.235	Pitch Set Point:	-0.114	Yaw Set Point:	-0.585	X_WP:	0.000	Y_WP:	0.000	Y_WP:	0.500	X:	0.100	Y:	0.093	Z:	0.402	yaw:	33.496	yaw rate:	0.526	Roll:	3.974	Pitch:	0.635	Yaw:	48.316	Thrust:	6.924
Time:	2.237	Roll Set Point:	-0.235	Pitch Set Point:	-0.114	Yaw Set Point:	-0.585	X_WP:	0.000	Y_WP:	0.000	Y_WP:	0.500	X:	0.100	Y:	0.092	Z:	0.402	yaw:	33.505	yaw rate:	0.829	Roll:	3.909	Pitch:	0.550	Yaw:	48.483	Thrust:	6.815
Time:	2.252	Roll Set Point:	-0.235	Pitch Set Point:	-0.114	Yaw Set Point:	-0.585	X_WP:	0.000	Y_WP:	0.000	Y_WP:	0.500	X:	0.100	Y:	0.092	Z:	0.402	yaw:	33.505	yaw rate:	0.829	Roll:	3.956	Pitch:	0.641	Yaw:	48.344	Thrust:	7.202
Time:	2.268	Roll Set Point:	-0.235	Pitch Set Point:	-0.114	Yaw Set Point:	-0.584	X_WP:	0.000	Y_WP:	0.000	Y_WP:	0.500	X:	0.100	Y:	0.093	Z:	0.402	yaw:	33.486	yaw rate:	-1.858	Roll:	3.964	Pitch:	0.740	Yaw:	48.007	Thrust:	7.579
Time:	2.284	Roll Set Point:	-0.235	Pitch Set Point:	-0.114	Yaw Set Point:	-0.585	X_WP:	0.000	Y_WP:	0.000	Y_WP:	0.500	X:	0.100	Y:	0.093	Z:	0.402	yaw:	33.509	yaw rate:	2.529	Roll:	4.004	Pitch:	0.600	Yaw:	48.732	Thrust:	7.471
Time:	2.299	Roll Set Point:	-0.235	Pitch Set Point:	-0.114	Yaw Set Point:	-0.585	X_WP:	0.000	Y_WP:	0.000	Y_WP:	0.500	X:	0.100	Y:	0.093	Z:	0.402	yaw:	33.509	yaw rate:	2.529	Roll:	3.973	Pitch:	0.645	Yaw:	48.353	Thrust:	7.758
Time:	2.315	Roll Set Point:	-0.235	Pitch Set Point:	-0.114	Yaw Set Point:	-0.585	X_WP:	0.000	Y_WP:	0.000	Y_WP:	0.500	X:	0.100	Y:	0.093	Z:	0.402	yaw:	33.503	yaw rate:	1.202	Roll:	3.934	Pitch:	0.627	Yaw:	48.237	Thrust:	7.956
Time:	2.331	Roll Set Point:	-0.235	Pitch Set Point:	-0.114	Yaw Set Point:	-0.585	X_WP:	0.000	Y_WP:	0.000	Y_WP:	0.500	X:	0.100	Y:	0.093	Z:	0.402	yaw:	33.503	yaw rate:	1.202	Roll:	3.982	Pitch:	0.646	Yaw:	48.341	Thrust:	8.121
Time:	2.346	Roll Set Point:	-0.235	Pitch Set Point:	-0.114	Yaw Set Point:	-0.585	X_WP:	0.000	Y_WP:	0.000	Y_WP:	0.500	X:	0.100	Y:	0.092	Z:	0.402	yaw:	33.494	yaw rate:	-0.836	Roll:	3.971	Pitch:	0.656	Yaw:	48.190	Thrust:	8.208
Time:	2.362	Roll Set Point:	-0.235	Pitch Set Point:	-0.114	Yaw Set Point:	-0.584	X_WP:	0.000	Y_WP:	0.000	Y_WP:	0.500	X:	0.100	Y:	0.093	Z:	0.402	yaw:	33.480	yaw rate:	-0.711	Roll:	4.029	Pitch:	0.714	Yaw:	48.070	Thrust:	8.615
Time:	2.378	Roll Set Point:	-0.235	Pitch Set Point:	-0.114	Yaw Set Point:	-0.585	X_WP:	0.000	Y_WP:	0.000	Y_WP:	0.500	X:	0.100	Y:	0.092	Z:	0.402	yaw:	33.523	yaw rate:	4.311	Roll:	3.991	Pitch:	0.503	Yaw:	49.094	Thrust:	8.654
Time:	2.393	Roll Set Point:	-0.235	Pitch Set Point:	-0.114	Yaw Set Point:	-0.585	X_WP:	0.000	Y_WP:	0.000	Y_WP:	0.500	X:	0.100	Y:	0.093	Z:	0.402	yaw:	33.494	yaw rate:	-2.968	Roll:	4.008	Pitch:	0.766	Yaw:	47.827	Thrust:	8.834
Time:	2.409	Roll Set Point:	-0.235	Pitch Set Point:	-0.114	Yaw Set Point:	-0.585	X_WP:	0.000	Y_WP:	0.000	Y_WP:	0.500	X:	0.100	Y:	0.093	Z:	0.402	yaw:	33.501	yaw rate:	0.721	Roll:	4.022	Pitch:	0.659	Yaw:	48.459	Thrust:	9.054
Time:	2.424	Roll Set Point:	-0.235	Pitch Set Point:	-0.114	Yaw Set Point:	-0.585	X_WP:	0.000	Y_WP:	0.000	Y_WP:	0.500	X:	0.100	Y:	0.093	Z:	0.402	yaw:	33.514	yaw rate:	1.310	Roll:	3.992	Pitch:	0.575	Yaw:	48.576	Thrust:	9.252
Time:	2.440	Roll Set Point:	-0.235	Pitch Set Point:	-0.114	Yaw Set Point:	-0.585	X_WP:	0.000	Y_WP:	0.000	Y_WP:	0.500	X:	0.100	Y:	0.093	Z:	0.402	yaw:	33.493	yaw rate:	-2.128	Roll:	4.045	Pitch:	0.734	Yaw:	47.971	Thrust:	9.506
Time:	2.456	Roll Set Point:	-0.235	Pitch Set Point:	-0.114	Yaw Set Point:	-0.584	X_WP:	0.000	Y_WP:	0.000	Y_WP:	0.500	X:	0.100	Y:	0.093	Z:	0.402	yaw:	33.486	yaw rate:	-0.666	Roll:	4.001	Pitch:	0.647	Yaw:	48.206	Thrust:	9.390
Time:	2.471	Roll Set Point:	-0.235	Pitch Set Point:	-0.114	Yaw Set Point:	-0.585	X_WP:	0.000	Y_WP:	0.000	Y_WP:	0.500	X:	0.100	Y:	0.093	Z:	0.402	yaw:	33.492	yaw rate:	0.654	Roll:	4.062	Pitch:	0.682	Yaw:	48.440	Thrust:	9.837
Time:	2.487	Roll Set Point:	-0.235	Pitch Set Point:	-0.114	Yaw Set Point:	-0.585	X_WP:	0.000	Y_WP:	0.000	Y_WP:	0.500	X:	0.100	Y:	0.093	Z:	0.402	yaw:	33.492	yaw rate:	0.654	Roll:	4.036	Pitch:	0.657	Yaw:	48.327	Thrust:	9.953
Time:	2.502	Roll Set Point:	-0.235	Pitch Set Point:	-0.114	Yaw Set Point:	-0.584	X_WP:	0.000	Y_WP:	0.000	Y_WP:	0.500	X:	0.100	Y:	0.092	Z:	0.402	yaw:	33.480	yaw rate:	-3.763	Roll:	3.983	Pitch:	0.635	Yaw:	48.090	Thrust:	10.158
Time:	2.518	Roll Set Point:	-0.235	Pitch Set Point:	-0.114	Yaw Set Point:	-0.585	X_WP:	0.000	Y_WP:	0.000	Y_WP:	0.500	X:	0.100	Y:	0.093	Z:	0.402	yaw:	33.502	yaw rate:	2.211	Roll:	4.095	Pitch:	0.647	Yaw:	48.714	Thrust:	10.303
Time:	2.534	Roll Set Point:	-0.235	Pitch Set Point:	-0.114	Yaw Set Point:	-0.585	X_WP:	0.000	Y_WP:	0.000	Y_WP:	0.500	X:	0.100	Y:	0.093	Z:	0.402	yaw:	33.502	yaw rate:	2.211	Roll:	4.051	Pitch:	0.658	Yaw:	48.334	Thrust:	10.484
Time:	2.549	Roll Set Point:	-0.235	Pitch Set Point:	-0.114	Yaw Set Point:	-0.585	X_WP:	0.000	Y_WP:	0.000	Y_WP:	0.500	X:	0.100	Y:	0.093	Z:	0.402	yaw:	33.497	yaw rate:	-0.481	Roll:	4.066	Pitch:	0.690	Yaw:	48.256	Thrust:	10.765
Time:	2.565	Roll Set Point:	-0.235	Pitch Set Point:	-0.114	Yaw Set Point:	-0.585	X_WP:	0.000	Y_WP:	0.000	Y_WP:	0.500	X:	0.100	Y:	0.092	Z:	0.402	yaw:	33.512	yaw rate:	1.509	Roll:	4.003	Pitch:	0.524	Yaw:	48.604	Thrust:	10.789
Time:	2.581	Roll Set Point:	-0.235	Pitch Set Point:	-0.114	Yaw Set Point:	-0.585	X_WP:	0.000	Y_WP:	0.000	Y_WP:	0.500	X:	0.100	Y:	0.092	Z:	0.402	yaw:	33.512	yaw rate:	1.509	Roll:	4.066	Pitch:	0.658	Yaw:	48.354	Thrust:	11.052
Time:	2.596	Roll Set Point:	-0.235	Pitch Set Point:	-0.114	Yaw Set Point:	-0.584	X_WP:	0.000	Y_WP:	0.000	Y_WP:	0.500	X:	0.100	Y:	0.093	Z:	0.402	yaw:	33.476	yaw rate:	-1.564	Roll:	4.110	Pitch:	0.823	Yaw:	47.692	Thrust:	11.147
Time:	2.612	Roll Set Point:	-0.235	Pitch Set Point:	-0.114	Yaw Set Point:	-0.585	X_WP:	0.000	Y_WP:	0.000	Y_WP:	0.500	X:	0.100	Y:	0.093	Z:	0.402	yaw:	33.508	yaw rate:	3.205	Roll:	4.081	Pitch:	0.594	Yaw:	48.885	Thrust:	11.533
Time:	2.628	Roll Set Point:	-0.235	Pitch Set Point:	-0.114	Yaw Set Point:	-0.585	X_WP:	0.000	Y_WP:	0.000	Y_WP:	0.500	X:	0.100	Y:	0.092	Z:	0.402	yaw:	33.495	yaw rate:	-1.210	Roll:	4.040	Pitch:	0.619	Yaw:	48.132	Thrust:	11.590
Time:	2.643	Roll Set Point:	-0.235	Pitch Set Point:	-0.114	Yaw Set Point:	-0.585	X_WP:	0.000	Y_WP:	0.000	Y_WP:	0.500	X:	0.100	Y:	0.093	Z:	0.402	yaw:	33.497	yaw rate:	0.157	Roll:	4.127	Pitch:	0.720	Yaw:	48.357	Thrust:	11.793
Time:	2.659	Roll Set Point:	-0.235	Pitch Set Point:	-0.115	Yaw Set Point:	-0.584	X_WP:	0.000	Y_WP:	0.000	Y_WP:	0.500	X:	0.100	Y:	0.093	Z:	0.402	yaw:	33.488	yaw rate:	-0.885	Roll:	4.113	Pitch:	0.720	Yaw:	48.173	Thrust:	11.966
Time:	2.674	Roll Set Point:	-0.235	Pitch Set Point:	-0.114	Yaw Set Point:	-0.585	X_WP:	0.000	Y_WP:	0.000	Y_WP:	0.500	X:	0.100	Y:	0.093	Z:	0.402	yaw:	33.492	yaw rate:	0.388	Roll:	4.075	Pitch:	0.630	Yaw:	48.391	Thrust:	12.135
Time:	2.690	Roll Set Point:	-0.235	Pitch Set Point:	-0.114	Yaw Set Point:	-0.585	X_WP:	0.000	Y_WP:	0.000	Y_WP:	0.500	X:	0.100	Y:	0.092	Z:	0.402	yaw:	33.491	yaw rate:	-0.084	Roll:	4.068	Pitch:	0.616	Yaw:	48.311	Thrust:	12.302
Time:	2.706	Roll Set Point:	-0.235	Pitch Set Point:	-0.114	Yaw Set Point:	-0.585	X_WP:	0.000	Y_WP:	0.000	Y_WP:	0.500	X:	0.100	Y:	0.093	Z:	0.402	yaw:	33.497	yaw rate:	0.610	Roll:	4.131	Pitch:	0.679	Yaw:	48.436	Thrust:	12.650
Time:	2.721	Roll Set Point:	-0.235	Pitch Set Point:	-0.114	Yaw Set Point:	-0.585	X_WP:	0.000	Y_WP:	0.000	Y_WP:	0.500	X:	0.100	Y:	0.093	Z:	0.402	yaw:	33.498	yaw rate:	0.114	Roll:	4.131	Pitch:	0.672	Yaw:	48.354	Thrust:	12.618
Time:	2.737	Roll Set Point:	-0.235	Pitch Set Point:	-0.114	Yaw Set Point:	-0.584	X_WP:	0.000	Y_WP:	0.000	Y_WP:	0.500	X:	0.100	Y:	0.093	Z:	0.402	yaw:	33.478	yaw rate:	-2.080	Roll:	4.109	Pitch:	0.739	Yaw:	47.958	Thrust:	12.788
Time:	2.753	Roll Set Point:	-0.235	Pitch Set Point:	-0.114	Yaw Set Point:	-0.585	X_WP:	0.000	Y_WP:	0.000	Y_WP:	0.500	X:	0.100	Y:	0.093	Z:	0.402	yaw:	33.514	yaw rate:	3.637	Roll:	4.135	Pitch:	0.582	Yaw:	48.967	Thrust:	13.232
Time:	2.768	Roll Set Point:	-0.235	Pitch Set Point:	-0.114	Yaw Set Point:	-0.585	X_WP:	0.000	Y_WP:	0.000	Y_WP:	0.500	X:	0.100	Y:	0.093	Z:	0.402	yaw:	33.514	yaw rate:	3.637	Roll:	4.130	Pitch:	0.670	Yaw:	48.359	Thrust:	13.260
Time:	2.784	Roll Set Point:	-0.235	Pitch Set Point:	-0.114	Yaw Set Point:	-0.585	X_WP:	0.000	Y_WP:	0.000	Y_WP:	0.500	X:	0.100	Y:	0.093	Z:	0.402	yaw:	33.496	yaw rate:	-1.822	Roll:	4.120	Pitch:	0.690	Yaw:	48.023	Thrust:	13.322
Time:	2.799	Roll Set Point:	-0.235	Pitch Set Point:	-0.114	Yaw Set Point:	-0.584	X_WP:	0.000	Y_WP:	0.000	Y_WP:	0.500	X:	0.100	Y:	0.093	Z:	0.402	yaw:	33.489	yaw rate:	-1.196	Roll:	4.144	Pitch:	0.713	Yaw:	48.213	Thrust:	13.705
Time:	2.815	Roll Set Point:	-0.235	Pitch Set Point:	-0.114	Yaw Set Point:	-0.584	X_WP:	0.000	Y_WP:	0.000	Y_WP:	0.500	X:	0.100	Y:	0.093	Z:	0.402	yaw:	33.489	yaw rate:	-1.196	Roll:	4.146	Pitch:	0.674	Yaw:	48.326	Thrust:	13.818
Time:	2.831	Roll Set Point:	-0.235	Pitch Set Point:	-0.114	Yaw Set Point:	-0.585	X_WP:	0.000	Y_WP:	0.000	Y_WP:	0.500	X:	0.100	Y:	0.093	Z:	0.402	yaw:	33.522	yaw rate:	1.259	Roll:	4.161	Pitch:	0.561	Yaw:	48.922	Thrust:	13.824
Time:	2.846	Roll Set Point:	-0.235	Pitch Set Point:	-0.114	Yaw Set Point:	-0.585	X_WP:	0.000	Y_WP:	0.000	Y_WP:	0.500	X:	0.100	Y:	0.093	Z:	0.402	yaw:	33.492	yaw rate:	-3.070	Roll:	4.175	Pitch:	0.791	Yaw:	47.814	Thrust:	14.322
Time:	2.862	Roll Set Point:	-0.235	Pitch Set Point:	-0.114	Yaw Set Point:	-0.585	X_WP:	0.000	Y_WP:	0.000	Y_WP:	0.500	X:	0.100	Y:	0.093	Z:	0.402	yaw:	33.492	yaw rate:	0.068	Roll:	4.128	Pitch:	0.641	Yaw:	48.336	Thrust:	14.216
Time:	2.878	Roll Set Point:	-0.235	Pitch Set Point:	-0.114	Yaw Set Point:	-0.585	X_WP:	0.000	Y_WP:	0.000	Y_WP:	0.500	X:	0.100	Y:	0.092	Z:	0.402	yaw:	33.514	yaw rate:	2.155	Roll:	4.150	Pitch:	0.600	Yaw:	48.718	Thrust:	14.610
Time:	2.893	Roll Set Point:	-0.235	Pitch Set Point:	-0.114	Yaw Set Point:	-0.585	X_WP:	0.000	Y_WP:	0.000	Y_WP:	0.500	X:	0.100	Y:	0.093	Z:	0.402	yaw:	33.492	yaw rate:	-2.173	Roll:	4.193	Pitch:	0.756	Yaw:	47.959	Thrust:	14.610
Time:	2.909	Roll Set Point:	-0.235	Pitch Set Point:	-0.114	Yaw Set Point:	-0.584	X_WP:	0.000	Y_WP:	0.000	Y_WP:	0.500	X:	0.100	Y:	0.093	Z:	0.402	yaw:	33.488	yaw rate:	-0.416	Roll:	4.197	Pitch:	0.713	Yaw:	48.251	Thrust:	14.901
Time:	2.924	Roll Set Point:	-0.235	Pitch Set Point:	-0.114	Yaw Set Point:	-0.584	X_WP:	0.000	Y_WP:	0.000	Y_WP:	0.500	X:	0.100	Y:	0.093	Z:	0.402	yaw:	33.489	yaw rate:	0.112	Roll:	4.159	Pitch:	0.666	Yaw:	48.341	Thrust:	15.186
Time:	2.940	Roll Set Point:	-0.235	Pitch Set Point:	-0.114	Yaw Set Point:	-0.584	X_WP:	0.000	Y_WP:	0.000	Y_WP:	0.500	X:	0.100	Y:	0.093	Z:	0.402	yaw:	33.489	yaw rate:	0.112	Roll:	4.187	Pitch:	0.681	Yaw:	48.322	Thrust:	15.266
Time:	2.956	Roll Set Point:	-0.235	Pitch Set Point:	-0.114	Yaw Set Point:	-0.585	X_WP:	0.000	Y_WP:	0.000	Y_WP:	0.500	X:	0.100	Y:	0.093	Z:	0.402	yaw:	33.510	yaw rate:	0.791	Roll:	4.197	Pitch:	0.621	Yaw:	48.708	Thrust:	15.496
Time:	2.971	Roll Set Point:	-0.235	Pitch Set Point:	-0.114	Yaw Set Point:	-0.584	X_WP:	0.000	Y_WP:	0.000	Y_WP:	0.500	X:	0.100	Y:	0.093	Z:	0.402	yaw:	33.475	yaw rate:	-3.525	Roll:	4.212	Pitch:	0.797	Yaw:	47.712	Thrust:	15.567
Time:	2.987	Roll Set Point:	-0.235	Pitch Set Point:	-0.114	Yaw Set Point:	-0.584	X_WP:	0.000	Y_WP:	0.000	Y_WP:	0.500	X:	0.100	Y:	0.093	Z:	0.402	yaw:	33.484	yaw rate:	0.881	Roll:	4.200	Pitch:	0.641	Yaw:	48.463	Thrust:	15.762
Time:	3.003	Roll Set Point:	-0.235	Pitch Set Point:	-0.114	Yaw Set Point:	-0.584	X_WP:	0.000	Y_WP:	0.000	Y_WP:	0.500	X:	0.100	Y:	0.092	Z:	0.402	yaw:	33.473	yaw rate:	-1.141	Roll:	4.161	Pitch:	0.690	Yaw:	48.108	Thrust:	15.934
Time:	3.018	Roll Set Point:	-0.235	Pitch Set Point:	-0.114	Yaw Set Point:	-0.585	X_WP:	0.000	Y_WP:	0.000	Y_WP:	0.500	X:	0.100	Y:	0.093	Z:	0.402	yaw:	33.507	yaw rate:	3.425	Roll:	4.260	Pitch:	0.626	Yaw:	48.921	Thrust:	16.361
Time:	3.034	Roll Set Point:	-0.235	Pitch Set Point:	-0.114	Yaw Set Point:	-0.585	X_WP:	0.000	Y_WP:	0.000	Y_WP:	0.500	X:	0.100	Y:	0.093	Z:	0.402	yaw:	33.498	yaw rate:	-0.908	Roll:	4.215	Pitch:	0.704	Yaw:	48.182	Thrust:	16.233
Time:	3.049	Roll Set Point:	-0.235	Pitch Set Point:	-0.114	Yaw Set Point:	-0.584	X_WP:	0.000	Y_WP:	0.000	Y_WP:	0.500	X:	0.100	Y:	0.093	Z:	0.402	yaw:	33.488	yaw rate:	-0.922	Roll:	4.221	Pitch:	0.717	Yaw:	48.167	Thrust:	16.603
Time:	3.065	Roll Set Point:	-0.235	Pitch Set Point:	-0.114	Yaw Set Point:	-0.584	X_WP:	0.000	Y_WP:	0.000	Y_WP:	0.500	X:	0.100	Y:	0.093	Z:	0.402	yaw:	33.488	yaw rate:	-0.922	Roll:	4.230	Pitch:	0.688	Yaw:	48.321	Thrust:	16.730
Time:	3.081	Roll Set Point:	-0.235	Pitch Set Point:	-0.114	Yaw Set Point:	-0.585	X_WP:	0.000	Y_WP:	0.000	Y_WP:	0.500	X:	0.100	Y:	0.093	Z:	0.402	yaw:	33.499	yaw rate:	-0.078	Roll:	4.222	Pitch:	0.661	Yaw:	48.499	Thrust:	16.785
Time:	3.096	Roll Set Point:	-0.235	Pitch Set Point:	-0.114	Yaw Set Point:	-0.584	X_WP:	0.000	Y_WP:	0.000	Y_WP:	0.500	X:	0.100	Y:	0.093	Z:	0.402	yaw:	33.477	yaw rate:	-2.143	Roll:	4.257	Pitch:	0.751	Yaw:	47.947	Thrust:	17.189
Time:	3.112	Roll Set Point:	-0.235	Pitch Set Point:	-0.114	Yaw Set Point:	-0.585	X_WP:	0.000	Y_WP:	0.000	Y_WP:	0.500	X:	0.100	Y:	0.093	Z:	0.402	yaw:	33.497	yaw rate:	2.017	Roll:	4.250	Pitch:	0.636	Yaw:	48.672	Thrust:	17.351
Time:	3.127	Roll Set Point:	-0.235	Pitch Set Point:	-0.114	Yaw Set Point:	-0.585	X_WP:	0.000	Y_WP:	0.000	Y_WP:	0.500	X:	0.100	Y:	0.092	Z:	0.402	yaw:	33.489	yaw rate:	-0.805	Roll:	4.188	Pitch:	0.642	Yaw:	48.188	Thrust:	17.260
Time:	3.143	Roll Set Point:	-0.235	Pitch Set Point:	-0.114	Yaw Set Point:	-0.585	X_WP:	0.000	Y_WP:	0.000	Y_WP:	0.500	X:	0.100	Y:	0.093	Z:	0.402	yaw:	33.496	yaw rate:	0.697	Roll:	4.321	Pitch:	0.756	Yaw:	48.450	Thrust:	17.772
Time:	3.159	Roll Set Point:	-0.235	Pitch Set Point:	-0.114	Yaw Set Point:	-0.585	X_WP:	0.000	Y_WP:	0.000	Y_WP:	0.500	X:	0.100	Y:	0.093	Z:	0.402	yaw:	33.499	yaw rate:	0.230	Roll:	4.281	Pitch:	0.694	Yaw:	48.374	Thrust:	17.835
Time:	3.174	Roll Set Point:	-0.235	Pitch Set Point:	-0.114	Yaw Set Point:	-0.584	X_WP:	0.000	Y_WP:	0.000	Y_WP:	0.500	X:	0.100	Y:	0.092	Z:	0.402	yaw:	33.488	yaw rate:	-1.082	Roll:	4.199	Pitch:	0.660	Yaw:	48.139	Thrust:	17.914
Time:	3.190	Roll Set Point:	-0.235	Pitch Set Point:	-0.114	Yaw Set Point:	-0.585	X_WP:	0.000	Y_WP:	0.000	Y_WP:	0.500	X:	0.100	Y:	0.092	Z:	0.402	yaw:	33.504	yaw rate:	1.661	Roll:	4.278	Pitch:	0.665	Yaw:	48.622	Thrust:	18.381
Time:	3.206	Roll Set Point:	-0.235	Pitch Set Point:	-0.114	Yaw Set Point:	-0.585	X_WP:	0.000	Y_WP:	0.000	Y_WP:	0.500	X:	0.100	Y:	0.093	Z:	0.402	yaw:	33.491	yaw rate:	-1.340	Roll:	4.289	Pitch:	0.756	Yaw:	48.101	Thrust:	18.254
Time:	3.221	Roll Set Point:	-0.235	Pitch Set Point:	-0.114	Yaw Set Point:	-0.585	X_WP:	0.000	Y_WP:	0.000	Y_WP:	0.500	X:	0.100	Y:	0.093	Z:	0.402	yaw:	33.491	yaw rate:	-1.340	Roll:	4.282	Pitch:	0.696	Yaw:	48.325	Thrust:	18.563
Time:	3.237	Roll Set Point:	-0.235	Pitch Set Point:	-0.114	Yaw Set Point:	-0.585	X_WP:	0.000	Y_WP:	0.000	Y_WP:	0.500	X:	0.100	Y:	0.093	Z:	0.402	yaw:	33.491	yaw rate:	-0.019	Roll:	4.299	Pitch:	0.700	Yaw:	48.324	Thrust:	18.823
Time:	3.252	Roll Set Point:	-0.235	Pitch Set Point:	-0.114	Yaw Set Point:	-0.584	X_WP:	0.000	Y_WP:	0.000	Y_WP:	0.500	X:	0.100	Y:	0.092	Z:	0.402	yaw:	33.489	yaw rate:	-0.216	Roll:	4.264	Pitch:	0.670	Yaw:	48.287	Thrust:	18.859
Time:	3.268	Roll Set Point:	-0.235	Pitch Set Point:	-0.114	Yaw Set Point:	-0.584	X_WP:	0.000	Y_WP:	0.000	Y_WP:	0.500	X:	0.100	Y:	0.092	Z:	0.402	yaw:	33.487	yaw rate:	-0.182	Roll:	4.299	Pitch:	0.702	Yaw:	48.288	Thrust:	19.109
Time:	3.284	Roll Set Point:	-0.235	Pitch Set Point:	-0.114	Yaw Set Point:	-0.584	X_WP:	0.000	Y_WP:	0.000	Y_WP:	0.500	X:	0.100	Y:	0.093	Z:	0.402	yaw:	33.482	yaw rate:	-0.533	Roll:	4.348	Pitch:	0.755	Yaw:	48.225	Thrust:	19.380
Time:	3.299	Roll Set Point:	-0.235	Pitch Set Point:	-0.114	Yaw Set Point:	-0.585	X_WP:	0.000	Y_WP:	0.000	Y_WP:	0.500	X:	0.100	Y:	0.093	Z:	0.402	yaw:	33.517	yaw rate:	3.498	Roll:	4.291	Pitch:	0.586	Yaw:	48.945	Thrust:	19.345
Time:	3.315	Roll Set Point:	-0.235	Pitch Set Point:	-0.114	Yaw Set Point:	-0.585	X_WP:	0.000	Y_WP:	0.000	Y_WP:	0.500	X:	0.100	Y:	0.093	Z:	0.402	yaw:	33.517	yaw rate:	3.498	Roll:	4.314	Pitch:	0.700	Yaw:	48.364	Thrust:	19.688
Time:	3.331	Roll Set Point:	-0.235	Pitch Set Point:	-0.114	Yaw Set Point:	-0.584	X_WP:	0.000	Y_WP:	0.000	Y_WP:	0.500	X:	0.100	Y:	0.093	Z:	0.402	yaw:	33.472	yaw rate:	-2.312	Roll:	4.305	Pitch:	0.830	Yaw:	47.552	Thrust:	19.923
Time:	3.346	Roll Set Point:	-0.235	Pitch Set Point:	-0.114	Yaw Set Point:	-0.585	X_WP:	0.000	Y_WP:	0.000	Y_WP:	0.500	X:	0.100	Y:	0.093	Z:	0.402	yaw:	33.507	yaw rate:	3.515	Roll:	4.375	Pitch:	0.629	Yaw:	48.934	Thrust:	20.046
Time:	3.362	Roll Set Point:	-0.235	Pitch Set Point:	-0.114	Yaw Set Point:	-0.584	X_WP:	0.000	Y_WP:	0.000	Y_WP:	0.500	X:	0.100	Y:	0.093	Z:	0.402	yaw:	33.486	yaw rate:	-2.121	Roll:	4.282	Pitch:	0.725	Yaw:	47.965	Thrust:	20.089
Time:	3.377	Roll Set Point:	-0.235	Pitch Set Point:	-0.114	Yaw Set Point:	-0.585	X_WP:	0.000	Y_WP:	0.000	Y_WP:	0.500	X:	0.100	Y:	0.093	Z:	0.402	yaw:	33.514	yaw rate:	2.838	Roll:	4.337	Pitch:	0.625	Yaw:	48.832	Thrust:	20.534
Time:	3.393	Roll Set Point:	-0.235	Pitch Set Point:	-0.114	Yaw Set Point:	-0.585	X_WP:	0.000	Y_WP:	0.000	Y_WP:	0.500	X:	0.100	Y:	0.093	Z:	0.402	yaw:	33.502	yaw rate:	-1.275	Roll:	4.342	Pitch:	0.741	Yaw:	48.126	Thrust:	20.427
Time:	3.409	Roll Set Point:	-0.235	Pitch Set Point:	-0.114	Yaw Set Point:	-0.585	X_WP:	0.000	Y_WP:	0.000	Y_WP:	0.500	X:	0.100	Y:	0.093	Z:	0.402	yaw:	33.502	yaw rate:	-1.275	Roll:	4.345	Pitch:	0.705	Yaw:	48.340	Thrust:	20.760
Time:	3.424	Roll Set Point:	-0.235	Pitch Set Point:	-0.114	Yaw Set Point:	-0.585	X_WP:	0.000	Y_WP:	0.000	Y_WP:	0.500	X:	0.100	Y:	0.093	Z:	0.402	yaw:	33.501	yaw rate:	4.014	Roll:	4.353	Pitch:	0.702	Yaw:	48.334	Thrust:	21.026
Time:	3.440	Roll Set Point:	-0.235	Pitch Set Point:	-0.114	Yaw Set Point:	-0.585	X_WP:	0.000	Y_WP:	0.000	Y_WP:	0.500	X:	0.100	Y:	0.092	Z:	0.402	yaw:	33.502	yaw rate:	0.098	Roll:	4.343	Pitch:	0.697	Yaw:	48.360	Thrust:	21.180
Time:	3.456	Roll Set Point:	-0.235	Pitch Set Point:	-0.114	Yaw Set Point:	-0.585	X_WP:	0.000	Y_WP:	0.000	Y_WP:	0.500	X:	0.100	Y:	0.093	Z:	0.402	yaw:	33.519	yaw rate:	1.706	Roll:	4.392	Pitch:	0.696	Yaw:	48.648	Thrust:	21.308
Time:	3.471	Roll Set Point:	-0.235	Pitch Set Point:	-0.114	Yaw Set Point:	-0.584	X_WP:	0.000	Y_WP:	0.000	Y_WP:	0.500	X:	0.100	Y:	0.093	Z:	0.402	yaw:	33.488	yaw rate:	-3.177	Roll:	4.364	Pitch:	0.802	Yaw:	47.788	Thrust:	21.405
Time:	3.487	Roll Set Point:	-0.235	Pitch Set Point:	-0.114	Yaw Set Point:	-0.584	X_WP:	0.000	Y_WP:	0.000	Y_WP:	0.500	X:	0.100	Y:	0.093	Z:	0.402	yaw:	33.479	yaw rate:	-0.902	Roll:	4.359	Pitch:	0.723	Yaw:	48.156	Thrust:	21.694
Time:	3.503	Roll Set Point:	-0.235	Pitch Set Point:	-0.114	Yaw Set Point:	-0.585	X_WP:	0.000	Y_WP:	0.000	Y_WP:	0.500	X:	0.100	Y:	0.093	Z:	0.402	yaw:	33.501	yaw rate:	2.259	Roll:	4.369	Pitch:	0.627	Yaw:	48.720	Thrust:	21.928
Time:	3.518	Roll Set Point:	-0.235	Pitch Set Point:	-0.114	Yaw Set Point:	-0.584	X_WP:	0.000	Y_WP:	0.000	Y_WP:	0.500	X:	0.100	Y:	0.092	Z:	0.402	yaw:	33.483	yaw rate:	-1.830	Roll:	4.359	Pitch:	0.737	Yaw:	48.003	Thrust:	21.968
Time:	3.534	Roll Set Point:	-0.235	Pitch Set Point:	-0.114	Yaw Set Point:	-0.584	X_WP:	0.000	Y_WP:	0.000	Y_WP:	0.500	X:	0.100	Y:	0.093	Z:	0.402	yaw:	33.480	yaw rate:	-0.272	Roll:	4.408	Pitch:	0.766	Yaw:	48.267	Thrust:	22.184
Time:	3.549	Roll Set Point:	-0.235	Pitch Set Point:	-0.114	Yaw Set Point:	-0.585	X_WP:	0.000	Y_WP:	0.000	Y_WP:	0.500	X:	0.100	Y:	0.093	Z:	0.402	yaw:	33.507	yaw rate:	2.645	Roll:	4.429	Pitch:	0.663	Yaw:	48.788	Thrust:	22.553
Time:	3.565	Roll Set Point:	-0.235	Pitch Set Point:	-0.114	Yaw Set Point:	-0.584	X_WP:	0.000	Y_WP:	0.000	Y_WP:	0.500	X:	0.100	Y:	0.092	Z:	0.402	yaw:	33.479	yaw rate:	-2.719	Roll:	4.343	Pitch:	0.713	Yaw:	47.857	Thrust:	22.400
Time:	3.581	Roll Set Point:	-0.235	Pitch Set Point:	-0.114	Yaw Set Point:	-0.585	X_WP:	0.000	Y_WP:	0.000	Y_WP:	0.500	X:	0.100	Y:	0.093	Z:	0.402	yaw:	33.521	yaw rate:	4.167	Roll:	4.438	Pitch:	0.648	Yaw:	49.067	Thrust:	23.033
Time:	3.596	Roll Set Point:	-0.235	Pitch Set Point:	-0.114	Yaw Set Point:	-0.585	X_WP:	0.000	Y_WP:	0.000	Y_WP:	0.500	X:	0.100	Y:	0.093	Z:	0.402	yaw:	33.521	yaw rate:	4.167	Roll:	4.406	Pitch:	0.714	Yaw:	48.360	Thrust:	22.887
Time:	3.612	Roll Set Point:	-0.235	Pitch Set Point:	-0.114	Yaw Set Point:	-0.584	X_WP:	0.000	Y_WP:	0.000	Y_WP:	0.500	X:	0.100	Y:	0.093	Z:	0.402	yaw:	33.471	yaw rate:	-3.173	Roll:	4.408	Pitch:	0.854	Yaw:	47.466	Thrust:	23.061
Time:	3.628	Roll Set Point:	-0.235	Pitch Set Point:	-0.114	Yaw Set Point:	-0.585	X_WP:	0.000	Y_WP:	0.000	Y_WP:	0.500	X:	0.100	Y:	0.093	Z:	0.402	yaw:	33.494	yaw rate:	2.255	Roll:	4.420	Pitch:	0.664	Yaw:	48.707	Thrust:	23.336
Time:	3.643	Roll Set Point:	-0.235	Pitch Set Point:	-0.114	Yaw Set Point:	-0.585	X_WP:	0.000	Y_WP:	0.000	Y_WP:	0.500	X:	0.100	Y:	0.093	Z:	0.402	yaw:	33.494	yaw rate:	2.255	Roll:	4.424	Pitch:	0.719	Yaw:	48.329	Thrust:	23.509
Time:	3.659	Roll Set Point:	-0.235	Pitch Set Point:	-0.114	Yaw Set Point:	-0.584	X_WP:	0.000	Y_WP:	0.000	Y_WP:	0.500	X:	0.100	Y:	0.093	Z:	0.402	yaw:	33.485	yaw rate:	0.075	Roll:	4.402	Pitch:	0.723	Yaw:	48.158	Thrust:	23.620
Time:	3.674	Roll Set Point:	-0.235	Pitch Set Point:	-0.114	Yaw Set Point:	-0.585	X_WP:	0.000	Y_WP:	0.000	Y_WP:	0.500	X:	0.100	Y:	0.093	Z:	0.402	yaw:	33.504	yaw rate:	1.929	Roll:	4.481	Pitch:	0.692	Yaw:	48.666	Thrust:	23.936
Time:	3.690	Roll Set Point:	-0.235	Pitch Set Point:	-0.114	Yaw Set Point:	-0.585	X_WP:	0.000	Y_WP:	0.000	Y_WP:	0.500	X:	0.100	Y:	0.093	Z:	0.402	yaw:	33.509	yaw rate:	0.553	Roll:	4.451	Pitch:	0.717	Yaw:	48.443	Thrust:	24.113
Time:	3.706	Roll Set Point:	-0.235	Pitch Set Point:	-0.114	Yaw Set Point:	-0.585	X_WP:	0.000	Y_WP:	0.000	Y_WP:	0.500	X:	0.100	Y:	0.093	Z:	0.402	yaw:	33.509	yaw rate:	0.553	Roll:	4.446	Pitch:	0.722	Yaw:	48.351	Thrust:	24.243
Time:	3.721	Roll Set Point:	-0.235	Pitch Set Point:	-0.114	Yaw Set Point:	-0.585	X_WP:	0.000	Y_WP:	0.000	Y_WP:	0.500	X:	0.100	Y:	0.093	Z:	0.402	yaw:	33.500	yaw rate:	0.280	Roll:	4.403	Pitch:	0.719	Yaw:	48.187	Thrust:	24.447
Time:	3.737	Roll Set Point:	-0.235	Pitch Set Point:	-0.114	Yaw Set Point:	-0.584	X_WP:	0.000	Y_WP:	0.000	Y_WP:	0.500	X:	0.100	Y:	0.093	Z:	0.402	yaw:	33.485	yaw rate:	-1.506	Roll:	4.488	Pitch:	0.801	Yaw:	48.065	Thrust:	24.567
Time:	3.753	Roll Set Point:	-0.235	Pitch Set Point:	-0.114	Yaw Set Point:	-0.585	X_WP:	0.000	Y_WP:	0.000	Y_WP:	0.500	X:	0.100	Y:	0.093	Z:	0.402	yaw:	33.499	yaw rate:	1.365	Roll:	4.459	Pitch:	0.671	Yaw:	48.565	Thrust:	24.727
Time:	3.768	Roll Set Point:	-0.235	Pitch Set Point:	-0.114	Yaw Set Point:	-0.584	X_WP:	0.000	Y_WP:	0.000	Y_WP:	0.500	X:	0.100	Y:	0.093	Z:	0.402	yaw:	33.485	yaw rate:	-1.417	Roll:	4.455	Pitch:	0.760	Yaw:	48.079	Thrust:	24.992
Time:	3.784	Roll Set Point:	-0.235	Pitch Set Point:	-0.114	Yaw Set Point:	-0.585	X_WP:	0.000	Y_WP:	0.000	Y_WP:	0.500	X:	0.100	Y:	0.092	Z:	0.402	yaw:	33.498	yaw rate:	1.301	Roll:	4.451	Pitch:	0.668	Yaw:	48.555	Thrust:	25.274
Time:	3.799	Roll Set Point:	-0.235	Pitch Set Point:	-0.114	Yaw Set Point:	-0.585	X_WP:	0.000	Y_WP:	0.000	Y_WP:	0.500	X:	0.100	Y:	0.092	Z:	0.402	yaw:	33.501	yaw rate:	0.366	Roll:	4.471	Pitch:	0.714	Yaw:	48.398	Thrust:	25.163
Time:	3.815	Roll Set Point:	-0.235	Pitch Set Point:	-0.115	Yaw Set Point:	-0.584	X_WP:	0.000	Y_WP:	0.000	Y_WP:	0.500	X:	0.100	Y:	0.093	Z:	0.402	yaw:	33.481	yaw rate:	-2.070	Roll:	4.530	Pitch:	0.845	Yaw:	47.964	Thrust:	25.644
Time:	3.831	Roll Set Point:	-0.235	Pitch Set Point:	-0.114	Yaw Set Point:	-0.585	X_WP:	0.000	Y_WP:	0.000	Y_WP:	0.500	X:	0.100	Y:	0.093	Z:	0.402	yaw:	33.499	yaw rate:	1.811	Roll:	4.480	Pitch:	0.663	Yaw:	48.639	Thrust:	25.646
Time:	3.848	Roll Set Point:	-0.235	Pitch Set Point:	-0.114	Yaw Set Point:	-0.585	X_WP:	0.000	Y_WP:	0.000	Y_WP:	0.500	X:	0.100	Y:	0.093	Z:	0.402	yaw:	33.507	yaw rate:	0.838	Roll:	4.495	Pitch:	0.700	Yaw:	48.599	Thrust:	27.548
Time:	3.864	Roll Set Point:	-0.235	Pitch Set Point:	-0.114	Yaw Set Point:	-0.585	X_WP:	0.000	Y_WP:	0.000	Y_WP:	0.500	X:	0.100	Y:	0.093	Z:	0.402	yaw:	33.507	yaw rate:	0.838	Roll:	4.546	Pitch:	0.736	Yaw:	48.448	Thrust:	27.409
Time:	3.880	Roll Set Point:	-0.235	Pitch Set Point:	-0.114	Yaw Set Point:	-0.585	X_WP:	0.000	Y_WP:	0.000	Y_WP:	0.500	X:	0.100	Y:	0.093	Z:	0.402	yaw:	33.515	yaw rate:	0.582	Roll:	4.512	Pitch:	0.736	Yaw:	48.481	Thrust:	26.178
Time:	3.895	Roll Set Point:	-0.235	Pitch Set Point:	-0.115	Yaw Set Point:	-0.584	X_WP:	0.000	Y_WP:	0.000	Y_WP:	0.500	X:	0.100	Y:	0.093	Z:	0.402	yaw:	33.483	yaw rate:	-3.150	Roll:	4.493	Pitch:	0.840	Yaw:	47.786	Thrust:	26.591
Time:	3.911	Roll Set Point:	-0.235	Pitch Set Point:	-0.114	Yaw Set Point:	-0.585	X_WP:	0.000	Y_WP:	0.000	Y_WP:	0.500	X:	0.100	Y:	0.093	Z:	0.402	yaw:	33.490	yaw rate:	0.672	Roll:	4.465	Pitch:	0.640	Yaw:	48.436	Thrust:	26.452
Time:	3.927	Roll Set Point:	-0.235	Pitch Set Point:	-0.114	Yaw Set Point:	-0.585	X_WP:	0.000	Y_WP:	0.000	Y_WP:	0.500	X:	0.100	Y:	0.093	Z:	0.402	yaw:	33.506	yaw rate:	1.641	Roll:	4.481	Pitch:	0.712	Yaw:	48.621	Thrust:	26.894
Time:	3.942	Roll Set Point:	-0.235	Pitch Set Point:	-0.114	Yaw Set Point:	-0.585	X_WP:	0.000	Y_WP:	0.000	Y_WP:	0.500	X:	0.100	Y:	0.093	Z:	0.402	yaw:	33.516	yaw rate:	0.979	Roll:	4.500	Pitch:	0.697	Yaw:	48.527	Thrust:	26.970
Time:	3.958	Roll Set Point:	-0.235	Pitch Set Point:	-0.114	Yaw Set Point:	-0.585	X_WP:	0.000	Y_WP:	0.000	Y_WP:	0.500	X:	0.100	Y:	0.093	Z:	0.402	yaw:	33.491	yaw rate:	-2.468	Roll:	4.498	Pitch:	0.831	Yaw:	47.912	Thrust:	27.154
Time:	3.974	Roll Set Point:	-0.235	Pitch Set Point:	-0.114	Yaw Set Point:	-0.585	X_WP:	0.000	Y_WP:	0.000	Y_WP:	0.500	X:	0.100	Y:	0.093	Z:	0.402	yaw:	33.506	yaw rate:	1.446	Roll:	4.481	Pitch:	0.660	Yaw:	48.588	Thrust:	27.316
Time:	3.989	Roll Set Point:	-0.235	Pitch Set Point:	-0.114	Yaw Set Point:	-0.585	X_WP:	0.000	Y_WP:	0.000	Y_WP:	0.500	X:	0.100	Y:	0.093	Z:	0.402	yaw:	33.499	yaw rate:	-0.667	Roll:	4.472	Pitch:	0.774	Yaw:	48.221	Thrust:	27.643
Time:	4.005	Roll Set Point:	-0.235	Pitch Set Point:	-0.114	Yaw Set Point:	-0.584	X_WP:	0.000	Y_WP:	0.000	Y_WP:	0.500	X:	0.100	Y:	0.093	Z:	0.402	yaw:	33.485	yaw rate:	-1.453	Roll:	4.486	Pitch:	0.775	Yaw:	48.076	Thrust:	27.650
Time:	4.020	Roll Set Point:	-0.235	Pitch Set Point:	-0.114	Yaw Set Point:	-0.584	X_WP:	0.000	Y_WP:	0.000	Y_WP:	0.500	X:	0.100	Y:	0.093	Z:	0.402	yaw:	33.485	yaw rate:	-1.453	Roll:	4.490	Pitch:	0.740	Yaw:	48.318	Thrust:	27.935
Time:	4.036	Roll Set Point:	-0.235	Pitch Set Point:	-0.114	Yaw Set Point:	-0.584	X_WP:	0.000	Y_WP:	0.000	Y_WP:	0.500	X:	0.100	Y:	0.093	Z:	0.402	yaw:	33.488	yaw rate:	-1.033	Roll:	4.522	Pitch:	0.743	Yaw:	48.385	Thrust:	28.122
Time:	4.052	Roll Set Point:	-0.235	Pitch Set Point:	-0.114	Yaw Set Point:	-0.584	X_WP:	0.000	Y_WP:	0.000	Y_WP:	0.500	X:	0.100	Y:	0.093	Z:	0.402	yaw:	33.488	yaw rate:	-1.033	Roll:	4.488	Pitch:	0.741	Yaw:	48.317	Thrust:	28.215
Time:	4.067	Roll Set Point:	-0.235	Pitch Set Point:	-0.114	Yaw Set Point:	-0.584	X_WP:	0.000	Y_WP:	0.000	Y_WP:	0.500	X:	0.100	Y:	0.093	Z:	0.402	yaw:	33.480	yaw rate:	-0.821	Roll:	4.475	Pitch:	0.752	Yaw:	48.173	Thrust:	28.470
Time:	4.097	Roll Set Point:	-0.235	Pitch Set Point:	-0.114	Yaw Set Point:	-0.585	X_WP:	0.000	Y_WP:	0.000	Y_WP:	0.500	X:	0.100	Y:	0.093	Z:	0.402	yaw:	33.504	yaw rate:	-0.614	Roll:	5.021	Pitch:	0.816	Yaw:	49.944	Thrust:	49.391
Time:	4.112	Roll Set Point:	-0.235	Pitch Set Point:	-0.114	Yaw Set Point:	-0.585	X_WP:	0.000	Y_WP:	0.000	Y_WP:	0.500	X:	0.100	Y:	0.093	Z:	0.402	yaw:	33.514	yaw rate:	3.938	Roll:	4.500	Pitch:	0.726	Yaw:	48.527	Thrust:	28.822
Time:	4.128	Roll Set Point:	-0.235	Pitch Set Point:	-0.114	Yaw Set Point:	-0.585	X_WP:	0.000	Y_WP:	0.000	Y_WP:	0.500	X:	0.100	Y:	0.093	Z:	0.402	yaw:	33.519	yaw rate:	0.544	Roll:	4.455	Pitch:	0.706	Yaw:	48.453	Thrust:	29.014
Time:	4.144	Roll Set Point:	-0.235	Pitch Set Point:	-0.114	Yaw Set Point:	-0.585	X_WP:	0.000	Y_WP:	0.000	Y_WP:	0.500	X:	0.100	Y:	0.093	Z:	0.402	yaw:	33.519	yaw rate:	0.544	Roll:	4.491	Pitch:	0.744	Yaw:	48.368	Thrust:	29.246
Time:	4.159	Roll Set Point:	-0.235	Pitch Set Point:	-0.114	Yaw Set Point:	-0.585	X_WP:	0.000	Y_WP:	0.000	Y_WP:	0.500	X:	0.100	Y:	0.093	Z:	0.402	yaw:	33.518	yaw rate:	-0.175	Roll:	4.511	Pitch:	0.752	Yaw:	48.329	Thrust:	29.226
Time:	4.175	Roll Set Point:	-0.235	Pitch Set Point:	-0.114	Yaw Set Point:	-0.585	X_WP:	0.000	Y_WP:	0.000	Y_WP:	0.500	X:	0.100	Y:	0.093	Z:	0.402	yaw:	33.518	yaw rate:	-0.175	Roll:	4.490	Pitch:	0.746	Yaw:	48.362	Thrust:	29.557
Time:	4.191	Roll Set Point:	-0.235	Pitch Set Point:	-0.114	Yaw Set Point:	-0.584	X_WP:	0.000	Y_WP:	0.000	Y_WP:	0.500	X:	0.100	Y:	0.093	Z:	0.402	yaw:	33.483	yaw rate:	-1.265	Roll:	4.465	Pitch:	0.829	Yaw:	47.728	Thrust:	29.650
Time:	4.206	Roll Set Point:	-0.235	Pitch Set Point:	-0.114	Yaw Set Point:	-0.585	X_WP:	0.000	Y_WP:	0.000	Y_WP:	0.500	X:	0.100	Y:	0.093	Z:	0.402	yaw:	33.510	yaw rate:	2.780	Roll:	4.506	Pitch:	0.667	Yaw:	48.818	Thrust:	30.024
Time:	4.222	Roll Set Point:	-0.235	Pitch Set Point:	-0.114	Yaw Set Point:	-0.585	X_WP:	0.000	Y_WP:	0.000	Y_WP:	0.500	X:	0.100	Y:	0.093	Z:	0.402	yaw:	33.510	yaw rate:	2.780	Roll:	4.491	Pitch:	0.748	Yaw:	48.355	Thrust:	30.152
Time:	4.237	Roll Set Point:	-0.235	Pitch Set Point:	-0.114	Yaw Set Point:	-0.584	X_WP:	0.000	Y_WP:	0.000	Y_WP:	0.500	X:	0.100	Y:	0.093	Z:	0.402	yaw:	33.478	yaw rate:	-3.252	Roll:	4.491	Pitch:	0.864	Yaw:	47.758	Thrust:	30.249
Time:	4.253	Roll Set Point:	-0.235	Pitch Set Point:	-0.114	Yaw Set Point:	-0.585	X_WP:	0.000	Y_WP:	0.000	Y_WP:	0.500	X:	0.100	Y:	0.093	Z:	0.402	yaw:	33.500	yaw rate:	2.159	Roll:	4.479	Pitch:	0.673	Yaw:	48.699	Thrust:	30.448
Time:	4.269	Roll Set Point:	-0.235	Pitch Set Point:	-0.114	Yaw Set Point:	-0.585	X_WP:	0.000	Y_WP:	0.000	Y_WP:	0.500	X:	0.100	Y:	0.093	Z:	0.402	yaw:	33.500	yaw rate:	2.159	Roll:	4.489	Pitch:	0.752	Yaw:	48.337	Thrust:	30.655
Time:	4.284	Roll Set Point:	-0.235	Pitch Set Point:	-0.114	Yaw Set Point:	-0.585	X_WP:	0.000	Y_WP:	0.000	Y_WP:	0.500	X:	0.100	Y:	0.093	Z:	0.402	yaw:	33.501	yaw rate:	0.122	Roll:	4.483	Pitch:	0.742	Yaw:	48.359	Thrust:	30.845
Time:	4.300	Roll Set Point:	-0.235	Pitch Set Point:	-0.114	Yaw Set Point:	-0.585	X_WP:	0.000	Y_WP:	0.000	Y_WP:	0.500	X:	0.100	Y:	0.093	Z:	0.402	yaw:	33.501	yaw rate:	0.122	Roll:	4.489	Pitch:	0.753	Yaw:	48.339	Thrust:	31.019
Time:	4.316	Roll Set Point:	-0.235	Pitch Set Point:	-0.114	Yaw Set Point:	-0.585	X_WP:	0.000	Y_WP:	0.000	Y_WP:	0.500	X:	0.100	Y:	0.093	Z:	0.402	yaw:	33.506	yaw rate:	0.529	Roll:	4.517	Pitch:	0.742	Yaw:	48.434	Thrust:	31.079
Time:	4.331	Roll Set Point:	-0.235	Pitch Set Point:	-0.114	Yaw Set Point:	-0.585	X_WP:	0.000	Y_WP:	0.000	Y_WP:	0.500	X:	0.100	Y:	0.093	Z:	0.402	yaw:	33.491	yaw rate:	-2.062	Roll:	4.455	Pitch:	0.796	Yaw:	48.069	Thrust:	31.452
Time:	4.347	Roll Set Point:	-0.235	Pitch Set Point:	-0.114	Yaw Set Point:	-0.584	X_WP:	0.000	Y_WP:	0.000	Y_WP:	0.500	X:	0.100	Y:	0.093	Z:	0.402	yaw:	33.482	yaw rate:	-0.888	Roll:	4.494	Pitch:	0.781	Yaw:	48.163	Thrust:	31.618
Time:	4.362	Roll Set Point:	-0.235	Pitch Set Point:	-0.114	Yaw Set Point:	-0.584	X_WP:	0.000	Y_WP:	0.000	Y_WP:	0.500	X:	0.100	Y:	0.093	Z:	0.402	yaw:	33.477	yaw rate:	-0.461	Roll:	4.509	Pitch:	0.801	Yaw:	48.229	Thrust:	31.816
Time:	4.378	Roll Set Point:	-0.235	Pitch Set Point:	-0.114	Yaw Set Point:	-0.584	X_WP:	0.000	Y_WP:	0.000	Y_WP:	0.500	X:	0.100	Y:	0.093	Z:	0.402	yaw:	33.477	yaw rate:	-0.461	Roll:	4.490	Pitch:	0.760	Yaw:	48.306	Thrust:	31.940
Time:	4.394	Roll Set Point:	-0.235	Pitch Set Point:	-0.114	Yaw Set Point:	-0.585	X_WP:	0.000	Y_WP:	0.000	Y_WP:	0.500	X:	0.100	Y:	0.093	Z:	0.402	yaw:	33.504	yaw rate:	3.723	Roll:	4.471	Pitch:	0.657	Yaw:	48.789	Thrust:	32.045
Time:	4.409	Roll Set Point:	-0.235	Pitch Set Point:	-0.114	Yaw Set Point:	-0.585	X_WP:	0.000	Y_WP:	0.000	Y_WP:	0.500	X:	0.100	Y:	0.092	Z:	0.402	yaw:	33.497	yaw rate:	-0.685	Roll:	4.488	Pitch:	0.770	Yaw:	48.219	Thrust:	32.352
Time:	4.425	Roll Set Point:	-0.235	Pitch Set Point:	-0.114	Yaw Set Point:	-0.585	X_WP:	0.000	Y_WP:	0.000	Y_WP:	0.500	X:	0.100	Y:	0.093	Z:	0.402	yaw:	33.508	yaw rate:	1.077	Roll:	4.504	Pitch:	0.755	Yaw:	48.528	Thrust:	32.421
Time:	4.441	Roll Set Point:	-0.235	Pitch Set Point:	-0.114	Yaw Set Point:	-0.585	X_WP:	0.000	Y_WP:	0.000	Y_WP:	0.500	X:	0.100	Y:	0.093	Z:	0.402	yaw:	33.511	yaw rate:	0.351	Roll:	4.513	Pitch:	0.741	Yaw:	48.412	Thrust:	32.697
Time:	4.456	Roll Set Point:	-0.235	Pitch Set Point:	-0.114	Yaw Set Point:	-0.585	X_WP:	0.000	Y_WP:	0.000	Y_WP:	0.500	X:	0.100	Y:	0.093	Z:	0.402	yaw:	33.511	yaw rate:	0.351	Roll:	4.490	Pitch:	0.761	Yaw:	48.353	Thrust:	32.852
Time:	4.472	Roll Set Point:	-0.235	Pitch Set Point:	-0.114	Yaw Set Point:	-0.584	X_WP:	0.000	Y_WP:	0.000	Y_WP:	0.500	X:	0.100	Y:	0.093	Z:	0.402	yaw:	33.483	yaw rate:	-0.462	Roll:	4.454	Pitch:	0.830	Yaw:	47.833	Thrust:	32.972
Time:	4.487	Roll Set Point:	-0.235	Pitch Set Point:	-0.114	Yaw Set Point:	-0.585	X_WP:	0.000	Y_WP:	0.000	Y_WP:	0.500	X:	0.100	Y:	0.093	Z:	0.402	yaw:	33.510	yaw rate:	2.689	Roll:	4.500	Pitch:	0.693	Yaw:	48.801	Thrust:	33.349
Time:	4.503	Roll Set Point:	-0.235	Pitch Set Point:	-0.114	Yaw Set Point:	-0.585	X_WP:	0.000	Y_WP:	0.000	Y_WP:	0.500	X:	0.100	Y:	0.093	Z:	0.402	yaw:	33.498	yaw rate:	-1.129	Roll:	4.509	Pitch:	0.814	Yaw:	48.146	Thrust:	33.248
Time:	4.519	Roll Set Point:	-0.235	Pitch Set Point:	-0.114	Yaw Set Point:	-0.585	X_WP:	0.000	Y_WP:	0.000	Y_WP:	0.500	X:	0.100	Y:	0.093	Z:	0.402	yaw:	33.498	yaw rate:	-1.129	Roll:	4.490	Pitch:	0.766	Yaw:	48.335	Thrust:	33.580
Time:	4.534	Roll Set Point:	-0.235	Pitch Set Point:	-0.114	Yaw Set Point:	-0.585	X_WP:	0.000	Y_WP:	0.000	Y_WP:	0.500	X:	0.100	Y:	0.093	Z:	0.402	yaw:	33.497	yaw rate:	1.260	Roll:	4.458	Pitch:	0.756	Yaw:	48.312	Thrust:	33.878
Time:	4.550	Roll Set Point:	-0.235	Pitch Set Point:	-0.114	Yaw Set Point:	-0.585	X_WP:	0.000	Y_WP:	0.000	Y_WP:	0.500	X:	0.100	Y:	0.092	Z:	0.402	yaw:	33.499	yaw rate:	0.154	Roll:	4.465	Pitch:	0.754	Yaw:	48.361	Thrust:	33.919
Time:	4.566	Roll Set Point:	-0.235	Pitch Set Point:	-0.114	Yaw Set Point:	-0.585	X_WP:	0.000	Y_WP:	0.000	Y_WP:	0.500	X:	0.100	Y:	0.092	Z:	0.402	yaw:	33.499	yaw rate:	0.154	Roll:	4.489	Pitch:	0.768	Yaw:	48.335	Thrust:	34.134
Time:	4.581	Roll Set Point:	-0.235	Pitch Set Point:	-0.114	Yaw Set Point:	-0.584	X_WP:	0.000	Y_WP:	0.000	Y_WP:	0.500	X:	0.100	Y:	0.093	Z:	0.402	yaw:	33.483	yaw rate:	-2.856	Roll:	4.532	Pitch:	0.832	Yaw:	48.057	Thrust:	34.256
Time:	4.597	Roll Set Point:	-0.235	Pitch Set Point:	-0.114	Yaw Set Point:	-0.584	X_WP:	0.000	Y_WP:	0.000	Y_WP:	0.500	X:	0.100	Y:	0.093	Z:	0.402	yaw:	33.486	yaw rate:	0.335	Roll:	4.479	Pitch:	0.746	Yaw:	48.376	Thrust:	34.572
Time:	4.613	Roll Set Point:	-0.235	Pitch Set Point:	-0.114	Yaw Set Point:	-0.585	X_WP:	0.000	Y_WP:	0.000	Y_WP:	0.500	X:	0.100	Y:	0.092	Z:	0.402	yaw:	33.500	yaw rate:	1.355	Roll:	4.465	Pitch:	0.715	Yaw:	48.565	Thrust:	34.718
Time:	4.628	Roll Set Point:	-0.235	Pitch Set Point:	-0.114	Yaw Set Point:	-0.585	X_WP:	0.000	Y_WP:	0.000	Y_WP:	0.500	X:	0.100	Y:	0.093	Z:	0.402	yaw:	33.509	yaw rate:	0.894	Roll:	4.517	Pitch:	0.790	Yaw:	48.499	Thrust:	34.870
Time:	4.644	Roll Set Point:	-0.235	Pitch Set Point:	-0.114	Yaw Set Point:	-0.585	X_WP:	0.000	Y_WP:	0.000	Y_WP:	0.500	X:	0.100	Y:	0.093	Z:	0.402	yaw:	33.509	yaw rate:	0.894	Roll:	4.489	Pitch:	0.772	Yaw:	48.350	Thrust:	35.043
Time:	4.659	Roll Set Point:	-0.235	Pitch Set Point:	-0.114	Yaw Set Point:	-0.585	X_WP:	0.000	Y_WP:	0.000	Y_WP:	0.500	X:	0.100	Y:	0.093	Z:	0.402	yaw:	33.492	yaw rate:	1.137	Roll:	4.497	Pitch:	0.833	Yaw:	48.045	Thrust:	35.240
Time:	4.675	Roll Set Point:	-0.235	Pitch Set Point:	-0.114	Yaw Set Point:	-0.585	X_WP:	0.000	Y_WP:	0.000	Y_WP:	0.500	X:	0.100	Y:	0.092	Z:	0.402	yaw:	33.499	yaw rate:	0.632	Roll:	4.466	Pitch:	0.715	Yaw:	48.441	Thrust:	35.383
Time:	4.691	Roll Set Point:	-0.235	Pitch Set Point:	-0.114	Yaw Set Point:	-0.585	X_WP:	0.000	Y_WP:	0.000	Y_WP:	0.500	X:	0.100	Y:	0.092	Z:	0.402	yaw:	33.511	yaw rate:	1.258	Roll:	4.492	Pitch:	0.736	Yaw:	48.567	Thrust:	35.627
Time:	4.706	Roll Set Point:	-0.235	Pitch Set Point:	-0.114	Yaw Set Point:	-0.584	X_WP:	0.000	Y_WP:	0.000	Y_WP:	0.500	X:	0.100	Y:	0.093	Z:	0.402	yaw:	33.479	yaw rate:	-3.232	Roll:	4.518	Pitch:	0.898	Yaw:	47.766	Thrust:	35.786
Time:	4.722	Roll Set Point:	-0.235	Pitch Set Point:	-0.114	Yaw Set Point:	-0.584	X_WP:	0.000	Y_WP:	0.000	Y_WP:	0.500	X:	0.100	Y:	0.093	Z:	0.402	yaw:	33.479	yaw rate:	-3.232	Roll:	4.489	Pitch:	0.778	Yaw:	48.305	Thrust:	35.904
Time:	4.738	Roll Set Point:	-0.235	Pitch Set Point:	-0.114	Yaw Set Point:	-0.585	X_WP:	0.000	Y_WP:	0.000	Y_WP:	0.500	X:	0.100	Y:	0.093	Z:	0.402	yaw:	33.504	yaw rate:	2.503	Roll:	4.490	Pitch:	0.703	Yaw:	48.762	Thrust:	36.155
Time:	4.753	Roll Set Point:	-0.235	Pitch Set Point:	-0.114	Yaw Set Point:	-0.585	X_WP:	0.000	Y_WP:	0.000	Y_WP:	0.500	X:	0.100	Y:	0.093	Z:	0.402	yaw:	33.504	yaw rate:	2.503	Roll:	4.490	Pitch:	0.778	Yaw:	48.343	Thrust:	36.332
Time:	4.769	Roll Set Point:	-0.235	Pitch Set Point:	-0.114	Yaw Set Point:	-0.585	X_WP:	0.000	Y_WP:	0.000	Y_WP:	0.500	X:	0.100	Y:	0.093	Z:	0.402	yaw:	33.495	yaw rate:	0.907	Roll:	4.475	Pitch:	0.791	Yaw:	48.190	Thrust:	36.464
Time:	4.784	Roll Set Point:	-0.235	Pitch Set Point:	-0.114	Yaw Set Point:	-0.585	X_WP:	0.000	Y_WP:	0.000	Y_WP:	0.500	X:	0.100	Y:	0.093	Z:	0.402	yaw:	33.505	yaw rate:	0.929	Roll:	4.497	Pitch:	0.783	Yaw:	48.499	Thrust:	36.828
Time:	4.800	Roll Set Point:	-0.235	Pitch Set Point:	-0.114	Yaw Set Point:	-0.585	X_WP:	0.000	Y_WP:	0.000	Y_WP:	0.500	X:	0.100	Y:	0.093	Z:	0.402	yaw:	33.498	yaw rate:	-0.653	Roll:	4.482	Pitch:	0.761	Yaw:	48.226	Thrust:	36.860
Time:	4.816	Roll Set Point:	-0.235	Pitch Set Point:	-0.114	Yaw Set Point:	-0.584	X_WP:	0.000	Y_WP:	0.000	Y_WP:	0.500	X:	0.100	Y:	0.093	Z:	0.402	yaw:	33.481	yaw rate:	-1.758	Roll:	4.472	Pitch:	0.848	Yaw:	48.016	Thrust:	36.994
Time:	4.831	Roll Set Point:	-0.235	Pitch Set Point:	-0.114	Yaw Set Point:	-0.584	X_WP:	0.000	Y_WP:	0.000	Y_WP:	0.500	X:	0.100	Y:	0.093	Z:	0.402	yaw:	33.489	yaw rate:	0.833	Roll:	4.507	Pitch:	0.762	Yaw:	48.462	Thrust:	37.265
Time:	4.847	Roll Set Point:	-0.235	Pitch Set Point:	-0.114	Yaw Set Point:	-0.584	X_WP:	0.000	Y_WP:	0.000	Y_WP:	0.500	X:	0.100	Y:	0.093	Z:	0.402	yaw:	33.489	yaw rate:	0.833	Roll:	4.489	Pitch:	0.784	Yaw:	48.322	Thrust:	37.431
Time:	4.863	Roll Set Point:	-0.235	Pitch Set Point:	-0.114	Yaw Set Point:	-0.585	X_WP:	0.000	Y_WP:	0.000	Y_WP:	0.500	X:	0.100	Y:	0.093	Z:	0.402	yaw:	33.500	yaw rate:	1.159	Roll:	4.474	Pitch:	0.747	Yaw:	48.535	Thrust:	37.715
Time:	4.878	Roll Set Point:	-0.235	Pitch Set Point:	-0.114	Yaw Set Point:	-0.585	X_WP:	0.000	Y_WP:	0.000	Y_WP:	0.500	X:	0.100	Y:	0.093	Z:	0.402	yaw:	33.491	yaw rate:	-1.618	Roll:	4.523	Pitch:	0.827	Yaw:	48.156	Thrust:	37.709
Time:	4.894	Roll Set Point:	-0.235	Pitch Set Point:	-0.114	Yaw Set Point:	-0.585	X_WP:	0.000	Y_WP:	0.000	Y_WP:	0.500	X:	0.100	Y:	0.093	Z:	0.402	yaw:	33.492	yaw rate:	0.120	Roll:	4.473	Pitch:	0.739	Yaw:	48.349	Thrust:	37.984
Time:	4.909	Roll Set Point:	-0.235	Pitch Set Point:	-0.114	Yaw Set Point:	-0.585	X_WP:	0.000	Y_WP:	0.000	Y_WP:	0.500	X:	0.100	Y:	0.093	Z:	0.402	yaw:	33.499	yaw rate:	0.722	Roll:	4.460	Pitch:	0.791	Yaw:	48.454	Thrust:	38.177
Time:	4.925	Roll Set Point:	-0.235	Pitch Set Point:	-0.114	Yaw Set Point:	-0.585	X_WP:	0.000	Y_WP:	0.000	Y_WP:	0.500	X:	0.100	Y:	0.093	Z:	0.402	yaw:	33.507	yaw rate:	0.762	Roll:	4.532	Pitch:	0.768	Yaw:	48.475	Thrust:	38.346
Time:	4.941	Roll Set Point:	-0.235	Pitch Set Point:	-0.114	Yaw Set Point:	-0.585	X_WP:	0.000	Y_WP:	0.000	Y_WP:	0.500	X:	0.100	Y:	0.093	Z:	0.402	yaw:	33.497	yaw rate:	-0.985	Roll:	4.490	Pitch:	0.831	Yaw:	48.168	Thrust:	38.503
Time:	4.956	Roll Set Point:	-0.235	Pitch Set Point:	-0.114	Yaw Set Point:	-0.585	X_WP:	0.000	Y_WP:	0.000	Y_WP:	0.500	X:	0.100	Y:	0.093	Z:	0.402	yaw:	33.497	yaw rate:	-0.985	Roll:	4.490	Pitch:	0.790	Yaw:	48.333	Thrust:	38.713
Time:	4.972	Roll Set Point:	-0.235	Pitch Set Point:	-0.114	Yaw Set Point:	-0.585	X_WP:	0.000	Y_WP:	0.000	Y_WP:	0.500	X:	0.100	Y:	0.092	Z:	0.402	yaw:	33.519	yaw rate:	1.002	Roll:	4.465	Pitch:	0.694	Yaw:	48.734	Thrust:	38.907
Time:	4.988	Roll Set Point:	-0.235	Pitch Set Point:	-0.114	Yaw Set Point:	-0.584	X_WP:	0.000	Y_WP:	0.000	Y_WP:	0.500	X:	0.100	Y:	0.093	Z:	0.402	yaw:	33.485	yaw rate:	-3.378	Roll:	4.477	Pitch:	0.899	Yaw:	47.751	Thrust:	39.099
Time:	5.003	Roll Set Point:	-0.235	Pitch Set Point:	-0.114	Yaw Set Point:	-0.584	X_WP:	0.000	Y_WP:	0.000	Y_WP:	0.500	X:	0.100	Y:	0.093	Z:	0.402	yaw:	33.485	yaw rate:	-3.378	Roll:	4.489	Pitch:	0.793	Yaw:	48.316	Thrust:	39.245
Time:	5.019	Roll Set Point:	-0.235	Pitch Set Point:	-0.114	Yaw Set Point:	-0.584	X_WP:	0.000	Y_WP:	0.000	Y_WP:	0.500	X:	0.100	Y:	0.093	Z:	0.402	yaw:	33.486	yaw rate:	0.270	Roll:	4.539	Pitch:	0.830	Yaw:	48.332	Thrust:	39.484
Time:	5.034	Roll Set Point:	-0.235	Pitch Set Point:	-0.114	Yaw Set Point:	-0.585	X_WP:	0.000	Y_WP:	0.000	Y_WP:	0.500	X:	0.100	Y:	0.092	Z:	0.402	yaw:	33.495	yaw rate:	0.890	Roll:	4.403	Pitch:	0.677	Yaw:	48.479	Thrust:	39.582
Time:	5.050	Roll Set Point:	-0.235	Pitch Set Point:	-0.114	Yaw Set Point:	-0.585	X_WP:	0.000	Y_WP:	0.000	Y_WP:	0.500	X:	0.100	Y:	0.092	Z:	0.402	yaw:	33.501	yaw rate:	0.585	Roll:	4.500	Pitch:	0.811	Yaw:	48.437	Thrust:	39.873
Time:	5.066	Roll Set Point:	-0.235	Pitch Set Point:	-0.114	Yaw Set Point:	-0.585	X_WP:	0.000	Y_WP:	0.000	Y_WP:	0.500	X:	0.100	Y:	0.092	Z:	0.402	yaw:	33.501	yaw rate:	0.585	Roll:	4.489	Pitch:	0.795	Yaw:	48.341	Thrust:	40.063
Time:	5.081	Roll Set Point:	-0.235	Pitch Set Point:	-0.115	Yaw Set Point:	-0.584	X_WP:	0.000	Y_WP:	0.000	Y_WP:	0.500	X:	0.100	Y:	0.093	Z:	0.402	yaw:	33.469	yaw rate:	-3.207	Roll:	4.566	Pitch:	0.934	Yaw:	47.776	Thrust:	40.251
Time:	5.097	Roll Set Point:	-0.235	Pitch Set Point:	-0.114	Yaw Set Point:	-0.585	X_WP:	0.000	Y_WP:	0.000	Y_WP:	0.500	X:	0.100	Y:	0.093	Z:	0.402	yaw:	33.511	yaw rate:	4.190	Roll:	4.453	Pitch:	0.649	Yaw:	49.055	Thrust:	40.552
Time:	5.113	Roll Set Point:	-0.235	Pitch Set Point:	-0.114	Yaw Set Point:	-0.585	X_WP:	0.000	Y_WP:	0.000	Y_WP:	0.500	X:	0.100	Y:	0.092	Z:	0.402	yaw:	33.510	yaw rate:	-0.061	Roll:	4.452	Pitch:	0.751	Yaw:	48.341	Thrust:	40.559
Time:	5.128	Roll Set Point:	-0.235	Pitch Set Point:	-0.114	Yaw Set Point:	-0.584	X_WP:	0.000	Y_WP:	0.000	Y_WP:	0.500	X:	0.100	Y:	0.093	Z:	0.402	yaw:	33.478	yaw rate:	-3.179	Roll:	4.532	Pitch:	0.938	Yaw:	47.775	Thrust:	40.579
Time:	5.144	Roll Set Point:	-0.235	Pitch Set Point:	-0.115	Yaw Set Point:	-0.584	X_WP:	0.000	Y_WP:	0.000	Y_WP:	0.500	X:	0.100	Y:	0.093	Z:	0.402	yaw:	33.460	yaw rate:	-1.872	Roll:	4.515	Pitch:	0.903	Yaw:	47.968	Thrust:	41.002
Time:	5.160	Roll Set Point:	-0.235	Pitch Set Point:	-0.114	Yaw Set Point:	-0.584	X_WP:	0.000	Y_WP:	0.000	Y_WP:	0.500	X:	0.100	Y:	0.093	Z:	0.402	yaw:	33.485	yaw rate:	2.508	Roll:	4.459	Pitch:	0.701	Yaw:	48.737	Thrust:	41.102
Time:	5.175	Roll Set Point:	-0.235	Pitch Set Point:	-0.114	Yaw Set Point:	-0.585	X_WP:	0.000	Y_WP:	0.000	Y_WP:	0.500	X:	0.100	Y:	0.092	Z:	0.402	yaw:	33.506	yaw rate:	2.093	Roll:	4.444	Pitch:	0.684	Yaw:	48.696	Thrust:	41.210
Time:	5.191	Roll Set Point:	-0.235	Pitch Set Point:	-0.114	Yaw Set Point:	-0.585	X_WP:	0.000	Y_WP:	0.000	Y_WP:	0.500	X:	0.100	Y:	0.092	Z:	0.402	yaw:	33.506	yaw rate:	2.093	Roll:	4.488	Pitch:	0.800	Yaw:	48.346	Thrust:	41.476
Time:	5.206	Roll Set Point:	-0.235	Pitch Set Point:	-0.114	Yaw Set Point:	-0.585	X_WP:	0.000	Y_WP:	0.000	Y_WP:	0.500	X:	0.100	Y:	0.093	Z:	0.402	yaw:	33.506	yaw rate:	0.052	Roll:	4.553	Pitch:	0.867	Yaw:	48.354	Thrust:	41.837
Time:	5.222	Roll Set Point:	-0.235	Pitch Set Point:	-0.114	Yaw Set Point:	-0.585	X_WP:	0.000	Y_WP:	0.000	Y_WP:	0.500	X:	0.100	Y:	0.093	Z:	0.402	yaw:	33.492	yaw rate:	-0.458	Roll:	4.485	Pitch:	0.840	Yaw:	48.083	Thrust:	41.641
Time:	5.238	Roll Set Point:	-0.235	Pitch Set Point:	-0.114	Yaw Set Point:	-0.585	X_WP:	0.000	Y_WP:	0.000	Y_WP:	0.500	X:	0.100	Y:	0.092	Z:	0.402	yaw:	33.511	yaw rate:	1.940	Roll:	4.439	Pitch:	0.686	Yaw:	48.678	Thrust:	42.083
Time:	5.253	Roll Set Point:	-0.235	Pitch Set Point:	-0.114	Yaw Set Point:	-0.585	X_WP:	0.000	Y_WP:	0.000	Y_WP:	0.500	X:	0.100	Y:	0.092	Z:	0.402	yaw:	33.511	yaw rate:	1.940	Roll:	4.488	Pitch:	0.803	Yaw:	48.353	Thrust:	42.195
Time:	5.269	Roll Set Point:	-0.235	Pitch Set Point:	-0.114	Yaw Set Point:	-0.585	X_WP:	0.000	Y_WP:	0.000	Y_WP:	0.500	X:	0.100	Y:	0.093	Z:	0.402	yaw:	33.490	yaw rate:	-1.519	Roll:	4.570	Pitch:	0.944	Yaw:	47.973	Thrust:	42.233
Time:	5.285	Roll Set Point:	-0.235	Pitch Set Point:	-0.114	Yaw Set Point:	-0.585	X_WP:	0.000	Y_WP:	0.000	Y_WP:	0.500	X:	0.100	Y:	0.093	Z:	0.402	yaw:	33.495	yaw rate:	0.492	Roll:	4.446	Pitch:	0.763	Yaw:	48.413	Thrust:	42.733
Time:	5.300	Roll Set Point:	-0.235	Pitch Set Point:	-0.114	Yaw Set Point:	-0.585	X_WP:	0.000	Y_WP:	0.000	Y_WP:	0.500	X:	0.100	Y:	0.093	Z:	0.402	yaw:	33.495	yaw rate:	0.492	Roll:	4.489	Pitch:	0.808	Yaw:	48.331	Thrust:	42.751
Time:	5.316	Roll Set Point:	-0.235	Pitch Set Point:	-0.114	Yaw Set Point:	-0.585	X_WP:	0.000	Y_WP:	0.000	Y_WP:	0.500	X:	0.100	Y:	0.093	Z:	0.402	yaw:	33.503	yaw rate:	-0.588	Roll:	4.496	Pitch:	0.798	Yaw:	48.465	Thrust:	42.815
Time:	5.331	Roll Set Point:	-0.235	Pitch Set Point:	-0.114	Yaw Set Point:	-0.585	X_WP:	0.000	Y_WP:	0.000	Y_WP:	0.500	X:	0.100	Y:	0.093	Z:	0.402	yaw:	33.503	yaw rate:	-0.588	Roll:	4.490	Pitch:	0.810	Yaw:	48.341	Thrust:	43.108
Time:	5.347	Roll Set Point:	-0.235	Pitch Set Point:	-0.114	Yaw Set Point:	-0.585	X_WP:	0.000	Y_WP:	0.000	Y_WP:	0.500	X:	0.100	Y:	0.093	Z:	0.402	yaw:	33.495	yaw rate:	0.976	Roll:	4.488	Pitch:	0.826	Yaw:	48.203	Thrust:	43.314
Time:	5.363	Roll Set Point:	-0.235	Pitch Set Point:	-0.114	Yaw Set Point:	-0.585	X_WP:	0.000	Y_WP:	0.000	Y_WP:	0.500	X:	0.100	Y:	0.093	Z:	0.402	yaw:	33.495	yaw rate:	0.976	Roll:	4.490	Pitch:	0.812	Yaw:	48.330	Thrust:	43.479
Time:	5.378	Roll Set Point:	-0.235	Pitch Set Point:	-0.114	Yaw Set Point:	-0.585	X_WP:	0.000	Y_WP:	0.000	Y_WP:	0.500	X:	0.100	Y:	0.093	Z:	0.402	yaw:	33.499	yaw rate:	-1.136	Roll:	4.480	Pitch:	0.794	Yaw:	48.398	Thrust:	43.771
Time:	5.394	Roll Set Point:	-0.235	Pitch Set Point:	-0.115	Yaw Set Point:	-0.584	X_WP:	0.000	Y_WP:	0.000	Y_WP:	0.500	X:	0.100	Y:	0.093	Z:	0.402	yaw:	33.466	yaw rate:	-3.284	Roll:	4.518	Pitch:	0.939	Yaw:	47.737	Thrust:	43.593
Time:	5.410	Roll Set Point:	-0.235	Pitch Set Point:	-0.115	Yaw Set Point:	-0.584	X_WP:	0.000	Y_WP:	0.000	Y_WP:	0.500	X:	0.100	Y:	0.093	Z:	0.402	yaw:	33.466	yaw rate:	-3.284	Roll:	4.490	Pitch:	0.817	Yaw:	48.290	Thrust:	44.029
Time:	5.425	Roll Set Point:	-0.235	Pitch Set Point:	-0.114	Yaw Set Point:	-0.585	X_WP:	0.000	Y_WP:	0.000	Y_WP:	0.500	X:	0.100	Y:	0.092	Z:	0.402	yaw:	33.521	yaw rate:	4.545	Roll:	4.432	Pitch:	0.582	Yaw:	49.297	Thrust:	44.388
Time:	5.441	Roll Set Point:	-0.235	Pitch Set Point:	-0.114	Yaw Set Point:	-0.585	X_WP:	0.000	Y_WP:	0.000	Y_WP:	0.500	X:	0.100	Y:	0.092	Z:	0.402	yaw:	33.499	yaw rate:	-2.217	Roll:	4.500	Pitch:	0.908	Yaw:	47.965	Thrust:	44.334
Time:	5.456	Roll Set Point:	-0.235	Pitch Set Point:	-0.114	Yaw Set Point:	-0.585	X_WP:	0.000	Y_WP:	0.000	Y_WP:	0.500	X:	0.100	Y:	0.092	Z:	0.402	yaw:	33.499	yaw rate:	-2.217	Roll:	4.489	Pitch:	0.816	Yaw:	48.337	Thrust:	44.590
Time:	5.472	Roll Set Point:	-0.235	Pitch Set Point:	-0.114	Yaw Set Point:	-0.584	X_WP:	0.000	Y_WP:	0.000	Y_WP:	0.500	X:	0.100	Y:	0.093	Z:	0.402	yaw:	33.488	yaw rate:	0.484	Roll:	4.556	Pitch:	0.913	Yaw:	48.142	Thrust:	44.859
Time:	5.488	Roll Set Point:	-0.235	Pitch Set Point:	-0.114	Yaw Set Point:	-0.585	X_WP:	0.000	Y_WP:	0.000	Y_WP:	0.500	X:	0.100	Y:	0.092	Z:	0.402	yaw:	33.514	yaw rate:	2.587	Roll:	4.431	Pitch:	0.671	Yaw:	48.788	Thrust:	44.820
Time:	5.503	Roll Set Point:	-0.235	Pitch Set Point:	-0.114	Yaw Set Point:	-0.584	X_WP:	0.000	Y_WP:	0.000	Y_WP:	0.500	X:	0.100	Y:	0.093	Z:	0.402	yaw:	33.488	yaw rate:	-2.652	Roll:	4.501	Pitch:	0.930	Yaw:	47.876	Thrust:	45.289
Time:	5.519	Roll Set Point:	-0.235	Pitch Set Point:	-0.114	Yaw Set Point:	-0.584	X_WP:	0.000	Y_WP:	0.000	Y_WP:	0.500	X:	0.100	Y:	0.093	Z:	0.402	yaw:	33.488	yaw rate:	-2.652	Roll:	4.489	Pitch:	0.821	Yaw:	48.320	Thrust:	45.315
Time:	5.535	Roll Set Point:	-0.235	Pitch Set Point:	-0.114	Yaw Set Point:	-0.585	X_WP:	0.000	Y_WP:	0.000	Y_WP:	0.500	X:	0.100	Y:	0.093	Z:	0.402	yaw:	33.496	yaw rate:	2.582	Roll:	4.531	Pitch:	0.825	Yaw:	48.481	Thrust:	45.444
Time:	5.550	Roll Set Point:	-0.235	Pitch Set Point:	-0.114	Yaw Set Point:	-0.585	X_WP:	0.000	Y_WP:	0.000	Y_WP:	0.500	X:	0.100	Y:	0.093	Z:	0.402	yaw:	33.496	yaw rate:	2.582	Roll:	4.490	Pitch:	0.823	Yaw:	48.332	Thrust:	45.673
Time:	5.566	Roll Set Point:	-0.235	Pitch Set Point:	-0.114	Yaw Set Point:	-0.585	X_WP:	0.000	Y_WP:	0.000	Y_WP:	0.500	X:	0.100	Y:	0.093	Z:	0.402	yaw:	33.494	yaw rate:	-0.271	Roll:	4.456	Pitch:	0.796	Yaw:	48.280	Thrust:	45.772
Time:	5.582	Roll Set Point:	-0.235	Pitch Set Point:	-0.114	Yaw Set Point:	-0.585	X_WP:	0.000	Y_WP:	0.000	Y_WP:	0.500	X:	0.100	Y:	0.092	Z:	0.402	yaw:	33.497	yaw rate:	0.033	Roll:	4.464	Pitch:	0.800	Yaw:	48.399	Thrust:	46.087
Time:	5.597	Roll Set Point:	-0.235	Pitch Set Point:	-0.114	Yaw Set Point:	-0.585	X_WP:	0.000	Y_WP:	0.000	Y_WP:	0.500	X:	0.100	Y:	0.092	Z:	0.402	yaw:	33.497	yaw rate:	0.033	Roll:	4.488	Pitch:	0.824	Yaw:	48.331	Thrust:	46.141
Time:	5.613	Roll Set Point:	-0.235	Pitch Set Point:	-0.114	Yaw Set Point:	-0.584	X_WP:	0.000	Y_WP:	0.000	Y_WP:	0.500	X:	0.100	Y:	0.093	Z:	0.402	yaw:	33.482	yaw rate:	-0.763	Roll:	4.500	Pitch:	0.891	Yaw:	48.050	Thrust:	46.496
Time:	5.628	Roll Set Point:	-0.235	Pitch Set Point:	-0.114	Yaw Set Point:	-0.585	X_WP:	0.000	Y_WP:	0.000	Y_WP:	0.500	X:	0.100	Y:	0.093	Z:	0.402	yaw:	33.511	yaw rate:	2.910	Roll:	4.505	Pitch:	0.722	Yaw:	48.839	Thrust:	46.483
Time:	5.644	Roll Set Point:	-0.235	Pitch Set Point:	-0.114	Yaw Set Point:	-0.584	X_WP:	0.000	Y_WP:	0.000	Y_WP:	0.500	X:	0.100	Y:	0.093	Z:	0.402	yaw:	33.476	yaw rate:	-3.442	Roll:	4.491	Pitch:	0.948	Yaw:	47.728	Thrust:	46.831
Time:	5.660	Roll Set Point:	-0.235	Pitch Set Point:	-0.114	Yaw Set Point:	-0.585	X_WP:	0.000	Y_WP:	0.000	Y_WP:	0.500	X:	0.100	Y:	0.093	Z:	0.402	yaw:	33.491	yaw rate:	1.453	Roll:	4.492	Pitch:	0.758	Yaw:	48.568	Thrust:	46.894
Time:	5.675	Roll Set Point:	-0.235	Pitch Set Point:	-0.114	Yaw Set Point:	-0.585	X_WP:	0.000	Y_WP:	0.000	Y_WP:	0.500	X:	0.100	Y:	0.093	Z:	0.402	yaw:	33.492	yaw rate:	0.101	Roll:	4.480	Pitch:	0.841	Yaw:	48.343	Thrust:	47.264
Time:	5.691	Roll Set Point:	-0.235	Pitch Set Point:	-0.114	Yaw Set Point:	-0.585	X_WP:	0.000	Y_WP:	0.000	Y_WP:	0.500	X:	0.100	Y:	0.093	Z:	0.402	yaw:	33.492	yaw rate:	0.101	Roll:	4.489	Pitch:	0.830	Yaw:	48.326	Thrust:	47.322
Time:	5.707	Roll Set Point:	-0.235	Pitch Set Point:	-0.114	Yaw Set Point:	-0.585	X_WP:	0.000	Y_WP:	0.000	Y_WP:	0.500	X:	0.100	Y:	0.093	Z:	0.402	yaw:	33.490	yaw rate:	0.891	Roll:	4.505	Pitch:	0.848	Yaw:	48.301	Thrust:	47.394
Time:	5.722	Roll Set Point:	-0.235	Pitch Set Point:	-0.114	Yaw Set Point:	-0.584	X_WP:	0.000	Y_WP:	0.000	Y_WP:	0.500	X:	0.100	Y:	0.093	Z:	0.402	yaw:	33.483	yaw rate:	-0.709	Roll:	4.495	Pitch:	0.868	Yaw:	48.197	Thrust:	47.765
Time:	5.738	Roll Set Point:	-0.235	Pitch Set Point:	-0.114	Yaw Set Point:	-0.584	X_WP:	0.000	Y_WP:	0.000	Y_WP:	0.500	X:	0.100	Y:	0.093	Z:	0.402	yaw:	33.488	yaw rate:	0.509	Roll:	4.453	Pitch:	0.795	Yaw:	48.406	Thrust:	47.993
Time:	5.753	Roll Set Point:	-0.235	Pitch Set Point:	-0.114	Yaw Set Point:	-0.585	X_WP:	0.000	Y_WP:	0.000	Y_WP:	0.500	X:	0.100	Y:	0.092	Z:	0.402	yaw:	33.502	yaw rate:	1.351	Roll:	4.488	Pitch:	0.781	Yaw:	48.566	Thrust:	47.940
Time:	5.769	Roll Set Point:	-0.235	Pitch Set Point:	-0.114	Yaw Set Point:	-0.585	X_WP:	0.000	Y_WP:	0.000	Y_WP:	0.500	X:	0.100	Y:	0.093	Z:	0.402	yaw:	33.501	yaw rate:	-0.055	Roll:	4.527	Pitch:	0.868	Yaw:	48.330	Thrust:	48.267
Time:	5.785	Roll Set Point:	-0.235	Pitch Set Point:	-0.114	Yaw Set Point:	-0.585	X_WP:	0.000	Y_WP:	0.000	Y_WP:	0.500	X:	0.100	Y:	0.093	Z:	0.402	yaw:	33.501	yaw rate:	-0.055	Roll:	4.490	Pitch:	0.835	Yaw:	48.340	Thrust:	48.432
Time:	5.800	Roll Set Point:	-0.235	Pitch Set Point:	-0.114	Yaw Set Point:	-0.585	X_WP:	0.000	Y_WP:	0.000	Y_WP:	0.500	X:	0.100	Y:	0.093	Z:	0.402	yaw:	33.503	yaw rate:	0.133	Roll:	4.499	Pitch:	0.812	Yaw:	48.366	Thrust:	48.559
Time:	5.816	Roll Set Point:	-0.235	Pitch Set Point:	-0.114	Yaw Set Point:	-0.585	X_WP:	0.000	Y_WP:	0.000	Y_WP:	0.500	X:	0.100	Y:	0.092	Z:	0.402	yaw:	33.501	yaw rate:	1.900	Roll:	4.441	Pitch:	0.806	Yaw:	48.312	Thrust:	48.803
Time:	5.832	Roll Set Point:	-0.235	Pitch Set Point:	-0.114	Yaw Set Point:	-0.585	X_WP:	0.000	Y_WP:	0.000	Y_WP:	0.500	X:	0.100	Y:	0.092	Z:	0.402	yaw:	33.501	yaw rate:	1.900	Roll:	4.489	Pitch:	0.836	Yaw:	48.339	Thrust:	48.973
Time:	5.847	Roll Set Point:	-0.235	Pitch Set Point:	-0.114	Yaw Set Point:	-0.584	X_WP:	0.000	Y_WP:	0.000	Y_WP:	0.500	X:	0.100	Y:	0.093	Z:	0.402	yaw:	33.485	yaw rate:	-0.614	Roll:	4.515	Pitch:	0.945	Yaw:	48.045	Thrust:	49.110
Time:	5.863	Roll Set Point:	-0.235	Pitch Set Point:	-0.114	Yaw Set Point:	-0.584	X_WP:	0.000	Y_WP:	0.000	Y_WP:	0.500	X:	0.100	Y:	0.093	Z:	0.402	yaw:	33.489	yaw rate:	0.375	Roll:	4.497	Pitch:	0.811	Yaw:	48.385	Thrust:	49.306
Time:	5.878	Roll Set Point:	-0.235	Pitch Set Point:	-0.114	Yaw Set Point:	-0.585	X_WP:	0.000	Y_WP:	0.000	Y_WP:	0.500	X:	0.100	Y:	0.093	Z:	0.402	yaw:	33.506	yaw rate:	1.753	Roll:	4.478	Pitch:	0.782	Yaw:	48.641	Thrust:	49.676
Time:	5.894	Roll Set Point:	-0.235	Pitch Set Point:	-0.114	Yaw Set Point:	-0.585	X_WP:	0.000	Y_WP:	0.000	Y_WP:	0.500	X:	0.100	Y:	0.093	Z:	0.402	yaw:	33.493	yaw rate:	-1.317	Roll:	4.481	Pitch:	0.868	Yaw:	48.106	Thrust:	49.643
Time:	5.910	Roll Set Point:	-0.235	Pitch Set Point:	-0.114	Yaw Set Point:	-0.585	X_WP:	0.000	Y_WP:	0.000	Y_WP:	0.500	X:	0.100	Y:	0.093	Z:	0.402	yaw:	33.490	yaw rate:	-0.297	Roll:	4.521	Pitch:	0.878	Yaw:	48.274	Thrust:	49.874
Time:	5.925	Roll Set Point:	-0.235	Pitch Set Point:	-0.114	Yaw Set Point:	-0.585	X_WP:	0.000	Y_WP:	0.000	Y_WP:	0.500	X:	0.100	Y:	0.093	Z:	0.402	yaw:	33.490	yaw rate:	-0.297	Roll:	4.490	Pitch:	0.843	Yaw:	48.324	Thrust:	50.072
Time:	5.941	Roll Set Point:	-0.235	Pitch Set Point:	-0.114	Yaw Set Point:	-0.585	X_WP:	0.000	Y_WP:	0.000	Y_WP:	0.500	X:	0.100	Y:	0.092	Z:	0.402	yaw:	33.506	yaw rate:	2.552	Roll:	4.457	Pitch:	0.768	Yaw:	48.614	Thrust:	50.206
Time:	5.957	Roll Set Point:	-0.235	Pitch Set Point:	-0.114	Yaw Set Point:	-0.585	X_WP:	0.000	Y_WP:	0.000	Y_WP:	0.500	X:	0.100	Y:	0.093	Z:	0.402	yaw:	33.527	yaw rate:	2.038	Roll:	4.502	Pitch:	0.808	Yaw:	48.716	Thrust:	50.539
Time:	5.972	Roll Set Point:	-0.235	Pitch Set Point:	-0.114	Yaw Set Point:	-0.585	X_WP:	0.000	Y_WP:	0.000	Y_WP:	0.500	X:	0.100	Y:	0.093	Z:	0.402	yaw:	33.496	yaw rate:	-3.029	Roll:	4.470	Pitch:	0.914	Yaw:	47.825	Thrust:	50.518
Time:	5.988	Roll Set Point:	-0.235	Pitch Set Point:	-0.114	Yaw Set Point:	-0.585	X_WP:	0.000	Y_WP:	0.000	Y_WP:	0.500	X:	0.100	Y:	0.093	Z:	0.402	yaw:	33.496	yaw rate:	-3.029	Roll:	4.489	Pitch:	0.846	Yaw:	48.333	Thrust:	50.823
Time:	6.003	Roll Set Point:	-0.081	Pitch Set Point:	-0.033	Yaw Set Point:	-0.585	X_WP:	0.084	Y_WP:	0.153	Y_WP:	0.500	X:	0.100	Y:	0.093	Z:	0.402	yaw:	33.507	yaw rate:	1.098	Roll:	-30.000	Pitch:	-30.000	Yaw:	48.531	Thrust:	51.044
Time:	6.019	Roll Set Point:	-0.081	Pitch Set Point:	-0.033	Yaw Set Point:	-0.584	X_WP:	0.084	Y_WP:	0.153	Y_WP:	0.500	X:	0.100	Y:	0.092	Z:	0.402	yaw:	33.486	yaw rate:	-1.167	Roll:	0.030	Pitch:	-1.514	Yaw:	47.954	Thrust:	51.169
Time:	6.035	Roll Set Point:	-0.081	Pitch Set Point:	-0.033	Yaw Set Point:	-0.584	X_WP:	0.084	Y_WP:	0.153	Y_WP:	0.500	X:	0.100	Y:	0.092	Z:	0.402	yaw:	33.486	yaw rate:	-1.167	Roll:	0.019	Pitch:	-1.511	Yaw:	48.317	Thrust:	51.352
Time:	6.050	Roll Set Point:	-0.081	Pitch Set Point:	-0.033	Yaw Set Point:	-0.585	X_WP:	0.084	Y_WP:	0.153	Y_WP:	0.500	X:	0.100	Y:	0.093	Z:	0.402	yaw:	33.490	yaw rate:	0.442	Roll:	0.026	Pitch:	-1.514	Yaw:	48.398	Thrust:	51.485
Time:	6.068	Roll Set Point:	-0.081	Pitch Set Point:	-0.033	Yaw Set Point:	-0.585	X_WP:	0.084	Y_WP:	0.153	Y_WP:	0.500	X:	0.100	Y:	0.093	Z:	0.402	yaw:	33.490	yaw rate:	0.007	Roll:	0.010	Pitch:	-1.514	Yaw:	48.324	Thrust:	51.670
Time:	6.097	Roll Set Point:	-0.081	Pitch Set Point:	-0.033	Yaw Set Point:	-0.585	X_WP:	0.084	Y_WP:	0.153	Y_WP:	0.500	X:	0.100	Y:	0.093	Z:	0.402	yaw:	33.511	yaw rate:	3.641	Roll:	0.567	Pitch:	-1.320	Yaw:	50.041	Thrust:	96.910
Time:	6.112	Roll Set Point:	-0.081	Pitch Set Point:	-0.033	Yaw Set Point:	-0.585	X_WP:	0.084	Y_WP:	0.153	Y_WP:	0.500	X:	0.100	Y:	0.093	Z:	0.402	yaw:	33.503	yaw rate:	0.333	Roll:	0.033	Pitch:	-1.524	Yaw:	48.202	Thrust:	51.837
Time:	6.128	Roll Set Point:	-0.081	Pitch Set Point:	-0.033	Yaw Set Point:	-0.584	X_WP:	0.084	Y_WP:	0.153	Y_WP:	0.500	X:	0.100	Y:	0.093	Z:	0.402	yaw:	33.478	yaw rate:	-2.521	Roll:	0.033	Pitch:	-1.527	Yaw:	47.884	Thrust:	52.271
Time:	6.143	Roll Set Point:	-0.081	Pitch Set Point:	-0.033	Yaw Set Point:	-0.585	X_WP:	0.084	Y_WP:	0.153	Y_WP:	0.500	X:	0.100	Y:	0.093	Z:	0.402	yaw:	33.523	yaw rate:	4.548	Roll:	-0.031	Pitch:	-1.511	Yaw:	49.132	Thrust:	52.586
Time:	6.159	Roll Set Point:	-0.081	Pitch Set Point:	-0.033	Yaw Set Point:	-0.584	X_WP:	0.084	Y_WP:	0.153	Y_WP:	0.500	X:	0.100	Y:	0.093	Z:	0.402	yaw:	33.487	yaw rate:	-3.612	Roll:	0.046	Pitch:	-1.537	Yaw:	47.715	Thrust:	52.564
Time:	6.175	Roll Set Point:	-0.081	Pitch Set Point:	-0.033	Yaw Set Point:	-0.584	X_WP:	0.084	Y_WP:	0.153	Y_WP:	0.500	X:	0.100	Y:	0.093	Z:	0.402	yaw:	33.479	yaw rate:	-0.840	Roll:	0.027	Pitch:	-1.533	Yaw:	48.170	Thrust:	52.813
Time:	6.190	Roll Set Point:	-0.081	Pitch Set Point:	-0.033	Yaw Set Point:	-0.585	X_WP:	0.084	Y_WP:	0.153	Y_WP:	0.500	X:	0.100	Y:	0.092	Z:	0.402	yaw:	33.499	yaw rate:	2.061	Roll:	-0.020	Pitch:	-1.520	Yaw:	48.682	Thrust:	52.995
Time:	6.206	Roll Set Point:	-0.081	Pitch Set Point:	-0.033	Yaw Set Point:	-0.585	X_WP:	0.084	Y_WP:	0.153	Y_WP:	0.500	X:	0.100	Y:	0.093	Z:	0.402	yaw:	33.507	yaw rate:	0.726	Roll:	0.011	Pitch:	-1.534	Yaw:	48.465	Thrust:	53.146
Time:	6.222	Roll Set Point:	-0.081	Pitch Set Point:	-0.033	Yaw Set Point:	-0.585	X_WP:	0.084	Y_WP:	0.153	Y_WP:	0.500	X:	0.100	Y:	0.093	Z:	0.402	yaw:	33.505	yaw rate:	-0.168	Roll:	0.011	Pitch:	-1.537	Yaw:	48.317	Thrust:	53.440
Time:	6.237	Roll Set Point:	-0.081	Pitch Set Point:	-0.033	Yaw Set Point:	-0.584	X_WP:	0.084	Y_WP:	0.153	Y_WP:	0.500	X:	0.100	Y:	0.093	Z:	0.402	yaw:	33.481	yaw rate:	-2.415	Roll:	0.047	Pitch:	-1.549	Yaw:	47.905	Thrust:	53.565
Time:	6.253	Roll Set Point:	-0.081	Pitch Set Point:	-0.033	Yaw Set Point:	-0.584	X_WP:	0.084	Y_WP:	0.153	Y_WP:	0.500	X:	0.100	Y:	0.093	Z:	0.402	yaw:	33.489	yaw rate:	0.793	Roll:	-0.001	Pitch:	-1.538	Yaw:	48.455	Thrust:	53.686
Time:	6.268	Roll Set Point:	-0.081	Pitch Set Point:	-0.033	Yaw Set Point:	-0.584	X_WP:	0.084	Y_WP:	0.153	Y_WP:	0.500	X:	0.100	Y:	0.093	Z:	0.402	yaw:	33.468	yaw rate:	-2.060	Roll:	0.037	Pitch:	-1.552	Yaw:	47.948	Thrust:	53.970
Time:	6.284	Roll Set Point:	-0.081	Pitch Set Point:	-0.033	Yaw Set Point:	-0.584	X_WP:	0.084	Y_WP:	0.153	Y_WP:	0.500	X:	0.100	Y:	0.093	Z:	0.402	yaw:	33.468	yaw rate:	-2.060	Roll:	0.009	Pitch:	-1.546	Yaw:	48.293	Thrust:	54.095
