Time:	2.470	Roll Set Point:	-0.069	Pitch Set Point:	0.032	Yaw Set Point:	-2.497	X_WP:	0.000	Y_WP:	0.000	Y_WP:	0.500	X:	0.082	Y:	0.087	Z:	0.400	yaw:	143.044	yaw rate:	12.107	Roll:	-0.393	Pitch:	-3.449	Yaw:	199.727	Thrust:	5.509
Time:	2.501	Roll Set Point:	-0.069	Pitch Set Point:	0.032	Yaw Set Point:	-2.495	X_WP:	0.000	Y_WP:	0.000	Y_WP:	0.500	X:	0.082	Y:	0.087	Z:	0.400	yaw:	142.966	yaw rate:	6.578	Roll:	-0.320	Pitch:	-3.429	Yaw:	200.532	Thrust:	5.846
Time:	2.533	Roll Set Point:	-0.069	Pitch Set Point:	0.032	Yaw Set Point:	-2.492	X_WP:	0.000	Y_WP:	0.000	Y_WP:	0.500	X:	0.082	Y:	0.087	Z:	0.400	yaw:	142.794	yaw rate:	-17.208	Roll:	-0.188	Pitch:	-3.467	Yaw:	201.057	Thrust:	6.189
Time:	2.564	Roll Set Point:	-0.069	Pitch Set Point:	0.032	Yaw Set Point:	-2.497	X_WP:	0.000	Y_WP:	0.000	Y_WP:	0.500	X:	0.082	Y:	0.087	Z:	0.400	yaw:	143.095	yaw rate:	30.029	Roll:	-0.828	Pitch:	-3.443	Yaw:	205.438	Thrust:	6.503
Time:	2.595	Roll Set Point:	-0.069	Pitch Set Point:	0.032	Yaw Set Point:	-2.494	X_WP:	0.000	Y_WP:	0.000	Y_WP:	0.500	X:	0.082	Y:	0.087	Z:	0.400	yaw:	142.887	yaw rate:	-20.808	Roll:	-0.085	Pitch:	-3.518	Yaw:	200.890	Thrust:	7.155
Time:	2.626	Roll Set Point:	-0.069	Pitch Set Point:	0.032	Yaw Set Point:	-2.492	X_WP:	0.000	Y_WP:	0.000	Y_WP:	0.500	X:	0.082	Y:	0.087	Z:	0.400	yaw:	142.794	yaw rate:	-9.240	Roll:	-0.275	Pitch:	-3.460	Yaw:	201.729	Thrust:	7.304
Time:	2.658	Roll Set Point:	-0.069	Pitch Set Point:	0.032	Yaw Set Point:	-2.492	X_WP:	0.000	Y_WP:	0.000	Y_WP:	0.500	X:	0.082	Y:	0.087	Z:	0.400	yaw:	142.774	yaw rate:	-13.756	Roll:	-0.350	Pitch:	-3.524	Yaw:	202.306	Thrust:	7.799
Time:	2.689	Roll Set Point:	-0.069	Pitch Set Point:	0.032	Yaw Set Point:	-2.496	X_WP:	0.000	Y_WP:	0.000	Y_WP:	0.500	X:	0.082	Y:	0.087	Z:	0.400	yaw:	143.032	yaw rate:	26.684	Roll:	-0.666	Pitch:	-3.523	Yaw:	205.002	Thrust:	8.191
Time:	2.720	Roll Set Point:	-0.069	Pitch Set Point:	0.032	Yaw Set Point:	-2.495	X_WP:	0.000	Y_WP:	0.000	Y_WP:	0.500	X:	0.082	Y:	0.087	Z:	0.400	yaw:	142.966	yaw rate:	-6.692	Roll:	-0.354	Pitch:	-3.532	Yaw:	202.182	Thrust:	8.549
Time:	2.751	Roll Set Point:	-0.069	Pitch Set Point:	0.032	Yaw Set Point:	-2.497	X_WP:	0.000	Y_WP:	0.000	Y_WP:	0.500	X:	0.082	Y:	0.087	Z:	0.400	yaw:	143.094	yaw rate:	-0.046	Roll:	-0.618	Pitch:	-3.487	Yaw:	203.997	Thrust:	8.654
Time:	2.783	Roll Set Point:	-0.069	Pitch Set Point:	0.032	Yaw Set Point:	-2.496	X_WP:	0.000	Y_WP:	0.000	Y_WP:	0.500	X:	0.082	Y:	0.087	Z:	0.400	yaw:	142.985	yaw rate:	-13.189	Roll:	-0.220	Pitch:	-3.578	Yaw:	201.859	Thrust:	9.509
Time:	2.814	Roll Set Point:	-0.069	Pitch Set Point:	0.032	Yaw Set Point:	-2.494	X_WP:	0.000	Y_WP:	0.000	Y_WP:	0.500	X:	0.082	Y:	0.087	Z:	0.400	yaw:	142.901	yaw rate:	-8.437	Roll:	-0.312	Pitch:	-3.529	Yaw:	201.945	Thrust:	9.519
Time:	2.845	Roll Set Point:	-0.069	Pitch Set Point:	0.032	Yaw Set Point:	-2.495	X_WP:	0.000	Y_WP:	0.000	Y_WP:	0.500	X:	0.082	Y:	0.087	Z:	0.400	yaw:	142.930	yaw rate:	12.625	Roll:	-0.428	Pitch:	-3.571	Yaw:	202.937	Thrust:	10.081
Time:	2.876	Roll Set Point:	-0.069	Pitch Set Point:	0.032	Yaw Set Point:	-2.492	X_WP:	0.000	Y_WP:	0.000	Y_WP:	0.500	X:	0.082	Y:	0.087	Z:	0.400	yaw:	142.794	yaw rate:	-13.540	Roll:	-0.257	Pitch:	-3.543	Yaw:	201.369	Thrust:	10.287
Time:	2.908	Roll Set Point:	-0.069	Pitch Set Point:	0.032	Yaw Set Point:	-2.494	X_WP:	0.000	Y_WP:	0.000	Y_WP:	0.500	X:	0.082	Y:	0.087	Z:	0.400	yaw:	142.904	yaw rate:	14.012	Roll:	-0.484	Pitch:	-3.608	Yaw:	203.578	Thrust:	10.861
Time:	2.939	Roll Set Point:	-0.069	Pitch Set Point:	0.032	Yaw Set Point:	-2.495	X_WP:	0.000	Y_WP:	0.000	Y_WP:	0.500	X:	0.082	Y:	0.087	Z:	0.400	yaw:	142.937	yaw rate:	12.688	Roll:	-0.449	Pitch:	-3.578	Yaw:	202.981	Thrust:	11.158
Time:	2.970	Roll Set Point:	-0.069	Pitch Set Point:	0.032	Yaw Set Point:	-2.492	X_WP:	0.000	Y_WP:	0.000	Y_WP:	0.500	X:	0.082	Y:	0.087	Z:	0.400	yaw:	142.802	yaw rate:	-13.494	Roll:	-0.284	Pitch:	-3.581	Yaw:	201.385	Thrust:	11.334
Time:	3.001	Roll Set Point:	-0.069	Pitch Set Point:	0.032	Yaw Set Point:	-2.492	X_WP:	0.000	Y_WP:	0.000	Y_WP:	0.500	X:	0.082	Y:	0.087	Z:	0.400	yaw:	142.808	yaw rate:	0.608	Roll:	-0.389	Pitch:	-3.596	Yaw:	202.571	Thrust:	11.948
Time:	3.033	Roll Set Point:	-0.069	Pitch Set Point:	0.032	Yaw Set Point:	-2.493	X_WP:	0.000	Y_WP:	0.000	Y_WP:	0.500	X:	0.082	Y:	0.087	Z:	0.400	yaw:	142.844	yaw rate:	7.345	Roll:	-0.419	Pitch:	-3.634	Yaw:	202.873	Thrust:	12.257
Time:	3.064	Roll Set Point:	-0.069	Pitch Set Point:	0.032	Yaw Set Point:	-2.498	X_WP:	0.000	Y_WP:	0.000	Y_WP:	0.500	X:	0.082	Y:	0.087	Z:	0.400	yaw:	143.110	yaw rate:	26.620	Roll:	-0.805	Pitch:	-3.599	Yaw:	205.176	Thrust:	12.567
Time:	3.095	Roll Set Point:	-0.069	Pitch Set Point:	0.032	Yaw Set Point:	-2.492	X_WP:	0.000	Y_WP:	0.000	Y_WP:	0.500	X:	0.082	Y:	0.087	Z:	0.400	yaw:	142.773	yaw rate:	-33.581	Roll:	0.114	Pitch:	-3.656	Yaw:	199.640	Thrust:	13.178
Time:	3.126	Roll Set Point:	-0.069	Pitch Set Point:	0.032	Yaw Set Point:	-2.493	X_WP:	0.000	Y_WP:	0.000	Y_WP:	0.500	X:	0.082	Y:	0.087	Z:	0.400	yaw:	142.854	yaw rate:	8.159	Roll:	-0.543	Pitch:	-3.637	Yaw:	203.273	Thrust:	13.370
Time:	3.158	Roll Set Point:	-0.069	Pitch Set Point:	0.032	Yaw Set Point:	-2.492	X_WP:	0.000	Y_WP:	0.000	Y_WP:	0.500	X:	0.082	Y:	0.087	Z:	0.400	yaw:	142.780	yaw rate:	-1.014	Roll:	-0.310	Pitch:	-3.659	Yaw:	201.859	Thrust:	13.726
Time:	3.189	Roll Set Point:	-0.069	Pitch Set Point:	0.032	Yaw Set Point:	-2.494	X_WP:	0.000	Y_WP:	0.000	Y_WP:	0.500	X:	0.082	Y:	0.087	Z:	0.400	yaw:	142.898	yaw rate:	11.788	Roll:	-0.559	Pitch:	-3.665	Yaw:	203.637	Thrust:	14.221
Time:	3.223	Roll Set Point:	-0.069	Pitch Set Point:	0.032	Yaw Set Point:	-2.494	X_WP:	0.000	Y_WP:	0.000	Y_WP:	0.500	X:	0.082	Y:	0.087	Z:	0.400	yaw:	142.868	yaw rate:	-2.976	Roll:	-0.359	Pitch:	-3.684	Yaw:	202.642	Thrust:	15.231
Time:	3.255	Roll Set Point:	-0.069	Pitch Set Point:	0.032	Yaw Set Point:	-2.494	X_WP:	0.000	Y_WP:	0.000	Y_WP:	0.500	X:	0.082	Y:	0.087	Z:	0.400	yaw:	142.889	yaw rate:	2.073	Roll:	-0.456	Pitch:	-3.678	Yaw:	202.932	Thrust:	15.283
Time:	3.287	Roll Set Point:	-0.069	Pitch Set Point:	0.032	Yaw Set Point:	-2.495	X_WP:	0.000	Y_WP:	0.000	Y_WP:	0.500	X:	0.082	Y:	0.087	Z:	0.400	yaw:	142.951	yaw rate:	6.184	Roll:	-0.462	Pitch:	-3.697	Yaw:	203.240	Thrust:	15.246
Time:	3.318	Roll Set Point:	-0.069	Pitch Set Point:	0.032	Yaw Set Point:	-2.493	X_WP:	0.000	Y_WP:	0.000	Y_WP:	0.500	X:	0.082	Y:	0.087	Z:	0.400	yaw:	142.840	yaw rate:	-11.071	Roll:	-0.301	Pitch:	-3.695	Yaw:	201.640	Thrust:	15.617
Time:	3.349	Roll Set Point:	-0.069	Pitch Set Point:	0.032	Yaw Set Point:	-2.498	X_WP:	0.000	Y_WP:	0.000	Y_WP:	0.500	X:	0.082	Y:	0.087	Z:	0.400	yaw:	143.109	yaw rate:	26.888	Roll:	-0.815	Pitch:	-3.676	Yaw:	205.196	Thrust:	15.863
Time:	3.380	Roll Set Point:	-0.069	Pitch Set Point:	0.032	Yaw Set Point:	-2.494	X_WP:	0.000	Y_WP:	0.000	Y_WP:	0.500	X:	0.082	Y:	0.087	Z:	0.400	yaw:	142.916	yaw rate:	-19.259	Roll:	-0.070	Pitch:	-3.793	Yaw:	201.061	Thrust:	16.730
Time:	3.412	Roll Set Point:	-0.069	Pitch Set Point:	0.032	Yaw Set Point:	-2.492	X_WP:	0.000	Y_WP:	0.000	Y_WP:	0.500	X:	0.082	Y:	0.087	Z:	0.400	yaw:	142.787	yaw rate:	-11.677	Roll:	-0.302	Pitch:	-3.681	Yaw:	201.411	Thrust:	16.605
Time:	3.440	Roll Set Point:	-0.069	Pitch Set Point:	0.032	Yaw Set Point:	-2.498	X_WP:	0.000	Y_WP:	0.000	Y_WP:	0.500	X:	0.082	Y:	0.087	Z:	0.400	yaw:	143.109	yaw rate:	16.546	Roll:	-0.907	Pitch:	-3.703	Yaw:	205.625	Thrust:	16.060
Time:	3.473	Roll Set Point:	-0.069	Pitch Set Point:	0.032	Yaw Set Point:	-2.493	X_WP:	0.000	Y_WP:	0.000	Y_WP:	0.500	X:	0.082	Y:	0.087	Z:	0.400	yaw:	142.815	yaw rate:	4.538	Roll:	-0.071	Pitch:	-3.745	Yaw:	200.283	Thrust:	18.011
Time:	3.510	Roll Set Point:	-0.069	Pitch Set Point:	0.032	Yaw Set Point:	-2.496	X_WP:	0.000	Y_WP:	0.000	Y_WP:	0.500	X:	0.082	Y:	0.087	Z:	0.400	yaw:	143.037	yaw rate:	22.174	Roll:	-0.584	Pitch:	-3.847	Yaw:	204.983	Thrust:	20.272
Time:	3.541	Roll Set Point:	-0.069	Pitch Set Point:	0.032	Yaw Set Point:	-2.495	X_WP:	0.000	Y_WP:	0.000	Y_WP:	0.500	X:	0.082	Y:	0.087	Z:	0.400	yaw:	142.949	yaw rate:	11.226	Roll:	-0.313	Pitch:	-3.757	Yaw:	201.982	Thrust:	18.335
Time:	3.572	Roll Set Point:	-0.069	Pitch Set Point:	0.032	Yaw Set Point:	-2.495	X_WP:	0.000	Y_WP:	0.000	Y_WP:	0.500	X:	0.082	Y:	0.087	Z:	0.400	yaw:	142.977	yaw rate:	19.153	Roll:	-0.486	Pitch:	-3.770	Yaw:	202.994	Thrust:	18.579
Time:	3.604	Roll Set Point:	-0.069	Pitch Set Point:	0.032	Yaw Set Point:	-2.498	X_WP:	0.000	Y_WP:	0.000	Y_WP:	0.500	X:	0.082	Y:	0.087	Z:	0.400	yaw:	143.115	yaw rate:	13.800	Roll:	-0.679	Pitch:	-3.746	Yaw:	204.107	Thrust:	18.868
Time:	3.635	Roll Set Point:	-0.069	Pitch Set Point:	0.032	Yaw Set Point:	-2.494	X_WP:	0.000	Y_WP:	0.000	Y_WP:	0.500	X:	0.082	Y:	0.087	Z:	0.400	yaw:	142.904	yaw rate:	-21.130	Roll:	-0.107	Pitch:	-3.821	Yaw:	200.886	Thrust:	19.539
Time:	3.666	Roll Set Point:	-0.069	Pitch Set Point:	0.032	Yaw Set Point:	-2.498	X_WP:	0.000	Y_WP:	0.000	Y_WP:	0.500	X:	0.082	Y:	0.087	Z:	0.400	yaw:	143.113	yaw rate:	2.439	Roll:	-0.749	Pitch:	-3.770	Yaw:	204.699	Thrust:	19.571
Time:	3.697	Roll Set Point:	-0.069	Pitch Set Point:	0.032	Yaw Set Point:	-2.492	X_WP:	0.000	Y_WP:	0.000	Y_WP:	0.500	X:	0.082	Y:	0.087	Z:	0.400	yaw:	142.791	yaw rate:	-32.174	Roll:	0.003	Pitch:	-3.821	Yaw:	199.804	Thrust:	20.244
Time:	3.729	Roll Set Point:	-0.069	Pitch Set Point:	0.032	Yaw Set Point:	-2.492	X_WP:	0.000	Y_WP:	0.000	Y_WP:	0.500	X:	0.082	Y:	0.087	Z:	0.400	yaw:	142.801	yaw rate:	1.013	Roll:	-0.461	Pitch:	-3.808	Yaw:	202.598	Thrust:	20.513
Time:	3.760	Roll Set Point:	-0.069	Pitch Set Point:	0.032	Yaw Set Point:	-2.498	X_WP:	0.000	Y_WP:	0.000	Y_WP:	0.500	X:	0.082	Y:	0.087	Z:	0.400	yaw:	143.109	yaw rate:	14.226	Roll:	-0.834	Pitch:	-3.824	Yaw:	205.521	Thrust:	20.763
Time:	3.791	Roll Set Point:	-0.070	Pitch Set Point:	0.032	Yaw Set Point:	-2.483	X_WP:	0.000	Y_WP:	0.000	Y_WP:	0.500	X:	0.082	Y:	0.087	Z:	0.400	yaw:	142.268	yaw rate:	-84.035	Roll:	0.773	Pitch:	-3.887	Yaw:	194.730	Thrust:	21.952
Time:	3.822	Roll Set Point:	-0.069	Pitch Set Point:	0.032	Yaw Set Point:	-2.492	X_WP:	0.000	Y_WP:	0.000	Y_WP:	0.500	X:	0.082	Y:	0.087	Z:	0.400	yaw:	142.792	yaw rate:	56.224	Roll:	-1.150	Pitch:	-3.811	Yaw:	206.889	Thrust:	21.175
Time:	3.854	Roll Set Point:	-0.069	Pitch Set Point:	0.032	Yaw Set Point:	-2.492	X_WP:	0.000	Y_WP:	0.000	Y_WP:	0.500	X:	0.082	Y:	0.087	Z:	0.400	yaw:	142.804	yaw rate:	1.136	Roll:	-0.473	Pitch:	-3.841	Yaw:	202.612	Thrust:	21.961
Time:	3.885	Roll Set Point:	-0.069	Pitch Set Point:	0.032	Yaw Set Point:	-2.496	X_WP:	0.000	Y_WP:	0.000	Y_WP:	0.500	X:	0.082	Y:	0.087	Z:	0.400	yaw:	143.002	yaw rate:	22.005	Roll:	-0.612	Pitch:	-3.914	Yaw:	204.456	Thrust:	22.505
Time:	3.916	Roll Set Point:	-0.069	Pitch Set Point:	0.032	Yaw Set Point:	-2.498	X_WP:	0.000	Y_WP:	0.000	Y_WP:	0.500	X:	0.082	Y:	0.087	Z:	0.400	yaw:	143.099	yaw rate:	9.654	Roll:	-0.662	Pitch:	-3.825	Yaw:	203.737	Thrust:	22.628
Time:	3.947	Roll Set Point:	-0.069	Pitch Set Point:	0.032	Yaw Set Point:	-2.497	X_WP:	0.000	Y_WP:	0.000	Y_WP:	0.500	X:	0.082	Y:	0.087	Z:	0.400	yaw:	143.047	yaw rate:	16.203	Roll:	-0.287	Pitch:	-3.924	Yaw:	202.427	Thrust:	23.355
Time:	3.979	Roll Set Point:	-0.069	Pitch Set Point:	0.032	Yaw Set Point:	-2.492	X_WP:	0.000	Y_WP:	0.000	Y_WP:	0.500	X:	0.082	Y:	0.087	Z:	0.400	yaw:	142.758	yaw rate:	-28.963	Roll:	-0.107	Pitch:	-3.867	Yaw:	200.027	Thrust:	23.479
Time:	4.010	Roll Set Point:	-0.069	Pitch Set Point:	0.032	Yaw Set Point:	-2.498	X_WP:	0.000	Y_WP:	0.000	Y_WP:	0.500	X:	0.082	Y:	0.087	Z:	0.400	yaw:	143.152	yaw rate:	39.397	Roll:	-0.858	Pitch:	-3.956	Yaw:	206.303	Thrust:	23.962
Time:	4.041	Roll Set Point:	-0.069	Pitch Set Point:	0.032	Yaw Set Point:	-2.494	X_WP:	0.000	Y_WP:	0.000	Y_WP:	0.500	X:	0.082	Y:	0.087	Z:	0.400	yaw:	142.907	yaw rate:	-24.414	Roll:	-0.212	Pitch:	-3.867	Yaw:	200.617	Thrust:	24.250
Time:	4.072	Roll Set Point:	-0.069	Pitch Set Point:	0.032	Yaw Set Point:	-2.498	X_WP:	0.000	Y_WP:	0.000	Y_WP:	0.500	X:	0.082	Y:	0.087	Z:	0.400	yaw:	143.114	yaw rate:	20.933	Roll:	-0.732	Pitch:	-3.898	Yaw:	204.679	Thrust:	24.425
Time:	4.104	Roll Set Point:	-0.069	Pitch Set Point:	0.032	Yaw Set Point:	-2.495	X_WP:	0.000	Y_WP:	0.000	Y_WP:	0.500	X:	0.082	Y:	0.087	Z:	0.400	yaw:	142.959	yaw rate:	-15.465	Roll:	-0.220	Pitch:	-3.958	Yaw:	201.438	Thrust:	25.270
Time:	4.135	Roll Set Point:	-0.069	Pitch Set Point:	0.032	Yaw Set Point:	-2.498	X_WP:	0.000	Y_WP:	0.000	Y_WP:	0.500	X:	0.082	Y:	0.087	Z:	0.400	yaw:	143.129	yaw rate:	21.897	Roll:	-0.605	Pitch:	-3.975	Yaw:	204.389	Thrust:	25.429
Time:	4.166	Roll Set Point:	-0.069	Pitch Set Point:	0.032	Yaw Set Point:	-2.497	X_WP:	0.000	Y_WP:	0.000	Y_WP:	0.500	X:	0.082	Y:	0.087	Z:	0.400	yaw:	143.088	yaw rate:	-2.225	Roll:	-0.526	Pitch:	-3.879	Yaw:	202.577	Thrust:	25.521
Time:	4.197	Roll Set Point:	-0.069	Pitch Set Point:	0.032	Yaw Set Point:	-2.495	X_WP:	0.000	Y_WP:	0.000	Y_WP:	0.500	X:	0.082	Y:	0.087	Z:	0.400	yaw:	142.980	yaw rate:	-10.834	Roll:	-0.242	Pitch:	-3.999	Yaw:	201.856	Thrust:	26.283
Time:	4.229	Roll Set Point:	-0.069	Pitch Set Point:	0.032	Yaw Set Point:	-2.498	X_WP:	0.000	Y_WP:	0.000	Y_WP:	0.500	X:	0.082	Y:	0.087	Z:	0.400	yaw:	143.104	yaw rate:	12.765	Roll:	-0.681	Pitch:	-3.929	Yaw:	203.977	Thrust:	26.391
Time:	4.260	Roll Set Point:	-0.069	Pitch Set Point:	0.032	Yaw Set Point:	-2.497	X_WP:	0.000	Y_WP:	0.000	Y_WP:	0.500	X:	0.082	Y:	0.087	Z:	0.400	yaw:	143.087	yaw rate:	-1.715	Roll:	-0.421	Pitch:	-3.995	Yaw:	202.769	Thrust:	26.915
Time:	4.291	Roll Set Point:	-0.069	Pitch Set Point:	0.032	Yaw Set Point:	-2.494	X_WP:	0.000	Y_WP:	0.000	Y_WP:	0.500	X:	0.082	Y:	0.087	Z:	0.400	yaw:	142.915	yaw rate:	-17.794	Roll:	-0.188	Pitch:	-3.991	Yaw:	201.229	Thrust:	27.455
Time:	4.322	Roll Set Point:	-0.069	Pitch Set Point:	0.032	Yaw Set Point:	-2.497	X_WP:	0.000	Y_WP:	0.000	Y_WP:	0.500	X:	0.082	Y:	0.087	Z:	0.400	yaw:	143.071	yaw rate:	29.929	Roll:	-0.626	Pitch:	-4.018	Yaw:	204.204	Thrust:	27.681
Time:	4.354	Roll Set Point:	-0.069	Pitch Set Point:	0.032	Yaw Set Point:	-2.498	X_WP:	0.000	Y_WP:	0.000	Y_WP:	0.500	X:	0.082	Y:	0.087	Z:	0.400	yaw:	143.101	yaw rate:	3.001	Roll:	-0.600	Pitch:	-3.946	Yaw:	203.184	Thrust:	27.838
Time:	4.385	Roll Set Point:	-0.069	Pitch Set Point:	0.032	Yaw Set Point:	-2.492	X_WP:	0.000	Y_WP:	0.000	Y_WP:	0.500	X:	0.082	Y:	0.087	Z:	0.400	yaw:	142.808	yaw rate:	-14.567	Roll:	-0.061	Pitch:	-4.037	Yaw:	200.061	Thrust:	28.437
Time:	4.420	Roll Set Point:	-0.069	Pitch Set Point:	0.032	Yaw Set Point:	-2.497	X_WP:	0.000	Y_WP:	0.000	Y_WP:	0.500	X:	0.082	Y:	0.087	Z:	0.400	yaw:	143.088	yaw rate:	18.654	Roll:	-0.799	Pitch:	-4.076	Yaw:	205.381	Thrust:	31.439
Time:	4.455	Roll Set Point:	-0.069	Pitch Set Point:	0.032	Yaw Set Point:	-2.494	X_WP:	0.000	Y_WP:	0.000	Y_WP:	0.500	X:	0.082	Y:	0.087	Z:	0.400	yaw:	142.890	yaw rate:	-19.742	Roll:	-0.159	Pitch:	-4.150	Yaw:	201.578	Thrust:	32.458
Time:	4.488	Roll Set Point:	-0.069	Pitch Set Point:	0.032	Yaw Set Point:	-2.495	X_WP:	0.000	Y_WP:	0.000	Y_WP:	0.500	X:	0.082	Y:	0.087	Z:	0.400	yaw:	142.981	yaw rate:	9.066	Roll:	-0.604	Pitch:	-4.026	Yaw:	203.544	Thrust:	29.697
Time:	4.520	Roll Set Point:	-0.069	Pitch Set Point:	0.032	Yaw Set Point:	-2.495	X_WP:	0.000	Y_WP:	0.000	Y_WP:	0.500	X:	0.082	Y:	0.087	Z:	0.400	yaw:	142.929	yaw rate:	-5.193	Roll:	-0.376	Pitch:	-4.102	Yaw:	202.475	Thrust:	31.425
Time:	4.551	Roll Set Point:	-0.069	Pitch Set Point:	0.032	Yaw Set Point:	-2.494	X_WP:	0.000	Y_WP:	0.000	Y_WP:	0.500	X:	0.082	Y:	0.087	Z:	0.400	yaw:	142.912	yaw rate:	-0.083	Roll:	-0.449	Pitch:	-4.051	Yaw:	202.519	Thrust:	30.190
Time:	4.582	Roll Set Point:	-0.069	Pitch Set Point:	0.032	Yaw Set Point:	-2.497	X_WP:	0.000	Y_WP:	0.000	Y_WP:	0.500	X:	0.082	Y:	0.087	Z:	0.400	yaw:	143.086	yaw rate:	17.413	Roll:	-0.736	Pitch:	-4.053	Yaw:	204.371	Thrust:	30.596
Time:	4.614	Roll Set Point:	-0.069	Pitch Set Point:	0.032	Yaw Set Point:	-2.498	X_WP:	0.000	Y_WP:	0.000	Y_WP:	0.500	X:	0.082	Y:	0.087	Z:	0.400	yaw:	143.098	yaw rate:	1.208	Roll:	-0.478	Pitch:	-4.062	Yaw:	203.029	Thrust:	30.987
Time:	4.645	Roll Set Point:	-0.069	Pitch Set Point:	0.032	Yaw Set Point:	-2.495	X_WP:	0.000	Y_WP:	0.000	Y_WP:	0.500	X:	0.082	Y:	0.087	Z:	0.400	yaw:	142.938	yaw rate:	13.942	Roll:	-0.201	Pitch:	-4.120	Yaw:	201.370	Thrust:	31.585
Time:	4.676	Roll Set Point:	-0.069	Pitch Set Point:	0.032	Yaw Set Point:	-2.494	X_WP:	0.000	Y_WP:	0.000	Y_WP:	0.500	X:	0.082	Y:	0.087	Z:	0.400	yaw:	142.876	yaw rate:	-6.209	Roll:	-0.407	Pitch:	-4.102	Yaw:	202.098	Thrust:	31.818
Time:	4.707	Roll Set Point:	-0.069	Pitch Set Point:	0.032	Yaw Set Point:	-2.498	X_WP:	0.000	Y_WP:	0.000	Y_WP:	0.500	X:	0.082	Y:	0.087	Z:	0.400	yaw:	143.111	yaw rate:	1.203	Roll:	-0.877	Pitch:	-4.062	Yaw:	204.915	Thrust:	31.769
Time:	4.739	Roll Set Point:	-0.069	Pitch Set Point:	0.032	Yaw Set Point:	-2.497	X_WP:	0.000	Y_WP:	0.000	Y_WP:	0.500	X:	0.082	Y:	0.087	Z:	0.400	yaw:	143.085	yaw rate:	-2.660	Roll:	-0.381	Pitch:	-4.129	Yaw:	202.683	Thrust:	32.665
Time:	4.770	Roll Set Point:	-0.069	Pitch Set Point:	0.032	Yaw Set Point:	-2.497	X_WP:	0.000	Y_WP:	0.000	Y_WP:	0.500	X:	0.082	Y:	0.087	Z:	0.400	yaw:	143.089	yaw rate:	0.468	Roll:	-0.479	Pitch:	-4.126	Yaw:	202.955	Thrust:	32.917
Time:	4.801	Roll Set Point:	-0.069	Pitch Set Point:	0.032	Yaw Set Point:	-2.495	X_WP:	0.000	Y_WP:	0.000	Y_WP:	0.500	X:	0.082	Y:	0.087	Z:	0.400	yaw:	142.954	yaw rate:	-13.445	Roll:	-0.238	Pitch:	-4.160	Yaw:	201.594	Thrust:	33.481
Time:	4.832	Roll Set Point:	-0.069	Pitch Set Point:	0.032	Yaw Set Point:	-2.495	X_WP:	0.000	Y_WP:	0.000	Y_WP:	0.500	X:	0.082	Y:	0.087	Z:	0.400	yaw:	142.959	yaw rate:	0.437	Roll:	-0.487	Pitch:	-4.137	Yaw:	202.770	Thrust:	33.623
Time:	4.864	Roll Set Point:	-0.069	Pitch Set Point:	0.032	Yaw Set Point:	-2.495	X_WP:	0.000	Y_WP:	0.000	Y_WP:	0.500	X:	0.082	Y:	0.087	Z:	0.400	yaw:	142.944	yaw rate:	-1.439	Roll:	-0.435	Pitch:	-4.154	Yaw:	202.593	Thrust:	34.016
Time:	4.895	Roll Set Point:	-0.069	Pitch Set Point:	0.032	Yaw Set Point:	-2.494	X_WP:	0.000	Y_WP:	0.000	Y_WP:	0.500	X:	0.082	Y:	0.087	Z:	0.400	yaw:	142.894	yaw rate:	-4.978	Roll:	-0.415	Pitch:	-4.161	Yaw:	202.227	Thrust:	34.457
Time:	4.926	Roll Set Point:	-0.069	Pitch Set Point:	0.032	Yaw Set Point:	-2.492	X_WP:	0.000	Y_WP:	0.000	Y_WP:	0.500	X:	0.082	Y:	0.087	Z:	0.400	yaw:	142.771	yaw rate:	-12.362	Roll:	-0.321	Pitch:	-4.170	Yaw:	201.435	Thrust:	34.769
Time:	4.957	Roll Set Point:	-0.069	Pitch Set Point:	0.032	Yaw Set Point:	-2.495	X_WP:	0.000	Y_WP:	0.000	Y_WP:	0.500	X:	0.082	Y:	0.087	Z:	0.400	yaw:	142.973	yaw rate:	-12.205	Roll:	-0.695	Pitch:	-4.192	Yaw:	204.446	Thrust:	35.218
Time:	4.989	Roll Set Point:	-0.069	Pitch Set Point:	0.032	Yaw Set Point:	-2.494	X_WP:	0.000	Y_WP:	0.000	Y_WP:	0.500	X:	0.082	Y:	0.087	Z:	0.400	yaw:	142.900	yaw rate:	-7.248	Roll:	-0.421	Pitch:	-4.178	Yaw:	202.045	Thrust:	35.422
Time:	5.020	Roll Set Point:	-0.069	Pitch Set Point:	0.032	Yaw Set Point:	-2.497	X_WP:	0.000	Y_WP:	0.000	Y_WP:	0.500	X:	0.082	Y:	0.087	Z:	0.400	yaw:	143.096	yaw rate:	19.541	Roll:	-0.774	Pitch:	-4.181	Yaw:	204.562	Thrust:	35.809
Time:	5.051	Roll Set Point:	-0.069	Pitch Set Point:	0.032	Yaw Set Point:	-2.494	X_WP:	0.000	Y_WP:	0.000	Y_WP:	0.500	X:	0.082	Y:	0.087	Z:	0.400	yaw:	142.909	yaw rate:	-18.703	Roll:	-0.194	Pitch:	-4.224	Yaw:	201.097	Thrust:	36.366
Time:	5.082	Roll Set Point:	-0.069	Pitch Set Point:	0.032	Yaw Set Point:	-2.493	X_WP:	0.000	Y_WP:	0.000	Y_WP:	0.500	X:	0.082	Y:	0.087	Z:	0.400	yaw:	142.865	yaw rate:	-11.653	Roll:	-0.426	Pitch:	-4.210	Yaw:	202.235	Thrust:	36.645
Time:	5.114	Roll Set Point:	-0.069	Pitch Set Point:	0.032	Yaw Set Point:	-2.495	X_WP:	0.000	Y_WP:	0.000	Y_WP:	0.500	X:	0.082	Y:	0.087	Z:	0.400	yaw:	142.974	yaw rate:	10.920	Roll:	-0.566	Pitch:	-4.259	Yaw:	203.672	Thrust:	37.233
Time:	5.145	Roll Set Point:	-0.069	Pitch Set Point:	0.032	Yaw Set Point:	-2.496	X_WP:	0.000	Y_WP:	0.000	Y_WP:	0.500	X:	0.082	Y:	0.087	Z:	0.400	yaw:	143.002	yaw rate:	2.760	Roll:	-0.495	Pitch:	-4.230	Yaw:	203.022	Thrust:	37.341
Time:	5.176	Roll Set Point:	-0.069	Pitch Set Point:	0.032	Yaw Set Point:	-2.497	X_WP:	0.000	Y_WP:	0.000	Y_WP:	0.500	X:	0.082	Y:	0.087	Z:	0.400	yaw:	143.090	yaw rate:	8.856	Roll:	-0.661	Pitch:	-4.216	Yaw:	203.659	Thrust:	37.569
Time:	5.207	Roll Set Point:	-0.069	Pitch Set Point:	0.032	Yaw Set Point:	-2.496	X_WP:	0.000	Y_WP:	0.000	Y_WP:	0.500	X:	0.082	Y:	0.087	Z:	0.400	yaw:	143.007	yaw rate:	-8.023	Roll:	-0.343	Pitch:	-4.277	Yaw:	202.102	Thrust:	38.380
Time:	5.239	Roll Set Point:	-0.070	Pitch Set Point:	0.032	Yaw Set Point:	-2.484	X_WP:	0.000	Y_WP:	0.000	Y_WP:	0.500	X:	0.082	Y:	0.087	Z:	0.400	yaw:	142.308	yaw rate:	-69.880	Roll:	0.527	Pitch:	-4.295	Yaw:	195.972	Thrust:	38.965
Time:	5.270	Roll Set Point:	-0.069	Pitch Set Point:	0.032	Yaw Set Point:	-2.494	X_WP:	0.000	Y_WP:	0.000	Y_WP:	0.500	X:	0.082	Y:	0.087	Z:	0.400	yaw:	142.888	yaw rate:	58.009	Roll:	-1.304	Pitch:	-4.238	Yaw:	207.494	Thrust:	38.439
Time:	5.301	Roll Set Point:	-0.069	Pitch Set Point:	0.032	Yaw Set Point:	-2.497	X_WP:	0.000	Y_WP:	0.000	Y_WP:	0.500	X:	0.082	Y:	0.087	Z:	0.400	yaw:	143.096	yaw rate:	19.052	Roll:	-0.789	Pitch:	-4.255	Yaw:	204.667	Thrust:	39.118
Time:	5.332	Roll Set Point:	-0.069	Pitch Set Point:	0.032	Yaw Set Point:	-2.498	X_WP:	0.000	Y_WP:	0.000	Y_WP:	0.500	X:	0.082	Y:	0.087	Z:	0.400	yaw:	143.096	yaw rate:	0.025	Roll:	-0.401	Pitch:	-4.350	Yaw:	202.928	Thrust:	40.008
Time:	5.364	Roll Set Point:	-0.069	Pitch Set Point:	0.032	Yaw Set Point:	-2.492	X_WP:	0.000	Y_WP:	0.000	Y_WP:	0.500	X:	0.082	Y:	0.087	Z:	0.400	yaw:	142.801	yaw rate:	-29.573	Roll:	-0.188	Pitch:	-4.258	Yaw:	200.035	Thrust:	39.831
Time:	5.395	Roll Set Point:	-0.069	Pitch Set Point:	0.032	Yaw Set Point:	-2.492	X_WP:	0.000	Y_WP:	0.000	Y_WP:	0.500	X:	0.082	Y:	0.087	Z:	0.400	yaw:	142.776	yaw rate:	-2.478	Roll:	-0.444	Pitch:	-4.305	Yaw:	202.270	Thrust:	40.412
Time:	5.422	Roll Set Point:	-0.069	Pitch Set Point:	0.032	Yaw Set Point:	-2.498	X_WP:	0.000	Y_WP:	0.000	Y_WP:	0.500	X:	0.082	Y:	0.087	Z:	0.400	yaw:	143.118	yaw rate:	34.249	Roll:	-0.998	Pitch:	-4.217	Yaw:	205.849	Thrust:	36.070
Time:	5.454	Roll Set Point:	-0.069	Pitch Set Point:	0.032	Yaw Set Point:	-2.493	X_WP:	0.000	Y_WP:	0.000	Y_WP:	0.500	X:	0.082	Y:	0.087	Z:	0.400	yaw:	142.834	yaw rate:	-13.342	Roll:	-0.113	Pitch:	-4.351	Yaw:	200.356	Thrust:	42.481
Time:	5.486	Roll Set Point:	-0.069	Pitch Set Point:	0.032	Yaw Set Point:	-2.497	X_WP:	0.000	Y_WP:	0.000	Y_WP:	0.500	X:	0.082	Y:	0.087	Z:	0.400	yaw:	143.087	yaw rate:	25.333	Roll:	-0.843	Pitch:	-4.342	Yaw:	205.035	Thrust:	41.337
Time:	5.517	Roll Set Point:	-0.069	Pitch Set Point:	0.032	Yaw Set Point:	-2.497	X_WP:	0.000	Y_WP:	0.000	Y_WP:	0.500	X:	0.082	Y:	0.087	Z:	0.400	yaw:	143.077	yaw rate:	29.668	Roll:	-0.496	Pitch:	-4.337	Yaw:	202.815	Thrust:	41.987
Time:	5.548	Roll Set Point:	-0.071	Pitch Set Point:	0.032	Yaw Set Point:	-2.480	X_WP:	0.000	Y_WP:	0.000	Y_WP:	0.500	X:	0.082	Y:	0.087	Z:	0.400	yaw:	142.104	yaw rate:	-97.348	Roll:	0.888	Pitch:	-4.407	Yaw:	193.385	Thrust:	42.774
Time:	5.579	Roll Set Point:	-0.069	Pitch Set Point:	0.032	Yaw Set Point:	-2.494	X_WP:	0.000	Y_WP:	0.000	Y_WP:	0.500	X:	0.082	Y:	0.087	Z:	0.400	yaw:	142.877	yaw rate:	77.288	Roll:	-1.506	Pitch:	-4.336	Yaw:	209.093	Thrust:	42.306
Time:	5.611	Roll Set Point:	-0.070	Pitch Set Point:	0.032	Yaw Set Point:	-2.485	X_WP:	0.000	Y_WP:	0.000	Y_WP:	0.500	X:	0.082	Y:	0.087	Z:	0.400	yaw:	142.390	yaw rate:	-48.605	Roll:	0.247	Pitch:	-4.428	Yaw:	197.876	Thrust:	43.606
Time:	5.642	Roll Set Point:	-0.071	Pitch Set Point:	0.032	Yaw Set Point:	-2.481	X_WP:	0.000	Y_WP:	0.000	Y_WP:	0.500	X:	0.082	Y:	0.087	Z:	0.400	yaw:	142.156	yaw rate:	-6.198	Roll:	-0.151	Pitch:	-4.378	Yaw:	199.647	Thrust:	43.403
Time:	5.673	Roll Set Point:	-0.070	Pitch Set Point:	0.032	Yaw Set Point:	-2.484	X_WP:	0.000	Y_WP:	0.000	Y_WP:	0.500	X:	0.082	Y:	0.087	Z:	0.400	yaw:	142.327	yaw rate:	19.771	Roll:	-0.654	Pitch:	-4.399	Yaw:	203.280	Thrust:	43.789
Time:	5.704	Roll Set Point:	-0.070	Pitch Set Point:	0.032	Yaw Set Point:	-2.484	X_WP:	0.000	Y_WP:	0.000	Y_WP:	0.500	X:	0.082	Y:	0.087	Z:	0.400	yaw:	142.345	yaw rate:	1.816	Roll:	-0.496	Pitch:	-4.391	Yaw:	202.026	Thrust:	44.193
Time:	5.736	Roll Set Point:	-0.070	Pitch Set Point:	0.032	Yaw Set Point:	-2.484	X_WP:	0.000	Y_WP:	0.000	Y_WP:	0.500	X:	0.082	Y:	0.087	Z:	0.400	yaw:	142.318	yaw rate:	-2.737	Roll:	-0.379	Pitch:	-4.446	Yaw:	201.609	Thrust:	44.599
Time:	5.767	Roll Set Point:	-0.070	Pitch Set Point:	0.032	Yaw Set Point:	-2.483	X_WP:	0.000	Y_WP:	0.000	Y_WP:	0.500	X:	0.082	Y:	0.087	Z:	0.400	yaw:	142.255	yaw rate:	-6.276	Roll:	-0.415	Pitch:	-4.385	Yaw:	201.225	Thrust:	44.829
Time:	5.798	Roll Set Point:	-0.070	Pitch Set Point:	0.032	Yaw Set Point:	-2.482	X_WP:	0.000	Y_WP:	0.000	Y_WP:	0.500	X:	0.082	Y:	0.087	Z:	0.400	yaw:	142.208	yaw rate:	-4.674	Roll:	-0.390	Pitch:	-4.441	Yaw:	201.297	Thrust:	45.314
Time:	5.829	Roll Set Point:	-0.070	Pitch Set Point:	0.032	Yaw Set Point:	-2.482	X_WP:	0.000	Y_WP:	0.000	Y_WP:	0.500	X:	0.082	Y:	0.087	Z:	0.400	yaw:	142.221	yaw rate:	-7.846	Roll:	-0.454	Pitch:	-4.445	Yaw:	201.816	Thrust:	45.840
Time:	5.861	Roll Set Point:	-0.070	Pitch Set Point:	0.032	Yaw Set Point:	-2.481	X_WP:	0.000	Y_WP:	0.000	Y_WP:	0.500	X:	0.082	Y:	0.087	Z:	0.400	yaw:	142.179	yaw rate:	-4.259	Roll:	-0.408	Pitch:	-4.452	Yaw:	201.288	Thrust:	45.914
Time:	5.892	Roll Set Point:	-0.071	Pitch Set Point:	0.032	Yaw Set Point:	-2.481	X_WP:	0.000	Y_WP:	0.000	Y_WP:	0.500	X:	0.082	Y:	0.087	Z:	0.400	yaw:	142.129	yaw rate:	-13.709	Roll:	-0.414	Pitch:	-4.431	Yaw:	201.154	Thrust:	46.385
Time:	5.923	Roll Set Point:	-0.070	Pitch Set Point:	0.032	Yaw Set Point:	-2.483	X_WP:	0.000	Y_WP:	0.000	Y_WP:	0.500	X:	0.082	Y:	0.087	Z:	0.400	yaw:	142.288	yaw rate:	15.944	Roll:	-0.585	Pitch:	-4.522	Yaw:	203.135	Thrust:	47.042
Time:	5.954	Roll Set Point:	-0.070	Pitch Set Point:	0.032	Yaw Set Point:	-2.484	X_WP:	0.000	Y_WP:	0.000	Y_WP:	0.500	X:	0.082	Y:	0.087	Z:	0.400	yaw:	142.336	yaw rate:	13.056	Roll:	-0.547	Pitch:	-4.457	Yaw:	202.259	Thrust:	47.141
Time:	5.986	Roll Set Point:	-0.069	Pitch Set Point:	0.032	Yaw Set Point:	-2.495	X_WP:	0.000	Y_WP:	0.000	Y_WP:	0.500	X:	0.082	Y:	0.087	Z:	0.400	yaw:	142.961	yaw rate:	62.499	Roll:	-1.310	Pitch:	-4.487	Yaw:	207.972	Thrust:	47.211
Time:	6.017	Roll Set Point:	-0.109	Pitch Set Point:	-0.030	Yaw Set Point:	-2.492	X_WP:	0.069	Y_WP:	0.026	Y_WP:	0.500	X:	0.082	Y:	0.087	Z:	0.400	yaw:	142.805	yaw rate:	-15.561	Roll:	22.198	Pitch:	30.000	Yaw:	201.220	Thrust:	47.808
Time:	6.048	Roll Set Point:	-0.108	Pitch Set Point:	-0.030	Yaw Set Point:	-2.498	X_WP:	0.069	Y_WP:	0.026	Y_WP:	0.500	X:	0.082	Y:	0.087	Z:	0.400	yaw:	143.097	yaw rate:	11.487	Roll:	0.487	Pitch:	-2.768	Yaw:	205.367	Thrust:	48.229
Time:	6.079	Roll Set Point:	-0.108	Pitch Set Point:	-0.030	Yaw Set Point:	-2.493	X_WP:	0.069	Y_WP:	0.026	Y_WP:	0.500	X:	0.082	Y:	0.087	Z:	0.400	yaw:	142.865	yaw rate:	5.209	Roll:	0.765	Pitch:	-2.645	Yaw:	200.671	Thrust:	49.023
Time:	6.111	Roll Set Point:	-0.109	Pitch Set Point:	-0.031	Yaw Set Point:	-2.482	X_WP:	0.069	Y_WP:	0.026	Y_WP:	0.500	X:	0.082	Y:	0.087	Z:	0.400	yaw:	142.211	yaw rate:	-65.478	Roll:	1.012	Pitch:	-2.530	Yaw:	196.195	Thrust:	49.246
Time:	6.142	Roll Set Point:	-0.109	Pitch Set Point:	-0.031	Yaw Set Point:	-2.482	X_WP:	0.069	Y_WP:	0.026	Y_WP:	0.500	X:	0.082	Y:	0.087	Z:	0.400	yaw:	142.208	yaw rate:	-0.255	Roll:	0.677	Pitch:	-2.706	Yaw:	201.664	Thrust:	49.507
Time:	6.173	Roll Set Point:	-0.108	Pitch Set Point:	-0.030	Yaw Set Point:	-2.497	X_WP:	0.069	Y_WP:	0.026	Y_WP:	0.500	X:	0.082	Y:	0.087	Z:	0.400	yaw:	143.078	yaw rate:	-3.925	Roll:	0.191	Pitch:	-2.928	Yaw:	210.158	Thrust:	49.706
Time:	6.201	Roll Set Point:	-0.108	Pitch Set Point:	-0.030	Yaw Set Point:	-2.495	X_WP:	0.069	Y_WP:	0.026	Y_WP:	0.500	X:	0.082	Y:	0.087	Z:	0.400	yaw:	142.943	yaw rate:	-13.500	Roll:	0.750	Pitch:	-2.565	Yaw:	201.088	Thrust:	45.155
Time:	6.232	Roll Set Point:	-0.108	Pitch Set Point:	-0.030	Yaw Set Point:	-2.496	X_WP:	0.069	Y_WP:	0.026	Y_WP:	0.500	X:	0.082	Y:	0.087	Z:	0.400	yaw:	142.983	yaw rate:	4.000	Roll:	0.634	Pitch:	-2.734	Yaw:	203.101	Thrust:	50.622
Time:	6.264	Roll Set Point:	-0.108	Pitch Set Point:	-0.030	Yaw Set Point:	-2.494	X_WP:	0.069	Y_WP:	0.026	Y_WP:	0.500	X:	0.082	Y:	0.087	Z:	0.400	yaw:	142.907	yaw rate:	-5.685	Roll:	0.700	Pitch:	-2.709	Yaw:	202.028	Thrust:	50.986
Time:	6.295	Roll Set Point:	-0.109	Pitch Set Point:	-0.030	Yaw Set Point:	-2.493	X_WP:	0.069	Y_WP:	0.026	Y_WP:	0.500	X:	0.082	Y:	0.087	Z:	0.400	yaw:	142.823	yaw rate:	-8.425	Roll:	0.710	Pitch:	-2.701	Yaw:	201.834	Thrust:	51.059
Time:	6.326	Roll Set Point:	-0.108	Pitch Set Point:	-0.030	Yaw Set Point:	-2.495	X_WP:	0.069	Y_WP:	0.026	Y_WP:	0.500	X:	0.082	Y:	0.087	Z:	0.400	yaw:	142.944	yaw rate:	-2.356	Roll:	0.598	Pitch:	-2.773	Yaw:	203.735	Thrust:	51.880
Time:	6.357	Roll Set Point:	-0.108	Pitch Set Point:	-0.030	Yaw Set Point:	-2.498	X_WP:	0.069	Y_WP:	0.026	Y_WP:	0.500	X:	0.082	Y:	0.087	Z:	0.400	yaw:	143.117	yaw rate:	17.270	Roll:	0.569	Pitch:	-2.776	Yaw:	204.399	Thrust:	51.873
Time:	6.389	Roll Set Point:	-0.108	Pitch Set Point:	-0.030	Yaw Set Point:	-2.498	X_WP:	0.069	Y_WP:	0.026	Y_WP:	0.500	X:	0.082	Y:	0.087	Z:	0.400	yaw:	143.110	yaw rate:	31.539	Roll:	0.667	Pitch:	-2.749	Yaw:	202.887	Thrust:	52.494
Time:	6.425	Roll Set Point:	-0.108	Pitch Set Point:	-0.030	Yaw Set Point:	-2.497	X_WP:	0.069	Y_WP:	0.026	Y_WP:	0.500	X:	0.082	Y:	0.087	Z:	0.400	yaw:	143.092	yaw rate:	30.394	Roll:	0.659	Pitch:	-2.924	Yaw:	203.291	Thrust:	60.343
Time:	6.456	Roll Set Point:	-0.108	Pitch Set Point:	-0.030	Yaw Set Point:	-2.495	X_WP:	0.069	Y_WP:	0.026	Y_WP:	0.500	X:	0.082	Y:	0.087	Z:	0.400	yaw:	142.938	yaw rate:	-4.259	Roll:	0.752	Pitch:	-2.721	Yaw:	201.415	Thrust:	53.385
Time:	6.490	Roll Set Point:	-0.109	Pitch Set Point:	-0.030	Yaw Set Point:	-2.494	X_WP:	0.069	Y_WP:	0.026	Y_WP:	0.500	X:	0.082	Y:	0.087	Z:	0.400	yaw:	142.868	yaw rate:	-6.993	Roll:	0.712	Pitch:	-2.739	Yaw:	202.293	Thrust:	53.576
Time:	6.523	Roll Set Point:	-0.109	Pitch Set Point:	-0.030	Yaw Set Point:	-2.492	X_WP:	0.069	Y_WP:	0.026	Y_WP:	0.500	X:	0.082	Y:	0.087	Z:	0.400	yaw:	142.808	yaw rate:	-14.307	Roll:	0.697	Pitch:	-2.883	Yaw:	202.198	Thrust:	59.847
Time:	6.554	Roll Set Point:	-0.109	Pitch Set Point:	-0.030	Yaw Set Point:	-2.492	X_WP:	0.069	Y_WP:	0.026	Y_WP:	0.500	X:	0.082	Y:	0.087	Z:	0.400	yaw:	142.809	yaw rate:	-29.290	Roll:	0.680	Pitch:	-2.764	Yaw:	202.526	Thrust:	54.282
Time:	6.585	Roll Set Point:	-0.108	Pitch Set Point:	-0.030	Yaw Set Point:	-2.495	X_WP:	0.069	Y_WP:	0.026	Y_WP:	0.500	X:	0.082	Y:	0.087	Z:	0.400	yaw:	142.964	yaw rate:	-5.520	Roll:	0.595	Pitch:	-2.814	Yaw:	204.047	Thrust:	54.873
Time:	6.616	Roll Set Point:	-0.108	Pitch Set Point:	-0.030	Yaw Set Point:	-2.495	X_WP:	0.069	Y_WP:	0.026	Y_WP:	0.500	X:	0.082	Y:	0.087	Z:	0.400	yaw:	142.975	yaw rate:	1.005	Roll:	0.676	Pitch:	-2.778	Yaw:	202.839	Thrust:	55.013
Time:	6.648	Roll Set Point:	-0.108	Pitch Set Point:	-0.030	Yaw Set Point:	-2.496	X_WP:	0.069	Y_WP:	0.026	Y_WP:	0.500	X:	0.082	Y:	0.087	Z:	0.400	yaw:	143.017	yaw rate:	4.268	Roll:	0.659	Pitch:	-2.793	Yaw:	203.175	Thrust:	55.535
Time:	6.679	Roll Set Point:	-0.108	Pitch Set Point:	-0.030	Yaw Set Point:	-2.494	X_WP:	0.069	Y_WP:	0.026	Y_WP:	0.500	X:	0.082	Y:	0.087	Z:	0.400	yaw:	142.899	yaw rate:	-11.858	Roll:	0.750	Pitch:	-2.754	Yaw:	201.657	Thrust:	55.786
Time:	6.710	Roll Set Point:	-0.108	Pitch Set Point:	-0.030	Yaw Set Point:	-2.497	X_WP:	0.069	Y_WP:	0.026	Y_WP:	0.500	X:	0.082	Y:	0.087	Z:	0.400	yaw:	143.087	yaw rate:	16.463	Roll:	0.582	Pitch:	-2.835	Yaw:	204.490	Thrust:	56.279
Time:	6.741	Roll Set Point:	-0.108	Pitch Set Point:	-0.030	Yaw Set Point:	-2.495	X_WP:	0.069	Y_WP:	0.026	Y_WP:	0.500	X:	0.082	Y:	0.087	Z:	0.400	yaw:	142.964	yaw rate:	-12.254	Roll:	0.754	Pitch:	-2.765	Yaw:	201.715	Thrust:	56.526
Time:	6.773	Roll Set Point:	-0.109	Pitch Set Point:	-0.030	Yaw Set Point:	-2.494	X_WP:	0.069	Y_WP:	0.026	Y_WP:	0.500	X:	0.082	Y:	0.087	Z:	0.400	yaw:	142.888	yaw rate:	-7.644	Roll:	0.735	Pitch:	-2.776	Yaw:	201.991	Thrust:	56.881
Time:	6.804	Roll Set Point:	-0.109	Pitch Set Point:	-0.031	Yaw Set Point:	-2.482	X_WP:	0.069	Y_WP:	0.026	Y_WP:	0.500	X:	0.082	Y:	0.087	Z:	0.400	yaw:	142.200	yaw rate:	-68.841	Roll:	1.068	Pitch:	-2.614	Yaw:	195.907	Thrust:	57.698
Time:	6.835	Roll Set Point:	-0.108	Pitch Set Point:	-0.030	Yaw Set Point:	-2.497	X_WP:	0.069	Y_WP:	0.026	Y_WP:	0.500	X:	0.082	Y:	0.087	Z:	0.400	yaw:	143.053	yaw rate:	85.319	Roll:	0.246	Pitch:	-3.017	Yaw:	210.012	Thrust:	57.383
Time:	6.866	Roll Set Point:	-0.109	Pitch Set Point:	-0.030	Yaw Set Point:	-2.493	X_WP:	0.069	Y_WP:	0.026	Y_WP:	0.500	X:	0.082	Y:	0.087	Z:	0.400	yaw:	142.834	yaw rate:	-15.425	Roll:	0.821	Pitch:	-2.766	Yaw:	200.731	Thrust:	58.048
Time:	6.898	Roll Set Point:	-0.109	Pitch Set Point:	-0.031	Yaw Set Point:	-2.482	X_WP:	0.069	Y_WP:	0.026	Y_WP:	0.500	X:	0.082	Y:	0.087	Z:	0.400	yaw:	142.198	yaw rate:	-63.586	Roll:	1.047	Pitch:	-2.638	Yaw:	196.336	Thrust:	58.832
Time:	6.929	Roll Set Point:	-0.109	Pitch Set Point:	-0.031	Yaw Set Point:	-2.483	X_WP:	0.069	Y_WP:	0.026	Y_WP:	0.500	X:	0.082	Y:	0.087	Z:	0.400	yaw:	142.248	yaw rate:	5.012	Roll:	0.700	Pitch:	-2.828	Yaw:	202.161	Thrust:	58.885
Time:	6.960	Roll Set Point:	-0.108	Pitch Set Point:	-0.030	Yaw Set Point:	-2.496	X_WP:	0.069	Y_WP:	0.026	Y_WP:	0.500	X:	0.082	Y:	0.087	Z:	0.400	yaw:	143.001	yaw rate:	75.269	Roll:	0.303	Pitch:	-2.989	Yaw:	209.097	Thrust:	58.841
Time:	6.991	Roll Set Point:	-0.108	Pitch Set Point:	-0.030	Yaw Set Point:	-2.495	X_WP:	0.069	Y_WP:	0.026	Y_WP:	0.500	X:	0.082	Y:	0.087	Z:	0.400	yaw:	142.955	yaw rate:	17.446	Roll:	0.734	Pitch:	-2.811	Yaw:	202.342	Thrust:	59.528
Time:	7.023	Roll Set Point:	-0.108	Pitch Set Point:	-0.030	Yaw Set Point:	-2.495	X_WP:	0.069	Y_WP:	0.026	Y_WP:	0.500	X:	0.082	Y:	0.087	Z:	0.400	yaw:	142.925	yaw rate:	-2.955	Roll:	0.725	Pitch:	-2.810	Yaw:	202.439	Thrust:	59.998
Time:	7.054	Roll Set Point:	-0.108	Pitch Set Point:	-0.030	Yaw Set Point:	-2.495	X_WP:	0.069	Y_WP:	0.026	Y_WP:	0.500	X:	0.082	Y:	0.087	Z:	0.400	yaw:	142.945	yaw rate:	-15.683	Roll:	0.698	Pitch:	-2.815	Yaw:	202.886	Thrust:	60.401
Time:	7.085	Roll Set Point:	-0.108	Pitch Set Point:	-0.030	Yaw Set Point:	-2.495	X_WP:	0.069	Y_WP:	0.026	Y_WP:	0.500	X:	0.082	Y:	0.087	Z:	0.400	yaw:	142.938	yaw rate:	-0.758	Roll:	0.716	Pitch:	-2.814	Yaw:	202.635	Thrust:	60.673
Time:	7.116	Roll Set Point:	-0.109	Pitch Set Point:	-0.030	Yaw Set Point:	-2.492	X_WP:	0.069	Y_WP:	0.026	Y_WP:	0.500	X:	0.082	Y:	0.087	Z:	0.400	yaw:	142.790	yaw rate:	-14.712	Roll:	0.798	Pitch:	-2.773	Yaw:	201.266	Thrust:	61.015
Time:	7.148	Roll Set Point:	-0.108	Pitch Set Point:	-0.030	Yaw Set Point:	-2.495	X_WP:	0.069	Y_WP:	0.026	Y_WP:	0.500	X:	0.082	Y:	0.087	Z:	0.400	yaw:	142.944	yaw rate:	15.391	Roll:	0.634	Pitch:	-2.853	Yaw:	204.003	Thrust:	61.472
Time:	7.179	Roll Set Point:	-0.109	Pitch Set Point:	-0.030	Yaw Set Point:	-2.492	X_WP:	0.069	Y_WP:	0.026	Y_WP:	0.500	X:	0.082	Y:	0.087	Z:	0.400	yaw:	142.801	yaw rate:	-14.323	Roll:	0.799	Pitch:	-2.776	Yaw:	201.316	Thrust:	61.844
Time:	7.210	Roll Set Point:	-0.109	Pitch Set Point:	-0.030	Yaw Set Point:	-2.492	X_WP:	0.069	Y_WP:	0.026	Y_WP:	0.500	X:	0.082	Y:	0.087	Z:	0.400	yaw:	142.804	yaw rate:	0.335	Roll:	0.724	Pitch:	-2.817	Yaw:	202.546	Thrust:	62.161
Time:	7.241	Roll Set Point:	-0.109	Pitch Set Point:	-0.031	Yaw Set Point:	-2.482	X_WP:	0.069	Y_WP:	0.026	Y_WP:	0.500	X:	0.082	Y:	0.087	Z:	0.400	yaw:	142.185	yaw rate:	-61.913	Roll:	1.062	Pitch:	-2.641	Yaw:	196.461	Thrust:	63.005
Time:	7.273	Roll Set Point:	-0.109	Pitch Set Point:	-0.030	Yaw Set Point:	-2.493	X_WP:	0.069	Y_WP:	0.026	Y_WP:	0.500	X:	0.082	Y:	0.087	Z:	0.400	yaw:	142.811	yaw rate:	62.540	Roll:	0.402	Pitch:	-2.965	Yaw:	207.766	Thrust:	62.472
Time:	7.304	Roll Set Point:	-0.108	Pitch Set Point:	-0.030	Yaw Set Point:	-2.495	X_WP:	0.069	Y_WP:	0.026	Y_WP:	0.500	X:	0.082	Y:	0.087	Z:	0.400	yaw:	142.973	yaw rate:	16.252	Roll:	0.641	Pitch:	-2.863	Yaw:	204.115	Thrust:	63.483
Time:	7.335	Roll Set Point:	-0.109	Pitch Set Point:	-0.030	Yaw Set Point:	-2.492	X_WP:	0.069	Y_WP:	0.026	Y_WP:	0.500	X:	0.082	Y:	0.087	Z:	0.400	yaw:	142.782	yaw rate:	-19.117	Roll:	0.836	Pitch:	-2.766	Yaw:	200.885	Thrust:	63.669
Time:	7.366	Roll Set Point:	-0.108	Pitch Set Point:	-0.030	Yaw Set Point:	-2.495	X_WP:	0.069	Y_WP:	0.026	Y_WP:	0.500	X:	0.082	Y:	0.087	Z:	0.400	yaw:	142.963	yaw rate:	18.130	Roll:	0.632	Pitch:	-2.859	Yaw:	204.259	Thrust:	64.224
Time:	7.398	Roll Set Point:	-0.109	Pitch Set Point:	-0.030	Yaw Set Point:	-2.493	X_WP:	0.069	Y_WP:	0.026	Y_WP:	0.500	X:	0.082	Y:	0.087	Z:	0.400	yaw:	142.865	yaw rate:	-9.826	Roll:	0.788	Pitch:	-2.791	Yaw:	201.783	Thrust:	64.428
Time:	7.439	Roll Set Point:	-0.109	Pitch Set Point:	-0.030	Yaw Set Point:	-2.492	X_WP:	0.069	Y_WP:	0.026	Y_WP:	0.500	X:	0.082	Y:	0.087	Z:	0.400	yaw:	142.791	yaw rate:	-7.361	Roll:	0.760	Pitch:	-3.189	Yaw:	203.087	Thrust:	84.705
Time:	7.471	Roll Set Point:	-0.109	Pitch Set Point:	-0.030	Yaw Set Point:	-2.492	X_WP:	0.069	Y_WP:	0.026	Y_WP:	0.500	X:	0.082	Y:	0.087	Z:	0.400	yaw:	142.767	yaw rate:	-2.433	Roll:	0.754	Pitch:	-2.808	Yaw:	202.262	Thrust:	65.196
Time:	7.502	Roll Set Point:	-0.109	Pitch Set Point:	-0.030	Yaw Set Point:	-2.493	X_WP:	0.069	Y_WP:	0.026	Y_WP:	0.500	X:	0.082	Y:	0.087	Z:	0.400	yaw:	142.854	yaw rate:	-5.311	Roll:	0.696	Pitch:	-2.827	Yaw:	203.314	Thrust:	65.637
Time:	7.533	Roll Set Point:	-0.109	Pitch Set Point:	-0.030	Yaw Set Point:	-2.494	X_WP:	0.069	Y_WP:	0.026	Y_WP:	0.500	X:	0.082	Y:	0.087	Z:	0.400	yaw:	142.920	yaw rate:	6.599	Roll:	0.706	Pitch:	-2.835	Yaw:	203.232	Thrust:	65.902
Time:	7.564	Roll Set Point:	-0.108	Pitch Set Point:	-0.030	Yaw Set Point:	-2.497	X_WP:	0.069	Y_WP:	0.026	Y_WP:	0.500	X:	0.082	Y:	0.087	Z:	0.400	yaw:	143.092	yaw rate:	27.341	Roll:	0.650	Pitch:	-2.853	Yaw:	204.363	Thrust:	66.317
Time:	7.596	Roll Set Point:	-0.108	Pitch Set Point:	-0.030	Yaw Set Point:	-2.495	X_WP:	0.069	Y_WP:	0.026	Y_WP:	0.500	X:	0.082	Y:	0.087	Z:	0.400	yaw:	142.959	yaw rate:	-13.499	Roll:	0.812	Pitch:	-2.786	Yaw:	201.612	Thrust:	66.824
Time:	7.627	Roll Set Point:	-0.108	Pitch Set Point:	-0.030	Yaw Set Point:	-2.497	X_WP:	0.069	Y_WP:	0.026	Y_WP:	0.500	X:	0.082	Y:	0.087	Z:	0.400	yaw:	143.096	yaw rate:	13.758	Roll:	0.672	Pitch:	-2.847	Yaw:	204.078	Thrust:	66.947
Time:	7.658	Roll Set Point:	-0.108	Pitch Set Point:	-0.030	Yaw Set Point:	-2.495	X_WP:	0.069	Y_WP:	0.026	Y_WP:	0.500	X:	0.082	Y:	0.087	Z:	0.400	yaw:	142.953	yaw rate:	-14.260	Roll:	0.822	Pitch:	-2.781	Yaw:	201.532	Thrust:	67.731
Time:	7.689	Roll Set Point:	-0.108	Pitch Set Point:	-0.030	Yaw Set Point:	-2.496	X_WP:	0.069	Y_WP:	0.026	Y_WP:	0.500	X:	0.082	Y:	0.087	Z:	0.400	yaw:	142.991	yaw rate:	3.715	Roll:	0.731	Pitch:	-2.828	Yaw:	203.089	Thrust:	67.826
Time:	7.721	Roll Set Point:	-0.108	Pitch Set Point:	-0.030	Yaw Set Point:	-2.495	X_WP:	0.069	Y_WP:	0.026	Y_WP:	0.500	X:	0.082	Y:	0.087	Z:	0.400	yaw:	142.959	yaw rate:	-3.189	Roll:	0.770	Pitch:	-2.806	Yaw:	202.466	Thrust:	68.160
Time:	7.752	Roll Set Point:	-0.109	Pitch Set Point:	-0.030	Yaw Set Point:	-2.494	X_WP:	0.069	Y_WP:	0.026	Y_WP:	0.500	X:	0.082	Y:	0.087	Z:	0.400	yaw:	142.875	yaw rate:	-8.357	Roll:	0.802	Pitch:	-2.793	Yaw:	201.917	Thrust:	68.522
Time:	7.783	Roll Set Point:	-0.108	Pitch Set Point:	-0.030	Yaw Set Point:	-2.498	X_WP:	0.069	Y_WP:	0.026	Y_WP:	0.500	X:	0.082	Y:	0.087	Z:	0.400	yaw:	143.097	yaw rate:	22.170	Roll:	0.636	Pitch:	-2.865	Yaw:	204.783	Thrust:	68.872
Time:	7.814	Roll Set Point:	-0.109	Pitch Set Point:	-0.030	Yaw Set Point:	-2.492	X_WP:	0.069	Y_WP:	0.026	Y_WP:	0.500	X:	0.082	Y:	0.087	Z:	0.400	yaw:	142.792	yaw rate:	-30.454	Roll:	0.922	Pitch:	-2.738	Yaw:	199.950	Thrust:	69.386
Time:	7.846	Roll Set Point:	-0.108	Pitch Set Point:	-0.030	Yaw Set Point:	-2.498	X_WP:	0.069	Y_WP:	0.026	Y_WP:	0.500	X:	0.082	Y:	0.087	Z:	0.400	yaw:	143.096	yaw rate:	30.413	Roll:	0.599	Pitch:	-2.889	Yaw:	205.473	Thrust:	69.671
Time:	7.877	Roll Set Point:	-0.108	Pitch Set Point:	-0.030	Yaw Set Point:	-2.496	X_WP:	0.069	Y_WP:	0.026	Y_WP:	0.500	X:	0.082	Y:	0.087	Z:	0.400	yaw:	143.000	yaw rate:	-9.603	Roll:	0.807	Pitch:	-2.791	Yaw:	201.987	Thrust:	70.286
Time:	7.908	Roll Set Point:	-0.109	Pitch Set Point:	-0.030	Yaw Set Point:	-2.493	X_WP:	0.069	Y_WP:	0.026	Y_WP:	0.500	X:	0.082	Y:	0.087	Z:	0.400	yaw:	142.831	yaw rate:	-6.036	Roll:	0.863	Pitch:	-2.778	Yaw:	201.139	Thrust:	70.482
Time:	7.939	Roll Set Point:	-0.108	Pitch Set Point:	-0.030	Yaw Set Point:	-2.494	X_WP:	0.069	Y_WP:	0.026	Y_WP:	0.500	X:	0.082	Y:	0.087	Z:	0.400	yaw:	142.878	yaw rate:	-9.489	Roll:	0.743	Pitch:	-2.825	Yaw:	203.007	Thrust:	70.805
Time:	7.971	Roll Set Point:	-0.108	Pitch Set Point:	-0.030	Yaw Set Point:	-2.498	X_WP:	0.069	Y_WP:	0.026	Y_WP:	0.500	X:	0.082	Y:	0.087	Z:	0.400	yaw:	143.108	yaw rate:	23.064	Roll:	0.644	Pitch:	-2.863	Yaw:	204.874	Thrust:	71.106
Time:	8.002	Roll Set Point:	-0.108	Pitch Set Point:	-0.030	Yaw Set Point:	-2.495	X_WP:	0.069	Y_WP:	0.026	Y_WP:	0.500	X:	0.082	Y:	0.087	Z:	0.400	yaw:	142.957	yaw rate:	-10.204	Roll:	0.851	Pitch:	-2.785	Yaw:	201.468	Thrust:	71.680
Time:	8.033	Roll Set Point:	-0.109	Pitch Set Point:	-0.030	Yaw Set Point:	-2.494	X_WP:	0.069	Y_WP:	0.026	Y_WP:	0.500	X:	0.082	Y:	0.087	Z:	0.400	yaw:	142.896	yaw rate:	5.326	Roll:	0.809	Pitch:	-2.798	Yaw:	202.130	Thrust:	72.005
Time:	8.064	Roll Set Point:	-0.108	Pitch Set Point:	-0.030	Yaw Set Point:	-2.495	X_WP:	0.069	Y_WP:	0.026	Y_WP:	0.500	X:	0.082	Y:	0.087	Z:	0.400	yaw:	142.958	yaw rate:	6.205	Roll:	0.738	Pitch:	-2.828	Yaw:	203.252	Thrust:	72.393
Time:	8.096	Roll Set Point:	-0.108	Pitch Set Point:	-0.030	Yaw Set Point:	-2.498	X_WP:	0.069	Y_WP:	0.026	Y_WP:	0.500	X:	0.082	Y:	0.087	Z:	0.400	yaw:	143.109	yaw rate:	15.925	Roll:	0.696	Pitch:	-2.846	Yaw:	204.208	Thrust:	72.573
Time:	8.127	Roll Set Point:	-0.108	Pitch Set Point:	-0.030	Yaw Set Point:	-2.498	X_WP:	0.069	Y_WP:	0.026	Y_WP:	0.500	X:	0.082	Y:	0.087	Z:	0.400	yaw:	143.109	yaw rate:	0.049	Roll:	0.778	Pitch:	-2.825	Yaw:	202.948	Thrust:	73.049
Time:	8.158	Roll Set Point:	-0.109	Pitch Set Point:	-0.030	Yaw Set Point:	-2.495	X_WP:	0.069	Y_WP:	0.026	Y_WP:	0.500	X:	0.082	Y:	0.087	Z:	0.400	yaw:	142.955	yaw rate:	-15.391	Roll:	0.859	Pitch:	-2.774	Yaw:	201.440	Thrust:	73.617
Time:	8.189	Roll Set Point:	-0.108	Pitch Set Point:	-0.030	Yaw Set Point:	-2.497	X_WP:	0.069	Y_WP:	0.026	Y_WP:	0.500	X:	0.082	Y:	0.087	Z:	0.400	yaw:	143.076	yaw rate:	12.012	Roll:	0.719	Pitch:	-2.844	Yaw:	203.903	Thrust:	73.680
Time:	8.224	Roll Set Point:	-0.109	Pitch Set Point:	-0.030	Yaw Set Point:	-2.492	X_WP:	0.069	Y_WP:	0.026	Y_WP:	0.500	X:	0.082	Y:	0.087	Z:	0.400	yaw:	142.795	yaw rate:	-31.571	Roll:	0.938	Pitch:	-2.746	Yaw:	200.643	Thrust:	80.614
Time:	8.276	Roll Set Point:	-0.108	Pitch Set Point:	-0.030	Yaw Set Point:	-2.498	X_WP:	0.069	Y_WP:	0.026	Y_WP:	0.500	X:	0.082	Y:	0.087	Z:	0.400	yaw:	143.124	yaw rate:	32.915	Roll:	0.707	Pitch:	-3.773	Yaw:	206.747	Thrust:	100.000
Time:	8.308	Roll Set Point:	-0.109	Pitch Set Point:	-0.030	Yaw Set Point:	-2.494	X_WP:	0.069	Y_WP:	0.026	Y_WP:	0.500	X:	0.082	Y:	0.087	Z:	0.400	yaw:	142.909	yaw rate:	10.868	Roll:	0.902	Pitch:	-2.762	Yaw:	200.859	Thrust:	75.186
Time:	8.339	Roll Set Point:	-0.108	Pitch Set Point:	-0.030	Yaw Set Point:	-2.498	X_WP:	0.069	Y_WP:	0.026	Y_WP:	0.500	X:	0.082	Y:	0.087	Z:	0.400	yaw:	143.100	yaw rate:	31.857	Roll:	0.688	Pitch:	-2.858	Yaw:	204.530	Thrust:	75.213
Time:	8.370	Roll Set Point:	-0.109	Pitch Set Point:	-0.030	Yaw Set Point:	-2.494	X_WP:	0.069	Y_WP:	0.026	Y_WP:	0.500	X:	0.082	Y:	0.087	Z:	0.400	yaw:	142.867	yaw rate:	-23.250	Roll:	0.916	Pitch:	-2.758	Yaw:	200.654	Thrust:	75.853
Time:	8.401	Roll Set Point:	-0.109	Pitch Set Point:	-0.030	Yaw Set Point:	-2.493	X_WP:	0.069	Y_WP:	0.026	Y_WP:	0.500	X:	0.082	Y:	0.087	Z:	0.400	yaw:	142.833	yaw rate:	-3.452	Roll:	0.821	Pitch:	-2.804	Yaw:	202.268	Thrust:	75.951
Time:	8.439	Roll Set Point:	-0.109	Pitch Set Point:	-0.030	Yaw Set Point:	-2.492	X_WP:	0.069	Y_WP:	0.026	Y_WP:	0.500	X:	0.082	Y:	0.087	Z:	0.400	yaw:	142.794	yaw rate:	2.123	Roll:	0.829	Pitch:	-3.061	Yaw:	202.917	Thrust:	91.938
Time:	8.471	Roll Set Point:	-0.108	Pitch Set Point:	-0.030	Yaw Set Point:	-2.494	X_WP:	0.069	Y_WP:	0.026	Y_WP:	0.500	X:	0.082	Y:	0.087	Z:	0.400	yaw:	142.911	yaw rate:	4.363	Roll:	0.735	Pitch:	-2.843	Yaw:	203.642	Thrust:	77.077
Time:	8.503	Roll Set Point:	-0.108	Pitch Set Point:	-0.030	Yaw Set Point:	-2.496	X_WP:	0.069	Y_WP:	0.026	Y_WP:	0.500	X:	0.082	Y:	0.087	Z:	0.400	yaw:	143.031	yaw rate:	81.824	Roll:	0.736	Pitch:	-2.883	Yaw:	203.926	Thrust:	80.007
Time:	8.534	Roll Set Point:	-0.108	Pitch Set Point:	-0.030	Yaw Set Point:	-2.495	X_WP:	0.069	Y_WP:	0.026	Y_WP:	0.500	X:	0.082	Y:	0.087	Z:	0.400	yaw:	142.956	yaw rate:	2.378	Roll:	0.850	Pitch:	-2.806	Yaw:	202.108	Thrust:	77.593
Time:	8.566	Roll Set Point:	-0.108	Pitch Set Point:	-0.030	Yaw Set Point:	-2.497	X_WP:	0.069	Y_WP:	0.026	Y_WP:	0.500	X:	0.082	Y:	0.087	Z:	0.400	yaw:	143.061	yaw rate:	28.309	Roll:	0.743	Pitch:	-2.835	Yaw:	203.746	Thrust:	77.977
Time:	8.597	Roll Set Point:	-0.108	Pitch Set Point:	-0.030	Yaw Set Point:	-2.498	X_WP:	0.069	Y_WP:	0.026	Y_WP:	0.500	X:	0.082	Y:	0.087	Z:	0.400	yaw:	143.122	yaw rate:	30.440	Roll:	0.777	Pitch:	-2.828	Yaw:	203.476	Thrust:	77.915
Time:	8.628	Roll Set Point:	-0.109	Pitch Set Point:	-0.030	Yaw Set Point:	-2.494	X_WP:	0.069	Y_WP:	0.026	Y_WP:	0.500	X:	0.082	Y:	0.087	Z:	0.400	yaw:	142.906	yaw rate:	-21.579	Roll:	0.921	Pitch:	-2.761	Yaw:	200.852	Thrust:	78.996
Time:	8.659	Roll Set Point:	-0.108	Pitch Set Point:	-0.030	Yaw Set Point:	-2.498	X_WP:	0.069	Y_WP:	0.026	Y_WP:	0.500	X:	0.082	Y:	0.087	Z:	0.400	yaw:	143.103	yaw rate:	-0.350	Roll:	0.709	Pitch:	-2.868	Yaw:	204.585	Thrust:	79.014
Time:	8.691	Roll Set Point:	-0.108	Pitch Set Point:	-0.030	Yaw Set Point:	-2.495	X_WP:	0.069	Y_WP:	0.026	Y_WP:	0.500	X:	0.082	Y:	0.087	Z:	0.400	yaw:	142.934	yaw rate:	-16.919	Roll:	0.900	Pitch:	-2.772	Yaw:	201.285	Thrust:	79.664
Time:	8.722	Roll Set Point:	-0.109	Pitch Set Point:	-0.030	Yaw Set Point:	-2.493	X_WP:	0.069	Y_WP:	0.026	Y_WP:	0.500	X:	0.082	Y:	0.087	Z:	0.400	yaw:	142.812	yaw rate:	-15.793	Roll:	0.886	Pitch:	-2.783	Yaw:	201.505	Thrust:	79.691
Time:	8.753	Roll Set Point:	-0.109	Pitch Set Point:	-0.030	Yaw Set Point:	-2.493	X_WP:	0.069	Y_WP:	0.026	Y_WP:	0.500	X:	0.082	Y:	0.087	Z:	0.400	yaw:	142.832	yaw rate:	-22.608	Roll:	0.811	Pitch:	-2.816	Yaw:	202.723	Thrust:	80.320
Time:	8.784	Roll Set Point:	-0.109	Pitch Set Point:	-0.030	Yaw Set Point:	-2.493	X_WP:	0.069	Y_WP:	0.026	Y_WP:	0.500	X:	0.082	Y:	0.087	Z:	0.400	yaw:	142.821	yaw rate:	-1.050	Roll:	0.830	Pitch:	-2.813	Yaw:	202.453	Thrust:	80.574
Time:	8.816	Roll Set Point:	-0.108	Pitch Set Point:	-0.030	Yaw Set Point:	-2.495	X_WP:	0.069	Y_WP:	0.026	Y_WP:	0.500	X:	0.082	Y:	0.087	Z:	0.400	yaw:	142.961	yaw rate:	13.938	Roll:	0.747	Pitch:	-2.849	Yaw:	203.904	Thrust:	81.118
Time:	8.847	Roll Set Point:	-0.108	Pitch Set Point:	-0.030	Yaw Set Point:	-2.497	X_WP:	0.069	Y_WP:	0.026	Y_WP:	0.500	X:	0.082	Y:	0.087	Z:	0.400	yaw:	143.092	yaw rate:	13.734	Roll:	0.752	Pitch:	-2.846	Yaw:	204.020	Thrust:	81.182
Time:	8.878	Roll Set Point:	-0.108	Pitch Set Point:	-0.030	Yaw Set Point:	-2.498	X_WP:	0.069	Y_WP:	0.026	Y_WP:	0.500	X:	0.082	Y:	0.087	Z:	0.400	yaw:	143.099	yaw rate:	-0.897	Roll:	0.811	Pitch:	-2.813	Yaw:	202.988	Thrust:	81.995
Time:	8.909	Roll Set Point:	-0.108	Pitch Set Point:	-0.030	Yaw Set Point:	-2.496	X_WP:	0.069	Y_WP:	0.026	Y_WP:	0.500	X:	0.082	Y:	0.087	Z:	0.400	yaw:	142.998	yaw rate:	-10.062	Roll:	0.885	Pitch:	-2.795	Yaw:	201.946	Thrust:	82.053
Time:	8.941	Roll Set Point:	-0.108	Pitch Set Point:	-0.030	Yaw Set Point:	-2.495	X_WP:	0.069	Y_WP:	0.026	Y_WP:	0.500	X:	0.082	Y:	0.087	Z:	0.400	yaw:	142.972	yaw rate:	-2.629	Roll:	0.846	Pitch:	-2.811	Yaw:	202.529	Thrust:	82.389
Time:	8.972	Roll Set Point:	-0.109	Pitch Set Point:	-0.030	Yaw Set Point:	-2.492	X_WP:	0.069	Y_WP:	0.026	Y_WP:	0.500	X:	0.082	Y:	0.087	Z:	0.400	yaw:	142.791	yaw rate:	-18.142	Roll:	0.932	Pitch:	-2.766	Yaw:	200.983	Thrust:	82.834
Time:	9.003	Roll Set Point:	-0.109	Pitch Set Point:	-0.030	Yaw Set Point:	-2.493	X_WP:	0.069	Y_WP:	0.026	Y_WP:	0.500	X:	0.082	Y:	0.087	Z:	0.400	yaw:	142.818	yaw rate:	2.775	Roll:	0.826	Pitch:	-2.817	Yaw:	202.767	Thrust:	83.100
Time:	9.034	Roll Set Point:	-0.108	Pitch Set Point:	-0.030	Yaw Set Point:	-2.495	X_WP:	0.069	Y_WP:	0.026	Y_WP:	0.500	X:	0.082	Y:	0.087	Z:	0.400	yaw:	142.943	yaw rate:	12.431	Roll:	0.768	Pitch:	-2.844	Yaw:	203.752	Thrust:	83.734
Time:	9.066	Roll Set Point:	-0.108	Pitch Set Point:	-0.030	Yaw Set Point:	-2.498	X_WP:	0.069	Y_WP:	0.026	Y_WP:	0.500	X:	0.082	Y:	0.087	Z:	0.400	yaw:	143.100	yaw rate:	15.721	Roll:	0.754	Pitch:	-2.853	Yaw:	204.247	Thrust:	83.841
Time:	9.097	Roll Set Point:	-0.109	Pitch Set Point:	-0.030	Yaw Set Point:	-2.492	X_WP:	0.069	Y_WP:	0.026	Y_WP:	0.500	X:	0.082	Y:	0.087	Z:	0.400	yaw:	142.794	yaw rate:	-18.571	Roll:	1.006	Pitch:	-2.740	Yaw:	199.943	Thrust:	84.489
Time:	9.128	Roll Set Point:	-0.109	Pitch Set Point:	-0.030	Yaw Set Point:	-2.494	X_WP:	0.069	Y_WP:	0.026	Y_WP:	0.500	X:	0.082	Y:	0.087	Z:	0.400	yaw:	142.904	yaw rate:	10.951	Roll:	0.788	Pitch:	-2.840	Yaw:	203.574	Thrust:	84.668
Time:	9.159	Roll Set Point:	-0.108	Pitch Set Point:	-0.030	Yaw Set Point:	-2.494	X_WP:	0.069	Y_WP:	0.026	Y_WP:	0.500	X:	0.082	Y:	0.087	Z:	0.400	yaw:	142.906	yaw rate:	0.198	Roll:	0.841	Pitch:	-2.814	Yaw:	202.679	Thrust:	85.302
Time:	9.191	Roll Set Point:	-0.109	Pitch Set Point:	-0.030	Yaw Set Point:	-2.492	X_WP:	0.069	Y_WP:	0.026	Y_WP:	0.500	X:	0.082	Y:	0.087	Z:	0.400	yaw:	142.804	yaw rate:	-15.125	Roll:	0.908	Pitch:	-2.785	Yaw:	201.663	Thrust:	85.353
Time:	9.222	Roll Set Point:	-0.108	Pitch Set Point:	-0.030	Yaw Set Point:	-2.498	X_WP:	0.069	Y_WP:	0.026	Y_WP:	0.500	X:	0.082	Y:	0.087	Z:	0.400	yaw:	143.122	yaw rate:	31.801	Roll:	0.676	Pitch:	-2.895	Yaw:	205.624	Thrust:	85.739
Time:	9.253	Roll Set Point:	-0.109	Pitch Set Point:	-0.030	Yaw Set Point:	-2.494	X_WP:	0.069	Y_WP:	0.026	Y_WP:	0.500	X:	0.082	Y:	0.087	Z:	0.400	yaw:	142.898	yaw rate:	-22.395	Roll:	0.972	Pitch:	-2.759	Yaw:	200.777	Thrust:	86.313
Time:	9.284	Roll Set Point:	-0.109	Pitch Set Point:	-0.030	Yaw Set Point:	-2.492	X_WP:	0.069	Y_WP:	0.026	Y_WP:	0.500	X:	0.082	Y:	0.087	Z:	0.400	yaw:	142.796	yaw rate:	-14.853	Roll:	0.910	Pitch:	-2.788	Yaw:	201.652	Thrust:	86.577
Time:	9.316	Roll Set Point:	-0.109	Pitch Set Point:	-0.030	Yaw Set Point:	-2.492	X_WP:	0.069	Y_WP:	0.026	Y_WP:	0.500	X:	0.082	Y:	0.087	Z:	0.400	yaw:	142.773	yaw rate:	-2.305	Roll:	0.873	Pitch:	-2.809	Yaw:	202.284	Thrust:	87.175
Time:	9.347	Roll Set Point:	-0.109	Pitch Set Point:	-0.030	Yaw Set Point:	-2.494	X_WP:	0.069	Y_WP:	0.026	Y_WP:	0.500	X:	0.082	Y:	0.087	Z:	0.400	yaw:	142.877	yaw rate:	-9.125	Roll:	0.804	Pitch:	-2.837	Yaw:	203.484	Thrust:	87.314
Time:	9.378	Roll Set Point:	-0.109	Pitch Set Point:	-0.030	Yaw Set Point:	-2.493	X_WP:	0.069	Y_WP:	0.026	Y_WP:	0.500	X:	0.082	Y:	0.087	Z:	0.400	yaw:	142.810	yaw rate:	-13.629	Roll:	0.899	Pitch:	-2.794	Yaw:	201.969	Thrust:	87.715
Time:	9.409	Roll Set Point:	-0.109	Pitch Set Point:	-0.030	Yaw Set Point:	-2.494	X_WP:	0.069	Y_WP:	0.026	Y_WP:	0.500	X:	0.082	Y:	0.087	Z:	0.400	yaw:	142.874	yaw rate:	6.341	Roll:	0.826	Pitch:	-2.829	Yaw:	203.145	Thrust:	88.175
Time:	9.440	Roll Set Point:	-0.108	Pitch Set Point:	-0.030	Yaw Set Point:	-2.495	X_WP:	0.069	Y_WP:	0.026	Y_WP:	0.500	X:	0.082	Y:	0.087	Z:	0.400	yaw:	142.965	yaw rate:	9.184	Roll:	0.815	Pitch:	-2.819	Yaw:	203.475	Thrust:	87.169
Time:	9.471	Roll Set Point:	-0.108	Pitch Set Point:	-0.030	Yaw Set Point:	-2.498	X_WP:	0.069	Y_WP:	0.026	Y_WP:	0.500	X:	0.082	Y:	0.087	Z:	0.400	yaw:	143.102	yaw rate:	0.836	Roll:	0.791	Pitch:	-2.853	Yaw:	204.083	Thrust:	88.789
Time:	9.507	Roll Set Point:	-0.108	Pitch Set Point:	-0.030	Yaw Set Point:	-2.497	X_WP:	0.069	Y_WP:	0.026	Y_WP:	0.500	X:	0.082	Y:	0.087	Z:	0.400	yaw:	143.082	yaw rate:	-2.003	Roll:	0.888	Pitch:	-2.971	Yaw:	203.185	Thrust:	100.000
Time:	9.538	Roll Set Point:	-0.108	Pitch Set Point:	-0.030	Yaw Set Point:	-2.497	X_WP:	0.069	Y_WP:	0.026	Y_WP:	0.500	X:	0.082	Y:	0.087	Z:	0.400	yaw:	143.090	yaw rate:	-2.655	Roll:	0.853	Pitch:	-2.811	Yaw:	202.983	Thrust:	89.701
Time:	9.570	Roll Set Point:	-0.109	Pitch Set Point:	-0.030	Yaw Set Point:	-2.493	X_WP:	0.069	Y_WP:	0.026	Y_WP:	0.500	X:	0.082	Y:	0.087	Z:	0.400	yaw:	142.832	yaw rate:	-25.883	Roll:	1.016	Pitch:	-2.752	Yaw:	200.392	Thrust:	90.046
Time:	9.601	Roll Set Point:	-0.109	Pitch Set Point:	-0.030	Yaw Set Point:	-2.492	X_WP:	0.069	Y_WP:	0.026	Y_WP:	0.500	X:	0.082	Y:	0.087	Z:	0.400	yaw:	142.770	yaw rate:	-16.650	Roll:	0.912	Pitch:	-2.801	Yaw:	201.952	Thrust:	90.357
Time:	9.632	Roll Set Point:	-0.109	Pitch Set Point:	-0.030	Yaw Set Point:	-2.494	X_WP:	0.069	Y_WP:	0.026	Y_WP:	0.500	X:	0.082	Y:	0.087	Z:	0.400	yaw:	142.913	yaw rate:	14.334	Roll:	0.801	Pitch:	-2.847	Yaw:	203.870	Thrust:	90.749
Time:	9.663	Roll Set Point:	-0.109	Pitch Set Point:	-0.030	Yaw Set Point:	-2.494	X_WP:	0.069	Y_WP:	0.026	Y_WP:	0.500	X:	0.082	Y:	0.087	Z:	0.400	yaw:	142.869	yaw rate:	-19.369	Roll:	0.901	Pitch:	-2.801	Yaw:	202.243	Thrust:	91.034
Time:	9.695	Roll Set Point:	-0.108	Pitch Set Point:	-0.030	Yaw Set Point:	-2.495	X_WP:	0.069	Y_WP:	0.026	Y_WP:	0.500	X:	0.082	Y:	0.087	Z:	0.400	yaw:	142.963	yaw rate:	9.325	Roll:	0.831	Pitch:	-2.840	Yaw:	203.520	Thrust:	91.698
Time:	9.726	Roll Set Point:	-0.108	Pitch Set Point:	-0.030	Yaw Set Point:	-2.496	X_WP:	0.069	Y_WP:	0.026	Y_WP:	0.500	X:	0.082	Y:	0.087	Z:	0.400	yaw:	143.028	yaw rate:	6.576	Roll:	0.842	Pitch:	-2.830	Yaw:	203.382	Thrust:	91.827
Time:	9.757	Roll Set Point:	-0.109	Pitch Set Point:	-0.030	Yaw Set Point:	-2.494	X_WP:	0.069	Y_WP:	0.026	Y_WP:	0.500	X:	0.082	Y:	0.087	Z:	0.400	yaw:	142.874	yaw rate:	-22.869	Roll:	0.969	Pitch:	-2.773	Yaw:	201.326	Thrust:	92.212
Time:	9.788	Roll Set Point:	-0.109	Pitch Set Point:	-0.030	Yaw Set Point:	-2.493	X_WP:	0.069	Y_WP:	0.026	Y_WP:	0.500	X:	0.082	Y:	0.087	Z:	0.400	yaw:	142.842	yaw rate:	-3.282	Roll:	0.909	Pitch:	-2.806	Yaw:	202.292	Thrust:	92.388
Time:	9.820	Roll Set Point:	-0.108	Pitch Set Point:	-0.030	Yaw Set Point:	-2.498	X_WP:	0.069	Y_WP:	0.026	Y_WP:	0.500	X:	0.082	Y:	0.087	Z:	0.400	yaw:	143.118	yaw rate:	27.667	Roll:	0.737	Pitch:	-2.880	Yaw:	205.274	Thrust:	92.994
Time:	9.851	Roll Set Point:	-0.108	Pitch Set Point:	-0.030	Yaw Set Point:	-2.497	X_WP:	0.069	Y_WP:	0.026	Y_WP:	0.500	X:	0.082	Y:	0.087	Z:	0.400	yaw:	143.086	yaw rate:	-3.212	Roll:	0.904	Pitch:	-2.812	Yaw:	202.642	Thrust:	93.280
Time:	9.882	Roll Set Point:	-0.109	Pitch Set Point:	-0.030	Yaw Set Point:	-2.494	X_WP:	0.069	Y_WP:	0.026	Y_WP:	0.500	X:	0.082	Y:	0.087	Z:	0.400	yaw:	142.872	yaw rate:	-21.373	Roll:	1.006	Pitch:	-2.761	Yaw:	200.827	Thrust:	93.898
Time:	9.913	Roll Set Point:	-0.109	Pitch Set Point:	-0.030	Yaw Set Point:	-2.494	X_WP:	0.069	Y_WP:	0.026	Y_WP:	0.500	X:	0.082	Y:	0.087	Z:	0.400	yaw:	142.917	yaw rate:	4.442	Roll:	0.870	Pitch:	-2.825	Yaw:	203.047	Thrust:	94.267
Time:	9.945	Roll Set Point:	-0.108	Pitch Set Point:	-0.030	Yaw Set Point:	-2.498	X_WP:	0.069	Y_WP:	0.026	Y_WP:	0.500	X:	0.082	Y:	0.087	Z:	0.400	yaw:	143.110	yaw rate:	19.312	Roll:	0.791	Pitch:	-2.862	Yaw:	204.562	Thrust:	94.289
Time:	9.976	Roll Set Point:	-0.108	Pitch Set Point:	-0.030	Yaw Set Point:	-2.495	X_WP:	0.069	Y_WP:	0.026	Y_WP:	0.500	X:	0.082	Y:	0.087	Z:	0.400	yaw:	142.929	yaw rate:	4.285	Roll:	0.994	Pitch:	-2.772	Yaw:	201.175	Thrust:	94.996
Time:	10.007	Roll Set Point:	-0.108	Pitch Set Point:	-0.030	Yaw Set Point:	-2.496	X_WP:	0.069	Y_WP:	0.026	Y_WP:	0.500	X:	0.082	Y:	0.087	Z:	0.400	yaw:	143.015	yaw rate:	8.571	Roll:	0.852	Pitch:	-2.837	Yaw:	203.529	Thrust:	95.297
Time:	10.038	Roll Set Point:	-0.108	Pitch Set Point:	-0.030	Yaw Set Point:	-2.496	X_WP:	0.069	Y_WP:	0.026	Y_WP:	0.500	X:	0.082	Y:	0.087	Z:	0.400	yaw:	143.001	yaw rate:	-10.483	Roll:	0.909	Pitch:	-2.811	Yaw:	202.678	Thrust:	95.680
Time:	10.070	Roll Set Point:	-0.108	Pitch Set Point:	-0.030	Yaw Set Point:	-2.496	X_WP:	0.069	Y_WP:	0.026	Y_WP:	0.500	X:	0.082	Y:	0.087	Z:	0.400	yaw:	143.002	yaw rate:	0.130	Roll:	0.900	Pitch:	-2.816	Yaw:	202.805	Thrust:	95.993
Time:	10.101	Roll Set Point:	-0.108	Pitch Set Point:	-0.030	Yaw Set Point:	-2.495	X_WP:	0.069	Y_WP:	0.026	Y_WP:	0.500	X:	0.082	Y:	0.087	Z:	0.400	yaw:	142.954	yaw rate:	-0.829	Roll:	0.932	Pitch:	-2.803	Yaw:	202.325	Thrust:	96.352
Time:	10.132	Roll Set Point:	-0.109	Pitch Set Point:	-0.030	Yaw Set Point:	-2.492	X_WP:	0.069	Y_WP:	0.026	Y_WP:	0.500	X:	0.082	Y:	0.087	Z:	0.400	yaw:	142.780	yaw rate:	-17.460	Roll:	1.006	Pitch:	-2.767	Yaw:	201.016	Thrust:	96.613
Time:	10.163	Roll Set Point:	-0.109	Pitch Set Point:	-0.030	Yaw Set Point:	-2.493	X_WP:	0.069	Y_WP:	0.026	Y_WP:	0.500	X:	0.082	Y:	0.087	Z:	0.400	yaw:	142.858	yaw rate:	-7.179	Roll:	0.871	Pitch:	-2.833	Yaw:	203.250	Thrust:	97.321
Time:	10.195	Roll Set Point:	-0.108	Pitch Set Point:	-0.030	Yaw Set Point:	-2.496	X_WP:	0.069	Y_WP:	0.026	Y_WP:	0.500	X:	0.082	Y:	0.087	Z:	0.400	yaw:	142.992	yaw rate:	13.442	Roll:	0.840	Pitch:	-2.847	Yaw:	203.904	Thrust:	97.288
Time:	10.226	Roll Set Point:	-0.109	Pitch Set Point:	-0.030	Yaw Set Point:	-2.495	X_WP:	0.069	Y_WP:	0.026	Y_WP:	0.500	X:	0.082	Y:	0.087	Z:	0.400	yaw:	142.925	yaw rate:	-3.185	Roll:	0.953	Pitch:	-2.797	Yaw:	202.131	Thrust:	97.953
Time:	10.257	Roll Set Point:	-0.108	Pitch Set Point:	-0.030	Yaw Set Point:	-2.495	X_WP:	0.069	Y_WP:	0.026	Y_WP:	0.500	X:	0.082	Y:	0.087	Z:	0.400	yaw:	142.962	yaw rate:	3.653	Roll:	0.894	Pitch:	-2.822	Yaw:	203.042	Thrust:	98.213
Time:	10.288	Roll Set Point:	-0.109	Pitch Set Point:	-0.030	Yaw Set Point:	-2.494	X_WP:	0.069	Y_WP:	0.026	Y_WP:	0.500	X:	0.082	Y:	0.087	Z:	0.400	yaw:	142.913	yaw rate:	0.787	Roll:	0.947	Pitch:	-2.804	Yaw:	202.259	Thrust:	98.702
Time:	10.320	Roll Set Point:	-0.108	Pitch Set Point:	-0.030	Yaw Set Point:	-2.498	X_WP:	0.069	Y_WP:	0.026	Y_WP:	0.500	X:	0.082	Y:	0.087	Z:	0.400	yaw:	143.100	yaw rate:	18.699	Roll:	0.819	Pitch:	-2.858	Yaw:	204.497	Thrust:	98.871
Time:	10.351	Roll Set Point:	-0.108	Pitch Set Point:	-0.030	Yaw Set Point:	-2.496	X_WP:	0.069	Y_WP:	0.026	Y_WP:	0.500	X:	0.082	Y:	0.087	Z:	0.400	yaw:	143.034	yaw rate:	11.234	Roll:	0.954	Pitch:	-2.803	Yaw:	202.289	Thrust:	99.589
Time:	10.382	Roll Set Point:	-0.108	Pitch Set Point:	-0.030	Yaw Set Point:	-2.494	X_WP:	0.069	Y_WP:	0.026	Y_WP:	0.500	X:	0.082	Y:	0.087	Z:	0.400	yaw:	142.916	yaw rate:	1.473	Roll:	0.988	Pitch:	-2.786	Yaw:	201.685	Thrust:	99.599
Time:	10.419	Roll Set Point:	-0.108	Pitch Set Point:	-0.030	Yaw Set Point:	-2.495	X_WP:	0.069	Y_WP:	0.026	Y_WP:	0.500	X:	0.082	Y:	0.087	Z:	0.400	yaw:	142.943	yaw rate:	3.016	Roll:	0.943	Pitch:	-3.012	Yaw:	203.513	Thrust:	100.000
Time:	10.455	Roll Set Point:	-0.108	Pitch Set Point:	-0.030	Yaw Set Point:	-2.494	X_WP:	0.069	Y_WP:	0.026	Y_WP:	0.500	X:	0.082	Y:	0.087	Z:	0.400	yaw:	142.896	yaw rate:	-15.648	Roll:	0.978	Pitch:	-2.994	Yaw:	202.716	Thrust:	100.000
Time:	10.486	Roll Set Point:	-0.108	Pitch Set Point:	-0.030	Yaw Set Point:	-2.495	X_WP:	0.069	Y_WP:	0.026	Y_WP:	0.500	X:	0.082	Y:	0.087	Z:	0.400	yaw:	142.975	yaw rate:	7.846	Roll:	0.891	Pitch:	-2.838	Yaw:	203.420	Thrust:	100.000
Time:	10.519	Roll Set Point:	-0.108	Pitch Set Point:	-0.030	Yaw Set Point:	-2.498	X_WP:	0.069	Y_WP:	0.026	Y_WP:	0.500	X:	0.082	Y:	0.087	Z:	0.400	yaw:	143.110	yaw rate:	13.544	Roll:	0.865	Pitch:	-2.885	Yaw:	204.145	Thrust:	100.000
Time:	10.550	Roll Set Point:	-0.108	Pitch Set Point:	-0.030	Yaw Set Point:	-2.495	X_WP:	0.069	Y_WP:	0.026	Y_WP:	0.500	X:	0.082	Y:	0.087	Z:	0.400	yaw:	142.942	yaw rate:	-16.341	Roll:	1.021	Pitch:	-2.773	Yaw:	201.302	Thrust:	100.000
Time:	10.581	Roll Set Point:	-0.109	Pitch Set Point:	-0.030	Yaw Set Point:	-2.494	X_WP:	0.069	Y_WP:	0.026	Y_WP:	0.500	X:	0.082	Y:	0.087	Z:	0.400	yaw:	142.905	yaw rate:	-3.656	Roll:	0.961	Pitch:	-2.808	Yaw:	202.356	Thrust:	100.000
Time:	10.612	Roll Set Point:	-0.108	Pitch Set Point:	-0.030	Yaw Set Point:	-2.494	X_WP:	0.069	Y_WP:	0.026	Y_WP:	0.500	X:	0.082	Y:	0.087	Z:	0.400	yaw:	142.923	yaw rate:	-8.791	Roll:	0.929	Pitch:	-2.818	Yaw:	202.833	Thrust:	100.000
Time:	10.644	Roll Set Point:	-0.108	Pitch Set Point:	-0.030	Yaw Set Point:	-2.498	X_WP:	0.069	Y_WP:	0.026	Y_WP:	0.500	X:	0.082	Y:	0.087	Z:	0.400	yaw:	143.101	yaw rate:	17.806	Roll:	0.843	Pitch:	-2.855	Yaw:	204.422	Thrust:	100.000
Time:	10.675	Roll Set Point:	-0.108	Pitch Set Point:	-0.030	Yaw Set Point:	-2.495	X_WP:	0.069	Y_WP:	0.026	Y_WP:	0.500	X:	0.082	Y:	0.087	Z:	0.400	yaw:	142.932	yaw rate:	2.153	Roll:	1.032	Pitch:	-2.776	Yaw:	201.280	Thrust:	100.000
Time:	10.706	Roll Set Point:	-0.109	Pitch Set Point:	-0.030	Yaw Set Point:	-2.492	X_WP:	0.069	Y_WP:	0.026	Y_WP:	0.500	X:	0.082	Y:	0.087	Z:	0.400	yaw:	142.798	yaw rate:	-13.461	Roll:	1.022	Pitch:	-2.779	Yaw:	201.385	Thrust:	100.000
