Time:	2.126	Roll Set Point:	-0.234	Pitch Set Point:	-0.122	Yaw Set Point:	-0.577	X_WP:	0.000	Y_WP:	0.000	Y_WP:	0.500	X:	0.099	Y:	0.096	Z:	0.399	yaw:	33.077	yaw rate:	2.321	Roll:	3.923	Pitch:	0.753	Yaw:	46.185	Thrust:	5.579
Time:	2.141	Roll Set Point:	-0.234	Pitch Set Point:	-0.122	Yaw Set Point:	-0.578	X_WP:	0.000	Y_WP:	0.000	Y_WP:	0.500	X:	0.099	Y:	0.096	Z:	0.398	yaw:	33.123	yaw rate:	4.538	Roll:	3.965	Pitch:	0.705	Yaw:	47.188	Thrust:	6.034
Time:	2.157	Roll Set Point:	-0.234	Pitch Set Point:	-0.122	Yaw Set Point:	-0.578	X_WP:	0.000	Y_WP:	0.000	Y_WP:	0.500	X:	0.099	Y:	0.096	Z:	0.398	yaw:	33.123	yaw rate:	4.538	Roll:	3.935	Pitch:	0.754	Yaw:	46.609	Thrust:	5.964
Time:	2.172	Roll Set Point:	-0.234	Pitch Set Point:	-0.122	Yaw Set Point:	-0.578	X_WP:	0.000	Y_WP:	0.000	Y_WP:	0.500	X:	0.099	Y:	0.096	Z:	0.399	yaw:	33.092	yaw rate:	-3.063	Roll:	3.916	Pitch:	0.841	Yaw:	46.233	Thrust:	5.973
Time:	2.188	Roll Set Point:	-0.235	Pitch Set Point:	-0.122	Yaw Set Point:	-0.577	X_WP:	0.000	Y_WP:	0.000	Y_WP:	0.500	X:	0.099	Y:	0.096	Z:	0.399	yaw:	33.076	yaw rate:	-1.561	Roll:	3.952	Pitch:	0.703	Yaw:	46.647	Thrust:	6.339
Time:	2.204	Roll Set Point:	-0.234	Pitch Set Point:	-0.122	Yaw Set Point:	-0.577	X_WP:	0.000	Y_WP:	0.000	Y_WP:	0.500	X:	0.099	Y:	0.096	Z:	0.399	yaw:	33.082	yaw rate:	2.140	Roll:	3.938	Pitch:	0.826	Yaw:	47.182	Thrust:	6.489
Time:	2.219	Roll Set Point:	-0.234	Pitch Set Point:	-0.122	Yaw Set Point:	-0.577	X_WP:	0.000	Y_WP:	0.000	Y_WP:	0.500	X:	0.099	Y:	0.096	Z:	0.399	yaw:	33.032	yaw rate:	-4.938	Roll:	3.937	Pitch:	0.828	Yaw:	46.374	Thrust:	6.663
Time:	2.235	Roll Set Point:	-0.234	Pitch Set Point:	-0.122	Yaw Set Point:	-0.577	X_WP:	0.000	Y_WP:	0.000	Y_WP:	0.500	X:	0.099	Y:	0.096	Z:	0.399	yaw:	33.079	yaw rate:	4.674	Roll:	3.978	Pitch:	0.633	Yaw:	48.234	Thrust:	6.919
Time:	2.251	Roll Set Point:	-0.234	Pitch Set Point:	-0.121	Yaw Set Point:	-0.577	X_WP:	0.000	Y_WP:	0.000	Y_WP:	0.500	X:	0.099	Y:	0.096	Z:	0.399	yaw:	33.087	yaw rate:	0.802	Roll:	3.951	Pitch:	0.724	Yaw:	47.779	Thrust:	7.139
Time:	2.266	Roll Set Point:	-0.234	Pitch Set Point:	-0.122	Yaw Set Point:	-0.577	X_WP:	0.000	Y_WP:	0.000	Y_WP:	0.500	X:	0.099	Y:	0.096	Z:	0.399	yaw:	33.073	yaw rate:	-1.374	Roll:	3.990	Pitch:	0.826	Yaw:	47.508	Thrust:	7.350
Time:	2.282	Roll Set Point:	-0.234	Pitch Set Point:	-0.122	Yaw Set Point:	-0.577	X_WP:	0.000	Y_WP:	0.000	Y_WP:	0.500	X:	0.099	Y:	0.096	Z:	0.399	yaw:	33.070	yaw rate:	-0.333	Roll:	3.980	Pitch:	0.802	Yaw:	47.681	Thrust:	7.406
Time:	2.297	Roll Set Point:	-0.234	Pitch Set Point:	-0.122	Yaw Set Point:	-0.577	X_WP:	0.000	Y_WP:	0.000	Y_WP:	0.500	X:	0.099	Y:	0.096	Z:	0.399	yaw:	33.061	yaw rate:	-0.932	Roll:	3.968	Pitch:	0.760	Yaw:	47.568	Thrust:	7.631
Time:	2.313	Roll Set Point:	-0.234	Pitch Set Point:	-0.122	Yaw Set Point:	-0.577	X_WP:	0.000	Y_WP:	0.000	Y_WP:	0.500	X:	0.099	Y:	0.096	Z:	0.399	yaw:	33.061	yaw rate:	-0.932	Roll:	3.987	Pitch:	0.766	Yaw:	47.724	Thrust:	7.862
Time:	2.329	Roll Set Point:	-0.235	Pitch Set Point:	-0.122	Yaw Set Point:	-0.577	X_WP:	0.000	Y_WP:	0.000	Y_WP:	0.500	X:	0.099	Y:	0.096	Z:	0.399	yaw:	33.071	yaw rate:	1.884	Roll:	4.005	Pitch:	0.735	Yaw:	47.918	Thrust:	8.219
Time:	2.344	Roll Set Point:	-0.235	Pitch Set Point:	-0.122	Yaw Set Point:	-0.577	X_WP:	0.000	Y_WP:	0.000	Y_WP:	0.500	X:	0.099	Y:	0.096	Z:	0.399	yaw:	33.042	yaw rate:	-2.933	Roll:	3.991	Pitch:	0.799	Yaw:	47.207	Thrust:	7.935
Time:	2.360	Roll Set Point:	-0.235	Pitch Set Point:	-0.122	Yaw Set Point:	-0.577	X_WP:	0.000	Y_WP:	0.000	Y_WP:	0.500	X:	0.099	Y:	0.096	Z:	0.399	yaw:	33.088	yaw rate:	4.557	Roll:	4.029	Pitch:	0.724	Yaw:	48.525	Thrust:	8.660
Time:	2.376	Roll Set Point:	-0.235	Pitch Set Point:	-0.122	Yaw Set Point:	-0.577	X_WP:	0.000	Y_WP:	0.000	Y_WP:	0.500	X:	0.099	Y:	0.096	Z:	0.399	yaw:	33.088	yaw rate:	4.557	Roll:	4.009	Pitch:	0.769	Yaw:	47.762	Thrust:	8.624
Time:	2.391	Roll Set Point:	-0.234	Pitch Set Point:	-0.122	Yaw Set Point:	-0.577	X_WP:	0.000	Y_WP:	0.000	Y_WP:	0.500	X:	0.099	Y:	0.096	Z:	0.399	yaw:	33.068	yaw rate:	1.450	Roll:	3.967	Pitch:	0.800	Yaw:	47.406	Thrust:	8.813
Time:	2.407	Roll Set Point:	-0.235	Pitch Set Point:	-0.122	Yaw Set Point:	-0.577	X_WP:	0.000	Y_WP:	0.000	Y_WP:	0.500	X:	0.099	Y:	0.096	Z:	0.399	yaw:	33.061	yaw rate:	-0.717	Roll:	4.060	Pitch:	0.769	Yaw:	47.604	Thrust:	8.986
Time:	2.423	Roll Set Point:	-0.234	Pitch Set Point:	-0.122	Yaw Set Point:	-0.577	X_WP:	0.000	Y_WP:	0.000	Y_WP:	0.500	X:	0.099	Y:	0.096	Z:	0.399	yaw:	33.080	yaw rate:	1.860	Roll:	3.997	Pitch:	0.813	Yaw:	48.128	Thrust:	9.429
Time:	2.438	Roll Set Point:	-0.234	Pitch Set Point:	-0.122	Yaw Set Point:	-0.577	X_WP:	0.000	Y_WP:	0.000	Y_WP:	0.500	X:	0.099	Y:	0.096	Z:	0.399	yaw:	33.070	yaw rate:	-0.929	Roll:	4.038	Pitch:	0.737	Yaw:	47.517	Thrust:	9.224
Time:	2.456	Roll Set Point:	-0.234	Pitch Set Point:	-0.122	Yaw Set Point:	-0.577	X_WP:	0.000	Y_WP:	0.000	Y_WP:	0.500	X:	0.099	Y:	0.096	Z:	0.399	yaw:	33.070	yaw rate:	-0.929	Roll:	4.050	Pitch:	0.778	Yaw:	47.958	Thrust:	10.141
Time:	2.472	Roll Set Point:	-0.234	Pitch Set Point:	-0.122	Yaw Set Point:	-0.577	X_WP:	0.000	Y_WP:	0.000	Y_WP:	0.500	X:	0.099	Y:	0.096	Z:	0.399	yaw:	33.053	yaw rate:	-1.693	Roll:	4.020	Pitch:	0.811	Yaw:	47.430	Thrust:	9.706
Time:	2.487	Roll Set Point:	-0.234	Pitch Set Point:	-0.122	Yaw Set Point:	-0.578	X_WP:	0.000	Y_WP:	0.000	Y_WP:	0.500	X:	0.099	Y:	0.096	Z:	0.399	yaw:	33.095	yaw rate:	4.162	Roll:	4.090	Pitch:	0.721	Yaw:	48.469	Thrust:	10.027
Time:	2.503	Roll Set Point:	-0.234	Pitch Set Point:	-0.122	Yaw Set Point:	-0.577	X_WP:	0.000	Y_WP:	0.000	Y_WP:	0.500	X:	0.099	Y:	0.096	Z:	0.399	yaw:	33.066	yaw rate:	-2.873	Roll:	4.015	Pitch:	0.784	Yaw:	47.251	Thrust:	10.094
Time:	2.519	Roll Set Point:	-0.234	Pitch Set Point:	-0.122	Yaw Set Point:	-0.577	X_WP:	0.000	Y_WP:	0.000	Y_WP:	0.500	X:	0.099	Y:	0.096	Z:	0.399	yaw:	33.066	yaw rate:	-2.873	Roll:	4.056	Pitch:	0.779	Yaw:	47.735	Thrust:	10.346
Time:	2.534	Roll Set Point:	-0.235	Pitch Set Point:	-0.122	Yaw Set Point:	-0.577	X_WP:	0.000	Y_WP:	0.000	Y_WP:	0.500	X:	0.099	Y:	0.096	Z:	0.399	yaw:	33.074	yaw rate:	1.631	Roll:	4.088	Pitch:	0.782	Yaw:	47.861	Thrust:	10.541
Time:	2.550	Roll Set Point:	-0.234	Pitch Set Point:	-0.122	Yaw Set Point:	-0.578	X_WP:	0.000	Y_WP:	0.000	Y_WP:	0.500	X:	0.099	Y:	0.096	Z:	0.399	yaw:	33.098	yaw rate:	2.448	Roll:	4.071	Pitch:	0.807	Yaw:	48.191	Thrust:	10.771
Time:	2.566	Roll Set Point:	-0.234	Pitch Set Point:	-0.122	Yaw Set Point:	-0.577	X_WP:	0.000	Y_WP:	0.000	Y_WP:	0.500	X:	0.099	Y:	0.096	Z:	0.399	yaw:	33.032	yaw rate:	-6.625	Roll:	4.019	Pitch:	0.851	Yaw:	46.573	Thrust:	10.742
Time:	2.581	Roll Set Point:	-0.235	Pitch Set Point:	-0.121	Yaw Set Point:	-0.578	X_WP:	0.000	Y_WP:	0.000	Y_WP:	0.500	X:	0.099	Y:	0.096	Z:	0.399	yaw:	33.132	yaw rate:	10.007	Roll:	4.140	Pitch:	0.553	Yaw:	49.500	Thrust:	11.320
Time:	2.597	Roll Set Point:	-0.234	Pitch Set Point:	-0.122	Yaw Set Point:	-0.577	X_WP:	0.000	Y_WP:	0.000	Y_WP:	0.500	X:	0.099	Y:	0.096	Z:	0.399	yaw:	33.049	yaw rate:	-8.266	Roll:	4.041	Pitch:	0.959	Yaw:	46.323	Thrust:	11.064
Time:	2.612	Roll Set Point:	-0.234	Pitch Set Point:	-0.122	Yaw Set Point:	-0.577	X_WP:	0.000	Y_WP:	0.000	Y_WP:	0.500	X:	0.099	Y:	0.096	Z:	0.399	yaw:	33.071	yaw rate:	2.173	Roll:	4.103	Pitch:	0.760	Yaw:	48.102	Thrust:	11.550
Time:	2.628	Roll Set Point:	-0.235	Pitch Set Point:	-0.122	Yaw Set Point:	-0.577	X_WP:	0.000	Y_WP:	0.000	Y_WP:	0.500	X:	0.099	Y:	0.096	Z:	0.399	yaw:	33.064	yaw rate:	-0.708	Roll:	4.104	Pitch:	0.756	Yaw:	47.610	Thrust:	11.646
Time:	2.644	Roll Set Point:	-0.235	Pitch Set Point:	-0.122	Yaw Set Point:	-0.577	X_WP:	0.000	Y_WP:	0.000	Y_WP:	0.500	X:	0.099	Y:	0.096	Z:	0.399	yaw:	33.083	yaw rate:	1.904	Roll:	4.090	Pitch:	0.752	Yaw:	48.074	Thrust:	11.936
Time:	2.659	Roll Set Point:	-0.235	Pitch Set Point:	-0.122	Yaw Set Point:	-0.577	X_WP:	0.000	Y_WP:	0.000	Y_WP:	0.500	X:	0.099	Y:	0.096	Z:	0.399	yaw:	33.085	yaw rate:	0.207	Roll:	4.114	Pitch:	0.779	Yaw:	47.792	Thrust:	12.076
Time:	2.675	Roll Set Point:	-0.234	Pitch Set Point:	-0.122	Yaw Set Point:	-0.577	X_WP:	0.000	Y_WP:	0.000	Y_WP:	0.500	X:	0.099	Y:	0.096	Z:	0.399	yaw:	33.070	yaw rate:	-1.468	Roll:	4.093	Pitch:	0.878	Yaw:	47.495	Thrust:	12.113
Time:	2.691	Roll Set Point:	-0.234	Pitch Set Point:	-0.122	Yaw Set Point:	-0.577	X_WP:	0.000	Y_WP:	0.000	Y_WP:	0.500	X:	0.099	Y:	0.096	Z:	0.399	yaw:	33.071	yaw rate:	0.097	Roll:	4.105	Pitch:	0.761	Yaw:	47.752	Thrust:	12.406
Time:	2.706	Roll Set Point:	-0.234	Pitch Set Point:	-0.122	Yaw Set Point:	-0.577	X_WP:	0.000	Y_WP:	0.000	Y_WP:	0.500	X:	0.099	Y:	0.096	Z:	0.399	yaw:	33.072	yaw rate:	0.084	Roll:	4.116	Pitch:	0.778	Yaw:	47.757	Thrust:	12.691
Time:	2.722	Roll Set Point:	-0.234	Pitch Set Point:	-0.122	Yaw Set Point:	-0.577	X_WP:	0.000	Y_WP:	0.000	Y_WP:	0.500	X:	0.099	Y:	0.096	Z:	0.399	yaw:	33.072	yaw rate:	0.084	Roll:	4.124	Pitch:	0.792	Yaw:	47.737	Thrust:	12.795
Time:	2.737	Roll Set Point:	-0.234	Pitch Set Point:	-0.122	Yaw Set Point:	-0.578	X_WP:	0.000	Y_WP:	0.000	Y_WP:	0.500	X:	0.099	Y:	0.096	Z:	0.399	yaw:	33.098	yaw rate:	3.921	Roll:	4.158	Pitch:	0.773	Yaw:	48.207	Thrust:	13.011
Time:	2.753	Roll Set Point:	-0.234	Pitch Set Point:	-0.122	Yaw Set Point:	-0.577	X_WP:	0.000	Y_WP:	0.000	Y_WP:	0.500	X:	0.099	Y:	0.096	Z:	0.399	yaw:	33.068	yaw rate:	-3.011	Roll:	4.113	Pitch:	0.818	Yaw:	47.229	Thrust:	13.181
Time:	2.769	Roll Set Point:	-0.235	Pitch Set Point:	-0.121	Yaw Set Point:	-0.577	X_WP:	0.000	Y_WP:	0.000	Y_WP:	0.500	X:	0.099	Y:	0.096	Z:	0.399	yaw:	33.073	yaw rate:	0.573	Roll:	4.144	Pitch:	0.750	Yaw:	47.841	Thrust:	13.416
Time:	2.784	Roll Set Point:	-0.234	Pitch Set Point:	-0.122	Yaw Set Point:	-0.577	X_WP:	0.000	Y_WP:	0.000	Y_WP:	0.500	X:	0.099	Y:	0.096	Z:	0.399	yaw:	33.086	yaw rate:	1.272	Roll:	4.143	Pitch:	0.853	Yaw:	47.970	Thrust:	13.632
Time:	2.800	Roll Set Point:	-0.235	Pitch Set Point:	-0.122	Yaw Set Point:	-0.578	X_WP:	0.000	Y_WP:	0.000	Y_WP:	0.500	X:	0.099	Y:	0.096	Z:	0.398	yaw:	33.120	yaw rate:	3.365	Roll:	4.198	Pitch:	0.754	Yaw:	48.373	Thrust:	13.869
Time:	2.816	Roll Set Point:	-0.234	Pitch Set Point:	-0.122	Yaw Set Point:	-0.577	X_WP:	0.000	Y_WP:	0.000	Y_WP:	0.500	X:	0.099	Y:	0.096	Z:	0.399	yaw:	33.076	yaw rate:	-4.372	Roll:	4.094	Pitch:	0.833	Yaw:	47.007	Thrust:	13.753
Time:	2.831	Roll Set Point:	-0.234	Pitch Set Point:	-0.122	Yaw Set Point:	-0.577	X_WP:	0.000	Y_WP:	0.000	Y_WP:	0.500	X:	0.099	Y:	0.096	Z:	0.399	yaw:	33.068	yaw rate:	-0.763	Roll:	4.153	Pitch:	0.797	Yaw:	47.610	Thrust:	14.178
Time:	2.847	Roll Set Point:	-0.234	Pitch Set Point:	-0.122	Yaw Set Point:	-0.577	X_WP:	0.000	Y_WP:	0.000	Y_WP:	0.500	X:	0.099	Y:	0.096	Z:	0.399	yaw:	33.054	yaw rate:	-1.430	Roll:	4.174	Pitch:	0.803	Yaw:	47.473	Thrust:	14.310
Time:	2.862	Roll Set Point:	-0.234	Pitch Set Point:	-0.122	Yaw Set Point:	-0.577	X_WP:	0.000	Y_WP:	0.000	Y_WP:	0.500	X:	0.099	Y:	0.096	Z:	0.399	yaw:	33.084	yaw rate:	2.948	Roll:	4.200	Pitch:	0.813	Yaw:	48.250	Thrust:	14.471
Time:	2.878	Roll Set Point:	-0.234	Pitch Set Point:	-0.122	Yaw Set Point:	-0.577	X_WP:	0.000	Y_WP:	0.000	Y_WP:	0.500	X:	0.099	Y:	0.096	Z:	0.399	yaw:	33.062	yaw rate:	-2.134	Roll:	4.165	Pitch:	0.828	Yaw:	47.369	Thrust:	14.773
Time:	2.894	Roll Set Point:	-0.234	Pitch Set Point:	-0.122	Yaw Set Point:	-0.577	X_WP:	0.000	Y_WP:	0.000	Y_WP:	0.500	X:	0.099	Y:	0.096	Z:	0.399	yaw:	33.062	yaw rate:	-2.134	Roll:	4.182	Pitch:	0.804	Yaw:	47.726	Thrust:	14.901
Time:	2.909	Roll Set Point:	-0.234	Pitch Set Point:	-0.122	Yaw Set Point:	-0.577	X_WP:	0.000	Y_WP:	0.000	Y_WP:	0.500	X:	0.099	Y:	0.096	Z:	0.399	yaw:	33.041	yaw rate:	-0.222	Roll:	4.165	Pitch:	0.811	Yaw:	47.344	Thrust:	15.082
Time:	2.925	Roll Set Point:	-0.234	Pitch Set Point:	-0.122	Yaw Set Point:	-0.577	X_WP:	0.000	Y_WP:	0.000	Y_WP:	0.500	X:	0.099	Y:	0.096	Z:	0.399	yaw:	33.069	yaw rate:	2.799	Roll:	4.220	Pitch:	0.790	Yaw:	48.207	Thrust:	15.285
Time:	2.941	Roll Set Point:	-0.234	Pitch Set Point:	-0.122	Yaw Set Point:	-0.577	X_WP:	0.000	Y_WP:	0.000	Y_WP:	0.500	X:	0.099	Y:	0.096	Z:	0.399	yaw:	33.071	yaw rate:	0.228	Roll:	4.189	Pitch:	0.812	Yaw:	47.778	Thrust:	15.378
Time:	2.956	Roll Set Point:	-0.234	Pitch Set Point:	-0.122	Yaw Set Point:	-0.577	X_WP:	0.000	Y_WP:	0.000	Y_WP:	0.500	X:	0.099	Y:	0.096	Z:	0.399	yaw:	33.071	yaw rate:	0.228	Roll:	4.203	Pitch:	0.808	Yaw:	47.736	Thrust:	15.638
Time:	2.972	Roll Set Point:	-0.235	Pitch Set Point:	-0.122	Yaw Set Point:	-0.577	X_WP:	0.000	Y_WP:	0.000	Y_WP:	0.500	X:	0.099	Y:	0.096	Z:	0.399	yaw:	33.085	yaw rate:	1.584	Roll:	4.218	Pitch:	0.719	Yaw:	47.994	Thrust:	16.066
Time:	3.000	Roll Set Point:	-0.234	Pitch Set Point:	-0.122	Yaw Set Point:	-0.578	X_WP:	0.000	Y_WP:	0.000	Y_WP:	0.500	X:	0.099	Y:	0.096	Z:	0.399	yaw:	33.106	yaw rate:	3.619	Roll:	4.452	Pitch:	0.853	Yaw:	49.229	Thrust:	24.417
Time:	3.016	Roll Set Point:	-0.234	Pitch Set Point:	-0.122	Yaw Set Point:	-0.578	X_WP:	0.000	Y_WP:	0.000	Y_WP:	0.500	X:	0.099	Y:	0.096	Z:	0.399	yaw:	33.106	yaw rate:	3.619	Roll:	4.220	Pitch:	0.809	Yaw:	47.787	Thrust:	16.235
Time:	3.031	Roll Set Point:	-0.234	Pitch Set Point:	-0.122	Yaw Set Point:	-0.577	X_WP:	0.000	Y_WP:	0.000	Y_WP:	0.500	X:	0.099	Y:	0.096	Z:	0.399	yaw:	33.077	yaw rate:	0.390	Roll:	4.209	Pitch:	0.865	Yaw:	47.271	Thrust:	16.358
Time:	3.047	Roll Set Point:	-0.234	Pitch Set Point:	-0.122	Yaw Set Point:	-0.577	X_WP:	0.000	Y_WP:	0.000	Y_WP:	0.500	X:	0.099	Y:	0.096	Z:	0.399	yaw:	33.062	yaw rate:	-1.515	Roll:	4.223	Pitch:	0.816	Yaw:	47.473	Thrust:	16.552
Time:	3.062	Roll Set Point:	-0.234	Pitch Set Point:	-0.122	Yaw Set Point:	-0.577	X_WP:	0.000	Y_WP:	0.000	Y_WP:	0.500	X:	0.099	Y:	0.096	Z:	0.399	yaw:	33.039	yaw rate:	-2.317	Roll:	4.235	Pitch:	0.933	Yaw:	47.306	Thrust:	16.891
Time:	3.078	Roll Set Point:	-0.234	Pitch Set Point:	-0.122	Yaw Set Point:	-0.577	X_WP:	0.000	Y_WP:	0.000	Y_WP:	0.500	X:	0.099	Y:	0.096	Z:	0.399	yaw:	33.067	yaw rate:	2.831	Roll:	4.251	Pitch:	0.751	Yaw:	48.208	Thrust:	16.996
Time:	3.094	Roll Set Point:	-0.234	Pitch Set Point:	-0.122	Yaw Set Point:	-0.577	X_WP:	0.000	Y_WP:	0.000	Y_WP:	0.500	X:	0.099	Y:	0.096	Z:	0.399	yaw:	33.061	yaw rate:	-0.613	Roll:	4.218	Pitch:	0.790	Yaw:	47.622	Thrust:	17.110
Time:	3.109	Roll Set Point:	-0.234	Pitch Set Point:	-0.122	Yaw Set Point:	-0.577	X_WP:	0.000	Y_WP:	0.000	Y_WP:	0.500	X:	0.099	Y:	0.096	Z:	0.398	yaw:	33.086	yaw rate:	2.488	Roll:	4.280	Pitch:	0.751	Yaw:	48.179	Thrust:	17.567
Time:	3.125	Roll Set Point:	-0.234	Pitch Set Point:	-0.122	Yaw Set Point:	-0.577	X_WP:	0.000	Y_WP:	0.000	Y_WP:	0.500	X:	0.099	Y:	0.096	Z:	0.399	yaw:	33.051	yaw rate:	-3.512	Roll:	4.259	Pitch:	0.936	Yaw:	47.118	Thrust:	17.300
Time:	3.141	Roll Set Point:	-0.234	Pitch Set Point:	-0.122	Yaw Set Point:	-0.578	X_WP:	0.000	Y_WP:	0.000	Y_WP:	0.500	X:	0.099	Y:	0.096	Z:	0.399	yaw:	33.100	yaw rate:	4.867	Roll:	4.284	Pitch:	0.744	Yaw:	48.594	Thrust:	17.877
Time:	3.156	Roll Set Point:	-0.234	Pitch Set Point:	-0.122	Yaw Set Point:	-0.577	X_WP:	0.000	Y_WP:	0.000	Y_WP:	0.500	X:	0.099	Y:	0.096	Z:	0.399	yaw:	33.070	yaw rate:	-3.004	Roll:	4.231	Pitch:	0.819	Yaw:	47.233	Thrust:	17.912
Time:	3.172	Roll Set Point:	-0.234	Pitch Set Point:	-0.122	Yaw Set Point:	-0.577	X_WP:	0.000	Y_WP:	0.000	Y_WP:	0.500	X:	0.099	Y:	0.096	Z:	0.399	yaw:	33.053	yaw rate:	-1.647	Roll:	4.271	Pitch:	0.863	Yaw:	47.438	Thrust:	18.183
Time:	3.187	Roll Set Point:	-0.234	Pitch Set Point:	-0.122	Yaw Set Point:	-0.578	X_WP:	0.000	Y_WP:	0.000	Y_WP:	0.500	X:	0.099	Y:	0.096	Z:	0.399	yaw:	33.092	yaw rate:	3.909	Roll:	4.296	Pitch:	0.757	Yaw:	48.423	Thrust:	18.293
Time:	3.203	Roll Set Point:	-0.234	Pitch Set Point:	-0.122	Yaw Set Point:	-0.577	X_WP:	0.000	Y_WP:	0.000	Y_WP:	0.500	X:	0.099	Y:	0.096	Z:	0.399	yaw:	33.078	yaw rate:	-1.398	Roll:	4.283	Pitch:	0.912	Yaw:	47.515	Thrust:	18.539
Time:	3.219	Roll Set Point:	-0.234	Pitch Set Point:	-0.122	Yaw Set Point:	-0.577	X_WP:	0.000	Y_WP:	0.000	Y_WP:	0.500	X:	0.099	Y:	0.096	Z:	0.399	yaw:	33.080	yaw rate:	0.180	Roll:	4.272	Pitch:	0.783	Yaw:	47.781	Thrust:	18.626
Time:	3.234	Roll Set Point:	-0.234	Pitch Set Point:	-0.122	Yaw Set Point:	-0.577	X_WP:	0.000	Y_WP:	0.000	Y_WP:	0.500	X:	0.099	Y:	0.096	Z:	0.399	yaw:	33.077	yaw rate:	-0.342	Roll:	4.301	Pitch:	0.774	Yaw:	47.689	Thrust:	19.041
Time:	3.250	Roll Set Point:	-0.234	Pitch Set Point:	-0.122	Yaw Set Point:	-0.577	X_WP:	0.000	Y_WP:	0.000	Y_WP:	0.500	X:	0.099	Y:	0.096	Z:	0.399	yaw:	33.086	yaw rate:	0.899	Roll:	4.311	Pitch:	0.850	Yaw:	47.913	Thrust:	19.141
Time:	3.266	Roll Set Point:	-0.234	Pitch Set Point:	-0.122	Yaw Set Point:	-0.577	X_WP:	0.000	Y_WP:	0.000	Y_WP:	0.500	X:	0.099	Y:	0.096	Z:	0.399	yaw:	33.081	yaw rate:	-0.429	Roll:	4.310	Pitch:	0.840	Yaw:	47.678	Thrust:	19.054
Time:	3.281	Roll Set Point:	-0.234	Pitch Set Point:	-0.122	Yaw Set Point:	-0.577	X_WP:	0.000	Y_WP:	0.000	Y_WP:	0.500	X:	0.099	Y:	0.096	Z:	0.399	yaw:	33.081	yaw rate:	-0.429	Roll:	4.310	Pitch:	0.828	Yaw:	47.753	Thrust:	19.466
Time:	3.297	Roll Set Point:	-0.234	Pitch Set Point:	-0.122	Yaw Set Point:	-0.578	X_WP:	0.000	Y_WP:	0.000	Y_WP:	0.500	X:	0.099	Y:	0.096	Z:	0.399	yaw:	33.090	yaw rate:	4.384	Roll:	4.295	Pitch:	0.778	Yaw:	47.909	Thrust:	19.822
Time:	3.312	Roll Set Point:	-0.234	Pitch Set Point:	-0.122	Yaw Set Point:	-0.578	X_WP:	0.000	Y_WP:	0.000	Y_WP:	0.500	X:	0.099	Y:	0.096	Z:	0.399	yaw:	33.090	yaw rate:	4.384	Roll:	4.319	Pitch:	0.828	Yaw:	47.762	Thrust:	19.822
Time:	3.328	Roll Set Point:	-0.234	Pitch Set Point:	-0.122	Yaw Set Point:	-0.577	X_WP:	0.000	Y_WP:	0.000	Y_WP:	0.500	X:	0.099	Y:	0.096	Z:	0.399	yaw:	33.081	yaw rate:	-0.889	Roll:	4.324	Pitch:	0.867	Yaw:	47.604	Thrust:	20.044
Time:	3.344	Roll Set Point:	-0.234	Pitch Set Point:	-0.122	Yaw Set Point:	-0.577	X_WP:	0.000	Y_WP:	0.000	Y_WP:	0.500	X:	0.099	Y:	0.096	Z:	0.399	yaw:	33.045	yaw rate:	-4.354	Roll:	4.322	Pitch:	0.972	Yaw:	47.094	Thrust:	20.175
Time:	3.359	Roll Set Point:	-0.234	Pitch Set Point:	-0.122	Yaw Set Point:	-0.578	X_WP:	0.000	Y_WP:	0.000	Y_WP:	0.500	X:	0.099	Y:	0.096	Z:	0.399	yaw:	33.090	yaw rate:	4.547	Roll:	4.341	Pitch:	0.727	Yaw:	48.527	Thrust:	20.512
Time:	3.375	Roll Set Point:	-0.234	Pitch Set Point:	-0.122	Yaw Set Point:	-0.577	X_WP:	0.000	Y_WP:	0.000	Y_WP:	0.500	X:	0.099	Y:	0.096	Z:	0.399	yaw:	33.066	yaw rate:	-2.365	Roll:	4.341	Pitch:	0.776	Yaw:	47.332	Thrust:	20.508
Time:	3.391	Roll Set Point:	-0.234	Pitch Set Point:	-0.122	Yaw Set Point:	-0.577	X_WP:	0.000	Y_WP:	0.000	Y_WP:	0.500	X:	0.099	Y:	0.096	Z:	0.399	yaw:	33.066	yaw rate:	-2.365	Roll:	4.346	Pitch:	0.834	Yaw:	47.732	Thrust:	20.802
Time:	3.406	Roll Set Point:	-0.234	Pitch Set Point:	-0.122	Yaw Set Point:	-0.577	X_WP:	0.000	Y_WP:	0.000	Y_WP:	0.500	X:	0.099	Y:	0.096	Z:	0.399	yaw:	33.064	yaw rate:	0.234	Roll:	4.353	Pitch:	0.935	Yaw:	47.686	Thrust:	20.933
Time:	3.422	Roll Set Point:	-0.234	Pitch Set Point:	-0.122	Yaw Set Point:	-0.577	X_WP:	0.000	Y_WP:	0.000	Y_WP:	0.500	X:	0.099	Y:	0.096	Z:	0.399	yaw:	33.083	yaw rate:	1.886	Roll:	4.363	Pitch:	0.742	Yaw:	48.071	Thrust:	21.308
Time:	3.437	Roll Set Point:	-0.235	Pitch Set Point:	-0.121	Yaw Set Point:	-0.577	X_WP:	0.000	Y_WP:	0.000	Y_WP:	0.500	X:	0.099	Y:	0.096	Z:	0.399	yaw:	33.080	yaw rate:	-0.250	Roll:	4.360	Pitch:	0.797	Yaw:	47.709	Thrust:	21.303
Time:	3.453	Roll Set Point:	-0.234	Pitch Set Point:	-0.122	Yaw Set Point:	-0.578	X_WP:	0.000	Y_WP:	0.000	Y_WP:	0.500	X:	0.099	Y:	0.096	Z:	0.399	yaw:	33.089	yaw rate:	0.917	Roll:	4.372	Pitch:	0.908	Yaw:	47.918	Thrust:	21.670
Time:	3.469	Roll Set Point:	-0.235	Pitch Set Point:	-0.122	Yaw Set Point:	-0.577	X_WP:	0.000	Y_WP:	0.000	Y_WP:	0.500	X:	0.099	Y:	0.096	Z:	0.399	yaw:	33.039	yaw rate:	-5.000	Roll:	4.359	Pitch:	0.872	Yaw:	46.857	Thrust:	21.455
Time:	3.484	Roll Set Point:	-0.235	Pitch Set Point:	-0.122	Yaw Set Point:	-0.577	X_WP:	0.000	Y_WP:	0.000	Y_WP:	0.500	X:	0.099	Y:	0.096	Z:	0.399	yaw:	33.039	yaw rate:	-5.000	Roll:	4.378	Pitch:	0.842	Yaw:	47.694	Thrust:	21.938
Time:	3.500	Roll Set Point:	-0.234	Pitch Set Point:	-0.122	Yaw Set Point:	-0.577	X_WP:	0.000	Y_WP:	0.000	Y_WP:	0.500	X:	0.099	Y:	0.096	Z:	0.399	yaw:	33.077	yaw rate:	-1.772	Roll:	4.389	Pitch:	0.779	Yaw:	48.381	Thrust:	22.415
Time:	3.516	Roll Set Point:	-0.235	Pitch Set Point:	-0.122	Yaw Set Point:	-0.577	X_WP:	0.000	Y_WP:	0.000	Y_WP:	0.500	X:	0.099	Y:	0.096	Z:	0.399	yaw:	33.077	yaw rate:	-0.041	Roll:	4.404	Pitch:	0.844	Yaw:	47.743	Thrust:	22.297
Time:	3.531	Roll Set Point:	-0.234	Pitch Set Point:	-0.122	Yaw Set Point:	-0.577	X_WP:	0.000	Y_WP:	0.000	Y_WP:	0.500	X:	0.099	Y:	0.096	Z:	0.399	yaw:	33.032	yaw rate:	-4.494	Roll:	4.368	Pitch:	0.995	Yaw:	46.927	Thrust:	22.384
Time:	3.547	Roll Set Point:	-0.234	Pitch Set Point:	-0.122	Yaw Set Point:	-0.578	X_WP:	0.000	Y_WP:	0.000	Y_WP:	0.500	X:	0.099	Y:	0.096	Z:	0.399	yaw:	33.092	yaw rate:	5.970	Roll:	4.430	Pitch:	0.739	Yaw:	48.767	Thrust:	22.843
Time:	3.563	Roll Set Point:	-0.234	Pitch Set Point:	-0.122	Yaw Set Point:	-0.578	X_WP:	0.000	Y_WP:	0.000	Y_WP:	0.500	X:	0.099	Y:	0.096	Z:	0.399	yaw:	33.092	yaw rate:	5.970	Roll:	4.406	Pitch:	0.847	Yaw:	47.770	Thrust:	22.928
Time:	3.578	Roll Set Point:	-0.235	Pitch Set Point:	-0.122	Yaw Set Point:	-0.577	X_WP:	0.000	Y_WP:	0.000	Y_WP:	0.500	X:	0.099	Y:	0.096	Z:	0.399	yaw:	33.082	yaw rate:	-5.286	Roll:	4.401	Pitch:	0.766	Yaw:	47.583	Thrust:	23.051
Time:	3.594	Roll Set Point:	-0.234	Pitch Set Point:	-0.122	Yaw Set Point:	-0.577	X_WP:	0.000	Y_WP:	0.000	Y_WP:	0.500	X:	0.099	Y:	0.096	Z:	0.399	yaw:	33.060	yaw rate:	-2.175	Roll:	4.404	Pitch:	0.985	Yaw:	47.363	Thrust:	23.167
Time:	3.609	Roll Set Point:	-0.234	Pitch Set Point:	-0.122	Yaw Set Point:	-0.578	X_WP:	0.000	Y_WP:	0.000	Y_WP:	0.500	X:	0.099	Y:	0.096	Z:	0.399	yaw:	33.090	yaw rate:	2.990	Roll:	4.442	Pitch:	0.778	Yaw:	48.265	Thrust:	23.467
Time:	3.625	Roll Set Point:	-0.234	Pitch Set Point:	-0.122	Yaw Set Point:	-0.578	X_WP:	0.000	Y_WP:	0.000	Y_WP:	0.500	X:	0.099	Y:	0.096	Z:	0.399	yaw:	33.104	yaw rate:	1.465	Roll:	4.424	Pitch:	0.791	Yaw:	48.027	Thrust:	23.744
Time:	3.641	Roll Set Point:	-0.234	Pitch Set Point:	-0.122	Yaw Set Point:	-0.578	X_WP:	0.000	Y_WP:	0.000	Y_WP:	0.500	X:	0.099	Y:	0.096	Z:	0.398	yaw:	33.102	yaw rate:	-0.287	Roll:	4.433	Pitch:	0.858	Yaw:	47.733	Thrust:	24.002
Time:	3.656	Roll Set Point:	-0.234	Pitch Set Point:	-0.122	Yaw Set Point:	-0.578	X_WP:	0.000	Y_WP:	0.000	Y_WP:	0.500	X:	0.099	Y:	0.096	Z:	0.398	yaw:	33.102	yaw rate:	-0.287	Roll:	4.437	Pitch:	0.851	Yaw:	47.781	Thrust:	24.038
Time:	3.672	Roll Set Point:	-0.234	Pitch Set Point:	-0.122	Yaw Set Point:	-0.577	X_WP:	0.000	Y_WP:	0.000	Y_WP:	0.500	X:	0.099	Y:	0.096	Z:	0.399	yaw:	33.072	yaw rate:	-2.903	Roll:	4.406	Pitch:	0.944	Yaw:	47.254	Thrust:	23.946
Time:	3.688	Roll Set Point:	-0.234	Pitch Set Point:	-0.122	Yaw Set Point:	-0.577	X_WP:	0.000	Y_WP:	0.000	Y_WP:	0.500	X:	0.099	Y:	0.096	Z:	0.399	yaw:	33.072	yaw rate:	-2.903	Roll:	4.446	Pitch:	0.855	Yaw:	47.741	Thrust:	24.415
Time:	3.703	Roll Set Point:	-0.234	Pitch Set Point:	-0.122	Yaw Set Point:	-0.578	X_WP:	0.000	Y_WP:	0.000	Y_WP:	0.500	X:	0.099	Y:	0.096	Z:	0.399	yaw:	33.108	yaw rate:	2.938	Roll:	4.483	Pitch:	0.735	Yaw:	48.386	Thrust:	24.769
Time:	3.719	Roll Set Point:	-0.234	Pitch Set Point:	-0.122	Yaw Set Point:	-0.577	X_WP:	0.000	Y_WP:	0.000	Y_WP:	0.500	X:	0.099	Y:	0.096	Z:	0.399	yaw:	33.054	yaw rate:	-5.426	Roll:	4.426	Pitch:	0.946	Yaw:	46.806	Thrust:	24.627
Time:	3.734	Roll Set Point:	-0.234	Pitch Set Point:	-0.122	Yaw Set Point:	-0.577	X_WP:	0.000	Y_WP:	0.000	Y_WP:	0.500	X:	0.099	Y:	0.096	Z:	0.399	yaw:	33.054	yaw rate:	-5.426	Roll:	4.462	Pitch:	0.857	Yaw:	47.714	Thrust:	24.983
Time:	3.750	Roll Set Point:	-0.234	Pitch Set Point:	-0.122	Yaw Set Point:	-0.577	X_WP:	0.000	Y_WP:	0.000	Y_WP:	0.500	X:	0.099	Y:	0.096	Z:	0.399	yaw:	33.075	yaw rate:	-1.713	Roll:	4.481	Pitch:	0.889	Yaw:	48.100	Thrust:	25.208
Time:	3.766	Roll Set Point:	-0.234	Pitch Set Point:	-0.122	Yaw Set Point:	-0.578	X_WP:	0.000	Y_WP:	0.000	Y_WP:	0.500	X:	0.099	Y:	0.096	Z:	0.399	yaw:	33.094	yaw rate:	1.923	Roll:	4.481	Pitch:	0.760	Yaw:	48.093	Thrust:	25.413
Time:	3.781	Roll Set Point:	-0.234	Pitch Set Point:	-0.122	Yaw Set Point:	-0.578	X_WP:	0.000	Y_WP:	0.000	Y_WP:	0.500	X:	0.099	Y:	0.096	Z:	0.399	yaw:	33.094	yaw rate:	1.923	Roll:	4.479	Pitch:	0.859	Yaw:	47.771	Thrust:	25.556
Time:	3.797	Roll Set Point:	-0.235	Pitch Set Point:	-0.122	Yaw Set Point:	-0.577	X_WP:	0.000	Y_WP:	0.000	Y_WP:	0.500	X:	0.099	Y:	0.096	Z:	0.399	yaw:	33.068	yaw rate:	-2.610	Roll:	4.498	Pitch:	0.885	Yaw:	47.302	Thrust:	25.692
Time:	3.813	Roll Set Point:	-0.235	Pitch Set Point:	-0.122	Yaw Set Point:	-0.578	X_WP:	0.000	Y_WP:	0.000	Y_WP:	0.500	X:	0.099	Y:	0.096	Z:	0.399	yaw:	33.089	yaw rate:	2.528	Roll:	4.503	Pitch:	0.861	Yaw:	48.115	Thrust:	26.020
Time:	3.828	Roll Set Point:	-0.235	Pitch Set Point:	-0.122	Yaw Set Point:	-0.578	X_WP:	0.000	Y_WP:	0.000	Y_WP:	0.500	X:	0.099	Y:	0.096	Z:	0.399	yaw:	33.097	yaw rate:	0.819	Roll:	4.477	Pitch:	0.812	Yaw:	47.916	Thrust:	26.171
Time:	3.844	Roll Set Point:	-0.235	Pitch Set Point:	-0.122	Yaw Set Point:	-0.578	X_WP:	0.000	Y_WP:	0.000	Y_WP:	0.500	X:	0.099	Y:	0.096	Z:	0.399	yaw:	33.097	yaw rate:	0.819	Roll:	4.499	Pitch:	0.862	Yaw:	47.772	Thrust:	26.272
Time:	3.859	Roll Set Point:	-0.234	Pitch Set Point:	-0.122	Yaw Set Point:	-0.577	X_WP:	0.000	Y_WP:	0.000	Y_WP:	0.500	X:	0.099	Y:	0.096	Z:	0.399	yaw:	33.064	yaw rate:	-3.324	Roll:	4.482	Pitch:	0.948	Yaw:	47.172	Thrust:	26.468
Time:	3.875	Roll Set Point:	-0.234	Pitch Set Point:	-0.122	Yaw Set Point:	-0.578	X_WP:	0.000	Y_WP:	0.000	Y_WP:	0.500	X:	0.099	Y:	0.096	Z:	0.399	yaw:	33.092	yaw rate:	2.963	Roll:	4.533	Pitch:	0.891	Yaw:	48.230	Thrust:	26.700
Time:	3.891	Roll Set Point:	-0.234	Pitch Set Point:	-0.122	Yaw Set Point:	-0.577	X_WP:	0.000	Y_WP:	0.000	Y_WP:	0.500	X:	0.099	Y:	0.096	Z:	0.399	yaw:	33.058	yaw rate:	-3.407	Roll:	4.487	Pitch:	0.867	Yaw:	47.149	Thrust:	26.845
Time:	3.906	Roll Set Point:	-0.235	Pitch Set Point:	-0.122	Yaw Set Point:	-0.577	X_WP:	0.000	Y_WP:	0.000	Y_WP:	0.500	X:	0.099	Y:	0.096	Z:	0.399	yaw:	33.074	yaw rate:	1.600	Roll:	4.517	Pitch:	0.789	Yaw:	48.011	Thrust:	27.181
Time:	3.922	Roll Set Point:	-0.235	Pitch Set Point:	-0.122	Yaw Set Point:	-0.577	X_WP:	0.000	Y_WP:	0.000	Y_WP:	0.500	X:	0.099	Y:	0.096	Z:	0.399	yaw:	33.074	yaw rate:	1.600	Roll:	4.510	Pitch:	0.868	Yaw:	47.745	Thrust:	27.306
Time:	3.938	Roll Set Point:	-0.234	Pitch Set Point:	-0.122	Yaw Set Point:	-0.578	X_WP:	0.000	Y_WP:	0.000	Y_WP:	0.500	X:	0.099	Y:	0.096	Z:	0.399	yaw:	33.094	yaw rate:	2.013	Roll:	4.517	Pitch:	0.957	Yaw:	48.105	Thrust:	27.381
Time:	3.953	Roll Set Point:	-0.234	Pitch Set Point:	-0.122	Yaw Set Point:	-0.577	X_WP:	0.000	Y_WP:	0.000	Y_WP:	0.500	X:	0.099	Y:	0.096	Z:	0.399	yaw:	33.076	yaw rate:	0.249	Roll:	4.503	Pitch:	0.810	Yaw:	47.443	Thrust:	27.698
Time:	3.969	Roll Set Point:	-0.235	Pitch Set Point:	-0.122	Yaw Set Point:	-0.578	X_WP:	0.000	Y_WP:	0.000	Y_WP:	0.500	X:	0.099	Y:	0.096	Z:	0.398	yaw:	33.107	yaw rate:	3.116	Roll:	4.532	Pitch:	0.817	Yaw:	48.311	Thrust:	28.005
Time:	3.985	Roll Set Point:	-0.234	Pitch Set Point:	-0.122	Yaw Set Point:	-0.577	X_WP:	0.000	Y_WP:	0.000	Y_WP:	0.500	X:	0.099	Y:	0.096	Z:	0.399	yaw:	33.049	yaw rate:	-5.843	Roll:	4.511	Pitch:	0.970	Yaw:	46.879	Thrust:	29.131
Time:	4.001	Roll Set Point:	-0.234	Pitch Set Point:	-0.122	Yaw Set Point:	-0.577	X_WP:	0.000	Y_WP:	0.000	Y_WP:	0.500	X:	0.099	Y:	0.096	Z:	0.399	yaw:	33.082	yaw rate:	3.350	Roll:	4.536	Pitch:	0.910	Yaw:	48.315	Thrust:	28.258
Time:	4.017	Roll Set Point:	-0.234	Pitch Set Point:	-0.122	Yaw Set Point:	-0.577	X_WP:	0.000	Y_WP:	0.000	Y_WP:	0.500	X:	0.099	Y:	0.096	Z:	0.399	yaw:	33.082	yaw rate:	3.350	Roll:	4.510	Pitch:	0.877	Yaw:	47.754	Thrust:	28.410
Time:	4.032	Roll Set Point:	-0.235	Pitch Set Point:	-0.122	Yaw Set Point:	-0.577	X_WP:	0.000	Y_WP:	0.000	Y_WP:	0.500	X:	0.099	Y:	0.096	Z:	0.399	yaw:	33.087	yaw rate:	-0.112	Roll:	4.510	Pitch:	0.769	Yaw:	47.850	Thrust:	28.613
Time:	4.048	Roll Set Point:	-0.235	Pitch Set Point:	-0.122	Yaw Set Point:	-0.577	X_WP:	0.000	Y_WP:	0.000	Y_WP:	0.500	X:	0.099	Y:	0.096	Z:	0.399	yaw:	33.087	yaw rate:	-0.112	Roll:	4.511	Pitch:	0.876	Yaw:	47.765	Thrust:	28.839
Time:	4.063	Roll Set Point:	-0.234	Pitch Set Point:	-0.122	Yaw Set Point:	-0.578	X_WP:	0.000	Y_WP:	0.000	Y_WP:	0.500	X:	0.099	Y:	0.096	Z:	0.399	yaw:	33.091	yaw rate:	2.342	Roll:	4.498	Pitch:	0.942	Yaw:	47.833	Thrust:	28.872
Time:	4.079	Roll Set Point:	-0.234	Pitch Set Point:	-0.122	Yaw Set Point:	-0.577	X_WP:	0.000	Y_WP:	0.000	Y_WP:	0.500	X:	0.099	Y:	0.096	Z:	0.399	yaw:	33.064	yaw rate:	-2.765	Roll:	4.507	Pitch:	0.902	Yaw:	47.265	Thrust:	29.166
Time:	4.095	Roll Set Point:	-0.234	Pitch Set Point:	-0.122	Yaw Set Point:	-0.577	X_WP:	0.000	Y_WP:	0.000	Y_WP:	0.500	X:	0.099	Y:	0.096	Z:	0.399	yaw:	33.056	yaw rate:	-0.770	Roll:	4.509	Pitch:	0.876	Yaw:	47.589	Thrust:	29.460
Time:	4.110	Roll Set Point:	-0.235	Pitch Set Point:	-0.122	Yaw Set Point:	-0.578	X_WP:	0.000	Y_WP:	0.000	Y_WP:	0.500	X:	0.099	Y:	0.096	Z:	0.399	yaw:	33.127	yaw rate:	7.062	Roll:	4.550	Pitch:	0.764	Yaw:	49.000	Thrust:	29.613
Time:	4.126	Roll Set Point:	-0.234	Pitch Set Point:	-0.122	Yaw Set Point:	-0.577	X_WP:	0.000	Y_WP:	0.000	Y_WP:	0.500	X:	0.099	Y:	0.096	Z:	0.399	yaw:	33.068	yaw rate:	-5.915	Roll:	4.481	Pitch:	1.056	Yaw:	46.742	Thrust:	29.693
Time:	4.142	Roll Set Point:	-0.234	Pitch Set Point:	-0.122	Yaw Set Point:	-0.577	X_WP:	0.000	Y_WP:	0.000	Y_WP:	0.500	X:	0.099	Y:	0.096	Z:	0.399	yaw:	33.086	yaw rate:	1.888	Roll:	4.510	Pitch:	0.790	Yaw:	48.076	Thrust:	29.852
Time:	4.157	Roll Set Point:	-0.234	Pitch Set Point:	-0.122	Yaw Set Point:	-0.577	X_WP:	0.000	Y_WP:	0.000	Y_WP:	0.500	X:	0.099	Y:	0.096	Z:	0.399	yaw:	33.077	yaw rate:	-0.910	Roll:	4.500	Pitch:	0.890	Yaw:	47.595	Thrust:	30.140
Time:	4.173	Roll Set Point:	-0.234	Pitch Set Point:	-0.122	Yaw Set Point:	-0.577	X_WP:	0.000	Y_WP:	0.000	Y_WP:	0.500	X:	0.099	Y:	0.096	Z:	0.399	yaw:	33.085	yaw rate:	0.771	Roll:	4.527	Pitch:	0.885	Yaw:	47.887	Thrust:	30.319
Time:	4.189	Roll Set Point:	-0.235	Pitch Set Point:	-0.122	Yaw Set Point:	-0.577	X_WP:	0.000	Y_WP:	0.000	Y_WP:	0.500	X:	0.099	Y:	0.096	Z:	0.399	yaw:	33.044	yaw rate:	-4.078	Roll:	4.488	Pitch:	0.941	Yaw:	47.018	Thrust:	30.293
Time:	4.204	Roll Set Point:	-0.235	Pitch Set Point:	-0.122	Yaw Set Point:	-0.577	X_WP:	0.000	Y_WP:	0.000	Y_WP:	0.500	X:	0.099	Y:	0.096	Z:	0.399	yaw:	33.044	yaw rate:	-4.078	Roll:	4.509	Pitch:	0.889	Yaw:	47.701	Thrust:	30.688
Time:	4.220	Roll Set Point:	-0.234	Pitch Set Point:	-0.122	Yaw Set Point:	-0.576	X_WP:	0.000	Y_WP:	0.000	Y_WP:	0.500	X:	0.099	Y:	0.096	Z:	0.399	yaw:	33.030	yaw rate:	-6.987	Roll:	4.481	Pitch:	0.886	Yaw:	47.436	Thrust:	30.957
Time:	4.235	Roll Set Point:	-0.235	Pitch Set Point:	-0.122	Yaw Set Point:	-0.577	X_WP:	0.000	Y_WP:	0.000	Y_WP:	0.500	X:	0.099	Y:	0.096	Z:	0.399	yaw:	33.060	yaw rate:	3.046	Roll:	4.535	Pitch:	0.817	Yaw:	48.234	Thrust:	31.197
Time:	4.251	Roll Set Point:	-0.235	Pitch Set Point:	-0.122	Yaw Set Point:	-0.577	X_WP:	0.000	Y_WP:	0.000	Y_WP:	0.500	X:	0.099	Y:	0.096	Z:	0.399	yaw:	33.071	yaw rate:	1.093	Roll:	4.526	Pitch:	0.882	Yaw:	47.922	Thrust:	31.102
Time:	4.267	Roll Set Point:	-0.235	Pitch Set Point:	-0.122	Yaw Set Point:	-0.577	X_WP:	0.000	Y_WP:	0.000	Y_WP:	0.500	X:	0.099	Y:	0.096	Z:	0.399	yaw:	33.071	yaw rate:	1.093	Roll:	4.510	Pitch:	0.891	Yaw:	47.739	Thrust:	31.452
Time:	4.282	Roll Set Point:	-0.235	Pitch Set Point:	-0.121	Yaw Set Point:	-0.578	X_WP:	0.000	Y_WP:	0.000	Y_WP:	0.500	X:	0.099	Y:	0.096	Z:	0.399	yaw:	33.104	yaw rate:	-0.734	Roll:	4.518	Pitch:	0.810	Yaw:	48.329	Thrust:	31.768
Time:	4.298	Roll Set Point:	-0.235	Pitch Set Point:	-0.122	Yaw Set Point:	-0.578	X_WP:	0.000	Y_WP:	0.000	Y_WP:	0.500	X:	0.099	Y:	0.096	Z:	0.399	yaw:	33.092	yaw rate:	-1.112	Roll:	4.512	Pitch:	0.967	Yaw:	47.582	Thrust:	31.889
Time:	4.314	Roll Set Point:	-0.235	Pitch Set Point:	-0.122	Yaw Set Point:	-0.577	X_WP:	0.000	Y_WP:	0.000	Y_WP:	0.500	X:	0.099	Y:	0.096	Z:	0.399	yaw:	33.067	yaw rate:	-2.579	Roll:	4.514	Pitch:	0.899	Yaw:	47.301	Thrust:	32.010
Time:	4.329	Roll Set Point:	-0.235	Pitch Set Point:	-0.122	Yaw Set Point:	-0.577	X_WP:	0.000	Y_WP:	0.000	Y_WP:	0.500	X:	0.099	Y:	0.096	Z:	0.399	yaw:	33.067	yaw rate:	-2.579	Roll:	4.510	Pitch:	0.895	Yaw:	47.733	Thrust:	32.215
Time:	4.345	Roll Set Point:	-0.235	Pitch Set Point:	-0.122	Yaw Set Point:	-0.578	X_WP:	0.000	Y_WP:	0.000	Y_WP:	0.500	X:	0.099	Y:	0.096	Z:	0.399	yaw:	33.110	yaw rate:	4.315	Roll:	4.531	Pitch:	0.870	Yaw:	48.516	Thrust:	32.421
Time:	4.360	Roll Set Point:	-0.235	Pitch Set Point:	-0.121	Yaw Set Point:	-0.577	X_WP:	0.000	Y_WP:	0.000	Y_WP:	0.500	X:	0.099	Y:	0.096	Z:	0.399	yaw:	33.072	yaw rate:	2.314	Roll:	4.475	Pitch:	0.855	Yaw:	47.110	Thrust:	32.571
Time:	4.376	Roll Set Point:	-0.234	Pitch Set Point:	-0.122	Yaw Set Point:	-0.577	X_WP:	0.000	Y_WP:	0.000	Y_WP:	0.500	X:	0.099	Y:	0.096	Z:	0.399	yaw:	33.085	yaw rate:	1.283	Roll:	4.497	Pitch:	1.002	Yaw:	47.970	Thrust:	32.853
Time:	4.392	Roll Set Point:	-0.234	Pitch Set Point:	-0.122	Yaw Set Point:	-0.578	X_WP:	0.000	Y_WP:	0.000	Y_WP:	0.500	X:	0.099	Y:	0.096	Z:	0.399	yaw:	33.109	yaw rate:	2.443	Roll:	4.532	Pitch:	0.811	Yaw:	48.201	Thrust:	32.883
Time:	4.407	Roll Set Point:	-0.234	Pitch Set Point:	-0.122	Yaw Set Point:	-0.578	X_WP:	0.000	Y_WP:	0.000	Y_WP:	0.500	X:	0.099	Y:	0.096	Z:	0.399	yaw:	33.112	yaw rate:	0.287	Roll:	4.488	Pitch:	0.900	Yaw:	47.844	Thrust:	33.208
Time:	4.423	Roll Set Point:	-0.234	Pitch Set Point:	-0.122	Yaw Set Point:	-0.577	X_WP:	0.000	Y_WP:	0.000	Y_WP:	0.500	X:	0.099	Y:	0.096	Z:	0.399	yaw:	33.075	yaw rate:	-3.696	Roll:	4.513	Pitch:	0.949	Yaw:	47.148	Thrust:	33.624
Time:	4.438	Roll Set Point:	-0.235	Pitch Set Point:	-0.121	Yaw Set Point:	-0.577	X_WP:	0.000	Y_WP:	0.000	Y_WP:	0.500	X:	0.099	Y:	0.096	Z:	0.399	yaw:	33.082	yaw rate:	0.683	Roll:	4.495	Pitch:	0.854	Yaw:	47.814	Thrust:	32.514
Time:	4.456	Roll Set Point:	-0.235	Pitch Set Point:	-0.121	Yaw Set Point:	-0.577	X_WP:	0.000	Y_WP:	0.000	Y_WP:	0.500	X:	0.099	Y:	0.096	Z:	0.399	yaw:	33.082	yaw rate:	0.683	Roll:	4.588	Pitch:	0.922	Yaw:	47.963	Thrust:	37.504
Time:	4.471	Roll Set Point:	-0.234	Pitch Set Point:	-0.122	Yaw Set Point:	-0.578	X_WP:	0.000	Y_WP:	0.000	Y_WP:	0.500	X:	0.099	Y:	0.096	Z:	0.399	yaw:	33.099	yaw rate:	5.497	Roll:	4.525	Pitch:	0.922	Yaw:	48.060	Thrust:	33.966
Time:	4.487	Roll Set Point:	-0.235	Pitch Set Point:	-0.121	Yaw Set Point:	-0.578	X_WP:	0.000	Y_WP:	0.000	Y_WP:	0.500	X:	0.099	Y:	0.096	Z:	0.399	yaw:	33.099	yaw rate:	0.014	Roll:	4.521	Pitch:	0.870	Yaw:	47.780	Thrust:	34.120
Time:	4.503	Roll Set Point:	-0.234	Pitch Set Point:	-0.122	Yaw Set Point:	-0.577	X_WP:	0.000	Y_WP:	0.000	Y_WP:	0.500	X:	0.099	Y:	0.096	Z:	0.399	yaw:	33.065	yaw rate:	-3.396	Roll:	4.484	Pitch:	1.005	Yaw:	47.160	Thrust:	34.289
Time:	4.518	Roll Set Point:	-0.234	Pitch Set Point:	-0.122	Yaw Set Point:	-0.577	X_WP:	0.000	Y_WP:	0.000	Y_WP:	0.500	X:	0.099	Y:	0.096	Z:	0.399	yaw:	33.084	yaw rate:	1.869	Roll:	4.509	Pitch:	0.882	Yaw:	48.069	Thrust:	34.435
Time:	4.534	Roll Set Point:	-0.234	Pitch Set Point:	-0.122	Yaw Set Point:	-0.577	X_WP:	0.000	Y_WP:	0.000	Y_WP:	0.500	X:	0.099	Y:	0.096	Z:	0.399	yaw:	33.084	yaw rate:	1.869	Roll:	4.509	Pitch:	0.908	Yaw:	47.756	Thrust:	34.687
Time:	4.550	Roll Set Point:	-0.234	Pitch Set Point:	-0.122	Yaw Set Point:	-0.578	X_WP:	0.000	Y_WP:	0.000	Y_WP:	0.500	X:	0.099	Y:	0.096	Z:	0.399	yaw:	33.093	yaw rate:	0.459	Roll:	4.498	Pitch:	0.890	Yaw:	47.923	Thrust:	34.969
Time:	4.565	Roll Set Point:	-0.234	Pitch Set Point:	-0.122	Yaw Set Point:	-0.578	X_WP:	0.000	Y_WP:	0.000	Y_WP:	0.500	X:	0.099	Y:	0.096	Z:	0.399	yaw:	33.093	yaw rate:	0.459	Roll:	4.509	Pitch:	0.910	Yaw:	47.769	Thrust:	35.067
Time:	4.581	Roll Set Point:	-0.235	Pitch Set Point:	-0.122	Yaw Set Point:	-0.577	X_WP:	0.000	Y_WP:	0.000	Y_WP:	0.500	X:	0.099	Y:	0.096	Z:	0.399	yaw:	33.074	yaw rate:	-0.242	Roll:	4.528	Pitch:	0.937	Yaw:	47.418	Thrust:	35.297
Time:	4.596	Roll Set Point:	-0.235	Pitch Set Point:	-0.122	Yaw Set Point:	-0.578	X_WP:	0.000	Y_WP:	0.000	Y_WP:	0.500	X:	0.099	Y:	0.096	Z:	0.399	yaw:	33.094	yaw rate:	2.092	Roll:	4.516	Pitch:	0.849	Yaw:	48.122	Thrust:	35.202
Time:	4.612	Roll Set Point:	-0.234	Pitch Set Point:	-0.122	Yaw Set Point:	-0.578	X_WP:	0.000	Y_WP:	0.000	Y_WP:	0.500	X:	0.099	Y:	0.096	Z:	0.398	yaw:	33.094	yaw rate:	-0.037	Roll:	4.505	Pitch:	0.974	Yaw:	47.764	Thrust:	35.941
Time:	4.628	Roll Set Point:	-0.235	Pitch Set Point:	-0.122	Yaw Set Point:	-0.577	X_WP:	0.000	Y_WP:	0.000	Y_WP:	0.500	X:	0.099	Y:	0.096	Z:	0.399	yaw:	33.066	yaw rate:	-2.836	Roll:	4.512	Pitch:	0.919	Yaw:	47.256	Thrust:	35.685
Time:	4.643	Roll Set Point:	-0.234	Pitch Set Point:	-0.122	Yaw Set Point:	-0.578	X_WP:	0.000	Y_WP:	0.000	Y_WP:	0.500	X:	0.099	Y:	0.096	Z:	0.399	yaw:	33.098	yaw rate:	3.203	Roll:	4.501	Pitch:	0.917	Yaw:	48.312	Thrust:	36.038
Time:	4.659	Roll Set Point:	-0.234	Pitch Set Point:	-0.122	Yaw Set Point:	-0.577	X_WP:	0.000	Y_WP:	0.000	Y_WP:	0.500	X:	0.099	Y:	0.096	Z:	0.399	yaw:	33.085	yaw rate:	-1.267	Roll:	4.504	Pitch:	0.908	Yaw:	47.546	Thrust:	36.249
Time:	4.675	Roll Set Point:	-0.234	Pitch Set Point:	-0.122	Yaw Set Point:	-0.578	X_WP:	0.000	Y_WP:	0.000	Y_WP:	0.500	X:	0.099	Y:	0.096	Z:	0.399	yaw:	33.095	yaw rate:	1.017	Roll:	4.510	Pitch:	0.901	Yaw:	47.943	Thrust:	36.366
Time:	4.690	Roll Set Point:	-0.234	Pitch Set Point:	-0.122	Yaw Set Point:	-0.578	X_WP:	0.000	Y_WP:	0.000	Y_WP:	0.500	X:	0.099	Y:	0.096	Z:	0.399	yaw:	33.090	yaw rate:	-0.532	Roll:	4.512	Pitch:	0.912	Yaw:	47.676	Thrust:	36.578
Time:	4.706	Roll Set Point:	-0.234	Pitch Set Point:	-0.122	Yaw Set Point:	-0.578	X_WP:	0.000	Y_WP:	0.000	Y_WP:	0.500	X:	0.099	Y:	0.096	Z:	0.399	yaw:	33.090	yaw rate:	-0.532	Roll:	4.510	Pitch:	0.919	Yaw:	47.765	Thrust:	36.783
Time:	4.721	Roll Set Point:	-0.234	Pitch Set Point:	-0.122	Yaw Set Point:	-0.577	X_WP:	0.000	Y_WP:	0.000	Y_WP:	0.500	X:	0.099	Y:	0.096	Z:	0.399	yaw:	33.084	yaw rate:	-1.967	Roll:	4.498	Pitch:	0.960	Yaw:	47.660	Thrust:	36.979
Time:	4.737	Roll Set Point:	-0.234	Pitch Set Point:	-0.122	Yaw Set Point:	-0.577	X_WP:	0.000	Y_WP:	0.000	Y_WP:	0.500	X:	0.099	Y:	0.096	Z:	0.399	yaw:	33.084	yaw rate:	-1.967	Roll:	4.509	Pitch:	0.922	Yaw:	47.757	Thrust:	37.161
Time:	4.753	Roll Set Point:	-0.234	Pitch Set Point:	-0.122	Yaw Set Point:	-0.576	X_WP:	0.000	Y_WP:	0.000	Y_WP:	0.500	X:	0.099	Y:	0.096	Z:	0.399	yaw:	33.026	yaw rate:	-5.826	Roll:	4.480	Pitch:	0.997	Yaw:	46.699	Thrust:	37.255
Time:	4.768	Roll Set Point:	-0.234	Pitch Set Point:	-0.122	Yaw Set Point:	-0.576	X_WP:	0.000	Y_WP:	0.000	Y_WP:	0.500	X:	0.099	Y:	0.096	Z:	0.399	yaw:	33.026	yaw rate:	-5.826	Roll:	4.508	Pitch:	0.926	Yaw:	47.676	Thrust:	37.543
Time:	4.784	Roll Set Point:	-0.234	Pitch Set Point:	-0.121	Yaw Set Point:	-0.578	X_WP:	0.000	Y_WP:	0.000	Y_WP:	0.500	X:	0.099	Y:	0.095	Z:	0.399	yaw:	33.103	yaw rate:	-6.939	Roll:	4.347	Pitch:	0.670	Yaw:	49.068	Thrust:	37.542
Time:	4.800	Roll Set Point:	-0.234	Pitch Set Point:	-0.122	Yaw Set Point:	-0.577	X_WP:	0.000	Y_WP:	0.000	Y_WP:	0.500	X:	0.099	Y:	0.096	Z:	0.399	yaw:	33.041	yaw rate:	-6.149	Roll:	4.679	Pitch:	1.125	Yaw:	46.667	Thrust:	38.028
Time:	4.815	Roll Set Point:	-0.234	Pitch Set Point:	-0.122	Yaw Set Point:	-0.577	X_WP:	0.000	Y_WP:	0.000	Y_WP:	0.500	X:	0.099	Y:	0.096	Z:	0.399	yaw:	33.049	yaw rate:	0.784	Roll:	4.505	Pitch:	0.942	Yaw:	47.839	Thrust:	38.168
Time:	4.831	Roll Set Point:	-0.234	Pitch Set Point:	-0.122	Yaw Set Point:	-0.577	X_WP:	0.000	Y_WP:	0.000	Y_WP:	0.500	X:	0.099	Y:	0.096	Z:	0.399	yaw:	33.084	yaw rate:	3.492	Roll:	4.542	Pitch:	0.855	Yaw:	48.341	Thrust:	38.411
Time:	4.846	Roll Set Point:	-0.234	Pitch Set Point:	-0.122	Yaw Set Point:	-0.577	X_WP:	0.000	Y_WP:	0.000	Y_WP:	0.500	X:	0.099	Y:	0.096	Z:	0.399	yaw:	33.046	yaw rate:	-3.816	Roll:	4.480	Pitch:	0.981	Yaw:	47.064	Thrust:	38.376
Time:	4.862	Roll Set Point:	-0.234	Pitch Set Point:	-0.122	Yaw Set Point:	-0.577	X_WP:	0.000	Y_WP:	0.000	Y_WP:	0.500	X:	0.099	Y:	0.096	Z:	0.399	yaw:	33.047	yaw rate:	0.094	Roll:	4.508	Pitch:	0.971	Yaw:	47.720	Thrust:	38.701
Time:	4.878	Roll Set Point:	-0.234	Pitch Set Point:	-0.122	Yaw Set Point:	-0.578	X_WP:	0.000	Y_WP:	0.000	Y_WP:	0.500	X:	0.099	Y:	0.096	Z:	0.399	yaw:	33.091	yaw rate:	4.471	Roll:	4.528	Pitch:	0.869	Yaw:	48.516	Thrust:	39.016
Time:	4.893	Roll Set Point:	-0.234	Pitch Set Point:	-0.122	Yaw Set Point:	-0.578	X_WP:	0.000	Y_WP:	0.000	Y_WP:	0.500	X:	0.099	Y:	0.096	Z:	0.399	yaw:	33.098	yaw rate:	0.621	Roll:	4.532	Pitch:	0.906	Yaw:	47.880	Thrust:	39.068
Time:	4.909	Roll Set Point:	-0.234	Pitch Set Point:	-0.122	Yaw Set Point:	-0.577	X_WP:	0.000	Y_WP:	0.000	Y_WP:	0.500	X:	0.099	Y:	0.096	Z:	0.399	yaw:	33.059	yaw rate:	-3.902	Roll:	4.459	Pitch:	1.020	Yaw:	47.067	Thrust:	39.159
Time:	4.925	Roll Set Point:	-0.234	Pitch Set Point:	-0.122	Yaw Set Point:	-0.577	X_WP:	0.000	Y_WP:	0.000	Y_WP:	0.500	X:	0.099	Y:	0.096	Z:	0.399	yaw:	33.059	yaw rate:	-3.902	Roll:	4.508	Pitch:	0.936	Yaw:	47.721	Thrust:	39.441
Time:	4.940	Roll Set Point:	-0.234	Pitch Set Point:	-0.122	Yaw Set Point:	-0.577	X_WP:	0.000	Y_WP:	0.000	Y_WP:	0.500	X:	0.099	Y:	0.096	Z:	0.399	yaw:	33.078	yaw rate:	1.300	Roll:	4.543	Pitch:	0.871	Yaw:	48.068	Thrust:	39.631
Time:	4.956	Roll Set Point:	-0.234	Pitch Set Point:	-0.122	Yaw Set Point:	-0.577	X_WP:	0.000	Y_WP:	0.000	Y_WP:	0.500	X:	0.099	Y:	0.096	Z:	0.399	yaw:	33.072	yaw rate:	-0.608	Roll:	4.512	Pitch:	0.937	Yaw:	47.638	Thrust:	39.816
Time:	4.972	Roll Set Point:	-0.234	Pitch Set Point:	-0.122	Yaw Set Point:	-0.578	X_WP:	0.000	Y_WP:	0.000	Y_WP:	0.500	X:	0.099	Y:	0.096	Z:	0.398	yaw:	33.098	yaw rate:	2.685	Roll:	4.508	Pitch:	0.919	Yaw:	48.226	Thrust:	40.258
Time:	5.000	Roll Set Point:	-0.234	Pitch Set Point:	-0.121	Yaw Set Point:	-0.578	X_WP:	0.000	Y_WP:	0.000	Y_WP:	0.500	X:	0.099	Y:	0.096	Z:	0.399	yaw:	33.143	yaw rate:	6.558	Roll:	4.956	Pitch:	1.018	Yaw:	49.511	Thrust:	67.588
Time:	5.015	Roll Set Point:	-0.234	Pitch Set Point:	-0.122	Yaw Set Point:	-0.577	X_WP:	0.000	Y_WP:	0.000	Y_WP:	0.500	X:	0.099	Y:	0.096	Z:	0.399	yaw:	33.037	yaw rate:	-10.648	Roll:	4.519	Pitch:	1.174	Yaw:	45.914	Thrust:	40.924
Time:	5.031	Roll Set Point:	-0.234	Pitch Set Point:	-0.122	Yaw Set Point:	-0.577	X_WP:	0.000	Y_WP:	0.000	Y_WP:	0.500	X:	0.099	Y:	0.096	Z:	0.399	yaw:	33.037	yaw rate:	-10.648	Roll:	4.507	Pitch:	0.942	Yaw:	47.688	Thrust:	40.513
Time:	5.047	Roll Set Point:	-0.234	Pitch Set Point:	-0.122	Yaw Set Point:	-0.577	X_WP:	0.000	Y_WP:	0.000	Y_WP:	0.500	X:	0.099	Y:	0.096	Z:	0.399	yaw:	33.088	yaw rate:	5.107	Roll:	4.545	Pitch:	0.792	Yaw:	48.618	Thrust:	40.739
Time:	5.062	Roll Set Point:	-0.234	Pitch Set Point:	-0.122	Yaw Set Point:	-0.577	X_WP:	0.000	Y_WP:	0.000	Y_WP:	0.500	X:	0.099	Y:	0.096	Z:	0.399	yaw:	33.067	yaw rate:	-2.102	Roll:	4.498	Pitch:	1.041	Yaw:	47.381	Thrust:	41.027
Time:	5.078	Roll Set Point:	-0.234	Pitch Set Point:	-0.122	Yaw Set Point:	-0.577	X_WP:	0.000	Y_WP:	0.000	Y_WP:	0.500	X:	0.099	Y:	0.096	Z:	0.399	yaw:	33.063	yaw rate:	-2.626	Roll:	4.506	Pitch:	0.942	Yaw:	47.672	Thrust:	41.094
Time:	5.093	Roll Set Point:	-0.235	Pitch Set Point:	-0.122	Yaw Set Point:	-0.578	X_WP:	0.000	Y_WP:	0.000	Y_WP:	0.500	X:	0.099	Y:	0.096	Z:	0.399	yaw:	33.095	yaw rate:	3.176	Roll:	4.549	Pitch:	0.846	Yaw:	48.304	Thrust:	41.537
Time:	5.109	Roll Set Point:	-0.235	Pitch Set Point:	-0.122	Yaw Set Point:	-0.577	X_WP:	0.000	Y_WP:	0.000	Y_WP:	0.500	X:	0.099	Y:	0.096	Z:	0.399	yaw:	33.073	yaw rate:	-2.217	Roll:	4.500	Pitch:	0.953	Yaw:	47.366	Thrust:	41.310
Time:	5.125	Roll Set Point:	-0.235	Pitch Set Point:	-0.122	Yaw Set Point:	-0.577	X_WP:	0.000	Y_WP:	0.000	Y_WP:	0.500	X:	0.099	Y:	0.096	Z:	0.399	yaw:	33.073	yaw rate:	-2.217	Roll:	4.510	Pitch:	0.945	Yaw:	47.741	Thrust:	41.723
Time:	5.140	Roll Set Point:	-0.234	Pitch Set Point:	-0.122	Yaw Set Point:	-0.578	X_WP:	0.000	Y_WP:	0.000	Y_WP:	0.500	X:	0.099	Y:	0.096	Z:	0.399	yaw:	33.102	yaw rate:	2.870	Roll:	4.500	Pitch:	0.983	Yaw:	48.265	Thrust:	42.128
Time:	5.156	Roll Set Point:	-0.234	Pitch Set Point:	-0.122	Yaw Set Point:	-0.577	X_WP:	0.000	Y_WP:	0.000	Y_WP:	0.500	X:	0.099	Y:	0.096	Z:	0.399	yaw:	33.065	yaw rate:	-3.688	Roll:	4.497	Pitch:	0.976	Yaw:	47.112	Thrust:	41.927
Time:	5.172	Roll Set Point:	-0.234	Pitch Set Point:	-0.122	Yaw Set Point:	-0.577	X_WP:	0.000	Y_WP:	0.000	Y_WP:	0.500	X:	0.099	Y:	0.096	Z:	0.399	yaw:	33.072	yaw rate:	0.515	Roll:	4.516	Pitch:	0.944	Yaw:	47.865	Thrust:	42.337
Time:	5.187	Roll Set Point:	-0.234	Pitch Set Point:	-0.122	Yaw Set Point:	-0.577	X_WP:	0.000	Y_WP:	0.000	Y_WP:	0.500	X:	0.099	Y:	0.096	Z:	0.399	yaw:	33.080	yaw rate:	0.786	Roll:	4.509	Pitch:	0.927	Yaw:	47.883	Thrust:	42.509
Time:	5.203	Roll Set Point:	-0.235	Pitch Set Point:	-0.122	Yaw Set Point:	-0.577	X_WP:	0.000	Y_WP:	0.000	Y_WP:	0.500	X:	0.099	Y:	0.096	Z:	0.399	yaw:	33.056	yaw rate:	-2.435	Roll:	4.501	Pitch:	0.969	Yaw:	47.306	Thrust:	42.588
Time:	5.219	Roll Set Point:	-0.235	Pitch Set Point:	-0.122	Yaw Set Point:	-0.577	X_WP:	0.000	Y_WP:	0.000	Y_WP:	0.500	X:	0.099	Y:	0.096	Z:	0.399	yaw:	33.056	yaw rate:	-2.435	Roll:	4.512	Pitch:	0.953	Yaw:	47.726	Thrust:	43.062
Time:	5.234	Roll Set Point:	-0.235	Pitch Set Point:	-0.122	Yaw Set Point:	-0.577	X_WP:	0.000	Y_WP:	0.000	Y_WP:	0.500	X:	0.099	Y:	0.096	Z:	0.399	yaw:	33.046	yaw rate:	-4.535	Roll:	4.498	Pitch:	0.959	Yaw:	47.529	Thrust:	42.873
Time:	5.250	Roll Set Point:	-0.234	Pitch Set Point:	-0.122	Yaw Set Point:	-0.577	X_WP:	0.000	Y_WP:	0.000	Y_WP:	0.500	X:	0.099	Y:	0.096	Z:	0.399	yaw:	33.068	yaw rate:	2.251	Roll:	4.526	Pitch:	0.948	Yaw:	48.112	Thrust:	43.298
Time:	5.265	Roll Set Point:	-0.234	Pitch Set Point:	-0.122	Yaw Set Point:	-0.578	X_WP:	0.000	Y_WP:	0.000	Y_WP:	0.500	X:	0.099	Y:	0.096	Z:	0.399	yaw:	33.113	yaw rate:	4.480	Roll:	4.505	Pitch:	0.908	Yaw:	48.548	Thrust:	43.507
Time:	5.281	Roll Set Point:	-0.234	Pitch Set Point:	-0.122	Yaw Set Point:	-0.577	X_WP:	0.000	Y_WP:	0.000	Y_WP:	0.500	X:	0.099	Y:	0.096	Z:	0.399	yaw:	33.061	yaw rate:	-5.272	Roll:	4.502	Pitch:	1.035	Yaw:	46.841	Thrust:	43.569
Time:	5.297	Roll Set Point:	-0.235	Pitch Set Point:	-0.122	Yaw Set Point:	-0.577	X_WP:	0.000	Y_WP:	0.000	Y_WP:	0.500	X:	0.099	Y:	0.096	Z:	0.399	yaw:	33.066	yaw rate:	0.507	Roll:	4.511	Pitch:	0.896	Yaw:	47.816	Thrust:	43.836
Time:	5.312	Roll Set Point:	-0.234	Pitch Set Point:	-0.122	Yaw Set Point:	-0.577	X_WP:	0.000	Y_WP:	0.000	Y_WP:	0.500	X:	0.099	Y:	0.096	Z:	0.399	yaw:	33.052	yaw rate:	-1.324	Roll:	4.497	Pitch:	1.015	Yaw:	47.492	Thrust:	43.990
Time:	5.328	Roll Set Point:	-0.234	Pitch Set Point:	-0.122	Yaw Set Point:	-0.577	X_WP:	0.000	Y_WP:	0.000	Y_WP:	0.500	X:	0.099	Y:	0.096	Z:	0.399	yaw:	33.036	yaw rate:	-1.683	Roll:	4.502	Pitch:	0.963	Yaw:	47.405	Thrust:	44.017
Time:	5.343	Roll Set Point:	-0.234	Pitch Set Point:	-0.122	Yaw Set Point:	-0.577	X_WP:	0.000	Y_WP:	0.000	Y_WP:	0.500	X:	0.099	Y:	0.096	Z:	0.399	yaw:	33.057	yaw rate:	2.140	Roll:	4.544	Pitch:	0.993	Yaw:	48.077	Thrust:	44.500
Time:	5.359	Roll Set Point:	-0.234	Pitch Set Point:	-0.122	Yaw Set Point:	-0.577	X_WP:	0.000	Y_WP:	0.000	Y_WP:	0.500	X:	0.099	Y:	0.096	Z:	0.399	yaw:	33.057	yaw rate:	2.140	Roll:	4.510	Pitch:	0.963	Yaw:	47.719	Thrust:	44.576
Time:	5.375	Roll Set Point:	-0.234	Pitch Set Point:	-0.122	Yaw Set Point:	-0.577	X_WP:	0.000	Y_WP:	0.000	Y_WP:	0.500	X:	0.099	Y:	0.096	Z:	0.399	yaw:	33.084	yaw rate:	3.999	Roll:	4.505	Pitch:	0.894	Yaw:	48.213	Thrust:	44.904
Time:	5.390	Roll Set Point:	-0.235	Pitch Set Point:	-0.121	Yaw Set Point:	-0.578	X_WP:	0.000	Y_WP:	0.000	Y_WP:	0.500	X:	0.099	Y:	0.096	Z:	0.399	yaw:	33.099	yaw rate:	1.496	Roll:	4.526	Pitch:	0.882	Yaw:	48.028	Thrust:	44.876
Time:	5.406	Roll Set Point:	-0.234	Pitch Set Point:	-0.122	Yaw Set Point:	-0.577	X_WP:	0.000	Y_WP:	0.000	Y_WP:	0.500	X:	0.099	Y:	0.096	Z:	0.399	yaw:	33.071	yaw rate:	-2.815	Roll:	4.476	Pitch:	1.032	Yaw:	47.268	Thrust:	45.055
Time:	5.422	Roll Set Point:	-0.234	Pitch Set Point:	-0.122	Yaw Set Point:	-0.577	X_WP:	0.000	Y_WP:	0.000	Y_WP:	0.500	X:	0.099	Y:	0.096	Z:	0.399	yaw:	33.071	yaw rate:	-2.815	Roll:	4.509	Pitch:	0.965	Yaw:	47.737	Thrust:	45.313
Time:	5.437	Roll Set Point:	-0.234	Pitch Set Point:	-0.122	Yaw Set Point:	-0.578	X_WP:	0.000	Y_WP:	0.000	Y_WP:	0.500	X:	0.099	Y:	0.096	Z:	0.399	yaw:	33.098	yaw rate:	2.718	Roll:	4.539	Pitch:	0.964	Yaw:	48.232	Thrust:	45.701
Time:	5.453	Roll Set Point:	-0.234	Pitch Set Point:	-0.122	Yaw Set Point:	-0.578	X_WP:	0.000	Y_WP:	0.000	Y_WP:	0.500	X:	0.099	Y:	0.096	Z:	0.399	yaw:	33.102	yaw rate:	4.182	Roll:	4.493	Pitch:	0.919	Yaw:	47.837	Thrust:	45.660
Time:	5.469	Roll Set Point:	-0.234	Pitch Set Point:	-0.122	Yaw Set Point:	-0.578	X_WP:	0.000	Y_WP:	0.000	Y_WP:	0.500	X:	0.099	Y:	0.096	Z:	0.399	yaw:	33.102	yaw rate:	4.182	Roll:	4.522	Pitch:	0.972	Yaw:	47.866	Thrust:	46.802
Time:	5.497	Roll Set Point:	-0.234	Pitch Set Point:	-0.122	Yaw Set Point:	-0.577	X_WP:	0.000	Y_WP:	0.000	Y_WP:	0.500	X:	0.099	Y:	0.096	Z:	0.399	yaw:	33.060	yaw rate:	-6.918	Roll:	4.959	Pitch:	1.176	Yaw:	48.484	Thrust:	77.506
Time:	5.512	Roll Set Point:	-0.234	Pitch Set Point:	-0.122	Yaw Set Point:	-0.577	X_WP:	0.000	Y_WP:	0.000	Y_WP:	0.500	X:	0.099	Y:	0.096	Z:	0.399	yaw:	33.083	yaw rate:	2.327	Roll:	4.505	Pitch:	0.955	Yaw:	48.145	Thrust:	46.279
Time:	5.528	Roll Set Point:	-0.234	Pitch Set Point:	-0.122	Yaw Set Point:	-0.577	X_WP:	0.000	Y_WP:	0.000	Y_WP:	0.500	X:	0.099	Y:	0.096	Z:	0.399	yaw:	33.083	yaw rate:	2.327	Roll:	4.509	Pitch:	0.971	Yaw:	47.756	Thrust:	46.485
Time:	5.543	Roll Set Point:	-0.234	Pitch Set Point:	-0.122	Yaw Set Point:	-0.578	X_WP:	0.000	Y_WP:	0.000	Y_WP:	0.500	X:	0.099	Y:	0.096	Z:	0.399	yaw:	33.091	yaw rate:	-0.063	Roll:	4.547	Pitch:	1.021	Yaw:	47.893	Thrust:	46.810
Time:	5.559	Roll Set Point:	-0.234	Pitch Set Point:	-0.122	Yaw Set Point:	-0.577	X_WP:	0.000	Y_WP:	0.000	Y_WP:	0.500	X:	0.099	Y:	0.096	Z:	0.398	yaw:	33.076	yaw rate:	-1.464	Roll:	4.496	Pitch:	0.956	Yaw:	47.500	Thrust:	46.890
Time:	5.575	Roll Set Point:	-0.234	Pitch Set Point:	-0.121	Yaw Set Point:	-0.578	X_WP:	0.000	Y_WP:	0.000	Y_WP:	0.500	X:	0.099	Y:	0.096	Z:	0.399	yaw:	33.101	yaw rate:	2.517	Roll:	4.490	Pitch:	0.860	Yaw:	48.202	Thrust:	46.892
Time:	5.590	Roll Set Point:	-0.234	Pitch Set Point:	-0.121	Yaw Set Point:	-0.578	X_WP:	0.000	Y_WP:	0.000	Y_WP:	0.500	X:	0.099	Y:	0.096	Z:	0.399	yaw:	33.101	yaw rate:	2.517	Roll:	4.509	Pitch:	0.973	Yaw:	47.781	Thrust:	47.242
Time:	5.606	Roll Set Point:	-0.234	Pitch Set Point:	-0.122	Yaw Set Point:	-0.577	X_WP:	0.000	Y_WP:	0.000	Y_WP:	0.500	X:	0.099	Y:	0.096	Z:	0.399	yaw:	33.058	yaw rate:	-1.309	Roll:	4.516	Pitch:	1.135	Yaw:	46.989	Thrust:	47.382
Time:	5.622	Roll Set Point:	-0.234	Pitch Set Point:	-0.122	Yaw Set Point:	-0.577	X_WP:	0.000	Y_WP:	0.000	Y_WP:	0.500	X:	0.099	Y:	0.096	Z:	0.399	yaw:	33.070	yaw rate:	1.256	Roll:	4.480	Pitch:	0.914	Yaw:	47.947	Thrust:	47.673
Time:	5.637	Roll Set Point:	-0.234	Pitch Set Point:	-0.121	Yaw Set Point:	-0.577	X_WP:	0.000	Y_WP:	0.000	Y_WP:	0.500	X:	0.099	Y:	0.096	Z:	0.399	yaw:	33.079	yaw rate:	0.906	Roll:	4.528	Pitch:	0.909	Yaw:	47.901	Thrust:	47.883
Time:	5.653	Roll Set Point:	-0.234	Pitch Set Point:	-0.122	Yaw Set Point:	-0.577	X_WP:	0.000	Y_WP:	0.000	Y_WP:	0.500	X:	0.099	Y:	0.096	Z:	0.399	yaw:	33.079	yaw rate:	-0.042	Roll:	4.498	Pitch:	1.097	Yaw:	47.742	Thrust:	47.937
Time:	5.668	Roll Set Point:	-0.234	Pitch Set Point:	-0.122	Yaw Set Point:	-0.578	X_WP:	0.000	Y_WP:	0.000	Y_WP:	0.500	X:	0.099	Y:	0.096	Z:	0.399	yaw:	33.088	yaw rate:	0.961	Roll:	4.530	Pitch:	0.973	Yaw:	47.924	Thrust:	48.209
Time:	5.684	Roll Set Point:	-0.234	Pitch Set Point:	-0.122	Yaw Set Point:	-0.577	X_WP:	0.000	Y_WP:	0.000	Y_WP:	0.500	X:	0.099	Y:	0.096	Z:	0.399	yaw:	33.057	yaw rate:	-3.132	Roll:	4.488	Pitch:	0.999	Yaw:	47.194	Thrust:	48.351
Time:	5.700	Roll Set Point:	-0.234	Pitch Set Point:	-0.122	Yaw Set Point:	-0.577	X_WP:	0.000	Y_WP:	0.000	Y_WP:	0.500	X:	0.099	Y:	0.096	Z:	0.399	yaw:	33.057	yaw rate:	-3.132	Roll:	4.509	Pitch:	0.984	Yaw:	47.719	Thrust:	48.576
Time:	5.715	Roll Set Point:	-0.234	Pitch Set Point:	-0.121	Yaw Set Point:	-0.579	X_WP:	0.000	Y_WP:	0.000	Y_WP:	0.500	X:	0.099	Y:	0.096	Z:	0.399	yaw:	33.157	yaw rate:	9.972	Roll:	4.473	Pitch:	0.773	Yaw:	49.529	Thrust:	48.583
Time:	5.731	Roll Set Point:	-0.234	Pitch Set Point:	-0.122	Yaw Set Point:	-0.577	X_WP:	0.000	Y_WP:	0.000	Y_WP:	0.500	X:	0.099	Y:	0.096	Z:	0.399	yaw:	33.066	yaw rate:	-9.082	Roll:	4.549	Pitch:	1.160	Yaw:	46.209	Thrust:	49.151
Time:	5.747	Roll Set Point:	-0.234	Pitch Set Point:	-0.122	Yaw Set Point:	-0.577	X_WP:	0.000	Y_WP:	0.000	Y_WP:	0.500	X:	0.099	Y:	0.096	Z:	0.399	yaw:	33.078	yaw rate:	-0.754	Roll:	4.525	Pitch:	0.966	Yaw:	47.942	Thrust:	49.025
Time:	5.762	Roll Set Point:	-0.234	Pitch Set Point:	-0.122	Yaw Set Point:	-0.577	X_WP:	0.000	Y_WP:	0.000	Y_WP:	0.500	X:	0.099	Y:	0.096	Z:	0.399	yaw:	33.078	yaw rate:	0.034	Roll:	4.484	Pitch:	0.959	Yaw:	47.754	Thrust:	49.507
Time:	5.778	Roll Set Point:	-0.234	Pitch Set Point:	-0.122	Yaw Set Point:	-0.577	X_WP:	0.000	Y_WP:	0.000	Y_WP:	0.500	X:	0.099	Y:	0.096	Z:	0.399	yaw:	33.078	yaw rate:	0.034	Roll:	4.509	Pitch:	0.987	Yaw:	47.748	Thrust:	49.532
Time:	5.793	Roll Set Point:	-0.234	Pitch Set Point:	-0.122	Yaw Set Point:	-0.577	X_WP:	0.000	Y_WP:	0.000	Y_WP:	0.500	X:	0.099	Y:	0.096	Z:	0.399	yaw:	33.050	yaw rate:	-2.754	Roll:	4.505	Pitch:	1.018	Yaw:	47.252	Thrust:	49.620
Time:	5.809	Roll Set Point:	-0.234	Pitch Set Point:	-0.122	Yaw Set Point:	-0.577	X_WP:	0.000	Y_WP:	0.000	Y_WP:	0.500	X:	0.099	Y:	0.096	Z:	0.399	yaw:	33.056	yaw rate:	-1.216	Roll:	4.509	Pitch:	1.072	Yaw:	47.808	Thrust:	49.888
Time:	5.825	Roll Set Point:	-0.234	Pitch Set Point:	-0.122	Yaw Set Point:	-0.577	X_WP:	0.000	Y_WP:	0.000	Y_WP:	0.500	X:	0.099	Y:	0.096	Z:	0.399	yaw:	33.088	yaw rate:	3.215	Roll:	4.536	Pitch:	0.877	Yaw:	48.301	Thrust:	50.237
Time:	5.840	Roll Set Point:	-0.234	Pitch Set Point:	-0.122	Yaw Set Point:	-0.577	X_WP:	0.000	Y_WP:	0.000	Y_WP:	0.500	X:	0.099	Y:	0.096	Z:	0.399	yaw:	33.068	yaw rate:	-2.022	Roll:	4.490	Pitch:	1.041	Yaw:	47.399	Thrust:	50.337
Time:	5.856	Roll Set Point:	-0.234	Pitch Set Point:	-0.122	Yaw Set Point:	-0.577	X_WP:	0.000	Y_WP:	0.000	Y_WP:	0.500	X:	0.099	Y:	0.096	Z:	0.399	yaw:	33.070	yaw rate:	0.185	Roll:	4.521	Pitch:	0.991	Yaw:	47.768	Thrust:	50.441
Time:	5.872	Roll Set Point:	-0.234	Pitch Set Point:	-0.122	Yaw Set Point:	-0.577	X_WP:	0.000	Y_WP:	0.000	Y_WP:	0.500	X:	0.099	Y:	0.096	Z:	0.399	yaw:	33.085	yaw rate:	1.509	Roll:	4.500	Pitch:	0.978	Yaw:	48.008	Thrust:	50.624
Time:	5.887	Roll Set Point:	-0.234	Pitch Set Point:	-0.122	Yaw Set Point:	-0.578	X_WP:	0.000	Y_WP:	0.000	Y_WP:	0.500	X:	0.099	Y:	0.096	Z:	0.399	yaw:	33.104	yaw rate:	1.935	Roll:	4.523	Pitch:	0.933	Yaw:	48.111	Thrust:	50.956
Time:	5.903	Roll Set Point:	-0.234	Pitch Set Point:	-0.122	Yaw Set Point:	-0.577	X_WP:	0.000	Y_WP:	0.000	Y_WP:	0.500	X:	0.099	Y:	0.096	Z:	0.399	yaw:	33.079	yaw rate:	-2.508	Roll:	4.492	Pitch:	1.029	Yaw:	47.325	Thrust:	50.960
Time:	5.918	Roll Set Point:	-0.234	Pitch Set Point:	-0.122	Yaw Set Point:	-0.577	X_WP:	0.000	Y_WP:	0.000	Y_WP:	0.500	X:	0.099	Y:	0.096	Z:	0.399	yaw:	33.077	yaw rate:	-0.193	Roll:	4.527	Pitch:	0.995	Yaw:	47.715	Thrust:	51.188
Time:	5.934	Roll Set Point:	-0.234	Pitch Set Point:	-0.122	Yaw Set Point:	-0.577	X_WP:	0.000	Y_WP:	0.000	Y_WP:	0.500	X:	0.099	Y:	0.096	Z:	0.399	yaw:	33.077	yaw rate:	-0.193	Roll:	4.509	Pitch:	0.997	Yaw:	47.747	Thrust:	51.423
Time:	5.950	Roll Set Point:	-0.234	Pitch Set Point:	-0.122	Yaw Set Point:	-0.577	X_WP:	0.000	Y_WP:	0.000	Y_WP:	0.500	X:	0.099	Y:	0.096	Z:	0.399	yaw:	33.040	yaw rate:	-3.856	Roll:	4.497	Pitch:	1.067	Yaw:	47.079	Thrust:	51.555
Time:	5.966	Roll Set Point:	-0.235	Pitch Set Point:	-0.121	Yaw Set Point:	-0.577	X_WP:	0.000	Y_WP:	0.000	Y_WP:	0.500	X:	0.099	Y:	0.096	Z:	0.399	yaw:	33.058	yaw rate:	1.783	Roll:	4.505	Pitch:	0.904	Yaw:	48.105	Thrust:	54.929
Time:	5.980	Roll Set Point:	-0.234	Pitch Set Point:	-0.122	Yaw Set Point:	-0.577	X_WP:	0.000	Y_WP:	0.000	Y_WP:	0.500	X:	0.099	Y:	0.096	Z:	0.399	yaw:	33.062	yaw rate:	0.382	Roll:	4.489	Pitch:	1.077	Yaw:	47.638	Thrust:	47.356
Time:	6.001	Roll Set Point:	-0.081	Pitch Set Point:	-0.036	Yaw Set Point:	-0.577	X_WP:	0.082	Y_WP:	0.155	Y_WP:	0.500	X:	0.099	Y:	0.096	Z:	0.399	yaw:	33.062	yaw rate:	0.382	Roll:	-30.000	Pitch:	-30.000	Yaw:	48.208	Thrust:	66.575
Time:	6.017	Roll Set Point:	-0.081	Pitch Set Point:	-0.036	Yaw Set Point:	-0.577	X_WP:	0.082	Y_WP:	0.155	Y_WP:	0.500	X:	0.099	Y:	0.096	Z:	0.399	yaw:	33.081	yaw rate:	-0.161	Roll:	0.040	Pitch:	-1.484	Yaw:	48.079	Thrust:	52.430
Time:	6.032	Roll Set Point:	-0.081	Pitch Set Point:	-0.036	Yaw Set Point:	-0.578	X_WP:	0.082	Y_WP:	0.155	Y_WP:	0.500	X:	0.099	Y:	0.096	Z:	0.399	yaw:	33.098	yaw rate:	1.671	Roll:	0.034	Pitch:	-1.480	Yaw:	48.056	Thrust:	52.593
Time:	6.048	Roll Set Point:	-0.081	Pitch Set Point:	-0.036	Yaw Set Point:	-0.577	X_WP:	0.082	Y_WP:	0.155	Y_WP:	0.500	X:	0.099	Y:	0.096	Z:	0.399	yaw:	33.061	yaw rate:	-3.740	Roll:	0.094	Pitch:	-1.493	Yaw:	47.129	Thrust:	53.353
Time:	6.065	Roll Set Point:	-0.081	Pitch Set Point:	-0.036	Yaw Set Point:	-0.577	X_WP:	0.082	Y_WP:	0.155	Y_WP:	0.500	X:	0.099	Y:	0.096	Z:	0.399	yaw:	33.061	yaw rate:	-3.740	Roll:	0.098	Pitch:	-1.476	Yaw:	47.828	Thrust:	56.105
Time:	6.080	Roll Set Point:	-0.081	Pitch Set Point:	-0.036	Yaw Set Point:	-0.577	X_WP:	0.082	Y_WP:	0.155	Y_WP:	0.500	X:	0.099	Y:	0.096	Z:	0.399	yaw:	33.073	yaw rate:	-2.277	Roll:	0.068	Pitch:	-1.494	Yaw:	47.956	Thrust:	53.177
Time:	6.096	Roll Set Point:	-0.081	Pitch Set Point:	-0.036	Yaw Set Point:	-0.577	X_WP:	0.082	Y_WP:	0.155	Y_WP:	0.500	X:	0.099	Y:	0.096	Z:	0.399	yaw:	33.036	yaw rate:	-3.758	Roll:	0.068	Pitch:	-1.499	Yaw:	47.063	Thrust:	53.275
Time:	6.112	Roll Set Point:	-0.081	Pitch Set Point:	-0.036	Yaw Set Point:	-0.578	X_WP:	0.082	Y_WP:	0.156	Y_WP:	0.500	X:	0.099	Y:	0.096	Z:	0.399	yaw:	33.096	yaw rate:	5.973	Roll:	0.036	Pitch:	-1.490	Yaw:	48.772	Thrust:	53.659
Time:	6.127	Roll Set Point:	-0.081	Pitch Set Point:	-0.036	Yaw Set Point:	-0.578	X_WP:	0.082	Y_WP:	0.156	Y_WP:	0.500	X:	0.099	Y:	0.096	Z:	0.398	yaw:	33.094	yaw rate:	-0.148	Roll:	0.077	Pitch:	-1.514	Yaw:	47.746	Thrust:	53.783
Time:	6.143	Roll Set Point:	-0.081	Pitch Set Point:	-0.036	Yaw Set Point:	-0.578	X_WP:	0.082	Y_WP:	0.155	Y_WP:	0.500	X:	0.099	Y:	0.096	Z:	0.399	yaw:	33.096	yaw rate:	0.217	Roll:	0.018	Pitch:	-1.489	Yaw:	47.810	Thrust:	53.742
Time:	6.158	Roll Set Point:	-0.081	Pitch Set Point:	-0.036	Yaw Set Point:	-0.577	X_WP:	0.082	Y_WP:	0.155	Y_WP:	0.500	X:	0.099	Y:	0.096	Z:	0.399	yaw:	33.048	yaw rate:	-4.791	Roll:	0.098	Pitch:	-1.524	Yaw:	46.905	Thrust:	54.056
Time:	6.174	Roll Set Point:	-0.081	Pitch Set Point:	-0.036	Yaw Set Point:	-0.577	X_WP:	0.082	Y_WP:	0.155	Y_WP:	0.500	X:	0.099	Y:	0.096	Z:	0.399	yaw:	33.048	yaw rate:	-4.791	Roll:	0.055	Pitch:	-1.509	Yaw:	47.707	Thrust:	54.273
Time:	6.190	Roll Set Point:	-0.081	Pitch Set Point:	-0.036	Yaw Set Point:	-0.577	X_WP:	0.082	Y_WP:	0.155	Y_WP:	0.500	X:	0.099	Y:	0.096	Z:	0.399	yaw:	33.053	yaw rate:	-1.195	Roll:	0.058	Pitch:	-1.512	Yaw:	47.798	Thrust:	54.577
Time:	6.205	Roll Set Point:	-0.081	Pitch Set Point:	-0.036	Yaw Set Point:	-0.577	X_WP:	0.082	Y_WP:	0.155	Y_WP:	0.500	X:	0.099	Y:	0.096	Z:	0.399	yaw:	33.072	yaw rate:	1.856	Roll:	0.045	Pitch:	-1.510	Yaw:	48.048	Thrust:	54.604
Time:	6.221	Roll Set Point:	-0.081	Pitch Set Point:	-0.036	Yaw Set Point:	-0.577	X_WP:	0.082	Y_WP:	0.155	Y_WP:	0.500	X:	0.099	Y:	0.096	Z:	0.399	yaw:	33.072	yaw rate:	1.856	Roll:	0.055	Pitch:	-1.516	Yaw:	47.740	Thrust:	54.854
Time:	6.237	Roll Set Point:	-0.081	Pitch Set Point:	-0.036	Yaw Set Point:	-0.577	X_WP:	0.082	Y_WP:	0.155	Y_WP:	0.500	X:	0.099	Y:	0.096	Z:	0.399	yaw:	33.036	yaw rate:	-3.564	Roll:	0.061	Pitch:	-1.517	Yaw:	47.097	Thrust:	55.089
Time:	6.252	Roll Set Point:	-0.081	Pitch Set Point:	-0.036	Yaw Set Point:	-0.577	X_WP:	0.082	Y_WP:	0.156	Y_WP:	0.500	X:	0.099	Y:	0.096	Z:	0.399	yaw:	33.086	yaw rate:	-1.161	Roll:	0.039	Pitch:	-1.521	Yaw:	48.604	Thrust:	55.366
Time:	6.268	Roll Set Point:	-0.081	Pitch Set Point:	-0.036	Yaw Set Point:	-0.577	X_WP:	0.082	Y_WP:	0.155	Y_WP:	0.500	X:	0.099	Y:	0.096	Z:	0.399	yaw:	33.035	yaw rate:	-5.139	Roll:	0.074	Pitch:	-1.525	Yaw:	46.823	Thrust:	55.167
Time:	6.283	Roll Set Point:	-0.081	Pitch Set Point:	-0.036	Yaw Set Point:	-0.577	X_WP:	0.082	Y_WP:	0.155	Y_WP:	0.500	X:	0.099	Y:	0.096	Z:	0.399	yaw:	33.037	yaw rate:	0.163	Roll:	0.027	Pitch:	-1.521	Yaw:	47.718	Thrust:	55.561
Time:	6.299	Roll Set Point:	-0.081	Pitch Set Point:	-0.036	Yaw Set Point:	-0.577	X_WP:	0.082	Y_WP:	0.156	Y_WP:	0.500	X:	0.099	Y:	0.096	Z:	0.399	yaw:	33.087	yaw rate:	5.026	Roll:	0.051	Pitch:	-1.521	Yaw:	48.604	Thrust:	56.108
Time:	6.315	Roll Set Point:	-0.081	Pitch Set Point:	-0.036	Yaw Set Point:	-0.577	X_WP:	0.082	Y_WP:	0.156	Y_WP:	0.500	X:	0.099	Y:	0.096	Z:	0.399	yaw:	33.087	yaw rate:	5.026	Roll:	0.051	Pitch:	-1.530	Yaw:	47.761	Thrust:	55.994
Time:	6.330	Roll Set Point:	-0.081	Pitch Set Point:	-0.036	Yaw Set Point:	-0.578	X_WP:	0.082	Y_WP:	0.156	Y_WP:	0.500	X:	0.099	Y:	0.096	Z:	0.399	yaw:	33.110	yaw rate:	2.322	Roll:	0.016	Pitch:	-1.531	Yaw:	48.182	Thrust:	56.179
