Time:	2.155	Roll Set Point:	-0.017	Pitch Set Point:	0.032	Yaw Set Point:	-2.937	X_WP:	0.000	Y_WP:	0.000	Y_WP:	0.500	X:	0.163	Y:	0.066	Z:	0.404	yaw:	168.269	yaw rate:	3.127	Roll:	-4.225	Pitch:	-2.839	Yaw:	234.948	Thrust:	5.255
Time:	2.171	Roll Set Point:	-0.017	Pitch Set Point:	0.032	Yaw Set Point:	-2.937	X_WP:	0.000	Y_WP:	0.000	Y_WP:	0.500	X:	0.163	Y:	0.066	Z:	0.405	yaw:	168.263	yaw rate:	-0.616	Roll:	-4.243	Pitch:	-2.853	Yaw:	235.755	Thrust:	5.284
Time:	2.187	Roll Set Point:	-0.017	Pitch Set Point:	0.032	Yaw Set Point:	-2.937	X_WP:	0.000	Y_WP:	0.000	Y_WP:	0.500	X:	0.163	Y:	0.066	Z:	0.404	yaw:	168.264	yaw rate:	0.094	Roll:	-4.223	Pitch:	-2.842	Yaw:	236.515	Thrust:	5.811
Time:	2.202	Roll Set Point:	-0.017	Pitch Set Point:	0.032	Yaw Set Point:	-2.937	X_WP:	0.000	Y_WP:	0.000	Y_WP:	0.500	X:	0.163	Y:	0.066	Z:	0.404	yaw:	168.264	yaw rate:	0.094	Roll:	-4.242	Pitch:	-2.850	Yaw:	236.503	Thrust:	5.794
Time:	2.218	Roll Set Point:	-0.017	Pitch Set Point:	0.032	Yaw Set Point:	-2.936	X_WP:	0.000	Y_WP:	0.000	Y_WP:	0.500	X:	0.163	Y:	0.066	Z:	0.404	yaw:	168.249	yaw rate:	-1.521	Roll:	-4.230	Pitch:	-2.867	Yaw:	236.231	Thrust:	5.805
Time:	2.234	Roll Set Point:	-0.017	Pitch Set Point:	0.032	Yaw Set Point:	-2.937	X_WP:	0.000	Y_WP:	0.000	Y_WP:	0.500	X:	0.163	Y:	0.066	Z:	0.404	yaw:	168.262	yaw rate:	1.379	Roll:	-4.271	Pitch:	-2.844	Yaw:	236.730	Thrust:	6.179
Time:	2.249	Roll Set Point:	-0.017	Pitch Set Point:	0.032	Yaw Set Point:	-2.937	X_WP:	0.000	Y_WP:	0.000	Y_WP:	0.500	X:	0.163	Y:	0.066	Z:	0.404	yaw:	168.262	yaw rate:	1.379	Roll:	-4.259	Pitch:	-2.862	Yaw:	236.501	Thrust:	6.328
Time:	2.265	Roll Set Point:	-0.017	Pitch Set Point:	0.032	Yaw Set Point:	-2.937	X_WP:	0.000	Y_WP:	0.000	Y_WP:	0.500	X:	0.163	Y:	0.066	Z:	0.404	yaw:	168.254	yaw rate:	-1.231	Roll:	-4.245	Pitch:	-2.867	Yaw:	236.346	Thrust:	6.495
Time:	2.280	Roll Set Point:	-0.017	Pitch Set Point:	0.032	Yaw Set Point:	-2.937	X_WP:	0.000	Y_WP:	0.000	Y_WP:	0.500	X:	0.163	Y:	0.066	Z:	0.404	yaw:	168.254	yaw rate:	-1.231	Roll:	-4.270	Pitch:	-2.869	Yaw:	236.492	Thrust:	6.689
Time:	2.296	Roll Set Point:	-0.017	Pitch Set Point:	0.032	Yaw Set Point:	-2.937	X_WP:	0.000	Y_WP:	0.000	Y_WP:	0.500	X:	0.163	Y:	0.066	Z:	0.404	yaw:	168.259	yaw rate:	0.555	Roll:	-4.280	Pitch:	-2.890	Yaw:	236.589	Thrust:	6.910
Time:	2.312	Roll Set Point:	-0.017	Pitch Set Point:	0.032	Yaw Set Point:	-2.937	X_WP:	0.000	Y_WP:	0.000	Y_WP:	0.500	X:	0.163	Y:	0.066	Z:	0.404	yaw:	168.265	yaw rate:	-2.747	Roll:	-4.316	Pitch:	-2.819	Yaw:	236.601	Thrust:	6.966
Time:	2.327	Roll Set Point:	-0.017	Pitch Set Point:	0.032	Yaw Set Point:	-2.937	X_WP:	0.000	Y_WP:	0.000	Y_WP:	0.500	X:	0.163	Y:	0.066	Z:	0.404	yaw:	168.297	yaw rate:	3.130	Roll:	-4.353	Pitch:	-2.832	Yaw:	237.073	Thrust:	7.393
Time:	2.343	Roll Set Point:	-0.017	Pitch Set Point:	0.032	Yaw Set Point:	-2.937	X_WP:	0.000	Y_WP:	0.000	Y_WP:	0.500	X:	0.163	Y:	0.066	Z:	0.404	yaw:	168.297	yaw rate:	3.130	Roll:	-4.296	Pitch:	-2.882	Yaw:	236.549	Thrust:	7.406
Time:	2.359	Roll Set Point:	-0.017	Pitch Set Point:	0.032	Yaw Set Point:	-2.936	X_WP:	0.000	Y_WP:	0.000	Y_WP:	0.500	X:	0.163	Y:	0.066	Z:	0.404	yaw:	168.246	yaw rate:	-1.732	Roll:	-4.202	Pitch:	-3.005	Yaw:	235.637	Thrust:	7.413
Time:	2.374	Roll Set Point:	-0.017	Pitch Set Point:	0.032	Yaw Set Point:	-2.937	X_WP:	0.000	Y_WP:	0.000	Y_WP:	0.500	X:	0.163	Y:	0.066	Z:	0.404	yaw:	168.267	yaw rate:	2.116	Roll:	-4.337	Pitch:	-2.866	Yaw:	236.863	Thrust:	7.908
Time:	2.390	Roll Set Point:	-0.017	Pitch Set Point:	0.032	Yaw Set Point:	-2.936	X_WP:	0.000	Y_WP:	0.000	Y_WP:	0.500	X:	0.163	Y:	0.066	Z:	0.404	yaw:	168.243	yaw rate:	-2.444	Roll:	-4.266	Pitch:	-2.926	Yaw:	236.065	Thrust:	7.783
Time:	2.405	Roll Set Point:	-0.017	Pitch Set Point:	0.032	Yaw Set Point:	-2.937	X_WP:	0.000	Y_WP:	0.000	Y_WP:	0.500	X:	0.163	Y:	0.066	Z:	0.404	yaw:	168.257	yaw rate:	1.390	Roll:	-4.328	Pitch:	-2.847	Yaw:	236.729	Thrust:	8.172
Time:	2.421	Roll Set Point:	-0.017	Pitch Set Point:	0.032	Yaw Set Point:	-2.937	X_WP:	0.000	Y_WP:	0.000	Y_WP:	0.500	X:	0.163	Y:	0.066	Z:	0.404	yaw:	168.257	yaw rate:	1.390	Roll:	-4.321	Pitch:	-2.903	Yaw:	236.494	Thrust:	8.299
Time:	2.437	Roll Set Point:	-0.017	Pitch Set Point:	0.032	Yaw Set Point:	-2.937	X_WP:	0.000	Y_WP:	0.000	Y_WP:	0.500	X:	0.163	Y:	0.066	Z:	0.404	yaw:	168.277	yaw rate:	1.238	Roll:	-4.393	Pitch:	-2.877	Yaw:	236.851	Thrust:	8.468
Time:	2.452	Roll Set Point:	-0.017	Pitch Set Point:	0.032	Yaw Set Point:	-2.937	X_WP:	0.000	Y_WP:	0.000	Y_WP:	0.500	X:	0.163	Y:	0.066	Z:	0.404	yaw:	168.276	yaw rate:	-0.109	Roll:	-4.324	Pitch:	-2.921	Yaw:	236.501	Thrust:	8.743
Time:	2.468	Roll Set Point:	-0.017	Pitch Set Point:	0.032	Yaw Set Point:	-2.937	X_WP:	0.000	Y_WP:	0.000	Y_WP:	0.500	X:	0.163	Y:	0.066	Z:	0.404	yaw:	168.276	yaw rate:	-0.109	Roll:	-4.340	Pitch:	-2.914	Yaw:	236.523	Thrust:	8.845
Time:	2.484	Roll Set Point:	-0.017	Pitch Set Point:	0.032	Yaw Set Point:	-2.937	X_WP:	0.000	Y_WP:	0.000	Y_WP:	0.500	X:	0.163	Y:	0.066	Z:	0.404	yaw:	168.251	yaw rate:	1.951	Roll:	-4.284	Pitch:	-2.974	Yaw:	236.074	Thrust:	8.892
Time:	2.499	Roll Set Point:	-0.017	Pitch Set Point:	0.032	Yaw Set Point:	-2.937	X_WP:	0.000	Y_WP:	0.000	Y_WP:	0.500	X:	0.163	Y:	0.066	Z:	0.404	yaw:	168.270	yaw rate:	1.883	Roll:	-4.384	Pitch:	-2.838	Yaw:	236.825	Thrust:	9.242
Time:	2.515	Roll Set Point:	-0.017	Pitch Set Point:	0.032	Yaw Set Point:	-2.937	X_WP:	0.000	Y_WP:	0.000	Y_WP:	0.500	X:	0.163	Y:	0.066	Z:	0.404	yaw:	168.270	yaw rate:	1.883	Roll:	-4.357	Pitch:	-2.925	Yaw:	236.515	Thrust:	9.382
Time:	2.530	Roll Set Point:	-0.017	Pitch Set Point:	0.032	Yaw Set Point:	-2.937	X_WP:	0.000	Y_WP:	0.000	Y_WP:	0.500	X:	0.163	Y:	0.066	Z:	0.405	yaw:	168.254	yaw rate:	-0.692	Roll:	-4.356	Pitch:	-2.989	Yaw:	236.231	Thrust:	9.472
Time:	2.546	Roll Set Point:	-0.017	Pitch Set Point:	0.032	Yaw Set Point:	-2.937	X_WP:	0.000	Y_WP:	0.000	Y_WP:	0.500	X:	0.163	Y:	0.066	Z:	0.405	yaw:	168.254	yaw rate:	-0.692	Roll:	-4.368	Pitch:	-2.934	Yaw:	236.490	Thrust:	9.730
Time:	2.562	Roll Set Point:	-0.017	Pitch Set Point:	0.032	Yaw Set Point:	-2.937	X_WP:	0.000	Y_WP:	0.000	Y_WP:	0.500	X:	0.163	Y:	0.066	Z:	0.405	yaw:	168.273	yaw rate:	0.246	Roll:	-4.404	Pitch:	-2.850	Yaw:	236.819	Thrust:	9.871
Time:	2.577	Roll Set Point:	-0.017	Pitch Set Point:	0.032	Yaw Set Point:	-2.937	X_WP:	0.000	Y_WP:	0.000	Y_WP:	0.500	X:	0.163	Y:	0.066	Z:	0.405	yaw:	168.273	yaw rate:	0.246	Roll:	-4.380	Pitch:	-2.939	Yaw:	236.516	Thrust:	10.088
Time:	2.593	Roll Set Point:	-0.017	Pitch Set Point:	0.032	Yaw Set Point:	-2.937	X_WP:	0.000	Y_WP:	0.000	Y_WP:	0.500	X:	0.163	Y:	0.066	Z:	0.404	yaw:	168.288	yaw rate:	1.549	Roll:	-4.412	Pitch:	-2.975	Yaw:	236.797	Thrust:	10.484
Time:	2.609	Roll Set Point:	-0.017	Pitch Set Point:	0.032	Yaw Set Point:	-2.937	X_WP:	0.000	Y_WP:	0.000	Y_WP:	0.500	X:	0.163	Y:	0.066	Z:	0.404	yaw:	168.263	yaw rate:	-0.494	Roll:	-4.340	Pitch:	-3.002	Yaw:	236.092	Thrust:	10.370
Time:	2.624	Roll Set Point:	-0.017	Pitch Set Point:	0.032	Yaw Set Point:	-2.937	X_WP:	0.000	Y_WP:	0.000	Y_WP:	0.500	X:	0.163	Y:	0.066	Z:	0.404	yaw:	168.277	yaw rate:	1.403	Roll:	-4.397	Pitch:	-2.892	Yaw:	236.749	Thrust:	10.606
Time:	2.640	Roll Set Point:	-0.017	Pitch Set Point:	0.032	Yaw Set Point:	-2.937	X_WP:	0.000	Y_WP:	0.000	Y_WP:	0.500	X:	0.163	Y:	0.066	Z:	0.404	yaw:	168.281	yaw rate:	0.375	Roll:	-4.425	Pitch:	-2.963	Yaw:	236.590	Thrust:	10.869
Time:	2.669	Roll Set Point:	-0.017	Pitch Set Point:	0.032	Yaw Set Point:	-2.937	X_WP:	0.000	Y_WP:	0.000	Y_WP:	0.500	X:	0.163	Y:	0.066	Z:	0.404	yaw:	168.259	yaw rate:	-1.839	Roll:	-4.543	Pitch:	-3.086	Yaw:	237.619	Thrust:	15.747
Time:	2.684	Roll Set Point:	-0.017	Pitch Set Point:	0.032	Yaw Set Point:	-2.937	X_WP:	0.000	Y_WP:	0.000	Y_WP:	0.500	X:	0.163	Y:	0.066	Z:	0.404	yaw:	168.259	yaw rate:	-1.839	Roll:	-4.413	Pitch:	-2.964	Yaw:	236.497	Thrust:	11.164
Time:	2.700	Roll Set Point:	-0.017	Pitch Set Point:	0.032	Yaw Set Point:	-2.936	X_WP:	0.000	Y_WP:	0.000	Y_WP:	0.500	X:	0.163	Y:	0.066	Z:	0.404	yaw:	168.238	yaw rate:	-2.135	Roll:	-4.360	Pitch:	-3.084	Yaw:	236.109	Thrust:	11.487
Time:	2.715	Roll Set Point:	-0.017	Pitch Set Point:	0.032	Yaw Set Point:	-2.937	X_WP:	0.000	Y_WP:	0.000	Y_WP:	0.500	X:	0.163	Y:	0.066	Z:	0.405	yaw:	168.266	yaw rate:	2.749	Roll:	-4.495	Pitch:	-2.816	Yaw:	236.964	Thrust:	11.354
Time:	2.731	Roll Set Point:	-0.017	Pitch Set Point:	0.032	Yaw Set Point:	-2.937	X_WP:	0.000	Y_WP:	0.000	Y_WP:	0.500	X:	0.163	Y:	0.066	Z:	0.404	yaw:	168.267	yaw rate:	0.136	Roll:	-4.441	Pitch:	-3.025	Yaw:	236.530	Thrust:	11.872
Time:	2.747	Roll Set Point:	-0.017	Pitch Set Point:	0.032	Yaw Set Point:	-2.937	X_WP:	0.000	Y_WP:	0.000	Y_WP:	0.500	X:	0.163	Y:	0.066	Z:	0.404	yaw:	168.259	yaw rate:	-0.831	Roll:	-4.400	Pitch:	-2.990	Yaw:	236.357	Thrust:	11.781
Time:	2.762	Roll Set Point:	-0.017	Pitch Set Point:	0.032	Yaw Set Point:	-2.936	X_WP:	0.000	Y_WP:	0.000	Y_WP:	0.500	X:	0.163	Y:	0.066	Z:	0.404	yaw:	168.249	yaw rate:	-0.974	Roll:	-4.428	Pitch:	-2.970	Yaw:	236.319	Thrust:	12.038
Time:	2.778	Roll Set Point:	-0.017	Pitch Set Point:	0.032	Yaw Set Point:	-2.936	X_WP:	0.000	Y_WP:	0.000	Y_WP:	0.500	X:	0.163	Y:	0.066	Z:	0.404	yaw:	168.249	yaw rate:	-0.974	Roll:	-4.447	Pitch:	-2.987	Yaw:	236.482	Thrust:	12.238
Time:	2.794	Roll Set Point:	-0.017	Pitch Set Point:	0.032	Yaw Set Point:	-2.936	X_WP:	0.000	Y_WP:	0.000	Y_WP:	0.500	X:	0.163	Y:	0.066	Z:	0.405	yaw:	168.239	yaw rate:	-3.415	Roll:	-4.455	Pitch:	-3.071	Yaw:	236.311	Thrust:	12.334
Time:	2.809	Roll Set Point:	-0.017	Pitch Set Point:	0.032	Yaw Set Point:	-2.937	X_WP:	0.000	Y_WP:	0.000	Y_WP:	0.500	X:	0.163	Y:	0.066	Z:	0.404	yaw:	168.269	yaw rate:	2.985	Roll:	-4.484	Pitch:	-2.903	Yaw:	237.011	Thrust:	12.761
Time:	2.825	Roll Set Point:	-0.017	Pitch Set Point:	0.032	Yaw Set Point:	-2.937	X_WP:	0.000	Y_WP:	0.000	Y_WP:	0.500	X:	0.163	Y:	0.066	Z:	0.404	yaw:	168.300	yaw rate:	3.060	Roll:	-4.532	Pitch:	-2.880	Yaw:	237.066	Thrust:	12.783
Time:	2.841	Roll Set Point:	-0.017	Pitch Set Point:	0.032	Yaw Set Point:	-2.937	X_WP:	0.000	Y_WP:	0.000	Y_WP:	0.500	X:	0.163	Y:	0.066	Z:	0.405	yaw:	168.261	yaw rate:	-3.912	Roll:	-4.403	Pitch:	-3.128	Yaw:	235.843	Thrust:	12.828
Time:	2.856	Roll Set Point:	-0.017	Pitch Set Point:	0.032	Yaw Set Point:	-2.937	X_WP:	0.000	Y_WP:	0.000	Y_WP:	0.500	X:	0.163	Y:	0.066	Z:	0.405	yaw:	168.261	yaw rate:	-3.912	Roll:	-4.476	Pitch:	-3.006	Yaw:	236.499	Thrust:	13.134
Time:	2.872	Roll Set Point:	-0.017	Pitch Set Point:	0.032	Yaw Set Point:	-2.937	X_WP:	0.000	Y_WP:	0.000	Y_WP:	0.500	X:	0.163	Y:	0.066	Z:	0.404	yaw:	168.291	yaw rate:	4.578	Roll:	-4.525	Pitch:	-2.901	Yaw:	237.055	Thrust:	13.370
Time:	2.887	Roll Set Point:	-0.017	Pitch Set Point:	0.032	Yaw Set Point:	-2.937	X_WP:	0.000	Y_WP:	0.000	Y_WP:	0.500	X:	0.163	Y:	0.066	Z:	0.404	yaw:	168.287	yaw rate:	-0.380	Roll:	-4.480	Pitch:	-3.035	Yaw:	236.472	Thrust:	13.553
Time:	2.903	Roll Set Point:	-0.017	Pitch Set Point:	0.032	Yaw Set Point:	-2.936	X_WP:	0.000	Y_WP:	0.000	Y_WP:	0.500	X:	0.163	Y:	0.066	Z:	0.404	yaw:	168.231	yaw rate:	-5.640	Roll:	-4.404	Pitch:	-3.214	Yaw:	235.508	Thrust:	13.620
Time:	2.919	Roll Set Point:	-0.016	Pitch Set Point:	0.031	Yaw Set Point:	-2.943	X_WP:	0.000	Y_WP:	0.000	Y_WP:	0.500	X:	0.162	Y:	0.066	Z:	0.404	yaw:	168.605	yaw rate:	37.393	Roll:	-5.075	Pitch:	-2.040	Yaw:	243.228	Thrust:	14.343
Time:	2.934	Roll Set Point:	-0.017	Pitch Set Point:	0.032	Yaw Set Point:	-2.937	X_WP:	0.000	Y_WP:	0.000	Y_WP:	0.500	X:	0.163	Y:	0.066	Z:	0.405	yaw:	168.281	yaw rate:	-32.382	Roll:	-4.041	Pitch:	-3.821	Yaw:	231.077	Thrust:	13.415
Time:	2.950	Roll Set Point:	-0.017	Pitch Set Point:	0.032	Yaw Set Point:	-2.937	X_WP:	0.000	Y_WP:	0.000	Y_WP:	0.500	X:	0.163	Y:	0.066	Z:	0.405	yaw:	168.281	yaw rate:	-32.382	Roll:	-4.512	Pitch:	-3.028	Yaw:	236.530	Thrust:	14.224
Time:	2.966	Roll Set Point:	-0.017	Pitch Set Point:	0.032	Yaw Set Point:	-2.937	X_WP:	0.000	Y_WP:	0.000	Y_WP:	0.500	X:	0.163	Y:	0.066	Z:	0.404	yaw:	168.298	yaw rate:	1.724	Roll:	-4.518	Pitch:	-2.994	Yaw:	236.840	Thrust:	14.652
Time:	2.981	Roll Set Point:	-0.017	Pitch Set Point:	0.032	Yaw Set Point:	-2.937	X_WP:	0.000	Y_WP:	0.000	Y_WP:	0.500	X:	0.163	Y:	0.066	Z:	0.404	yaw:	168.298	yaw rate:	1.724	Roll:	-4.522	Pitch:	-3.034	Yaw:	236.548	Thrust:	14.553
Time:	2.997	Roll Set Point:	-0.017	Pitch Set Point:	0.032	Yaw Set Point:	-2.937	X_WP:	0.000	Y_WP:	0.000	Y_WP:	0.500	X:	0.163	Y:	0.066	Z:	0.405	yaw:	168.259	yaw rate:	-0.564	Roll:	-4.467	Pitch:	-3.125	Yaw:	235.844	Thrust:	14.504
Time:	3.012	Roll Set Point:	-0.017	Pitch Set Point:	0.032	Yaw Set Point:	-2.937	X_WP:	0.000	Y_WP:	0.000	Y_WP:	0.500	X:	0.163	Y:	0.066	Z:	0.404	yaw:	168.275	yaw rate:	1.545	Roll:	-4.555	Pitch:	-3.016	Yaw:	236.777	Thrust:	15.161
Time:	3.028	Roll Set Point:	-0.017	Pitch Set Point:	0.032	Yaw Set Point:	-2.936	X_WP:	0.000	Y_WP:	0.000	Y_WP:	0.500	X:	0.163	Y:	0.066	Z:	0.404	yaw:	168.243	yaw rate:	-3.135	Roll:	-4.489	Pitch:	-3.133	Yaw:	235.950	Thrust:	14.975
Time:	3.044	Roll Set Point:	-0.017	Pitch Set Point:	0.032	Yaw Set Point:	-2.937	X_WP:	0.000	Y_WP:	0.000	Y_WP:	0.500	X:	0.163	Y:	0.066	Z:	0.404	yaw:	168.260	yaw rate:	1.703	Roll:	-4.567	Pitch:	-3.040	Yaw:	236.786	Thrust:	15.331
Time:	3.059	Roll Set Point:	-0.017	Pitch Set Point:	0.032	Yaw Set Point:	-2.937	X_WP:	0.000	Y_WP:	0.000	Y_WP:	0.500	X:	0.163	Y:	0.066	Z:	0.404	yaw:	168.256	yaw rate:	-0.469	Roll:	-4.535	Pitch:	-3.062	Yaw:	236.414	Thrust:	15.450
Time:	3.075	Roll Set Point:	-0.017	Pitch Set Point:	0.032	Yaw Set Point:	-2.937	X_WP:	0.000	Y_WP:	0.000	Y_WP:	0.500	X:	0.163	Y:	0.066	Z:	0.404	yaw:	168.256	yaw rate:	-0.469	Roll:	-4.554	Pitch:	-3.060	Yaw:	236.489	Thrust:	15.622
Time:	3.091	Roll Set Point:	-0.017	Pitch Set Point:	0.032	Yaw Set Point:	-2.937	X_WP:	0.000	Y_WP:	0.000	Y_WP:	0.500	X:	0.163	Y:	0.066	Z:	0.404	yaw:	168.304	yaw rate:	6.052	Roll:	-4.659	Pitch:	-2.978	Yaw:	237.364	Thrust:	15.949
Time:	3.106	Roll Set Point:	-0.017	Pitch Set Point:	0.032	Yaw Set Point:	-2.936	X_WP:	0.000	Y_WP:	0.000	Y_WP:	0.500	X:	0.163	Y:	0.066	Z:	0.405	yaw:	168.242	yaw rate:	-6.193	Roll:	-4.478	Pitch:	-3.172	Yaw:	235.440	Thrust:	15.732
Time:	3.122	Roll Set Point:	-0.017	Pitch Set Point:	0.032	Yaw Set Point:	-2.936	X_WP:	0.000	Y_WP:	0.000	Y_WP:	0.500	X:	0.163	Y:	0.066	Z:	0.405	yaw:	168.242	yaw rate:	-6.193	Roll:	-4.571	Pitch:	-3.072	Yaw:	236.469	Thrust:	16.155
Time:	3.137	Roll Set Point:	-0.017	Pitch Set Point:	0.032	Yaw Set Point:	-2.937	X_WP:	0.000	Y_WP:	0.000	Y_WP:	0.500	X:	0.163	Y:	0.066	Z:	0.404	yaw:	168.275	yaw rate:	3.322	Roll:	-4.611	Pitch:	-3.029	Yaw:	237.076	Thrust:	16.660
Time:	3.153	Roll Set Point:	-0.017	Pitch Set Point:	0.032	Yaw Set Point:	-2.937	X_WP:	0.000	Y_WP:	0.000	Y_WP:	0.500	X:	0.163	Y:	0.066	Z:	0.404	yaw:	168.269	yaw rate:	1.638	Roll:	-4.580	Pitch:	-3.117	Yaw:	236.415	Thrust:	16.443
Time:	3.169	Roll Set Point:	-0.017	Pitch Set Point:	0.032	Yaw Set Point:	-2.937	X_WP:	0.000	Y_WP:	0.000	Y_WP:	0.500	X:	0.163	Y:	0.066	Z:	0.404	yaw:	168.269	yaw rate:	1.638	Roll:	-4.590	Pitch:	-3.084	Yaw:	236.511	Thrust:	16.719
Time:	3.184	Roll Set Point:	-0.017	Pitch Set Point:	0.032	Yaw Set Point:	-2.936	X_WP:	0.000	Y_WP:	0.000	Y_WP:	0.500	X:	0.163	Y:	0.066	Z:	0.404	yaw:	168.243	yaw rate:	-2.624	Roll:	-4.555	Pitch:	-3.096	Yaw:	236.040	Thrust:	16.856
Time:	3.200	Roll Set Point:	-0.017	Pitch Set Point:	0.032	Yaw Set Point:	-2.937	X_WP:	0.000	Y_WP:	0.000	Y_WP:	0.500	X:	0.163	Y:	0.066	Z:	0.404	yaw:	168.298	yaw rate:	5.501	Roll:	-4.685	Pitch:	-2.914	Yaw:	237.471	Thrust:	17.186
Time:	3.216	Roll Set Point:	-0.017	Pitch Set Point:	0.032	Yaw Set Point:	-2.937	X_WP:	0.000	Y_WP:	0.000	Y_WP:	0.500	X:	0.163	Y:	0.066	Z:	0.404	yaw:	168.298	yaw rate:	5.501	Roll:	-4.609	Pitch:	-3.092	Yaw:	236.554	Thrust:	17.282
Time:	3.231	Roll Set Point:	-0.017	Pitch Set Point:	0.032	Yaw Set Point:	-2.936	X_WP:	0.000	Y_WP:	0.000	Y_WP:	0.500	X:	0.163	Y:	0.066	Z:	0.404	yaw:	168.244	yaw rate:	-1.566	Roll:	-4.529	Pitch:	-3.302	Yaw:	235.575	Thrust:	17.290
Time:	3.247	Roll Set Point:	-0.017	Pitch Set Point:	0.032	Yaw Set Point:	-2.937	X_WP:	0.000	Y_WP:	0.000	Y_WP:	0.500	X:	0.163	Y:	0.066	Z:	0.404	yaw:	168.263	yaw rate:	1.841	Roll:	-4.650	Pitch:	-3.021	Yaw:	236.810	Thrust:	17.701
Time:	3.262	Roll Set Point:	-0.017	Pitch Set Point:	0.032	Yaw Set Point:	-2.937	X_WP:	0.000	Y_WP:	0.000	Y_WP:	0.500	X:	0.163	Y:	0.066	Z:	0.404	yaw:	168.275	yaw rate:	1.217	Roll:	-4.661	Pitch:	-3.054	Yaw:	236.719	Thrust:	17.800
Time:	3.278	Roll Set Point:	-0.017	Pitch Set Point:	0.032	Yaw Set Point:	-2.937	X_WP:	0.000	Y_WP:	0.000	Y_WP:	0.500	X:	0.163	Y:	0.066	Z:	0.405	yaw:	168.271	yaw rate:	-0.392	Roll:	-4.617	Pitch:	-3.156	Yaw:	236.446	Thrust:	17.821
Time:	3.294	Roll Set Point:	-0.017	Pitch Set Point:	0.032	Yaw Set Point:	-2.937	X_WP:	0.000	Y_WP:	0.000	Y_WP:	0.500	X:	0.163	Y:	0.066	Z:	0.404	yaw:	168.260	yaw rate:	-1.103	Roll:	-4.596	Pitch:	-3.175	Yaw:	236.313	Thrust:	18.208
Time:	3.309	Roll Set Point:	-0.017	Pitch Set Point:	0.032	Yaw Set Point:	-2.937	X_WP:	0.000	Y_WP:	0.000	Y_WP:	0.500	X:	0.163	Y:	0.066	Z:	0.404	yaw:	168.260	yaw rate:	-1.103	Roll:	-4.640	Pitch:	-3.119	Yaw:	236.498	Thrust:	18.330
Time:	3.325	Roll Set Point:	-0.017	Pitch Set Point:	0.032	Yaw Set Point:	-2.937	X_WP:	0.000	Y_WP:	0.000	Y_WP:	0.500	X:	0.163	Y:	0.066	Z:	0.404	yaw:	168.285	yaw rate:	2.556	Roll:	-4.692	Pitch:	-2.975	Yaw:	236.964	Thrust:	18.569
Time:	3.341	Roll Set Point:	-0.017	Pitch Set Point:	0.032	Yaw Set Point:	-2.937	X_WP:	0.000	Y_WP:	0.000	Y_WP:	0.500	X:	0.163	Y:	0.066	Z:	0.404	yaw:	168.285	yaw rate:	2.556	Roll:	-4.652	Pitch:	-3.122	Yaw:	236.530	Thrust:	18.663
Time:	3.356	Roll Set Point:	-0.017	Pitch Set Point:	0.032	Yaw Set Point:	-2.936	X_WP:	0.000	Y_WP:	0.000	Y_WP:	0.500	X:	0.163	Y:	0.066	Z:	0.404	yaw:	168.248	yaw rate:	-27.810	Roll:	-4.585	Pitch:	-3.309	Yaw:	235.851	Thrust:	18.951
Time:	3.372	Roll Set Point:	-0.017	Pitch Set Point:	0.032	Yaw Set Point:	-2.936	X_WP:	0.000	Y_WP:	0.000	Y_WP:	0.500	X:	0.163	Y:	0.066	Z:	0.405	yaw:	168.239	yaw rate:	-0.873	Roll:	-4.653	Pitch:	-3.065	Yaw:	236.326	Thrust:	18.838
Time:	3.387	Roll Set Point:	-0.017	Pitch Set Point:	0.032	Yaw Set Point:	-2.937	X_WP:	0.000	Y_WP:	0.000	Y_WP:	0.500	X:	0.163	Y:	0.066	Z:	0.404	yaw:	168.269	yaw rate:	2.971	Roll:	-4.738	Pitch:	-3.100	Yaw:	237.008	Thrust:	19.523
Time:	3.403	Roll Set Point:	-0.017	Pitch Set Point:	0.032	Yaw Set Point:	-2.937	X_WP:	0.000	Y_WP:	0.000	Y_WP:	0.500	X:	0.163	Y:	0.066	Z:	0.404	yaw:	168.269	yaw rate:	2.971	Roll:	-4.675	Pitch:	-3.139	Yaw:	236.507	Thrust:	19.382
Time:	3.419	Roll Set Point:	-0.017	Pitch Set Point:	0.032	Yaw Set Point:	-2.936	X_WP:	0.000	Y_WP:	0.000	Y_WP:	0.500	X:	0.163	Y:	0.066	Z:	0.405	yaw:	168.243	yaw rate:	-2.554	Roll:	-4.632	Pitch:	-3.230	Yaw:	236.050	Thrust:	19.367
Time:	3.434	Roll Set Point:	-0.017	Pitch Set Point:	0.032	Yaw Set Point:	-2.936	X_WP:	0.000	Y_WP:	0.000	Y_WP:	0.500	X:	0.163	Y:	0.066	Z:	0.405	yaw:	168.243	yaw rate:	-2.554	Roll:	-4.685	Pitch:	-3.149	Yaw:	236.471	Thrust:	19.734
Time:	3.450	Roll Set Point:	-0.017	Pitch Set Point:	0.032	Yaw Set Point:	-2.937	X_WP:	0.000	Y_WP:	0.000	Y_WP:	0.500	X:	0.163	Y:	0.066	Z:	0.404	yaw:	168.262	yaw rate:	1.869	Roll:	-4.728	Pitch:	-3.130	Yaw:	236.814	Thrust:	20.101
Time:	3.466	Roll Set Point:	-0.017	Pitch Set Point:	0.032	Yaw Set Point:	-2.937	X_WP:	0.000	Y_WP:	0.000	Y_WP:	0.500	X:	0.163	Y:	0.066	Z:	0.404	yaw:	168.292	yaw rate:	3.746	Roll:	-4.747	Pitch:	-3.044	Yaw:	237.042	Thrust:	20.143
Time:	3.481	Roll Set Point:	-0.017	Pitch Set Point:	0.032	Yaw Set Point:	-2.937	X_WP:	0.000	Y_WP:	0.000	Y_WP:	0.500	X:	0.163	Y:	0.066	Z:	0.404	yaw:	168.292	yaw rate:	3.746	Roll:	-4.705	Pitch:	-3.158	Yaw:	236.542	Thrust:	20.303
Time:	3.497	Roll Set Point:	-0.017	Pitch Set Point:	0.032	Yaw Set Point:	-2.937	X_WP:	0.000	Y_WP:	0.000	Y_WP:	0.500	X:	0.163	Y:	0.066	Z:	0.404	yaw:	168.268	yaw rate:	3.334	Roll:	-4.672	Pitch:	-3.237	Yaw:	236.109	Thrust:	20.437
Time:	3.512	Roll Set Point:	-0.017	Pitch Set Point:	0.032	Yaw Set Point:	-2.937	X_WP:	0.000	Y_WP:	0.000	Y_WP:	0.500	X:	0.163	Y:	0.066	Z:	0.404	yaw:	168.284	yaw rate:	1.603	Roll:	-4.744	Pitch:	-3.058	Yaw:	236.799	Thrust:	20.631
Time:	3.528	Roll Set Point:	-0.017	Pitch Set Point:	0.032	Yaw Set Point:	-2.937	X_WP:	0.000	Y_WP:	0.000	Y_WP:	0.500	X:	0.163	Y:	0.066	Z:	0.404	yaw:	168.300	yaw rate:	1.584	Roll:	-4.763	Pitch:	-3.181	Yaw:	236.819	Thrust:	20.875
Time:	3.544	Roll Set Point:	-0.017	Pitch Set Point:	0.032	Yaw Set Point:	-2.937	X_WP:	0.000	Y_WP:	0.000	Y_WP:	0.500	X:	0.163	Y:	0.066	Z:	0.404	yaw:	168.300	yaw rate:	1.584	Roll:	-4.728	Pitch:	-3.172	Yaw:	236.553	Thrust:	21.014
Time:	3.559	Roll Set Point:	-0.017	Pitch Set Point:	0.032	Yaw Set Point:	-2.937	X_WP:	0.000	Y_WP:	0.000	Y_WP:	0.500	X:	0.163	Y:	0.066	Z:	0.404	yaw:	168.263	yaw rate:	3.821	Roll:	-4.646	Pitch:	-3.302	Yaw:	235.894	Thrust:	21.147
Time:	3.575	Roll Set Point:	-0.017	Pitch Set Point:	0.032	Yaw Set Point:	-2.937	X_WP:	0.000	Y_WP:	0.000	Y_WP:	0.500	X:	0.163	Y:	0.066	Z:	0.404	yaw:	168.263	yaw rate:	3.821	Roll:	-4.736	Pitch:	-3.182	Yaw:	236.496	Thrust:	21.318
Time:	3.591	Roll Set Point:	-0.017	Pitch Set Point:	0.032	Yaw Set Point:	-2.937	X_WP:	0.000	Y_WP:	0.000	Y_WP:	0.500	X:	0.163	Y:	0.066	Z:	0.404	yaw:	168.254	yaw rate:	-0.856	Roll:	-4.729	Pitch:	-3.144	Yaw:	236.346	Thrust:	21.693
Time:	3.606	Roll Set Point:	-0.017	Pitch Set Point:	0.032	Yaw Set Point:	-2.937	X_WP:	0.000	Y_WP:	0.000	Y_WP:	0.500	X:	0.163	Y:	0.066	Z:	0.404	yaw:	168.269	yaw rate:	1.497	Roll:	-4.785	Pitch:	-3.217	Yaw:	236.757	Thrust:	21.690
Time:	3.622	Roll Set Point:	-0.017	Pitch Set Point:	0.032	Yaw Set Point:	-2.936	X_WP:	0.000	Y_WP:	0.000	Y_WP:	0.500	X:	0.163	Y:	0.066	Z:	0.404	yaw:	168.238	yaw rate:	-3.060	Roll:	-4.709	Pitch:	-3.263	Yaw:	235.955	Thrust:	21.838
Time:	3.637	Roll Set Point:	-0.017	Pitch Set Point:	0.032	Yaw Set Point:	-2.936	X_WP:	0.000	Y_WP:	0.000	Y_WP:	0.500	X:	0.163	Y:	0.066	Z:	0.404	yaw:	168.238	yaw rate:	-3.060	Roll:	-4.760	Pitch:	-3.200	Yaw:	236.468	Thrust:	22.091
Time:	3.653	Roll Set Point:	-0.017	Pitch Set Point:	0.032	Yaw Set Point:	-2.937	X_WP:	0.000	Y_WP:	0.000	Y_WP:	0.500	X:	0.163	Y:	0.066	Z:	0.404	yaw:	168.264	yaw rate:	0.721	Roll:	-4.823	Pitch:	-3.083	Yaw:	236.967	Thrust:	22.701
Time:	3.669	Roll Set Point:	-0.017	Pitch Set Point:	0.032	Yaw Set Point:	-2.937	X_WP:	0.000	Y_WP:	0.000	Y_WP:	0.500	X:	0.163	Y:	0.066	Z:	0.404	yaw:	168.264	yaw rate:	0.721	Roll:	-4.772	Pitch:	-3.204	Yaw:	236.505	Thrust:	22.456
Time:	3.685	Roll Set Point:	-0.017	Pitch Set Point:	0.032	Yaw Set Point:	-2.937	X_WP:	0.000	Y_WP:	0.000	Y_WP:	0.500	X:	0.163	Y:	0.066	Z:	0.405	yaw:	168.255	yaw rate:	-0.897	Roll:	-4.762	Pitch:	-3.275	Yaw:	236.364	Thrust:	22.769
Time:	3.699	Roll Set Point:	-0.017	Pitch Set Point:	0.032	Yaw Set Point:	-2.937	X_WP:	0.000	Y_WP:	0.000	Y_WP:	0.500	X:	0.163	Y:	0.066	Z:	0.404	yaw:	168.298	yaw rate:	6.179	Roll:	-4.834	Pitch:	-3.131	Yaw:	237.196	Thrust:	21.358
Time:	3.715	Roll Set Point:	-0.017	Pitch Set Point:	0.032	Yaw Set Point:	-2.937	X_WP:	0.000	Y_WP:	0.000	Y_WP:	0.500	X:	0.163	Y:	0.066	Z:	0.404	yaw:	168.298	yaw rate:	6.179	Roll:	-4.791	Pitch:	-3.216	Yaw:	236.551	Thrust:	22.990
Time:	3.730	Roll Set Point:	-0.017	Pitch Set Point:	0.032	Yaw Set Point:	-2.937	X_WP:	0.000	Y_WP:	0.000	Y_WP:	0.500	X:	0.163	Y:	0.066	Z:	0.404	yaw:	168.304	yaw rate:	5.936	Roll:	-4.783	Pitch:	-3.150	Yaw:	236.654	Thrust:	23.234
Time:	3.746	Roll Set Point:	-0.017	Pitch Set Point:	0.032	Yaw Set Point:	-2.937	X_WP:	0.000	Y_WP:	0.000	Y_WP:	0.500	X:	0.163	Y:	0.066	Z:	0.404	yaw:	168.304	yaw rate:	5.936	Roll:	-4.802	Pitch:	-3.222	Yaw:	236.559	Thrust:	23.349
Time:	3.762	Roll Set Point:	-0.017	Pitch Set Point:	0.032	Yaw Set Point:	-2.936	X_WP:	0.000	Y_WP:	0.000	Y_WP:	0.500	X:	0.163	Y:	0.066	Z:	0.405	yaw:	168.245	yaw rate:	-5.935	Roll:	-4.691	Pitch:	-3.335	Yaw:	235.482	Thrust:	23.215
Time:	3.777	Roll Set Point:	-0.017	Pitch Set Point:	0.032	Yaw Set Point:	-2.936	X_WP:	0.000	Y_WP:	0.000	Y_WP:	0.500	X:	0.163	Y:	0.066	Z:	0.405	yaw:	168.245	yaw rate:	-5.935	Roll:	-4.811	Pitch:	-3.233	Yaw:	236.478	Thrust:	23.718
Time:	3.793	Roll Set Point:	-0.017	Pitch Set Point:	0.032	Yaw Set Point:	-2.937	X_WP:	0.000	Y_WP:	0.000	Y_WP:	0.500	X:	0.163	Y:	0.066	Z:	0.404	yaw:	168.253	yaw rate:	-1.535	Roll:	-4.833	Pitch:	-3.221	Yaw:	236.628	Thrust:	24.156
Time:	3.808	Roll Set Point:	-0.017	Pitch Set Point:	0.032	Yaw Set Point:	-2.937	X_WP:	0.000	Y_WP:	0.000	Y_WP:	0.500	X:	0.163	Y:	0.066	Z:	0.405	yaw:	168.279	yaw rate:	2.638	Roll:	-4.864	Pitch:	-3.197	Yaw:	236.964	Thrust:	23.849
Time:	3.824	Roll Set Point:	-0.017	Pitch Set Point:	0.032	Yaw Set Point:	-2.937	X_WP:	0.000	Y_WP:	0.000	Y_WP:	0.500	X:	0.163	Y:	0.066	Z:	0.404	yaw:	168.278	yaw rate:	-0.092	Roll:	-4.818	Pitch:	-3.275	Yaw:	236.508	Thrust:	24.314
Time:	3.840	Roll Set Point:	-0.017	Pitch Set Point:	0.032	Yaw Set Point:	-2.937	X_WP:	0.000	Y_WP:	0.000	Y_WP:	0.500	X:	0.163	Y:	0.066	Z:	0.404	yaw:	168.282	yaw rate:	0.334	Roll:	-4.819	Pitch:	-3.188	Yaw:	236.584	Thrust:	24.474
Time:	3.855	Roll Set Point:	-0.017	Pitch Set Point:	0.032	Yaw Set Point:	-2.937	X_WP:	0.000	Y_WP:	0.000	Y_WP:	0.500	X:	0.163	Y:	0.066	Z:	0.404	yaw:	168.269	yaw rate:	-1.229	Roll:	-4.790	Pitch:	-3.253	Yaw:	236.305	Thrust:	24.507
Time:	3.871	Roll Set Point:	-0.017	Pitch Set Point:	0.032	Yaw Set Point:	-2.937	X_WP:	0.000	Y_WP:	0.000	Y_WP:	0.500	X:	0.163	Y:	0.066	Z:	0.404	yaw:	168.269	yaw rate:	-1.229	Roll:	-4.812	Pitch:	-3.253	Yaw:	236.511	Thrust:	24.778
Time:	3.887	Roll Set Point:	-0.017	Pitch Set Point:	0.032	Yaw Set Point:	-2.937	X_WP:	0.000	Y_WP:	0.000	Y_WP:	0.500	X:	0.163	Y:	0.066	Z:	0.405	yaw:	168.262	yaw rate:	-1.799	Roll:	-4.788	Pitch:	-3.314	Yaw:	236.386	Thrust:	24.912
Time:	3.902	Roll Set Point:	-0.017	Pitch Set Point:	0.032	Yaw Set Point:	-2.937	X_WP:	0.000	Y_WP:	0.000	Y_WP:	0.500	X:	0.163	Y:	0.066	Z:	0.404	yaw:	168.286	yaw rate:	2.321	Roll:	-4.856	Pitch:	-3.208	Yaw:	236.923	Thrust:	25.292
Time:	3.918	Roll Set Point:	-0.017	Pitch Set Point:	0.032	Yaw Set Point:	-2.937	X_WP:	0.000	Y_WP:	0.000	Y_WP:	0.500	X:	0.163	Y:	0.066	Z:	0.404	yaw:	168.286	yaw rate:	2.321	Roll:	-4.812	Pitch:	-3.265	Yaw:	236.534	Thrust:	25.317
Time:	3.933	Roll Set Point:	-0.017	Pitch Set Point:	0.032	Yaw Set Point:	-2.937	X_WP:	0.000	Y_WP:	0.000	Y_WP:	0.500	X:	0.163	Y:	0.066	Z:	0.404	yaw:	168.274	yaw rate:	-1.117	Roll:	-4.792	Pitch:	-3.268	Yaw:	236.331	Thrust:	25.462
Time:	3.949	Roll Set Point:	-0.017	Pitch Set Point:	0.032	Yaw Set Point:	-2.937	X_WP:	0.000	Y_WP:	0.000	Y_WP:	0.500	X:	0.163	Y:	0.066	Z:	0.404	yaw:	168.274	yaw rate:	-1.117	Roll:	-4.813	Pitch:	-3.273	Yaw:	236.521	Thrust:	25.716
Time:	3.965	Roll Set Point:	-0.017	Pitch Set Point:	0.032	Yaw Set Point:	-2.937	X_WP:	0.000	Y_WP:	0.000	Y_WP:	0.500	X:	0.163	Y:	0.066	Z:	0.404	yaw:	168.272	yaw rate:	2.211	Roll:	-4.794	Pitch:	-3.344	Yaw:	236.464	Thrust:	25.886
Time:	3.980	Roll Set Point:	-0.017	Pitch Set Point:	0.032	Yaw Set Point:	-2.937	X_WP:	0.000	Y_WP:	0.000	Y_WP:	0.500	X:	0.163	Y:	0.066	Z:	0.404	yaw:	168.272	yaw rate:	2.211	Roll:	-4.811	Pitch:	-3.282	Yaw:	236.514	Thrust:	26.034
Time:	3.996	Roll Set Point:	-0.017	Pitch Set Point:	0.032	Yaw Set Point:	-2.936	X_WP:	0.000	Y_WP:	0.000	Y_WP:	0.500	X:	0.163	Y:	0.066	Z:	0.404	yaw:	168.240	yaw rate:	-1.249	Roll:	-4.758	Pitch:	-3.368	Yaw:	235.933	Thrust:	26.176
Time:	4.012	Roll Set Point:	-0.017	Pitch Set Point:	0.032	Yaw Set Point:	-2.936	X_WP:	0.000	Y_WP:	0.000	Y_WP:	0.500	X:	0.163	Y:	0.066	Z:	0.404	yaw:	168.240	yaw rate:	-1.249	Roll:	-4.810	Pitch:	-3.292	Yaw:	236.470	Thrust:	26.393
Time:	4.027	Roll Set Point:	-0.017	Pitch Set Point:	0.032	Yaw Set Point:	-2.937	X_WP:	0.000	Y_WP:	0.000	Y_WP:	0.500	X:	0.163	Y:	0.066	Z:	0.404	yaw:	168.259	yaw rate:	-1.678	Roll:	-4.852	Pitch:	-3.212	Yaw:	236.820	Thrust:	26.546
Time:	4.043	Roll Set Point:	-0.017	Pitch Set Point:	0.032	Yaw Set Point:	-2.937	X_WP:	0.000	Y_WP:	0.000	Y_WP:	0.500	X:	0.163	Y:	0.066	Z:	0.404	yaw:	168.278	yaw rate:	1.896	Roll:	-4.827	Pitch:	-3.263	Yaw:	236.840	Thrust:	26.843
Time:	4.058	Roll Set Point:	-0.016	Pitch Set Point:	0.031	Yaw Set Point:	-2.943	X_WP:	0.000	Y_WP:	0.000	Y_WP:	0.500	X:	0.162	Y:	0.066	Z:	0.404	yaw:	168.617	yaw rate:	33.881	Roll:	-5.357	Pitch:	-2.352	Yaw:	242.680	Thrust:	27.207
Time:	4.074	Roll Set Point:	-0.017	Pitch Set Point:	0.032	Yaw Set Point:	-2.937	X_WP:	0.000	Y_WP:	0.000	Y_WP:	0.500	X:	0.163	Y:	0.066	Z:	0.404	yaw:	168.269	yaw rate:	-34.713	Roll:	-4.288	Pitch:	-4.260	Yaw:	230.696	Thrust:	26.648
Time:	4.090	Roll Set Point:	-0.017	Pitch Set Point:	0.032	Yaw Set Point:	-2.937	X_WP:	0.000	Y_WP:	0.000	Y_WP:	0.500	X:	0.163	Y:	0.066	Z:	0.404	yaw:	168.258	yaw rate:	-1.162	Roll:	-4.781	Pitch:	-3.303	Yaw:	236.304	Thrust:	27.359
Time:	4.105	Roll Set Point:	-0.017	Pitch Set Point:	0.032	Yaw Set Point:	-2.937	X_WP:	0.000	Y_WP:	0.000	Y_WP:	0.500	X:	0.163	Y:	0.066	Z:	0.404	yaw:	168.258	yaw rate:	-1.162	Roll:	-4.811	Pitch:	-3.312	Yaw:	236.495	Thrust:	27.465
Time:	4.121	Roll Set Point:	-0.017	Pitch Set Point:	0.032	Yaw Set Point:	-2.936	X_WP:	0.000	Y_WP:	0.000	Y_WP:	0.500	X:	0.163	Y:	0.066	Z:	0.404	yaw:	168.240	yaw rate:	-4.517	Roll:	-4.770	Pitch:	-3.347	Yaw:	236.161	Thrust:	27.587
Time:	4.137	Roll Set Point:	-0.017	Pitch Set Point:	0.032	Yaw Set Point:	-2.936	X_WP:	0.000	Y_WP:	0.000	Y_WP:	0.500	X:	0.163	Y:	0.066	Z:	0.404	yaw:	168.240	yaw rate:	-4.517	Roll:	-4.810	Pitch:	-3.321	Yaw:	236.469	Thrust:	27.820
Time:	4.152	Roll Set Point:	-0.017	Pitch Set Point:	0.032	Yaw Set Point:	-2.936	X_WP:	0.000	Y_WP:	0.000	Y_WP:	0.500	X:	0.163	Y:	0.066	Z:	0.404	yaw:	168.248	yaw rate:	-2.107	Roll:	-4.836	Pitch:	-3.325	Yaw:	236.622	Thrust:	28.061
Time:	4.168	Roll Set Point:	-0.017	Pitch Set Point:	0.032	Yaw Set Point:	-2.937	X_WP:	0.000	Y_WP:	0.000	Y_WP:	0.500	X:	0.163	Y:	0.066	Z:	0.405	yaw:	168.279	yaw rate:	3.079	Roll:	-4.872	Pitch:	-3.217	Yaw:	237.040	Thrust:	28.116
Time:	4.184	Roll Set Point:	-0.017	Pitch Set Point:	0.032	Yaw Set Point:	-2.937	X_WP:	0.000	Y_WP:	0.000	Y_WP:	0.500	X:	0.163	Y:	0.066	Z:	0.404	yaw:	168.289	yaw rate:	1.020	Roll:	-4.837	Pitch:	-3.360	Yaw:	236.706	Thrust:	28.594
Time:	4.199	Roll Set Point:	-0.017	Pitch Set Point:	0.032	Yaw Set Point:	-2.937	X_WP:	0.000	Y_WP:	0.000	Y_WP:	0.500	X:	0.163	Y:	0.066	Z:	0.405	yaw:	168.272	yaw rate:	-1.711	Roll:	-4.782	Pitch:	-3.368	Yaw:	236.231	Thrust:	28.345
Time:	4.215	Roll Set Point:	-0.017	Pitch Set Point:	0.032	Yaw Set Point:	-2.937	X_WP:	0.000	Y_WP:	0.000	Y_WP:	0.500	X:	0.163	Y:	0.066	Z:	0.405	yaw:	168.272	yaw rate:	-1.711	Roll:	-4.811	Pitch:	-3.337	Yaw:	236.511	Thrust:	28.670
Time:	4.230	Roll Set Point:	-0.017	Pitch Set Point:	0.032	Yaw Set Point:	-2.937	X_WP:	0.000	Y_WP:	0.000	Y_WP:	0.500	X:	0.163	Y:	0.066	Z:	0.404	yaw:	168.286	yaw rate:	2.494	Roll:	-4.828	Pitch:	-3.297	Yaw:	236.767	Thrust:	29.051
Time:	4.246	Roll Set Point:	-0.017	Pitch Set Point:	0.032	Yaw Set Point:	-2.937	X_WP:	0.000	Y_WP:	0.000	Y_WP:	0.500	X:	0.163	Y:	0.066	Z:	0.404	yaw:	168.269	yaw rate:	-1.661	Roll:	-4.791	Pitch:	-3.362	Yaw:	236.234	Thrust:	28.957
Time:	4.262	Roll Set Point:	-0.017	Pitch Set Point:	0.032	Yaw Set Point:	-2.937	X_WP:	0.000	Y_WP:	0.000	Y_WP:	0.500	X:	0.163	Y:	0.066	Z:	0.404	yaw:	168.258	yaw rate:	-1.141	Roll:	-4.789	Pitch:	-3.426	Yaw:	236.302	Thrust:	29.321
Time:	4.277	Roll Set Point:	-0.017	Pitch Set Point:	0.032	Yaw Set Point:	-2.937	X_WP:	0.000	Y_WP:	0.000	Y_WP:	0.500	X:	0.163	Y:	0.066	Z:	0.404	yaw:	168.258	yaw rate:	-1.141	Roll:	-4.811	Pitch:	-3.355	Yaw:	236.495	Thrust:	29.437
Time:	4.293	Roll Set Point:	-0.017	Pitch Set Point:	0.032	Yaw Set Point:	-2.937	X_WP:	0.000	Y_WP:	0.000	Y_WP:	0.500	X:	0.163	Y:	0.066	Z:	0.404	yaw:	168.269	yaw rate:	1.172	Roll:	-4.811	Pitch:	-3.352	Yaw:	236.707	Thrust:	29.599
Time:	4.309	Roll Set Point:	-0.017	Pitch Set Point:	0.032	Yaw Set Point:	-2.937	X_WP:	0.000	Y_WP:	0.000	Y_WP:	0.500	X:	0.163	Y:	0.066	Z:	0.404	yaw:	168.269	yaw rate:	1.172	Roll:	-4.811	Pitch:	-3.363	Yaw:	236.511	Thrust:	29.796
Time:	4.324	Roll Set Point:	-0.017	Pitch Set Point:	0.032	Yaw Set Point:	-2.937	X_WP:	0.000	Y_WP:	0.000	Y_WP:	0.500	X:	0.163	Y:	0.066	Z:	0.404	yaw:	168.276	yaw rate:	0.663	Roll:	-4.856	Pitch:	-3.315	Yaw:	236.631	Thrust:	30.059
Time:	4.340	Roll Set Point:	-0.017	Pitch Set Point:	0.032	Yaw Set Point:	-2.937	X_WP:	0.000	Y_WP:	0.000	Y_WP:	0.500	X:	0.163	Y:	0.066	Z:	0.404	yaw:	168.276	yaw rate:	0.663	Roll:	-4.812	Pitch:	-3.369	Yaw:	236.520	Thrust:	30.155
Time:	4.355	Roll Set Point:	-0.017	Pitch Set Point:	0.032	Yaw Set Point:	-2.937	X_WP:	0.000	Y_WP:	0.000	Y_WP:	0.500	X:	0.163	Y:	0.066	Z:	0.404	yaw:	168.275	yaw rate:	1.768	Roll:	-4.781	Pitch:	-3.353	Yaw:	236.501	Thrust:	30.256
Time:	4.371	Roll Set Point:	-0.017	Pitch Set Point:	0.032	Yaw Set Point:	-2.937	X_WP:	0.000	Y_WP:	0.000	Y_WP:	0.500	X:	0.163	Y:	0.066	Z:	0.404	yaw:	168.294	yaw rate:	1.915	Roll:	-4.868	Pitch:	-3.340	Yaw:	236.866	Thrust:	30.552
Time:	4.387	Roll Set Point:	-0.017	Pitch Set Point:	0.032	Yaw Set Point:	-2.937	X_WP:	0.000	Y_WP:	0.000	Y_WP:	0.500	X:	0.163	Y:	0.066	Z:	0.404	yaw:	168.250	yaw rate:	-4.389	Roll:	-4.737	Pitch:	-3.491	Yaw:	235.749	Thrust:	30.592
Time:	4.402	Roll Set Point:	-0.017	Pitch Set Point:	0.032	Yaw Set Point:	-2.937	X_WP:	0.000	Y_WP:	0.000	Y_WP:	0.500	X:	0.163	Y:	0.066	Z:	0.404	yaw:	168.250	yaw rate:	-4.389	Roll:	-4.811	Pitch:	-3.386	Yaw:	236.484	Thrust:	30.869
Time:	4.418	Roll Set Point:	-0.017	Pitch Set Point:	0.032	Yaw Set Point:	-2.937	X_WP:	0.000	Y_WP:	0.000	Y_WP:	0.500	X:	0.163	Y:	0.066	Z:	0.404	yaw:	168.273	yaw rate:	-0.906	Roll:	-4.851	Pitch:	-3.387	Yaw:	236.899	Thrust:	31.149
Time:	4.434	Roll Set Point:	-0.017	Pitch Set Point:	0.032	Yaw Set Point:	-2.937	X_WP:	0.000	Y_WP:	0.000	Y_WP:	0.500	X:	0.163	Y:	0.066	Z:	0.405	yaw:	168.284	yaw rate:	1.105	Roll:	-4.826	Pitch:	-3.251	Yaw:	236.717	Thrust:	31.051
Time:	4.449	Roll Set Point:	-0.017	Pitch Set Point:	0.032	Yaw Set Point:	-2.937	X_WP:	0.000	Y_WP:	0.000	Y_WP:	0.500	X:	0.163	Y:	0.066	Z:	0.405	yaw:	168.284	yaw rate:	1.105	Roll:	-4.812	Pitch:	-3.393	Yaw:	236.532	Thrust:	31.405
Time:	4.465	Roll Set Point:	-0.017	Pitch Set Point:	0.032	Yaw Set Point:	-2.937	X_WP:	0.000	Y_WP:	0.000	Y_WP:	0.500	X:	0.163	Y:	0.066	Z:	0.405	yaw:	168.262	yaw rate:	-3.013	Roll:	-4.751	Pitch:	-3.502	Yaw:	236.136	Thrust:	31.601
Time:	4.480	Roll Set Point:	-0.017	Pitch Set Point:	0.032	Yaw Set Point:	-2.937	X_WP:	0.000	Y_WP:	0.000	Y_WP:	0.500	X:	0.163	Y:	0.066	Z:	0.405	yaw:	168.262	yaw rate:	-3.013	Roll:	-4.811	Pitch:	-3.404	Yaw:	236.501	Thrust:	31.765
Time:	4.496	Roll Set Point:	-0.017	Pitch Set Point:	0.032	Yaw Set Point:	-2.937	X_WP:	0.000	Y_WP:	0.000	Y_WP:	0.500	X:	0.163	Y:	0.066	Z:	0.404	yaw:	168.272	yaw rate:	0.923	Roll:	-4.844	Pitch:	-3.407	Yaw:	236.669	Thrust:	32.067
Time:	4.512	Roll Set Point:	-0.017	Pitch Set Point:	0.032	Yaw Set Point:	-2.937	X_WP:	0.000	Y_WP:	0.000	Y_WP:	0.500	X:	0.163	Y:	0.066	Z:	0.404	yaw:	168.279	yaw rate:	0.728	Roll:	-4.827	Pitch:	-3.363	Yaw:	236.646	Thrust:	32.104
Time:	4.527	Roll Set Point:	-0.017	Pitch Set Point:	0.032	Yaw Set Point:	-2.937	X_WP:	0.000	Y_WP:	0.000	Y_WP:	0.500	X:	0.163	Y:	0.066	Z:	0.405	yaw:	168.258	yaw rate:	-0.099	Roll:	-4.771	Pitch:	-3.488	Yaw:	236.137	Thrust:	32.186
Time:	4.543	Roll Set Point:	-0.017	Pitch Set Point:	0.032	Yaw Set Point:	-2.937	X_WP:	0.000	Y_WP:	0.000	Y_WP:	0.500	X:	0.163	Y:	0.066	Z:	0.405	yaw:	168.258	yaw rate:	-0.099	Roll:	-4.811	Pitch:	-3.420	Yaw:	236.495	Thrust:	32.484
Time:	4.559	Roll Set Point:	-0.017	Pitch Set Point:	0.032	Yaw Set Point:	-2.937	X_WP:	0.000	Y_WP:	0.000	Y_WP:	0.500	X:	0.163	Y:	0.066	Z:	0.404	yaw:	168.274	yaw rate:	1.690	Roll:	-4.840	Pitch:	-3.401	Yaw:	236.802	Thrust:	32.780
Time:	4.574	Roll Set Point:	-0.017	Pitch Set Point:	0.032	Yaw Set Point:	-2.937	X_WP:	0.000	Y_WP:	0.000	Y_WP:	0.500	X:	0.163	Y:	0.066	Z:	0.404	yaw:	168.269	yaw rate:	-0.984	Roll:	-4.808	Pitch:	-3.411	Yaw:	236.416	Thrust:	32.863
Time:	4.590	Roll Set Point:	-0.017	Pitch Set Point:	0.032	Yaw Set Point:	-2.937	X_WP:	0.000	Y_WP:	0.000	Y_WP:	0.500	X:	0.163	Y:	0.066	Z:	0.404	yaw:	168.270	yaw rate:	0.123	Roll:	-4.804	Pitch:	-3.454	Yaw:	236.531	Thrust:	33.038
Time:	4.605	Roll Set Point:	-0.017	Pitch Set Point:	0.032	Yaw Set Point:	-2.937	X_WP:	0.000	Y_WP:	0.000	Y_WP:	0.500	X:	0.163	Y:	0.066	Z:	0.405	yaw:	168.284	yaw rate:	1.410	Roll:	-4.858	Pitch:	-3.392	Yaw:	236.767	Thrust:	33.058
Time:	4.621	Roll Set Point:	-0.017	Pitch Set Point:	0.032	Yaw Set Point:	-2.937	X_WP:	0.000	Y_WP:	0.000	Y_WP:	0.500	X:	0.163	Y:	0.066	Z:	0.404	yaw:	168.257	yaw rate:	-2.732	Roll:	-4.751	Pitch:	-3.465	Yaw:	236.036	Thrust:	33.469
Time:	4.637	Roll Set Point:	-0.017	Pitch Set Point:	0.032	Yaw Set Point:	-2.937	X_WP:	0.000	Y_WP:	0.000	Y_WP:	0.500	X:	0.163	Y:	0.066	Z:	0.404	yaw:	168.257	yaw rate:	-2.732	Roll:	-4.811	Pitch:	-3.425	Yaw:	236.493	Thrust:	33.556
Time:	4.651	Roll Set Point:	-0.017	Pitch Set Point:	0.032	Yaw Set Point:	-2.937	X_WP:	0.000	Y_WP:	0.000	Y_WP:	0.500	X:	0.163	Y:	0.066	Z:	0.404	yaw:	168.275	yaw rate:	2.570	Roll:	-4.808	Pitch:	-3.316	Yaw:	236.737	Thrust:	31.662
Time:	4.668	Roll Set Point:	-0.017	Pitch Set Point:	0.032	Yaw Set Point:	-2.937	X_WP:	0.000	Y_WP:	0.000	Y_WP:	0.500	X:	0.163	Y:	0.066	Z:	0.404	yaw:	168.275	yaw rate:	2.570	Roll:	-4.852	Pitch:	-3.463	Yaw:	236.627	Thrust:	35.885
Time:	4.683	Roll Set Point:	-0.017	Pitch Set Point:	0.032	Yaw Set Point:	-2.936	X_WP:	0.000	Y_WP:	0.000	Y_WP:	0.500	X:	0.163	Y:	0.066	Z:	0.405	yaw:	168.247	yaw rate:	-2.831	Roll:	-4.734	Pitch:	-3.520	Yaw:	236.004	Thrust:	33.884
Time:	4.699	Roll Set Point:	-0.017	Pitch Set Point:	0.032	Yaw Set Point:	-2.938	X_WP:	0.000	Y_WP:	0.000	Y_WP:	0.500	X:	0.163	Y:	0.066	Z:	0.405	yaw:	168.308	yaw rate:	3.914	Roll:	-4.952	Pitch:	-3.226	Yaw:	237.583	Thrust:	34.291
Time:	4.715	Roll Set Point:	-0.017	Pitch Set Point:	0.032	Yaw Set Point:	-2.937	X_WP:	0.000	Y_WP:	0.000	Y_WP:	0.500	X:	0.163	Y:	0.066	Z:	0.404	yaw:	168.259	yaw rate:	-4.919	Roll:	-4.711	Pitch:	-3.573	Yaw:	235.672	Thrust:	34.532
Time:	4.730	Roll Set Point:	-0.017	Pitch Set Point:	0.032	Yaw Set Point:	-2.936	X_WP:	0.000	Y_WP:	0.000	Y_WP:	0.500	X:	0.163	Y:	0.066	Z:	0.404	yaw:	168.243	yaw rate:	-1.566	Roll:	-4.771	Pitch:	-3.492	Yaw:	236.212	Thrust:	34.628
Time:	4.746	Roll Set Point:	-0.017	Pitch Set Point:	0.032	Yaw Set Point:	-2.937	X_WP:	0.000	Y_WP:	0.000	Y_WP:	0.500	X:	0.163	Y:	0.066	Z:	0.405	yaw:	168.263	yaw rate:	2.007	Roll:	-4.831	Pitch:	-3.313	Yaw:	236.839	Thrust:	34.738
Time:	4.762	Roll Set Point:	-0.017	Pitch Set Point:	0.032	Yaw Set Point:	-2.937	X_WP:	0.000	Y_WP:	0.000	Y_WP:	0.500	X:	0.163	Y:	0.066	Z:	0.404	yaw:	168.259	yaw rate:	-0.385	Roll:	-4.829	Pitch:	-3.470	Yaw:	236.432	Thrust:	35.069
Time:	4.777	Roll Set Point:	-0.017	Pitch Set Point:	0.032	Yaw Set Point:	-2.937	X_WP:	0.000	Y_WP:	0.000	Y_WP:	0.500	X:	0.163	Y:	0.066	Z:	0.404	yaw:	168.259	yaw rate:	-0.385	Roll:	-4.811	Pitch:	-3.425	Yaw:	236.497	Thrust:	35.170
Time:	4.793	Roll Set Point:	-0.017	Pitch Set Point:	0.032	Yaw Set Point:	-2.937	X_WP:	0.000	Y_WP:	0.000	Y_WP:	0.500	X:	0.163	Y:	0.066	Z:	0.404	yaw:	168.251	yaw rate:	-0.331	Roll:	-4.793	Pitch:	-3.483	Yaw:	236.341	Thrust:	35.317
Time:	4.808	Roll Set Point:	-0.017	Pitch Set Point:	0.032	Yaw Set Point:	-2.937	X_WP:	0.000	Y_WP:	0.000	Y_WP:	0.500	X:	0.163	Y:	0.066	Z:	0.404	yaw:	168.267	yaw rate:	1.688	Roll:	-4.856	Pitch:	-3.352	Yaw:	236.791	Thrust:	35.493
Time:	4.824	Roll Set Point:	-0.017	Pitch Set Point:	0.032	Yaw Set Point:	-2.937	X_WP:	0.000	Y_WP:	0.000	Y_WP:	0.500	X:	0.163	Y:	0.066	Z:	0.404	yaw:	168.269	yaw rate:	0.188	Roll:	-4.796	Pitch:	-3.406	Yaw:	236.543	Thrust:	35.808
Time:	4.840	Roll Set Point:	-0.017	Pitch Set Point:	0.032	Yaw Set Point:	-2.936	X_WP:	0.000	Y_WP:	0.000	Y_WP:	0.500	X:	0.163	Y:	0.066	Z:	0.405	yaw:	168.230	yaw rate:	-3.905	Roll:	-4.761	Pitch:	-3.520	Yaw:	235.807	Thrust:	35.814
Time:	4.855	Roll Set Point:	-0.017	Pitch Set Point:	0.032	Yaw Set Point:	-2.936	X_WP:	0.000	Y_WP:	0.000	Y_WP:	0.500	X:	0.163	Y:	0.066	Z:	0.404	yaw:	168.245	yaw rate:	1.494	Roll:	-4.816	Pitch:	-3.448	Yaw:	236.727	Thrust:	36.241
Time:	4.871	Roll Set Point:	-0.017	Pitch Set Point:	0.032	Yaw Set Point:	-2.936	X_WP:	0.000	Y_WP:	0.000	Y_WP:	0.500	X:	0.163	Y:	0.066	Z:	0.404	yaw:	168.245	yaw rate:	1.494	Roll:	-4.810	Pitch:	-3.427	Yaw:	236.478	Thrust:	36.256
Time:	4.887	Roll Set Point:	-0.017	Pitch Set Point:	0.032	Yaw Set Point:	-2.937	X_WP:	0.000	Y_WP:	0.000	Y_WP:	0.500	X:	0.163	Y:	0.066	Z:	0.404	yaw:	168.283	yaw rate:	2.461	Roll:	-4.889	Pitch:	-3.289	Yaw:	237.161	Thrust:	36.381
Time:	4.902	Roll Set Point:	-0.017	Pitch Set Point:	0.032	Yaw Set Point:	-2.937	X_WP:	0.000	Y_WP:	0.000	Y_WP:	0.500	X:	0.163	Y:	0.066	Z:	0.404	yaw:	168.283	yaw rate:	2.461	Roll:	-4.814	Pitch:	-3.424	Yaw:	236.533	Thrust:	36.672
Time:	4.918	Roll Set Point:	-0.017	Pitch Set Point:	0.032	Yaw Set Point:	-2.936	X_WP:	0.000	Y_WP:	0.000	Y_WP:	0.500	X:	0.163	Y:	0.066	Z:	0.404	yaw:	168.241	yaw rate:	-4.171	Roll:	-4.736	Pitch:	-3.537	Yaw:	235.764	Thrust:	36.596
Time:	4.933	Roll Set Point:	-0.017	Pitch Set Point:	0.032	Yaw Set Point:	-2.936	X_WP:	0.000	Y_WP:	0.000	Y_WP:	0.500	X:	0.163	Y:	0.066	Z:	0.404	yaw:	168.241	yaw rate:	-4.171	Roll:	-4.812	Pitch:	-3.427	Yaw:	236.475	Thrust:	37.026
Time:	4.949	Roll Set Point:	-0.017	Pitch Set Point:	0.032	Yaw Set Point:	-2.937	X_WP:	0.000	Y_WP:	0.000	Y_WP:	0.500	X:	0.163	Y:	0.066	Z:	0.404	yaw:	168.276	yaw rate:	3.429	Roll:	-4.867	Pitch:	-3.329	Yaw:	237.094	Thrust:	37.068
Time:	4.965	Roll Set Point:	-0.017	Pitch Set Point:	0.032	Yaw Set Point:	-2.937	X_WP:	0.000	Y_WP:	0.000	Y_WP:	0.500	X:	0.163	Y:	0.066	Z:	0.404	yaw:	168.276	yaw rate:	3.429	Roll:	-4.811	Pitch:	-3.423	Yaw:	236.517	Thrust:	37.266
