Time:	2.036	Roll Set Point:	0.044	Pitch Set Point:	-0.105	Yaw Set Point:	-0.708	X_WP:	0.100	Y_WP:	0.000	Y_WP:	0.500	X:	0.009	Y:	0.026	Z:	0.075	yaw:	40.556	yaw rate:	-0.813	Roll:	-1.519	Pitch:	2.297	Yaw:	56.627	Thrust:	23.350
Time:	2.049	Roll Set Point:	0.044	Pitch Set Point:	-0.105	Yaw Set Point:	-0.708	X_WP:	0.100	Y_WP:	0.000	Y_WP:	0.500	X:	0.009	Y:	0.026	Z:	0.075	yaw:	40.554	yaw rate:	-0.212	Roll:	-1.534	Pitch:	2.309	Yaw:	56.748	Thrust:	23.950
Time:	2.060	Roll Set Point:	0.044	Pitch Set Point:	-0.105	Yaw Set Point:	-0.708	X_WP:	0.100	Y_WP:	0.000	Y_WP:	0.500	X:	0.009	Y:	0.026	Z:	0.075	yaw:	40.547	yaw rate:	-0.695	Roll:	-1.521	Pitch:	2.273	Yaw:	56.804	Thrust:	24.584
Time:	2.071	Roll Set Point:	0.044	Pitch Set Point:	-0.105	Yaw Set Point:	-0.708	X_WP:	0.100	Y_WP:	0.000	Y_WP:	0.500	X:	0.009	Y:	0.026	Z:	0.075	yaw:	40.562	yaw rate:	1.463	Roll:	-1.498	Pitch:	2.344	Yaw:	57.451	Thrust:	25.081
Time:	2.088	Roll Set Point:	0.044	Pitch Set Point:	-0.105	Yaw Set Point:	-0.708	X_WP:	0.100	Y_WP:	0.000	Y_WP:	0.500	X:	0.009	Y:	0.026	Z:	0.075	yaw:	40.563	yaw rate:	0.129	Roll:	-1.532	Pitch:	2.311	Yaw:	57.595	Thrust:	26.677
Time:	2.100	Roll Set Point:	0.044	Pitch Set Point:	-0.105	Yaw Set Point:	-0.708	X_WP:	0.100	Y_WP:	0.000	Y_WP:	0.500	X:	0.009	Y:	0.026	Z:	0.075	yaw:	40.550	yaw rate:	-0.508	Roll:	-1.548	Pitch:	2.298	Yaw:	57.194	Thrust:	26.502
Time:	2.110	Roll Set Point:	0.044	Pitch Set Point:	-0.105	Yaw Set Point:	-0.708	X_WP:	0.100	Y_WP:	0.000	Y_WP:	0.500	X:	0.009	Y:	0.026	Z:	0.075	yaw:	40.550	yaw rate:	-0.508	Roll:	-1.527	Pitch:	2.309	Yaw:	57.470	Thrust:	26.415
Time:	2.123	Roll Set Point:	0.044	Pitch Set Point:	-0.105	Yaw Set Point:	-0.708	X_WP:	0.100	Y_WP:	0.000	Y_WP:	0.500	X:	0.009	Y:	0.026	Z:	0.075	yaw:	40.569	yaw rate:	1.907	Roll:	-1.487	Pitch:	2.324	Yaw:	58.323	Thrust:	28.056
Time:	2.134	Roll Set Point:	0.044	Pitch Set Point:	-0.105	Yaw Set Point:	-0.708	X_WP:	0.100	Y_WP:	0.000	Y_WP:	0.500	X:	0.009	Y:	0.026	Z:	0.075	yaw:	40.569	yaw rate:	1.579	Roll:	-1.540	Pitch:	2.331	Yaw:	57.771	Thrust:	27.839
Time:	2.145	Roll Set Point:	0.044	Pitch Set Point:	-0.105	Yaw Set Point:	-0.708	X_WP:	0.100	Y_WP:	0.000	Y_WP:	0.500	X:	0.009	Y:	0.026	Z:	0.075	yaw:	40.577	yaw rate:	0.730	Roll:	-1.503	Pitch:	2.317	Yaw:	57.891	Thrust:	28.232
Time:	2.157	Roll Set Point:	0.044	Pitch Set Point:	-0.105	Yaw Set Point:	-0.708	X_WP:	0.100	Y_WP:	0.000	Y_WP:	0.500	X:	0.009	Y:	0.026	Z:	0.075	yaw:	40.548	yaw rate:	-2.893	Roll:	-1.584	Pitch:	2.286	Yaw:	57.189	Thrust:	29.433
Time:	2.168	Roll Set Point:	0.044	Pitch Set Point:	-0.105	Yaw Set Point:	-0.708	X_WP:	0.100	Y_WP:	0.000	Y_WP:	0.500	X:	0.009	Y:	0.026	Z:	0.075	yaw:	40.538	yaw rate:	-1.007	Roll:	-1.583	Pitch:	2.314	Yaw:	57.466	Thrust:	29.494
Time:	2.178	Roll Set Point:	0.044	Pitch Set Point:	-0.105	Yaw Set Point:	-0.708	X_WP:	0.100	Y_WP:	0.000	Y_WP:	0.500	X:	0.009	Y:	0.026	Z:	0.075	yaw:	40.553	yaw rate:	1.542	Roll:	-1.475	Pitch:	2.349	Yaw:	58.029	Thrust:	29.488
Time:	2.192	Roll Set Point:	0.044	Pitch Set Point:	-0.105	Yaw Set Point:	-0.708	X_WP:	0.100	Y_WP:	0.000	Y_WP:	0.500	X:	0.009	Y:	0.026	Z:	0.075	yaw:	40.557	yaw rate:	0.412	Roll:	-1.534	Pitch:	2.328	Yaw:	58.158	Thrust:	32.749
Time:	2.202	Roll Set Point:	0.044	Pitch Set Point:	-0.105	Yaw Set Point:	-0.708	X_WP:	0.100	Y_WP:	0.000	Y_WP:	0.500	X:	0.009	Y:	0.026	Z:	0.075	yaw:	40.569	yaw rate:	1.139	Roll:	-1.519	Pitch:	2.332	Yaw:	57.945	Thrust:	30.870
Time:	2.220	Roll Set Point:	0.044	Pitch Set Point:	-0.105	Yaw Set Point:	-0.708	X_WP:	0.100	Y_WP:	0.000	Y_WP:	0.500	X:	0.009	Y:	0.026	Z:	0.075	yaw:	40.561	yaw rate:	-0.796	Roll:	-1.552	Pitch:	2.340	Yaw:	58.058	Thrust:	34.756
Time:	2.232	Roll Set Point:	0.044	Pitch Set Point:	-0.105	Yaw Set Point:	-0.708	X_WP:	0.100	Y_WP:	0.000	Y_WP:	0.500	X:	0.009	Y:	0.026	Z:	0.075	yaw:	40.575	yaw rate:	1.907	Roll:	-1.550	Pitch:	2.358	Yaw:	58.355	Thrust:	35.671
Time:	2.244	Roll Set Point:	0.044	Pitch Set Point:	-0.105	Yaw Set Point:	-0.708	X_WP:	0.100	Y_WP:	0.000	Y_WP:	0.500	X:	0.009	Y:	0.026	Z:	0.075	yaw:	40.545	yaw rate:	-2.949	Roll:	-1.564	Pitch:	2.322	Yaw:	57.096	Thrust:	33.361
Time:	2.257	Roll Set Point:	0.044	Pitch Set Point:	-0.105	Yaw Set Point:	-0.708	X_WP:	0.100	Y_WP:	0.000	Y_WP:	0.500	X:	0.009	Y:	0.026	Z:	0.075	yaw:	40.561	yaw rate:	1.593	Roll:	-1.553	Pitch:	2.357	Yaw:	58.296	Thrust:	35.727
Time:	2.268	Roll Set Point:	0.044	Pitch Set Point:	-0.105	Yaw Set Point:	-0.708	X_WP:	0.100	Y_WP:	0.000	Y_WP:	0.500	X:	0.009	Y:	0.026	Z:	0.075	yaw:	40.568	yaw rate:	0.720	Roll:	-1.548	Pitch:	2.322	Yaw:	57.877	Thrust:	33.517
Time:	2.283	Roll Set Point:	0.044	Pitch Set Point:	-0.105	Yaw Set Point:	-0.708	X_WP:	0.100	Y_WP:	0.000	Y_WP:	0.500	X:	0.009	Y:	0.026	Z:	0.075	yaw:	40.578	yaw rate:	1.025	Roll:	-1.498	Pitch:	2.370	Yaw:	58.345	Thrust:	37.785
Time:	2.297	Roll Set Point:	0.044	Pitch Set Point:	-0.105	Yaw Set Point:	-0.708	X_WP:	0.100	Y_WP:	0.000	Y_WP:	0.500	X:	0.009	Y:	0.026	Z:	0.075	yaw:	40.570	yaw rate:	-0.885	Roll:	-1.586	Pitch:	2.360	Yaw:	57.883	Thrust:	39.370
Time:	2.307	Roll Set Point:	0.044	Pitch Set Point:	-0.105	Yaw Set Point:	-0.708	X_WP:	0.100	Y_WP:	0.000	Y_WP:	0.500	X:	0.009	Y:	0.026	Z:	0.075	yaw:	40.559	yaw rate:	-1.020	Roll:	-1.584	Pitch:	2.329	Yaw:	57.368	Thrust:	34.557
Time:	2.322	Roll Set Point:	0.044	Pitch Set Point:	-0.105	Yaw Set Point:	-0.708	X_WP:	0.100	Y_WP:	0.000	Y_WP:	0.500	X:	0.009	Y:	0.026	Z:	0.075	yaw:	40.569	yaw rate:	0.943	Roll:	-1.527	Pitch:	2.374	Yaw:	58.271	Thrust:	40.428
Time:	2.333	Roll Set Point:	0.044	Pitch Set Point:	-0.105	Yaw Set Point:	-0.708	X_WP:	0.100	Y_WP:	0.000	Y_WP:	0.500	X:	0.009	Y:	0.026	Z:	0.075	yaw:	40.560	yaw rate:	-0.360	Roll:	-1.561	Pitch:	2.337	Yaw:	57.566	Thrust:	37.317
Time:	2.346	Roll Set Point:	0.044	Pitch Set Point:	-0.105	Yaw Set Point:	-0.708	X_WP:	0.100	Y_WP:	0.000	Y_WP:	0.500	X:	0.009	Y:	0.026	Z:	0.075	yaw:	40.564	yaw rate:	0.369	Roll:	-1.567	Pitch:	2.359	Yaw:	57.969	Thrust:	39.318
Time:	2.362	Roll Set Point:	0.044	Pitch Set Point:	-0.105	Yaw Set Point:	-0.708	X_WP:	0.100	Y_WP:	0.000	Y_WP:	0.500	X:	0.009	Y:	0.026	Z:	0.075	yaw:	40.562	yaw rate:	-0.163	Roll:	-1.580	Pitch:	2.379	Yaw:	58.213	Thrust:	44.512
Time:	2.372	Roll Set Point:	0.044	Pitch Set Point:	-0.105	Yaw Set Point:	-0.708	X_WP:	0.100	Y_WP:	0.000	Y_WP:	0.500	X:	0.009	Y:	0.026	Z:	0.075	yaw:	40.556	yaw rate:	-0.576	Roll:	-1.556	Pitch:	2.371	Yaw:	57.539	Thrust:	37.875
Time:	2.386	Roll Set Point:	0.044	Pitch Set Point:	-0.105	Yaw Set Point:	-0.708	X_WP:	0.100	Y_WP:	0.000	Y_WP:	0.500	X:	0.009	Y:	0.026	Z:	0.075	yaw:	40.574	yaw rate:	1.746	Roll:	-1.520	Pitch:	2.371	Yaw:	58.307	Thrust:	42.009
Time:	2.402	Roll Set Point:	0.044	Pitch Set Point:	-0.105	Yaw Set Point:	-0.708	X_WP:	0.100	Y_WP:	0.000	Y_WP:	0.500	X:	0.009	Y:	0.026	Z:	0.075	yaw:	40.566	yaw rate:	0.708	Roll:	-1.624	Pitch:	2.385	Yaw:	58.175	Thrust:	47.803
Time:	2.417	Roll Set Point:	0.044	Pitch Set Point:	-0.105	Yaw Set Point:	-0.708	X_WP:	0.100	Y_WP:	0.000	Y_WP:	0.500	X:	0.009	Y:	0.026	Z:	0.075	yaw:	40.556	yaw rate:	-1.063	Roll:	-1.554	Pitch:	2.366	Yaw:	57.952	Thrust:	46.458
Time:	2.432	Roll Set Point:	0.044	Pitch Set Point:	-0.105	Yaw Set Point:	-0.708	X_WP:	0.100	Y_WP:	0.000	Y_WP:	0.500	X:	0.009	Y:	0.026	Z:	0.075	yaw:	40.555	yaw rate:	-0.043	Roll:	-1.586	Pitch:	2.398	Yaw:	58.024	Thrust:	45.563
Time:	2.442	Roll Set Point:	0.044	Pitch Set Point:	-0.105	Yaw Set Point:	-0.708	X_WP:	0.100	Y_WP:	0.000	Y_WP:	0.500	X:	0.009	Y:	0.026	Z:	0.075	yaw:	40.559	yaw rate:	0.351	Roll:	-1.578	Pitch:	2.369	Yaw:	57.864	Thrust:	41.325
Time:	2.463	Roll Set Point:	0.044	Pitch Set Point:	-0.105	Yaw Set Point:	-0.708	X_WP:	0.100	Y_WP:	0.000	Y_WP:	0.500	X:	0.009	Y:	0.026	Z:	0.075	yaw:	40.570	yaw rate:	1.500	Roll:	-1.568	Pitch:	2.428	Yaw:	58.756	Thrust:	55.441
Time:	2.476	Roll Set Point:	0.044	Pitch Set Point:	-0.105	Yaw Set Point:	-0.708	X_WP:	0.100	Y_WP:	0.000	Y_WP:	0.500	X:	0.009	Y:	0.026	Z:	0.075	yaw:	40.577	yaw rate:	0.672	Roll:	-1.573	Pitch:	2.389	Yaw:	58.051	Thrust:	46.754
Time:	2.497	Roll Set Point:	0.044	Pitch Set Point:	-0.105	Yaw Set Point:	-0.708	X_WP:	0.100	Y_WP:	0.000	Y_WP:	0.500	X:	0.009	Y:	0.026	Z:	0.075	yaw:	40.561	yaw rate:	-1.602	Roll:	-1.630	Pitch:	2.432	Yaw:	58.596	Thrust:	60.883
Time:	2.509	Roll Set Point:	0.044	Pitch Set Point:	-0.105	Yaw Set Point:	-0.708	X_WP:	0.100	Y_WP:	0.000	Y_WP:	0.500	X:	0.009	Y:	0.026	Z:	0.075	yaw:	40.551	yaw rate:	-1.727	Roll:	-1.590	Pitch:	2.362	Yaw:	57.559	Thrust:	45.464
Time:	2.526	Roll Set Point:	0.044	Pitch Set Point:	-0.105	Yaw Set Point:	-0.708	X_WP:	0.100	Y_WP:	0.000	Y_WP:	0.500	X:	0.009	Y:	0.026	Z:	0.075	yaw:	40.553	yaw rate:	-1.326	Roll:	-1.613	Pitch:	2.444	Yaw:	58.500	Thrust:	58.349
Time:	2.539	Roll Set Point:	0.044	Pitch Set Point:	-0.105	Yaw Set Point:	-0.708	X_WP:	0.100	Y_WP:	0.000	Y_WP:	0.500	X:	0.009	Y:	0.026	Z:	0.075	yaw:	40.553	yaw rate:	-0.009	Roll:	-1.587	Pitch:	2.400	Yaw:	57.917	Thrust:	48.437
Time:	2.558	Roll Set Point:	0.044	Pitch Set Point:	-0.105	Yaw Set Point:	-0.708	X_WP:	0.100	Y_WP:	0.000	Y_WP:	0.500	X:	0.009	Y:	0.026	Z:	0.075	yaw:	40.562	yaw rate:	0.926	Roll:	-1.566	Pitch:	2.421	Yaw:	58.621	Thrust:	58.239
Time:	2.570	Roll Set Point:	0.044	Pitch Set Point:	-0.105	Yaw Set Point:	-0.708	X_WP:	0.100	Y_WP:	0.000	Y_WP:	0.500	X:	0.009	Y:	0.026	Z:	0.075	yaw:	40.567	yaw rate:	-0.143	Roll:	-1.618	Pitch:	2.409	Yaw:	57.960	Thrust:	49.926
Time:	2.583	Roll Set Point:	0.044	Pitch Set Point:	-0.105	Yaw Set Point:	-0.708	X_WP:	0.100	Y_WP:	0.000	Y_WP:	0.500	X:	0.009	Y:	0.026	Z:	0.075	yaw:	40.563	yaw rate:	-0.362	Roll:	-1.569	Pitch:	2.404	Yaw:	57.870	Thrust:	49.626
Time:	2.599	Roll Set Point:	0.044	Pitch Set Point:	-0.105	Yaw Set Point:	-0.708	X_WP:	0.100	Y_WP:	0.000	Y_WP:	0.500	X:	0.009	Y:	0.026	Z:	0.075	yaw:	40.552	yaw rate:	-1.185	Roll:	-1.620	Pitch:	2.438	Yaw:	58.032	Thrust:	58.800
Time:	2.609	Roll Set Point:	0.044	Pitch Set Point:	-0.105	Yaw Set Point:	-0.708	X_WP:	0.100	Y_WP:	0.000	Y_WP:	0.500	X:	0.009	Y:	0.026	Z:	0.075	yaw:	40.568	yaw rate:	1.596	Roll:	-1.556	Pitch:	2.402	Yaw:	58.063	Thrust:	45.341
Time:	2.628	Roll Set Point:	0.044	Pitch Set Point:	-0.105	Yaw Set Point:	-0.708	X_WP:	0.100	Y_WP:	0.000	Y_WP:	0.500	X:	0.009	Y:	0.026	Z:	0.075	yaw:	40.564	yaw rate:	-0.395	Roll:	-1.629	Pitch:	2.436	Yaw:	58.441	Thrust:	62.630
Time:	2.639	Roll Set Point:	0.044	Pitch Set Point:	-0.105	Yaw Set Point:	-0.708	X_WP:	0.100	Y_WP:	0.000	Y_WP:	0.500	X:	0.009	Y:	0.026	Z:	0.075	yaw:	40.565	yaw rate:	1.122	Roll:	-1.581	Pitch:	2.411	Yaw:	57.776	Thrust:	51.157
Time:	2.654	Roll Set Point:	0.044	Pitch Set Point:	-0.105	Yaw Set Point:	-0.708	X_WP:	0.100	Y_WP:	0.000	Y_WP:	0.500	X:	0.009	Y:	0.026	Z:	0.075	yaw:	40.561	yaw rate:	-0.411	Roll:	-1.599	Pitch:	2.392	Yaw:	57.909	Thrust:	51.454
Time:	2.670	Roll Set Point:	0.044	Pitch Set Point:	-0.105	Yaw Set Point:	-0.708	X_WP:	0.100	Y_WP:	0.000	Y_WP:	0.500	X:	0.009	Y:	0.026	Z:	0.075	yaw:	40.562	yaw rate:	0.278	Roll:	-1.634	Pitch:	2.479	Yaw:	58.461	Thrust:	67.858
Time:	2.683	Roll Set Point:	0.044	Pitch Set Point:	-0.105	Yaw Set Point:	-0.708	X_WP:	0.100	Y_WP:	0.000	Y_WP:	0.500	X:	0.009	Y:	0.026	Z:	0.075	yaw:	40.549	yaw rate:	-1.317	Roll:	-1.595	Pitch:	2.412	Yaw:	57.538	Thrust:	55.362
Time:	2.694	Roll Set Point:	0.044	Pitch Set Point:	-0.105	Yaw Set Point:	-0.708	X_WP:	0.100	Y_WP:	0.000	Y_WP:	0.500	X:	0.009	Y:	0.026	Z:	0.075	yaw:	40.565	yaw rate:	1.552	Roll:	-1.592	Pitch:	2.422	Yaw:	58.144	Thrust:	50.840
Time:	2.705	Roll Set Point:	0.044	Pitch Set Point:	-0.105	Yaw Set Point:	-0.708	X_WP:	0.100	Y_WP:	0.000	Y_WP:	0.500	X:	0.009	Y:	0.026	Z:	0.075	yaw:	40.574	yaw rate:	0.919	Roll:	-1.578	Pitch:	2.440	Yaw:	57.973	Thrust:	52.704
Time:	2.720	Roll Set Point:	0.044	Pitch Set Point:	-0.105	Yaw Set Point:	-0.708	X_WP:	0.100	Y_WP:	0.000	Y_WP:	0.500	X:	0.009	Y:	0.026	Z:	0.075	yaw:	40.549	yaw rate:	-2.430	Roll:	-1.649	Pitch:	2.384	Yaw:	57.637	Thrust:	57.184
Time:	2.735	Roll Set Point:	0.044	Pitch Set Point:	-0.105	Yaw Set Point:	-0.708	X_WP:	0.100	Y_WP:	0.000	Y_WP:	0.500	X:	0.009	Y:	0.026	Z:	0.075	yaw:	40.548	yaw rate:	-0.804	Roll:	-1.646	Pitch:	2.484	Yaw:	58.201	Thrust:	69.968
Time:	2.747	Roll Set Point:	0.044	Pitch Set Point:	-0.105	Yaw Set Point:	-0.708	X_WP:	0.100	Y_WP:	0.000	Y_WP:	0.500	X:	0.009	Y:	0.026	Z:	0.075	yaw:	40.548	yaw rate:	-0.804	Roll:	-1.596	Pitch:	2.418	Yaw:	57.769	Thrust:	54.496
Time:	2.761	Roll Set Point:	0.044	Pitch Set Point:	-0.105	Yaw Set Point:	-0.708	X_WP:	0.100	Y_WP:	0.000	Y_WP:	0.500	X:	0.009	Y:	0.026	Z:	0.075	yaw:	40.561	yaw rate:	0.312	Roll:	-1.580	Pitch:	2.460	Yaw:	58.229	Thrust:	60.621
Time:	2.772	Roll Set Point:	0.044	Pitch Set Point:	-0.105	Yaw Set Point:	-0.708	X_WP:	0.100	Y_WP:	0.000	Y_WP:	0.500	X:	0.009	Y:	0.026	Z:	0.075	yaw:	40.553	yaw rate:	-0.791	Roll:	-1.608	Pitch:	2.406	Yaw:	57.538	Thrust:	54.286
Time:	2.789	Roll Set Point:	0.044	Pitch Set Point:	-0.105	Yaw Set Point:	-0.708	X_WP:	0.100	Y_WP:	0.000	Y_WP:	0.500	X:	0.009	Y:	0.026	Z:	0.075	yaw:	40.553	yaw rate:	0.025	Roll:	-1.621	Pitch:	2.463	Yaw:	58.382	Thrust:	71.944
Time:	2.803	Roll Set Point:	0.044	Pitch Set Point:	-0.105	Yaw Set Point:	-0.708	X_WP:	0.100	Y_WP:	0.000	Y_WP:	0.500	X:	0.009	Y:	0.026	Z:	0.075	yaw:	40.553	yaw rate:	-1.479	Roll:	-1.666	Pitch:	2.474	Yaw:	57.941	Thrust:	62.945
Time:	2.816	Roll Set Point:	0.044	Pitch Set Point:	-0.105	Yaw Set Point:	-0.708	X_WP:	0.100	Y_WP:	0.000	Y_WP:	0.500	X:	0.009	Y:	0.026	Z:	0.075	yaw:	40.556	yaw rate:	0.301	Roll:	-1.593	Pitch:	2.461	Yaw:	58.092	Thrust:	65.049
Time:	2.831	Roll Set Point:	0.044	Pitch Set Point:	-0.105	Yaw Set Point:	-0.708	X_WP:	0.100	Y_WP:	0.000	Y_WP:	0.500	X:	0.009	Y:	0.026	Z:	0.075	yaw:	40.574	yaw rate:	1.790	Roll:	-1.615	Pitch:	2.473	Yaw:	58.429	Thrust:	67.028
Time:	2.842	Roll Set Point:	0.044	Pitch Set Point:	-0.105	Yaw Set Point:	-0.708	X_WP:	0.100	Y_WP:	0.000	Y_WP:	0.500	X:	0.009	Y:	0.026	Z:	0.075	yaw:	40.556	yaw rate:	-1.860	Roll:	-1.659	Pitch:	2.434	Yaw:	57.288	Thrust:	57.000
Time:	2.855	Roll Set Point:	0.044	Pitch Set Point:	-0.105	Yaw Set Point:	-0.708	X_WP:	0.100	Y_WP:	0.000	Y_WP:	0.500	X:	0.009	Y:	0.026	Z:	0.075	yaw:	40.550	yaw rate:	-0.564	Roll:	-1.607	Pitch:	2.422	Yaw:	57.809	Thrust:	62.289
Time:	2.866	Roll Set Point:	0.044	Pitch Set Point:	-0.105	Yaw Set Point:	-0.708	X_WP:	0.100	Y_WP:	0.000	Y_WP:	0.500	X:	0.009	Y:	0.026	Z:	0.075	yaw:	40.550	yaw rate:	-0.025	Roll:	-1.617	Pitch:	2.443	Yaw:	57.717	Thrust:	59.966
Time:	2.877	Roll Set Point:	0.044	Pitch Set Point:	-0.105	Yaw Set Point:	-0.708	X_WP:	0.100	Y_WP:	0.000	Y_WP:	0.500	X:	0.009	Y:	0.026	Z:	0.075	yaw:	40.548	yaw rate:	-0.165	Roll:	-1.620	Pitch:	2.445	Yaw:	57.679	Thrust:	58.734
Time:	2.890	Roll Set Point:	0.044	Pitch Set Point:	-0.105	Yaw Set Point:	-0.708	X_WP:	0.100	Y_WP:	0.000	Y_WP:	0.500	X:	0.009	Y:	0.026	Z:	0.075	yaw:	40.554	yaw rate:	0.557	Roll:	-1.633	Pitch:	2.454	Yaw:	57.994	Thrust:	62.485
Time:	2.902	Roll Set Point:	0.044	Pitch Set Point:	-0.105	Yaw Set Point:	-0.708	X_WP:	0.100	Y_WP:	0.000	Y_WP:	0.500	X:	0.009	Y:	0.026	Z:	0.075	yaw:	40.555	yaw rate:	-0.149	Roll:	-1.589	Pitch:	2.441	Yaw:	57.870	Thrust:	65.038
Time:	2.914	Roll Set Point:	0.044	Pitch Set Point:	-0.105	Yaw Set Point:	-0.708	X_WP:	0.100	Y_WP:	0.000	Y_WP:	0.500	X:	0.009	Y:	0.026	Z:	0.075	yaw:	40.555	yaw rate:	-0.149	Roll:	-1.614	Pitch:	2.441	Yaw:	57.829	Thrust:	63.811
Time:	2.929	Roll Set Point:	0.044	Pitch Set Point:	-0.105	Yaw Set Point:	-0.708	X_WP:	0.100	Y_WP:	0.000	Y_WP:	0.500	X:	0.009	Y:	0.026	Z:	0.075	yaw:	40.561	yaw rate:	0.265	Roll:	-1.658	Pitch:	2.523	Yaw:	58.246	Thrust:	74.681
Time:	2.939	Roll Set Point:	0.044	Pitch Set Point:	-0.105	Yaw Set Point:	-0.708	X_WP:	0.100	Y_WP:	0.000	Y_WP:	0.500	X:	0.009	Y:	0.026	Z:	0.075	yaw:	40.563	yaw rate:	0.169	Roll:	-1.622	Pitch:	2.440	Yaw:	57.732	Thrust:	59.762
Time:	2.959	Roll Set Point:	0.044	Pitch Set Point:	-0.105	Yaw Set Point:	-0.708	X_WP:	0.100	Y_WP:	0.000	Y_WP:	0.500	X:	0.009	Y:	0.026	Z:	0.075	yaw:	40.551	yaw rate:	-1.165	Roll:	-1.656	Pitch:	2.553	Yaw:	58.366	Thrust:	90.400
Time:	2.971	Roll Set Point:	0.044	Pitch Set Point:	-0.105	Yaw Set Point:	-0.708	X_WP:	0.100	Y_WP:	0.000	Y_WP:	0.500	X:	0.009	Y:	0.026	Z:	0.075	yaw:	40.565	yaw rate:	-0.425	Roll:	-1.665	Pitch:	2.492	Yaw:	58.225	Thrust:	69.802
Time:	2.994	Roll Set Point:	0.044	Pitch Set Point:	-0.105	Yaw Set Point:	-0.708	X_WP:	0.100	Y_WP:	0.000	Y_WP:	0.500	X:	0.009	Y:	0.026	Z:	0.075	yaw:	40.556	yaw rate:	-0.910	Roll:	-1.717	Pitch:	2.594	Yaw:	58.780	Thrust:	100.000
Time:	3.005	Roll Set Point:	0.044	Pitch Set Point:	-0.105	Yaw Set Point:	-0.708	X_WP:	0.100	Y_WP:	0.000	Y_WP:	0.500	X:	0.009	Y:	0.026	Z:	0.075	yaw:	40.551	yaw rate:	-2.125	Roll:	-1.646	Pitch:	2.475	Yaw:	57.645	Thrust:	65.712
Time:	3.021	Roll Set Point:	0.044	Pitch Set Point:	-0.105	Yaw Set Point:	-0.708	X_WP:	0.100	Y_WP:	0.000	Y_WP:	0.500	X:	0.009	Y:	0.026	Z:	0.075	yaw:	40.545	yaw rate:	-0.557	Roll:	-1.677	Pitch:	2.512	Yaw:	58.077	Thrust:	79.475
Time:	3.033	Roll Set Point:	0.044	Pitch Set Point:	-0.105	Yaw Set Point:	-0.708	X_WP:	0.100	Y_WP:	0.000	Y_WP:	0.500	X:	0.009	Y:	0.026	Z:	0.075	yaw:	40.553	yaw rate:	0.841	Roll:	-1.651	Pitch:	2.462	Yaw:	58.010	Thrust:	70.582
Time:	3.045	Roll Set Point:	0.044	Pitch Set Point:	-0.105	Yaw Set Point:	-0.708	X_WP:	0.100	Y_WP:	0.000	Y_WP:	0.500	X:	0.009	Y:	0.026	Z:	0.075	yaw:	40.563	yaw rate:	0.902	Roll:	-1.584	Pitch:	2.506	Yaw:	57.994	Thrust:	67.534
Time:	3.059	Roll Set Point:	0.044	Pitch Set Point:	-0.105	Yaw Set Point:	-0.708	X_WP:	0.100	Y_WP:	0.000	Y_WP:	0.500	X:	0.009	Y:	0.026	Z:	0.075	yaw:	40.555	yaw rate:	-0.766	Roll:	-1.678	Pitch:	2.502	Yaw:	57.887	Thrust:	77.691
Time:	3.069	Roll Set Point:	0.044	Pitch Set Point:	-0.105	Yaw Set Point:	-0.708	X_WP:	0.100	Y_WP:	0.000	Y_WP:	0.500	X:	0.009	Y:	0.026	Z:	0.075	yaw:	40.560	yaw rate:	0.513	Roll:	-1.629	Pitch:	2.453	Yaw:	57.814	Thrust:	64.549
Time:	3.088	Roll Set Point:	0.044	Pitch Set Point:	-0.105	Yaw Set Point:	-0.708	X_WP:	0.100	Y_WP:	0.000	Y_WP:	0.500	X:	0.009	Y:	0.026	Z:	0.075	yaw:	40.569	yaw rate:	0.864	Roll:	-1.675	Pitch:	2.590	Yaw:	58.622	Thrust:	97.171
Time:	3.101	Roll Set Point:	0.044	Pitch Set Point:	-0.105	Yaw Set Point:	-0.708	X_WP:	0.100	Y_WP:	0.000	Y_WP:	0.500	X:	0.009	Y:	0.026	Z:	0.075	yaw:	40.565	yaw rate:	0.452	Roll:	-1.680	Pitch:	2.487	Yaw:	57.840	Thrust:	74.829
Time:	3.112	Roll Set Point:	0.044	Pitch Set Point:	-0.105	Yaw Set Point:	-0.708	X_WP:	0.100	Y_WP:	0.000	Y_WP:	0.500	X:	0.009	Y:	0.026	Z:	0.075	yaw:	40.553	yaw rate:	-1.132	Roll:	-1.641	Pitch:	2.464	Yaw:	57.457	Thrust:	68.387
Time:	3.124	Roll Set Point:	0.044	Pitch Set Point:	-0.105	Yaw Set Point:	-0.708	X_WP:	0.100	Y_WP:	0.000	Y_WP:	0.500	X:	0.009	Y:	0.026	Z:	0.075	yaw:	40.562	yaw rate:	0.867	Roll:	-1.640	Pitch:	2.521	Yaw:	58.070	Thrust:	73.036
Time:	3.135	Roll Set Point:	0.044	Pitch Set Point:	-0.105	Yaw Set Point:	-0.708	X_WP:	0.100	Y_WP:	0.000	Y_WP:	0.500	X:	0.009	Y:	0.026	Z:	0.075	yaw:	40.553	yaw rate:	-0.893	Roll:	-1.659	Pitch:	2.454	Yaw:	57.497	Thrust:	70.886
Time:	3.148	Roll Set Point:	0.044	Pitch Set Point:	-0.105	Yaw Set Point:	-0.708	X_WP:	0.100	Y_WP:	0.000	Y_WP:	0.500	X:	0.009	Y:	0.026	Z:	0.075	yaw:	40.558	yaw rate:	0.456	Roll:	-1.639	Pitch:	2.514	Yaw:	58.024	Thrust:	76.363
Time:	3.161	Roll Set Point:	0.044	Pitch Set Point:	-0.105	Yaw Set Point:	-0.708	X_WP:	0.100	Y_WP:	0.000	Y_WP:	0.500	X:	0.009	Y:	0.026	Z:	0.075	yaw:	40.554	yaw rate:	-0.337	Roll:	-1.683	Pitch:	2.498	Yaw:	57.860	Thrust:	79.105
Time:	3.172	Roll Set Point:	0.044	Pitch Set Point:	-0.105	Yaw Set Point:	-0.708	X_WP:	0.100	Y_WP:	0.000	Y_WP:	0.500	X:	0.009	Y:	0.026	Z:	0.075	yaw:	40.570	yaw rate:	1.560	Roll:	-1.623	Pitch:	2.507	Yaw:	58.123	Thrust:	73.547
Time:	3.190	Roll Set Point:	0.044	Pitch Set Point:	-0.105	Yaw Set Point:	-0.708	X_WP:	0.100	Y_WP:	0.000	Y_WP:	0.500	X:	0.009	Y:	0.026	Z:	0.075	yaw:	40.570	yaw rate:	-0.020	Roll:	-1.619	Pitch:	2.557	Yaw:	58.351	Thrust:	96.037
Time:	3.203	Roll Set Point:	0.044	Pitch Set Point:	-0.105	Yaw Set Point:	-0.708	X_WP:	0.100	Y_WP:	0.000	Y_WP:	0.500	X:	0.009	Y:	0.026	Z:	0.075	yaw:	40.567	yaw rate:	1.195	Roll:	-1.744	Pitch:	2.556	Yaw:	57.905	Thrust:	84.230
Time:	3.216	Roll Set Point:	0.044	Pitch Set Point:	-0.105	Yaw Set Point:	-0.708	X_WP:	0.100	Y_WP:	0.000	Y_WP:	0.500	X:	0.009	Y:	0.026	Z:	0.075	yaw:	40.553	yaw rate:	-1.332	Roll:	-1.678	Pitch:	2.514	Yaw:	57.662	Thrust:	82.052
Time:	3.230	Roll Set Point:	0.044	Pitch Set Point:	-0.105	Yaw Set Point:	-0.708	X_WP:	0.100	Y_WP:	0.000	Y_WP:	0.500	X:	0.009	Y:	0.026	Z:	0.075	yaw:	40.564	yaw rate:	0.222	Roll:	-1.687	Pitch:	2.555	Yaw:	58.283	Thrust:	89.219
Time:	3.241	Roll Set Point:	0.044	Pitch Set Point:	-0.105	Yaw Set Point:	-0.708	X_WP:	0.100	Y_WP:	0.000	Y_WP:	0.500	X:	0.009	Y:	0.026	Z:	0.075	yaw:	40.573	yaw rate:	0.900	Roll:	-1.649	Pitch:	2.511	Yaw:	57.967	Thrust:	73.920
Time:	3.255	Roll Set Point:	0.044	Pitch Set Point:	-0.105	Yaw Set Point:	-0.708	X_WP:	0.100	Y_WP:	0.000	Y_WP:	0.500	X:	0.009	Y:	0.026	Z:	0.075	yaw:	40.554	yaw rate:	-1.869	Roll:	-1.672	Pitch:	2.539	Yaw:	57.680	Thrust:	88.541
Time:	3.266	Roll Set Point:	0.044	Pitch Set Point:	-0.105	Yaw Set Point:	-0.708	X_WP:	0.100	Y_WP:	0.000	Y_WP:	0.500	X:	0.009	Y:	0.026	Z:	0.075	yaw:	40.558	yaw rate:	0.410	Roll:	-1.664	Pitch:	2.518	Yaw:	57.832	Thrust:	75.056
Time:	3.276	Roll Set Point:	0.044	Pitch Set Point:	-0.105	Yaw Set Point:	-0.708	X_WP:	0.100	Y_WP:	0.000	Y_WP:	0.500	X:	0.009	Y:	0.026	Z:	0.075	yaw:	40.555	yaw rate:	-0.370	Roll:	-1.665	Pitch:	2.449	Yaw:	57.531	Thrust:	70.763
Time:	3.289	Roll Set Point:	0.044	Pitch Set Point:	-0.105	Yaw Set Point:	-0.708	X_WP:	0.100	Y_WP:	0.000	Y_WP:	0.500	X:	0.009	Y:	0.026	Z:	0.075	yaw:	40.562	yaw rate:	0.725	Roll:	-1.658	Pitch:	2.559	Yaw:	58.085	Thrust:	85.916
Time:	3.300	Roll Set Point:	0.044	Pitch Set Point:	-0.105	Yaw Set Point:	-0.708	X_WP:	0.100	Y_WP:	0.000	Y_WP:	0.500	X:	0.009	Y:	0.026	Z:	0.075	yaw:	40.565	yaw rate:	0.321	Roll:	-1.658	Pitch:	2.508	Yaw:	57.821	Thrust:	76.903
Time:	3.310	Roll Set Point:	0.044	Pitch Set Point:	-0.105	Yaw Set Point:	-0.708	X_WP:	0.100	Y_WP:	0.000	Y_WP:	0.500	X:	0.009	Y:	0.026	Z:	0.075	yaw:	40.553	yaw rate:	-1.173	Roll:	-1.674	Pitch:	2.469	Yaw:	57.319	Thrust:	72.338
Time:	3.322	Roll Set Point:	0.044	Pitch Set Point:	-0.105	Yaw Set Point:	-0.708	X_WP:	0.100	Y_WP:	0.000	Y_WP:	0.500	X:	0.009	Y:	0.026	Z:	0.075	yaw:	40.547	yaw rate:	-0.679	Roll:	-1.693	Pitch:	2.520	Yaw:	57.557	Thrust:	77.861
Time:	3.334	Roll Set Point:	0.044	Pitch Set Point:	-0.105	Yaw Set Point:	-0.708	X_WP:	0.100	Y_WP:	0.000	Y_WP:	0.500	X:	0.009	Y:	0.026	Z:	0.075	yaw:	40.560	yaw rate:	1.318	Roll:	-1.626	Pitch:	2.545	Yaw:	58.124	Thrust:	83.526
Time:	3.344	Roll Set Point:	0.044	Pitch Set Point:	-0.105	Yaw Set Point:	-0.708	X_WP:	0.100	Y_WP:	0.000	Y_WP:	0.500	X:	0.009	Y:	0.026	Z:	0.075	yaw:	40.560	yaw rate:	0.060	Roll:	-1.668	Pitch:	2.466	Yaw:	57.701	Thrust:	76.465
Time:	3.359	Roll Set Point:	0.044	Pitch Set Point:	-0.105	Yaw Set Point:	-0.708	X_WP:	0.100	Y_WP:	0.000	Y_WP:	0.500	X:	0.009	Y:	0.026	Z:	0.075	yaw:	40.552	yaw rate:	-0.856	Roll:	-1.691	Pitch:	2.594	Yaw:	57.921	Thrust:	97.558
Time:	3.371	Roll Set Point:	0.044	Pitch Set Point:	-0.105	Yaw Set Point:	-0.708	X_WP:	0.100	Y_WP:	0.000	Y_WP:	0.500	X:	0.009	Y:	0.026	Z:	0.075	yaw:	40.568	yaw rate:	2.687	Roll:	-1.705	Pitch:	2.566	Yaw:	58.239	Thrust:	88.358
Time:	3.387	Roll Set Point:	0.044	Pitch Set Point:	-0.105	Yaw Set Point:	-0.708	X_WP:	0.100	Y_WP:	0.000	Y_WP:	0.500	X:	0.009	Y:	0.026	Z:	0.075	yaw:	40.566	yaw rate:	-0.130	Roll:	-1.671	Pitch:	2.579	Yaw:	58.177	Thrust:	96.564
Time:	3.398	Roll Set Point:	0.044	Pitch Set Point:	-0.105	Yaw Set Point:	-0.708	X_WP:	0.100	Y_WP:	0.000	Y_WP:	0.500	X:	0.009	Y:	0.026	Z:	0.075	yaw:	40.555	yaw rate:	-1.163	Roll:	-1.715	Pitch:	2.556	Yaw:	57.452	Thrust:	89.196
Time:	3.409	Roll Set Point:	0.044	Pitch Set Point:	-0.105	Yaw Set Point:	-0.708	X_WP:	0.100	Y_WP:	0.000	Y_WP:	0.500	X:	0.009	Y:	0.026	Z:	0.075	yaw:	40.558	yaw rate:	0.321	Roll:	-1.691	Pitch:	2.540	Yaw:	57.809	Thrust:	81.648
Time:	3.422	Roll Set Point:	0.044	Pitch Set Point:	-0.105	Yaw Set Point:	-0.708	X_WP:	0.100	Y_WP:	0.000	Y_WP:	0.500	X:	0.009	Y:	0.026	Z:	0.075	yaw:	40.552	yaw rate:	-0.593	Roll:	-1.677	Pitch:	2.535	Yaw:	57.808	Thrust:	90.495
Time:	3.435	Roll Set Point:	0.044	Pitch Set Point:	-0.105	Yaw Set Point:	-0.708	X_WP:	0.100	Y_WP:	0.000	Y_WP:	0.500	X:	0.009	Y:	0.026	Z:	0.075	yaw:	40.569	yaw rate:	1.711	Roll:	-1.678	Pitch:	2.612	Yaw:	58.273	Thrust:	95.109
Time:	3.447	Roll Set Point:	0.044	Pitch Set Point:	-0.105	Yaw Set Point:	-0.708	X_WP:	0.100	Y_WP:	0.000	Y_WP:	0.500	X:	0.009	Y:	0.026	Z:	0.075	yaw:	40.554	yaw rate:	-1.521	Roll:	-1.719	Pitch:	2.509	Yaw:	57.560	Thrust:	88.889
Time:	3.460	Roll Set Point:	0.044	Pitch Set Point:	-0.105	Yaw Set Point:	-0.708	X_WP:	0.100	Y_WP:	0.000	Y_WP:	0.500	X:	0.009	Y:	0.026	Z:	0.075	yaw:	40.556	yaw rate:	1.645	Roll:	-1.708	Pitch:	2.593	Yaw:	57.924	Thrust:	95.017
Time:	3.470	Roll Set Point:	0.044	Pitch Set Point:	-0.105	Yaw Set Point:	-0.708	X_WP:	0.100	Y_WP:	0.000	Y_WP:	0.500	X:	0.009	Y:	0.026	Z:	0.075	yaw:	40.564	yaw rate:	0.810	Roll:	-1.644	Pitch:	2.538	Yaw:	57.893	Thrust:	81.856
Time:	3.483	Roll Set Point:	0.044	Pitch Set Point:	-0.105	Yaw Set Point:	-0.708	X_WP:	0.100	Y_WP:	0.000	Y_WP:	0.500	X:	0.009	Y:	0.026	Z:	0.075	yaw:	40.565	yaw rate:	0.110	Roll:	-1.666	Pitch:	2.526	Yaw:	57.920	Thrust:	91.027
Time:	3.498	Roll Set Point:	0.044	Pitch Set Point:	-0.105	Yaw Set Point:	-0.708	X_WP:	0.100	Y_WP:	0.000	Y_WP:	0.500	X:	0.009	Y:	0.026	Z:	0.075	yaw:	40.561	yaw rate:	-0.440	Roll:	-1.772	Pitch:	2.658	Yaw:	58.060	Thrust:	100.000
Time:	3.509	Roll Set Point:	0.044	Pitch Set Point:	-0.105	Yaw Set Point:	-0.708	X_WP:	0.100	Y_WP:	0.000	Y_WP:	0.500	X:	0.009	Y:	0.026	Z:	0.075	yaw:	40.553	yaw rate:	-0.769	Roll:	-1.731	Pitch:	2.546	Yaw:	57.543	Thrust:	86.183
Time:	3.525	Roll Set Point:	0.044	Pitch Set Point:	-0.105	Yaw Set Point:	-0.708	X_WP:	0.100	Y_WP:	0.000	Y_WP:	0.500	X:	0.009	Y:	0.026	Z:	0.075	yaw:	40.551	yaw rate:	-0.230	Roll:	-1.685	Pitch:	2.582	Yaw:	58.036	Thrust:	100.000
Time:	3.535	Roll Set Point:	0.044	Pitch Set Point:	-0.105	Yaw Set Point:	-0.708	X_WP:	0.100	Y_WP:	0.000	Y_WP:	0.500	X:	0.009	Y:	0.026	Z:	0.075	yaw:	40.551	yaw rate:	0.839	Roll:	-1.715	Pitch:	2.592	Yaw:	57.786	Thrust:	93.296
Time:	3.547	Roll Set Point:	0.044	Pitch Set Point:	-0.105	Yaw Set Point:	-0.708	X_WP:	0.100	Y_WP:	0.000	Y_WP:	0.500	X:	0.009	Y:	0.026	Z:	0.075	yaw:	40.556	yaw rate:	0.466	Roll:	-1.686	Pitch:	2.557	Yaw:	57.932	Thrust:	90.939
Time:	3.561	Roll Set Point:	0.044	Pitch Set Point:	-0.105	Yaw Set Point:	-0.708	X_WP:	0.100	Y_WP:	0.000	Y_WP:	0.500	X:	0.009	Y:	0.026	Z:	0.075	yaw:	40.564	yaw rate:	0.752	Roll:	-1.737	Pitch:	2.639	Yaw:	58.181	Thrust:	100.000
Time:	3.572	Roll Set Point:	0.044	Pitch Set Point:	-0.105	Yaw Set Point:	-0.708	X_WP:	0.100	Y_WP:	0.000	Y_WP:	0.500	X:	0.009	Y:	0.026	Z:	0.075	yaw:	40.560	yaw rate:	-0.368	Roll:	-1.683	Pitch:	2.566	Yaw:	57.651	Thrust:	92.365
Time:	3.591	Roll Set Point:	0.044	Pitch Set Point:	-0.105	Yaw Set Point:	-0.708	X_WP:	0.100	Y_WP:	0.000	Y_WP:	0.500	X:	0.009	Y:	0.026	Z:	0.075	yaw:	40.570	yaw rate:	1.001	Roll:	-1.760	Pitch:	2.694	Yaw:	58.599	Thrust:	100.000
Time:	3.602	Roll Set Point:	0.044	Pitch Set Point:	-0.105	Yaw Set Point:	-0.708	X_WP:	0.100	Y_WP:	0.000	Y_WP:	0.500	X:	0.009	Y:	0.026	Z:	0.075	yaw:	40.554	yaw rate:	0.178	Roll:	-1.756	Pitch:	2.581	Yaw:	57.411	Thrust:	96.295
Time:	3.615	Roll Set Point:	0.044	Pitch Set Point:	-0.105	Yaw Set Point:	-0.708	X_WP:	0.100	Y_WP:	0.000	Y_WP:	0.500	X:	0.009	Y:	0.026	Z:	0.075	yaw:	40.562	yaw rate:	0.860	Roll:	-1.662	Pitch:	2.548	Yaw:	58.026	Thrust:	90.915
Time:	3.631	Roll Set Point:	0.044	Pitch Set Point:	-0.105	Yaw Set Point:	-0.708	X_WP:	0.100	Y_WP:	0.000	Y_WP:	0.500	X:	0.009	Y:	0.026	Z:	0.075	yaw:	40.578	yaw rate:	1.516	Roll:	-1.784	Pitch:	2.754	Yaw:	58.613	Thrust:	100.000
Time:	3.642	Roll Set Point:	0.044	Pitch Set Point:	-0.105	Yaw Set Point:	-0.708	X_WP:	0.100	Y_WP:	0.000	Y_WP:	0.500	X:	0.009	Y:	0.026	Z:	0.075	yaw:	40.559	yaw rate:	-1.857	Roll:	-1.748	Pitch:	2.564	Yaw:	57.293	Thrust:	91.930
Time:	3.657	Roll Set Point:	0.044	Pitch Set Point:	-0.105	Yaw Set Point:	-0.708	X_WP:	0.100	Y_WP:	0.000	Y_WP:	0.500	X:	0.009	Y:	0.026	Z:	0.075	yaw:	40.554	yaw rate:	-0.481	Roll:	-1.770	Pitch:	2.655	Yaw:	58.047	Thrust:	100.000
Time:	3.668	Roll Set Point:	0.044	Pitch Set Point:	-0.105	Yaw Set Point:	-0.708	X_WP:	0.100	Y_WP:	0.000	Y_WP:	0.500	X:	0.009	Y:	0.026	Z:	0.075	yaw:	40.558	yaw rate:	-0.795	Roll:	-1.657	Pitch:	2.549	Yaw:	57.774	Thrust:	89.927
Time:	3.680	Roll Set Point:	0.044	Pitch Set Point:	-0.105	Yaw Set Point:	-0.708	X_WP:	0.100	Y_WP:	0.000	Y_WP:	0.500	X:	0.009	Y:	0.026	Z:	0.075	yaw:	40.550	yaw rate:	-0.818	Roll:	-1.756	Pitch:	2.557	Yaw:	57.645	Thrust:	93.416
Time:	3.692	Roll Set Point:	0.044	Pitch Set Point:	-0.105	Yaw Set Point:	-0.708	X_WP:	0.100	Y_WP:	0.000	Y_WP:	0.500	X:	0.009	Y:	0.026	Z:	0.075	yaw:	40.558	yaw rate:	0.825	Roll:	-1.689	Pitch:	2.623	Yaw:	58.016	Thrust:	100.000
Time:	3.703	Roll Set Point:	0.044	Pitch Set Point:	-0.105	Yaw Set Point:	-0.708	X_WP:	0.100	Y_WP:	0.000	Y_WP:	0.500	X:	0.009	Y:	0.026	Z:	0.075	yaw:	40.552	yaw rate:	-0.606	Roll:	-1.723	Pitch:	2.611	Yaw:	57.580	Thrust:	94.809
Time:	3.715	Roll Set Point:	0.044	Pitch Set Point:	-0.105	Yaw Set Point:	-0.708	X_WP:	0.100	Y_WP:	0.000	Y_WP:	0.500	X:	0.009	Y:	0.026	Z:	0.075	yaw:	40.560	yaw rate:	0.820	Roll:	-1.686	Pitch:	2.556	Yaw:	58.016	Thrust:	100.000
Time:	3.727	Roll Set Point:	0.044	Pitch Set Point:	-0.105	Yaw Set Point:	-0.708	X_WP:	0.100	Y_WP:	0.000	Y_WP:	0.500	X:	0.009	Y:	0.026	Z:	0.075	yaw:	40.552	yaw rate:	-0.796	Roll:	-1.767	Pitch:	2.608	Yaw:	57.709	Thrust:	100.000
Time:	3.739	Roll Set Point:	0.044	Pitch Set Point:	-0.105	Yaw Set Point:	-0.708	X_WP:	0.100	Y_WP:	0.000	Y_WP:	0.500	X:	0.009	Y:	0.026	Z:	0.075	yaw:	40.554	yaw rate:	0.231	Roll:	-1.721	Pitch:	2.628	Yaw:	57.790	Thrust:	96.903
Time:	3.756	Roll Set Point:	0.044	Pitch Set Point:	-0.105	Yaw Set Point:	-0.708	X_WP:	0.100	Y_WP:	0.000	Y_WP:	0.500	X:	0.009	Y:	0.026	Z:	0.075	yaw:	40.553	yaw rate:	-0.187	Roll:	-1.754	Pitch:	2.671	Yaw:	58.299	Thrust:	100.000
Time:	3.768	Roll Set Point:	0.044	Pitch Set Point:	-0.105	Yaw Set Point:	-0.708	X_WP:	0.100	Y_WP:	0.000	Y_WP:	0.500	X:	0.009	Y:	0.026	Z:	0.075	yaw:	40.555	yaw rate:	-0.356	Roll:	-1.779	Pitch:	2.682	Yaw:	57.876	Thrust:	100.000
Time:	3.781	Roll Set Point:	0.044	Pitch Set Point:	-0.105	Yaw Set Point:	-0.708	X_WP:	0.100	Y_WP:	0.000	Y_WP:	0.500	X:	0.009	Y:	0.026	Z:	0.075	yaw:	40.562	yaw rate:	0.748	Roll:	-1.698	Pitch:	2.628	Yaw:	58.002	Thrust:	100.000
Time:	3.795	Roll Set Point:	0.044	Pitch Set Point:	-0.105	Yaw Set Point:	-0.708	X_WP:	0.100	Y_WP:	0.000	Y_WP:	0.500	X:	0.009	Y:	0.026	Z:	0.075	yaw:	40.567	yaw rate:	0.471	Roll:	-1.766	Pitch:	2.682	Yaw:	58.228	Thrust:	100.000
Time:	3.805	Roll Set Point:	0.044	Pitch Set Point:	-0.105	Yaw Set Point:	-0.708	X_WP:	0.100	Y_WP:	0.000	Y_WP:	0.500	X:	0.009	Y:	0.026	Z:	0.075	yaw:	40.562	yaw rate:	-0.502	Roll:	-1.718	Pitch:	2.571	Yaw:	57.507	Thrust:	95.905
Time:	3.821	Roll Set Point:	0.044	Pitch Set Point:	-0.105	Yaw Set Point:	-0.708	X_WP:	0.100	Y_WP:	0.000	Y_WP:	0.500	X:	0.009	Y:	0.026	Z:	0.075	yaw:	40.572	yaw rate:	1.034	Roll:	-1.728	Pitch:	2.706	Yaw:	58.426	Thrust:	100.000
Time:	3.834	Roll Set Point:	0.044	Pitch Set Point:	-0.105	Yaw Set Point:	-0.708	X_WP:	0.100	Y_WP:	0.000	Y_WP:	0.500	X:	0.009	Y:	0.026	Z:	0.075	yaw:	40.551	yaw rate:	0.006	Roll:	-1.848	Pitch:	2.663	Yaw:	57.497	Thrust:	100.000
Time:	3.846	Roll Set Point:	0.044	Pitch Set Point:	-0.105	Yaw Set Point:	-0.708	X_WP:	0.100	Y_WP:	0.000	Y_WP:	0.500	X:	0.009	Y:	0.026	Z:	0.075	yaw:	40.553	yaw rate:	0.260	Roll:	-1.714	Pitch:	2.618	Yaw:	57.884	Thrust:	100.000
Time:	3.857	Roll Set Point:	0.044	Pitch Set Point:	-0.105	Yaw Set Point:	-0.708	X_WP:	0.100	Y_WP:	0.000	Y_WP:	0.500	X:	0.009	Y:	0.026	Z:	0.075	yaw:	40.550	yaw rate:	-0.364	Roll:	-1.746	Pitch:	2.614	Yaw:	57.688	Thrust:	100.000
Time:	3.868	Roll Set Point:	0.044	Pitch Set Point:	-0.105	Yaw Set Point:	-0.708	X_WP:	0.100	Y_WP:	0.000	Y_WP:	0.500	X:	0.009	Y:	0.026	Z:	0.075	yaw:	40.571	yaw rate:	2.168	Roll:	-1.713	Pitch:	2.634	Yaw:	58.266	Thrust:	100.000
Time:	3.881	Roll Set Point:	0.044	Pitch Set Point:	-0.105	Yaw Set Point:	-0.708	X_WP:	0.100	Y_WP:	0.000	Y_WP:	0.500	X:	0.009	Y:	0.026	Z:	0.075	yaw:	40.557	yaw rate:	-1.483	Roll:	-1.697	Pitch:	2.618	Yaw:	57.508	Thrust:	100.000
Time:	3.896	Roll Set Point:	0.044	Pitch Set Point:	-0.105	Yaw Set Point:	-0.708	X_WP:	0.100	Y_WP:	0.000	Y_WP:	0.500	X:	0.009	Y:	0.026	Z:	0.075	yaw:	40.557	yaw rate:	0.035	Roll:	-1.816	Pitch:	2.712	Yaw:	58.139	Thrust:	100.000
Time:	3.906	Roll Set Point:	0.044	Pitch Set Point:	-0.105	Yaw Set Point:	-0.708	X_WP:	0.100	Y_WP:	0.000	Y_WP:	0.500	X:	0.009	Y:	0.026	Z:	0.075	yaw:	40.556	yaw rate:	-0.115	Roll:	-1.732	Pitch:	2.621	Yaw:	57.651	Thrust:	100.000
Time:	3.921	Roll Set Point:	0.044	Pitch Set Point:	-0.105	Yaw Set Point:	-0.708	X_WP:	0.100	Y_WP:	0.000	Y_WP:	0.500	X:	0.009	Y:	0.026	Z:	0.075	yaw:	40.550	yaw rate:	-0.626	Roll:	-1.790	Pitch:	2.674	Yaw:	58.014	Thrust:	100.000
Time:	3.933	Roll Set Point:	0.044	Pitch Set Point:	-0.105	Yaw Set Point:	-0.708	X_WP:	0.100	Y_WP:	0.000	Y_WP:	0.500	X:	0.009	Y:	0.026	Z:	0.075	yaw:	40.558	yaw rate:	-0.128	Roll:	-1.751	Pitch:	2.690	Yaw:	57.971	Thrust:	100.000
Time:	3.944	Roll Set Point:	0.044	Pitch Set Point:	-0.105	Yaw Set Point:	-0.708	X_WP:	0.100	Y_WP:	0.000	Y_WP:	0.500	X:	0.009	Y:	0.026	Z:	0.075	yaw:	40.561	yaw rate:	0.363	Roll:	-1.715	Pitch:	2.630	Yaw:	57.870	Thrust:	100.000
Time:	3.961	Roll Set Point:	0.044	Pitch Set Point:	-0.105	Yaw Set Point:	-0.708	X_WP:	0.100	Y_WP:	0.000	Y_WP:	0.500	X:	0.009	Y:	0.026	Z:	0.075	yaw:	40.557	yaw rate:	-0.474	Roll:	-1.871	Pitch:	2.755	Yaw:	58.155	Thrust:	100.000
Time:	3.971	Roll Set Point:	0.044	Pitch Set Point:	-0.105	Yaw Set Point:	-0.708	X_WP:	0.100	Y_WP:	0.000	Y_WP:	0.500	X:	0.009	Y:	0.026	Z:	0.075	yaw:	40.565	yaw rate:	-0.104	Roll:	-1.662	Pitch:	2.625	Yaw:	57.947	Thrust:	100.000
Time:	3.989	Roll Set Point:	0.044	Pitch Set Point:	-0.105	Yaw Set Point:	-0.708	X_WP:	0.100	Y_WP:	0.000	Y_WP:	0.500	X:	0.009	Y:	0.026	Z:	0.075	yaw:	40.565	yaw rate:	-0.104	Roll:	-1.753	Pitch:	2.668	Yaw:	58.346	Thrust:	100.000
Time:	4.002	Roll Set Point:	0.044	Pitch Set Point:	-0.105	Yaw Set Point:	-0.708	X_WP:	0.100	Y_WP:	0.000	Y_WP:	0.500	X:	0.009	Y:	0.026	Z:	0.075	yaw:	40.562	yaw rate:	-0.257	Roll:	-1.907	Pitch:	2.829	Yaw:	57.920	Thrust:	100.000
Time:	4.013	Roll Set Point:	0.044	Pitch Set Point:	-0.105	Yaw Set Point:	-0.708	X_WP:	0.100	Y_WP:	0.000	Y_WP:	0.500	X:	0.009	Y:	0.026	Z:	0.075	yaw:	40.569	yaw rate:	0.677	Roll:	-1.724	Pitch:	2.645	Yaw:	57.909	Thrust:	100.000
Time:	4.032	Roll Set Point:	0.044	Pitch Set Point:	-0.105	Yaw Set Point:	-0.708	X_WP:	0.100	Y_WP:	0.000	Y_WP:	0.500	X:	0.009	Y:	0.026	Z:	0.075	yaw:	40.581	yaw rate:	2.119	Roll:	-1.862	Pitch:	2.846	Yaw:	58.654	Thrust:	100.000
Time:	4.043	Roll Set Point:	0.044	Pitch Set Point:	-0.105	Yaw Set Point:	-0.708	X_WP:	0.100	Y_WP:	0.000	Y_WP:	0.500	X:	0.009	Y:	0.026	Z:	0.075	yaw:	40.568	yaw rate:	-1.316	Roll:	-1.777	Pitch:	2.641	Yaw:	57.499	Thrust:	100.000
Time:	4.057	Roll Set Point:	0.044	Pitch Set Point:	-0.105	Yaw Set Point:	-0.708	X_WP:	0.100	Y_WP:	0.000	Y_WP:	0.500	X:	0.009	Y:	0.026	Z:	0.075	yaw:	40.565	yaw rate:	-0.287	Roll:	-1.799	Pitch:	2.744	Yaw:	58.042	Thrust:	100.000
Time:	4.068	Roll Set Point:	0.044	Pitch Set Point:	-0.105	Yaw Set Point:	-0.708	X_WP:	0.100	Y_WP:	0.000	Y_WP:	0.500	X:	0.009	Y:	0.026	Z:	0.075	yaw:	40.550	yaw rate:	-1.503	Roll:	-1.790	Pitch:	2.615	Yaw:	57.367	Thrust:	100.000
Time:	4.083	Roll Set Point:	0.044	Pitch Set Point:	-0.105	Yaw Set Point:	-0.708	X_WP:	0.100	Y_WP:	0.000	Y_WP:	0.500	X:	0.009	Y:	0.026	Z:	0.075	yaw:	40.566	yaw rate:	1.561	Roll:	-1.685	Pitch:	2.625	Yaw:	58.185	Thrust:	100.000
Time:	4.095	Roll Set Point:	0.044	Pitch Set Point:	-0.105	Yaw Set Point:	-0.708	X_WP:	0.100	Y_WP:	0.000	Y_WP:	0.500	X:	0.009	Y:	0.026	Z:	0.075	yaw:	40.568	yaw rate:	0.513	Roll:	-1.865	Pitch:	2.794	Yaw:	58.143	Thrust:	100.000
Time:	4.108	Roll Set Point:	0.044	Pitch Set Point:	-0.105	Yaw Set Point:	-0.708	X_WP:	0.100	Y_WP:	0.000	Y_WP:	0.500	X:	0.009	Y:	0.026	Z:	0.075	yaw:	40.580	yaw rate:	1.203	Roll:	-1.728	Pitch:	2.686	Yaw:	58.106	Thrust:	100.000
Time:	4.122	Roll Set Point:	0.044	Pitch Set Point:	-0.105	Yaw Set Point:	-0.708	X_WP:	0.100	Y_WP:	0.000	Y_WP:	0.500	X:	0.009	Y:	0.026	Z:	0.075	yaw:	40.558	yaw rate:	-2.258	Roll:	-1.798	Pitch:	2.686	Yaw:	57.681	Thrust:	100.000
Time:	4.134	Roll Set Point:	0.044	Pitch Set Point:	-0.105	Yaw Set Point:	-0.708	X_WP:	0.100	Y_WP:	0.000	Y_WP:	0.500	X:	0.009	Y:	0.026	Z:	0.075	yaw:	40.546	yaw rate:	-1.167	Roll:	-1.885	Pitch:	2.739	Yaw:	57.626	Thrust:	100.000
Time:	4.145	Roll Set Point:	0.044	Pitch Set Point:	-0.105	Yaw Set Point:	-0.708	X_WP:	0.100	Y_WP:	0.000	Y_WP:	0.500	X:	0.009	Y:	0.026	Z:	0.075	yaw:	40.572	yaw rate:	2.596	Roll:	-1.639	Pitch:	2.654	Yaw:	58.348	Thrust:	100.000
Time:	4.156	Roll Set Point:	0.044	Pitch Set Point:	-0.105	Yaw Set Point:	-0.708	X_WP:	0.100	Y_WP:	0.000	Y_WP:	0.500	X:	0.009	Y:	0.026	Z:	0.075	yaw:	40.561	yaw rate:	-1.137	Roll:	-1.787	Pitch:	2.669	Yaw:	57.588	Thrust:	100.000
Time:	4.168	Roll Set Point:	0.044	Pitch Set Point:	-0.105	Yaw Set Point:	-0.708	X_WP:	0.100	Y_WP:	0.000	Y_WP:	0.500	X:	0.009	Y:	0.026	Z:	0.075	yaw:	40.581	yaw rate:	2.001	Roll:	-1.748	Pitch:	2.704	Yaw:	58.269	Thrust:	100.000
Time:	4.178	Roll Set Point:	0.044	Pitch Set Point:	-0.105	Yaw Set Point:	-0.708	X_WP:	0.100	Y_WP:	0.000	Y_WP:	0.500	X:	0.009	Y:	0.026	Z:	0.075	yaw:	40.561	yaw rate:	-1.946	Roll:	-1.782	Pitch:	2.574	Yaw:	57.129	Thrust:	100.000
Time:	4.191	Roll Set Point:	0.044	Pitch Set Point:	-0.105	Yaw Set Point:	-0.708	X_WP:	0.100	Y_WP:	0.000	Y_WP:	0.500	X:	0.009	Y:	0.026	Z:	0.075	yaw:	40.547	yaw rate:	-1.451	Roll:	-1.818	Pitch:	2.725	Yaw:	57.627	Thrust:	100.000
Time:	4.202	Roll Set Point:	0.044	Pitch Set Point:	-0.105	Yaw Set Point:	-0.708	X_WP:	0.100	Y_WP:	0.000	Y_WP:	0.500	X:	0.009	Y:	0.026	Z:	0.075	yaw:	40.551	yaw rate:	0.305	Roll:	-1.777	Pitch:	2.676	Yaw:	57.884	Thrust:	100.000
Time:	4.217	Roll Set Point:	0.044	Pitch Set Point:	-0.105	Yaw Set Point:	-0.708	X_WP:	0.100	Y_WP:	0.000	Y_WP:	0.500	X:	0.009	Y:	0.026	Z:	0.075	yaw:	40.557	yaw rate:	0.543	Roll:	-1.739	Pitch:	2.642	Yaw:	58.090	Thrust:	100.000
Time:	4.231	Roll Set Point:	0.044	Pitch Set Point:	-0.105	Yaw Set Point:	-0.708	X_WP:	0.100	Y_WP:	0.000	Y_WP:	0.500	X:	0.009	Y:	0.026	Z:	0.075	yaw:	40.566	yaw rate:	0.939	Roll:	-1.884	Pitch:	2.898	Yaw:	58.278	Thrust:	100.000
Time:	4.242	Roll Set Point:	0.044	Pitch Set Point:	-0.105	Yaw Set Point:	-0.708	X_WP:	0.100	Y_WP:	0.000	Y_WP:	0.500	X:	0.009	Y:	0.026	Z:	0.075	yaw:	40.567	yaw rate:	0.058	Roll:	-1.768	Pitch:	2.665	Yaw:	57.758	Thrust:	100.000
Time:	4.254	Roll Set Point:	0.044	Pitch Set Point:	-0.105	Yaw Set Point:	-0.708	X_WP:	0.100	Y_WP:	0.000	Y_WP:	0.500	X:	0.009	Y:	0.026	Z:	0.075	yaw:	40.565	yaw rate:	-0.136	Roll:	-1.786	Pitch:	2.690	Yaw:	57.867	Thrust:	100.000
Time:	4.266	Roll Set Point:	0.044	Pitch Set Point:	-0.105	Yaw Set Point:	-0.708	X_WP:	0.100	Y_WP:	0.000	Y_WP:	0.500	X:	0.009	Y:	0.026	Z:	0.075	yaw:	40.559	yaw rate:	0.509	Roll:	-1.825	Pitch:	2.736	Yaw:	57.698	Thrust:	100.000
Time:	4.278	Roll Set Point:	0.044	Pitch Set Point:	-0.105	Yaw Set Point:	-0.708	X_WP:	0.100	Y_WP:	0.000	Y_WP:	0.500	X:	0.009	Y:	0.026	Z:	0.075	yaw:	40.559	yaw rate:	0.509	Roll:	-1.767	Pitch:	2.708	Yaw:	57.834	Thrust:	100.000
Time:	4.292	Roll Set Point:	0.044	Pitch Set Point:	-0.105	Yaw Set Point:	-0.708	X_WP:	0.100	Y_WP:	0.000	Y_WP:	0.500	X:	0.009	Y:	0.026	Z:	0.075	yaw:	40.566	yaw rate:	0.312	Roll:	-1.818	Pitch:	2.786	Yaw:	58.187	Thrust:	100.000
Time:	4.303	Roll Set Point:	0.044	Pitch Set Point:	-0.105	Yaw Set Point:	-0.708	X_WP:	0.100	Y_WP:	0.000	Y_WP:	0.500	X:	0.009	Y:	0.026	Z:	0.075	yaw:	40.556	yaw rate:	-1.056	Roll:	-1.824	Pitch:	2.639	Yaw:	57.417	Thrust:	100.000
Time:	4.314	Roll Set Point:	0.044	Pitch Set Point:	-0.105	Yaw Set Point:	-0.708	X_WP:	0.100	Y_WP:	0.000	Y_WP:	0.500	X:	0.009	Y:	0.026	Z:	0.075	yaw:	40.553	yaw rate:	-0.233	Roll:	-1.749	Pitch:	2.659	Yaw:	57.672	Thrust:	100.000
Time:	4.327	Roll Set Point:	0.044	Pitch Set Point:	-0.105	Yaw Set Point:	-0.708	X_WP:	0.100	Y_WP:	0.000	Y_WP:	0.500	X:	0.009	Y:	0.026	Z:	0.075	yaw:	40.568	yaw rate:	1.458	Roll:	-1.773	Pitch:	2.764	Yaw:	58.203	Thrust:	100.000
Time:	4.337	Roll Set Point:	0.044	Pitch Set Point:	-0.105	Yaw Set Point:	-0.708	X_WP:	0.100	Y_WP:	0.000	Y_WP:	0.500	X:	0.009	Y:	0.026	Z:	0.075	yaw:	40.543	yaw rate:	-2.458	Roll:	-1.828	Pitch:	2.648	Yaw:	57.051	Thrust:	100.000
Time:	4.350	Roll Set Point:	0.044	Pitch Set Point:	-0.105	Yaw Set Point:	-0.708	X_WP:	0.100	Y_WP:	0.000	Y_WP:	0.500	X:	0.009	Y:	0.026	Z:	0.075	yaw:	40.556	yaw rate:	1.314	Roll:	-1.749	Pitch:	2.713	Yaw:	58.118	Thrust:	100.000
Time:	4.362	Roll Set Point:	0.044	Pitch Set Point:	-0.105	Yaw Set Point:	-0.708	X_WP:	0.100	Y_WP:	0.000	Y_WP:	0.500	X:	0.009	Y:	0.026	Z:	0.075	yaw:	40.566	yaw rate:	0.957	Roll:	-1.806	Pitch:	2.728	Yaw:	58.052	Thrust:	100.000
Time:	4.372	Roll Set Point:	0.044	Pitch Set Point:	-0.105	Yaw Set Point:	-0.708	X_WP:	0.100	Y_WP:	0.000	Y_WP:	0.500	X:	0.009	Y:	0.026	Z:	0.075	yaw:	40.561	yaw rate:	-0.541	Roll:	-1.792	Pitch:	2.725	Yaw:	57.613	Thrust:	100.000
Time:	4.389	Roll Set Point:	0.044	Pitch Set Point:	-0.105	Yaw Set Point:	-0.708	X_WP:	0.100	Y_WP:	0.000	Y_WP:	0.500	X:	0.009	Y:	0.026	Z:	0.075	yaw:	40.558	yaw rate:	-0.247	Roll:	-1.902	Pitch:	2.854	Yaw:	58.250	Thrust:	100.000
Time:	4.401	Roll Set Point:	0.044	Pitch Set Point:	-0.105	Yaw Set Point:	-0.708	X_WP:	0.100	Y_WP:	0.000	Y_WP:	0.500	X:	0.009	Y:	0.026	Z:	0.075	yaw:	40.560	yaw rate:	0.339	Roll:	-1.815	Pitch:	2.786	Yaw:	57.874	Thrust:	100.000
Time:	4.412	Roll Set Point:	0.044	Pitch Set Point:	-0.105	Yaw Set Point:	-0.708	X_WP:	0.100	Y_WP:	0.000	Y_WP:	0.500	X:	0.009	Y:	0.026	Z:	0.075	yaw:	40.555	yaw rate:	-0.544	Roll:	-1.772	Pitch:	2.595	Yaw:	57.486	Thrust:	100.000
Time:	4.424	Roll Set Point:	0.044	Pitch Set Point:	-0.105	Yaw Set Point:	-0.708	X_WP:	0.100	Y_WP:	0.000	Y_WP:	0.500	X:	0.009	Y:	0.026	Z:	0.075	yaw:	40.558	yaw rate:	0.302	Roll:	-1.806	Pitch:	2.780	Yaw:	57.993	Thrust:	100.000
Time:	4.434	Roll Set Point:	0.044	Pitch Set Point:	-0.105	Yaw Set Point:	-0.708	X_WP:	0.100	Y_WP:	0.000	Y_WP:	0.500	X:	0.009	Y:	0.026	Z:	0.075	yaw:	40.567	yaw rate:	0.968	Roll:	-1.763	Pitch:	2.730	Yaw:	57.938	Thrust:	100.000
Time:	4.445	Roll Set Point:	0.044	Pitch Set Point:	-0.105	Yaw Set Point:	-0.708	X_WP:	0.100	Y_WP:	0.000	Y_WP:	0.500	X:	0.009	Y:	0.026	Z:	0.075	yaw:	40.558	yaw rate:	-0.909	Roll:	-1.808	Pitch:	2.656	Yaw:	57.458	Thrust:	100.000
Time:	4.458	Roll Set Point:	0.044	Pitch Set Point:	-0.105	Yaw Set Point:	-0.708	X_WP:	0.100	Y_WP:	0.000	Y_WP:	0.500	X:	0.009	Y:	0.026	Z:	0.075	yaw:	40.563	yaw rate:	0.486	Roll:	-1.821	Pitch:	2.746	Yaw:	57.991	Thrust:	100.000
Time:	4.469	Roll Set Point:	0.044	Pitch Set Point:	-0.105	Yaw Set Point:	-0.708	X_WP:	0.100	Y_WP:	0.000	Y_WP:	0.500	X:	0.009	Y:	0.026	Z:	0.075	yaw:	40.551	yaw rate:	-1.249	Roll:	-1.822	Pitch:	2.764	Yaw:	57.500	Thrust:	100.000
Time:	4.482	Roll Set Point:	0.044	Pitch Set Point:	-0.105	Yaw Set Point:	-0.708	X_WP:	0.100	Y_WP:	0.000	Y_WP:	0.500	X:	0.009	Y:	0.026	Z:	0.075	yaw:	40.557	yaw rate:	0.642	Roll:	-1.810	Pitch:	2.718	Yaw:	57.973	Thrust:	100.000
Time:	4.494	Roll Set Point:	0.044	Pitch Set Point:	-0.105	Yaw Set Point:	-0.708	X_WP:	0.100	Y_WP:	0.000	Y_WP:	0.500	X:	0.009	Y:	0.026	Z:	0.075	yaw:	40.567	yaw rate:	1.039	Roll:	-1.834	Pitch:	2.789	Yaw:	58.156	Thrust:	100.000
Time:	4.506	Roll Set Point:	0.044	Pitch Set Point:	-0.105	Yaw Set Point:	-0.708	X_WP:	0.100	Y_WP:	0.000	Y_WP:	0.500	X:	0.009	Y:	0.026	Z:	0.075	yaw:	40.569	yaw rate:	0.189	Roll:	-1.800	Pitch:	2.775	Yaw:	57.841	Thrust:	100.000
Time:	4.522	Roll Set Point:	0.044	Pitch Set Point:	-0.105	Yaw Set Point:	-0.708	X_WP:	0.100	Y_WP:	0.000	Y_WP:	0.500	X:	0.009	Y:	0.026	Z:	0.075	yaw:	40.567	yaw rate:	-0.227	Roll:	-1.915	Pitch:	2.870	Yaw:	58.211	Thrust:	100.000
Time:	4.534	Roll Set Point:	0.044	Pitch Set Point:	-0.105	Yaw Set Point:	-0.708	X_WP:	0.100	Y_WP:	0.000	Y_WP:	0.500	X:	0.009	Y:	0.026	Z:	0.075	yaw:	40.574	yaw rate:	1.930	Roll:	-1.855	Pitch:	2.800	Yaw:	58.041	Thrust:	100.000
Time:	4.547	Roll Set Point:	0.044	Pitch Set Point:	-0.105	Yaw Set Point:	-0.708	X_WP:	0.100	Y_WP:	0.000	Y_WP:	0.500	X:	0.009	Y:	0.026	Z:	0.075	yaw:	40.569	yaw rate:	-0.502	Roll:	-1.827	Pitch:	2.755	Yaw:	57.848	Thrust:	100.000
Time:	4.563	Roll Set Point:	0.044	Pitch Set Point:	-0.105	Yaw Set Point:	-0.708	X_WP:	0.100	Y_WP:	0.000	Y_WP:	0.500	X:	0.009	Y:	0.026	Z:	0.075	yaw:	40.570	yaw rate:	0.164	Roll:	-1.903	Pitch:	2.864	Yaw:	58.179	Thrust:	100.000
Time:	4.573	Roll Set Point:	0.044	Pitch Set Point:	-0.105	Yaw Set Point:	-0.708	X_WP:	0.100	Y_WP:	0.000	Y_WP:	0.500	X:	0.009	Y:	0.026	Z:	0.075	yaw:	40.557	yaw rate:	-1.311	Roll:	-1.836	Pitch:	2.707	Yaw:	57.359	Thrust:	100.000
Time:	4.589	Roll Set Point:	0.044	Pitch Set Point:	-0.105	Yaw Set Point:	-0.708	X_WP:	0.100	Y_WP:	0.000	Y_WP:	0.500	X:	0.009	Y:	0.026	Z:	0.075	yaw:	40.552	yaw rate:	-0.548	Roll:	-1.877	Pitch:	2.858	Yaw:	58.083	Thrust:	100.000
Time:	4.602	Roll Set Point:	0.044	Pitch Set Point:	-0.105	Yaw Set Point:	-0.708	X_WP:	0.100	Y_WP:	0.000	Y_WP:	0.500	X:	0.009	Y:	0.026	Z:	0.075	yaw:	40.559	yaw rate:	-0.977	Roll:	-1.898	Pitch:	2.827	Yaw:	58.116	Thrust:	100.000
Time:	4.614	Roll Set Point:	0.044	Pitch Set Point:	-0.105	Yaw Set Point:	-0.708	X_WP:	0.100	Y_WP:	0.000	Y_WP:	0.500	X:	0.009	Y:	0.026	Z:	0.075	yaw:	40.551	yaw rate:	-0.819	Roll:	-1.857	Pitch:	2.727	Yaw:	57.705	Thrust:	100.000
Time:	4.629	Roll Set Point:	0.044	Pitch Set Point:	-0.105	Yaw Set Point:	-0.708	X_WP:	0.100	Y_WP:	0.000	Y_WP:	0.500	X:	0.009	Y:	0.026	Z:	0.075	yaw:	40.573	yaw rate:	2.131	Roll:	-1.899	Pitch:	2.884	Yaw:	58.525	Thrust:	100.000
Time:	4.640	Roll Set Point:	0.044	Pitch Set Point:	-0.105	Yaw Set Point:	-0.708	X_WP:	0.100	Y_WP:	0.000	Y_WP:	0.500	X:	0.009	Y:	0.026	Z:	0.075	yaw:	40.563	yaw rate:	-0.929	Roll:	-1.776	Pitch:	2.692	Yaw:	57.408	Thrust:	100.000
Time:	4.655	Roll Set Point:	0.044	Pitch Set Point:	-0.105	Yaw Set Point:	-0.708	X_WP:	0.100	Y_WP:	0.000	Y_WP:	0.500	X:	0.009	Y:	0.026	Z:	0.075	yaw:	40.580	yaw rate:	1.697	Roll:	-1.852	Pitch:	2.843	Yaw:	58.461	Thrust:	100.000
Time:	4.668	Roll Set Point:	0.044	Pitch Set Point:	-0.105	Yaw Set Point:	-0.708	X_WP:	0.100	Y_WP:	0.000	Y_WP:	0.500	X:	0.009	Y:	0.026	Z:	0.075	yaw:	40.550	yaw rate:	-1.000	Roll:	-1.951	Pitch:	2.803	Yaw:	57.307	Thrust:	100.000
Time:	4.680	Roll Set Point:	0.044	Pitch Set Point:	-0.105	Yaw Set Point:	-0.708	X_WP:	0.100	Y_WP:	0.000	Y_WP:	0.500	X:	0.009	Y:	0.026	Z:	0.075	yaw:	40.550	yaw rate:	-1.000	Roll:	-1.814	Pitch:	2.749	Yaw:	57.822	Thrust:	100.000
Time:	4.694	Roll Set Point:	0.044	Pitch Set Point:	-0.105	Yaw Set Point:	-0.708	X_WP:	0.100	Y_WP:	0.000	Y_WP:	0.500	X:	0.009	Y:	0.026	Z:	0.075	yaw:	40.571	yaw rate:	0.224	Roll:	-1.896	Pitch:	2.823	Yaw:	58.482	Thrust:	100.000
Time:	4.705	Roll Set Point:	0.044	Pitch Set Point:	-0.105	Yaw Set Point:	-0.708	X_WP:	0.100	Y_WP:	0.000	Y_WP:	0.500	X:	0.009	Y:	0.026	Z:	0.075	yaw:	40.566	yaw rate:	-0.481	Roll:	-1.850	Pitch:	2.749	Yaw:	57.635	Thrust:	100.000
Time:	4.726	Roll Set Point:	0.044	Pitch Set Point:	-0.105	Yaw Set Point:	-0.708	X_WP:	0.100	Y_WP:	0.000	Y_WP:	0.500	X:	0.009	Y:	0.026	Z:	0.075	yaw:	40.553	yaw rate:	-1.282	Roll:	-2.057	Pitch:	3.027	Yaw:	58.521	Thrust:	100.000
Time:	4.738	Roll Set Point:	0.044	Pitch Set Point:	-0.105	Yaw Set Point:	-0.708	X_WP:	0.100	Y_WP:	0.000	Y_WP:	0.500	X:	0.009	Y:	0.026	Z:	0.075	yaw:	40.574	yaw rate:	2.042	Roll:	-1.801	Pitch:	2.775	Yaw:	58.296	Thrust:	100.000
Time:	4.753	Roll Set Point:	0.044	Pitch Set Point:	-0.105	Yaw Set Point:	-0.708	X_WP:	0.100	Y_WP:	0.000	Y_WP:	0.500	X:	0.009	Y:	0.026	Z:	0.075	yaw:	40.559	yaw rate:	-1.556	Roll:	-1.909	Pitch:	2.806	Yaw:	57.806	Thrust:	100.000
Time:	4.764	Roll Set Point:	0.044	Pitch Set Point:	-0.105	Yaw Set Point:	-0.708	X_WP:	0.100	Y_WP:	0.000	Y_WP:	0.500	X:	0.009	Y:	0.026	Z:	0.075	yaw:	40.572	yaw rate:	1.288	Roll:	-1.884	Pitch:	2.777	Yaw:	58.134	Thrust:	100.000
Time:	4.774	Roll Set Point:	0.044	Pitch Set Point:	-0.105	Yaw Set Point:	-0.708	X_WP:	0.100	Y_WP:	0.000	Y_WP:	0.500	X:	0.009	Y:	0.026	Z:	0.075	yaw:	40.551	yaw rate:	-2.105	Roll:	-1.824	Pitch:	2.663	Yaw:	57.072	Thrust:	100.000
Time:	4.788	Roll Set Point:	0.044	Pitch Set Point:	-0.105	Yaw Set Point:	-0.708	X_WP:	0.100	Y_WP:	0.000	Y_WP:	0.500	X:	0.009	Y:	0.026	Z:	0.075	yaw:	40.553	yaw rate:	0.214	Roll:	-1.858	Pitch:	2.815	Yaw:	57.970	Thrust:	100.000
Time:	4.799	Roll Set Point:	0.044	Pitch Set Point:	-0.105	Yaw Set Point:	-0.708	X_WP:	0.100	Y_WP:	0.000	Y_WP:	0.500	X:	0.009	Y:	0.026	Z:	0.075	yaw:	40.556	yaw rate:	0.342	Roll:	-1.879	Pitch:	2.702	Yaw:	57.858	Thrust:	100.000
Time:	4.812	Roll Set Point:	0.044	Pitch Set Point:	-0.105	Yaw Set Point:	-0.708	X_WP:	0.100	Y_WP:	0.000	Y_WP:	0.500	X:	0.009	Y:	0.026	Z:	0.075	yaw:	40.553	yaw rate:	0.813	Roll:	-1.821	Pitch:	2.769	Yaw:	57.859	Thrust:	100.000
Time:	4.825	Roll Set Point:	0.044	Pitch Set Point:	-0.105	Yaw Set Point:	-0.708	X_WP:	0.100	Y_WP:	0.000	Y_WP:	0.500	X:	0.009	Y:	0.026	Z:	0.075	yaw:	40.560	yaw rate:	0.738	Roll:	-1.909	Pitch:	2.788	Yaw:	58.084	Thrust:	100.000
Time:	4.835	Roll Set Point:	0.044	Pitch Set Point:	-0.105	Yaw Set Point:	-0.708	X_WP:	0.100	Y_WP:	0.000	Y_WP:	0.500	X:	0.009	Y:	0.026	Z:	0.075	yaw:	40.571	yaw rate:	1.126	Roll:	-1.807	Pitch:	2.704	Yaw:	57.978	Thrust:	100.000
Time:	4.846	Roll Set Point:	0.044	Pitch Set Point:	-0.105	Yaw Set Point:	-0.708	X_WP:	0.100	Y_WP:	0.000	Y_WP:	0.500	X:	0.009	Y:	0.026	Z:	0.075	yaw:	40.564	yaw rate:	-0.769	Roll:	-1.815	Pitch:	2.698	Yaw:	57.502	Thrust:	100.000
Time:	4.860	Roll Set Point:	0.044	Pitch Set Point:	-0.105	Yaw Set Point:	-0.708	X_WP:	0.100	Y_WP:	0.000	Y_WP:	0.500	X:	0.009	Y:	0.026	Z:	0.075	yaw:	40.566	yaw rate:	0.248	Roll:	-1.946	Pitch:	2.851	Yaw:	58.090	Thrust:	100.000
Time:	4.870	Roll Set Point:	0.044	Pitch Set Point:	-0.105	Yaw Set Point:	-0.708	X_WP:	0.100	Y_WP:	0.000	Y_WP:	0.500	X:	0.009	Y:	0.026	Z:	0.075	yaw:	40.557	yaw rate:	-0.955	Roll:	-1.808	Pitch:	2.662	Yaw:	57.442	Thrust:	100.000
Time:	4.887	Roll Set Point:	0.044	Pitch Set Point:	-0.105	Yaw Set Point:	-0.708	X_WP:	0.100	Y_WP:	0.000	Y_WP:	0.500	X:	0.009	Y:	0.026	Z:	0.075	yaw:	40.562	yaw rate:	0.533	Roll:	-1.966	Pitch:	2.912	Yaw:	58.330	Thrust:	100.000
Time:	4.897	Roll Set Point:	0.044	Pitch Set Point:	-0.105	Yaw Set Point:	-0.708	X_WP:	0.100	Y_WP:	0.000	Y_WP:	0.500	X:	0.009	Y:	0.026	Z:	0.075	yaw:	40.562	yaw rate:	-1.651	Roll:	-1.834	Pitch:	2.662	Yaw:	57.682	Thrust:	100.000
Time:	4.908	Roll Set Point:	0.044	Pitch Set Point:	-0.105	Yaw Set Point:	-0.708	X_WP:	0.100	Y_WP:	0.000	Y_WP:	0.500	X:	0.009	Y:	0.026	Z:	0.075	yaw:	40.563	yaw rate:	0.140	Roll:	-1.853	Pitch:	2.756	Yaw:	57.773	Thrust:	100.000
Time:	4.923	Roll Set Point:	0.044	Pitch Set Point:	-0.105	Yaw Set Point:	-0.708	X_WP:	0.100	Y_WP:	0.000	Y_WP:	0.500	X:	0.009	Y:	0.026	Z:	0.075	yaw:	40.563	yaw rate:	0.006	Roll:	-1.919	Pitch:	2.808	Yaw:	58.096	Thrust:	100.000
Time:	4.935	Roll Set Point:	0.044	Pitch Set Point:	-0.105	Yaw Set Point:	-0.708	X_WP:	0.100	Y_WP:	0.000	Y_WP:	0.500	X:	0.009	Y:	0.026	Z:	0.075	yaw:	40.561	yaw rate:	-0.257	Roll:	-1.903	Pitch:	2.778	Yaw:	57.819	Thrust:	100.000
Time:	4.946	Roll Set Point:	0.044	Pitch Set Point:	-0.105	Yaw Set Point:	-0.708	X_WP:	0.100	Y_WP:	0.000	Y_WP:	0.500	X:	0.009	Y:	0.026	Z:	0.075	yaw:	40.553	yaw rate:	-0.734	Roll:	-1.825	Pitch:	2.683	Yaw:	57.553	Thrust:	100.000
Time:	4.958	Roll Set Point:	0.044	Pitch Set Point:	-0.105	Yaw Set Point:	-0.708	X_WP:	0.100	Y_WP:	0.000	Y_WP:	0.500	X:	0.009	Y:	0.026	Z:	0.075	yaw:	40.564	yaw rate:	1.052	Roll:	-1.845	Pitch:	2.741	Yaw:	58.029	Thrust:	100.000
Time:	4.968	Roll Set Point:	0.044	Pitch Set Point:	-0.105	Yaw Set Point:	-0.708	X_WP:	0.100	Y_WP:	0.000	Y_WP:	0.500	X:	0.009	Y:	0.026	Z:	0.075	yaw:	40.558	yaw rate:	-0.578	Roll:	-1.860	Pitch:	2.664	Yaw:	57.482	Thrust:	100.000
Time:	4.979	Roll Set Point:	0.044	Pitch Set Point:	-0.105	Yaw Set Point:	-0.708	X_WP:	0.100	Y_WP:	0.000	Y_WP:	0.500	X:	0.009	Y:	0.026	Z:	0.075	yaw:	40.570	yaw rate:	1.245	Roll:	-1.795	Pitch:	2.686	Yaw:	58.046	Thrust:	100.000
Time:	4.991	Roll Set Point:	0.044	Pitch Set Point:	-0.105	Yaw Set Point:	-0.708	X_WP:	0.100	Y_WP:	0.000	Y_WP:	0.500	X:	0.009	Y:	0.026	Z:	0.075	yaw:	40.550	yaw rate:	-2.000	Roll:	-1.932	Pitch:	2.784	Yaw:	57.319	Thrust:	100.000
Time:	5.003	Roll Set Point:	0.044	Pitch Set Point:	-0.105	Yaw Set Point:	-0.708	X_WP:	0.100	Y_WP:	0.000	Y_WP:	0.500	X:	0.009	Y:	0.026	Z:	0.075	yaw:	40.560	yaw rate:	0.998	Roll:	-1.841	Pitch:	2.714	Yaw:	58.013	Thrust:	100.000
Time:	5.014	Roll Set Point:	0.044	Pitch Set Point:	-0.105	Yaw Set Point:	-0.708	X_WP:	0.100	Y_WP:	0.000	Y_WP:	0.500	X:	0.009	Y:	0.026	Z:	0.075	yaw:	40.563	yaw rate:	0.259	Roll:	-1.895	Pitch:	2.752	Yaw:	57.949	Thrust:	100.000
Time:	5.031	Roll Set Point:	0.044	Pitch Set Point:	-0.105	Yaw Set Point:	-0.708	X_WP:	0.100	Y_WP:	0.000	Y_WP:	0.500	X:	0.009	Y:	0.026	Z:	0.075	yaw:	40.568	yaw rate:	0.104	Roll:	-2.006	Pitch:	2.921	Yaw:	58.333	Thrust:	100.000
Time:	5.042	Roll Set Point:	0.044	Pitch Set Point:	-0.105	Yaw Set Point:	-0.708	X_WP:	0.100	Y_WP:	0.000	Y_WP:	0.500	X:	0.009	Y:	0.026	Z:	0.075	yaw:	40.570	yaw rate:	0.261	Roll:	-1.842	Pitch:	2.728	Yaw:	57.812	Thrust:	100.000
Time:	5.058	Roll Set Point:	0.044	Pitch Set Point:	-0.105	Yaw Set Point:	-0.708	X_WP:	0.100	Y_WP:	0.000	Y_WP:	0.500	X:	0.009	Y:	0.026	Z:	0.075	yaw:	40.567	yaw rate:	-0.382	Roll:	-1.910	Pitch:	2.817	Yaw:	58.134	Thrust:	100.000
Time:	5.070	Roll Set Point:	0.044	Pitch Set Point:	-0.105	Yaw Set Point:	-0.708	X_WP:	0.100	Y_WP:	0.000	Y_WP:	0.500	X:	0.009	Y:	0.026	Z:	0.075	yaw:	40.550	yaw rate:	-1.649	Roll:	-2.032	Pitch:	2.799	Yaw:	57.465	Thrust:	100.000
Time:	5.083	Roll Set Point:	0.044	Pitch Set Point:	-0.105	Yaw Set Point:	-0.708	X_WP:	0.100	Y_WP:	0.000	Y_WP:	0.500	X:	0.009	Y:	0.026	Z:	0.075	yaw:	40.563	yaw rate:	1.348	Roll:	-1.872	Pitch:	2.802	Yaw:	58.254	Thrust:	100.000
Time:	5.096	Roll Set Point:	0.044	Pitch Set Point:	-0.105	Yaw Set Point:	-0.708	X_WP:	0.100	Y_WP:	0.000	Y_WP:	0.500	X:	0.009	Y:	0.026	Z:	0.075	yaw:	40.562	yaw rate:	-0.152	Roll:	-1.921	Pitch:	2.800	Yaw:	57.908	Thrust:	100.000
Time:	5.107	Roll Set Point:	0.044	Pitch Set Point:	-0.105	Yaw Set Point:	-0.708	X_WP:	0.100	Y_WP:	0.000	Y_WP:	0.500	X:	0.009	Y:	0.026	Z:	0.075	yaw:	40.563	yaw rate:	0.131	Roll:	-1.904	Pitch:	2.708	Yaw:	57.748	Thrust:	100.000
Time:	5.122	Roll Set Point:	0.044	Pitch Set Point:	-0.105	Yaw Set Point:	-0.708	X_WP:	0.100	Y_WP:	0.000	Y_WP:	0.500	X:	0.009	Y:	0.026	Z:	0.075	yaw:	40.565	yaw rate:	0.216	Roll:	-1.934	Pitch:	2.856	Yaw:	58.183	Thrust:	100.000
Time:	5.132	Roll Set Point:	0.044	Pitch Set Point:	-0.105	Yaw Set Point:	-0.708	X_WP:	0.100	Y_WP:	0.000	Y_WP:	0.500	X:	0.009	Y:	0.026	Z:	0.075	yaw:	40.564	yaw rate:	1.758	Roll:	-1.891	Pitch:	2.712	Yaw:	57.659	Thrust:	100.000
Time:	5.144	Roll Set Point:	0.044	Pitch Set Point:	-0.105	Yaw Set Point:	-0.708	X_WP:	0.100	Y_WP:	0.000	Y_WP:	0.500	X:	0.009	Y:	0.026	Z:	0.075	yaw:	40.564	yaw rate:	0.030	Roll:	-1.863	Pitch:	2.716	Yaw:	57.799	Thrust:	100.000
Time:	5.157	Roll Set Point:	0.044	Pitch Set Point:	-0.105	Yaw Set Point:	-0.708	X_WP:	0.100	Y_WP:	0.000	Y_WP:	0.500	X:	0.009	Y:	0.026	Z:	0.075	yaw:	40.575	yaw rate:	1.075	Roll:	-1.892	Pitch:	2.767	Yaw:	58.215	Thrust:	100.000
Time:	5.168	Roll Set Point:	0.044	Pitch Set Point:	-0.105	Yaw Set Point:	-0.708	X_WP:	0.100	Y_WP:	0.000	Y_WP:	0.500	X:	0.009	Y:	0.026	Z:	0.075	yaw:	40.561	yaw rate:	-1.388	Roll:	-1.954	Pitch:	2.751	Yaw:	57.411	Thrust:	100.000
Time:	5.180	Roll Set Point:	0.044	Pitch Set Point:	-0.105	Yaw Set Point:	-0.708	X_WP:	0.100	Y_WP:	0.000	Y_WP:	0.500	X:	0.009	Y:	0.026	Z:	0.075	yaw:	40.567	yaw rate:	0.593	Roll:	-1.843	Pitch:	2.715	Yaw:	57.975	Thrust:	100.000
Time:	5.197	Roll Set Point:	0.044	Pitch Set Point:	-0.105	Yaw Set Point:	-0.708	X_WP:	0.100	Y_WP:	0.000	Y_WP:	0.500	X:	0.009	Y:	0.026	Z:	0.075	yaw:	40.555	yaw rate:	-0.808	Roll:	-2.129	Pitch:	2.965	Yaw:	58.154	Thrust:	100.000
Time:	5.208	Roll Set Point:	0.044	Pitch Set Point:	-0.105	Yaw Set Point:	-0.708	X_WP:	0.100	Y_WP:	0.000	Y_WP:	0.500	X:	0.009	Y:	0.026	Z:	0.075	yaw:	40.562	yaw rate:	0.739	Roll:	-1.818	Pitch:	2.695	Yaw:	57.831	Thrust:	100.000
Time:	5.225	Roll Set Point:	0.044	Pitch Set Point:	-0.105	Yaw Set Point:	-0.708	X_WP:	0.100	Y_WP:	0.000	Y_WP:	0.500	X:	0.009	Y:	0.026	Z:	0.075	yaw:	40.557	yaw rate:	-0.551	Roll:	-1.961	Pitch:	2.856	Yaw:	58.200	Thrust:	100.000
Time:	5.238	Roll Set Point:	0.044	Pitch Set Point:	-0.105	Yaw Set Point:	-0.708	X_WP:	0.100	Y_WP:	0.000	Y_WP:	0.500	X:	0.009	Y:	0.026	Z:	0.075	yaw:	40.563	yaw rate:	0.689	Roll:	-2.057	Pitch:	2.862	Yaw:	58.126	Thrust:	100.000
Time:	5.256	Roll Set Point:	0.044	Pitch Set Point:	-0.105	Yaw Set Point:	-0.708	X_WP:	0.100	Y_WP:	0.000	Y_WP:	0.500	X:	0.009	Y:	0.026	Z:	0.075	yaw:	40.563	yaw rate:	-0.008	Roll:	-2.008	Pitch:	2.891	Yaw:	58.391	Thrust:	100.000
Time:	5.268	Roll Set Point:	0.044	Pitch Set Point:	-0.105	Yaw Set Point:	-0.708	X_WP:	0.100	Y_WP:	0.000	Y_WP:	0.500	X:	0.009	Y:	0.026	Z:	0.075	yaw:	40.554	yaw rate:	-0.646	Roll:	-1.982	Pitch:	2.796	Yaw:	57.672	Thrust:	100.000
Time:	5.287	Roll Set Point:	0.044	Pitch Set Point:	-0.105	Yaw Set Point:	-0.708	X_WP:	0.100	Y_WP:	0.000	Y_WP:	0.500	X:	0.009	Y:	0.026	Z:	0.075	yaw:	40.558	yaw rate:	0.489	Roll:	-1.887	Pitch:	2.784	Yaw:	58.507	Thrust:	100.000
Time:	5.299	Roll Set Point:	0.044	Pitch Set Point:	-0.105	Yaw Set Point:	-0.708	X_WP:	0.100	Y_WP:	0.000	Y_WP:	0.500	X:	0.009	Y:	0.026	Z:	0.075	yaw:	40.573	yaw rate:	1.155	Roll:	-2.179	Pitch:	3.005	Yaw:	58.220	Thrust:	100.000
Time:	5.311	Roll Set Point:	0.044	Pitch Set Point:	-0.105	Yaw Set Point:	-0.708	X_WP:	0.100	Y_WP:	0.000	Y_WP:	0.500	X:	0.009	Y:	0.026	Z:	0.075	yaw:	40.551	yaw rate:	-2.269	Roll:	-1.941	Pitch:	2.724	Yaw:	57.468	Thrust:	100.000
Time:	5.325	Roll Set Point:	0.044	Pitch Set Point:	-0.105	Yaw Set Point:	-0.708	X_WP:	0.100	Y_WP:	0.000	Y_WP:	0.500	X:	0.009	Y:	0.026	Z:	0.075	yaw:	40.561	yaw rate:	1.042	Roll:	-1.969	Pitch:	2.832	Yaw:	58.149	Thrust:	100.000
Time:	5.336	Roll Set Point:	0.044	Pitch Set Point:	-0.105	Yaw Set Point:	-0.708	X_WP:	0.100	Y_WP:	0.000	Y_WP:	0.500	X:	0.009	Y:	0.026	Z:	0.075	yaw:	40.574	yaw rate:	1.327	Roll:	-1.872	Pitch:	2.724	Yaw:	58.106	Thrust:	100.000
Time:	5.357	Roll Set Point:	0.044	Pitch Set Point:	-0.105	Yaw Set Point:	-0.708	X_WP:	0.100	Y_WP:	0.000	Y_WP:	0.500	X:	0.009	Y:	0.026	Z:	0.075	yaw:	40.561	yaw rate:	-1.388	Roll:	-2.123	Pitch:	3.011	Yaw:	58.512	Thrust:	100.000
Time:	5.369	Roll Set Point:	0.044	Pitch Set Point:	-0.105	Yaw Set Point:	-0.708	X_WP:	0.100	Y_WP:	0.000	Y_WP:	0.500	X:	0.009	Y:	0.026	Z:	0.075	yaw:	40.582	yaw rate:	1.072	Roll:	-2.004	Pitch:	2.851	Yaw:	58.311	Thrust:	100.000
Time:	5.390	Roll Set Point:	0.044	Pitch Set Point:	-0.105	Yaw Set Point:	-0.708	X_WP:	0.100	Y_WP:	0.000	Y_WP:	0.500	X:	0.009	Y:	0.026	Z:	0.075	yaw:	40.556	yaw rate:	-2.603	Roll:	-1.995	Pitch:	2.815	Yaw:	58.414	Thrust:	100.000
Time:	5.403	Roll Set Point:	0.044	Pitch Set Point:	-0.105	Yaw Set Point:	-0.708	X_WP:	0.100	Y_WP:	0.000	Y_WP:	0.500	X:	0.009	Y:	0.026	Z:	0.075	yaw:	40.572	yaw rate:	0.789	Roll:	-2.226	Pitch:	3.018	Yaw:	58.313	Thrust:	100.000
Time:	5.424	Roll Set Point:	0.044	Pitch Set Point:	-0.105	Yaw Set Point:	-0.708	X_WP:	0.100	Y_WP:	0.000	Y_WP:	0.500	X:	0.009	Y:	0.026	Z:	0.075	yaw:	40.566	yaw rate:	-0.589	Roll:	-1.990	Pitch:	2.961	Yaw:	58.623	Thrust:	100.000
Time:	5.437	Roll Set Point:	0.044	Pitch Set Point:	-0.105	Yaw Set Point:	-0.708	X_WP:	0.100	Y_WP:	0.000	Y_WP:	0.500	X:	0.009	Y:	0.026	Z:	0.075	yaw:	40.564	yaw rate:	-0.114	Roll:	-2.226	Pitch:	2.907	Yaw:	57.902	Thrust:	100.000
Time:	5.459	Roll Set Point:	0.044	Pitch Set Point:	-0.105	Yaw Set Point:	-0.708	X_WP:	0.100	Y_WP:	0.000	Y_WP:	0.500	X:	0.009	Y:	0.026	Z:	0.075	yaw:	40.547	yaw rate:	-1.710	Roll:	-2.009	Pitch:	2.814	Yaw:	58.397	Thrust:	100.000
Time:	5.473	Roll Set Point:	0.044	Pitch Set Point:	-0.105	Yaw Set Point:	-0.708	X_WP:	0.100	Y_WP:	0.000	Y_WP:	0.500	X:	0.009	Y:	0.026	Z:	0.075	yaw:	40.563	yaw rate:	0.533	Roll:	-2.246	Pitch:	3.069	Yaw:	58.427	Thrust:	100.000
Time:	5.490	Roll Set Point:	0.044	Pitch Set Point:	-0.105	Yaw Set Point:	-0.708	X_WP:	0.100	Y_WP:	0.000	Y_WP:	0.500	X:	0.009	Y:	0.026	Z:	0.075	yaw:	40.562	yaw rate:	-0.166	Roll:	-2.006	Pitch:	2.914	Yaw:	58.366	Thrust:	100.000
Time:	5.503	Roll Set Point:	0.044	Pitch Set Point:	-0.105	Yaw Set Point:	-0.708	X_WP:	0.100	Y_WP:	0.000	Y_WP:	0.500	X:	0.009	Y:	0.026	Z:	0.075	yaw:	40.560	yaw rate:	-1.538	Roll:	-2.099	Pitch:	2.850	Yaw:	57.896	Thrust:	100.000
