Time:	2.058	Roll Set Point:	-0.032	Pitch Set Point:	0.012	Yaw Set Point:	-0.101	X_WP:	0.000	Y_WP:	0.000	Y_WP:	0.500	X:	0.016	Y:	-0.005	Z:	0.049	yaw:	5.782	yaw rate:	-67.714	Roll:	0.457	Pitch:	-0.202	Yaw:	8.073	Thrust:	24.787
Time:	2.069	Roll Set Point:	-0.032	Pitch Set Point:	0.012	Yaw Set Point:	-0.104	X_WP:	0.000	Y_WP:	0.000	Y_WP:	0.500	X:	0.016	Y:	-0.005	Z:	0.049	yaw:	5.936	yaw rate:	15.397	Roll:	0.257	Pitch:	-0.307	Yaw:	11.957	Thrust:	25.541
Time:	2.080	Roll Set Point:	-0.032	Pitch Set Point:	0.012	Yaw Set Point:	-0.100	X_WP:	0.000	Y_WP:	0.000	Y_WP:	0.500	X:	0.016	Y:	-0.005	Z:	0.049	yaw:	5.713	yaw rate:	-22.346	Roll:	0.695	Pitch:	-0.023	Yaw:	2.714	Thrust:	25.481
Time:	2.091	Roll Set Point:	-0.032	Pitch Set Point:	0.012	Yaw Set Point:	-0.109	X_WP:	0.000	Y_WP:	0.000	Y_WP:	0.500	X:	0.016	Y:	-0.005	Z:	0.049	yaw:	6.223	yaw rate:	51.054	Roll:	0.224	Pitch:	-0.503	Yaw:	20.875	Thrust:	26.828
Time:	2.102	Roll Set Point:	-0.032	Pitch Set Point:	0.013	Yaw Set Point:	-0.103	X_WP:	0.000	Y_WP:	0.000	Y_WP:	0.500	X:	0.016	Y:	-0.006	Z:	0.050	yaw:	5.912	yaw rate:	-31.075	Roll:	0.274	Pitch:	-0.388	Yaw:	0.959	Thrust:	25.442
Time:	2.113	Roll Set Point:	-0.032	Pitch Set Point:	0.013	Yaw Set Point:	-0.112	X_WP:	0.000	Y_WP:	0.000	Y_WP:	0.500	X:	0.016	Y:	-0.006	Z:	0.049	yaw:	6.426	yaw rate:	51.394	Roll:	0.520	Pitch:	-0.549	Yaw:	21.288	Thrust:	29.424
Time:	2.125	Roll Set Point:	-0.032	Pitch Set Point:	0.013	Yaw Set Point:	-0.112	X_WP:	0.000	Y_WP:	0.000	Y_WP:	0.500	X:	0.016	Y:	-0.006	Z:	0.050	yaw:	6.446	yaw rate:	1.924	Roll:	0.504	Pitch:	-0.111	Yaw:	9.571	Thrust:	27.636
Time:	2.136	Roll Set Point:	-0.032	Pitch Set Point:	0.013	Yaw Set Point:	-0.111	X_WP:	0.000	Y_WP:	0.000	Y_WP:	0.500	X:	0.016	Y:	-0.006	Z:	0.050	yaw:	6.336	yaw rate:	-10.950	Roll:	0.419	Pitch:	-0.146	Yaw:	6.411	Thrust:	28.900
Time:	2.147	Roll Set Point:	-0.032	Pitch Set Point:	0.013	Yaw Set Point:	-0.112	X_WP:	0.000	Y_WP:	0.000	Y_WP:	0.500	X:	0.016	Y:	-0.005	Z:	0.050	yaw:	6.408	yaw rate:	7.214	Roll:	0.464	Pitch:	-0.117	Yaw:	10.848	Thrust:	29.130
Time:	2.158	Roll Set Point:	-0.032	Pitch Set Point:	0.013	Yaw Set Point:	-0.105	X_WP:	0.000	Y_WP:	0.000	Y_WP:	0.500	X:	0.016	Y:	-0.005	Z:	0.050	yaw:	6.028	yaw rate:	-38.056	Roll:	0.645	Pitch:	-0.093	Yaw:	-0.405	Thrust:	30.999
Time:	2.169	Roll Set Point:	-0.031	Pitch Set Point:	0.013	Yaw Set Point:	-0.113	X_WP:	0.000	Y_WP:	0.000	Y_WP:	0.500	X:	0.016	Y:	-0.005	Z:	0.049	yaw:	6.465	yaw rate:	43.707	Roll:	-0.027	Pitch:	-0.376	Yaw:	19.637	Thrust:	31.350
Time:	2.180	Roll Set Point:	-0.032	Pitch Set Point:	0.013	Yaw Set Point:	-0.104	X_WP:	0.000	Y_WP:	0.000	Y_WP:	0.500	X:	0.016	Y:	-0.006	Z:	0.050	yaw:	5.944	yaw rate:	-52.073	Roll:	0.581	Pitch:	-0.354	Yaw:	-3.800	Thrust:	30.672
Time:	2.191	Roll Set Point:	-0.032	Pitch Set Point:	0.013	Yaw Set Point:	-0.096	X_WP:	0.000	Y_WP:	0.000	Y_WP:	0.500	X:	0.016	Y:	-0.006	Z:	0.050	yaw:	5.520	yaw rate:	-42.422	Roll:	0.676	Pitch:	0.219	Yaw:	-2.079	Thrust:	32.022
Time:	2.202	Roll Set Point:	-0.032	Pitch Set Point:	0.013	Yaw Set Point:	-0.110	X_WP:	0.000	Y_WP:	0.000	Y_WP:	0.500	X:	0.016	Y:	-0.005	Z:	0.050	yaw:	6.318	yaw rate:	79.851	Roll:	0.461	Pitch:	-0.485	Yaw:	28.027	Thrust:	32.114
Time:	2.213	Roll Set Point:	-0.032	Pitch Set Point:	0.012	Yaw Set Point:	-0.106	X_WP:	0.000	Y_WP:	0.000	Y_WP:	0.500	X:	0.016	Y:	-0.005	Z:	0.049	yaw:	6.050	yaw rate:	-26.829	Roll:	0.486	Pitch:	0.056	Yaw:	2.408	Thrust:	34.186
Time:	2.224	Roll Set Point:	-0.032	Pitch Set Point:	0.013	Yaw Set Point:	-0.104	X_WP:	0.000	Y_WP:	0.000	Y_WP:	0.500	X:	0.016	Y:	-0.006	Z:	0.050	yaw:	5.979	yaw rate:	-7.058	Roll:	0.382	Pitch:	-0.502	Yaw:	7.022	Thrust:	32.913
Time:	2.235	Roll Set Point:	-0.032	Pitch Set Point:	0.013	Yaw Set Point:	-0.118	X_WP:	0.000	Y_WP:	0.000	Y_WP:	0.500	X:	0.016	Y:	-0.005	Z:	0.049	yaw:	6.765	yaw rate:	78.546	Roll:	0.752	Pitch:	-0.372	Yaw:	28.428	Thrust:	34.704
Time:	2.246	Roll Set Point:	-0.032	Pitch Set Point:	0.013	Yaw Set Point:	-0.111	X_WP:	0.000	Y_WP:	0.000	Y_WP:	0.500	X:	0.016	Y:	-0.006	Z:	0.050	yaw:	6.359	yaw rate:	-40.619	Roll:	0.186	Pitch:	-0.143	Yaw:	-0.384	Thrust:	34.483
Time:	2.257	Roll Set Point:	-0.032	Pitch Set Point:	0.013	Yaw Set Point:	-0.109	X_WP:	0.000	Y_WP:	0.000	Y_WP:	0.500	X:	0.016	Y:	-0.005	Z:	0.050	yaw:	6.273	yaw rate:	-8.574	Roll:	0.487	Pitch:	-0.027	Yaw:	7.155	Thrust:	35.238
Time:	2.268	Roll Set Point:	-0.032	Pitch Set Point:	0.013	Yaw Set Point:	-0.113	X_WP:	0.000	Y_WP:	0.000	Y_WP:	0.500	X:	0.016	Y:	-0.006	Z:	0.049	yaw:	6.498	yaw rate:	22.527	Roll:	0.557	Pitch:	-0.425	Yaw:	14.881	Thrust:	36.673
Time:	2.279	Roll Set Point:	-0.032	Pitch Set Point:	0.013	Yaw Set Point:	-0.107	X_WP:	0.000	Y_WP:	0.000	Y_WP:	0.500	X:	0.016	Y:	-0.005	Z:	0.050	yaw:	6.145	yaw rate:	-35.326	Roll:	0.495	Pitch:	-0.004	Yaw:	0.689	Thrust:	36.391
Time:	2.290	Roll Set Point:	-0.032	Pitch Set Point:	0.013	Yaw Set Point:	-0.112	X_WP:	0.000	Y_WP:	0.000	Y_WP:	0.500	X:	0.016	Y:	-0.006	Z:	0.050	yaw:	6.409	yaw rate:	26.413	Roll:	0.346	Pitch:	-0.450	Yaw:	15.729	Thrust:	36.878
Time:	2.301	Roll Set Point:	-0.032	Pitch Set Point:	0.013	Yaw Set Point:	-0.111	X_WP:	0.000	Y_WP:	0.000	Y_WP:	0.500	X:	0.016	Y:	-0.006	Z:	0.049	yaw:	6.383	yaw rate:	-2.565	Roll:	0.561	Pitch:	-0.221	Yaw:	8.828	Thrust:	39.176
Time:	2.312	Roll Set Point:	-0.032	Pitch Set Point:	0.012	Yaw Set Point:	-0.106	X_WP:	0.000	Y_WP:	0.000	Y_WP:	0.500	X:	0.016	Y:	-0.005	Z:	0.050	yaw:	6.049	yaw rate:	-33.467	Roll:	0.477	Pitch:	0.369	Yaw:	1.049	Thrust:	37.664
Time:	2.323	Roll Set Point:	-0.032	Pitch Set Point:	0.013	Yaw Set Point:	-0.117	X_WP:	0.000	Y_WP:	0.000	Y_WP:	0.500	X:	0.016	Y:	-0.005	Z:	0.049	yaw:	6.710	yaw rate:	66.133	Roll:	0.480	Pitch:	-0.837	Yaw:	25.637	Thrust:	39.488
Time:	2.334	Roll Set Point:	-0.032	Pitch Set Point:	0.013	Yaw Set Point:	-0.109	X_WP:	0.000	Y_WP:	0.000	Y_WP:	0.500	X:	0.016	Y:	-0.005	Z:	0.049	yaw:	6.251	yaw rate:	-45.936	Roll:	0.418	Pitch:	-0.004	Yaw:	-1.558	Thrust:	39.883
Time:	2.346	Roll Set Point:	-0.032	Pitch Set Point:	0.013	Yaw Set Point:	-0.111	X_WP:	0.000	Y_WP:	0.000	Y_WP:	0.500	X:	0.016	Y:	-0.006	Z:	0.049	yaw:	6.341	yaw rate:	9.049	Roll:	0.355	Pitch:	-0.341	Yaw:	11.503	Thrust:	41.594
Time:	2.357	Roll Set Point:	-0.032	Pitch Set Point:	0.013	Yaw Set Point:	-0.112	X_WP:	0.000	Y_WP:	0.000	Y_WP:	0.500	X:	0.016	Y:	-0.006	Z:	0.049	yaw:	6.428	yaw rate:	8.721	Roll:	0.505	Pitch:	-0.230	Yaw:	11.688	Thrust:	40.723
Time:	2.368	Roll Set Point:	-0.032	Pitch Set Point:	0.013	Yaw Set Point:	-0.115	X_WP:	0.000	Y_WP:	0.000	Y_WP:	0.500	X:	0.017	Y:	-0.005	Z:	0.050	yaw:	6.602	yaw rate:	17.400	Roll:	0.902	Pitch:	-0.085	Yaw:	14.019	Thrust:	41.116
Time:	2.379	Roll Set Point:	-0.032	Pitch Set Point:	0.013	Yaw Set Point:	-0.110	X_WP:	0.000	Y_WP:	0.000	Y_WP:	0.500	X:	0.016	Y:	-0.005	Z:	0.050	yaw:	6.290	yaw rate:	-31.197	Roll:	0.071	Pitch:	-0.235	Yaw:	2.057	Thrust:	41.522
Time:	2.390	Roll Set Point:	-0.032	Pitch Set Point:	0.012	Yaw Set Point:	-0.109	X_WP:	0.000	Y_WP:	0.000	Y_WP:	0.500	X:	0.016	Y:	-0.005	Z:	0.049	yaw:	6.221	yaw rate:	-6.962	Roll:	0.643	Pitch:	0.119	Yaw:	7.753	Thrust:	43.479
Time:	2.402	Roll Set Point:	-0.032	Pitch Set Point:	0.013	Yaw Set Point:	-0.113	X_WP:	0.000	Y_WP:	0.000	Y_WP:	0.500	X:	0.016	Y:	-0.005	Z:	0.050	yaw:	6.469	yaw rate:	24.803	Roll:	0.390	Pitch:	-0.557	Yaw:	15.653	Thrust:	43.066
Time:	2.413	Roll Set Point:	-0.032	Pitch Set Point:	0.013	Yaw Set Point:	-0.107	X_WP:	0.000	Y_WP:	0.000	Y_WP:	0.500	X:	0.016	Y:	-0.005	Z:	0.050	yaw:	6.109	yaw rate:	-35.989	Roll:	0.725	Pitch:	-0.089	Yaw:	0.737	Thrust:	43.886
Time:	2.424	Roll Set Point:	-0.032	Pitch Set Point:	0.012	Yaw Set Point:	-0.110	X_WP:	0.000	Y_WP:	0.000	Y_WP:	0.500	X:	0.016	Y:	-0.005	Z:	0.050	yaw:	6.316	yaw rate:	20.729	Roll:	0.311	Pitch:	-0.127	Yaw:	14.532	Thrust:	44.027
Time:	2.435	Roll Set Point:	-0.032	Pitch Set Point:	0.013	Yaw Set Point:	-0.110	X_WP:	0.000	Y_WP:	0.000	Y_WP:	0.500	X:	0.016	Y:	-0.006	Z:	0.049	yaw:	6.310	yaw rate:	-0.677	Roll:	0.460	Pitch:	-0.529	Yaw:	9.466	Thrust:	45.943
Time:	2.446	Roll Set Point:	-0.032	Pitch Set Point:	0.013	Yaw Set Point:	-0.105	X_WP:	0.000	Y_WP:	0.000	Y_WP:	0.500	X:	0.016	Y:	-0.006	Z:	0.050	yaw:	6.020	yaw rate:	-28.946	Roll:	0.296	Pitch:	-0.161	Yaw:	2.376	Thrust:	45.206
Time:	2.457	Roll Set Point:	-0.032	Pitch Set Point:	0.013	Yaw Set Point:	-0.103	X_WP:	0.000	Y_WP:	0.000	Y_WP:	0.500	X:	0.016	Y:	-0.005	Z:	0.050	yaw:	5.912	yaw rate:	-10.780	Roll:	0.759	Pitch:	-0.033	Yaw:	6.560	Thrust:	45.493
Time:	2.468	Roll Set Point:	-0.032	Pitch Set Point:	0.012	Yaw Set Point:	-0.114	X_WP:	0.000	Y_WP:	0.000	Y_WP:	0.500	X:	0.016	Y:	-0.005	Z:	0.049	yaw:	6.552	yaw rate:	76.276	Roll:	0.470	Pitch:	-0.286	Yaw:	24.308	Thrust:	49.437
Time:	2.479	Roll Set Point:	-0.032	Pitch Set Point:	0.012	Yaw Set Point:	-0.114	X_WP:	0.000	Y_WP:	0.000	Y_WP:	0.500	X:	0.016	Y:	-0.005	Z:	0.049	yaw:	6.552	yaw rate:	76.276	Roll:	0.487	Pitch:	-0.223	Yaw:	10.061	Thrust:	47.438
Time:	2.491	Roll Set Point:	-0.032	Pitch Set Point:	0.013	Yaw Set Point:	-0.113	X_WP:	0.000	Y_WP:	0.000	Y_WP:	0.500	X:	0.016	Y:	-0.005	Z:	0.050	yaw:	6.486	yaw rate:	-6.629	Roll:	0.356	Pitch:	-0.437	Yaw:	8.420	Thrust:	47.154
Time:	2.502	Roll Set Point:	-0.032	Pitch Set Point:	0.013	Yaw Set Point:	-0.110	X_WP:	0.000	Y_WP:	0.000	Y_WP:	0.500	X:	0.016	Y:	-0.005	Z:	0.050	yaw:	6.297	yaw rate:	-18.888	Roll:	0.565	Pitch:	-0.021	Yaw:	5.271	Thrust:	48.702
Time:	2.513	Roll Set Point:	-0.032	Pitch Set Point:	0.013	Yaw Set Point:	-0.104	X_WP:	0.000	Y_WP:	0.000	Y_WP:	0.500	X:	0.016	Y:	-0.006	Z:	0.050	yaw:	5.987	yaw rate:	-31.023	Roll:	0.280	Pitch:	-0.268	Yaw:	1.982	Thrust:	49.375
Time:	2.524	Roll Set Point:	-0.032	Pitch Set Point:	0.013	Yaw Set Point:	-0.102	X_WP:	0.000	Y_WP:	0.000	Y_WP:	0.500	X:	0.016	Y:	-0.006	Z:	0.050	yaw:	5.838	yaw rate:	-14.853	Roll:	0.642	Pitch:	-0.155	Yaw:	5.636	Thrust:	49.415
Time:	2.535	Roll Set Point:	-0.032	Pitch Set Point:	0.013	Yaw Set Point:	-0.103	X_WP:	0.000	Y_WP:	0.000	Y_WP:	0.500	X:	0.016	Y:	-0.006	Z:	0.050	yaw:	5.875	yaw rate:	3.706	Roll:	0.587	Pitch:	-0.208	Yaw:	10.115	Thrust:	50.193
Time:	2.546	Roll Set Point:	-0.032	Pitch Set Point:	0.013	Yaw Set Point:	-0.104	X_WP:	0.000	Y_WP:	0.000	Y_WP:	0.500	X:	0.016	Y:	-0.005	Z:	0.050	yaw:	5.985	yaw rate:	11.021	Roll:	0.537	Pitch:	-0.199	Yaw:	12.031	Thrust:	50.893
Time:	2.557	Roll Set Point:	-0.032	Pitch Set Point:	0.012	Yaw Set Point:	-0.109	X_WP:	0.000	Y_WP:	0.000	Y_WP:	0.500	X:	0.016	Y:	-0.005	Z:	0.050	yaw:	6.231	yaw rate:	24.526	Roll:	0.450	Pitch:	-0.216	Yaw:	15.599	Thrust:	52.112
Time:	2.568	Roll Set Point:	-0.032	Pitch Set Point:	0.013	Yaw Set Point:	-0.103	X_WP:	0.000	Y_WP:	0.000	Y_WP:	0.500	X:	0.016	Y:	-0.005	Z:	0.050	yaw:	5.916	yaw rate:	-31.464	Roll:	0.522	Pitch:	-0.263	Yaw:	1.893	Thrust:	51.825
Time:	2.579	Roll Set Point:	-0.032	Pitch Set Point:	0.012	Yaw Set Point:	-0.110	X_WP:	0.000	Y_WP:	0.000	Y_WP:	0.500	X:	0.016	Y:	-0.005	Z:	0.050	yaw:	6.284	yaw rate:	36.771	Roll:	0.554	Pitch:	-0.188	Yaw:	18.605	Thrust:	52.966
Time:	2.590	Roll Set Point:	-0.032	Pitch Set Point:	0.013	Yaw Set Point:	-0.109	X_WP:	0.000	Y_WP:	0.000	Y_WP:	0.500	X:	0.016	Y:	-0.005	Z:	0.050	yaw:	6.263	yaw rate:	-2.065	Roll:	0.364	Pitch:	-0.264	Yaw:	9.358	Thrust:	54.028
Time:	2.601	Roll Set Point:	-0.032	Pitch Set Point:	0.012	Yaw Set Point:	-0.114	X_WP:	0.000	Y_WP:	0.000	Y_WP:	0.500	X:	0.016	Y:	-0.005	Z:	0.050	yaw:	6.523	yaw rate:	26.020	Roll:	0.550	Pitch:	-0.249	Yaw:	16.387	Thrust:	53.597
Time:	2.612	Roll Set Point:	-0.032	Pitch Set Point:	0.012	Yaw Set Point:	-0.114	X_WP:	0.000	Y_WP:	0.000	Y_WP:	0.500	X:	0.016	Y:	-0.005	Z:	0.050	yaw:	6.538	yaw rate:	1.511	Roll:	0.227	Pitch:	-0.191	Yaw:	10.591	Thrust:	54.406
Time:	2.623	Roll Set Point:	-0.032	Pitch Set Point:	0.013	Yaw Set Point:	-0.101	X_WP:	0.000	Y_WP:	0.000	Y_WP:	0.500	X:	0.016	Y:	-0.006	Z:	0.050	yaw:	5.797	yaw rate:	-74.195	Roll:	0.642	Pitch:	-0.331	Yaw:	-8.414	Thrust:	55.738
Time:	2.634	Roll Set Point:	-0.032	Pitch Set Point:	0.012	Yaw Set Point:	-0.106	X_WP:	0.000	Y_WP:	0.000	Y_WP:	0.500	X:	0.016	Y:	-0.005	Z:	0.050	yaw:	6.092	yaw rate:	29.562	Roll:	0.528	Pitch:	0.054	Yaw:	16.616	Thrust:	55.526
Time:	2.645	Roll Set Point:	-0.032	Pitch Set Point:	0.013	Yaw Set Point:	-0.110	X_WP:	0.000	Y_WP:	0.000	Y_WP:	0.500	X:	0.016	Y:	-0.005	Z:	0.050	yaw:	6.311	yaw rate:	50.110	Roll:	0.641	Pitch:	-0.510	Yaw:	14.973	Thrust:	57.397
Time:	2.656	Roll Set Point:	-0.032	Pitch Set Point:	0.013	Yaw Set Point:	-0.111	X_WP:	0.000	Y_WP:	0.000	Y_WP:	0.500	X:	0.016	Y:	-0.005	Z:	0.050	yaw:	6.334	yaw rate:	2.240	Roll:	0.356	Pitch:	-0.142	Yaw:	10.477	Thrust:	56.135
Time:	2.667	Roll Set Point:	-0.032	Pitch Set Point:	0.012	Yaw Set Point:	-0.110	X_WP:	0.000	Y_WP:	0.000	Y_WP:	0.500	X:	0.016	Y:	-0.005	Z:	0.050	yaw:	6.330	yaw rate:	-0.389	Roll:	0.513	Pitch:	-0.118	Yaw:	9.850	Thrust:	57.294
Time:	2.678	Roll Set Point:	-0.032	Pitch Set Point:	0.012	Yaw Set Point:	-0.110	X_WP:	0.000	Y_WP:	0.000	Y_WP:	0.500	X:	0.016	Y:	-0.005	Z:	0.050	yaw:	6.330	yaw rate:	-0.389	Roll:	0.501	Pitch:	-0.228	Yaw:	9.941	Thrust:	58.150
Time:	2.689	Roll Set Point:	-0.032	Pitch Set Point:	0.012	Yaw Set Point:	-0.107	X_WP:	0.000	Y_WP:	0.000	Y_WP:	0.500	X:	0.017	Y:	-0.005	Z:	0.050	yaw:	6.119	yaw rate:	-21.081	Roll:	0.980	Pitch:	0.185	Yaw:	4.645	Thrust:	59.768
Time:	2.700	Roll Set Point:	-0.032	Pitch Set Point:	0.013	Yaw Set Point:	-0.108	X_WP:	0.000	Y_WP:	0.000	Y_WP:	0.500	X:	0.016	Y:	-0.005	Z:	0.050	yaw:	6.189	yaw rate:	6.986	Roll:	0.281	Pitch:	-0.762	Yaw:	11.402	Thrust:	58.926
Time:	2.712	Roll Set Point:	-0.032	Pitch Set Point:	0.012	Yaw Set Point:	-0.114	X_WP:	0.000	Y_WP:	0.000	Y_WP:	0.500	X:	0.016	Y:	-0.005	Z:	0.050	yaw:	6.530	yaw rate:	34.076	Roll:	0.507	Pitch:	-0.130	Yaw:	18.310	Thrust:	59.097
Time:	2.723	Roll Set Point:	-0.032	Pitch Set Point:	0.013	Yaw Set Point:	-0.106	X_WP:	0.000	Y_WP:	0.000	Y_WP:	0.500	X:	0.016	Y:	-0.006	Z:	0.050	yaw:	6.053	yaw rate:	-47.638	Roll:	0.186	Pitch:	-0.389	Yaw:	-1.773	Thrust:	59.926
Time:	2.734	Roll Set Point:	-0.032	Pitch Set Point:	0.012	Yaw Set Point:	-0.111	X_WP:	0.000	Y_WP:	0.000	Y_WP:	0.500	X:	0.016	Y:	-0.005	Z:	0.050	yaw:	6.335	yaw rate:	11.709	Roll:	0.459	Pitch:	-0.045	Yaw:	16.415	Thrust:	61.676
Time:	2.745	Roll Set Point:	-0.032	Pitch Set Point:	0.012	Yaw Set Point:	-0.111	X_WP:	0.000	Y_WP:	0.000	Y_WP:	0.500	X:	0.016	Y:	-0.005	Z:	0.050	yaw:	6.335	yaw rate:	11.709	Roll:	0.504	Pitch:	-0.230	Yaw:	9.946	Thrust:	61.630
Time:	2.756	Roll Set Point:	-0.032	Pitch Set Point:	0.013	Yaw Set Point:	-0.107	X_WP:	0.000	Y_WP:	0.000	Y_WP:	0.500	X:	0.016	Y:	-0.005	Z:	0.051	yaw:	6.104	yaw rate:	-23.075	Roll:	0.703	Pitch:	-0.308	Yaw:	4.148	Thrust:	60.831
Time:	2.767	Roll Set Point:	-0.032	Pitch Set Point:	0.013	Yaw Set Point:	-0.110	X_WP:	0.000	Y_WP:	0.000	Y_WP:	0.500	X:	0.016	Y:	-0.005	Z:	0.051	yaw:	6.326	yaw rate:	22.240	Roll:	0.429	Pitch:	-0.300	Yaw:	15.208	Thrust:	60.783
Time:	2.778	Roll Set Point:	-0.032	Pitch Set Point:	0.013	Yaw Set Point:	-0.120	X_WP:	0.000	Y_WP:	0.000	Y_WP:	0.500	X:	0.016	Y:	-0.006	Z:	0.051	yaw:	6.902	yaw rate:	57.594	Roll:	0.255	Pitch:	-0.772	Yaw:	24.433	Thrust:	62.043
Time:	2.789	Roll Set Point:	-0.032	Pitch Set Point:	0.013	Yaw Set Point:	-0.115	X_WP:	0.000	Y_WP:	0.000	Y_WP:	0.500	X:	0.016	Y:	-0.006	Z:	0.052	yaw:	6.593	yaw rate:	-30.885	Roll:	0.509	Pitch:	-0.143	Yaw:	2.996	Thrust:	61.536
Time:	2.800	Roll Set Point:	-0.031	Pitch Set Point:	0.013	Yaw Set Point:	-0.114	X_WP:	0.000	Y_WP:	0.000	Y_WP:	0.500	X:	0.016	Y:	-0.006	Z:	0.052	yaw:	6.550	yaw rate:	-4.355	Roll:	0.387	Pitch:	-0.057	Yaw:	9.215	Thrust:	63.275
Time:	2.811	Roll Set Point:	-0.032	Pitch Set Point:	0.013	Yaw Set Point:	-0.115	X_WP:	0.000	Y_WP:	0.000	Y_WP:	0.500	X:	0.016	Y:	-0.006	Z:	0.053	yaw:	6.590	yaw rate:	4.052	Roll:	0.679	Pitch:	-0.530	Yaw:	11.266	Thrust:	62.712
Time:	2.822	Roll Set Point:	-0.031	Pitch Set Point:	0.014	Yaw Set Point:	-0.108	X_WP:	0.000	Y_WP:	0.000	Y_WP:	0.500	X:	0.016	Y:	-0.006	Z:	0.054	yaw:	6.167	yaw rate:	-42.368	Roll:	0.256	Pitch:	-0.810	Yaw:	-0.345	Thrust:	60.207
Time:	2.833	Roll Set Point:	-0.031	Pitch Set Point:	0.014	Yaw Set Point:	-0.107	X_WP:	0.000	Y_WP:	0.000	Y_WP:	0.500	X:	0.016	Y:	-0.006	Z:	0.055	yaw:	6.125	yaw rate:	-4.194	Roll:	0.377	Pitch:	-0.480	Yaw:	8.659	Thrust:	62.900
Time:	2.844	Roll Set Point:	-0.031	Pitch Set Point:	0.014	Yaw Set Point:	-0.109	X_WP:	0.000	Y_WP:	0.000	Y_WP:	0.500	X:	0.016	Y:	-0.006	Z:	0.056	yaw:	6.234	yaw rate:	10.965	Roll:	0.294	Pitch:	-0.222	Yaw:	12.411	Thrust:	64.135
Time:	2.855	Roll Set Point:	-0.031	Pitch Set Point:	0.015	Yaw Set Point:	-0.104	X_WP:	0.000	Y_WP:	0.000	Y_WP:	0.500	X:	0.016	Y:	-0.007	Z:	0.057	yaw:	5.979	yaw rate:	-25.552	Roll:	0.233	Pitch:	-0.989	Yaw:	3.383	Thrust:	63.615
Time:	2.866	Roll Set Point:	-0.030	Pitch Set Point:	0.016	Yaw Set Point:	-0.104	X_WP:	0.000	Y_WP:	0.000	Y_WP:	0.500	X:	0.016	Y:	-0.007	Z:	0.058	yaw:	5.972	yaw rate:	-0.677	Roll:	0.139	Pitch:	-0.816	Yaw:	9.278	Thrust:	63.283
Time:	2.877	Roll Set Point:	-0.030	Pitch Set Point:	0.017	Yaw Set Point:	-0.117	X_WP:	0.000	Y_WP:	0.000	Y_WP:	0.500	X:	0.015	Y:	-0.008	Z:	0.059	yaw:	6.690	yaw rate:	71.828	Roll:	0.164	Pitch:	-1.091	Yaw:	27.495	Thrust:	62.897
Time:	2.888	Roll Set Point:	-0.030	Pitch Set Point:	0.018	Yaw Set Point:	-0.114	X_WP:	0.000	Y_WP:	0.000	Y_WP:	0.500	X:	0.016	Y:	-0.008	Z:	0.060	yaw:	6.553	yaw rate:	-13.769	Roll:	0.486	Pitch:	-0.854	Yaw:	6.993	Thrust:	65.024
Time:	2.899	Roll Set Point:	-0.030	Pitch Set Point:	0.018	Yaw Set Point:	-0.118	X_WP:	0.000	Y_WP:	0.000	Y_WP:	0.500	X:	0.016	Y:	-0.008	Z:	0.061	yaw:	6.749	yaw rate:	19.626	Roll:	0.355	Pitch:	-1.045	Yaw:	15.192	Thrust:	64.385
Time:	2.910	Roll Set Point:	-0.029	Pitch Set Point:	0.019	Yaw Set Point:	-0.113	X_WP:	0.000	Y_WP:	0.000	Y_WP:	0.500	X:	0.015	Y:	-0.009	Z:	0.062	yaw:	6.453	yaw rate:	-29.581	Roll:	-0.200	Pitch:	-1.003	Yaw:	3.092	Thrust:	65.810
Time:	2.922	Roll Set Point:	-0.029	Pitch Set Point:	0.021	Yaw Set Point:	-0.113	X_WP:	0.000	Y_WP:	0.000	Y_WP:	0.500	X:	0.015	Y:	-0.010	Z:	0.064	yaw:	6.457	yaw rate:	0.436	Roll:	0.177	Pitch:	-1.655	Yaw:	10.225	Thrust:	63.263
Time:	2.933	Roll Set Point:	-0.028	Pitch Set Point:	0.023	Yaw Set Point:	-0.110	X_WP:	0.000	Y_WP:	0.000	Y_WP:	0.500	X:	0.015	Y:	-0.010	Z:	0.065	yaw:	6.311	yaw rate:	-14.620	Roll:	0.041	Pitch:	-1.368	Yaw:	6.436	Thrust:	65.788
Time:	2.944	Roll Set Point:	-0.028	Pitch Set Point:	0.024	Yaw Set Point:	-0.114	X_WP:	0.000	Y_WP:	0.000	Y_WP:	0.500	X:	0.015	Y:	-0.011	Z:	0.067	yaw:	6.509	yaw rate:	19.826	Roll:	0.114	Pitch:	-1.381	Yaw:	14.898	Thrust:	65.082
Time:	2.955	Roll Set Point:	-0.028	Pitch Set Point:	0.025	Yaw Set Point:	-0.104	X_WP:	0.000	Y_WP:	0.000	Y_WP:	0.500	X:	0.014	Y:	-0.012	Z:	0.068	yaw:	5.936	yaw rate:	-57.323	Roll:	0.220	Pitch:	-1.395	Yaw:	-4.185	Thrust:	67.571
Time:	2.966	Roll Set Point:	-0.027	Pitch Set Point:	0.027	Yaw Set Point:	-0.115	X_WP:	0.000	Y_WP:	0.000	Y_WP:	0.500	X:	0.014	Y:	-0.013	Z:	0.069	yaw:	6.584	yaw rate:	64.753	Roll:	-0.150	Pitch:	-1.986	Yaw:	25.695	Thrust:	66.914
Time:	2.977	Roll Set Point:	-0.027	Pitch Set Point:	0.029	Yaw Set Point:	-0.119	X_WP:	0.000	Y_WP:	0.000	Y_WP:	0.500	X:	0.014	Y:	-0.014	Z:	0.071	yaw:	6.793	yaw rate:	20.973	Roll:	-0.004	Pitch:	-1.967	Yaw:	15.567	Thrust:	66.027
Time:	2.988	Roll Set Point:	-0.026	Pitch Set Point:	0.031	Yaw Set Point:	-0.120	X_WP:	0.000	Y_WP:	0.000	Y_WP:	0.500	X:	0.014	Y:	-0.015	Z:	0.073	yaw:	6.877	yaw rate:	8.348	Roll:	-0.162	Pitch:	-2.277	Yaw:	12.687	Thrust:	63.782
Time:	2.999	Roll Set Point:	-0.025	Pitch Set Point:	0.035	Yaw Set Point:	-0.116	X_WP:	0.000	Y_WP:	0.000	Y_WP:	0.500	X:	0.014	Y:	-0.017	Z:	0.077	yaw:	6.643	yaw rate:	11.105	Roll:	-0.524	Pitch:	-3.558	Yaw:	5.174	Thrust:	62.488
Time:	3.012	Roll Set Point:	-0.024	Pitch Set Point:	0.038	Yaw Set Point:	-0.113	X_WP:	0.000	Y_WP:	0.000	Y_WP:	0.500	X:	0.013	Y:	-0.018	Z:	0.078	yaw:	6.467	yaw rate:	-17.645	Roll:	-0.141	Pitch:	-1.992	Yaw:	6.789	Thrust:	77.795
Time:	3.025	Roll Set Point:	-0.024	Pitch Set Point:	0.040	Yaw Set Point:	-0.108	X_WP:	0.000	Y_WP:	0.000	Y_WP:	0.500	X:	0.013	Y:	-0.019	Z:	0.080	yaw:	6.212	yaw rate:	-25.438	Roll:	0.058	Pitch:	-1.902	Yaw:	4.879	Thrust:	78.268
Time:	3.036	Roll Set Point:	-0.023	Pitch Set Point:	0.043	Yaw Set Point:	-0.119	X_WP:	0.000	Y_WP:	0.000	Y_WP:	0.500	X:	0.013	Y:	-0.021	Z:	0.083	yaw:	6.829	yaw rate:	61.710	Roll:	-0.852	Pitch:	-3.388	Yaw:	25.315	Thrust:	61.716
Time:	3.047	Roll Set Point:	-0.022	Pitch Set Point:	0.045	Yaw Set Point:	-0.121	X_WP:	0.000	Y_WP:	0.000	Y_WP:	0.500	X:	0.012	Y:	-0.022	Z:	0.085	yaw:	6.946	yaw rate:	11.663	Roll:	-0.208	Pitch:	-2.184	Yaw:	13.570	Thrust:	67.387
Time:	3.059	Roll Set Point:	-0.022	Pitch Set Point:	0.048	Yaw Set Point:	-0.110	X_WP:	0.000	Y_WP:	0.000	Y_WP:	0.500	X:	0.012	Y:	-0.023	Z:	0.087	yaw:	6.323	yaw rate:	-62.291	Roll:	0.062	Pitch:	-2.669	Yaw:	-3.522	Thrust:	73.249
Time:	3.070	Roll Set Point:	-0.021	Pitch Set Point:	0.050	Yaw Set Point:	-0.117	X_WP:	0.000	Y_WP:	0.000	Y_WP:	0.500	X:	0.012	Y:	-0.024	Z:	0.090	yaw:	6.711	yaw rate:	38.766	Roll:	-0.481	Pitch:	-2.353	Yaw:	19.674	Thrust:	66.892
Time:	3.082	Roll Set Point:	-0.020	Pitch Set Point:	0.052	Yaw Set Point:	-0.123	X_WP:	0.000	Y_WP:	0.000	Y_WP:	0.500	X:	0.012	Y:	-0.026	Z:	0.092	yaw:	7.038	yaw rate:	32.746	Roll:	-0.526	Pitch:	-2.700	Yaw:	18.691	Thrust:	67.094
Time:	3.093	Roll Set Point:	-0.019	Pitch Set Point:	0.056	Yaw Set Point:	-0.122	X_WP:	0.000	Y_WP:	0.000	Y_WP:	0.500	X:	0.011	Y:	-0.027	Z:	0.096	yaw:	7.002	yaw rate:	-3.619	Roll:	-0.811	Pitch:	-3.664	Yaw:	10.020	Thrust:	61.177
Time:	3.104	Roll Set Point:	-0.018	Pitch Set Point:	0.058	Yaw Set Point:	-0.121	X_WP:	0.000	Y_WP:	0.000	Y_WP:	0.500	X:	0.011	Y:	-0.029	Z:	0.098	yaw:	6.908	yaw rate:	-9.401	Roll:	-0.562	Pitch:	-2.689	Yaw:	8.511	Thrust:	67.075
Time:	3.115	Roll Set Point:	-0.017	Pitch Set Point:	0.061	Yaw Set Point:	-0.119	X_WP:	0.000	Y_WP:	0.000	Y_WP:	0.500	X:	0.010	Y:	-0.030	Z:	0.101	yaw:	6.816	yaw rate:	-9.236	Roll:	-0.500	Pitch:	-3.041	Yaw:	8.427	Thrust:	66.911
Time:	3.126	Roll Set Point:	-0.016	Pitch Set Point:	0.064	Yaw Set Point:	-0.122	X_WP:	0.000	Y_WP:	0.000	Y_WP:	0.500	X:	0.010	Y:	-0.031	Z:	0.104	yaw:	6.990	yaw rate:	17.466	Roll:	-0.638	Pitch:	-2.840	Yaw:	15.009	Thrust:	66.441
Time:	3.137	Roll Set Point:	-0.015	Pitch Set Point:	0.066	Yaw Set Point:	-0.122	X_WP:	0.000	Y_WP:	0.000	Y_WP:	0.500	X:	0.009	Y:	-0.033	Z:	0.106	yaw:	6.969	yaw rate:	-2.121	Roll:	-0.873	Pitch:	-2.940	Yaw:	10.330	Thrust:	67.869
Time:	3.148	Roll Set Point:	-0.013	Pitch Set Point:	0.070	Yaw Set Point:	-0.119	X_WP:	0.000	Y_WP:	0.000	Y_WP:	0.500	X:	0.009	Y:	-0.035	Z:	0.111	yaw:	6.814	yaw rate:	-15.484	Roll:	-1.040	Pitch:	-3.958	Yaw:	6.942	Thrust:	59.989
Time:	3.159	Roll Set Point:	-0.012	Pitch Set Point:	0.073	Yaw Set Point:	-0.120	X_WP:	0.000	Y_WP:	0.000	Y_WP:	0.500	X:	0.008	Y:	-0.036	Z:	0.114	yaw:	6.857	yaw rate:	4.269	Roll:	-0.898	Pitch:	-3.184	Yaw:	11.691	Thrust:	66.377
Time:	3.170	Roll Set Point:	-0.011	Pitch Set Point:	0.075	Yaw Set Point:	-0.117	X_WP:	0.000	Y_WP:	0.000	Y_WP:	0.500	X:	0.008	Y:	-0.037	Z:	0.117	yaw:	6.693	yaw rate:	-16.353	Roll:	-0.530	Pitch:	-2.924	Yaw:	6.555	Thrust:	66.880
Time:	3.181	Roll Set Point:	-0.010	Pitch Set Point:	0.078	Yaw Set Point:	-0.109	X_WP:	0.000	Y_WP:	0.000	Y_WP:	0.500	X:	0.007	Y:	-0.039	Z:	0.120	yaw:	6.235	yaw rate:	-45.885	Roll:	-0.383	Pitch:	-3.298	Yaw:	-1.059	Thrust:	67.396
Time:	3.192	Roll Set Point:	-0.008	Pitch Set Point:	0.082	Yaw Set Point:	-0.112	X_WP:	0.000	Y_WP:	0.000	Y_WP:	0.500	X:	0.006	Y:	-0.041	Z:	0.125	yaw:	6.401	yaw rate:	16.675	Roll:	-1.772	Pitch:	-4.241	Yaw:	14.005	Thrust:	60.902
Time:	3.203	Roll Set Point:	-0.007	Pitch Set Point:	0.084	Yaw Set Point:	-0.110	X_WP:	0.000	Y_WP:	0.000	Y_WP:	0.500	X:	0.006	Y:	-0.042	Z:	0.128	yaw:	6.327	yaw rate:	-7.397	Roll:	-0.783	Pitch:	-3.013	Yaw:	8.182	Thrust:	67.455
Time:	3.214	Roll Set Point:	-0.006	Pitch Set Point:	0.087	Yaw Set Point:	-0.102	X_WP:	0.000	Y_WP:	0.000	Y_WP:	0.500	X:	0.005	Y:	-0.043	Z:	0.131	yaw:	5.862	yaw rate:	-46.542	Roll:	-0.511	Pitch:	-3.515	Yaw:	-1.760	Thrust:	67.488
Time:	3.225	Roll Set Point:	-0.005	Pitch Set Point:	0.089	Yaw Set Point:	-0.100	X_WP:	0.000	Y_WP:	0.000	Y_WP:	0.500	X:	0.005	Y:	-0.045	Z:	0.135	yaw:	5.714	yaw rate:	-14.828	Roll:	-0.716	Pitch:	-3.063	Yaw:	5.561	Thrust:	67.965
Time:	3.236	Roll Set Point:	-0.003	Pitch Set Point:	0.093	Yaw Set Point:	-0.102	X_WP:	0.000	Y_WP:	0.000	Y_WP:	0.500	X:	0.004	Y:	-0.046	Z:	0.140	yaw:	5.836	yaw rate:	12.198	Roll:	-1.678	Pitch:	-4.053	Yaw:	12.143	Thrust:	61.082
Time:	3.247	Roll Set Point:	-0.001	Pitch Set Point:	0.095	Yaw Set Point:	-0.103	X_WP:	0.000	Y_WP:	0.000	Y_WP:	0.500	X:	0.003	Y:	-0.048	Z:	0.143	yaw:	5.877	yaw rate:	4.137	Roll:	-1.250	Pitch:	-3.187	Yaw:	10.291	Thrust:	69.152
Time:	3.258	Roll Set Point:	-0.000	Pitch Set Point:	0.098	Yaw Set Point:	-0.095	X_WP:	0.000	Y_WP:	0.000	Y_WP:	0.500	X:	0.002	Y:	-0.049	Z:	0.146	yaw:	5.421	yaw rate:	-45.568	Roll:	-0.626	Pitch:	-3.436	Yaw:	-2.147	Thrust:	68.480
Time:	3.269	Roll Set Point:	0.001	Pitch Set Point:	0.100	Yaw Set Point:	-0.094	X_WP:	0.000	Y_WP:	0.000	Y_WP:	0.500	X:	0.002	Y:	-0.050	Z:	0.149	yaw:	5.413	yaw rate:	-0.834	Roll:	-0.785	Pitch:	-2.905	Yaw:	8.463	Thrust:	68.573
Time:	3.282	Roll Set Point:	0.002	Pitch Set Point:	0.102	Yaw Set Point:	-0.088	X_WP:	0.000	Y_WP:	0.000	Y_WP:	0.500	X:	0.001	Y:	-0.051	Z:	0.153	yaw:	5.047	yaw rate:	-36.580	Roll:	-0.614	Pitch:	-3.204	Yaw:	1.004	Thrust:	82.171
Time:	3.293	Roll Set Point:	0.003	Pitch Set Point:	0.104	Yaw Set Point:	-0.083	X_WP:	0.000	Y_WP:	0.000	Y_WP:	0.500	X:	0.001	Y:	-0.052	Z:	0.156	yaw:	4.772	yaw rate:	-27.507	Roll:	-0.707	Pitch:	-3.207	Yaw:	1.221	Thrust:	68.911
Time:	3.304	Roll Set Point:	0.005	Pitch Set Point:	0.107	Yaw Set Point:	-0.083	X_WP:	0.000	Y_WP:	0.000	Y_WP:	0.500	X:	-0.000	Y:	-0.054	Z:	0.161	yaw:	4.738	yaw rate:	-3.377	Roll:	-1.546	Pitch:	-3.973	Yaw:	6.917	Thrust:	62.674
Time:	3.315	Roll Set Point:	0.006	Pitch Set Point:	0.109	Yaw Set Point:	-0.085	X_WP:	0.000	Y_WP:	0.000	Y_WP:	0.500	X:	-0.001	Y:	-0.055	Z:	0.164	yaw:	4.860	yaw rate:	12.188	Roll:	-1.192	Pitch:	-2.781	Yaw:	10.778	Thrust:	69.162
Time:	3.326	Roll Set Point:	0.007	Pitch Set Point:	0.111	Yaw Set Point:	-0.081	X_WP:	0.000	Y_WP:	0.000	Y_WP:	0.500	X:	-0.001	Y:	-0.056	Z:	0.168	yaw:	4.651	yaw rate:	-20.883	Roll:	-0.879	Pitch:	-3.231	Yaw:	2.637	Thrust:	70.566
Time:	3.338	Roll Set Point:	0.008	Pitch Set Point:	0.113	Yaw Set Point:	-0.072	X_WP:	0.000	Y_WP:	0.000	Y_WP:	0.500	X:	-0.002	Y:	-0.057	Z:	0.171	yaw:	4.099	yaw rate:	-55.254	Roll:	-0.349	Pitch:	-3.331	Yaw:	-5.836	Thrust:	71.677
Time:	3.349	Roll Set Point:	0.009	Pitch Set Point:	0.115	Yaw Set Point:	-0.076	X_WP:	0.000	Y_WP:	0.000	Y_WP:	0.500	X:	-0.002	Y:	-0.058	Z:	0.175	yaw:	4.369	yaw rate:	26.966	Roll:	-1.387	Pitch:	-3.012	Yaw:	13.604	Thrust:	69.680
Time:	3.360	Roll Set Point:	0.011	Pitch Set Point:	0.117	Yaw Set Point:	-0.075	X_WP:	0.000	Y_WP:	0.000	Y_WP:	0.500	X:	-0.003	Y:	-0.059	Z:	0.180	yaw:	4.278	yaw rate:	-9.012	Roll:	-1.355	Pitch:	-3.305	Yaw:	4.938	Thrust:	61.298
Time:	3.371	Roll Set Point:	0.012	Pitch Set Point:	0.118	Yaw Set Point:	-0.073	X_WP:	0.000	Y_WP:	0.000	Y_WP:	0.500	X:	-0.004	Y:	-0.059	Z:	0.184	yaw:	4.195	yaw rate:	-8.334	Roll:	-0.993	Pitch:	-3.082	Yaw:	4.989	Thrust:	70.368
Time:	3.383	Roll Set Point:	0.013	Pitch Set Point:	0.120	Yaw Set Point:	-0.068	X_WP:	0.000	Y_WP:	0.000	Y_WP:	0.500	X:	-0.004	Y:	-0.060	Z:	0.187	yaw:	3.871	yaw rate:	-32.448	Roll:	-0.695	Pitch:	-2.862	Yaw:	-0.452	Thrust:	77.403
Time:	3.394	Roll Set Point:	0.014	Pitch Set Point:	0.121	Yaw Set Point:	-0.072	X_WP:	0.000	Y_WP:	0.000	Y_WP:	0.500	X:	-0.005	Y:	-0.061	Z:	0.191	yaw:	4.107	yaw rate:	23.600	Roll:	-1.287	Pitch:	-2.672	Yaw:	12.438	Thrust:	69.068
Time:	3.405	Roll Set Point:	0.016	Pitch Set Point:	0.123	Yaw Set Point:	-0.067	X_WP:	0.000	Y_WP:	0.000	Y_WP:	0.500	X:	-0.006	Y:	-0.062	Z:	0.197	yaw:	3.859	yaw rate:	-24.755	Roll:	-1.195	Pitch:	-3.251	Yaw:	0.751	Thrust:	62.632
Time:	3.416	Roll Set Point:	0.017	Pitch Set Point:	0.124	Yaw Set Point:	-0.066	X_WP:	0.000	Y_WP:	0.000	Y_WP:	0.500	X:	-0.006	Y:	-0.062	Z:	0.201	yaw:	3.768	yaw rate:	-9.078	Roll:	-0.961	Pitch:	-2.906	Yaw:	4.177	Thrust:	68.944
Time:	3.427	Roll Set Point:	0.018	Pitch Set Point:	0.126	Yaw Set Point:	-0.056	X_WP:	0.000	Y_WP:	0.000	Y_WP:	0.500	X:	-0.007	Y:	-0.063	Z:	0.204	yaw:	3.182	yaw rate:	-58.592	Roll:	-0.547	Pitch:	-3.271	Yaw:	-8.359	Thrust:	69.673
Time:	3.439	Roll Set Point:	0.019	Pitch Set Point:	0.126	Yaw Set Point:	-0.064	X_WP:	0.000	Y_WP:	0.000	Y_WP:	0.500	X:	-0.007	Y:	-0.063	Z:	0.209	yaw:	3.681	yaw rate:	49.836	Roll:	-1.496	Pitch:	-2.094	Yaw:	17.187	Thrust:	75.809
Time:	3.450	Roll Set Point:	0.020	Pitch Set Point:	0.127	Yaw Set Point:	-0.066	X_WP:	0.000	Y_WP:	0.000	Y_WP:	0.500	X:	-0.008	Y:	-0.064	Z:	0.213	yaw:	3.765	yaw rate:	8.420	Roll:	-1.093	Pitch:	-2.466	Yaw:	8.356	Thrust:	69.566
Time:	3.461	Roll Set Point:	0.020	Pitch Set Point:	0.128	Yaw Set Point:	-0.054	X_WP:	0.000	Y_WP:	0.000	Y_WP:	0.500	X:	-0.008	Y:	-0.064	Z:	0.217	yaw:	3.072	yaw rate:	-69.325	Roll:	-0.174	Pitch:	-3.164	Yaw:	-11.066	Thrust:	68.498
Time:	3.472	Roll Set Point:	0.021	Pitch Set Point:	0.129	Yaw Set Point:	-0.053	X_WP:	0.000	Y_WP:	0.000	Y_WP:	0.500	X:	-0.009	Y:	-0.065	Z:	0.223	yaw:	3.056	yaw rate:	-1.581	Roll:	-1.204	Pitch:	-2.647	Yaw:	4.991	Thrust:	60.319
Time:	3.483	Roll Set Point:	0.022	Pitch Set Point:	0.130	Yaw Set Point:	-0.046	X_WP:	0.000	Y_WP:	0.000	Y_WP:	0.500	X:	-0.009	Y:	-0.065	Z:	0.227	yaw:	2.626	yaw rate:	-43.000	Roll:	-0.225	Pitch:	-2.793	Yaw:	-5.438	Thrust:	68.697
Time:	3.494	Roll Set Point:	0.023	Pitch Set Point:	0.130	Yaw Set Point:	-0.055	X_WP:	0.000	Y_WP:	0.000	Y_WP:	0.500	X:	-0.010	Y:	-0.065	Z:	0.231	yaw:	3.147	yaw rate:	52.084	Roll:	-1.672	Pitch:	-1.889	Yaw:	17.835	Thrust:	68.226
Time:	3.505	Roll Set Point:	0.024	Pitch Set Point:	0.130	Yaw Set Point:	-0.053	X_WP:	0.000	Y_WP:	0.000	Y_WP:	0.500	X:	-0.010	Y:	-0.066	Z:	0.236	yaw:	3.012	yaw rate:	-13.473	Roll:	-0.851	Pitch:	-2.397	Yaw:	2.102	Thrust:	68.025
Time:	3.516	Roll Set Point:	0.024	Pitch Set Point:	0.131	Yaw Set Point:	-0.049	X_WP:	0.000	Y_WP:	0.000	Y_WP:	0.500	X:	-0.011	Y:	-0.066	Z:	0.240	yaw:	2.785	yaw rate:	-22.655	Roll:	-0.633	Pitch:	-2.325	Yaw:	-0.385	Thrust:	68.478
Time:	3.527	Roll Set Point:	0.025	Pitch Set Point:	0.131	Yaw Set Point:	-0.045	X_WP:	0.000	Y_WP:	0.000	Y_WP:	0.500	X:	-0.011	Y:	-0.066	Z:	0.244	yaw:	2.562	yaw rate:	-22.334	Roll:	-0.437	Pitch:	-2.278	Yaw:	-0.610	Thrust:	68.763
Time:	3.538	Roll Set Point:	0.026	Pitch Set Point:	0.131	Yaw Set Point:	-0.041	X_WP:	0.000	Y_WP:	0.000	Y_WP:	0.500	X:	-0.012	Y:	-0.066	Z:	0.251	yaw:	2.335	yaw rate:	-22.730	Roll:	-0.896	Pitch:	-2.462	Yaw:	-1.044	Thrust:	58.613
Time:	3.551	Roll Set Point:	0.027	Pitch Set Point:	0.132	Yaw Set Point:	-0.036	X_WP:	0.000	Y_WP:	0.000	Y_WP:	0.500	X:	-0.012	Y:	-0.066	Z:	0.258	yaw:	2.058	yaw rate:	-27.678	Roll:	-0.774	Pitch:	-2.411	Yaw:	-1.370	Thrust:	76.270
Time:	3.562	Roll Set Point:	0.027	Pitch Set Point:	0.131	Yaw Set Point:	-0.044	X_WP:	0.000	Y_WP:	0.000	Y_WP:	0.500	X:	-0.012	Y:	-0.066	Z:	0.263	yaw:	2.510	yaw rate:	45.160	Roll:	-1.149	Pitch:	-1.264	Yaw:	15.346	Thrust:	67.005
Time:	3.573	Roll Set Point:	0.028	Pitch Set Point:	0.131	Yaw Set Point:	-0.042	X_WP:	0.000	Y_WP:	0.000	Y_WP:	0.500	X:	-0.013	Y:	-0.066	Z:	0.267	yaw:	2.395	yaw rate:	-11.455	Roll:	-0.650	Pitch:	-1.971	Yaw:	1.729	Thrust:	67.267
Time:	3.584	Roll Set Point:	0.029	Pitch Set Point:	0.131	Yaw Set Point:	-0.043	X_WP:	0.000	Y_WP:	0.000	Y_WP:	0.500	X:	-0.013	Y:	-0.066	Z:	0.272	yaw:	2.481	yaw rate:	8.562	Roll:	-1.047	Pitch:	-2.038	Yaw:	6.596	Thrust:	68.716
Time:	3.595	Roll Set Point:	0.029	Pitch Set Point:	0.131	Yaw Set Point:	-0.041	X_WP:	0.000	Y_WP:	0.000	Y_WP:	0.500	X:	-0.013	Y:	-0.066	Z:	0.276	yaw:	2.329	yaw rate:	-15.139	Roll:	-0.537	Pitch:	-1.802	Yaw:	0.748	Thrust:	67.655
Time:	3.606	Roll Set Point:	0.030	Pitch Set Point:	0.130	Yaw Set Point:	-0.046	X_WP:	0.000	Y_WP:	0.000	Y_WP:	0.500	X:	-0.013	Y:	-0.065	Z:	0.283	yaw:	2.621	yaw rate:	29.163	Roll:	-1.186	Pitch:	-1.303	Yaw:	11.685	Thrust:	57.199
Time:	3.617	Roll Set Point:	0.030	Pitch Set Point:	0.129	Yaw Set Point:	-0.043	X_WP:	0.000	Y_WP:	0.000	Y_WP:	0.500	X:	-0.014	Y:	-0.065	Z:	0.288	yaw:	2.465	yaw rate:	-15.549	Roll:	-0.459	Pitch:	-1.702	Yaw:	0.866	Thrust:	67.182
Time:	3.629	Roll Set Point:	0.030	Pitch Set Point:	0.128	Yaw Set Point:	-0.040	X_WP:	0.000	Y_WP:	0.000	Y_WP:	0.500	X:	-0.014	Y:	-0.065	Z:	0.293	yaw:	2.313	yaw rate:	-15.279	Roll:	-0.446	Pitch:	-1.535	Yaw:	0.705	Thrust:	66.566
Time:	3.640	Roll Set Point:	0.030	Pitch Set Point:	0.128	Yaw Set Point:	-0.042	X_WP:	0.000	Y_WP:	0.000	Y_WP:	0.500	X:	-0.014	Y:	-0.064	Z:	0.298	yaw:	2.386	yaw rate:	7.283	Roll:	-0.809	Pitch:	-1.742	Yaw:	6.164	Thrust:	66.935
Time:	3.651	Roll Set Point:	0.030	Pitch Set Point:	0.128	Yaw Set Point:	-0.030	X_WP:	0.000	Y_WP:	0.000	Y_WP:	0.500	X:	-0.014	Y:	-0.064	Z:	0.302	yaw:	1.722	yaw rate:	-66.312	Roll:	0.457	Pitch:	-1.831	Yaw:	-12.190	Thrust:	67.023
Time:	3.662	Roll Set Point:	0.030	Pitch Set Point:	0.127	Yaw Set Point:	-0.029	X_WP:	0.000	Y_WP:	0.000	Y_WP:	0.500	X:	-0.014	Y:	-0.064	Z:	0.307	yaw:	1.656	yaw rate:	-6.663	Roll:	-0.474	Pitch:	-1.521	Yaw:	1.826	Thrust:	66.006
Time:	3.673	Roll Set Point:	0.030	Pitch Set Point:	0.125	Yaw Set Point:	-0.030	X_WP:	0.000	Y_WP:	0.000	Y_WP:	0.500	X:	-0.014	Y:	-0.063	Z:	0.315	yaw:	1.744	yaw rate:	8.806	Roll:	-0.270	Pitch:	-0.396	Yaw:	5.617	Thrust:	56.845
Time:	3.684	Roll Set Point:	0.030	Pitch Set Point:	0.125	Yaw Set Point:	-0.028	X_WP:	0.000	Y_WP:	0.000	Y_WP:	0.500	X:	-0.014	Y:	-0.062	Z:	0.320	yaw:	1.593	yaw rate:	-15.099	Roll:	-0.332	Pitch:	-1.789	Yaw:	-0.271	Thrust:	65.690
Time:	3.695	Roll Set Point:	0.030	Pitch Set Point:	0.123	Yaw Set Point:	-0.036	X_WP:	0.000	Y_WP:	0.000	Y_WP:	0.500	X:	-0.014	Y:	-0.062	Z:	0.325	yaw:	2.073	yaw rate:	48.057	Roll:	-0.810	Pitch:	-0.600	Yaw:	15.405	Thrust:	65.620
Time:	3.706	Roll Set Point:	0.030	Pitch Set Point:	0.122	Yaw Set Point:	-0.023	X_WP:	0.000	Y_WP:	0.000	Y_WP:	0.500	X:	-0.014	Y:	-0.061	Z:	0.330	yaw:	1.333	yaw rate:	-74.085	Roll:	0.557	Pitch:	-1.640	Yaw:	-14.622	Thrust:	65.537
Time:	3.717	Roll Set Point:	0.030	Pitch Set Point:	0.120	Yaw Set Point:	-0.036	X_WP:	0.000	Y_WP:	0.000	Y_WP:	0.500	X:	-0.014	Y:	-0.060	Z:	0.337	yaw:	2.043	yaw rate:	71.054	Roll:	-1.303	Pitch:	-0.062	Yaw:	20.821	Thrust:	56.341
Time:	3.728	Roll Set Point:	0.030	Pitch Set Point:	0.119	Yaw Set Point:	-0.032	X_WP:	0.000	Y_WP:	0.000	Y_WP:	0.500	X:	-0.014	Y:	-0.060	Z:	0.342	yaw:	1.848	yaw rate:	-19.522	Roll:	0.161	Pitch:	-0.936	Yaw:	-0.951	Thrust:	65.232
Time:	3.739	Roll Set Point:	0.029	Pitch Set Point:	0.118	Yaw Set Point:	-0.024	X_WP:	0.000	Y_WP:	0.000	Y_WP:	0.500	X:	-0.014	Y:	-0.059	Z:	0.347	yaw:	1.358	yaw rate:	-48.952	Roll:	0.460	Pitch:	-1.342	Yaw:	-8.620	Thrust:	65.209
Time:	3.750	Roll Set Point:	0.029	Pitch Set Point:	0.116	Yaw Set Point:	-0.032	X_WP:	0.000	Y_WP:	0.000	Y_WP:	0.500	X:	-0.014	Y:	-0.058	Z:	0.352	yaw:	1.819	yaw rate:	46.033	Roll:	-0.730	Pitch:	-0.347	Yaw:	14.569	Thrust:	65.623
Time:	3.761	Roll Set Point:	0.029	Pitch Set Point:	0.115	Yaw Set Point:	-0.023	X_WP:	0.000	Y_WP:	0.000	Y_WP:	0.500	X:	-0.014	Y:	-0.058	Z:	0.357	yaw:	1.318	yaw rate:	-50.100	Roll:	0.213	Pitch:	-1.422	Yaw:	-8.949	Thrust:	65.841
Time:	3.772	Roll Set Point:	0.028	Pitch Set Point:	0.113	Yaw Set Point:	-0.025	X_WP:	0.000	Y_WP:	0.000	Y_WP:	0.500	X:	-0.013	Y:	-0.057	Z:	0.362	yaw:	1.450	yaw rate:	13.202	Roll:	-0.114	Pitch:	-0.397	Yaw:	6.261	Thrust:	65.674
Time:	3.783	Roll Set Point:	0.027	Pitch Set Point:	0.111	Yaw Set Point:	-0.020	X_WP:	0.000	Y_WP:	0.000	Y_WP:	0.500	X:	-0.013	Y:	-0.056	Z:	0.369	yaw:	1.161	yaw rate:	-28.849	Roll:	0.677	Pitch:	-0.113	Yaw:	-4.123	Thrust:	54.894
Time:	3.794	Roll Set Point:	0.027	Pitch Set Point:	0.109	Yaw Set Point:	-0.018	X_WP:	0.000	Y_WP:	0.000	Y_WP:	0.500	X:	-0.013	Y:	-0.055	Z:	0.374	yaw:	1.032	yaw rate:	-12.889	Roll:	0.061	Pitch:	-0.561	Yaw:	-0.515	Thrust:	65.781
Time:	3.805	Roll Set Point:	0.027	Pitch Set Point:	0.108	Yaw Set Point:	-0.020	X_WP:	0.000	Y_WP:	0.000	Y_WP:	0.500	X:	-0.013	Y:	-0.054	Z:	0.379	yaw:	1.141	yaw rate:	10.884	Roll:	-0.314	Pitch:	-0.538	Yaw:	5.280	Thrust:	65.930
Time:	3.816	Roll Set Point:	0.026	Pitch Set Point:	0.106	Yaw Set Point:	-0.016	X_WP:	0.000	Y_WP:	0.000	Y_WP:	0.500	X:	-0.012	Y:	-0.053	Z:	0.384	yaw:	0.926	yaw rate:	-21.545	Roll:	0.690	Pitch:	-0.338	Yaw:	-2.718	Thrust:	64.943
Time:	3.827	Roll Set Point:	0.025	Pitch Set Point:	0.104	Yaw Set Point:	-0.015	X_WP:	0.000	Y_WP:	0.000	Y_WP:	0.500	X:	-0.012	Y:	-0.052	Z:	0.389	yaw:	0.879	yaw rate:	-4.663	Roll:	0.176	Pitch:	-0.502	Yaw:	1.223	Thrust:	64.826
Time:	3.838	Roll Set Point:	0.024	Pitch Set Point:	0.101	Yaw Set Point:	-0.010	X_WP:	0.000	Y_WP:	0.000	Y_WP:	0.500	X:	-0.012	Y:	-0.051	Z:	0.396	yaw:	0.582	yaw rate:	-29.718	Roll:	0.559	Pitch:	0.258	Yaw:	-5.139	Thrust:	55.882
Time:	3.849	Roll Set Point:	0.023	Pitch Set Point:	0.099	Yaw Set Point:	-0.016	X_WP:	0.000	Y_WP:	0.000	Y_WP:	0.500	X:	-0.011	Y:	-0.050	Z:	0.400	yaw:	0.942	yaw rate:	35.974	Roll:	0.258	Pitch:	0.067	Yaw:	10.957	Thrust:	65.452
Time:	3.860	Roll Set Point:	0.022	Pitch Set Point:	0.097	Yaw Set Point:	-0.012	X_WP:	0.000	Y_WP:	0.000	Y_WP:	0.500	X:	-0.011	Y:	-0.049	Z:	0.405	yaw:	0.716	yaw rate:	-22.589	Roll:	0.476	Pitch:	-0.188	Yaw:	-3.260	Thrust:	64.372
Time:	3.871	Roll Set Point:	0.021	Pitch Set Point:	0.095	Yaw Set Point:	-0.002	X_WP:	0.000	Y_WP:	0.000	Y_WP:	0.500	X:	-0.011	Y:	-0.048	Z:	0.410	yaw:	0.122	yaw rate:	-59.380	Roll:	0.949	Pitch:	-0.328	Yaw:	-12.822	Thrust:	65.201
Time:	3.883	Roll Set Point:	0.020	Pitch Set Point:	0.092	Yaw Set Point:	-0.003	X_WP:	0.000	Y_WP:	0.000	Y_WP:	0.500	X:	-0.010	Y:	-0.046	Z:	0.417	yaw:	0.160	yaw rate:	3.816	Roll:	0.579	Pitch:	0.513	Yaw:	2.255	Thrust:	65.297
Time:	3.894	Roll Set Point:	0.019	Pitch Set Point:	0.090	Yaw Set Point:	-0.003	X_WP:	0.000	Y_WP:	0.000	Y_WP:	0.500	X:	-0.010	Y:	-0.045	Z:	0.421	yaw:	0.147	yaw rate:	-1.335	Roll:	0.502	Pitch:	0.025	Yaw:	0.992	Thrust:	64.849
Time:	3.905	Roll Set Point:	0.018	Pitch Set Point:	0.088	Yaw Set Point:	-0.005	X_WP:	0.000	Y_WP:	0.000	Y_WP:	0.500	X:	-0.009	Y:	-0.044	Z:	0.426	yaw:	0.308	yaw rate:	16.129	Roll:	0.348	Pitch:	0.340	Yaw:	5.364	Thrust:	65.185
Time:	3.916	Roll Set Point:	0.017	Pitch Set Point:	0.086	Yaw Set Point:	-0.006	X_WP:	0.000	Y_WP:	0.000	Y_WP:	0.500	X:	-0.009	Y:	-0.043	Z:	0.430	yaw:	0.317	yaw rate:	0.868	Roll:	0.498	Pitch:	0.180	Yaw:	1.751	Thrust:	65.381
Time:	3.927	Roll Set Point:	0.016	Pitch Set Point:	0.082	Yaw Set Point:	0.002	X_WP:	0.000	Y_WP:	0.000	Y_WP:	0.500	X:	-0.008	Y:	-0.041	Z:	0.437	yaw:	-0.088	yaw rate:	-40.443	Roll:	1.442	Pitch:	1.045	Yaw:	-8.643	Thrust:	55.780
Time:	3.938	Roll Set Point:	0.015	Pitch Set Point:	0.080	Yaw Set Point:	0.000	X_WP:	0.000	Y_WP:	0.000	Y_WP:	0.500	X:	-0.007	Y:	-0.040	Z:	0.442	yaw:	-0.010	yaw rate:	7.742	Roll:	0.409	Pitch:	0.226	Yaw:	2.922	Thrust:	65.227
Time:	3.949	Roll Set Point:	0.013	Pitch Set Point:	0.078	Yaw Set Point:	0.011	X_WP:	0.000	Y_WP:	0.000	Y_WP:	0.500	X:	-0.007	Y:	-0.039	Z:	0.446	yaw:	-0.613	yaw rate:	-60.315	Roll:	1.155	Pitch:	0.029	Yaw:	-14.077	Thrust:	65.316
Time:	3.960	Roll Set Point:	0.012	Pitch Set Point:	0.076	Yaw Set Point:	0.005	X_WP:	0.000	Y_WP:	0.000	Y_WP:	0.500	X:	-0.006	Y:	-0.038	Z:	0.450	yaw:	-0.305	yaw rate:	30.883	Roll:	0.423	Pitch:	0.574	Yaw:	8.006	Thrust:	65.284
Time:	3.971	Roll Set Point:	0.011	Pitch Set Point:	0.073	Yaw Set Point:	0.004	X_WP:	0.000	Y_WP:	0.000	Y_WP:	0.500	X:	-0.006	Y:	-0.037	Z:	0.455	yaw:	-0.207	yaw rate:	9.803	Roll:	0.696	Pitch:	0.538	Yaw:	3.137	Thrust:	64.637
Time:	3.982	Roll Set Point:	0.009	Pitch Set Point:	0.070	Yaw Set Point:	0.010	X_WP:	0.000	Y_WP:	0.000	Y_WP:	0.500	X:	-0.005	Y:	-0.035	Z:	0.461	yaw:	-0.581	yaw rate:	-37.432	Roll:	1.779	Pitch:	1.553	Yaw:	-8.620	Thrust:	54.946
Time:	3.993	Roll Set Point:	0.008	Pitch Set Point:	0.068	Yaw Set Point:	0.015	X_WP:	0.000	Y_WP:	0.000	Y_WP:	0.500	X:	-0.004	Y:	-0.034	Z:	0.466	yaw:	-0.856	yaw rate:	-27.550	Roll:	1.038	Pitch:	0.333	Yaw:	-6.639	Thrust:	65.442
Time:	4.005	Roll Set Point:	0.007	Pitch Set Point:	0.065	Yaw Set Point:	0.011	X_WP:	0.000	Y_WP:	0.000	Y_WP:	0.500	X:	-0.004	Y:	-0.032	Z:	0.470	yaw:	-0.625	yaw rate:	23.179	Roll:	0.694	Pitch:	0.863	Yaw:	5.722	Thrust:	64.371
Time:	4.016	Roll Set Point:	0.005	Pitch Set Point:	0.063	Yaw Set Point:	0.012	X_WP:	0.000	Y_WP:	0.000	Y_WP:	0.500	X:	-0.003	Y:	-0.031	Z:	0.474	yaw:	-0.668	yaw rate:	-4.302	Roll:	1.015	Pitch:	0.669	Yaw:	-0.863	Thrust:	64.246
Time:	4.027	Roll Set Point:	0.004	Pitch Set Point:	0.060	Yaw Set Point:	0.016	X_WP:	0.000	Y_WP:	0.000	Y_WP:	0.500	X:	-0.002	Y:	-0.030	Z:	0.478	yaw:	-0.917	yaw rate:	-24.962	Roll:	0.980	Pitch:	0.507	Yaw:	-6.115	Thrust:	65.021
Time:	4.038	Roll Set Point:	0.002	Pitch Set Point:	0.056	Yaw Set Point:	0.018	X_WP:	0.000	Y_WP:	0.000	Y_WP:	0.500	X:	-0.001	Y:	-0.028	Z:	0.485	yaw:	-1.044	yaw rate:	-12.716	Roll:	1.828	Pitch:	1.963	Yaw:	-3.385	Thrust:	55.439
Time:	4.049	Roll Set Point:	0.000	Pitch Set Point:	0.054	Yaw Set Point:	0.011	X_WP:	0.000	Y_WP:	0.000	Y_WP:	0.500	X:	-0.000	Y:	-0.027	Z:	0.489	yaw:	-0.658	yaw rate:	38.619	Roll:	0.952	Pitch:	0.918	Yaw:	9.340	Thrust:	64.063
Time:	4.060	Roll Set Point:	-0.001	Pitch Set Point:	0.051	Yaw Set Point:	0.010	X_WP:	0.000	Y_WP:	0.000	Y_WP:	0.500	X:	0.000	Y:	-0.026	Z:	0.493	yaw:	-0.581	yaw rate:	7.679	Roll:	0.907	Pitch:	0.760	Yaw:	2.088	Thrust:	64.631
Time:	4.071	Roll Set Point:	-0.002	Pitch Set Point:	0.049	Yaw Set Point:	0.012	X_WP:	0.000	Y_WP:	0.000	Y_WP:	0.500	X:	0.001	Y:	-0.024	Z:	0.497	yaw:	-0.698	yaw rate:	-11.692	Roll:	1.369	Pitch:	1.029	Yaw:	-2.681	Thrust:	63.798
Time:	4.082	Roll Set Point:	-0.004	Pitch Set Point:	0.047	Yaw Set Point:	0.018	X_WP:	0.000	Y_WP:	0.000	Y_WP:	0.500	X:	0.002	Y:	-0.023	Z:	0.501	yaw:	-1.048	yaw rate:	-34.936	Roll:	1.283	Pitch:	0.532	Yaw:	-8.684	Thrust:	63.912
Time:	4.093	Roll Set Point:	-0.006	Pitch Set Point:	0.043	Yaw Set Point:	0.012	X_WP:	0.000	Y_WP:	0.000	Y_WP:	0.500	X:	0.003	Y:	-0.021	Z:	0.507	yaw:	-0.701	yaw rate:	34.715	Roll:	1.811	Pitch:	2.283	Yaw:	8.318	Thrust:	56.446
Time:	4.104	Roll Set Point:	-0.008	Pitch Set Point:	0.040	Yaw Set Point:	0.017	X_WP:	0.000	Y_WP:	0.000	Y_WP:	0.500	X:	0.004	Y:	-0.020	Z:	0.511	yaw:	-0.953	yaw rate:	-25.218	Roll:	1.324	Pitch:	1.086	Yaw:	-6.262	Thrust:	63.562
Time:	4.115	Roll Set Point:	-0.009	Pitch Set Point:	0.038	Yaw Set Point:	0.017	X_WP:	0.000	Y_WP:	0.000	Y_WP:	0.500	X:	0.004	Y:	-0.019	Z:	0.515	yaw:	-0.984	yaw rate:	-3.112	Roll:	1.334	Pitch:	0.787	Yaw:	-0.977	Thrust:	67.938
Time:	4.126	Roll Set Point:	-0.010	Pitch Set Point:	0.036	Yaw Set Point:	0.017	X_WP:	0.000	Y_WP:	0.000	Y_WP:	0.500	X:	0.005	Y:	-0.018	Z:	0.518	yaw:	-0.995	yaw rate:	-1.115	Roll:	1.205	Pitch:	0.946	Yaw:	-0.598	Thrust:	64.064
Time:	4.137	Roll Set Point:	-0.013	Pitch Set Point:	0.032	Yaw Set Point:	0.021	X_WP:	0.000	Y_WP:	0.000	Y_WP:	0.500	X:	0.006	Y:	-0.016	Z:	0.524	yaw:	-1.217	yaw rate:	-22.222	Roll:	2.103	Pitch:	2.219	Yaw:	-5.920	Thrust:	55.991
Time:	4.148	Roll Set Point:	-0.014	Pitch Set Point:	0.030	Yaw Set Point:	0.025	X_WP:	0.000	Y_WP:	0.000	Y_WP:	0.500	X:	0.007	Y:	-0.015	Z:	0.528	yaw:	-1.410	yaw rate:	-19.301	Roll:	1.465	Pitch:	1.149	Yaw:	-5.500	Thrust:	63.452
Time:	4.159	Roll Set Point:	-0.016	Pitch Set Point:	0.028	Yaw Set Point:	0.024	X_WP:	0.000	Y_WP:	0.000	Y_WP:	0.500	X:	0.008	Y:	-0.014	Z:	0.531	yaw:	-1.383	yaw rate:	2.729	Roll:	1.117	Pitch:	0.760	Yaw:	-0.239	Thrust:	64.361
Time:	4.170	Roll Set Point:	-0.017	Pitch Set Point:	0.025	Yaw Set Point:	0.029	X_WP:	0.000	Y_WP:	0.000	Y_WP:	0.500	X:	0.008	Y:	-0.013	Z:	0.535	yaw:	-1.640	yaw rate:	-25.720	Roll:	1.697	Pitch:	1.446	Yaw:	-7.356	Thrust:	63.438
Time:	4.181	Roll Set Point:	-0.019	Pitch Set Point:	0.023	Yaw Set Point:	0.029	X_WP:	0.000	Y_WP:	0.000	Y_WP:	0.500	X:	0.009	Y:	-0.012	Z:	0.539	yaw:	-1.665	yaw rate:	-2.519	Roll:	1.470	Pitch:	1.068	Yaw:	-1.890	Thrust:	62.918
Time:	4.192	Roll Set Point:	-0.022	Pitch Set Point:	0.019	Yaw Set Point:	0.020	X_WP:	0.000	Y_WP:	0.000	Y_WP:	0.500	X:	0.011	Y:	-0.010	Z:	0.544	yaw:	-1.161	yaw rate:	50.484	Roll:	2.318	Pitch:	2.364	Yaw:	11.389	Thrust:	56.301
Time:	4.204	Roll Set Point:	-0.023	Pitch Set Point:	0.017	Yaw Set Point:	0.021	X_WP:	0.000	Y_WP:	0.000	Y_WP:	0.500	X:	0.011	Y:	-0.008	Z:	0.547	yaw:	-1.227	yaw rate:	-6.668	Roll:	1.636	Pitch:	1.223	Yaw:	-2.256	Thrust:	63.749
Time:	4.216	Roll Set Point:	-0.025	Pitch Set Point:	0.015	Yaw Set Point:	0.022	X_WP:	0.000	Y_WP:	0.000	Y_WP:	0.500	X:	0.012	Y:	-0.007	Z:	0.551	yaw:	-1.287	yaw rate:	-5.934	Roll:	1.405	Pitch:	0.969	Yaw:	-1.980	Thrust:	71.309
Time:	4.228	Roll Set Point:	-0.027	Pitch Set Point:	0.011	Yaw Set Point:	0.027	X_WP:	0.000	Y_WP:	0.000	Y_WP:	0.500	X:	0.013	Y:	-0.006	Z:	0.556	yaw:	-1.557	yaw rate:	-27.013	Roll:	1.915	Pitch:	1.977	Yaw:	-6.951	Thrust:	65.559
Time:	4.239	Roll Set Point:	-0.028	Pitch Set Point:	0.009	Yaw Set Point:	0.027	X_WP:	0.000	Y_WP:	0.000	Y_WP:	0.500	X:	0.014	Y:	-0.005	Z:	0.559	yaw:	-1.545	yaw rate:	1.121	Roll:	1.611	Pitch:	1.150	Yaw:	-0.884	Thrust:	63.015
Time:	4.251	Roll Set Point:	-0.030	Pitch Set Point:	0.007	Yaw Set Point:	0.027	X_WP:	0.000	Y_WP:	0.000	Y_WP:	0.500	X:	0.015	Y:	-0.004	Z:	0.563	yaw:	-1.533	yaw rate:	1.238	Roll:	1.622	Pitch:	1.232	Yaw:	-0.780	Thrust:	71.419
Time:	4.262	Roll Set Point:	-0.031	Pitch Set Point:	0.005	Yaw Set Point:	0.026	X_WP:	0.000	Y_WP:	0.000	Y_WP:	0.500	X:	0.016	Y:	-0.003	Z:	0.566	yaw:	-1.463	yaw rate:	7.052	Roll:	1.585	Pitch:	1.258	Yaw:	0.626	Thrust:	62.878
Time:	4.273	Roll Set Point:	-0.034	Pitch Set Point:	0.001	Yaw Set Point:	0.034	X_WP:	0.000	Y_WP:	0.000	Y_WP:	0.500	X:	0.017	Y:	-0.001	Z:	0.571	yaw:	-1.936	yaw rate:	-47.376	Roll:	2.513	Pitch:	2.283	Yaw:	-12.968	Thrust:	55.764
Time:	4.284	Roll Set Point:	-0.035	Pitch Set Point:	-0.001	Yaw Set Point:	0.027	X_WP:	0.000	Y_WP:	0.000	Y_WP:	0.500	X:	0.018	Y:	0.000	Z:	0.574	yaw:	-1.570	yaw rate:	36.597	Roll:	1.695	Pitch:	1.320	Yaw:	7.489	Thrust:	62.418
Time:	4.295	Roll Set Point:	-0.037	Pitch Set Point:	-0.003	Yaw Set Point:	0.033	X_WP:	0.000	Y_WP:	0.000	Y_WP:	0.500	X:	0.018	Y:	0.001	Z:	0.577	yaw:	-1.888	yaw rate:	-31.791	Roll:	1.488	Pitch:	1.249	Yaw:	-9.144	Thrust:	63.384
Time:	4.306	Roll Set Point:	-0.038	Pitch Set Point:	-0.005	Yaw Set Point:	0.033	X_WP:	0.000	Y_WP:	0.000	Y_WP:	0.500	X:	0.019	Y:	0.002	Z:	0.580	yaw:	-1.874	yaw rate:	1.430	Roll:	1.755	Pitch:	1.337	Yaw:	-1.310	Thrust:	61.828
Time:	4.317	Roll Set Point:	-0.040	Pitch Set Point:	-0.007	Yaw Set Point:	0.030	X_WP:	0.000	Y_WP:	0.000	Y_WP:	0.500	X:	0.020	Y:	0.003	Z:	0.583	yaw:	-1.705	yaw rate:	16.845	Roll:	1.988	Pitch:	1.481	Yaw:	2.578	Thrust:	61.872
Time:	4.328	Roll Set Point:	-0.043	Pitch Set Point:	-0.009	Yaw Set Point:	0.024	X_WP:	0.000	Y_WP:	0.000	Y_WP:	0.500	X:	0.021	Y:	0.004	Z:	0.588	yaw:	-1.366	yaw rate:	33.937	Roll:	2.786	Pitch:	1.746	Yaw:	7.102	Thrust:	55.368
Time:	4.339	Roll Set Point:	-0.044	Pitch Set Point:	-0.011	Yaw Set Point:	0.022	X_WP:	0.000	Y_WP:	0.000	Y_WP:	0.500	X:	0.022	Y:	0.005	Z:	0.591	yaw:	-1.279	yaw rate:	8.685	Roll:	1.684	Pitch:	1.357	Yaw:	1.221	Thrust:	62.374
Time:	4.350	Roll Set Point:	-0.045	Pitch Set Point:	-0.013	Yaw Set Point:	0.025	X_WP:	0.000	Y_WP:	0.000	Y_WP:	0.500	X:	0.023	Y:	0.006	Z:	0.594	yaw:	-1.412	yaw rate:	-13.252	Roll:	1.793	Pitch:	1.386	Yaw:	-4.183	Thrust:	61.289
Time:	4.361	Roll Set Point:	-0.047	Pitch Set Point:	-0.015	Yaw Set Point:	0.030	X_WP:	0.000	Y_WP:	0.000	Y_WP:	0.500	X:	0.023	Y:	0.007	Z:	0.597	yaw:	-1.726	yaw rate:	-31.380	Roll:	1.601	Pitch:	1.519	Yaw:	-8.904	Thrust:	60.931
Time:	4.372	Roll Set Point:	-0.049	Pitch Set Point:	-0.018	Yaw Set Point:	0.033	X_WP:	0.000	Y_WP:	0.000	Y_WP:	0.500	X:	0.024	Y:	0.008	Z:	0.601	yaw:	-1.877	yaw rate:	-15.130	Roll:	2.194	Pitch:	2.025	Yaw:	-5.289	Thrust:	55.654
Time:	4.383	Roll Set Point:	-0.050	Pitch Set Point:	-0.019	Yaw Set Point:	0.033	X_WP:	0.000	Y_WP:	0.000	Y_WP:	0.500	X:	0.025	Y:	0.009	Z:	0.604	yaw:	-1.892	yaw rate:	-1.495	Roll:	1.765	Pitch:	1.204	Yaw:	-2.071	Thrust:	61.218
Time:	4.394	Roll Set Point:	-0.051	Pitch Set Point:	-0.021	Yaw Set Point:	0.030	X_WP:	0.000	Y_WP:	0.000	Y_WP:	0.500	X:	0.026	Y:	0.010	Z:	0.607	yaw:	-1.742	yaw rate:	14.949	Roll:	1.835	Pitch:	1.326	Yaw:	2.033	Thrust:	61.276
Time:	4.405	Roll Set Point:	-0.053	Pitch Set Point:	-0.023	Yaw Set Point:	0.039	X_WP:	0.000	Y_WP:	0.000	Y_WP:	0.500	X:	0.026	Y:	0.011	Z:	0.610	yaw:	-2.243	yaw rate:	-50.094	Roll:	1.705	Pitch:	1.530	Yaw:	-14.112	Thrust:	60.985
Time:	4.417	Roll Set Point:	-0.054	Pitch Set Point:	-0.024	Yaw Set Point:	0.032	X_WP:	0.000	Y_WP:	0.000	Y_WP:	0.500	X:	0.027	Y:	0.012	Z:	0.612	yaw:	-1.832	yaw rate:	41.177	Roll:	2.093	Pitch:	1.166	Yaw:	7.523	Thrust:	67.618
Time:	4.429	Roll Set Point:	-0.056	Pitch Set Point:	-0.027	Yaw Set Point:	0.033	X_WP:	0.000	Y_WP:	0.000	Y_WP:	0.500	X:	0.028	Y:	0.013	Z:	0.616	yaw:	-1.897	yaw rate:	-6.512	Roll:	2.030	Pitch:	1.594	Yaw:	-3.090	Thrust:	64.503
Time:	4.440	Roll Set Point:	-0.057	Pitch Set Point:	-0.028	Yaw Set Point:	0.044	X_WP:	0.000	Y_WP:	0.000	Y_WP:	0.500	X:	0.029	Y:	0.013	Z:	0.619	yaw:	-2.515	yaw rate:	-61.864	Roll:	1.708	Pitch:	1.596	Yaw:	-17.308	Thrust:	61.170
Time:	4.451	Roll Set Point:	-0.059	Pitch Set Point:	-0.030	Yaw Set Point:	0.032	X_WP:	0.000	Y_WP:	0.000	Y_WP:	0.500	X:	0.030	Y:	0.014	Z:	0.621	yaw:	-1.845	yaw rate:	67.013	Roll:	2.107	Pitch:	1.056	Yaw:	14.208	Thrust:	60.908
Time:	4.462	Roll Set Point:	-0.061	Pitch Set Point:	-0.032	Yaw Set Point:	0.033	X_WP:	0.000	Y_WP:	0.000	Y_WP:	0.500	X:	0.031	Y:	0.015	Z:	0.624	yaw:	-1.917	yaw rate:	-7.145	Roll:	2.448	Pitch:	1.967	Yaw:	-3.509	Thrust:	56.473
Time:	4.473	Roll Set Point:	-0.061	Pitch Set Point:	-0.033	Yaw Set Point:	0.043	X_WP:	0.000	Y_WP:	0.000	Y_WP:	0.500	X:	0.031	Y:	0.016	Z:	0.627	yaw:	-2.445	yaw rate:	-52.876	Roll:	1.417	Pitch:	1.513	Yaw:	-15.098	Thrust:	60.843
Time:	4.484	Roll Set Point:	-0.063	Pitch Set Point:	-0.035	Yaw Set Point:	0.035	X_WP:	0.000	Y_WP:	0.000	Y_WP:	0.500	X:	0.032	Y:	0.017	Z:	0.629	yaw:	-1.995	yaw rate:	45.040	Roll:	2.265	Pitch:	1.061	Yaw:	8.758	Thrust:	60.636
Time:	4.495	Roll Set Point:	-0.064	Pitch Set Point:	-0.036	Yaw Set Point:	0.039	X_WP:	0.000	Y_WP:	0.000	Y_WP:	0.500	X:	0.032	Y:	0.017	Z:	0.631	yaw:	-2.227	yaw rate:	-23.207	Roll:	1.782	Pitch:	1.449	Yaw:	-7.772	Thrust:	61.011
Time:	4.506	Roll Set Point:	-0.065	Pitch Set Point:	-0.037	Yaw Set Point:	0.039	X_WP:	0.000	Y_WP:	0.000	Y_WP:	0.500	X:	0.033	Y:	0.018	Z:	0.633	yaw:	-2.213	yaw rate:	1.428	Roll:	1.869	Pitch:	1.178	Yaw:	-1.911	Thrust:	60.711
Time:	4.517	Roll Set Point:	-0.067	Pitch Set Point:	-0.039	Yaw Set Point:	0.044	X_WP:	0.000	Y_WP:	0.000	Y_WP:	0.500	X:	0.034	Y:	0.019	Z:	0.636	yaw:	-2.539	yaw rate:	-32.581	Roll:	2.042	Pitch:	1.942	Yaw:	-10.447	Thrust:	56.806
Time:	4.528	Roll Set Point:	-0.068	Pitch Set Point:	-0.040	Yaw Set Point:	0.035	X_WP:	0.000	Y_WP:	0.000	Y_WP:	0.500	X:	0.034	Y:	0.019	Z:	0.638	yaw:	-1.988	yaw rate:	55.092	Roll:	2.437	Pitch:	0.821	Yaw:	11.154	Thrust:	60.832
Time:	4.539	Roll Set Point:	-0.069	Pitch Set Point:	-0.041	Yaw Set Point:	0.039	X_WP:	0.000	Y_WP:	0.000	Y_WP:	0.500	X:	0.035	Y:	0.020	Z:	0.640	yaw:	-2.263	yaw rate:	-27.532	Roll:	1.582	Pitch:	1.505	Yaw:	-8.863	Thrust:	60.996
Time:	4.550	Roll Set Point:	-0.070	Pitch Set Point:	-0.043	Yaw Set Point:	0.041	X_WP:	0.000	Y_WP:	0.000	Y_WP:	0.500	X:	0.036	Y:	0.021	Z:	0.642	yaw:	-2.334	yaw rate:	-7.143	Roll:	1.949	Pitch:	1.349	Yaw:	-4.152	Thrust:	60.771
Time:	4.561	Roll Set Point:	-0.071	Pitch Set Point:	-0.043	Yaw Set Point:	0.044	X_WP:	0.000	Y_WP:	0.000	Y_WP:	0.500	X:	0.036	Y:	0.021	Z:	0.644	yaw:	-2.520	yaw rate:	-18.547	Roll:	1.677	Pitch:	1.105	Yaw:	-7.128	Thrust:	60.791
Time:	4.572	Roll Set Point:	-0.072	Pitch Set Point:	-0.045	Yaw Set Point:	0.045	X_WP:	0.000	Y_WP:	0.000	Y_WP:	0.500	X:	0.037	Y:	0.022	Z:	0.646	yaw:	-2.592	yaw rate:	-7.258	Roll:	1.937	Pitch:	1.389	Yaw:	-4.563	Thrust:	60.447
Time:	4.583	Roll Set Point:	-0.074	Pitch Set Point:	-0.046	Yaw Set Point:	0.035	X_WP:	0.000	Y_WP:	0.000	Y_WP:	0.500	X:	0.037	Y:	0.022	Z:	0.648	yaw:	-2.018	yaw rate:	57.445	Roll:	2.615	Pitch:	1.003	Yaw:	11.572	Thrust:	57.449
Time:	4.594	Roll Set Point:	-0.075	Pitch Set Point:	-0.047	Yaw Set Point:	0.048	X_WP:	0.000	Y_WP:	0.000	Y_WP:	0.500	X:	0.038	Y:	0.023	Z:	0.649	yaw:	-2.740	yaw rate:	-72.211	Roll:	1.536	Pitch:	1.764	Yaw:	-20.229	Thrust:	61.562
Time:	4.605	Roll Set Point:	-0.076	Pitch Set Point:	-0.048	Yaw Set Point:	0.045	X_WP:	0.000	Y_WP:	0.000	Y_WP:	0.500	X:	0.038	Y:	0.023	Z:	0.651	yaw:	-2.583	yaw rate:	15.690	Roll:	2.028	Pitch:	0.982	Yaw:	0.868	Thrust:	60.642
Time:	4.616	Roll Set Point:	-0.077	Pitch Set Point:	-0.049	Yaw Set Point:	0.034	X_WP:	0.000	Y_WP:	0.000	Y_WP:	0.500	X:	0.039	Y:	0.024	Z:	0.652	yaw:	-1.956	yaw rate:	62.725	Roll:	2.631	Pitch:	0.728	Yaw:	12.931	Thrust:	60.905
Time:	4.627	Roll Set Point:	-0.078	Pitch Set Point:	-0.050	Yaw Set Point:	0.047	X_WP:	0.000	Y_WP:	0.000	Y_WP:	0.500	X:	0.040	Y:	0.024	Z:	0.654	yaw:	-2.681	yaw rate:	-72.522	Roll:	1.452	Pitch:	2.018	Yaw:	-20.217	Thrust:	58.382
Time:	4.639	Roll Set Point:	-0.079	Pitch Set Point:	-0.051	Yaw Set Point:	0.040	X_WP:	0.000	Y_WP:	0.000	Y_WP:	0.500	X:	0.040	Y:	0.025	Z:	0.655	yaw:	-2.264	yaw rate:	41.713	Roll:	2.268	Pitch:	0.827	Yaw:	7.469	Thrust:	61.469
Time:	4.650	Roll Set Point:	-0.080	Pitch Set Point:	-0.051	Yaw Set Point:	0.037	X_WP:	0.000	Y_WP:	0.000	Y_WP:	0.500	X:	0.041	Y:	0.025	Z:	0.656	yaw:	-2.101	yaw rate:	16.297	Roll:	2.027	Pitch:	0.869	Yaw:	1.562	Thrust:	64.093
Time:	4.661	Roll Set Point:	-0.082	Pitch Set Point:	-0.053	Yaw Set Point:	0.046	X_WP:	0.000	Y_WP:	0.000	Y_WP:	0.500	X:	0.041	Y:	0.026	Z:	0.659	yaw:	-2.611	yaw rate:	20.405	Roll:	2.201	Pitch:	2.136	Yaw:	-15.045	Thrust:	56.556
Time:	4.672	Roll Set Point:	-0.082	Pitch Set Point:	-0.054	Yaw Set Point:	0.040	X_WP:	0.000	Y_WP:	0.000	Y_WP:	0.500	X:	0.042	Y:	0.026	Z:	0.659	yaw:	-2.266	yaw rate:	34.556	Roll:	1.968	Pitch:	0.725	Yaw:	5.740	Thrust:	61.829
Time:	4.683	Roll Set Point:	-0.084	Pitch Set Point:	-0.055	Yaw Set Point:	0.037	X_WP:	0.000	Y_WP:	0.000	Y_WP:	0.500	X:	0.042	Y:	0.027	Z:	0.661	yaw:	-2.122	yaw rate:	14.353	Roll:	2.533	Pitch:	1.154	Yaw:	1.137	Thrust:	60.158
Time:	4.694	Roll Set Point:	-0.084	Pitch Set Point:	-0.055	Yaw Set Point:	0.045	X_WP:	0.000	Y_WP:	0.000	Y_WP:	0.500	X:	0.043	Y:	0.027	Z:	0.661	yaw:	-2.581	yaw rate:	-45.916	Roll:	1.416	Pitch:	1.416	Yaw:	-13.841	Thrust:	61.382
Time:	4.705	Roll Set Point:	-0.085	Pitch Set Point:	-0.056	Yaw Set Point:	0.043	X_WP:	0.000	Y_WP:	0.000	Y_WP:	0.500	X:	0.043	Y:	0.027	Z:	0.662	yaw:	-2.491	yaw rate:	9.038	Roll:	2.091	Pitch:	0.833	Yaw:	-0.664	Thrust:	61.448
Time:	4.716	Roll Set Point:	-0.086	Pitch Set Point:	-0.056	Yaw Set Point:	0.038	X_WP:	0.000	Y_WP:	0.000	Y_WP:	0.500	X:	0.044	Y:	0.027	Z:	0.663	yaw:	-2.160	yaw rate:	33.067	Roll:	2.017	Pitch:	0.714	Yaw:	5.500	Thrust:	62.481
Time:	4.727	Roll Set Point:	-0.087	Pitch Set Point:	-0.057	Yaw Set Point:	0.039	X_WP:	0.000	Y_WP:	0.000	Y_WP:	0.500	X:	0.044	Y:	0.027	Z:	0.663	yaw:	-2.210	yaw rate:	-4.992	Roll:	1.906	Pitch:	0.949	Yaw:	-3.614	Thrust:	61.647
Time:	4.738	Roll Set Point:	-0.088	Pitch Set Point:	-0.057	Yaw Set Point:	0.033	X_WP:	0.000	Y_WP:	0.000	Y_WP:	0.500	X:	0.044	Y:	0.028	Z:	0.664	yaw:	-1.900	yaw rate:	31.026	Roll:	2.406	Pitch:	0.851	Yaw:	5.354	Thrust:	61.884
Time:	4.749	Roll Set Point:	-0.088	Pitch Set Point:	-0.058	Yaw Set Point:	0.038	X_WP:	0.000	Y_WP:	0.000	Y_WP:	0.500	X:	0.045	Y:	0.028	Z:	0.664	yaw:	-2.172	yaw rate:	-27.236	Roll:	1.624	Pitch:	1.367	Yaw:	-8.864	Thrust:	61.532
Time:	4.760	Roll Set Point:	-0.089	Pitch Set Point:	-0.058	Yaw Set Point:	0.042	X_WP:	0.000	Y_WP:	0.000	Y_WP:	0.500	X:	0.045	Y:	0.028	Z:	0.664	yaw:	-2.388	yaw rate:	-21.547	Roll:	1.436	Pitch:	0.613	Yaw:	-7.801	Thrust:	62.473
Time:	4.771	Roll Set Point:	-0.090	Pitch Set Point:	-0.058	Yaw Set Point:	0.041	X_WP:	0.000	Y_WP:	0.000	Y_WP:	0.500	X:	0.045	Y:	0.028	Z:	0.664	yaw:	-2.336	yaw rate:	5.118	Roll:	2.160	Pitch:	1.000	Yaw:	-1.423	Thrust:	62.222
Time:	4.782	Roll Set Point:	-0.090	Pitch Set Point:	-0.059	Yaw Set Point:	0.036	X_WP:	0.000	Y_WP:	0.000	Y_WP:	0.500	X:	0.046	Y:	0.029	Z:	0.664	yaw:	-2.055	yaw rate:	28.111	Roll:	2.087	Pitch:	0.810	Yaw:	4.428	Thrust:	61.961
Time:	4.793	Roll Set Point:	-0.091	Pitch Set Point:	-0.059	Yaw Set Point:	0.031	X_WP:	0.000	Y_WP:	0.000	Y_WP:	0.500	X:	0.046	Y:	0.029	Z:	0.665	yaw:	-1.792	yaw rate:	26.320	Roll:	2.028	Pitch:	0.362	Yaw:	4.340	Thrust:	62.359
Time:	4.804	Roll Set Point:	-0.091	Pitch Set Point:	-0.059	Yaw Set Point:	0.037	X_WP:	0.000	Y_WP:	0.000	Y_WP:	0.500	X:	0.046	Y:	0.029	Z:	0.665	yaw:	-2.122	yaw rate:	-32.965	Roll:	1.638	Pitch:	1.222	Yaw:	-10.206	Thrust:	61.798
Time:	4.816	Roll Set Point:	-0.092	Pitch Set Point:	-0.059	Yaw Set Point:	0.034	X_WP:	0.000	Y_WP:	0.000	Y_WP:	0.500	X:	0.046	Y:	0.029	Z:	0.665	yaw:	-1.976	yaw rate:	14.607	Roll:	1.877	Pitch:	0.504	Yaw:	1.065	Thrust:	68.764
Time:	4.827	Roll Set Point:	-0.093	Pitch Set Point:	-0.059	Yaw Set Point:	0.030	X_WP:	0.000	Y_WP:	0.000	Y_WP:	0.500	X:	0.047	Y:	0.029	Z:	0.664	yaw:	-1.707	yaw rate:	26.891	Roll:	2.328	Pitch:	0.546	Yaw:	4.574	Thrust:	62.371
Time:	4.839	Roll Set Point:	-0.093	Pitch Set Point:	-0.059	Yaw Set Point:	0.027	X_WP:	0.000	Y_WP:	0.000	Y_WP:	0.500	X:	0.047	Y:	0.029	Z:	0.664	yaw:	-1.539	yaw rate:	16.777	Roll:	1.750	Pitch:	0.412	Yaw:	2.417	Thrust:	62.977
Time:	4.849	Roll Set Point:	-0.093	Pitch Set Point:	-0.060	Yaw Set Point:	0.033	X_WP:	0.000	Y_WP:	0.000	Y_WP:	0.500	X:	0.047	Y:	0.029	Z:	0.664	yaw:	-1.917	yaw rate:	-37.799	Roll:	1.617	Pitch:	1.276	Yaw:	-11.077	Thrust:	62.040
Time:	4.860	Roll Set Point:	-0.094	Pitch Set Point:	-0.059	Yaw Set Point:	0.033	X_WP:	0.000	Y_WP:	0.000	Y_WP:	0.500	X:	0.047	Y:	0.029	Z:	0.664	yaw:	-1.913	yaw rate:	0.449	Roll:	1.633	Pitch:	0.543	Yaw:	-2.000	Thrust:	62.669
Time:	4.872	Roll Set Point:	-0.094	Pitch Set Point:	-0.060	Yaw Set Point:	0.034	X_WP:	0.000	Y_WP:	0.000	Y_WP:	0.500	X:	0.047	Y:	0.029	Z:	0.663	yaw:	-1.967	yaw rate:	-5.454	Roll:	1.683	Pitch:	0.748	Yaw:	-3.331	Thrust:	68.527
Time:	4.884	Roll Set Point:	-0.094	Pitch Set Point:	-0.059	Yaw Set Point:	0.032	X_WP:	0.000	Y_WP:	0.000	Y_WP:	0.500	X:	0.048	Y:	0.029	Z:	0.663	yaw:	-1.836	yaw rate:	13.122	Roll:	1.925	Pitch:	0.432	Yaw:	1.094	Thrust:	62.305
Time:	4.895	Roll Set Point:	-0.095	Pitch Set Point:	-0.059	Yaw Set Point:	0.028	X_WP:	0.000	Y_WP:	0.000	Y_WP:	0.500	X:	0.048	Y:	0.029	Z:	0.663	yaw:	-1.608	yaw rate:	22.817	Roll:	1.850	Pitch:	0.357	Yaw:	3.725	Thrust:	61.824
Time:	4.906	Roll Set Point:	-0.095	Pitch Set Point:	-0.059	Yaw Set Point:	0.026	X_WP:	0.000	Y_WP:	0.000	Y_WP:	0.500	X:	0.048	Y:	0.029	Z:	0.662	yaw:	-1.504	yaw rate:	10.357	Roll:	1.848	Pitch:	0.273	Yaw:	0.894	Thrust:	63.509
Time:	4.917	Roll Set Point:	-0.095	Pitch Set Point:	-0.059	Yaw Set Point:	0.029	X_WP:	0.000	Y_WP:	0.000	Y_WP:	0.500	X:	0.048	Y:	0.029	Z:	0.662	yaw:	-1.649	yaw rate:	-14.511	Roll:	1.374	Pitch:	0.669	Yaw:	-5.207	Thrust:	61.816
Time:	4.928	Roll Set Point:	-0.095	Pitch Set Point:	-0.059	Yaw Set Point:	0.029	X_WP:	0.000	Y_WP:	0.000	Y_WP:	0.500	X:	0.048	Y:	0.029	Z:	0.661	yaw:	-1.667	yaw rate:	-1.776	Roll:	1.518	Pitch:	0.461	Yaw:	-2.228	Thrust:	62.192
Time:	4.939	Roll Set Point:	-0.095	Pitch Set Point:	-0.059	Yaw Set Point:	0.030	X_WP:	0.000	Y_WP:	0.000	Y_WP:	0.500	X:	0.048	Y:	0.029	Z:	0.661	yaw:	-1.707	yaw rate:	-4.044	Roll:	1.711	Pitch:	0.658	Yaw:	-2.826	Thrust:	61.828
Time:	4.950	Roll Set Point:	-0.095	Pitch Set Point:	-0.058	Yaw Set Point:	0.034	X_WP:	0.000	Y_WP:	0.000	Y_WP:	0.500	X:	0.048	Y:	0.028	Z:	0.660	yaw:	-1.948	yaw rate:	-24.036	Roll:	1.339	Pitch:	0.552	Yaw:	-7.913	Thrust:	61.946
Time:	4.961	Roll Set Point:	-0.096	Pitch Set Point:	-0.058	Yaw Set Point:	0.024	X_WP:	0.000	Y_WP:	0.000	Y_WP:	0.500	X:	0.048	Y:	0.028	Z:	0.659	yaw:	-1.391	yaw rate:	55.708	Roll:	2.421	Pitch:	-0.067	Yaw:	11.758	Thrust:	62.718
Time:	4.972	Roll Set Point:	-0.096	Pitch Set Point:	-0.058	Yaw Set Point:	0.024	X_WP:	0.000	Y_WP:	0.000	Y_WP:	0.500	X:	0.048	Y:	0.028	Z:	0.659	yaw:	-1.353	yaw rate:	3.766	Roll:	1.687	Pitch:	0.416	Yaw:	-0.496	Thrust:	61.601
Time:	4.983	Roll Set Point:	-0.096	Pitch Set Point:	-0.057	Yaw Set Point:	0.026	X_WP:	0.000	Y_WP:	0.000	Y_WP:	0.500	X:	0.048	Y:	0.028	Z:	0.658	yaw:	-1.467	yaw rate:	-11.393	Roll:	1.245	Pitch:	0.384	Yaw:	-4.253	Thrust:	62.361
Time:	4.994	Roll Set Point:	-0.095	Pitch Set Point:	-0.057	Yaw Set Point:	0.033	X_WP:	0.000	Y_WP:	0.000	Y_WP:	0.500	X:	0.048	Y:	0.028	Z:	0.657	yaw:	-1.895	yaw rate:	-42.847	Roll:	1.111	Pitch:	0.656	Yaw:	-12.329	Thrust:	61.810
Time:	5.005	Roll Set Point:	-0.095	Pitch Set Point:	-0.056	Yaw Set Point:	0.029	X_WP:	0.000	Y_WP:	0.000	Y_WP:	0.500	X:	0.048	Y:	0.027	Z:	0.657	yaw:	-1.680	yaw rate:	21.572	Roll:	1.666	Pitch:	-0.032	Yaw:	3.256	Thrust:	61.571
