Time:	2.056	Roll Set Point:	-0.038	Pitch Set Point:	0.006	Yaw Set Point:	-0.565	X_WP:	0.000	Y_WP:	0.000	Y_WP:	0.500	X:	0.020	Y:	0.003	Z:	0.050	yaw:	32.356	yaw rate:	0.284	Roll:	0.527	Pitch:	-0.244	Yaw:	45.177	Thrust:	24.776
Time:	2.067	Roll Set Point:	-0.038	Pitch Set Point:	0.006	Yaw Set Point:	-0.565	X_WP:	0.000	Y_WP:	0.000	Y_WP:	0.500	X:	0.020	Y:	0.003	Z:	0.050	yaw:	32.362	yaw rate:	0.602	Roll:	0.568	Pitch:	-0.254	Yaw:	45.453	Thrust:	25.290
Time:	2.078	Roll Set Point:	-0.038	Pitch Set Point:	0.006	Yaw Set Point:	-0.565	X_WP:	0.000	Y_WP:	0.000	Y_WP:	0.500	X:	0.020	Y:	0.003	Z:	0.050	yaw:	32.352	yaw rate:	-1.017	Roll:	0.487	Pitch:	-0.250	Yaw:	45.179	Thrust:	25.983
Time:	2.089	Roll Set Point:	-0.038	Pitch Set Point:	0.006	Yaw Set Point:	-0.567	X_WP:	0.000	Y_WP:	0.000	Y_WP:	0.500	X:	0.020	Y:	0.003	Z:	0.050	yaw:	32.510	yaw rate:	15.831	Roll:	0.410	Pitch:	-0.445	Yaw:	49.525	Thrust:	25.943
Time:	2.100	Roll Set Point:	-0.038	Pitch Set Point:	0.005	Yaw Set Point:	-0.560	X_WP:	0.000	Y_WP:	0.000	Y_WP:	0.500	X:	0.020	Y:	0.003	Z:	0.050	yaw:	32.063	yaw rate:	-44.714	Roll:	0.668	Pitch:	0.305	Yaw:	34.673	Thrust:	27.510
Time:	2.111	Roll Set Point:	-0.038	Pitch Set Point:	0.006	Yaw Set Point:	-0.562	X_WP:	0.000	Y_WP:	0.000	Y_WP:	0.500	X:	0.020	Y:	0.002	Z:	0.049	yaw:	32.208	yaw rate:	14.547	Roll:	0.206	Pitch:	-0.558	Yaw:	49.052	Thrust:	28.382
Time:	2.122	Roll Set Point:	-0.038	Pitch Set Point:	0.005	Yaw Set Point:	-0.559	X_WP:	0.000	Y_WP:	0.000	Y_WP:	0.500	X:	0.020	Y:	0.003	Z:	0.050	yaw:	32.025	yaw rate:	-18.385	Roll:	0.833	Pitch:	0.079	Yaw:	41.107	Thrust:	27.997
Time:	2.133	Roll Set Point:	-0.038	Pitch Set Point:	0.006	Yaw Set Point:	-0.564	X_WP:	0.000	Y_WP:	0.000	Y_WP:	0.500	X:	0.020	Y:	0.002	Z:	0.049	yaw:	32.302	yaw rate:	27.719	Roll:	0.211	Pitch:	-0.750	Yaw:	52.562	Thrust:	29.653
Time:	2.144	Roll Set Point:	-0.038	Pitch Set Point:	0.006	Yaw Set Point:	-0.562	X_WP:	0.000	Y_WP:	0.000	Y_WP:	0.500	X:	0.020	Y:	0.003	Z:	0.049	yaw:	32.209	yaw rate:	-9.238	Roll:	0.821	Pitch:	0.150	Yaw:	43.774	Thrust:	29.520
Time:	2.155	Roll Set Point:	-0.038	Pitch Set Point:	0.006	Yaw Set Point:	-0.560	X_WP:	0.000	Y_WP:	0.000	Y_WP:	0.500	X:	0.020	Y:	0.002	Z:	0.050	yaw:	32.114	yaw rate:	-9.579	Roll:	0.386	Pitch:	-0.462	Yaw:	43.668	Thrust:	28.866
Time:	2.166	Roll Set Point:	-0.037	Pitch Set Point:	0.006	Yaw Set Point:	-0.560	X_WP:	0.000	Y_WP:	0.000	Y_WP:	0.500	X:	0.019	Y:	0.002	Z:	0.050	yaw:	32.062	yaw rate:	-5.136	Roll:	-0.168	Pitch:	-0.367	Yaw:	44.655	Thrust:	31.169
Time:	2.177	Roll Set Point:	-0.038	Pitch Set Point:	0.006	Yaw Set Point:	-0.558	X_WP:	0.000	Y_WP:	0.000	Y_WP:	0.500	X:	0.020	Y:	0.003	Z:	0.049	yaw:	31.955	yaw rate:	-10.696	Roll:	1.539	Pitch:	0.065	Yaw:	43.176	Thrust:	32.164
Time:	2.188	Roll Set Point:	-0.038	Pitch Set Point:	0.006	Yaw Set Point:	-0.559	X_WP:	0.000	Y_WP:	0.000	Y_WP:	0.500	X:	0.020	Y:	0.003	Z:	0.049	yaw:	32.022	yaw rate:	6.707	Roll:	0.100	Pitch:	-0.262	Yaw:	47.407	Thrust:	32.368
Time:	2.200	Roll Set Point:	-0.038	Pitch Set Point:	0.006	Yaw Set Point:	-0.565	X_WP:	0.000	Y_WP:	0.000	Y_WP:	0.500	X:	0.020	Y:	0.002	Z:	0.050	yaw:	32.401	yaw rate:	37.831	Roll:	0.464	Pitch:	-0.554	Yaw:	55.322	Thrust:	30.701
Time:	2.211	Roll Set Point:	-0.038	Pitch Set Point:	0.006	Yaw Set Point:	-0.553	X_WP:	0.000	Y_WP:	0.000	Y_WP:	0.500	X:	0.020	Y:	0.003	Z:	0.049	yaw:	31.685	yaw rate:	-71.552	Roll:	0.919	Pitch:	0.227	Yaw:	28.360	Thrust:	34.974
Time:	2.222	Roll Set Point:	-0.038	Pitch Set Point:	0.006	Yaw Set Point:	-0.565	X_WP:	0.000	Y_WP:	0.000	Y_WP:	0.500	X:	0.020	Y:	0.003	Z:	0.050	yaw:	32.375	yaw rate:	68.966	Roll:	0.410	Pitch:	-0.675	Yaw:	62.677	Thrust:	31.433
Time:	2.233	Roll Set Point:	-0.038	Pitch Set Point:	0.006	Yaw Set Point:	-0.554	X_WP:	0.000	Y_WP:	0.000	Y_WP:	0.500	X:	0.020	Y:	0.002	Z:	0.049	yaw:	31.764	yaw rate:	-61.082	Roll:	0.516	Pitch:	-0.054	Yaw:	31.015	Thrust:	36.764
Time:	2.244	Roll Set Point:	-0.038	Pitch Set Point:	0.006	Yaw Set Point:	-0.557	X_WP:	0.000	Y_WP:	0.000	Y_WP:	0.500	X:	0.020	Y:	0.003	Z:	0.049	yaw:	31.897	yaw rate:	13.254	Roll:	0.424	Pitch:	0.038	Yaw:	48.785	Thrust:	33.842
Time:	2.255	Roll Set Point:	-0.038	Pitch Set Point:	0.006	Yaw Set Point:	-0.558	X_WP:	0.000	Y_WP:	0.000	Y_WP:	0.500	X:	0.020	Y:	0.003	Z:	0.049	yaw:	31.949	yaw rate:	5.224	Roll:	0.842	Pitch:	-0.369	Yaw:	46.952	Thrust:	36.029
Time:	2.266	Roll Set Point:	-0.038	Pitch Set Point:	0.006	Yaw Set Point:	-0.559	X_WP:	0.000	Y_WP:	0.000	Y_WP:	0.500	X:	0.020	Y:	0.002	Z:	0.050	yaw:	32.016	yaw rate:	6.702	Roll:	0.218	Pitch:	-0.609	Yaw:	47.396	Thrust:	35.205
Time:	2.277	Roll Set Point:	-0.038	Pitch Set Point:	0.006	Yaw Set Point:	-0.566	X_WP:	0.000	Y_WP:	0.000	Y_WP:	0.500	X:	0.020	Y:	0.002	Z:	0.050	yaw:	32.443	yaw rate:	42.675	Roll:	0.518	Pitch:	-0.334	Yaw:	56.531	Thrust:	36.290
Time:	2.288	Roll Set Point:	-0.038	Pitch Set Point:	0.005	Yaw Set Point:	-0.560	X_WP:	0.000	Y_WP:	0.000	Y_WP:	0.500	X:	0.020	Y:	0.003	Z:	0.050	yaw:	32.106	yaw rate:	-33.688	Roll:	0.750	Pitch:	0.349	Yaw:	37.934	Thrust:	37.992
Time:	2.299	Roll Set Point:	-0.038	Pitch Set Point:	0.006	Yaw Set Point:	-0.554	X_WP:	0.000	Y_WP:	0.000	Y_WP:	0.500	X:	0.020	Y:	0.003	Z:	0.049	yaw:	31.747	yaw rate:	-35.835	Roll:	0.725	Pitch:	-0.444	Yaw:	36.924	Thrust:	38.537
Time:	2.310	Roll Set Point:	-0.038	Pitch Set Point:	0.005	Yaw Set Point:	-0.563	X_WP:	0.000	Y_WP:	0.000	Y_WP:	0.500	X:	0.020	Y:	0.003	Z:	0.049	yaw:	32.244	yaw rate:	49.622	Roll:	0.128	Pitch:	-0.086	Yaw:	57.902	Thrust:	38.265
Time:	2.321	Roll Set Point:	-0.038	Pitch Set Point:	0.006	Yaw Set Point:	-0.557	X_WP:	0.000	Y_WP:	0.000	Y_WP:	0.500	X:	0.020	Y:	0.002	Z:	0.050	yaw:	31.937	yaw rate:	-30.675	Roll:	0.530	Pitch:	-0.540	Yaw:	38.440	Thrust:	38.523
Time:	2.332	Roll Set Point:	-0.038	Pitch Set Point:	0.006	Yaw Set Point:	-0.562	X_WP:	0.000	Y_WP:	0.000	Y_WP:	0.500	X:	0.020	Y:	0.002	Z:	0.050	yaw:	32.209	yaw rate:	27.235	Roll:	0.545	Pitch:	-0.328	Yaw:	52.543	Thrust:	38.972
Time:	2.343	Roll Set Point:	-0.038	Pitch Set Point:	0.005	Yaw Set Point:	-0.561	X_WP:	0.000	Y_WP:	0.000	Y_WP:	0.500	X:	0.020	Y:	0.003	Z:	0.050	yaw:	32.165	yaw rate:	-4.442	Roll:	0.862	Pitch:	0.119	Yaw:	44.958	Thrust:	41.068
Time:	2.354	Roll Set Point:	-0.038	Pitch Set Point:	0.006	Yaw Set Point:	-0.564	X_WP:	0.000	Y_WP:	0.000	Y_WP:	0.500	X:	0.020	Y:	0.002	Z:	0.050	yaw:	32.301	yaw rate:	13.675	Roll:	0.204	Pitch:	-0.703	Yaw:	49.455	Thrust:	40.159
Time:	2.365	Roll Set Point:	-0.037	Pitch Set Point:	0.006	Yaw Set Point:	-0.560	X_WP:	0.000	Y_WP:	0.000	Y_WP:	0.500	X:	0.020	Y:	0.003	Z:	0.049	yaw:	32.098	yaw rate:	-20.386	Roll:	0.282	Pitch:	0.117	Yaw:	41.081	Thrust:	42.629
Time:	2.376	Roll Set Point:	-0.038	Pitch Set Point:	0.006	Yaw Set Point:	-0.559	X_WP:	0.000	Y_WP:	0.000	Y_WP:	0.500	X:	0.020	Y:	0.002	Z:	0.050	yaw:	32.030	yaw rate:	-6.755	Roll:	0.765	Pitch:	-0.449	Yaw:	44.228	Thrust:	41.787
Time:	2.388	Roll Set Point:	-0.038	Pitch Set Point:	0.006	Yaw Set Point:	-0.553	X_WP:	0.000	Y_WP:	0.000	Y_WP:	0.500	X:	0.020	Y:	0.003	Z:	0.049	yaw:	31.674	yaw rate:	-35.579	Roll:	0.755	Pitch:	0.008	Yaw:	37.682	Thrust:	44.427
Time:	2.399	Roll Set Point:	-0.038	Pitch Set Point:	0.006	Yaw Set Point:	-0.557	X_WP:	0.000	Y_WP:	0.000	Y_WP:	0.500	X:	0.020	Y:	0.002	Z:	0.050	yaw:	31.927	yaw rate:	25.269	Roll:	0.106	Pitch:	-0.790	Yaw:	51.687	Thrust:	42.406
Time:	2.410	Roll Set Point:	-0.038	Pitch Set Point:	0.006	Yaw Set Point:	-0.554	X_WP:	0.000	Y_WP:	0.000	Y_WP:	0.500	X:	0.020	Y:	0.003	Z:	0.049	yaw:	31.715	yaw rate:	-21.159	Roll:	0.813	Pitch:	0.406	Yaw:	40.363	Thrust:	44.583
Time:	2.421	Roll Set Point:	-0.038	Pitch Set Point:	0.006	Yaw Set Point:	-0.563	X_WP:	0.000	Y_WP:	0.000	Y_WP:	0.500	X:	0.020	Y:	0.003	Z:	0.050	yaw:	32.238	yaw rate:	52.260	Roll:	0.541	Pitch:	-0.708	Yaw:	58.520	Thrust:	43.689
Time:	2.432	Roll Set Point:	-0.038	Pitch Set Point:	0.005	Yaw Set Point:	-0.561	X_WP:	0.000	Y_WP:	0.000	Y_WP:	0.500	X:	0.020	Y:	0.003	Z:	0.050	yaw:	32.161	yaw rate:	-7.683	Roll:	0.817	Pitch:	0.028	Yaw:	44.185	Thrust:	45.737
Time:	2.443	Roll Set Point:	-0.037	Pitch Set Point:	0.006	Yaw Set Point:	-0.558	X_WP:	0.000	Y_WP:	0.000	Y_WP:	0.500	X:	0.019	Y:	0.002	Z:	0.050	yaw:	31.963	yaw rate:	-19.813	Roll:	-0.085	Pitch:	-0.175	Yaw:	41.040	Thrust:	44.577
Time:	2.454	Roll Set Point:	-0.038	Pitch Set Point:	0.006	Yaw Set Point:	-0.563	X_WP:	0.000	Y_WP:	0.000	Y_WP:	0.500	X:	0.020	Y:	0.003	Z:	0.050	yaw:	32.240	yaw rate:	27.678	Roll:	0.800	Pitch:	-0.576	Yaw:	52.699	Thrust:	46.486
Time:	2.465	Roll Set Point:	-0.038	Pitch Set Point:	0.006	Yaw Set Point:	-0.553	X_WP:	0.000	Y_WP:	0.000	Y_WP:	0.500	X:	0.020	Y:	0.003	Z:	0.049	yaw:	31.683	yaw rate:	-55.718	Roll:	0.498	Pitch:	0.149	Yaw:	32.115	Thrust:	47.860
Time:	2.476	Roll Set Point:	-0.038	Pitch Set Point:	0.006	Yaw Set Point:	-0.562	X_WP:	0.000	Y_WP:	0.000	Y_WP:	0.500	X:	0.020	Y:	0.003	Z:	0.050	yaw:	32.205	yaw rate:	52.201	Roll:	0.749	Pitch:	-0.623	Yaw:	58.461	Thrust:	46.004
Time:	2.487	Roll Set Point:	-0.037	Pitch Set Point:	0.005	Yaw Set Point:	-0.557	X_WP:	0.000	Y_WP:	0.000	Y_WP:	0.500	X:	0.019	Y:	0.003	Z:	0.050	yaw:	31.898	yaw rate:	-30.631	Roll:	0.229	Pitch:	0.236	Yaw:	38.389	Thrust:	48.104
Time:	2.498	Roll Set Point:	-0.038	Pitch Set Point:	0.005	Yaw Set Point:	-0.550	X_WP:	0.000	Y_WP:	0.000	Y_WP:	0.500	X:	0.020	Y:	0.003	Z:	0.049	yaw:	31.487	yaw rate:	-41.105	Roll:	0.772	Pitch:	-0.150	Yaw:	35.290	Thrust:	50.362
Time:	2.509	Roll Set Point:	-0.038	Pitch Set Point:	0.006	Yaw Set Point:	-0.555	X_WP:	0.000	Y_WP:	0.000	Y_WP:	0.500	X:	0.020	Y:	0.003	Z:	0.050	yaw:	31.801	yaw rate:	31.380	Roll:	0.562	Pitch:	-0.464	Yaw:	52.954	Thrust:	48.055
Time:	2.520	Roll Set Point:	-0.037	Pitch Set Point:	0.006	Yaw Set Point:	-0.557	X_WP:	0.000	Y_WP:	0.000	Y_WP:	0.500	X:	0.019	Y:	0.002	Z:	0.050	yaw:	31.892	yaw rate:	9.094	Roll:	0.123	Pitch:	-0.414	Yaw:	47.791	Thrust:	49.590
Time:	2.531	Roll Set Point:	-0.037	Pitch Set Point:	0.005	Yaw Set Point:	-0.548	X_WP:	0.000	Y_WP:	0.000	Y_WP:	0.500	X:	0.019	Y:	0.003	Z:	0.050	yaw:	31.384	yaw rate:	-50.749	Roll:	0.738	Pitch:	0.151	Yaw:	32.909	Thrust:	50.874
Time:	2.542	Roll Set Point:	-0.037	Pitch Set Point:	0.006	Yaw Set Point:	-0.555	X_WP:	0.000	Y_WP:	0.000	Y_WP:	0.500	X:	0.019	Y:	0.002	Z:	0.050	yaw:	31.799	yaw rate:	41.421	Roll:	0.252	Pitch:	-0.563	Yaw:	55.356	Thrust:	49.089
Time:	2.553	Roll Set Point:	-0.037	Pitch Set Point:	0.006	Yaw Set Point:	-0.557	X_WP:	0.000	Y_WP:	0.000	Y_WP:	0.500	X:	0.019	Y:	0.002	Z:	0.050	yaw:	31.891	yaw rate:	9.228	Roll:	0.325	Pitch:	-0.534	Yaw:	47.821	Thrust:	52.662
Time:	2.565	Roll Set Point:	-0.037	Pitch Set Point:	0.006	Yaw Set Point:	-0.548	X_WP:	0.000	Y_WP:	0.000	Y_WP:	0.500	X:	0.019	Y:	0.002	Z:	0.050	yaw:	31.411	yaw rate:	-48.001	Roll:	0.483	Pitch:	-0.005	Yaw:	33.593	Thrust:	51.940
Time:	2.576	Roll Set Point:	-0.037	Pitch Set Point:	0.006	Yaw Set Point:	-0.548	X_WP:	0.000	Y_WP:	0.000	Y_WP:	0.500	X:	0.019	Y:	0.002	Z:	0.050	yaw:	31.374	yaw rate:	-3.676	Roll:	0.720	Pitch:	-0.074	Yaw:	44.036	Thrust:	53.810
Time:	2.587	Roll Set Point:	-0.037	Pitch Set Point:	0.006	Yaw Set Point:	-0.535	X_WP:	0.000	Y_WP:	0.000	Y_WP:	0.500	X:	0.019	Y:	0.002	Z:	0.050	yaw:	30.640	yaw rate:	-73.451	Roll:	0.579	Pitch:	0.201	Yaw:	26.455	Thrust:	52.836
Time:	2.598	Roll Set Point:	-0.037	Pitch Set Point:	0.005	Yaw Set Point:	-0.529	X_WP:	0.000	Y_WP:	0.000	Y_WP:	0.500	X:	0.019	Y:	0.002	Z:	0.050	yaw:	30.329	yaw rate:	-31.058	Roll:	0.423	Pitch:	0.018	Yaw:	36.060	Thrust:	54.117
Time:	2.609	Roll Set Point:	-0.037	Pitch Set Point:	0.005	Yaw Set Point:	-0.524	X_WP:	0.000	Y_WP:	0.000	Y_WP:	0.500	X:	0.019	Y:	0.002	Z:	0.050	yaw:	30.010	yaw rate:	-31.953	Roll:	0.564	Pitch:	0.034	Yaw:	35.420	Thrust:	54.553
Time:	2.620	Roll Set Point:	-0.036	Pitch Set Point:	0.005	Yaw Set Point:	-0.516	X_WP:	0.000	Y_WP:	0.000	Y_WP:	0.500	X:	0.019	Y:	0.002	Z:	0.050	yaw:	29.541	yaw rate:	-46.833	Roll:	0.247	Pitch:	-0.154	Yaw:	31.233	Thrust:	55.769
Time:	2.631	Roll Set Point:	-0.036	Pitch Set Point:	0.006	Yaw Set Point:	-0.511	X_WP:	0.000	Y_WP:	0.000	Y_WP:	0.500	X:	0.019	Y:	0.002	Z:	0.050	yaw:	29.305	yaw rate:	-23.644	Roll:	0.123	Pitch:	-0.380	Yaw:	36.408	Thrust:	54.863
Time:	2.642	Roll Set Point:	-0.036	Pitch Set Point:	0.005	Yaw Set Point:	-0.509	X_WP:	0.000	Y_WP:	0.000	Y_WP:	0.500	X:	0.019	Y:	0.002	Z:	0.050	yaw:	29.138	yaw rate:	-16.670	Roll:	0.540	Pitch:	0.005	Yaw:	37.831	Thrust:	55.060
Time:	2.653	Roll Set Point:	-0.036	Pitch Set Point:	0.006	Yaw Set Point:	-0.501	X_WP:	0.000	Y_WP:	0.000	Y_WP:	0.500	X:	0.019	Y:	0.002	Z:	0.050	yaw:	28.725	yaw rate:	-41.315	Roll:	0.901	Pitch:	-0.444	Yaw:	31.403	Thrust:	57.878
Time:	2.664	Roll Set Point:	-0.036	Pitch Set Point:	0.006	Yaw Set Point:	-0.491	X_WP:	0.000	Y_WP:	0.000	Y_WP:	0.500	X:	0.019	Y:	0.002	Z:	0.050	yaw:	28.155	yaw rate:	-57.018	Roll:	0.473	Pitch:	0.013	Yaw:	26.883	Thrust:	57.599
Time:	2.676	Roll Set Point:	-0.036	Pitch Set Point:	0.006	Yaw Set Point:	-0.484	X_WP:	0.000	Y_WP:	0.000	Y_WP:	0.500	X:	0.019	Y:	0.002	Z:	0.050	yaw:	27.741	yaw rate:	-41.335	Roll:	0.029	Pitch:	-0.091	Yaw:	30.944	Thrust:	60.093
Time:	2.690	Roll Set Point:	-0.035	Pitch Set Point:	0.006	Yaw Set Point:	-0.466	X_WP:	0.000	Y_WP:	0.000	Y_WP:	0.500	X:	0.018	Y:	0.001	Z:	0.050	yaw:	26.707	yaw rate:	-60.697	Roll:	0.221	Pitch:	0.266	Yaw:	19.395	Thrust:	64.147
Time:	2.702	Roll Set Point:	-0.035	Pitch Set Point:	0.005	Yaw Set Point:	-0.457	X_WP:	0.000	Y_WP:	0.000	Y_WP:	0.500	X:	0.018	Y:	0.002	Z:	0.051	yaw:	26.165	yaw rate:	-54.180	Roll:	0.382	Pitch:	0.329	Yaw:	25.965	Thrust:	64.397
Time:	2.713	Roll Set Point:	-0.034	Pitch Set Point:	0.005	Yaw Set Point:	-0.447	X_WP:	0.000	Y_WP:	0.000	Y_WP:	0.500	X:	0.018	Y:	0.002	Z:	0.051	yaw:	25.603	yaw rate:	-56.195	Roll:	0.177	Pitch:	0.258	Yaw:	23.514	Thrust:	58.790
Time:	2.724	Roll Set Point:	-0.034	Pitch Set Point:	0.005	Yaw Set Point:	-0.437	X_WP:	0.000	Y_WP:	0.000	Y_WP:	0.500	X:	0.017	Y:	0.001	Z:	0.051	yaw:	25.058	yaw rate:	-54.451	Roll:	0.306	Pitch:	0.038	Yaw:	23.170	Thrust:	60.969
Time:	2.735	Roll Set Point:	-0.034	Pitch Set Point:	0.004	Yaw Set Point:	-0.423	X_WP:	0.000	Y_WP:	0.000	Y_WP:	0.500	X:	0.017	Y:	0.002	Z:	0.051	yaw:	24.238	yaw rate:	-82.051	Roll:	0.514	Pitch:	0.479	Yaw:	15.464	Thrust:	58.761
Time:	2.746	Roll Set Point:	-0.033	Pitch Set Point:	0.003	Yaw Set Point:	-0.408	X_WP:	0.000	Y_WP:	0.000	Y_WP:	0.500	X:	0.017	Y:	0.002	Z:	0.052	yaw:	23.349	yaw rate:	-88.889	Roll:	0.065	Pitch:	0.883	Yaw:	12.562	Thrust:	60.377
Time:	2.757	Roll Set Point:	-0.032	Pitch Set Point:	0.003	Yaw Set Point:	-0.397	X_WP:	0.000	Y_WP:	0.000	Y_WP:	0.500	X:	0.017	Y:	0.002	Z:	0.052	yaw:	22.734	yaw rate:	-61.495	Roll:	0.221	Pitch:	0.202	Yaw:	18.282	Thrust:	60.930
Time:	2.768	Roll Set Point:	-0.032	Pitch Set Point:	0.003	Yaw Set Point:	-0.395	X_WP:	0.000	Y_WP:	0.000	Y_WP:	0.500	X:	0.016	Y:	0.002	Z:	0.053	yaw:	22.610	yaw rate:	-12.409	Roll:	-0.198	Pitch:	0.111	Yaw:	29.720	Thrust:	59.454
Time:	2.779	Roll Set Point:	-0.031	Pitch Set Point:	0.002	Yaw Set Point:	-0.369	X_WP:	0.000	Y_WP:	0.000	Y_WP:	0.500	X:	0.016	Y:	0.002	Z:	0.053	yaw:	21.115	yaw rate:	-149.473	Roll:	0.005	Pitch:	1.092	Yaw:	-4.833	Thrust:	61.743
Time:	2.790	Roll Set Point:	-0.030	Pitch Set Point:	0.001	Yaw Set Point:	-0.353	X_WP:	0.000	Y_WP:	0.000	Y_WP:	0.500	X:	0.015	Y:	0.002	Z:	0.054	yaw:	20.244	yaw rate:	-87.114	Roll:	-0.137	Pitch:	1.136	Yaw:	8.699	Thrust:	60.363
Time:	2.801	Roll Set Point:	-0.029	Pitch Set Point:	0.001	Yaw Set Point:	-0.349	X_WP:	0.000	Y_WP:	0.000	Y_WP:	0.500	X:	0.015	Y:	0.002	Z:	0.055	yaw:	20.022	yaw rate:	-22.211	Roll:	-0.105	Pitch:	0.093	Yaw:	23.786	Thrust:	61.946
Time:	2.812	Roll Set Point:	-0.028	Pitch Set Point:	-0.000	Yaw Set Point:	-0.331	X_WP:	0.000	Y_WP:	0.000	Y_WP:	0.500	X:	0.014	Y:	0.003	Z:	0.055	yaw:	18.988	yaw rate:	-103.352	Roll:	0.037	Pitch:	0.965	Yaw:	3.084	Thrust:	63.585
Time:	2.823	Roll Set Point:	-0.027	Pitch Set Point:	-0.001	Yaw Set Point:	-0.327	X_WP:	0.000	Y_WP:	0.000	Y_WP:	0.500	X:	0.014	Y:	0.003	Z:	0.056	yaw:	18.713	yaw rate:	-27.538	Roll:	-0.359	Pitch:	0.418	Yaw:	20.680	Thrust:	61.520
Time:	2.834	Roll Set Point:	-0.025	Pitch Set Point:	-0.002	Yaw Set Point:	-0.301	X_WP:	0.000	Y_WP:	0.000	Y_WP:	0.500	X:	0.012	Y:	0.003	Z:	0.057	yaw:	17.269	yaw rate:	-144.410	Roll:	-1.063	Pitch:	1.601	Yaw:	-9.004	Thrust:	62.363
Time:	2.845	Roll Set Point:	-0.024	Pitch Set Point:	-0.003	Yaw Set Point:	-0.300	X_WP:	0.000	Y_WP:	0.000	Y_WP:	0.500	X:	0.012	Y:	0.003	Z:	0.058	yaw:	17.189	yaw rate:	-8.022	Roll:	-0.063	Pitch:	0.404	Yaw:	23.193	Thrust:	63.087
Time:	2.856	Roll Set Point:	-0.023	Pitch Set Point:	-0.004	Yaw Set Point:	-0.285	X_WP:	0.000	Y_WP:	0.000	Y_WP:	0.500	X:	0.011	Y:	0.003	Z:	0.058	yaw:	16.324	yaw rate:	-86.484	Roll:	-0.651	Pitch:	0.996	Yaw:	3.367	Thrust:	64.479
Time:	2.867	Roll Set Point:	-0.021	Pitch Set Point:	-0.004	Yaw Set Point:	-0.281	X_WP:	0.000	Y_WP:	0.000	Y_WP:	0.500	X:	0.010	Y:	0.004	Z:	0.059	yaw:	16.126	yaw rate:	-19.815	Roll:	-0.815	Pitch:	0.699	Yaw:	18.915	Thrust:	64.022
Time:	2.878	Roll Set Point:	-0.020	Pitch Set Point:	-0.006	Yaw Set Point:	-0.265	X_WP:	0.000	Y_WP:	0.000	Y_WP:	0.500	X:	0.010	Y:	0.004	Z:	0.060	yaw:	15.190	yaw rate:	-93.539	Roll:	-0.563	Pitch:	1.292	Yaw:	0.180	Thrust:	64.918
Time:	2.890	Roll Set Point:	-0.018	Pitch Set Point:	-0.006	Yaw Set Point:	-0.261	X_WP:	0.000	Y_WP:	0.000	Y_WP:	0.500	X:	0.009	Y:	0.004	Z:	0.061	yaw:	14.951	yaw rate:	-23.894	Roll:	-1.038	Pitch:	0.475	Yaw:	16.863	Thrust:	67.984
Time:	2.901	Roll Set Point:	-0.016	Pitch Set Point:	-0.007	Yaw Set Point:	-0.248	X_WP:	0.000	Y_WP:	0.000	Y_WP:	0.500	X:	0.007	Y:	0.005	Z:	0.063	yaw:	14.229	yaw rate:	-72.261	Roll:	-1.635	Pitch:	1.436	Yaw:	3.862	Thrust:	62.307
Time:	2.912	Roll Set Point:	-0.014	Pitch Set Point:	-0.008	Yaw Set Point:	-0.240	X_WP:	0.000	Y_WP:	0.000	Y_WP:	0.500	X:	0.006	Y:	0.005	Z:	0.064	yaw:	13.755	yaw rate:	-47.420	Roll:	-1.186	Pitch:	0.868	Yaw:	9.048	Thrust:	65.179
Time:	2.923	Roll Set Point:	-0.012	Pitch Set Point:	-0.010	Yaw Set Point:	-0.225	X_WP:	0.000	Y_WP:	0.000	Y_WP:	0.500	X:	0.005	Y:	0.006	Z:	0.065	yaw:	12.916	yaw rate:	-83.850	Roll:	-0.898	Pitch:	1.777	Yaw:	-0.811	Thrust:	65.071
Time:	2.935	Roll Set Point:	-0.010	Pitch Set Point:	-0.010	Yaw Set Point:	-0.220	X_WP:	0.000	Y_WP:	0.000	Y_WP:	0.500	X:	0.004	Y:	0.006	Z:	0.067	yaw:	12.632	yaw rate:	-28.402	Roll:	-1.390	Pitch:	0.618	Yaw:	12.015	Thrust:	64.221
Time:	2.946	Roll Set Point:	-0.008	Pitch Set Point:	-0.011	Yaw Set Point:	-0.223	X_WP:	0.000	Y_WP:	0.000	Y_WP:	0.500	X:	0.003	Y:	0.006	Z:	0.068	yaw:	12.771	yaw rate:	13.867	Roll:	-1.215	Pitch:	1.286	Yaw:	22.230	Thrust:	65.541
Time:	2.957	Roll Set Point:	-0.005	Pitch Set Point:	-0.013	Yaw Set Point:	-0.201	X_WP:	0.000	Y_WP:	0.000	Y_WP:	0.500	X:	0.002	Y:	0.007	Z:	0.071	yaw:	11.533	yaw rate:	-123.806	Roll:	-2.341	Pitch:	1.919	Yaw:	-12.182	Thrust:	62.457
Time:	2.968	Roll Set Point:	-0.003	Pitch Set Point:	-0.014	Yaw Set Point:	-0.207	X_WP:	0.000	Y_WP:	0.000	Y_WP:	0.500	X:	0.001	Y:	0.007	Z:	0.073	yaw:	11.864	yaw rate:	33.132	Roll:	-1.261	Pitch:	0.990	Yaw:	25.518	Thrust:	64.322
Time:	2.979	Roll Set Point:	-0.000	Pitch Set Point:	-0.015	Yaw Set Point:	-0.201	X_WP:	0.000	Y_WP:	0.000	Y_WP:	0.500	X:	-0.001	Y:	0.008	Z:	0.075	yaw:	11.533	yaw rate:	-33.044	Roll:	-1.814	Pitch:	1.399	Yaw:	9.343	Thrust:	64.621
Time:	2.990	Roll Set Point:	0.002	Pitch Set Point:	-0.017	Yaw Set Point:	-0.194	X_WP:	0.000	Y_WP:	0.000	Y_WP:	0.500	X:	-0.002	Y:	0.008	Z:	0.076	yaw:	11.140	yaw rate:	-39.319	Roll:	-1.695	Pitch:	1.398	Yaw:	7.324	Thrust:	65.873
Time:	3.001	Roll Set Point:	0.006	Pitch Set Point:	-0.018	Yaw Set Point:	-0.192	X_WP:	0.000	Y_WP:	0.000	Y_WP:	0.500	X:	-0.004	Y:	0.009	Z:	0.079	yaw:	10.986	yaw rate:	-15.391	Roll:	-2.809	Pitch:	1.684	Yaw:	12.790	Thrust:	60.964
Time:	3.012	Roll Set Point:	0.008	Pitch Set Point:	-0.020	Yaw Set Point:	-0.185	X_WP:	0.000	Y_WP:	0.000	Y_WP:	0.500	X:	-0.005	Y:	0.010	Z:	0.082	yaw:	10.612	yaw rate:	-37.480	Roll:	-1.521	Pitch:	1.951	Yaw:	7.023	Thrust:	64.522
Time:	3.023	Roll Set Point:	0.011	Pitch Set Point:	-0.021	Yaw Set Point:	-0.170	X_WP:	0.000	Y_WP:	0.000	Y_WP:	0.500	X:	-0.007	Y:	0.010	Z:	0.084	yaw:	9.715	yaw rate:	-89.613	Roll:	-2.890	Pitch:	0.995	Yaw:	-6.519	Thrust:	66.705
Time:	3.034	Roll Set Point:	0.013	Pitch Set Point:	-0.022	Yaw Set Point:	-0.167	X_WP:	0.000	Y_WP:	0.000	Y_WP:	0.500	X:	-0.008	Y:	0.011	Z:	0.086	yaw:	9.590	yaw rate:	-12.530	Roll:	-1.738	Pitch:	1.558	Yaw:	11.520	Thrust:	63.641
Time:	3.045	Roll Set Point:	0.016	Pitch Set Point:	-0.024	Yaw Set Point:	-0.174	X_WP:	0.000	Y_WP:	0.000	Y_WP:	0.500	X:	-0.009	Y:	0.011	Z:	0.089	yaw:	9.960	yaw rate:	36.965	Roll:	-2.032	Pitch:	2.079	Yaw:	23.768	Thrust:	64.847
Time:	3.056	Roll Set Point:	0.019	Pitch Set Point:	-0.026	Yaw Set Point:	-0.166	X_WP:	0.000	Y_WP:	0.000	Y_WP:	0.500	X:	-0.011	Y:	0.012	Z:	0.091	yaw:	9.507	yaw rate:	-45.329	Roll:	-2.271	Pitch:	1.756	Yaw:	3.618	Thrust:	65.578
Time:	3.067	Roll Set Point:	0.023	Pitch Set Point:	-0.028	Yaw Set Point:	-0.158	X_WP:	0.000	Y_WP:	0.000	Y_WP:	0.500	X:	-0.013	Y:	0.013	Z:	0.095	yaw:	9.031	yaw rate:	-47.573	Roll:	-3.396	Pitch:	2.428	Yaw:	2.421	Thrust:	58.928
Time:	3.078	Roll Set Point:	0.026	Pitch Set Point:	-0.030	Yaw Set Point:	-0.157	X_WP:	0.000	Y_WP:	0.000	Y_WP:	0.500	X:	-0.014	Y:	0.014	Z:	0.098	yaw:	9.006	yaw rate:	-2.511	Roll:	-2.344	Pitch:	1.811	Yaw:	13.077	Thrust:	65.190
Time:	3.089	Roll Set Point:	0.029	Pitch Set Point:	-0.031	Yaw Set Point:	-0.145	X_WP:	0.000	Y_WP:	0.000	Y_WP:	0.500	X:	-0.016	Y:	0.015	Z:	0.101	yaw:	8.285	yaw rate:	-72.065	Roll:	-3.064	Pitch:	1.616	Yaw:	-4.434	Thrust:	65.377
Time:	3.100	Roll Set Point:	0.032	Pitch Set Point:	-0.034	Yaw Set Point:	-0.155	X_WP:	0.000	Y_WP:	0.000	Y_WP:	0.500	X:	-0.017	Y:	0.016	Z:	0.104	yaw:	8.864	yaw rate:	57.910	Roll:	-1.929	Pitch:	2.648	Yaw:	27.188	Thrust:	65.357
Time:	3.111	Roll Set Point:	0.036	Pitch Set Point:	-0.036	Yaw Set Point:	-0.145	X_WP:	0.000	Y_WP:	0.000	Y_WP:	0.500	X:	-0.020	Y:	0.017	Z:	0.108	yaw:	8.302	yaw rate:	-56.205	Roll:	-4.217	Pitch:	2.829	Yaw:	-0.661	Thrust:	58.706
Time:	3.122	Roll Set Point:	0.039	Pitch Set Point:	-0.038	Yaw Set Point:	-0.139	X_WP:	0.000	Y_WP:	0.000	Y_WP:	0.500	X:	-0.021	Y:	0.018	Z:	0.111	yaw:	7.941	yaw rate:	-36.088	Roll:	-2.720	Pitch:	2.057	Yaw:	3.628	Thrust:	65.566
Time:	3.133	Roll Set Point:	0.042	Pitch Set Point:	-0.040	Yaw Set Point:	-0.136	X_WP:	0.000	Y_WP:	0.000	Y_WP:	0.500	X:	-0.023	Y:	0.019	Z:	0.114	yaw:	7.799	yaw rate:	-14.197	Roll:	-2.878	Pitch:	2.227	Yaw:	8.623	Thrust:	65.650
Time:	3.145	Roll Set Point:	0.045	Pitch Set Point:	-0.042	Yaw Set Point:	-0.140	X_WP:	0.000	Y_WP:	0.000	Y_WP:	0.500	X:	-0.024	Y:	0.020	Z:	0.117	yaw:	8.044	yaw rate:	24.445	Roll:	-2.370	Pitch:	2.427	Yaw:	17.763	Thrust:	72.268
Time:	3.157	Roll Set Point:	0.049	Pitch Set Point:	-0.044	Yaw Set Point:	-0.127	X_WP:	0.000	Y_WP:	0.000	Y_WP:	0.500	X:	-0.026	Y:	0.020	Z:	0.120	yaw:	7.302	yaw rate:	-74.212	Roll:	-3.482	Pitch:	1.777	Yaw:	-4.748	Thrust:	72.609
Time:	3.168	Roll Set Point:	0.054	Pitch Set Point:	-0.047	Yaw Set Point:	-0.130	X_WP:	0.000	Y_WP:	0.000	Y_WP:	0.500	X:	-0.028	Y:	0.022	Z:	0.125	yaw:	7.427	yaw rate:	12.537	Roll:	-4.049	Pitch:	3.720	Yaw:	14.445	Thrust:	61.070
Time:	3.179	Roll Set Point:	0.057	Pitch Set Point:	-0.050	Yaw Set Point:	-0.134	X_WP:	0.000	Y_WP:	0.000	Y_WP:	0.500	X:	-0.030	Y:	0.023	Z:	0.128	yaw:	7.659	yaw rate:	23.221	Roll:	-2.709	Pitch:	2.860	Yaw:	17.318	Thrust:	66.547
Time:	3.190	Roll Set Point:	0.060	Pitch Set Point:	-0.052	Yaw Set Point:	-0.124	X_WP:	0.000	Y_WP:	0.000	Y_WP:	0.500	X:	-0.032	Y:	0.024	Z:	0.131	yaw:	7.081	yaw rate:	-57.787	Roll:	-3.426	Pitch:	2.369	Yaw:	-2.726	Thrust:	65.874
Time:	3.201	Roll Set Point:	0.063	Pitch Set Point:	-0.054	Yaw Set Point:	-0.120	X_WP:	0.000	Y_WP:	0.000	Y_WP:	0.500	X:	-0.033	Y:	0.025	Z:	0.134	yaw:	6.862	yaw rate:	-21.941	Roll:	-3.391	Pitch:	2.675	Yaw:	5.510	Thrust:	68.285
Time:	3.212	Roll Set Point:	0.066	Pitch Set Point:	-0.057	Yaw Set Point:	-0.131	X_WP:	0.000	Y_WP:	0.000	Y_WP:	0.500	X:	-0.035	Y:	0.026	Z:	0.137	yaw:	7.495	yaw rate:	63.363	Roll:	-2.351	Pitch:	3.253	Yaw:	26.581	Thrust:	66.642
Time:	3.224	Roll Set Point:	0.070	Pitch Set Point:	-0.059	Yaw Set Point:	-0.119	X_WP:	0.000	Y_WP:	0.000	Y_WP:	0.500	X:	-0.037	Y:	0.027	Z:	0.141	yaw:	6.822	yaw rate:	-67.345	Roll:	-3.899	Pitch:	2.356	Yaw:	-3.954	Thrust:	73.661
Time:	3.235	Roll Set Point:	0.074	Pitch Set Point:	-0.063	Yaw Set Point:	-0.122	X_WP:	0.000	Y_WP:	0.000	Y_WP:	0.500	X:	-0.039	Y:	0.029	Z:	0.146	yaw:	6.964	yaw rate:	14.160	Roll:	-3.889	Pitch:	4.208	Yaw:	14.186	Thrust:	59.296
Time:	3.246	Roll Set Point:	0.077	Pitch Set Point:	-0.065	Yaw Set Point:	-0.116	X_WP:	0.000	Y_WP:	0.000	Y_WP:	0.500	X:	-0.041	Y:	0.030	Z:	0.149	yaw:	6.632	yaw rate:	-33.147	Roll:	-3.919	Pitch:	2.732	Yaw:	2.496	Thrust:	67.200
Time:	3.257	Roll Set Point:	0.081	Pitch Set Point:	-0.067	Yaw Set Point:	-0.113	X_WP:	0.000	Y_WP:	0.000	Y_WP:	0.500	X:	-0.042	Y:	0.031	Z:	0.153	yaw:	6.483	yaw rate:	-14.945	Roll:	-3.607	Pitch:	2.738	Yaw:	6.607	Thrust:	66.310
Time:	3.269	Roll Set Point:	0.083	Pitch Set Point:	-0.070	Yaw Set Point:	-0.115	X_WP:	0.000	Y_WP:	0.000	Y_WP:	0.500	X:	-0.044	Y:	0.033	Z:	0.157	yaw:	6.582	yaw rate:	9.946	Roll:	-3.088	Pitch:	3.599	Yaw:	12.651	Thrust:	66.346
Time:	3.280	Roll Set Point:	0.087	Pitch Set Point:	-0.072	Yaw Set Point:	-0.112	X_WP:	0.000	Y_WP:	0.000	Y_WP:	0.500	X:	-0.045	Y:	0.034	Z:	0.160	yaw:	6.408	yaw rate:	-17.427	Roll:	-3.882	Pitch:	2.631	Yaw:	5.902	Thrust:	66.866
Time:	3.291	Roll Set Point:	0.091	Pitch Set Point:	-0.077	Yaw Set Point:	-0.117	X_WP:	0.000	Y_WP:	0.000	Y_WP:	0.500	X:	-0.048	Y:	0.036	Z:	0.166	yaw:	6.689	yaw rate:	28.109	Roll:	-4.212	Pitch:	4.963	Yaw:	17.117	Thrust:	57.945
Time:	3.302	Roll Set Point:	0.095	Pitch Set Point:	-0.079	Yaw Set Point:	-0.108	X_WP:	0.000	Y_WP:	0.000	Y_WP:	0.500	X:	-0.050	Y:	0.037	Z:	0.170	yaw:	6.168	yaw rate:	-52.064	Roll:	-4.372	Pitch:	2.739	Yaw:	-2.642	Thrust:	67.198
Time:	3.313	Roll Set Point:	0.098	Pitch Set Point:	-0.082	Yaw Set Point:	-0.112	X_WP:	0.000	Y_WP:	0.000	Y_WP:	0.500	X:	-0.051	Y:	0.038	Z:	0.174	yaw:	6.395	yaw rate:	22.707	Roll:	-3.075	Pitch:	3.848	Yaw:	15.423	Thrust:	65.465
Time:	3.324	Roll Set Point:	0.101	Pitch Set Point:	-0.083	Yaw Set Point:	-0.098	X_WP:	0.000	Y_WP:	0.000	Y_WP:	0.500	X:	-0.053	Y:	0.039	Z:	0.178	yaw:	5.642	yaw rate:	-75.298	Roll:	-4.535	Pitch:	2.196	Yaw:	-8.892	Thrust:	65.479
Time:	3.335	Roll Set Point:	0.104	Pitch Set Point:	-0.087	Yaw Set Point:	-0.103	X_WP:	0.000	Y_WP:	0.000	Y_WP:	0.500	X:	-0.054	Y:	0.041	Z:	0.182	yaw:	5.905	yaw rate:	26.287	Roll:	-3.269	Pitch:	4.061	Yaw:	15.588	Thrust:	65.718
Time:	3.346	Roll Set Point:	0.109	Pitch Set Point:	-0.090	Yaw Set Point:	-0.100	X_WP:	0.000	Y_WP:	0.000	Y_WP:	0.500	X:	-0.057	Y:	0.043	Z:	0.188	yaw:	5.717	yaw rate:	-18.841	Roll:	-4.968	Pitch:	4.378	Yaw:	4.613	Thrust:	58.276
Time:	3.357	Roll Set Point:	0.111	Pitch Set Point:	-0.093	Yaw Set Point:	-0.102	X_WP:	0.000	Y_WP:	0.000	Y_WP:	0.500	X:	-0.058	Y:	0.044	Z:	0.192	yaw:	5.847	yaw rate:	12.980	Roll:	-3.448	Pitch:	3.823	Yaw:	12.347	Thrust:	66.057
Time:	3.368	Roll Set Point:	0.114	Pitch Set Point:	-0.096	Yaw Set Point:	-0.106	X_WP:	0.000	Y_WP:	0.000	Y_WP:	0.500	X:	-0.059	Y:	0.045	Z:	0.196	yaw:	6.052	yaw rate:	20.535	Roll:	-3.259	Pitch:	3.904	Yaw:	14.428	Thrust:	66.557
Time:	3.379	Roll Set Point:	0.118	Pitch Set Point:	-0.098	Yaw Set Point:	-0.092	X_WP:	0.000	Y_WP:	0.000	Y_WP:	0.500	X:	-0.061	Y:	0.046	Z:	0.201	yaw:	5.253	yaw rate:	-79.876	Roll:	-5.036	Pitch:	2.350	Yaw:	-10.521	Thrust:	65.778
Time:	3.390	Roll Set Point:	0.120	Pitch Set Point:	-0.100	Yaw Set Point:	-0.093	X_WP:	0.000	Y_WP:	0.000	Y_WP:	0.500	X:	-0.063	Y:	0.047	Z:	0.205	yaw:	5.327	yaw rate:	7.409	Roll:	-3.666	Pitch:	3.675	Yaw:	10.300	Thrust:	66.458
Time:	3.401	Roll Set Point:	0.124	Pitch Set Point:	-0.105	Yaw Set Point:	-0.097	X_WP:	0.000	Y_WP:	0.000	Y_WP:	0.500	X:	-0.064	Y:	0.049	Z:	0.211	yaw:	5.574	yaw rate:	24.615	Roll:	-4.050	Pitch:	5.581	Yaw:	14.728	Thrust:	57.464
Time:	3.413	Roll Set Point:	0.127	Pitch Set Point:	-0.107	Yaw Set Point:	-0.088	X_WP:	0.000	Y_WP:	0.000	Y_WP:	0.500	X:	-0.066	Y:	0.050	Z:	0.215	yaw:	5.019	yaw rate:	-55.418	Roll:	-4.578	Pitch:	2.424	Yaw:	-3.881	Thrust:	74.675
Time:	3.424	Roll Set Point:	0.129	Pitch Set Point:	-0.110	Yaw Set Point:	-0.095	X_WP:	0.000	Y_WP:	0.000	Y_WP:	0.500	X:	-0.067	Y:	0.052	Z:	0.220	yaw:	5.437	yaw rate:	41.771	Roll:	-2.849	Pitch:	4.988	Yaw:	18.588	Thrust:	65.811
Time:	3.435	Roll Set Point:	0.132	Pitch Set Point:	-0.113	Yaw Set Point:	-0.094	X_WP:	0.000	Y_WP:	0.000	Y_WP:	0.500	X:	-0.069	Y:	0.053	Z:	0.224	yaw:	5.397	yaw rate:	-4.051	Roll:	-3.623	Pitch:	3.809	Yaw:	7.672	Thrust:	66.193
Time:	3.446	Roll Set Point:	0.134	Pitch Set Point:	-0.116	Yaw Set Point:	-0.096	X_WP:	0.000	Y_WP:	0.000	Y_WP:	0.500	X:	-0.070	Y:	0.055	Z:	0.229	yaw:	5.480	yaw rate:	8.390	Roll:	-3.343	Pitch:	4.200	Yaw:	10.747	Thrust:	66.118
Time:	3.457	Roll Set Point:	0.138	Pitch Set Point:	-0.119	Yaw Set Point:	-0.091	X_WP:	0.000	Y_WP:	0.000	Y_WP:	0.500	X:	-0.072	Y:	0.057	Z:	0.235	yaw:	5.217	yaw rate:	-26.310	Roll:	-5.120	Pitch:	4.583	Yaw:	2.143	Thrust:	57.474
Time:	3.468	Roll Set Point:	0.140	Pitch Set Point:	-0.122	Yaw Set Point:	-0.088	X_WP:	0.000	Y_WP:	0.000	Y_WP:	0.500	X:	-0.073	Y:	0.058	Z:	0.239	yaw:	5.059	yaw rate:	-15.832	Roll:	-3.971	Pitch:	3.466	Yaw:	4.409	Thrust:	66.815
Time:	3.479	Roll Set Point:	0.143	Pitch Set Point:	-0.124	Yaw Set Point:	-0.088	X_WP:	0.000	Y_WP:	0.000	Y_WP:	0.500	X:	-0.074	Y:	0.059	Z:	0.244	yaw:	5.039	yaw rate:	-2.042	Roll:	-3.665	Pitch:	4.145	Yaw:	7.653	Thrust:	66.383
Time:	3.490	Roll Set Point:	0.145	Pitch Set Point:	-0.127	Yaw Set Point:	-0.090	X_WP:	0.000	Y_WP:	0.000	Y_WP:	0.500	X:	-0.075	Y:	0.060	Z:	0.248	yaw:	5.167	yaw rate:	12.854	Roll:	-3.299	Pitch:	4.165	Yaw:	11.365	Thrust:	66.373
Time:	3.501	Roll Set Point:	0.146	Pitch Set Point:	-0.130	Yaw Set Point:	-0.089	X_WP:	0.000	Y_WP:	0.000	Y_WP:	0.500	X:	-0.076	Y:	0.062	Z:	0.253	yaw:	5.105	yaw rate:	-6.233	Roll:	-3.444	Pitch:	4.221	Yaw:	6.752	Thrust:	65.899
Time:	3.512	Roll Set Point:	0.150	Pitch Set Point:	-0.133	Yaw Set Point:	-0.085	X_WP:	0.000	Y_WP:	0.000	Y_WP:	0.500	X:	-0.078	Y:	0.063	Z:	0.260	yaw:	4.861	yaw rate:	-24.382	Roll:	-4.815	Pitch:	4.521	Yaw:	2.105	Thrust:	56.332
Time:	3.523	Roll Set Point:	0.152	Pitch Set Point:	-0.136	Yaw Set Point:	-0.082	X_WP:	0.000	Y_WP:	0.000	Y_WP:	0.500	X:	-0.079	Y:	0.065	Z:	0.264	yaw:	4.711	yaw rate:	-14.968	Roll:	-3.867	Pitch:	3.790	Yaw:	4.117	Thrust:	65.745
Time:	3.534	Roll Set Point:	0.154	Pitch Set Point:	-0.138	Yaw Set Point:	-0.082	X_WP:	0.000	Y_WP:	0.000	Y_WP:	0.500	X:	-0.080	Y:	0.066	Z:	0.269	yaw:	4.706	yaw rate:	-0.490	Roll:	-3.493	Pitch:	3.943	Yaw:	7.575	Thrust:	67.982
Time:	3.545	Roll Set Point:	0.156	Pitch Set Point:	-0.140	Yaw Set Point:	-0.080	X_WP:	0.000	Y_WP:	0.000	Y_WP:	0.500	X:	-0.081	Y:	0.067	Z:	0.273	yaw:	4.610	yaw rate:	-9.629	Roll:	-3.706	Pitch:	4.071	Yaw:	5.248	Thrust:	65.806
Time:	3.556	Roll Set Point:	0.157	Pitch Set Point:	-0.143	Yaw Set Point:	-0.088	X_WP:	0.000	Y_WP:	0.000	Y_WP:	0.500	X:	-0.082	Y:	0.068	Z:	0.278	yaw:	5.065	yaw rate:	45.496	Roll:	-2.504	Pitch:	4.858	Yaw:	18.959	Thrust:	66.533
Time:	3.567	Roll Set Point:	0.160	Pitch Set Point:	-0.146	Yaw Set Point:	-0.074	X_WP:	0.000	Y_WP:	0.000	Y_WP:	0.500	X:	-0.083	Y:	0.070	Z:	0.285	yaw:	4.264	yaw rate:	-80.122	Roll:	-5.446	Pitch:	3.651	Yaw:	-11.997	Thrust:	55.869
Time:	3.578	Roll Set Point:	0.161	Pitch Set Point:	-0.149	Yaw Set Point:	-0.078	X_WP:	0.000	Y_WP:	0.000	Y_WP:	0.500	X:	-0.083	Y:	0.071	Z:	0.289	yaw:	4.467	yaw rate:	20.317	Roll:	-2.682	Pitch:	4.791	Yaw:	12.162	Thrust:	66.228
Time:	3.589	Roll Set Point:	0.162	Pitch Set Point:	-0.151	Yaw Set Point:	-0.081	X_WP:	0.000	Y_WP:	0.000	Y_WP:	0.500	X:	-0.084	Y:	0.072	Z:	0.294	yaw:	4.654	yaw rate:	18.673	Roll:	-2.511	Pitch:	4.572	Yaw:	12.033	Thrust:	65.378
Time:	3.600	Roll Set Point:	0.164	Pitch Set Point:	-0.153	Yaw Set Point:	-0.073	X_WP:	0.000	Y_WP:	0.000	Y_WP:	0.500	X:	-0.085	Y:	0.074	Z:	0.299	yaw:	4.206	yaw rate:	-44.801	Roll:	-4.318	Pitch:	3.317	Yaw:	-3.659	Thrust:	65.442
Time:	3.612	Roll Set Point:	0.165	Pitch Set Point:	-0.156	Yaw Set Point:	-0.073	X_WP:	0.000	Y_WP:	0.000	Y_WP:	0.500	X:	-0.085	Y:	0.075	Z:	0.303	yaw:	4.163	yaw rate:	-4.276	Roll:	-3.235	Pitch:	4.127	Yaw:	5.900	Thrust:	66.208
Time:	3.623	Roll Set Point:	0.168	Pitch Set Point:	-0.157	Yaw Set Point:	-0.060	X_WP:	0.000	Y_WP:	0.000	Y_WP:	0.500	X:	-0.086	Y:	0.076	Z:	0.310	yaw:	3.415	yaw rate:	-74.787	Roll:	-5.563	Pitch:	3.135	Yaw:	-11.880	Thrust:	57.246
Time:	3.634	Roll Set Point:	0.168	Pitch Set Point:	-0.160	Yaw Set Point:	-0.064	X_WP:	0.000	Y_WP:	0.000	Y_WP:	0.500	X:	-0.087	Y:	0.077	Z:	0.314	yaw:	3.659	yaw rate:	24.354	Roll:	-2.345	Pitch:	4.899	Yaw:	11.980	Thrust:	66.138
Time:	3.645	Roll Set Point:	0.169	Pitch Set Point:	-0.163	Yaw Set Point:	-0.067	X_WP:	0.000	Y_WP:	0.000	Y_WP:	0.500	X:	-0.087	Y:	0.079	Z:	0.319	yaw:	3.865	yaw rate:	20.680	Roll:	-2.392	Pitch:	4.814	Yaw:	11.411	Thrust:	65.891
Time:	3.656	Roll Set Point:	0.170	Pitch Set Point:	-0.165	Yaw Set Point:	-0.064	X_WP:	0.000	Y_WP:	0.000	Y_WP:	0.500	X:	-0.088	Y:	0.080	Z:	0.323	yaw:	3.692	yaw rate:	-17.359	Roll:	-3.458	Pitch:	3.812	Yaw:	2.127	Thrust:	66.012
Time:	3.667	Roll Set Point:	0.171	Pitch Set Point:	-0.167	Yaw Set Point:	-0.062	X_WP:	0.000	Y_WP:	0.000	Y_WP:	0.500	X:	-0.088	Y:	0.081	Z:	0.328	yaw:	3.559	yaw rate:	-13.253	Roll:	-3.253	Pitch:	3.773	Yaw:	2.927	Thrust:	66.228
Time:	3.678	Roll Set Point:	0.172	Pitch Set Point:	-0.169	Yaw Set Point:	-0.053	X_WP:	0.000	Y_WP:	0.000	Y_WP:	0.500	X:	-0.088	Y:	0.082	Z:	0.335	yaw:	3.039	yaw rate:	-52.023	Roll:	-4.165	Pitch:	3.799	Yaw:	-7.002	Thrust:	55.703
Time:	3.689	Roll Set Point:	0.172	Pitch Set Point:	-0.172	Yaw Set Point:	-0.060	X_WP:	0.000	Y_WP:	0.000	Y_WP:	0.500	X:	-0.089	Y:	0.083	Z:	0.340	yaw:	3.452	yaw rate:	41.308	Roll:	-1.562	Pitch:	5.345	Yaw:	15.728	Thrust:	65.297
Time:	3.700	Roll Set Point:	0.172	Pitch Set Point:	-0.174	Yaw Set Point:	-0.063	X_WP:	0.000	Y_WP:	0.000	Y_WP:	0.500	X:	-0.089	Y:	0.084	Z:	0.344	yaw:	3.617	yaw rate:	16.436	Roll:	-2.105	Pitch:	4.536	Yaw:	10.054	Thrust:	65.091
Time:	3.711	Roll Set Point:	0.172	Pitch Set Point:	-0.176	Yaw Set Point:	-0.060	X_WP:	0.000	Y_WP:	0.000	Y_WP:	0.500	X:	-0.089	Y:	0.085	Z:	0.349	yaw:	3.414	yaw rate:	-20.253	Roll:	-3.171	Pitch:	3.924	Yaw:	1.063	Thrust:	65.260
Time:	3.722	Roll Set Point:	0.173	Pitch Set Point:	-0.177	Yaw Set Point:	-0.057	X_WP:	0.000	Y_WP:	0.000	Y_WP:	0.500	X:	-0.089	Y:	0.086	Z:	0.354	yaw:	3.282	yaw rate:	-13.155	Roll:	-3.017	Pitch:	3.742	Yaw:	2.564	Thrust:	65.411
Time:	3.733	Roll Set Point:	0.174	Pitch Set Point:	-0.179	Yaw Set Point:	-0.047	X_WP:	0.000	Y_WP:	0.000	Y_WP:	0.500	X:	-0.089	Y:	0.087	Z:	0.360	yaw:	2.693	yaw rate:	-58.936	Roll:	-4.392	Pitch:	3.347	Yaw:	-9.126	Thrust:	56.032
Time:	3.744	Roll Set Point:	0.173	Pitch Set Point:	-0.182	Yaw Set Point:	-0.054	X_WP:	0.000	Y_WP:	0.000	Y_WP:	0.500	X:	-0.089	Y:	0.089	Z:	0.365	yaw:	3.117	yaw rate:	42.435	Roll:	-0.998	Pitch:	5.516	Yaw:	15.528	Thrust:	65.244
Time:	3.755	Roll Set Point:	0.174	Pitch Set Point:	-0.183	Yaw Set Point:	-0.049	X_WP:	0.000	Y_WP:	0.000	Y_WP:	0.500	X:	-0.089	Y:	0.090	Z:	0.370	yaw:	2.793	yaw rate:	-32.488	Roll:	-3.182	Pitch:	3.441	Yaw:	-2.692	Thrust:	65.362
Time:	3.766	Roll Set Point:	0.173	Pitch Set Point:	-0.185	Yaw Set Point:	-0.049	X_WP:	0.000	Y_WP:	0.000	Y_WP:	0.500	X:	-0.089	Y:	0.090	Z:	0.374	yaw:	2.795	yaw rate:	0.222	Roll:	-2.172	Pitch:	4.169	Yaw:	5.059	Thrust:	65.565
Time:	3.777	Roll Set Point:	0.173	Pitch Set Point:	-0.186	Yaw Set Point:	-0.046	X_WP:	0.000	Y_WP:	0.000	Y_WP:	0.500	X:	-0.089	Y:	0.091	Z:	0.379	yaw:	2.630	yaw rate:	-16.503	Roll:	-2.669	Pitch:	3.760	Yaw:	0.843	Thrust:	64.292
Time:	3.788	Roll Set Point:	0.173	Pitch Set Point:	-0.189	Yaw Set Point:	-0.043	X_WP:	0.000	Y_WP:	0.000	Y_WP:	0.500	X:	-0.089	Y:	0.092	Z:	0.386	yaw:	2.474	yaw rate:	-15.620	Roll:	-2.475	Pitch:	4.430	Yaw:	0.851	Thrust:	55.900
Time:	3.799	Roll Set Point:	0.172	Pitch Set Point:	-0.190	Yaw Set Point:	-0.042	X_WP:	0.000	Y_WP:	0.000	Y_WP:	0.500	X:	-0.088	Y:	0.093	Z:	0.390	yaw:	2.406	yaw rate:	-6.716	Roll:	-2.200	Pitch:	3.974	Yaw:	2.869	Thrust:	65.074
Time:	3.810	Roll Set Point:	0.172	Pitch Set Point:	-0.191	Yaw Set Point:	-0.038	X_WP:	0.000	Y_WP:	0.000	Y_WP:	0.500	X:	-0.088	Y:	0.094	Z:	0.394	yaw:	2.194	yaw rate:	-21.275	Roll:	-2.706	Pitch:	3.641	Yaw:	-0.884	Thrust:	65.035
Time:	3.821	Roll Set Point:	0.172	Pitch Set Point:	-0.193	Yaw Set Point:	-0.038	X_WP:	0.000	Y_WP:	0.000	Y_WP:	0.500	X:	-0.088	Y:	0.095	Z:	0.399	yaw:	2.183	yaw rate:	-1.067	Roll:	-1.986	Pitch:	4.205	Yaw:	3.898	Thrust:	64.795
Time:	3.832	Roll Set Point:	0.171	Pitch Set Point:	-0.195	Yaw Set Point:	-0.039	X_WP:	0.000	Y_WP:	0.000	Y_WP:	0.500	X:	-0.087	Y:	0.096	Z:	0.406	yaw:	2.245	yaw rate:	6.198	Roll:	-1.616	Pitch:	4.721	Yaw:	5.709	Thrust:	55.727
Time:	3.843	Roll Set Point:	0.170	Pitch Set Point:	-0.197	Yaw Set Point:	-0.035	X_WP:	0.000	Y_WP:	0.000	Y_WP:	0.500	X:	-0.087	Y:	0.097	Z:	0.410	yaw:	2.022	yaw rate:	-22.265	Roll:	-2.328	Pitch:	3.726	Yaw:	-1.358	Thrust:	64.455
Time:	3.854	Roll Set Point:	0.169	Pitch Set Point:	-0.198	Yaw Set Point:	-0.033	X_WP:	0.000	Y_WP:	0.000	Y_WP:	0.500	X:	-0.086	Y:	0.098	Z:	0.415	yaw:	1.872	yaw rate:	-15.070	Roll:	-2.108	Pitch:	3.788	Yaw:	0.139	Thrust:	64.555
Time:	3.865	Roll Set Point:	0.169	Pitch Set Point:	-0.198	Yaw Set Point:	-0.024	X_WP:	0.000	Y_WP:	0.000	Y_WP:	0.500	X:	-0.086	Y:	0.098	Z:	0.419	yaw:	1.394	yaw rate:	-47.803	Roll:	-3.150	Pitch:	2.872	Yaw:	-8.298	Thrust:	64.295
Time:	3.876	Roll Set Point:	0.168	Pitch Set Point:	-0.200	Yaw Set Point:	-0.029	X_WP:	0.000	Y_WP:	0.000	Y_WP:	0.500	X:	-0.085	Y:	0.099	Z:	0.424	yaw:	1.667	yaw rate:	27.343	Roll:	-0.657	Pitch:	4.849	Yaw:	9.921	Thrust:	63.749
Time:	3.887	Roll Set Point:	0.166	Pitch Set Point:	-0.202	Yaw Set Point:	-0.026	X_WP:	0.000	Y_WP:	0.000	Y_WP:	0.500	X:	-0.084	Y:	0.100	Z:	0.430	yaw:	1.497	yaw rate:	-16.959	Roll:	-1.593	Pitch:	4.294	Yaw:	-0.832	Thrust:	55.187
Time:	3.898	Roll Set Point:	0.165	Pitch Set Point:	-0.204	Yaw Set Point:	-0.030	X_WP:	0.000	Y_WP:	0.000	Y_WP:	0.500	X:	-0.084	Y:	0.101	Z:	0.435	yaw:	1.705	yaw rate:	20.708	Roll:	-1.041	Pitch:	4.525	Yaw:	8.398	Thrust:	64.155
Time:	3.909	Roll Set Point:	0.164	Pitch Set Point:	-0.205	Yaw Set Point:	-0.028	X_WP:	0.000	Y_WP:	0.000	Y_WP:	0.500	X:	-0.083	Y:	0.101	Z:	0.439	yaw:	1.583	yaw rate:	-12.132	Roll:	-1.620	Pitch:	3.936	Yaw:	0.434	Thrust:	63.774
Time:	3.920	Roll Set Point:	0.162	Pitch Set Point:	-0.206	Yaw Set Point:	-0.029	X_WP:	0.000	Y_WP:	0.000	Y_WP:	0.500	X:	-0.083	Y:	0.102	Z:	0.443	yaw:	1.635	yaw rate:	5.167	Roll:	-1.356	Pitch:	4.222	Yaw:	4.612	Thrust:	64.779
Time:	3.931	Roll Set Point:	0.161	Pitch Set Point:	-0.207	Yaw Set Point:	-0.025	X_WP:	0.000	Y_WP:	0.000	Y_WP:	0.500	X:	-0.082	Y:	0.103	Z:	0.448	yaw:	1.458	yaw rate:	-17.656	Roll:	-1.779	Pitch:	3.636	Yaw:	-1.052	Thrust:	64.145
Time:	3.942	Roll Set Point:	0.159	Pitch Set Point:	-0.208	Yaw Set Point:	-0.023	X_WP:	0.000	Y_WP:	0.000	Y_WP:	0.500	X:	-0.081	Y:	0.103	Z:	0.454	yaw:	1.301	yaw rate:	-15.709	Roll:	-1.229	Pitch:	3.987	Yaw:	-0.810	Thrust:	55.447
Time:	3.954	Roll Set Point:	0.159	Pitch Set Point:	-0.209	Yaw Set Point:	-0.011	X_WP:	0.000	Y_WP:	0.000	Y_WP:	0.500	X:	-0.080	Y:	0.104	Z:	0.458	yaw:	0.627	yaw rate:	-67.440	Roll:	-3.189	Pitch:	2.613	Yaw:	-13.721	Thrust:	65.832
Time:	3.965	Roll Set Point:	0.157	Pitch Set Point:	-0.211	Yaw Set Point:	-0.019	X_WP:	0.000	Y_WP:	0.000	Y_WP:	0.500	X:	-0.079	Y:	0.105	Z:	0.462	yaw:	1.072	yaw rate:	44.564	Roll:	0.425	Pitch:	5.110	Yaw:	13.197	Thrust:	63.178
Time:	3.976	Roll Set Point:	0.155	Pitch Set Point:	-0.211	Yaw Set Point:	-0.020	X_WP:	0.000	Y_WP:	0.000	Y_WP:	0.500	X:	-0.078	Y:	0.105	Z:	0.466	yaw:	1.129	yaw rate:	5.676	Roll:	-0.993	Pitch:	3.973	Yaw:	4.027	Thrust:	64.437
Time:	3.987	Roll Set Point:	0.155	Pitch Set Point:	-0.211	Yaw Set Point:	-0.010	X_WP:	0.000	Y_WP:	0.000	Y_WP:	0.500	X:	-0.078	Y:	0.105	Z:	0.470	yaw:	0.575	yaw rate:	-55.375	Roll:	-2.816	Pitch:	2.684	Yaw:	-11.209	Thrust:	64.208
Time:	3.998	Roll Set Point:	0.151	Pitch Set Point:	-0.214	Yaw Set Point:	-0.015	X_WP:	0.000	Y_WP:	0.000	Y_WP:	0.500	X:	-0.076	Y:	0.106	Z:	0.477	yaw:	0.887	yaw rate:	31.154	Roll:	0.850	Pitch:	5.373	Yaw:	9.736	Thrust:	55.152
Time:	4.009	Roll Set Point:	0.149	Pitch Set Point:	-0.215	Yaw Set Point:	-0.016	X_WP:	0.000	Y_WP:	0.000	Y_WP:	0.500	X:	-0.076	Y:	0.107	Z:	0.481	yaw:	0.919	yaw rate:	3.150	Roll:	-0.972	Pitch:	3.869	Yaw:	3.132	Thrust:	63.517
Time:	4.020	Roll Set Point:	0.149	Pitch Set Point:	-0.214	Yaw Set Point:	-0.002	X_WP:	0.000	Y_WP:	0.000	Y_WP:	0.500	X:	-0.075	Y:	0.107	Z:	0.485	yaw:	0.094	yaw rate:	-82.478	Roll:	-3.384	Pitch:	2.278	Yaw:	-18.344	Thrust:	63.273
Time:	4.031	Roll Set Point:	0.147	Pitch Set Point:	-0.216	Yaw Set Point:	-0.009	X_WP:	0.000	Y_WP:	0.000	Y_WP:	0.500	X:	-0.074	Y:	0.108	Z:	0.489	yaw:	0.502	yaw rate:	40.779	Roll:	0.540	Pitch:	4.953	Yaw:	11.420	Thrust:	64.070
Time:	4.043	Roll Set Point:	0.143	Pitch Set Point:	-0.217	Yaw Set Point:	-0.006	X_WP:	0.000	Y_WP:	0.000	Y_WP:	0.500	X:	-0.072	Y:	0.108	Z:	0.497	yaw:	0.327	yaw rate:	-19.246	Roll:	0.052	Pitch:	4.121	Yaw:	-2.183	Thrust:	55.787
Time:	4.054	Roll Set Point:	0.143	Pitch Set Point:	-0.217	Yaw Set Point:	-0.006	X_WP:	0.000	Y_WP:	0.000	Y_WP:	0.500	X:	-0.072	Y:	0.108	Z:	0.497	yaw:	0.327	yaw rate:	-19.246	Roll:	-2.183	Pitch:	3.317	Yaw:	1.557	Thrust:	79.120
Time:	4.065	Roll Set Point:	0.140	Pitch Set Point:	-0.218	Yaw Set Point:	-0.007	X_WP:	0.000	Y_WP:	0.000	Y_WP:	0.500	X:	-0.070	Y:	0.109	Z:	0.502	yaw:	0.418	yaw rate:	9.091	Roll:	0.195	Pitch:	4.222	Yaw:	3.842	Thrust:	55.604
Time:	4.076	Roll Set Point:	0.140	Pitch Set Point:	-0.218	Yaw Set Point:	0.005	X_WP:	0.000	Y_WP:	0.000	Y_WP:	0.500	X:	-0.070	Y:	0.109	Z:	0.506	yaw:	-0.284	yaw rate:	-70.139	Roll:	-3.012	Pitch:	2.455	Yaw:	-15.937	Thrust:	62.834
Time:	4.087	Roll Set Point:	0.138	Pitch Set Point:	-0.219	Yaw Set Point:	0.004	X_WP:	0.000	Y_WP:	0.000	Y_WP:	0.500	X:	-0.069	Y:	0.110	Z:	0.510	yaw:	-0.256	yaw rate:	2.814	Roll:	-0.402	Pitch:	3.939	Yaw:	1.413	Thrust:	63.359
Time:	4.098	Roll Set Point:	0.134	Pitch Set Point:	-0.220	Yaw Set Point:	0.001	X_WP:	0.000	Y_WP:	0.000	Y_WP:	0.500	X:	-0.067	Y:	0.110	Z:	0.515	yaw:	-0.076	yaw rate:	17.986	Roll:	0.843	Pitch:	4.443	Yaw:	5.270	Thrust:	55.402
Time:	4.109	Roll Set Point:	0.132	Pitch Set Point:	-0.221	Yaw Set Point:	-0.002	X_WP:	0.000	Y_WP:	0.000	Y_WP:	0.500	X:	-0.066	Y:	0.111	Z:	0.519	yaw:	0.096	yaw rate:	17.189	Roll:	0.146	Pitch:	4.483	Yaw:	5.315	Thrust:	62.658
Time:	4.120	Roll Set Point:	0.131	Pitch Set Point:	-0.221	Yaw Set Point:	0.004	X_WP:	0.000	Y_WP:	0.000	Y_WP:	0.500	X:	-0.065	Y:	0.111	Z:	0.523	yaw:	-0.247	yaw rate:	-34.358	Roll:	-1.677	Pitch:	2.874	Yaw:	-7.385	Thrust:	63.128
Time:	4.131	Roll Set Point:	0.127	Pitch Set Point:	-0.222	Yaw Set Point:	-0.004	X_WP:	0.000	Y_WP:	0.000	Y_WP:	0.500	X:	-0.064	Y:	0.111	Z:	0.527	yaw:	0.219	yaw rate:	46.588	Roll:	1.277	Pitch:	4.880	Yaw:	12.459	Thrust:	61.779
Time:	4.142	Roll Set Point:	0.125	Pitch Set Point:	-0.223	Yaw Set Point:	-0.001	X_WP:	0.000	Y_WP:	0.000	Y_WP:	0.500	X:	-0.062	Y:	0.111	Z:	0.532	yaw:	0.042	yaw rate:	-17.682	Roll:	-0.062	Pitch:	3.723	Yaw:	-3.037	Thrust:	54.804
Time:	4.153	Roll Set Point:	0.123	Pitch Set Point:	-0.223	Yaw Set Point:	0.002	X_WP:	0.000	Y_WP:	0.000	Y_WP:	0.500	X:	-0.061	Y:	0.112	Z:	0.536	yaw:	-0.119	yaw rate:	-16.076	Roll:	-0.644	Pitch:	3.636	Yaw:	-2.893	Thrust:	61.703
Time:	4.164	Roll Set Point:	0.121	Pitch Set Point:	-0.224	Yaw Set Point:	0.002	X_WP:	0.000	Y_WP:	0.000	Y_WP:	0.500	X:	-0.060	Y:	0.112	Z:	0.540	yaw:	-0.123	yaw rate:	-0.387	Roll:	-0.335	Pitch:	3.710	Yaw:	0.839	Thrust:	62.162
Time:	4.175	Roll Set Point:	0.118	Pitch Set Point:	-0.224	Yaw Set Point:	0.003	X_WP:	0.000	Y_WP:	0.000	Y_WP:	0.500	X:	-0.059	Y:	0.112	Z:	0.543	yaw:	-0.200	yaw rate:	-7.741	Roll:	-0.272	Pitch:	3.672	Yaw:	-1.016	Thrust:	61.730
Time:	4.186	Roll Set Point:	0.116	Pitch Set Point:	-0.224	Yaw Set Point:	-0.001	X_WP:	0.000	Y_WP:	0.000	Y_WP:	0.500	X:	-0.058	Y:	0.112	Z:	0.547	yaw:	0.034	yaw rate:	23.439	Roll:	0.307	Pitch:	3.862	Yaw:	6.720	Thrust:	61.830
Time:	4.197	Roll Set Point:	0.115	Pitch Set Point:	-0.225	Yaw Set Point:	0.004	X_WP:	0.000	Y_WP:	0.000	Y_WP:	0.500	X:	-0.057	Y:	0.113	Z:	0.550	yaw:	-0.250	yaw rate:	-28.378	Roll:	-1.039	Pitch:	3.472	Yaw:	-5.968	Thrust:	61.954
Time:	4.208	Roll Set Point:	0.112	Pitch Set Point:	-0.225	Yaw Set Point:	0.006	X_WP:	0.000	Y_WP:	0.000	Y_WP:	0.500	X:	-0.055	Y:	0.113	Z:	0.555	yaw:	-0.369	yaw rate:	-11.883	Roll:	0.297	Pitch:	3.554	Yaw:	-2.237	Thrust:	54.687
Time:	4.219	Roll Set Point:	0.110	Pitch Set Point:	-0.225	Yaw Set Point:	0.008	X_WP:	0.000	Y_WP:	0.000	Y_WP:	0.500	X:	-0.054	Y:	0.113	Z:	0.559	yaw:	-0.462	yaw rate:	-9.342	Roll:	-0.518	Pitch:	3.506	Yaw:	-1.773	Thrust:	61.486
Time:	4.231	Roll Set Point:	0.105	Pitch Set Point:	-0.226	Yaw Set Point:	0.009	X_WP:	0.000	Y_WP:	0.000	Y_WP:	0.500	X:	-0.052	Y:	0.113	Z:	0.565	yaw:	-0.538	yaw rate:	-2.834	Roll:	1.416	Pitch:	3.769	Yaw:	-1.351	Thrust:	51.881
Time:	4.242	Roll Set Point:	0.104	Pitch Set Point:	-0.225	Yaw Set Point:	0.015	X_WP:	0.000	Y_WP:	0.000	Y_WP:	0.500	X:	-0.051	Y:	0.113	Z:	0.568	yaw:	-0.843	yaw rate:	-30.499	Roll:	-1.188	Pitch:	2.932	Yaw:	-7.325	Thrust:	61.978
Time:	4.253	Roll Set Point:	0.102	Pitch Set Point:	-0.225	Yaw Set Point:	0.018	X_WP:	0.000	Y_WP:	0.000	Y_WP:	0.500	X:	-0.050	Y:	0.113	Z:	0.572	yaw:	-1.045	yaw rate:	-20.178	Roll:	-0.543	Pitch:	3.309	Yaw:	-5.158	Thrust:	61.169
Time:	4.264	Roll Set Point:	0.099	Pitch Set Point:	-0.225	Yaw Set Point:	0.019	X_WP:	0.000	Y_WP:	0.000	Y_WP:	0.500	X:	-0.049	Y:	0.113	Z:	0.576	yaw:	-1.081	yaw rate:	-3.612	Roll:	0.754	Pitch:	3.582	Yaw:	-1.277	Thrust:	55.798
Time:	4.276	Roll Set Point:	0.096	Pitch Set Point:	-0.226	Yaw Set Point:	0.009	X_WP:	0.000	Y_WP:	0.000	Y_WP:	0.500	X:	-0.048	Y:	0.113	Z:	0.579	yaw:	-0.526	yaw rate:	55.513	Roll:	1.318	Pitch:	4.403	Yaw:	12.549	Thrust:	69.600
Time:	4.287	Roll Set Point:	0.094	Pitch Set Point:	-0.226	Yaw Set Point:	0.011	X_WP:	0.000	Y_WP:	0.000	Y_WP:	0.500	X:	-0.046	Y:	0.113	Z:	0.582	yaw:	-0.634	yaw rate:	-10.835	Roll:	-0.146	Pitch:	3.466	Yaw:	-2.377	Thrust:	61.913
Time:	4.299	Roll Set Point:	0.093	Pitch Set Point:	-0.226	Yaw Set Point:	0.016	X_WP:	0.000	Y_WP:	0.000	Y_WP:	0.500	X:	-0.045	Y:	0.113	Z:	0.585	yaw:	-0.937	yaw rate:	-30.274	Roll:	-0.944	Pitch:	3.195	Yaw:	-6.768	Thrust:	69.286
Time:	4.310	Roll Set Point:	0.091	Pitch Set Point:	-0.226	Yaw Set Point:	0.016	X_WP:	0.000	Y_WP:	0.000	Y_WP:	0.500	X:	-0.044	Y:	0.113	Z:	0.587	yaw:	-0.907	yaw rate:	3.039	Roll:	0.105	Pitch:	3.623	Yaw:	0.529	Thrust:	61.846
Time:	4.321	Roll Set Point:	0.088	Pitch Set Point:	-0.226	Yaw Set Point:	0.023	X_WP:	0.000	Y_WP:	0.000	Y_WP:	0.500	X:	-0.043	Y:	0.113	Z:	0.591	yaw:	-1.304	yaw rate:	-39.708	Roll:	-0.309	Pitch:	2.931	Yaw:	-10.176	Thrust:	56.743
Time:	4.332	Roll Set Point:	0.085	Pitch Set Point:	-0.226	Yaw Set Point:	0.015	X_WP:	0.000	Y_WP:	0.000	Y_WP:	0.500	X:	-0.042	Y:	0.113	Z:	0.594	yaw:	-0.854	yaw rate:	44.958	Roll:	1.687	Pitch:	4.239	Yaw:	10.544	Thrust:	62.316
Time:	4.343	Roll Set Point:	0.083	Pitch Set Point:	-0.226	Yaw Set Point:	0.015	X_WP:	0.000	Y_WP:	0.000	Y_WP:	0.500	X:	-0.041	Y:	0.113	Z:	0.596	yaw:	-0.837	yaw rate:	1.706	Roll:	0.180	Pitch:	3.544	Yaw:	0.298	Thrust:	62.227
Time:	4.354	Roll Set Point:	0.081	Pitch Set Point:	-0.226	Yaw Set Point:	0.015	X_WP:	0.000	Y_WP:	0.000	Y_WP:	0.500	X:	-0.040	Y:	0.113	Z:	0.599	yaw:	-0.838	yaw rate:	-0.123	Roll:	0.070	Pitch:	3.442	Yaw:	-0.141	Thrust:	61.940
Time:	4.365	Roll Set Point:	0.079	Pitch Set Point:	-0.226	Yaw Set Point:	0.012	X_WP:	0.000	Y_WP:	0.000	Y_WP:	0.500	X:	-0.039	Y:	0.113	Z:	0.601	yaw:	-0.690	yaw rate:	14.788	Roll:	0.859	Pitch:	3.675	Yaw:	3.601	Thrust:	61.549
Time:	4.376	Roll Set Point:	0.076	Pitch Set Point:	-0.226	Yaw Set Point:	0.011	X_WP:	0.000	Y_WP:	0.000	Y_WP:	0.500	X:	-0.037	Y:	0.113	Z:	0.604	yaw:	-0.633	yaw rate:	5.793	Roll:	0.919	Pitch:	3.423	Yaw:	1.544	Thrust:	57.602
Time:	4.387	Roll Set Point:	0.075	Pitch Set Point:	-0.226	Yaw Set Point:	0.014	X_WP:	0.000	Y_WP:	0.000	Y_WP:	0.500	X:	-0.036	Y:	0.113	Z:	0.607	yaw:	-0.830	yaw rate:	-19.738	Roll:	-0.353	Pitch:	3.317	Yaw:	-4.803	Thrust:	61.614
Time:	4.398	Roll Set Point:	0.073	Pitch Set Point:	-0.226	Yaw Set Point:	0.017	X_WP:	0.000	Y_WP:	0.000	Y_WP:	0.500	X:	-0.036	Y:	0.113	Z:	0.609	yaw:	-0.977	yaw rate:	-14.739	Roll:	-0.331	Pitch:	3.286	Yaw:	-3.816	Thrust:	61.344
Time:	4.409	Roll Set Point:	0.071	Pitch Set Point:	-0.225	Yaw Set Point:	0.015	X_WP:	0.000	Y_WP:	0.000	Y_WP:	0.500	X:	-0.035	Y:	0.113	Z:	0.611	yaw:	-0.868	yaw rate:	10.952	Roll:	0.772	Pitch:	3.473	Yaw:	2.431	Thrust:	61.957
Time:	4.420	Roll Set Point:	0.068	Pitch Set Point:	-0.225	Yaw Set Point:	0.017	X_WP:	0.000	Y_WP:	0.000	Y_WP:	0.500	X:	-0.033	Y:	0.113	Z:	0.614	yaw:	-0.990	yaw rate:	-12.178	Roll:	0.415	Pitch:	3.205	Yaw:	-3.232	Thrust:	56.641
Time:	4.431	Roll Set Point:	0.067	Pitch Set Point:	-0.225	Yaw Set Point:	0.020	X_WP:	0.000	Y_WP:	0.000	Y_WP:	0.500	X:	-0.033	Y:	0.113	Z:	0.617	yaw:	-1.123	yaw rate:	-13.389	Roll:	-0.475	Pitch:	3.337	Yaw:	-3.711	Thrust:	61.131
Time:	4.442	Roll Set Point:	0.066	Pitch Set Point:	-0.224	Yaw Set Point:	0.019	X_WP:	0.000	Y_WP:	0.000	Y_WP:	0.500	X:	-0.032	Y:	0.113	Z:	0.619	yaw:	-1.070	yaw rate:	5.302	Roll:	0.167	Pitch:	3.169	Yaw:	0.796	Thrust:	61.580
Time:	4.453	Roll Set Point:	0.064	Pitch Set Point:	-0.224	Yaw Set Point:	0.017	X_WP:	0.000	Y_WP:	0.000	Y_WP:	0.500	X:	-0.031	Y:	0.112	Z:	0.620	yaw:	-0.984	yaw rate:	8.656	Roll:	0.527	Pitch:	3.376	Yaw:	1.709	Thrust:	61.540
Time:	4.464	Roll Set Point:	0.063	Pitch Set Point:	-0.224	Yaw Set Point:	0.022	X_WP:	0.000	Y_WP:	0.000	Y_WP:	0.500	X:	-0.030	Y:	0.112	Z:	0.622	yaw:	-1.284	yaw rate:	-29.961	Roll:	-0.847	Pitch:	3.107	Yaw:	-7.880	Thrust:	61.416
Time:	4.475	Roll Set Point:	0.060	Pitch Set Point:	-0.223	Yaw Set Point:	0.022	X_WP:	0.000	Y_WP:	0.000	Y_WP:	0.500	X:	-0.029	Y:	0.112	Z:	0.625	yaw:	-1.234	yaw rate:	4.955	Roll:	1.071	Pitch:	3.243	Yaw:	0.472	Thrust:	56.956
Time:	4.486	Roll Set Point:	0.059	Pitch Set Point:	-0.223	Yaw Set Point:	0.027	X_WP:	0.000	Y_WP:	0.000	Y_WP:	0.500	X:	-0.028	Y:	0.112	Z:	0.627	yaw:	-1.569	yaw rate:	-33.479	Roll:	-1.105	Pitch:	2.637	Yaw:	-9.146	Thrust:	61.636
Time:	4.497	Roll Set Point:	0.058	Pitch Set Point:	-0.222	Yaw Set Point:	0.027	X_WP:	0.000	Y_WP:	0.000	Y_WP:	0.500	X:	-0.028	Y:	0.111	Z:	0.629	yaw:	-1.572	yaw rate:	-0.353	Roll:	-0.303	Pitch:	3.178	Yaw:	-1.271	Thrust:	61.450
Time:	4.508	Roll Set Point:	0.056	Pitch Set Point:	-0.223	Yaw Set Point:	0.021	X_WP:	0.000	Y_WP:	0.000	Y_WP:	0.500	X:	-0.027	Y:	0.112	Z:	0.630	yaw:	-1.193	yaw rate:	37.974	Roll:	1.750	Pitch:	4.119	Yaw:	8.351	Thrust:	60.437
Time:	4.519	Roll Set Point:	0.055	Pitch Set Point:	-0.221	Yaw Set Point:	0.031	X_WP:	0.000	Y_WP:	0.000	Y_WP:	0.500	X:	-0.026	Y:	0.111	Z:	0.633	yaw:	-1.781	yaw rate:	-58.853	Roll:	-1.358	Pitch:	2.082	Yaw:	-15.459	Thrust:	58.102
Time:	4.530	Roll Set Point:	0.053	Pitch Set Point:	-0.221	Yaw Set Point:	0.030	X_WP:	0.000	Y_WP:	0.000	Y_WP:	0.500	X:	-0.025	Y:	0.111	Z:	0.634	yaw:	-1.726	yaw rate:	5.466	Roll:	0.301	Pitch:	3.339	Yaw:	-0.122	Thrust:	61.309
Time:	4.542	Roll Set Point:	0.052	Pitch Set Point:	-0.221	Yaw Set Point:	0.029	X_WP:	0.000	Y_WP:	0.000	Y_WP:	0.500	X:	-0.024	Y:	0.111	Z:	0.636	yaw:	-1.636	yaw rate:	9.079	Roll:	0.251	Pitch:	3.358	Yaw:	0.855	Thrust:	61.049
Time:	4.553	Roll Set Point:	0.050	Pitch Set Point:	-0.221	Yaw Set Point:	0.022	X_WP:	0.000	Y_WP:	0.000	Y_WP:	0.500	X:	-0.024	Y:	0.111	Z:	0.637	yaw:	-1.263	yaw rate:	37.238	Roll:	1.168	Pitch:	3.598	Yaw:	8.053	Thrust:	61.126
Time:	4.564	Roll Set Point:	0.049	Pitch Set Point:	-0.220	Yaw Set Point:	0.025	X_WP:	0.000	Y_WP:	0.000	Y_WP:	0.500	X:	-0.023	Y:	0.110	Z:	0.639	yaw:	-1.434	yaw rate:	-17.085	Roll:	-0.258	Pitch:	3.066	Yaw:	-5.085	Thrust:	61.431
Time:	4.575	Roll Set Point:	0.048	Pitch Set Point:	-0.219	Yaw Set Point:	0.027	X_WP:	0.000	Y_WP:	0.000	Y_WP:	0.500	X:	-0.023	Y:	0.110	Z:	0.640	yaw:	-1.553	yaw rate:	-11.891	Roll:	-0.637	Pitch:	2.822	Yaw:	-4.023	Thrust:	61.329
Time:	4.586	Roll Set Point:	0.046	Pitch Set Point:	-0.219	Yaw Set Point:	0.024	X_WP:	0.000	Y_WP:	0.000	Y_WP:	0.500	X:	-0.022	Y:	0.110	Z:	0.642	yaw:	-1.392	yaw rate:	16.064	Roll:	0.981	Pitch:	3.216	Yaw:	2.831	Thrust:	58.544
Time:	4.597	Roll Set Point:	0.045	Pitch Set Point:	-0.218	Yaw Set Point:	0.022	X_WP:	0.000	Y_WP:	0.000	Y_WP:	0.500	X:	-0.021	Y:	0.109	Z:	0.643	yaw:	-1.248	yaw rate:	14.401	Roll:	0.478	Pitch:	3.141	Yaw:	2.631	Thrust:	61.671
Time:	4.608	Roll Set Point:	0.043	Pitch Set Point:	-0.218	Yaw Set Point:	0.019	X_WP:	0.000	Y_WP:	0.000	Y_WP:	0.500	X:	-0.020	Y:	0.109	Z:	0.644	yaw:	-1.081	yaw rate:	16.686	Roll:	0.686	Pitch:	3.214	Yaw:	3.402	Thrust:	61.225
Time:	4.619	Roll Set Point:	0.043	Pitch Set Point:	-0.218	Yaw Set Point:	0.023	X_WP:	0.000	Y_WP:	0.000	Y_WP:	0.500	X:	-0.020	Y:	0.109	Z:	0.645	yaw:	-1.341	yaw rate:	-25.912	Roll:	-0.901	Pitch:	3.116	Yaw:	-7.078	Thrust:	60.796
Time:	4.630	Roll Set Point:	0.041	Pitch Set Point:	-0.217	Yaw Set Point:	0.021	X_WP:	0.000	Y_WP:	0.000	Y_WP:	0.500	X:	-0.019	Y:	0.109	Z:	0.646	yaw:	-1.193	yaw rate:	14.754	Roll:	0.586	Pitch:	2.994	Yaw:	2.779	Thrust:	61.210
Time:	4.641	Roll Set Point:	0.040	Pitch Set Point:	-0.216	Yaw Set Point:	0.026	X_WP:	0.000	Y_WP:	0.000	Y_WP:	0.500	X:	-0.019	Y:	0.108	Z:	0.647	yaw:	-1.472	yaw rate:	-27.923	Roll:	-0.655	Pitch:	2.319	Yaw:	-7.763	Thrust:	59.766
Time:	4.652	Roll Set Point:	0.040	Pitch Set Point:	-0.215	Yaw Set Point:	0.027	X_WP:	0.000	Y_WP:	0.000	Y_WP:	0.500	X:	-0.018	Y:	0.108	Z:	0.648	yaw:	-1.542	yaw rate:	-6.983	Roll:	-0.508	Pitch:	2.782	Yaw:	-2.879	Thrust:	61.288
Time:	4.663	Roll Set Point:	0.040	Pitch Set Point:	-0.214	Yaw Set Point:	0.035	X_WP:	0.000	Y_WP:	0.000	Y_WP:	0.500	X:	-0.018	Y:	0.108	Z:	0.648	yaw:	-1.983	yaw rate:	-44.117	Roll:	-1.556	Pitch:	2.992	Yaw:	-12.316	Thrust:	61.961
Time:	4.674	Roll Set Point:	0.038	Pitch Set Point:	-0.214	Yaw Set Point:	0.029	X_WP:	0.000	Y_WP:	0.000	Y_WP:	0.500	X:	-0.018	Y:	0.107	Z:	0.649	yaw:	-1.640	yaw rate:	34.331	Roll:	1.052	Pitch:	3.501	Yaw:	6.778	Thrust:	60.946
Time:	4.685	Roll Set Point:	0.037	Pitch Set Point:	-0.213	Yaw Set Point:	0.025	X_WP:	0.000	Y_WP:	0.000	Y_WP:	0.500	X:	-0.017	Y:	0.107	Z:	0.650	yaw:	-1.431	yaw rate:	20.907	Roll:	0.525	Pitch:	2.760	Yaw:	3.866	Thrust:	60.899
Time:	4.696	Roll Set Point:	0.036	Pitch Set Point:	-0.213	Yaw Set Point:	0.028	X_WP:	0.000	Y_WP:	0.000	Y_WP:	0.500	X:	-0.017	Y:	0.107	Z:	0.650	yaw:	-1.584	yaw rate:	-15.343	Roll:	-0.553	Pitch:	2.723	Yaw:	-4.947	Thrust:	61.881
Time:	4.707	Roll Set Point:	0.035	Pitch Set Point:	-0.212	Yaw Set Point:	0.023	X_WP:	0.000	Y_WP:	0.000	Y_WP:	0.500	X:	-0.016	Y:	0.106	Z:	0.651	yaw:	-1.305	yaw rate:	27.890	Roll:	0.826	Pitch:	3.418	Yaw:	5.713	Thrust:	60.857
Time:	4.718	Roll Set Point:	0.035	Pitch Set Point:	-0.211	Yaw Set Point:	0.032	X_WP:	0.000	Y_WP:	0.000	Y_WP:	0.500	X:	-0.016	Y:	0.106	Z:	0.651	yaw:	-1.837	yaw rate:	-53.168	Roll:	-1.784	Pitch:	2.423	Yaw:	-14.290	Thrust:	61.980
Time:	4.729	Roll Set Point:	0.035	Pitch Set Point:	-0.211	Yaw Set Point:	0.032	X_WP:	0.000	Y_WP:	0.000	Y_WP:	0.500	X:	-0.016	Y:	0.106	Z:	0.652	yaw:	-1.805	yaw rate:	3.214	Roll:	-0.251	Pitch:	2.827	Yaw:	-0.869	Thrust:	61.962
Time:	4.740	Roll Set Point:	0.034	Pitch Set Point:	-0.210	Yaw Set Point:	0.032	X_WP:	0.000	Y_WP:	0.000	Y_WP:	0.500	X:	-0.015	Y:	0.105	Z:	0.652	yaw:	-1.824	yaw rate:	-1.862	Roll:	-0.454	Pitch:	2.936	Yaw:	-2.107	Thrust:	61.897
Time:	4.751	Roll Set Point:	0.033	Pitch Set Point:	-0.210	Yaw Set Point:	0.024	X_WP:	0.000	Y_WP:	0.000	Y_WP:	0.500	X:	-0.015	Y:	0.105	Z:	0.652	yaw:	-1.380	yaw rate:	44.370	Roll:	1.238	Pitch:	3.238	Yaw:	9.460	Thrust:	61.021
Time:	4.762	Roll Set Point:	0.032	Pitch Set Point:	-0.209	Yaw Set Point:	0.024	X_WP:	0.000	Y_WP:	0.000	Y_WP:	0.500	X:	-0.015	Y:	0.105	Z:	0.652	yaw:	-1.372	yaw rate:	0.794	Roll:	-0.321	Pitch:	2.843	Yaw:	-0.858	Thrust:	62.073
Time:	4.773	Roll Set Point:	0.031	Pitch Set Point:	-0.208	Yaw Set Point:	0.023	X_WP:	0.000	Y_WP:	0.000	Y_WP:	0.500	X:	-0.014	Y:	0.104	Z:	0.652	yaw:	-1.339	yaw rate:	3.288	Roll:	-0.065	Pitch:	2.954	Yaw:	-0.226	Thrust:	61.465
Time:	4.785	Roll Set Point:	0.031	Pitch Set Point:	-0.208	Yaw Set Point:	0.023	X_WP:	0.000	Y_WP:	0.000	Y_WP:	0.500	X:	-0.014	Y:	0.104	Z:	0.653	yaw:	-1.305	yaw rate:	3.387	Roll:	-0.316	Pitch:	2.956	Yaw:	-0.150	Thrust:	67.664
Time:	4.796	Roll Set Point:	0.031	Pitch Set Point:	-0.207	Yaw Set Point:	0.023	X_WP:	0.000	Y_WP:	0.000	Y_WP:	0.500	X:	-0.014	Y:	0.104	Z:	0.652	yaw:	-1.313	yaw rate:	-0.825	Roll:	-0.471	Pitch:	2.637	Yaw:	-1.176	Thrust:	62.518
Time:	4.807	Roll Set Point:	0.031	Pitch Set Point:	-0.206	Yaw Set Point:	0.030	X_WP:	0.000	Y_WP:	0.000	Y_WP:	0.500	X:	-0.014	Y:	0.103	Z:	0.652	yaw:	-1.706	yaw rate:	-39.203	Roll:	-1.576	Pitch:	2.589	Yaw:	-10.838	Thrust:	61.796
Time:	4.818	Roll Set Point:	0.030	Pitch Set Point:	-0.205	Yaw Set Point:	0.021	X_WP:	0.000	Y_WP:	0.000	Y_WP:	0.500	X:	-0.014	Y:	0.103	Z:	0.652	yaw:	-1.221	yaw rate:	48.461	Roll:	0.931	Pitch:	2.900	Yaw:	10.617	Thrust:	62.170
Time:	4.829	Roll Set Point:	0.031	Pitch Set Point:	-0.205	Yaw Set Point:	0.028	X_WP:	0.000	Y_WP:	0.000	Y_WP:	0.500	X:	-0.014	Y:	0.102	Z:	0.652	yaw:	-1.604	yaw rate:	-38.359	Roll:	-1.693	Pitch:	2.726	Yaw:	-10.530	Thrust:	61.503
Time:	4.840	Roll Set Point:	0.029	Pitch Set Point:	-0.205	Yaw Set Point:	0.015	X_WP:	0.000	Y_WP:	0.000	Y_WP:	0.500	X:	-0.014	Y:	0.102	Z:	0.652	yaw:	-0.843	yaw rate:	76.117	Roll:	1.894	Pitch:	3.528	Yaw:	17.673	Thrust:	61.644
Time:	4.851	Roll Set Point:	0.030	Pitch Set Point:	-0.203	Yaw Set Point:	0.027	X_WP:	0.000	Y_WP:	0.000	Y_WP:	0.500	X:	-0.014	Y:	0.102	Z:	0.652	yaw:	-1.564	yaw rate:	-72.094	Roll:	-2.802	Pitch:	1.858	Yaw:	-18.427	Thrust:	62.676
Time:	4.862	Roll Set Point:	0.030	Pitch Set Point:	-0.202	Yaw Set Point:	0.025	X_WP:	0.000	Y_WP:	0.000	Y_WP:	0.500	X:	-0.014	Y:	0.101	Z:	0.651	yaw:	-1.429	yaw rate:	13.546	Roll:	-0.047	Pitch:	2.993	Yaw:	2.042	Thrust:	61.606
Time:	4.873	Roll Set Point:	0.028	Pitch Set Point:	-0.202	Yaw Set Point:	0.010	X_WP:	0.000	Y_WP:	0.000	Y_WP:	0.500	X:	-0.013	Y:	0.101	Z:	0.651	yaw:	-0.565	yaw rate:	86.333	Roll:	2.043	Pitch:	3.269	Yaw:	20.518	Thrust:	62.344
Time:	4.884	Roll Set Point:	0.028	Pitch Set Point:	-0.202	Yaw Set Point:	0.010	X_WP:	0.000	Y_WP:	0.000	Y_WP:	0.500	X:	-0.013	Y:	0.101	Z:	0.651	yaw:	-0.562	yaw rate:	0.360	Roll:	-0.506	Pitch:	2.863	Yaw:	0.115	Thrust:	61.678
Time:	4.895	Roll Set Point:	0.028	Pitch Set Point:	-0.201	Yaw Set Point:	0.013	X_WP:	0.000	Y_WP:	0.000	Y_WP:	0.500	X:	-0.013	Y:	0.101	Z:	0.650	yaw:	-0.735	yaw rate:	-17.313	Roll:	-1.079	Pitch:	2.779	Yaw:	-4.324	Thrust:	61.615
Time:	4.906	Roll Set Point:	0.028	Pitch Set Point:	-0.200	Yaw Set Point:	0.011	X_WP:	0.000	Y_WP:	0.000	Y_WP:	0.500	X:	-0.013	Y:	0.100	Z:	0.650	yaw:	-0.655	yaw rate:	8.018	Roll:	-0.478	Pitch:	2.442	Yaw:	1.798	Thrust:	62.243
Time:	4.918	Roll Set Point:	0.029	Pitch Set Point:	-0.199	Yaw Set Point:	0.020	X_WP:	0.000	Y_WP:	0.000	Y_WP:	0.500	X:	-0.014	Y:	0.099	Z:	0.649	yaw:	-1.132	yaw rate:	-47.680	Roll:	-2.356	Pitch:	2.209	Yaw:	-12.090	Thrust:	61.724
Time:	4.929	Roll Set Point:	0.029	Pitch Set Point:	-0.198	Yaw Set Point:	0.019	X_WP:	0.000	Y_WP:	0.000	Y_WP:	0.500	X:	-0.014	Y:	0.099	Z:	0.649	yaw:	-1.083	yaw rate:	4.848	Roll:	-0.677	Pitch:	2.817	Yaw:	0.440	Thrust:	62.009
Time:	4.940	Roll Set Point:	0.029	Pitch Set Point:	-0.198	Yaw Set Point:	0.012	X_WP:	0.000	Y_WP:	0.000	Y_WP:	0.500	X:	-0.014	Y:	0.099	Z:	0.648	yaw:	-0.666	yaw rate:	41.747	Roll:	0.417	Pitch:	3.116	Yaw:	9.777	Thrust:	61.673
Time:	4.951	Roll Set Point:	0.029	Pitch Set Point:	-0.197	Yaw Set Point:	0.011	X_WP:	0.000	Y_WP:	0.000	Y_WP:	0.500	X:	-0.014	Y:	0.098	Z:	0.647	yaw:	-0.618	yaw rate:	4.746	Roll:	-0.525	Pitch:	2.583	Yaw:	1.059	Thrust:	63.348
Time:	4.962	Roll Set Point:	0.029	Pitch Set Point:	-0.196	Yaw Set Point:	0.009	X_WP:	0.000	Y_WP:	0.000	Y_WP:	0.500	X:	-0.014	Y:	0.098	Z:	0.646	yaw:	-0.543	yaw rate:	7.568	Roll:	-0.644	Pitch:	2.612	Yaw:	1.832	Thrust:	61.690
Time:	4.973	Roll Set Point:	0.030	Pitch Set Point:	-0.195	Yaw Set Point:	0.015	X_WP:	0.000	Y_WP:	0.000	Y_WP:	0.500	X:	-0.014	Y:	0.097	Z:	0.646	yaw:	-0.876	yaw rate:	-33.318	Roll:	-2.220	Pitch:	2.147	Yaw:	-8.340	Thrust:	61.897
Time:	4.984	Roll Set Point:	0.031	Pitch Set Point:	-0.194	Yaw Set Point:	0.014	X_WP:	0.000	Y_WP:	0.000	Y_WP:	0.500	X:	-0.015	Y:	0.097	Z:	0.645	yaw:	-0.792	yaw rate:	8.396	Roll:	-0.709	Pitch:	2.721	Yaw:	1.675	Thrust:	61.173
Time:	4.995	Roll Set Point:	0.030	Pitch Set Point:	-0.194	Yaw Set Point:	0.008	X_WP:	0.000	Y_WP:	0.000	Y_WP:	0.500	X:	-0.015	Y:	0.097	Z:	0.644	yaw:	-0.444	yaw rate:	34.791	Roll:	0.305	Pitch:	3.189	Yaw:	8.423	Thrust:	62.103
