Time:	2.109	Roll Set Point:	-0.133	Pitch Set Point:	-0.030	Yaw Set Point:	3.093	X_WP:	0.100	Y_WP:	0.000	Y_WP:	0.500	X:	0.736	Y:	-0.663	Z:	0.935	yaw:	-177.235	yaw rate:	0.819	Roll:	-17.488	Pitch:	20.084	Yaw:	-247.467	Thrust:	0.000
Time:	2.123	Roll Set Point:	-0.133	Pitch Set Point:	-0.030	Yaw Set Point:	3.094	X_WP:	0.100	Y_WP:	0.000	Y_WP:	0.500	X:	0.736	Y:	-0.663	Z:	0.935	yaw:	-177.246	yaw rate:	-0.105	Roll:	-17.674	Pitch:	19.984	Yaw:	-248.559	Thrust:	0.000
Time:	2.137	Roll Set Point:	-0.133	Pitch Set Point:	-0.030	Yaw Set Point:	3.093	X_WP:	0.100	Y_WP:	0.000	Y_WP:	0.500	X:	0.736	Y:	-0.663	Z:	0.935	yaw:	-177.243	yaw rate:	0.364	Roll:	-17.504	Pitch:	20.163	Yaw:	-249.150	Thrust:	0.000
Time:	2.150	Roll Set Point:	-0.133	Pitch Set Point:	-0.030	Yaw Set Point:	3.093	X_WP:	0.100	Y_WP:	0.000	Y_WP:	0.500	X:	0.736	Y:	-0.663	Z:	0.935	yaw:	-177.231	yaw rate:	1.137	Roll:	-17.379	Pitch:	20.280	Yaw:	-249.654	Thrust:	0.000
Time:	2.163	Roll Set Point:	-0.133	Pitch Set Point:	-0.030	Yaw Set Point:	3.093	X_WP:	0.100	Y_WP:	0.000	Y_WP:	0.500	X:	0.736	Y:	-0.663	Z:	0.935	yaw:	-177.238	yaw rate:	-0.673	Roll:	-17.639	Pitch:	20.101	Yaw:	-250.214	Thrust:	0.000
Time:	2.176	Roll Set Point:	-0.133	Pitch Set Point:	-0.030	Yaw Set Point:	3.093	X_WP:	0.100	Y_WP:	0.000	Y_WP:	0.500	X:	0.736	Y:	-0.663	Z:	0.935	yaw:	-177.243	yaw rate:	-0.450	Roll:	-17.645	Pitch:	20.145	Yaw:	-250.174	Thrust:	0.000
Time:	2.189	Roll Set Point:	-0.133	Pitch Set Point:	-0.030	Yaw Set Point:	3.094	X_WP:	0.100	Y_WP:	0.000	Y_WP:	0.500	X:	0.736	Y:	-0.663	Z:	0.935	yaw:	-177.245	yaw rate:	-0.254	Roll:	-17.685	Pitch:	20.187	Yaw:	-250.140	Thrust:	0.000
Time:	2.202	Roll Set Point:	-0.133	Pitch Set Point:	-0.030	Yaw Set Point:	3.093	X_WP:	0.100	Y_WP:	0.000	Y_WP:	0.500	X:	0.736	Y:	-0.663	Z:	0.935	yaw:	-177.237	yaw rate:	0.812	Roll:	-17.499	Pitch:	20.344	Yaw:	-249.913	Thrust:	0.000
Time:	2.216	Roll Set Point:	-0.133	Pitch Set Point:	-0.030	Yaw Set Point:	3.093	X_WP:	0.100	Y_WP:	0.000	Y_WP:	0.500	X:	0.736	Y:	-0.663	Z:	0.935	yaw:	-177.240	yaw rate:	0.495	Roll:	-17.677	Pitch:	20.228	Yaw:	-250.342	Thrust:	0.000
Time:	2.229	Roll Set Point:	-0.133	Pitch Set Point:	-0.030	Yaw Set Point:	3.093	X_WP:	0.100	Y_WP:	0.000	Y_WP:	0.500	X:	0.736	Y:	-0.663	Z:	0.935	yaw:	-177.238	yaw rate:	0.247	Roll:	-17.660	Pitch:	20.311	Yaw:	-250.029	Thrust:	0.000
Time:	2.242	Roll Set Point:	-0.133	Pitch Set Point:	-0.030	Yaw Set Point:	3.093	X_WP:	0.100	Y_WP:	0.000	Y_WP:	0.500	X:	0.736	Y:	-0.663	Z:	0.935	yaw:	-177.234	yaw rate:	0.340	Roll:	-17.619	Pitch:	20.353	Yaw:	-249.999	Thrust:	0.000
Time:	2.255	Roll Set Point:	-0.133	Pitch Set Point:	-0.030	Yaw Set Point:	3.093	X_WP:	0.100	Y_WP:	0.000	Y_WP:	0.500	X:	0.736	Y:	-0.663	Z:	0.935	yaw:	-177.240	yaw rate:	-0.583	Roll:	-17.833	Pitch:	20.263	Yaw:	-250.242	Thrust:	0.000
Time:	2.268	Roll Set Point:	-0.133	Pitch Set Point:	-0.030	Yaw Set Point:	3.093	X_WP:	0.100	Y_WP:	0.000	Y_WP:	0.500	X:	0.736	Y:	-0.663	Z:	0.935	yaw:	-177.236	yaw rate:	0.439	Roll:	-17.617	Pitch:	20.409	Yaw:	-249.987	Thrust:	0.000
Time:	2.282	Roll Set Point:	-0.133	Pitch Set Point:	-0.030	Yaw Set Point:	3.093	X_WP:	0.100	Y_WP:	0.000	Y_WP:	0.500	X:	0.736	Y:	-0.663	Z:	0.935	yaw:	-177.243	yaw rate:	-0.110	Roll:	-17.870	Pitch:	20.326	Yaw:	-250.417	Thrust:	0.000
Time:	2.295	Roll Set Point:	-0.133	Pitch Set Point:	-0.030	Yaw Set Point:	3.093	X_WP:	0.100	Y_WP:	0.000	Y_WP:	0.500	X:	0.736	Y:	-0.663	Z:	0.935	yaw:	-177.231	yaw rate:	1.143	Roll:	-17.604	Pitch:	20.533	Yaw:	-249.845	Thrust:	0.000
Time:	2.309	Roll Set Point:	-0.133	Pitch Set Point:	-0.030	Yaw Set Point:	3.093	X_WP:	0.100	Y_WP:	0.000	Y_WP:	0.500	X:	0.736	Y:	-0.663	Z:	0.935	yaw:	-177.243	yaw rate:	-1.186	Roll:	-17.944	Pitch:	20.303	Yaw:	-250.501	Thrust:	0.000
Time:	2.322	Roll Set Point:	-0.133	Pitch Set Point:	-0.030	Yaw Set Point:	3.093	X_WP:	0.100	Y_WP:	0.000	Y_WP:	0.500	X:	0.736	Y:	-0.663	Z:	0.935	yaw:	-177.244	yaw rate:	-0.138	Roll:	-17.845	Pitch:	20.419	Yaw:	-250.119	Thrust:	0.000
Time:	2.335	Roll Set Point:	-0.133	Pitch Set Point:	-0.030	Yaw Set Point:	3.093	X_WP:	0.100	Y_WP:	0.000	Y_WP:	0.500	X:	0.736	Y:	-0.663	Z:	0.935	yaw:	-177.234	yaw rate:	1.004	Roll:	-17.647	Pitch:	20.611	Yaw:	-249.866	Thrust:	0.000
Time:	2.349	Roll Set Point:	-0.133	Pitch Set Point:	-0.030	Yaw Set Point:	3.093	X_WP:	0.100	Y_WP:	0.000	Y_WP:	0.500	X:	0.736	Y:	-0.663	Z:	0.935	yaw:	-177.240	yaw rate:	-0.603	Roll:	-17.926	Pitch:	20.441	Yaw:	-250.207	Thrust:	0.000
Time:	2.363	Roll Set Point:	-0.133	Pitch Set Point:	-0.030	Yaw Set Point:	3.093	X_WP:	0.100	Y_WP:	0.000	Y_WP:	0.500	X:	0.736	Y:	-0.663	Z:	0.935	yaw:	-177.231	yaw rate:	1.291	Roll:	-17.790	Pitch:	20.594	Yaw:	-250.098	Thrust:	0.000
Time:	2.376	Roll Set Point:	-0.133	Pitch Set Point:	-0.030	Yaw Set Point:	3.093	X_WP:	0.100	Y_WP:	0.000	Y_WP:	0.500	X:	0.736	Y:	-0.663	Z:	0.935	yaw:	-177.234	yaw rate:	-0.275	Roll:	-17.904	Pitch:	20.502	Yaw:	-250.128	Thrust:	0.000
Time:	2.389	Roll Set Point:	-0.133	Pitch Set Point:	-0.030	Yaw Set Point:	3.093	X_WP:	0.100	Y_WP:	0.000	Y_WP:	0.500	X:	0.736	Y:	-0.663	Z:	0.935	yaw:	-177.234	yaw rate:	0.018	Roll:	-17.965	Pitch:	20.603	Yaw:	-250.219	Thrust:	0.000
Time:	2.402	Roll Set Point:	-0.133	Pitch Set Point:	-0.030	Yaw Set Point:	3.093	X_WP:	0.100	Y_WP:	0.000	Y_WP:	0.500	X:	0.736	Y:	-0.663	Z:	0.935	yaw:	-177.238	yaw rate:	-0.424	Roll:	-17.955	Pitch:	20.548	Yaw:	-250.159	Thrust:	0.000
Time:	2.416	Roll Set Point:	-0.133	Pitch Set Point:	-0.030	Yaw Set Point:	3.094	X_WP:	0.100	Y_WP:	0.000	Y_WP:	0.500	X:	0.736	Y:	-0.663	Z:	0.935	yaw:	-177.247	yaw rate:	-0.913	Roll:	-18.039	Pitch:	20.484	Yaw:	-250.308	Thrust:	0.000
Time:	2.429	Roll Set Point:	-0.133	Pitch Set Point:	-0.030	Yaw Set Point:	3.093	X_WP:	0.100	Y_WP:	0.000	Y_WP:	0.500	X:	0.736	Y:	-0.663	Z:	0.935	yaw:	-177.244	yaw rate:	0.376	Roll:	-17.934	Pitch:	20.580	Yaw:	-250.016	Thrust:	0.000
Time:	2.442	Roll Set Point:	-0.133	Pitch Set Point:	-0.030	Yaw Set Point:	3.093	X_WP:	0.100	Y_WP:	0.000	Y_WP:	0.500	X:	0.736	Y:	-0.663	Z:	0.935	yaw:	-177.239	yaw rate:	0.480	Roll:	-17.949	Pitch:	20.609	Yaw:	-249.977	Thrust:	0.000
Time:	2.455	Roll Set Point:	-0.133	Pitch Set Point:	-0.030	Yaw Set Point:	3.093	X_WP:	0.100	Y_WP:	0.000	Y_WP:	0.500	X:	0.736	Y:	-0.663	Z:	0.935	yaw:	-177.236	yaw rate:	0.301	Roll:	-17.951	Pitch:	20.640	Yaw:	-250.109	Thrust:	0.000
Time:	2.469	Roll Set Point:	-0.133	Pitch Set Point:	-0.030	Yaw Set Point:	3.093	X_WP:	0.100	Y_WP:	0.000	Y_WP:	0.500	X:	0.736	Y:	-0.663	Z:	0.935	yaw:	-177.238	yaw rate:	-0.263	Roll:	-18.019	Pitch:	20.590	Yaw:	-250.328	Thrust:	0.000
Time:	2.482	Roll Set Point:	-0.133	Pitch Set Point:	-0.030	Yaw Set Point:	3.094	X_WP:	0.100	Y_WP:	0.000	Y_WP:	0.500	X:	0.736	Y:	-0.663	Z:	0.935	yaw:	-177.246	yaw rate:	-0.720	Roll:	-18.043	Pitch:	20.485	Yaw:	-250.234	Thrust:	0.000
Time:	2.495	Roll Set Point:	-0.133	Pitch Set Point:	-0.030	Yaw Set Point:	3.093	X_WP:	0.100	Y_WP:	0.000	Y_WP:	0.500	X:	0.736	Y:	-0.663	Z:	0.935	yaw:	-177.236	yaw rate:	0.968	Roll:	-17.910	Pitch:	20.664	Yaw:	-249.880	Thrust:	0.000
Time:	2.508	Roll Set Point:	-0.133	Pitch Set Point:	-0.030	Yaw Set Point:	3.093	X_WP:	0.100	Y_WP:	0.000	Y_WP:	0.500	X:	0.736	Y:	-0.663	Z:	0.935	yaw:	-177.243	yaw rate:	-0.750	Roll:	-18.077	Pitch:	20.479	Yaw:	-250.236	Thrust:	0.000
Time:	2.522	Roll Set Point:	-0.133	Pitch Set Point:	-0.030	Yaw Set Point:	3.093	X_WP:	0.100	Y_WP:	0.000	Y_WP:	0.500	X:	0.736	Y:	-0.663	Z:	0.935	yaw:	-177.235	yaw rate:	-0.124	Roll:	-17.845	Pitch:	20.728	Yaw:	-250.108	Thrust:	0.000
Time:	2.536	Roll Set Point:	-0.133	Pitch Set Point:	-0.030	Yaw Set Point:	3.094	X_WP:	0.100	Y_WP:	0.000	Y_WP:	0.500	X:	0.736	Y:	-0.663	Z:	0.935	yaw:	-177.245	yaw rate:	-1.033	Roll:	-18.168	Pitch:	20.491	Yaw:	-250.477	Thrust:	0.000
Time:	2.549	Roll Set Point:	-0.132	Pitch Set Point:	-0.030	Yaw Set Point:	3.094	X_WP:	0.100	Y_WP:	0.000	Y_WP:	0.500	X:	0.736	Y:	-0.663	Z:	0.935	yaw:	-177.254	yaw rate:	-0.894	Roll:	-18.140	Pitch:	20.466	Yaw:	-250.285	Thrust:	0.000
Time:	2.562	Roll Set Point:	-0.133	Pitch Set Point:	-0.030	Yaw Set Point:	3.094	X_WP:	0.100	Y_WP:	0.000	Y_WP:	0.500	X:	0.736	Y:	-0.663	Z:	0.935	yaw:	-177.245	yaw rate:	0.927	Roll:	-17.882	Pitch:	20.659	Yaw:	-249.900	Thrust:	0.000
Time:	2.575	Roll Set Point:	-0.133	Pitch Set Point:	-0.030	Yaw Set Point:	3.093	X_WP:	0.100	Y_WP:	0.000	Y_WP:	0.500	X:	0.736	Y:	-0.663	Z:	0.935	yaw:	-177.236	yaw rate:	0.837	Roll:	-17.830	Pitch:	20.667	Yaw:	-249.908	Thrust:	0.000
Time:	2.590	Roll Set Point:	-0.133	Pitch Set Point:	-0.030	Yaw Set Point:	3.093	X_WP:	0.100	Y_WP:	0.000	Y_WP:	0.500	X:	0.736	Y:	-0.663	Z:	0.935	yaw:	-177.225	yaw rate:	2.159	Roll:	-17.831	Pitch:	20.746	Yaw:	-250.043	Thrust:	0.000
Time:	2.604	Roll Set Point:	-0.132	Pitch Set Point:	-0.030	Yaw Set Point:	3.094	X_WP:	0.100	Y_WP:	0.000	Y_WP:	0.500	X:	0.736	Y:	-0.663	Z:	0.935	yaw:	-177.252	yaw rate:	-2.748	Roll:	-18.411	Pitch:	20.322	Yaw:	-250.811	Thrust:	0.000
Time:	2.617	Roll Set Point:	-0.133	Pitch Set Point:	-0.030	Yaw Set Point:	3.094	X_WP:	0.100	Y_WP:	0.000	Y_WP:	0.500	X:	0.736	Y:	-0.663	Z:	0.935	yaw:	-177.248	yaw rate:	0.450	Roll:	-17.921	Pitch:	20.598	Yaw:	-250.001	Thrust:	0.000
Time:	2.631	Roll Set Point:	-0.133	Pitch Set Point:	-0.030	Yaw Set Point:	3.093	X_WP:	0.100	Y_WP:	0.000	Y_WP:	0.500	X:	0.736	Y:	-0.663	Z:	0.935	yaw:	-177.242	yaw rate:	0.570	Roll:	-17.933	Pitch:	20.659	Yaw:	-250.172	Thrust:	0.000
Time:	2.645	Roll Set Point:	-0.133	Pitch Set Point:	-0.030	Yaw Set Point:	3.093	X_WP:	0.100	Y_WP:	0.000	Y_WP:	0.500	X:	0.736	Y:	-0.663	Z:	0.935	yaw:	-177.241	yaw rate:	0.056	Roll:	-17.982	Pitch:	20.628	Yaw:	-250.278	Thrust:	0.000
Time:	2.658	Roll Set Point:	-0.133	Pitch Set Point:	-0.030	Yaw Set Point:	3.093	X_WP:	0.100	Y_WP:	0.000	Y_WP:	0.500	X:	0.736	Y:	-0.663	Z:	0.935	yaw:	-177.238	yaw rate:	0.292	Roll:	-17.950	Pitch:	20.617	Yaw:	-250.015	Thrust:	0.000
Time:	2.671	Roll Set Point:	-0.133	Pitch Set Point:	-0.030	Yaw Set Point:	3.093	X_WP:	0.100	Y_WP:	0.000	Y_WP:	0.500	X:	0.736	Y:	-0.663	Z:	0.935	yaw:	-177.236	yaw rate:	0.258	Roll:	-17.953	Pitch:	20.606	Yaw:	-250.028	Thrust:	0.000
Time:	2.685	Roll Set Point:	-0.132	Pitch Set Point:	-0.030	Yaw Set Point:	3.094	X_WP:	0.100	Y_WP:	0.000	Y_WP:	0.500	X:	0.736	Y:	-0.663	Z:	0.935	yaw:	-177.253	yaw rate:	-1.697	Roll:	-18.249	Pitch:	20.406	Yaw:	-250.616	Thrust:	0.000
Time:	2.698	Roll Set Point:	-0.133	Pitch Set Point:	-0.030	Yaw Set Point:	3.093	X_WP:	0.100	Y_WP:	0.000	Y_WP:	0.500	X:	0.736	Y:	-0.663	Z:	0.935	yaw:	-177.233	yaw rate:	1.947	Roll:	-17.672	Pitch:	20.795	Yaw:	-249.680	Thrust:	0.000
Time:	2.712	Roll Set Point:	-0.133	Pitch Set Point:	-0.030	Yaw Set Point:	3.094	X_WP:	0.100	Y_WP:	0.000	Y_WP:	0.500	X:	0.736	Y:	-0.663	Z:	0.935	yaw:	-177.247	yaw rate:	-0.370	Roll:	-18.234	Pitch:	20.467	Yaw:	-250.554	Thrust:	0.000
Time:	2.726	Roll Set Point:	-0.133	Pitch Set Point:	-0.030	Yaw Set Point:	3.093	X_WP:	0.100	Y_WP:	0.000	Y_WP:	0.500	X:	0.736	Y:	-0.663	Z:	0.935	yaw:	-177.244	yaw rate:	0.309	Roll:	-17.959	Pitch:	20.637	Yaw:	-250.228	Thrust:	0.000
Time:	2.739	Roll Set Point:	-0.133	Pitch Set Point:	-0.030	Yaw Set Point:	3.094	X_WP:	0.100	Y_WP:	0.000	Y_WP:	0.500	X:	0.736	Y:	-0.663	Z:	0.935	yaw:	-177.248	yaw rate:	-0.345	Roll:	-18.016	Pitch:	20.530	Yaw:	-250.161	Thrust:	0.000
Time:	2.753	Roll Set Point:	-0.133	Pitch Set Point:	-0.030	Yaw Set Point:	3.093	X_WP:	0.100	Y_WP:	0.000	Y_WP:	0.500	X:	0.736	Y:	-0.663	Z:	0.935	yaw:	-177.244	yaw rate:	0.384	Roll:	-18.001	Pitch:	20.643	Yaw:	-250.228	Thrust:	0.000
Time:	2.766	Roll Set Point:	-0.133	Pitch Set Point:	-0.030	Yaw Set Point:	3.093	X_WP:	0.100	Y_WP:	0.000	Y_WP:	0.500	X:	0.736	Y:	-0.663	Z:	0.935	yaw:	-177.230	yaw rate:	1.423	Roll:	-17.753	Pitch:	20.741	Yaw:	-249.780	Thrust:	0.000
Time:	2.779	Roll Set Point:	-0.133	Pitch Set Point:	-0.030	Yaw Set Point:	3.093	X_WP:	0.100	Y_WP:	0.000	Y_WP:	0.500	X:	0.736	Y:	-0.663	Z:	0.935	yaw:	-177.242	yaw rate:	-1.200	Roll:	-18.156	Pitch:	20.428	Yaw:	-250.324	Thrust:	0.000
Time:	2.792	Roll Set Point:	-0.133	Pitch Set Point:	-0.030	Yaw Set Point:	3.093	X_WP:	0.100	Y_WP:	0.000	Y_WP:	0.500	X:	0.736	Y:	-0.663	Z:	0.935	yaw:	-177.244	yaw rate:	-0.204	Roll:	-18.006	Pitch:	20.556	Yaw:	-250.127	Thrust:	0.000
Time:	2.805	Roll Set Point:	-0.133	Pitch Set Point:	-0.030	Yaw Set Point:	3.093	X_WP:	0.100	Y_WP:	0.000	Y_WP:	0.500	X:	0.736	Y:	-0.663	Z:	0.935	yaw:	-177.235	yaw rate:	0.834	Roll:	-17.828	Pitch:	20.665	Yaw:	-249.901	Thrust:	0.000
Time:	2.819	Roll Set Point:	-0.133	Pitch Set Point:	-0.030	Yaw Set Point:	3.093	X_WP:	0.100	Y_WP:	0.000	Y_WP:	0.500	X:	0.736	Y:	-0.663	Z:	0.935	yaw:	-177.231	yaw rate:	0.457	Roll:	-17.954	Pitch:	20.670	Yaw:	-250.183	Thrust:	0.000
Time:	2.833	Roll Set Point:	-0.133	Pitch Set Point:	-0.030	Yaw Set Point:	3.094	X_WP:	0.100	Y_WP:	0.000	Y_WP:	0.500	X:	0.736	Y:	-0.663	Z:	0.935	yaw:	-177.246	yaw rate:	-1.533	Roll:	-18.262	Pitch:	20.427	Yaw:	-250.581	Thrust:	0.000
Time:	2.846	Roll Set Point:	-0.133	Pitch Set Point:	-0.030	Yaw Set Point:	3.093	X_WP:	0.100	Y_WP:	0.000	Y_WP:	0.500	X:	0.736	Y:	-0.663	Z:	0.935	yaw:	-177.244	yaw rate:	0.228	Roll:	-17.928	Pitch:	20.597	Yaw:	-250.039	Thrust:	0.000
Time:	2.859	Roll Set Point:	-0.132	Pitch Set Point:	-0.030	Yaw Set Point:	3.094	X_WP:	0.100	Y_WP:	0.000	Y_WP:	0.500	X:	0.736	Y:	-0.663	Z:	0.935	yaw:	-177.255	yaw rate:	-1.068	Roll:	-18.111	Pitch:	20.446	Yaw:	-250.316	Thrust:	0.000
Time:	2.872	Roll Set Point:	-0.133	Pitch Set Point:	-0.030	Yaw Set Point:	3.094	X_WP:	0.100	Y_WP:	0.000	Y_WP:	0.500	X:	0.736	Y:	-0.663	Z:	0.935	yaw:	-177.246	yaw rate:	0.851	Roll:	-17.888	Pitch:	20.662	Yaw:	-249.918	Thrust:	0.000
Time:	2.885	Roll Set Point:	-0.133	Pitch Set Point:	-0.030	Yaw Set Point:	3.094	X_WP:	0.100	Y_WP:	0.000	Y_WP:	0.500	X:	0.736	Y:	-0.663	Z:	0.935	yaw:	-177.246	yaw rate:	-0.028	Roll:	-17.980	Pitch:	20.569	Yaw:	-250.090	Thrust:	0.000
Time:	2.899	Roll Set Point:	-0.133	Pitch Set Point:	-0.030	Yaw Set Point:	3.093	X_WP:	0.100	Y_WP:	0.000	Y_WP:	0.500	X:	0.736	Y:	-0.663	Z:	0.935	yaw:	-177.240	yaw rate:	0.589	Roll:	-17.951	Pitch:	20.670	Yaw:	-250.178	Thrust:	0.000
Time:	2.913	Roll Set Point:	-0.133	Pitch Set Point:	-0.030	Yaw Set Point:	3.093	X_WP:	0.100	Y_WP:	0.000	Y_WP:	0.500	X:	0.736	Y:	-0.663	Z:	0.935	yaw:	-177.244	yaw rate:	-0.361	Roll:	-18.031	Pitch:	20.573	Yaw:	-250.354	Thrust:	0.000
Time:	2.926	Roll Set Point:	-0.133	Pitch Set Point:	-0.030	Yaw Set Point:	3.093	X_WP:	0.100	Y_WP:	0.000	Y_WP:	0.500	X:	0.736	Y:	-0.663	Z:	0.935	yaw:	-177.241	yaw rate:	0.264	Roll:	-17.944	Pitch:	20.604	Yaw:	-250.028	Thrust:	0.000
Time:	2.940	Roll Set Point:	-0.133	Pitch Set Point:	-0.030	Yaw Set Point:	3.093	X_WP:	0.100	Y_WP:	0.000	Y_WP:	0.500	X:	0.736	Y:	-0.663	Z:	0.935	yaw:	-177.239	yaw rate:	0.536	Roll:	-17.985	Pitch:	20.635	Yaw:	-250.227	Thrust:	0.000
Time:	2.955	Roll Set Point:	-0.133	Pitch Set Point:	-0.030	Yaw Set Point:	3.093	X_WP:	0.100	Y_WP:	0.000	Y_WP:	0.500	X:	0.736	Y:	-0.663	Z:	0.935	yaw:	-177.230	yaw rate:	0.855	Roll:	-17.911	Pitch:	20.701	Yaw:	-250.108	Thrust:	0.000
Time:	2.968	Roll Set Point:	-0.133	Pitch Set Point:	-0.030	Yaw Set Point:	3.093	X_WP:	0.100	Y_WP:	0.000	Y_WP:	0.500	X:	0.736	Y:	-0.663	Z:	0.935	yaw:	-177.230	yaw rate:	-0.015	Roll:	-17.963	Pitch:	20.579	Yaw:	-250.075	Thrust:	0.000
Time:	2.981	Roll Set Point:	-0.133	Pitch Set Point:	-0.030	Yaw Set Point:	3.094	X_WP:	0.100	Y_WP:	0.000	Y_WP:	0.500	X:	0.736	Y:	-0.663	Z:	0.935	yaw:	-177.248	yaw rate:	-1.728	Roll:	-18.229	Pitch:	20.365	Yaw:	-250.439	Thrust:	0.000
Time:	2.994	Roll Set Point:	-0.133	Pitch Set Point:	-0.030	Yaw Set Point:	3.093	X_WP:	0.100	Y_WP:	0.000	Y_WP:	0.500	X:	0.736	Y:	-0.663	Z:	0.935	yaw:	-177.238	yaw rate:	0.943	Roll:	-17.869	Pitch:	20.674	Yaw:	-249.883	Thrust:	0.000
Time:	3.007	Roll Set Point:	-0.133	Pitch Set Point:	-0.030	Yaw Set Point:	3.094	X_WP:	0.100	Y_WP:	0.000	Y_WP:	0.500	X:	0.736	Y:	-0.663	Z:	0.935	yaw:	-177.247	yaw rate:	-0.837	Roll:	-18.079	Pitch:	20.464	Yaw:	-250.258	Thrust:	0.000
Time:	3.020	Roll Set Point:	-0.133	Pitch Set Point:	-0.030	Yaw Set Point:	3.093	X_WP:	0.100	Y_WP:	0.000	Y_WP:	0.500	X:	0.736	Y:	-0.663	Z:	0.935	yaw:	-177.243	yaw rate:	0.406	Roll:	-17.910	Pitch:	20.629	Yaw:	-250.003	Thrust:	0.000
Time:	3.033	Roll Set Point:	-0.133	Pitch Set Point:	-0.030	Yaw Set Point:	3.093	X_WP:	0.100	Y_WP:	0.000	Y_WP:	0.500	X:	0.736	Y:	-0.663	Z:	0.935	yaw:	-177.230	yaw rate:	1.228	Roll:	-17.802	Pitch:	20.733	Yaw:	-249.821	Thrust:	0.000
Time:	3.046	Roll Set Point:	-0.133	Pitch Set Point:	-0.030	Yaw Set Point:	3.093	X_WP:	0.100	Y_WP:	0.000	Y_WP:	0.500	X:	0.736	Y:	-0.663	Z:	0.935	yaw:	-177.241	yaw rate:	-1.081	Roll:	-18.149	Pitch:	20.439	Yaw:	-250.301	Thrust:	0.000
Time:	3.059	Roll Set Point:	-0.133	Pitch Set Point:	-0.030	Yaw Set Point:	3.094	X_WP:	0.100	Y_WP:	0.000	Y_WP:	0.500	X:	0.736	Y:	-0.663	Z:	0.935	yaw:	-177.251	yaw rate:	-0.940	Roll:	-18.122	Pitch:	20.449	Yaw:	-250.280	Thrust:	0.000
Time:	3.072	Roll Set Point:	-0.133	Pitch Set Point:	-0.030	Yaw Set Point:	3.093	X_WP:	0.100	Y_WP:	0.000	Y_WP:	0.500	X:	0.736	Y:	-0.663	Z:	0.935	yaw:	-177.237	yaw rate:	1.354	Roll:	-17.767	Pitch:	20.713	Yaw:	-249.804	Thrust:	0.000
Time:	3.085	Roll Set Point:	-0.132	Pitch Set Point:	-0.030	Yaw Set Point:	3.094	X_WP:	0.100	Y_WP:	0.000	Y_WP:	0.500	X:	0.736	Y:	-0.663	Z:	0.935	yaw:	-177.256	yaw rate:	-1.875	Roll:	-18.250	Pitch:	20.365	Yaw:	-250.484	Thrust:	0.000
Time:	3.099	Roll Set Point:	-0.133	Pitch Set Point:	-0.030	Yaw Set Point:	3.093	X_WP:	0.100	Y_WP:	0.000	Y_WP:	0.500	X:	0.736	Y:	-0.663	Z:	0.935	yaw:	-177.244	yaw rate:	1.131	Roll:	-17.870	Pitch:	20.744	Yaw:	-250.077	Thrust:	0.000
Time:	3.112	Roll Set Point:	-0.133	Pitch Set Point:	-0.030	Yaw Set Point:	3.093	X_WP:	0.100	Y_WP:	0.000	Y_WP:	0.500	X:	0.736	Y:	-0.663	Z:	0.935	yaw:	-177.241	yaw rate:	0.379	Roll:	-17.933	Pitch:	20.596	Yaw:	-250.005	Thrust:	0.000
Time:	3.126	Roll Set Point:	-0.133	Pitch Set Point:	-0.030	Yaw Set Point:	3.094	X_WP:	0.100	Y_WP:	0.000	Y_WP:	0.500	X:	0.736	Y:	-0.663	Z:	0.935	yaw:	-177.246	yaw rate:	-0.560	Roll:	-18.106	Pitch:	20.542	Yaw:	-250.395	Thrust:	0.000
Time:	3.140	Roll Set Point:	-0.133	Pitch Set Point:	-0.030	Yaw Set Point:	3.093	X_WP:	0.100	Y_WP:	0.000	Y_WP:	0.500	X:	0.736	Y:	-0.663	Z:	0.935	yaw:	-177.236	yaw rate:	1.031	Roll:	-17.841	Pitch:	20.734	Yaw:	-250.077	Thrust:	0.000
Time:	3.153	Roll Set Point:	-0.133	Pitch Set Point:	-0.030	Yaw Set Point:	3.093	X_WP:	0.100	Y_WP:	0.000	Y_WP:	0.500	X:	0.736	Y:	-0.663	Z:	0.935	yaw:	-177.244	yaw rate:	-0.817	Roll:	-18.136	Pitch:	20.491	Yaw:	-250.318	Thrust:	0.000
Time:	3.167	Roll Set Point:	-0.133	Pitch Set Point:	-0.030	Yaw Set Point:	3.093	X_WP:	0.100	Y_WP:	0.000	Y_WP:	0.500	X:	0.736	Y:	-0.663	Z:	0.935	yaw:	-177.238	yaw rate:	0.625	Roll:	-17.933	Pitch:	20.675	Yaw:	-250.162	Thrust:	0.000
Time:	3.180	Roll Set Point:	-0.133	Pitch Set Point:	-0.030	Yaw Set Point:	3.094	X_WP:	0.100	Y_WP:	0.000	Y_WP:	0.500	X:	0.736	Y:	-0.663	Z:	0.935	yaw:	-177.245	yaw rate:	-0.736	Roll:	-18.065	Pitch:	20.465	Yaw:	-250.236	Thrust:	0.000
Time:	3.193	Roll Set Point:	-0.133	Pitch Set Point:	-0.030	Yaw Set Point:	3.093	X_WP:	0.100	Y_WP:	0.000	Y_WP:	0.500	X:	0.736	Y:	-0.663	Z:	0.935	yaw:	-177.236	yaw rate:	0.931	Roll:	-17.847	Pitch:	20.686	Yaw:	-249.888	Thrust:	0.000
Time:	3.207	Roll Set Point:	-0.133	Pitch Set Point:	-0.030	Yaw Set Point:	3.093	X_WP:	0.100	Y_WP:	0.000	Y_WP:	0.500	X:	0.736	Y:	-0.663	Z:	0.935	yaw:	-177.236	yaw rate:	-0.054	Roll:	-18.012	Pitch:	20.565	Yaw:	-250.086	Thrust:	0.000
Time:	3.220	Roll Set Point:	-0.133	Pitch Set Point:	-0.030	Yaw Set Point:	3.093	X_WP:	0.100	Y_WP:	0.000	Y_WP:	0.500	X:	0.736	Y:	-0.663	Z:	0.935	yaw:	-177.239	yaw rate:	-0.215	Roll:	-17.990	Pitch:	20.566	Yaw:	-250.117	Thrust:	0.000
Time:	3.233	Roll Set Point:	-0.133	Pitch Set Point:	-0.030	Yaw Set Point:	3.093	X_WP:	0.100	Y_WP:	0.000	Y_WP:	0.500	X:	0.736	Y:	-0.663	Z:	0.935	yaw:	-177.239	yaw rate:	-0.090	Roll:	-17.975	Pitch:	20.551	Yaw:	-250.098	Thrust:	0.000
Time:	3.246	Roll Set Point:	-0.133	Pitch Set Point:	-0.030	Yaw Set Point:	3.093	X_WP:	0.100	Y_WP:	0.000	Y_WP:	0.500	X:	0.736	Y:	-0.663	Z:	0.935	yaw:	-177.237	yaw rate:	0.286	Roll:	-17.949	Pitch:	20.590	Yaw:	-250.018	Thrust:	0.000
Time:	3.260	Roll Set Point:	-0.133	Pitch Set Point:	-0.030	Yaw Set Point:	3.093	X_WP:	0.100	Y_WP:	0.000	Y_WP:	0.500	X:	0.736	Y:	-0.663	Z:	0.935	yaw:	-177.242	yaw rate:	-0.496	Roll:	-18.102	Pitch:	20.555	Yaw:	-250.380	Thrust:	0.000
Time:	3.274	Roll Set Point:	-0.133	Pitch Set Point:	-0.030	Yaw Set Point:	3.094	X_WP:	0.100	Y_WP:	0.000	Y_WP:	0.500	X:	0.736	Y:	-0.663	Z:	0.935	yaw:	-177.251	yaw rate:	-0.723	Roll:	-18.107	Pitch:	20.511	Yaw:	-250.473	Thrust:	0.000
Time:	3.288	Roll Set Point:	-0.133	Pitch Set Point:	-0.030	Yaw Set Point:	3.093	X_WP:	0.100	Y_WP:	0.000	Y_WP:	0.500	X:	0.736	Y:	-0.663	Z:	0.935	yaw:	-177.242	yaw rate:	0.938	Roll:	-17.897	Pitch:	20.714	Yaw:	-250.109	Thrust:	0.000
Time:	3.302	Roll Set Point:	-0.133	Pitch Set Point:	-0.030	Yaw Set Point:	3.093	X_WP:	0.100	Y_WP:	0.000	Y_WP:	0.500	X:	0.736	Y:	-0.663	Z:	0.935	yaw:	-177.228	yaw rate:	1.427	Roll:	-17.855	Pitch:	20.765	Yaw:	-249.998	Thrust:	0.000
Time:	3.315	Roll Set Point:	-0.133	Pitch Set Point:	-0.030	Yaw Set Point:	3.094	X_WP:	0.100	Y_WP:	0.000	Y_WP:	0.500	X:	0.736	Y:	-0.663	Z:	0.935	yaw:	-177.246	yaw rate:	-1.840	Roll:	-18.231	Pitch:	20.357	Yaw:	-250.458	Thrust:	0.000
Time:	3.329	Roll Set Point:	-0.133	Pitch Set Point:	-0.030	Yaw Set Point:	3.094	X_WP:	0.100	Y_WP:	0.000	Y_WP:	0.500	X:	0.736	Y:	-0.663	Z:	0.935	yaw:	-177.246	yaw rate:	-0.009	Roll:	-18.030	Pitch:	20.587	Yaw:	-250.291	Thrust:	0.000
Time:	3.342	Roll Set Point:	-0.133	Pitch Set Point:	-0.030	Yaw Set Point:	3.093	X_WP:	0.100	Y_WP:	0.000	Y_WP:	0.500	X:	0.736	Y:	-0.663	Z:	0.935	yaw:	-177.240	yaw rate:	0.604	Roll:	-17.888	Pitch:	20.650	Yaw:	-249.983	Thrust:	0.000
Time:	3.356	Roll Set Point:	-0.133	Pitch Set Point:	-0.030	Yaw Set Point:	3.093	X_WP:	0.100	Y_WP:	0.000	Y_WP:	0.500	X:	0.736	Y:	-0.663	Z:	0.935	yaw:	-177.243	yaw rate:	-1.046	Roll:	-18.057	Pitch:	20.576	Yaw:	-250.327	Thrust:	0.000
Time:	3.370	Roll Set Point:	-0.133	Pitch Set Point:	-0.030	Yaw Set Point:	3.093	X_WP:	0.100	Y_WP:	0.000	Y_WP:	0.500	X:	0.736	Y:	-0.663	Z:	0.935	yaw:	-177.238	yaw rate:	0.560	Roll:	-17.953	Pitch:	20.664	Yaw:	-250.174	Thrust:	0.000
Time:	3.383	Roll Set Point:	-0.133	Pitch Set Point:	-0.030	Yaw Set Point:	3.094	X_WP:	0.100	Y_WP:	0.000	Y_WP:	0.500	X:	0.736	Y:	-0.663	Z:	0.935	yaw:	-177.245	yaw rate:	-0.740	Roll:	-18.055	Pitch:	20.480	Yaw:	-250.237	Thrust:	0.000
Time:	3.397	Roll Set Point:	-0.133	Pitch Set Point:	-0.030	Yaw Set Point:	3.093	X_WP:	0.100	Y_WP:	0.000	Y_WP:	0.500	X:	0.736	Y:	-0.663	Z:	0.935	yaw:	-177.241	yaw rate:	0.448	Roll:	-17.971	Pitch:	20.651	Yaw:	-250.199	Thrust:	0.000
Time:	3.410	Roll Set Point:	-0.133	Pitch Set Point:	-0.030	Yaw Set Point:	3.093	X_WP:	0.100	Y_WP:	0.000	Y_WP:	0.500	X:	0.736	Y:	-0.663	Z:	0.935	yaw:	-177.234	yaw rate:	0.681	Roll:	-17.888	Pitch:	20.671	Yaw:	-249.936	Thrust:	0.000
Time:	3.425	Roll Set Point:	-0.133	Pitch Set Point:	-0.030	Yaw Set Point:	3.093	X_WP:	0.100	Y_WP:	0.000	Y_WP:	0.500	X:	0.736	Y:	-0.663	Z:	0.935	yaw:	-177.243	yaw rate:	-0.078	Roll:	-18.149	Pitch:	20.538	Yaw:	-250.645	Thrust:	0.000
Time:	3.438	Roll Set Point:	-0.133	Pitch Set Point:	-0.030	Yaw Set Point:	3.093	X_WP:	0.100	Y_WP:	0.000	Y_WP:	0.500	X:	0.736	Y:	-0.663	Z:	0.935	yaw:	-177.237	yaw rate:	0.692	Roll:	-17.892	Pitch:	20.651	Yaw:	-249.937	Thrust:	0.000
Time:	3.451	Roll Set Point:	-0.133	Pitch Set Point:	-0.030	Yaw Set Point:	3.093	X_WP:	0.100	Y_WP:	0.000	Y_WP:	0.500	X:	0.736	Y:	-0.663	Z:	0.935	yaw:	-177.236	yaw rate:	0.046	Roll:	-17.982	Pitch:	20.576	Yaw:	-250.062	Thrust:	0.000
Time:	3.464	Roll Set Point:	-0.133	Pitch Set Point:	-0.030	Yaw Set Point:	3.094	X_WP:	0.100	Y_WP:	0.000	Y_WP:	0.500	X:	0.736	Y:	-0.663	Z:	0.935	yaw:	-177.247	yaw rate:	-1.063	Roll:	-18.137	Pitch:	20.440	Yaw:	-250.308	Thrust:	0.000
Time:	3.478	Roll Set Point:	-0.133	Pitch Set Point:	-0.030	Yaw Set Point:	3.093	X_WP:	0.100	Y_WP:	0.000	Y_WP:	0.500	X:	0.736	Y:	-0.663	Z:	0.935	yaw:	-177.241	yaw rate:	0.620	Roll:	-17.930	Pitch:	20.689	Yaw:	-250.166	Thrust:	0.000
Time:	3.492	Roll Set Point:	-0.133	Pitch Set Point:	-0.030	Yaw Set Point:	3.093	X_WP:	0.100	Y_WP:	0.000	Y_WP:	0.500	X:	0.736	Y:	-0.663	Z:	0.935	yaw:	-177.244	yaw rate:	-0.318	Roll:	-18.037	Pitch:	20.571	Yaw:	-250.341	Thrust:	0.000
Time:	3.506	Roll Set Point:	-0.133	Pitch Set Point:	-0.030	Yaw Set Point:	3.093	X_WP:	0.100	Y_WP:	0.000	Y_WP:	0.500	X:	0.736	Y:	-0.663	Z:	0.935	yaw:	-177.229	yaw rate:	1.465	Roll:	-17.827	Pitch:	20.765	Yaw:	-249.992	Thrust:	0.000
Time:	3.520	Roll Set Point:	-0.133	Pitch Set Point:	-0.030	Yaw Set Point:	3.094	X_WP:	0.100	Y_WP:	0.000	Y_WP:	0.500	X:	0.736	Y:	-0.663	Z:	0.935	yaw:	-177.248	yaw rate:	-1.937	Roll:	-18.279	Pitch:	20.407	Yaw:	-250.659	Thrust:	0.000
Time:	3.534	Roll Set Point:	-0.132	Pitch Set Point:	-0.030	Yaw Set Point:	3.094	X_WP:	0.100	Y_WP:	0.000	Y_WP:	0.500	X:	0.736	Y:	-0.663	Z:	0.935	yaw:	-177.253	yaw rate:	-0.437	Roll:	-18.103	Pitch:	20.546	Yaw:	-250.381	Thrust:	0.000
Time:	3.548	Roll Set Point:	-0.133	Pitch Set Point:	-0.030	Yaw Set Point:	3.093	X_WP:	0.100	Y_WP:	0.000	Y_WP:	0.500	X:	0.736	Y:	-0.663	Z:	0.935	yaw:	-177.232	yaw rate:	2.100	Roll:	-17.705	Pitch:	20.848	Yaw:	-249.899	Thrust:	0.000
Time:	3.561	Roll Set Point:	-0.133	Pitch Set Point:	-0.030	Yaw Set Point:	3.094	X_WP:	0.100	Y_WP:	0.000	Y_WP:	0.500	X:	0.736	Y:	-0.663	Z:	0.935	yaw:	-177.248	yaw rate:	-1.659	Roll:	-18.242	Pitch:	20.354	Yaw:	-250.410	Thrust:	0.000
Time:	3.575	Roll Set Point:	-0.133	Pitch Set Point:	-0.030	Yaw Set Point:	3.093	X_WP:	0.100	Y_WP:	0.000	Y_WP:	0.500	X:	0.736	Y:	-0.663	Z:	0.935	yaw:	-177.239	yaw rate:	-0.504	Roll:	-17.885	Pitch:	20.722	Yaw:	-250.073	Thrust:	0.000
Time:	3.588	Roll Set Point:	-0.133	Pitch Set Point:	-0.030	Yaw Set Point:	3.094	X_WP:	0.100	Y_WP:	0.000	Y_WP:	0.500	X:	0.736	Y:	-0.663	Z:	0.935	yaw:	-177.250	yaw rate:	-1.134	Roll:	-18.119	Pitch:	20.433	Yaw:	-250.322	Thrust:	0.000
Time:	3.601	Roll Set Point:	-0.133	Pitch Set Point:	-0.030	Yaw Set Point:	3.093	X_WP:	0.100	Y_WP:	0.000	Y_WP:	0.500	X:	0.736	Y:	-0.663	Z:	0.935	yaw:	-177.240	yaw rate:	1.013	Roll:	-17.842	Pitch:	20.699	Yaw:	-249.877	Thrust:	0.000
Time:	3.614	Roll Set Point:	-0.133	Pitch Set Point:	-0.030	Yaw Set Point:	3.093	X_WP:	0.100	Y_WP:	0.000	Y_WP:	0.500	X:	0.736	Y:	-0.663	Z:	0.935	yaw:	-177.235	yaw rate:	0.483	Roll:	-17.888	Pitch:	20.626	Yaw:	-249.977	Thrust:	0.000
Time:	3.627	Roll Set Point:	-0.133	Pitch Set Point:	-0.030	Yaw Set Point:	3.093	X_WP:	0.100	Y_WP:	0.000	Y_WP:	0.500	X:	0.736	Y:	-0.663	Z:	0.935	yaw:	-177.241	yaw rate:	-0.599	Roll:	-18.073	Pitch:	20.487	Yaw:	-250.202	Thrust:	0.000
Time:	3.641	Roll Set Point:	-0.133	Pitch Set Point:	-0.030	Yaw Set Point:	3.093	X_WP:	0.100	Y_WP:	0.000	Y_WP:	0.500	X:	0.736	Y:	-0.663	Z:	0.935	yaw:	-177.242	yaw rate:	-0.095	Roll:	-18.006	Pitch:	20.556	Yaw:	-250.102	Thrust:	0.000
Time:	3.654	Roll Set Point:	-0.133	Pitch Set Point:	-0.030	Yaw Set Point:	3.093	X_WP:	0.100	Y_WP:	0.000	Y_WP:	0.500	X:	0.736	Y:	-0.663	Z:	0.935	yaw:	-177.242	yaw rate:	-0.015	Roll:	-17.979	Pitch:	20.582	Yaw:	-250.086	Thrust:	0.000
Time:	3.668	Roll Set Point:	-0.133	Pitch Set Point:	-0.030	Yaw Set Point:	3.094	X_WP:	0.100	Y_WP:	0.000	Y_WP:	0.500	X:	0.736	Y:	-0.663	Z:	0.935	yaw:	-177.251	yaw rate:	-0.867	Roll:	-18.094	Pitch:	20.516	Yaw:	-250.458	Thrust:	0.000
Time:	3.681	Roll Set Point:	-0.133	Pitch Set Point:	-0.030	Yaw Set Point:	3.094	X_WP:	0.100	Y_WP:	0.000	Y_WP:	0.500	X:	0.736	Y:	-0.663	Z:	0.935	yaw:	-177.247	yaw rate:	0.377	Roll:	-17.980	Pitch:	20.591	Yaw:	-250.015	Thrust:	0.000
Time:	3.694	Roll Set Point:	-0.133	Pitch Set Point:	-0.030	Yaw Set Point:	3.093	X_WP:	0.100	Y_WP:	0.000	Y_WP:	0.500	X:	0.736	Y:	-0.663	Z:	0.935	yaw:	-177.235	yaw rate:	1.232	Roll:	-17.796	Pitch:	20.730	Yaw:	-249.825	Thrust:	0.000
Time:	3.707	Roll Set Point:	-0.133	Pitch Set Point:	-0.030	Yaw Set Point:	3.093	X_WP:	0.100	Y_WP:	0.000	Y_WP:	0.500	X:	0.736	Y:	-0.663	Z:	0.935	yaw:	-177.239	yaw rate:	-0.411	Roll:	-18.060	Pitch:	20.514	Yaw:	-250.162	Thrust:	0.000
Time:	3.720	Roll Set Point:	-0.133	Pitch Set Point:	-0.030	Yaw Set Point:	3.094	X_WP:	0.100	Y_WP:	0.000	Y_WP:	0.500	X:	0.736	Y:	-0.663	Z:	0.935	yaw:	-177.248	yaw rate:	-0.951	Roll:	-18.072	Pitch:	20.480	Yaw:	-250.283	Thrust:	0.000
Time:	3.734	Roll Set Point:	-0.133	Pitch Set Point:	-0.030	Yaw Set Point:	3.094	X_WP:	0.100	Y_WP:	0.000	Y_WP:	0.500	X:	0.736	Y:	-0.663	Z:	0.935	yaw:	-177.245	yaw rate:	0.441	Roll:	-18.010	Pitch:	20.633	Yaw:	-250.236	Thrust:	0.000
Time:	3.748	Roll Set Point:	-0.133	Pitch Set Point:	-0.030	Yaw Set Point:	3.094	X_WP:	0.100	Y_WP:	0.000	Y_WP:	0.500	X:	0.736	Y:	-0.663	Z:	0.935	yaw:	-177.248	yaw rate:	-0.281	Roll:	-18.059	Pitch:	20.560	Yaw:	-250.345	Thrust:	0.000
Time:	3.761	Roll Set Point:	-0.133	Pitch Set Point:	-0.030	Yaw Set Point:	3.093	X_WP:	0.100	Y_WP:	0.000	Y_WP:	0.500	X:	0.736	Y:	-0.663	Z:	0.935	yaw:	-177.243	yaw rate:	0.509	Roll:	-17.873	Pitch:	20.620	Yaw:	-249.983	Thrust:	0.000
Time:	3.778	Roll Set Point:	-0.133	Pitch Set Point:	-0.030	Yaw Set Point:	3.093	X_WP:	0.100	Y_WP:	0.000	Y_WP:	0.500	X:	0.736	Y:	-0.663	Z:	0.935	yaw:	-177.238	yaw rate:	0.508	Roll:	-18.084	Pitch:	20.769	Yaw:	-250.802	Thrust:	0.000
Time:	3.791	Roll Set Point:	-0.133	Pitch Set Point:	-0.030	Yaw Set Point:	3.094	X_WP:	0.100	Y_WP:	0.000	Y_WP:	0.500	X:	0.736	Y:	-0.663	Z:	0.935	yaw:	-177.250	yaw rate:	-1.210	Roll:	-18.158	Pitch:	20.459	Yaw:	-250.338	Thrust:	0.000
Time:	3.804	Roll Set Point:	-0.132	Pitch Set Point:	-0.030	Yaw Set Point:	3.094	X_WP:	0.100	Y_WP:	0.000	Y_WP:	0.500	X:	0.736	Y:	-0.663	Z:	0.935	yaw:	-177.253	yaw rate:	-0.336	Roll:	-18.029	Pitch:	20.525	Yaw:	-250.178	Thrust:	0.000
Time:	3.817	Roll Set Point:	-0.133	Pitch Set Point:	-0.030	Yaw Set Point:	3.093	X_WP:	0.100	Y_WP:	0.000	Y_WP:	0.500	X:	0.736	Y:	-0.663	Z:	0.935	yaw:	-177.241	yaw rate:	1.206	Roll:	-17.776	Pitch:	20.705	Yaw:	-249.841	Thrust:	0.000
Time:	3.830	Roll Set Point:	-0.133	Pitch Set Point:	-0.030	Yaw Set Point:	3.094	X_WP:	0.100	Y_WP:	0.000	Y_WP:	0.500	X:	0.736	Y:	-0.663	Z:	0.935	yaw:	-177.246	yaw rate:	-0.460	Roll:	-18.074	Pitch:	20.484	Yaw:	-250.181	Thrust:	0.000
Time:	3.843	Roll Set Point:	-0.133	Pitch Set Point:	-0.030	Yaw Set Point:	3.093	X_WP:	0.100	Y_WP:	0.000	Y_WP:	0.500	X:	0.736	Y:	-0.663	Z:	0.935	yaw:	-177.239	yaw rate:	0.691	Roll:	-17.907	Pitch:	20.660	Yaw:	-249.941	Thrust:	0.000
Time:	3.856	Roll Set Point:	-0.133	Pitch Set Point:	-0.030	Yaw Set Point:	3.093	X_WP:	0.100	Y_WP:	0.000	Y_WP:	0.500	X:	0.736	Y:	-0.663	Z:	0.935	yaw:	-177.242	yaw rate:	-0.255	Roll:	-17.981	Pitch:	20.577	Yaw:	-250.134	Thrust:	0.000
Time:	3.870	Roll Set Point:	-0.133	Pitch Set Point:	-0.030	Yaw Set Point:	3.093	X_WP:	0.100	Y_WP:	0.000	Y_WP:	0.500	X:	0.736	Y:	-0.663	Z:	0.935	yaw:	-177.240	yaw rate:	0.118	Roll:	-17.985	Pitch:	20.606	Yaw:	-250.260	Thrust:	0.000
Time:	3.884	Roll Set Point:	-0.133	Pitch Set Point:	-0.030	Yaw Set Point:	3.093	X_WP:	0.100	Y_WP:	0.000	Y_WP:	0.500	X:	0.736	Y:	-0.663	Z:	0.935	yaw:	-177.241	yaw rate:	-0.047	Roll:	-18.026	Pitch:	20.607	Yaw:	-250.291	Thrust:	0.000
Time:	3.898	Roll Set Point:	-0.133	Pitch Set Point:	-0.030	Yaw Set Point:	3.093	X_WP:	0.100	Y_WP:	0.000	Y_WP:	0.500	X:	0.736	Y:	-0.663	Z:	0.935	yaw:	-177.243	yaw rate:	-0.168	Roll:	-18.095	Pitch:	20.561	Yaw:	-250.312	Thrust:	0.000
Time:	3.911	Roll Set Point:	-0.133	Pitch Set Point:	-0.030	Yaw Set Point:	3.093	X_WP:	0.100	Y_WP:	0.000	Y_WP:	0.500	X:	0.736	Y:	-0.663	Z:	0.935	yaw:	-177.239	yaw rate:	0.368	Roll:	-17.901	Pitch:	20.630	Yaw:	-250.010	Thrust:	0.000
Time:	3.924	Roll Set Point:	-0.133	Pitch Set Point:	-0.030	Yaw Set Point:	3.093	X_WP:	0.100	Y_WP:	0.000	Y_WP:	0.500	X:	0.736	Y:	-0.663	Z:	0.935	yaw:	-177.241	yaw rate:	-0.209	Roll:	-17.962	Pitch:	20.557	Yaw:	-250.126	Thrust:	0.000
Time:	3.938	Roll Set Point:	-0.132	Pitch Set Point:	-0.030	Yaw Set Point:	3.094	X_WP:	0.100	Y_WP:	0.000	Y_WP:	0.500	X:	0.736	Y:	-0.663	Z:	0.935	yaw:	-177.255	yaw rate:	-1.403	Roll:	-18.197	Pitch:	20.462	Yaw:	-250.563	Thrust:	0.000
Time:	3.952	Roll Set Point:	-0.133	Pitch Set Point:	-0.030	Yaw Set Point:	3.093	X_WP:	0.100	Y_WP:	0.000	Y_WP:	0.500	X:	0.736	Y:	-0.663	Z:	0.935	yaw:	-177.237	yaw rate:	1.757	Roll:	-17.825	Pitch:	20.784	Yaw:	-249.945	Thrust:	0.000
Time:	3.967	Roll Set Point:	-0.133	Pitch Set Point:	-0.030	Yaw Set Point:	3.093	X_WP:	0.100	Y_WP:	0.000	Y_WP:	0.500	X:	0.736	Y:	-0.663	Z:	0.935	yaw:	-177.240	yaw rate:	1.204	Roll:	-18.059	Pitch:	20.589	Yaw:	-250.439	Thrust:	0.000
Time:	3.980	Roll Set Point:	-0.133	Pitch Set Point:	-0.030	Yaw Set Point:	3.093	X_WP:	0.100	Y_WP:	0.000	Y_WP:	0.500	X:	0.736	Y:	-0.663	Z:	0.935	yaw:	-177.232	yaw rate:	0.811	Roll:	-17.867	Pitch:	20.686	Yaw:	-249.906	Thrust:	0.000
Time:	3.993	Roll Set Point:	-0.133	Pitch Set Point:	-0.030	Yaw Set Point:	3.094	X_WP:	0.100	Y_WP:	0.000	Y_WP:	0.500	X:	0.736	Y:	-0.663	Z:	0.935	yaw:	-177.250	yaw rate:	-1.794	Roll:	-18.210	Pitch:	20.369	Yaw:	-250.455	Thrust:	0.000
Time:	4.006	Roll Set Point:	-0.133	Pitch Set Point:	-0.030	Yaw Set Point:	3.093	X_WP:	0.100	Y_WP:	0.000	Y_WP:	0.500	X:	0.736	Y:	-0.663	Z:	0.935	yaw:	-177.237	yaw rate:	1.281	Roll:	-17.839	Pitch:	20.725	Yaw:	-249.820	Thrust:	0.000
Time:	4.020	Roll Set Point:	-0.133	Pitch Set Point:	-0.030	Yaw Set Point:	3.093	X_WP:	0.100	Y_WP:	0.000	Y_WP:	0.500	X:	0.736	Y:	-0.663	Z:	0.935	yaw:	-177.244	yaw rate:	-0.717	Roll:	-18.112	Pitch:	20.506	Yaw:	-250.421	Thrust:	0.000
Time:	4.033	Roll Set Point:	-0.133	Pitch Set Point:	-0.030	Yaw Set Point:	3.093	X_WP:	0.100	Y_WP:	0.000	Y_WP:	0.500	X:	0.736	Y:	-0.663	Z:	0.935	yaw:	-177.239	yaw rate:	0.539	Roll:	-17.901	Pitch:	20.631	Yaw:	-249.971	Thrust:	0.000
Time:	4.046	Roll Set Point:	-0.133	Pitch Set Point:	-0.030	Yaw Set Point:	3.093	X_WP:	0.100	Y_WP:	0.000	Y_WP:	0.500	X:	0.736	Y:	-0.663	Z:	0.935	yaw:	-177.237	yaw rate:	0.167	Roll:	-17.934	Pitch:	20.597	Yaw:	-250.044	Thrust:	0.000
Time:	4.060	Roll Set Point:	-0.133	Pitch Set Point:	-0.030	Yaw Set Point:	3.093	X_WP:	0.100	Y_WP:	0.000	Y_WP:	0.500	X:	0.736	Y:	-0.663	Z:	0.935	yaw:	-177.239	yaw rate:	-0.190	Roll:	-18.033	Pitch:	20.597	Yaw:	-250.316	Thrust:	0.000
Time:	4.074	Roll Set Point:	-0.133	Pitch Set Point:	-0.030	Yaw Set Point:	3.093	X_WP:	0.100	Y_WP:	0.000	Y_WP:	0.500	X:	0.736	Y:	-0.663	Z:	0.935	yaw:	-177.239	yaw rate:	0.007	Roll:	-18.039	Pitch:	20.612	Yaw:	-250.279	Thrust:	0.000
Time:	4.088	Roll Set Point:	-0.133	Pitch Set Point:	-0.030	Yaw Set Point:	3.093	X_WP:	0.100	Y_WP:	0.000	Y_WP:	0.500	X:	0.736	Y:	-0.663	Z:	0.935	yaw:	-177.239	yaw rate:	-0.274	Roll:	-17.975	Pitch:	20.590	Yaw:	-250.284	Thrust:	0.000
Time:	4.101	Roll Set Point:	-0.132	Pitch Set Point:	-0.030	Yaw Set Point:	3.094	X_WP:	0.100	Y_WP:	0.000	Y_WP:	0.500	X:	0.736	Y:	-0.663	Z:	0.935	yaw:	-177.258	yaw rate:	-1.909	Roll:	-18.283	Pitch:	20.340	Yaw:	-250.490	Thrust:	0.000
Time:	4.115	Roll Set Point:	-0.133	Pitch Set Point:	-0.030	Yaw Set Point:	3.093	X_WP:	0.100	Y_WP:	0.000	Y_WP:	0.500	X:	0.736	Y:	-0.663	Z:	0.935	yaw:	-177.236	yaw rate:	2.278	Roll:	-17.757	Pitch:	20.865	Yaw:	-249.850	Thrust:	0.000
Time:	4.130	Roll Set Point:	-0.133	Pitch Set Point:	-0.030	Yaw Set Point:	3.093	X_WP:	0.100	Y_WP:	0.000	Y_WP:	0.500	X:	0.736	Y:	-0.663	Z:	0.935	yaw:	-177.238	yaw rate:	-0.274	Roll:	-18.014	Pitch:	20.578	Yaw:	-250.528	Thrust:	0.000
Time:	4.143	Roll Set Point:	-0.133	Pitch Set Point:	-0.030	Yaw Set Point:	3.094	X_WP:	0.100	Y_WP:	0.000	Y_WP:	0.500	X:	0.736	Y:	-0.663	Z:	0.935	yaw:	-177.249	yaw rate:	-0.570	Roll:	-18.154	Pitch:	20.485	Yaw:	-250.306	Thrust:	0.000
Time:	4.157	Roll Set Point:	-0.133	Pitch Set Point:	-0.030	Yaw Set Point:	3.093	X_WP:	0.100	Y_WP:	0.000	Y_WP:	0.500	X:	0.736	Y:	-0.663	Z:	0.935	yaw:	-177.224	yaw rate:	2.553	Roll:	-17.654	Pitch:	20.903	Yaw:	-249.782	Thrust:	0.000
Time:	4.171	Roll Set Point:	-0.133	Pitch Set Point:	-0.030	Yaw Set Point:	3.093	X_WP:	0.100	Y_WP:	0.000	Y_WP:	0.500	X:	0.736	Y:	-0.663	Z:	0.935	yaw:	-177.240	yaw rate:	-1.650	Roll:	-18.265	Pitch:	20.364	Yaw:	-250.412	Thrust:	0.000
Time:	4.184	Roll Set Point:	-0.132	Pitch Set Point:	-0.030	Yaw Set Point:	3.094	X_WP:	0.100	Y_WP:	0.000	Y_WP:	0.500	X:	0.736	Y:	-0.663	Z:	0.935	yaw:	-177.253	yaw rate:	-1.280	Roll:	-18.153	Pitch:	20.421	Yaw:	-250.356	Thrust:	0.000
Time:	4.197	Roll Set Point:	-0.133	Pitch Set Point:	-0.030	Yaw Set Point:	3.093	X_WP:	0.100	Y_WP:	0.000	Y_WP:	0.500	X:	0.736	Y:	-0.663	Z:	0.935	yaw:	-177.244	yaw rate:	0.892	Roll:	-17.844	Pitch:	20.682	Yaw:	-249.933	Thrust:	0.000
Time:	4.211	Roll Set Point:	-0.133	Pitch Set Point:	-0.030	Yaw Set Point:	3.093	X_WP:	0.100	Y_WP:	0.000	Y_WP:	0.500	X:	0.736	Y:	-0.663	Z:	0.935	yaw:	-177.243	yaw rate:	-1.335	Roll:	-18.033	Pitch:	20.610	Yaw:	-250.240	Thrust:	0.000
Time:	4.225	Roll Set Point:	-0.133	Pitch Set Point:	-0.030	Yaw Set Point:	3.093	X_WP:	0.100	Y_WP:	0.000	Y_WP:	0.500	X:	0.736	Y:	-0.663	Z:	0.935	yaw:	-177.234	yaw rate:	0.893	Roll:	-17.837	Pitch:	20.717	Yaw:	-250.106	Thrust:	0.000
Time:	4.238	Roll Set Point:	-0.133	Pitch Set Point:	-0.030	Yaw Set Point:	3.094	X_WP:	0.100	Y_WP:	0.000	Y_WP:	0.500	X:	0.736	Y:	-0.663	Z:	0.935	yaw:	-177.251	yaw rate:	-1.688	Roll:	-18.233	Pitch:	20.352	Yaw:	-250.435	Thrust:	0.000
Time:	4.252	Roll Set Point:	-0.133	Pitch Set Point:	-0.030	Yaw Set Point:	3.094	X_WP:	0.100	Y_WP:	0.000	Y_WP:	0.500	X:	0.736	Y:	-0.663	Z:	0.935	yaw:	-177.251	yaw rate:	-0.025	Roll:	-18.043	Pitch:	20.597	Yaw:	-250.301	Thrust:	0.000
Time:	4.265	Roll Set Point:	-0.133	Pitch Set Point:	-0.030	Yaw Set Point:	3.094	X_WP:	0.100	Y_WP:	0.000	Y_WP:	0.500	X:	0.736	Y:	-0.663	Z:	0.935	yaw:	-177.250	yaw rate:	0.107	Roll:	-17.950	Pitch:	20.598	Yaw:	-250.073	Thrust:	0.000
Time:	4.279	Roll Set Point:	-0.133	Pitch Set Point:	-0.030	Yaw Set Point:	3.093	X_WP:	0.100	Y_WP:	0.000	Y_WP:	0.500	X:	0.736	Y:	-0.663	Z:	0.935	yaw:	-177.236	yaw rate:	1.409	Roll:	-17.850	Pitch:	20.769	Yaw:	-250.013	Thrust:	0.000
Time:	4.293	Roll Set Point:	-0.133	Pitch Set Point:	-0.030	Yaw Set Point:	3.093	X_WP:	0.100	Y_WP:	0.000	Y_WP:	0.500	X:	0.736	Y:	-0.663	Z:	0.935	yaw:	-177.241	yaw rate:	-0.535	Roll:	-18.080	Pitch:	20.555	Yaw:	-250.383	Thrust:	0.000
Time:	4.307	Roll Set Point:	-0.133	Pitch Set Point:	-0.030	Yaw Set Point:	3.093	X_WP:	0.100	Y_WP:	0.000	Y_WP:	0.500	X:	0.736	Y:	-0.663	Z:	0.935	yaw:	-177.234	yaw rate:	0.701	Roll:	-17.905	Pitch:	20.678	Yaw:	-250.142	Thrust:	0.000
Time:	4.321	Roll Set Point:	-0.133	Pitch Set Point:	-0.030	Yaw Set Point:	3.093	X_WP:	0.100	Y_WP:	0.000	Y_WP:	0.500	X:	0.736	Y:	-0.663	Z:	0.935	yaw:	-177.241	yaw rate:	-0.144	Roll:	-18.122	Pitch:	20.531	Yaw:	-250.411	Thrust:	0.000
Time:	4.334	Roll Set Point:	-0.133	Pitch Set Point:	-0.030	Yaw Set Point:	3.093	X_WP:	0.100	Y_WP:	0.000	Y_WP:	0.500	X:	0.736	Y:	-0.663	Z:	0.935	yaw:	-177.242	yaw rate:	-0.092	Roll:	-17.970	Pitch:	20.558	Yaw:	-250.102	Thrust:	0.000
Time:	4.347	Roll Set Point:	-0.133	Pitch Set Point:	-0.030	Yaw Set Point:	3.093	X_WP:	0.100	Y_WP:	0.000	Y_WP:	0.500	X:	0.736	Y:	-0.663	Z:	0.935	yaw:	-177.233	yaw rate:	0.891	Roll:	-17.824	Pitch:	20.679	Yaw:	-249.892	Thrust:	0.000
Time:	4.360	Roll Set Point:	-0.133	Pitch Set Point:	-0.030	Yaw Set Point:	3.093	X_WP:	0.100	Y_WP:	0.000	Y_WP:	0.500	X:	0.736	Y:	-0.663	Z:	0.935	yaw:	-177.244	yaw rate:	-1.130	Roll:	-18.174	Pitch:	20.432	Yaw:	-250.314	Thrust:	0.000
Time:	4.373	Roll Set Point:	-0.133	Pitch Set Point:	-0.030	Yaw Set Point:	3.094	X_WP:	0.100	Y_WP:	0.000	Y_WP:	0.500	X:	0.736	Y:	-0.663	Z:	0.935	yaw:	-177.252	yaw rate:	-0.734	Roll:	-18.109	Pitch:	20.483	Yaw:	-250.244	Thrust:	0.000
Time:	4.387	Roll Set Point:	-0.133	Pitch Set Point:	-0.030	Yaw Set Point:	3.093	X_WP:	0.100	Y_WP:	0.000	Y_WP:	0.500	X:	0.736	Y:	-0.663	Z:	0.935	yaw:	-177.241	yaw rate:	1.046	Roll:	-17.893	Pitch:	20.721	Yaw:	-250.088	Thrust:	0.000
Time:	4.401	Roll Set Point:	-0.133	Pitch Set Point:	-0.030	Yaw Set Point:	3.093	X_WP:	0.100	Y_WP:	0.000	Y_WP:	0.500	X:	0.736	Y:	-0.663	Z:	0.935	yaw:	-177.244	yaw rate:	-0.293	Roll:	-18.017	Pitch:	20.579	Yaw:	-250.348	Thrust:	0.000
Time:	4.414	Roll Set Point:	-0.133	Pitch Set Point:	-0.030	Yaw Set Point:	3.093	X_WP:	0.100	Y_WP:	0.000	Y_WP:	0.500	X:	0.736	Y:	-0.663	Z:	0.935	yaw:	-177.241	yaw rate:	-0.536	Roll:	-17.925	Pitch:	20.606	Yaw:	-250.020	Thrust:	0.000
Time:	4.427	Roll Set Point:	-0.133	Pitch Set Point:	-0.030	Yaw Set Point:	3.094	X_WP:	0.100	Y_WP:	0.000	Y_WP:	0.500	X:	0.736	Y:	-0.663	Z:	0.935	yaw:	-177.250	yaw rate:	-0.920	Roll:	-18.134	Pitch:	20.464	Yaw:	-250.279	Thrust:	0.000
Time:	4.440	Roll Set Point:	-0.133	Pitch Set Point:	-0.030	Yaw Set Point:	3.094	X_WP:	0.100	Y_WP:	0.000	Y_WP:	0.500	X:	0.736	Y:	-0.663	Z:	0.935	yaw:	-177.247	yaw rate:	0.374	Roll:	-17.932	Pitch:	20.603	Yaw:	-250.009	Thrust:	0.000
Time:	4.454	Roll Set Point:	-0.133	Pitch Set Point:	-0.030	Yaw Set Point:	3.093	X_WP:	0.100	Y_WP:	0.000	Y_WP:	0.500	X:	0.736	Y:	-0.663	Z:	0.935	yaw:	-177.239	yaw rate:	0.714	Roll:	-17.918	Pitch:	20.685	Yaw:	-250.153	Thrust:	0.000
Time:	4.467	Roll Set Point:	-0.133	Pitch Set Point:	-0.030	Yaw Set Point:	3.094	X_WP:	0.100	Y_WP:	0.000	Y_WP:	0.500	X:	0.736	Y:	-0.663	Z:	0.935	yaw:	-177.246	yaw rate:	-0.670	Roll:	-18.071	Pitch:	20.484	Yaw:	-250.224	Thrust:	0.000
Time:	4.480	Roll Set Point:	-0.133	Pitch Set Point:	-0.030	Yaw Set Point:	3.093	X_WP:	0.100	Y_WP:	0.000	Y_WP:	0.500	X:	0.736	Y:	-0.663	Z:	0.935	yaw:	-177.239	yaw rate:	0.728	Roll:	-17.911	Pitch:	20.663	Yaw:	-249.933	Thrust:	0.000
Time:	4.494	Roll Set Point:	-0.133	Pitch Set Point:	-0.030	Yaw Set Point:	3.093	X_WP:	0.100	Y_WP:	0.000	Y_WP:	0.500	X:	0.736	Y:	-0.663	Z:	0.935	yaw:	-177.236	yaw rate:	0.268	Roll:	-17.946	Pitch:	20.657	Yaw:	-250.226	Thrust:	0.000
Time:	4.507	Roll Set Point:	-0.133	Pitch Set Point:	-0.030	Yaw Set Point:	3.093	X_WP:	0.100	Y_WP:	0.000	Y_WP:	0.500	X:	0.736	Y:	-0.663	Z:	0.935	yaw:	-177.241	yaw rate:	0.796	Roll:	-18.057	Pitch:	20.489	Yaw:	-250.175	Thrust:	0.000
Time:	4.520	Roll Set Point:	-0.133	Pitch Set Point:	-0.030	Yaw Set Point:	3.094	X_WP:	0.100	Y_WP:	0.000	Y_WP:	0.500	X:	0.736	Y:	-0.663	Z:	0.935	yaw:	-177.248	yaw rate:	-0.665	Roll:	-18.071	Pitch:	20.491	Yaw:	-250.225	Thrust:	0.000
Time:	4.534	Roll Set Point:	-0.133	Pitch Set Point:	-0.030	Yaw Set Point:	3.093	X_WP:	0.100	Y_WP:	0.000	Y_WP:	0.500	X:	0.736	Y:	-0.663	Z:	0.935	yaw:	-177.243	yaw rate:	0.482	Roll:	-17.944	Pitch:	20.659	Yaw:	-250.195	Thrust:	0.000
Time:	4.548	Roll Set Point:	-0.133	Pitch Set Point:	-0.030	Yaw Set Point:	3.093	X_WP:	0.100	Y_WP:	0.000	Y_WP:	0.500	X:	0.736	Y:	-0.663	Z:	0.935	yaw:	-177.238	yaw rate:	0.490	Roll:	-17.907	Pitch:	20.629	Yaw:	-249.985	Thrust:	0.000
Time:	4.562	Roll Set Point:	-0.133	Pitch Set Point:	-0.030	Yaw Set Point:	3.093	X_WP:	0.100	Y_WP:	0.000	Y_WP:	0.500	X:	0.736	Y:	-0.663	Z:	0.935	yaw:	-177.239	yaw rate:	-0.114	Roll:	-18.019	Pitch:	20.612	Yaw:	-250.301	Thrust:	0.000
Time:	4.575	Roll Set Point:	-0.134	Pitch Set Point:	-0.031	Yaw Set Point:	3.092	X_WP:	0.100	Y_WP:	0.000	Y_WP:	0.500	X:	0.736	Y:	-0.662	Z:	0.935	yaw:	-177.164	yaw rate:	7.505	Roll:	-17.111	Pitch:	21.317	Yaw:	-248.465	Thrust:	0.000
Time:	4.589	Roll Set Point:	-0.133	Pitch Set Point:	-0.030	Yaw Set Point:	3.093	X_WP:	0.100	Y_WP:	0.000	Y_WP:	0.500	X:	0.736	Y:	-0.663	Z:	0.935	yaw:	-177.235	yaw rate:	-7.120	Roll:	-18.762	Pitch:	19.976	Yaw:	-251.602	Thrust:	0.000
Time:	4.606	Roll Set Point:	-0.133	Pitch Set Point:	-0.030	Yaw Set Point:	3.093	X_WP:	0.100	Y_WP:	0.000	Y_WP:	0.500	X:	0.736	Y:	-0.663	Z:	0.935	yaw:	-177.244	yaw rate:	-0.897	Roll:	-18.250	Pitch:	20.624	Yaw:	-251.021	Thrust:	0.000
Time:	4.620	Roll Set Point:	-0.133	Pitch Set Point:	-0.030	Yaw Set Point:	3.093	X_WP:	0.100	Y_WP:	0.000	Y_WP:	0.500	X:	0.736	Y:	-0.663	Z:	0.935	yaw:	-177.235	yaw rate:	-0.562	Roll:	-17.873	Pitch:	20.713	Yaw:	-250.100	Thrust:	0.000
Time:	4.633	Roll Set Point:	-0.133	Pitch Set Point:	-0.030	Yaw Set Point:	3.094	X_WP:	0.100	Y_WP:	0.000	Y_WP:	0.500	X:	0.736	Y:	-0.663	Z:	0.935	yaw:	-177.247	yaw rate:	-1.226	Roll:	-18.132	Pitch:	20.445	Yaw:	-250.337	Thrust:	0.000
Time:	4.646	Roll Set Point:	-0.133	Pitch Set Point:	-0.030	Yaw Set Point:	3.094	X_WP:	0.100	Y_WP:	0.000	Y_WP:	0.500	X:	0.736	Y:	-0.663	Z:	0.935	yaw:	-177.252	yaw rate:	-0.445	Roll:	-18.072	Pitch:	20.506	Yaw:	-250.186	Thrust:	0.000
Time:	4.659	Roll Set Point:	-0.133	Pitch Set Point:	-0.030	Yaw Set Point:	3.094	X_WP:	0.100	Y_WP:	0.000	Y_WP:	0.500	X:	0.736	Y:	-0.663	Z:	0.935	yaw:	-177.247	yaw rate:	0.494	Roll:	-17.913	Pitch:	20.623	Yaw:	-249.991	Thrust:	0.000
Time:	4.672	Roll Set Point:	-0.133	Pitch Set Point:	-0.030	Yaw Set Point:	3.093	X_WP:	0.100	Y_WP:	0.000	Y_WP:	0.500	X:	0.736	Y:	-0.663	Z:	0.935	yaw:	-177.244	yaw rate:	0.251	Roll:	-17.930	Pitch:	20.591	Yaw:	-250.036	Thrust:	0.000
Time:	4.686	Roll Set Point:	-0.133	Pitch Set Point:	-0.030	Yaw Set Point:	3.093	X_WP:	0.100	Y_WP:	0.000	Y_WP:	0.500	X:	0.736	Y:	-0.663	Z:	0.935	yaw:	-177.225	yaw rate:	1.899	Roll:	-17.744	Pitch:	20.818	Yaw:	-249.906	Thrust:	0.000
Time:	4.700	Roll Set Point:	-0.133	Pitch Set Point:	-0.030	Yaw Set Point:	3.093	X_WP:	0.100	Y_WP:	0.000	Y_WP:	0.500	X:	0.736	Y:	-0.663	Z:	0.935	yaw:	-177.241	yaw rate:	-1.612	Roll:	-18.252	Pitch:	20.432	Yaw:	-250.584	Thrust:	0.000
Time:	4.714	Roll Set Point:	-0.133	Pitch Set Point:	-0.030	Yaw Set Point:	3.094	X_WP:	0.100	Y_WP:	0.000	Y_WP:	0.500	X:	0.736	Y:	-0.663	Z:	0.935	yaw:	-177.245	yaw rate:	-0.385	Roll:	-18.054	Pitch:	20.584	Yaw:	-250.360	Thrust:	0.000
Time:	4.727	Roll Set Point:	-0.133	Pitch Set Point:	-0.030	Yaw Set Point:	3.094	X_WP:	0.100	Y_WP:	0.000	Y_WP:	0.500	X:	0.736	Y:	-0.663	Z:	0.935	yaw:	-177.252	yaw rate:	-0.677	Roll:	-18.065	Pitch:	20.482	Yaw:	-250.233	Thrust:	0.000
Time:	4.741	Roll Set Point:	-0.132	Pitch Set Point:	-0.030	Yaw Set Point:	3.094	X_WP:	0.100	Y_WP:	0.000	Y_WP:	0.500	X:	0.736	Y:	-0.663	Z:	0.935	yaw:	-177.253	yaw rate:	-0.102	Roll:	-18.059	Pitch:	20.566	Yaw:	-250.318	Thrust:	0.000
Time:	4.755	Roll Set Point:	-0.133	Pitch Set Point:	-0.030	Yaw Set Point:	3.093	X_WP:	0.100	Y_WP:	0.000	Y_WP:	0.500	X:	0.736	Y:	-0.663	Z:	0.935	yaw:	-177.232	yaw rate:	2.104	Roll:	-17.736	Pitch:	20.847	Yaw:	-249.877	Thrust:	0.000
Time:	4.769	Roll Set Point:	-0.133	Pitch Set Point:	-0.030	Yaw Set Point:	3.093	X_WP:	0.100	Y_WP:	0.000	Y_WP:	0.500	X:	0.736	Y:	-0.663	Z:	0.935	yaw:	-177.240	yaw rate:	-0.848	Roll:	-18.154	Pitch:	20.529	Yaw:	-250.440	Thrust:	0.000
Time:	4.783	Roll Set Point:	-0.133	Pitch Set Point:	-0.030	Yaw Set Point:	3.093	X_WP:	0.100	Y_WP:	0.000	Y_WP:	0.500	X:	0.736	Y:	-0.663	Z:	0.935	yaw:	-177.241	yaw rate:	-0.060	Roll:	-17.966	Pitch:	20.627	Yaw:	-250.294	Thrust:	0.000
Time:	4.797	Roll Set Point:	-0.133	Pitch Set Point:	-0.030	Yaw Set Point:	3.093	X_WP:	0.100	Y_WP:	0.000	Y_WP:	0.500	X:	0.736	Y:	-0.663	Z:	0.935	yaw:	-177.238	yaw rate:	0.334	Roll:	-17.996	Pitch:	20.633	Yaw:	-250.216	Thrust:	0.000
Time:	4.810	Roll Set Point:	-0.133	Pitch Set Point:	-0.030	Yaw Set Point:	3.093	X_WP:	0.100	Y_WP:	0.000	Y_WP:	0.500	X:	0.736	Y:	-0.663	Z:	0.935	yaw:	-177.241	yaw rate:	-0.315	Roll:	-18.071	Pitch:	20.505	Yaw:	-250.145	Thrust:	0.000
Time:	4.823	Roll Set Point:	-0.133	Pitch Set Point:	-0.030	Yaw Set Point:	3.093	X_WP:	0.100	Y_WP:	0.000	Y_WP:	0.500	X:	0.736	Y:	-0.663	Z:	0.935	yaw:	-177.236	yaw rate:	0.469	Roll:	-17.879	Pitch:	20.619	Yaw:	-249.981	Thrust:	0.000
Time:	4.837	Roll Set Point:	-0.133	Pitch Set Point:	-0.030	Yaw Set Point:	3.094	X_WP:	0.100	Y_WP:	0.000	Y_WP:	0.500	X:	0.736	Y:	-0.663	Z:	0.935	yaw:	-177.250	yaw rate:	-1.867	Roll:	-18.178	Pitch:	20.487	Yaw:	-250.553	Thrust:	0.000
Time:	4.850	Roll Set Point:	-0.133	Pitch Set Point:	-0.030	Yaw Set Point:	3.094	X_WP:	0.100	Y_WP:	0.000	Y_WP:	0.500	X:	0.736	Y:	-0.663	Z:	0.935	yaw:	-177.252	yaw rate:	-0.219	Roll:	-18.006	Pitch:	20.554	Yaw:	-250.142	Thrust:	0.000
Time:	4.863	Roll Set Point:	-0.133	Pitch Set Point:	-0.030	Yaw Set Point:	3.093	X_WP:	0.100	Y_WP:	0.000	Y_WP:	0.500	X:	0.736	Y:	-0.663	Z:	0.935	yaw:	-177.241	yaw rate:	1.113	Roll:	-17.854	Pitch:	20.693	Yaw:	-249.858	Thrust:	0.000
Time:	4.876	Roll Set Point:	-0.133	Pitch Set Point:	-0.030	Yaw Set Point:	3.093	X_WP:	0.100	Y_WP:	0.000	Y_WP:	0.500	X:	0.736	Y:	-0.663	Z:	0.935	yaw:	-177.244	yaw rate:	-0.293	Roll:	-18.020	Pitch:	20.489	Yaw:	-250.149	Thrust:	0.000
Time:	4.890	Roll Set Point:	-0.133	Pitch Set Point:	-0.030	Yaw Set Point:	3.093	X_WP:	0.100	Y_WP:	0.000	Y_WP:	0.500	X:	0.736	Y:	-0.663	Z:	0.935	yaw:	-177.237	yaw rate:	0.654	Roll:	-17.912	Pitch:	20.685	Yaw:	-250.151	Thrust:	0.000
Time:	4.904	Roll Set Point:	-0.133	Pitch Set Point:	-0.030	Yaw Set Point:	3.093	X_WP:	0.100	Y_WP:	0.000	Y_WP:	0.500	X:	0.736	Y:	-0.663	Z:	0.935	yaw:	-177.231	yaw rate:	0.596	Roll:	-17.942	Pitch:	20.707	Yaw:	-250.158	Thrust:	0.000
Time:	4.918	Roll Set Point:	-0.133	Pitch Set Point:	-0.030	Yaw Set Point:	3.094	X_WP:	0.100	Y_WP:	0.000	Y_WP:	0.500	X:	0.736	Y:	-0.663	Z:	0.935	yaw:	-177.248	yaw rate:	-7.098	Roll:	-18.215	Pitch:	20.440	Yaw:	-250.596	Thrust:	0.000
Time:	4.932	Roll Set Point:	-0.133	Pitch Set Point:	-0.030	Yaw Set Point:	3.094	X_WP:	0.100	Y_WP:	0.000	Y_WP:	0.500	X:	0.736	Y:	-0.663	Z:	0.935	yaw:	-177.245	yaw rate:	0.319	Roll:	-17.959	Pitch:	20.574	Yaw:	-250.023	Thrust:	0.000
Time:	4.945	Roll Set Point:	-0.133	Pitch Set Point:	-0.030	Yaw Set Point:	3.093	X_WP:	0.100	Y_WP:	0.000	Y_WP:	0.500	X:	0.736	Y:	-0.663	Z:	0.935	yaw:	-177.223	yaw rate:	2.133	Roll:	-17.743	Pitch:	20.845	Yaw:	-249.843	Thrust:	0.000
Time:	4.959	Roll Set Point:	-0.133	Pitch Set Point:	-0.030	Yaw Set Point:	3.093	X_WP:	0.100	Y_WP:	0.000	Y_WP:	0.500	X:	0.736	Y:	-0.663	Z:	0.935	yaw:	-177.235	yaw rate:	-1.173	Roll:	-18.148	Pitch:	20.442	Yaw:	-250.314	Thrust:	0.000
Time:	4.972	Roll Set Point:	-0.132	Pitch Set Point:	-0.030	Yaw Set Point:	3.094	X_WP:	0.100	Y_WP:	0.000	Y_WP:	0.500	X:	0.736	Y:	-0.663	Z:	0.935	yaw:	-177.259	yaw rate:	-2.393	Roll:	-18.257	Pitch:	20.293	Yaw:	-250.588	Thrust:	0.000
Time:	4.986	Roll Set Point:	-0.133	Pitch Set Point:	-0.030	Yaw Set Point:	3.094	X_WP:	0.100	Y_WP:	0.000	Y_WP:	0.500	X:	0.736	Y:	-0.663	Z:	0.935	yaw:	-177.251	yaw rate:	0.768	Roll:	-17.940	Pitch:	20.692	Yaw:	-250.153	Thrust:	0.000
Time:	5.000	Roll Set Point:	-0.133	Pitch Set Point:	-0.030	Yaw Set Point:	3.093	X_WP:	0.100	Y_WP:	0.000	Y_WP:	0.500	X:	0.736	Y:	-0.663	Z:	0.935	yaw:	-177.234	yaw rate:	1.719	Roll:	-17.780	Pitch:	20.797	Yaw:	-249.952	Thrust:	0.000
Time:	5.014	Roll Set Point:	-0.133	Pitch Set Point:	-0.030	Yaw Set Point:	3.093	X_WP:	0.100	Y_WP:	0.000	Y_WP:	0.500	X:	0.736	Y:	-0.663	Z:	0.935	yaw:	-177.240	yaw rate:	-0.577	Roll:	-18.111	Pitch:	20.519	Yaw:	-250.389	Thrust:	0.000
Time:	5.028	Roll Set Point:	-0.133	Pitch Set Point:	-0.030	Yaw Set Point:	3.094	X_WP:	0.100	Y_WP:	0.000	Y_WP:	0.500	X:	0.736	Y:	-0.663	Z:	0.935	yaw:	-177.245	yaw rate:	-0.866	Roll:	-18.089	Pitch:	20.566	Yaw:	-250.379	Thrust:	0.000
Time:	5.041	Roll Set Point:	-0.132	Pitch Set Point:	-0.030	Yaw Set Point:	3.094	X_WP:	0.100	Y_WP:	0.000	Y_WP:	0.500	X:	0.736	Y:	-0.663	Z:	0.935	yaw:	-177.255	yaw rate:	-1.045	Roll:	-18.123	Pitch:	20.475	Yaw:	-250.390	Thrust:	0.000
Time:	5.055	Roll Set Point:	-0.133	Pitch Set Point:	-0.030	Yaw Set Point:	3.093	X_WP:	0.100	Y_WP:	0.000	Y_WP:	0.500	X:	0.736	Y:	-0.663	Z:	0.935	yaw:	-177.242	yaw rate:	1.283	Roll:	-17.824	Pitch:	20.745	Yaw:	-249.955	Thrust:	0.000
Time:	5.069	Roll Set Point:	-0.133	Pitch Set Point:	-0.030	Yaw Set Point:	3.093	X_WP:	0.100	Y_WP:	0.000	Y_WP:	0.500	X:	0.736	Y:	-0.663	Z:	0.935	yaw:	-177.239	yaw rate:	0.337	Roll:	-17.967	Pitch:	20.642	Yaw:	-250.210	Thrust:	0.000
Time:	5.082	Roll Set Point:	-0.133	Pitch Set Point:	-0.030	Yaw Set Point:	3.093	X_WP:	0.100	Y_WP:	0.000	Y_WP:	0.500	X:	0.736	Y:	-0.663	Z:	0.935	yaw:	-177.236	yaw rate:	0.307	Roll:	-17.966	Pitch:	20.595	Yaw:	-250.057	Thrust:	0.000
Time:	5.096	Roll Set Point:	-0.133	Pitch Set Point:	-0.030	Yaw Set Point:	3.093	X_WP:	0.100	Y_WP:	0.000	Y_WP:	0.500	X:	0.736	Y:	-0.663	Z:	0.935	yaw:	-177.231	yaw rate:	0.442	Roll:	-17.936	Pitch:	20.654	Yaw:	-250.168	Thrust:	0.000
Time:	5.111	Roll Set Point:	-0.133	Pitch Set Point:	-0.030	Yaw Set Point:	3.093	X_WP:	0.100	Y_WP:	0.000	Y_WP:	0.500	X:	0.736	Y:	-0.663	Z:	0.935	yaw:	-177.243	yaw rate:	0.120	Roll:	-18.168	Pitch:	20.539	Yaw:	-250.632	Thrust:	0.000
Time:	5.124	Roll Set Point:	-0.133	Pitch Set Point:	-0.030	Yaw Set Point:	3.093	X_WP:	0.100	Y_WP:	0.000	Y_WP:	0.500	X:	0.736	Y:	-0.663	Z:	0.935	yaw:	-177.240	yaw rate:	0.304	Roll:	-17.968	Pitch:	20.580	Yaw:	-250.015	Thrust:	0.000
Time:	5.138	Roll Set Point:	-0.133	Pitch Set Point:	-0.030	Yaw Set Point:	3.093	X_WP:	0.100	Y_WP:	0.000	Y_WP:	0.500	X:	0.736	Y:	-0.663	Z:	0.935	yaw:	-177.235	yaw rate:	0.497	Roll:	-17.952	Pitch:	20.661	Yaw:	-250.183	Thrust:	0.000
Time:	5.153	Roll Set Point:	-0.133	Pitch Set Point:	-0.030	Yaw Set Point:	3.093	X_WP:	0.100	Y_WP:	0.000	Y_WP:	0.500	X:	0.736	Y:	-0.663	Z:	0.935	yaw:	-177.238	yaw rate:	-0.502	Roll:	-18.074	Pitch:	20.623	Yaw:	-250.511	Thrust:	0.000
Time:	5.166	Roll Set Point:	-0.133	Pitch Set Point:	-0.030	Yaw Set Point:	3.094	X_WP:	0.100	Y_WP:	0.000	Y_WP:	0.500	X:	0.736	Y:	-0.663	Z:	0.935	yaw:	-177.248	yaw rate:	-1.023	Roll:	-18.134	Pitch:	20.457	Yaw:	-250.297	Thrust:	0.000
Time:	5.179	Roll Set Point:	-0.132	Pitch Set Point:	-0.030	Yaw Set Point:	3.094	X_WP:	0.100	Y_WP:	0.000	Y_WP:	0.500	X:	0.736	Y:	-0.663	Z:	0.935	yaw:	-177.255	yaw rate:	-0.705	Roll:	-18.072	Pitch:	20.497	Yaw:	-250.243	Thrust:	0.000
Time:	5.193	Roll Set Point:	-0.133	Pitch Set Point:	-0.030	Yaw Set Point:	3.094	X_WP:	0.100	Y_WP:	0.000	Y_WP:	0.500	X:	0.736	Y:	-0.663	Z:	0.935	yaw:	-177.246	yaw rate:	0.855	Roll:	-17.926	Pitch:	20.682	Yaw:	-250.131	Thrust:	0.000
Time:	5.207	Roll Set Point:	-0.133	Pitch Set Point:	-0.030	Yaw Set Point:	3.093	X_WP:	0.100	Y_WP:	0.000	Y_WP:	0.500	X:	0.736	Y:	-0.663	Z:	0.935	yaw:	-177.222	yaw rate:	2.435	Roll:	-17.661	Pitch:	20.876	Yaw:	-249.802	Thrust:	0.000
Time:	5.222	Roll Set Point:	-0.133	Pitch Set Point:	-0.030	Yaw Set Point:	3.093	X_WP:	0.100	Y_WP:	0.000	Y_WP:	0.500	X:	0.736	Y:	-0.663	Z:	0.935	yaw:	-177.234	yaw rate:	-1.173	Roll:	-18.234	Pitch:	20.523	Yaw:	-250.682	Thrust:	0.000
Time:	5.235	Roll Set Point:	-0.133	Pitch Set Point:	-0.030	Yaw Set Point:	3.093	X_WP:	0.100	Y_WP:	0.000	Y_WP:	0.500	X:	0.736	Y:	-0.663	Z:	0.935	yaw:	-177.244	yaw rate:	-1.057	Roll:	-18.116	Pitch:	20.450	Yaw:	-250.294	Thrust:	0.000
Time:	5.248	Roll Set Point:	-0.133	Pitch Set Point:	-0.030	Yaw Set Point:	3.092	X_WP:	0.100	Y_WP:	0.000	Y_WP:	0.500	X:	0.736	Y:	-0.662	Z:	0.935	yaw:	-177.178	yaw rate:	6.604	Roll:	-17.245	Pitch:	21.216	Yaw:	-248.736	Thrust:	0.000
Time:	5.262	Roll Set Point:	-0.133	Pitch Set Point:	-0.030	Yaw Set Point:	3.093	X_WP:	0.100	Y_WP:	0.000	Y_WP:	0.500	X:	0.736	Y:	-0.663	Z:	0.935	yaw:	-177.237	yaw rate:	-0.232	Roll:	-18.574	Pitch:	20.097	Yaw:	-251.378	Thrust:	0.000
Time:	5.276	Roll Set Point:	-0.133	Pitch Set Point:	-0.030	Yaw Set Point:	3.094	X_WP:	0.100	Y_WP:	0.000	Y_WP:	0.500	X:	0.736	Y:	-0.663	Z:	0.935	yaw:	-177.249	yaw rate:	-1.154	Roll:	-18.194	Pitch:	20.471	Yaw:	-250.484	Thrust:	0.000
Time:	5.289	Roll Set Point:	-0.133	Pitch Set Point:	-0.030	Yaw Set Point:	3.093	X_WP:	0.100	Y_WP:	0.000	Y_WP:	0.500	X:	0.736	Y:	-0.663	Z:	0.935	yaw:	-177.242	yaw rate:	0.649	Roll:	-17.900	Pitch:	20.646	Yaw:	-249.976	Thrust:	0.000
Time:	5.304	Roll Set Point:	-0.133	Pitch Set Point:	-0.030	Yaw Set Point:	3.093	X_WP:	0.100	Y_WP:	0.000	Y_WP:	0.500	X:	0.736	Y:	-0.663	Z:	0.935	yaw:	-177.241	yaw rate:	0.176	Roll:	-17.972	Pitch:	20.639	Yaw:	-250.278	Thrust:	0.000
Time:	5.318	Roll Set Point:	-0.133	Pitch Set Point:	-0.030	Yaw Set Point:	3.093	X_WP:	0.100	Y_WP:	0.000	Y_WP:	0.500	X:	0.736	Y:	-0.663	Z:	0.935	yaw:	-177.235	yaw rate:	0.570	Roll:	-17.944	Pitch:	20.682	Yaw:	-250.194	Thrust:	0.000
Time:	5.331	Roll Set Point:	-0.133	Pitch Set Point:	-0.030	Yaw Set Point:	3.093	X_WP:	0.100	Y_WP:	0.000	Y_WP:	0.500	X:	0.736	Y:	-0.663	Z:	0.935	yaw:	-177.235	yaw rate:	-0.044	Roll:	-18.015	Pitch:	20.575	Yaw:	-250.087	Thrust:	0.000
Time:	5.346	Roll Set Point:	-0.133	Pitch Set Point:	-0.030	Yaw Set Point:	3.093	X_WP:	0.100	Y_WP:	0.000	Y_WP:	0.500	X:	0.736	Y:	-0.663	Z:	0.935	yaw:	-177.233	yaw rate:	1.171	Roll:	-18.011	Pitch:	20.662	Yaw:	-250.419	Thrust:	0.000
Time:	5.360	Roll Set Point:	-0.133	Pitch Set Point:	-0.030	Yaw Set Point:	3.093	X_WP:	0.100	Y_WP:	0.000	Y_WP:	0.500	X:	0.736	Y:	-0.663	Z:	0.935	yaw:	-177.241	yaw rate:	-0.789	Roll:	-18.118	Pitch:	20.528	Yaw:	-250.471	Thrust:	0.000
Time:	5.374	Roll Set Point:	-0.133	Pitch Set Point:	-0.030	Yaw Set Point:	3.093	X_WP:	0.100	Y_WP:	0.000	Y_WP:	0.500	X:	0.736	Y:	-0.663	Z:	0.935	yaw:	-177.243	yaw rate:	-0.186	Roll:	-18.022	Pitch:	20.601	Yaw:	-250.356	Thrust:	0.000
Time:	5.389	Roll Set Point:	-0.133	Pitch Set Point:	-0.030	Yaw Set Point:	3.093	X_WP:	0.100	Y_WP:	0.000	Y_WP:	0.500	X:	0.736	Y:	-0.663	Z:	0.935	yaw:	-177.236	yaw rate:	1.651	Roll:	-17.980	Pitch:	20.690	Yaw:	-250.227	Thrust:	0.000
Time:	5.402	Roll Set Point:	-0.133	Pitch Set Point:	-0.030	Yaw Set Point:	3.093	X_WP:	0.100	Y_WP:	0.000	Y_WP:	0.500	X:	0.736	Y:	-0.663	Z:	0.935	yaw:	-177.232	yaw rate:	0.431	Roll:	-17.953	Pitch:	20.650	Yaw:	-250.171	Thrust:	0.000
Time:	5.417	Roll Set Point:	-0.133	Pitch Set Point:	-0.030	Yaw Set Point:	3.093	X_WP:	0.100	Y_WP:	0.000	Y_WP:	0.500	X:	0.736	Y:	-0.663	Z:	0.935	yaw:	-177.238	yaw rate:	-0.635	Roll:	-18.097	Pitch:	20.547	Yaw:	-250.425	Thrust:	0.000
Time:	5.431	Roll Set Point:	-0.133	Pitch Set Point:	-0.030	Yaw Set Point:	3.094	X_WP:	0.100	Y_WP:	0.000	Y_WP:	0.500	X:	0.736	Y:	-0.663	Z:	0.935	yaw:	-177.251	yaw rate:	-1.280	Roll:	-18.192	Pitch:	20.478	Yaw:	-250.569	Thrust:	0.000
Time:	5.444	Roll Set Point:	-0.133	Pitch Set Point:	-0.030	Yaw Set Point:	3.093	X_WP:	0.100	Y_WP:	0.000	Y_WP:	0.500	X:	0.736	Y:	-0.663	Z:	0.935	yaw:	-177.244	yaw rate:	0.768	Roll:	-17.874	Pitch:	20.683	Yaw:	-249.934	Thrust:	0.000
Time:	5.457	Roll Set Point:	-0.133	Pitch Set Point:	-0.030	Yaw Set Point:	3.093	X_WP:	0.100	Y_WP:	0.000	Y_WP:	0.500	X:	0.736	Y:	-0.663	Z:	0.935	yaw:	-177.241	yaw rate:	0.226	Roll:	-17.959	Pitch:	20.577	Yaw:	-250.072	Thrust:	0.000
Time:	5.471	Roll Set Point:	-0.133	Pitch Set Point:	-0.030	Yaw Set Point:	3.093	X_WP:	0.100	Y_WP:	0.000	Y_WP:	0.500	X:	0.736	Y:	-0.663	Z:	0.935	yaw:	-177.243	yaw rate:	-0.171	Roll:	-18.021	Pitch:	20.574	Yaw:	-250.324	Thrust:	0.000
Time:	5.485	Roll Set Point:	-0.133	Pitch Set Point:	-0.030	Yaw Set Point:	3.093	X_WP:	0.100	Y_WP:	0.000	Y_WP:	0.500	X:	0.736	Y:	-0.663	Z:	0.935	yaw:	-177.242	yaw rate:	0.117	Roll:	-18.016	Pitch:	20.630	Yaw:	-250.289	Thrust:	0.000
Time:	5.499	Roll Set Point:	-0.133	Pitch Set Point:	-0.030	Yaw Set Point:	3.093	X_WP:	0.100	Y_WP:	0.000	Y_WP:	0.500	X:	0.736	Y:	-0.663	Z:	0.935	yaw:	-177.243	yaw rate:	-0.160	Roll:	-17.986	Pitch:	20.580	Yaw:	-250.129	Thrust:	0.000
Time:	5.512	Roll Set Point:	-0.133	Pitch Set Point:	-0.030	Yaw Set Point:	3.094	X_WP:	0.100	Y_WP:	0.000	Y_WP:	0.500	X:	0.736	Y:	-0.663	Z:	0.935	yaw:	-177.247	yaw rate:	-0.384	Roll:	-18.064	Pitch:	20.556	Yaw:	-250.352	Thrust:	0.000
Time:	5.528	Roll Set Point:	-0.133	Pitch Set Point:	-0.030	Yaw Set Point:	3.093	X_WP:	0.100	Y_WP:	0.000	Y_WP:	0.500	X:	0.736	Y:	-0.663	Z:	0.935	yaw:	-177.229	yaw rate:	1.852	Roll:	-17.789	Pitch:	20.811	Yaw:	-250.144	Thrust:	0.000
Time:	5.542	Roll Set Point:	-0.133	Pitch Set Point:	-0.030	Yaw Set Point:	3.093	X_WP:	0.100	Y_WP:	0.000	Y_WP:	0.500	X:	0.736	Y:	-0.663	Z:	0.935	yaw:	-177.237	yaw rate:	-0.715	Roll:	-18.143	Pitch:	20.546	Yaw:	-250.569	Thrust:	0.000
Time:	5.556	Roll Set Point:	-0.133	Pitch Set Point:	-0.030	Yaw Set Point:	3.093	X_WP:	0.100	Y_WP:	0.000	Y_WP:	0.500	X:	0.736	Y:	-0.663	Z:	0.935	yaw:	-177.244	yaw rate:	-0.690	Roll:	-18.142	Pitch:	20.563	Yaw:	-250.335	Thrust:	0.000
Time:	5.570	Roll Set Point:	-0.133	Pitch Set Point:	-0.030	Yaw Set Point:	3.094	X_WP:	0.100	Y_WP:	0.000	Y_WP:	0.500	X:	0.736	Y:	-0.663	Z:	0.935	yaw:	-177.246	yaw rate:	-0.268	Roll:	-18.021	Pitch:	20.591	Yaw:	-250.340	Thrust:	0.000
Time:	5.584	Roll Set Point:	-0.133	Pitch Set Point:	-0.030	Yaw Set Point:	3.093	X_WP:	0.100	Y_WP:	0.000	Y_WP:	0.500	X:	0.736	Y:	-0.663	Z:	0.935	yaw:	-177.242	yaw rate:	0.412	Roll:	-17.954	Pitch:	20.648	Yaw:	-250.207	Thrust:	0.000
Time:	5.598	Roll Set Point:	-0.133	Pitch Set Point:	-0.030	Yaw Set Point:	3.093	X_WP:	0.100	Y_WP:	0.000	Y_WP:	0.500	X:	0.736	Y:	-0.663	Z:	0.935	yaw:	-177.238	yaw rate:	0.366	Roll:	-17.992	Pitch:	20.637	Yaw:	-250.217	Thrust:	0.000
Time:	5.612	Roll Set Point:	-0.133	Pitch Set Point:	-0.030	Yaw Set Point:	3.093	X_WP:	0.100	Y_WP:	0.000	Y_WP:	0.500	X:	0.736	Y:	-0.663	Z:	0.935	yaw:	-177.241	yaw rate:	-0.230	Roll:	-18.057	Pitch:	20.578	Yaw:	-250.325	Thrust:	0.000
Time:	5.626	Roll Set Point:	-0.133	Pitch Set Point:	-0.030	Yaw Set Point:	3.093	X_WP:	0.100	Y_WP:	0.000	Y_WP:	0.500	X:	0.736	Y:	-0.663	Z:	0.935	yaw:	-177.240	yaw rate:	0.099	Roll:	-18.007	Pitch:	20.633	Yaw:	-250.262	Thrust:	0.000
