Time:	2.108	Roll Set Point:	-0.133	Pitch Set Point:	-0.030	Yaw Set Point:	3.093	X_WP:	0.100	Y_WP:	0.000	Y_WP:	0.500	X:	0.736	Y:	-0.663	Z:	0.935	yaw:	-177.243	yaw rate:	0.417	Roll:	-17.490	Pitch:	20.081	Yaw:	-247.478	Thrust:	0.000
Time:	2.121	Roll Set Point:	-0.133	Pitch Set Point:	-0.030	Yaw Set Point:	3.093	X_WP:	0.100	Y_WP:	0.000	Y_WP:	0.500	X:	0.736	Y:	-0.663	Z:	0.935	yaw:	-177.233	yaw rate:	1.030	Roll:	-17.342	Pitch:	20.240	Yaw:	-248.064	Thrust:	0.000
Time:	2.135	Roll Set Point:	-0.133	Pitch Set Point:	-0.030	Yaw Set Point:	3.094	X_WP:	0.100	Y_WP:	0.000	Y_WP:	0.500	X:	0.736	Y:	-0.663	Z:	0.935	yaw:	-177.247	yaw rate:	-1.393	Roll:	-17.738	Pitch:	19.962	Yaw:	-249.480	Thrust:	0.000
Time:	2.148	Roll Set Point:	-0.133	Pitch Set Point:	-0.030	Yaw Set Point:	3.093	X_WP:	0.100	Y_WP:	0.000	Y_WP:	0.500	X:	0.736	Y:	-0.663	Z:	0.935	yaw:	-177.237	yaw rate:	0.981	Roll:	-17.407	Pitch:	20.266	Yaw:	-249.692	Thrust:	0.000
Time:	2.161	Roll Set Point:	-0.133	Pitch Set Point:	-0.030	Yaw Set Point:	3.093	X_WP:	0.100	Y_WP:	0.000	Y_WP:	0.500	X:	0.736	Y:	-0.663	Z:	0.935	yaw:	-177.238	yaw rate:	-0.049	Roll:	-17.586	Pitch:	20.160	Yaw:	-250.087	Thrust:	0.000
Time:	2.175	Roll Set Point:	-0.133	Pitch Set Point:	-0.030	Yaw Set Point:	3.094	X_WP:	0.100	Y_WP:	0.000	Y_WP:	0.500	X:	0.736	Y:	-0.663	Z:	0.935	yaw:	-177.247	yaw rate:	-0.904	Roll:	-17.695	Pitch:	20.119	Yaw:	-250.459	Thrust:	0.000
Time:	2.188	Roll Set Point:	-0.133	Pitch Set Point:	-0.030	Yaw Set Point:	3.094	X_WP:	0.100	Y_WP:	0.000	Y_WP:	0.500	X:	0.736	Y:	-0.663	Z:	0.935	yaw:	-177.245	yaw rate:	0.134	Roll:	-17.573	Pitch:	20.247	Yaw:	-250.061	Thrust:	0.000
Time:	2.201	Roll Set Point:	-0.133	Pitch Set Point:	-0.030	Yaw Set Point:	3.093	X_WP:	0.100	Y_WP:	0.000	Y_WP:	0.500	X:	0.736	Y:	-0.663	Z:	0.935	yaw:	-177.236	yaw rate:	0.964	Roll:	-17.499	Pitch:	20.344	Yaw:	-249.881	Thrust:	0.000
Time:	2.214	Roll Set Point:	-0.133	Pitch Set Point:	-0.030	Yaw Set Point:	3.093	X_WP:	0.100	Y_WP:	0.000	Y_WP:	0.500	X:	0.736	Y:	-0.663	Z:	0.935	yaw:	-177.234	yaw rate:	0.122	Roll:	-17.655	Pitch:	20.266	Yaw:	-250.054	Thrust:	0.000
Time:	2.227	Roll Set Point:	-0.133	Pitch Set Point:	-0.030	Yaw Set Point:	3.093	X_WP:	0.100	Y_WP:	0.000	Y_WP:	0.500	X:	0.736	Y:	-0.663	Z:	0.935	yaw:	-177.226	yaw rate:	0.855	Roll:	-17.525	Pitch:	20.383	Yaw:	-249.890	Thrust:	0.000
Time:	2.240	Roll Set Point:	-0.133	Pitch Set Point:	-0.030	Yaw Set Point:	3.093	X_WP:	0.100	Y_WP:	0.000	Y_WP:	0.500	X:	0.736	Y:	-0.663	Z:	0.935	yaw:	-177.237	yaw rate:	-1.137	Roll:	-17.829	Pitch:	20.187	Yaw:	-250.304	Thrust:	0.000
Time:	2.253	Roll Set Point:	-0.133	Pitch Set Point:	-0.030	Yaw Set Point:	3.093	X_WP:	0.100	Y_WP:	0.000	Y_WP:	0.500	X:	0.736	Y:	-0.663	Z:	0.935	yaw:	-177.242	yaw rate:	-0.491	Roll:	-17.792	Pitch:	20.289	Yaw:	-250.182	Thrust:	0.000
Time:	2.267	Roll Set Point:	-0.133	Pitch Set Point:	-0.030	Yaw Set Point:	3.094	X_WP:	0.100	Y_WP:	0.000	Y_WP:	0.500	X:	0.736	Y:	-0.663	Z:	0.935	yaw:	-177.251	yaw rate:	-1.095	Roll:	-17.852	Pitch:	20.244	Yaw:	-250.462	Thrust:	0.000
Time:	2.280	Roll Set Point:	-0.133	Pitch Set Point:	-0.030	Yaw Set Point:	3.093	X_WP:	0.100	Y_WP:	0.000	Y_WP:	0.500	X:	0.736	Y:	-0.663	Z:	0.935	yaw:	-177.237	yaw rate:	1.449	Roll:	-17.526	Pitch:	20.558	Yaw:	-249.780	Thrust:	0.000
Time:	2.293	Roll Set Point:	-0.133	Pitch Set Point:	-0.030	Yaw Set Point:	3.093	X_WP:	0.100	Y_WP:	0.000	Y_WP:	0.500	X:	0.736	Y:	-0.663	Z:	0.935	yaw:	-177.236	yaw rate:	0.051	Roll:	-17.787	Pitch:	20.406	Yaw:	-250.069	Thrust:	0.000
Time:	2.306	Roll Set Point:	-0.133	Pitch Set Point:	-0.030	Yaw Set Point:	3.094	X_WP:	0.100	Y_WP:	0.000	Y_WP:	0.500	X:	0.736	Y:	-0.663	Z:	0.935	yaw:	-177.246	yaw rate:	-1.031	Roll:	-17.917	Pitch:	20.302	Yaw:	-250.293	Thrust:	0.000
Time:	2.319	Roll Set Point:	-0.133	Pitch Set Point:	-0.030	Yaw Set Point:	3.093	X_WP:	0.100	Y_WP:	0.000	Y_WP:	0.500	X:	0.736	Y:	-0.663	Z:	0.935	yaw:	-177.240	yaw rate:	0.660	Roll:	-17.721	Pitch:	20.522	Yaw:	-249.948	Thrust:	0.000
Time:	2.333	Roll Set Point:	-0.133	Pitch Set Point:	-0.030	Yaw Set Point:	3.094	X_WP:	0.100	Y_WP:	0.000	Y_WP:	0.500	X:	0.736	Y:	-0.663	Z:	0.935	yaw:	-177.248	yaw rate:	-0.447	Roll:	-17.946	Pitch:	20.396	Yaw:	-250.437	Thrust:	0.000
Time:	2.346	Roll Set Point:	-0.133	Pitch Set Point:	-0.030	Yaw Set Point:	3.093	X_WP:	0.100	Y_WP:	0.000	Y_WP:	0.500	X:	0.736	Y:	-0.663	Z:	0.935	yaw:	-177.241	yaw rate:	0.610	Roll:	-17.751	Pitch:	20.574	Yaw:	-249.960	Thrust:	0.000
Time:	2.362	Roll Set Point:	-0.133	Pitch Set Point:	-0.030	Yaw Set Point:	3.094	X_WP:	0.100	Y_WP:	0.000	Y_WP:	0.500	X:	0.736	Y:	-0.663	Z:	0.935	yaw:	-177.245	yaw rate:	-0.368	Roll:	-18.002	Pitch:	20.568	Yaw:	-250.749	Thrust:	0.000
Time:	2.375	Roll Set Point:	-0.133	Pitch Set Point:	-0.030	Yaw Set Point:	3.094	X_WP:	0.100	Y_WP:	0.000	Y_WP:	0.500	X:	0.736	Y:	-0.663	Z:	0.935	yaw:	-177.249	yaw rate:	-0.426	Roll:	-17.931	Pitch:	20.482	Yaw:	-250.180	Thrust:	0.000
Time:	2.388	Roll Set Point:	-0.133	Pitch Set Point:	-0.030	Yaw Set Point:	3.093	X_WP:	0.100	Y_WP:	0.000	Y_WP:	0.500	X:	0.736	Y:	-0.663	Z:	0.935	yaw:	-177.242	yaw rate:	0.789	Roll:	-17.787	Pitch:	20.643	Yaw:	-249.925	Thrust:	0.000
Time:	2.401	Roll Set Point:	-0.133	Pitch Set Point:	-0.030	Yaw Set Point:	3.093	X_WP:	0.100	Y_WP:	0.000	Y_WP:	0.500	X:	0.736	Y:	-0.663	Z:	0.935	yaw:	-177.236	yaw rate:	0.541	Roll:	-17.867	Pitch:	20.638	Yaw:	-249.972	Thrust:	0.000
Time:	2.415	Roll Set Point:	-0.133	Pitch Set Point:	-0.030	Yaw Set Point:	3.093	X_WP:	0.100	Y_WP:	0.000	Y_WP:	0.500	X:	0.736	Y:	-0.663	Z:	0.935	yaw:	-177.234	yaw rate:	1.764	Roll:	-17.924	Pitch:	20.635	Yaw:	-250.241	Thrust:	0.000
Time:	2.428	Roll Set Point:	-0.133	Pitch Set Point:	-0.030	Yaw Set Point:	3.094	X_WP:	0.100	Y_WP:	0.000	Y_WP:	0.500	X:	0.736	Y:	-0.663	Z:	0.935	yaw:	-177.251	yaw rate:	-1.676	Roll:	-18.207	Pitch:	20.367	Yaw:	-250.428	Thrust:	0.000
Time:	2.441	Roll Set Point:	-0.133	Pitch Set Point:	-0.030	Yaw Set Point:	3.093	X_WP:	0.100	Y_WP:	0.000	Y_WP:	0.500	X:	0.736	Y:	-0.663	Z:	0.935	yaw:	-177.242	yaw rate:	0.899	Roll:	-17.876	Pitch:	20.674	Yaw:	-249.909	Thrust:	0.000
Time:	2.455	Roll Set Point:	-0.132	Pitch Set Point:	-0.030	Yaw Set Point:	3.094	X_WP:	0.100	Y_WP:	0.000	Y_WP:	0.500	X:	0.736	Y:	-0.663	Z:	0.935	yaw:	-177.254	yaw rate:	-1.156	Roll:	-18.123	Pitch:	20.431	Yaw:	-250.333	Thrust:	0.000
Time:	2.469	Roll Set Point:	-0.133	Pitch Set Point:	-0.030	Yaw Set Point:	3.094	X_WP:	0.100	Y_WP:	0.000	Y_WP:	0.500	X:	0.736	Y:	-0.663	Z:	0.935	yaw:	-177.249	yaw rate:	0.513	Roll:	-17.955	Pitch:	20.653	Yaw:	-250.198	Thrust:	0.000
Time:	2.483	Roll Set Point:	-0.133	Pitch Set Point:	-0.030	Yaw Set Point:	3.093	X_WP:	0.100	Y_WP:	0.000	Y_WP:	0.500	X:	0.736	Y:	-0.663	Z:	0.935	yaw:	-177.239	yaw rate:	-0.290	Roll:	-17.898	Pitch:	20.720	Yaw:	-250.094	Thrust:	0.000
Time:	2.496	Roll Set Point:	-0.133	Pitch Set Point:	-0.030	Yaw Set Point:	3.094	X_WP:	0.100	Y_WP:	0.000	Y_WP:	0.500	X:	0.736	Y:	-0.663	Z:	0.935	yaw:	-177.247	yaw rate:	-0.813	Roll:	-18.095	Pitch:	20.477	Yaw:	-250.254	Thrust:	0.000
Time:	2.509	Roll Set Point:	-0.133	Pitch Set Point:	-0.030	Yaw Set Point:	3.093	X_WP:	0.100	Y_WP:	0.000	Y_WP:	0.500	X:	0.736	Y:	-0.663	Z:	0.935	yaw:	-177.241	yaw rate:	0.618	Roll:	-17.882	Pitch:	20.645	Yaw:	-249.958	Thrust:	0.000
Time:	2.522	Roll Set Point:	-0.133	Pitch Set Point:	-0.030	Yaw Set Point:	3.093	X_WP:	0.100	Y_WP:	0.000	Y_WP:	0.500	X:	0.736	Y:	-0.663	Z:	0.935	yaw:	-177.239	yaw rate:	0.203	Roll:	-17.946	Pitch:	20.598	Yaw:	-250.038	Thrust:	0.000
Time:	2.535	Roll Set Point:	-0.133	Pitch Set Point:	-0.030	Yaw Set Point:	3.093	X_WP:	0.100	Y_WP:	0.000	Y_WP:	0.500	X:	0.736	Y:	-0.663	Z:	0.935	yaw:	-177.241	yaw rate:	-0.236	Roll:	-18.020	Pitch:	20.529	Yaw:	-250.130	Thrust:	0.000
Time:	2.548	Roll Set Point:	-0.133	Pitch Set Point:	-0.030	Yaw Set Point:	3.094	X_WP:	0.100	Y_WP:	0.000	Y_WP:	0.500	X:	0.736	Y:	-0.663	Z:	0.935	yaw:	-177.247	yaw rate:	-0.626	Roll:	-18.058	Pitch:	20.504	Yaw:	-250.217	Thrust:	0.000
Time:	2.562	Roll Set Point:	-0.133	Pitch Set Point:	-0.030	Yaw Set Point:	3.094	X_WP:	0.100	Y_WP:	0.000	Y_WP:	0.500	X:	0.736	Y:	-0.663	Z:	0.935	yaw:	-177.246	yaw rate:	0.146	Roll:	-18.030	Pitch:	20.610	Yaw:	-250.262	Thrust:	0.000
Time:	2.576	Roll Set Point:	-0.133	Pitch Set Point:	-0.030	Yaw Set Point:	3.093	X_WP:	0.100	Y_WP:	0.000	Y_WP:	0.500	X:	0.736	Y:	-0.663	Z:	0.935	yaw:	-177.238	yaw rate:	0.839	Roll:	-17.884	Pitch:	20.717	Yaw:	-250.122	Thrust:	0.000
Time:	2.589	Roll Set Point:	-0.133	Pitch Set Point:	-0.030	Yaw Set Point:	3.093	X_WP:	0.100	Y_WP:	0.000	Y_WP:	0.500	X:	0.736	Y:	-0.663	Z:	0.935	yaw:	-177.234	yaw rate:	-0.966	Roll:	-17.941	Pitch:	20.620	Yaw:	-250.005	Thrust:	0.000
Time:	2.604	Roll Set Point:	-0.133	Pitch Set Point:	-0.030	Yaw Set Point:	3.094	X_WP:	0.100	Y_WP:	0.000	Y_WP:	0.500	X:	0.736	Y:	-0.663	Z:	0.935	yaw:	-177.248	yaw rate:	-1.422	Roll:	-18.213	Pitch:	20.487	Yaw:	-250.741	Thrust:	0.000
Time:	2.619	Roll Set Point:	-0.133	Pitch Set Point:	-0.030	Yaw Set Point:	3.093	X_WP:	0.100	Y_WP:	0.000	Y_WP:	0.500	X:	0.736	Y:	-0.663	Z:	0.935	yaw:	-177.238	yaw rate:	1.077	Roll:	-17.930	Pitch:	20.752	Yaw:	-250.291	Thrust:	0.000
Time:	2.633	Roll Set Point:	-0.133	Pitch Set Point:	-0.030	Yaw Set Point:	3.093	X_WP:	0.100	Y_WP:	0.000	Y_WP:	0.500	X:	0.736	Y:	-0.663	Z:	0.935	yaw:	-177.242	yaw rate:	-0.431	Roll:	-18.070	Pitch:	20.564	Yaw:	-250.364	Thrust:	0.000
Time:	2.646	Roll Set Point:	-0.133	Pitch Set Point:	-0.030	Yaw Set Point:	3.093	X_WP:	0.100	Y_WP:	0.000	Y_WP:	0.500	X:	0.736	Y:	-0.663	Z:	0.935	yaw:	-177.239	yaw rate:	0.328	Roll:	-17.935	Pitch:	20.613	Yaw:	-250.013	Thrust:	0.000
Time:	2.660	Roll Set Point:	-0.133	Pitch Set Point:	-0.030	Yaw Set Point:	3.093	X_WP:	0.100	Y_WP:	0.000	Y_WP:	0.500	X:	0.736	Y:	-0.663	Z:	0.935	yaw:	-177.236	yaw rate:	0.968	Roll:	-17.961	Pitch:	20.649	Yaw:	-250.227	Thrust:	0.000
Time:	2.673	Roll Set Point:	-0.133	Pitch Set Point:	-0.030	Yaw Set Point:	3.093	X_WP:	0.100	Y_WP:	0.000	Y_WP:	0.500	X:	0.736	Y:	-0.663	Z:	0.935	yaw:	-177.243	yaw rate:	-0.726	Roll:	-18.107	Pitch:	20.465	Yaw:	-250.235	Thrust:	0.000
Time:	2.686	Roll Set Point:	-0.133	Pitch Set Point:	-0.030	Yaw Set Point:	3.093	X_WP:	0.100	Y_WP:	0.000	Y_WP:	0.500	X:	0.736	Y:	-0.663	Z:	0.935	yaw:	-177.238	yaw rate:	0.580	Roll:	-17.883	Pitch:	20.637	Yaw:	-249.956	Thrust:	0.000
Time:	2.699	Roll Set Point:	-0.133	Pitch Set Point:	-0.030	Yaw Set Point:	3.094	X_WP:	0.100	Y_WP:	0.000	Y_WP:	0.500	X:	0.736	Y:	-0.663	Z:	0.935	yaw:	-177.252	yaw rate:	-1.427	Roll:	-18.187	Pitch:	20.418	Yaw:	-250.389	Thrust:	0.000
Time:	2.712	Roll Set Point:	-0.133	Pitch Set Point:	-0.030	Yaw Set Point:	3.094	X_WP:	0.100	Y_WP:	0.000	Y_WP:	0.500	X:	0.736	Y:	-0.663	Z:	0.935	yaw:	-177.247	yaw rate:	0.455	Roll:	-17.902	Pitch:	20.629	Yaw:	-250.055	Thrust:	0.000
Time:	2.726	Roll Set Point:	-0.133	Pitch Set Point:	-0.030	Yaw Set Point:	3.093	X_WP:	0.100	Y_WP:	0.000	Y_WP:	0.500	X:	0.736	Y:	-0.663	Z:	0.935	yaw:	-177.233	yaw rate:	1.402	Roll:	-17.798	Pitch:	20.740	Yaw:	-249.790	Thrust:	0.000
Time:	2.739	Roll Set Point:	-0.133	Pitch Set Point:	-0.030	Yaw Set Point:	3.093	X_WP:	0.100	Y_WP:	0.000	Y_WP:	0.500	X:	0.736	Y:	-0.663	Z:	0.935	yaw:	-177.243	yaw rate:	-0.931	Roll:	-18.152	Pitch:	20.491	Yaw:	-250.411	Thrust:	0.000
Time:	2.753	Roll Set Point:	-0.133	Pitch Set Point:	-0.030	Yaw Set Point:	3.093	X_WP:	0.100	Y_WP:	0.000	Y_WP:	0.500	X:	0.736	Y:	-0.663	Z:	0.935	yaw:	-177.242	yaw rate:	0.040	Roll:	-17.994	Pitch:	20.608	Yaw:	-250.276	Thrust:	0.000
Time:	2.767	Roll Set Point:	-0.133	Pitch Set Point:	-0.030	Yaw Set Point:	3.093	X_WP:	0.100	Y_WP:	0.000	Y_WP:	0.500	X:	0.736	Y:	-0.663	Z:	0.935	yaw:	-177.233	yaw rate:	0.904	Roll:	-17.900	Pitch:	20.714	Yaw:	-250.106	Thrust:	0.000
Time:	2.780	Roll Set Point:	-0.133	Pitch Set Point:	-0.030	Yaw Set Point:	3.093	X_WP:	0.100	Y_WP:	0.000	Y_WP:	0.500	X:	0.736	Y:	-0.663	Z:	0.935	yaw:	-177.242	yaw rate:	-0.915	Roll:	-18.082	Pitch:	20.464	Yaw:	-250.266	Thrust:	0.000
Time:	2.793	Roll Set Point:	-0.133	Pitch Set Point:	-0.030	Yaw Set Point:	3.094	X_WP:	0.100	Y_WP:	0.000	Y_WP:	0.500	X:	0.736	Y:	-0.663	Z:	0.935	yaw:	-177.245	yaw rate:	-0.290	Roll:	-18.043	Pitch:	20.556	Yaw:	-250.147	Thrust:	0.000
Time:	2.808	Roll Set Point:	-0.133	Pitch Set Point:	-0.030	Yaw Set Point:	3.094	X_WP:	0.100	Y_WP:	0.000	Y_WP:	0.500	X:	0.736	Y:	-0.663	Z:	0.935	yaw:	-177.249	yaw rate:	-0.385	Roll:	-18.060	Pitch:	20.551	Yaw:	-250.366	Thrust:	0.000
Time:	2.822	Roll Set Point:	-0.133	Pitch Set Point:	-0.030	Yaw Set Point:	3.093	X_WP:	0.100	Y_WP:	0.000	Y_WP:	0.500	X:	0.736	Y:	-0.663	Z:	0.935	yaw:	-177.228	yaw rate:	2.106	Roll:	-17.727	Pitch:	20.837	Yaw:	-249.865	Thrust:	0.000
Time:	2.836	Roll Set Point:	-0.133	Pitch Set Point:	-0.030	Yaw Set Point:	3.093	X_WP:	0.100	Y_WP:	0.000	Y_WP:	0.500	X:	0.736	Y:	-0.663	Z:	0.935	yaw:	-177.242	yaw rate:	-0.720	Roll:	-18.230	Pitch:	20.452	Yaw:	-250.559	Thrust:	0.000
Time:	2.850	Roll Set Point:	-0.133	Pitch Set Point:	-0.030	Yaw Set Point:	3.093	X_WP:	0.100	Y_WP:	0.000	Y_WP:	0.500	X:	0.736	Y:	-0.663	Z:	0.935	yaw:	-177.230	yaw rate:	1.262	Roll:	-17.828	Pitch:	20.755	Yaw:	-250.043	Thrust:	0.000
Time:	2.863	Roll Set Point:	-0.133	Pitch Set Point:	-0.030	Yaw Set Point:	3.093	X_WP:	0.100	Y_WP:	0.000	Y_WP:	0.500	X:	0.736	Y:	-0.663	Z:	0.935	yaw:	-177.241	yaw rate:	-1.182	Roll:	-18.148	Pitch:	20.443	Yaw:	-250.319	Thrust:	0.000
Time:	2.877	Roll Set Point:	-0.133	Pitch Set Point:	-0.030	Yaw Set Point:	3.093	X_WP:	0.100	Y_WP:	0.000	Y_WP:	0.500	X:	0.736	Y:	-0.663	Z:	0.935	yaw:	-177.239	yaw rate:	0.213	Roll:	-17.981	Pitch:	20.628	Yaw:	-250.236	Thrust:	0.000
Time:	2.892	Roll Set Point:	-0.133	Pitch Set Point:	-0.030	Yaw Set Point:	3.093	X_WP:	0.100	Y_WP:	0.000	Y_WP:	0.500	X:	0.736	Y:	-0.663	Z:	0.935	yaw:	-177.243	yaw rate:	-0.281	Roll:	-18.123	Pitch:	20.580	Yaw:	-250.552	Thrust:	0.000
Time:	2.905	Roll Set Point:	-0.133	Pitch Set Point:	-0.030	Yaw Set Point:	3.093	X_WP:	0.100	Y_WP:	0.000	Y_WP:	0.500	X:	0.736	Y:	-0.663	Z:	0.935	yaw:	-177.234	yaw rate:	0.933	Roll:	-17.847	Pitch:	20.699	Yaw:	-249.891	Thrust:	0.000
Time:	2.919	Roll Set Point:	-0.133	Pitch Set Point:	-0.030	Yaw Set Point:	3.093	X_WP:	0.100	Y_WP:	0.000	Y_WP:	0.500	X:	0.736	Y:	-0.663	Z:	0.935	yaw:	-177.232	yaw rate:	0.205	Roll:	-17.948	Pitch:	20.652	Yaw:	-250.226	Thrust:	0.000
Time:	2.932	Roll Set Point:	-0.133	Pitch Set Point:	-0.030	Yaw Set Point:	3.093	X_WP:	0.100	Y_WP:	0.000	Y_WP:	0.500	X:	0.736	Y:	-0.663	Z:	0.935	yaw:	-177.240	yaw rate:	-0.836	Roll:	-18.117	Pitch:	20.471	Yaw:	-250.254	Thrust:	0.000
Time:	2.946	Roll Set Point:	-0.133	Pitch Set Point:	-0.030	Yaw Set Point:	3.093	X_WP:	0.100	Y_WP:	0.000	Y_WP:	0.500	X:	0.736	Y:	-0.663	Z:	0.935	yaw:	-177.242	yaw rate:	-0.184	Roll:	-18.046	Pitch:	20.578	Yaw:	-250.313	Thrust:	0.000
Time:	2.960	Roll Set Point:	-0.133	Pitch Set Point:	-0.030	Yaw Set Point:	3.093	X_WP:	0.100	Y_WP:	0.000	Y_WP:	0.500	X:	0.736	Y:	-0.663	Z:	0.935	yaw:	-177.238	yaw rate:	0.368	Roll:	-17.959	Pitch:	20.640	Yaw:	-250.216	Thrust:	0.000
Time:	2.974	Roll Set Point:	-0.133	Pitch Set Point:	-0.030	Yaw Set Point:	3.093	X_WP:	0.100	Y_WP:	0.000	Y_WP:	0.500	X:	0.736	Y:	-0.663	Z:	0.935	yaw:	-177.241	yaw rate:	0.820	Roll:	-18.055	Pitch:	20.559	Yaw:	-250.341	Thrust:	0.000
Time:	2.987	Roll Set Point:	-0.133	Pitch Set Point:	-0.030	Yaw Set Point:	3.093	X_WP:	0.100	Y_WP:	0.000	Y_WP:	0.500	X:	0.736	Y:	-0.663	Z:	0.935	yaw:	-177.244	yaw rate:	-0.216	Roll:	-18.016	Pitch:	20.571	Yaw:	-250.125	Thrust:	0.000
Time:	3.000	Roll Set Point:	-0.133	Pitch Set Point:	-0.030	Yaw Set Point:	3.093	X_WP:	0.100	Y_WP:	0.000	Y_WP:	0.500	X:	0.736	Y:	-0.663	Z:	0.935	yaw:	-177.243	yaw rate:	0.077	Roll:	-17.963	Pitch:	20.581	Yaw:	-250.075	Thrust:	0.000
Time:	3.013	Roll Set Point:	-0.133	Pitch Set Point:	-0.030	Yaw Set Point:	3.094	X_WP:	0.100	Y_WP:	0.000	Y_WP:	0.500	X:	0.736	Y:	-0.663	Z:	0.935	yaw:	-177.249	yaw rate:	-0.616	Roll:	-18.071	Pitch:	20.487	Yaw:	-250.217	Thrust:	0.000
Time:	3.027	Roll Set Point:	-0.133	Pitch Set Point:	-0.030	Yaw Set Point:	3.094	X_WP:	0.100	Y_WP:	0.000	Y_WP:	0.500	X:	0.736	Y:	-0.663	Z:	0.935	yaw:	-177.249	yaw rate:	0.037	Roll:	-18.030	Pitch:	20.594	Yaw:	-250.293	Thrust:	0.000
Time:	3.042	Roll Set Point:	-0.133	Pitch Set Point:	-0.030	Yaw Set Point:	3.093	X_WP:	0.100	Y_WP:	0.000	Y_WP:	0.500	X:	0.736	Y:	-0.663	Z:	0.935	yaw:	-177.236	yaw rate:	1.340	Roll:	-17.861	Pitch:	20.792	Yaw:	-250.243	Thrust:	0.000
Time:	3.055	Roll Set Point:	-0.133	Pitch Set Point:	-0.030	Yaw Set Point:	3.093	X_WP:	0.100	Y_WP:	0.000	Y_WP:	0.500	X:	0.736	Y:	-0.663	Z:	0.935	yaw:	-177.231	yaw rate:	0.493	Roll:	-17.916	Pitch:	20.624	Yaw:	-249.969	Thrust:	0.000
Time:	3.068	Roll Set Point:	-0.133	Pitch Set Point:	-0.030	Yaw Set Point:	3.094	X_WP:	0.100	Y_WP:	0.000	Y_WP:	0.500	X:	0.736	Y:	-0.663	Z:	0.935	yaw:	-177.246	yaw rate:	-1.552	Roll:	-18.214	Pitch:	20.395	Yaw:	-250.401	Thrust:	0.000
Time:	3.082	Roll Set Point:	-0.133	Pitch Set Point:	-0.030	Yaw Set Point:	3.094	X_WP:	0.100	Y_WP:	0.000	Y_WP:	0.500	X:	0.736	Y:	-0.663	Z:	0.935	yaw:	-177.245	yaw rate:	0.099	Roll:	-18.009	Pitch:	20.618	Yaw:	-250.270	Thrust:	0.000
Time:	3.095	Roll Set Point:	-0.133	Pitch Set Point:	-0.030	Yaw Set Point:	3.093	X_WP:	0.100	Y_WP:	0.000	Y_WP:	0.500	X:	0.736	Y:	-0.663	Z:	0.935	yaw:	-177.239	yaw rate:	0.678	Roll:	-17.860	Pitch:	20.657	Yaw:	-249.948	Thrust:	0.000
Time:	3.109	Roll Set Point:	-0.133	Pitch Set Point:	-0.030	Yaw Set Point:	3.093	X_WP:	0.100	Y_WP:	0.000	Y_WP:	0.500	X:	0.736	Y:	-0.663	Z:	0.935	yaw:	-177.243	yaw rate:	0.344	Roll:	-18.077	Pitch:	20.547	Yaw:	-250.369	Thrust:	0.000
Time:	3.123	Roll Set Point:	-0.133	Pitch Set Point:	-0.030	Yaw Set Point:	3.093	X_WP:	0.100	Y_WP:	0.000	Y_WP:	0.500	X:	0.736	Y:	-0.663	Z:	0.935	yaw:	-177.238	yaw rate:	0.504	Roll:	-17.957	Pitch:	20.667	Yaw:	-250.179	Thrust:	0.000
Time:	3.136	Roll Set Point:	-0.133	Pitch Set Point:	-0.030	Yaw Set Point:	3.093	X_WP:	0.100	Y_WP:	0.000	Y_WP:	0.500	X:	0.736	Y:	-0.663	Z:	0.935	yaw:	-177.242	yaw rate:	-0.399	Roll:	-18.040	Pitch:	20.522	Yaw:	-250.168	Thrust:	0.000
Time:	3.150	Roll Set Point:	-0.133	Pitch Set Point:	-0.030	Yaw Set Point:	3.093	X_WP:	0.100	Y_WP:	0.000	Y_WP:	0.500	X:	0.736	Y:	-0.663	Z:	0.935	yaw:	-177.238	yaw rate:	0.441	Roll:	-17.917	Pitch:	20.660	Yaw:	-250.191	Thrust:	0.000
Time:	3.164	Roll Set Point:	-0.132	Pitch Set Point:	-0.030	Yaw Set Point:	3.094	X_WP:	0.100	Y_WP:	0.000	Y_WP:	0.500	X:	0.736	Y:	-0.663	Z:	0.935	yaw:	-177.254	yaw rate:	-0.611	Roll:	-18.284	Pitch:	20.426	Yaw:	-250.600	Thrust:	0.000
Time:	3.179	Roll Set Point:	-0.133	Pitch Set Point:	-0.030	Yaw Set Point:	3.093	X_WP:	0.100	Y_WP:	0.000	Y_WP:	0.500	X:	0.736	Y:	-0.663	Z:	0.935	yaw:	-177.236	yaw rate:	1.797	Roll:	-17.763	Pitch:	20.811	Yaw:	-249.940	Thrust:	0.000
Time:	3.192	Roll Set Point:	-0.133	Pitch Set Point:	-0.030	Yaw Set Point:	3.093	X_WP:	0.100	Y_WP:	0.000	Y_WP:	0.500	X:	0.736	Y:	-0.663	Z:	0.935	yaw:	-177.225	yaw rate:	1.065	Roll:	-17.801	Pitch:	20.693	Yaw:	-249.846	Thrust:	0.000
Time:	3.205	Roll Set Point:	-0.133	Pitch Set Point:	-0.030	Yaw Set Point:	3.094	X_WP:	0.100	Y_WP:	0.000	Y_WP:	0.500	X:	0.736	Y:	-0.663	Z:	0.935	yaw:	-177.249	yaw rate:	-2.398	Roll:	-18.328	Pitch:	20.288	Yaw:	-250.575	Thrust:	0.000
Time:	3.218	Roll Set Point:	-0.133	Pitch Set Point:	-0.030	Yaw Set Point:	3.093	X_WP:	0.100	Y_WP:	0.000	Y_WP:	0.500	X:	0.736	Y:	-0.663	Z:	0.935	yaw:	-177.235	yaw rate:	1.400	Roll:	-17.796	Pitch:	20.744	Yaw:	-249.798	Thrust:	0.000
Time:	3.232	Roll Set Point:	-0.133	Pitch Set Point:	-0.030	Yaw Set Point:	3.093	X_WP:	0.100	Y_WP:	0.000	Y_WP:	0.500	X:	0.736	Y:	-0.663	Z:	0.935	yaw:	-177.242	yaw rate:	-0.201	Roll:	-18.072	Pitch:	20.531	Yaw:	-250.410	Thrust:	0.000
Time:	3.247	Roll Set Point:	-0.133	Pitch Set Point:	-0.030	Yaw Set Point:	3.093	X_WP:	0.100	Y_WP:	0.000	Y_WP:	0.500	X:	0.736	Y:	-0.663	Z:	0.935	yaw:	-177.240	yaw rate:	0.196	Roll:	-18.031	Pitch:	20.656	Yaw:	-250.448	Thrust:	0.000
Time:	3.262	Roll Set Point:	-0.133	Pitch Set Point:	-0.030	Yaw Set Point:	3.093	X_WP:	0.100	Y_WP:	0.000	Y_WP:	0.500	X:	0.736	Y:	-0.663	Z:	0.935	yaw:	-177.230	yaw rate:	1.056	Roll:	-17.943	Pitch:	20.759	Yaw:	-250.283	Thrust:	0.000
Time:	3.278	Roll Set Point:	-0.133	Pitch Set Point:	-0.030	Yaw Set Point:	3.093	X_WP:	0.100	Y_WP:	0.000	Y_WP:	0.500	X:	0.736	Y:	-0.663	Z:	0.935	yaw:	-177.243	yaw rate:	-1.302	Roll:	-18.254	Pitch:	20.564	Yaw:	-250.899	Thrust:	0.000
Time:	3.293	Roll Set Point:	-0.133	Pitch Set Point:	-0.030	Yaw Set Point:	3.094	X_WP:	0.100	Y_WP:	0.000	Y_WP:	0.500	X:	0.736	Y:	-0.663	Z:	0.935	yaw:	-177.250	yaw rate:	-0.703	Roll:	-18.122	Pitch:	20.565	Yaw:	-250.617	Thrust:	0.000
Time:	3.307	Roll Set Point:	-0.133	Pitch Set Point:	-0.030	Yaw Set Point:	3.093	X_WP:	0.100	Y_WP:	0.000	Y_WP:	0.500	X:	0.736	Y:	-0.663	Z:	0.935	yaw:	-177.237	yaw rate:	1.306	Roll:	-17.832	Pitch:	20.763	Yaw:	-250.033	Thrust:	0.000
Time:	3.321	Roll Set Point:	-0.132	Pitch Set Point:	-0.030	Yaw Set Point:	3.094	X_WP:	0.100	Y_WP:	0.000	Y_WP:	0.500	X:	0.736	Y:	-0.663	Z:	0.935	yaw:	-177.259	yaw rate:	-1.296	Roll:	-18.333	Pitch:	20.344	Yaw:	-250.722	Thrust:	0.000
Time:	3.335	Roll Set Point:	-0.133	Pitch Set Point:	-0.030	Yaw Set Point:	3.093	X_WP:	0.100	Y_WP:	0.000	Y_WP:	0.500	X:	0.736	Y:	-0.663	Z:	0.935	yaw:	-177.242	yaw rate:	1.639	Roll:	-17.787	Pitch:	20.796	Yaw:	-249.979	Thrust:	0.000
Time:	3.349	Roll Set Point:	-0.132	Pitch Set Point:	-0.030	Yaw Set Point:	3.094	X_WP:	0.100	Y_WP:	0.000	Y_WP:	0.500	X:	0.736	Y:	-0.663	Z:	0.935	yaw:	-177.256	yaw rate:	-1.357	Roll:	-18.209	Pitch:	20.452	Yaw:	-250.557	Thrust:	0.000
Time:	3.363	Roll Set Point:	-0.133	Pitch Set Point:	-0.030	Yaw Set Point:	3.093	X_WP:	0.100	Y_WP:	0.000	Y_WP:	0.500	X:	0.736	Y:	-0.663	Z:	0.935	yaw:	-177.242	yaw rate:	1.427	Roll:	-17.832	Pitch:	20.775	Yaw:	-250.018	Thrust:	0.000
Time:	3.378	Roll Set Point:	-0.133	Pitch Set Point:	-0.030	Yaw Set Point:	3.093	X_WP:	0.100	Y_WP:	0.000	Y_WP:	0.500	X:	0.736	Y:	-0.663	Z:	0.935	yaw:	-177.244	yaw rate:	-0.256	Roll:	-18.066	Pitch:	20.616	Yaw:	-250.532	Thrust:	0.000
Time:	3.392	Roll Set Point:	-0.133	Pitch Set Point:	-0.030	Yaw Set Point:	3.093	X_WP:	0.100	Y_WP:	0.000	Y_WP:	0.500	X:	0.736	Y:	-0.663	Z:	0.935	yaw:	-177.241	yaw rate:	0.652	Roll:	-18.005	Pitch:	20.635	Yaw:	-250.219	Thrust:	0.000
Time:	3.405	Roll Set Point:	-0.133	Pitch Set Point:	-0.030	Yaw Set Point:	3.093	X_WP:	0.100	Y_WP:	0.000	Y_WP:	0.500	X:	0.736	Y:	-0.663	Z:	0.935	yaw:	-177.232	yaw rate:	0.913	Roll:	-17.826	Pitch:	20.686	Yaw:	-249.885	Thrust:	0.000
Time:	3.419	Roll Set Point:	-0.133	Pitch Set Point:	-0.030	Yaw Set Point:	3.094	X_WP:	0.100	Y_WP:	0.000	Y_WP:	0.500	X:	0.736	Y:	-0.663	Z:	0.935	yaw:	-177.245	yaw rate:	-1.337	Roll:	-18.195	Pitch:	20.464	Yaw:	-250.538	Thrust:	0.000
Time:	3.433	Roll Set Point:	-0.133	Pitch Set Point:	-0.030	Yaw Set Point:	3.093	X_WP:	0.100	Y_WP:	0.000	Y_WP:	0.500	X:	0.736	Y:	-0.663	Z:	0.935	yaw:	-177.241	yaw rate:	0.446	Roll:	-17.956	Pitch:	20.662	Yaw:	-250.199	Thrust:	0.000
Time:	3.447	Roll Set Point:	-0.133	Pitch Set Point:	-0.030	Yaw Set Point:	3.093	X_WP:	0.100	Y_WP:	0.000	Y_WP:	0.500	X:	0.736	Y:	-0.663	Z:	0.935	yaw:	-177.231	yaw rate:	1.557	Roll:	-17.902	Pitch:	20.706	Yaw:	-250.085	Thrust:	0.000
Time:	3.461	Roll Set Point:	-0.133	Pitch Set Point:	-0.030	Yaw Set Point:	3.093	X_WP:	0.100	Y_WP:	0.000	Y_WP:	0.500	X:	0.736	Y:	-0.663	Z:	0.935	yaw:	-177.241	yaw rate:	-1.075	Roll:	-18.154	Pitch:	20.493	Yaw:	-250.484	Thrust:	0.000
Time:	3.474	Roll Set Point:	-0.133	Pitch Set Point:	-0.030	Yaw Set Point:	3.093	X_WP:	0.100	Y_WP:	0.000	Y_WP:	0.500	X:	0.736	Y:	-0.663	Z:	0.935	yaw:	-177.238	yaw rate:	0.376	Roll:	-17.915	Pitch:	20.624	Yaw:	-250.002	Thrust:	0.000
Time:	3.487	Roll Set Point:	-0.133	Pitch Set Point:	-0.030	Yaw Set Point:	3.093	X_WP:	0.100	Y_WP:	0.000	Y_WP:	0.500	X:	0.736	Y:	-0.663	Z:	0.935	yaw:	-177.235	yaw rate:	0.297	Roll:	-17.927	Pitch:	20.606	Yaw:	-250.014	Thrust:	0.000
Time:	3.501	Roll Set Point:	-0.133	Pitch Set Point:	-0.030	Yaw Set Point:	3.093	X_WP:	0.100	Y_WP:	0.000	Y_WP:	0.500	X:	0.736	Y:	-0.663	Z:	0.935	yaw:	-177.232	yaw rate:	0.259	Roll:	-17.970	Pitch:	20.654	Yaw:	-250.222	Thrust:	0.000
Time:	3.515	Roll Set Point:	-0.133	Pitch Set Point:	-0.030	Yaw Set Point:	3.093	X_WP:	0.100	Y_WP:	0.000	Y_WP:	0.500	X:	0.736	Y:	-0.663	Z:	0.935	yaw:	-177.239	yaw rate:	-0.728	Roll:	-18.127	Pitch:	20.513	Yaw:	-250.416	Thrust:	0.000
Time:	3.528	Roll Set Point:	-0.133	Pitch Set Point:	-0.030	Yaw Set Point:	3.093	X_WP:	0.100	Y_WP:	0.000	Y_WP:	0.500	X:	0.736	Y:	-0.663	Z:	0.935	yaw:	-177.238	yaw rate:	0.140	Roll:	-17.965	Pitch:	20.578	Yaw:	-250.050	Thrust:	0.000
Time:	3.542	Roll Set Point:	-0.133	Pitch Set Point:	-0.030	Yaw Set Point:	3.094	X_WP:	0.100	Y_WP:	0.000	Y_WP:	0.500	X:	0.736	Y:	-0.663	Z:	0.935	yaw:	-177.245	yaw rate:	-0.745	Roll:	-18.110	Pitch:	20.532	Yaw:	-250.428	Thrust:	0.000
Time:	3.556	Roll Set Point:	-0.133	Pitch Set Point:	-0.030	Yaw Set Point:	3.093	X_WP:	0.100	Y_WP:	0.000	Y_WP:	0.500	X:	0.736	Y:	-0.663	Z:	0.935	yaw:	-177.235	yaw rate:	0.999	Roll:	-17.837	Pitch:	20.702	Yaw:	-249.874	Thrust:	0.000
Time:	3.570	Roll Set Point:	-0.132	Pitch Set Point:	-0.030	Yaw Set Point:	3.094	X_WP:	0.100	Y_WP:	0.000	Y_WP:	0.500	X:	0.736	Y:	-0.663	Z:	0.935	yaw:	-177.253	yaw rate:	-1.789	Roll:	-18.238	Pitch:	20.411	Yaw:	-250.633	Thrust:	0.000
Time:	3.587	Roll Set Point:	-0.133	Pitch Set Point:	-0.030	Yaw Set Point:	3.094	X_WP:	0.100	Y_WP:	0.000	Y_WP:	0.500	X:	0.736	Y:	-0.663	Z:	0.935	yaw:	-177.249	yaw rate:	0.391	Roll:	-18.094	Pitch:	20.733	Yaw:	-250.836	Thrust:	0.000
Time:	3.601	Roll Set Point:	-0.133	Pitch Set Point:	-0.030	Yaw Set Point:	3.093	X_WP:	0.100	Y_WP:	0.000	Y_WP:	0.500	X:	0.736	Y:	-0.663	Z:	0.935	yaw:	-177.235	yaw rate:	0.801	Roll:	-17.835	Pitch:	20.778	Yaw:	-250.007	Thrust:	0.000
Time:	3.615	Roll Set Point:	-0.133	Pitch Set Point:	-0.030	Yaw Set Point:	3.094	X_WP:	0.100	Y_WP:	0.000	Y_WP:	0.500	X:	0.736	Y:	-0.663	Z:	0.935	yaw:	-177.247	yaw rate:	-1.181	Roll:	-18.163	Pitch:	20.481	Yaw:	-250.511	Thrust:	0.000
Time:	3.629	Roll Set Point:	-0.133	Pitch Set Point:	-0.030	Yaw Set Point:	3.093	X_WP:	0.100	Y_WP:	0.000	Y_WP:	0.500	X:	0.736	Y:	-0.663	Z:	0.935	yaw:	-177.240	yaw rate:	0.700	Roll:	-17.914	Pitch:	20.683	Yaw:	-250.151	Thrust:	0.000
Time:	3.642	Roll Set Point:	-0.133	Pitch Set Point:	-0.030	Yaw Set Point:	3.093	X_WP:	0.100	Y_WP:	0.000	Y_WP:	0.500	X:	0.736	Y:	-0.663	Z:	0.935	yaw:	-177.241	yaw rate:	-0.070	Roll:	-18.011	Pitch:	20.578	Yaw:	-250.096	Thrust:	0.000
Time:	3.656	Roll Set Point:	-0.133	Pitch Set Point:	-0.030	Yaw Set Point:	3.093	X_WP:	0.100	Y_WP:	0.000	Y_WP:	0.500	X:	0.736	Y:	-0.663	Z:	0.935	yaw:	-177.241	yaw rate:	-0.055	Roll:	-18.026	Pitch:	20.586	Yaw:	-250.293	Thrust:	0.000
Time:	3.670	Roll Set Point:	-0.133	Pitch Set Point:	-0.030	Yaw Set Point:	3.093	X_WP:	0.100	Y_WP:	0.000	Y_WP:	0.500	X:	0.736	Y:	-0.663	Z:	0.935	yaw:	-177.240	yaw rate:	-0.272	Roll:	-17.995	Pitch:	20.629	Yaw:	-250.305	Thrust:	0.000
Time:	3.683	Roll Set Point:	-0.133	Pitch Set Point:	-0.030	Yaw Set Point:	3.093	X_WP:	0.100	Y_WP:	0.000	Y_WP:	0.500	X:	0.736	Y:	-0.663	Z:	0.935	yaw:	-177.241	yaw rate:	-0.113	Roll:	-17.997	Pitch:	20.552	Yaw:	-250.105	Thrust:	0.000
Time:	3.696	Roll Set Point:	-0.133	Pitch Set Point:	-0.030	Yaw Set Point:	3.093	X_WP:	0.100	Y_WP:	0.000	Y_WP:	0.500	X:	0.736	Y:	-0.663	Z:	0.935	yaw:	-177.235	yaw rate:	0.665	Roll:	-17.886	Pitch:	20.667	Yaw:	-249.940	Thrust:	0.000
Time:	3.711	Roll Set Point:	-0.133	Pitch Set Point:	-0.030	Yaw Set Point:	3.094	X_WP:	0.100	Y_WP:	0.000	Y_WP:	0.500	X:	0.736	Y:	-0.663	Z:	0.935	yaw:	-177.245	yaw rate:	-1.033	Roll:	-18.184	Pitch:	20.543	Yaw:	-250.668	Thrust:	0.000
Time:	3.724	Roll Set Point:	-0.133	Pitch Set Point:	-0.030	Yaw Set Point:	3.093	X_WP:	0.100	Y_WP:	0.000	Y_WP:	0.500	X:	0.736	Y:	-0.663	Z:	0.935	yaw:	-177.235	yaw rate:	1.002	Roll:	-17.815	Pitch:	20.681	Yaw:	-249.872	Thrust:	0.000
Time:	3.737	Roll Set Point:	-0.133	Pitch Set Point:	-0.030	Yaw Set Point:	3.094	X_WP:	0.100	Y_WP:	0.000	Y_WP:	0.500	X:	0.736	Y:	-0.663	Z:	0.935	yaw:	-177.245	yaw rate:	-1.027	Roll:	-18.125	Pitch:	20.438	Yaw:	-250.294	Thrust:	0.000
Time:	3.751	Roll Set Point:	-0.133	Pitch Set Point:	-0.030	Yaw Set Point:	3.093	X_WP:	0.100	Y_WP:	0.000	Y_WP:	0.500	X:	0.736	Y:	-0.663	Z:	0.935	yaw:	-177.237	yaw rate:	0.812	Roll:	-17.935	Pitch:	20.698	Yaw:	-250.130	Thrust:	0.000
Time:	3.764	Roll Set Point:	-0.133	Pitch Set Point:	-0.030	Yaw Set Point:	3.093	X_WP:	0.100	Y_WP:	0.000	Y_WP:	0.500	X:	0.736	Y:	-0.663	Z:	0.935	yaw:	-177.235	yaw rate:	0.159	Roll:	-17.944	Pitch:	20.608	Yaw:	-250.043	Thrust:	0.000
Time:	3.778	Roll Set Point:	-0.133	Pitch Set Point:	-0.030	Yaw Set Point:	3.093	X_WP:	0.100	Y_WP:	0.000	Y_WP:	0.500	X:	0.736	Y:	-0.663	Z:	0.935	yaw:	-177.244	yaw rate:	-0.877	Roll:	-18.110	Pitch:	20.517	Yaw:	-250.445	Thrust:	0.000
Time:	3.791	Roll Set Point:	-0.133	Pitch Set Point:	-0.030	Yaw Set Point:	3.094	X_WP:	0.100	Y_WP:	0.000	Y_WP:	0.500	X:	0.736	Y:	-0.663	Z:	0.935	yaw:	-177.245	yaw rate:	-0.663	Roll:	-18.029	Pitch:	20.538	Yaw:	-250.120	Thrust:	0.000
Time:	3.804	Roll Set Point:	-0.133	Pitch Set Point:	-0.030	Yaw Set Point:	3.094	X_WP:	0.100	Y_WP:	0.000	Y_WP:	0.500	X:	0.736	Y:	-0.663	Z:	0.935	yaw:	-177.246	yaw rate:	-0.080	Roll:	-17.999	Pitch:	20.559	Yaw:	-250.105	Thrust:	0.000
Time:	3.818	Roll Set Point:	-0.133	Pitch Set Point:	-0.030	Yaw Set Point:	3.093	X_WP:	0.100	Y_WP:	0.000	Y_WP:	0.500	X:	0.736	Y:	-0.663	Z:	0.935	yaw:	-177.238	yaw rate:	0.858	Roll:	-17.894	Pitch:	20.696	Yaw:	-250.112	Thrust:	0.000
Time:	3.832	Roll Set Point:	-0.133	Pitch Set Point:	-0.030	Yaw Set Point:	3.093	X_WP:	0.100	Y_WP:	0.000	Y_WP:	0.500	X:	0.736	Y:	-0.663	Z:	0.935	yaw:	-177.238	yaw rate:	0.014	Roll:	-18.006	Pitch:	20.626	Yaw:	-250.281	Thrust:	0.000
Time:	3.847	Roll Set Point:	-0.133	Pitch Set Point:	-0.030	Yaw Set Point:	3.094	X_WP:	0.100	Y_WP:	0.000	Y_WP:	0.500	X:	0.736	Y:	-0.663	Z:	0.935	yaw:	-177.245	yaw rate:	-0.716	Roll:	-18.100	Pitch:	20.528	Yaw:	-250.421	Thrust:	0.000
Time:	3.860	Roll Set Point:	-0.133	Pitch Set Point:	-0.030	Yaw Set Point:	3.093	X_WP:	0.100	Y_WP:	0.000	Y_WP:	0.500	X:	0.736	Y:	-0.663	Z:	0.935	yaw:	-177.239	yaw rate:	0.549	Roll:	-17.892	Pitch:	20.641	Yaw:	-249.969	Thrust:	0.000
Time:	3.873	Roll Set Point:	-0.133	Pitch Set Point:	-0.030	Yaw Set Point:	3.093	X_WP:	0.100	Y_WP:	0.000	Y_WP:	0.500	X:	0.736	Y:	-0.663	Z:	0.935	yaw:	-177.242	yaw rate:	-0.252	Roll:	-18.049	Pitch:	20.536	Yaw:	-250.143	Thrust:	0.000
Time:	3.886	Roll Set Point:	-0.133	Pitch Set Point:	-0.030	Yaw Set Point:	3.093	X_WP:	0.100	Y_WP:	0.000	Y_WP:	0.500	X:	0.736	Y:	-0.663	Z:	0.935	yaw:	-177.237	yaw rate:	0.459	Roll:	-17.893	Pitch:	20.629	Yaw:	-249.990	Thrust:	0.000
Time:	3.900	Roll Set Point:	-0.133	Pitch Set Point:	-0.030	Yaw Set Point:	3.094	X_WP:	0.100	Y_WP:	0.000	Y_WP:	0.500	X:	0.736	Y:	-0.663	Z:	0.935	yaw:	-177.250	yaw rate:	-2.182	Roll:	-18.169	Pitch:	20.471	Yaw:	-250.531	Thrust:	0.000
Time:	3.914	Roll Set Point:	-0.132	Pitch Set Point:	-0.030	Yaw Set Point:	3.094	X_WP:	0.100	Y_WP:	0.000	Y_WP:	0.500	X:	0.736	Y:	-0.663	Z:	0.935	yaw:	-177.258	yaw rate:	-0.799	Roll:	-18.151	Pitch:	20.503	Yaw:	-250.456	Thrust:	0.000
Time:	3.927	Roll Set Point:	-0.133	Pitch Set Point:	-0.030	Yaw Set Point:	3.093	X_WP:	0.100	Y_WP:	0.000	Y_WP:	0.500	X:	0.736	Y:	-0.663	Z:	0.935	yaw:	-177.243	yaw rate:	1.496	Roll:	-17.757	Pitch:	20.751	Yaw:	-249.783	Thrust:	0.000
Time:	3.940	Roll Set Point:	-0.133	Pitch Set Point:	-0.030	Yaw Set Point:	3.093	X_WP:	0.100	Y_WP:	0.000	Y_WP:	0.500	X:	0.736	Y:	-0.663	Z:	0.935	yaw:	-177.241	yaw rate:	0.161	Roll:	-17.960	Pitch:	20.599	Yaw:	-250.050	Thrust:	0.000
Time:	3.953	Roll Set Point:	-0.133	Pitch Set Point:	-0.030	Yaw Set Point:	3.093	X_WP:	0.100	Y_WP:	0.000	Y_WP:	0.500	X:	0.736	Y:	-0.663	Z:	0.935	yaw:	-177.236	yaw rate:	0.564	Roll:	-17.882	Pitch:	20.633	Yaw:	-249.961	Thrust:	0.000
Time:	3.966	Roll Set Point:	-0.133	Pitch Set Point:	-0.030	Yaw Set Point:	3.093	X_WP:	0.100	Y_WP:	0.000	Y_WP:	0.500	X:	0.736	Y:	-0.663	Z:	0.935	yaw:	-177.237	yaw rate:	-0.134	Roll:	-17.996	Pitch:	20.551	Yaw:	-250.103	Thrust:	0.000
Time:	3.979	Roll Set Point:	-0.133	Pitch Set Point:	-0.030	Yaw Set Point:	3.093	X_WP:	0.100	Y_WP:	0.000	Y_WP:	0.500	X:	0.736	Y:	-0.663	Z:	0.935	yaw:	-177.241	yaw rate:	-0.385	Roll:	-18.052	Pitch:	20.526	Yaw:	-250.159	Thrust:	0.000
Time:	3.993	Roll Set Point:	-0.133	Pitch Set Point:	-0.030	Yaw Set Point:	3.094	X_WP:	0.100	Y_WP:	0.000	Y_WP:	0.500	X:	0.736	Y:	-0.663	Z:	0.935	yaw:	-177.247	yaw rate:	-0.664	Roll:	-18.089	Pitch:	20.545	Yaw:	-250.415	Thrust:	0.000
Time:	4.007	Roll Set Point:	-0.133	Pitch Set Point:	-0.030	Yaw Set Point:	3.094	X_WP:	0.100	Y_WP:	0.000	Y_WP:	0.500	X:	0.736	Y:	-0.663	Z:	0.935	yaw:	-177.249	yaw rate:	-0.108	Roll:	-18.035	Pitch:	20.584	Yaw:	-250.326	Thrust:	0.000
Time:	4.021	Roll Set Point:	-0.133	Pitch Set Point:	-0.030	Yaw Set Point:	3.093	X_WP:	0.100	Y_WP:	0.000	Y_WP:	0.500	X:	0.736	Y:	-0.663	Z:	0.935	yaw:	-177.242	yaw rate:	0.621	Roll:	-17.935	Pitch:	20.687	Yaw:	-250.155	Thrust:	0.000
Time:	4.034	Roll Set Point:	-0.132	Pitch Set Point:	-0.030	Yaw Set Point:	3.094	X_WP:	0.100	Y_WP:	0.000	Y_WP:	0.500	X:	0.736	Y:	-0.663	Z:	0.935	yaw:	-177.253	yaw rate:	-1.145	Roll:	-18.140	Pitch:	20.427	Yaw:	-250.328	Thrust:	0.000
Time:	4.047	Roll Set Point:	-0.133	Pitch Set Point:	-0.030	Yaw Set Point:	3.094	X_WP:	0.100	Y_WP:	0.000	Y_WP:	0.500	X:	0.736	Y:	-0.663	Z:	0.935	yaw:	-177.245	yaw rate:	0.768	Roll:	-17.861	Pitch:	20.681	Yaw:	-249.928	Thrust:	0.000
Time:	4.061	Roll Set Point:	-0.133	Pitch Set Point:	-0.030	Yaw Set Point:	3.093	X_WP:	0.100	Y_WP:	0.000	Y_WP:	0.500	X:	0.736	Y:	-0.663	Z:	0.935	yaw:	-177.244	yaw rate:	0.179	Roll:	-17.989	Pitch:	20.623	Yaw:	-250.258	Thrust:	0.000
Time:	4.075	Roll Set Point:	-0.133	Pitch Set Point:	-0.030	Yaw Set Point:	3.094	X_WP:	0.100	Y_WP:	0.000	Y_WP:	0.500	X:	0.736	Y:	-0.663	Z:	0.935	yaw:	-177.247	yaw rate:	-0.314	Roll:	-18.057	Pitch:	20.566	Yaw:	-250.344	Thrust:	0.000
Time:	4.088	Roll Set Point:	-0.133	Pitch Set Point:	-0.030	Yaw Set Point:	3.093	X_WP:	0.100	Y_WP:	0.000	Y_WP:	0.500	X:	0.736	Y:	-0.663	Z:	0.935	yaw:	-177.244	yaw rate:	0.276	Roll:	-17.969	Pitch:	20.593	Yaw:	-250.036	Thrust:	0.000
Time:	4.102	Roll Set Point:	-0.133	Pitch Set Point:	-0.030	Yaw Set Point:	3.093	X_WP:	0.100	Y_WP:	0.000	Y_WP:	0.500	X:	0.736	Y:	-0.663	Z:	0.935	yaw:	-177.242	yaw rate:	0.241	Roll:	-17.967	Pitch:	20.628	Yaw:	-250.233	Thrust:	0.000
Time:	4.116	Roll Set Point:	-0.133	Pitch Set Point:	-0.030	Yaw Set Point:	3.093	X_WP:	0.100	Y_WP:	0.000	Y_WP:	0.500	X:	0.736	Y:	-0.663	Z:	0.935	yaw:	-177.238	yaw rate:	0.396	Roll:	-17.964	Pitch:	20.676	Yaw:	-250.210	Thrust:	0.000
Time:	4.129	Roll Set Point:	-0.132	Pitch Set Point:	-0.030	Yaw Set Point:	3.094	X_WP:	0.100	Y_WP:	0.000	Y_WP:	0.500	X:	0.736	Y:	-0.663	Z:	0.935	yaw:	-177.253	yaw rate:	-1.581	Roll:	-18.199	Pitch:	20.383	Yaw:	-250.417	Thrust:	0.000
Time:	4.143	Roll Set Point:	-0.132	Pitch Set Point:	-0.030	Yaw Set Point:	3.094	X_WP:	0.100	Y_WP:	0.000	Y_WP:	0.500	X:	0.736	Y:	-0.663	Z:	0.935	yaw:	-177.258	yaw rate:	-0.484	Roll:	-18.102	Pitch:	20.534	Yaw:	-250.391	Thrust:	0.000
Time:	4.156	Roll Set Point:	-0.133	Pitch Set Point:	-0.030	Yaw Set Point:	3.093	X_WP:	0.100	Y_WP:	0.000	Y_WP:	0.500	X:	0.736	Y:	-0.663	Z:	0.935	yaw:	-177.239	yaw rate:	1.906	Roll:	-17.706	Pitch:	20.790	Yaw:	-249.703	Thrust:	0.000
Time:	4.170	Roll Set Point:	-0.133	Pitch Set Point:	-0.030	Yaw Set Point:	3.093	X_WP:	0.100	Y_WP:	0.000	Y_WP:	0.500	X:	0.736	Y:	-0.663	Z:	0.935	yaw:	-177.236	yaw rate:	0.308	Roll:	-17.941	Pitch:	20.600	Yaw:	-250.013	Thrust:	0.000
Time:	4.184	Roll Set Point:	-0.132	Pitch Set Point:	-0.030	Yaw Set Point:	3.094	X_WP:	0.100	Y_WP:	0.000	Y_WP:	0.500	X:	0.736	Y:	-0.663	Z:	0.935	yaw:	-177.258	yaw rate:	-2.231	Roll:	-18.298	Pitch:	20.384	Yaw:	-250.723	Thrust:	0.000
Time:	4.198	Roll Set Point:	-0.133	Pitch Set Point:	-0.030	Yaw Set Point:	3.094	X_WP:	0.100	Y_WP:	0.000	Y_WP:	0.500	X:	0.736	Y:	-0.663	Z:	0.935	yaw:	-177.252	yaw rate:	0.679	Roll:	-17.934	Pitch:	20.687	Yaw:	-250.169	Thrust:	0.000
Time:	4.211	Roll Set Point:	-0.133	Pitch Set Point:	-0.030	Yaw Set Point:	3.093	X_WP:	0.100	Y_WP:	0.000	Y_WP:	0.500	X:	0.736	Y:	-0.663	Z:	0.935	yaw:	-177.231	yaw rate:	2.020	Roll:	-17.665	Pitch:	20.806	Yaw:	-249.658	Thrust:	0.000
Time:	4.224	Roll Set Point:	-0.133	Pitch Set Point:	-0.030	Yaw Set Point:	3.093	X_WP:	0.100	Y_WP:	0.000	Y_WP:	0.500	X:	0.736	Y:	-0.663	Z:	0.935	yaw:	-177.241	yaw rate:	-0.953	Roll:	-18.152	Pitch:	20.423	Yaw:	-250.273	Thrust:	0.000
Time:	4.238	Roll Set Point:	-0.133	Pitch Set Point:	-0.030	Yaw Set Point:	3.093	X_WP:	0.100	Y_WP:	0.000	Y_WP:	0.500	X:	0.736	Y:	-0.663	Z:	0.935	yaw:	-177.239	yaw rate:	-0.414	Roll:	-17.982	Pitch:	20.644	Yaw:	-250.253	Thrust:	0.000
Time:	4.252	Roll Set Point:	-0.133	Pitch Set Point:	-0.030	Yaw Set Point:	3.093	X_WP:	0.100	Y_WP:	0.000	Y_WP:	0.500	X:	0.736	Y:	-0.663	Z:	0.935	yaw:	-177.240	yaw rate:	-0.101	Roll:	-18.024	Pitch:	20.618	Yaw:	-250.306	Thrust:	0.000
Time:	4.265	Roll Set Point:	-0.133	Pitch Set Point:	-0.030	Yaw Set Point:	3.094	X_WP:	0.100	Y_WP:	0.000	Y_WP:	0.500	X:	0.736	Y:	-0.663	Z:	0.935	yaw:	-177.252	yaw rate:	-1.151	Roll:	-18.140	Pitch:	20.423	Yaw:	-250.329	Thrust:	0.000
Time:	4.278	Roll Set Point:	-0.133	Pitch Set Point:	-0.030	Yaw Set Point:	3.093	X_WP:	0.100	Y_WP:	0.000	Y_WP:	0.500	X:	0.736	Y:	-0.663	Z:	0.935	yaw:	-177.240	yaw rate:	1.216	Roll:	-17.819	Pitch:	20.706	Yaw:	-249.829	Thrust:	0.000
Time:	4.292	Roll Set Point:	-0.133	Pitch Set Point:	-0.030	Yaw Set Point:	3.093	X_WP:	0.100	Y_WP:	0.000	Y_WP:	0.500	X:	0.736	Y:	-0.663	Z:	0.935	yaw:	-177.242	yaw rate:	-0.209	Roll:	-18.055	Pitch:	20.586	Yaw:	-250.328	Thrust:	0.000
Time:	4.305	Roll Set Point:	-0.133	Pitch Set Point:	-0.030	Yaw Set Point:	3.093	X_WP:	0.100	Y_WP:	0.000	Y_WP:	0.500	X:	0.736	Y:	-0.663	Z:	0.935	yaw:	-177.239	yaw rate:	0.243	Roll:	-17.934	Pitch:	20.590	Yaw:	-250.032	Thrust:	0.000
Time:	4.319	Roll Set Point:	-0.133	Pitch Set Point:	-0.030	Yaw Set Point:	3.093	X_WP:	0.100	Y_WP:	0.000	Y_WP:	0.500	X:	0.736	Y:	-0.663	Z:	0.935	yaw:	-177.243	yaw rate:	-0.352	Roll:	-18.036	Pitch:	20.580	Yaw:	-250.350	Thrust:	0.000
Time:	4.333	Roll Set Point:	-0.133	Pitch Set Point:	-0.030	Yaw Set Point:	3.093	X_WP:	0.100	Y_WP:	0.000	Y_WP:	0.500	X:	0.736	Y:	-0.663	Z:	0.935	yaw:	-177.243	yaw rate:	0.300	Roll:	-18.020	Pitch:	20.617	Yaw:	-250.272	Thrust:	0.000
Time:	4.347	Roll Set Point:	-0.133	Pitch Set Point:	-0.030	Yaw Set Point:	3.093	X_WP:	0.100	Y_WP:	0.000	Y_WP:	0.500	X:	0.736	Y:	-0.663	Z:	0.935	yaw:	-177.235	yaw rate:	0.791	Roll:	-17.908	Pitch:	20.698	Yaw:	-250.126	Thrust:	0.000
Time:	4.360	Roll Set Point:	-0.133	Pitch Set Point:	-0.030	Yaw Set Point:	3.093	X_WP:	0.100	Y_WP:	0.000	Y_WP:	0.500	X:	0.736	Y:	-0.663	Z:	0.935	yaw:	-177.244	yaw rate:	-0.957	Roll:	-18.163	Pitch:	20.449	Yaw:	-250.334	Thrust:	0.000
Time:	4.374	Roll Set Point:	-0.133	Pitch Set Point:	-0.030	Yaw Set Point:	3.093	X_WP:	0.100	Y_WP:	0.000	Y_WP:	0.500	X:	0.736	Y:	-0.663	Z:	0.935	yaw:	-177.240	yaw rate:	0.441	Roll:	-17.925	Pitch:	20.661	Yaw:	-250.198	Thrust:	0.000
Time:	4.388	Roll Set Point:	-0.133	Pitch Set Point:	-0.030	Yaw Set Point:	3.093	X_WP:	0.100	Y_WP:	0.000	Y_WP:	0.500	X:	0.736	Y:	-0.663	Z:	0.935	yaw:	-177.243	yaw rate:	-0.039	Roll:	-18.057	Pitch:	20.599	Yaw:	-250.341	Thrust:	0.000
Time:	4.403	Roll Set Point:	-0.132	Pitch Set Point:	-0.030	Yaw Set Point:	3.094	X_WP:	0.100	Y_WP:	0.000	Y_WP:	0.500	X:	0.736	Y:	-0.663	Z:	0.935	yaw:	-177.256	yaw rate:	-1.340	Roll:	-18.226	Pitch:	20.488	Yaw:	-250.736	Thrust:	0.000
Time:	4.416	Roll Set Point:	-0.133	Pitch Set Point:	-0.030	Yaw Set Point:	3.093	X_WP:	0.100	Y_WP:	0.000	Y_WP:	0.500	X:	0.736	Y:	-0.663	Z:	0.935	yaw:	-177.237	yaw rate:	1.936	Roll:	-17.702	Pitch:	20.800	Yaw:	-249.687	Thrust:	0.000
Time:	4.429	Roll Set Point:	-0.133	Pitch Set Point:	-0.030	Yaw Set Point:	3.093	X_WP:	0.100	Y_WP:	0.000	Y_WP:	0.500	X:	0.736	Y:	-0.663	Z:	0.935	yaw:	-177.242	yaw rate:	-0.531	Roll:	-18.065	Pitch:	20.504	Yaw:	-250.190	Thrust:	0.000
Time:	4.444	Roll Set Point:	-0.133	Pitch Set Point:	-0.030	Yaw Set Point:	3.094	X_WP:	0.100	Y_WP:	0.000	Y_WP:	0.500	X:	0.736	Y:	-0.663	Z:	0.935	yaw:	-177.246	yaw rate:	-0.367	Roll:	-18.057	Pitch:	20.563	Yaw:	-250.358	Thrust:	0.000
Time:	4.458	Roll Set Point:	-0.133	Pitch Set Point:	-0.030	Yaw Set Point:	3.094	X_WP:	0.100	Y_WP:	0.000	Y_WP:	0.500	X:	0.736	Y:	-0.663	Z:	0.935	yaw:	-177.249	yaw rate:	-0.373	Roll:	-18.059	Pitch:	20.586	Yaw:	-250.360	Thrust:	0.000
Time:	4.472	Roll Set Point:	-0.133	Pitch Set Point:	-0.030	Yaw Set Point:	3.093	X_WP:	0.100	Y_WP:	0.000	Y_WP:	0.500	X:	0.736	Y:	-0.663	Z:	0.935	yaw:	-177.230	yaw rate:	1.962	Roll:	-17.764	Pitch:	20.816	Yaw:	-249.901	Thrust:	0.000
Time:	4.486	Roll Set Point:	-0.133	Pitch Set Point:	-0.030	Yaw Set Point:	3.093	X_WP:	0.100	Y_WP:	0.000	Y_WP:	0.500	X:	0.736	Y:	-0.663	Z:	0.935	yaw:	-177.235	yaw rate:	-0.533	Roll:	-18.074	Pitch:	20.550	Yaw:	-250.374	Thrust:	0.000
Time:	4.500	Roll Set Point:	-0.133	Pitch Set Point:	-0.030	Yaw Set Point:	3.094	X_WP:	0.100	Y_WP:	0.000	Y_WP:	0.500	X:	0.736	Y:	-0.663	Z:	0.935	yaw:	-177.245	yaw rate:	-1.005	Roll:	-18.147	Pitch:	20.480	Yaw:	-250.475	Thrust:	0.000
Time:	4.514	Roll Set Point:	-0.133	Pitch Set Point:	-0.030	Yaw Set Point:	3.093	X_WP:	0.100	Y_WP:	0.000	Y_WP:	0.500	X:	0.736	Y:	-0.663	Z:	0.935	yaw:	-177.233	yaw rate:	1.165	Roll:	-17.867	Pitch:	20.763	Yaw:	-250.056	Thrust:	0.000
Time:	4.528	Roll Set Point:	-0.133	Pitch Set Point:	-0.030	Yaw Set Point:	3.093	X_WP:	0.100	Y_WP:	0.000	Y_WP:	0.500	X:	0.736	Y:	-0.663	Z:	0.935	yaw:	-177.237	yaw rate:	1.509	Roll:	-18.045	Pitch:	20.572	Yaw:	-250.342	Thrust:	0.000
Time:	4.542	Roll Set Point:	-0.133	Pitch Set Point:	-0.030	Yaw Set Point:	3.093	X_WP:	0.100	Y_WP:	0.000	Y_WP:	0.500	X:	0.736	Y:	-0.663	Z:	0.935	yaw:	-177.238	yaw rate:	-0.112	Roll:	-18.041	Pitch:	20.590	Yaw:	-250.295	Thrust:	0.000
Time:	4.555	Roll Set Point:	-0.133	Pitch Set Point:	-0.030	Yaw Set Point:	3.093	X_WP:	0.100	Y_WP:	0.000	Y_WP:	0.500	X:	0.736	Y:	-0.663	Z:	0.935	yaw:	-177.243	yaw rate:	-0.441	Roll:	-18.042	Pitch:	20.502	Yaw:	-250.177	Thrust:	0.000
Time:	4.568	Roll Set Point:	-0.133	Pitch Set Point:	-0.030	Yaw Set Point:	3.093	X_WP:	0.100	Y_WP:	0.000	Y_WP:	0.500	X:	0.736	Y:	-0.663	Z:	0.935	yaw:	-177.234	yaw rate:	0.842	Roll:	-17.871	Pitch:	20.685	Yaw:	-249.903	Thrust:	0.000
Time:	4.581	Roll Set Point:	-0.133	Pitch Set Point:	-0.030	Yaw Set Point:	3.094	X_WP:	0.100	Y_WP:	0.000	Y_WP:	0.500	X:	0.736	Y:	-0.663	Z:	0.935	yaw:	-177.247	yaw rate:	-1.336	Roll:	-18.176	Pitch:	20.420	Yaw:	-250.356	Thrust:	0.000
Time:	4.594	Roll Set Point:	-0.132	Pitch Set Point:	-0.030	Yaw Set Point:	3.094	X_WP:	0.100	Y_WP:	0.000	Y_WP:	0.500	X:	0.736	Y:	-0.663	Z:	0.935	yaw:	-177.254	yaw rate:	-0.624	Roll:	-18.043	Pitch:	20.490	Yaw:	-250.229	Thrust:	0.000
Time:	4.607	Roll Set Point:	-0.133	Pitch Set Point:	-0.030	Yaw Set Point:	3.093	X_WP:	0.100	Y_WP:	0.000	Y_WP:	0.500	X:	0.736	Y:	-0.663	Z:	0.935	yaw:	-177.240	yaw rate:	1.406	Roll:	-17.795	Pitch:	20.729	Yaw:	-249.799	Thrust:	0.000
Time:	4.620	Roll Set Point:	-0.133	Pitch Set Point:	-0.030	Yaw Set Point:	3.094	X_WP:	0.100	Y_WP:	0.000	Y_WP:	0.500	X:	0.736	Y:	-0.663	Z:	0.935	yaw:	-177.245	yaw rate:	-0.543	Roll:	-18.065	Pitch:	20.496	Yaw:	-250.195	Thrust:	0.000
Time:	4.633	Roll Set Point:	-0.133	Pitch Set Point:	-0.030	Yaw Set Point:	3.093	X_WP:	0.100	Y_WP:	0.000	Y_WP:	0.500	X:	0.736	Y:	-0.663	Z:	0.935	yaw:	-177.235	yaw rate:	1.026	Roll:	-17.799	Pitch:	20.717	Yaw:	-249.868	Thrust:	0.000
Time:	4.646	Roll Set Point:	-0.133	Pitch Set Point:	-0.030	Yaw Set Point:	3.093	X_WP:	0.100	Y_WP:	0.000	Y_WP:	0.500	X:	0.736	Y:	-0.663	Z:	0.935	yaw:	-177.236	yaw rate:	-0.108	Roll:	-17.997	Pitch:	20.555	Yaw:	-250.091	Thrust:	0.000
Time:	4.660	Roll Set Point:	-0.133	Pitch Set Point:	-0.030	Yaw Set Point:	3.094	X_WP:	0.100	Y_WP:	0.000	Y_WP:	0.500	X:	0.736	Y:	-0.663	Z:	0.935	yaw:	-177.245	yaw rate:	-0.879	Roll:	-18.126	Pitch:	20.510	Yaw:	-250.452	Thrust:	0.000
Time:	4.674	Roll Set Point:	-0.133	Pitch Set Point:	-0.030	Yaw Set Point:	3.094	X_WP:	0.100	Y_WP:	0.000	Y_WP:	0.500	X:	0.736	Y:	-0.663	Z:	0.935	yaw:	-177.250	yaw rate:	-0.541	Roll:	-18.116	Pitch:	20.536	Yaw:	-250.400	Thrust:	0.000
Time:	4.688	Roll Set Point:	-0.133	Pitch Set Point:	-0.030	Yaw Set Point:	3.093	X_WP:	0.100	Y_WP:	0.000	Y_WP:	0.500	X:	0.736	Y:	-0.663	Z:	0.935	yaw:	-177.237	yaw rate:	1.354	Roll:	-17.837	Pitch:	20.747	Yaw:	-249.977	Thrust:	0.000
Time:	4.702	Roll Set Point:	-0.133	Pitch Set Point:	-0.030	Yaw Set Point:	3.093	X_WP:	0.100	Y_WP:	0.000	Y_WP:	0.500	X:	0.736	Y:	-0.663	Z:	0.935	yaw:	-177.238	yaw rate:	-0.138	Roll:	-18.005	Pitch:	20.602	Yaw:	-250.304	Thrust:	0.000
Time:	4.716	Roll Set Point:	-0.133	Pitch Set Point:	-0.030	Yaw Set Point:	3.094	X_WP:	0.100	Y_WP:	0.000	Y_WP:	0.500	X:	0.736	Y:	-0.663	Z:	0.935	yaw:	-177.246	yaw rate:	-0.810	Roll:	-18.145	Pitch:	20.522	Yaw:	-250.441	Thrust:	0.000
Time:	4.729	Roll Set Point:	-0.133	Pitch Set Point:	-0.030	Yaw Set Point:	3.093	X_WP:	0.100	Y_WP:	0.000	Y_WP:	0.500	X:	0.736	Y:	-0.663	Z:	0.935	yaw:	-177.234	yaw rate:	1.239	Roll:	-17.785	Pitch:	20.735	Yaw:	-249.827	Thrust:	0.000
Time:	4.742	Roll Set Point:	-0.133	Pitch Set Point:	-0.030	Yaw Set Point:	3.093	X_WP:	0.100	Y_WP:	0.000	Y_WP:	0.500	X:	0.736	Y:	-0.663	Z:	0.935	yaw:	-177.237	yaw rate:	-0.292	Roll:	-18.029	Pitch:	20.513	Yaw:	-250.134	Thrust:	0.000
Time:	4.756	Roll Set Point:	-0.133	Pitch Set Point:	-0.030	Yaw Set Point:	3.093	X_WP:	0.100	Y_WP:	0.000	Y_WP:	0.500	X:	0.736	Y:	-0.663	Z:	0.935	yaw:	-177.235	yaw rate:	0.169	Roll:	-17.980	Pitch:	20.642	Yaw:	-250.239	Thrust:	0.000
Time:	4.770	Roll Set Point:	-0.133	Pitch Set Point:	-0.030	Yaw Set Point:	3.093	X_WP:	0.100	Y_WP:	0.000	Y_WP:	0.500	X:	0.736	Y:	-0.663	Z:	0.935	yaw:	-177.232	yaw rate:	0.277	Roll:	-17.976	Pitch:	20.636	Yaw:	-250.221	Thrust:	0.000
Time:	4.784	Roll Set Point:	-0.133	Pitch Set Point:	-0.030	Yaw Set Point:	3.094	X_WP:	0.100	Y_WP:	0.000	Y_WP:	0.500	X:	0.736	Y:	-0.663	Z:	0.935	yaw:	-177.246	yaw rate:	-1.428	Roll:	-18.218	Pitch:	20.444	Yaw:	-250.556	Thrust:	0.000
Time:	4.798	Roll Set Point:	-0.133	Pitch Set Point:	-0.030	Yaw Set Point:	3.093	X_WP:	0.100	Y_WP:	0.000	Y_WP:	0.500	X:	0.736	Y:	-0.663	Z:	0.935	yaw:	-177.238	yaw rate:	0.802	Roll:	-17.908	Pitch:	20.697	Yaw:	-250.125	Thrust:	0.000
Time:	4.811	Roll Set Point:	-0.133	Pitch Set Point:	-0.030	Yaw Set Point:	3.093	X_WP:	0.100	Y_WP:	0.000	Y_WP:	0.500	X:	0.736	Y:	-0.663	Z:	0.935	yaw:	-177.238	yaw rate:	0.023	Roll:	-17.960	Pitch:	20.577	Yaw:	-250.078	Thrust:	0.000
Time:	4.825	Roll Set Point:	-0.133	Pitch Set Point:	-0.030	Yaw Set Point:	3.093	X_WP:	0.100	Y_WP:	0.000	Y_WP:	0.500	X:	0.736	Y:	-0.663	Z:	0.935	yaw:	-177.240	yaw rate:	-0.197	Roll:	-18.051	Pitch:	20.601	Yaw:	-250.318	Thrust:	0.000
Time:	4.838	Roll Set Point:	-0.133	Pitch Set Point:	-0.030	Yaw Set Point:	3.093	X_WP:	0.100	Y_WP:	0.000	Y_WP:	0.500	X:	0.736	Y:	-0.663	Z:	0.935	yaw:	-177.237	yaw rate:	0.705	Roll:	-17.910	Pitch:	20.585	Yaw:	-250.017	Thrust:	0.000
Time:	4.851	Roll Set Point:	-0.133	Pitch Set Point:	-0.030	Yaw Set Point:	3.093	X_WP:	0.100	Y_WP:	0.000	Y_WP:	0.500	X:	0.736	Y:	-0.663	Z:	0.935	yaw:	-177.240	yaw rate:	-0.336	Roll:	-18.068	Pitch:	20.527	Yaw:	-250.143	Thrust:	0.000
Time:	4.864	Roll Set Point:	-0.133	Pitch Set Point:	-0.030	Yaw Set Point:	3.094	X_WP:	0.100	Y_WP:	0.000	Y_WP:	0.500	X:	0.736	Y:	-0.663	Z:	0.935	yaw:	-177.249	yaw rate:	-0.840	Roll:	-18.100	Pitch:	20.485	Yaw:	-250.267	Thrust:	0.000
Time:	4.877	Roll Set Point:	-0.133	Pitch Set Point:	-0.030	Yaw Set Point:	3.093	X_WP:	0.100	Y_WP:	0.000	Y_WP:	0.500	X:	0.736	Y:	-0.663	Z:	0.935	yaw:	-177.240	yaw rate:	0.895	Roll:	-17.821	Pitch:	20.678	Yaw:	-249.895	Thrust:	0.000
Time:	4.891	Roll Set Point:	-0.133	Pitch Set Point:	-0.030	Yaw Set Point:	3.094	X_WP:	0.100	Y_WP:	0.000	Y_WP:	0.500	X:	0.736	Y:	-0.663	Z:	0.935	yaw:	-177.245	yaw rate:	-0.533	Roll:	-18.089	Pitch:	20.547	Yaw:	-250.388	Thrust:	0.000
Time:	4.906	Roll Set Point:	-0.133	Pitch Set Point:	-0.030	Yaw Set Point:	3.093	X_WP:	0.100	Y_WP:	0.000	Y_WP:	0.500	X:	0.736	Y:	-0.663	Z:	0.935	yaw:	-177.242	yaw rate:	0.329	Roll:	-17.986	Pitch:	20.641	Yaw:	-250.226	Thrust:	0.000
Time:	4.920	Roll Set Point:	-0.133	Pitch Set Point:	-0.030	Yaw Set Point:	3.093	X_WP:	0.100	Y_WP:	0.000	Y_WP:	0.500	X:	0.736	Y:	-0.663	Z:	0.935	yaw:	-177.240	yaw rate:	0.144	Roll:	-17.987	Pitch:	20.612	Yaw:	-250.256	Thrust:	0.000
Time:	4.933	Roll Set Point:	-0.133	Pitch Set Point:	-0.030	Yaw Set Point:	3.094	X_WP:	0.100	Y_WP:	0.000	Y_WP:	0.500	X:	0.736	Y:	-0.663	Z:	0.935	yaw:	-177.245	yaw rate:	-0.416	Roll:	-18.057	Pitch:	20.542	Yaw:	-250.166	Thrust:	0.000
Time:	4.946	Roll Set Point:	-0.133	Pitch Set Point:	-0.030	Yaw Set Point:	3.093	X_WP:	0.100	Y_WP:	0.000	Y_WP:	0.500	X:	0.736	Y:	-0.663	Z:	0.935	yaw:	-177.233	yaw rate:	1.136	Roll:	-17.788	Pitch:	20.711	Yaw:	-249.849	Thrust:	0.000
Time:	4.960	Roll Set Point:	-0.133	Pitch Set Point:	-0.030	Yaw Set Point:	3.093	X_WP:	0.100	Y_WP:	0.000	Y_WP:	0.500	X:	0.736	Y:	-0.663	Z:	0.935	yaw:	-177.242	yaw rate:	-0.829	Roll:	-18.121	Pitch:	20.515	Yaw:	-250.433	Thrust:	0.000
Time:	4.973	Roll Set Point:	-0.133	Pitch Set Point:	-0.030	Yaw Set Point:	3.094	X_WP:	0.100	Y_WP:	0.000	Y_WP:	0.500	X:	0.736	Y:	-0.663	Z:	0.935	yaw:	-177.248	yaw rate:	-0.685	Roll:	-18.118	Pitch:	20.480	Yaw:	-250.266	Thrust:	0.000
Time:	4.986	Roll Set Point:	-0.133	Pitch Set Point:	-0.030	Yaw Set Point:	3.094	X_WP:	0.100	Y_WP:	0.000	Y_WP:	0.500	X:	0.736	Y:	-0.663	Z:	0.935	yaw:	-177.250	yaw rate:	-0.129	Roll:	-17.994	Pitch:	20.543	Yaw:	-250.120	Thrust:	0.000
Time:	4.999	Roll Set Point:	-0.133	Pitch Set Point:	-0.030	Yaw Set Point:	3.094	X_WP:	0.100	Y_WP:	0.000	Y_WP:	0.500	X:	0.736	Y:	-0.663	Z:	0.935	yaw:	-177.245	yaw rate:	0.494	Roll:	-17.891	Pitch:	20.639	Yaw:	-249.988	Thrust:	0.000
Time:	5.012	Roll Set Point:	-0.133	Pitch Set Point:	-0.030	Yaw Set Point:	3.093	X_WP:	0.100	Y_WP:	0.000	Y_WP:	0.500	X:	0.736	Y:	-0.663	Z:	0.935	yaw:	-177.237	yaw rate:	0.801	Roll:	-17.842	Pitch:	20.682	Yaw:	-249.921	Thrust:	0.000
Time:	5.026	Roll Set Point:	-0.132	Pitch Set Point:	-0.030	Yaw Set Point:	3.094	X_WP:	0.100	Y_WP:	0.000	Y_WP:	0.500	X:	0.736	Y:	-0.663	Z:	0.935	yaw:	-177.257	yaw rate:	-2.008	Roll:	-18.296	Pitch:	20.375	Yaw:	-250.679	Thrust:	0.000
Time:	5.039	Roll Set Point:	-0.133	Pitch Set Point:	-0.030	Yaw Set Point:	3.094	X_WP:	0.100	Y_WP:	0.000	Y_WP:	0.500	X:	0.736	Y:	-0.663	Z:	0.935	yaw:	-177.248	yaw rate:	-1.024	Roll:	-17.899	Pitch:	20.672	Yaw:	-249.915	Thrust:	0.000
Time:	5.052	Roll Set Point:	-0.133	Pitch Set Point:	-0.030	Yaw Set Point:	3.094	X_WP:	0.100	Y_WP:	0.000	Y_WP:	0.500	X:	0.736	Y:	-0.663	Z:	0.935	yaw:	-177.249	yaw rate:	-0.091	Roll:	-17.974	Pitch:	20.564	Yaw:	-250.106	Thrust:	0.000
Time:	5.065	Roll Set Point:	-0.133	Pitch Set Point:	-0.030	Yaw Set Point:	3.093	X_WP:	0.100	Y_WP:	0.000	Y_WP:	0.500	X:	0.736	Y:	-0.663	Z:	0.935	yaw:	-177.235	yaw rate:	1.394	Roll:	-17.752	Pitch:	20.738	Yaw:	-249.800	Thrust:	0.000
Time:	5.080	Roll Set Point:	-0.133	Pitch Set Point:	-0.030	Yaw Set Point:	3.094	X_WP:	0.100	Y_WP:	0.000	Y_WP:	0.500	X:	0.736	Y:	-0.663	Z:	0.935	yaw:	-177.248	yaw rate:	-1.290	Roll:	-18.213	Pitch:	20.503	Yaw:	-250.698	Thrust:	0.000
Time:	5.095	Roll Set Point:	-0.133	Pitch Set Point:	-0.030	Yaw Set Point:	3.093	X_WP:	0.100	Y_WP:	0.000	Y_WP:	0.500	X:	0.736	Y:	-0.663	Z:	0.935	yaw:	-177.244	yaw rate:	0.384	Roll:	-18.041	Pitch:	20.675	Yaw:	-250.420	Thrust:	0.000
Time:	5.108	Roll Set Point:	-0.133	Pitch Set Point:	-0.030	Yaw Set Point:	3.094	X_WP:	0.100	Y_WP:	0.000	Y_WP:	0.500	X:	0.736	Y:	-0.663	Z:	0.935	yaw:	-177.245	yaw rate:	-0.051	Roll:	-17.963	Pitch:	20.573	Yaw:	-250.097	Thrust:	0.000
Time:	5.122	Roll Set Point:	-0.133	Pitch Set Point:	-0.030	Yaw Set Point:	3.094	X_WP:	0.100	Y_WP:	0.000	Y_WP:	0.500	X:	0.736	Y:	-0.663	Z:	0.935	yaw:	-177.246	yaw rate:	-0.130	Roll:	-18.039	Pitch:	20.589	Yaw:	-250.308	Thrust:	0.000
Time:	5.136	Roll Set Point:	-0.133	Pitch Set Point:	-0.030	Yaw Set Point:	3.093	X_WP:	0.100	Y_WP:	0.000	Y_WP:	0.500	X:	0.736	Y:	-0.663	Z:	0.935	yaw:	-177.241	yaw rate:	0.454	Roll:	-17.946	Pitch:	20.668	Yaw:	-250.203	Thrust:	0.000
Time:	5.150	Roll Set Point:	-0.133	Pitch Set Point:	-0.030	Yaw Set Point:	3.093	X_WP:	0.100	Y_WP:	0.000	Y_WP:	0.500	X:	0.736	Y:	-0.663	Z:	0.935	yaw:	-177.242	yaw rate:	-0.107	Roll:	-18.054	Pitch:	20.592	Yaw:	-250.305	Thrust:	0.000
Time:	5.164	Roll Set Point:	-0.133	Pitch Set Point:	-0.030	Yaw Set Point:	3.094	X_WP:	0.100	Y_WP:	0.000	Y_WP:	0.500	X:	0.736	Y:	-0.663	Z:	0.935	yaw:	-177.251	yaw rate:	-0.873	Roll:	-18.106	Pitch:	20.503	Yaw:	-250.455	Thrust:	0.000
Time:	5.178	Roll Set Point:	-0.133	Pitch Set Point:	-0.030	Yaw Set Point:	3.093	X_WP:	0.100	Y_WP:	0.000	Y_WP:	0.500	X:	0.736	Y:	-0.663	Z:	0.935	yaw:	-177.236	yaw rate:	1.531	Roll:	-17.823	Pitch:	20.772	Yaw:	-249.995	Thrust:	0.000
Time:	5.192	Roll Set Point:	-0.133	Pitch Set Point:	-0.030	Yaw Set Point:	3.094	X_WP:	0.100	Y_WP:	0.000	Y_WP:	0.500	X:	0.736	Y:	-0.663	Z:	0.935	yaw:	-177.251	yaw rate:	-1.384	Roll:	-18.224	Pitch:	20.449	Yaw:	-250.572	Thrust:	0.000
Time:	5.205	Roll Set Point:	-0.133	Pitch Set Point:	-0.030	Yaw Set Point:	3.094	X_WP:	0.100	Y_WP:	0.000	Y_WP:	0.500	X:	0.736	Y:	-0.663	Z:	0.935	yaw:	-177.245	yaw rate:	0.588	Roll:	-17.900	Pitch:	20.636	Yaw:	-249.970	Thrust:	0.000
Time:	5.218	Roll Set Point:	-0.133	Pitch Set Point:	-0.030	Yaw Set Point:	3.093	X_WP:	0.100	Y_WP:	0.000	Y_WP:	0.500	X:	0.736	Y:	-0.663	Z:	0.935	yaw:	-177.244	yaw rate:	0.064	Roll:	-17.947	Pitch:	20.580	Yaw:	-250.074	Thrust:	0.000
Time:	5.231	Roll Set Point:	-0.133	Pitch Set Point:	-0.030	Yaw Set Point:	3.093	X_WP:	0.100	Y_WP:	0.000	Y_WP:	0.500	X:	0.736	Y:	-0.663	Z:	0.935	yaw:	-177.235	yaw rate:	0.936	Roll:	-17.827	Pitch:	20.678	Yaw:	-249.886	Thrust:	0.000
Time:	5.245	Roll Set Point:	-0.133	Pitch Set Point:	-0.030	Yaw Set Point:	3.094	X_WP:	0.100	Y_WP:	0.000	Y_WP:	0.500	X:	0.736	Y:	-0.663	Z:	0.935	yaw:	-177.246	yaw rate:	-1.097	Roll:	-18.162	Pitch:	20.450	Yaw:	-250.314	Thrust:	0.000
Time:	5.258	Roll Set Point:	-0.133	Pitch Set Point:	-0.030	Yaw Set Point:	3.093	X_WP:	0.100	Y_WP:	0.000	Y_WP:	0.500	X:	0.736	Y:	-0.663	Z:	0.935	yaw:	-177.243	yaw rate:	0.292	Roll:	-17.947	Pitch:	20.605	Yaw:	-250.026	Thrust:	0.000
Time:	5.272	Roll Set Point:	-0.133	Pitch Set Point:	-0.030	Yaw Set Point:	3.093	X_WP:	0.100	Y_WP:	0.000	Y_WP:	0.500	X:	0.736	Y:	-0.663	Z:	0.935	yaw:	-177.242	yaw rate:	0.149	Roll:	-17.986	Pitch:	20.612	Yaw:	-250.250	Thrust:	0.000
Time:	5.286	Roll Set Point:	-0.133	Pitch Set Point:	-0.030	Yaw Set Point:	3.093	X_WP:	0.100	Y_WP:	0.000	Y_WP:	0.500	X:	0.736	Y:	-0.663	Z:	0.935	yaw:	-177.238	yaw rate:	0.305	Roll:	-17.973	Pitch:	20.644	Yaw:	-250.228	Thrust:	0.000
Time:	5.299	Roll Set Point:	-0.133	Pitch Set Point:	-0.030	Yaw Set Point:	3.094	X_WP:	0.100	Y_WP:	0.000	Y_WP:	0.500	X:	0.736	Y:	-0.663	Z:	0.935	yaw:	-177.245	yaw rate:	-0.608	Roll:	-18.059	Pitch:	20.503	Yaw:	-250.209	Thrust:	0.000
Time:	5.316	Roll Set Point:	-0.133	Pitch Set Point:	-0.030	Yaw Set Point:	3.094	X_WP:	0.100	Y_WP:	0.000	Y_WP:	0.500	X:	0.736	Y:	-0.663	Z:	0.935	yaw:	-177.247	yaw rate:	-0.232	Roll:	-18.158	Pitch:	20.699	Yaw:	-250.929	Thrust:	0.000
Time:	5.337	Roll Set Point:	-0.133	Pitch Set Point:	-0.030	Yaw Set Point:	3.093	X_WP:	0.100	Y_WP:	0.000	Y_WP:	0.500	X:	0.736	Y:	-0.663	Z:	0.935	yaw:	-177.233	yaw rate:	1.345	Roll:	-18.167	Pitch:	20.968	Yaw:	-251.502	Thrust:	0.000
Time:	5.350	Roll Set Point:	-0.133	Pitch Set Point:	-0.030	Yaw Set Point:	3.093	X_WP:	0.100	Y_WP:	0.000	Y_WP:	0.500	X:	0.736	Y:	-0.663	Z:	0.935	yaw:	-177.236	yaw rate:	0.108	Roll:	-18.016	Pitch:	20.547	Yaw:	-250.133	Thrust:	0.000
Time:	5.363	Roll Set Point:	-0.133	Pitch Set Point:	-0.030	Yaw Set Point:	3.093	X_WP:	0.100	Y_WP:	0.000	Y_WP:	0.500	X:	0.736	Y:	-0.663	Z:	0.935	yaw:	-177.236	yaw rate:	0.015	Roll:	-17.972	Pitch:	20.565	Yaw:	-250.072	Thrust:	0.000
Time:	5.376	Roll Set Point:	-0.133	Pitch Set Point:	-0.030	Yaw Set Point:	3.094	X_WP:	0.100	Y_WP:	0.000	Y_WP:	0.500	X:	0.736	Y:	-0.663	Z:	0.935	yaw:	-177.245	yaw rate:	-0.849	Roll:	-18.085	Pitch:	20.476	Yaw:	-250.258	Thrust:	0.000
Time:	5.390	Roll Set Point:	-0.133	Pitch Set Point:	-0.030	Yaw Set Point:	3.093	X_WP:	0.100	Y_WP:	0.000	Y_WP:	0.500	X:	0.736	Y:	-0.663	Z:	0.935	yaw:	-177.240	yaw rate:	0.495	Roll:	-17.956	Pitch:	20.662	Yaw:	-250.194	Thrust:	0.000
Time:	5.404	Roll Set Point:	-0.133	Pitch Set Point:	-0.030	Yaw Set Point:	3.093	X_WP:	0.100	Y_WP:	0.000	Y_WP:	0.500	X:	0.736	Y:	-0.663	Z:	0.935	yaw:	-177.236	yaw rate:	0.407	Roll:	-17.975	Pitch:	20.659	Yaw:	-250.199	Thrust:	0.000
Time:	5.418	Roll Set Point:	-0.133	Pitch Set Point:	-0.030	Yaw Set Point:	3.093	X_WP:	0.100	Y_WP:	0.000	Y_WP:	0.500	X:	0.736	Y:	-0.663	Z:	0.935	yaw:	-177.236	yaw rate:	-0.028	Roll:	-18.025	Pitch:	20.595	Yaw:	-250.280	Thrust:	0.000
Time:	5.432	Roll Set Point:	-0.133	Pitch Set Point:	-0.030	Yaw Set Point:	3.093	X_WP:	0.100	Y_WP:	0.000	Y_WP:	0.500	X:	0.736	Y:	-0.663	Z:	0.935	yaw:	-177.243	yaw rate:	-1.238	Roll:	-18.093	Pitch:	20.539	Yaw:	-250.407	Thrust:	0.000
Time:	5.445	Roll Set Point:	-0.133	Pitch Set Point:	-0.030	Yaw Set Point:	3.094	X_WP:	0.100	Y_WP:	0.000	Y_WP:	0.500	X:	0.736	Y:	-0.663	Z:	0.935	yaw:	-177.251	yaw rate:	-0.804	Roll:	-18.078	Pitch:	20.487	Yaw:	-250.270	Thrust:	0.000
Time:	5.458	Roll Set Point:	-0.133	Pitch Set Point:	-0.030	Yaw Set Point:	3.094	X_WP:	0.100	Y_WP:	0.000	Y_WP:	0.500	X:	0.736	Y:	-0.663	Z:	0.935	yaw:	-177.250	yaw rate:	0.081	Roll:	-17.974	Pitch:	20.580	Yaw:	-250.078	Thrust:	0.000
Time:	5.472	Roll Set Point:	-0.133	Pitch Set Point:	-0.030	Yaw Set Point:	3.094	X_WP:	0.100	Y_WP:	0.000	Y_WP:	0.500	X:	0.736	Y:	-0.663	Z:	0.935	yaw:	-177.246	yaw rate:	0.422	Roll:	-17.952	Pitch:	20.650	Yaw:	-250.207	Thrust:	0.000
Time:	5.486	Roll Set Point:	-0.133	Pitch Set Point:	-0.030	Yaw Set Point:	3.093	X_WP:	0.100	Y_WP:	0.000	Y_WP:	0.500	X:	0.736	Y:	-0.663	Z:	0.935	yaw:	-177.239	yaw rate:	0.676	Roll:	-17.947	Pitch:	20.657	Yaw:	-250.157	Thrust:	0.000
Time:	5.500	Roll Set Point:	-0.133	Pitch Set Point:	-0.030	Yaw Set Point:	3.093	X_WP:	0.100	Y_WP:	0.000	Y_WP:	0.500	X:	0.736	Y:	-0.663	Z:	0.935	yaw:	-177.228	yaw rate:	1.095	Roll:	-17.864	Pitch:	20.747	Yaw:	-250.054	Thrust:	0.000
Time:	5.513	Roll Set Point:	-0.133	Pitch Set Point:	-0.030	Yaw Set Point:	3.094	X_WP:	0.100	Y_WP:	0.000	Y_WP:	0.500	X:	0.736	Y:	-0.663	Z:	0.935	yaw:	-177.248	yaw rate:	-1.997	Roll:	-18.253	Pitch:	20.348	Yaw:	-250.497	Thrust:	0.000
Time:	5.527	Roll Set Point:	-0.133	Pitch Set Point:	-0.030	Yaw Set Point:	3.093	X_WP:	0.100	Y_WP:	0.000	Y_WP:	0.500	X:	0.736	Y:	-0.663	Z:	0.935	yaw:	-177.241	yaw rate:	0.707	Roll:	-17.937	Pitch:	20.694	Yaw:	-250.146	Thrust:	0.000
Time:	5.542	Roll Set Point:	-0.133	Pitch Set Point:	-0.030	Yaw Set Point:	3.093	X_WP:	0.100	Y_WP:	0.000	Y_WP:	0.500	X:	0.736	Y:	-0.663	Z:	0.935	yaw:	-177.240	yaw rate:	0.930	Roll:	-18.038	Pitch:	20.634	Yaw:	-250.464	Thrust:	0.000
Time:	5.556	Roll Set Point:	-0.133	Pitch Set Point:	-0.030	Yaw Set Point:	3.093	X_WP:	0.100	Y_WP:	0.000	Y_WP:	0.500	X:	0.736	Y:	-0.663	Z:	0.935	yaw:	-177.239	yaw rate:	0.028	Roll:	-18.005	Pitch:	20.615	Yaw:	-250.273	Thrust:	0.000
Time:	5.570	Roll Set Point:	-0.133	Pitch Set Point:	-0.030	Yaw Set Point:	3.093	X_WP:	0.100	Y_WP:	0.000	Y_WP:	0.500	X:	0.736	Y:	-0.663	Z:	0.935	yaw:	-177.240	yaw rate:	-0.039	Roll:	-18.034	Pitch:	20.606	Yaw:	-250.292	Thrust:	0.000
Time:	5.584	Roll Set Point:	-0.133	Pitch Set Point:	-0.030	Yaw Set Point:	3.093	X_WP:	0.100	Y_WP:	0.000	Y_WP:	0.500	X:	0.736	Y:	-0.663	Z:	0.935	yaw:	-177.238	yaw rate:	0.170	Roll:	-17.984	Pitch:	20.636	Yaw:	-250.248	Thrust:	0.000
Time:	5.599	Roll Set Point:	-0.133	Pitch Set Point:	-0.030	Yaw Set Point:	3.093	X_WP:	0.100	Y_WP:	0.000	Y_WP:	0.500	X:	0.736	Y:	-0.663	Z:	0.935	yaw:	-177.244	yaw rate:	-0.564	Roll:	-18.086	Pitch:	20.535	Yaw:	-250.392	Thrust:	0.000
Time:	5.613	Roll Set Point:	-0.133	Pitch Set Point:	-0.030	Yaw Set Point:	3.093	X_WP:	0.100	Y_WP:	0.000	Y_WP:	0.500	X:	0.736	Y:	-0.663	Z:	0.935	yaw:	-177.242	yaw rate:	0.206	Roll:	-18.004	Pitch:	20.641	Yaw:	-250.240	Thrust:	0.000
Time:	5.627	Roll Set Point:	-0.133	Pitch Set Point:	-0.030	Yaw Set Point:	3.093	X_WP:	0.100	Y_WP:	0.000	Y_WP:	0.500	X:	0.736	Y:	-0.663	Z:	0.935	yaw:	-177.241	yaw rate:	0.074	Roll:	-18.000	Pitch:	20.613	Yaw:	-250.274	Thrust:	0.000
Time:	5.641	Roll Set Point:	-0.133	Pitch Set Point:	-0.030	Yaw Set Point:	3.093	X_WP:	0.100	Y_WP:	0.000	Y_WP:	0.500	X:	0.736	Y:	-0.663	Z:	0.935	yaw:	-177.239	yaw rate:	0.230	Roll:	-17.974	Pitch:	20.636	Yaw:	-250.237	Thrust:	0.000
Time:	5.655	Roll Set Point:	-0.133	Pitch Set Point:	-0.030	Yaw Set Point:	3.093	X_WP:	0.100	Y_WP:	0.000	Y_WP:	0.500	X:	0.736	Y:	-0.663	Z:	0.935	yaw:	-177.236	yaw rate:	0.281	Roll:	-17.987	Pitch:	20.650	Yaw:	-250.282	Thrust:	0.000
