Time:	2.064	Roll Set Point:	-0.133	Pitch Set Point:	-0.030	Yaw Set Point:	3.093	X_WP:	0.100	Y_WP:	0.000	Y_WP:	0.500	X:	0.736	Y:	-0.663	Z:	0.935	yaw:	-177.239	yaw rate:	0.503	Roll:	-17.491	Pitch:	20.081	Yaw:	-247.473	Thrust:	0.000
Time:	2.076	Roll Set Point:	-0.133	Pitch Set Point:	-0.030	Yaw Set Point:	3.093	X_WP:	0.100	Y_WP:	0.000	Y_WP:	0.500	X:	0.736	Y:	-0.663	Z:	0.935	yaw:	-177.231	yaw rate:	0.811	Roll:	-17.378	Pitch:	20.211	Yaw:	-248.030	Thrust:	0.000
Time:	2.089	Roll Set Point:	-0.133	Pitch Set Point:	-0.030	Yaw Set Point:	3.093	X_WP:	0.100	Y_WP:	0.000	Y_WP:	0.500	X:	0.736	Y:	-0.663	Z:	0.935	yaw:	-177.237	yaw rate:	-0.563	Roll:	-17.617	Pitch:	20.065	Yaw:	-249.196	Thrust:	0.000
Time:	2.101	Roll Set Point:	-0.133	Pitch Set Point:	-0.030	Yaw Set Point:	3.093	X_WP:	0.100	Y_WP:	0.000	Y_WP:	0.500	X:	0.736	Y:	-0.663	Z:	0.935	yaw:	-177.235	yaw rate:	0.893	Roll:	-17.489	Pitch:	20.175	Yaw:	-249.658	Thrust:	0.000
Time:	2.113	Roll Set Point:	-0.133	Pitch Set Point:	-0.030	Yaw Set Point:	3.094	X_WP:	0.100	Y_WP:	0.000	Y_WP:	0.500	X:	0.736	Y:	-0.663	Z:	0.935	yaw:	-177.249	yaw rate:	-1.347	Roll:	-17.792	Pitch:	19.984	Yaw:	-250.190	Thrust:	0.000
Time:	2.126	Roll Set Point:	-0.133	Pitch Set Point:	-0.030	Yaw Set Point:	3.093	X_WP:	0.100	Y_WP:	0.000	Y_WP:	0.500	X:	0.736	Y:	-0.663	Z:	0.935	yaw:	-177.239	yaw rate:	0.946	Roll:	-17.453	Pitch:	20.287	Yaw:	-249.674	Thrust:	0.000
Time:	2.138	Roll Set Point:	-0.133	Pitch Set Point:	-0.030	Yaw Set Point:	3.093	X_WP:	0.100	Y_WP:	0.000	Y_WP:	0.500	X:	0.736	Y:	-0.663	Z:	0.935	yaw:	-177.232	yaw rate:	0.675	Roll:	-17.469	Pitch:	20.292	Yaw:	-249.723	Thrust:	0.000
Time:	2.150	Roll Set Point:	-0.133	Pitch Set Point:	-0.030	Yaw Set Point:	3.093	X_WP:	0.100	Y_WP:	0.000	Y_WP:	0.500	X:	0.736	Y:	-0.663	Z:	0.935	yaw:	-177.242	yaw rate:	-1.001	Roll:	-17.784	Pitch:	20.109	Yaw:	-250.101	Thrust:	0.000
Time:	2.163	Roll Set Point:	-0.133	Pitch Set Point:	-0.030	Yaw Set Point:	3.093	X_WP:	0.100	Y_WP:	0.000	Y_WP:	0.500	X:	0.736	Y:	-0.663	Z:	0.935	yaw:	-177.242	yaw rate:	0.025	Roll:	-17.651	Pitch:	20.273	Yaw:	-250.079	Thrust:	0.000
Time:	2.175	Roll Set Point:	-0.133	Pitch Set Point:	-0.030	Yaw Set Point:	3.093	X_WP:	0.100	Y_WP:	0.000	Y_WP:	0.500	X:	0.736	Y:	-0.663	Z:	0.935	yaw:	-177.243	yaw rate:	-0.085	Roll:	-17.662	Pitch:	20.271	Yaw:	-249.902	Thrust:	0.000
Time:	2.187	Roll Set Point:	-0.133	Pitch Set Point:	-0.030	Yaw Set Point:	3.093	X_WP:	0.100	Y_WP:	0.000	Y_WP:	0.500	X:	0.736	Y:	-0.663	Z:	0.935	yaw:	-177.244	yaw rate:	-0.099	Roll:	-17.684	Pitch:	20.265	Yaw:	-249.907	Thrust:	0.000
Time:	2.199	Roll Set Point:	-0.133	Pitch Set Point:	-0.030	Yaw Set Point:	3.093	X_WP:	0.100	Y_WP:	0.000	Y_WP:	0.500	X:	0.736	Y:	-0.663	Z:	0.935	yaw:	-177.237	yaw rate:	0.663	Roll:	-17.600	Pitch:	20.388	Yaw:	-249.732	Thrust:	0.000
Time:	2.211	Roll Set Point:	-0.133	Pitch Set Point:	-0.030	Yaw Set Point:	3.093	X_WP:	0.100	Y_WP:	0.000	Y_WP:	0.500	X:	0.736	Y:	-0.663	Z:	0.935	yaw:	-177.229	yaw rate:	0.865	Roll:	-17.579	Pitch:	20.444	Yaw:	-249.767	Thrust:	0.000
Time:	2.224	Roll Set Point:	-0.133	Pitch Set Point:	-0.030	Yaw Set Point:	3.094	X_WP:	0.100	Y_WP:	0.000	Y_WP:	0.500	X:	0.736	Y:	-0.663	Z:	0.935	yaw:	-177.250	yaw rate:	-0.728	Roll:	-18.040	Pitch:	20.124	Yaw:	-250.521	Thrust:	0.000
Time:	2.236	Roll Set Point:	-0.133	Pitch Set Point:	-0.030	Yaw Set Point:	3.093	X_WP:	0.100	Y_WP:	0.000	Y_WP:	0.500	X:	0.736	Y:	-0.663	Z:	0.935	yaw:	-177.237	yaw rate:	1.330	Roll:	-17.547	Pitch:	20.564	Yaw:	-249.581	Thrust:	0.000
Time:	2.249	Roll Set Point:	-0.133	Pitch Set Point:	-0.030	Yaw Set Point:	3.093	X_WP:	0.100	Y_WP:	0.000	Y_WP:	0.500	X:	0.736	Y:	-0.663	Z:	0.935	yaw:	-177.242	yaw rate:	-0.551	Roll:	-17.862	Pitch:	20.341	Yaw:	-250.194	Thrust:	0.000
Time:	2.261	Roll Set Point:	-0.133	Pitch Set Point:	-0.030	Yaw Set Point:	3.093	X_WP:	0.100	Y_WP:	0.000	Y_WP:	0.500	X:	0.736	Y:	-0.663	Z:	0.935	yaw:	-177.243	yaw rate:	-0.095	Roll:	-17.808	Pitch:	20.399	Yaw:	-249.911	Thrust:	0.000
Time:	2.273	Roll Set Point:	-0.133	Pitch Set Point:	-0.030	Yaw Set Point:	3.093	X_WP:	0.100	Y_WP:	0.000	Y_WP:	0.500	X:	0.736	Y:	-0.663	Z:	0.935	yaw:	-177.224	yaw rate:	1.960	Roll:	-17.518	Pitch:	20.669	Yaw:	-249.425	Thrust:	0.000
Time:	2.285	Roll Set Point:	-0.133	Pitch Set Point:	-0.030	Yaw Set Point:	3.094	X_WP:	0.100	Y_WP:	0.000	Y_WP:	0.500	X:	0.736	Y:	-0.663	Z:	0.935	yaw:	-177.247	yaw rate:	-2.342	Roll:	-18.174	Pitch:	20.159	Yaw:	-250.404	Thrust:	0.000
Time:	2.298	Roll Set Point:	-0.133	Pitch Set Point:	-0.030	Yaw Set Point:	3.093	X_WP:	0.100	Y_WP:	0.000	Y_WP:	0.500	X:	0.736	Y:	-0.663	Z:	0.935	yaw:	-177.232	yaw rate:	1.475	Roll:	-17.628	Pitch:	20.711	Yaw:	-249.768	Thrust:	0.000
Time:	2.310	Roll Set Point:	-0.133	Pitch Set Point:	-0.030	Yaw Set Point:	3.094	X_WP:	0.100	Y_WP:	0.000	Y_WP:	0.500	X:	0.736	Y:	-0.663	Z:	0.935	yaw:	-177.246	yaw rate:	-1.364	Roll:	-18.054	Pitch:	20.335	Yaw:	-250.185	Thrust:	0.000
Time:	2.323	Roll Set Point:	-0.133	Pitch Set Point:	-0.030	Yaw Set Point:	3.094	X_WP:	0.100	Y_WP:	0.000	Y_WP:	0.500	X:	0.736	Y:	-0.663	Z:	0.935	yaw:	-177.250	yaw rate:	-0.449	Roll:	-17.990	Pitch:	20.474	Yaw:	-250.185	Thrust:	0.000
Time:	2.335	Roll Set Point:	-0.133	Pitch Set Point:	-0.030	Yaw Set Point:	3.093	X_WP:	0.100	Y_WP:	0.000	Y_WP:	0.500	X:	0.736	Y:	-0.663	Z:	0.935	yaw:	-177.240	yaw rate:	1.035	Roll:	-17.748	Pitch:	20.656	Yaw:	-249.655	Thrust:	0.000
Time:	2.348	Roll Set Point:	-0.133	Pitch Set Point:	-0.030	Yaw Set Point:	3.093	X_WP:	0.100	Y_WP:	0.000	Y_WP:	0.500	X:	0.736	Y:	-0.663	Z:	0.935	yaw:	-177.232	yaw rate:	0.777	Roll:	-17.776	Pitch:	20.644	Yaw:	-249.700	Thrust:	0.000
Time:	2.360	Roll Set Point:	-0.133	Pitch Set Point:	-0.030	Yaw Set Point:	3.094	X_WP:	0.100	Y_WP:	0.000	Y_WP:	0.500	X:	0.736	Y:	-0.663	Z:	0.935	yaw:	-177.248	yaw rate:	-1.603	Roll:	-18.180	Pitch:	20.314	Yaw:	-250.240	Thrust:	0.000
Time:	2.372	Roll Set Point:	-0.133	Pitch Set Point:	-0.030	Yaw Set Point:	3.093	X_WP:	0.100	Y_WP:	0.000	Y_WP:	0.500	X:	0.736	Y:	-0.663	Z:	0.935	yaw:	-177.235	yaw rate:	1.357	Roll:	-17.720	Pitch:	20.730	Yaw:	-249.584	Thrust:	0.000
Time:	2.385	Roll Set Point:	-0.133	Pitch Set Point:	-0.030	Yaw Set Point:	3.094	X_WP:	0.100	Y_WP:	0.000	Y_WP:	0.500	X:	0.736	Y:	-0.663	Z:	0.935	yaw:	-177.247	yaw rate:	-0.687	Roll:	-18.154	Pitch:	20.428	Yaw:	-250.348	Thrust:	0.000
Time:	2.397	Roll Set Point:	-0.133	Pitch Set Point:	-0.030	Yaw Set Point:	3.093	X_WP:	0.100	Y_WP:	0.000	Y_WP:	0.500	X:	0.736	Y:	-0.663	Z:	0.935	yaw:	-177.236	yaw rate:	1.086	Roll:	-17.786	Pitch:	20.648	Yaw:	-249.617	Thrust:	0.000
Time:	2.409	Roll Set Point:	-0.133	Pitch Set Point:	-0.030	Yaw Set Point:	3.093	X_WP:	0.100	Y_WP:	0.000	Y_WP:	0.500	X:	0.736	Y:	-0.663	Z:	0.935	yaw:	-177.239	yaw rate:	-0.300	Roll:	-17.977	Pitch:	20.497	Yaw:	-249.943	Thrust:	0.000
Time:	2.422	Roll Set Point:	-0.133	Pitch Set Point:	-0.030	Yaw Set Point:	3.094	X_WP:	0.100	Y_WP:	0.000	Y_WP:	0.500	X:	0.736	Y:	-0.663	Z:	0.935	yaw:	-177.245	yaw rate:	-0.619	Roll:	-18.057	Pitch:	20.514	Yaw:	-250.214	Thrust:	0.000
Time:	2.435	Roll Set Point:	-0.133	Pitch Set Point:	-0.030	Yaw Set Point:	3.093	X_WP:	0.100	Y_WP:	0.000	Y_WP:	0.500	X:	0.736	Y:	-0.663	Z:	0.935	yaw:	-177.234	yaw rate:	1.078	Roll:	-17.832	Pitch:	20.695	Yaw:	-249.850	Thrust:	0.000
Time:	2.447	Roll Set Point:	-0.133	Pitch Set Point:	-0.030	Yaw Set Point:	3.093	X_WP:	0.100	Y_WP:	0.000	Y_WP:	0.500	X:	0.736	Y:	-0.663	Z:	0.935	yaw:	-177.237	yaw rate:	-0.316	Roll:	-17.979	Pitch:	20.497	Yaw:	-249.946	Thrust:	0.000
Time:	2.459	Roll Set Point:	-0.133	Pitch Set Point:	-0.030	Yaw Set Point:	3.093	X_WP:	0.100	Y_WP:	0.000	Y_WP:	0.500	X:	0.736	Y:	-0.663	Z:	0.935	yaw:	-177.238	yaw rate:	-0.058	Roll:	-17.997	Pitch:	20.512	Yaw:	-249.890	Thrust:	0.000
Time:	2.472	Roll Set Point:	-0.133	Pitch Set Point:	-0.030	Yaw Set Point:	3.094	X_WP:	0.100	Y_WP:	0.000	Y_WP:	0.500	X:	0.736	Y:	-0.663	Z:	0.935	yaw:	-177.247	yaw rate:	-0.895	Roll:	-18.092	Pitch:	20.457	Yaw:	-250.275	Thrust:	0.000
Time:	2.484	Roll Set Point:	-0.133	Pitch Set Point:	-0.030	Yaw Set Point:	3.093	X_WP:	0.100	Y_WP:	0.000	Y_WP:	0.500	X:	0.736	Y:	-0.663	Z:	0.935	yaw:	-177.229	yaw rate:	1.811	Roll:	-17.641	Pitch:	20.784	Yaw:	-249.471	Thrust:	0.000
Time:	2.497	Roll Set Point:	-0.133	Pitch Set Point:	-0.030	Yaw Set Point:	3.093	X_WP:	0.100	Y_WP:	0.000	Y_WP:	0.500	X:	0.736	Y:	-0.663	Z:	0.935	yaw:	-177.232	yaw rate:	0.314	Roll:	-18.003	Pitch:	20.550	Yaw:	-250.127	Thrust:	0.000
Time:	2.511	Roll Set Point:	-0.133	Pitch Set Point:	-0.030	Yaw Set Point:	3.094	X_WP:	0.100	Y_WP:	0.000	Y_WP:	0.500	X:	0.736	Y:	-0.663	Z:	0.935	yaw:	-177.249	yaw rate:	-1.692	Roll:	-18.250	Pitch:	20.403	Yaw:	-250.603	Thrust:	0.000
Time:	2.523	Roll Set Point:	-0.133	Pitch Set Point:	-0.030	Yaw Set Point:	3.093	X_WP:	0.100	Y_WP:	0.000	Y_WP:	0.500	X:	0.736	Y:	-0.663	Z:	0.935	yaw:	-177.243	yaw rate:	0.534	Roll:	-17.867	Pitch:	20.600	Yaw:	-249.769	Thrust:	0.000
Time:	2.535	Roll Set Point:	-0.133	Pitch Set Point:	-0.030	Yaw Set Point:	3.093	X_WP:	0.100	Y_WP:	0.000	Y_WP:	0.500	X:	0.736	Y:	-0.663	Z:	0.935	yaw:	-177.244	yaw rate:	-0.085	Roll:	-17.989	Pitch:	20.518	Yaw:	-249.909	Thrust:	0.000
Time:	2.547	Roll Set Point:	-0.133	Pitch Set Point:	-0.030	Yaw Set Point:	3.093	X_WP:	0.100	Y_WP:	0.000	Y_WP:	0.500	X:	0.736	Y:	-0.663	Z:	0.935	yaw:	-177.229	yaw rate:	1.520	Roll:	-17.651	Pitch:	20.733	Yaw:	-249.529	Thrust:	0.000
Time:	2.560	Roll Set Point:	-0.133	Pitch Set Point:	-0.030	Yaw Set Point:	3.093	X_WP:	0.100	Y_WP:	0.000	Y_WP:	0.500	X:	0.736	Y:	-0.663	Z:	0.935	yaw:	-177.240	yaw rate:	-1.106	Roll:	-18.174	Pitch:	20.434	Yaw:	-250.288	Thrust:	0.000
Time:	2.572	Roll Set Point:	-0.133	Pitch Set Point:	-0.030	Yaw Set Point:	3.093	X_WP:	0.100	Y_WP:	0.000	Y_WP:	0.500	X:	0.736	Y:	-0.663	Z:	0.935	yaw:	-177.236	yaw rate:	0.431	Roll:	-17.873	Pitch:	20.603	Yaw:	-249.785	Thrust:	0.000
Time:	2.584	Roll Set Point:	-0.133	Pitch Set Point:	-0.030	Yaw Set Point:	3.093	X_WP:	0.100	Y_WP:	0.000	Y_WP:	0.500	X:	0.736	Y:	-0.663	Z:	0.935	yaw:	-177.239	yaw rate:	-0.350	Roll:	-17.995	Pitch:	20.483	Yaw:	-249.951	Thrust:	0.000
Time:	2.596	Roll Set Point:	-0.133	Pitch Set Point:	-0.030	Yaw Set Point:	3.093	X_WP:	0.100	Y_WP:	0.000	Y_WP:	0.500	X:	0.736	Y:	-0.663	Z:	0.935	yaw:	-177.234	yaw rate:	0.549	Roll:	-17.848	Pitch:	20.601	Yaw:	-249.752	Thrust:	0.000
Time:	2.608	Roll Set Point:	-0.133	Pitch Set Point:	-0.030	Yaw Set Point:	3.093	X_WP:	0.100	Y_WP:	0.000	Y_WP:	0.500	X:	0.736	Y:	-0.663	Z:	0.935	yaw:	-177.243	yaw rate:	-0.915	Roll:	-18.086	Pitch:	20.406	Yaw:	-250.083	Thrust:	0.000
Time:	2.620	Roll Set Point:	-0.133	Pitch Set Point:	-0.030	Yaw Set Point:	3.093	X_WP:	0.100	Y_WP:	0.000	Y_WP:	0.500	X:	0.736	Y:	-0.663	Z:	0.935	yaw:	-177.241	yaw rate:	0.148	Roll:	-17.931	Pitch:	20.558	Yaw:	-249.850	Thrust:	0.000
Time:	2.633	Roll Set Point:	-0.133	Pitch Set Point:	-0.030	Yaw Set Point:	3.093	X_WP:	0.100	Y_WP:	0.000	Y_WP:	0.500	X:	0.736	Y:	-0.663	Z:	0.935	yaw:	-177.240	yaw rate:	0.138	Roll:	-17.940	Pitch:	20.577	Yaw:	-250.053	Thrust:	0.000
Time:	2.645	Roll Set Point:	-0.133	Pitch Set Point:	-0.030	Yaw Set Point:	3.093	X_WP:	0.100	Y_WP:	0.000	Y_WP:	0.500	X:	0.736	Y:	-0.663	Z:	0.935	yaw:	-177.234	yaw rate:	0.590	Roll:	-17.870	Pitch:	20.615	Yaw:	-249.744	Thrust:	0.000
Time:	2.657	Roll Set Point:	-0.133	Pitch Set Point:	-0.030	Yaw Set Point:	3.093	X_WP:	0.100	Y_WP:	0.000	Y_WP:	0.500	X:	0.736	Y:	-0.663	Z:	0.935	yaw:	-177.241	yaw rate:	-0.642	Roll:	-18.036	Pitch:	20.454	Yaw:	-250.021	Thrust:	0.000
Time:	2.669	Roll Set Point:	-0.133	Pitch Set Point:	-0.030	Yaw Set Point:	3.093	X_WP:	0.100	Y_WP:	0.000	Y_WP:	0.500	X:	0.736	Y:	-0.663	Z:	0.935	yaw:	-177.233	yaw rate:	0.749	Roll:	-17.809	Pitch:	20.628	Yaw:	-249.707	Thrust:	0.000
Time:	2.681	Roll Set Point:	-0.133	Pitch Set Point:	-0.030	Yaw Set Point:	3.094	X_WP:	0.100	Y_WP:	0.000	Y_WP:	0.500	X:	0.736	Y:	-0.663	Z:	0.935	yaw:	-177.249	yaw rate:	-1.571	Roll:	-18.207	Pitch:	20.336	Yaw:	-250.234	Thrust:	0.000
Time:	2.694	Roll Set Point:	-0.133	Pitch Set Point:	-0.030	Yaw Set Point:	3.093	X_WP:	0.100	Y_WP:	0.000	Y_WP:	0.500	X:	0.736	Y:	-0.663	Z:	0.935	yaw:	-177.230	yaw rate:	0.473	Roll:	-17.701	Pitch:	20.784	Yaw:	-249.712	Thrust:	0.000
Time:	2.706	Roll Set Point:	-0.133	Pitch Set Point:	-0.030	Yaw Set Point:	3.093	X_WP:	0.100	Y_WP:	0.000	Y_WP:	0.500	X:	0.736	Y:	-0.663	Z:	0.935	yaw:	-177.242	yaw rate:	-1.247	Roll:	-18.159	Pitch:	20.370	Yaw:	-250.151	Thrust:	0.000
Time:	2.719	Roll Set Point:	-0.133	Pitch Set Point:	-0.030	Yaw Set Point:	3.093	X_WP:	0.100	Y_WP:	0.000	Y_WP:	0.500	X:	0.736	Y:	-0.663	Z:	0.935	yaw:	-177.243	yaw rate:	-0.091	Roll:	-17.941	Pitch:	20.534	Yaw:	-249.905	Thrust:	0.000
Time:	2.731	Roll Set Point:	-0.133	Pitch Set Point:	-0.030	Yaw Set Point:	3.093	X_WP:	0.100	Y_WP:	0.000	Y_WP:	0.500	X:	0.736	Y:	-0.663	Z:	0.935	yaw:	-177.230	yaw rate:	1.268	Roll:	-17.726	Pitch:	20.701	Yaw:	-249.591	Thrust:	0.000
Time:	2.743	Roll Set Point:	-0.133	Pitch Set Point:	-0.030	Yaw Set Point:	3.093	X_WP:	0.100	Y_WP:	0.000	Y_WP:	0.500	X:	0.736	Y:	-0.663	Z:	0.935	yaw:	-177.241	yaw rate:	-1.104	Roll:	-18.100	Pitch:	20.408	Yaw:	-250.122	Thrust:	0.000
Time:	2.755	Roll Set Point:	-0.133	Pitch Set Point:	-0.030	Yaw Set Point:	3.094	X_WP:	0.100	Y_WP:	0.000	Y_WP:	0.500	X:	0.736	Y:	-0.663	Z:	0.935	yaw:	-177.251	yaw rate:	-0.940	Roll:	-18.119	Pitch:	20.395	Yaw:	-250.100	Thrust:	0.000
Time:	2.767	Roll Set Point:	-0.133	Pitch Set Point:	-0.030	Yaw Set Point:	3.093	X_WP:	0.100	Y_WP:	0.000	Y_WP:	0.500	X:	0.736	Y:	-0.663	Z:	0.935	yaw:	-177.235	yaw rate:	1.561	Roll:	-17.711	Pitch:	20.721	Yaw:	-249.534	Thrust:	0.000
Time:	2.781	Roll Set Point:	-0.133	Pitch Set Point:	-0.030	Yaw Set Point:	3.094	X_WP:	0.100	Y_WP:	0.000	Y_WP:	0.500	X:	0.736	Y:	-0.663	Z:	0.935	yaw:	-177.248	yaw rate:	-1.317	Roll:	-18.197	Pitch:	20.462	Yaw:	-250.534	Thrust:	0.000
Time:	2.793	Roll Set Point:	-0.133	Pitch Set Point:	-0.030	Yaw Set Point:	3.093	X_WP:	0.100	Y_WP:	0.000	Y_WP:	0.500	X:	0.736	Y:	-0.663	Z:	0.935	yaw:	-177.242	yaw rate:	0.601	Roll:	-17.826	Pitch:	20.619	Yaw:	-249.758	Thrust:	0.000
Time:	2.805	Roll Set Point:	-0.133	Pitch Set Point:	-0.030	Yaw Set Point:	3.093	X_WP:	0.100	Y_WP:	0.000	Y_WP:	0.500	X:	0.736	Y:	-0.663	Z:	0.935	yaw:	-177.233	yaw rate:	0.922	Roll:	-17.789	Pitch:	20.654	Yaw:	-249.670	Thrust:	0.000
Time:	2.817	Roll Set Point:	-0.133	Pitch Set Point:	-0.030	Yaw Set Point:	3.093	X_WP:	0.100	Y_WP:	0.000	Y_WP:	0.500	X:	0.736	Y:	-0.663	Z:	0.935	yaw:	-177.239	yaw rate:	-0.636	Roll:	-18.037	Pitch:	20.443	Yaw:	-250.013	Thrust:	0.000
Time:	2.829	Roll Set Point:	-0.133	Pitch Set Point:	-0.030	Yaw Set Point:	3.093	X_WP:	0.100	Y_WP:	0.000	Y_WP:	0.500	X:	0.736	Y:	-0.663	Z:	0.935	yaw:	-177.240	yaw rate:	-0.078	Roll:	-17.993	Pitch:	20.531	Yaw:	-249.982	Thrust:	0.000
Time:	2.842	Roll Set Point:	-0.133	Pitch Set Point:	-0.030	Yaw Set Point:	3.093	X_WP:	0.100	Y_WP:	0.000	Y_WP:	0.500	X:	0.736	Y:	-0.663	Z:	0.935	yaw:	-177.237	yaw rate:	0.287	Roll:	-17.918	Pitch:	20.589	Yaw:	-249.922	Thrust:	0.000
Time:	2.854	Roll Set Point:	-0.133	Pitch Set Point:	-0.030	Yaw Set Point:	3.093	X_WP:	0.100	Y_WP:	0.000	Y_WP:	0.500	X:	0.736	Y:	-0.663	Z:	0.935	yaw:	-177.244	yaw rate:	-0.691	Roll:	-18.046	Pitch:	20.443	Yaw:	-250.037	Thrust:	0.000
Time:	2.867	Roll Set Point:	-0.133	Pitch Set Point:	-0.030	Yaw Set Point:	3.093	X_WP:	0.100	Y_WP:	0.000	Y_WP:	0.500	X:	0.736	Y:	-0.663	Z:	0.935	yaw:	-177.232	yaw rate:	1.231	Roll:	-17.804	Pitch:	20.737	Yaw:	-249.816	Thrust:	0.000
Time:	2.879	Roll Set Point:	-0.133	Pitch Set Point:	-0.030	Yaw Set Point:	3.094	X_WP:	0.100	Y_WP:	0.000	Y_WP:	0.500	X:	0.736	Y:	-0.663	Z:	0.935	yaw:	-177.245	yaw rate:	-1.290	Roll:	-18.135	Pitch:	20.360	Yaw:	-250.172	Thrust:	0.000
Time:	2.892	Roll Set Point:	-0.133	Pitch Set Point:	-0.030	Yaw Set Point:	3.094	X_WP:	0.100	Y_WP:	0.000	Y_WP:	0.500	X:	0.736	Y:	-0.663	Z:	0.935	yaw:	-177.247	yaw rate:	-0.214	Roll:	-18.035	Pitch:	20.524	Yaw:	-250.133	Thrust:	0.000
Time:	2.904	Roll Set Point:	-0.133	Pitch Set Point:	-0.030	Yaw Set Point:	3.093	X_WP:	0.100	Y_WP:	0.000	Y_WP:	0.500	X:	0.736	Y:	-0.663	Z:	0.935	yaw:	-177.244	yaw rate:	-0.150	Roll:	-17.864	Pitch:	20.590	Yaw:	-249.815	Thrust:	0.000
Time:	2.916	Roll Set Point:	-0.133	Pitch Set Point:	-0.030	Yaw Set Point:	3.093	X_WP:	0.100	Y_WP:	0.000	Y_WP:	0.500	X:	0.736	Y:	-0.663	Z:	0.935	yaw:	-177.239	yaw rate:	0.493	Roll:	-17.870	Pitch:	20.597	Yaw:	-249.771	Thrust:	0.000
Time:	2.928	Roll Set Point:	-0.133	Pitch Set Point:	-0.030	Yaw Set Point:	3.093	X_WP:	0.100	Y_WP:	0.000	Y_WP:	0.500	X:	0.736	Y:	-0.663	Z:	0.935	yaw:	-177.240	yaw rate:	-0.105	Roll:	-17.942	Pitch:	20.514	Yaw:	-249.903	Thrust:	0.000
Time:	2.940	Roll Set Point:	-0.133	Pitch Set Point:	-0.030	Yaw Set Point:	3.093	X_WP:	0.100	Y_WP:	0.000	Y_WP:	0.500	X:	0.736	Y:	-0.663	Z:	0.935	yaw:	-177.236	yaw rate:	0.388	Roll:	-17.901	Pitch:	20.576	Yaw:	-249.790	Thrust:	0.000
Time:	2.952	Roll Set Point:	-0.133	Pitch Set Point:	-0.030	Yaw Set Point:	3.093	X_WP:	0.100	Y_WP:	0.000	Y_WP:	0.500	X:	0.736	Y:	-0.663	Z:	0.935	yaw:	-177.239	yaw rate:	-0.334	Roll:	-18.013	Pitch:	20.488	Yaw:	-249.952	Thrust:	0.000
Time:	2.964	Roll Set Point:	-0.133	Pitch Set Point:	-0.030	Yaw Set Point:	3.093	X_WP:	0.100	Y_WP:	0.000	Y_WP:	0.500	X:	0.736	Y:	-0.663	Z:	0.935	yaw:	-177.234	yaw rate:	0.582	Roll:	-17.870	Pitch:	20.614	Yaw:	-249.744	Thrust:	0.000
Time:	2.976	Roll Set Point:	-0.133	Pitch Set Point:	-0.030	Yaw Set Point:	3.093	X_WP:	0.100	Y_WP:	0.000	Y_WP:	0.500	X:	0.736	Y:	-0.663	Z:	0.935	yaw:	-177.237	yaw rate:	-0.383	Roll:	-17.979	Pitch:	20.499	Yaw:	-249.960	Thrust:	0.000
Time:	2.989	Roll Set Point:	-0.133	Pitch Set Point:	-0.030	Yaw Set Point:	3.093	X_WP:	0.100	Y_WP:	0.000	Y_WP:	0.500	X:	0.736	Y:	-0.663	Z:	0.935	yaw:	-177.244	yaw rate:	-0.645	Roll:	-18.051	Pitch:	20.495	Yaw:	-250.238	Thrust:	0.000
Time:	3.002	Roll Set Point:	-0.133	Pitch Set Point:	-0.030	Yaw Set Point:	3.094	X_WP:	0.100	Y_WP:	0.000	Y_WP:	0.500	X:	0.736	Y:	-0.663	Z:	0.935	yaw:	-177.247	yaw rate:	-1.243	Roll:	-18.067	Pitch:	20.508	Yaw:	-250.154	Thrust:	0.000
Time:	3.014	Roll Set Point:	-0.133	Pitch Set Point:	-0.030	Yaw Set Point:	3.093	X_WP:	0.100	Y_WP:	0.000	Y_WP:	0.500	X:	0.736	Y:	-0.663	Z:	0.935	yaw:	-177.237	yaw rate:	1.057	Roll:	-17.767	Pitch:	20.657	Yaw:	-249.645	Thrust:	0.000
Time:	3.027	Roll Set Point:	-0.133	Pitch Set Point:	-0.030	Yaw Set Point:	3.093	X_WP:	0.100	Y_WP:	0.000	Y_WP:	0.500	X:	0.736	Y:	-0.663	Z:	0.935	yaw:	-177.237	yaw rate:	-0.023	Roll:	-17.944	Pitch:	20.580	Yaw:	-250.081	Thrust:	0.000
Time:	3.039	Roll Set Point:	-0.133	Pitch Set Point:	-0.030	Yaw Set Point:	3.093	X_WP:	0.100	Y_WP:	0.000	Y_WP:	0.500	X:	0.736	Y:	-0.663	Z:	0.935	yaw:	-177.241	yaw rate:	-0.446	Roll:	-18.054	Pitch:	20.486	Yaw:	-249.979	Thrust:	0.000
Time:	3.051	Roll Set Point:	-0.133	Pitch Set Point:	-0.030	Yaw Set Point:	3.094	X_WP:	0.100	Y_WP:	0.000	Y_WP:	0.500	X:	0.736	Y:	-0.663	Z:	0.935	yaw:	-177.248	yaw rate:	-0.661	Roll:	-18.048	Pitch:	20.473	Yaw:	-250.039	Thrust:	0.000
Time:	3.063	Roll Set Point:	-0.133	Pitch Set Point:	-0.030	Yaw Set Point:	3.093	X_WP:	0.100	Y_WP:	0.000	Y_WP:	0.500	X:	0.736	Y:	-0.663	Z:	0.935	yaw:	-177.230	yaw rate:	1.752	Roll:	-17.663	Pitch:	20.745	Yaw:	-249.487	Thrust:	0.000
Time:	3.077	Roll Set Point:	-0.133	Pitch Set Point:	-0.030	Yaw Set Point:	3.093	X_WP:	0.100	Y_WP:	0.000	Y_WP:	0.500	X:	0.736	Y:	-0.663	Z:	0.935	yaw:	-177.244	yaw rate:	-1.340	Roll:	-18.165	Pitch:	20.402	Yaw:	-250.354	Thrust:	0.000
Time:	3.089	Roll Set Point:	-0.133	Pitch Set Point:	-0.030	Yaw Set Point:	3.093	X_WP:	0.100	Y_WP:	0.000	Y_WP:	0.500	X:	0.736	Y:	-0.663	Z:	0.935	yaw:	-177.236	yaw rate:	0.749	Roll:	-17.822	Pitch:	20.611	Yaw:	-249.707	Thrust:	0.000
Time:	3.101	Roll Set Point:	-0.133	Pitch Set Point:	-0.030	Yaw Set Point:	3.094	X_WP:	0.100	Y_WP:	0.000	Y_WP:	0.500	X:	0.736	Y:	-0.663	Z:	0.935	yaw:	-177.246	yaw rate:	-1.011	Roll:	-18.096	Pitch:	20.414	Yaw:	-250.114	Thrust:	0.000
Time:	3.114	Roll Set Point:	-0.133	Pitch Set Point:	-0.030	Yaw Set Point:	3.093	X_WP:	0.100	Y_WP:	0.000	Y_WP:	0.500	X:	0.736	Y:	-0.663	Z:	0.935	yaw:	-177.242	yaw rate:	0.411	Roll:	-17.940	Pitch:	20.625	Yaw:	-250.002	Thrust:	0.000
Time:	3.127	Roll Set Point:	-0.133	Pitch Set Point:	-0.030	Yaw Set Point:	3.094	X_WP:	0.100	Y_WP:	0.000	Y_WP:	0.500	X:	0.736	Y:	-0.663	Z:	0.935	yaw:	-177.245	yaw rate:	-0.224	Roll:	-17.993	Pitch:	20.548	Yaw:	-250.132	Thrust:	0.000
Time:	3.139	Roll Set Point:	-0.133	Pitch Set Point:	-0.030	Yaw Set Point:	3.093	X_WP:	0.100	Y_WP:	0.000	Y_WP:	0.500	X:	0.736	Y:	-0.663	Z:	0.935	yaw:	-177.228	yaw rate:	1.650	Roll:	-17.676	Pitch:	20.741	Yaw:	-249.498	Thrust:	0.000
Time:	3.151	Roll Set Point:	-0.133	Pitch Set Point:	-0.030	Yaw Set Point:	3.093	X_WP:	0.100	Y_WP:	0.000	Y_WP:	0.500	X:	0.736	Y:	-0.663	Z:	0.935	yaw:	-177.237	yaw rate:	-0.845	Roll:	-18.117	Pitch:	20.424	Yaw:	-250.059	Thrust:	0.000
Time:	3.163	Roll Set Point:	-0.133	Pitch Set Point:	-0.030	Yaw Set Point:	3.093	X_WP:	0.100	Y_WP:	0.000	Y_WP:	0.500	X:	0.736	Y:	-0.663	Z:	0.935	yaw:	-177.238	yaw rate:	-0.189	Roll:	-17.999	Pitch:	20.529	Yaw:	-250.063	Thrust:	0.000
Time:	3.176	Roll Set Point:	-0.133	Pitch Set Point:	-0.030	Yaw Set Point:	3.093	X_WP:	0.100	Y_WP:	0.000	Y_WP:	0.500	X:	0.736	Y:	-0.663	Z:	0.935	yaw:	-177.238	yaw rate:	0.064	Roll:	-17.950	Pitch:	20.580	Yaw:	-250.064	Thrust:	0.000
Time:	3.189	Roll Set Point:	-0.133	Pitch Set Point:	-0.030	Yaw Set Point:	3.093	X_WP:	0.100	Y_WP:	0.000	Y_WP:	0.500	X:	0.736	Y:	-0.663	Z:	0.935	yaw:	-177.238	yaw rate:	0.012	Roll:	-17.933	Pitch:	20.549	Yaw:	-249.875	Thrust:	0.000
Time:	3.201	Roll Set Point:	-0.133	Pitch Set Point:	-0.030	Yaw Set Point:	3.093	X_WP:	0.100	Y_WP:	0.000	Y_WP:	0.500	X:	0.736	Y:	-0.663	Z:	0.935	yaw:	-177.239	yaw rate:	-0.155	Roll:	-17.958	Pitch:	20.504	Yaw:	-249.912	Thrust:	0.000
Time:	3.213	Roll Set Point:	-0.133	Pitch Set Point:	-0.030	Yaw Set Point:	3.094	X_WP:	0.100	Y_WP:	0.000	Y_WP:	0.500	X:	0.736	Y:	-0.663	Z:	0.935	yaw:	-177.245	yaw rate:	-0.542	Roll:	-18.028	Pitch:	20.452	Yaw:	-250.004	Thrust:	0.000
Time:	3.226	Roll Set Point:	-0.133	Pitch Set Point:	-0.030	Yaw Set Point:	3.093	X_WP:	0.100	Y_WP:	0.000	Y_WP:	0.500	X:	0.736	Y:	-0.663	Z:	0.935	yaw:	-177.240	yaw rate:	-0.268	Roll:	-17.915	Pitch:	20.635	Yaw:	-249.978	Thrust:	0.000
Time:	3.238	Roll Set Point:	-0.133	Pitch Set Point:	-0.030	Yaw Set Point:	3.093	X_WP:	0.100	Y_WP:	0.000	Y_WP:	0.500	X:	0.736	Y:	-0.663	Z:	0.935	yaw:	-177.237	yaw rate:	0.251	Roll:	-17.903	Pitch:	20.569	Yaw:	-249.822	Thrust:	0.000
Time:	3.250	Roll Set Point:	-0.133	Pitch Set Point:	-0.030	Yaw Set Point:	3.093	X_WP:	0.100	Y_WP:	0.000	Y_WP:	0.500	X:	0.736	Y:	-0.663	Z:	0.935	yaw:	-177.231	yaw rate:	0.617	Roll:	-17.854	Pitch:	20.613	Yaw:	-249.732	Thrust:	0.000
Time:	3.262	Roll Set Point:	-0.133	Pitch Set Point:	-0.030	Yaw Set Point:	3.093	X_WP:	0.100	Y_WP:	0.000	Y_WP:	0.500	X:	0.736	Y:	-0.663	Z:	0.935	yaw:	-177.241	yaw rate:	-1.018	Roll:	-18.083	Pitch:	20.411	Yaw:	-250.104	Thrust:	0.000
Time:	3.274	Roll Set Point:	-0.133	Pitch Set Point:	-0.030	Yaw Set Point:	3.094	X_WP:	0.100	Y_WP:	0.000	Y_WP:	0.500	X:	0.736	Y:	-0.663	Z:	0.935	yaw:	-177.245	yaw rate:	-0.367	Roll:	-18.012	Pitch:	20.478	Yaw:	-249.963	Thrust:	0.000
Time:	3.287	Roll Set Point:	-0.133	Pitch Set Point:	-0.030	Yaw Set Point:	3.093	X_WP:	0.100	Y_WP:	0.000	Y_WP:	0.500	X:	0.736	Y:	-0.663	Z:	0.935	yaw:	-177.239	yaw rate:	0.537	Roll:	-17.903	Pitch:	20.629	Yaw:	-249.970	Thrust:	0.000
Time:	3.299	Roll Set Point:	-0.133	Pitch Set Point:	-0.030	Yaw Set Point:	3.093	X_WP:	0.100	Y_WP:	0.000	Y_WP:	0.500	X:	0.736	Y:	-0.663	Z:	0.935	yaw:	-177.242	yaw rate:	-0.293	Roll:	-17.979	Pitch:	20.487	Yaw:	-249.952	Thrust:	0.000
Time:	3.312	Roll Set Point:	-0.133	Pitch Set Point:	-0.030	Yaw Set Point:	3.093	X_WP:	0.100	Y_WP:	0.000	Y_WP:	0.500	X:	0.736	Y:	-0.663	Z:	0.935	yaw:	-177.241	yaw rate:	0.165	Roll:	-17.946	Pitch:	20.597	Yaw:	-250.048	Thrust:	0.000
Time:	3.324	Roll Set Point:	-0.133	Pitch Set Point:	-0.030	Yaw Set Point:	3.093	X_WP:	0.100	Y_WP:	0.000	Y_WP:	0.500	X:	0.736	Y:	-0.663	Z:	0.935	yaw:	-177.235	yaw rate:	0.539	Roll:	-17.859	Pitch:	20.609	Yaw:	-249.756	Thrust:	0.000
Time:	3.336	Roll Set Point:	-0.133	Pitch Set Point:	-0.030	Yaw Set Point:	3.093	X_WP:	0.100	Y_WP:	0.000	Y_WP:	0.500	X:	0.736	Y:	-0.663	Z:	0.935	yaw:	-177.241	yaw rate:	-0.584	Roll:	-18.053	Pitch:	20.457	Yaw:	-250.008	Thrust:	0.000
Time:	3.348	Roll Set Point:	-0.133	Pitch Set Point:	-0.030	Yaw Set Point:	3.093	X_WP:	0.100	Y_WP:	0.000	Y_WP:	0.500	X:	0.736	Y:	-0.663	Z:	0.935	yaw:	-177.241	yaw rate:	0.054	Roll:	-17.953	Pitch:	20.541	Yaw:	-249.869	Thrust:	0.000
Time:	3.360	Roll Set Point:	-0.133	Pitch Set Point:	-0.030	Yaw Set Point:	3.094	X_WP:	0.100	Y_WP:	0.000	Y_WP:	0.500	X:	0.736	Y:	-0.663	Z:	0.935	yaw:	-177.247	yaw rate:	-0.627	Roll:	-18.005	Pitch:	20.453	Yaw:	-250.026	Thrust:	0.000
Time:	3.372	Roll Set Point:	-0.133	Pitch Set Point:	-0.030	Yaw Set Point:	3.094	X_WP:	0.100	Y_WP:	0.000	Y_WP:	0.500	X:	0.736	Y:	-0.663	Z:	0.935	yaw:	-177.251	yaw rate:	-0.377	Roll:	-18.026	Pitch:	20.470	Yaw:	-249.977	Thrust:	0.000
Time:	3.384	Roll Set Point:	-0.133	Pitch Set Point:	-0.030	Yaw Set Point:	3.093	X_WP:	0.100	Y_WP:	0.000	Y_WP:	0.500	X:	0.736	Y:	-0.663	Z:	0.935	yaw:	-177.243	yaw rate:	0.710	Roll:	-17.834	Pitch:	20.615	Yaw:	-249.731	Thrust:	0.000
Time:	3.396	Roll Set Point:	-0.133	Pitch Set Point:	-0.030	Yaw Set Point:	3.093	X_WP:	0.100	Y_WP:	0.000	Y_WP:	0.500	X:	0.736	Y:	-0.663	Z:	0.935	yaw:	-177.229	yaw rate:	1.490	Roll:	-17.720	Pitch:	20.730	Yaw:	-249.540	Thrust:	0.000
Time:	3.409	Roll Set Point:	-0.133	Pitch Set Point:	-0.030	Yaw Set Point:	3.094	X_WP:	0.100	Y_WP:	0.000	Y_WP:	0.500	X:	0.736	Y:	-0.663	Z:	0.935	yaw:	-177.251	yaw rate:	-2.233	Roll:	-18.267	Pitch:	20.313	Yaw:	-250.540	Thrust:	0.000
Time:	3.423	Roll Set Point:	-0.133	Pitch Set Point:	-0.030	Yaw Set Point:	3.093	X_WP:	0.100	Y_WP:	0.000	Y_WP:	0.500	X:	0.736	Y:	-0.663	Z:	0.935	yaw:	-177.238	yaw rate:	-1.130	Roll:	-17.847	Pitch:	20.736	Yaw:	-249.960	Thrust:	0.000
Time:	3.435	Roll Set Point:	-0.133	Pitch Set Point:	-0.030	Yaw Set Point:	3.093	X_WP:	0.100	Y_WP:	0.000	Y_WP:	0.500	X:	0.736	Y:	-0.663	Z:	0.935	yaw:	-177.244	yaw rate:	-0.580	Roll:	-18.062	Pitch:	20.438	Yaw:	-250.012	Thrust:	0.000
Time:	3.447	Roll Set Point:	-0.133	Pitch Set Point:	-0.030	Yaw Set Point:	3.093	X_WP:	0.100	Y_WP:	0.000	Y_WP:	0.500	X:	0.736	Y:	-0.663	Z:	0.935	yaw:	-177.234	yaw rate:	1.012	Roll:	-17.780	Pitch:	20.666	Yaw:	-249.652	Thrust:	0.000
Time:	3.459	Roll Set Point:	-0.133	Pitch Set Point:	-0.030	Yaw Set Point:	3.093	X_WP:	0.100	Y_WP:	0.000	Y_WP:	0.500	X:	0.736	Y:	-0.663	Z:	0.935	yaw:	-177.240	yaw rate:	-0.618	Roll:	-18.004	Pitch:	20.471	Yaw:	-250.015	Thrust:	0.000
Time:	3.471	Roll Set Point:	-0.132	Pitch Set Point:	-0.030	Yaw Set Point:	3.094	X_WP:	0.100	Y_WP:	0.000	Y_WP:	0.500	X:	0.736	Y:	-0.663	Z:	0.935	yaw:	-177.253	yaw rate:	-1.262	Roll:	-18.139	Pitch:	20.363	Yaw:	-250.173	Thrust:	0.000
Time:	3.484	Roll Set Point:	-0.133	Pitch Set Point:	-0.030	Yaw Set Point:	3.094	X_WP:	0.100	Y_WP:	0.000	Y_WP:	0.500	X:	0.736	Y:	-0.663	Z:	0.935	yaw:	-177.249	yaw rate:	0.344	Roll:	-17.937	Pitch:	20.614	Yaw:	-250.025	Thrust:	0.000
Time:	3.496	Roll Set Point:	-0.133	Pitch Set Point:	-0.030	Yaw Set Point:	3.093	X_WP:	0.100	Y_WP:	0.000	Y_WP:	0.500	X:	0.736	Y:	-0.663	Z:	0.935	yaw:	-177.236	yaw rate:	1.375	Roll:	-17.732	Pitch:	20.705	Yaw:	-249.588	Thrust:	0.000
Time:	3.508	Roll Set Point:	-0.133	Pitch Set Point:	-0.030	Yaw Set Point:	3.094	X_WP:	0.100	Y_WP:	0.000	Y_WP:	0.500	X:	0.736	Y:	-0.663	Z:	0.935	yaw:	-177.247	yaw rate:	-1.122	Roll:	-18.122	Pitch:	20.369	Yaw:	-250.133	Thrust:	0.000
Time:	3.521	Roll Set Point:	-0.133	Pitch Set Point:	-0.030	Yaw Set Point:	3.093	X_WP:	0.100	Y_WP:	0.000	Y_WP:	0.500	X:	0.736	Y:	-0.663	Z:	0.935	yaw:	-177.240	yaw rate:	0.724	Roll:	-17.894	Pitch:	20.655	Yaw:	-249.935	Thrust:	0.000
Time:	3.533	Roll Set Point:	-0.133	Pitch Set Point:	-0.030	Yaw Set Point:	3.093	X_WP:	0.100	Y_WP:	0.000	Y_WP:	0.500	X:	0.736	Y:	-0.663	Z:	0.935	yaw:	-177.233	yaw rate:	0.687	Roll:	-17.823	Pitch:	20.645	Yaw:	-249.720	Thrust:	0.000
Time:	3.545	Roll Set Point:	-0.133	Pitch Set Point:	-0.030	Yaw Set Point:	3.094	X_WP:	0.100	Y_WP:	0.000	Y_WP:	0.500	X:	0.736	Y:	-0.663	Z:	0.935	yaw:	-177.246	yaw rate:	-1.298	Roll:	-18.134	Pitch:	20.378	Yaw:	-250.170	Thrust:	0.000
Time:	3.558	Roll Set Point:	-0.133	Pitch Set Point:	-0.030	Yaw Set Point:	3.094	X_WP:	0.100	Y_WP:	0.000	Y_WP:	0.500	X:	0.736	Y:	-0.663	Z:	0.935	yaw:	-177.246	yaw rate:	-0.272	Roll:	-18.006	Pitch:	20.563	Yaw:	-250.129	Thrust:	0.000
Time:	3.570	Roll Set Point:	-0.133	Pitch Set Point:	-0.030	Yaw Set Point:	3.093	X_WP:	0.100	Y_WP:	0.000	Y_WP:	0.500	X:	0.736	Y:	-0.663	Z:	0.935	yaw:	-177.235	yaw rate:	1.090	Roll:	-17.767	Pitch:	20.650	Yaw:	-249.635	Thrust:	0.000
Time:	3.582	Roll Set Point:	-0.133	Pitch Set Point:	-0.030	Yaw Set Point:	3.094	X_WP:	0.100	Y_WP:	0.000	Y_WP:	0.500	X:	0.736	Y:	-0.663	Z:	0.935	yaw:	-177.246	yaw rate:	-1.095	Roll:	-18.129	Pitch:	20.407	Yaw:	-250.131	Thrust:	0.000
Time:	3.595	Roll Set Point:	-0.133	Pitch Set Point:	-0.030	Yaw Set Point:	3.094	X_WP:	0.100	Y_WP:	0.000	Y_WP:	0.500	X:	0.736	Y:	-0.663	Z:	0.935	yaw:	-177.246	yaw rate:	-0.006	Roll:	-17.915	Pitch:	20.556	Yaw:	-249.903	Thrust:	0.000
Time:	3.607	Roll Set Point:	-0.133	Pitch Set Point:	-0.030	Yaw Set Point:	3.094	X_WP:	0.100	Y_WP:	0.000	Y_WP:	0.500	X:	0.736	Y:	-0.663	Z:	0.935	yaw:	-177.246	yaw rate:	-0.009	Roll:	-17.951	Pitch:	20.515	Yaw:	-249.890	Thrust:	0.000
Time:	3.619	Roll Set Point:	-0.133	Pitch Set Point:	-0.030	Yaw Set Point:	3.093	X_WP:	0.100	Y_WP:	0.000	Y_WP:	0.500	X:	0.736	Y:	-0.663	Z:	0.935	yaw:	-177.239	yaw rate:	0.669	Roll:	-17.836	Pitch:	20.632	Yaw:	-249.732	Thrust:	0.000
Time:	3.631	Roll Set Point:	-0.133	Pitch Set Point:	-0.030	Yaw Set Point:	3.094	X_WP:	0.100	Y_WP:	0.000	Y_WP:	0.500	X:	0.736	Y:	-0.663	Z:	0.935	yaw:	-177.250	yaw rate:	-1.079	Roll:	-18.155	Pitch:	20.365	Yaw:	-250.125	Thrust:	0.000
Time:	3.644	Roll Set Point:	-0.133	Pitch Set Point:	-0.030	Yaw Set Point:	3.093	X_WP:	0.100	Y_WP:	0.000	Y_WP:	0.500	X:	0.736	Y:	-0.663	Z:	0.935	yaw:	-177.233	yaw rate:	1.723	Roll:	-17.709	Pitch:	20.774	Yaw:	-249.724	Thrust:	0.000
Time:	3.656	Roll Set Point:	-0.133	Pitch Set Point:	-0.030	Yaw Set Point:	3.093	X_WP:	0.100	Y_WP:	0.000	Y_WP:	0.500	X:	0.736	Y:	-0.663	Z:	0.935	yaw:	-177.225	yaw rate:	0.750	Roll:	-17.826	Pitch:	20.633	Yaw:	-249.696	Thrust:	0.000
Time:	3.669	Roll Set Point:	-0.133	Pitch Set Point:	-0.030	Yaw Set Point:	3.094	X_WP:	0.100	Y_WP:	0.000	Y_WP:	0.500	X:	0.736	Y:	-0.663	Z:	0.935	yaw:	-177.245	yaw rate:	-0.030	Roll:	-18.243	Pitch:	20.354	Yaw:	-250.496	Thrust:	0.000
Time:	3.681	Roll Set Point:	-0.133	Pitch Set Point:	-0.030	Yaw Set Point:	3.094	X_WP:	0.100	Y_WP:	0.000	Y_WP:	0.500	X:	0.736	Y:	-0.663	Z:	0.935	yaw:	-177.245	yaw rate:	0.016	Roll:	-17.944	Pitch:	20.513	Yaw:	-249.884	Thrust:	0.000
Time:	3.693	Roll Set Point:	-0.133	Pitch Set Point:	-0.030	Yaw Set Point:	3.094	X_WP:	0.100	Y_WP:	0.000	Y_WP:	0.500	X:	0.736	Y:	-0.663	Z:	0.935	yaw:	-177.249	yaw rate:	-0.399	Roll:	-18.024	Pitch:	20.474	Yaw:	-249.980	Thrust:	0.000
Time:	3.705	Roll Set Point:	-0.133	Pitch Set Point:	-0.030	Yaw Set Point:	3.093	X_WP:	0.100	Y_WP:	0.000	Y_WP:	0.500	X:	0.736	Y:	-0.663	Z:	0.935	yaw:	-177.232	yaw rate:	1.695	Roll:	-17.694	Pitch:	20.737	Yaw:	-249.501	Thrust:	0.000
Time:	3.717	Roll Set Point:	-0.133	Pitch Set Point:	-0.030	Yaw Set Point:	3.093	X_WP:	0.100	Y_WP:	0.000	Y_WP:	0.500	X:	0.736	Y:	-0.663	Z:	0.935	yaw:	-177.231	yaw rate:	0.100	Roll:	-17.906	Pitch:	20.559	Yaw:	-249.846	Thrust:	0.000
Time:	3.730	Roll Set Point:	-0.133	Pitch Set Point:	-0.030	Yaw Set Point:	3.093	X_WP:	0.100	Y_WP:	0.000	Y_WP:	0.500	X:	0.736	Y:	-0.663	Z:	0.935	yaw:	-177.244	yaw rate:	-1.243	Roll:	-18.183	Pitch:	20.446	Yaw:	-250.377	Thrust:	0.000
Time:	3.742	Roll Set Point:	-0.133	Pitch Set Point:	-0.030	Yaw Set Point:	3.093	X_WP:	0.100	Y_WP:	0.000	Y_WP:	0.500	X:	0.736	Y:	-0.663	Z:	0.935	yaw:	-177.239	yaw rate:	0.448	Roll:	-17.851	Pitch:	20.592	Yaw:	-249.782	Thrust:	0.000
Time:	3.754	Roll Set Point:	-0.133	Pitch Set Point:	-0.030	Yaw Set Point:	3.093	X_WP:	0.100	Y_WP:	0.000	Y_WP:	0.500	X:	0.736	Y:	-0.663	Z:	0.935	yaw:	-177.237	yaw rate:	0.232	Roll:	-17.913	Pitch:	20.567	Yaw:	-249.820	Thrust:	0.000
Time:	3.767	Roll Set Point:	-0.133	Pitch Set Point:	-0.030	Yaw Set Point:	3.093	X_WP:	0.100	Y_WP:	0.000	Y_WP:	0.500	X:	0.736	Y:	-0.663	Z:	0.935	yaw:	-177.238	yaw rate:	-0.150	Roll:	-17.985	Pitch:	20.549	Yaw:	-250.108	Thrust:	0.000
Time:	3.779	Roll Set Point:	-0.133	Pitch Set Point:	-0.030	Yaw Set Point:	3.093	X_WP:	0.100	Y_WP:	0.000	Y_WP:	0.500	X:	0.736	Y:	-0.663	Z:	0.935	yaw:	-177.234	yaw rate:	0.775	Roll:	-17.889	Pitch:	20.584	Yaw:	-249.765	Thrust:	0.000
Time:	3.791	Roll Set Point:	-0.133	Pitch Set Point:	-0.030	Yaw Set Point:	3.093	X_WP:	0.100	Y_WP:	0.000	Y_WP:	0.500	X:	0.736	Y:	-0.663	Z:	0.935	yaw:	-177.236	yaw rate:	-0.279	Roll:	-17.964	Pitch:	20.498	Yaw:	-249.941	Thrust:	0.000
Time:	3.803	Roll Set Point:	-0.133	Pitch Set Point:	-0.030	Yaw Set Point:	3.094	X_WP:	0.100	Y_WP:	0.000	Y_WP:	0.500	X:	0.736	Y:	-0.663	Z:	0.935	yaw:	-177.246	yaw rate:	-0.926	Roll:	-18.100	Pitch:	20.415	Yaw:	-250.084	Thrust:	0.000
Time:	3.815	Roll Set Point:	-0.133	Pitch Set Point:	-0.030	Yaw Set Point:	3.093	X_WP:	0.100	Y_WP:	0.000	Y_WP:	0.500	X:	0.736	Y:	-0.663	Z:	0.935	yaw:	-177.234	yaw rate:	1.116	Roll:	-17.781	Pitch:	20.688	Yaw:	-249.635	Thrust:	0.000
Time:	3.828	Roll Set Point:	-0.133	Pitch Set Point:	-0.030	Yaw Set Point:	3.093	X_WP:	0.100	Y_WP:	0.000	Y_WP:	0.500	X:	0.736	Y:	-0.663	Z:	0.935	yaw:	-177.242	yaw rate:	-0.797	Roll:	-18.064	Pitch:	20.485	Yaw:	-250.245	Thrust:	0.000
