Time:	2.108	Roll Set Point:	-0.133	Pitch Set Point:	-0.030	Yaw Set Point:	3.094	X_WP:	0.100	Y_WP:	0.000	Y_WP:	0.500	X:	0.736	Y:	-0.663	Z:	0.935	yaw:	-177.245	yaw rate:	0.120	Roll:	-17.493	Pitch:	20.080	Yaw:	-247.481	Thrust:	0.000
Time:	2.122	Roll Set Point:	-0.133	Pitch Set Point:	-0.030	Yaw Set Point:	3.093	X_WP:	0.100	Y_WP:	0.000	Y_WP:	0.500	X:	0.736	Y:	-0.663	Z:	0.935	yaw:	-177.233	yaw rate:	1.182	Roll:	-17.338	Pitch:	20.236	Yaw:	-248.113	Thrust:	0.000
Time:	2.137	Roll Set Point:	-0.133	Pitch Set Point:	-0.030	Yaw Set Point:	3.093	X_WP:	0.100	Y_WP:	0.000	Y_WP:	0.500	X:	0.736	Y:	-0.663	Z:	0.935	yaw:	-177.232	yaw rate:	0.152	Roll:	-17.530	Pitch:	20.130	Yaw:	-249.201	Thrust:	0.000
Time:	2.151	Roll Set Point:	-0.133	Pitch Set Point:	-0.030	Yaw Set Point:	3.093	X_WP:	0.100	Y_WP:	0.000	Y_WP:	0.500	X:	0.736	Y:	-0.663	Z:	0.935	yaw:	-177.242	yaw rate:	-1.013	Roll:	-17.708	Pitch:	20.049	Yaw:	-250.323	Thrust:	0.000
Time:	2.165	Roll Set Point:	-0.133	Pitch Set Point:	-0.030	Yaw Set Point:	3.093	X_WP:	0.100	Y_WP:	0.000	Y_WP:	0.500	X:	0.736	Y:	-0.663	Z:	0.935	yaw:	-177.241	yaw rate:	0.199	Roll:	-17.525	Pitch:	20.198	Yaw:	-250.163	Thrust:	0.000
Time:	2.179	Roll Set Point:	-0.133	Pitch Set Point:	-0.030	Yaw Set Point:	3.094	X_WP:	0.100	Y_WP:	0.000	Y_WP:	0.500	X:	0.736	Y:	-0.663	Z:	0.935	yaw:	-177.250	yaw rate:	-0.875	Roll:	-17.719	Pitch:	20.102	Yaw:	-250.459	Thrust:	0.000
Time:	2.192	Roll Set Point:	-0.133	Pitch Set Point:	-0.030	Yaw Set Point:	3.094	X_WP:	0.100	Y_WP:	0.000	Y_WP:	0.500	X:	0.736	Y:	-0.663	Z:	0.935	yaw:	-177.251	yaw rate:	-0.098	Roll:	-17.647	Pitch:	20.203	Yaw:	-250.115	Thrust:	0.000
Time:	2.205	Roll Set Point:	-0.133	Pitch Set Point:	-0.030	Yaw Set Point:	3.093	X_WP:	0.100	Y_WP:	0.000	Y_WP:	0.500	X:	0.736	Y:	-0.663	Z:	0.935	yaw:	-177.243	yaw rate:	0.773	Roll:	-17.542	Pitch:	20.321	Yaw:	-249.924	Thrust:	0.000
Time:	2.219	Roll Set Point:	-0.133	Pitch Set Point:	-0.030	Yaw Set Point:	3.093	X_WP:	0.100	Y_WP:	0.000	Y_WP:	0.500	X:	0.736	Y:	-0.663	Z:	0.935	yaw:	-177.231	yaw rate:	1.150	Roll:	-17.479	Pitch:	20.406	Yaw:	-250.054	Thrust:	0.000
Time:	2.233	Roll Set Point:	-0.133	Pitch Set Point:	-0.030	Yaw Set Point:	3.093	X_WP:	0.100	Y_WP:	0.000	Y_WP:	0.500	X:	0.736	Y:	-0.663	Z:	0.935	yaw:	-177.238	yaw rate:	0.124	Roll:	-17.747	Pitch:	20.245	Yaw:	-250.394	Thrust:	0.000
Time:	2.248	Roll Set Point:	-0.132	Pitch Set Point:	-0.030	Yaw Set Point:	3.094	X_WP:	0.100	Y_WP:	0.000	Y_WP:	0.500	X:	0.736	Y:	-0.663	Z:	0.935	yaw:	-177.256	yaw rate:	-1.888	Roll:	-17.978	Pitch:	20.134	Yaw:	-250.833	Thrust:	0.000
Time:	2.261	Roll Set Point:	-0.133	Pitch Set Point:	-0.030	Yaw Set Point:	3.093	X_WP:	0.100	Y_WP:	0.000	Y_WP:	0.500	X:	0.736	Y:	-0.663	Z:	0.935	yaw:	-177.240	yaw rate:	1.665	Roll:	-17.507	Pitch:	20.522	Yaw:	-249.768	Thrust:	0.000
Time:	2.274	Roll Set Point:	-0.133	Pitch Set Point:	-0.030	Yaw Set Point:	3.093	X_WP:	0.100	Y_WP:	0.000	Y_WP:	0.500	X:	0.736	Y:	-0.663	Z:	0.935	yaw:	-177.237	yaw rate:	0.298	Roll:	-17.660	Pitch:	20.381	Yaw:	-249.997	Thrust:	0.000
Time:	2.288	Roll Set Point:	-0.133	Pitch Set Point:	-0.030	Yaw Set Point:	3.093	X_WP:	0.100	Y_WP:	0.000	Y_WP:	0.500	X:	0.736	Y:	-0.663	Z:	0.935	yaw:	-177.222	yaw rate:	1.472	Roll:	-17.547	Pitch:	20.571	Yaw:	-249.988	Thrust:	0.000
Time:	2.301	Roll Set Point:	-0.133	Pitch Set Point:	-0.030	Yaw Set Point:	3.094	X_WP:	0.100	Y_WP:	0.000	Y_WP:	0.500	X:	0.736	Y:	-0.663	Z:	0.935	yaw:	-177.250	yaw rate:	-2.805	Roll:	-18.184	Pitch:	20.070	Yaw:	-250.658	Thrust:	0.000
Time:	2.314	Roll Set Point:	-0.133	Pitch Set Point:	-0.030	Yaw Set Point:	3.093	X_WP:	0.100	Y_WP:	0.000	Y_WP:	0.500	X:	0.736	Y:	-0.663	Z:	0.935	yaw:	-177.241	yaw rate:	0.953	Roll:	-17.646	Pitch:	20.525	Yaw:	-249.890	Thrust:	0.000
Time:	2.327	Roll Set Point:	-0.133	Pitch Set Point:	-0.030	Yaw Set Point:	3.093	X_WP:	0.100	Y_WP:	0.000	Y_WP:	0.500	X:	0.736	Y:	-0.663	Z:	0.935	yaw:	-177.239	yaw rate:	0.163	Roll:	-17.778	Pitch:	20.465	Yaw:	-250.041	Thrust:	0.000
Time:	2.340	Roll Set Point:	-0.133	Pitch Set Point:	-0.030	Yaw Set Point:	3.093	X_WP:	0.100	Y_WP:	0.000	Y_WP:	0.500	X:	0.736	Y:	-0.663	Z:	0.935	yaw:	-177.238	yaw rate:	0.084	Roll:	-17.813	Pitch:	20.467	Yaw:	-250.066	Thrust:	0.000
Time:	2.353	Roll Set Point:	-0.133	Pitch Set Point:	-0.030	Yaw Set Point:	3.093	X_WP:	0.100	Y_WP:	0.000	Y_WP:	0.500	X:	0.736	Y:	-0.663	Z:	0.935	yaw:	-177.224	yaw rate:	1.396	Roll:	-17.624	Pitch:	20.670	Yaw:	-249.778	Thrust:	0.000
Time:	2.366	Roll Set Point:	-0.133	Pitch Set Point:	-0.030	Yaw Set Point:	3.093	X_WP:	0.100	Y_WP:	0.000	Y_WP:	0.500	X:	0.736	Y:	-0.663	Z:	0.935	yaw:	-177.242	yaw rate:	-1.785	Roll:	-18.158	Pitch:	20.304	Yaw:	-250.442	Thrust:	0.000
Time:	2.380	Roll Set Point:	-0.133	Pitch Set Point:	-0.030	Yaw Set Point:	3.093	X_WP:	0.100	Y_WP:	0.000	Y_WP:	0.500	X:	0.736	Y:	-0.663	Z:	0.935	yaw:	-177.238	yaw rate:	0.372	Roll:	-17.859	Pitch:	20.594	Yaw:	-250.209	Thrust:	0.000
Time:	2.394	Roll Set Point:	-0.133	Pitch Set Point:	-0.030	Yaw Set Point:	3.094	X_WP:	0.100	Y_WP:	0.000	Y_WP:	0.500	X:	0.736	Y:	-0.663	Z:	0.935	yaw:	-177.247	yaw rate:	-0.837	Roll:	-18.044	Pitch:	20.506	Yaw:	-250.447	Thrust:	0.000
Time:	2.407	Roll Set Point:	-0.133	Pitch Set Point:	-0.030	Yaw Set Point:	3.093	X_WP:	0.100	Y_WP:	0.000	Y_WP:	0.500	X:	0.736	Y:	-0.663	Z:	0.935	yaw:	-177.242	yaw rate:	0.509	Roll:	-17.866	Pitch:	20.612	Yaw:	-249.975	Thrust:	0.000
Time:	2.421	Roll Set Point:	-0.133	Pitch Set Point:	-0.030	Yaw Set Point:	3.094	X_WP:	0.100	Y_WP:	0.000	Y_WP:	0.500	X:	0.736	Y:	-0.663	Z:	0.935	yaw:	-177.250	yaw rate:	-0.881	Roll:	-18.034	Pitch:	20.500	Yaw:	-250.329	Thrust:	0.000
Time:	2.434	Roll Set Point:	-0.133	Pitch Set Point:	-0.030	Yaw Set Point:	3.094	X_WP:	0.100	Y_WP:	0.000	Y_WP:	0.500	X:	0.736	Y:	-0.663	Z:	0.935	yaw:	-177.250	yaw rate:	0.070	Roll:	-17.996	Pitch:	20.571	Yaw:	-250.080	Thrust:	0.000
Time:	2.448	Roll Set Point:	-0.133	Pitch Set Point:	-0.030	Yaw Set Point:	3.093	X_WP:	0.100	Y_WP:	0.000	Y_WP:	0.500	X:	0.736	Y:	-0.663	Z:	0.935	yaw:	-177.239	yaw rate:	-0.259	Roll:	-17.872	Pitch:	20.703	Yaw:	-250.088	Thrust:	0.000
Time:	2.462	Roll Set Point:	-0.133	Pitch Set Point:	-0.030	Yaw Set Point:	3.094	X_WP:	0.100	Y_WP:	0.000	Y_WP:	0.500	X:	0.736	Y:	-0.663	Z:	0.935	yaw:	-177.245	yaw rate:	-0.514	Roll:	-18.102	Pitch:	20.561	Yaw:	-250.413	Thrust:	0.000
Time:	2.476	Roll Set Point:	-0.133	Pitch Set Point:	-0.030	Yaw Set Point:	3.093	X_WP:	0.100	Y_WP:	0.000	Y_WP:	0.500	X:	0.736	Y:	-0.663	Z:	0.935	yaw:	-177.235	yaw rate:	0.946	Roll:	-17.874	Pitch:	20.727	Yaw:	-250.098	Thrust:	0.000
Time:	2.489	Roll Set Point:	-0.133	Pitch Set Point:	-0.030	Yaw Set Point:	3.093	X_WP:	0.100	Y_WP:	0.000	Y_WP:	0.500	X:	0.736	Y:	-0.663	Z:	0.935	yaw:	-177.243	yaw rate:	-0.814	Roll:	-18.085	Pitch:	20.466	Yaw:	-250.253	Thrust:	0.000
Time:	2.503	Roll Set Point:	-0.133	Pitch Set Point:	-0.030	Yaw Set Point:	3.094	X_WP:	0.100	Y_WP:	0.000	Y_WP:	0.500	X:	0.736	Y:	-0.663	Z:	0.935	yaw:	-177.248	yaw rate:	-0.433	Roll:	-18.095	Pitch:	20.548	Yaw:	-250.373	Thrust:	0.000
Time:	2.517	Roll Set Point:	-0.133	Pitch Set Point:	-0.030	Yaw Set Point:	3.093	X_WP:	0.100	Y_WP:	0.000	Y_WP:	0.500	X:	0.736	Y:	-0.663	Z:	0.935	yaw:	-177.243	yaw rate:	0.426	Roll:	-17.980	Pitch:	20.647	Yaw:	-250.201	Thrust:	0.000
Time:	2.530	Roll Set Point:	-0.133	Pitch Set Point:	-0.030	Yaw Set Point:	3.094	X_WP:	0.100	Y_WP:	0.000	Y_WP:	0.500	X:	0.736	Y:	-0.663	Z:	0.935	yaw:	-177.248	yaw rate:	-0.443	Roll:	-18.043	Pitch:	20.532	Yaw:	-250.181	Thrust:	0.000
Time:	2.543	Roll Set Point:	-0.133	Pitch Set Point:	-0.030	Yaw Set Point:	3.093	X_WP:	0.100	Y_WP:	0.000	Y_WP:	0.500	X:	0.736	Y:	-0.663	Z:	0.935	yaw:	-177.235	yaw rate:	1.287	Roll:	-17.768	Pitch:	20.717	Yaw:	-249.815	Thrust:	0.000
Time:	2.556	Roll Set Point:	-0.133	Pitch Set Point:	-0.030	Yaw Set Point:	3.093	X_WP:	0.100	Y_WP:	0.000	Y_WP:	0.500	X:	0.736	Y:	-0.663	Z:	0.935	yaw:	-177.237	yaw rate:	-0.218	Roll:	-17.993	Pitch:	20.550	Yaw:	-250.126	Thrust:	0.000
Time:	2.569	Roll Set Point:	-0.133	Pitch Set Point:	-0.030	Yaw Set Point:	3.093	X_WP:	0.100	Y_WP:	0.000	Y_WP:	0.500	X:	0.736	Y:	-0.663	Z:	0.935	yaw:	-177.242	yaw rate:	-0.460	Roll:	-18.104	Pitch:	20.501	Yaw:	-250.175	Thrust:	0.000
Time:	2.582	Roll Set Point:	-0.133	Pitch Set Point:	-0.030	Yaw Set Point:	3.093	X_WP:	0.100	Y_WP:	0.000	Y_WP:	0.500	X:	0.736	Y:	-0.663	Z:	0.935	yaw:	-177.243	yaw rate:	-0.167	Roll:	-17.994	Pitch:	20.561	Yaw:	-250.113	Thrust:	0.000
Time:	2.596	Roll Set Point:	-0.133	Pitch Set Point:	-0.030	Yaw Set Point:	3.093	X_WP:	0.100	Y_WP:	0.000	Y_WP:	0.500	X:	0.736	Y:	-0.663	Z:	0.935	yaw:	-177.233	yaw rate:	0.997	Roll:	-17.857	Pitch:	20.723	Yaw:	-250.092	Thrust:	0.000
Time:	2.609	Roll Set Point:	-0.133	Pitch Set Point:	-0.030	Yaw Set Point:	3.093	X_WP:	0.100	Y_WP:	0.000	Y_WP:	0.500	X:	0.736	Y:	-0.663	Z:	0.935	yaw:	-177.237	yaw rate:	-0.321	Roll:	-18.031	Pitch:	20.527	Yaw:	-250.135	Thrust:	0.000
Time:	2.622	Roll Set Point:	-0.133	Pitch Set Point:	-0.030	Yaw Set Point:	3.093	X_WP:	0.100	Y_WP:	0.000	Y_WP:	0.500	X:	0.736	Y:	-0.663	Z:	0.935	yaw:	-177.238	yaw rate:	-0.136	Roll:	-18.033	Pitch:	20.560	Yaw:	-250.105	Thrust:	0.000
Time:	2.635	Roll Set Point:	-0.133	Pitch Set Point:	-0.030	Yaw Set Point:	3.094	X_WP:	0.100	Y_WP:	0.000	Y_WP:	0.500	X:	0.736	Y:	-0.663	Z:	0.935	yaw:	-177.251	yaw rate:	-1.325	Roll:	-18.154	Pitch:	20.395	Yaw:	-250.362	Thrust:	0.000
Time:	2.648	Roll Set Point:	-0.133	Pitch Set Point:	-0.030	Yaw Set Point:	3.094	X_WP:	0.100	Y_WP:	0.000	Y_WP:	0.500	X:	0.736	Y:	-0.663	Z:	0.935	yaw:	-177.249	yaw rate:	0.250	Roll:	-17.918	Pitch:	20.610	Yaw:	-250.048	Thrust:	0.000
Time:	2.662	Roll Set Point:	-0.133	Pitch Set Point:	-0.030	Yaw Set Point:	3.094	X_WP:	0.100	Y_WP:	0.000	Y_WP:	0.500	X:	0.736	Y:	-0.663	Z:	0.935	yaw:	-177.247	yaw rate:	-0.034	Roll:	-18.011	Pitch:	20.622	Yaw:	-250.255	Thrust:	0.000
Time:	2.676	Roll Set Point:	-0.133	Pitch Set Point:	-0.030	Yaw Set Point:	3.093	X_WP:	0.100	Y_WP:	0.000	Y_WP:	0.500	X:	0.736	Y:	-0.663	Z:	0.935	yaw:	-177.240	yaw rate:	0.657	Roll:	-17.950	Pitch:	20.681	Yaw:	-250.153	Thrust:	0.000
Time:	2.689	Roll Set Point:	-0.133	Pitch Set Point:	-0.030	Yaw Set Point:	3.094	X_WP:	0.100	Y_WP:	0.000	Y_WP:	0.500	X:	0.736	Y:	-0.663	Z:	0.935	yaw:	-177.251	yaw rate:	-1.068	Roll:	-18.136	Pitch:	20.434	Yaw:	-250.315	Thrust:	0.000
Time:	2.702	Roll Set Point:	-0.133	Pitch Set Point:	-0.030	Yaw Set Point:	3.093	X_WP:	0.100	Y_WP:	0.000	Y_WP:	0.500	X:	0.736	Y:	-0.663	Z:	0.935	yaw:	-177.239	yaw rate:	1.180	Roll:	-17.821	Pitch:	20.694	Yaw:	-249.843	Thrust:	0.000
Time:	2.716	Roll Set Point:	-0.133	Pitch Set Point:	-0.030	Yaw Set Point:	3.093	X_WP:	0.100	Y_WP:	0.000	Y_WP:	0.500	X:	0.736	Y:	-0.663	Z:	0.935	yaw:	-177.230	yaw rate:	0.920	Roll:	-17.877	Pitch:	20.732	Yaw:	-250.095	Thrust:	0.000
Time:	2.731	Roll Set Point:	-0.133	Pitch Set Point:	-0.030	Yaw Set Point:	3.093	X_WP:	0.100	Y_WP:	0.000	Y_WP:	0.500	X:	0.736	Y:	-0.663	Z:	0.935	yaw:	-177.237	yaw rate:	1.552	Roll:	-18.099	Pitch:	20.536	Yaw:	-250.402	Thrust:	0.000
Time:	2.744	Roll Set Point:	-0.133	Pitch Set Point:	-0.030	Yaw Set Point:	3.093	X_WP:	0.100	Y_WP:	0.000	Y_WP:	0.500	X:	0.736	Y:	-0.663	Z:	0.935	yaw:	-177.233	yaw rate:	0.323	Roll:	-17.930	Pitch:	20.600	Yaw:	-250.006	Thrust:	0.000
Time:	2.757	Roll Set Point:	-0.133	Pitch Set Point:	-0.030	Yaw Set Point:	3.093	X_WP:	0.100	Y_WP:	0.000	Y_WP:	0.500	X:	0.736	Y:	-0.663	Z:	0.935	yaw:	-177.242	yaw rate:	-0.864	Roll:	-18.123	Pitch:	20.459	Yaw:	-250.256	Thrust:	0.000
Time:	2.770	Roll Set Point:	-0.133	Pitch Set Point:	-0.030	Yaw Set Point:	3.093	X_WP:	0.100	Y_WP:	0.000	Y_WP:	0.500	X:	0.736	Y:	-0.663	Z:	0.935	yaw:	-177.241	yaw rate:	0.075	Roll:	-17.970	Pitch:	20.591	Yaw:	-250.067	Thrust:	0.000
Time:	2.783	Roll Set Point:	-0.133	Pitch Set Point:	-0.030	Yaw Set Point:	3.093	X_WP:	0.100	Y_WP:	0.000	Y_WP:	0.500	X:	0.736	Y:	-0.663	Z:	0.935	yaw:	-177.241	yaw rate:	0.037	Roll:	-17.974	Pitch:	20.578	Yaw:	-250.074	Thrust:	0.000
Time:	2.796	Roll Set Point:	-0.133	Pitch Set Point:	-0.030	Yaw Set Point:	3.093	X_WP:	0.100	Y_WP:	0.000	Y_WP:	0.500	X:	0.736	Y:	-0.663	Z:	0.935	yaw:	-177.242	yaw rate:	-0.133	Roll:	-17.965	Pitch:	20.569	Yaw:	-250.110	Thrust:	0.000
Time:	2.810	Roll Set Point:	-0.133	Pitch Set Point:	-0.030	Yaw Set Point:	3.093	X_WP:	0.100	Y_WP:	0.000	Y_WP:	0.500	X:	0.736	Y:	-0.663	Z:	0.935	yaw:	-177.238	yaw rate:	0.373	Roll:	-17.997	Pitch:	20.626	Yaw:	-250.204	Thrust:	0.000
Time:	2.823	Roll Set Point:	-0.133	Pitch Set Point:	-0.030	Yaw Set Point:	3.093	X_WP:	0.100	Y_WP:	0.000	Y_WP:	0.500	X:	0.736	Y:	-0.663	Z:	0.935	yaw:	-177.244	yaw rate:	0.090	Roll:	-18.056	Pitch:	20.520	Yaw:	-250.189	Thrust:	0.000
Time:	2.836	Roll Set Point:	-0.133	Pitch Set Point:	-0.030	Yaw Set Point:	3.094	X_WP:	0.100	Y_WP:	0.000	Y_WP:	0.500	X:	0.736	Y:	-0.663	Z:	0.935	yaw:	-177.250	yaw rate:	-0.608	Roll:	-18.088	Pitch:	20.479	Yaw:	-250.216	Thrust:	0.000
Time:	2.849	Roll Set Point:	-0.133	Pitch Set Point:	-0.030	Yaw Set Point:	3.093	X_WP:	0.100	Y_WP:	0.000	Y_WP:	0.500	X:	0.736	Y:	-0.663	Z:	0.935	yaw:	-177.230	yaw rate:	1.948	Roll:	-17.650	Pitch:	20.823	Yaw:	-249.682	Thrust:	0.000
Time:	2.863	Roll Set Point:	-0.133	Pitch Set Point:	-0.030	Yaw Set Point:	3.093	X_WP:	0.100	Y_WP:	0.000	Y_WP:	0.500	X:	0.736	Y:	-0.663	Z:	0.935	yaw:	-177.235	yaw rate:	-0.454	Roll:	-18.076	Pitch:	20.570	Yaw:	-250.357	Thrust:	0.000
Time:	2.877	Roll Set Point:	-0.132	Pitch Set Point:	-0.030	Yaw Set Point:	3.094	X_WP:	0.100	Y_WP:	0.000	Y_WP:	0.500	X:	0.736	Y:	-0.663	Z:	0.935	yaw:	-177.252	yaw rate:	-0.790	Roll:	-18.291	Pitch:	20.396	Yaw:	-250.619	Thrust:	0.000
Time:	2.891	Roll Set Point:	-0.133	Pitch Set Point:	-0.030	Yaw Set Point:	3.093	X_WP:	0.100	Y_WP:	0.000	Y_WP:	0.500	X:	0.736	Y:	-0.663	Z:	0.935	yaw:	-177.236	yaw rate:	1.645	Roll:	-17.788	Pitch:	20.781	Yaw:	-249.974	Thrust:	0.000
Time:	2.904	Roll Set Point:	-0.133	Pitch Set Point:	-0.030	Yaw Set Point:	3.093	X_WP:	0.100	Y_WP:	0.000	Y_WP:	0.500	X:	0.736	Y:	-0.663	Z:	0.935	yaw:	-177.234	yaw rate:	0.171	Roll:	-17.949	Pitch:	20.601	Yaw:	-250.038	Thrust:	0.000
Time:	2.918	Roll Set Point:	-0.133	Pitch Set Point:	-0.030	Yaw Set Point:	3.093	X_WP:	0.100	Y_WP:	0.000	Y_WP:	0.500	X:	0.736	Y:	-0.663	Z:	0.935	yaw:	-177.236	yaw rate:	-0.238	Roll:	-18.035	Pitch:	20.589	Yaw:	-250.314	Thrust:	0.000
Time:	2.932	Roll Set Point:	-0.133	Pitch Set Point:	-0.030	Yaw Set Point:	3.093	X_WP:	0.100	Y_WP:	0.000	Y_WP:	0.500	X:	0.736	Y:	-0.663	Z:	0.935	yaw:	-177.232	yaw rate:	0.428	Roll:	-17.975	Pitch:	20.663	Yaw:	-250.190	Thrust:	0.000
Time:	2.946	Roll Set Point:	-0.133	Pitch Set Point:	-0.030	Yaw Set Point:	3.093	X_WP:	0.100	Y_WP:	0.000	Y_WP:	0.500	X:	0.736	Y:	-0.663	Z:	0.935	yaw:	-177.244	yaw rate:	0.061	Roll:	-18.193	Pitch:	20.447	Yaw:	-250.521	Thrust:	0.000
Time:	2.961	Roll Set Point:	-0.133	Pitch Set Point:	-0.030	Yaw Set Point:	3.093	X_WP:	0.100	Y_WP:	0.000	Y_WP:	0.500	X:	0.736	Y:	-0.663	Z:	0.935	yaw:	-177.240	yaw rate:	0.461	Roll:	-17.978	Pitch:	20.702	Yaw:	-250.396	Thrust:	0.000
Time:	2.974	Roll Set Point:	-0.133	Pitch Set Point:	-0.030	Yaw Set Point:	3.093	X_WP:	0.100	Y_WP:	0.000	Y_WP:	0.500	X:	0.736	Y:	-0.663	Z:	0.935	yaw:	-177.234	yaw rate:	0.550	Roll:	-17.902	Pitch:	20.642	Yaw:	-249.969	Thrust:	0.000
Time:	2.987	Roll Set Point:	-0.133	Pitch Set Point:	-0.030	Yaw Set Point:	3.093	X_WP:	0.100	Y_WP:	0.000	Y_WP:	0.500	X:	0.736	Y:	-0.663	Z:	0.935	yaw:	-177.242	yaw rate:	-0.739	Roll:	-18.087	Pitch:	20.485	Yaw:	-250.226	Thrust:	0.000
Time:	3.001	Roll Set Point:	-0.133	Pitch Set Point:	-0.030	Yaw Set Point:	3.093	X_WP:	0.100	Y_WP:	0.000	Y_WP:	0.500	X:	0.736	Y:	-0.663	Z:	0.935	yaw:	-177.234	yaw rate:	0.887	Roll:	-17.923	Pitch:	20.692	Yaw:	-250.134	Thrust:	0.000
Time:	3.015	Roll Set Point:	-0.133	Pitch Set Point:	-0.030	Yaw Set Point:	3.094	X_WP:	0.100	Y_WP:	0.000	Y_WP:	0.500	X:	0.736	Y:	-0.663	Z:	0.935	yaw:	-177.246	yaw rate:	-1.202	Roll:	-18.177	Pitch:	20.467	Yaw:	-250.509	Thrust:	0.000
Time:	3.029	Roll Set Point:	-0.133	Pitch Set Point:	-0.030	Yaw Set Point:	3.094	X_WP:	0.100	Y_WP:	0.000	Y_WP:	0.500	X:	0.736	Y:	-0.663	Z:	0.935	yaw:	-177.246	yaw rate:	-0.053	Roll:	-18.023	Pitch:	20.603	Yaw:	-250.306	Thrust:	0.000
Time:	3.043	Roll Set Point:	-0.133	Pitch Set Point:	-0.030	Yaw Set Point:	3.093	X_WP:	0.100	Y_WP:	0.000	Y_WP:	0.500	X:	0.736	Y:	-0.663	Z:	0.935	yaw:	-177.240	yaw rate:	0.633	Roll:	-17.946	Pitch:	20.676	Yaw:	-250.163	Thrust:	0.000
Time:	3.056	Roll Set Point:	-0.133	Pitch Set Point:	-0.030	Yaw Set Point:	3.093	X_WP:	0.100	Y_WP:	0.000	Y_WP:	0.500	X:	0.736	Y:	-0.663	Z:	0.935	yaw:	-177.244	yaw rate:	-0.355	Roll:	-18.024	Pitch:	20.530	Yaw:	-250.157	Thrust:	0.000
Time:	3.070	Roll Set Point:	-0.133	Pitch Set Point:	-0.030	Yaw Set Point:	3.094	X_WP:	0.100	Y_WP:	0.000	Y_WP:	0.500	X:	0.736	Y:	-0.663	Z:	0.935	yaw:	-177.246	yaw rate:	-0.256	Roll:	-18.049	Pitch:	20.571	Yaw:	-250.332	Thrust:	0.000
